time(millisecond),datetime(utc),latitude,longitude,height_above_takeoff(feet),height_above_ground_at_drone_location(feet),ground_elevation_at_drone_location(feet),altitude_above_seaLevel(feet),height_sonar(feet),speed(mph),distance(feet),mileage(feet),satellites,gpslevel,voltage(v),max_altitude(feet),max_ascent(feet),max_speed(mph),max_distance(feet), xSpeed(mph), ySpeed(mph), zSpeed(mph), compass_heading(degrees), pitch(degrees), roll(degrees),isPhoto,isVideo,rc_elevator,rc_aileron,rc_throttle,rc_rudder,rc_elevator(percent),rc_aileron(percent),rc_throttle(percent),rc_rudder(percent),gimbal_heading(degrees),gimbal_pitch(degrees),gimbal_roll(degrees),battery_percent,voltageCell1,voltageCell2,voltageCell3,voltageCell4,voltageCell5,voltageCell6,current(A),battery_temperature(f),altitude(feet),ascent(feet),flycStateRaw,flycState,message
74400,2022-08-15 23:33:25,0,0,0,,,3.28084E-5,0.328084,0,0,0,0,0,0,3.28084E-5,0,0,0,0,0,0,310.8, 2.6, -0.3,0,0,364,364,364,1684,-100,-100,-100,100,310.8,0,0,86,4.181,4.173,0,0,0,0,0,88.34,3.28084E-5,0,41,Motors_Started,
74500,2022-08-15 23:33:25,0,0,0,,,3.28084E-5,0.328084,0,0,0,0,0,0,3.28084E-5,0,0,0,0,0,0,310.8, 2.6, -0.3,0,0,364,364,364,1684,-100,-100,-100,100,310.8,0,0,86,4.181,4.173,0,0,0,0,0,88.34,3.28084E-5,0,41,Motors_Started,
74600,2022-08-15 23:33:25,0,0,0,,,3.28084E-5,0.328084,0,0,0,0,0,0,3.28084E-5,0,0,0,0,0,0,310.8, 2.6, -0.3,0,0,364,364,364,1684,-100,-100,-100,100,310.8,0,0,86,4.181,4.173,0,0,0,0,0,88.34,3.28084E-5,0,41,Motors_Started,
74700,2022-08-15 23:33:25,0,0,0,,,3.28084E-5,0.328084,0,0,0,0,0,0,3.28084E-5,0,0,0,0,0,0,310.8, 2.6, -0.3,0,0,364,364,364,1684,-100,-100,-100,100,310.8,0,0,86,4.181,4.173,0,0,0,0,0,88.34,3.28084E-5,0,41,Motors_Started,
74800,2022-08-15 23:33:25,0,0,0,,,3.28084E-5,0.328084,0,0,0,0,0,0,3.28084E-5,0,0,0,0,0,0,310.8, 2.6, -0.3,0,0,364,364,364,1684,-100,-100,-100,100,310.8,0,0,86,4.181,4.173,0,0,0,0,0,88.34,3.28084E-5,0,41,Motors_Started,
74900,2022-08-15 23:33:25,0,0,0,,,3.28084E-5,0.328084,0,0,0,0,0,0,3.28084E-5,0,0,0,0,0,0,310.8, 2.6, -0.3,0,0,1024,902,1024,1024,0,-18,0,0,310.8,0,0,86,4.181,4.173,0,0,0,0,0,88.34,3.28084E-5,0,41,Motors_Started,
75000,2022-08-15 23:33:25,0,0,0,,,3.28084E-5,0.328084,0,0,0,0,0,0,3.28084E-5,0,0,0,0,0,0,310.8, 2.6, -0.3,0,0,1024,1024,1024,1024,0,0,0,0,310.8,0,0,86,4.181,4.173,0,0,0,0,0,88.34,3.28084E-5,0,41,Motors_Started,
75100,2022-08-15 23:33:26,0,0,0,,,3.28084E-5,0.328084,0,0,0,0,0,0,3.28084E-5,0,0,0,0,0,0,310.8, 2.6, -0.3,0,0,1024,1024,1024,1024,0,0,0,0,310.8,0,0,86,4.181,4.173,0,0,0,0,0,88.34,3.28084E-5,0,41,Motors_Started,
75200,2022-08-15 23:33:26,0,0,0,,,3.28084E-5,0.328084,0,0,0,0,0,0,3.28084E-5,0,0,0,0,0,0,310.8, 2.6, -0.3,0,0,1024,1024,1024,1024,0,0,0,0,310.8,0,0,86,4.181,4.173,0,0,0,0,0,88.34,3.28084E-5,0,41,Motors_Started,"Setting new Return-To-Home altitude to 15m (49 ft). Data Recorder File Index is 73. Setting new Maximum Flight Altitude to 30m (98 ft)"
75300,2022-08-15 23:33:26,0,0,0.328084,,,0.3281168084,0.328084,0,0,0,0,0,0,0.3281168084,0.328084,0,0,0,0,0,310.8, 2.6, -0.3,0,0,1024,1024,1024,1024,0,0,0,0,310.8,0,0,86,4.181,4.173,0,0,0,0,0,88.34,0.3281168084,0.328084,41,Motors_Started,
75400,2022-08-15 23:33:26,0,0,0.328084,,,0.3281168084,0.328084,0,0,0,0,0,8.349,0.3281168084,0.328084,0,0,0,0,0,310.8, 2.6, -0.3,0,0,1024,1024,1024,1024,0,0,0,0,310.8,0,0,86,4.168,4.158,0,0,0,0,0.613,88.34,0.3281168084,0.328084,41,Motors_Started,
75500,2022-08-15 23:33:26,0,0,0.328084,,,0.3281168084,0.328084,0,0,0,0,0,8.349,0.3281168084,0.328084,0,0,0,0,0,310.8, 2.6, -0.3,0,0,1024,1024,1024,1024,0,0,0,0,310.8,0,0,86,4.168,4.158,0,0,0,0,0.613,88.34,0.3281168084,0.328084,10,Assisted_Takeoff,
75600,2022-08-15 23:33:26,0,0,0.328084,,,0.3281168084,0.328084,0,0,0,0,0,8.349,0.3281168084,0.328084,0,0,0,0,0,310.8, 2.6, -0.3,0,0,1024,1024,1024,1024,0,0,0,0,310.8,0,0,86,4.168,4.158,0,0,0,0,0.613,88.34,0.3281168084,0.328084,10,Assisted_Takeoff,
75700,2022-08-15 23:33:26,0,0,0.328084,,,0.3281168084,0.328084,0,0,0,0,0,8.349,0.3281168084,0.328084,0,0,0,0,0,310.8, 2.6, -0.3,0,0,1024,1024,1024,1024,0,0,0,0,310.8,0,0,86,4.168,4.158,0,0,0,0,0.613,88.34,0.3281168084,0.328084,10,Assisted_Takeoff,
75800,2022-08-15 23:33:26,0,0,0.328084,,,0.3281168084,0.328084,0,0,0,0,0,8.349,0.3281168084,0.328084,0,0,0,0,0,310.9, 2.6, -0.3,0,0,1024,1024,1024,1024,0,0,0,0,310.8,0,0,86,4.168,4.158,0,0,0,0,0.613,88.34,0.3281168084,0.328084,10,Assisted_Takeoff,
75900,2022-08-15 23:33:26,0,0,0.328084,,,0.3281168084,0.328084,0,0,0,0,0,8.349,0.3281168084,0.328084,0,0,0,0,0,310.9, 2.6, -0.3,0,0,1024,1024,1024,1024,0,0,0,0,310.8,0,0,86,4.168,4.158,0,0,0,0,0.613,88.34,0.3281168084,0.328084,10,Assisted_Takeoff,
76000,2022-08-15 23:33:26,0,0,0.328084,,,0.3281168084,0.328084,0,0,0,0,0,8.349,0.3281168084,0.328084,0,0,0,0,0,311, 2.6, -0.3,0,0,1024,1024,1024,1024,0,0,0,0,310.9,0,0,86,4.168,4.158,0,0,0,0,0.613,88.34,0.3281168084,0.328084,10,Assisted_Takeoff,
76100,2022-08-15 23:33:27,0,0,0.328084,,,0.3281168084,0.328084,0,0,0,0,0,8.349,0.3281168084,0.328084,0,0,0,0,0,311, 2.6, -0.3,0,0,1024,1024,1024,1024,0,0,0,0,310.9,0,0,86,4.168,4.158,0,0,0,0,0.613,88.34,0.3281168084,0.328084,10,Assisted_Takeoff,
76200,2022-08-15 23:33:27,0,0,0.328084,,,0.3281168084,0.328084,0,0,0,0,0,8.349,0.3281168084,0.328084,0,0,0,0,0,311, 2.6, -0.3,0,0,1024,1024,1024,1024,0,0,0,0,310.9,0,0,86,4.168,4.158,0,0,0,0,0.613,88.34,0.3281168084,0.328084,10,Assisted_Takeoff,
76300,2022-08-15 23:33:27,0,0,0.328084,,,0.3281168084,0.328084,0,0,0,0,0,8.349,0.3281168084,0.328084,0,0,0,0,0,311, 2.6, -0.3,0,0,1024,1024,1024,1024,0,0,0,0,310.9,0,0,86,4.168,4.158,0,0,0,0,0.613,88.34,0.3281168084,0.328084,10,Assisted_Takeoff,
76400,2022-08-15 23:33:27,0,0,0.328084,,,0.3281168084,0.328084,0,0,0,0,0,8.335,0.3281168084,0.328084,0,0,0,0,0,311.1, 2.6, -0.3,0,0,1024,1024,1024,1024,0,0,0,0,311,0,0,86,4.177,4.167,0,0,0,0,0.935,88.52,0.3281168084,0.328084,10,Assisted_Takeoff,
76500,2022-08-15 23:33:27,0,0,0.328084,,,0.3281168084,0.328084,0,0,0,0,0,8.335,0.3281168084,0.328084,0,0,0,0,0,311.1, 2.6, -0.3,0,0,1024,1024,1024,1024,0,0,0,0,311,0,0,86,4.177,4.167,0,0,0,0,0.935,88.52,0.3281168084,0.328084,10,Assisted_Takeoff,
76600,2022-08-15 23:33:27,0,0,0.328084,,,0.3281168084,0.328084,0,0,0,0,0,8.335,0.3281168084,0.328084,0,0,0,0,0,311.2, 2.6, -0.4,0,0,1024,1024,1024,1024,0,0,0,0,311,0,0,86,4.177,4.167,0,0,0,0,0.935,88.52,0.3281168084,0.328084,10,Assisted_Takeoff,
76700,2022-08-15 23:33:27,0,0,0.328084,,,0.3281168084,0.328084,0,0,0,0,0,8.335,0.3281168084,0.328084,0,0,0,0,0,311.2, 2.6, -0.3,0,0,1024,1024,1024,1024,0,0,0,0,311.1,0,0,86,4.177,4.167,0,0,0,0,0.935,88.52,0.3281168084,0.328084,10,Assisted_Takeoff,
76800,2022-08-15 23:33:27,0,0,0.328084,,,0.3281168084,0.328084,0,0,0,0,0,8.335,0.3281168084,0.328084,0,0,0,0,0,311.2, 2.6, -0.4,0,0,1024,1024,1024,1024,0,0,0,0,311.1,0,0,86,4.177,4.167,0,0,0,0,0.935,88.52,0.3281168084,0.328084,10,Assisted_Takeoff,
76900,2022-08-15 23:33:27,0,0,0.328084,,,0.3281168084,0.328084,0,0,0,0,0,8.335,0.3281168084,0.328084,0,0,0,0,0,311.3, 2.6, -0.3,0,0,1024,1024,1024,1024,0,0,0,0,311.1,0,0,86,4.177,4.167,0,0,0,0,0.935,88.52,0.3281168084,0.328084,10,Assisted_Takeoff,
77000,2022-08-15 23:33:27,0,0,0.328084,,,0.3281168084,0.328084,0,0,0,0,0,8.335,0.3281168084,0.328084,0,0,0,0,0,311.4, 2.6, -0.4,0,0,1024,1024,1024,1024,0,0,0,0,311.2,0,0,86,4.177,4.167,0,0,0,0,0.935,88.52,0.3281168084,0.328084,10,Assisted_Takeoff,
77100,2022-08-15 23:33:28,0,0,0.328084,,,0.3281168084,0.328084,0,0,0,0,0,8.335,0.3281168084,0.328084,0,0,0,0,0,311.5, 2.6, -0.3,0,0,1024,1024,1024,1024,0,0,0,0,311.3,0,0,86,4.177,4.167,0,0,0,0,0.935,88.52,0.3281168084,0.328084,10,Assisted_Takeoff,
77200,2022-08-15 23:33:28,0,0,0.328084,,,0.3281168084,0.328084,0,0,0,0,0,8.335,0.3281168084,0.328084,0,0,0,0,0,311.5, 2.6, -0.4,0,0,1024,1024,1024,1024,0,0,0,0,311.3,0,0,86,4.177,4.167,0,0,0,0,0.935,88.52,0.3281168084,0.328084,10,Assisted_Takeoff,
77300,2022-08-15 23:33:28,0,0,0.328084,,,0.3281168084,0.328084,0,0,0,0,0,8.335,0.3281168084,0.328084,0,0,0,0,0,311.7, 2.6, -0.3,0,0,1024,1024,1024,1024,0,0,0,0,311.4,0,0,86,4.177,4.167,0,0,0,0,0.935,88.52,0.3281168084,0.328084,10,Assisted_Takeoff,"En vuelo"
77400,2022-08-15 23:33:28,0,0,0.328084,,,0.3281168084,0.328084,0,0,0,0,0,8.341,0.3281168084,0.328084,0,0,0,0,0,311.8, 2.6, -0.4,0,0,1024,1024,1024,1024,0,0,0,0,311.5,0,0,86,4.178,4.169,0,0,0,0,1.243,88.52,0.3281168084,0.328084,10,Assisted_Takeoff,
77500,2022-08-15 23:33:28,0,0,0.328084,,,0.3281168084,0.328084,0,0,0,0,0,8.341,0.3281168084,0.328084,0,0,0,0,0,312, 2.6, -0.3,0,0,1024,1024,1024,1024,0,0,0,0,311.6,0,0,86,4.178,4.169,0,0,0,0,1.243,88.52,0.3281168084,0.328084,10,Assisted_Takeoff,
77600,2022-08-15 23:33:28,0,0,0.328084,,,0.3281168084,0.328084,0,0,0,0,0,8.341,0.3281168084,0.328084,0,0,0,0,0,312, 2.6, -0.4,0,0,1024,1024,1024,1024,0,0,0,0,311.7,0,0,86,4.178,4.169,0,0,0,0,1.243,88.52,0.3281168084,0.328084,10,Assisted_Takeoff,
77700,2022-08-15 23:33:28,0,0,0.328084,,,0.3281168084,0.328084,0,0,0,0,0,8.341,0.3281168084,0.328084,0,0,0,0,0,312.2, 2.6, -0.4,0,0,1024,1024,1024,1024,0,0,0,0,311.9,0,0,86,4.178,4.169,0,0,0,0,1.243,88.52,0.3281168084,0.328084,10,Assisted_Takeoff,
77800,2022-08-15 23:33:28,0,0,0.328084,,,0.3281168084,0.328084,0,0,0,0,0,8.341,0.3281168084,0.328084,0,0,0,0,0,312.4, 2.6, -0.4,0,0,1024,1024,1024,1024,0,0,0,0,312,0,0,86,4.178,4.169,0,0,0,0,1.243,88.52,0.3281168084,0.328084,10,Assisted_Takeoff,
77900,2022-08-15 23:33:28,0,0,0.328084,,,0.3281168084,0.328084,0,0,0,0,0,8.341,0.3281168084,0.328084,0,0,0,0,0,312.5, 2.7, -0.4,0,0,1024,1024,1024,1024,0,0,0,0,312.1,0,0,86,4.178,4.169,0,0,0,0,1.243,88.52,0.3281168084,0.328084,10,Assisted_Takeoff,
78000,2022-08-15 23:33:29,0,0,0.328084,,,0.3281168084,0.328084,0,0,0,0,0,8.341,0.3281168084,0.328084,0,0,0,0,0,312.6, 2.6, -0.4,0,0,1024,1024,1024,1024,0,0,0,0,312.2,0,0,86,4.178,4.169,0,0,0,0,1.243,88.52,0.3281168084,0.328084,10,Assisted_Takeoff,
78100,2022-08-15 23:33:29,0,0,0.328084,,,0.3281168084,0.328084,0,0,0,0,0,8.341,0.3281168084,0.328084,0,0,0,0,0,312.8, 2.6, -0.4,0,0,1024,1024,1035,1024,0,0,2,0,312.4,0,0,86,4.178,4.169,0,0,0,0,1.243,88.52,0.3281168084,0.328084,10,Assisted_Takeoff,
78200,2022-08-15 23:33:29,0,0,0.328084,,,0.3281168084,0.328084,0,0,0,0,0,8.341,0.3281168084,0.328084,0,0,0,0,0,313, 2.7, -0.4,0,0,1024,1024,1025,1024,0,0,0,0,312.5,0,0,86,4.178,4.169,0,0,0,0,1.243,88.52,0.3281168084,0.328084,10,Assisted_Takeoff,
78300,2022-08-15 23:33:29,0,0,0.328084,,,0.3281168084,0.328084,0,0,0,0,0,8.341,0.3281168084,0.328084,0,0,0,0,0,313.1, 2.7, -0.4,0,0,1024,1024,1024,1024,0,0,0,0,312.7,0,0,86,4.178,4.169,0,0,0,0,1.243,88.52,0.3281168084,0.328084,10,Assisted_Takeoff,
78400,2022-08-15 23:33:29,0,0,0.328084,,,0.3281168084,0.328084,0,0,0,0,0,8.341,0.3281168084,0.328084,0,0,0,0,0,313.2, 2.7, -0.4,0,0,1024,1024,1024,1024,0,0,0,0,312.8,0,0,86,4.178,4.169,0,0,0,0,1.243,88.52,0.3281168084,0.328084,10,Assisted_Takeoff,
78500,2022-08-15 23:33:29,0,0,0.328084,,,0.3281168084,0.328084,0,0,0,0,0,8.341,0.3281168084,0.328084,0,0,0,0,0,313.3, 2.7, -0.4,0,0,1024,1024,1024,1024,0,0,0,0,312.9,0,0,86,4.178,4.169,0,0,0,0,1.243,88.52,0.3281168084,0.328084,10,Assisted_Takeoff,
78600,2022-08-15 23:33:29,0,0,0.328084,,,0.3281168084,0.328084,0,0,0,0,0,8.35,0.3281168084,0.328084,0,0,0,0,0,313.4, 2.7, -0.4,0,0,1024,1024,1212,1024,0,0,28,0,312.9,0,0,86,4.18,4.17,0,0,0,0,1.039,88.52,0.3281168084,0.328084,10,Assisted_Takeoff,
78700,2022-08-15 23:33:29,0,0,0.328084,,,0.3281168084,0.328084,0,0,0,0,0,8.35,0.3281168084,0.328084,0,0,0,0,0,313.5, 2.7, -0.4,0,0,1024,1024,1393,1024,0,0,56,0,313,0,0,86,4.18,4.17,0,0,0,0,1.039,88.52,0.3281168084,0.328084,10,Assisted_Takeoff,
78800,2022-08-15 23:33:29,0,0,0.328084,,,0.3281168084,0.328084,0,0,0,0,0,8.35,0.3281168084,0.328084,0,0,0,0,0,313.6, 2.7, -0.4,0,0,1024,1024,1444,1024,0,0,64,0,313.1,0,0,86,4.18,4.17,0,0,0,0,1.039,88.52,0.3281168084,0.328084,10,Assisted_Takeoff,
78900,2022-08-15 23:33:29,0,0,0.328084,,,0.3281168084,0.328084,0,0,0,0,0,8.35,0.3281168084,0.328084,0,0,0,0,0,313.9, 2.7, -0.4,0,0,1024,1024,1444,1024,0,0,64,0,313.2,0,0,86,4.18,4.17,0,0,0,0,1.039,88.52,0.3281168084,0.328084,10,Assisted_Takeoff,
79000,2022-08-15 23:33:30,0,0,0.328084,,,0.3281168084,0.328084,0,0,0,0,0,8.35,0.3281168084,0.328084,0,0,0,0,0,314, 2.7, -0.4,0,0,1024,1024,1447,1024,0,0,64,0,313.3,0,0,86,4.18,4.17,0,0,0,0,1.039,88.52,0.3281168084,0.328084,10,Assisted_Takeoff,
79100,2022-08-15 23:33:30,0,0,0.328084,,,0.3281168084,0.328084,0,0,0,0,0,8.35,0.3281168084,0.328084,0,0,0,0,0,314.4, 2.6, -0.3,0,0,1024,1024,1413,1024,0,0,59,0,313.4,0,0,86,4.18,4.17,0,0,0,0,1.039,88.52,0.3281168084,0.328084,10,Assisted_Takeoff,
79200,2022-08-15 23:33:30,0,0,0.328084,,,0.3281168084,0.328084,0,0,0,0,0,8.35,0.3281168084,0.328084,0,0,0,0,0,314.9, 1.4, -0.3,0,0,1024,1024,1413,1024,0,0,59,0,313.6,0,0,86,4.18,4.17,0,0,0,0,1.039,88.52,0.3281168084,0.328084,10,Assisted_Takeoff,
79300,2022-08-15 23:33:30,0,0,0.328084,,,0.3281168084,0.328084,0,0,0,0,0,8.35,0.3281168084,0.328084,0,0,0,0,0,315.6, -1.5, 0.3,0,0,1024,1024,1380,1024,0,0,54,0,313.6,0,0,86,4.18,4.17,0,0,0,0,1.039,88.52,0.3281168084,0.328084,10,Assisted_Takeoff,
79400,2022-08-15 23:33:30,0,0,0.328084,,,0.3281168084,0.328084,0,0,0,0,0,8.35,0.3281168084,0.328084,0,0,0,0,-0.447388,316.1, -1.1, 0.5,0,0,1024,1024,1329,1024,0,0,46,0,314.3,0,0,86,4.18,4.17,0,0,0,0,1.039,88.52,0.3281168084,0.328084,38,Tripod,
79500,2022-08-15 23:33:30,0,0,0.656168,,,0.6562008084,0.328084,0,0,0,0,0,8.35,0.6562008084,0.656168,0,0,0,0,-0.671082,316, -0.4, 0.4,0,0,1024,1024,1024,1024,0,0,0,0,314.5,0,0,86,4.18,4.17,0,0,0,0,1.039,88.52,0.6562008084,0.656168,38,Tripod,
79600,2022-08-15 23:33:30,0,0,0.656168,,,0.6562008084,0.656168,0,0,0,0,0,8.35,0.6562008084,0.656168,0,0,0,0,-0.894776,315.9, -0.3, -0.1,0,0,1024,1024,1024,1024,0,0,0,0,314.6,0,0,86,4.18,4.17,0,0,0,0,1.039,88.52,0.6562008084,0.656168,38,Tripod,
79700,2022-08-15 23:33:30,0,0,0.656168,,,0.6562008084,0.656168,0,0,0,0,0,8.328,0.6562008084,0.656168,0,0,0,0,-0.894776,315.8, 0.2, -0.3,0,0,1024,1024,1024,1024,0,0,0,0,314.7,0,0,86,4.154,4.141,0,0,0,0,1.436,88.52,0.6562008084,0.656168,38,Tripod,
79800,2022-08-15 23:33:30,0,0,0.984252,,,0.9842848084,0.656168,0,0,0,0,0,8.328,0.9842848084,0.984252,0,0,0,0,-0.894776,315.9, 0.3, -0.4,0,0,1024,1024,1024,1024,0,0,0,0,314.7,0,0,86,4.154,4.141,0,0,0,0,1.436,88.52,0.9842848084,0.984252,38,Tripod,
79900,2022-08-15 23:33:30,0,0,0.984252,,,0.9842848084,0.984252,0,0,0,0,0,8.328,0.9842848084,0.984252,0,0,0,0,-0.894776,315.9, 0.6, -0.3,0,0,1024,1024,1024,1024,0,0,0,0,314.8,0,0,86,4.154,4.141,0,0,0,0,1.436,88.52,0.9842848084,0.984252,38,Tripod,
80000,2022-08-15 23:33:30,0,0,0.984252,,,0.9842848084,0.984252,0,0,0,0,0,8.328,0.9842848084,0.984252,0,0,0,0,-0.894776,315.8, 0.3, -0.1,0,0,1024,1024,1024,1024,0,0,0,0,314.8,0,0,86,4.154,4.141,0,0,0,0,1.436,88.52,0.9842848084,0.984252,38,Tripod,
80100,2022-08-15 23:33:31,0,0,1.312336,,,1.3123688084,1.312336,0,0,0,0,0,8.328,1.3123688084,1.312336,0,0,0,0,-0.894776,315.6, 0.1, 0.2,0,0,1024,1024,1024,1024,0,0,0,0,314.8,0,0,86,4.154,4.141,0,0,0,0,1.436,88.52,1.3123688084,1.312336,38,Tripod,
80200,2022-08-15 23:33:31,0,0,1.312336,,,1.3123688084,1.312336,0,0,0,0,0,8.328,1.3123688084,1.312336,0,0,0,0,-0.671082,315, 0.2, 0.2,0,0,1024,1024,1024,1024,0,0,0,0,314.8,0,0,86,4.154,4.141,0,0,0,0,1.436,88.52,1.3123688084,1.312336,38,Tripod,
80300,2022-08-15 23:33:31,0,0,1.312336,,,1.3123688084,1.312336,0,0,0,0,0,8.328,1.3123688084,1.312336,0,0,0,0,-0.671082,314.9, 0, 0,0,0,1024,1024,1024,1024,0,0,0,0,314.8,0,0,86,4.154,4.141,0,0,0,0,1.436,88.52,1.3123688084,1.312336,1,Atti,"Vuela con cuidado (modo Atti) Señal del GPS demasiado débil. Se ha pasado al modo Atti. La aeronave no puede hacer vuelo estacionario. Vuela con precaución (Code: 30022). Aeronave en modo Atti. No se puede hacer vuelo estacionario. Vuela con cuidado (Code: 30004)"
80400,2022-08-15 23:33:31,0,0,1.64042,,,1.6404528084,1.64042,0,0,0,0,0,8.328,1.6404528084,1.64042,0,0,0,0,-0.447388,314.9, -0.1, 0.1,0,0,1024,1024,1024,907,0,0,0,-18,314.8,0,0,86,4.154,4.141,0,0,0,0,1.436,88.52,1.6404528084,1.64042,38,Tripod,"La brújula no funciona bien el GPS no tiene buena señal. Cambia a modo Atti (Code: 30020). Aeronave en modo Atti. No se puede hacer vuelo estacionario. Vuela con cuidado (Code: 30004). Señal débil del GPS. Vuelo estacionario inestable. Vuela con cuid"
80500,2022-08-15 23:33:31,0,0,1.64042,,,1.6404528084,1.64042,0,0,0,0,0,8.328,1.6404528084,1.64042,0,0,0,0,-0.223694,314.8, 0.1, 0,0,0,1024,1024,1024,498,0,0,0,-80,314.8,0,0,86,4.154,4.141,0,0,0,0,1.436,88.52,1.6404528084,1.64042,38,Tripod,
80600,2022-08-15 23:33:31,0,0,1.64042,,,1.6404528084,1.64042,0,0,0,0,0,8.328,1.6404528084,1.64042,0,0,0,0,-0.223694,314.8, 0.2, -0.2,0,0,1024,1024,1024,364,0,0,0,-100,314.8,0,0,86,4.154,4.141,0,0,0,0,1.436,88.52,1.6404528084,1.64042,38,Tripod,
80700,2022-08-15 23:33:31,0,0,1.64042,,,1.6404528084,1.64042,0,0,0,0,0,8.238,1.6404528084,1.64042,0,0,0,0,0,314.8, 0.3, -0.2,0,0,1024,1024,1024,364,0,0,0,-100,314.8,0,0,86,4.129,4.116,0,0,0,0,4.102,88.52,1.6404528084,1.64042,38,Tripod,
80800,2022-08-15 23:33:31,0,0,1.64042,,,1.6404528084,1.64042,0,0,0,0,0,8.238,1.6404528084,1.64042,0,0,0,0,0,314.7, 0.3, -0.2,0,0,1024,1024,1024,364,0,0,0,-100,314.7,0,0,86,4.129,4.116,0,0,0,0,4.102,88.52,1.6404528084,1.64042,38,Tripod,
80900,2022-08-15 23:33:31,0,0,1.64042,,,1.6404528084,1.64042,0,0,0,0,0,8.238,1.6404528084,1.64042,0,0,0,0,0,314.7, 0.3, -0.2,0,0,1024,1024,1024,364,0,0,0,-100,314.6,0,0,86,4.129,4.116,0,0,0,0,4.102,88.52,1.6404528084,1.64042,38,Tripod,
81000,2022-08-15 23:33:31,0,0,1.64042,,,1.6404528084,1.64042,0,0,0,0,0,8.238,1.6404528084,1.64042,0,0,0,0,0,314.6, 0.4, -0.2,0,0,1024,1024,1024,364,0,0,0,-100,314.4,0,0,86,4.129,4.116,0,0,0,0,4.102,88.52,1.6404528084,1.64042,38,Tripod,
81100,2022-08-15 23:33:32,0,0,1.64042,,,1.6404528084,1.64042,0,0,0,0,0,8.238,1.6404528084,1.64042,0,0,0,0,0,314.3, 0.3, -0.2,0,0,1024,1024,1024,364,0,0,0,-100,314.2,0,0,86,4.129,4.116,0,0,0,0,4.102,88.52,1.6404528084,1.64042,38,Tripod,
81200,2022-08-15 23:33:32,0,0,1.968504,,,1.9685368084,1.64042,0,0,0,0,0,8.238,1.9685368084,1.968504,0,0,0,0,0,314.1, 0.2, -0.3,0,0,1024,1024,1003,364,0,0,-3,-100,314,0,0,86,4.129,4.116,0,0,0,0,4.102,88.52,1.9685368084,1.968504,38,Tripod,
81300,2022-08-15 23:33:32,0,0,1.968504,,,1.9685368084,1.64042,0,0,0,0,0,8.238,1.9685368084,1.968504,0,0,0,0,0,313.8, 0.2, -0.3,0,0,1024,1024,1002,364,0,0,-3,-100,313.7,0,0,86,4.129,4.116,0,0,0,0,4.102,88.52,1.9685368084,1.968504,38,Tripod,
81400,2022-08-15 23:33:32,0,0,1.968504,,,1.9685368084,1.64042,0,0,0,0,0,8.238,1.9685368084,1.968504,0,0,0,0,0,313.5, 0.3, -0.4,0,0,1024,1024,1002,364,0,0,-3,-100,313.3,0,0,86,4.129,4.116,0,0,0,0,4.102,88.52,1.9685368084,1.968504,38,Tripod,
81500,2022-08-15 23:33:32,0,0,1.968504,,,1.9685368084,1.64042,0,0,0,0,0,8.238,1.9685368084,1.968504,0,0,0,0,0,313.2, 0.3, -0.4,0,0,1024,1024,1002,364,0,0,-3,-100,313,0,0,86,4.129,4.116,0,0,0,0,4.102,88.52,1.9685368084,1.968504,38,Tripod,
81600,2022-08-15 23:33:32,0,0,1.968504,,,1.9685368084,1.64042,0,0,0,0,0,8.238,1.9685368084,1.968504,0,0,0,0,0,312.8, 0.2, -0.4,0,0,1024,1024,1024,950,0,0,0,-11,312.7,0,0,86,4.129,4.116,0,0,0,0,4.102,88.52,1.9685368084,1.968504,38,Tripod,
81700,2022-08-15 23:33:32,0,0,1.968504,,,1.9685368084,1.64042,0,0,0,0,0,8.238,1.9685368084,1.968504,0,0,0,0,0,312.5, 0.2, -0.4,0,0,1024,1024,1024,1599,0,0,0,87,312.3,0,0,86,4.124,4.111,0,0,0,0,3.992,88.7,1.9685368084,1.968504,38,Tripod,
81800,2022-08-15 23:33:32,0,0,1.968504,,,1.9685368084,1.64042,0,0,0,0,0,8.238,1.9685368084,1.968504,0,0,0,0,0,312.2, 0.2, -0.3,0,0,1024,1024,1024,1599,0,0,0,87,311.9,0,0,86,4.124,4.111,0,0,0,0,3.992,88.7,1.9685368084,1.968504,38,Tripod,
81900,2022-08-15 23:33:32,0,0,1.968504,,,1.9685368084,1.64042,0,0,0,0,0,8.238,1.9685368084,1.968504,0,0,0,0,0,311.8, 0.3, -0.4,0,0,1024,1024,1024,1684,0,0,0,100,311.6,0,0,86,4.124,4.111,0,0,0,0,3.992,88.7,1.9685368084,1.968504,38,Tripod,
82000,2022-08-15 23:33:32,0,0,1.968504,,,1.9685368084,1.64042,0,0,0,0,0,8.238,1.9685368084,1.968504,0,0,0,0,0,311.5, 0.3, -0.4,0,0,1024,1024,1024,1684,0,0,0,100,311.3,0,0,86,4.124,4.111,0,0,0,0,3.992,88.7,1.9685368084,1.968504,38,Tripod,
82100,2022-08-15 23:33:33,0,0,1.968504,,,1.9685368084,1.64042,0,0,0,0,0,8.238,1.9685368084,1.968504,0,0,0,0,0,311.3, 0.2, -0.3,0,0,1024,1024,1024,1684,0,0,0,100,311.2,0,0,86,4.124,4.111,0,0,0,0,3.992,88.7,1.9685368084,1.968504,38,Tripod,
82200,2022-08-15 23:33:33,0,0,1.968504,,,1.9685368084,1.64042,0,0,0,0,0,8.238,1.9685368084,1.968504,0,0,0,0,0,311.2, 0.1, -0.3,0,0,1024,1024,1024,1684,0,0,0,100,311.1,0,0,86,4.124,4.111,0,0,0,0,3.992,88.7,1.9685368084,1.968504,38,Tripod,
82300,2022-08-15 23:33:33,0,0,1.968504,,,1.9685368084,1.64042,0,0,0,0,0,8.238,1.9685368084,1.968504,0,0,0,0,0,311.1, 0.2, -0.3,0,0,1024,1024,1024,1684,0,0,0,100,311.2,0,0,86,4.124,4.111,0,0,0,0,3.992,88.7,1.9685368084,1.968504,38,Tripod,
82400,2022-08-15 23:33:33,0,0,1.968504,,,1.9685368084,1.64042,0,0,0,0,0,8.238,1.9685368084,1.968504,0,0,0,0,0,311.2, 0.2, -0.1,0,0,1024,1024,1024,1684,0,0,0,100,311.3,0,0,86,4.124,4.111,0,0,0,0,3.992,88.7,1.9685368084,1.968504,38,Tripod,
82500,2022-08-15 23:33:33,0,0,2.296588,,,2.2966208084,1.64042,0,0,0,0,0,8.238,2.2966208084,2.296588,0,0,0,0,0,311.4, 0.2, -0.1,0,0,1024,1024,1024,1684,0,0,0,100,311.5,0,0,86,4.124,4.111,0,0,0,0,3.992,88.7,2.2966208084,2.296588,38,Tripod,
82600,2022-08-15 23:33:33,0,0,2.296588,,,2.2966208084,1.64042,0,0,0,0,0,8.238,2.2966208084,2.296588,0,0,0,0,0,311.6, 0.2, -0.1,0,0,1024,1024,1024,1684,0,0,0,100,311.7,0,0,86,4.124,4.111,0,0,0,0,3.992,88.7,2.2966208084,2.296588,38,Tripod,
82700,2022-08-15 23:33:33,0,0,2.296588,,,2.2966208084,1.64042,0,0,0,0,0,8.231,2.2966208084,2.296588,0,0,0,0,0,311.8, 0.3, -0.1,0,0,1024,1024,1024,1684,0,0,0,100,312,0,0,86,4.121,4.108,0,0,0,0,4.138,88.7,2.2966208084,2.296588,38,Tripod,
82800,2022-08-15 23:33:33,0,0,2.296588,,,2.2966208084,1.64042,0,0,0,0,0,8.231,2.2966208084,2.296588,0,0,0,0,0,312.1, 0.3, -0.1,0,0,1024,1024,1024,1684,0,0,0,100,312.3,0,0,86,4.121,4.108,0,0,0,0,4.138,88.7,2.2966208084,2.296588,38,Tripod,
82900,2022-08-15 23:33:33,0,0,2.296588,,,2.2966208084,1.64042,0,0,0,0,0,8.231,2.2966208084,2.296588,0,0,0,0,0,312.4, 0.2, -0.2,0,0,1024,1024,1024,1684,0,0,0,100,312.6,0,0,86,4.121,4.108,0,0,0,0,4.138,88.7,2.2966208084,2.296588,38,Tripod,
83000,2022-08-15 23:33:33,0,0,2.296588,,,2.2966208084,1.64042,0,0,0,0,0,8.231,2.2966208084,2.296588,0,0,0,0,0,312.8, 0.3, -0.2,0,0,1024,1024,1024,1684,0,0,0,100,313,0,0,86,4.121,4.108,0,0,0,0,4.138,88.7,2.2966208084,2.296588,38,Tripod,
83100,2022-08-15 23:33:34,0,0,2.296588,,,2.2966208084,1.64042,0,0,0,0,0,8.231,2.2966208084,2.296588,0,0,0,0,0,313.1, 0.3, -0.2,0,0,1024,1024,1024,1684,0,0,0,100,313.4,0,0,86,4.121,4.108,0,0,0,0,4.138,88.7,2.2966208084,2.296588,38,Tripod,
83200,2022-08-15 23:33:34,0,0,2.296588,,,2.2966208084,1.64042,0,0,0,0,0,8.231,2.2966208084,2.296588,0,0,0,0,0,313.5, 0.2, -0.3,0,0,1024,1024,1024,1684,0,0,0,100,313.7,0,0,86,4.121,4.108,0,0,0,0,4.138,88.7,2.2966208084,2.296588,38,Tripod,
83300,2022-08-15 23:33:34,0,0,2.296588,,,2.2966208084,1.64042,0,0,0,0,0,8.231,2.2966208084,2.296588,0,0,0,0,0,313.8, 0.2, -0.3,0,0,1024,1024,1024,1684,0,0,0,100,314.1,0,0,86,4.121,4.108,0,0,0,0,4.138,88.7,2.2966208084,2.296588,38,Tripod,"En vuelo"
83400,2022-08-15 23:33:34,0,0,2.624672,,,2.6247048084,1.64042,0,0,0,0,0,8.231,2.6247048084,2.624672,0,0,0,0,0,314.3, 0.2, -0.3,0,0,1024,1024,1024,1684,0,0,0,100,314.5,0,0,86,4.121,4.108,0,0,0,0,4.138,88.7,2.6247048084,2.624672,38,Tripod,
83500,2022-08-15 23:33:34,0,0,2.624672,,,2.6247048084,1.64042,0,0,0,0,0,8.231,2.6247048084,2.624672,0,0,0,0,0,314.6, 0.2, -0.1,0,0,1024,1024,1024,1684,0,0,0,100,314.9,0,0,86,4.121,4.108,0,0,0,0,4.138,88.7,2.6247048084,2.624672,38,Tripod,
83600,2022-08-15 23:33:34,0,0,2.624672,,,2.6247048084,1.64042,0,0,0,0,0,8.231,2.6247048084,2.624672,0,0,0,0,0,315, 0.4, 0.1,0,0,1024,1024,1024,1684,0,0,0,100,315.3,0,0,86,4.121,4.108,0,0,0,0,4.138,88.7,2.6247048084,2.624672,38,Tripod,
83700,2022-08-15 23:33:34,0,0,2.624672,,,2.6247048084,1.64042,0,0,0,0,0,8.226,2.6247048084,2.624672,0,0,0,0,0,315.4, 0.3, 0.2,0,0,1024,1024,1024,1684,0,0,0,100,315.7,0,0,86,4.12,4.106,0,0,0,0,4.19,88.7,2.6247048084,2.624672,38,Tripod,
83800,2022-08-15 23:33:34,0,0,2.624672,,,2.6247048084,1.64042,0,0,0,0,0,8.226,2.6247048084,2.624672,0,0,0,0,0,315.8, 0.3, 0,0,0,1024,1024,1024,1684,0,0,0,100,316.1,0,0,86,4.12,4.106,0,0,0,0,4.19,88.7,2.6247048084,2.624672,38,Tripod,
83900,2022-08-15 23:33:34,0,0,2.624672,,,2.6247048084,1.64042,0,0,0,0,0,8.226,2.6247048084,2.624672,0,0,0,0,0,316.2, 0.3, -0.2,0,0,1024,1024,1024,1684,0,0,0,100,316.5,0,0,86,4.12,4.106,0,0,0,0,4.19,88.7,2.6247048084,2.624672,38,Tripod,
84000,2022-08-15 23:33:35,0,0,2.624672,,,2.6247048084,1.64042,0,0,0,0,0,8.226,2.6247048084,2.624672,0,0,0,0,0,316.6, 0.3, -0.4,0,0,1024,1024,1024,1684,0,0,0,100,316.9,0,0,86,4.12,4.106,0,0,0,0,4.19,88.7,2.6247048084,2.624672,38,Tripod,
84100,2022-08-15 23:33:35,0,0,2.624672,,,2.6247048084,1.64042,0,0,0,0,0,8.226,2.6247048084,2.624672,0,0,0,0,0,317, 0.4, -0.7,0,0,1024,1024,1024,1684,0,0,0,100,317.3,0,0,86,4.12,4.106,0,0,0,0,4.19,88.7,2.6247048084,2.624672,38,Tripod,
84200,2022-08-15 23:33:35,0,0,2.624672,,,2.6247048084,1.64042,0,0,0,0,0,8.226,2.6247048084,2.624672,0,0,0,0,0,317.4, 0.6, -0.4,0,0,1024,1024,1024,1684,0,0,0,100,317.7,0,0,86,4.12,4.106,0,0,0,0,4.19,88.7,2.6247048084,2.624672,38,Tripod,
84300,2022-08-15 23:33:35,0,0,2.624672,,,2.6247048084,1.64042,0,0,0,0,0,8.226,2.6247048084,2.624672,0,0,0,0,0,317.8, 0.3, -0.4,0,0,1024,1024,1024,1253,0,0,0,35,318.1,0,0,86,4.12,4.106,0,0,0,0,4.19,88.7,2.6247048084,2.624672,38,Tripod,
84400,2022-08-15 23:33:35,0,0,2.624672,,,2.6247048084,1.64042,0,0,0,0,0,8.226,2.6247048084,2.624672,0,0,0,0,0,318.2, 0.2, -0.4,0,0,1024,1024,1024,1024,0,0,0,0,318.5,0,0,86,4.12,4.106,0,0,0,0,4.19,88.7,2.6247048084,2.624672,38,Tripod,
84500,2022-08-15 23:33:35,0,0,2.624672,,,2.6247048084,1.64042,0,0,0,0,0,8.226,2.6247048084,2.624672,0,0,0,0,0,318.6, 0.3, -0.2,0,0,1024,1024,1024,1024,0,0,0,0,318.9,0,0,86,4.12,4.106,0,0,0,0,4.19,88.7,2.6247048084,2.624672,38,Tripod,
84600,2022-08-15 23:33:35,0,0,2.624672,,,2.6247048084,1.64042,0,0,0,0,0,8.226,2.6247048084,2.624672,0,0,0,0,0,319, 0.2, -0.3,0,0,1024,1024,1024,1024,0,0,0,0,319.2,0,0,86,4.12,4.106,0,0,0,0,4.19,88.7,2.6247048084,2.624672,38,Tripod,
84700,2022-08-15 23:33:35,0,0,2.624672,,,2.6247048084,1.64042,0,0,0,0,0,8.221,2.6247048084,2.624672,0,0,0,0,0,319.3, 0.3, -0.3,0,0,1024,1024,965,1024,0,0,-9,0,319.5,0,0,86,4.117,4.103,0,0,0,0,4.204,88.88,2.6247048084,2.624672,38,Tripod,
84800,2022-08-15 23:33:35,0,0,2.624672,,,2.6247048084,1.64042,0,0,0,0,0,8.221,2.6247048084,2.624672,0,0,0,0,0,319.6, 0.3, -0.3,0,0,1024,1024,364,1024,0,0,-100,0,319.8,0,0,86,4.117,4.103,0,0,0,0,4.204,88.88,2.6247048084,2.624672,38,Tripod,
84900,2022-08-15 23:33:35,0,0,2.624672,,,2.6247048084,1.64042,0,0,0,0,0,8.221,2.6247048084,2.624672,0,0,0,0,0,319.8, 0.3, -0.3,0,0,1024,1024,364,1024,0,0,-100,0,320.1,0,0,86,4.117,4.103,0,0,0,0,4.204,88.88,2.6247048084,2.624672,38,Tripod,
85000,2022-08-15 23:33:36,0,0,2.624672,,,2.6247048084,1.64042,0,0,0,0,0,8.221,2.6247048084,2.624672,0,0,0,0,0,320.2, 0.4, -0.2,0,0,1024,1024,364,1024,0,0,-100,0,320.3,0,0,86,4.117,4.103,0,0,0,0,4.204,88.88,2.6247048084,2.624672,38,Tripod,
85100,2022-08-15 23:33:36,0,0,2.624672,,,2.6247048084,1.64042,0,0,0,0,0,8.221,2.6247048084,2.624672,0,0,0,0,0,320.5, 0.3, -0.3,0,0,1024,1024,364,1024,0,0,-100,0,320.6,0,0,86,4.117,4.103,0,0,0,0,4.204,88.88,2.6247048084,2.624672,38,Tripod,
85200,2022-08-15 23:33:36,0,0,2.624672,,,2.6247048084,1.64042,0,0,0,0,0,8.221,2.6247048084,2.624672,0,0,0,0,0,320.7, 0.4, -0.3,0,0,1024,1024,364,1024,0,0,-100,0,320.8,0,0,86,4.117,4.103,0,0,0,0,4.204,88.88,2.6247048084,2.624672,38,Tripod,
85300,2022-08-15 23:33:36,0,0,2.624672,,,2.6247048084,1.64042,0,0,0,0,0,8.221,2.6247048084,2.624672,0,0,0,0,0,320.8, 0.3, -0.3,0,0,1024,1024,364,1024,0,0,-100,0,320.9,0,0,86,4.117,4.103,0,0,0,0,4.204,88.88,2.6247048084,2.624672,38,Tripod,
85400,2022-08-15 23:33:36,0,0,2.624672,,,2.6247048084,1.64042,0,0,0,0,0,8.221,2.6247048084,2.624672,0,0,0,0,0,321, 0.3, 0,0,0,1024,1024,364,1024,0,0,-100,0,321.1,0,0,86,4.117,4.103,0,0,0,0,4.204,88.88,2.6247048084,2.624672,38,Tripod,
85500,2022-08-15 23:33:36,0,0,2.624672,,,2.6247048084,1.64042,0,0,0,0,0,8.221,2.6247048084,2.624672,0,0,0,0,0,321.1, 0.3, 0,0,0,1024,1024,364,1024,0,0,-100,0,321.2,0,0,86,4.117,4.103,0,0,0,0,4.204,88.88,2.6247048084,2.624672,38,Tripod,
85600,2022-08-15 23:33:36,0,0,2.624672,,,2.6247048084,1.64042,0,0,0,0,0,8.221,2.6247048084,2.624672,0,0,0,0,0,321.1, 0.4, 0,0,0,1024,1024,364,1024,0,0,-100,0,321.3,0,0,86,4.117,4.103,0,0,0,0,4.204,88.88,2.6247048084,2.624672,38,Tripod,
85700,2022-08-15 23:33:36,0,0,2.624672,,,2.6247048084,1.64042,0,0,0,0,0,8.221,2.6247048084,2.624672,0,0,0,0,0,321.2, 0.3, 0,0,0,1024,1024,364,1024,0,0,-100,0,321.3,0,0,86,4.117,4.103,0,0,0,0,4.204,88.88,2.6247048084,2.624672,38,Tripod,
85800,2022-08-15 23:33:36,0,0,2.624672,,,2.6247048084,1.64042,0,0,0,0,0,8.218,2.6247048084,2.624672,0,0,0,0,0,321.3, 0.4, 0.1,0,0,1024,1024,820,1024,0,0,-31,0,321.4,0,0,86,4.115,4.102,0,0,0,0,4.221,88.88,2.6247048084,2.624672,38,Tripod,
85900,2022-08-15 23:33:36,0,0,2.624672,,,2.6247048084,1.64042,0,0,0,0,0,8.218,2.6247048084,2.624672,0,0,0,0,0,321.4, 0.5, 0,0,0,1024,1024,1024,1024,0,0,0,0,321.4,0,0,86,4.115,4.102,0,0,0,0,4.221,88.88,2.6247048084,2.624672,38,Tripod,
86000,2022-08-15 23:33:36,0,0,2.624672,,,2.6247048084,1.64042,0,0,0,0,0,8.218,2.6247048084,2.624672,0,0,0,0,0,321.4, 0.5, 0,0,0,1024,1024,1024,1024,0,0,0,0,321.4,0,0,86,4.115,4.102,0,0,0,0,4.221,88.88,2.6247048084,2.624672,38,Tripod,
86100,2022-08-15 23:33:37,0,0,2.624672,,,2.6247048084,1.64042,0,0,0,0,0,8.218,2.6247048084,2.624672,0,0,0,0,0,321.4, 0.3, 0,0,0,1024,1024,1024,1024,0,0,0,0,321.4,0,0,86,4.115,4.102,0,0,0,0,4.221,88.88,2.6247048084,2.624672,38,Tripod,
86200,2022-08-15 23:33:37,0,0,2.624672,,,2.6247048084,1.64042,0,0,0,0,0,8.218,2.6247048084,2.624672,0,0,0,0,0,321.4, 0.1, -0.3,0,0,1024,1024,1024,1024,0,0,0,0,321.4,0,0,86,4.115,4.102,0,0,0,0,4.221,88.88,2.6247048084,2.624672,38,Tripod,
86300,2022-08-15 23:33:37,0,0,2.624672,,,2.6247048084,1.64042,0,0,0,0,0,8.218,2.6247048084,2.624672,0,0,0,0,0,321.4, 0.2, -0.3,0,0,1024,1024,1024,1024,0,0,0,0,321.4,0,0,86,4.115,4.102,0,0,0,0,4.221,88.88,2.6247048084,2.624672,38,Tripod,
86400,2022-08-15 23:33:37,0,0,2.624672,,,2.6247048084,1.64042,0,0,0,0,0,8.218,2.6247048084,2.624672,0,0,0,0,0,321.4, 0.2, -0.2,0,0,1024,1024,1024,1024,0,0,0,0,321.4,0,0,86,4.115,4.102,0,0,0,0,4.221,88.88,2.6247048084,2.624672,38,Tripod,
86500,2022-08-15 23:33:37,0,0,2.624672,,,2.6247048084,1.64042,0,0,0,0,0,8.218,2.6247048084,2.624672,0,0,0,0,0,321.4, 0.2, -0.2,0,0,1024,1024,1024,1024,0,0,0,0,321.4,0,0,86,4.115,4.102,0,0,0,0,4.221,88.88,2.6247048084,2.624672,38,Tripod,
86600,2022-08-15 23:33:37,0,0,2.624672,,,2.6247048084,1.64042,0,0,0,0,0,8.218,2.6247048084,2.624672,0,0,0,0,0,321.4, 0.2, -0.1,0,0,1024,1024,1024,1024,0,0,0,0,321.4,0,0,86,4.115,4.102,0,0,0,0,4.221,88.88,2.6247048084,2.624672,38,Tripod,
86700,2022-08-15 23:33:37,0,0,2.624672,,,2.6247048084,1.64042,0,0,0,0,0,8.218,2.6247048084,2.624672,0,0,0,0,0,321.3, 0.3, -0.2,0,0,1024,1024,1024,1024,0,0,0,0,321.4,0,0,86,4.115,4.102,0,0,0,0,4.221,88.88,2.6247048084,2.624672,38,Tripod,
86800,2022-08-15 23:33:37,0,0,2.624672,,,2.6247048084,1.64042,0,0,0,0,0,8.215,2.6247048084,2.624672,0,0,0,0,0,321.3, 0.4, 0,0,0,1024,1024,1024,1024,0,0,0,0,321.4,0,0,86,4.113,4.1,0,0,0,0,4.194,88.88,2.6247048084,2.624672,38,Tripod,
86900,2022-08-15 23:33:37,0,0,2.624672,,,2.6247048084,1.64042,0,0,0,0,0,8.215,2.6247048084,2.624672,0,0,0,0,0,321.3, 0.4, 0,0,0,1024,1024,1024,1024,0,0,0,0,321.4,0,0,86,4.113,4.1,0,0,0,0,4.194,88.88,2.6247048084,2.624672,38,Tripod,
87000,2022-08-15 23:33:37,0,0,2.624672,,,2.6247048084,1.64042,0,0,0,0,0,8.215,2.6247048084,2.624672,0,0,0,0,0,321.4, 0.4, 0,0,0,1024,1024,1024,1024,0,0,0,0,321.4,0,0,86,4.113,4.1,0,0,0,0,4.194,88.88,2.6247048084,2.624672,38,Tripod,
87100,2022-08-15 23:33:38,0,0,2.624672,,,2.6247048084,1.64042,0,0,0,0,0,8.215,2.6247048084,2.624672,0,0,0,0,0,321.4, 0.5, 0,0,0,1024,1024,1024,1024,0,0,0,0,321.4,0,0,86,4.113,4.1,0,0,0,0,4.194,88.88,2.6247048084,2.624672,38,Tripod,
87200,2022-08-15 23:33:38,0,0,2.624672,,,2.6247048084,1.64042,0,0,0,0,0,8.215,2.6247048084,2.624672,0,0,0,0,0,321.4, 0.5, 0,0,0,1024,1024,1024,1024,0,0,0,0,321.4,0,0,86,4.113,4.1,0,0,0,0,4.194,88.88,2.6247048084,2.624672,38,Tripod,
87300,2022-08-15 23:33:38,0,0,2.624672,,,2.6247048084,1.64042,0,0,0,0,0,8.215,2.6247048084,2.624672,0,0,0,0,0,321.4, 0.6, -0.1,0,0,1024,1024,1024,1024,0,0,0,0,321.4,0,0,86,4.113,4.1,0,0,0,0,4.194,88.88,2.6247048084,2.624672,38,Tripod,
87400,2022-08-15 23:33:38,0,0,2.624672,,,2.6247048084,1.64042,0,0,0,0,0,8.215,2.6247048084,2.624672,0,0,0,0,0,321.4, 0.5, 0,0,0,1024,1024,1024,1024,0,0,0,0,321.4,0,0,86,4.113,4.1,0,0,0,0,4.194,88.88,2.6247048084,2.624672,38,Tripod,
87500,2022-08-15 23:33:38,0,0,2.624672,,,2.6247048084,1.64042,0,0,0,0,0,8.215,2.6247048084,2.624672,0,0,0,0,0,321.4, 0.5, 0,0,0,1024,1024,1024,1024,0,0,0,0,321.4,0,0,86,4.113,4.1,0,0,0,0,4.194,88.88,2.6247048084,2.624672,38,Tripod,
87600,2022-08-15 23:33:38,0,0,2.624672,,,2.6247048084,1.64042,0,0,0,0,0,8.215,2.6247048084,2.624672,0,0,0,0,0,321.4, 0.6, 0.1,0,0,1024,1024,1024,1024,0,0,0,0,321.4,0,0,86,4.113,4.1,0,0,0,0,4.194,88.88,2.6247048084,2.624672,38,Tripod,
87700,2022-08-15 23:33:38,0,0,2.624672,,,2.6247048084,1.64042,0,0,0,0,0,8.215,2.6247048084,2.624672,0,0,0,0,0,321.5, 0.4, 0.2,0,0,1024,1024,1024,1024,0,0,0,0,321.4,0,0,86,4.113,4.1,0,0,0,0,4.194,88.88,2.6247048084,2.624672,38,Tripod,
87800,2022-08-15 23:33:38,0,0,2.624672,,,2.6247048084,1.64042,0,0,0,0,0,8.211,2.6247048084,2.624672,0,0,0,0,0,321.6, 0.3, 0.2,0,0,1024,1024,1024,1024,0,0,0,0,321.4,0,0,86,4.112,4.099,0,0,0,0,4.196,88.88,2.6247048084,2.624672,38,Tripod,
87900,2022-08-15 23:33:38,0,0,2.624672,,,2.6247048084,1.64042,0,0,0,0,0,8.211,2.6247048084,2.624672,0,0,0,0,0,321.6, 0.3, 0,0,0,1024,1024,1024,1024,0,0,0,0,321.4,0,0,86,4.112,4.099,0,0,0,0,4.196,88.88,2.6247048084,2.624672,38,Tripod,
88000,2022-08-15 23:33:38,0,0,2.624672,,,2.6247048084,1.64042,0,0,0,0,0,8.211,2.6247048084,2.624672,0,0,0,0,0,321.5, 0.3, -0.1,0,0,1024,1024,1024,1024,0,0,0,0,321.4,0,0,86,4.112,4.099,0,0,0,0,4.196,88.88,2.6247048084,2.624672,38,Tripod,
88100,2022-08-15 23:33:39,0,0,2.624672,,,2.6247048084,1.64042,0,0,0,0,0,8.211,2.6247048084,2.624672,0,0,0,0,0,321.5, 0.2, 0,0,0,1024,1024,1024,1024,0,0,0,0,321.4,0,0,86,4.112,4.099,0,0,0,0,4.196,88.88,2.6247048084,2.624672,38,Tripod,
88200,2022-08-15 23:33:39,0,0,2.624672,,,2.6247048084,1.64042,0,0,0,0,0,8.211,2.6247048084,2.624672,0,0,0,0,0,321.5, 0.3, -0.2,0,0,1024,1024,1024,1024,0,0,0,0,321.4,0,0,86,4.112,4.099,0,0,0,0,4.196,88.88,2.6247048084,2.624672,38,Tripod,
88300,2022-08-15 23:33:39,0,0,2.624672,,,2.6247048084,1.64042,0,0,0,0,0,8.211,2.6247048084,2.624672,0,0,0,0,0,321.5, 0.3, -0.1,0,0,1024,1024,1024,1024,0,0,0,0,321.4,0,0,86,4.112,4.099,0,0,0,0,4.196,88.88,2.6247048084,2.624672,38,Tripod,
88400,2022-08-15 23:33:39,0,0,2.952756,,,2.9527888084,1.64042,0,0,0,0,0,8.211,2.9527888084,2.952756,0,0,0,0,0,321.5, 0.3, -0.1,0,0,1024,1024,1024,1024,0,0,0,0,321.4,0,0,86,4.112,4.099,0,0,0,0,4.196,88.88,2.9527888084,2.952756,38,Tripod,
88500,2022-08-15 23:33:39,0,0,2.952756,,,2.9527888084,1.64042,0,0,0,0,0,8.211,2.9527888084,2.952756,0,0,0,0,0,321.4, 0.3, -0.1,0,0,1024,1024,1024,1024,0,0,0,0,321.4,0,0,86,4.112,4.099,0,0,0,0,4.196,88.88,2.9527888084,2.952756,6,P-GPS,
88600,2022-08-15 23:33:39,0,0,2.952756,,,2.9527888084,1.64042,0,0,0,0,0,8.211,2.9527888084,2.952756,0,0,0,0,0,321.4, 0.2, -0.2,0,0,1024,1024,1024,1024,0,0,0,0,321.4,0,0,86,4.112,4.099,0,0,0,0,4.196,88.88,2.9527888084,2.952756,6,P-GPS,
88700,2022-08-15 23:33:39,0,0,2.952756,,,2.9527888084,1.64042,0,0,0,0,0,8.211,2.9527888084,2.952756,0,0,0,0,0,321.4, 0.3, -0.2,0,0,1024,1024,1024,1024,0,0,0,0,321.4,0,0,86,4.112,4.099,0,0,0,0,4.196,88.88,2.9527888084,2.952756,6,P-GPS,
88800,2022-08-15 23:33:39,0,0,2.952756,,,2.9527888084,1.64042,0,0,0,0,0,8.208,2.9527888084,2.952756,0,0,0,0,0,321.4, 0.4, -0.1,0,0,1024,1024,1024,1024,0,0,0,0,321.4,0,0,86,4.111,4.097,0,0,0,0,4.206,89.06,2.9527888084,2.952756,6,P-GPS,
88900,2022-08-15 23:33:39,0,0,2.952756,,,2.9527888084,1.64042,0,0,0,0,0,8.208,2.9527888084,2.952756,0,0,0,0,0,321.4, 0.1, 0,0,0,1024,1024,1024,1024,0,0,0,0,321.4,0,0,86,4.111,4.097,0,0,0,0,4.206,89.06,2.9527888084,2.952756,6,P-GPS,
89000,2022-08-15 23:33:39,0,0,2.952756,,,2.9527888084,1.64042,0,0,0,0,0,8.208,2.9527888084,2.952756,0,0,0,0,0,321.4, 0.2, 0,0,0,1024,1024,1024,1024,0,0,0,0,321.4,0,0,86,4.111,4.097,0,0,0,0,4.206,89.06,2.9527888084,2.952756,6,P-GPS,
89100,2022-08-15 23:33:40,0,0,2.952756,,,2.9527888084,1.64042,0,0,0,0,0,8.208,2.9527888084,2.952756,0,0,0,0,0,321.4, 0.2, 0,0,0,1024,1024,1024,1024,0,0,0,0,321.4,0,0,86,4.111,4.097,0,0,0,0,4.206,89.06,2.9527888084,2.952756,6,P-GPS,
89200,2022-08-15 23:33:40,0,0,3.28084,,,3.2808728084,1.64042,0,0,0,0,0,8.208,3.2808728084,3.28084,0,0,0,0,0,321.4, 0.3, 0,0,0,1024,1024,1024,1024,0,0,0,0,321.4,0,0,86,4.111,4.097,0,0,0,0,4.206,89.06,3.2808728084,3.28084,6,P-GPS,
89300,2022-08-15 23:33:40,0,0,3.28084,,,3.2808728084,1.64042,0,0,0,0,0,8.208,3.2808728084,3.28084,0,0,0,0,0,321.4, 0.2, 0,0,0,1024,1024,1024,1024,0,0,0,0,321.4,0,0,86,4.111,4.097,0,0,0,0,4.206,89.06,3.2808728084,3.28084,6,P-GPS,
89400,2022-08-15 23:33:40,0,0,3.28084,,,3.2808728084,1.64042,0,0,0,0,0,8.208,3.2808728084,3.28084,0,0,0,0,0,321.5, 0.3, 0.2,0,0,1024,1024,1024,1024,0,0,0,0,321.4,0,0,86,4.111,4.097,0,0,0,0,4.206,89.06,3.2808728084,3.28084,6,P-GPS,
89500,2022-08-15 23:33:40,0,0,3.28084,,,3.2808728084,1.64042,0,0,0,0,0,8.208,3.2808728084,3.28084,0,0,0,0,0,321.4, 0.3, 0,0,0,1024,1024,1024,1024,0,0,0,0,321.4,0,0,86,4.111,4.097,0,0,0,0,4.206,89.06,3.2808728084,3.28084,6,P-GPS,
89600,2022-08-15 23:33:40,0,0,3.28084,,,3.2808728084,1.64042,0,0,0,0,0,8.208,3.2808728084,3.28084,0,0,0,0,0,321.4, 0.2, 0,0,0,1024,1024,1024,1024,0,0,0,0,321.4,0,0,86,4.111,4.097,0,0,0,0,4.206,89.06,3.2808728084,3.28084,6,P-GPS,
89700,2022-08-15 23:33:40,0,0,3.28084,,,3.2808728084,1.64042,0,0,0,0,0,8.208,3.2808728084,3.28084,0,0,0,0,0,321.4, 0.3, -0.1,0,0,1024,1024,1024,1024,0,0,0,0,321.4,0,0,86,4.111,4.097,0,0,0,0,4.206,89.06,3.2808728084,3.28084,6,P-GPS,
89800,2022-08-15 23:33:40,0,0,3.28084,,,3.2808728084,1.64042,0,0,0,0,0,8.208,3.2808728084,3.28084,0,0,0,0,0,321.4, 0.3, -0.2,0,0,1024,1024,1024,1024,0,0,0,0,321.4,0,0,86,4.11,4.096,0,0,0,0,4.183,89.06,3.2808728084,3.28084,31,Sport,
89900,2022-08-15 23:33:40,0,0,3.28084,,,3.2808728084,1.64042,0,0,0,0,0,8.208,3.2808728084,3.28084,0,0,0,0,0,321.4, 0.4, -0.1,0,0,1024,1024,1024,1024,0,0,0,0,321.4,0,0,86,4.11,4.096,0,0,0,0,4.183,89.06,3.2808728084,3.28084,31,Sport,
90000,2022-08-15 23:33:41,0,0,3.28084,,,3.2808728084,1.64042,0,0,0,0,0,8.208,3.2808728084,3.28084,0,0,0,0,0,321.4, 0.5, 0,0,0,1024,1024,1024,1024,0,0,0,0,321.4,0,0,86,4.11,4.096,0,0,0,0,4.183,89.06,3.2808728084,3.28084,31,Sport,
90100,2022-08-15 23:33:41,0,0,3.28084,,,3.2808728084,1.64042,0,0,0,0,0,8.208,3.2808728084,3.28084,0,0,0,0,0,321.4, 0.6, 0,0,0,1024,1024,1024,1024,0,0,0,0,321.4,0,0,86,4.11,4.096,0,0,0,0,4.183,89.06,3.2808728084,3.28084,31,Sport,
90200,2022-08-15 23:33:41,0,0,3.28084,,,3.2808728084,1.64042,0,0,0,0,0,8.208,3.2808728084,3.28084,0,0,0,0,0,321.4, 0.4, -0.1,0,0,1024,1024,1024,1024,0,0,0,0,321.4,0,0,86,4.11,4.096,0,0,0,0,4.183,89.06,3.2808728084,3.28084,31,Sport,
90300,2022-08-15 23:33:41,0,0,3.28084,,,3.2808728084,1.64042,0,0,0,0,0,8.208,3.2808728084,3.28084,0,0,0,0,0,321.4, 0.4, -0.2,0,0,1024,1024,1024,1024,0,0,0,0,321.4,0,0,86,4.11,4.096,0,0,0,0,4.183,89.06,3.2808728084,3.28084,31,Sport,
90400,2022-08-15 23:33:41,0,0,3.28084,,,3.2808728084,1.64042,0,0,0,0,0,8.208,3.2808728084,3.28084,0,0,0,0,0,321.4, 0.4, -0.2,0,0,1024,1024,1024,1024,0,0,0,0,321.4,0,0,86,4.11,4.096,0,0,0,0,4.183,89.06,3.2808728084,3.28084,6,P-GPS,
90500,2022-08-15 23:33:41,0,0,3.28084,,,3.2808728084,1.64042,0,0,0,0,0,8.208,3.2808728084,3.28084,0,0,0,0,0,321.4, 0.3, 0,0,0,1024,1024,1024,1024,0,0,0,0,321.4,0,0,86,4.11,4.096,0,0,0,0,4.183,89.06,3.2808728084,3.28084,38,Tripod,
90600,2022-08-15 23:33:41,0,0,3.28084,,,3.2808728084,1.64042,0,0,0,0,0,8.208,3.2808728084,3.28084,0,0,0,0,0,321.5, 0.1, 0.3,0,0,1024,1024,1024,1024,0,0,0,0,321.4,0,0,86,4.11,4.096,0,0,0,0,4.183,89.06,3.2808728084,3.28084,38,Tripod,
90700,2022-08-15 23:33:41,0,0,3.28084,,,3.2808728084,1.64042,0,0,0,0,0,8.208,3.2808728084,3.28084,0,0,0,0,0,321.5, 0.1, 0,0,0,1024,1024,1024,1024,0,0,0,0,321.4,0,0,86,4.11,4.096,0,0,0,0,4.183,89.06,3.2808728084,3.28084,38,Tripod,
90800,2022-08-15 23:33:41,0,0,3.28084,,,3.2808728084,1.64042,0,0,0,0,0,8.208,3.2808728084,3.28084,0,0,0,0,0,321.5, 0.2, -0.2,0,0,1024,1024,1024,1024,0,0,0,0,321.4,0,0,86,4.11,4.096,0,0,0,0,4.183,89.06,3.2808728084,3.28084,38,Tripod,
90900,2022-08-15 23:33:41,0,0,3.28084,,,3.2808728084,1.64042,0,0,0,0,0,8.205,3.2808728084,3.28084,0,0,0,0,0,321.4, 0.3, -0.3,0,0,1024,1024,1024,1024,0,0,0,0,321.4,0,0,85,4.109,4.095,0,0,0,0,4.191,89.06,3.2808728084,3.28084,38,Tripod,
91000,2022-08-15 23:33:42,0,0,3.28084,,,3.2808728084,1.64042,0,0,0,0,0,8.205,3.2808728084,3.28084,0,0,0,0,0,321.4, 0.4, -0.4,0,0,1024,1024,1024,1024,0,0,0,0,321.4,0,0,85,4.109,4.095,0,0,0,0,4.191,89.06,3.2808728084,3.28084,38,Tripod,
91100,2022-08-15 23:33:42,0,0,3.28084,,,3.2808728084,1.64042,0,0,0,0,0,8.205,3.2808728084,3.28084,0,0,0,0,0,321.4, 0.3, -0.4,0,0,1024,1024,1024,1024,0,0,0,0,321.4,0,0,85,4.109,4.095,0,0,0,0,4.191,89.06,3.2808728084,3.28084,38,Tripod,
91200,2022-08-15 23:33:42,0,0,3.608924,,,3.6089568084,1.64042,0,0,0,0,0,8.205,3.6089568084,3.608924,0,0,0,0,0,321.5, 0.2, -0.2,0,0,1024,1024,1024,1024,0,0,0,0,321.4,0,0,85,4.109,4.095,0,0,0,0,4.191,89.06,3.6089568084,3.608924,38,Tripod,
91300,2022-08-15 23:33:42,0,0,3.608924,,,3.6089568084,1.64042,0,0,0,0,0,8.205,3.6089568084,3.608924,0,0,0,0,0,321.5, 0.2, -0.3,0,0,1024,1024,1024,1024,0,0,0,0,321.4,0,0,85,4.109,4.095,0,0,0,0,4.191,89.06,3.6089568084,3.608924,38,Tripod,
91400,2022-08-15 23:33:42,0,0,3.608924,,,3.6089568084,1.64042,0,0,0,0,0,8.205,3.6089568084,3.608924,0,0,0,0,0,321.5, 0.2, -0.2,0,0,1024,1024,1024,1024,0,0,0,0,321.4,0,0,85,4.109,4.095,0,0,0,0,4.191,89.06,3.6089568084,3.608924,38,Tripod,
91500,2022-08-15 23:33:42,0,0,3.608924,,,3.6089568084,1.64042,0,0,0,0,0,8.205,3.6089568084,3.608924,0,0,0,0,0,321.5, 0.2, -0.2,0,0,1024,1024,1024,1024,0,0,0,0,321.4,0,0,85,4.109,4.095,0,0,0,0,4.191,89.06,3.6089568084,3.608924,38,Tripod,
91600,2022-08-15 23:33:42,0,0,3.608924,,,3.6089568084,1.64042,0,0,0,0,0,8.205,3.6089568084,3.608924,0,0,0,0,0,321.5, 0.4, -0.3,0,0,1024,1024,1024,1024,0,0,0,0,321.4,0,0,85,4.109,4.095,0,0,0,0,4.191,89.06,3.6089568084,3.608924,38,Tripod,
91700,2022-08-15 23:33:42,0,0,3.608924,,,3.6089568084,1.64042,0,0,0,0,0,8.205,3.6089568084,3.608924,0,0,0,0,0,321.4, 0.3, -0.1,0,0,1024,1024,1024,1518,0,0,0,75,321.4,0,0,85,4.109,4.095,0,0,0,0,4.191,89.06,3.6089568084,3.608924,38,Tripod,
91800,2022-08-15 23:33:42,0,0,3.608924,,,3.6089568084,1.64042,0,0,0,0,0,8.205,3.6089568084,3.608924,0,0,0,0,0,321.5, 0.2, 0,0,0,1024,1024,1024,1518,0,0,0,75,321.4,0,0,85,4.109,4.095,0,0,0,0,4.191,89.06,3.6089568084,3.608924,38,Tripod,
91900,2022-08-15 23:33:42,0,0,3.608924,,,3.6089568084,1.64042,0,0,0,0,0,8.203,3.6089568084,3.608924,0,0,0,0,0,321.5, 0.2, 0,0,0,1024,1024,1024,1684,0,0,0,100,321.4,0,0,85,4.107,4.094,0,0,0,0,4.201,89.24,3.6089568084,3.608924,38,Tripod,
92000,2022-08-15 23:33:42,0,0,3.608924,,,3.6089568084,1.64042,0,0,0,0,0,8.203,3.6089568084,3.608924,0,0,0,0,0,321.5, 0.2, 0.1,0,0,1024,1024,1024,1684,0,0,0,100,321.4,0,0,85,4.107,4.094,0,0,0,0,4.201,89.24,3.6089568084,3.608924,38,Tripod,
92100,2022-08-15 23:33:43,0,0,3.608924,,,3.6089568084,1.64042,0,0,0,0,0,8.203,3.6089568084,3.608924,0,0,0,0,0,321.5, 0.1, 0,0,0,1024,1024,1024,1684,0,0,0,100,321.5,0,0,85,4.107,4.094,0,0,0,0,4.201,89.24,3.6089568084,3.608924,38,Tripod,
92200,2022-08-15 23:33:43,0,0,3.608924,,,3.6089568084,1.64042,0,0,0,0,0,8.203,3.6089568084,3.608924,0,0,0,0,0,321.6, 0.1, -0.1,0,0,1024,1024,1024,1684,0,0,0,100,321.7,0,0,85,4.107,4.094,0,0,0,0,4.201,89.24,3.6089568084,3.608924,38,Tripod,
92300,2022-08-15 23:33:43,0,0,3.937008,,,3.9370408084,1.64042,0,0,0,0,0,8.203,3.9370408084,3.937008,0,0,0,0,0,321.7, 0.2, -0.4,0,0,1024,1024,1024,1684,0,0,0,100,321.9,0,0,85,4.107,4.094,0,0,0,0,4.201,89.24,3.9370408084,3.937008,38,Tripod,
92400,2022-08-15 23:33:43,0,0,3.937008,,,3.9370408084,1.64042,0,0,0,0,0,8.203,3.9370408084,3.937008,0,0,0,0,0,321.9, 0.2, -0.3,0,0,1024,1024,1024,1684,0,0,0,100,322.1,0,0,85,4.107,4.094,0,0,0,0,4.201,89.24,3.9370408084,3.937008,38,Tripod,
92500,2022-08-15 23:33:43,0,0,3.937008,,,3.9370408084,1.64042,0,0,0,0,0,8.203,3.9370408084,3.937008,0,0,0,0,0,322.2, 0.3, -0.3,0,0,1024,1024,1024,1684,0,0,0,100,322.4,0,0,85,4.107,4.094,0,0,0,0,4.201,89.24,3.9370408084,3.937008,38,Tripod,
92600,2022-08-15 23:33:43,0,0,3.937008,,,3.9370408084,1.64042,0,0,0,0,0,8.203,3.9370408084,3.937008,0,0,0,0,0,322.4, 0.2, -0.2,0,0,1024,1024,1024,1684,0,0,0,100,322.7,0,0,85,4.107,4.094,0,0,0,0,4.201,89.24,3.9370408084,3.937008,38,Tripod,
92700,2022-08-15 23:33:43,0,0,3.937008,,,3.9370408084,1.64042,0,0,0,0,0,8.203,3.9370408084,3.937008,0,0,0,0,0,322.8, 0.2, 0,0,0,1024,1024,1024,1684,0,0,0,100,323,0,0,85,4.107,4.094,0,0,0,0,4.201,89.24,3.9370408084,3.937008,38,Tripod,
92800,2022-08-15 23:33:43,0,0,3.937008,,,3.9370408084,1.64042,0,0,0,0,0,8.203,3.9370408084,3.937008,0,0,0,0,0,323.1, 0.3, 0,0,0,1024,1024,1024,1684,0,0,0,100,323.4,0,0,85,4.107,4.094,0,0,0,0,4.201,89.24,3.9370408084,3.937008,38,Tripod,
92900,2022-08-15 23:33:43,0,0,3.937008,,,3.9370408084,1.64042,0,0,0,0,0,8.201,3.9370408084,3.937008,0,0,0,0,0,323.5, 0.5, 0,0,0,1024,1024,1024,1684,0,0,0,100,323.7,0,0,85,4.106,4.094,0,0,0,0,4.176,89.24,3.9370408084,3.937008,38,Tripod,
93000,2022-08-15 23:33:43,0,0,3.937008,,,3.9370408084,1.64042,0,0,0,0,0,8.201,3.9370408084,3.937008,0,0,0,0,0,323.8, 0.4, 0,0,0,1024,1024,1024,1684,0,0,0,100,324.1,0,0,85,4.106,4.094,0,0,0,0,4.176,89.24,3.9370408084,3.937008,38,Tripod,
93100,2022-08-15 23:33:44,0,0,3.937008,,,3.9370408084,1.64042,0,0,0,0,0,8.201,3.9370408084,3.937008,0,0,0,0,0,324.2, 0.4, 0,0,0,1024,1024,1024,1684,0,0,0,100,324.5,0,0,85,4.106,4.094,0,0,0,0,4.176,89.24,3.9370408084,3.937008,38,Tripod,
93200,2022-08-15 23:33:44,0,0,3.937008,,,3.9370408084,1.64042,0,0,0,0,0,8.201,3.9370408084,3.937008,0,0,0,0,0,324.6, 0.3, 0.1,0,0,1024,1024,1024,1684,0,0,0,100,324.9,0,0,85,4.106,4.094,0,0,0,0,4.176,89.24,3.9370408084,3.937008,38,Tripod,
93300,2022-08-15 23:33:44,0,0,3.937008,,,3.9370408084,1.64042,0,0,0,0,0,8.201,3.9370408084,3.937008,0,0,0,0,0,325, 0.4, 0,0,0,1024,1024,1024,1325,0,0,0,46,325.3,0,0,85,4.106,4.094,0,0,0,0,4.176,89.24,3.9370408084,3.937008,38,Tripod,
93400,2022-08-15 23:33:44,0,0,3.937008,,,3.9370408084,1.64042,0,0,0,0,0,8.201,3.9370408084,3.937008,0,0,0,0,0,325.4, 0.2, 0,0,0,1024,1024,1024,1024,0,0,0,0,325.6,0,0,85,4.106,4.094,0,0,0,0,4.176,89.24,3.9370408084,3.937008,38,Tripod,
93500,2022-08-15 23:33:44,0,0,3.937008,,,3.9370408084,1.64042,0,0,0,0,0,8.201,3.9370408084,3.937008,0,0,0,0,0,325.7, 0.2, -0.2,0,0,1024,1024,1024,1024,0,0,0,0,326,0,0,85,4.106,4.094,0,0,0,0,4.176,89.24,3.9370408084,3.937008,38,Tripod,
93600,2022-08-15 23:33:44,0,0,3.937008,,,3.9370408084,1.64042,0,0,0,0,0,8.201,3.9370408084,3.937008,0,0,0,0,0,326.1, 0.3, 0,0,0,1024,1024,1024,1024,0,0,0,0,326.4,0,0,85,4.106,4.094,0,0,0,0,4.176,89.24,3.9370408084,3.937008,38,Tripod,
93700,2022-08-15 23:33:44,0,0,3.937008,,,3.9370408084,1.64042,0,0,0,0,0,8.201,3.9370408084,3.937008,0,0,0,0,0,326.5, 0.4, 0,0,0,1024,1024,1024,1024,0,0,0,0,326.7,0,0,85,4.106,4.094,0,0,0,0,4.176,89.24,3.9370408084,3.937008,38,Tripod,
93800,2022-08-15 23:33:44,0,0,3.937008,,,3.9370408084,1.64042,0,0,0,0,0,8.201,3.9370408084,3.937008,0,0,0,0,0,326.8, 0.4, 0,0,0,1024,1024,1024,1024,0,0,0,0,327,0,0,85,4.106,4.094,0,0,0,0,4.176,89.24,3.9370408084,3.937008,38,Tripod,
93900,2022-08-15 23:33:44,0,0,3.937008,,,3.9370408084,1.64042,0,0,0,0,0,8.198,3.9370408084,3.937008,0,0,0,0,0,327.1, 0.5, 0,0,0,1024,1024,1024,1024,0,0,0,0,327.3,0,0,85,4.104,4.092,0,0,0,0,4.185,89.24,3.9370408084,3.937008,38,Tripod,
94000,2022-08-15 23:33:44,0,0,3.937008,,,3.9370408084,1.64042,0,0,0,0,0,8.198,3.9370408084,3.937008,0,0,0,0,0,327.4, 0.4, 0.3,0,0,1024,1024,1024,1024,0,0,0,0,327.5,0,0,85,4.104,4.092,0,0,0,0,4.185,89.24,3.9370408084,3.937008,38,Tripod,
94100,2022-08-15 23:33:45,0,0,3.937008,,,3.9370408084,1.64042,0,0,0,0,0,8.198,3.9370408084,3.937008,0,0,0,0,0,327.6, 0.4, 0,0,0,1024,1024,1024,1024,0,0,0,0,327.8,0,0,85,4.104,4.092,0,0,0,0,4.185,89.24,3.9370408084,3.937008,38,Tripod,
94200,2022-08-15 23:33:45,0,0,3.937008,,,3.9370408084,1.64042,0,0,0,0,0,8.198,3.9370408084,3.937008,0,0,0,0,0,327.9, 0.5, -0.1,0,0,1024,1024,1024,1024,0,0,0,0,328,0,0,85,4.104,4.092,0,0,0,0,4.185,89.24,3.9370408084,3.937008,38,Tripod,
94300,2022-08-15 23:33:45,0,0,3.937008,,,3.9370408084,1.64042,0,0,0,0,0,8.198,3.9370408084,3.937008,0,0,0,0,0,328.1, 0.4, -0.1,0,0,1024,1024,1024,1024,0,0,0,0,328.1,0,0,85,4.104,4.092,0,0,0,0,4.185,89.24,3.9370408084,3.937008,38,Tripod,
94400,2022-08-15 23:33:45,0,0,3.937008,,,3.9370408084,1.64042,0,0,0,0,0,8.198,3.9370408084,3.937008,0,0,0,0,0,328.2, 0.4, -0.1,0,0,1024,1024,1024,1024,0,0,0,0,328.3,0,0,85,4.104,4.092,0,0,0,0,4.185,89.24,3.9370408084,3.937008,38,Tripod,
94500,2022-08-15 23:33:45,0,0,3.937008,,,3.9370408084,1.64042,0,0,0,0,0,8.198,3.9370408084,3.937008,0,0,0,0,0,328.3, 0.4, -0.1,0,0,1024,1024,1024,1024,0,0,0,0,328.4,0,0,85,4.104,4.092,0,0,0,0,4.185,89.24,3.9370408084,3.937008,38,Tripod,
94600,2022-08-15 23:33:45,0,0,3.937008,,,3.9370408084,1.64042,0,0,0,0,0,8.198,3.9370408084,3.937008,0,0,0,0,0,328.5, 0.3, -0.3,0,0,1024,1024,1024,1024,0,0,0,0,328.5,0,0,85,4.104,4.092,0,0,0,0,4.185,89.24,3.9370408084,3.937008,38,Tripod,
94700,2022-08-15 23:33:45,0,0,3.937008,,,3.9370408084,1.64042,0,0,0,0,0,8.198,3.9370408084,3.937008,0,0,0,0,0,328.6, 0.2, -0.3,0,0,1024,1024,1024,1024,0,0,0,0,328.6,0,0,85,4.104,4.092,0,0,0,0,4.185,89.24,3.9370408084,3.937008,38,Tripod,
94800,2022-08-15 23:33:45,0,0,3.608924,,,3.6089568084,1.64042,0,0,0,0,0,8.198,3.9370408084,3.937008,0,0,0,0,0,328.7, 0.3, -0.2,0,0,1024,1024,1024,1024,0,0,0,0,328.6,0,0,85,4.104,4.092,0,0,0,0,4.185,89.24,3.6089568084,3.608924,38,Tripod,
94900,2022-08-15 23:33:45,0,0,3.608924,,,3.6089568084,1.64042,0,0,0,0,0,8.196,3.9370408084,3.937008,0,0,0,0,0,328.7, 0.6, 0,0,0,1024,1024,1024,1024,0,0,0,0,328.7,0,0,85,4.105,4.091,0,0,0,0,4.179,89.42,3.6089568084,3.608924,38,Tripod,
95000,2022-08-15 23:33:45,0,0,3.608924,,,3.6089568084,1.64042,0,0,0,0,0,8.196,3.9370408084,3.937008,0,0,0,0,0,328.7, 0.6, 0,0,0,1024,1024,1024,1024,0,0,0,0,328.7,0,0,85,4.105,4.091,0,0,0,0,4.179,89.42,3.6089568084,3.608924,38,Tripod,
95100,2022-08-15 23:33:46,0,0,3.608924,,,3.6089568084,1.64042,0,0,0,0,0,8.196,3.9370408084,3.937008,0,0,0,0,0,328.7, 0.6, -0.2,0,0,1024,1024,1024,1024,0,0,0,0,328.7,0,0,85,4.105,4.091,0,0,0,0,4.179,89.42,3.6089568084,3.608924,38,Tripod,
95200,2022-08-15 23:33:46,0,0,3.608924,,,3.6089568084,1.64042,0,0,0,0,0,8.196,3.9370408084,3.937008,0,0,0,0,0,328.7, 0.6, -0.5,0,0,1024,1024,1024,1024,0,0,0,0,328.7,0,0,85,4.105,4.091,0,0,0,0,4.179,89.42,3.6089568084,3.608924,38,Tripod,
95300,2022-08-15 23:33:46,0,0,3.608924,,,3.6089568084,1.64042,0,0,0,0,0,8.196,3.9370408084,3.937008,0,0,0,0,0,328.7, 0.5, -0.6,0,0,1024,1024,1024,1024,0,0,0,0,328.7,0,0,85,4.105,4.091,0,0,0,0,4.179,89.42,3.6089568084,3.608924,38,Tripod,
95400,2022-08-15 23:33:46,0,0,3.608924,,,3.6089568084,1.64042,0,0,0,0,0,8.196,3.9370408084,3.937008,0,0,0,0,0,328.6, 0.4, -0.6,0,0,1024,1024,1024,1024,0,0,0,0,328.7,0,0,85,4.105,4.091,0,0,0,0,4.179,89.42,3.6089568084,3.608924,38,Tripod,
95500,2022-08-15 23:33:46,0,0,3.608924,,,3.6089568084,1.64042,0,0,0,0,0,8.196,3.9370408084,3.937008,0,0,0,0,0,328.7, 0.1, -0.6,0,0,1024,1024,1024,1024,0,0,0,0,328.7,0,0,85,4.105,4.091,0,0,0,0,4.179,89.42,3.6089568084,3.608924,38,Tripod,
95600,2022-08-15 23:33:46,0,0,3.608924,,,3.6089568084,1.64042,0,0,0,0,0,8.196,3.9370408084,3.937008,0,0,0,0,0,328.7, 0.2, 0,0,0,1024,1024,1024,1024,0,0,0,0,328.7,0,0,85,4.105,4.091,0,0,0,0,4.179,89.42,3.6089568084,3.608924,38,Tripod,
95700,2022-08-15 23:33:46,0,0,3.608924,,,3.6089568084,1.64042,0,0,0,0,0,8.196,3.9370408084,3.937008,0,0,0,0,0,328.8, 0.1, 0,0,0,1024,1024,1024,1024,0,0,0,0,328.7,0,0,85,4.105,4.091,0,0,0,0,4.179,89.42,3.6089568084,3.608924,38,Tripod,
95800,2022-08-15 23:33:46,0,0,3.608924,,,3.6089568084,1.64042,0,0,0,0,0,8.196,3.9370408084,3.937008,0,0,0,0,0,328.8, 0, -0.2,0,0,1024,1024,1024,1024,0,0,0,0,328.7,0,0,85,4.105,4.091,0,0,0,0,4.179,89.42,3.6089568084,3.608924,38,Tripod,
95900,2022-08-15 23:33:46,0,0,3.608924,,,3.6089568084,1.64042,0,0,0,0,0,8.196,3.9370408084,3.937008,0,0,0,0,0,328.7, 0, -0.2,0,0,1024,1024,1024,1024,0,0,0,0,328.7,0,0,85,4.105,4.091,0,0,0,0,4.179,89.42,3.6089568084,3.608924,38,Tripod,
96000,2022-08-15 23:33:47,0,0,3.608924,,,3.6089568084,1.64042,0,0,0,0,0,8.193,3.9370408084,3.937008,0,0,0,0,0,328.7, 0.2, 0,0,0,1024,1024,1024,1024,0,0,0,0,328.7,0,0,85,4.104,4.091,0,0,0,0,4.182,89.42,3.6089568084,3.608924,38,Tripod,
96100,2022-08-15 23:33:47,0,0,3.608924,,,3.6089568084,1.64042,0,0,0,0,0,8.193,3.9370408084,3.937008,0,0,0,0,0,328.7, 0.1, -0.1,0,0,1024,1024,1024,1024,0,0,0,0,328.7,0,0,85,4.104,4.091,0,0,0,0,4.182,89.42,3.6089568084,3.608924,38,Tripod,
96200,2022-08-15 23:33:47,0,0,3.28084,,,3.2808728084,1.64042,0,0,0,0,0,8.193,3.9370408084,3.937008,0,0,0,0,0,328.7, 0.1, -0.2,0,0,1024,1024,1024,1024,0,0,0,0,328.7,0,0,85,4.104,4.091,0,0,0,0,4.182,89.42,3.2808728084,3.28084,38,Tripod,
96300,2022-08-15 23:33:47,0,0,3.28084,,,3.2808728084,1.64042,0,0,0,0,0,8.193,3.9370408084,3.937008,0,0,0,0,0,328.6, 0.2, -0.3,0,0,1024,1024,1024,1024,0,0,0,0,328.7,0,0,85,4.104,4.091,0,0,0,0,4.182,89.42,3.2808728084,3.28084,38,Tripod,
96400,2022-08-15 23:33:47,0,0,3.28084,,,3.2808728084,1.64042,0,0,0,0,0,8.193,3.9370408084,3.937008,0,0,0,0,0,328.6, 0.1, -0.2,0,0,1024,1024,1024,1024,0,0,0,0,328.7,0,0,85,4.104,4.091,0,0,0,0,4.182,89.42,3.2808728084,3.28084,38,Tripod,
96500,2022-08-15 23:33:47,0,0,3.28084,,,3.2808728084,1.64042,0,0,0,0,0,8.193,3.9370408084,3.937008,0,0,0,0,0,328.6, 0.2, -0.2,0,0,1024,1024,1024,1024,0,0,0,0,328.7,0,0,85,4.104,4.091,0,0,0,0,4.182,89.42,3.2808728084,3.28084,38,Tripod,
96600,2022-08-15 23:33:47,0,0,3.28084,,,3.2808728084,1.64042,0,0,0,0,0,8.193,3.9370408084,3.937008,0,0,0,0,0,328.7, 0.4, -0.4,0,0,1024,1024,1024,1024,0,0,0,0,328.7,0,0,85,4.104,4.091,0,0,0,0,4.182,89.42,3.2808728084,3.28084,38,Tripod,
96700,2022-08-15 23:33:47,0,0,3.28084,,,3.2808728084,1.64042,0,0,0,0,0,8.193,3.9370408084,3.937008,0,0,0,0,0,328.7, 0.3, -0.4,0,0,1024,1024,1024,1024,0,0,0,0,328.7,0,0,85,4.104,4.091,0,0,0,0,4.182,89.42,3.2808728084,3.28084,38,Tripod,
96800,2022-08-15 23:33:47,0,0,3.28084,,,3.2808728084,1.64042,0,0,0,0,0,8.193,3.9370408084,3.937008,0,0,0,0,0,328.7, 0.3, -0.1,0,0,1024,1024,1024,1024,0,0,0,0,328.7,0,0,85,4.104,4.091,0,0,0,0,4.182,89.42,3.2808728084,3.28084,38,Tripod,
96900,2022-08-15 23:33:47,0,0,3.28084,,,3.2808728084,1.64042,0,0,0,0,0,8.193,3.9370408084,3.937008,0,0,0,0,0,328.7, 0.4, -0.1,0,0,1024,1024,1024,1024,0,0,0,0,328.7,0,0,85,4.104,4.091,0,0,0,0,4.182,89.42,3.2808728084,3.28084,38,Tripod,
97000,2022-08-15 23:33:48,0,0,3.28084,,,3.2808728084,1.64042,0,0,0,0,0,8.19,3.9370408084,3.937008,0,0,0,0,0,328.7, 0.3, -0.2,0,0,1024,1024,1024,1024,0,0,0,0,328.7,0,0,85,4.103,4.09,0,0,0,0,4.203,89.42,3.2808728084,3.28084,38,Tripod,
97100,2022-08-15 23:33:48,0,0,3.28084,,,3.2808728084,1.64042,0,0,0,0,0,8.19,3.9370408084,3.937008,0,0,0,0,0,328.6, 0.3, -0.2,0,0,1024,1024,1024,1024,0,0,0,0,328.7,0,0,85,4.103,4.09,0,0,0,0,4.203,89.42,3.2808728084,3.28084,38,Tripod,
97200,2022-08-15 23:33:48,0,0,3.28084,,,3.2808728084,1.64042,0,0,0,0,0,8.19,3.9370408084,3.937008,0,0,0,0,0,328.6, 0.4, 0,0,0,1024,1024,1024,1024,0,0,0,0,328.7,0,0,85,4.103,4.09,0,0,0,0,4.203,89.42,3.2808728084,3.28084,38,Tripod,
97300,2022-08-15 23:33:48,0,0,3.28084,,,3.2808728084,1.64042,0,0,0,0,0,8.19,3.9370408084,3.937008,0,0,0,0,0,328.6, 0.4, -0.1,0,0,1024,1024,1024,1024,0,0,0,0,328.7,0,0,85,4.103,4.09,0,0,0,0,4.203,89.42,3.2808728084,3.28084,38,Tripod,
97400,2022-08-15 23:33:48,0,0,3.28084,,,3.2808728084,1.64042,0,0,0,0,0,8.19,3.9370408084,3.937008,0,0,0,0,0,328.6, 0.3, -0.1,0,0,1024,1024,1024,1024,0,0,0,0,328.7,0,0,85,4.103,4.09,0,0,0,0,4.203,89.42,3.2808728084,3.28084,38,Tripod,
97500,2022-08-15 23:33:48,0,0,3.28084,,,3.2808728084,1.64042,0,0,0,0,0,8.19,3.9370408084,3.937008,0,0,0,0,0,328.6, 0, 0,0,0,1024,1024,1024,1024,0,0,0,0,328.7,0,0,85,4.103,4.09,0,0,0,0,4.203,89.42,3.2808728084,3.28084,38,Tripod,
97600,2022-08-15 23:33:48,0,0,3.28084,,,3.2808728084,1.64042,0,0,0,0,0,8.19,3.9370408084,3.937008,0,0,0,0,0,328.5, 0, -0.4,0,0,1024,1024,1024,1024,0,0,0,0,328.7,0,0,85,4.103,4.09,0,0,0,0,4.203,89.42,3.2808728084,3.28084,38,Tripod,
97700,2022-08-15 23:33:48,0,0,3.28084,,,3.2808728084,1.64042,0,0,0,0,0,8.19,3.9370408084,3.937008,0,0,0,0,0,328.6, 0.1, -0.5,0,0,1024,1024,1024,1024,0,0,0,0,328.7,0,0,85,4.103,4.09,0,0,0,0,4.203,89.42,3.2808728084,3.28084,38,Tripod,
97800,2022-08-15 23:33:48,0,0,3.28084,,,3.2808728084,1.64042,0,0,0,0,0,8.19,3.9370408084,3.937008,0,0,0,0,0,328.5, 0.2, -0.5,0,0,1024,1024,1024,1024,0,0,0,0,328.7,0,0,85,4.103,4.09,0,0,0,0,4.203,89.42,3.2808728084,3.28084,38,Tripod,
97900,2022-08-15 23:33:48,0,0,3.28084,,,3.2808728084,1.64042,0,0,0,0,0,8.19,3.9370408084,3.937008,0,0,0,0,0,328.6, 0.4, -0.3,0,0,1024,1024,1024,1024,0,0,0,0,328.7,0,0,85,4.103,4.09,0,0,0,0,4.203,89.42,3.2808728084,3.28084,38,Tripod,
98000,2022-08-15 23:33:48,0,0,3.28084,,,3.2808728084,1.64042,0,0,0,0,0,8.19,3.9370408084,3.937008,0,0,0,0,0,328.7, 0.4, 0,0,0,1024,1024,1024,1024,0,0,0,0,328.7,0,0,85,4.1,4.088,0,0,0,0,4.191,89.42,3.2808728084,3.28084,38,Tripod,
98100,2022-08-15 23:33:49,0,0,3.28084,,,3.2808728084,1.64042,0,0,0,0,0,8.19,3.9370408084,3.937008,0,0,0,0,0,328.8, 0.4, 0.2,0,0,1024,1024,1024,1024,0,0,0,0,328.7,0,0,85,4.1,4.088,0,0,0,0,4.191,89.42,3.2808728084,3.28084,38,Tripod,
98200,2022-08-15 23:33:49,0,0,2.952756,,,2.9527888084,1.64042,0,0,0,0,0,8.19,3.9370408084,3.937008,0,0,0,0,0,328.8, 0.3, 0,0,0,1024,1024,1024,1024,0,0,0,0,328.7,0,0,85,4.1,4.088,0,0,0,0,4.191,89.42,2.9527888084,2.952756,38,Tripod,
98300,2022-08-15 23:33:49,0,0,2.952756,,,2.9527888084,1.64042,0,0,0,0,0,8.19,3.9370408084,3.937008,0,0,0,0,0,328.7, 0.2, 0,0,0,1024,1024,1024,1024,0,0,0,0,328.7,0,0,85,4.1,4.088,0,0,0,0,4.191,89.42,2.9527888084,2.952756,38,Tripod,
98400,2022-08-15 23:33:49,0,0,2.952756,,,2.9527888084,1.64042,0,0,0,0,0,8.19,3.9370408084,3.937008,0,0,0,0,0,328.7, 0.1, 0,0,0,1024,1024,1024,1024,0,0,0,0,328.7,0,0,85,4.1,4.088,0,0,0,0,4.191,89.42,2.9527888084,2.952756,38,Tripod,
98500,2022-08-15 23:33:49,0,0,2.952756,,,2.9527888084,1.64042,0,0,0,0,0,8.19,3.9370408084,3.937008,0,0,0,0,0,328.8, 0.2, 0,0,0,1024,1024,1024,1024,0,0,0,0,328.7,0,0,85,4.1,4.088,0,0,0,0,4.191,89.42,2.9527888084,2.952756,38,Tripod,
98600,2022-08-15 23:33:49,0,0,2.952756,,,2.9527888084,1.64042,0,0,0,0,0,8.19,3.9370408084,3.937008,0,0,0,0,0,328.7, 0.3, 0.1,0,0,1024,1024,1024,1024,0,0,0,0,328.7,0,0,85,4.1,4.088,0,0,0,0,4.191,89.42,2.9527888084,2.952756,38,Tripod,
98700,2022-08-15 23:33:49,0,0,2.952756,,,2.9527888084,1.64042,0,0,0,0,0,8.19,3.9370408084,3.937008,0,0,0,0,0,328.7, 0.4, 0.2,0,0,1024,1024,1024,1024,0,0,0,0,328.7,0,0,85,4.1,4.088,0,0,0,0,4.191,89.42,2.9527888084,2.952756,38,Tripod,
98800,2022-08-15 23:33:49,0,0,2.952756,,,2.9527888084,1.64042,0,0,0,0,0,8.19,3.9370408084,3.937008,0,0,0,0,0,328.8, 0.4, 0.1,0,0,1024,1024,1024,1024,0,0,0,0,328.7,0,0,85,4.1,4.088,0,0,0,0,4.191,89.42,2.9527888084,2.952756,38,Tripod,
98900,2022-08-15 23:33:49,0,0,2.952756,,,2.9527888084,1.64042,0,0,0,0,0,8.19,3.9370408084,3.937008,0,0,0,0,0,328.8, 0.4, 0.3,0,0,1024,1024,1024,1024,0,0,0,0,328.7,0,0,85,4.1,4.088,0,0,0,0,4.191,89.42,2.9527888084,2.952756,38,Tripod,
99000,2022-08-15 23:33:49,0,0,2.952756,,,2.9527888084,1.64042,0,0,0,0,0,8.188,3.9370408084,3.937008,0,0,0,0,0,328.8, 0.3, 0.1,0,0,1024,1024,1024,1024,0,0,0,0,328.7,0,0,85,4.099,4.086,0,0,0,0,4.227,89.6,2.9527888084,2.952756,38,Tripod,
