time(millisecond),datetime(utc),latitude,longitude,height_above_takeoff(feet),height_above_ground_at_drone_location(feet),ground_elevation_at_drone_location(feet),altitude_above_seaLevel(feet),height_sonar(feet),speed(mph),distance(feet),mileage(feet),satellites,gpslevel,voltage(v),max_altitude(feet),max_ascent(feet),max_speed(mph),max_distance(feet), xSpeed(mph), ySpeed(mph), zSpeed(mph), compass_heading(degrees), pitch(degrees), roll(degrees),isPhoto,isVideo,rc_elevator,rc_aileron,rc_throttle,rc_rudder,rc_elevator(percent),rc_aileron(percent),rc_throttle(percent),rc_rudder(percent),gimbal_heading(degrees),gimbal_pitch(degrees),gimbal_roll(degrees),battery_percent,voltageCell1,voltageCell2,voltageCell3,voltageCell4,voltageCell5,voltageCell6,current(A),battery_temperature(f),altitude(feet),ascent(feet),flycStateRaw,flycState,message
0,2022-08-11 19:40:15,-34.9287565794404,-56.1628202275417,0,0,6.107061875216,6.107061875216,0.328084,0,0,0,19,5,0,6.107061875216,0,0,0,0,0,0,202.5, 0.6, 0.6,0,0,364,364,364,1684,-100,-100,-100,100,212.9,0,0,77,4.105,4.104,0,0,0,0,0,89.6,6.107061875216,0,6,P-GPS,"Aeronave en Zona de altitud restringida (150). Vuela con precaución (Code: 190001). Baja velocidad de la tarjeta SD. Puede afectar a su uso normal. Sustituye la tarjeta SD (Code: 10028)"
100,2022-08-11 19:40:15,-34.9287565939938,-56.1628201929311,0,0,6.107061875216,6.107061875216,0.328084,0,0.0116352037844,0.0116352037844,19,5,0,6.107061875216,0,0,0.0116352037844,0,0,0,202.5, 0.6, 0.6,0,0,364,364,364,1684,-100,-100,-100,100,212.9,0,0,77,4.105,4.104,0,0,0,0,0,89.6,6.107061875216,0,41,Motors_Started,
200,2022-08-11 19:40:15,-34.9287566092755,-56.1628201909196,0,0,6.107061875216,6.107061875216,0.328084,0,0.0154432747724,0.017243110788,19,5,0,6.107061875216,0,0,0.0154432747724,0,0,0,202.4, 0.6, 0.6,0,0,364,364,364,1684,-100,-100,-100,100,212.9,0,0,77,4.105,4.104,0,0,0,0,0,89.6,6.107061875216,0,41,Motors_Started,
300,2022-08-11 19:40:15,-34.928756595023,-56.1628201772232,0,0,6.107061875216,6.107061875216,0.328084,0,0.016089567444,0.02386318974,19,5,0,6.107061875216,0,0,0.016089567444,0,0,0,202.5, 0.5, 0.5,0,0,364,364,364,1684,-100,-100,-100,100,212.9,0,0,77,4.105,4.104,0,0,0,0,0,89.6,6.107061875216,0,41,Motors_Started,
400,2022-08-11 19:40:15,-34.9287565573953,-56.1628202581816,0,0,6.107061875216,6.107061875216,0.328084,0,0.0121939964532,0.051700789056,19,5,0,6.107061875216,0,0,0.016089567444,0,0,0,202.4, 0.6, 0.5,0,0,364,364,364,1684,-100,-100,-100,100,212.9,0,0,77,4.105,4.104,0,0,0,0,0,89.6,6.107061875216,0,41,Motors_Started,
500,2022-08-11 19:40:15,-34.9287565385318,-56.1628201924792,0,0,6.107061875216,6.107061875216,0.328084,0,0.0182420281428,0.072524280536,19,5,0,6.107061875216,0,0,0.0182420281428,0,0,0,202.5, 0.6, 0.6,0,0,834,750,825,1087,-29,-42,-30,10,212.9,0,0,77,4.105,4.104,0,0,0,0,0,89.6,6.107061875216,0,41,Motors_Started,
600,2022-08-11 19:40:15,-34.9287565339075,-56.1628200915104,0,0,6.107061875216,6.107061875216,0.328084,0,0.043951116892,0.10277395342,19,5,0,6.107061875216,0,0,0.043951116892,0,0,0,202.5, 0.6, 0.6,0,0,1024,1024,1024,1024,0,0,0,0,212.9,0,0,77,4.105,4.104,0,0,0,0,0,89.6,6.107061875216,0,41,Motors_Started,
700,2022-08-11 19:40:15,-34.9287565363501,-56.1628200339975,0,0,6.107061875216,6.107061875216,0.328084,0,0.059990815568,0.120000660008,19,5,0,6.107061875216,0,0,0.059990815568,0,0,0,202.4, 0.6, 0.6,0,0,1024,1024,1024,1024,0,0,0,0,212.9,0,0,77,4.105,4.104,0,0,0,0,0,89.6,6.107061875216,0,41,Motors_Started,
800,2022-08-11 19:40:15,-34.9287565532444,-56.1628200049381,0,0,6.107061875216,6.107061875216,0.328084,0,0.067269359108,0.130656828328,19,5,0,6.107061875216,0,0,0.067269359108,0,0,0,202.5, 0.6, 0.6,0,0,1024,1024,1024,1024,0,0,0,0,212.9,0,0,77,4.105,4.104,0,0,0,0,0,89.6,6.107061875216,0,41,Motors_Started,
900,2022-08-11 19:40:16,-34.9287565569483,-56.162819978922,0,0,6.107061875216,6.107061875216,0.328084,0,0.074820212368,0.138555122544,19,5,8.229,6.107061875216,0,0,0.074820212368,0,0,0,202.5, 0.6, 0.6,0,0,1024,1024,1024,1024,0,0,0,0,212.9,0,0,77,4.105,4.104,0,0,0,0,0.599,89.6,6.107061875216,0,41,Motors_Started,"Setting new Return-To-Home altitude to 40m (131 ft). Data Recorder File Index is 8. Setting new Maximum Flight Altitude to 120m (394 ft)"
1000,2022-08-11 19:40:16,-34.928756561087,-56.1628199405836,0,0,6.107061875216,6.107061875216,0.328084,0,0.086097771784,0.150122380132,19,5,8.229,6.107061875216,0,0,0.086097771784,0,0,0,202.5, 0.6, 0.6,0,0,1024,1024,1024,1024,0,0,0,0,212.9,0,0,77,4.105,4.104,0,0,0,0,0.599,89.6,6.107061875216,0,41,Motors_Started,
1100,2022-08-11 19:40:16,-34.9287565641929,-56.1628199225272,0,0,6.107061875216,6.107061875216,0.328084,0,0.09140748324,0.155641081096,19,5,8.229,6.107061875216,0,0,0.09140748324,0,0,0,202.5, 0.6, 0.5,0,0,1024,1024,1024,1024,0,0,0,0,213,0,0,77,4.105,4.104,0,0,0,0,0.599,89.6,6.107061875216,0,41,Motors_Started,
1200,2022-08-11 19:40:16,-34.9287565660652,-56.1628199208475,0,0,6.107061875216,6.107061875216,0.328084,0,0.091870409764,0.156489178236,19,5,8.229,6.107061875216,0,0,0.091870409764,0,0,0,202.4, 0.6, 0.5,0,0,1024,1024,1024,1024,0,0,0,0,213,0,0,77,4.105,4.104,0,0,0,0,0.599,89.6,6.107061875216,0,10,Assisted_Takeoff,
1300,2022-08-11 19:40:16,-34.9287566300748,-56.1628199745072,0,0,6.107061875216,6.107061875216,0.328084,0,0.077911419816,0.184827105652,19,5,8.229,6.107061875216,0,0,0.091870409764,0,0,0,202.4, 0.6, 0.5,0,0,1024,1024,1024,1024,0,0,0,0,213,0,0,77,4.105,4.104,0,0,0,0,0.599,89.6,6.107061875216,0,10,Assisted_Takeoff,
1400,2022-08-11 19:40:16,-34.9287566831483,-56.1628199321301,0,0,6.107061875216,6.107061875216,0.328084,0,0.096125987328,0.20797080718,19,5,8.229,6.107061875216,0,0,0.096125987328,0,0,0,202.5, 0.6, 0.6,0,0,1024,1024,1024,1024,0,0,0,0,212.9,0,0,77,4.105,4.104,0,0,0,0,0.599,89.6,6.107061875216,0,10,Assisted_Takeoff,
1500,2022-08-11 19:40:16,-34.9287567151655,-56.1628198837343,0,0,6.107061875216,6.107061875216,0.328084,0,0.114143048272,0.226572841896,19,5,8.229,6.107061875216,0,0,0.114143048272,0,0,0,202.5, 0.6, 0.5,0,0,1024,1024,1024,1024,0,0,0,0,213,0,0,77,4.105,4.104,0,0,0,0,0.599,89.6,6.107061875216,0,10,Assisted_Takeoff,
1600,2022-08-11 19:40:16,-34.928756731879,-56.1628198245469,0,0,6.107061875216,6.107061875216,0.328084,0,0.132758206348,0.245297908112,19,5,8.229,6.107061875216,0,0,0.132758206348,0,0,0,202.4, 0.6, 0.6,0,0,1024,1024,1024,1024,0,0,0,0,213,0,0,77,4.105,4.104,0,0,0,0,0.599,89.6,6.107061875216,0,10,Assisted_Takeoff,
1700,2022-08-11 19:40:16,-34.9287568362281,-56.1628197473659,0,0,6.107061875216,6.107061875216,0.328084,0,0.171488194464,0.28982284392,19,5,8.229,6.107061875216,0,0,0.171488194464,0,0,0,202.5, 0.6, 0.6,0,0,1024,1024,1316,1024,0,0,44,0,212.9,0,0,77,4.105,4.104,0,0,0,0,0.599,89.6,6.107061875216,0,10,Assisted_Takeoff,
1800,2022-08-11 19:40:16,-34.9287568865258,-56.1628197360101,0,0,6.107061875216,6.107061875216,0.328084,0,0.184853680456,0.308485574176,19,5,8.229,6.107061875216,0,0,0.184853680456,0,0,0,202.4, 0.7, 0.6,0,0,1024,1024,1545,1024,0,0,79,0,213,0,0,77,4.105,4.104,0,0,0,0,0.599,89.6,6.107061875216,0,10,Assisted_Takeoff,
1900,2022-08-11 19:40:17,-34.9287569145868,-56.1628197096649,0,0,6.107061875216,6.107061875216,0.328084,0,0.197355977444,0.321405522096,19,5,8.196,6.107061875216,0,0,0.197355977444,0,0,0,202.5, 0.6, 0.6,0,0,1024,1024,1438,1024,0,0,63,0,213,0,0,77,4.102,4.099,0,0,0,0,1.364,89.6,6.107061875216,0,10,Assisted_Takeoff,
2000,2022-08-11 19:40:17,-34.9287569236971,-56.1628196653312,0,0,6.107061875216,6.107061875216,0.328084,0,0.209899613016,0.33507547004,19,5,8.196,6.107061875216,0,0,0.209899613016,0,0,0,202.4, 0.5, 0.6,0,0,1024,1024,1438,1024,0,0,63,0,212.9,0,0,77,4.102,4.099,0,0,0,0,1.364,89.6,6.107061875216,0,10,Assisted_Takeoff,
2100,2022-08-11 19:40:17,-34.9287570093529,-56.1628196158643,0,0,6.107061875216,6.107061875216,0.328084,0,0.240999351544,0.36965552364,19,5,8.196,6.107061875216,0,0,0.240999351544,0,0,0,202.5, 0.3, 0.7,0,0,1024,1024,1024,1024,0,0,0,0,212.9,0,0,77,4.102,4.099,0,0,0,0,1.364,89.6,6.107061875216,0,10,Assisted_Takeoff,
2200,2022-08-11 19:40:17,-34.9287570595175,-56.1628195536833,0,0,6.107061875216,6.107061875216,0.328084,0,0.26703905054,0.39574804416,19,5,8.196,6.107061875216,0,0,0.26703905054,0,0,0,202.5, 0.1, 0.8,0,0,1024,1024,1232,1024,0,0,32,0,212.9,0,0,77,4.102,4.099,0,0,0,0,1.364,89.6,6.107061875216,0,10,Assisted_Takeoff,
2300,2022-08-11 19:40:17,-34.9287570861951,-56.162819520094,0,0,6.107061875216,6.107061875216,0.328084,0,0.281008211092,0.40973754592,19,5,8.196,6.107061875216,0,0,0.281008211092,0,0,0,202.4, 0.2, 0.7,0,0,1024,1024,1684,1024,0,0,100,0,213,0,0,77,4.102,4.099,0,0,0,0,1.364,89.6,6.107061875216,0,10,Assisted_Takeoff,
2400,2022-08-11 19:40:17,-34.9287570962031,-56.1628195071604,0,0,6.107061875216,6.107061875216,0.328084,0,0.286324156144,0.4150590684,19,5,8.196,6.107061875216,0,0,0.286324156144,0,0,0,202.5, 0.1, 0.8,0,0,1024,1024,1684,1024,0,0,100,0,213,0,0,77,4.102,4.099,0,0,0,0,1.364,89.6,6.107061875216,0,10,Assisted_Takeoff,
2500,2022-08-11 19:40:17,-34.9287570060141,-56.1628195510239,0,0,6.107061875216,6.107061875216,0.328084,0,0.255291674836,0.45048229788,19,5,8.196,6.107061875216,0,0,0.286324156144,0,0,0,202.5, -0.9, 1.1,0,0,1024,1024,1684,1024,0,0,100,0,213,0,0,77,4.102,4.099,0,0,0,0,1.364,89.6,6.107061875216,0,10,Assisted_Takeoff,
2600,2022-08-11 19:40:17,-34.9287570045526,-56.1628195215021,0,0,6.107061875216,6.107061875216,0.328084,0,0.26203084828,0.45933072336,19,5,8.196,6.107061875216,0,0,0.286324156144,0,0,-0.223694,202.2, -0.3, 1.3,0,0,1024,1024,1684,1024,0,0,100,0,212.9,0,0,77,4.102,4.099,0,0,0,0,1.364,89.6,6.107061875216,0,10,Assisted_Takeoff,
2700,2022-08-11 19:40:17,-34.9287570011699,-56.162819536327,0,0,6.107061875216,6.107061875216,0.328084,0,0.25773130746,0.46393374188,19,5,8.196,6.107061875216,0,0,0.286324156144,0,0,-0.447388,202.2, -0.6, 0.7,0,0,1024,1024,1636,1024,0,0,93,0,212.9,0,0,77,4.102,4.099,0,0,0,0,1.364,89.6,6.107061875216,0,6,P-GPS,"Baja velocidad de la tarjeta SD. Puede afectar a su uso normal. Sustituye la tarjeta SD (Code: 10028)"
2800,2022-08-11 19:40:17,-34.9287569985388,-56.1628195962771,0,0,6.107061875216,6.107061875216,0.656168,0,0.242975073392,0.4818897792,19,5,8.209,6.107061875216,0,0,0.286324156144,0,0,-0.894776,202.2, 0, -1.1,0,0,1024,1024,1024,1024,0,0,0,0,212.9,0,0,77,4.081,4.076,0,0,0,0,1.293,89.6,6.107061875216,0,6,P-GPS,
2900,2022-08-11 19:40:18,-34.9287570108714,-56.1628196413919,0.328084,0.328084,6.107061875216,6.435145875216,0.656168,0,0.235624351372,0.49611550144,19,5,8.209,6.435145875216,0.328084,0,0.286324156144,0,0,-1.342164,202.3, 0.7, -1.3,0,0,1024,1024,1024,1024,0,0,0,0,212.9,0,0,77,4.081,4.076,0,0,0,0,1.293,89.6,6.435145875216,0.328084,6,P-GPS,"Baja velocidad de la tarjeta SD. Puede afectar a su uso normal. Sustituye la tarjeta SD (Code: 10028)"
3000,2022-08-11 19:40:18,-34.9287569925376,-56.1628197296962,0.656168,0.656168,6.107061875216,6.763229875216,0.656168,0,0.211879599956,0.52336615848,19,5,8.209,6.763229875216,0.656168,0,0.286324156144,0,0,-1.342164,202.5, 0.3, -0.4,0,0,1024,1024,1024,1024,0,0,0,0,212.9,0,0,77,4.081,4.076,0,0,0,0,1.293,89.6,6.763229875216,0.656168,6,P-GPS,
3100,2022-08-11 19:40:18,-34.9287570045412,-56.1628196775255,0.656168,0.656168,6.107061875216,6.763229875216,0.984252,0,0.22610565028,0.53957350808,19,5,8.209,6.763229875216,0.656168,0,0.286324156144,0,0,-1.342164,202.6, 0.4, 1,0,0,1024,1024,1024,1024,0,0,0,0,212.9,0,0,77,4.081,4.076,0,0,0,0,1.293,89.6,6.763229875216,0.656168,6,P-GPS,
3200,2022-08-11 19:40:18,-34.9287569994499,-56.1628196000807,0.984252,0.984252,6.107061875216,7.091313875216,0.984252,0,0.242302173108,0.56281497864,19,5,8.209,7.091313875216,0.984252,0,0.286324156144,0,0,-1.342164,202.5, 0.5, 2.3,0,0,1024,1024,1024,1024,0,0,0,0,212.9,0,0,77,4.081,4.076,0,0,0,0,1.293,89.6,7.091313875216,0.984252,6,P-GPS,
3300,2022-08-11 19:40:18,-34.9287570365576,-56.1628195449555,1.312336,1.312336,6.107061875216,7.419397875216,1.312336,0,0.263637475628,0.58415028116,19,5,8.209,7.419397875216,1.312336,0,0.286324156144,0,0,-1.11847,202.4, 0.9, 1.8,0,0,1024,1024,1024,1024,0,0,0,0,212.9,0,0,77,4.081,4.076,0,0,0,0,1.293,89.6,7.419397875216,1.312336,6,P-GPS,
3400,2022-08-11 19:40:18,-34.9287570979378,-56.1628195241693,1.312336,1.312336,6.107061875216,7.419397875216,1.312336,0,0.282937673096,0.60739175172,19,5,8.209,7.419397875216,1.312336,0,0.286324156144,0,0,-0.894776,202.3, 0.8, 2,0,0,1024,1024,1024,1024,0,0,0,0,212.9,0,0,77,4.081,4.076,0,0,0,0,1.293,89.6,7.419397875216,1.312336,6,P-GPS,
3500,2022-08-11 19:40:18,-34.9287571310827,-56.1628194309591,1.64042,1.64042,6.107061875216,7.747481875216,1.64042,0,0.311905849876,0.63778217264,19,5,8.209,7.747481875216,1.64042,0,0.311905849876,0,0,-0.671082,202.2, 0.4, 2.5,0,0,1024,1024,1024,1024,0,0,0,0,212.9,0,0,77,4.081,4.076,0,0,0,0,1.293,89.6,7.747481875216,1.64042,6,P-GPS,
3600,2022-08-11 19:40:18,-34.9287571220839,-56.1628192985327,1.64042,1.64042,6.107061875216,7.747481875216,1.64042,0,0.34120407916,0.67752954924,19,5,8.209,7.747481875216,1.64042,0,0.34120407916,0,0,-0.447388,202.4, 0.7, 2.3,0,0,1024,1024,1024,1024,0,0,0,0,212.9,0,0,77,4.081,4.076,0,0,0,0,1.293,89.6,7.747481875216,1.64042,6,P-GPS,
3700,2022-08-11 19:40:18,-34.9287571650227,-56.162819225777,1.64042,1.64042,6.107061875216,7.747481875216,1.64042,0,0.36802166532,0.70434385456,19,5,8.209,7.747481875216,1.64042,0,0.36802166532,0,0,-0.223694,202.5, 0.9, 2.7,0,0,1024,1024,1024,1024,0,0,0,0,212.9,0,0,77,4.081,4.076,0,0,0,0,1.293,89.6,7.747481875216,1.64042,6,P-GPS,
3800,2022-08-11 19:40:19,-34.9287572495374,-56.1628191249258,1.64042,1.64042,6.107061875216,7.747481875216,1.64042,0,0.41055447508,0.74748361972,19,5,8.102,7.747481875216,1.64042,0,0.41055447508,0,0,0,202.3, 1.2, 3,0,0,1024,1024,1024,1024,0,0,0,0,212.9,0,0,77,4.057,4.051,0,0,0,0,3.96,89.6,7.747481875216,1.64042,6,P-GPS,
3900,2022-08-11 19:40:19,-34.9287573481384,-56.1628191865556,1.64042,1.64042,6.107061875216,7.747481875216,1.64042,0,0.41906825488,0.78790684936,19,5,8.102,7.747481875216,1.64042,0,0.41906825488,0,0,0,202.5, 1.2, 2.6,0,0,1024,1024,1024,1024,0,0,0,0,212.9,0,0,77,4.057,4.051,0,0,0,0,3.96,89.6,7.747481875216,1.64042,6,P-GPS,
4000,2022-08-11 19:40:19,-34.9287574572963,-56.1628193211058,1.64042,1.64042,6.107061875216,7.747481875216,1.64042,0,0.41964240188,0.84452758608,19,5,8.102,7.747481875216,1.64042,0,0.41964240188,0,0,0,202.6, 1.5, 2.4,0,0,1024,1024,1024,1024,0,0,0,0,212.9,0,0,77,4.057,4.051,0,0,0,0,3.96,89.6,7.747481875216,1.64042,6,P-GPS,
4100,2022-08-11 19:40:19,-34.9287576045487,-56.1628194372208,1.968504,2.0013124,6.074253475216,8.075565875216,1.64042,0,0.44246064408,0.90850068524,19,5,8.102,8.075565875216,1.968504,0,0.44246064408,0,0,0,202.4, 1.9, 1.8,0,0,1240,1024,1024,1024,33,0,0,0,212.9,0,0,77,4.057,4.051,0,0,0,0,3.96,89.6,8.075565875216,1.968504,6,P-GPS,
4200,2022-08-11 19:40:19,-34.9287581235473,-56.1628198312998,1.968504,2.0013124,6.074253475216,8.075565875216,1.64042,0,0.57569883732,1.13155187348,19,5,8.102,8.075565875216,1.968504,0,0.57569883732,0,0,0,202.5, 0.9, 1.6,0,0,1684,1024,1024,1024,100,0,0,0,212.9,0,0,77,4.057,4.051,0,0,0,0,3.96,89.6,8.075565875216,1.968504,6,P-GPS,
4300,2022-08-11 19:40:19,-34.928758246058,-56.1628198837996,1.968504,2.0013124,6.074253475216,8.075565875216,1.64042,0,0.61669621396,1.17893048392,19,5,8.102,8.075565875216,1.968504,0,0.61669621396,0,0,0,202.3, -6.4, 2.2,0,0,1684,1024,1024,1024,100,0,0,0,212.9,0,0,77,4.057,4.051,0,0,0,0,3.96,89.6,8.075565875216,1.968504,6,P-GPS,
4400,2022-08-11 19:40:19,-34.9287583894429,-56.1628199486609,1.968504,2.0013124,6.074253475216,8.075565875216,1.64042,0.4921268,0.66562666172,1.23472444896,19,5,8.102,8.075565875216,1.968504,0.4921268,0.66562666172,-0.447388,-0.223694,0,202.1, -14.3, 2.1,0,0,1684,1024,1024,1024,100,0,0,0,212.9,0,0,77,4.057,4.051,0,0,0,0,3.96,89.6,8.075565875216,1.968504,6,P-GPS,
4500,2022-08-11 19:40:19,-34.9287587027649,-56.1628201013379,1.968504,2.0341208,6.041445075216,8.075565875216,1.64042,1.006623,0.77561354188,1.3578248466,19,5,8.102,8.075565875216,1.968504,1.006623,0.77561354188,-0.894776,-0.447388,0,202.3, -16.7, 2.1,0,0,1684,1024,1024,1024,100,0,0,0,212.9,0,0,77,4.057,4.051,0,0,0,0,3.96,89.6,8.075565875216,1.968504,6,P-GPS,
4600,2022-08-11 19:40:19,-34.9287592713739,-56.1628203873609,1.968504,2.0341208,6.041445075216,8.075565875216,1.64042,1.7000744,0.98331367976,1.58223102176,19,5,8.102,8.075565875216,1.968504,1.7000744,0.98331367976,-1.565858,-0.671082,0,202.5, -16.1, 2.3,0,0,1684,1024,1024,1024,100,0,0,0,212.9,0,0,77,4.057,4.051,0,0,0,0,3.96,89.6,8.075565875216,1.968504,6,P-GPS,
4700,2022-08-11 19:40:19,-34.9287599278465,-56.1628207317404,1.968504,2.0669292,6.008636675216,8.075565875216,1.64042,2.4158952,1.2309383596,1.84295937656,19,5,8.102,8.075565875216,1.968504,2.4158952,1.2309383596,-2.23694,-0.894776,0,202.8, -15.6, 2.3,0,0,1605,1024,1024,1024,88,0,0,0,212.9,0,0,77,4.057,4.051,0,0,0,0,3.96,89.6,8.075565875216,1.968504,6,P-GPS,
4800,2022-08-11 19:40:20,-34.9287608787402,-56.1628212143849,1.968504,2.0997376,5.975828275216,8.075565875216,1.64042,3.1093466,1.59613194084,2.2187336668,19,5,8.102,8.075565875216,1.968504,3.1093466,1.59613194084,-2.908022,-1.11847,0,202.9, -14.8, 2.5,0,0,1335,1024,1024,1024,47,0,0,0,212.9,0,0,77,4.057,4.051,0,0,0,0,3.96,89.6,8.075565875216,1.968504,6,P-GPS,
4900,2022-08-11 19:40:20,-34.9287620281318,-56.1628217799235,1.968504,2.132546,5.943019875216,8.075565875216,1.64042,3.6238428,2.04146660076,2.67092200148,19,5,8.098,8.075565875216,1.968504,3.6238428,2.04146660076,-3.35541,-1.342164,0,202.9, -13.3, 2.5,0,0,1317,1024,1024,1024,44,0,0,0,212.9,0,0,77,4.044,4.037,0,0,0,0,3.933,89.78,8.075565875216,1.968504,6,P-GPS,
5000,2022-08-11 19:40:20,-34.9287634668173,-56.1628224771805,1.968504,2.1653544,5.910211475216,8.075565875216,1.64042,4.1159696,2.60139772104,3.2357448542,19,5,8.098,8.075565875216,1.968504,4.1159696,2.60139772104,-3.802798,-1.565858,0,203, -7.7, 2.3,0,0,1317,1024,1024,1024,44,0,0,0,212.9,0,0,77,4.044,4.037,0,0,0,0,3.933,89.78,8.075565875216,1.968504,6,P-GPS,
5100,2022-08-11 19:40:20,-34.9287650799132,-56.1628230506109,1.968504,2.2309712,5.844594675216,8.075565875216,1.64042,4.1159696,3.21430128396,3.848753404,19,5,8.098,8.075565875216,1.968504,4.1159696,3.21430128396,-4.026492,-1.565858,0,203.1, -3.4, 2.3,0,0,1357,1024,1024,1024,50,0,0,0,212.9,0,0,77,4.044,4.037,0,0,0,0,3.933,89.78,8.075565875216,1.968504,6,P-GPS,
5200,2022-08-11 19:40:20,-34.9287669085361,-56.1628238824651,1.968504,2.296588,5.778977875216,8.075565875216,1.64042,4.3172942,3.9239502568,4.5608269176,19,5,8.098,8.075565875216,1.968504,4.3172942,3.9239502568,-4.026492,-1.565858,0,203.3, -2.9, 2.5,0,0,1684,1024,1024,1024,100,0,0,0,212.9,0,0,77,4.044,4.037,0,0,0,0,3.933,89.78,8.075565875216,1.968504,6,P-GPS,
5300,2022-08-11 19:40:20,-34.9287687340104,-56.1628246577312,2.296588,2.7230972,5.680552675216,8.403649875216,1.64042,4.3172942,4.6283466048,5.266076284,19,5,8.098,8.403649875216,2.296588,4.3172942,4.6283466048,-4.026492,-1.565858,0,203.1, -4.5, 2.5,0,0,1684,1024,1024,1024,100,0,0,0,212.9,0,0,77,4.044,4.037,0,0,0,0,3.933,89.78,8.403649875216,2.296588,6,P-GPS,
5400,2022-08-11 19:40:20,-34.9287707384475,-56.1628254675152,1.968504,2.46063,5.614935875216,8.075565875216,1.64042,4.6080964,5.398458178,6.0364503244,19,5,8.098,8.403649875216,2.296588,4.6080964,5.398458178,-4.250186,-1.789552,0,203.1, -10.9, 2.8,0,0,1684,1024,1024,1024,100,0,0,0,212.9,0,0,77,4.044,4.037,0,0,0,0,3.933,89.78,8.075565875216,1.968504,6,P-GPS,
5500,2022-08-11 19:40:20,-34.9287735235036,-56.1628264299698,1.968504,2.5590552,5.516510675216,8.075565875216,1.64042,4.809421,6.4544293404,7.0925855288,19,5,8.098,8.403649875216,2.296588,4.809421,6.4544293404,-4.47388,-1.789552,0,203, -14.2, 2.7,0,0,1684,1024,1442,1024,100,0,63,0,212.9,0,0,77,4.044,4.037,0,0,0,0,3.933,89.78,8.075565875216,1.968504,6,P-GPS,
5600,2022-08-11 19:40:20,-34.9287755904631,-56.1628274130721,1.968504,2.624672,5.450893875216,8.075565875216,1.64042,5.3239172,7.2615487888,7.9020343736,20,5,8.098,8.403649875216,2.296588,5.3239172,7.2615487888,-4.921268,-2.013246,0,202.9, -15.3, 2.2,0,0,1191,1024,1684,1024,25,0,100,0,212.9,0,0,77,4.044,4.037,0,0,0,0,3.933,89.78,8.075565875216,1.968504,6,P-GPS,"Punto de origen actualizado. Altitud de RPO establecida en 40m (Code: 3000001)"
5700,2022-08-11 19:40:20,-34.9287777032422,-56.1628283726648,1.968504,2.6902888,5.385277075216,8.075565875216,1.968504,5.816044,8.0829398912,8.72457377,20,5,8.098,8.403649875216,2.296588,5.816044,8.0829398912,-5.368656,-2.23694,-0.223694,202.9, -14.3, 1.7,0,0,1024,1024,1684,1024,0,0,100,0,212.9,0,0,77,4.044,4.037,0,0,0,0,3.933,89.78,8.075565875216,1.968504,6,P-GPS,
5800,2022-08-11 19:40:20,-34.928780096068,-56.1628294088861,2.296588,3.0839896,5.319660275216,8.403649875216,1.968504,6.2410626,9.008858556,9.6509845608,20,5,8.098,8.403649875216,2.296588,6.2410626,9.008858556,-5.816044,-2.23694,-0.894776,203, -5.3, 1.9,0,0,1024,1024,1684,1024,0,0,100,0,212.9,0,0,77,4.044,4.037,0,0,0,0,3.933,89.78,8.403649875216,2.296588,6,P-GPS,
5900,2022-08-11 19:40:21,-34.928782437847,-56.1628300804587,2.624672,3.5104988,5.221235075216,8.731733875216,2.296588,6.0173686,9.8840554344,10.5286748776,20,5,8.077,8.731733875216,2.624672,6.2410626,9.8840554344,-5.59235,-2.23694,-1.789552,203.4, 13.4, 2.1,0,0,1024,1024,1684,1024,0,0,100,0,212.9,0,0,77,4.044,4.037,0,0,0,0,4.34,89.78,8.731733875216,2.624672,6,P-GPS,
6000,2022-08-11 19:40:21,-34.9287847834903,-56.1628309870932,2.952756,3.937008,5.122809875216,9.059817875216,2.624672,5.368656,10.781824492,11.4264439352,20,5,8.077,9.059817875216,2.952756,6.2410626,10.781824492,-5.144962,-1.565858,-2.460634,200.6, 18.5, 1.2,0,0,1024,1024,1684,1024,0,0,100,0,212.9,0,0,77,4.044,4.037,0,0,0,0,4.34,89.78,9.059817875216,2.952756,6,P-GPS,
6100,2022-08-11 19:40:21,-34.9287866716549,-56.1628316415905,3.608924,4.6587928,5.057193075216,9.715985875216,2.952756,4.1830778,11.4977693968,12.1426184988,20,5,8.077,9.715985875216,3.608924,6.2410626,11.4977693968,-4.026492,-1.11847,-3.35541,200.6, 18.9, 2.8,0,0,1024,1024,1684,1024,0,0,100,0,212.9,0,0,77,4.044,4.037,0,0,0,0,4.34,89.78,9.715985875216,3.608924,6,P-GPS,
6200,2022-08-11 19:40:21,-34.9287882403317,-56.1628321291461,3.937008,5.0196852,5.024384675216,10.044069875216,3.608924,2.9751302,12.087598812,12.7332353156,20,5,8.077,10.044069875216,3.937008,6.2410626,12.087598812,-2.908022,-0.671082,-4.250186,200.5, 17.1, 3.1,0,0,1024,1024,1684,1024,0,0,100,0,212.9,0,0,77,4.044,4.037,0,0,0,0,4.34,89.78,10.044069875216,3.937008,6,P-GPS,
6300,2022-08-11 19:40:21,-34.9287894041578,-56.1628324532684,4.92126,6.0367456,4.991576275216,11.028321875216,4.265092,2.0356154,12.521982028,13.1687668256,20,5,8.077,11.028321875216,4.92126,6.2410626,12.521982028,-2.013246,-0.223694,-5.144962,200.4, 10.8, 3.2,0,0,1024,1024,1684,1024,0,0,100,0,212.9,0,0,77,4.044,4.037,0,0,0,0,4.34,89.78,11.028321875216,4.92126,6,P-GPS,
6400,2022-08-11 19:40:21,-34.9287907690447,-56.1628325380513,5.577428,6.7585304,4.925959475216,11.684489875216,4.92126,1.342164,13.006234012,13.6673888888,20,5,8.077,11.684489875216,5.577428,6.2410626,13.006234012,-1.342164,0,-5.59235,200.3, 7.9, 2.7,0,0,1024,1024,1684,1024,0,0,100,0,212.9,0,0,77,4.044,4.037,0,0,0,0,4.34,89.78,11.684489875216,5.577428,6,P-GPS,
6500,2022-08-11 19:40:21,-34.9287914834203,-56.1628325515661,6.56168,7.7427824,4.925959475216,12.668741875216,5.905512,0.894776,13.257546356,13.9280844352,20,5,8.077,12.668741875216,6.56168,6.2410626,13.257546356,-0.894776,0,-6.039738,200.4, 7.1, 3.9,0,0,1024,1024,1225,1024,0,0,30,0,212.9,0,0,77,4.044,4.037,0,0,0,0,4.34,89.78,12.668741875216,6.56168,6,P-GPS,
6600,2022-08-11 19:40:21,-34.9287920293789,-56.1628323689858,7.874016,9.0879268,4.893151075216,13.981077875216,6.889764,0.7158208,13.4341211648,14.1346133132,20,5,8.077,13.981077875216,7.874016,6.2410626,13.4341211648,-0.671082,0.223694,-6.263432,200.2, 5.5, 4.4,0,0,1024,1024,1024,1024,0,0,0,0,212.9,0,0,77,4.044,4.037,0,0,0,0,4.34,89.78,13.981077875216,7.874016,6,P-GPS,
6700,2022-08-11 19:40:21,-34.9287924246283,-56.1628321328477,8.858268,10.0721788,4.893151075216,14.965329875216,7.874016,0.7158208,13.554298334,14.2952104312,20,5,8.077,14.965329875216,8.858268,6.2410626,13.554298334,-0.671082,0.223694,-6.039738,200, 5.7, 5.1,0,0,1024,1024,1024,1024,0,0,0,0,212.9,0,0,77,4.044,4.037,0,0,0,0,4.34,89.78,14.965329875216,8.858268,6,P-GPS,
6800,2022-08-11 19:40:21,-34.9287922903924,-56.1628312036141,9.84252,11.0564308,4.893151075216,15.949581875216,8.530184,0.671082,13.4364177528,14.577428288,20,5,8.077,15.949581875216,9.84252,6.2410626,13.554298334,-0.671082,0,-5.368656,200.1, 5.8, 4.7,0,0,1024,1024,1024,1024,0,0,0,0,212.9,0,0,77,4.044,4.037,0,0,0,0,4.34,89.78,15.949581875216,9.84252,6,P-GPS,
6900,2022-08-11 19:40:22,-34.928792615977,-56.1628310196323,10.498688,11.7454072,4.860342675216,16.605749875216,9.186352,0.671082,13.5384190684,14.7083666124,20,5,7.968,16.605749875216,10.498688,6.2410626,13.554298334,-0.671082,0,-4.697574,200.2, 6, 4.1,0,0,1024,1024,1024,1024,0,0,0,0,212.9,0,0,77,4.002,3.999,0,0,0,0,6.406,89.78,16.605749875216,10.498688,6,P-GPS,
7000,2022-08-11 19:40:22,-34.9287929828036,-56.1628308822399,11.154856,12.4015752,4.860342675216,17.261917875216,9.84252,0.9171454,13.658793088,14.8483600552,20,5,7.968,17.261917875216,11.154856,6.2410626,13.658793088,-0.894776,0.223694,-4.026492,200.2, 5.6, 5.7,0,0,1024,1024,1404,1024,0,0,58,0,212.9,0,0,77,4.002,3.999,0,0,0,0,6.406,89.78,17.261917875216,11.154856,6,P-GPS,
7100,2022-08-11 19:40:22,-34.9287933657061,-56.1628307628281,11.811024,13.0577432,4.860342675216,17.918085875216,10.170604,0.894776,13.7864505724,14.9925529732,20,5,7.968,17.918085875216,11.811024,6.2410626,13.7864505724,-0.894776,0,-3.35541,200.5, 6.7, 6.1,0,0,1024,1024,1669,1024,0,0,98,0,212.9,0,0,77,4.002,3.999,0,0,0,0,6.406,89.78,17.918085875216,11.811024,6,P-GPS,
7200,2022-08-11 19:40:22,-34.9287938387072,-56.1628309822186,12.467192,13.779528,4.794725875216,18.574253875216,10.826772,0.9171454,13.969488636,15.1771986484,20,5,7.968,18.574253875216,12.467192,6.2410626,13.969488636,-0.894776,0.223694,-3.35541,200.3, 5.8, 5.6,0,0,1024,1024,1684,1024,0,0,100,0,212.9,0,0,77,4.002,3.999,0,0,0,0,6.406,89.78,18.574253875216,12.467192,6,P-GPS,
7300,2022-08-11 19:40:22,-34.9287941843347,-56.16283083468,13.12336,14.435696,4.794725875216,19.230421875216,11.154856,0.9171454,14.0822182984,15.3107944532,20,5,7.968,19.230421875216,13.12336,6.2410626,14.0822182984,-0.894776,0.223694,-3.802798,200.3, 5.3, 5.4,0,0,1024,1024,1684,1024,0,0,100,0,212.9,0,0,77,4.002,3.999,0,0,0,0,6.406,89.78,19.230421875216,13.12336,6,P-GPS,
7400,2022-08-11 19:40:22,-34.9287944847305,-56.1628306250831,14.107612,15.419948,4.794725875216,20.214673875216,11.811024,0.7158208,14.1751316872,15.4370411764,20,5,7.968,20.214673875216,14.107612,6.2410626,14.1751316872,-0.671082,0.223694,-4.47388,200.3, 5, 5.7,0,0,1024,1024,1684,1024,0,0,100,0,212.9,0,0,77,4.002,3.999,0,0,0,0,6.406,89.78,20.214673875216,14.107612,6,P-GPS,
7500,2022-08-11 19:40:22,-34.928794716432,-56.1628303759383,15.091864,16.4370084,4.761917475216,21.198925875216,12.467192,0.7158208,14.2415686972,15.5497380304,20,5,7.968,21.198925875216,15.091864,6.2410626,14.2415686972,-0.671082,0.223694,-5.368656,200.3, 5, 6.9,0,0,1024,1024,1684,1024,0,0,100,0,212.9,0,0,77,4.002,3.999,0,0,0,0,6.406,89.78,21.198925875216,15.091864,6,P-GPS,
7600,2022-08-11 19:40:22,-34.9287947814265,-56.1628301209366,16.076116,17.4212604,4.761917475216,22.183177875216,13.451444,0.7158208,14.24868812,15.6296264844,20,5,7.968,22.183177875216,16.076116,6.2410626,14.24868812,-0.671082,0.223694,-5.816044,200.5, 5.7, 7.3,0,0,1024,1024,1684,1024,0,0,100,0,212.9,0,0,77,4.002,3.999,0,0,0,0,6.406,89.78,22.183177875216,16.076116,6,P-GPS,
7700,2022-08-11 19:40:22,-34.928795010884,-56.162829831519,17.060368,18.4055124,4.761917475216,23.167429875216,14.107612,0.7158208,14.3129597756,15.7500661208,20,5,7.968,23.167429875216,17.060368,6.2410626,14.3129597756,-0.671082,0.223694,-6.263432,200.5, 5.7, 7.3,0,0,1024,1024,1684,1024,0,0,100,0,212.9,0,0,77,4.002,3.999,0,0,0,0,6.406,89.78,23.167429875216,17.060368,6,P-GPS,
7800,2022-08-11 19:40:22,-34.9287952956337,-56.1628295272189,18.04462,19.3897644,4.761917475216,24.151681875216,15.091864,0.4921268,14.3968836628,15.8881894848,20,5,7.968,24.151681875216,18.04462,6.2410626,14.3968836628,-0.447388,0.223694,-6.487126,200.4, 5.1, 6.8,0,0,1024,1024,1684,1024,0,0,100,0,212.9,0,0,77,4.002,3.999,0,0,0,0,6.406,89.78,24.151681875216,18.04462,6,P-GPS,
7900,2022-08-11 19:40:23,-34.9287955192289,-56.1628292317303,19.028872,20.4068248,4.729109075216,25.135933875216,16.076116,0.4921268,14.4602038748,16.0084650792,20,5,8.008,25.135933875216,19.028872,6.2410626,14.4602038748,-0.447388,0.223694,-6.487126,200.4, 5, 6.3,0,0,1024,1024,1684,1024,0,0,100,0,212.9,0,0,77,4.002,4.001,0,0,0,0,4.806,89.6,25.135933875216,19.028872,6,P-GPS,
8000,2022-08-11 19:40:23,-34.9287956946188,-56.1628289085249,20.013124,21.3910768,4.729109075216,26.120185875216,17.060368,0.3131716,14.5054794668,16.1244099648,20,5,8.008,26.120185875216,20.013124,6.2410626,14.5054794668,-0.223694,0.223694,-6.487126,200.5, 5, 6,0,0,1024,1024,1684,1024,0,0,100,0,212.9,0,0,77,4.002,4.001,0,0,0,0,4.806,89.6,26.120185875216,20.013124,6,P-GPS,
8100,2022-08-11 19:40:23,-34.9287960796513,-56.1628284625234,20.997376,22.3753288,4.729109075216,27.104437875216,17.716536,0.3131716,14.6206369508,16.3181435668,20,5,8.008,27.104437875216,20.997376,6.2410626,14.6206369508,-0.223694,0.223694,-6.487126,200.4, 4.2, 6.3,0,0,1024,1024,1684,1024,0,0,100,0,212.9,0,0,77,4.002,4.001,0,0,0,0,4.806,89.6,27.104437875216,20.997376,6,P-GPS,
8200,2022-08-11 19:40:23,-34.9287961575952,-56.1628282116845,22.309712,23.6876648,4.729109075216,28.416773875216,18.700788,0,14.6362209408,16.3983929132,20,5,8.008,28.416773875216,22.309712,6.2410626,14.6362209408,0,0,-6.487126,200.4, 3.7, 5.8,0,0,1024,1024,1684,1024,0,0,100,0,212.9,0,0,77,4.002,4.001,0,0,0,0,4.806,89.6,28.416773875216,22.309712,6,P-GPS,
8300,2022-08-11 19:40:23,-34.9287961959939,-56.1628280383636,23.293964,24.6719168,4.729109075216,29.401025875216,19.68504,0,14.6416999436,16.452100264,20,5,8.008,29.401025875216,23.293964,6.2410626,14.6416999436,0,0,-6.487126,200.3, 3, 6.8,0,0,1024,1024,1684,1024,0,0,100,0,212.9,0,0,77,4.002,4.001,0,0,0,0,4.806,89.6,29.401025875216,23.293964,6,P-GPS,
8400,2022-08-11 19:40:23,-34.9287961998077,-56.1628279665601,24.278216,25.6561688,4.729109075216,30.385277875216,20.669292,0,14.6396658228,16.4736225744,20,5,8.008,30.385277875216,24.278216,6.2410626,14.6416999436,0,0,-6.263432,200.1, 3, 3.6,0,0,1024,1024,1684,1024,0,0,100,0,212.9,0,0,77,4.002,4.001,0,0,0,0,4.806,89.6,30.385277875216,24.278216,6,P-GPS,
8500,2022-08-11 19:40:23,-34.9287962432123,-56.1628281472216,24.934384,26.3123368,4.729109075216,31.041445875216,21.653544,0,14.6639112304,16.5299217888,20,5,8.008,31.041445875216,24.934384,6.2410626,14.6639112304,0,0,-6.263432,200, 2.7, 1.2,0,0,1024,1024,1684,1024,0,0,100,0,212.9,0,0,77,4.002,4.001,0,0,0,0,4.806,89.6,31.041445875216,24.934384,6,P-GPS,
8600,2022-08-11 19:40:23,-34.9287961975767,-56.1628280787017,25.918636,27.2965888,4.729109075216,32.025697875216,22.309712,0,14.644193382,16.5563325508,20,5,8.008,32.025697875216,25.918636,6.2410626,14.6639112304,0,0,-6.487126,200, 2.7, 1.2,0,0,1024,1024,1684,1024,0,0,100,0,212.9,0,0,77,4.002,4.001,0,0,0,0,4.806,89.6,32.025697875216,25.918636,6,P-GPS,
8700,2022-08-11 19:40:23,-34.92879616875,-56.1628279973319,26.902888,28.2808408,4.729109075216,33.009949875216,23.293964,0,14.629921728,16.582841738,20,5,8.008,33.009949875216,26.902888,6.2410626,14.6639112304,0,0,-6.487126,200, 2.5, 0.6,0,0,1024,1024,1684,1024,0,0,100,0,212.9,0,0,77,4.002,4.001,0,0,0,0,4.806,89.6,33.009949875216,26.902888,6,P-GPS,
8800,2022-08-11 19:40:23,-34.9287961712676,-56.1628278787312,27.88714,29.2650928,4.729109075216,33.994201875216,24.278216,0,14.6252301268,16.6183404268,20,5,8.008,33.994201875216,27.88714,6.2410626,14.6639112304,0,0,-6.487126,200, 2.6, 1.2,0,0,1024,1024,1684,1024,0,0,100,0,212.9,0,0,77,4.002,4.001,0,0,0,0,4.806,89.6,33.994201875216,27.88714,6,P-GPS,
8900,2022-08-11 19:40:24,-34.9287964478165,-56.1628279339635,28.871392,30.2493448,4.729109075216,34.978453875216,25.262468,0.223694,14.7274939096,16.7205714012,20,5,8.008,34.978453875216,28.871392,6.2410626,14.7274939096,-0.223694,0,-6.71082,200.1, 3.2, 1.8,0,0,1024,1024,1684,1024,0,0,100,0,212.9,0,0,77,3.994,3.987,0,0,0,0,4.806,89.6,34.978453875216,28.871392,6,P-GPS,
9000,2022-08-11 19:40:24,-34.9287965915364,-56.1628277990202,29.855644,31.2664052,4.696300675216,35.962705875216,26.24672,0.223694,14.7730319688,16.786745944,20,5,8.008,35.962705875216,29.855644,6.2410626,14.7730319688,-0.223694,0,-6.71082,200.2, 4.5, 2.2,0,0,1024,1024,1684,1024,0,0,100,0,212.9,0,0,77,3.994,3.987,0,0,0,0,4.806,89.6,35.962705875216,29.855644,6,P-GPS,
9100,2022-08-11 19:40:24,-34.9287966852404,-56.1628276821633,30.839896,32.2506572,4.696300675216,36.946957875216,27.559056,0.223694,14.80150966,16.83563046,20,5,8.008,36.946957875216,30.839896,6.2410626,14.80150966,-0.223694,0,-6.71082,200.2, 5.2, 2.8,0,0,1024,1024,1684,1024,0,0,100,0,212.9,0,0,77,3.994,3.987,0,0,0,0,4.806,89.6,36.946957875216,30.839896,6,P-GPS,
9200,2022-08-11 19:40:24,-34.9287967237075,-56.1628275791399,31.824148,33.2349092,4.696300675216,37.931209875216,28.543308,0.223694,14.8107616288,16.8694887288,20,5,8.008,37.931209875216,31.824148,6.2410626,14.8107616288,-0.223694,0,-6.71082,200.2, 5.7, 2.7,0,0,1024,1024,1684,1024,0,0,100,0,212.9,0,0,77,3.994,3.987,0,0,0,0,4.806,89.6,37.931209875216,31.824148,6,P-GPS,
9300,2022-08-11 19:40:24,-34.9287967545046,-56.1628275573401,32.480316,33.8910772,4.696300675216,38.587377875216,29.855644,0,14.8209322328,16.8824808552,20,5,8.008,38.587377875216,32.480316,6.2410626,14.8209322328,0,0,-6.71082,200.1, 5.7, 2.7,0,0,1024,1024,1684,1024,0,0,100,0,212.9,0,0,77,3.994,3.987,0,0,0,0,4.806,89.6,38.587377875216,32.480316,6,P-GPS,
9400,2022-08-11 19:40:24,-34.9287967809082,-56.1628274270754,33.464568,34.8753292,4.696300675216,39.571629875216,31.16798,0,14.8247380072,16.9226383368,20,5,8.008,39.571629875216,33.464568,6.2410626,14.8247380072,0,0,-6.71082,200.3, 5.1, 2.6,0,0,1024,1024,1684,1024,0,0,100,0,212.9,0,0,77,3.994,3.987,0,0,0,0,4.806,89.6,39.571629875216,33.464568,6,P-GPS,
9500,2022-08-11 19:40:24,-34.9287968059146,-56.1628273539461,34.44882,35.8595812,4.696300675216,40.555881875216,32.152232,0,14.8306107108,16.9463260016,20,5,8.008,40.555881875216,34.44882,6.2410626,14.8306107108,0,0,-6.71082,200.2, 5.3, 2,0,0,1024,1024,1684,1024,0,0,100,0,212.9,0,0,77,3.994,3.987,0,0,0,0,4.806,89.6,40.555881875216,34.44882,6,P-GPS,
9600,2022-08-11 19:40:24,-34.9287968277781,-56.1628273235074,35.433072,36.8438332,4.696300675216,41.540133875216,33.136484,0,14.8372051992,16.9584323012,20,5,8.008,41.540133875216,35.433072,6.2410626,14.8372051992,0,0,-6.71082,200.1, 5, 1.6,0,0,1024,1024,1684,1024,0,0,100,0,212.9,0,0,77,3.994,3.987,0,0,0,0,4.806,89.6,41.540133875216,35.433072,6,P-GPS,
9700,2022-08-11 19:40:24,-34.9287968441016,-56.1628273369974,36.417324,37.8280852,4.696300675216,42.524385875216,34.120736,0,14.843668454,16.9656501492,20,5,8.008,42.524385875216,36.417324,6.2410626,14.843668454,0,0,-6.71082,200.1, 5.3, 1.4,0,0,1024,1024,1684,1024,0,0,100,0,212.9,0,0,77,3.994,3.987,0,0,0,0,4.806,89.6,42.524385875216,36.417324,6,P-GPS,
9800,2022-08-11 19:40:25,-34.928796967479,-56.1628277518783,37.401576,38.8123372,4.696300675216,43.508637875216,35.104988,0,14.9064637316,17.0976383424,20,5,8.008,43.508637875216,37.401576,6.2410626,14.9064637316,0,0,-6.71082,200.1, 5, 1.3,0,0,1024,1024,1684,1024,0,0,100,0,212.9,0,0,77,3.994,3.987,0,0,0,0,4.806,89.6,43.508637875216,37.401576,6,P-GPS,
9900,2022-08-11 19:40:25,-34.9287969368415,-56.1628277597361,38.385828,39.7965892,4.696300675216,44.492889875216,36.08924,0,14.8957681932,17.1090556656,20,5,8.004,44.492889875216,38.385828,6.2410626,14.9064637316,0,0,-6.71082,200.1, 4.9, 1.8,0,0,1024,1024,1684,1024,0,0,100,0,212.9,0,0,77,3.999,3.996,0,0,0,0,5.654,89.6,44.492889875216,38.385828,6,P-GPS,
10000,2022-08-11 19:40:25,-34.928796878439,-56.1628277338637,39.041996,40.4527572,4.696300675216,45.149057875216,37.073492,0,14.873524098,17.13172627,20,5,8.004,45.149057875216,39.041996,6.2410626,14.9064637316,0,0,-6.487126,200.4, 5.6, 2.4,0,0,1024,1024,1684,1024,0,0,100,0,212.9,0,0,77,3.999,3.996,0,0,0,0,5.654,89.6,45.149057875216,39.041996,6,P-GPS,
10100,2022-08-11 19:40:25,-34.928796812158,-56.1628277102849,40.026248,41.4370092,4.696300675216,46.133309875216,38.057744,0,14.8485569056,17.1569231212,20,5,8.004,46.133309875216,40.026248,6.2410626,14.9064637316,0,0,-6.487126,200.2, 5.4, 2.6,0,0,1024,1024,1684,1024,0,0,100,0,212.9,0,0,77,3.999,3.996,0,0,0,0,5.654,89.6,46.133309875216,40.026248,6,P-GPS,
10200,2022-08-11 19:40:25,-34.928796727036,-56.1628277933358,41.0105,42.4212612,4.696300675216,47.117561875216,39.041996,0,14.8216212092,17.196686902,20,5,8.004,47.117561875216,41.0105,6.2410626,14.9064637316,0,0,-6.263432,200.2, 5.4, 2,0,0,1024,1024,1621,1024,0,0,90,0,212.9,0,0,77,3.999,3.996,0,0,0,0,5.654,89.6,47.117561875216,41.0105,6,P-GPS,
10300,2022-08-11 19:40:25,-34.9287966836901,-56.1628277497127,41.994752,43.4055132,4.696300675216,48.101813875216,40.026248,0,14.8040030984,17.217192152,20,5,8.004,48.101813875216,41.994752,6.2410626,14.9064637316,0,0,-6.263432,200.3, 3.9, 2,0,0,1024,1024,1621,1024,0,0,90,0,212.9,0,0,77,3.999,3.996,0,0,0,0,5.654,89.6,48.101813875216,41.994752,6,P-GPS,
10400,2022-08-11 19:40:25,-34.9287966798632,-56.1628277038312,42.979004,44.3897652,4.696300675216,49.086065875216,41.0105,0,14.8005582164,17.2310044884,20,5,8.004,49.086065875216,42.979004,6.2410626,14.9064637316,0,0,-6.487126,200.3, 4.8, 2.3,0,0,1024,1024,1024,1024,0,0,0,0,212.9,0,0,77,3.999,3.996,0,0,0,0,5.654,89.6,49.086065875216,42.979004,6,P-GPS,
10500,2022-08-11 19:40:25,-34.9287967397737,-56.1628276833793,43.963256,45.3740172,4.696300675216,50.070317875216,41.994752,0,14.8212275084,17.2537079012,20,5,8.004,50.070317875216,43.963256,6.2410626,14.9064637316,0,0,-6.039738,200.2, 3.8, -0.6,0,0,1024,1024,1024,1024,0,0,0,0,212.9,0,0,77,3.999,3.996,0,0,0,0,5.654,89.6,50.070317875216,43.963256,6,P-GPS,
10600,2022-08-11 19:40:25,-34.9287971940086,-56.1628276291097,44.947508,46.3582692,4.696300675216,51.054569875216,42.65092,0,14.9826776448,17.4202105312,20,5,8.004,51.054569875216,44.947508,6.2410626,14.9826776448,0,0,-5.59235,200.2, 5.7, 0.6,0,0,1024,1024,1024,1024,0,0,0,0,212.9,0,0,77,3.999,3.996,0,0,0,0,5.654,89.6,51.054569875216,44.947508,6,P-GPS,
10700,2022-08-11 19:40:25,-34.9287972925751,-56.1628276273777,45.603676,47.0144372,4.696300675216,51.710737875216,42.65092,0,15.0181763336,17.4561685376,20,5,8.004,51.710737875216,45.603676,6.2410626,15.0181763336,0,0,-5.144962,200.3, 7.2, 1.6,0,0,1024,1024,1024,1024,0,0,0,0,212.9,0,0,77,3.999,3.996,0,0,0,0,5.654,89.6,51.710737875216,45.603676,6,P-GPS,
10800,2022-08-11 19:40:25,-34.9287973462583,-56.1628276550095,46.259844,47.6706052,4.696300675216,52.366905875216,42.65092,0.223694,15.0387800088,17.4774283808,20,5,8.004,52.366905875216,46.259844,6.2410626,15.0387800088,-0.223694,0,-4.250186,200.3, 8.5, 1,0,0,1024,1024,1143,1024,0,0,18,0,212.9,0,0,77,3.999,3.996,0,0,0,0,5.654,89.6,52.366905875216,46.259844,6,P-GPS,
10900,2022-08-11 19:40:26,-34.9287973938643,-56.1628277043837,46.587928,47.9986892,4.696300675216,52.694989875216,42.65092,0.223694,15.0581369648,17.5002302188,20,5,7.994,52.694989875216,46.587928,6.2410626,15.0581369648,-0.223694,0,-3.35541,200.3, 9.1, 0.9,0,0,1024,1024,1684,1024,0,0,100,0,212.9,0,0,77,4.012,4.005,0,0,0,0,5.99,89.6,52.694989875216,46.587928,6,P-GPS,
11000,2022-08-11 19:40:26,-34.9287971822512,-56.162827976206,46.916012,48.3267732,4.696300675216,53.023073875216,42.65092,0.223694,14.9941277764,17.61236933,20,5,7.994,53.023073875216,46.916012,6.2410626,15.0581369648,-0.223694,0,-2.684328,200.5, 9, 0.8,0,0,1024,1024,1684,1024,0,0,100,0,212.9,0,0,77,4.012,4.005,0,0,0,0,5.99,89.6,53.023073875216,46.916012,6,P-GPS,
11100,2022-08-11 19:40:26,-34.9287972484768,-56.1628279871112,47.244096,48.6548572,4.696300675216,53.351157875216,42.65092,0.223694,15.0185044176,17.6367459712,20,5,7.994,53.351157875216,47.244096,6.2410626,15.0581369648,-0.223694,0,-3.131716,200.2, 8.3, 0.5,0,0,1024,1024,1684,1024,0,0,100,0,212.9,0,0,77,4.012,4.005,0,0,0,0,5.99,89.6,53.351157875216,47.244096,6,P-GPS,
11200,2022-08-11 19:40:26,-34.9287973422165,-56.1628279386422,47.900264,49.3110252,4.696300675216,54.007325875216,42.65092,0,15.0500660984,17.67388508,20,5,7.994,54.007325875216,47.900264,6.2410626,15.0581369648,0,0,-3.579104,200.3, 7.7, 1.4,0,0,1024,1024,1684,1024,0,0,100,0,212.9,0,0,77,4.012,4.005,0,0,0,0,5.99,89.6,54.007325875216,47.900264,6,P-GPS,
11300,2022-08-11 19:40:26,-34.9287974208671,-56.1628278762404,48.556432,49.9671932,4.696300675216,54.663493875216,42.65092,0,15.0755910336,17.7081370496,20,5,7.994,54.663493875216,48.556432,6.2410626,15.0755910336,0,0,-4.250186,200.3, 7.6, 1,0,0,1024,1024,1684,1024,0,0,100,0,212.9,0,0,77,4.012,4.005,0,0,0,0,5.99,89.6,54.663493875216,48.556432,6,P-GPS,
11400,2022-08-11 19:40:26,-34.9287974879395,-56.1628278046524,49.2126,50.6233612,4.696300675216,55.319661875216,42.65092,0,15.0965556012,17.740650174,20,5,7.994,55.319661875216,49.2126,6.2410626,15.0965556012,0,0,-5.144962,200.3, 7.6, 0.9,0,0,1024,1024,1684,1024,0,0,100,0,212.9,0,0,77,4.012,4.005,0,0,0,0,5.99,89.6,55.319661875216,49.2126,6,P-GPS,
11500,2022-08-11 19:40:26,-34.9287976013411,-56.1628276953059,50.196852,51.6404216,4.663492275216,56.303913875216,42.65092,0,15.1326120328,17.7933732728,20,5,7.994,56.303913875216,50.196852,6.2410626,15.1326120328,0,0,-5.816044,200.1, 8.7, 1.2,0,0,1024,1024,1377,1024,0,0,53,0,212.9,0,0,77,4.012,4.005,0,0,0,0,5.99,89.6,56.303913875216,50.196852,6,P-GPS,
11600,2022-08-11 19:40:26,-34.9287975369361,-56.1628276134997,50.85302,52.2965896,4.663492275216,56.960081875216,42.65092,0,15.1057747616,17.8272971584,20,5,7.994,56.960081875216,50.85302,6.2410626,15.1326120328,0,0,-6.039738,200.2, 8, 0.7,0,0,1024,1024,1024,1024,0,0,0,0,212.9,0,0,77,4.012,4.005,0,0,0,0,5.99,89.6,56.960081875216,50.85302,6,P-GPS,
11700,2022-08-11 19:40:26,-34.9287974674374,-56.1628275584255,51.837272,53.2480332,4.696300675216,57.944333875216,42.65092,0,15.0782813224,17.8575465032,20,5,7.994,57.944333875216,51.837272,6.2410626,15.1326120328,0,0,-5.816044,200.3, 8.6, 0.1,0,0,1024,1024,1024,1024,0,0,0,0,212.9,0,0,77,4.012,4.005,0,0,0,0,5.99,89.6,57.944333875216,51.837272,6,P-GPS,
11800,2022-08-11 19:40:26,-34.9287974194927,-56.1628275199095,52.49344,53.9042012,4.696300675216,58.600501875216,42.65092,0,15.0592852588,17.8785110708,20,5,7.994,58.600501875216,52.49344,6.2410626,15.1326120328,0,0,-5.144962,200.3, 8.8, 0.4,0,0,1024,1024,1024,1388,0,0,0,55,212.9,0,0,77,4.012,4.005,0,0,0,0,5.99,89.6,58.600501875216,52.49344,6,P-GPS,
11900,2022-08-11 19:40:27,-34.9287972164388,-56.1628274343586,53.149608,54.5603692,4.696300675216,59.256669875216,42.65092,0,14.982283944,17.9568903384,20,5,7.964,59.256669875216,53.149608,6.2410626,15.1326120328,0,0,-4.250186,200.3, 9, 2.1,0,0,1024,1024,1024,1684,0,0,0,100,213,0,0,77,4.019,4.012,0,0,0,0,5.585,89.6,59.256669875216,53.149608,6,P-GPS,
12000,2022-08-11 19:40:27,-34.9287971749395,-56.1628273108429,53.477692,54.8884532,4.696300675216,59.584753875216,42.65092,0,14.9620411612,17.9968181612,20,5,7.964,59.584753875216,53.477692,6.2410626,15.1326120328,0,0,-3.35541,200.7, 9, 0.9,0,0,1024,1024,1024,1684,0,0,0,100,214.7,0,0,77,4.019,4.012,0,0,0,0,5.585,89.6,59.584753875216,53.477692,6,P-GPS,
12100,2022-08-11 19:40:27,-34.9287971595735,-56.1628271805064,53.805776,55.2165372,4.696300675216,59.912837875216,42.65092,0,14.9510175388,18.0361882412,20,5,7.964,59.912837875216,53.805776,6.2410626,15.1326120328,0,0,-2.684328,203.8, 9.5, 2.3,0,0,1024,1024,1024,1684,0,0,0,100,218.9,0,0,77,4.019,4.012,0,0,0,0,5.585,89.6,59.912837875216,53.805776,6,P-GPS,
12200,2022-08-11 19:40:27,-34.9287971865112,-56.1628270397728,54.13386,55.5446212,4.696300675216,60.240921875216,42.65092,0,14.9549545468,18.0794297124,20,5,7.964,60.240921875216,54.13386,6.2410626,15.1326120328,0,0,-1.789552,208.1, 9.9, 3.1,0,0,1024,1024,1024,1684,0,0,0,100,223.7,0,0,77,4.019,4.012,0,0,0,0,5.585,89.6,60.240921875216,54.13386,6,P-GPS,
12300,2022-08-11 19:40:27,-34.9287972177057,-56.1628268997054,54.461944,55.8727052,4.696300675216,60.569005875216,42.65092,0.223694,14.9605647832,18.1228352256,20,5,7.964,60.569005875216,54.461944,6.2410626,15.1326120328,-0.223694,0,-1.11847,212.9, 9.7, 4.2,0,0,1024,1024,1024,1684,0,0,0,100,228.4,0,0,77,4.019,4.012,0,0,0,0,5.585,89.6,60.569005875216,54.461944,6,P-GPS,
12400,2022-08-11 19:40:27,-34.928797353088,-56.162826837817,54.461944,55.8727052,4.696300675216,60.569005875216,42.65092,0.223694,15.0070870944,18.1755911328,20,5,7.964,60.569005875216,54.461944,6.2410626,15.1326120328,-0.223694,0,-0.671082,217.9, 9, 4.1,0,0,1024,1024,1024,1684,0,0,0,100,233.2,0,0,77,4.019,4.012,0,0,0,0,5.585,89.6,60.569005875216,54.461944,6,P-GPS,
12500,2022-08-11 19:40:27,-34.9287974384836,-56.1628267818663,54.790028,56.2007892,4.696300675216,60.897089875216,42.65092,0,15.035761636,18.210958588,20,5,7.964,60.897089875216,54.790028,6.2410626,15.1326120328,0,0,-0.447388,222.3, 8, 5.1,0,0,1024,1024,1024,1684,0,0,0,100,238,0,0,77,4.019,4.012,0,0,0,0,5.585,89.6,60.897089875216,54.790028,6,P-GPS,
12600,2022-08-11 19:40:27,-34.9287974687597,-56.1628267059797,54.790028,56.2007892,4.696300675216,60.897089875216,42.65092,0,15.0437668856,18.2361882476,20,5,7.964,60.897089875216,54.790028,6.2410626,15.1326120328,0,0,-0.223694,227, 7.1, 6.4,0,0,1024,1024,1024,1684,0,0,0,100,242.9,0,0,77,4.019,4.012,0,0,0,0,5.585,89.6,60.897089875216,54.790028,6,P-GPS,
12700,2022-08-11 19:40:27,-34.928797443952,-56.1628266719163,54.790028,56.2007892,4.696300675216,60.897089875216,42.65092,0,15.0334978564,18.249836542,20,5,7.964,60.897089875216,54.790028,6.2410626,15.1326120328,0,0,-0.223694,231.8, 6.4, 6.7,0,0,1024,1024,1024,1684,0,0,0,100,247.6,0,0,77,4.019,4.012,0,0,0,0,5.585,89.6,60.897089875216,54.790028,6,P-GPS,
12800,2022-08-11 19:40:27,-34.9287974752213,-56.162826543735,54.790028,56.2007892,4.696300675216,60.897089875216,42.65092,0,15.0399611112,18.2898299816,20,5,7.964,60.897089875216,54.790028,6.2410626,15.1326120328,0,0,-0.223694,236.8, 6, 6.3,0,0,1024,1024,1024,1684,0,0,0,100,252.4,0,0,77,4.019,4.012,0,0,0,0,5.585,89.6,60.897089875216,54.790028,6,P-GPS,
12900,2022-08-11 19:40:28,-34.9287974797777,-56.1628264245688,54.790028,56.2007892,4.696300675216,60.897089875216,42.65092,0,15.0371723972,18.3255255208,20,5,7.953,60.897089875216,54.790028,6.2410626,15.1326120328,0,0,0,241.4, 5.1, 6.4,0,0,1024,1024,1024,1684,0,0,0,100,257.3,0,0,77,4.026,4.021,0,0,0,0,5.047,89.6,60.897089875216,54.790028,6,P-GPS,
13000,2022-08-11 19:40:28,-34.9287974683623,-56.1628263045353,54.790028,56.2007892,4.696300675216,60.897089875216,42.65092,0,15.0286422132,18.3616803776,20,5,7.953,60.897089875216,54.790028,6.2410626,15.1326120328,0,0,0,246.3, 4.8, 6.8,0,0,1024,1024,1024,1684,0,0,0,100,262.1,0,0,77,4.026,4.021,0,0,0,0,5.047,89.6,60.897089875216,54.790028,6,P-GPS,
13100,2022-08-11 19:40:28,-34.9287974335951,-56.16282617821,54.461944,55.8727052,4.696300675216,60.569005875216,42.65092,0,15.0115162284,18.4015097752,20,5,7.953,60.897089875216,54.790028,6.2410626,15.1326120328,0,0,0,251.1, 4.1, 6.7,0,0,1024,1024,1024,1684,0,0,0,100,266.9,0,0,77,4.026,4.021,0,0,0,0,5.047,89.6,60.569005875216,54.461944,6,P-GPS,
13200,2022-08-11 19:40:28,-34.9287972474672,-56.162826023417,54.461944,55.8727052,4.696300675216,60.569005875216,42.65092,0,14.938648772,18.4837276256,20,5,7.953,60.897089875216,54.790028,6.2410626,15.1326120328,0,0,0,255.8, 3.1, 5.6,0,0,1024,1024,1024,1684,0,0,0,100,271.7,0,0,77,4.026,4.021,0,0,0,0,5.047,89.6,60.569005875216,54.461944,6,P-GPS,
13300,2022-08-11 19:40:28,-34.9287971705134,-56.1628258821022,54.461944,55.8727052,4.696300675216,60.569005875216,42.65092,0,14.9059059888,18.534449412,20,5,7.953,60.897089875216,54.790028,6.2410626,15.1326120328,0,0,0,260.5, 2, 5.9,0,0,1024,1024,1024,1684,0,0,0,100,276.5,0,0,77,4.026,4.021,0,0,0,0,5.047,89.6,60.569005875216,54.461944,6,P-GPS,
13400,2022-08-11 19:40:28,-34.9287970838802,-56.1628257362956,54.13386,55.5446212,4.696300675216,60.240921875216,42.65092,0,14.8696198984,18.5883208048,20,5,7.953,60.897089875216,54.790028,6.2410626,15.1326120328,0,0,0,265.6, 2.8, 6.3,0,0,1024,1024,1024,1684,0,0,0,100,281.3,0,0,77,4.026,4.021,0,0,0,0,5.047,89.6,60.240921875216,54.13386,6,P-GPS,
13500,2022-08-11 19:40:28,-34.9287970669932,-56.1628255736016,54.13386,55.5446212,4.696300675216,60.240921875216,42.65092,0.223694,14.8581697668,18.6373693628,20,5,7.953,60.897089875216,54.790028,6.2410626,15.1326120328,0,0.223694,0,270.4, 1.3, 6.3,0,0,1024,1024,1024,1684,0,0,0,100,286.1,0,0,77,4.026,4.021,0,0,0,0,5.047,89.6,60.240921875216,54.13386,6,P-GPS,
13600,2022-08-11 19:40:28,-34.92879692327,-56.1628253664602,54.13386,55.5446212,4.696300675216,60.240921875216,42.65092,0.223694,14.7994755392,18.7185373444,20,5,7.953,60.897089875216,54.790028,6.2410626,15.1326120328,0,0.223694,0,274.8, -0.5, 5.9,0,0,1024,1024,1024,1684,0,0,0,100,290.9,0,0,77,4.026,4.021,0,0,0,0,5.047,89.6,60.240921875216,54.13386,6,P-GPS,
13700,2022-08-11 19:40:28,-34.9287970111115,-56.1628251136177,54.13386,55.5446212,4.696300675216,60.240921875216,42.65092,0.223694,14.8236881384,18.800689578,20,5,7.953,60.897089875216,54.790028,6.2410626,15.1326120328,0,0.223694,0,279.4, -1.5, 6,0,0,1024,1024,1024,1684,0,0,0,100,295.7,0,0,77,4.026,4.021,0,0,0,0,5.047,89.6,60.240921875216,54.13386,6,P-GPS,
13800,2022-08-11 19:40:28,-34.9287971540694,-56.1628248106434,54.13386,55.5446212,4.696300675216,60.240921875216,42.65092,0.223694,14.866962418,18.9052499488,20,5,7.953,60.897089875216,54.790028,6.2410626,15.1326120328,0,0.223694,0,284.4, -3.2, 5.6,0,0,1024,1024,1024,1684,0,0,0,100,300.5,0,0,77,4.026,4.021,0,0,0,0,5.047,89.6,60.240921875216,54.13386,6,P-GPS,
13900,2022-08-11 19:40:29,-34.9287973356344,-56.1628245297928,54.13386,55.5446212,4.696300675216,60.240921875216,42.65092,0.447388,14.9254597952,19.0122381412,20,5,8.06,60.897089875216,54.790028,6.2410626,15.1326120328,0,0.447388,0,289.2, -4, 5.2,0,0,1024,1024,1024,1684,0,0,0,100,305.3,0,0,77,4.014,4.007,0,0,0,0,3.629,89.6,60.240921875216,54.13386,6,P-GPS,
14000,2022-08-11 19:40:29,-34.9287976502042,-56.1628241201366,53.805776,55.2493456,4.663492275216,59.912837875216,42.65092,0.223694,15.0298233156,19.1801515324,20,5,8.06,60.897089875216,54.790028,6.2410626,15.1326120328,0,0.223694,0,294, -5.1, 5.1,0,0,1024,1024,1024,1684,0,0,0,100,310.1,0,0,77,4.014,4.007,0,0,0,0,3.629,89.6,59.912837875216,53.805776,6,P-GPS,
14100,2022-08-11 19:40:29,-34.9287978508219,-56.1628238527474,53.805776,55.2493456,4.663492275216,59.912837875216,42.65092,0.223694,15.0968508768,19.288550486,20,5,8.06,60.897089875216,54.790028,6.2410626,15.1326120328,0,0.223694,0,298.7, -5.6, 5.2,0,0,1024,1024,1024,1684,0,0,0,100,314.9,0,0,77,4.014,4.007,0,0,0,0,3.629,89.6,59.912837875216,53.805776,6,P-GPS,
14200,2022-08-11 19:40:29,-34.9287980408874,-56.1628235781742,53.477692,54.9212616,4.663492275216,59.584753875216,42.65092,0.3131716,15.1603351308,19.3960636128,20,5,8.06,60.897089875216,54.790028,6.2410626,15.1603351308,-0.223694,0.223694,0,303.1, -6.9, 4,0,0,1024,1024,1024,1684,0,0,0,100,319.6,0,0,77,4.014,4.007,0,0,0,0,3.629,89.6,59.584753875216,53.477692,6,P-GPS,
14300,2022-08-11 19:40:29,-34.9287982247225,-56.1628234118739,53.149608,54.5931776,4.663492275216,59.256669875216,42.65092,0.3131716,15.224081852,19.4795609908,20,5,8.06,60.897089875216,54.790028,6.2410626,15.224081852,-0.223694,0.223694,0,307.7, -7.1, 4.4,0,0,1024,1024,1024,1684,0,0,0,100,324.3,0,0,77,4.014,4.007,0,0,0,0,3.629,89.6,59.256669875216,53.149608,6,P-GPS,
14400,2022-08-11 19:40:29,-34.9287982485336,-56.1628234463617,53.149608,54.5931776,4.663492275216,59.256669875216,42.65092,0.3131716,15.2333994376,19.4930452432,20,5,8.06,60.897089875216,54.790028,6.2410626,15.2333994376,-0.223694,0.223694,0,312.5, -7.9, 4.3,0,0,1024,1024,1024,1684,0,0,0,100,329.1,0,0,77,4.014,4.007,0,0,0,0,3.629,89.6,59.256669875216,53.149608,6,P-GPS,
14500,2022-08-11 19:40:29,-34.9287984308053,-56.1628233898729,52.821524,54.2650936,4.663492275216,58.928585875216,42.65092,0.3131716,15.298720962,19.5616476076,20,5,8.06,60.897089875216,54.790028,6.2410626,15.298720962,-0.223694,0.223694,0,317.2, -8.1, 3.5,0,0,1024,1024,1024,1684,0,0,0,100,333.9,0,0,77,4.014,4.007,0,0,0,0,3.629,89.6,58.928585875216,52.821524,6,P-GPS,
14600,2022-08-11 19:40:29,-34.928798616386,-56.1628233474358,52.821524,54.297902,4.630683875216,58.928585875216,42.65092,0.223694,15.3655188644,19.6305452476,20,5,8.06,60.897089875216,54.790028,6.2410626,15.3655188644,-0.223694,0,0,322.3, -9.3, 3.6,0,0,1024,1024,1024,1684,0,0,0,100,338.7,0,0,77,4.014,4.007,0,0,0,0,3.629,89.6,58.928585875216,52.821524,6,P-GPS,
14700,2022-08-11 19:40:29,-34.9287988000973,-56.1628233399332,52.821524,54.297902,4.630683875216,58.928585875216,42.65092,0.223694,15.4322839584,19.6976056172,20,5,8.06,60.897089875216,54.790028,6.2410626,15.4322839584,-0.223694,0,-0.223694,327.2, -10.8, 2.5,0,0,1024,1024,1024,1684,0,0,0,100,343.5,0,0,77,4.014,4.007,0,0,0,0,3.629,89.6,58.928585875216,52.821524,6,P-GPS,
14800,2022-08-11 19:40:30,-34.9287989985167,-56.1628233787236,52.49344,53.969818,4.630683875216,58.600501875216,42.65092,0.223694,15.50524984,19.7709323912,20,5,8.06,60.897089875216,54.790028,6.2410626,15.50524984,-0.223694,0,-0.223694,332.2, -10.9, 1.5,0,0,1024,1024,1024,1684,0,0,0,100,348.3,0,0,77,4.014,4.007,0,0,0,0,3.629,89.6,58.600501875216,52.49344,6,P-GPS,
14900,2022-08-11 19:40:30,-34.9287989638471,-56.1628236651279,52.49344,53.969818,4.630683875216,58.600501875216,42.65092,0.223694,15.4980648004,19.8575137588,20,5,8.06,60.897089875216,54.790028,6.2410626,15.50524984,-0.223694,0,-0.223694,337.1, -11.4, 0.9,0,0,1024,1024,1024,1684,0,0,0,100,353.1,0,0,77,4.014,4.007,0,0,0,0,3.629,89.6,58.600501875216,52.49344,6,P-GPS,
15000,2022-08-11 19:40:30,-34.9287991825928,-56.1628238331811,52.49344,53.969818,4.630683875216,58.600501875216,42.65092,0.223694,15.5811028608,19.9518379088,20,5,8.06,60.897089875216,54.790028,6.2410626,15.5811028608,-0.223694,0,-0.223694,342.1, -11.5, 0.1,0,0,1024,1024,1024,1684,0,0,0,100,357.9,0,0,77,4.014,4.007,0,0,0,0,3.629,89.6,58.600501875216,52.49344,6,P-GPS,
15100,2022-08-11 19:40:30,-34.9287993687402,-56.1628240127703,52.49344,53.969818,4.630683875216,58.600501875216,42.65092,0.223694,15.6526579812,20.0384520848,20,5,8.012,60.897089875216,54.790028,6.2410626,15.6526579812,-0.223694,0,-0.447388,347.1, -11.7, -0.7,0,0,1024,1024,1024,1684,0,0,0,100,2.6,0,0,77,4.003,3.993,0,0,0,0,4.386,89.6,58.600501875216,52.49344,6,P-GPS,
15200,2022-08-11 19:40:30,-34.9287995445796,-56.1628242165129,52.49344,54.0026264,4.597875475216,58.600501875216,42.65092,0.223694,15.7211619204,20.1269363396,20,5,8.012,60.897089875216,54.790028,6.2410626,15.7211619204,-0.223694,0,-0.447388,351.9, -12.2, -1.5,0,0,1024,1024,1024,1684,0,0,0,100,7.4,0,0,77,4.003,3.993,0,0,0,0,4.386,89.6,58.600501875216,52.49344,6,P-GPS,
15300,2022-08-11 19:40:30,-34.9287996239532,-56.1628246291185,52.49344,54.0026264,4.597875475216,58.600501875216,42.65092,0.223694,15.7598758324,20.2537079972,20,5,8.012,60.897089875216,54.790028,6.2410626,15.7598758324,-0.223694,0,-0.447388,356.8, -12.5, -2.3,0,0,1024,1024,1024,1684,0,0,0,100,12.2,0,0,77,4.003,3.993,0,0,0,0,4.386,89.6,58.600501875216,52.49344,6,P-GPS,
15400,2022-08-11 19:40:30,-34.9287998479619,-56.1628249584223,52.821524,54.3307104,4.597875475216,58.928585875216,42.65092,0.223694,15.8498036568,20.3816935656,20,5,8.012,60.897089875216,54.790028,6.2410626,15.8498036568,-0.223694,0,-0.671082,1.8, -12.6, -3.1,0,0,1024,1024,1024,1684,0,0,0,100,17,0,0,77,4.003,3.993,0,0,0,0,4.386,89.6,58.928585875216,52.821524,6,P-GPS,
15500,2022-08-11 19:40:30,-34.9288000558556,-56.1628253441171,52.821524,54.3307104,4.597875475216,58.928585875216,42.65092,0.3131716,15.936024132,20.5197841212,20,5,8.012,60.897089875216,54.790028,6.2410626,15.936024132,-0.223694,-0.223694,-0.671082,6.7, -12.7, -3.2,0,0,1024,1024,1024,1684,0,0,0,100,21.8,0,0,77,4.003,3.993,0,0,0,0,4.386,89.6,58.928585875216,52.821524,6,P-GPS,
15600,2022-08-11 19:40:30,-34.9288002658207,-56.1628258126615,53.149608,54.6587944,4.597875475216,59.256669875216,42.65092,0.3131716,16.0262800404,20.6794954124,20,5,8.012,60.897089875216,54.790028,6.2410626,16.0262800404,-0.223694,-0.223694,-0.671082,11.4, -12.4, -3.4,0,0,1024,1024,1024,1684,0,0,0,100,26.6,0,0,77,4.003,3.993,0,0,0,0,4.386,89.6,59.256669875216,53.149608,6,P-GPS,
15700,2022-08-11 19:40:30,-34.9288005237076,-56.162826487719,53.149608,54.6916028,4.565067075216,59.256669875216,42.65092,0.3131716,16.1420280756,20.9022644484,20,5,8.012,60.897089875216,54.790028,6.2410626,16.1420280756,-0.223694,-0.223694,-0.671082,16.1, -12.5, -4.3,0,0,1024,1024,1024,1684,0,0,0,100,31.4,0,0,77,4.003,3.993,0,0,0,0,4.386,89.6,59.256669875216,53.149608,6,P-GPS,
15800,2022-08-11 19:40:31,-34.9288006586046,-56.1628269853791,53.477692,55.0196868,4.565067075216,59.584753875216,42.65092,0.3131716,16.2087931696,21.059055792,20,5,8.012,60.897089875216,54.790028,6.2410626,16.2087931696,-0.223694,-0.223694,-0.671082,21, -13.2, -5,0,0,1024,1024,1024,1684,0,0,0,100,36.2,0,0,77,4.003,3.993,0,0,0,0,4.386,89.6,59.584753875216,53.477692,6,P-GPS,
15900,2022-08-11 19:40:31,-34.9288007383854,-56.1628274750507,53.805776,55.3477708,4.565067075216,59.912837875216,42.65092,0.3131716,16.2565622,21.2083996288,20,5,8.012,60.897089875216,54.790028,6.2410626,16.2565622,-0.223694,-0.223694,-0.447388,25.9, -12.9, -5.9,0,0,1024,1024,1024,1024,0,0,0,0,41,0,0,77,4.003,3.993,0,0,0,0,4.386,89.6,59.912837875216,53.805776,6,P-GPS,
16000,2022-08-11 19:40:31,-34.9288007685539,-56.1628279991918,53.805776,55.3477708,4.565067075216,59.912837875216,42.65092,0.447388,16.2891081328,21.3655518648,20,5,8.012,60.897089875216,54.790028,6.2410626,16.2891081328,0,-0.447388,-0.671082,30.2, -12.6, -6.4,0,0,1024,1024,1024,1024,0,0,0,0,43.6,0,0,77,4.003,3.993,0,0,0,0,4.386,89.6,59.912837875216,53.805776,6,P-GPS,
16100,2022-08-11 19:40:31,-34.9288006346437,-56.1628283527028,54.13386,55.6758548,4.565067075216,60.240921875216,42.65092,0.447388,16.256234116,21.4820544932,20,5,7.987,60.897089875216,54.790028,6.2410626,16.2891081328,0,-0.447388,-0.447388,32.2, -12.7, -6.3,0,0,1024,1024,1024,1024,0,0,0,0,44.7,0,0,77,4.005,3.996,0,0,0,0,5.029,89.78,60.240921875216,54.13386,6,P-GPS,
16200,2022-08-11 19:40:31,-34.9288006195936,-56.1628287558073,54.461944,56.0039388,4.565067075216,60.569005875216,42.65092,0.447388,16.2692590508,21.6027565968,20,5,7.987,60.897089875216,54.790028,6.2410626,16.2891081328,0,-0.447388,-0.447388,33, -12.3, -6.2,0,0,1024,1024,1024,1024,0,0,0,0,44.9,0,0,77,4.005,3.996,0,0,0,0,5.029,89.78,60.569005875216,54.461944,6,P-GPS,
16300,2022-08-11 19:40:31,-34.9288005421448,-56.1628291995661,54.461944,56.0039388,4.565067075216,60.569005875216,42.65092,0.447388,16.2627301792,21.7384849476,20,5,7.987,60.897089875216,54.790028,6.2410626,16.2891081328,0,-0.447388,-0.447388,33, -12, -6,0,0,1024,1024,1024,1024,0,0,0,0,44.9,0,0,77,4.005,3.996,0,0,0,0,5.029,89.78,60.569005875216,54.461944,6,P-GPS,
16400,2022-08-11 19:40:31,-34.9288004055835,-56.1628297289632,54.790028,56.2992144,4.597875475216,60.897089875216,42.65092,0.447388,16.2405517008,21.9044954516,20,5,7.987,60.897089875216,54.790028,6.2410626,16.2891081328,0,-0.223694,-0.223694,33, -11.8, -6.1,0,0,1024,1024,1024,1024,0,0,0,0,44.9,0,0,77,4.005,3.996,0,0,0,0,5.029,89.78,60.897089875216,54.790028,6,P-GPS,
16500,2022-08-11 19:40:31,-34.9288002708754,-56.1628300966251,54.790028,56.2992144,4.597875475216,60.897089875216,42.65092,0.223694,16.2118443508,22.024935088,20,5,7.987,60.897089875216,54.790028,6.2410626,16.2891081328,0,-0.223694,-0.223694,33, -11.1, -6.2,0,0,1024,1024,1024,1024,0,0,0,0,44.9,0,0,77,4.005,3.996,0,0,0,0,5.029,89.78,60.897089875216,54.790028,6,P-GPS,
