time(millisecond),datetime(utc),latitude,longitude,height_above_takeoff(feet),height_above_ground_at_drone_location(feet),ground_elevation_at_drone_location(feet),altitude_above_seaLevel(feet),height_sonar(feet),speed(mph),distance(feet),mileage(feet),satellites,gpslevel,voltage(v),max_altitude(feet),max_ascent(feet),max_speed(mph),max_distance(feet), xSpeed(mph), ySpeed(mph), zSpeed(mph), compass_heading(degrees), pitch(degrees), roll(degrees),isPhoto,isVideo,rc_elevator,rc_aileron,rc_throttle,rc_rudder,rc_elevator(percent),rc_aileron(percent),rc_throttle(percent),rc_rudder(percent),gimbal_heading(degrees),gimbal_pitch(degrees),gimbal_roll(degrees),battery_percent,voltageCell1,voltageCell2,voltageCell3,voltageCell4,voltageCell5,voltageCell6,current(A),battery_temperature(f),altitude(feet),ascent(feet),flycStateRaw,flycState,message
0,2022-08-29 21:16:39,-34.9184903331722,-56.168375375586,0,0,33.098303880668,33.098303880668,0,0,0,0,22,5,0,33.098303880668,0,0,0,0,0,0,284.2, -9.4, 1.8,0,0,364,364,364,1684,-100,-100,-100,100,294.3,0,0,100,4.351,4.349,0,0,0,0,0,65.48,33.098303880668,0,6,P-GPS,"En vuelo Aeronave en Zona de altitud restringida (150). Vuela con precaución (Code: 190001)"
100,2022-08-29 21:16:39,-34.9184904155564,-56.1683754117086,0,0,33.098303880668,33.098303880668,0,0,0.03194143803,0.03194143803,22,5,0,33.098303880668,0,0,0.03194143803,0,0,0,283.8, -9.7, 1.3,0,0,1024,1024,637,1328,0,0,-59,46,294.1,0,0,100,4.351,4.349,0,0,0,0,0,65.48,33.098303880668,0,41,Motors_Started,
200,2022-08-29 21:16:39,-34.9184906190838,-56.16837540661,0,0.032808399999999,33.065495480668,33.098303880668,0.328084,0,0.104726709388,0.10621391416,22,5,0,33.098303880668,0,0,0.104726709388,0,0,0,283.8, -9.5, 1.4,0,0,1024,1024,1024,1024,0,0,0,0,293.1,0,0,100,4.351,4.349,0,0,0,0,0,65.48,33.098303880668,0,41,Motors_Started,
300,2022-08-29 21:16:39,-34.9184906743972,-56.1683753619383,0,0.032808399999999,33.065495480668,33.098303880668,0.328084,0,0.124562668028,0.130418967428,22,5,0,33.098303880668,0,0,0.124562668028,0,0,0,283.3, -9, 1.6,0,0,1024,1024,1024,1024,0,0,0,0,292.7,0,0,100,4.351,4.349,0,0,0,0,0,65.48,33.098303880668,0,41,Motors_Started,
400,2022-08-29 21:16:40,-34.9184907220027,-56.1683753177023,0,0.032808399999999,33.065495480668,33.098303880668,0.328084,0,0.142917655492,0.152254926132,22,5,0,33.098303880668,0,0,0.142917655492,0,0,0,283.8, -9.2, 0.8,0,0,1024,1024,1024,1024,0,0,0,0,292.5,0,0,100,4.351,4.349,0,0,0,0,0,65.48,33.098303880668,0,41,Motors_Started,
500,2022-08-29 21:16:40,-34.9184907813216,-56.1683753137614,0,0.032808399999999,33.065495480668,33.098303880668,0.328084,0,0.164549874032,0.173929467508,22,5,0,33.098303880668,0,0,0.164549874032,0,0,0,283.9, -8.5, 0.8,0,0,1024,1024,1024,1024,0,0,0,0,292.6,0,0,100,4.351,4.349,0,0,0,0,0,65.48,33.098303880668,0,41,Motors_Started,
600,2022-08-29 21:16:40,-34.9184908724921,-56.1683753744896,0,0.032808399999999,33.065495480668,33.098303880668,0.328084,0,0.196770675588,0.211831043524,22,5,0,33.098303880668,0,0,0.196770675588,0,0,0,283.5, -8.2, 1.3,0,0,1024,1024,1024,1024,0,0,0,0,292.7,0,0,100,4.351,4.349,0,0,0,0,0,65.48,33.098303880668,0,41,Motors_Started,
700,2022-08-29 21:16:40,-34.918490919156,-56.1683753563023,0,0.032808399999999,33.065495480668,33.098303880668,0.328084,0,0.213873694508,0.229704403676,22,5,0,33.098303880668,0,0,0.213873694508,0,0,0,282.5, -7.2, 1.6,0,0,1024,1024,1024,1024,0,0,0,0,292.4,0,0,100,4.351,4.349,0,0,0,0,0,65.48,33.098303880668,0,41,Motors_Started,
800,2022-08-29 21:16:40,-34.9184909796494,-56.1683752988874,0,0.032808399999999,33.065495480668,33.098303880668,0.328084,0,0.236980322544,0.257671596172,22,5,0,33.098303880668,0,0,0.236980322544,0,0,0,281.3, -5.9, 1.5,0,0,1024,1024,1024,1024,0,0,0,0,291.4,0,0,100,4.351,4.349,0,0,0,0,0,65.48,33.098303880668,0,41,Motors_Started,"Setting new Return-To-Home altitude to 100m (328 ft). Data Recorder File Index is 27. Setting new Maximum Flight Altitude to 120m (394 ft)"
900,2022-08-29 21:16:40,-34.9184910449684,-56.1683753015164,0,0.032808399999999,33.065495480668,33.098303880668,0.328084,0,0.260642068708,0.281516085124,22,5,8.7,33.098303880668,0,0,0.260642068708,0,0,0,281.2, -6.5, 1,0,0,1024,1024,1024,1024,0,0,0,0,290.6,0,0,100,4.351,4.349,0,0,0,0,0.558,65.48,33.098303880668,0,41,Motors_Started,
1000,2022-08-29 21:16:40,-34.9184910777225,-56.1683754218248,0,0.032808399999999,33.065495480668,33.098303880668,0.328084,0,0.272000664872,0.319440298936,22,5,8.7,33.098303880668,0,0,0.272000664872,0,0,0,281.3, -5.8, 0.9,0,0,1024,1024,1024,1024,0,0,0,0,290.6,0,0,100,4.351,4.349,0,0,0,0,0.558,65.48,33.098303880668,0,41,Motors_Started,
1100,2022-08-29 21:16:40,-34.9184911103227,-56.1683754266035,0,0.032808399999999,33.065495480668,33.098303880668,0.328084,0,0.28395342116,0.33142061428,22,5,8.7,33.098303880668,0,0,0.28395342116,0,0,0,281.7, -5.8, 1,0,0,1024,1024,1024,1024,0,0,0,0,290.7,0,0,100,4.351,4.349,0,0,0,0,0.558,65.48,33.098303880668,0,41,Motors_Started,
1200,2022-08-29 21:16:40,-34.9184911445168,-56.1683754333052,-0.328084,-0.2952756,33.065495480668,32.770219880668,0.328084,0,0.296521663032,0.34405512912,22,5,8.7,33.098303880668,0,0,0.296521663032,0,0,0,281.4, -5.9, 3.1,0,0,1024,1024,1024,1024,0,0,0,0,291,0,0,100,4.351,4.349,0,0,0,0,0.558,65.48,32.770219880668,-0.328084,10,Assisted_Takeoff,
1300,2022-08-29 21:16:41,-34.9184911687802,-56.1683754451656,-0.328084,-0.2952756,33.065495480668,32.770219880668,0.328084,0,0.30558071844,0.353592531,22,5,8.7,33.098303880668,0,0,0.30558071844,0,0,0,279.6, -5.5, 4.6,0,0,1024,1024,1024,1024,0,0,0,0,290.3,0,0,100,4.351,4.349,0,0,0,0,0.558,65.48,32.770219880668,-0.328084,10,Assisted_Takeoff,
1400,2022-08-29 21:16:41,-34.918491203418,-56.168375481983,-0.328084,-0.2952756,33.065495480668,32.770219880668,0.328084,0,0.319100075828,0.3703576234,22,5,8.7,33.098303880668,0,0,0.319100075828,0,0,0,280.7, -6.2, 4.6,0,0,1024,1024,1024,1024,0,0,0,0,290.1,0,0,100,4.351,4.349,0,0,0,0,0.558,65.48,32.770219880668,-0.328084,10,Assisted_Takeoff,
1500,2022-08-29 21:16:41,-34.918491194096,-56.1683756186934,-0.328084,-0.2624672,33.032687080668,32.770219880668,0.328084,0,0.322417661236,0.41139765096,22,5,8.7,33.098303880668,0,0,0.322417661236,0,0,0,280.1, -6.5, 4.3,0,0,1024,1024,1024,1024,0,0,0,0,290.4,0,0,100,4.351,4.349,0,0,0,0,0.558,65.48,32.770219880668,-0.328084,10,Assisted_Takeoff,
1600,2022-08-29 21:16:41,-34.9184912078144,-56.1683756814296,-0.328084,-0.2624672,33.032687080668,32.770219880668,0.328084,0,0.3319717954,0.43082022376,22,5,8.7,33.098303880668,0,0,0.3319717954,0,0,0,280.8, -6.5, 3.9,0,0,1024,1024,1024,1024,0,0,0,0,290.4,0,0,100,4.351,4.349,0,0,0,0,0.558,65.48,32.770219880668,-0.328084,10,Assisted_Takeoff,
1700,2022-08-29 21:16:41,-34.9184912226756,-56.1683757202575,-0.328084,-0.2624672,33.032687080668,32.770219880668,0.328084,0,0.34052166444,0.44364174648,22,5,8.7,33.098303880668,0,0,0.34052166444,0,0,0,280.7, -6.5, 3.9,0,0,1024,1024,1024,1024,0,0,0,0,290.8,0,0,100,4.351,4.349,0,0,0,0,0.558,65.48,32.770219880668,-0.328084,10,Assisted_Takeoff,
1800,2022-08-29 21:16:41,-34.9184912250706,-56.1683757395105,-0.328084,-0.2624672,33.032687080668,32.770219880668,0.328084,0,0.34313977476,0.44946523748,22,5,8.7,33.098303880668,0,0,0.34313977476,0,0,0,280.7, -6.4, 4,0,0,1024,1024,1024,1024,0,0,0,0,290.9,0,0,100,4.351,4.349,0,0,0,0,0.558,65.48,32.770219880668,-0.328084,10,Assisted_Takeoff,
1900,2022-08-29 21:16:41,-34.9184912377497,-56.1683758373891,-0.328084,-0.2624672,33.032687080668,32.770219880668,0.328084,0,0.35778544452,0.47911090772,22,5,8.645,33.098303880668,0,0,0.35778544452,0,0,0,280.2, -6.3, 4,0,0,1024,1024,1024,1024,0,0,0,0,290.8,0,0,100,4.319,4.317,0,0,0,0,1.066,65.48,32.770219880668,-0.328084,10,Assisted_Takeoff,
2000,2022-08-29 21:16:41,-34.9184912732697,-56.1683760272301,-0.328084,-0.2624672,33.032687080668,32.770219880668,0.328084,0,0.39452429084,0.53736550276,22,5,8.645,33.098303880668,0,0,0.39452429084,0,0,0,280.6, -6.6, 3.6,0,0,1024,1024,1024,1024,0,0,0,0,290.7,0,0,100,4.319,4.317,0,0,0,0,1.066,65.48,32.770219880668,-0.328084,10,Assisted_Takeoff,
2100,2022-08-29 21:16:41,-34.9184913284703,-56.168376129837,-0.328084,-0.2624672,33.032687080668,32.770219880668,0.328084,0,0.42752954124,0.57407810236,22,5,8.645,33.098303880668,0,0,0.42752954124,0,0,0,280.4, -6.5, 3.6,0,0,1024,1024,1024,1024,0,0,0,0,290.7,0,0,100,4.319,4.317,0,0,0,0,1.066,65.48,32.770219880668,-0.328084,10,Assisted_Takeoff,
2200,2022-08-29 21:16:41,-34.9184913994517,-56.1683761446719,-0.328084,-0.2624672,33.032687080668,32.770219880668,0.328084,0,0.45197836092,0.60035434992,22,5,8.645,33.098303880668,0,0,0.45197836092,0,0,0,280.3, -6.4, 3.7,0,0,1024,1024,1024,1024,0,0,0,0,290.7,0,0,100,4.319,4.317,0,0,0,0,1.066,65.48,32.770219880668,-0.328084,10,Assisted_Takeoff,
2300,2022-08-29 21:16:42,-34.9184914387184,-56.1683761042565,-0.328084,-0.2624672,33.032687080668,32.770219880668,0.328084,0,0.45849410916,0.61910106968,22,5,8.645,33.098303880668,0,0,0.45849410916,0,0,0,280.2, -6.4, 3.7,0,0,1024,1024,1024,1024,0,0,0,0,290.7,0,0,100,4.319,4.317,0,0,0,0,1.066,65.48,32.770219880668,-0.328084,10,Assisted_Takeoff,
2400,2022-08-29 21:16:42,-34.9184914505466,-56.168376144489,-0.328084,-0.2624672,33.032687080668,32.770219880668,0.328084,0,0.468093847,0.63188650316,22,5,8.645,33.098303880668,0,0,0.468093847,0,0,0,279.8, -6.6, 3.8,0,0,1024,1024,1024,1024,0,0,0,0,290.6,0,0,100,4.319,4.317,0,0,0,0,1.066,65.48,32.770219880668,-0.328084,10,Assisted_Takeoff,
2500,2022-08-29 21:16:42,-34.9184914720612,-56.168376168155,-0.328084,-0.2624672,33.032687080668,32.770219880668,0.328084,0,0.47841536964,0.64245736964,22,5,8.645,33.098303880668,0,0,0.47841536964,0,0,0,279.5, -6.8, 4.1,0,0,1024,1024,1024,1024,0,0,0,0,290.4,0,0,100,4.319,4.317,0,0,0,0,1.066,65.48,32.770219880668,-0.328084,10,Assisted_Takeoff,
2600,2022-08-29 21:16:42,-34.9184915054382,-56.1683761681994,-0.328084,-0.2296588,32.999878680668,32.770219880668,0.328084,0,0.48903544872,0.65463584772,22,5,8.645,33.098303880668,0,0,0.48903544872,0,0,0,279.2, -7.1, 4.3,0,0,1024,1024,1024,1024,0,0,0,0,290.2,0,0,100,4.319,4.317,0,0,0,0,1.066,65.48,32.770219880668,-0.328084,10,Assisted_Takeoff,
2700,2022-08-29 21:16:42,-34.9184914890218,-56.1683761541116,-0.328084,-0.2624672,33.032687080668,32.770219880668,0.328084,0,0.48175198392,0.6619586826,22,5,8.645,33.098303880668,0,0,0.48903544872,0,0,0,279.1, -7, 4.3,0,0,1024,1024,1024,1024,0,0,0,0,290,0,0,100,4.319,4.317,0,0,0,0,1.066,65.48,32.770219880668,-0.328084,10,Assisted_Takeoff,
2800,2022-08-29 21:16:42,-34.9184914892763,-56.1683761845714,-0.328084,-0.2624672,33.032687080668,32.770219880668,0.328084,0,0.48630578984,0.67106957528,22,5,8.645,33.098303880668,0,0,0.48903544872,0,0,0,279.3, -7.2, 4.1,0,0,1024,1024,1024,1024,0,0,0,0,290,0,0,100,4.319,4.317,0,0,0,0,1.066,65.48,32.770219880668,-0.328084,10,Assisted_Takeoff,
2900,2022-08-29 21:16:42,-34.9184915041505,-56.1683762104366,-0.328084,-0.2296588,32.999878680668,32.770219880668,0.328084,0,0.49487862476,0.68052167532,22,5,8.653,33.098303880668,0,0,0.49487862476,0,0,0,279.6, -8, 3.8,0,0,1024,1024,1162,1024,0,0,21,0,290,0,0,100,4.329,4.326,0,0,0,0,1.26,65.48,32.770219880668,-0.328084,10,Assisted_Takeoff,
3000,2022-08-29 21:16:42,-34.9184915485549,-56.1683762359088,-0.328084,-0.2296588,32.999878680668,32.770219880668,0.328084,0,0.512713271,0.6984252192,22,5,8.653,33.098303880668,0,0,0.512713271,0,0,0,279.2, -8.6, 3.7,0,0,1024,1024,1684,1024,0,0,100,0,290,0,0,100,4.329,4.326,0,0,0,0,1.26,65.48,32.770219880668,-0.328084,10,Assisted_Takeoff,
3100,2022-08-29 21:16:42,-34.9184916043262,-56.1683762739107,-0.328084,-0.2296588,32.999878680668,32.770219880668,0.328084,0,0.53602035836,0.7217355874,22,5,8.653,33.098303880668,0,0,0.53602035836,0,0,0,279.2, -9, 3.3,0,0,1024,1024,1676,1024,0,0,99,0,290,0,0,100,4.329,4.326,0,0,0,0,1.26,65.48,32.770219880668,-0.328084,10,Assisted_Takeoff,
3200,2022-08-29 21:16:42,-34.9184917495265,-56.1683763014254,-0.328084,-0.2296588,32.999878680668,32.770219880668,0.328084,0,0.58630579304,0.77534779384,22,5,8.653,33.098303880668,0,0,0.58630579304,0,0,0,279, -7.9, 2.6,0,0,1024,1024,1100,1024,0,0,12,0,289.9,0,0,100,4.329,4.326,0,0,0,0,1.26,65.48,32.770219880668,-0.328084,10,Assisted_Takeoff,
3300,2022-08-29 21:16:42,-34.9184918249446,-56.1683763170347,-0.328084,-0.2296588,32.999878680668,32.770219880668,0.328084,0,0.6128281036,0.80325789972,22,5,8.653,33.098303880668,0,0,0.6128281036,0,0,0,279.2, -6.8, 2.4,0,0,1024,1024,1434,1024,0,0,62,0,289.9,0,0,100,4.329,4.326,0,0,0,0,1.26,65.48,32.770219880668,-0.328084,10,Assisted_Takeoff,
3400,2022-08-29 21:16:43,-34.9184918934528,-56.1683763175963,-0.328084,-0.2296588,32.999878680668,32.770219880668,0.328084,0,0.63520671324,0.82825133884,22,5,8.653,33.098303880668,0,0,0.63520671324,0,0,0,278.5, -6.3, 1.7,0,0,1024,1024,1684,1024,0,0,100,0,289.7,0,0,100,4.329,4.326,0,0,0,0,1.26,65.48,32.770219880668,-0.328084,10,Assisted_Takeoff,
3500,2022-08-29 21:16:43,-34.9184919605264,-56.1683763706589,-0.328084,-0.2296588,32.999878680668,32.770219880668,0.328084,0,0.6641896538,0.85742128728,22,5,8.653,33.098303880668,0,0,0.6641896538,0,0,0,278.3, -6.2, 0.9,0,0,1024,1024,1684,1024,0,0,100,0,289.3,0,0,100,4.329,4.326,0,0,0,0,1.26,65.48,32.770219880668,-0.328084,10,Assisted_Takeoff,
3600,2022-08-29 21:16:43,-34.9184920617089,-56.1683764909086,-0.328084,-0.2296588,32.999878680668,32.770219880668,0.328084,0,0.7134842748,0.90896656452,22,5,8.653,33.098303880668,0,0,0.7134842748,0,0,-0.223694,277.6, -4.1, -0.2,0,0,1024,1024,1684,1024,0,0,100,0,288.9,0,0,100,4.329,4.326,0,0,0,0,1.26,65.48,32.770219880668,-0.328084,10,Assisted_Takeoff,
3700,2022-08-29 21:16:43,-34.9184921250864,-56.1683766134189,0,0.098425199999998,32.999878680668,33.098303880668,0.328084,0.223694,0.75137141512,0.95230318008,22,5,8.653,33.098303880668,0,0.223694,0.75137141512,0,-0.223694,-0.223694,277.4, -1.1, -0.1,0,0,1024,1024,1411,1024,0,0,59,0,288.4,0,0,100,4.329,4.326,0,0,0,0,1.26,65.48,33.098303880668,0,10,Assisted_Takeoff,
3800,2022-08-29 21:16:43,-34.9184922001405,-56.1683767588273,0,0.098425199999998,32.999878680668,33.098303880668,0.328084,0.223694,0.79701118036,1.00370410036,22,5,8.653,33.098303880668,0,0.223694,0.79701118036,0,-0.223694,-0.447388,278.2, -0.4, 0.1,0,0,1024,1024,1024,1024,0,0,0,0,288.3,0,0,100,4.329,4.326,0,0,0,0,1.26,65.48,33.098303880668,0,10,Assisted_Takeoff,
3900,2022-08-29 21:16:43,-34.9184922696095,-56.1683769409603,0,0.098425199999998,32.999878680668,33.098303880668,0.656168,0.223694,0.8476214182,1.06379924664,22,5,8.656,33.098303880668,0,0.223694,0.8476214182,0,-0.223694,-0.894776,278.3, 0.1, 0.4,0,0,1024,1024,1024,1024,0,0,0,0,288.3,0,0,100,4.329,4.327,0,0,0,0,1.087,65.48,33.098303880668,0,6,P-GPS,
4000,2022-08-29 21:16:43,-34.9184923130674,-56.1683772183802,0,0.098425199999998,32.999878680668,33.098303880668,0.656168,0.223694,0.90870081648,1.148294,22,5,8.656,33.098303880668,0,0.223694,0.90870081648,0,-0.223694,-1.342164,278.2, 1.2, 0.7,0,0,1024,1024,1024,1024,0,0,0,0,288.3,0,0,100,4.329,4.327,0,0,0,0,1.087,65.48,33.098303880668,0,6,P-GPS,
4100,2022-08-29 21:16:43,-34.9184923680604,-56.1683774365404,0.328084,0.4265092,32.999878680668,33.426387880668,0.984252,0.223694,0.96506564768,1.21657484208,22,5,8.656,33.426387880668,0.328084,0.223694,0.96506564768,0,-0.223694,-1.789552,278.1, 1.4, 0.8,0,0,1024,1024,1024,1024,0,0,0,0,288.3,0,0,100,4.329,4.327,0,0,0,0,1.087,65.48,33.426387880668,0.328084,6,P-GPS,
4200,2022-08-29 21:16:43,-34.9184924220755,-56.1683776511836,0.656168,0.7874016,32.967070280668,33.754471880668,1.312336,0.223694,1.02191276236,1.2837434794,22,5,8.656,33.754471880668,0.656168,0.223694,1.02191276236,0,-0.223694,-1.789552,278.1, 1.6, 0.4,0,0,1024,1024,1024,1024,0,0,0,0,288.3,0,0,100,4.329,4.327,0,0,0,0,1.087,65.48,33.754471880668,0.656168,6,P-GPS,
4300,2022-08-29 21:16:44,-34.9184924408966,-56.1683778613093,0.656168,0.7874016,32.967070280668,33.754471880668,2.624672,0.223694,1.0697506904,1.3469816704,22,5,8.656,33.754471880668,0.656168,0.223694,1.0697506904,0,-0.223694,-1.565858,278, 1.7, 0.3,0,0,1024,1024,1024,1024,0,0,0,0,288.3,0,0,100,4.329,4.327,0,0,0,0,1.087,65.48,33.754471880668,0.656168,6,P-GPS,
4400,2022-08-29 21:16:44,-34.9184923198169,-56.1683782872589,0.984252,1.1154856,32.967070280668,34.082555880668,2.952756,0.223694,1.13319557432,1.48185044112,22,5,8.656,34.082555880668,0.984252,0.223694,1.13319557432,0,-0.223694,-1.11847,278, 2.1, 0.7,0,0,1024,1024,1024,1024,0,0,0,0,288.3,0,0,100,4.329,4.327,0,0,0,0,1.087,65.48,34.082555880668,0.984252,6,P-GPS,
4500,2022-08-29 21:16:44,-34.9184923504056,-56.168378430178,1.312336,1.4435696,32.967070280668,34.410639880668,3.28084,0,1.17334977508,1.52604007508,22,5,8.656,34.410639880668,1.312336,0.223694,1.17334977508,0,0,-0.671082,278, 1.9, 0.5,0,0,1024,1024,1024,1024,0,0,0,0,288.3,0,0,100,4.329,4.327,0,0,0,0,1.087,65.48,34.410639880668,1.312336,6,P-GPS,
4600,2022-08-29 21:16:44,-34.9184924208081,-56.1683785140439,1.312336,1.476378,32.934261880668,34.410639880668,3.28084,0,1.20901250588,1.56194558804,22,5,8.656,34.410639880668,1.312336,0.223694,1.20901250588,0,0,-0.447388,278, 1.4, 0.2,0,0,1024,1024,1024,1024,0,0,0,0,288.3,0,0,100,4.329,4.327,0,0,0,0,1.087,65.48,34.410639880668,1.312336,6,P-GPS,
4700,2022-08-29 21:16:44,-34.9184924395055,-56.1683785731259,1.312336,1.476378,32.934261880668,34.410639880668,3.28084,0,1.2270505642,1.58089243904,22,5,8.656,34.410639880668,1.312336,0.223694,1.2270505642,0,0,0,277.9, 1.1, 0,0,0,1024,1024,1024,1024,0,0,0,0,288.3,0,0,100,4.329,4.327,0,0,0,0,1.087,65.48,34.410639880668,1.312336,6,P-GPS,
4800,2022-08-29 21:16:44,-34.9184924069032,-56.1683786186099,1.312336,1.476378,32.934261880668,34.410639880668,3.28084,0,1.23033468504,1.59896330576,22,5,8.656,34.410639880668,1.312336,0.223694,1.23033468504,0,0,0,277.9, 0.8, 0,0,0,1024,1024,1024,1024,0,0,0,0,288.3,0,0,100,4.329,4.327,0,0,0,0,1.087,65.48,34.410639880668,1.312336,6,P-GPS,
4900,2022-08-29 21:16:44,-34.9184923220108,-56.1683785983708,1.312336,1.476378,32.934261880668,34.410639880668,3.28084,0,1.206692952,1.63052498656,23,5,8.496,34.410639880668,1.312336,0.223694,1.23033468504,0,0,0,277.8, 0.4, -0.2,0,0,1024,1024,1024,1024,0,0,0,0,288.3,0,0,100,4.201,4.191,0,0,0,0,2.541,65.48,34.410639880668,1.312336,6,P-GPS,
5000,2022-08-29 21:16:44,-34.9184923701989,-56.1683786390252,1.312336,1.476378,32.934261880668,34.410639880668,3.28084,0,1.2270013516,1.65190294,23,5,8.496,34.410639880668,1.312336,0.223694,1.23033468504,0,0,0,277.9, 0.4, 0,0,0,1024,1024,1024,1024,0,0,0,0,288.3,0,0,100,4.201,4.191,0,0,0,0,2.541,65.48,34.410639880668,1.312336,6,P-GPS,
5100,2022-08-29 21:16:44,-34.9184924354641,-56.1683787258727,1.312336,1.476378,32.934261880668,34.410639880668,3.28084,0,1.26209977792,1.68714572328,22,5,8.496,34.410639880668,1.312336,0.223694,1.26209977792,0,0,0,278.1, 0.4, 0.3,0,0,1024,1024,1024,1024,0,0,0,0,288.3,0,0,100,4.201,4.191,0,0,0,0,2.541,65.48,34.410639880668,1.312336,6,P-GPS,
5200,2022-08-29 21:16:44,-34.9184925210348,-56.1683788730037,1.312336,1.5091864,32.901453480668,34.410639880668,3.28084,0,1.31603022584,1.7411089796,22,5,8.496,34.410639880668,1.312336,0.223694,1.31603022584,0,0,0,278.4, 0.6, 0.4,0,0,1024,1024,1024,1024,0,0,0,0,288.3,0,0,100,4.201,4.191,0,0,0,0,2.541,65.48,34.410639880668,1.312336,6,P-GPS,"Punto de origen actualizado. Altitud de RPO establecida en 100m (Code: 3000001)"
5300,2022-08-29 21:16:45,-34.9184926822426,-56.1683791673414,1.312336,1.5091864,32.901453480668,34.410639880668,3.28084,0,1.42172904812,1.84700137144,22,5,8.496,34.410639880668,1.312336,0.223694,1.42172904812,0,0,0,278.7, 0.9, 0.2,0,0,1024,1024,1024,1024,0,0,0,0,288.3,0,0,100,4.201,4.191,0,0,0,0,2.541,65.48,34.410639880668,1.312336,6,P-GPS,
5400,2022-08-29 21:16:45,-34.9184927749703,-56.1683792737318,1.312336,1.5091864,32.901453480668,34.410639880668,3.28084,0,1.46753941704,1.89345150416,22,5,8.496,34.410639880668,1.312336,0.223694,1.46753941704,0,0,0,279, 0.9, 0.1,0,0,1024,1024,1024,1024,0,0,0,0,288.3,0,0,100,4.201,4.191,0,0,0,0,2.541,65.48,34.410639880668,1.312336,6,P-GPS,
5500,2022-08-29 21:16:45,-34.9184928601766,-56.1683793638848,1.312336,1.5091864,32.901453480668,34.410639880668,3.28084,0,1.50786750232,1.93460636112,22,5,8.496,34.410639880668,1.312336,0.223694,1.50786750232,0,0,0,279.3, 1, 0.1,0,0,1024,1024,1024,1024,0,0,0,0,288.3,0,0,100,4.201,4.191,0,0,0,0,2.541,65.48,34.410639880668,1.312336,6,P-GPS,
5600,2022-08-29 21:16:45,-34.918492943778,-56.1683794408759,1.312336,1.5091864,32.901453480668,34.410639880668,3.28084,0,1.54477695232,1.97282814712,22,5,8.496,34.410639880668,1.312336,0.223694,1.54477695232,0,0,0,279.6, 1.1, 0,0,0,1024,1024,1024,1024,0,0,0,0,288.3,0,0,100,4.201,4.191,0,0,0,0,2.541,65.48,34.410639880668,1.312336,6,P-GPS,
5700,2022-08-29 21:16:45,-34.918493115074,-56.1683795926132,1.312336,1.5419948,32.868645080668,34.410639880668,3.28084,0,1.61918968436,2.05007224408,22,5,8.496,34.410639880668,1.312336,0.223694,1.61918968436,0,0,0,279.9, 1, 0,0,0,1024,1024,1024,1024,0,0,0,0,288.3,0,0,100,4.201,4.191,0,0,0,0,2.541,65.48,34.410639880668,1.312336,6,P-GPS,
5800,2022-08-29 21:16:45,-34.9184932347891,-56.1683796358456,1.312336,1.5419948,32.868645080668,34.410639880668,3.28084,0,1.65684716588,2.09562670748,22,5,8.496,34.410639880668,1.312336,0.223694,1.65684716588,0,0,0,280.3, 1, 0,0,0,1024,1024,1024,1024,0,0,0,0,288.3,0,0,100,4.201,4.191,0,0,0,0,2.541,65.48,34.410639880668,1.312336,6,P-GPS,
5900,2022-08-29 21:16:45,-34.9184933114457,-56.1683796461656,1.312336,1.5419948,32.868645080668,34.410639880668,3.28084,0,1.67720805892,2.12376319132,22,5,8.476,34.410639880668,1.312336,0.223694,1.67720805892,0,0,0,280.5, 0.7, 0,0,0,1024,1024,1024,1024,0,0,0,0,288.3,0,0,100,4.229,4.225,0,0,0,0,4.031,65.48,34.410639880668,1.312336,6,P-GPS,
6000,2022-08-29 21:16:45,-34.9184933455599,-56.1683796238382,1.312336,1.5419948,32.868645080668,34.410639880668,3.28084,0,1.68023955508,2.13789048836,22,5,8.476,34.410639880668,1.312336,0.223694,1.68023955508,0,0,0,280.8, 0.6, -0.1,0,0,1024,1024,1024,1040,0,0,0,2,288.3,0,0,100,4.229,4.225,0,0,0,0,4.031,65.48,34.410639880668,1.312336,6,P-GPS,
6100,2022-08-29 21:16:45,-34.9184932140802,-56.1683796208867,1.64042,1.8700788,32.868645080668,34.738723880668,3.28084,0,1.64857944908,2.18586621168,22,5,8.476,34.738723880668,1.64042,0.223694,1.68023955508,0,0,0,281.1, 0.4, -0.1,0,0,1024,1024,1024,1024,0,0,0,0,288.3,0,0,100,4.229,4.225,0,0,0,0,4.031,65.48,34.738723880668,1.64042,6,P-GPS,
6200,2022-08-29 21:16:45,-34.9184932659315,-56.1683796512328,1.64042,1.8700788,32.868645080668,34.738723880668,3.28084,0,1.66765753368,2.20685046432,22,5,8.476,34.738723880668,1.64042,0.223694,1.68023955508,0,0,0,281.2, 0.6, -0.1,0,0,1024,1024,1024,1024,0,0,0,0,288.3,0,0,100,4.229,4.225,0,0,0,0,4.031,65.48,34.738723880668,1.64042,6,P-GPS,
6300,2022-08-29 21:16:45,-34.9184933421589,-56.1683796766397,1.64042,1.8700788,32.868645080668,34.738723880668,3.28084,0,1.69141409612,2.23568248624,22,5,8.476,34.738723880668,1.64042,0.223694,1.69141409612,0,0,0,281.5, 0.6, 0.1,0,0,1024,1024,1024,1024,0,0,0,0,288.3,0,0,100,4.229,4.225,0,0,0,0,4.031,65.48,34.738723880668,1.64042,6,P-GPS,
6400,2022-08-29 21:16:46,-34.9184934536145,-56.1683796954212,1.64042,1.8700788,32.868645080668,34.738723880668,3.28084,0,1.72229664304,2.27673235632,22,5,8.476,34.738723880668,1.64042,0.223694,1.72229664304,0,0,0,281.7, 0.6, 0.1,0,0,1024,1024,1142,1024,0,0,18,0,288.3,0,0,100,4.229,4.225,0,0,0,0,4.031,65.48,34.738723880668,1.64042,6,P-GPS,
6500,2022-08-29 21:16:46,-34.9184935417036,-56.1683796911859,1.64042,1.8700788,32.868645080668,34.738723880668,3.28084,0,1.74276908464,2.30889771168,22,5,8.476,34.738723880668,1.64042,0.223694,1.74276908464,0,0,0,281.9, 0.5, 0.1,0,0,1035,1024,1409,1024,2,0,58,0,288.3,0,0,100,4.229,4.225,0,0,0,0,4.031,65.48,34.738723880668,1.64042,6,P-GPS,
6600,2022-08-29 21:16:46,-34.9184936216056,-56.1683796796644,1.64042,1.8700788,32.868645080668,34.738723880668,3.28084,0,1.75996068624,2.33825138716,22,5,8.476,34.738723880668,1.64042,0.223694,1.75996068624,0,0,0,282.2, 0.6, 0.1,0,0,1024,1024,1518,1024,0,0,75,0,288.3,0,0,100,4.229,4.225,0,0,0,0,4.031,65.48,34.738723880668,1.64042,6,P-GPS,
6700,2022-08-29 21:16:46,-34.9184936949532,-56.1683796709978,1.64042,1.8700788,32.868645080668,34.738723880668,3.28084,0,1.77643706472,2.36513787096,22,5,8.476,34.738723880668,1.64042,0.223694,1.77643706472,0,0,-0.447388,282.4, 0.5, 0.1,0,0,1024,1024,1518,1024,0,0,75,0,288.3,0,0,100,4.229,4.225,0,0,0,0,4.031,65.48,34.738723880668,1.64042,6,P-GPS,
6800,2022-08-29 21:16:46,-34.9184937828696,-56.1683796851913,1.64042,1.8700788,32.868645080668,34.738723880668,3.608924,0,1.80176843036,2.39749679588,22,5,8.476,34.738723880668,1.64042,0.223694,1.80176843036,0,0,-1.11847,282.5, 0.2, -0.1,0,0,1024,1024,1646,1024,0,0,94,0,288.3,0,0,100,4.229,4.225,0,0,0,0,4.031,65.48,34.738723880668,1.64042,6,P-GPS,
6900,2022-08-29 21:16:46,-34.9184938461648,-56.1683796940682,1.968504,2.1981628,32.868645080668,35.066807880668,3.608924,0,1.81985898212,2.42074154728,22,5,8.426,35.066807880668,1.968504,0.223694,1.81985898212,0,0,-1.789552,282.5, 0.1, -0.4,0,0,1024,1024,1508,1024,0,0,73,0,288.3,0,0,100,4.215,4.21,0,0,0,0,4.016,65.48,35.066807880668,1.968504,6,P-GPS,
7000,2022-08-29 21:16:46,-34.9184938693766,-56.1683797573216,2.296588,2.5262468,32.868645080668,35.394891880668,4.265092,0,1.8392717124,2.44147317524,22,5,8.426,35.394891880668,2.296588,0.223694,1.8392717124,0,0,-2.684328,282.7, 0.3, -0.5,0,0,1024,1024,1119,1024,0,0,14,0,288.3,0,0,100,4.215,4.21,0,0,0,0,4.016,65.48,35.394891880668,2.296588,6,P-GPS,
7100,2022-08-29 21:16:46,-34.9184939179303,-56.1683798031137,2.952756,3.1824148,32.868645080668,36.051059880668,4.593176,0,1.86146331416,2.46386490824,22,5,8.426,36.051059880668,2.952756,0.223694,1.86146331416,0,0,-2.908022,282.8, 0.4, -0.3,0,0,1024,1024,1069,1024,0,0,7,0,288.3,0,0,100,4.215,4.21,0,0,0,0,4.016,65.48,36.051059880668,2.952756,6,P-GPS,
7200,2022-08-29 21:16:46,-34.9184939702596,-56.1683798867889,3.28084,3.5104988,32.868645080668,36.379143880668,4.92126,0,1.89269691096,2.49534784888,22,5,8.426,36.379143880668,3.28084,0.223694,1.89269691096,0,0,-2.460634,283, 0.4, 0,0,0,1024,1024,1024,1024,0,0,0,0,288.3,0,0,100,4.215,4.21,0,0,0,0,4.016,65.48,36.379143880668,3.28084,6,P-GPS,
7300,2022-08-29 21:16:46,-34.9184940253759,-56.1683799557103,3.608924,3.8385828,32.868645080668,36.707227880668,5.249344,0,1.92149612448,2.52415034324,22,5,8.426,36.707227880668,3.608924,0.223694,1.92149612448,0,0,-1.789552,283.1, 0.3, 0.1,0,0,1024,1024,1024,1024,0,0,0,0,288.3,0,0,100,4.215,4.21,0,0,0,0,4.016,65.48,36.707227880668,3.608924,6,P-GPS,
7400,2022-08-29 21:16:47,-34.9184940172353,-56.1683800956988,3.608924,3.8385828,32.868645080668,36.707227880668,5.577428,0,1.94953418312,2.56613525272,22,5,8.426,36.707227880668,3.608924,0.223694,1.94953418312,0,0,-1.11847,283.2, 0.4, 0.2,0,0,1024,878,1024,1024,0,-22,0,0,288.3,0,0,100,4.215,4.21,0,0,0,0,4.016,65.48,36.707227880668,3.608924,6,P-GPS,
7500,2022-08-29 21:16:47,-34.9184940801624,-56.1683801247389,3.608924,3.8385828,32.868645080668,36.707227880668,5.577428,0,1.97168313396,2.5906824976,22,5,8.426,36.707227880668,3.608924,0.223694,1.97168313396,0,0,-0.447388,283.3, 0.4, 0.4,0,0,1024,878,1024,1024,0,-22,0,0,288.3,0,0,100,4.215,4.21,0,0,0,0,4.016,65.48,36.707227880668,3.608924,6,P-GPS,
7600,2022-08-29 21:16:47,-34.918494146375,-56.1683801304122,3.937008,4.1666668,32.868645080668,37.035311880668,5.577428,0,1.98972447312,2.61489837764,22,5,8.426,37.035311880668,3.937008,0.223694,1.98972447312,0,0,-0.223694,283.4, 0.1, 0.1,0,0,1024,711,1024,1024,0,-47,0,0,288.3,0,0,100,4.215,4.21,0,0,0,0,4.016,65.48,37.035311880668,3.937008,6,P-GPS,
7700,2022-08-29 21:16:47,-34.9184942042499,-56.1683801651204,3.937008,4.1666668,32.868645080668,37.035311880668,5.577428,0,2.0119259174,2.63842856212,22,5,8.426,37.035311880668,3.937008,0.223694,2.0119259174,0,0,0,283.5, 0.1, -2.9,0,0,1024,838,1024,1024,0,-28,0,0,288.3,0,0,100,4.215,4.21,0,0,0,0,4.016,65.48,37.035311880668,3.937008,6,P-GPS,
7800,2022-08-29 21:16:47,-34.9184942581888,-56.1683802821912,3.937008,4.1666668,32.868645080668,37.035311880668,5.577428,0,2.05071200788,2.67860244792,22,5,8.426,37.035311880668,3.937008,0.223694,2.05071200788,0,0,0,283.6, 0, -5.1,0,0,1024,1024,1024,1024,0,0,0,0,288.3,0,0,100,4.215,4.21,0,0,0,0,4.016,65.48,37.035311880668,3.937008,6,P-GPS,
7900,2022-08-29 21:16:47,-34.9184944103376,-56.1683803520973,3.937008,4.1666668,32.868645080668,37.035311880668,5.577428,0.223694,2.10459652404,2.73792331596,22,5,8.409,37.035311880668,3.937008,0.223694,2.10459652404,-0.223694,0,0,283.9, 0.1, 0.2,0,0,1024,1024,1024,1024,0,0,0,0,288.3,0,0,100,4.161,4.151,0,0,0,0,4.403,65.66,37.035311880668,3.937008,6,P-GPS,
8000,2022-08-29 21:16:47,-34.9184946071074,-56.1683803920386,3.937008,4.1994752,32.835836680668,37.035311880668,5.577428,0.223694,2.164206106,2.81070218968,22,5,8.409,37.035311880668,3.937008,0.223694,2.164206106,-0.223694,0,0,284, 0.2, 1.3,0,0,1024,1024,1024,1024,0,0,0,0,288.3,0,0,100,4.161,4.151,0,0,0,0,4.403,65.66,37.035311880668,3.937008,6,P-GPS,
8100,2022-08-29 21:16:47,-34.9184947619113,-56.168380442121,3.937008,4.1994752,32.835836680668,37.035311880668,5.577428,0,2.21547251184,2.86913723092,22,5,8.409,37.035311880668,3.937008,0.223694,2.21547251184,0,0,0,284, 0.2, 0.9,0,0,1024,1024,1024,1024,0,0,0,0,288.3,0,0,100,4.161,4.151,0,0,0,0,4.403,65.66,37.035311880668,3.937008,6,P-GPS,
8200,2022-08-29 21:16:47,-34.9184948857235,-56.1683805087164,3.937008,4.2322836,32.803028280668,37.035311880668,5.577428,0,2.2621063716,2.91850731124,22,5,8.409,37.035311880668,3.937008,0.223694,2.2621063716,0,0,0,284, 0.3, 0.6,0,0,1024,1024,1024,1024,0,0,0,0,288.3,0,0,100,4.161,4.151,0,0,0,0,4.403,65.66,37.035311880668,3.937008,6,P-GPS,
8300,2022-08-29 21:16:48,-34.9184950256712,-56.1683805252516,3.937008,4.2322836,32.803028280668,37.035311880668,5.577428,0,2.3031660842,2.96980652548,22,5,8.409,37.035311880668,3.937008,0.223694,2.3031660842,0,0,0,284.1, 0.4, 0.4,0,0,1024,1024,1024,1024,0,0,0,0,288.3,0,0,100,4.161,4.151,0,0,0,0,4.403,65.66,37.035311880668,3.937008,6,P-GPS,
8400,2022-08-29 21:16:48,-34.9184951313133,-56.1683805908361,3.937008,4.2322836,32.803028280668,37.035311880668,5.577428,0,2.34496726664,3.0130578392,22,5,8.409,37.035311880668,3.937008,0.223694,2.34496726664,0,0,0,284, 0.3, 0.7,0,0,1024,1024,1024,1024,0,0,0,0,288.3,0,0,100,4.161,4.151,0,0,0,0,4.403,65.66,37.035311880668,3.937008,6,P-GPS,
8500,2022-08-29 21:16:48,-34.9184952452693,-56.1683806395237,3.937008,4.2322836,32.803028280668,37.035311880668,5.577428,0,2.38575795036,3.05710967788,22,5,8.409,37.035311880668,3.937008,0.223694,2.38575795036,0,0,0,284.1, 0.2, 0.6,0,0,1024,1024,1024,1024,0,0,0,0,288.3,0,0,100,4.161,4.151,0,0,0,0,4.403,65.66,37.035311880668,3.937008,6,P-GPS,
8600,2022-08-29 21:16:48,-34.918495379186,-56.1683806762327,3.937008,4.2322836,32.803028280668,37.035311880668,5.577428,0,2.42982619324,3.10718841964,22,5,8.409,37.035311880668,3.937008,0.223694,2.42982619324,0,0,0,284.2, 0.2, 0.5,0,0,1024,1024,1024,1024,0,0,0,0,288.3,0,0,100,4.161,4.151,0,0,0,0,4.403,65.66,37.035311880668,3.937008,6,P-GPS,
8700,2022-08-29 21:16:48,-34.9184955115468,-56.1683807191321,3.937008,4.265092,32.770219880668,37.035311880668,5.577428,0,2.47488853064,3.15715889368,22,5,8.409,37.035311880668,3.937008,0.223694,2.47488853064,0,0,0,284.2, 0.2, 0.5,0,0,1024,1024,1024,1024,0,0,0,0,288.3,0,0,100,4.161,4.151,0,0,0,0,4.403,65.66,37.035311880668,3.937008,6,P-GPS,
8800,2022-08-29 21:16:48,-34.9184955631554,-56.1683808002188,3.937008,4.265092,32.770219880668,37.035311880668,5.577428,0,2.50494102504,3.18786755608,22,5,8.409,37.035311880668,3.937008,0.223694,2.50494102504,0,0,0,284.3, 0.3, 0.6,0,0,1024,1024,1024,1024,0,0,0,0,288.3,0,0,100,4.161,4.151,0,0,0,0,4.403,65.66,37.035311880668,3.937008,6,P-GPS,
8900,2022-08-29 21:16:48,-34.9184956266021,-56.1683808898036,3.937008,4.265092,32.770219880668,37.035311880668,5.577428,0,2.539944307,3.22328094304,22,5,8.451,37.035311880668,3.937008,0.223694,2.539944307,0,0,0,284.3, 0.4, 0.5,0,0,1024,1024,652,1024,0,0,-56,0,288.3,0,0,100,4.214,4.207,0,0,0,0,3.903,65.66,37.035311880668,3.937008,6,P-GPS,
9000,2022-08-29 21:16:48,-34.9184957154516,-56.1683809956651,3.937008,4.265092,32.770219880668,37.035311880668,5.577428,0,2.58516412472,3.26859918596,22,5,8.451,37.035311880668,3.937008,0.223694,2.58516412472,0,0,0,284.4, 0.4, 0.4,0,0,1024,1024,364,1024,0,0,-100,0,288.3,0,0,100,4.214,4.207,0,0,0,0,3.903,65.66,37.035311880668,3.937008,6,P-GPS,
9100,2022-08-29 21:16:48,-34.9184957045573,-56.1683811937052,3.937008,4.265092,32.770219880668,37.035311880668,5.577428,0,2.62110900776,3.3279856708,23,5,8.451,37.035311880668,3.937008,0.223694,2.62110900776,0,0,0.223694,284.3, 0.5, 0.5,0,0,1024,1024,723,1024,0,0,-46,0,288.3,0,0,100,4.214,4.207,0,0,0,0,3.903,65.66,37.035311880668,3.937008,6,P-GPS,
9200,2022-08-29 21:16:48,-34.9184957189934,-56.1683812511925,3.937008,4.265092,32.770219880668,37.035311880668,5.577428,0,2.636483024,3.345964674,23,5,8.451,37.035311880668,3.937008,0.223694,2.636483024,0,0,0.671082,284.4, 0.6, 0.4,0,0,1024,1024,1024,1024,0,0,0,0,288.3,0,0,100,4.214,4.207,0,0,0,0,3.903,65.66,37.035311880668,3.937008,6,P-GPS,
9300,2022-08-29 21:16:49,-34.9184957246059,-56.1683813165002,3.608924,3.937008,32.770219880668,36.707227880668,5.577428,0,2.65106963864,3.3656169056,23,5,8.451,37.035311880668,3.937008,0.223694,2.65106963864,0,0,0.894776,284.4, 0.6, 0.4,0,0,1024,1024,1024,1024,0,0,0,0,288.3,0,0,100,4.214,4.207,0,0,0,0,3.903,65.66,36.707227880668,3.608924,6,P-GPS,
9400,2022-08-29 21:16:49,-34.9184957249576,-56.1683813960981,3.608924,3.937008,32.770219880668,36.707227880668,5.249344,0,2.66718512472,3.389435804,23,5,8.451,37.035311880668,3.937008,0.223694,2.66718512472,0,0,0.671082,284.5, 0.3, 0.4,0,0,1161,1024,1024,1024,21,0,0,0,288.3,0,0,100,4.214,4.207,0,0,0,0,3.903,65.66,36.707227880668,3.608924,6,P-GPS,
9500,2022-08-29 21:16:49,-34.9184956779306,-56.1683815610272,3.608924,3.937008,32.770219880668,36.707227880668,5.249344,0,2.68827764508,3.4416667768,22,5,8.451,37.035311880668,3.937008,0.223694,2.68827764508,0,0,0.447388,284.5, 0.5, 0.3,0,0,1161,1024,1024,1024,21,0,0,0,288.3,0,0,100,4.214,4.207,0,0,0,0,3.903,65.66,36.707227880668,3.608924,6,P-GPS,
9600,2022-08-29 21:16:49,-34.9184956924653,-56.1683816517757,3.608924,3.937008,32.770219880668,36.707227880668,5.249344,0,2.7108596668,3.469324258,22,5,8.451,37.035311880668,3.937008,0.223694,2.7108596668,0,0,0.223694,284.5, 0, 0.4,0,0,1476,1024,857,1024,68,0,-25,0,288.3,0,0,100,4.214,4.207,0,0,0,0,3.903,65.66,36.707227880668,3.608924,6,P-GPS,
9700,2022-08-29 21:16:49,-34.9184957103643,-56.168381733778,3.28084,3.608924,32.770219880668,36.379143880668,5.249344,0,2.7325952318,3.4947179596,23,5,8.451,37.035311880668,3.937008,0.223694,2.7325952318,0,0,0.223694,284.5, -4.5, 0.4,0,0,1631,1024,965,1024,92,0,-9,0,288.3,0,0,100,4.214,4.207,0,0,0,0,3.903,65.66,36.379143880668,3.28084,6,P-GPS,
9800,2022-08-29 21:16:49,-34.9184957233593,-56.168381868899,3.28084,3.608924,32.770219880668,36.379143880668,5.249344,0.223694,2.7642553378,3.5354003756,23,5,8.451,37.035311880668,3.937008,0.223694,2.7642553378,0,-0.223694,0.223694,284.6, -10.3, 0.4,0,0,1684,1024,1024,1024,100,0,0,0,288.3,0,0,100,4.214,4.207,0,0,0,0,3.903,65.66,36.379143880668,3.28084,6,P-GPS,
9900,2022-08-29 21:16:49,-34.9184956774624,-56.1683821670006,3.28084,3.608924,32.770219880668,36.379143880668,4.92126,0.7158208,2.81602043132,3.62614841,23,5,8.41,37.035311880668,3.937008,0.7158208,2.81602043132,0.223694,-0.671082,0,284.7, -14.9, 0.3,0,0,1684,1024,1024,1024,100,0,0,0,288.3,0,0,100,4.252,4.231,0,0,0,0,3.987,65.66,36.379143880668,3.28084,6,P-GPS,
10000,2022-08-29 21:16:49,-34.9184955370034,-56.1683826856511,3.28084,3.6417324,32.737411480668,36.379143880668,4.92126,0.7158208,2.89608605068,3.7895670504,23,5,8.41,37.035311880668,3.937008,0.7158208,2.89608605068,0.223694,-1.342164,0,284.6, -16.2, 0.3,0,0,1684,1024,1024,1024,100,0,0,0,288.3,0,0,100,4.252,4.231,0,0,0,0,3.987,65.66,36.379143880668,3.28084,6,P-GPS,
10100,2022-08-29 21:16:49,-34.9184953594778,-56.1683835130641,3.28084,3.6745408,32.704603080668,36.379143880668,4.92126,2.0579848,3.04787083244,4.0454069536,23,5,8.41,37.035311880668,3.937008,2.0579848,3.04787083244,0.447388,-2.013246,0,284.7, -16.1, 0.2,0,0,1684,1024,1024,1024,100,0,0,0,288.3,0,0,100,4.252,4.231,0,0,0,0,3.987,65.66,36.379143880668,3.28084,6,P-GPS,
10200,2022-08-29 21:16:49,-34.9184951257033,-56.1683846590215,3.28084,3.6745408,32.704603080668,36.379143880668,4.92126,2.7738056,3.2818570604,4.3986878048,23,5,8.41,37.035311880668,3.937008,2.7738056,3.2818570604,0.671082,-2.684328,0,284.7, -15.4, 0.2,0,0,1684,1024,1024,1024,100,0,0,0,288.3,0,0,100,4.252,4.231,0,0,0,0,3.987,65.66,36.379143880668,3.28084,6,P-GPS,
10300,2022-08-29 21:16:49,-34.9184948590928,-56.1683860828793,3.28084,3.7073492,32.671794680668,36.379143880668,4.92126,3.2659324,3.6038058896,4.835630076,22,5,8.41,37.035311880668,3.937008,3.2659324,3.6038058896,0.894776,-3.131716,0,284.8, -14.9, 0.4,0,0,1684,1024,1024,1024,100,0,0,0,288.3,0,0,100,4.252,4.231,0,0,0,0,3.987,65.66,36.379143880668,3.28084,6,P-GPS,
10400,2022-08-29 21:16:50,-34.9184946468218,-56.1683880711053,3.28084,3.772966,32.606177880668,36.379143880668,4.92126,3.9593838,4.111220604,5.4354660532,22,5,8.41,37.035311880668,3.937008,3.9593838,4.111220604,1.11847,-3.802798,0,284.8, -14.6, 0.2,0,0,1458,1024,1024,1024,66,0,0,0,288.3,0,0,100,4.252,4.231,0,0,0,0,3.987,65.66,36.379143880668,3.28084,6,P-GPS,
10500,2022-08-29 21:16:50,-34.9184942290372,-56.1683900990284,3.28084,3.8057744,32.573369480668,36.379143880668,4.92126,4.3844024,4.6284122216,6.0609910076,22,5,8.41,37.035311880668,3.937008,4.3844024,4.6284122216,1.11847,-4.250186,0,284.7, -14.4, 0,0,0,1458,1024,1024,1024,66,0,0,0,288.3,0,0,100,4.252,4.231,0,0,0,0,3.987,65.66,36.379143880668,3.28084,6,P-GPS,
10600,2022-08-29 21:16:50,-34.9184936795245,-56.1683924898985,3.28084,3.8713912,32.507752680668,36.379143880668,4.92126,4.8765292,5.2635500372,6.8038388004,22,5,8.41,37.035311880668,3.937008,4.8765292,5.2635500372,1.342164,-4.697574,0,284.7, -11.1, -0.7,0,0,1027,476,1024,1024,0,-83,0,0,288.3,0,0,100,4.252,4.231,0,0,0,0,3.987,65.66,36.379143880668,3.28084,6,P-GPS,
10700,2022-08-29 21:16:50,-34.9184931048743,-56.1683949353645,3.28084,3.937008,32.442135880668,36.379143880668,5.249344,5.1002232,5.9383204,7.5648952552,22,5,8.41,37.035311880668,3.937008,5.1002232,5.9383204,1.342164,-4.921268,0,284.7, -3.6, -3.1,0,0,1024,364,1024,1024,0,-100,0,0,288.3,0,0,100,4.252,4.231,0,0,0,0,3.987,65.66,36.379143880668,3.28084,6,P-GPS,
10800,2022-08-29 21:16:50,-34.918492286981,-56.1683979403247,3.28084,4.0026248,32.376519080668,36.379143880668,5.249344,5.0554844,6.7880907684,8.5121065716,22,5,8.41,37.035311880668,3.937008,5.1002232,6.7880907684,1.11847,-4.921268,0,283.9, 2.1, -12.9,0,0,1024,613,1024,1024,0,-62,0,0,288.3,0,0,100,4.252,4.231,0,0,0,0,3.987,65.66,36.379143880668,3.28084,6,P-GPS,
10900,2022-08-29 21:16:50,-34.9184919289728,-56.1684004446912,3.28084,4.0682416,32.310902280668,36.379143880668,5.249344,4.9436374,7.5223427604,9.2726052836,22,5,8.372,37.035311880668,3.937008,5.1002232,7.5223427604,0.447388,-4.921268,0,283.7, 2.8, -16.7,0,0,1024,591,1024,1024,0,-66,0,0,288.3,0,0,100,4.188,4.185,0,0,0,0,3.897,65.66,36.379143880668,3.28084,6,P-GPS,
11000,2022-08-29 21:16:50,-34.9184918437596,-56.1684030626375,2.952756,3.8057744,32.245285480668,36.051059880668,5.249344,4.697574,8.3013126016,10.056430768,22,5,8.372,37.035311880668,3.937008,5.1002232,8.3013126016,0,-4.697574,0,284.2, 2.2, -10.4,0,0,1024,364,1024,1024,0,-100,0,0,288.3,0,0,100,4.188,4.185,0,0,0,0,3.897,65.66,36.051059880668,2.952756,6,P-GPS,
11100,2022-08-29 21:16:50,-34.9184919685159,-56.1684054562606,2.952756,3.8713912,32.179668680668,36.051059880668,5.249344,4.697574,9.0188323096,10.773950476,22,5,8.372,37.035311880668,3.937008,5.1002232,9.0188323096,-0.223694,-4.697574,0,284.6, 1.9, -9.9,0,0,1024,445,1024,1024,0,-88,0,0,288.3,0,0,100,4.188,4.185,0,0,0,0,3.897,65.66,36.051059880668,2.952756,6,P-GPS,
11200,2022-08-29 21:16:50,-34.918492450204,-56.1684079219696,2.952756,3.9698164,32.081243480668,36.051059880668,5.249344,4.5186188,9.7673231472,11.5322510252,22,5,8.372,37.035311880668,3.937008,5.1002232,9.7673231472,-0.671082,-4.47388,0,284.6, 1, -14.7,0,0,1024,364,1024,1024,0,-100,0,0,288.3,0,0,100,4.188,4.185,0,0,0,0,3.897,65.66,36.051059880668,2.952756,6,P-GPS,
11300,2022-08-29 21:16:51,-34.9184929595104,-56.1684101426944,2.952756,4.0354332,32.015626680668,36.051059880668,5.577428,4.6752046,10.4451446912,12.222113252,22,5,8.372,37.035311880668,3.937008,5.1002232,10.4451446912,-1.342164,-4.47388,0,284.8, 0.7, -14.5,0,0,1024,364,1024,1024,0,-100,0,0,288.3,0,0,100,4.188,4.185,0,0,0,0,3.897,65.66,36.051059880668,2.952756,6,P-GPS,
11400,2022-08-29 21:16:51,-34.9184937268121,-56.1684124319658,2.952756,4.10105,31.950009880668,36.051059880668,5.577428,4.809421,11.1548888084,12.9619754804,22,5,8.372,37.035311880668,3.937008,5.1002232,11.1548888084,-1.789552,-4.47388,0,284.8, 0.5, -16.2,0,0,1024,376,1024,1024,0,-98,0,0,288.3,0,0,100,4.188,4.185,0,0,0,0,3.897,65.66,36.051059880668,2.952756,6,P-GPS,
11500,2022-08-29 21:16:51,-34.9184947172683,-56.1684145805447,2.952756,4.1994752,31.851584680668,36.051059880668,5.577428,5.1002232,11.8373035284,13.6993770788,23,5,8.372,37.035311880668,3.937008,5.1002232,11.8373035284,-2.460634,-4.47388,0,284.8, 0.4, -16.9,0,0,1024,945,1024,1024,0,-12,0,0,288.3,0,0,100,4.188,4.185,0,0,0,0,3.897,65.66,36.051059880668,2.952756,6,P-GPS,
11600,2022-08-29 21:16:51,-34.9184960339557,-56.1684168125037,2.952756,4.2979004,31.753159480668,36.051059880668,5.577428,5.3462866,12.56971825,14.5219492836,23,5,8.372,37.035311880668,3.937008,5.3462866,12.56971825,-2.908022,-4.47388,0,285, 0.6, -9.7,0,0,1024,1024,1024,1024,0,0,0,0,288.3,0,0,100,4.188,4.185,0,0,0,0,3.897,65.66,36.051059880668,2.952756,6,P-GPS,
11700,2022-08-29 21:16:51,-34.9184978552132,-56.1684183977017,3.28084,4.6916012,31.687542680668,36.379143880668,5.577428,5.144962,13.1600397912,15.3383207008,23,5,8.372,37.035311880668,3.937008,5.3462866,13.1600397912,-2.908022,-4.250186,0,286, 6.8, 8.4,0,0,1024,1024,1024,1024,0,0,0,0,288.3,0,0,100,4.188,4.185,0,0,0,0,3.897,65.66,36.379143880668,3.28084,6,P-GPS,
11800,2022-08-29 21:16:51,-34.9184992347356,-56.1684203603485,3.28084,4.757218,31.621925880668,36.379143880668,5.577428,4.6528352,13.8441933564,16.1116803056,23,5,8.372,37.035311880668,3.937008,5.3462866,13.8441933564,-2.684328,-3.802798,0,286.8, 12.5, 14.9,0,0,1024,1024,1024,1024,0,0,0,0,288.3,0,0,100,4.188,4.185,0,0,0,0,3.897,65.66,36.379143880668,3.28084,6,P-GPS,
11900,2022-08-29 21:16:51,-34.9185003484782,-56.168421977251,3.28084,4.8556432,31.523500680668,36.379143880668,5.577428,3.7133204,14.4124676528,16.7434060476,23,5,8.386,37.035311880668,3.937008,5.3462866,14.4124676528,-2.013246,-3.131716,0,286.4, 13, 15.6,0,0,1024,1024,1024,1024,0,0,0,0,288.3,0,0,100,4.207,4.2,0,0,0,0,4.229,65.66,36.379143880668,3.28084,6,P-GPS,
12000,2022-08-29 21:16:51,-34.9185012758558,-56.1684233742705,3.608924,5.2165356,31.490692280668,36.707227880668,5.577428,2.7290668,14.904199952,17.2811357236,23,5,8.386,37.035311880668,3.937008,5.3462866,14.904199952,-1.565858,-2.23694,0,285.8, 10.5, 13.1,0,0,1024,914,1024,1024,0,-17,0,0,288.3,0,0,100,4.207,4.2,0,0,0,0,4.229,65.66,36.707227880668,3.608924,6,P-GPS,
12100,2022-08-29 21:16:51,-34.9185021388383,-56.1684241820139,3.608924,5.2821524,31.425075480668,36.707227880668,5.577428,1.8119214,15.2232288336,17.6780517468,23,5,8.386,37.035311880668,3.937008,5.3462866,15.2232288336,-0.894776,-1.565858,0,285.5, 8.5, 10.2,0,0,1024,582,1024,1024,0,-67,0,0,288.3,0,0,100,4.207,4.2,0,0,0,0,4.229,65.66,36.707227880668,3.608924,6,P-GPS,
12200,2022-08-29 21:16:51,-34.9185027245213,-56.1684250070695,3.608924,5.3149608,31.392267080668,36.707227880668,5.577428,1.2974252,15.520997872,18.0045281352,23,5,8.386,37.035311880668,3.937008,5.3462866,15.520997872,-0.671082,-1.11847,0,285, 5.7, 4.3,0,0,1024,516,1024,1024,0,-77,0,0,288.3,0,0,100,4.207,4.2,0,0,0,0,4.229,65.66,36.707227880668,3.608924,6,P-GPS,
12300,2022-08-29 21:16:52,-34.9185030801783,-56.1684255663966,3.608924,5.3477692,31.359458680668,36.707227880668,5.577428,1.006623,15.7190621828,18.2162735488,23,5,8.386,37.035311880668,3.937008,5.3462866,15.7190621828,-0.447388,-0.894776,0,285, 3.8, -4.4,0,0,1024,516,1024,1024,0,-77,0,0,288.3,0,0,100,4.207,4.2,0,0,0,0,4.229,65.66,36.707227880668,3.608924,6,P-GPS,
12400,2022-08-29 21:16:52,-34.9185033308056,-56.1684259875754,3.608924,5.3477692,31.359458680668,36.707227880668,5.577428,0.9395148,15.8665687492,18.3719494068,23,5,8.386,37.035311880668,3.937008,5.3462866,15.8665687492,-0.671082,-0.671082,0,284.8, 2.8, -9.1,0,0,1024,563,1024,1024,0,-70,0,0,288.3,0,0,100,4.207,4.2,0,0,0,0,4.229,65.66,36.707227880668,3.608924,6,P-GPS,
12500,2022-08-29 21:16:52,-34.9185028967553,-56.1684255303407,3.608924,5.3477692,31.359458680668,36.707227880668,5.577428,1.4316416,15.6890753052,18.5812341904,23,5,8.386,37.035311880668,3.937008,5.3462866,15.8665687492,-1.11847,-0.894776,0,284.7, 2.5, -10.4,0,0,1024,748,1024,1024,0,-42,0,0,288.3,0,0,100,4.207,4.2,0,0,0,0,4.229,65.66,36.707227880668,3.608924,6,P-GPS,
12600,2022-08-29 21:16:52,-34.9185033754347,-56.1684258382634,3.28084,5.0196852,31.359458680668,36.379143880668,5.577428,1.6105968,15.8288062808,18.7786751416,23,5,8.386,37.035311880668,3.937008,5.3462866,15.8665687492,-1.342164,-0.894776,0,284.7, 2.2, -9.3,0,0,1024,1024,1024,1024,0,0,0,0,288.3,0,0,100,4.207,4.2,0,0,0,0,4.229,65.66,36.379143880668,3.28084,6,P-GPS,
12700,2022-08-29 21:16:52,-34.9185039509627,-56.1684261796718,3.28084,5.0196852,31.359458680668,36.379143880668,5.577428,1.9908766,15.9902564172,19.0121725244,23,5,8.386,37.035311880668,3.937008,5.3462866,15.9902564172,-1.789552,-0.894776,0,285, 1.9, -1.8,0,0,1024,1024,1024,1024,0,0,0,0,288.3,0,0,100,4.207,4.2,0,0,0,0,4.229,65.66,36.379143880668,3.28084,6,P-GPS,
12800,2022-08-29 21:16:52,-34.9185045968736,-56.16842658661,3.28084,5.085302,31.293841880668,36.379143880668,5.577428,1.9908766,16.18028267,19.2774284384,23,5,8.386,37.035311880668,3.937008,5.3462866,16.18028267,-1.789552,-0.894776,0,285.5, 2.5, 7.7,0,0,1024,1024,1024,1024,0,0,0,0,288.3,0,0,100,4.207,4.2,0,0,0,0,4.229,65.66,36.379143880668,3.28084,6,P-GPS,
12900,2022-08-29 21:16:52,-34.9185052336229,-56.1684270810708,3.28084,5.085302,31.293841880668,36.379143880668,5.249344,1.4987498,16.3959650916,19.5528549564,23,5,8.391,37.035311880668,3.937008,5.3462866,16.3959650916,-1.342164,-0.671082,0,285.4, 2.8, 8.5,0,0,1024,1024,1024,1041,0,0,0,3,288.3,0,0,100,4.191,4.186,0,0,0,0,4.08,65.84,36.379143880668,3.28084,6,P-GPS,
13000,2022-08-29 21:16:52,-34.9185058241113,-56.1684274605413,3.28084,5.1181104,31.261033480668,36.379143880668,5.249344,1.2974252,16.5753286144,19.7963589012,23,5,8.391,37.035311880668,3.937008,5.3462866,16.5753286144,-1.11847,-0.671082,0,285.1, 3.1, 7.6,0,0,1024,1228,1024,1024,0,31,0,0,288.3,0,0,100,4.191,4.186,0,0,0,0,4.08,65.84,36.379143880668,3.28084,6,P-GPS,
13100,2022-08-29 21:16:52,-34.9185063052986,-56.1684277702349,3.28084,5.1181104,31.261033480668,36.379143880668,5.249344,0.8052984,16.7228023724,19.9948825296,23,5,8.391,37.035311880668,3.937008,5.3462866,16.7228023724,-0.671082,-0.447388,0,285, 3.1, 6.5,0,0,1024,1291,1024,1024,0,40,0,0,288.3,0,0,100,4.191,4.186,0,0,0,0,4.08,65.84,36.379143880668,3.28084,6,P-GPS,
13200,2022-08-29 21:16:52,-34.9185067477469,-56.168428045189,3.28084,5.1509188,31.228225080668,36.379143880668,5.249344,0.4921268,16.856627836,20.1760505144,23,5,8.391,37.035311880668,3.937008,5.3462866,16.856627836,-0.447388,-0.223694,0,284.9, 2.5, 5.2,0,0,1024,1291,1024,1024,0,40,0,0,288.3,0,0,100,4.191,4.186,0,0,0,0,4.08,65.84,36.379143880668,3.28084,6,P-GPS,
13300,2022-08-29 21:16:53,-34.9185070540523,-56.1684282675898,3.28084,5.1509188,31.228225080668,36.379143880668,5.249344,0.3131716,16.9586947684,20.306103012,23,5,8.391,37.035311880668,3.937008,5.3462866,16.9586947684,-0.223694,-0.223694,0,284.9, 2, 5.8,0,0,1024,1024,1024,1024,0,0,0,0,288.3,0,0,100,4.191,4.186,0,0,0,0,4.08,65.84,36.379143880668,3.28084,6,P-GPS,
13400,2022-08-29 21:16:53,-34.9185074220236,-56.1684287995902,3.28084,5.1837272,31.195416680668,36.379143880668,5.249344,0,17.1556435936,20.5143379268,23,5,8.391,37.035311880668,3.937008,5.3462866,17.1556435936,0,0,0,284.8, 1.6, 1.9,0,0,1024,1024,1024,1024,0,0,0,0,288.3,0,0,100,4.191,4.186,0,0,0,0,4.08,65.84,36.379143880668,3.28084,6,P-GPS,
13500,2022-08-29 21:16:53,-34.9185074610705,-56.1684288851383,3.28084,5.1837272,31.195416680668,36.379143880668,5.249344,0,17.1846462192,20.5436030196,23,5,8.391,37.035311880668,3.937008,5.3462866,17.1846462192,0,0,0,284.9, 1.7, 0.3,0,0,1024,1024,1024,1024,0,0,0,0,288.3,0,0,100,4.191,4.186,0,0,0,0,4.08,65.84,36.379143880668,3.28084,6,P-GPS,
13600,2022-08-29 21:16:53,-34.9185073950843,-56.1684288839942,3.28084,5.1837272,31.195416680668,36.379143880668,5.249344,0,17.1755911008,20.5676843852,23,5,8.391,37.035311880668,3.937008,5.3462866,17.1846462192,0,0,0,284.9, 1.6, 0,0,0,1024,1024,1024,1024,0,0,0,0,288.3,0,0,100,4.191,4.186,0,0,0,0,4.08,65.84,36.379143880668,3.28084,6,P-GPS,
13700,2022-08-29 21:16:53,-34.9185073357731,-56.1684288569862,3.28084,5.1837272,31.195416680668,36.379143880668,5.249344,0,17.1602367696,20.5907814988,23,5,8.391,37.035311880668,3.937008,5.3462866,17.1846462192,0,0,0,284.9, 1.4, 0,0,0,1024,1024,1024,1024,0,0,0,0,288.3,0,0,100,4.191,4.186,0,0,0,0,4.08,65.84,36.379143880668,3.28084,6,P-GPS,
13800,2022-08-29 21:16:53,-34.9185070826445,-56.1684286510148,3.28084,5.1837272,31.195416680668,36.379143880668,5.249344,0,17.0695215436,20.7018051244,23,5,8.391,37.035311880668,3.937008,5.3462866,17.1846462192,0,0,0,284.9, 1.1, -0.2,0,0,1024,1024,1024,1024,0,0,0,0,288.3,0,0,100,4.191,4.186,0,0,0,0,4.08,65.84,36.379143880668,3.28084,6,P-GPS,
13900,2022-08-29 21:16:53,-34.9185070209151,-56.1684285998145,3.28084,5.1837272,31.195416680668,36.379143880668,5.249344,0,17.0471462148,20.7290360964,23,5,8.372,37.035311880668,3.937008,5.3462866,17.1846462192,0,0,0,284.9, 0.9, -0.2,0,0,1024,1024,1024,1024,0,0,0,0,288.3,0,0,100,4.19,4.186,0,0,0,0,4.27,65.84,36.379143880668,3.28084,6,P-GPS,
14000,2022-08-29 21:16:53,-34.9185069257114,-56.1684285513568,3.28084,5.1837272,31.195416680668,36.379143880668,5.249344,0,17.0212275788,20.7667001396,23,5,8.372,37.035311880668,3.937008,5.3462866,17.1846462192,0,0,0,285, 0.9, -0.4,0,0,1024,1024,1024,1024,0,0,0,0,288.3,0,0,100,4.19,4.186,0,0,0,0,4.27,65.84,36.379143880668,3.28084,6,P-GPS,
14100,2022-08-29 21:16:53,-34.9185068709386,-56.168428543547,2.952756,4.8556432,31.195416680668,36.051059880668,5.249344,0,17.0119428016,20.7868116888,23,5,8.372,37.035311880668,3.937008,5.3462866,17.1846462192,0,0,0,285, 0.8, -0.5,0,0,1024,1024,1024,1024,0,0,0,0,288.3,0,0,100,4.19,4.186,0,0,0,0,4.27,65.84,36.051059880668,2.952756,6,P-GPS,
14200,2022-08-29 21:16:53,-34.9185068412782,-56.168428731856,2.952756,4.8556432,31.195416680668,36.051059880668,5.249344,0,17.0608273176,20.844160772,23,5,8.372,37.035311880668,3.937008,5.3462866,17.1846462192,0,0,0,285, 0.8, 0,0,0,1024,1024,1024,1024,0,0,0,0,288.3,0,0,100,4.19,4.186,0,0,0,0,4.27,65.84,36.051059880668,2.952756,6,P-GPS,
14300,2022-08-29 21:16:53,-34.9185068564732,-56.1684287578349,2.952756,4.8556432,31.195416680668,36.051059880668,5.249344,0,17.070046478,20.8537080164,23,5,8.372,37.035311880668,3.937008,5.3462866,17.1846462192,0,0,0,285, 0.8, 0.5,0,0,1024,1024,1024,1024,0,0,0,0,288.3,0,0,100,4.19,4.186,0,0,0,0,4.27,65.84,36.051059880668,2.952756,6,P-GPS,
14400,2022-08-29 21:16:54,-34.9185068849221,-56.1684287594073,2.952756,4.8556432,31.195416680668,36.051059880668,5.249344,0,17.074147528,20.8641082792,23,5,8.372,37.035311880668,3.937008,5.3462866,17.1846462192,0,0,0,285, 0.7, 0,0,0,1024,1024,1207,1024,0,0,28,0,288.3,0,0,100,4.19,4.186,0,0,0,0,4.27,65.84,36.051059880668,2.952756,6,P-GPS,
14500,2022-08-29 21:16:54,-34.9185068881904,-56.168428783072,2.952756,4.8556432,31.195416680668,36.051059880668,5.249344,0,17.081201334,20.8712933188,23,5,8.372,37.035311880668,3.937008,5.3462866,17.1846462192,0,0,0,285, 0.8, 0.1,0,0,1024,1024,1024,1024,0,0,0,0,288.3,0,0,100,4.19,4.186,0,0,0,0,4.27,65.84,36.051059880668,2.952756,6,P-GPS,
14600,2022-08-29 21:16:54,-34.9185070402854,-56.1684289591883,2.952756,4.8556432,31.195416680668,36.051059880668,5.249344,0,17.1501317824,20.9478025076,23,5,8.372,37.035311880668,3.937008,5.3462866,17.1846462192,0,0,-0.223694,284.9, 0.8, -0.6,0,0,1024,1024,1024,1024,0,0,0,0,288.3,0,0,100,4.19,4.186,0,0,0,0,4.27,65.84,36.051059880668,2.952756,6,P-GPS,
14700,2022-08-29 21:16:54,-34.9185070240531,-56.1684290001078,2.952756,4.8556432,31.195416680668,36.051059880668,5.249344,0,17.1594821764,20.9614179936,23,5,8.372,37.035311880668,3.937008,5.3462866,17.1846462192,0,0,0,284.8, 1.1, -0.8,0,0,1024,1024,1024,1024,0,0,0,0,288.3,0,0,100,4.19,4.186,0,0,0,0,4.27,65.84,36.051059880668,2.952756,6,P-GPS,
14800,2022-08-29 21:16:54,-34.918507025333,-56.1684290265673,3.28084,5.1837272,31.195416680668,36.379143880668,5.249344,0,17.1670281084,20.969324818,23,5,8.372,37.035311880668,3.937008,5.3462866,17.1846462192,0,0,0,284.7, 1.1, -0.6,0,0,1024,1024,1302,1024,0,0,42,0,288.3,0,0,100,4.19,4.186,0,0,0,0,4.27,65.84,36.379143880668,3.28084,6,P-GPS,
14900,2022-08-29 21:16:54,-34.9185070183275,-56.1684290680301,3.28084,5.1837272,31.195416680668,36.379143880668,5.249344,0,17.1777236468,20.9819888604,23,5,8.377,37.035311880668,3.937008,5.3462866,17.1846462192,0,0,0,284.7, 1.1, -0.5,0,0,1024,1024,1320,1024,0,0,45,0,288.3,0,0,100,4.189,4.183,0,0,0,0,4.095,65.84,36.379143880668,3.28084,6,P-GPS,
15000,2022-08-29 21:16:54,-34.918506995837,-56.16842912517,3.28084,5.1837272,31.195416680668,36.379143880668,5.577428,0,17.1908141984,21.0009521156,23,5,8.377,37.035311880668,3.937008,5.3462866,17.1908141984,0,0,-0.223694,284.8, 0.8, -0.4,0,0,1024,1024,1294,1024,0,0,41,0,288.3,0,0,100,4.189,4.183,0,0,0,0,4.095,65.84,36.379143880668,3.28084,6,P-GPS,
15100,2022-08-29 21:16:54,-34.918507083278,-56.1684292252198,3.28084,5.1837272,31.195416680668,36.379143880668,5.577428,0,17.2301186616,21.0447185212,23,5,8.377,37.035311880668,3.937008,5.3462866,17.2301186616,0,0,-0.894776,284.8, 1, -0.6,0,0,1024,1024,1092,1024,0,0,10,0,288.3,0,0,100,4.189,4.183,0,0,0,0,4.095,65.84,36.379143880668,3.28084,6,P-GPS,
15200,2022-08-29 21:16:54,-34.9185070750169,-56.1684292262072,3.608924,5.5118112,31.195416680668,36.707227880668,5.905512,0,17.2292984516,21.047736894,23,5,8.377,37.035311880668,3.937008,5.3462866,17.2301186616,0,0,-1.342164,284.8, 0.6, -1,0,0,1024,1024,1092,1024,0,0,10,0,288.3,0,0,100,4.189,4.183,0,0,0,0,4.095,65.84,36.707227880668,3.608924,6,P-GPS,
15300,2022-08-29 21:16:55,-34.9185070516292,-56.1684292164697,3.608924,5.5118112,31.195416680668,36.707227880668,5.905512,0,17.2235569816,21.056759204,23,5,8.377,37.035311880668,3.937008,5.3462866,17.2301186616,0,0,-1.11847,284.8, 0.8, -1.4,0,0,1024,1024,1024,1024,0,0,0,0,288.3,0,0,100,4.189,4.183,0,0,0,0,4.095,65.84,36.707227880668,3.608924,6,P-GPS,
15400,2022-08-29 21:16:55,-34.9185070112047,-56.1684291957095,3.608924,5.5118112,31.195416680668,36.707227880668,6.233596,0,17.2125333592,21.0727697032,23,5,8.377,37.035311880668,3.937008,5.3462866,17.2301186616,0,0,-0.671082,284.8, 0.7, -1.2,0,0,1068,1024,1024,1024,7,0,0,0,288.3,0,0,100,4.189,4.183,0,0,0,0,4.095,65.84,36.707227880668,3.608924,6,P-GPS,
15500,2022-08-29 21:16:55,-34.9185069959803,-56.1684291431092,3.937008,5.8398952,31.195416680668,37.035311880668,6.233596,0,17.195866692,21.0894363704,22,5,8.377,37.035311880668,3.937008,5.3462866,17.2301186616,0,0,-0.447388,284.8, 0.4, -0.8,0,0,1349,1024,1024,1024,49,0,0,0,288.3,0,0,100,4.189,4.183,0,0,0,0,4.095,65.84,37.035311880668,3.937008,6,P-GPS,
15600,2022-08-29 21:16:55,-34.9185069979345,-56.1684292334424,3.937008,5.8398952,31.195416680668,37.035311880668,6.233596,0,17.2213916272,21.116470492,22,5,8.377,37.035311880668,3.937008,5.3462866,17.2301186616,0,0,-0.223694,284.9, -0.6, -0.7,0,0,1373,1024,1024,1024,53,0,0,0,288.3,0,0,100,4.189,4.183,0,0,0,0,4.095,65.84,37.035311880668,3.937008,6,P-GPS,
15700,2022-08-29 21:16:55,-34.9185069779681,-56.1684292807717,3.937008,5.8398952,31.195416680668,37.035311880668,6.233596,0,17.2320543572,21.1324153744,22,5,8.377,37.035311880668,3.937008,5.3462866,17.2320543572,0,0,0,284.9, -4.7, -0.7,0,0,1370,1024,1024,1024,52,0,0,0,288.3,0,0,100,4.189,4.183,0,0,0,0,4.095,65.84,37.035311880668,3.937008,6,P-GPS,
15800,2022-08-29 21:16:55,-34.9185069171132,-56.1684293232741,3.937008,5.8398952,31.195416680668,37.035311880668,6.233596,0.223694,17.2361554072,21.1580059264,22,5,8.377,37.035311880668,3.937008,5.3462866,17.2361554072,0,-0.223694,0,284.9, -6.3, -0.5,0,0,1291,1024,1024,1024,40,0,0,0,288.3,0,0,100,4.189,4.183,0,0,0,0,4.095,65.84,37.035311880668,3.937008,6,P-GPS,
15900,2022-08-29 21:16:55,-34.9185068712708,-56.1684295096712,3.937008,5.8727036,31.162608280668,37.035311880668,6.233596,0.447388,17.2825464848,21.216208028,22,5,8.391,37.035311880668,3.937008,5.3462866,17.2825464848,0,-0.447388,0,284.8, -6.4, -0.6,0,0,1205,1024,1024,1024,27,0,0,0,288.3,0,0,100,4.16,4.161,0,0,0,0,4.083,66.02,37.035311880668,3.937008,6,P-GPS,
16000,2022-08-29 21:16:55,-34.9185067870787,-56.168429888358,3.937008,5.8727036,31.162608280668,37.035311880668,6.233596,0.7158208,17.378117354,21.3335964832,22,5,8.391,37.035311880668,3.937008,5.3462866,17.378117354,0.223694,-0.671082,0,284.8, -5.1, -0.8,0,0,1205,1024,1024,1024,27,0,0,0,288.3,0,0,100,4.16,4.161,0,0,0,0,4.083,66.02,37.035311880668,3.937008,6,P-GPS,
16100,2022-08-29 21:16:55,-34.9185066931419,-56.1684303347582,3.937008,5.8727036,31.162608280668,37.035311880668,6.233596,0.9171454,17.4917656516,21.47145738,22,5,8.391,37.035311880668,3.937008,5.3462866,17.4917656516,0.223694,-0.894776,0,284.7, -2.4, -0.7,0,0,1200,1024,1024,1024,27,0,0,0,288.3,0,0,100,4.16,4.161,0,0,0,0,4.083,66.02,37.035311880668,3.937008,6,P-GPS,
16200,2022-08-29 21:16:55,-34.9185065905776,-56.1684308553755,3.937008,5.905512,31.129799880668,37.035311880668,6.233596,0.9171454,17.6256239236,21.6316607972,22,5,8.391,37.035311880668,3.937008,5.3462866,17.6256239236,0.223694,-0.894776,0,284.7, -1.1, -0.5,0,0,1086,1024,1024,1024,9,0,0,0,288.3,0,0,100,4.16,4.161,0,0,0,0,4.083,66.02,37.035311880668,3.937008,6,P-GPS,
16300,2022-08-29 21:16:56,-34.9185065911264,-56.1684313700532,3.937008,5.905512,31.129799880668,37.035311880668,6.233596,0.9171454,17.7707682852,21.7856306184,22,5,8.391,37.035311880668,3.937008,5.3462866,17.7707682852,0.223694,-0.894776,0,284.7, -0.1, -0.3,0,0,1024,1024,1024,1024,0,0,0,0,288.3,0,0,100,4.16,4.161,0,0,0,0,4.083,66.02,37.035311880668,3.937008,6,P-GPS,
16400,2022-08-29 21:16:56,-34.9185065057943,-56.1684319218421,3.937008,5.905512,31.129799880668,37.035311880668,6.233596,0.9171454,17.916175114,21.9536096264,22,5,8.391,37.035311880668,3.937008,5.3462866,17.916175114,0.223694,-0.894776,0,284.7, 3.8, -0.2,0,0,1024,1024,1024,1024,0,0,0,0,288.3,0,0,100,4.16,4.161,0,0,0,0,4.083,66.02,37.035311880668,3.937008,6,P-GPS,
16500,2022-08-29 21:16:56,-34.9185064346394,-56.1684324136857,3.937008,5.905512,31.129799880668,37.035311880668,6.233596,0.9171454,18.0466869292,22.10301908,22,5,8.391,37.035311880668,3.937008,5.3462866,18.0466869292,0.223694,-0.894776,0,284.8, 5.2, -0.1,0,0,1024,1024,1024,1024,0,0,0,0,288.3,0,0,100,4.16,4.161,0,0,0,0,4.083,66.02,37.035311880668,3.937008,6,P-GPS,
16600,2022-08-29 21:16:56,-34.9185063722342,-56.1684328635859,3.937008,5.9383204,31.096991480668,37.035311880668,6.233596,0.7158208,18.166667248,22.2395348324,22,5,8.391,37.035311880668,3.937008,5.3462866,18.166667248,0.223694,-0.671082,0,284.8, 5.2, -0.1,0,0,1024,1024,1024,1024,0,0,0,0,288.3,0,0,100,4.16,4.161,0,0,0,0,4.083,66.02,37.035311880668,3.937008,6,P-GPS,
16700,2022-08-29 21:16:56,-34.9185063164632,-56.1684332034115,3.937008,5.9383204,31.096991480668,37.035311880668,6.233596,0.447388,18.2564310304,22.3432093764,22,5,8.391,37.035311880668,3.937008,5.3462866,18.2564310304,0,-0.447388,0,284.9, 4.6, -0.1,0,0,1024,1024,1024,1024,0,0,0,0,288.3,0,0,100,4.16,4.161,0,0,0,0,4.083,66.02,37.035311880668,3.937008,6,P-GPS,
