time(millisecond),datetime(utc),latitude,longitude,height_above_takeoff(feet),height_above_ground_at_drone_location(feet),ground_elevation_at_drone_location(feet),altitude_above_seaLevel(feet),height_sonar(feet),speed(mph),distance(feet),mileage(feet),satellites,gpslevel,voltage(v),max_altitude(feet),max_ascent(feet),max_speed(mph),max_distance(feet), xSpeed(mph), ySpeed(mph), zSpeed(mph), compass_heading(degrees), pitch(degrees), roll(degrees),isPhoto,isVideo,rc_elevator,rc_aileron,rc_throttle,rc_rudder,rc_elevator(percent),rc_aileron(percent),rc_throttle(percent),rc_rudder(percent),gimbal_heading(degrees),gimbal_pitch(degrees),gimbal_roll(degrees),battery_percent,voltageCell1,voltageCell2,voltageCell3,voltageCell4,voltageCell5,voltageCell6,current(A),battery_temperature(f),altitude(feet),ascent(feet),flycStateRaw,flycState,message
0,2025-05-20 16:39:00,-34.9287428016418,-56.1627738024762,0,0,6.93121249214,6.93121249214,0.328084,0,0,0,23,5,0,6.93121249214,0,0,0,0,0,0,201.7, 5.7, 5.7,0,0,1024,1024,1024,1024,0,0,0,0,220.4,0,6.2,44,3.701,3.704,0,0,0,0,0,99.86,6.93121249214,0,6,P-GPS,Volando
100,2025-05-20 16:39:00,-34.9287428004294,-56.1627737992853,0,0,6.93121249214,6.93121249214,0.328084,0,0.00105202431188,0.00105202431188,23,5,0,6.93121249214,0,0,0.00105202431188,0,0,0,201.7, 5.7, 5.7,0,0,1024,1024,1024,1024,0,0,0,0,220.4,0,6.2,44,3.701,3.704,0,0,0,0,0,99.86,6.93121249214,0,6,P-GPS,
200,2025-05-20 16:39:00,-34.9287426983688,-56.1627736913996,0,0,6.93121249214,6.93121249214,0.328084,0,0.05023622208,0.050327101348,23,5,0,6.93121249214,0,0,0.05023622208,0,0,0,201.7, 5.7, 5.7,0,0,1024,1024,1024,1024,0,0,0,0,220.4,0,6.1,44,3.701,3.704,0,0,0,0,0,99.86,6.93121249214,0,6,P-GPS,
300,2025-05-20 16:39:00,-34.9287426984488,-56.1627736947669,0,0,6.93121249214,6.93121249214,0.328084,0,0.04955380736,0.051334647312,23,5,0,6.93121249214,0,0,0.05023622208,0,0,0,201.7, 5.7, 5.7,0,0,1024,1024,1024,1024,0,0,0,0,220.4,0,6.1,44,3.701,3.704,0,0,0,0,0,99.86,6.93121249214,0,6,P-GPS,
400,2025-05-20 16:39:00,-34.9287427001028,-56.1627736918473,0,0,6.93121249214,6.93121249214,0.328084,0,0.049674214188,0.052396327136,23,5,0,6.93121249214,0,0,0.05023622208,0,0,0,201.7, 5.7, 5.6,0,0,1024,1024,1024,1024,0,0,0,0,220.4,0,6.1,44,3.701,3.704,0,0,0,0,0,99.86,6.93121249214,0,6,P-GPS,
500,2025-05-20 16:39:00,-34.9287427003949,-56.1627736916214,0,0,6.93121249214,6.93121249214,0.328084,0,0.049639765368,0.052522311392,23,5,0,6.93121249214,0,0,0.05023622208,0,0,0,201.7, 5.7, 5.6,0,0,1024,1024,1024,1024,0,0,0,0,220.4,0,6.1,44,3.701,3.704,0,0,0,0,0,99.86,6.93121249214,0,6,P-GPS,
600,2025-05-20 16:39:01,-34.9287426037958,-56.1627738013843,0,0,6.93121249214,6.93121249214,0.328084,0,0.072184713596,0.100690291936,23,5,0,6.93121249214,0,0,0.072184713596,0,0,0,201.7, 5.7, 5.6,0,0,1024,1024,1024,1024,0,0,0,0,220.4,0,6.1,44,3.701,3.704,0,0,0,0,0,99.86,6.93121249214,0,6,P-GPS,
700,2025-05-20 16:39:01,-34.9287426047076,-56.162773801799,0,0,6.93121249214,6.93121249214,0.328084,0,0.071851708336,0.101045606908,23,5,0,6.93121249214,0,0,0.072184713596,0,0,0,201.8, 5.7, 5.6,0,0,1024,1024,1024,1024,0,0,0,0,220.4,0,6.1,44,3.701,3.704,0,0,0,0,0,99.86,6.93121249214,0,6,P-GPS,
800,2025-05-20 16:39:01,-34.9287425034499,-56.1627740063821,0,0,6.93121249214,6.93121249214,0.328084,0,0.12472605386,0.172528548828,23,5,0,6.93121249214,0,0,0.12472605386,0,0,0,201.7, 5.7, 5.6,0,0,1024,1024,1024,1024,0,0,0,0,220.4,0,6.1,44,3.701,3.704,0,0,0,0,0,99.86,6.93121249214,0,6,P-GPS,"Setting new Return-To-Home altitude to 30m (98 ft). Data Recorder File Index is 8. Setting new Maximum Flight Altitude to 30m (98 ft)"
900,2025-05-20 16:39:01,-34.9287425036237,-56.1627740093039,0,0,6.93121249214,6.93121249214,0.328084,0,0.125100725788,0.173404861192,23,5,0,6.93121249214,0,0,0.125100725788,0,0,0,201.8, 5.7, 5.6,0,0,1024,1024,1024,1024,0,0,0,0,220.4,0,6.1,44,3.701,3.704,0,0,0,0,0,99.86,6.93121249214,0,6,P-GPS,
1000,2025-05-20 16:39:01,-34.9287425113525,-56.162774012935,0,0,6.93121249214,6.93121249214,0.328084,0,0.123209321528,0.176426842916,23,5,0,6.93121249214,0,0,0.125100725788,0,0,0,202, 5.7, 5.7,0,0,1024,1024,1024,1024,0,0,0,0,220.4,0,6.1,44,3.701,3.704,0,0,0,0,0,99.86,6.93121249214,0,6,P-GPS,
1100,2025-05-20 16:39:01,-34.9287424074122,-56.1627741100629,0,-0.032808399999999,6.96402089214,6.93121249214,0.328084,0,0.17074475612,0.22419948224,23,5,0,6.93121249214,0,0,0.17074475612,0,0,0,201.7, 5.7, 5.7,0,0,1024,1024,1024,1024,0,0,0,0,220.4,0,6.1,44,3.701,3.704,0,0,0,0,0,99.86,6.93121249214,0,6,P-GPS,
1200,2025-05-20 16:39:01,-34.9287424079884,-56.162774103775,0,-0.032808399999999,6.96402089214,6.93121249214,0.328084,0,0.16956037288,0.226091870752,23,5,0,6.93121249214,0,0,0.17074475612,0,0,0,201.7, 5.7, 5.6,0,0,1024,1024,1024,1024,0,0,0,0,220.4,0,6.1,44,3.701,3.704,0,0,0,0,0,99.86,6.93121249214,0,6,P-GPS,
1300,2025-05-20 16:39:01,-34.9287424100437,-56.1627740867515,0,-0.032808399999999,6.96402089214,6.93121249214,0.328084,0,0.1662647691,0.231239180628,23,5,0,6.93121249214,0,0,0.17074475612,0,0,0,201.7, 5.7, 5.6,0,0,1024,1024,1024,1024,0,0,0,0,220.4,0,6.1,44,3.701,3.704,0,0,0,0,0,99.86,6.93121249214,0,6,P-GPS,
1400,2025-05-20 16:39:01,-34.928742513314,-56.1627739766513,0,0,6.93121249214,6.93121249214,0.328084,0,0.117391407956,0.281281833148,23,5,7.451,6.93121249214,0,0,0.17074475612,0,0,0,202.2, 5.7, 5.6,0,0,1024,1024,1024,1024,0,0,0,0,220.4,0,6.1,44,3.701,3.704,0,0,0,0,0.904,99.86,6.93121249214,0,6,P-GPS,
1500,2025-05-20 16:39:01,-34.9287425111551,-56.1627739698136,0,0,6.93121249214,6.93121249214,0.328084,0,0.11720964942,0.283473762352,23,5,7.451,6.93121249214,0,0,0.17074475612,0,0,0,202, 5.8, 5.5,0,0,1024,1024,1024,1024,0,0,0,0,220.4,0,6,44,3.701,3.704,0,0,0,0,0.904,99.86,6.93121249214,0,6,P-GPS,
1600,2025-05-20 16:39:02,-34.928742500209,-56.1627739927575,0,0,6.93121249214,6.93121249214,0.328084,0,0.12383366538,0.291414379404,23,5,7.451,6.93121249214,0,0,0.17074475612,0,0,0,202, 5.8, 5.5,0,0,1024,1024,1024,1024,0,0,0,0,220.4,0,6,44,3.701,3.704,0,0,0,0,0.904,99.86,6.93121249214,0,6,P-GPS,
1700,2025-05-20 16:39:02,-34.9287424960363,-56.1627739969069,0,-0.032808399999999,6.96402089214,6.93121249214,0.328084,0,0.125756893788,0.293378618312,23,5,7.451,6.93121249214,0,0,0.17074475612,0,0,0,202.1, 5.8, 5.5,0,0,1024,1024,1024,1024,0,0,0,0,220.4,0,6,44,3.701,3.704,0,0,0,0,0.904,99.86,6.93121249214,0,6,P-GPS,
1800,2025-05-20 16:39:02,-34.928742503557,-56.1627740267287,0,0,6.93121249214,6.93121249214,0.328084,0,0.127779531648,0.30271162386,23,5,7.451,6.93121249214,0,0,0.17074475612,0,0,0,202.1, 5.8, 5.5,0,0,1024,1024,1024,1024,0,0,0,0,220.4,0,6,44,3.701,3.704,0,0,0,0,0.904,99.86,6.93121249214,0,6,P-GPS,
1900,2025-05-20 16:39:02,-34.9287423081424,-56.1627740219884,0,-0.032808399999999,6.96402089214,6.93121249214,0.328084,0,0.191652237104,0.37402232168,23,5,7.451,6.93121249214,0,0,0.191652237104,0,0,0,202, 5.7, 5.5,0,0,1024,1024,1024,1024,0,0,0,0,220.4,0,6,44,3.701,3.704,0,0,0,0,0.904,99.86,6.93121249214,0,6,P-GPS,
2000,2025-05-20 16:39:02,-34.9287422928814,-56.162774006591,0,-0.032808399999999,6.96402089214,6.93121249214,0.328084,0,0.195404861896,0.3812500122,23,5,7.451,6.93121249214,0,0,0.195404861896,0,0,0,202, 5.7, 5.4,0,0,1024,1024,1024,1024,0,0,0,0,220.5,0,5.1,44,3.701,3.704,0,0,0,0,0.904,99.86,6.93121249214,0,6,P-GPS,
2100,2025-05-20 16:39:02,-34.9287423124401,-56.1627740346058,0,-0.032808399999999,6.96402089214,6.93121249214,0.328084,0,0.19151575416,0.39225394956,23,5,7.451,6.93121249214,0,0,0.195404861896,0,0,0,202.1, 5.7, 4.1,0,0,1024,1024,1024,1024,0,0,0,0,220.7,0,3.7,44,3.701,3.704,0,0,0,0,0.904,99.86,6.93121249214,0,6,P-GPS,
2200,2025-05-20 16:39:02,-34.9287422193258,-56.1627738931039,0,-0.032808399999999,6.96402089214,6.93121249214,0.328084,0,0.214180124964,0.44652888568,23,5,7.451,6.93121249214,0,0,0.214180124964,0,0,0,202.1, 5.7, 2.4,0,0,1024,1024,1024,1024,0,0,0,0,221.4,0,1.7,44,3.701,3.704,0,0,0,0,0.904,99.86,6.93121249214,0,6,P-GPS,
2300,2025-05-20 16:39:02,-34.9287422175849,-56.1627738483991,0,-0.032808399999999,6.96402089214,6.93121249214,0.328084,0,0.21353511182,0.45991799372,23,5,7.451,6.93121249214,0,0,0.214180124964,0,0,0,202.8, 4.8, 0.2,0,0,1024,1024,1024,1024,0,0,0,0,222.6,0,-1.4,44,3.701,3.704,0,0,0,0,0.904,99.86,6.93121249214,0,6,P-GPS,
2400,2025-05-20 16:39:02,-34.928741994225,-56.1627739545217,0,-0.032808399999999,6.96402089214,6.93121249214,0.328084,0,0.29807579694,0.5473753456,23,5,7.353,6.93121249214,0,0,0.29807579694,0,0,0,203.8, 2.4, -2.9,0,0,1024,1024,1024,1024,0,0,0,0,221.9,0,-3.9,43,3.676,3.677,0,0,0,0,2.52,100.04,6.93121249214,0,11,AutoTakeoff,
2500,2025-05-20 16:39:02,-34.9287419286622,-56.1627738855981,0,-0.032808399999999,6.96402089214,6.93121249214,0,0.223694,0.31947507584,0.5789534306,23,5,7.353,6.93121249214,0,0.223694,0.31947507584,0,0.223694,-0.447388,202.3, 0, -1.9,0,0,1024,1024,1024,1024,0,0,0,0,221,0,4.3,43,3.676,3.677,0,0,0,0,2.52,100.04,6.93121249214,0,11,AutoTakeoff,
2600,2025-05-20 16:39:03,-34.9287418586523,-56.1627736060925,0,-0.032808399999999,6.96402089214,6.93121249214,0,0.671082,0.34902888256,0.66637469324,23,5,7.353,6.93121249214,0,0.671082,0.34902888256,0,0.671082,-0.671082,201.1, -6.6, 8.7,0,0,1024,1024,1024,1024,0,0,0,0,221.9,0,12.6,43,3.676,3.677,0,0,0,0,2.52,100.04,6.93121249214,0,11,AutoTakeoff,
2700,2025-05-20 16:39:03,-34.9287418240615,-56.1627733308316,0.328084,0.2952756,6.96402089214,7.25929649214,0,0.447388,0.38355972356,0.74967522084,23,5,7.353,7.25929649214,0.328084,0.671082,0.38355972356,0,0.447388,-0.671082,200.5, -9.1, 14.2,0,0,1024,1024,1024,1024,0,0,0,0,221.8,0,13.2,43,3.676,3.677,0,0,0,0,2.52,100.04,7.25929649214,0.328084,11,AutoTakeoff,
2800,2025-05-20 16:39:03,-34.9287421712295,-56.1627729358373,0.328084,0.2952756,6.96402089214,7.25929649214,0.328084,0,0.34656169088,0.92289373032,23,5,7.353,7.25929649214,0.328084,0.671082,0.38355972356,0,0,-0.671082,200.6, -7.7, 12,0,0,1024,1024,1024,1024,0,0,0,0,221.2,0,9.5,43,3.676,3.677,0,0,0,0,2.52,100.04,7.25929649214,0.328084,11,AutoTakeoff,
2900,2025-05-20 16:39:03,-34.9287422148343,-56.162773047918,0.328084,0.2952756,6.96402089214,7.25929649214,0.328084,0.223694,0.311097778984,0.96000331156,23,5,7.353,7.25929649214,0.328084,0.671082,0.38355972356,0,-0.223694,-0.671082,201.1, -5, 8.2,0,0,1024,1024,1024,1024,0,0,0,0,220.9,0,5.4,43,3.676,3.677,0,0,0,0,2.52,100.04,7.25929649214,0.328084,11,AutoTakeoff,
3000,2025-05-20 16:39:03,-34.9287427898879,-56.1627726921711,0.656168,0.656168,6.93121249214,7.58738049214,0.656168,0.223694,0.33214896076,1.19525266292,23,5,7.353,7.58738049214,0.656168,0.671082,0.38355972356,0,-0.223694,-0.894776,201.5, -4, 4,0,0,1024,1024,1024,1024,0,0,0,0,220.8,0,0.9,43,3.676,3.677,0,0,0,0,2.52,100.04,7.58738049214,0.656168,11,AutoTakeoff,
3100,2025-05-20 16:39:03,-34.9287432199318,-56.1627723337262,0.656168,0.656168,6.93121249214,7.58738049214,0.656168,0.223694,0.46509515924,1.38529203908,23,5,7.353,7.58738049214,0.656168,0.671082,0.46509515924,0,-0.223694,-0.894776,201.6, -3.6, -0.5,0,0,1024,1024,1024,1024,0,0,0,0,220.8,0,-1.1,43,3.676,3.677,0,0,0,0,2.52,100.04,7.58738049214,0.656168,11,AutoTakeoff,
3200,2025-05-20 16:39:03,-34.9287432735573,-56.1627722975356,0.984252,0.984252,6.93121249214,7.91546449214,0.656168,0,0.4819718002,1.40765096368,23,5,7.353,7.91546449214,0.984252,0.671082,0.4819718002,0,0,-1.11847,201.7, -2.6, 0.8,0,0,1024,1024,1024,1024,0,0,0,0,220.9,0,3.7,43,3.676,3.677,0,0,0,0,2.52,100.04,7.91546449214,0.984252,11,AutoTakeoff,
3300,2025-05-20 16:39:03,-34.9287433580326,-56.1627720366202,0.984252,0.984252,6.93121249214,7.91546449214,0.984252,0.223694,0.5658792832,1.49156500836,23,5,7.353,7.91546449214,0.984252,0.671082,0.5658792832,0,0.223694,-1.11847,201.5, -2.7, 5.9,0,0,1024,1024,1024,1024,0,0,0,0,221,0,8.8,43,3.676,3.677,0,0,0,0,2.52,100.04,7.91546449214,0.984252,11,AutoTakeoff,
3400,2025-05-20 16:39:03,-34.9287439910156,-56.1627706635659,1.312336,1.3779528,6.86559569214,8.24354849214,1.64042,0.223694,1.03436026932,1.96275924916,23,5,7.281,8.24354849214,1.312336,0.671082,1.03436026932,0,0.223694,-1.11847,201.3, -3.4, 10.5,0,0,1024,1024,1024,1024,0,0,0,0,221.4,0,12.2,43,3.639,3.642,0,0,0,0,5.445,100.04,8.24354849214,1.312336,11,AutoTakeoff,
3500,2025-05-20 16:39:03,-34.9287440368425,-56.1627704323179,1.312336,1.3779528,6.86559569214,8.24354849214,1.968504,0,1.10425200384,2.0339239496,23,5,7.281,8.24354849214,1.312336,0.671082,1.10425200384,0,0,-1.11847,201.3, -3.8, 12.1,0,0,1024,1024,1024,1024,0,0,0,0,221.4,0,11.1,43,3.639,3.642,0,0,0,0,5.445,100.04,8.24354849214,1.312336,11,AutoTakeoff,
3600,2025-05-20 16:39:03,-34.9287443893929,-56.1627694373101,1.64042,1.7060368,6.86559569214,8.57163249214,1.968504,0,1.42847117432,2.35816280512,24,5,7.281,8.57163249214,1.64042,0.671082,1.42847117432,0,0,-0.671082,201.3, -4.3, 10.5,0,0,1684,1024,1024,1024,100,0,0,0,221.3,0,9.5,43,3.639,3.642,0,0,0,0,5.445,100.04,8.57163249214,1.64042,6,P-GPS,
3700,2025-05-20 16:39:04,-34.92874437819,-56.1627694781474,1.64042,1.7060368,6.86559569214,8.57163249214,2.296588,0,1.4156496516,2.37104338296,24,5,7.281,8.57163249214,1.64042,0.671082,1.42847117432,0,0,-0.447388,201.3, -4.1, 9.3,0,0,1684,1024,1024,1024,100,0,0,0,221.2,0,8.9,43,3.639,3.642,0,0,0,0,5.445,100.04,8.57163249214,1.64042,6,P-GPS,
3800,2025-05-20 16:39:04,-34.9287448205497,-56.1627690400096,1.64042,1.7388452,6.83278729214,8.57163249214,2.296588,0,1.60375005132,2.57894693292,24,5,7.281,8.57163249214,1.64042,0.671082,1.60375005132,0,0,-0.223694,201.5, -2.8, 9,0,0,1024,1024,1024,1024,0,0,0,0,221.2,0,9.5,43,3.639,3.642,0,0,0,0,5.445,100.04,8.57163249214,1.64042,6,P-GPS,
3900,2025-05-20 16:39:04,-34.928744893588,-56.1627689734178,1.64042,1.7388452,6.83278729214,8.57163249214,2.296588,0,1.63374677144,2.61221793136,24,5,7.281,8.57163249214,1.64042,0.671082,1.63374677144,0,0,0,201.3, -4.7, 10.1,0,0,1684,1024,1024,1024,100,0,0,0,221.4,0,10,43,3.639,3.642,0,0,0,0,5.445,100.04,8.57163249214,1.64042,6,P-GPS,
4000,2025-05-20 16:39:04,-34.9287451093463,-56.162768828434,1.64042,1.7388452,6.83278729214,8.57163249214,2.296588,0,1.7095801072,2.70209326232,24,5,7.281,8.57163249214,1.64042,0.671082,1.7095801072,0,0,0,201.1, -4.9, 10.4,0,0,1684,1024,1024,1024,100,0,0,0,221.4,0,10.8,43,3.639,3.642,0,0,0,0,5.445,100.04,8.57163249214,1.64042,6,P-GPS,
4100,2025-05-20 16:39:04,-34.9287451028551,-56.1627688934975,1.64042,1.7388452,6.83278729214,8.57163249214,2.296588,0.223694,1.69149283628,2.72169956216,24,5,7.281,8.57163249214,1.64042,0.671082,1.7095801072,-0.223694,0,0,201.2, -6.1, 11.3,0,0,1684,1024,1024,1024,100,0,0,0,221.8,0,10.8,43,3.639,3.642,0,0,0,0,5.445,100.04,8.57163249214,1.64042,6,P-GPS,
4200,2025-05-20 16:39:04,-34.9287452593192,-56.1627689008364,1.64042,1.7388452,6.83278729214,8.57163249214,2.296588,0.223694,1.718668034,2.77882882908,24,5,7.281,8.57163249214,1.64042,0.671082,1.718668034,-0.223694,0,0,200.9, -9.1, 10.8,0,0,1684,1024,1024,1024,100,0,0,0,221.8,0,9.6,43,3.639,3.642,0,0,0,0,5.445,100.04,8.57163249214,1.64042,6,P-GPS,
4300,2025-05-20 16:39:04,-34.9287454815868,-56.1627690036934,1.64042,1.7388452,6.83278729214,8.57163249214,2.296588,0.3131716,1.73682092172,2.86556111532,24,5,7.281,8.57163249214,1.64042,0.671082,1.73682092172,-0.223694,-0.223694,0,201, -10.3, 9.3,0,0,1684,1024,1024,1024,100,0,0,0,221.8,0,8.2,43,3.639,3.642,0,0,0,0,5.445,100.04,8.57163249214,1.64042,6,P-GPS,
4400,2025-05-20 16:39:04,-34.928745680534,-56.1627690239093,1.64042,1.7716536,6.79997889214,8.57163249214,2.296588,0.6263432,1.77382223524,2.93839904416,24,5,7.265,8.57163249214,1.64042,0.671082,1.77382223524,-0.447388,-0.447388,0,201.1, -9.8, 8.1,0,0,1684,1024,1024,1024,100,0,0,0,221.5,0,6.7,43,3.63,3.635,0,0,0,0,5.058,100.04,8.57163249214,1.64042,6,P-GPS,
4500,2025-05-20 16:39:04,-34.9287459653544,-56.162769306314,1.64042,1.7716536,6.79997889214,8.57163249214,2.296588,0.6263432,1.77233601472,3.07231965212,24,5,7.265,8.57163249214,1.64042,0.671082,1.77382223524,-0.447388,-0.447388,0,201.2, -10.6, 5.9,0,0,1684,1024,1024,1024,100,0,0,0,221.2,0,3.8,43,3.63,3.635,0,0,0,0,5.058,100.04,8.57163249214,1.64042,6,P-GPS,
4600,2025-05-20 16:39:05,-34.9287464796591,-56.1627698052602,1.64042,1.7716536,6.79997889214,8.57163249214,1.968504,0.9395148,1.79732945384,3.3120735968,24,5,7.265,8.57163249214,1.64042,0.9395148,1.79732945384,-0.671082,-0.671082,0,201.4, -10.4, 3.4,0,0,1684,1024,1024,1024,100,0,0,0,221,0,2.5,43,3.63,3.635,0,0,0,0,5.058,100.04,8.57163249214,1.64042,6,P-GPS,
4700,2025-05-20 16:39:05,-34.928746937351,-56.1627700708999,1.64042,1.804462,6.76717049214,8.57163249214,1.968504,1.2079476,1.87689966636,3.4970145476,24,5,7.265,8.57163249214,1.64042,1.2079476,1.87689966636,-1.11847,-0.447388,0,201.4, -9.6, 2.6,0,0,1024,1024,1024,1024,0,0,0,0,221.1,0,3.4,43,3.63,3.635,0,0,0,0,5.058,100.04,8.57163249214,1.64042,6,P-GPS,
4800,2025-05-20 16:39:05,-34.928747595871,-56.1627708212675,1.64042,1.8372704,6.73436209214,8.57163249214,1.968504,1.2079476,1.96337276624,3.8258203324,23,5,7.265,8.57163249214,1.64042,1.2079476,1.96337276624,-1.11847,-0.447388,0,201.4, -10.2, 4.2,0,0,1024,1024,1024,1024,0,0,0,0,221.3,0,4.7,43,3.63,3.635,0,0,0,0,5.058,100.04,8.57163249214,1.64042,6,P-GPS,
4900,2025-05-20 16:39:05,-34.928748202426,-56.1627710079494,1.64042,1.8372704,6.73436209214,8.57163249214,1.968504,1.4092722,2.14044954356,4.0540355628,23,5,7.265,8.57163249214,1.64042,1.4092722,2.14044954356,-1.342164,-0.447388,0,201.3, -8.7, 5.2,0,0,1024,1024,1024,1024,0,0,0,0,221.1,0,5.5,43,3.63,3.635,0,0,0,0,5.058,100.04,8.57163249214,1.64042,6,P-GPS,
5000,2025-05-20 16:39:05,-34.9287488405331,-56.1627713857226,1.64042,1.8700788,6.70155369214,8.57163249214,1.968504,1.4092722,2.31885178024,4.312828222,23,5,7.265,8.57163249214,1.64042,1.4092722,2.31885178024,-1.342164,-0.447388,0,202.5, -4.6, 5.6,0,0,1024,1024,1024,1024,0,0,0,0,221,0,5.3,43,3.63,3.635,0,0,0,0,5.058,100.04,8.57163249214,1.64042,6,P-GPS,
5100,2025-05-20 16:39:05,-34.9287494642455,-56.1627716208654,1.64042,1.8700788,6.70155369214,8.57163249214,2.296588,1.4092722,2.51691937188,4.551017206,23,5,7.265,8.57163249214,1.64042,1.4092722,2.51691937188,-1.342164,-0.447388,0,203.1, -4, 4.7,0,0,1024,1024,1024,1024,0,0,0,0,220.7,0,4.5,43,3.63,3.635,0,0,0,0,5.058,100.04,8.57163249214,1.64042,6,P-GPS,
5200,2025-05-20 16:39:05,-34.9287500223489,-56.1627721113735,1.64042,1.9028872,6.66874529214,8.57163249214,2.296588,1.4092722,2.6825952302,4.802001466,23,5,7.265,8.57163249214,1.64042,1.4092722,2.6825952302,-1.342164,-0.447388,0,203.3, -1.7, 4.3,0,0,1024,1024,1024,1024,0,0,0,0,220.6,0,4.8,43,3.63,3.635,0,0,0,0,5.058,100.04,8.57163249214,1.64042,6,P-GPS,
5300,2025-05-20 16:39:05,-34.9287505450256,-56.1627722745857,1.64042,1.9356956,6.63593689214,8.57163249214,2.296588,1.4092722,2.86189641704,4.998851866,23,5,7.265,8.57163249214,1.64042,1.4092722,2.86189641704,-1.11847,-0.223694,0,203.5, 0.7, 5.2,0,0,1024,1024,1024,1024,0,0,0,0,220.6,0,6.1,43,3.63,3.635,0,0,0,0,5.058,100.04,8.57163249214,1.64042,6,P-GPS,
5400,2025-05-20 16:39:05,-34.9287507556662,-56.1627726379332,1.64042,1.9356956,6.63593689214,8.57163249214,2.296588,0.894776,2.92285442424,5.1319555448,23,5,7.265,8.57163249214,1.64042,1.4092722,2.92285442424,-0.894776,0,0,203.7, 1.9, 6.4,0,0,1024,1024,1024,1024,0,0,0,0,220.6,0,7.7,43,3.631,3.634,0,0,0,0,5.058,100.04,8.57163249214,1.64042,6,P-GPS,
5500,2025-05-20 16:39:05,-34.9287510973558,-56.1627725745666,1.64042,1.9356956,6.63593689214,8.57163249214,2.296588,0.671082,3.04889117368,5.258038226,23,5,7.265,8.57163249214,1.64042,1.4092722,3.04889117368,-0.671082,0,0,203.5, 0, 7.8,0,0,1024,1024,1024,1024,0,0,0,0,220.7,0,9,43,3.631,3.634,0,0,0,0,5.058,100.04,8.57163249214,1.64042,6,P-GPS,
5600,2025-05-20 16:39:06,-34.9287514191573,-56.1627724749323,1.64042,1.9356956,6.63593689214,8.57163249214,2.296588,0.4921268,3.16907490456,5.3791996472,23,5,7.265,8.57163249214,1.64042,1.4092722,3.16907490456,-0.447388,0.223694,0,203.4, -1.2, 9.7,0,0,1024,1024,1024,1024,0,0,0,0,220.9,0,10.4,43,3.631,3.634,0,0,0,0,5.058,100.04,8.57163249214,1.64042,6,P-GPS,
5700,2025-05-20 16:39:06,-34.9287516117429,-56.1627722301362,1.64042,1.968504,6.60312849214,8.57163249214,2.296588,0.4921268,3.24858606196,5.4806760284,23,5,7.265,8.57163249214,1.64042,1.4092722,3.24858606196,-0.223694,0.447388,0,203.4, -2.6, 10.4,0,0,1024,1024,1024,1024,0,0,0,0,221.1,0,11.5,43,3.631,3.634,0,0,0,0,5.058,100.04,8.57163249214,1.64042,6,P-GPS,
5800,2025-05-20 16:39:06,-34.9287518726246,-56.1627719735331,1.64042,1.968504,6.60312849214,8.57163249214,2.296588,0.447388,3.3544620496,5.6029529352,23,5,7.265,8.57163249214,1.64042,1.4092722,3.3544620496,0,0.447388,0,203.2, -3.8, 11.6,0,0,1024,1024,1024,1024,0,0,0,0,221,0,11,43,3.631,3.634,0,0,0,0,5.058,100.04,8.57163249214,1.64042,6,P-GPS,
5900,2025-05-20 16:39:06,-34.9287520118829,-56.1627716995853,1.64042,1.968504,6.60312849214,8.57163249214,2.296588,0.447388,3.4187337052,5.6993768228,23,5,7.265,8.57163249214,1.64042,1.4092722,3.4187337052,0,0.447388,0,202.9, -5.1, 11.1,0,0,1024,1024,1024,1024,0,0,0,0,221.1,0,11.6,43,3.631,3.634,0,0,0,0,5.058,100.04,8.57163249214,1.64042,6,P-GPS,
6000,2025-05-20 16:39:06,-34.9287523644826,-56.1627715125511,1.64042,1.968504,6.60312849214,8.57163249214,2.296588,0.447388,3.55561035,5.8396327328,24,5,7.265,8.57163249214,1.64042,1.4092722,3.55561035,0,0.447388,0,203, -4.8, 12,0,0,1024,1024,1024,1024,0,0,0,0,221.2,0,12.4,43,3.631,3.634,0,0,0,0,5.058,100.04,8.57163249214,1.64042,6,P-GPS,
6100,2025-05-20 16:39:06,-34.9287524843647,-56.1627712558015,1.64042,1.968504,6.60312849214,8.57163249214,2.296588,0.447388,3.6139436852,5.9280185624,24,5,7.265,8.57163249214,1.64042,1.4092722,3.6139436852,0,0.447388,0,203.1, -4.7, 12.3,0,0,1024,1024,1024,1024,0,0,0,0,221.1,0,12.5,43,3.631,3.634,0,0,0,0,5.058,100.04,8.57163249214,1.64042,6,P-GPS,
6200,2025-05-20 16:39:06,-34.9287526929952,-56.1627710726948,1.64042,2.0013124,6.57032009214,8.57163249214,2.296588,0.223694,3.7000657352,6.021817778,24,5,7.265,8.57163249214,1.64042,1.4092722,3.7000657352,0,0.223694,0,203.4, -2.7, 12.4,0,0,1024,1024,1024,1024,0,0,0,0,221.1,0,13,43,3.631,3.634,0,0,0,0,5.058,100.04,8.57163249214,1.64042,6,P-GPS,
6300,2025-05-20 16:39:06,-34.9287527680837,-56.1627708622178,1.64042,2.0013124,6.57032009214,8.57163249214,2.296588,0.223694,3.7411090436,6.0904857592,24,5,7.265,8.57163249214,1.64042,1.4092722,3.7411090436,0,0.223694,0,203.3, -2.7, 13.2,0,0,1024,1024,1024,1024,0,0,0,0,221.2,0,13.7,43,3.631,3.634,0,0,0,0,5.058,100.04,8.57163249214,1.64042,6,P-GPS,
6400,2025-05-20 16:39:06,-34.9287527550619,-56.1627707067349,1.64042,2.0013124,6.57032009214,8.57163249214,2.296588,0.223694,3.747703532,6.1372049208,24,5,7.265,8.57163249214,1.64042,1.4092722,3.747703532,0,0.223694,0,203.2, -3.8, 13.4,0,0,1024,1024,1024,1024,0,0,0,0,221.1,0,12.3,43,3.624,3.627,0,0,0,0,5.092,100.22,8.57163249214,1.64042,6,P-GPS,
6500,2025-05-20 16:39:06,-34.9287526066432,-56.1627706135531,1.64042,2.0013124,6.57032009214,8.57163249214,1.968504,0,3.7023295148,6.1981301196,24,5,7.265,8.57163249214,1.64042,1.4092722,3.747703532,0,0,0,203.2, -3.8, 11.3,0,0,1024,1024,1024,1024,0,0,0,0,221,0,12.1,43,3.624,3.627,0,0,0,0,5.092,100.22,8.57163249214,1.64042,6,P-GPS,
6600,2025-05-20 16:39:07,-34.928752568351,-56.1627704851231,1.64042,2.0013124,6.57032009214,8.57163249214,2.296588,0.223694,3.6989502496,6.239009386,24,5,7.265,8.57163249214,1.64042,1.4092722,3.747703532,0,0.223694,0,202.9, -5.1, 12.4,0,0,1024,1024,1024,1024,0,0,0,0,221.2,0,12.9,43,3.624,3.627,0,0,0,0,5.092,100.22,8.57163249214,1.64042,6,P-GPS,
6700,2025-05-20 16:39:07,-34.9287525013615,-56.1627704995184,1.64042,2.0013124,6.57032009214,8.57163249214,2.296588,0.3131716,3.6742783328,6.2638125364,24,5,7.265,8.57163249214,1.64042,1.4092722,3.747703532,0.223694,0.223694,0,202.7, -6.8, 12.7,0,0,1024,1024,1024,1024,0,0,0,0,221.6,0,13,43,3.624,3.627,0,0,0,0,5.092,100.22,8.57163249214,1.64042,6,P-GPS,
6800,2025-05-20 16:39:07,-34.9287524198981,-56.162770372986,1.64042,1.968504,6.60312849214,8.57163249214,2.296588,0.3131716,3.6560696708,6.3119424592,24,5,7.265,8.57163249214,1.64042,1.4092722,3.747703532,0.223694,0.223694,0,202.6, -8.1, 13.1,0,0,1024,1024,1024,1024,0,0,0,0,221.7,0,13.5,43,3.624,3.627,0,0,0,0,5.092,100.22,8.57163249214,1.64042,6,P-GPS,
6900,2025-05-20 16:39:07,-34.9287523414118,-56.162770246663,1.64042,1.968504,6.60312849214,8.57163249214,1.968504,0.223694,3.6394686204,6.3593505972,24,5,7.265,8.57163249214,1.64042,1.4092722,3.747703532,0.223694,0,0,202.5, -8.8, 14,0,0,1024,1024,1024,1024,0,0,0,0,221.8,0,13.9,43,3.624,3.627,0,0,0,0,5.092,100.22,8.57163249214,1.64042,6,P-GPS,
7000,2025-05-20 16:39:07,-34.9287523234864,-56.1627702216956,1.64042,1.968504,6.60312849214,8.57163249214,1.968504,0.223694,3.6354003788,6.3692915424,24,5,7.265,8.57163249214,1.64042,1.4092722,3.747703532,0,0,0,202.6, -8.4, 13.9,0,0,1024,1024,1024,1024,0,0,0,0,222,0,14.6,43,3.624,3.627,0,0,0,0,5.092,100.22,8.57163249214,1.64042,6,P-GPS,
7100,2025-05-20 16:39:07,-34.9287522340343,-56.1627701245009,1.64042,1.968504,6.60312849214,8.57163249214,1.968504,0,3.6129922416,6.4129923312,24,5,7.265,8.57163249214,1.64042,1.4092722,3.747703532,0,0,0,203, -7.4, 14.8,0,0,1024,1024,1024,1024,0,0,0,0,221.8,0,13.3,43,3.624,3.627,0,0,0,0,5.092,100.22,8.57163249214,1.64042,6,P-GPS,
7200,2025-05-20 16:39:07,-34.9287521586224,-56.1627701705276,1.64042,1.968504,6.60312849214,8.57163249214,1.968504,0,3.5825788548,6.4437666104,24,5,7.265,8.57163249214,1.64042,1.4092722,3.747703532,0,0,0,203, -7.6, 11.5,0,0,1024,1024,1024,1024,0,0,0,0,221.4,0,10.2,43,3.624,3.627,0,0,0,0,5.092,100.22,8.57163249214,1.64042,6,P-GPS,
7300,2025-05-20 16:39:07,-34.9287520710529,-56.1627702636068,1.64042,1.968504,6.60312849214,8.57163249214,1.968504,0.223694,3.5437337092,6.4861222548,24,5,7.265,8.57163249214,1.64042,1.4092722,3.747703532,0,-0.223694,0,202.9, -8.5, 9.4,0,0,1024,1024,1024,1024,0,0,0,0,221.4,0,9,43,3.624,3.627,0,0,0,0,5.092,100.22,8.57163249214,1.64042,6,P-GPS,
7400,2025-05-20 16:39:07,-34.9287520003325,-56.1627705250671,1.64042,1.968504,6.60312849214,8.57163249214,1.968504,0.223694,3.496391188,6.5685041472,24,5,7.265,8.57163249214,1.64042,1.4092722,3.747703532,0,-0.223694,0,203.1, -8.5, 8.4,0,0,1024,1024,1024,1024,0,0,0,0,221.2,0,7.2,43,3.624,3.627,0,0,0,0,5.092,100.22,8.57163249214,1.64042,6,P-GPS,
7500,2025-05-20 16:39:07,-34.9287519700536,-56.1627706034245,1.64042,1.968504,6.60312849214,8.57163249214,1.968504,0,3.4792652032,6.5943899748,23,5,7.251,8.57163249214,1.64042,1.4092722,3.747703532,0,0,0,203, -8.8, 7.1,0,0,1024,1024,1024,1024,0,0,0,0,221,0,7.8,43,3.621,3.622,0,0,0,0,5.268,100.22,8.57163249214,1.64042,6,P-GPS,
7600,2025-05-20 16:39:08,-34.9287519774533,-56.1627706573928,1.64042,1.968504,6.60312849214,8.57163249214,1.968504,0,3.4774607412,6.6107613664,23,5,7.251,8.57163249214,1.64042,1.4092722,3.747703532,0,0,0,202.9, -7.2, 8.4,0,0,1024,1024,1024,1024,0,0,0,0,221.2,0,10.4,43,3.621,3.622,0,0,0,0,5.268,100.22,8.57163249214,1.64042,6,P-GPS,
7700,2025-05-20 16:39:08,-34.9287520574924,-56.1627706649475,1.64042,1.968504,6.60312849214,8.57163249214,2.296588,0,3.5049869888,6.6400592676,23,5,7.251,8.57163249214,1.64042,1.4092722,3.747703532,0,0,0,203, -6.3, 10.9,0,0,1024,1024,1024,1024,0,0,0,0,221.2,0,11.2,43,3.621,3.622,0,0,0,0,5.268,100.22,8.57163249214,1.64042,6,P-GPS,
7800,2025-05-20 16:39:08,-34.928752287216,-56.1627706405221,1.64042,1.968504,6.60312849214,8.57163249214,2.296588,0,3.5877297736,6.7241800052,23,5,7.251,8.57163249214,1.64042,1.4092722,3.747703532,0,0,0,203.1, -5.2, 10.5,0,0,1024,1024,1024,1024,0,0,0,0,221,0,10.3,43,3.621,3.622,0,0,0,0,5.268,100.22,8.57163249214,1.64042,6,P-GPS,
7900,2025-05-20 16:39:08,-34.9287523695703,-56.1627706793573,1.64042,1.968504,6.60312849214,8.57163249214,2.296588,0,3.613681218,6.756397854,23,5,7.251,8.57163249214,1.64042,1.4092722,3.747703532,0,0,0,203.2, -3.5, 9.9,0,0,1024,1024,1024,1024,0,0,0,0,221,0,10.6,43,3.621,3.622,0,0,0,0,5.268,100.22,8.57163249214,1.64042,6,P-GPS,
8000,2025-05-20 16:39:08,-34.9287525937756,-56.1627710735688,1.968504,2.3293964,6.57032009214,8.89971649214,2.296588,0,3.6647310884,6.899934604,23,5,7.251,8.89971649214,1.968504,1.4092722,3.747703532,0,0,0,203.5, -2.4, 10.7,0,0,1024,1024,1024,1024,0,0,0,0,221.1,0,12,43,3.621,3.622,0,0,0,0,5.268,100.22,8.89971649214,1.968504,6,P-GPS,
8100,2025-05-20 16:39:08,-34.9287526352356,-56.1627710580492,1.968504,2.3293964,6.57032009214,8.89971649214,2.296588,0,3.6805119288,6.9157482528,23,5,7.251,8.89971649214,1.968504,1.4092722,3.747703532,0,0,0,203.4, -3.1, 12.1,0,0,1024,1024,1024,1024,0,0,0,0,221.2,0,12.9,43,3.621,3.622,0,0,0,0,5.268,100.22,8.89971649214,1.968504,6,P-GPS,
8200,2025-05-20 16:39:08,-34.9287526818485,-56.1627713719259,1.968504,2.3293964,6.57032009214,8.89971649214,2.296588,0,3.6773623224,7.01115508,23,5,7.251,8.89971649214,1.968504,1.4092722,3.747703532,0,0,0,203.2, -3.9, 12,0,0,1024,1024,1024,1024,0,0,0,0,221.2,0,11.6,43,3.621,3.622,0,0,0,0,5.268,100.22,8.89971649214,1.968504,6,P-GPS,
8300,2025-05-20 16:39:08,-34.9287526455181,-56.1627713776453,1.968504,2.3293964,6.57032009214,8.89971649214,2.296588,0,3.664042112,7.0245409072,23,5,7.251,8.89971649214,1.968504,1.4092722,3.747703532,0,0,0,203, -5, 11.2,0,0,1024,1024,1024,1024,0,0,0,0,221.3,0,11.6,43,3.621,3.622,0,0,0,0,5.268,100.22,8.89971649214,1.968504,6,P-GPS,
8400,2025-05-20 16:39:08,-34.9287527145422,-56.1627715072402,1.968504,2.3293964,6.57032009214,8.89971649214,2.296588,0,3.6812993304,7.0707679428,23,5,7.243,8.89971649214,1.968504,1.4092722,3.747703532,0,0,0,202.8, -6.5, 10.6,0,0,1024,1024,1024,1024,0,0,0,0,221.2,0,10.8,43,3.616,3.616,0,0,0,0,4.988,100.22,8.89971649214,1.968504,6,P-GPS,
8500,2025-05-20 16:39:08,-34.9287527767791,-56.162771613662,1.968504,2.3293964,6.57032009214,8.89971649214,2.296588,0,3.697834764,7.1098427472,23,5,7.243,8.89971649214,1.968504,1.4092722,3.747703532,0,0,0,203.1, -5.4, 11,0,0,1024,1024,1024,1024,0,0,0,0,221.3,0,12,43,3.616,3.616,0,0,0,0,4.988,100.22,8.89971649214,1.968504,6,P-GPS,
8600,2025-05-20 16:39:08,-34.9287527981709,-56.1627716217703,1.968504,2.3293964,6.57032009214,8.89971649214,2.296588,0,3.7050854204,7.1180448472,23,5,7.243,8.89971649214,1.968504,1.4092722,3.747703532,0,0,0,203.3, -3.8, 12,0,0,1024,1024,1024,1024,0,0,0,0,221.4,0,12.5,43,3.616,3.616,0,0,0,0,4.988,100.22,8.89971649214,1.968504,6,P-GPS,
8700,2025-05-20 16:39:09,-34.9287528068621,-56.1627716251875,1.968504,2.3293964,6.57032009214,8.89971649214,2.296588,0,3.7080381764,7.1213584956,23,5,7.243,8.89971649214,1.968504,1.4092722,3.747703532,0,0,0,203, -4.9, 12.6,0,0,1024,1024,1024,1024,0,0,0,0,221.4,0,12.9,43,3.616,3.616,0,0,0,0,4.988,100.22,8.89971649214,1.968504,6,P-GPS,
8800,2025-05-20 16:39:09,-34.9287528214999,-56.1627720249683,1.968504,2.3293964,6.57032009214,8.89971649214,2.296588,0,3.6941930316,7.2410763472,23,5,7.243,8.89971649214,1.968504,1.4092722,3.747703532,0,0,0,203, -5.1, 12.4,0,0,1024,1024,1024,1024,0,0,0,0,221.4,0,12.3,43,3.616,3.616,0,0,0,0,4.988,100.22,8.89971649214,1.968504,6,P-GPS,
8900,2025-05-20 16:39:09,-34.9287528019832,-56.162772361006,1.968504,2.3293964,6.57032009214,8.89971649214,2.296588,0,3.6740158656,7.3418309436,23,5,7.243,8.89971649214,1.968504,1.4092722,3.747703532,0,0,0,203.1, -4.8, 11.6,0,0,1024,1024,1024,1024,0,0,0,0,221.3,0,11.6,43,3.616,3.616,0,0,0,0,4.988,100.22,8.89971649214,1.968504,6,P-GPS,
9000,2025-05-20 16:39:09,-34.9287528271316,-56.1627724550441,1.968504,2.3293964,6.57032009214,8.89971649214,2.296588,0,3.6799213776,7.3714241204,23,5,7.243,8.89971649214,1.968504,1.4092722,3.747703532,0,0,0,203.1, -4, 10.8,0,0,1024,1024,1024,1024,0,0,0,0,221,0,10.6,43,3.616,3.616,0,0,0,0,4.988,100.22,8.89971649214,1.968504,6,P-GPS,
9100,2025-05-20 16:39:09,-34.928752877816,-56.1627725823353,1.968504,2.3293964,6.57032009214,8.89971649214,2.296588,0.223694,3.6943570736,7.4137469564,23,5,7.243,8.89971649214,1.968504,1.4092722,3.747703532,0,-0.223694,0,203.5, -1.3, 9.8,0,0,1024,1024,1024,1024,0,0,0,0,221,0,9,43,3.616,3.616,0,0,0,0,4.988,100.22,8.89971649214,1.968504,6,P-GPS,
9200,2025-05-20 16:39:09,-34.9287528087629,-56.1627731146127,1.968504,2.3293964,6.57032009214,8.89971649214,2.296588,0.223694,3.6568898808,7.574967434,23,5,7.243,8.89971649214,1.968504,1.4092722,3.747703532,0,-0.223694,0,203.8, 0.4, 7.9,0,0,1024,1024,1024,1024,0,0,0,0,220.9,0,8,43,3.616,3.616,0,0,0,0,4.988,100.22,8.89971649214,1.968504,6,P-GPS,
9300,2025-05-20 16:39:09,-34.9287528351931,-56.1627735686898,1.968504,2.3293964,6.57032009214,8.89971649214,2.296588,0,3.66141744,7.711122294,23,5,7.243,8.89971649214,1.968504,1.4092722,3.747703532,0,0,0,203.6, 0.2, 7.5,0,0,1024,1024,1024,1024,0,0,0,0,220.8,0,7.4,43,3.616,3.616,0,0,0,0,4.988,100.22,8.89971649214,1.968504,6,P-GPS,
9400,2025-05-20 16:39:09,-34.9287528402605,-56.1627736480587,1.968504,2.3293964,6.57032009214,8.89971649214,2.296588,0,3.6628610096,7.7349411924,23,5,7.232,8.89971649214,1.968504,1.4092722,3.747703532,0,0,0,203.6, 0, 6.4,0,0,1024,1024,1024,1024,0,0,0,0,220.9,0,7,43,3.61,3.614,0,0,0,0,5.136,100.4,8.89971649214,1.968504,6,P-GPS,
9500,2025-05-20 16:39:09,-34.9287528377407,-56.1627736825628,1.968504,2.3293964,6.57032009214,8.89971649214,2.296588,0,3.6618439492,7.7453086468,23,5,7.232,8.89971649214,1.968504,1.4092722,3.747703532,0,0,0,203.7, -0.1, 7.2,0,0,1024,1024,1024,1024,0,0,0,0,221,0,8.2,43,3.61,3.614,0,0,0,0,5.136,100.4,8.89971649214,1.968504,6,P-GPS,
9600,2025-05-20 16:39:10,-34.9287526643826,-56.162773842648,1.968504,2.3293964,6.57032009214,8.89971649214,2.296588,0,3.598425312,7.824639358,22,5,7.232,8.89971649214,1.968504,1.4092722,3.747703532,0,0,0,203.5, -1.1, 8.4,0,0,1024,1024,1024,1024,0,0,0,0,221.2,0,9.1,43,3.61,3.614,0,0,0,0,5.136,100.4,8.89971649214,1.968504,6,P-GPS,
9700,2025-05-20 16:39:10,-34.9287525834503,-56.1627737644824,1.968504,2.3293964,6.57032009214,8.89971649214,2.296588,0.223694,3.568897752,7.8623034012,22,5,7.232,8.89971649214,1.968504,1.4092722,3.747703532,0.223694,0,0,203.2, -4.2, 9,0,0,1024,1024,1024,1024,0,0,0,0,221.4,0,9.5,43,3.61,3.614,0,0,0,0,5.136,100.4,8.89971649214,1.968504,6,P-GPS,
9800,2025-05-20 16:39:10,-34.9287522968099,-56.1627738112216,1.968504,2.296588,6.60312849214,8.89971649214,2.296588,0.223694,3.4643045728,7.9678152156,22,5,7.232,8.89971649214,1.968504,1.4092722,3.747703532,0.223694,0,0,203.1, -4.8, 9.4,0,0,1024,1024,1024,1024,0,0,0,0,221.5,0,9.8,43,3.61,3.614,0,0,0,0,5.136,100.4,8.89971649214,1.968504,6,P-GPS,
9900,2025-05-20 16:39:10,-34.9287521819674,-56.162773725715,1.968504,2.296588,6.60312849214,8.89971649214,2.296588,0.223694,3.4224738628,8.016896582,22,5,7.232,8.89971649214,1.968504,1.4092722,3.747703532,0.223694,0,0,203, -6.1, 9.5,0,0,1024,1024,1024,1024,0,0,0,0,221.5,0,9.8,43,3.61,3.614,0,0,0,0,5.136,100.4,8.89971649214,1.968504,6,P-GPS,
10000,2025-05-20 16:39:10,-34.9287521220671,-56.1627736756506,1.968504,2.296588,6.60312849214,8.89971649214,2.296588,0.223694,3.400754702,8.0433729608,23,5,7.232,8.89971649214,1.968504,1.4092722,3.747703532,0.223694,0,0,202.9, -6.9, 9.9,0,1,1024,1024,1024,1024,0,0,0,0,221.7,0,10.6,43,3.61,3.614,0,0,0,0,5.136,100.4,8.89971649214,1.968504,6,P-GPS,
10100,2025-05-20 16:39:10,-34.9287520104886,-56.162773574924,1.968504,2.296588,6.60312849214,8.89971649214,2.296588,0.223694,3.3605316036,8.0940291304,23,5,7.232,8.89971649214,1.968504,1.4092722,3.747703532,0.223694,0,0,203, -7, 10.6,0,1,1024,1024,1024,1024,0,0,0,0,222,0,10.7,43,3.61,3.614,0,0,0,0,5.136,100.4,8.89971649214,1.968504,6,P-GPS,
10200,2025-05-20 16:39:10,-34.9287517891372,-56.1627734624903,1.968504,2.296588,6.60312849214,8.89971649214,2.296588,0.223694,3.2806595538,8.1815291332,23,5,7.232,8.89971649214,1.968504,1.4092722,3.747703532,0.223694,0,0,202.9, -9.5, 10.3,0,1,1024,1024,1024,1024,0,0,0,0,222,0,9.5,43,3.61,3.614,0,0,0,0,5.136,100.4,8.89971649214,1.968504,6,P-GPS,
10300,2025-05-20 16:39:10,-34.9287516471416,-56.162773394916,1.968504,2.296588,6.60312849214,8.89971649214,2.296588,0.223694,3.229576875,8.2371393712,23,5,7.232,8.89971649214,1.968504,1.4092722,3.747703532,0.223694,0,0,202.7, -10.6, 9.6,0,1,1024,1024,1024,1024,0,0,0,0,222,0,9.7,43,3.61,3.614,0,0,0,0,5.136,100.4,8.89971649214,1.968504,6,P-GPS,
10400,2025-05-20 16:39:10,-34.9287514763054,-56.162773221026,1.968504,2.2637796,6.63593689214,8.89971649214,2.296588,0,3.16972123004,8.3183073528,23,5,7.224,8.89971649214,1.968504,1.4092722,3.747703532,0,0,0,202.7, -10.1, 10.3,0,1,1024,1024,1024,1024,0,0,0,0,222.2,0,10.8,43,3.608,3.61,0,0,0,0,5.088,100.58,8.89971649214,1.968504,6,P-GPS,
10500,2025-05-20 16:39:10,-34.9287514621517,-56.1627730954216,1.968504,2.2637796,6.63593689214,8.89971649214,2.296588,0,3.16685377588,8.3562338632,24,5,7.224,8.89971649214,1.968504,1.4092722,3.747703532,0,0,0,202.6, -10.9, 10.6,0,1,1024,1024,1024,1024,0,0,0,0,222.2,0,10.4,43,3.608,3.61,0,0,0,0,5.088,100.58,8.89971649214,1.968504,6,P-GPS,
10600,2025-05-20 16:39:10,-34.9287514060862,-56.1627730603363,1.968504,2.2637796,6.63593689214,8.89971649214,2.296588,0,3.14716545504,8.3792325516,24,5,7.224,8.89971649214,1.968504,1.4092722,3.747703532,0,0,0,202.5, -11.7, 10.4,0,1,1024,1024,1024,1024,0,0,0,0,222.1,0,9.9,43,3.608,3.61,0,0,0,0,5.088,100.58,8.89971649214,1.968504,6,P-GPS,
10700,2025-05-20 16:39:11,-34.9287514014793,-56.1627730882662,1.968504,2.2637796,6.63593689214,8.89971649214,2.296588,0,3.14491151796,8.3877627356,24,5,7.224,8.89971649214,1.968504,1.4092722,3.747703532,0,0,0,202.8, -9.7, 9.8,0,1,1024,1024,1024,1024,0,0,0,0,221.8,0,9.7,43,3.608,3.61,0,0,0,0,5.088,100.58,8.89971649214,1.968504,6,P-GPS,
10800,2025-05-20 16:39:11,-34.9287513027802,-56.1627731703575,1.968504,2.2637796,6.63593689214,8.89971649214,2.296588,0,3.10739183172,8.4313322908,24,5,7.224,8.89971649214,1.968504,1.4092722,3.747703532,0,0,0,202.6, -9.1, 9.9,0,1,1024,1024,1024,1024,0,0,0,0,221.8,0,9.9,43,3.608,3.61,0,0,0,0,5.088,100.58,8.89971649214,1.968504,6,P-GPS,
10900,2025-05-20 16:39:11,-34.9287513761446,-56.1627732495612,1.968504,2.2637796,6.63593689214,8.89971649214,2.296588,0.223694,3.13277240996,8.4670934468,24,5,7.224,8.89971649214,1.968504,1.4092722,3.747703532,-0.223694,0,0,202.8, -8.5, 9.6,0,1,1024,1024,1024,1024,0,0,0,0,221.6,0,9.6,43,3.608,3.61,0,0,0,0,5.088,100.58,8.89971649214,1.968504,6,P-GPS,
11000,2025-05-20 16:39:11,-34.9287514272702,-56.1627732176224,1.968504,2.2637796,6.63593689214,8.89971649214,2.296588,0.3131716,3.15191283052,8.488025206,23,5,7.224,8.89971649214,1.968504,1.4092722,3.747703532,-0.223694,-0.223694,0,203.2, -4.9, 9.6,0,1,1024,1024,1024,1024,0,0,0,0,221.4,0,9.8,43,3.608,3.61,0,0,0,0,5.088,100.58,8.89971649214,1.968504,6,P-GPS,
11100,2025-05-20 16:39:11,-34.9287515755752,-56.1627733572807,1.968504,2.296588,6.60312849214,8.89971649214,2.296588,0.3131716,3.20393382956,8.5563979116,23,5,7.224,8.89971649214,1.968504,1.4092722,3.747703532,-0.223694,-0.223694,0,203.7, -0.4, 9,0,1,1024,1024,1024,1024,0,0,0,0,221.1,0,8.4,43,3.608,3.61,0,0,0,0,5.088,100.58,8.89971649214,1.968504,6,P-GPS,
11200,2025-05-20 16:39:11,-34.9287515225842,-56.162773339431,1.968504,2.296588,6.60312849214,8.89971649214,2.296588,0.223694,3.1848426216,8.576443844,23,5,7.224,8.89971649214,1.968504,1.4092722,3.747703532,0,-0.223694,0,203.9, 2.1, 7.1,0,1,1024,1024,1024,1024,0,0,0,0,220.8,0,7.2,43,3.608,3.61,0,0,0,0,5.088,100.58,8.89971649214,1.968504,6,P-GPS,
11300,2025-05-20 16:39:11,-34.9287514702078,-56.1627734443792,1.968504,2.2637796,6.63593689214,8.89971649214,2.296588,0,3.164534222,8.613189252,23,5,7.224,8.89971649214,1.968504,1.4092722,3.747703532,0,0,0,203.4, -0.3, 6.8,0,1,1024,1024,1024,1024,0,0,0,0,220.9,0,7.1,43,3.608,3.61,0,0,0,0,5.088,100.58,8.89971649214,1.968504,6,P-GPS,
11400,2025-05-20 16:39:11,-34.9287514738488,-56.1627734839374,1.968504,2.2637796,6.63593689214,8.89971649214,2.296588,0,3.1654856656,8.6250987012,23,5,7.218,8.89971649214,1.968504,1.4092722,3.747703532,0,0,0,203.3, -2.1, 6.5,0,1,1024,1024,1024,1024,0,0,0,0,221.1,0,7.2,43,3.607,3.608,0,0,0,0,5.015,100.76,8.89971649214,1.968504,6,P-GPS,
11500,2025-05-20 16:39:11,-34.9287514877316,-56.1627734957722,1.968504,2.2637796,6.63593689214,8.89971649214,2.296588,0,3.17044301484,8.6312994888,23,5,7.218,8.89971649214,1.968504,1.4092722,3.747703532,0,0,0,203.6, -2.5, 7.2,0,1,1024,1024,1024,1024,0,0,0,0,221.3,0,7.4,43,3.607,3.608,0,0,0,0,5.015,100.76,8.89971649214,1.968504,6,P-GPS,
11600,2025-05-20 16:39:12,-34.9287513609885,-56.1627734446548,1.968504,2.2637796,6.63593689214,8.89971649214,2.296588,0,3.1247048244,8.6799871544,23,5,7.218,8.89971649214,1.968504,1.4092722,3.747703532,0,0,0,203.6, -1.4, 7,0,1,1024,1024,1024,1024,0,0,0,0,221,0,7.9,43,3.607,3.608,0,0,0,0,5.015,100.76,8.89971649214,1.968504,6,P-GPS,
11700,2025-05-20 16:39:12,-34.9287514289557,-56.1627735000877,1.968504,2.2637796,6.63593689214,8.89971649214,2.296588,0,3.14896991704,8.7098427984,23,5,7.218,8.89971649214,1.968504,1.4092722,3.747703532,0,0,0,203.4, 0, 7.5,0,1,1024,1024,1024,1024,0,0,0,0,220.5,0,7.5,43,3.607,3.608,0,0,0,0,5.015,100.76,8.89971649214,1.968504,6,P-GPS,
11800,2025-05-20 16:39:12,-34.9287512602933,-56.162773371924,1.968504,2.2637796,6.63593689214,8.89971649214,2.296588,0,3.08881899648,8.782316554,23,5,7.218,8.89971649214,1.968504,1.4092722,3.747703532,0,0,0,203.2, 0.7, 6.6,0,1,1024,1024,1024,1024,0,0,0,0,220.6,0,5.8,43,3.607,3.608,0,0,0,0,5.015,100.76,8.89971649214,1.968504,6,P-GPS,
11900,2025-05-20 16:39:12,-34.9287513212345,-56.1627735125576,1.968504,2.2637796,6.63593689214,8.89971649214,2.296588,0.223694,3.10957687116,8.8299215424,23,5,7.218,8.89971649214,1.968504,1.4092722,3.747703532,0,-0.223694,0,203.6, 1.2, 4.1,0,1,1024,1024,1024,1024,0,0,0,0,221.2,0,3.1,43,3.607,3.608,0,0,0,0,5.015,100.76,8.89971649214,1.968504,6,P-GPS,
12000,2025-05-20 16:39:12,-34.9287511495598,-56.1627735324622,1.968504,2.2637796,6.63593689214,8.89971649214,2.296588,0.223694,3.04680455944,8.8928152452,23,5,7.218,8.89971649214,1.968504,1.4092722,3.747703532,0,-0.223694,0,204.1, 2.3, 2.1,0,1,1024,1024,1024,1024,0,0,0,0,221.2,0,1.8,43,3.607,3.608,0,0,0,0,5.015,100.76,8.89971649214,1.968504,6,P-GPS,
12100,2025-05-20 16:39:12,-34.9287510625889,-56.1627734615346,1.968504,2.2637796,6.63593689214,8.89971649214,2.296588,0,3.01572516212,8.9310042228,23,5,7.218,8.89971649214,1.968504,1.4092722,3.747703532,0,0,0,203.9, 1.2, 0.7,0,1,1684,1024,1024,1024,100,0,0,0,221.1,0,0.2,43,3.607,3.608,0,0,0,0,5.015,100.76,8.89971649214,1.968504,6,P-GPS,
12200,2025-05-20 16:39:12,-34.9287510905215,-56.1627735167494,1.968504,2.2637796,6.63593689214,8.89971649214,2.296588,0,3.02540035928,8.9503939872,23,5,7.218,8.89971649214,1.968504,1.4092722,3.747703532,0,0,0,203.7, 0.8, -0.1,0,1,1684,1024,1024,1024,100,0,0,0,220.9,0,0.8,43,3.607,3.608,0,0,0,0,5.015,100.76,8.89971649214,1.968504,6,P-GPS,
12300,2025-05-20 16:39:12,-34.928751132112,-56.1627735366023,1.968504,2.2637796,6.63593689214,8.89971649214,2.296588,0,3.04040692144,8.966699762,23,5,7.218,8.89971649214,1.968504,1.4092722,3.747703532,0,0,0,203.5, 0, 1,0,1,1684,1024,1024,1024,100,0,0,0,220.8,0,1.1,43,3.607,3.608,0,0,0,0,5.015,100.76,8.89971649214,1.968504,6,P-GPS,
12400,2025-05-20 16:39:12,-34.928751020994,-56.1627734610653,1.968504,2.2637796,6.63593689214,8.89971649214,2.296588,0,3.00056440048,9.013123648,23,5,7.215,8.89971649214,1.968504,1.4092722,3.747703532,0,0,0,203.4, -2.9, 0.5,0,1,1684,1024,1024,1024,100,0,0,0,220.8,0,0.9,42,3.603,3.605,0,0,0,0,4.985,100.76,8.89971649214,1.968504,6,P-GPS,
12500,2025-05-20 16:39:12,-34.9287511315209,-56.1627734788261,1.968504,2.2637796,6.63593689214,8.89971649214,2.296588,0.223694,3.04069235452,9.0537732556,23,5,7.215,8.89971649214,1.968504,1.4092722,3.747703532,-0.223694,0,0,203.5, -4.3, 1.2,0,1,1684,1024,1024,1024,100,0,0,0,221.1,0,2.4,42,3.603,3.605,0,0,0,0,4.985,100.76,8.89971649214,1.968504,6,P-GPS,
12600,2025-05-20 16:39:12,-34.9287511080228,-56.1627734531487,1.968504,2.2637796,6.63593689214,8.89971649214,2.296588,0.447388,3.03237870596,9.065289004,23,5,7.215,8.89971649214,1.968504,1.4092722,3.747703532,-0.447388,0,0,203.5, -5.6, 1.8,0,1,1684,1024,1024,1024,100,0,0,0,221.1,0,0.8,42,3.603,3.605,0,0,0,0,4.985,100.76,8.89971649214,1.968504,6,P-GPS,
12700,2025-05-20 16:39:13,-34.9287513318147,-56.1627735038214,1.968504,2.2637796,6.63593689214,8.89971649214,2.296588,0.447388,3.11351059832,9.1483598728,23,5,7.215,8.89971649214,1.968504,1.4092722,3.747703532,-0.447388,0,0,203.8, -5.9, 0.7,0,1,1684,1024,1024,1024,100,0,0,0,221.2,0,1.7,42,3.603,3.605,0,0,0,0,4.985,100.76,8.89971649214,1.968504,6,P-GPS,
12800,2025-05-20 16:39:13,-34.9287515212499,-56.1627736093736,1.968504,2.296588,6.60312849214,8.89971649214,2.296588,0.671082,3.18186689972,9.2243441272,23,5,7.215,8.89971649214,1.968504,1.4092722,3.747703532,-0.671082,0,0,203.5, -6, 2.6,0,1,1684,1024,1024,1024,100,0,0,0,221.2,0,4.1,42,3.603,3.605,0,0,0,0,4.985,100.76,8.89971649214,1.968504,6,P-GPS,
12900,2025-05-20 16:39:13,-34.9287518503043,-56.1627734763216,1.968504,2.296588,6.60312849214,8.89971649214,2.296588,0.894776,3.3028544364,9.3508205092,23,5,7.215,8.89971649214,1.968504,1.4092722,3.747703532,-0.894776,0,0,203.3, -5.9, 4.1,0,1,1684,1024,1024,1024,100,0,0,0,221.2,0,4.2,42,3.603,3.605,0,0,0,0,4.985,100.76,8.89971649214,1.968504,6,P-GPS,
13000,2025-05-20 16:39:13,-34.9287522910507,-56.1627735673682,1.968504,2.296588,6.60312849214,8.89971649214,2.296588,1.1408394,3.46292662,9.5139110656,23,5,7.215,8.89971649214,1.968504,1.4092722,3.747703532,-1.11847,-0.223694,0,203.4, -6.1, 4.1,0,1,1684,1024,1024,1024,100,0,0,0,221.2,0,3.7,42,3.603,3.605,0,0,0,0,4.985,100.76,8.89971649214,1.968504,6,P-GPS,
13100,2025-05-20 16:39:13,-34.9287527871174,-56.1627737107742,1.968504,2.3293964,6.57032009214,8.89971649214,2.296588,1.1408394,3.6433072032,9.6999018852,23,5,7.215,8.89971649214,1.968504,1.4092722,3.747703532,-1.11847,-0.223694,0,203.4, -5.7, 3.3,0,1,1684,1024,1024,1024,100,0,0,0,221.2,0,3.2,42,3.603,3.605,0,0,0,0,4.985,100.76,8.89971649214,1.968504,6,P-GPS,
13200,2025-05-20 16:39:13,-34.9287533585927,-56.162773976665,1.968504,2.3293964,6.57032009214,8.89971649214,2.296588,1.3645334,3.852034244,9.923064622,23,5,7.215,8.89971649214,1.968504,1.4092722,3.852034244,-1.342164,-0.223694,0,203.4, -6.2, 2.7,0,1,1684,1024,1024,1024,100,0,0,0,221.1,0,2.8,42,3.603,3.605,0,0,0,0,4.985,100.76,8.89971649214,1.968504,6,P-GPS,
13300,2025-05-20 16:39:13,-34.9287539202374,-56.1627741627141,1.968504,2.3622048,6.53751169214,8.89971649214,2.296588,1.3645334,4.0580381876,10.1354005868,23,5,7.215,8.89971649214,1.968504,1.4092722,4.0580381876,-1.342164,-0.223694,0,203.3, -7.2, 2.9,0,1,1684,1024,1024,1024,100,0,0,0,221.2,0,2.9,42,3.603,3.605,0,0,0,0,4.985,100.76,8.89971649214,1.968504,6,P-GPS,
13400,2025-05-20 16:39:13,-34.9287545442132,-56.1627744608719,1.968504,2.3950132,6.50470329214,8.89971649214,2.296588,1.5882274,4.2887796648,10.379921592,23,5,7.208,8.89971649214,1.968504,1.5882274,4.2887796648,-1.565858,-0.223694,0,203.3, -7.5, 3.1,0,1,1684,1024,1024,1024,100,0,0,0,221.4,0,4.6,42,3.598,3.599,0,0,0,0,4.948,100.94,8.89971649214,1.968504,6,P-GPS,
13500,2025-05-20 16:39:13,-34.928755206854,-56.1627746400316,1.968504,2.3950132,6.50470329214,8.89971649214,2.296588,1.5882274,4.532972586,10.6275265868,23,5,7.208,8.89971649214,1.968504,1.5882274,4.532972586,-1.565858,-0.223694,0,203.3, -7.7, 5.1,0,1,1684,1024,1024,1024,100,0,0,0,221.5,0,5,42,3.598,3.599,0,0,0,0,4.948,100.94,8.89971649214,1.968504,6,P-GPS,
13600,2025-05-20 16:39:14,-34.9287557984906,-56.1627749795639,1.968504,2.4278216,6.47189489214,8.89971649214,2.296588,1.8342908,4.7549542204,10.8661092716,23,5,7.208,8.89971649214,1.968504,1.8342908,4.7549542204,-1.789552,-0.447388,0,203.2, -8, 5,0,1,1684,1024,1024,1024,100,0,0,0,221.4,0,5,42,3.598,3.599,0,0,0,0,4.948,100.94,8.89971649214,1.968504,6,P-GPS,
13700,2025-05-20 16:39:14,-34.928756564446,-56.162775204475,1.968504,2.4934384,6.40627809214,8.89971649214,2.296588,1.8342908,5.0388453056,11.153543664,23,5,7.208,8.89971649214,1.968504,1.8342908,5.0388453056,-1.789552,-0.447388,0,203.2, -7.7, 5.4,0,1,1684,1024,1024,1024,100,0,0,0,221.5,0,5.5,42,3.598,3.599,0,0,0,0,4.948,100.94,8.89971649214,1.968504,6,P-GPS,
13800,2025-05-20 16:39:14,-34.9287574328613,-56.1627757573844,1.968504,2.4934384,6.40627809214,8.89971649214,2.296588,2.0579848,5.3701117204,11.5109583736,23,5,7.208,8.89971649214,1.968504,2.0579848,5.3701117204,-2.013246,-0.447388,0,203.1, -8.4, 5.6,0,1,1684,1024,1024,1024,100,0,0,0,221.3,0,5.2,42,3.598,3.599,0,0,0,0,4.948,100.94,8.89971649214,1.968504,6,P-GPS,
13900,2025-05-20 16:39:14,-34.928758256617,-56.1627760972478,1.968504,2.5262468,6.37346969214,8.89971649214,2.296588,2.0356154,5.6803807592,11.8282156016,23,5,7.208,8.89971649214,1.968504,2.0579848,5.6803807592,-2.013246,-0.223694,0,202.9, -8.8, 6.3,0,1,1684,1024,1024,1024,100,0,0,0,221.8,0,8.1,42,3.598,3.599,0,0,0,0,4.948,100.94,8.89971649214,1.968504,6,P-GPS,
14000,2025-05-20 16:39:14,-34.9287591500843,-56.1627762180243,1.968504,2.5590552,6.34066129214,8.89971649214,2.296588,2.23694,6.0083335256,12.1562011764,23,5,7.208,8.89971649214,1.968504,2.23694,6.0083335256,-2.23694,-0.223694,0,202.8, -9.6, 8.9,0,1,1684,1024,1024,1024,100,0,0,0,222,0,9.6,42,3.598,3.599,0,0,0,0,4.948,100.94,8.89971649214,1.968504,6,P-GPS,
14100,2025-05-20 16:39:14,-34.9287602955493,-56.1627768011797,1.968504,2.5918636,6.30785289214,8.89971649214,2.296588,2.23694,6.445374222,12.6090555216,23,5,7.208,8.89971649214,1.968504,2.23694,6.445374222,-2.23694,-0.223694,0,202.9, -9.2, 9.7,0,1,1684,1024,1024,1024,100,0,0,0,222.1,0,9.7,42,3.598,3.599,0,0,0,0,4.948,100.94,8.89971649214,1.968504,6,P-GPS,
14200,2025-05-20 16:39:14,-34.9287612441751,-56.1627769874495,1.968504,2.624672,6.27504449214,8.89971649214,2.296588,2.23694,6.7958663592,12.959646084,23,5,7.208,8.89971649214,1.968504,2.23694,6.7958663592,-2.460634,-0.447388,0,203, -9.3, 9.3,0,1,1684,1024,1024,1024,100,0,0,0,222.1,0,9.3,42,3.598,3.599,0,0,0,0,4.948,100.94,8.89971649214,1.968504,6,P-GPS,
14300,2025-05-20 16:39:14,-34.9287622301872,-56.1627772257102,1.968504,2.6574804,6.24223609214,8.89971649214,2.296588,2.5053728,7.16207372,13.3263783792,23,5,7.208,8.89971649214,1.968504,2.5053728,7.16207372,-2.460634,-0.447388,0,203.1, -8.7, 9.7,0,1,1684,1024,1024,1024,100,0,0,0,222,0,9.7,42,3.598,3.599,0,0,0,0,4.948,100.94,8.89971649214,1.968504,6,P-GPS,
14400,2025-05-20 16:39:14,-34.9287633866308,-56.162778044949,1.968504,2.6902888,6.20942769214,8.89971649214,2.624672,2.5053728,7.6168965692,13.814304904,23,5,7.197,8.89971649214,1.968504,2.5053728,7.6168965692,-2.460634,-0.447388,0,202.8, -10.1, 9.2,0,1,1684,1024,1024,1024,100,0,0,0,221.9,0,8.9,42,3.601,3.603,0,0,0,0,5,100.94,8.89971649214,1.968504,6,P-GPS,
14500,2025-05-20 16:39:14,-34.9287644158612,-56.1627783790412,1.968504,2.7230972,6.17661929214,8.89971649214,2.624672,2.5501116,8.0038716472,14.2028875936,23,5,7.197,8.89971649214,1.968504,2.5501116,8.0038716472,-2.460634,-0.671082,0,202.7, -10.3, 9.2,0,1,1684,1024,1024,1024,100,0,0,0,221.9,0,9.4,42,3.601,3.603,0,0,0,0,5,100.94,8.89971649214,1.968504,6,P-GPS,
14600,2025-05-20 16:39:15,-34.9287655049705,-56.162779256195,1.968504,2.788714,6.11100249214,8.89971649214,2.624672,2.7738056,8.44242153,14.6790687112,23,5,7.197,8.89971649214,1.968504,2.7738056,8.44242153,-2.684328,-0.671082,0,202.5, -10.6, 9.7,0,1,1684,1024,1024,1024,100,0,0,0,221.9,0,9.6,42,3.601,3.603,0,0,0,0,5,100.94,8.89971649214,1.968504,6,P-GPS,
14700,2025-05-20 16:39:15,-34.9287666044586,-56.1627796797211,1.968504,2.8215224,6.07819409214,8.89971649214,2.624672,2.8185444,8.8605973964,15.099738016,23,5,7.197,8.89971649214,1.968504,2.8185444,8.8605973964,-2.684328,-0.894776,0,202.6, -10.5, 9.3,0,1,1684,1024,1024,1024,100,0,0,0,222,0,9.5,42,3.601,3.603,0,0,0,0,5,100.94,8.89971649214,1.968504,6,P-GPS,
14800,2025-05-20 16:39:15,-34.9287679611254,-56.1627808569266,1.968504,2.8543308,6.04538569214,8.89971649214,2.624672,2.908022,9.4188323224,15.707185542,23,5,7.197,8.89971649214,1.968504,2.908022,9.4188323224,-2.684328,-1.11847,0,207.4, -10.1, 9.5,0,1,1024,1024,1024,1024,0,0,0,0,222.1,0,9.1,42,3.601,3.603,0,0,0,0,5,100.94,8.89971649214,1.968504,6,P-GPS,
14900,2025-05-20 16:39:15,-34.9287691129556,-56.162781380825,1.968504,2.9199476,5.97976889214,8.89971649214,2.624672,2.9974996,9.863681418,16.1557091784,24,5,7.197,8.89971649214,1.968504,2.9974996,9.863681418,-2.684328,-1.342164,0,210.2, -10.3, 9,0,1,1024,1024,1024,1024,0,0,0,0,221.7,0,9,42,3.601,3.603,0,0,0,0,5,100.94,8.89971649214,1.968504,6,P-GPS,
15000,2025-05-20 16:39:15,-34.9287704842162,-56.1627826018677,1.968504,2.952756,5.94696049214,8.89971649214,2.624672,2.9974996,10.4373034836,16.7751317704,24,5,7.197,8.89971649214,1.968504,2.9974996,10.4373034836,-2.684328,-1.342164,0,211.7, -4.5, 9.1,0,1,1024,1024,1024,1024,0,0,0,0,221.6,0,9.3,42,3.601,3.603,0,0,0,0,5,100.94,8.89971649214,1.968504,6,P-GPS,
15100,2025-05-20 16:39:15,-34.9287715542254,-56.1627832893427,1.968504,3.0183728,5.88134369214,8.89971649214,2.624672,2.796175,10.8674216076,17.216371942,24,5,7.197,8.89971649214,1.968504,2.9974996,10.8674216076,-2.460634,-1.342164,0,212.2, -3.6, 8.6,0,1,1024,1024,1024,1024,0,0,0,0,221.4,0,8.3,42,3.601,3.603,0,0,0,0,5,100.94,8.89971649214,1.968504,6,P-GPS,
15200,2025-05-20 16:39:15,-34.9287726113477,-56.1627842367521,1.968504,3.0511812,5.84853529214,8.89971649214,2.624672,2.7066974,11.3150594172,17.6950136896,24,5,7.197,8.89971649214,1.968504,2.9974996,11.3150594172,-2.460634,-1.11847,0,212, -3.4, 8.4,0,1,1024,1024,1024,1024,0,0,0,0,221.2,0,10.1,42,3.601,3.603,0,0,0,0,5,100.94,8.89971649214,1.968504,6,P-GPS,
15300,2025-05-20 16:39:15,-34.9287735420964,-56.1627847650627,1.968504,3.0839896,5.81572689214,8.89971649214,2.624672,2.4158952,11.685203786,18.069554384,24,5,7.197,8.89971649214,1.968504,2.9974996,11.685203786,-2.23694,-0.894776,0,212.4, -0.1, 10.6,0,1,1024,1024,1024,1024,0,0,0,0,221,0,11.4,42,3.601,3.603,0,0,0,0,5,100.94,8.89971649214,1.968504,6,P-GPS,
15400,2025-05-20 16:39:15,-34.9287746460501,-56.1627853761914,1.968504,3.116798,5.78291849214,8.89971649214,2.624672,1.901399,12.1232287344,18.5118772328,24,5,7.204,8.89971649214,1.968504,2.9974996,12.1232287344,-1.789552,-0.671082,0,212.7, 1.8, 11.4,0,1,1024,1024,1024,1024,0,0,0,0,221,0,12,42,3.59,3.589,0,0,0,0,4.967,101.12,8.89971649214,1.968504,6,P-GPS,
15500,2025-05-20 16:39:15,-34.9287753311578,-56.1627857188056,1.968504,3.116798,5.78291849214,8.89971649214,2.624672,1.6329662,12.3920935724,18.7820215984,24,5,7.204,8.89971649214,1.968504,2.9974996,12.3920935724,-1.565858,-0.447388,0,212.5, 1, 11.1,0,1,1024,1024,1024,1024,0,0,0,0,221,0,11,42,3.59,3.589,0,0,0,0,4.967,101.12,8.89971649214,1.968504,6,P-GPS,
15600,2025-05-20 16:39:16,-34.9287761658171,-56.1627863341101,1.968504,3.1496064,5.75011009214,8.89971649214,2.624672,1.2079476,12.7370082816,19.1378615048,24,5,7.204,8.89971649214,1.968504,2.9974996,12.7370082816,-1.11847,-0.447388,0,212.8, 1.6, 10.6,0,1,1024,1024,1024,1024,0,0,0,0,221.1,0,11.9,42,3.59,3.589,0,0,0,0,4.967,101.12,8.89971649214,1.968504,6,P-GPS,
15700,2025-05-20 16:39:16,-34.9287766561738,-56.1627865623441,1.968504,3.1824148,5.71730169214,8.89971649214,2.624672,0.9171454,12.9280844032,19.3293313272,24,5,7.204,8.89971649214,1.968504,2.9974996,12.9280844032,-0.894776,-0.223694,0,212.8, 2, 11.8,0,1,1024,1024,1024,1024,0,0,0,0,221.1,0,12.2,42,3.59,3.589,0,0,0,0,4.967,101.12,8.89971649214,1.968504,6,P-GPS,
15800,2025-05-20 16:39:16,-34.9287773219265,-56.1627871039684,1.968504,3.1824148,5.71730169214,8.89971649214,2.624672,0.9171454,13.2082353308,19.6213260872,23,5,7.204,8.89971649214,1.968504,2.9974996,13.2082353308,-0.894776,-0.223694,0,212.6, 0.5, 11.2,0,1,1024,1024,1024,1024,0,0,0,0,221,0,11.1,42,3.59,3.589,0,0,0,0,4.967,101.12,8.89971649214,1.968504,6,P-GPS,
15900,2025-05-20 16:39:16,-34.9287777974495,-56.1627873974632,1.968504,3.2152232,5.68449329214,8.89971649214,2.624672,0.7158208,13.4001644708,19.8157486656,23,5,7.204,8.89971649214,1.968504,2.9974996,13.4001644708,-0.671082,-0.223694,0,212.6, 1.4, 10.8,0,1,1024,1024,1684,1024,0,0,100,0,220.8,0,11.3,42,3.59,3.589,0,0,0,0,4.967,101.12,8.89971649214,1.968504,6,P-GPS,
16000,2025-05-20 16:39:16,-34.9287784857592,-56.1627879202487,1.968504,3.2152232,5.68449329214,8.89971649214,2.624672,0.7158208,13.6871067372,20.1116148168,24,5,7.204,8.89971649214,1.968504,2.9974996,13.6871067372,-0.671082,-0.223694,0,212.6, 2.4, 10.8,0,1,1024,1024,1684,1024,0,0,100,0,220.8,0,11.5,42,3.59,3.589,0,0,0,0,4.967,101.12,8.89971649214,1.968504,6,P-GPS,
16100,2025-05-20 16:39:16,-34.9287789152089,-56.1627881748358,1.968504,3.2480316,5.65168489214,8.89971649214,2.624672,0.7158208,13.8596461128,20.2858274208,24,5,7.204,8.89971649214,1.968504,2.9974996,13.8596461128,-0.671082,-0.223694,0,212.9, 3.2, 10.9,0,1,1024,1024,1684,1024,0,0,100,0,220.9,0,11.3,42,3.59,3.589,0,0,0,0,4.967,101.12,8.89971649214,1.968504,6,P-GPS,
16200,2025-05-20 16:39:16,-34.928779145605,-56.1627884188834,1.968504,3.2480316,5.65168489214,8.89971649214,2.624672,0.4921268,13.962270788,20.397146322,24,5,7.204,8.89971649214,1.968504,2.9974996,13.962270788,-0.447388,-0.223694,0,213.3, 4.1, 11.1,0,1,1024,1024,1684,1024,0,0,100,0,221.2,0,12.1,42,3.59,3.589,0,0,0,0,4.967,101.12,8.89971649214,1.968504,6,P-GPS,
16300,2025-05-20 16:39:16,-34.9287793950539,-56.1627885911786,2.296588,3.5761156,5.65168489214,9.22780049214,2.624672,0.223694,14.0648626548,20.5017395012,24,5,7.204,9.22780049214,2.296588,2.9974996,14.0648626548,-0.223694,0,-0.223694,213.2, 3.5, 11.4,0,1,1024,1024,1684,1024,0,0,100,0,220.9,0,10.6,42,3.59,3.589,0,0,0,0,4.967,101.12,9.22780049214,2.296588,6,P-GPS,
16400,2025-05-20 16:39:16,-34.9287792097673,-56.1627886276543,2.296588,3.5761156,5.65168489214,9.22780049214,2.952756,0.223694,14.0041671148,20.570210632,24,5,7.163,9.22780049214,2.296588,2.9974996,14.0648626548,0,-0.223694,-0.671082,212.4, 0.5, 9,0,1,1024,1024,1684,1024,0,0,100,0,220.9,0,7.9,42,3.569,3.571,0,0,0,0,5.515,101.48,9.22780049214,2.296588,6,P-GPS,
16500,2025-05-20 16:39:16,-34.9287792045929,-56.1627887628782,2.296588,3.5761156,5.65168489214,9.22780049214,2.952756,0,14.0152235456,20.6106961976,24,5,7.163,9.22780049214,2.296588,2.9974996,14.0648626548,0,0,-0.671082,212.3, -1.4, 6.8,0,1,1024,1024,1684,1024,0,0,100,0,221.2,0,6.2,42,3.569,3.571,0,0,0,0,5.515,101.48,9.22780049214,2.296588,6,P-GPS,
16600,2025-05-20 16:39:17,-34.9287784865859,-56.1627891077625,2.624672,3.8713912,5.68449329214,9.55588449214,2.952756,0,13.8011159272,20.8922578864,24,5,7.163,9.55588449214,2.624672,2.9974996,14.0648626548,0,0,-0.894776,212.5, -1.4, 5.2,0,1,1024,1024,1684,1024,0,0,100,0,221.2,0,5.5,42,3.569,3.571,0,0,0,0,5.515,101.48,9.55588449214,2.624672,6,P-GPS,
16700,2025-05-20 16:39:17,-34.9287784414807,-56.1627891069997,2.624672,3.8713912,5.68449329214,9.55588449214,3.28084,0,13.7855319372,20.9086948948,24,5,7.163,9.55588449214,2.624672,2.9974996,14.0648626548,0,0,-0.894776,212.5, -2.3, 5.6,0,1,1024,1024,1024,1024,0,0,0,0,221.2,0,6.2,42,3.569,3.571,0,0,0,0,5.515,101.48,9.55588449214,2.624672,6,P-GPS,
16800,2025-05-20 16:39:17,-34.9287778601255,-56.1627894305701,2.952756,4.1994752,5.68449329214,9.88396849214,3.28084,0.3131716,13.6185699896,21.1418641936,24,5,7.163,9.88396849214,2.952756,2.9974996,14.0648626548,0.223694,0.223694,-0.894776,212.2, -3.7, 5.7,0,1,1024,1024,1024,1024,0,0,0,0,221.1,0,7.2,42,3.569,3.571,0,0,0,0,5.515,101.48,9.88396849214,2.952756,6,P-GPS,
16900,2025-05-20 16:39:17,-34.9287778144079,-56.1627892072838,2.952756,4.1994752,5.68449329214,9.88396849214,3.608924,0.447388,13.5800857364,21.2106962168,24,5,7.163,9.88396849214,2.952756,2.9974996,14.0648626548,0,0.447388,-0.894776,212, -4.5, 8.5,0,1,1024,1024,1024,1024,0,0,0,0,221.6,0,11.4,42,3.569,3.571,0,0,0,0,5.515,101.48,9.88396849214,2.952756,6,P-GPS,
17000,2025-05-20 16:39:17,-34.9287777913285,-56.1627897081337,2.952756,4.1994752,5.68449329214,9.88396849214,3.608924,0.447388,13.6237537168,21.3607618384,25,5,7.163,9.88396849214,2.952756,2.9974996,14.0648626548,0,0.447388,-0.447388,211.9, -5.1, 11.7,0,1,1024,1024,1024,1024,0,0,0,0,221.7,0,12.3,42,3.569,3.571,0,0,0,0,5.515,101.48,9.88396849214,2.952756,6,P-GPS,
17100,2025-05-20 16:39:17,-34.9287777802856,-56.1627894027699,3.28084,4.5275592,5.68449329214,10.21205249214,3.608924,0.447388,13.5883534532,21.4521988492,25,5,7.163,10.21205249214,3.28084,2.9974996,14.0648626548,0,0.447388,-0.447388,211.8, -6.2, 12.8,0,1,1024,1024,1024,1024,0,0,0,0,222,0,14,42,3.569,3.571,0,0,0,0,5.515,101.48,10.21205249214,3.28084,6,P-GPS,
