time(millisecond),datetime(utc),latitude,longitude,height_above_takeoff(feet),height_above_ground_at_drone_location(feet),ground_elevation_at_drone_location(feet),altitude_above_seaLevel(feet),height_sonar(feet),speed(mph),distance(feet),mileage(feet),satellites,gpslevel,voltage(v),max_altitude(feet),max_ascent(feet),max_speed(mph),max_distance(feet), xSpeed(mph), ySpeed(mph), zSpeed(mph), compass_heading(degrees), pitch(degrees), roll(degrees),isPhoto,isVideo,rc_elevator,rc_aileron,rc_throttle,rc_rudder,rc_elevator(percent),rc_aileron(percent),rc_throttle(percent),rc_rudder(percent),gimbal_heading(degrees),gimbal_pitch(degrees),gimbal_roll(degrees),battery_percent,voltageCell1,voltageCell2,voltageCell3,voltageCell4,voltageCell5,voltageCell6,current(A),battery_temperature(f),altitude(feet),ascent(feet),flycStateRaw,flycState,message
99600,2022-08-12 04:43:31,0,0,0,,,3.28084E-5,0,0,0,0,0,0,0,3.28084E-5,0,0,0,0,0,0,207.1, 4.2, 0.3,0,0,364,364,364,1684,-100,-100,-100,100,209.9,-27.1,1.6,92,4.241,4.234,0,0,0,0,0,82.22,3.28084E-5,0,38,Tripod,"Baja velocidad de la tarjeta SD. Puede afectar a su uso normal. Sustituye la tarjeta SD (Code: 10028)"
99700,2022-08-12 04:43:31,0,0,0.328084,,,0.3281168084,0,0,0,0,0,0,8.474,0.3281168084,0.328084,0,0,0,0,0,207.1, 4.2, 0.3,0,0,364,364,364,1684,-100,-100,-100,100,209.8,-27.1,1.5,92,4.241,4.234,0,0,0,0,0.599,82.22,0.3281168084,0.328084,41,Motors_Started,"Baja velocidad de la tarjeta SD. Puede afectar a su uso normal. Sustituye la tarjeta SD (Code: 10028)"
99800,2022-08-12 04:43:31,0,0,0.984252,,,0.9842848084,0,0,0,0,0,0,8.474,0.9842848084,0.984252,0,0,0,0,0,207.1, 4.2, 0.3,0,0,364,364,364,1684,-100,-100,-100,100,209.8,-27.1,1.5,92,4.241,4.234,0,0,0,0,0.599,82.22,0.9842848084,0.984252,41,Motors_Started,
99900,2022-08-12 04:43:31,0,0,1.64042,,,1.6404528084,0,0,0,0,0,0,8.474,1.6404528084,1.64042,0,0,0,0,0,207.1, 4.1, 0.3,0,0,364,364,364,1684,-100,-100,-100,100,209.8,-27.1,1.4,92,4.241,4.234,0,0,0,0,0.599,82.22,1.6404528084,1.64042,41,Motors_Started,
100000,2022-08-12 04:43:31,0,0,1.968504,,,1.9685368084,0,0,0,0,0,0,8.474,1.9685368084,1.968504,0,0,0,0,0,207.2, 4.2, 0.3,0,0,364,364,364,1684,-100,-100,-100,100,209.8,-27.1,1.3,92,4.241,4.234,0,0,0,0,0.599,82.22,1.9685368084,1.968504,41,Motors_Started,"Setting new Return-To-Home altitude to 40m (131 ft). Data Recorder File Index is 39. Setting new Maximum Flight Altitude to 30m (98 ft)"
100100,2022-08-12 04:43:31,0,0,2.624672,,,2.6247048084,0,0,0,0,0,0,8.474,2.6247048084,2.624672,0,0,0,0,0,207.1, 4.1, 0.3,0,0,364,364,364,1684,-100,-100,-100,100,209.8,-27.1,1.2,92,4.241,4.234,0,0,0,0,0.599,82.22,2.6247048084,2.624672,41,Motors_Started,
100200,2022-08-12 04:43:32,0,0,2.952756,,,2.9527888084,0,0,0,0,0,0,8.474,2.9527888084,2.952756,0,0,0,0,0,207.2, 4.1, 0.3,0,0,364,364,364,1684,-100,-100,-100,100,209.8,-27.1,1.1,92,4.241,4.234,0,0,0,0,0.599,82.22,2.9527888084,2.952756,41,Motors_Started,
100300,2022-08-12 04:43:32,0,0,3.608924,,,3.6089568084,0,0,0,0,0,0,8.474,3.6089568084,3.608924,0,0,0,0,0,207.2, 4.1, 0.3,0,0,364,364,364,1684,-100,-100,-100,100,209.8,-27.1,1,92,4.241,4.234,0,0,0,0,0.599,82.22,3.6089568084,3.608924,41,Motors_Started,
100400,2022-08-12 04:43:32,0,0,3.937008,,,3.9370408084,0,0,0,0,0,0,8.474,3.9370408084,3.937008,0,0,0,0,0,207.2, 4.1, 0.3,0,0,364,364,364,1684,-100,-100,-100,100,209.8,-27.1,1,92,4.241,4.234,0,0,0,0,0.599,82.22,3.9370408084,3.937008,41,Motors_Started,
100500,2022-08-12 04:43:32,0,0,4.593176,,,4.5932088084,0,0,0,0,0,0,8.474,4.5932088084,4.593176,0,0,0,0,0,207.2, 4.2, 0.4,0,0,392,364,444,1678,-96,-100,-88,99,209.8,-27.1,0.9,92,4.241,4.234,0,0,0,0,0.599,82.22,4.5932088084,4.593176,41,Motors_Started,
100600,2022-08-12 04:43:32,0,0,5.249344,,,5.2493768084,0,0,0,0,0,0,8.474,5.2493768084,5.249344,0,0,0,0,0,207.2, 4.1, 0.3,0,0,1024,1024,1024,1024,0,0,0,0,209.8,-27.1,0.9,92,4.241,4.234,0,0,0,0,0.599,82.22,5.2493768084,5.249344,41,Motors_Started,
100700,2022-08-12 04:43:32,0,0,5.577428,,,5.5774608084,0,0,0,0,0,0,8.45,5.5774608084,5.577428,0,0,0,0,0,207.2, 4.2, 0.4,0,0,1024,1024,1024,1024,0,0,0,0,209.8,-27.1,0.8,92,4.224,4.217,0,0,0,0,0.923,82.4,5.5774608084,5.577428,41,Motors_Started,
100800,2022-08-12 04:43:32,0,0,6.233596,,,6.2336288084,0,0,0,0,0,0,8.45,6.2336288084,6.233596,0,0,0,0,0,207.2, 4.2, 0.4,0,0,1024,1024,1024,1024,0,0,0,0,209.8,-27.1,0.8,92,4.224,4.217,0,0,0,0,0.923,82.4,6.2336288084,6.233596,10,Assisted_Takeoff,
100900,2022-08-12 04:43:32,0,0,6.56168,,,6.5617128084,0,0,0,0,0,0,8.45,6.5617128084,6.56168,0,0,0,0,0,207.2, 4.1, 0.4,0,0,1024,1024,1024,1024,0,0,0,0,209.8,-27.1,0.7,92,4.224,4.217,0,0,0,0,0.923,82.4,6.5617128084,6.56168,10,Assisted_Takeoff,
101000,2022-08-12 04:43:32,0,0,7.217848,,,7.2178808084,0,0,0,0,0,0,8.45,7.2178808084,7.217848,0,0,0,0,0,207.3, 4.2, 0.3,0,0,1024,1024,1024,1024,0,0,0,0,209.9,-27.1,0.7,92,4.224,4.217,0,0,0,0,0.923,82.4,7.2178808084,7.217848,10,Assisted_Takeoff,
101100,2022-08-12 04:43:32,0,0,7.874016,,,7.8740488084,0,0,0,0,0,0,8.45,7.8740488084,7.874016,0,0,0,0,0,207.4, 4.1, 0.3,0,0,1024,1024,1024,1024,0,0,0,0,209.9,-27.1,0.6,92,4.224,4.217,0,0,0,0,0.923,82.4,7.8740488084,7.874016,10,Assisted_Takeoff,
101200,2022-08-12 04:43:33,0,0,8.2021,,,8.2021328084,7.545932,0,0,0,0,0,8.45,8.2021328084,8.2021,0,0,0,0,0,207.5, 4.1, 0.4,0,0,1024,1024,1024,1024,0,0,0,0,210,-27.1,0.6,92,4.224,4.217,0,0,0,0,0.923,82.4,8.2021328084,8.2021,10,Assisted_Takeoff,
101300,2022-08-12 04:43:33,0,0,8.858268,,,8.8583008084,7.545932,0,0,0,0,0,8.45,8.8583008084,8.858268,0,0,0,0,0,207.5, 4.1, 0.4,0,0,1024,1024,1024,1024,0,0,0,0,210,-27.1,0.5,92,4.224,4.217,0,0,0,0,0.923,82.4,8.8583008084,8.858268,10,Assisted_Takeoff,
101400,2022-08-12 04:43:33,0,0,9.186352,,,9.1863848084,7.545932,0,0,0,0,0,8.45,9.1863848084,9.186352,0,0,0,0,0,207.5, 4.1, 0.3,0,0,1024,1024,1035,1024,0,0,2,0,210.1,-27.1,0.5,92,4.224,4.217,0,0,0,0,0.923,82.4,9.1863848084,9.186352,10,Assisted_Takeoff,
101500,2022-08-12 04:43:33,0,0,9.84252,,,9.8425528084,7.545932,0,0,0,0,0,8.45,9.8425528084,9.84252,0,0,0,0,0,207.7, 4.1, 0.3,0,0,1024,1024,1610,1024,0,0,89,0,210.1,-27.1,0.5,92,4.224,4.217,0,0,0,0,0.923,82.4,9.8425528084,9.84252,10,Assisted_Takeoff,
101600,2022-08-12 04:43:33,0,0,10.498688,,,10.4987208084,7.545932,0,0,0,0,0,8.45,10.4987208084,10.498688,0,0,0,0,0,207.8, 4.1, 0.3,0,0,1024,1024,1684,1024,0,0,100,0,210.3,-27.1,0.4,92,4.224,4.217,0,0,0,0,0.923,82.4,10.4987208084,10.498688,10,Assisted_Takeoff,
101700,2022-08-12 04:43:33,0,0,10.826772,,,10.8268048084,7.545932,0,0,0,0,0,8.449,10.8268048084,10.826772,0,0,0,0,0,207.9, 4.1, 0.3,0,0,1024,1024,1024,1024,0,0,0,0,210.4,-27.1,0.4,92,4.233,4.226,0,0,0,0,1.397,82.4,10.8268048084,10.826772,10,Assisted_Takeoff,
101800,2022-08-12 04:43:33,0,0,11.48294,,,11.4829728084,7.545932,0,0,0,0,0,8.449,11.4829728084,11.48294,0,0,0,0,0,208, 4.1, 0.3,0,0,1024,1024,1024,1024,0,0,0,0,210.4,-27.1,0.4,92,4.233,4.226,0,0,0,0,1.397,82.4,11.4829728084,11.48294,10,Assisted_Takeoff,
101900,2022-08-12 04:43:33,0,0,11.811024,,,11.8110568084,7.545932,0,0,0,0,0,8.449,11.8110568084,11.811024,0,0,0,0,0,208, 4, 0.3,0,0,1024,1024,1024,1024,0,0,0,0,210.5,-27.1,0.4,92,4.233,4.226,0,0,0,0,1.397,82.4,11.8110568084,11.811024,10,Assisted_Takeoff,
102000,2022-08-12 04:43:33,0,0,12.467192,,,12.4672248084,7.545932,0,0,0,0,0,8.449,12.4672248084,12.467192,0,0,0,0,0,208, 4.1, 0.3,0,0,1024,1024,1024,1024,0,0,0,0,210.5,-27.1,0.3,92,4.233,4.226,0,0,0,0,1.397,82.4,12.4672248084,12.467192,10,Assisted_Takeoff,
102100,2022-08-12 04:43:33,0,0,12.795276,,,12.7953088084,7.545932,0,0,0,0,0,8.449,12.7953088084,12.795276,0,0,0,0,0,207.6, 4.1, 0.3,0,0,1024,1024,1024,1024,0,0,0,0,210.5,-27.1,0.3,92,4.233,4.226,0,0,0,0,1.397,82.4,12.7953088084,12.795276,10,Assisted_Takeoff,
102200,2022-08-12 04:43:34,0,0,13.451444,,,13.4514768084,7.545932,0,0,0,0,0,8.449,13.4514768084,13.451444,0,0,0,0,0,207.6, 4.1, 0.3,0,0,1024,1024,1684,1024,0,0,100,0,210.4,-27.1,0.3,92,4.233,4.226,0,0,0,0,1.397,82.4,13.4514768084,13.451444,10,Assisted_Takeoff,
102300,2022-08-12 04:43:34,0,0,14.107612,,,14.1076448084,7.545932,0,0,0,0,0,8.449,14.1076448084,14.107612,0,0,0,0,0,207.6, 4.1, 0.3,0,0,1024,1024,1684,1024,0,0,100,0,210.3,-27.1,0.3,92,4.233,4.226,0,0,0,0,1.397,82.4,14.1076448084,14.107612,10,Assisted_Takeoff,
102400,2022-08-12 04:43:34,0,0,14.435696,,,14.4357288084,0.328084,0,0,0,0,0,8.449,14.4357288084,14.435696,0,0,0,0,0,207.5, 4, 0.3,0,0,1024,1024,1360,1024,0,0,51,0,210.3,-27.1,0.3,92,4.233,4.226,0,0,0,0,1.397,82.4,14.4357288084,14.435696,10,Assisted_Takeoff,
102500,2022-08-12 04:43:34,0,0,15.091864,,,15.0918968084,0.328084,0,0,0,0,0,8.449,15.0918968084,15.091864,0,0,0,0,0,207.4, 2.9, 0.4,0,0,1024,1024,1024,1024,0,0,0,0,210.2,-27.1,0.2,92,4.233,4.226,0,0,0,0,1.397,82.4,15.0918968084,15.091864,10,Assisted_Takeoff,
102600,2022-08-12 04:43:34,0,0,15.419948,,,15.4199808084,0.328084,0,0,0,0,0,8.449,15.4199808084,15.419948,0,0,0,0,-0.223694,208, -1, 0,0,0,1024,1024,1060,1024,0,0,5,0,210.3,-27.1,0.2,92,4.233,4.226,0,0,0,0,1.397,82.4,15.4199808084,15.419948,10,Assisted_Takeoff,
102700,2022-08-12 04:43:34,0,0,16.076116,,,16.0761488084,0.328084,0.223694,0,0,0,0,8.411,16.0761488084,16.076116,0,0,0,0.223694,-0.223694,208.9, -1.5, -0.1,0,0,1024,1024,1684,1024,0,0,100,0,210.8,-27.1,0.2,92,4.213,4.201,0,0,0,0,1.56,82.4,16.0761488084,16.076116,10,Assisted_Takeoff,
102800,2022-08-12 04:43:34,0,0,16.4042,,,16.4042328084,0.328084,0.223694,0,0,0,0,8.411,16.4042328084,16.4042,0,0,0,0.223694,0,209.3, -0.7, 0.6,0,0,1024,1024,1684,1024,0,0,100,0,211.3,-27.1,0.2,92,4.213,4.201,0,0,0,0,1.56,82.4,16.4042328084,16.4042,38,Tripod,"Baja velocidad de la tarjeta SD. Puede afectar a su uso normal. Sustituye la tarjeta SD (Code: 10028)"
102900,2022-08-12 04:43:34,0,0,17.060368,,,17.0604008084,0.328084,0,0,0,0,0,8.411,17.0604008084,17.060368,0,0,0,0,0,209.1, 2.3, 0.4,0,0,1024,1024,1684,1024,0,0,100,0,211.3,-27.1,0.2,92,4.213,4.201,0,0,0,0,1.56,82.4,17.0604008084,17.060368,38,Tripod,
103000,2022-08-12 04:43:34,0,0,17.388452,,,17.3884848084,0.328084,0,0,0,0,0,8.411,17.3884848084,17.388452,0,0,0,0,-0.223694,208.9, -1, 1.1,0,0,1024,1024,1494,1024,0,0,71,0,211.3,-27.1,0.2,92,4.213,4.201,0,0,0,0,1.56,82.4,17.3884848084,17.388452,38,Tripod,
103100,2022-08-12 04:43:34,0,0,18.04462,,,18.0446528084,0.328084,0,0,0,0,0,8.411,18.0446528084,18.04462,0,0,0,0,-0.447388,208.8, -0.5, 0.7,0,0,1024,1024,1037,1024,0,0,2,0,211.3,-27.1,0.1,92,4.213,4.201,0,0,0,0,1.56,82.4,18.0446528084,18.04462,38,Tripod,
103200,2022-08-12 04:43:35,0,0,18.372704,,,18.3727368084,0.328084,0,0,0,0,0,8.411,18.3727368084,18.372704,0,0,0,0,-0.447388,208.8, 0, 0.4,0,0,1024,1024,1272,1024,0,0,38,0,211.3,-27.1,0.1,92,4.213,4.201,0,0,0,0,1.56,82.4,18.3727368084,18.372704,38,Tripod,
103300,2022-08-12 04:43:35,0,0,19.028872,,,19.0289048084,0.656168,0,0,0,0,0,8.411,19.0289048084,19.028872,0,0,0,0,-0.447388,209, 0.3, 0.3,0,0,1024,1024,1684,1024,0,0,100,0,211.3,-27.1,0.1,92,4.213,4.201,0,0,0,0,1.56,82.4,19.0289048084,19.028872,38,Tripod,
103400,2022-08-12 04:43:35,0,0,19.68504,,,19.6850728084,0.656168,0,0,0,0,0,8.411,19.6850728084,19.68504,0,0,0,0,-0.671082,208.8, 0.6, 0.4,0,0,1024,1024,1285,1024,0,0,40,0,211.3,-27.1,0.1,92,4.213,4.201,0,0,0,0,1.56,82.4,19.6850728084,19.68504,38,Tripod,
103500,2022-08-12 04:43:35,0,0,20.013124,,,20.0131568084,0.656168,0,0,0,0,0,8.411,20.0131568084,20.013124,0,0,0,0,-0.894776,208.9, 1.5, 0.1,0,0,1024,1024,1024,1024,0,0,0,0,211.3,-27.1,0.1,92,4.213,4.201,0,0,0,0,1.56,82.4,20.0131568084,20.013124,38,Tripod,
103600,2022-08-12 04:43:35,0,0,20.669292,,,20.6693248084,0.656168,0,0,0,0,0,8.411,20.6693248084,20.669292,0,0,0,0,-1.11847,208.9, 1.4, -0.2,0,0,1024,1024,1024,1024,0,0,0,0,211.3,-27.1,0.1,92,4.213,4.201,0,0,0,0,1.56,82.4,20.6693248084,20.669292,38,Tripod,
103700,2022-08-12 04:43:35,0,0,21.32546,,,21.3254928084,0.984252,0,0,0,0,0,8.411,21.3254928084,21.32546,0,0,0,0,-1.11847,208.8, 1.5, 0,0,0,1024,1024,1024,1024,0,0,0,0,211.3,-27.1,0.1,92,4.213,4.201,0,0,0,0,1.56,82.4,21.3254928084,21.32546,38,Tripod,
103800,2022-08-12 04:43:35,0,0,21.981628,,,21.9816608084,0.984252,0,0,0,0,0,8.349,21.9816608084,21.981628,0,0,0,0,-1.11847,208.7, 2.2, -0.4,0,0,1024,1024,1024,1024,0,0,0,0,211.3,-27.1,0.1,92,4.167,4.155,0,0,0,0,2.761,82.4,21.9816608084,21.981628,38,Tripod,
103900,2022-08-12 04:43:35,0,0,22.637796,,,22.6378288084,1.312336,0,0,0,0,0,8.349,22.6378288084,22.637796,0,0,0,0,-0.894776,208.7, 1.7, -0.4,0,0,1024,1024,1024,1024,0,0,0,0,211.3,-27.1,0.1,92,4.167,4.155,0,0,0,0,2.761,82.4,22.6378288084,22.637796,38,Tripod,
104000,2022-08-12 04:43:35,0,0,22.96588,,,22.9659128084,1.312336,0,0,0,0,0,8.349,22.9659128084,22.96588,0,0,0,0,-0.894776,208.7, 1.3, -0.2,0,0,1024,1024,1024,1024,0,0,0,0,211.3,-27.1,0.1,92,4.167,4.155,0,0,0,0,2.761,82.4,22.9659128084,22.96588,38,Tripod,
104100,2022-08-12 04:43:35,0,0,23.622048,,,23.6220808084,1.312336,0,0,0,0,0,8.349,23.6220808084,23.622048,0,0,0,0,-0.671082,208.7, 1.1, -0.2,0,0,1024,1024,1024,1024,0,0,0,0,211.3,-27.1,0.1,92,4.167,4.155,0,0,0,0,2.761,82.4,23.6220808084,23.622048,38,Tripod,
104200,2022-08-12 04:43:36,0,0,23.950132,,,23.9501648084,1.312336,0,0,0,0,0,8.349,23.9501648084,23.950132,0,0,0,0,-0.447388,208.7, 0.7, -0.2,0,0,1024,1024,1024,1024,0,0,0,0,211.3,-27.1,0.1,92,4.167,4.155,0,0,0,0,2.761,82.4,23.9501648084,23.950132,38,Tripod,
104300,2022-08-12 04:43:36,0,0,24.6063,,,24.6063328084,1.64042,0.223694,0,0,0,0,8.349,24.6063328084,24.6063,0,0,0.223694,0,-0.223694,208.7, -0.3, -0.4,0,0,1024,1024,1024,1024,0,0,0,0,211.3,-27.1,0,92,4.167,4.155,0,0,0,0,2.761,82.4,24.6063328084,24.6063,38,Tripod,
104400,2022-08-12 04:43:36,0,0,24.934384,,,24.9344168084,1.64042,0.223694,0,0,0,0,8.349,24.9344168084,24.934384,0,0,0.223694,0,-0.223694,208.6, -0.7, -0.4,0,0,1024,1024,1024,1024,0,0,0,0,211.3,-27.1,0,92,4.167,4.155,0,0,0,0,2.761,82.4,24.9344168084,24.934384,38,Tripod,
104500,2022-08-12 04:43:36,0,0,25.262468,,,25.2625008084,1.64042,0.223694,0,0,0,0,8.349,25.2625008084,25.262468,0,0,0.223694,0,0,208.7, -0.8, -0.3,0,0,1024,1024,1289,1024,0,0,40,0,211.3,-27.1,0,92,4.167,4.155,0,0,0,0,2.761,82.4,25.2625008084,25.262468,38,Tripod,
104600,2022-08-12 04:43:36,0,0,25.590552,,,25.5905848084,1.64042,0,0,0,0,0,8.349,25.5905848084,25.590552,0,0,0,0,0,208.6, -1.5, -0.6,0,0,1024,1024,1642,1024,0,0,94,0,211.3,-27.1,0,92,4.167,4.155,0,0,0,0,2.761,82.4,25.5905848084,25.590552,38,Tripod,
104700,2022-08-12 04:43:36,0,0,26.24672,,,26.2467528084,1.64042,0,0,0,0,0,8.349,26.2467528084,26.24672,0,0,0,0,0,208.6, -1.4, -0.7,0,0,1024,1024,1024,1024,0,0,0,0,211.3,-27.1,0,92,4.167,4.155,0,0,0,0,2.761,82.4,26.2467528084,26.24672,38,Tripod,
104800,2022-08-12 04:43:36,0,0,26.574804,,,26.5748368084,1.64042,0,0,0,0,0,8.334,26.5748368084,26.574804,0,0,0,0,-0.671082,208.6, -1, -0.4,0,0,1024,1024,1024,1024,0,0,0,0,211.3,-27.1,0,92,4.17,4.16,0,0,0,0,4.14,82.58,26.5748368084,26.574804,38,Tripod,
104900,2022-08-12 04:43:36,0,0,27.230972,,,27.2310048084,1.64042,0,0,0,0,0,8.334,27.2310048084,27.230972,0,0,0,0,-0.894776,208.6, -0.5, -0.3,0,0,1024,1024,1024,1024,0,0,0,0,211.3,-27.1,0,92,4.17,4.16,0,0,0,0,4.14,82.58,27.2310048084,27.230972,38,Tripod,
105000,2022-08-12 04:43:36,0,0,27.559056,,,27.5590888084,1.968504,0,0,0,0,0,8.334,27.5590888084,27.559056,0,0,0,0,-0.671082,208.6, -0.1, -0.2,0,0,1024,1024,1024,1024,0,0,0,0,211.3,-27.1,0,92,4.17,4.16,0,0,0,0,4.14,82.58,27.5590888084,27.559056,38,Tripod,
105100,2022-08-12 04:43:36,0,0,27.88714,,,27.8871728084,1.968504,0,0,0,0,0,8.334,27.8871728084,27.88714,0,0,0,0,-0.447388,208.6, -0.2, -0.4,0,0,1024,1024,1024,1024,0,0,0,0,211.3,-27.1,0,92,4.17,4.16,0,0,0,0,4.14,82.58,27.8871728084,27.88714,38,Tripod,
105200,2022-08-12 04:43:37,0,0,28.543308,,,28.5433408084,1.968504,0,0,0,0,0,8.334,28.5433408084,28.543308,0,0,0,0,-0.223694,208.6, 0, -0.2,0,0,1024,1024,1024,1024,0,0,0,0,211.3,-27.1,0,92,4.17,4.16,0,0,0,0,4.14,82.58,28.5433408084,28.543308,38,Tripod,
105300,2022-08-12 04:43:37,0,0,28.871392,,,28.8714248084,1.968504,0,0,0,0,0,8.334,28.8714248084,28.871392,0,0,0,0,0,208.6, 0, -0.3,0,0,1024,1024,1343,1024,0,0,48,0,211.3,-27.1,0,92,4.17,4.16,0,0,0,0,4.14,82.58,28.8714248084,28.871392,38,Tripod,
105400,2022-08-12 04:43:37,0,0,28.871392,,,28.8714248084,1.968504,0,0,0,0,0,8.334,28.8714248084,28.871392,0,0,0,0,0,208.7, 0, 0,0,0,1024,1024,1684,1024,0,0,100,0,211.3,-27.1,0,92,4.17,4.16,0,0,0,0,4.14,82.58,28.8714248084,28.871392,38,Tripod,
105500,2022-08-12 04:43:37,0,0,29.199476,,,29.1995088084,1.968504,0,0,0,0,0,8.334,29.1995088084,29.199476,0,0,0,0,-0.223694,208.7, 0, -0.2,0,0,1024,1024,1024,1024,0,0,0,0,211.3,-27.1,0,92,4.17,4.16,0,0,0,0,4.14,82.58,29.1995088084,29.199476,38,Tripod,
105600,2022-08-12 04:43:37,0,0,29.52756,,,29.5275928084,2.296588,0,0,0,0,0,8.334,29.5275928084,29.52756,0,0,0,0,-0.894776,208.7, 0.1, 0,0,0,1024,1024,1024,1024,0,0,0,0,211.3,-27.1,0,92,4.17,4.16,0,0,0,0,4.14,82.58,29.5275928084,29.52756,38,Tripod,
105700,2022-08-12 04:43:37,0,0,30.183728,,,30.1837608084,2.296588,0,0,0,0,0,8.334,30.1837608084,30.183728,0,0,0,0,-1.11847,208.7, -0.2, -0.2,0,0,1024,1024,1024,1024,0,0,0,0,211.3,-27.1,0,92,4.17,4.16,0,0,0,0,4.14,82.58,30.1837608084,30.183728,38,Tripod,
105800,2022-08-12 04:43:37,0,0,30.511812,,,30.5118448084,2.624672,0,0,0,0,0,8.34,30.5118448084,30.511812,0,0,0,0,-0.894776,208.7, 0.4, 0,0,0,1024,1024,1024,1024,0,0,0,0,211.3,-27.1,0,92,4.167,4.159,0,0,0,0,4.185,82.58,30.5118448084,30.511812,38,Tripod,
105900,2022-08-12 04:43:37,0,0,30.839896,,,30.8399288084,2.624672,0,0,0,0,0,8.34,30.8399288084,30.839896,0,0,0,0,-0.447388,208.7, 0.3, -0.4,0,0,1024,1024,1024,1024,0,0,0,0,211.3,-27.1,0,92,4.167,4.159,0,0,0,0,4.185,82.58,30.8399288084,30.839896,38,Tripod,
106000,2022-08-12 04:43:37,0,0,30.839896,,,30.8399288084,2.624672,0,0,0,0,0,8.34,30.8399288084,30.839896,0,0,0,0,-0.223694,208.7, 0.2, -0.3,0,0,1024,1024,1024,1024,0,0,0,0,211.3,-27.1,0,92,4.167,4.159,0,0,0,0,4.185,82.58,30.8399288084,30.839896,38,Tripod,
106100,2022-08-12 04:43:37,0,0,31.16798,,,31.1680128084,2.624672,0,0,0,0,0,8.34,31.1680128084,31.16798,0,0,0,0,0,208.7, 0.3, -0.1,0,0,1024,1024,1024,1024,0,0,0,0,211.3,-27.1,0,92,4.167,4.159,0,0,0,0,4.185,82.58,31.1680128084,31.16798,38,Tripod,
106200,2022-08-12 04:43:38,0,0,31.496064,,,31.4960968084,2.624672,0,0,0,0,0,8.34,31.4960968084,31.496064,0,0,0,0,0,208.7, 0.1, -0.1,0,0,1024,1024,1024,1024,0,0,0,0,211.3,-27.1,0,92,4.167,4.159,0,0,0,0,4.185,82.58,31.4960968084,31.496064,38,Tripod,
106300,2022-08-12 04:43:38,0,0,31.496064,,,31.4960968084,2.624672,0,0,0,0,0,8.34,31.4960968084,31.496064,0,0,0,0,0,208.7, 0.2, 0,0,0,1024,1024,1491,1024,0,0,71,0,211.3,-27.1,0,92,4.167,4.159,0,0,0,0,4.185,82.58,31.4960968084,31.496064,38,Tripod,
106400,2022-08-12 04:43:38,0,0,31.824148,,,31.8241808084,2.624672,0,0,0,0,0,8.34,31.8241808084,31.824148,0,0,0,0,0,208.7, 0.4, 0,0,0,1024,1024,1684,1024,0,0,100,0,211.3,-27.1,0,92,4.167,4.159,0,0,0,0,4.185,82.58,31.8241808084,31.824148,38,Tripod,
106500,2022-08-12 04:43:38,0,0,31.824148,,,31.8241808084,2.624672,0,0,0,0,0,8.34,31.8241808084,31.824148,0,0,0,0,-0.447388,208.8, 0.3, 0.2,0,0,1024,1024,1120,1024,0,0,15,0,211.3,-27.1,0,92,4.167,4.159,0,0,0,0,4.185,82.58,31.8241808084,31.824148,38,Tripod,
106600,2022-08-12 04:43:38,0,0,32.152232,,,32.1522648084,2.952756,0,0,0,0,0,8.34,32.1522648084,32.152232,0,0,0,0,-1.11847,208.8, 0.3, 0.2,0,0,1024,1024,1024,1024,0,0,0,0,211.3,-27.1,0,92,4.167,4.159,0,0,0,0,4.185,82.58,32.1522648084,32.152232,38,Tripod,
106700,2022-08-12 04:43:38,0,0,32.480316,,,32.4803488084,2.952756,0,0,0,0,0,8.34,32.4803488084,32.480316,0,0,0,0,-1.11847,208.7, 0.1, -0.1,0,0,1024,1024,1024,1024,0,0,0,0,211.3,-27.1,0,92,4.167,4.159,0,0,0,0,4.185,82.58,32.4803488084,32.480316,38,Tripod,
106800,2022-08-12 04:43:38,0,0,32.8084,,,32.8084328084,3.28084,0,0,0,0,0,8.32,32.8084328084,32.8084,0,0,0,0,-0.671082,208.6, 0.6, -0.3,0,0,1024,1024,1024,1024,0,0,0,0,211.3,-27.1,0,92,4.162,4.142,0,0,0,0,4.231,82.58,32.8084328084,32.8084,38,Tripod,
106900,2022-08-12 04:43:38,0,0,32.8084,,,32.8084328084,3.28084,0,0,0,0,0,8.32,32.8084328084,32.8084,0,0,0,0,-0.447388,208.6, 0.6, 0,0,0,1024,1024,1024,1024,0,0,0,0,211.3,-27.1,0,92,4.162,4.142,0,0,0,0,4.231,82.58,32.8084328084,32.8084,38,Tripod,
107000,2022-08-12 04:43:38,0,0,33.136484,,,33.1365168084,3.28084,0,0,0,0,0,8.32,33.1365168084,33.136484,0,0,0,0,-0.223694,208.6, 0.6, 0,0,0,1024,1024,1024,1024,0,0,0,0,211.3,-27.1,0,92,4.162,4.142,0,0,0,0,4.231,82.58,33.1365168084,33.136484,38,Tripod,
107100,2022-08-12 04:43:38,0,0,33.136484,,,33.1365168084,3.28084,0,0,0,0,0,8.32,33.1365168084,33.136484,0,0,0,0,0,208.7, 0.5, 0,0,0,1024,1024,1024,1024,0,0,0,0,211.3,-27.1,0,92,4.162,4.142,0,0,0,0,4.231,82.58,33.1365168084,33.136484,38,Tripod,
107200,2022-08-12 04:43:39,0,0,33.464568,,,33.4646008084,3.608924,0,0,0,0,0,8.32,33.4646008084,33.464568,0,0,0,0,0,208.6, 0.5, -0.3,0,0,1024,1024,1024,1024,0,0,0,0,211.3,-27.1,0,92,4.162,4.142,0,0,0,0,4.231,82.58,33.4646008084,33.464568,38,Tripod,
107300,2022-08-12 04:43:39,0,0,33.464568,,,33.4646008084,3.608924,0,0,0,0,0,8.32,33.4646008084,33.464568,0,0,0,0,0,208.6, 0.5, -0.5,0,0,1024,1024,1024,1024,0,0,0,0,211.3,-27.1,0,92,4.162,4.142,0,0,0,0,4.231,82.58,33.4646008084,33.464568,38,Tripod,
107400,2022-08-12 04:43:39,0,0,33.464568,,,33.4646008084,3.608924,0,0,0,0,0,8.32,33.4646008084,33.464568,0,0,0,0,0,208.6, 0.5, -0.4,0,0,1024,1024,1024,1024,0,0,0,0,211.3,-27.1,0,92,4.162,4.142,0,0,0,0,4.231,82.58,33.4646008084,33.464568,38,Tripod,
107500,2022-08-12 04:43:39,0,0,33.792652,,,33.7926848084,3.608924,0,0,0,0,0,8.32,33.7926848084,33.792652,0,0,0,0,0,208.6, 0.5, -0.3,0,0,1024,1024,1024,1024,0,0,0,0,211.3,-27.1,0,92,4.162,4.142,0,0,0,0,4.231,82.58,33.7926848084,33.792652,38,Tripod,
107600,2022-08-12 04:43:39,0,0,33.792652,,,33.7926848084,3.608924,0,0,0,0,0,8.32,33.7926848084,33.792652,0,0,0,0,0,208.6, 0.6, -0.7,0,0,1024,1024,1024,1024,0,0,0,0,211.3,-27.1,0,92,4.162,4.142,0,0,0,0,4.231,82.58,33.7926848084,33.792652,38,Tripod,
107700,2022-08-12 04:43:39,0,0,33.792652,,,33.7926848084,3.608924,0,0,0,0,0,8.32,33.7926848084,33.792652,0,0,0,0,0,208.6, 0.6, -0.6,0,0,1024,1024,1024,1024,0,0,0,0,211.3,-27.1,0,92,4.162,4.142,0,0,0,0,4.231,82.58,33.7926848084,33.792652,38,Tripod,
107800,2022-08-12 04:43:39,0,0,33.792652,,,33.7926848084,3.608924,0,0,0,0,0,8.318,33.7926848084,33.792652,0,0,0,0,0,208.6, 0.6, -0.4,0,0,1024,1024,1024,1024,0,0,0,0,211.3,-27.1,0,91,4.16,4.15,0,0,0,0,4.27,82.58,33.7926848084,33.792652,38,Tripod,
107900,2022-08-12 04:43:39,0,0,34.120736,,,34.1207688084,3.608924,0,0,0,0,0,8.318,34.1207688084,34.120736,0,0,0,0,0,208.6, 0.6, -0.3,0,0,1024,1024,1024,1024,0,0,0,0,211.3,-27.1,0,91,4.16,4.15,0,0,0,0,4.27,82.58,34.1207688084,34.120736,38,Tripod,
108000,2022-08-12 04:43:39,0,0,34.120736,,,34.1207688084,3.608924,0,0,0,0,0,8.318,34.1207688084,34.120736,0,0,0,0,0,208.7, 0.5, -0.2,0,0,1024,1024,1024,1024,0,0,0,0,211.3,-27.1,0,91,4.16,4.15,0,0,0,0,4.27,82.58,34.1207688084,34.120736,38,Tripod,
108100,2022-08-12 04:43:39,0,0,34.120736,,,34.1207688084,3.608924,0,0,0,0,0,8.318,34.1207688084,34.120736,0,0,0,0,0,208.7, 0.3, 0,0,0,1024,1024,1024,1024,0,0,0,0,211.3,-27.1,0,91,4.16,4.15,0,0,0,0,4.27,82.58,34.1207688084,34.120736,38,Tripod,
108200,2022-08-12 04:43:40,0,0,34.120736,,,34.1207688084,3.608924,0,0,0,0,0,8.318,34.1207688084,34.120736,0,0,0,0,0,208.7, 0.3, 0,0,0,1024,1024,1024,1024,0,0,0,0,211.3,-27.1,0,91,4.16,4.15,0,0,0,0,4.27,82.58,34.1207688084,34.120736,38,Tripod,
108300,2022-08-12 04:43:40,0,0,34.120736,,,34.1207688084,3.608924,0,0,0,0,0,8.318,34.1207688084,34.120736,0,0,0,0,0,208.6, 0.3, 0,0,0,1024,1024,1024,1024,0,0,0,0,211.3,-27.1,0,91,4.16,4.15,0,0,0,0,4.27,82.58,34.1207688084,34.120736,38,Tripod,
108400,2022-08-12 04:43:40,0,0,34.44882,,,34.4488528084,3.608924,0,0,0,0,0,8.318,34.4488528084,34.44882,0,0,0,0,0,208.7, 0.3, 0,0,0,1024,1024,1024,1024,0,0,0,0,211.3,-27.1,0,91,4.16,4.15,0,0,0,0,4.27,82.58,34.4488528084,34.44882,38,Tripod,
108500,2022-08-12 04:43:40,0,0,34.44882,,,34.4488528084,3.608924,0,0,0,0,0,8.318,34.4488528084,34.44882,0,0,0,0,0,208.7, 0.3, 0,0,0,1024,1024,1024,1024,0,0,0,0,211.3,-27.1,0,91,4.16,4.15,0,0,0,0,4.27,82.58,34.4488528084,34.44882,38,Tripod,
108600,2022-08-12 04:43:40,0,0,34.44882,,,34.4488528084,3.608924,0,0,0,0,0,8.318,34.4488528084,34.44882,0,0,0,0,0,208.7, 0.4, 0,0,0,1024,1024,1024,1024,0,0,0,0,211.3,-27.1,0,91,4.16,4.15,0,0,0,0,4.27,82.58,34.4488528084,34.44882,38,Tripod,
108700,2022-08-12 04:43:40,0,0,34.44882,,,34.4488528084,3.608924,0,0,0,0,0,8.318,34.4488528084,34.44882,0,0,0,0,0,208.7, 0.3, 0.2,0,0,1024,1024,1026,1024,0,0,0,0,211.3,-27.1,0,91,4.16,4.15,0,0,0,0,4.27,82.58,34.4488528084,34.44882,38,Tripod,
108800,2022-08-12 04:43:40,0,0,34.44882,,,34.4488528084,3.608924,0,0,0,0,0,8.318,34.4488528084,34.44882,0,0,0,0,0,208.7, 0.4, 0.1,0,0,1024,1024,1024,1024,0,0,0,0,211.3,-27.1,0,91,4.16,4.15,0,0,0,0,4.27,82.58,34.4488528084,34.44882,38,Tripod,
108900,2022-08-12 04:43:40,0,0,34.776904,,,34.7769368084,3.608924,0,0,0,0,0,8.307,34.7769368084,34.776904,0,0,0,0,0,208.8, 0.4, 0,0,0,1024,1024,1024,1024,0,0,0,0,211.3,-27.1,0,91,4.157,4.148,0,0,0,0,4.124,82.58,34.7769368084,34.776904,38,Tripod,
109000,2022-08-12 04:43:40,0,0,34.776904,,,34.7769368084,3.608924,0,0,0,0,0,8.307,34.7769368084,34.776904,0,0,0,0,0,208.8, 0.3, -0.1,0,0,1024,1024,1024,1024,0,0,0,0,211.3,-27.1,0,91,4.157,4.148,0,0,0,0,4.124,82.58,34.7769368084,34.776904,38,Tripod,
109100,2022-08-12 04:43:40,0,0,34.776904,,,34.7769368084,3.608924,0,0,0,0,0,8.307,34.7769368084,34.776904,0,0,0,0,0,208.8, 0.5, -0.1,0,0,1158,1024,1024,1024,20,0,0,0,211.3,-27.1,0,91,4.157,4.148,0,0,0,0,4.124,82.58,34.7769368084,34.776904,38,Tripod,
109200,2022-08-12 04:43:41,0,0,34.776904,,,34.7769368084,3.608924,0,0,0,0,0,8.307,34.7769368084,34.776904,0,0,0,0,0,208.8, 0.5, -0.1,0,0,1684,1024,1024,1024,100,0,0,0,211.3,-27.1,0,91,4.157,4.148,0,0,0,0,4.124,82.58,34.7769368084,34.776904,38,Tripod,
109300,2022-08-12 04:43:41,0,0,34.776904,,,34.7769368084,3.608924,0,0,0,0,0,8.307,34.7769368084,34.776904,0,0,0,0,0,208.7, -5.5, 0,0,0,1684,1024,1024,1024,100,0,0,0,211.3,-27.1,0,91,4.157,4.148,0,0,0,0,4.124,82.58,34.7769368084,34.776904,38,Tripod,
109400,2022-08-12 04:43:41,0,0,34.776904,,,34.7769368084,3.28084,0.223694,0,0,0,0,8.307,34.7769368084,34.776904,0,0,-0.223694,0,0,208.7, -10.3, 0,0,0,1565,1024,1024,1024,82,0,0,0,211.3,-27.1,0,91,4.157,4.148,0,0,0,0,4.124,82.58,34.7769368084,34.776904,38,Tripod,
109500,2022-08-12 04:43:41,0,0,34.776904,,,34.7769368084,3.28084,0.7158208,0,0,0,0,8.307,34.7769368084,34.776904,0,0,-0.671082,-0.223694,0,208.8, -11.8, -0.1,0,0,1170,1024,1024,1024,22,0,0,0,211.3,-27.1,0,91,4.157,4.148,0,0,0,0,4.124,82.58,34.7769368084,34.776904,38,Tripod,
109600,2022-08-12 04:43:41,0,0,35.104988,,,35.1050208084,3.28084,1.006623,0,0,0,0,8.307,35.1050208084,35.104988,0,0,-0.894776,-0.447388,0,208.8, -9.2, 0.1,0,0,1035,1024,1024,1024,2,0,0,0,211.3,-27.1,0,91,4.157,4.148,0,0,0,0,4.124,82.58,35.1050208084,35.104988,38,Tripod,
109700,2022-08-12 04:43:41,0,0,35.104988,,,35.1050208084,3.28084,1.4987498,0,0,0,0,8.307,35.1050208084,35.104988,0,0,-1.342164,-0.671082,0,208.7, -3, 0,0,0,1024,1024,1024,1024,0,0,0,0,211.3,-27.1,0,91,4.157,4.148,0,0,0,0,4.124,82.58,35.1050208084,35.104988,38,Tripod,
109800,2022-08-12 04:43:41,0,0,35.104988,,,35.1050208084,3.28084,1.4987498,0,0,0,0,8.307,35.1050208084,35.104988,0,0,-1.342164,-0.671082,0,208.6, 1.8, -0.1,0,0,1024,1024,1024,1024,0,0,0,0,211.3,-27.1,0,91,4.157,4.148,0,0,0,0,4.124,82.58,35.1050208084,35.104988,38,Tripod,
109900,2022-08-12 04:43:41,0,0,35.104988,,,35.1050208084,3.28084,1.2079476,0,0,0,0,8.3,35.1050208084,35.104988,0,0,-1.11847,-0.447388,0,208.6, 6.2, -0.1,0,0,1024,1024,1024,1024,0,0,0,0,211.3,-27.1,0,91,4.152,4.144,0,0,0,0,4.146,82.76,35.1050208084,35.104988,38,Tripod,
110000,2022-08-12 04:43:41,0,0,35.104988,,,35.1050208084,3.28084,1.006623,0,0,0,0,8.3,35.1050208084,35.104988,0,0,-0.894776,-0.447388,0,208.7, 6.7, 0,0,0,1024,1024,1024,1024,0,0,0,0,211.3,-27.1,0,91,4.152,4.144,0,0,0,0,4.146,82.76,35.1050208084,35.104988,38,Tripod,
110100,2022-08-12 04:43:41,0,0,35.104988,,,35.1050208084,3.28084,0.7158208,0,0,0,0,8.3,35.1050208084,35.104988,0,0,-0.671082,-0.223694,0,208.7, 6, 0.2,0,0,1024,1024,1024,1024,0,0,0,0,211.3,-27.1,0,91,4.152,4.144,0,0,0,0,4.146,82.76,35.1050208084,35.104988,38,Tripod,
110200,2022-08-12 04:43:42,0,0,35.104988,,,35.1050208084,3.28084,0.4921268,0,0,0,0,8.3,35.1050208084,35.104988,0,0,-0.447388,-0.223694,0,208.7, 4.8, 0.3,0,0,1024,1024,1024,1024,0,0,0,0,211.3,-27.1,0,91,4.152,4.144,0,0,0,0,4.146,82.76,35.1050208084,35.104988,38,Tripod,
110300,2022-08-12 04:43:42,0,0,35.104988,,,35.1050208084,3.28084,0.223694,0,0,0,0,8.3,35.1050208084,35.104988,0,0,-0.223694,0,0,208.7, 3.7, 0.4,0,0,1024,1024,1024,1024,0,0,0,0,211.3,-27.1,0,91,4.152,4.144,0,0,0,0,4.146,82.76,35.1050208084,35.104988,38,Tripod,
110400,2022-08-12 04:43:42,0,0,35.104988,,,35.1050208084,3.28084,0.223694,0,0,0,0,8.3,35.1050208084,35.104988,0,0,-0.223694,0,0,208.6, 2.8, 0.4,0,0,1024,1024,1024,1024,0,0,0,0,211.3,-27.1,0,91,4.152,4.144,0,0,0,0,4.146,82.76,35.1050208084,35.104988,38,Tripod,
110500,2022-08-12 04:43:42,0,0,35.104988,,,35.1050208084,3.28084,0,0,0,0,0,8.3,35.1050208084,35.104988,0,0,0,0,0,208.7, 2.1, 0.2,0,0,1024,1024,1024,1024,0,0,0,0,211.3,-27.1,0,91,4.152,4.144,0,0,0,0,4.146,82.76,35.1050208084,35.104988,38,Tripod,
110600,2022-08-12 04:43:42,0,0,35.104988,,,35.1050208084,3.28084,0,0,0,0,0,8.3,35.1050208084,35.104988,0,0,0,0,0,208.7, 1.5, 0.1,0,0,1024,1024,1024,1024,0,0,0,0,211.3,-27.1,0,91,4.152,4.144,0,0,0,0,4.146,82.76,35.1050208084,35.104988,38,Tripod,
110700,2022-08-12 04:43:42,0,0,35.433072,,,35.4331048084,3.28084,0,0,0,0,0,8.3,35.4331048084,35.433072,0,0,0,0,0,208.7, 1.4, 0.1,0,0,1024,902,1024,1024,0,-18,0,0,211.3,-27.1,0,91,4.152,4.144,0,0,0,0,4.146,82.76,35.4331048084,35.433072,38,Tripod,
110800,2022-08-12 04:43:42,0,0,35.433072,,,35.4331048084,3.28084,0,0,0,0,0,8.3,35.4331048084,35.433072,0,0,0,0,0,208.6, 1.5, 0,0,0,1024,364,1024,1024,0,-100,0,0,211.3,-27.1,0,91,4.152,4.144,0,0,0,0,4.146,82.76,35.4331048084,35.433072,38,Tripod,
110900,2022-08-12 04:43:42,0,0,35.433072,,,35.4331048084,3.28084,0,0,0,0,0,8.295,35.4331048084,35.433072,0,0,0,0,0,208.6, 1.1, -1.3,0,0,1024,364,1024,1024,0,-100,0,0,211.3,-27.1,0,91,4.153,4.144,0,0,0,0,4.252,82.76,35.4331048084,35.433072,38,Tripod,
111000,2022-08-12 04:43:42,0,0,35.433072,,,35.4331048084,3.28084,0,0,0,0,0,8.295,35.4331048084,35.433072,0,0,0,0,0,208.3, 0.9, -8.8,0,0,1024,364,1024,1024,0,-100,0,0,211.3,-27.1,0,91,4.153,4.144,0,0,0,0,4.252,82.76,35.4331048084,35.433072,38,Tripod,
111100,2022-08-12 04:43:42,0,0,35.433072,,,35.4331048084,3.28084,0.4921268,0,0,0,0,8.295,35.4331048084,35.433072,0,0,-0.223694,0.447388,0,208.4, 0.8, -11.7,0,0,1024,1024,1024,1024,0,0,0,0,211.3,-27.1,0,91,4.153,4.144,0,0,0,0,4.252,82.76,35.4331048084,35.433072,38,Tripod,
111200,2022-08-12 04:43:43,0,0,35.433072,,,35.4331048084,3.28084,0.8052984,0,0,0,0,8.295,35.4331048084,35.433072,0,0,-0.447388,0.671082,0,208.5, 0.5, -7.9,0,0,1024,1024,1024,1024,0,0,0,0,211.3,-27.1,0,91,4.153,4.144,0,0,0,0,4.252,82.76,35.4331048084,35.433072,38,Tripod,
111300,2022-08-12 04:43:43,0,0,35.433072,,,35.4331048084,3.28084,1.006623,0,0,0,0,8.295,35.4331048084,35.433072,0,0,-0.447388,0.894776,0,209, 0.3, 3.4,0,0,1024,1024,1024,1024,0,0,0,0,211.3,-27.1,0,91,4.153,4.144,0,0,0,0,4.252,82.76,35.4331048084,35.433072,38,Tripod,
111400,2022-08-12 04:43:43,0,0,35.433072,,,35.4331048084,3.28084,0.8052984,0,0,0,0,8.295,35.4331048084,35.433072,0,0,-0.447388,0.671082,0,208.7, 0.2, 5.3,0,0,1024,1024,1024,1024,0,0,0,0,211.3,-27.1,0,91,4.153,4.144,0,0,0,0,4.252,82.76,35.4331048084,35.433072,38,Tripod,
111500,2022-08-12 04:43:43,0,0,35.433072,,,35.4331048084,3.28084,0.4921268,0,0,0,0,8.295,35.4331048084,35.433072,0,0,-0.223694,0.447388,0,208.6, 0.4, 4.7,0,0,1024,1024,1024,1024,0,0,0,0,211.3,-27.1,0,91,4.153,4.144,0,0,0,0,4.252,82.76,35.4331048084,35.433072,38,Tripod,
111600,2022-08-12 04:43:43,0,0,35.433072,,,35.4331048084,3.28084,0.4921268,0,0,0,0,8.295,35.4331048084,35.433072,0,0,-0.223694,0.447388,0,208.5, 0.2, 3.8,0,0,1024,1567,1024,1024,0,82,0,0,211.3,-27.1,0,91,4.153,4.144,0,0,0,0,4.252,82.76,35.4331048084,35.433072,38,Tripod,
111700,2022-08-12 04:43:43,0,0,35.433072,,,35.4331048084,3.28084,0.223694,0,0,0,0,8.295,35.4331048084,35.433072,0,0,0,0.223694,0,208.5, 0.2, 3.2,0,0,1024,1684,1024,1024,0,100,0,0,211.3,-27.1,0,91,4.153,4.144,0,0,0,0,4.252,82.76,35.4331048084,35.433072,38,Tripod,
111800,2022-08-12 04:43:43,0,0,35.433072,,,35.4331048084,3.28084,0.223694,0,0,0,0,8.295,35.4331048084,35.433072,0,0,0,0.223694,0,208.6, 0.1, 7.1,0,0,1024,1083,1024,1024,0,9,0,0,211.3,-27.1,0,91,4.153,4.144,0,0,0,0,4.252,82.76,35.4331048084,35.433072,38,Tripod,
111900,2022-08-12 04:43:43,0,0,35.433072,,,35.4331048084,3.28084,0,0,0,0,0,8.288,35.4331048084,35.433072,0,0,0,0,0,208.8, 0, 12.2,0,0,1024,1024,1024,1024,0,0,0,0,211.3,-27.1,0,91,4.15,4.14,0,0,0,0,4.253,82.76,35.4331048084,35.433072,38,Tripod,
112000,2022-08-12 04:43:43,0,0,35.433072,,,35.4331048084,3.28084,0.3131716,0,0,0,0,8.288,35.4331048084,35.433072,0,0,0.223694,-0.223694,0,208.6, 0.1, 8.6,0,0,1024,1024,1024,1024,0,0,0,0,211.3,-27.1,0,91,4.15,4.14,0,0,0,0,4.253,82.76,35.4331048084,35.433072,38,Tripod,
112100,2022-08-12 04:43:43,0,0,35.433072,,,35.4331048084,3.28084,0.4921268,0,0,0,0,8.288,35.4331048084,35.433072,0,0,0.223694,-0.447388,0,208.2, 0.2, -1.1,0,0,1024,1024,1024,1024,0,0,0,0,211.3,-27.1,0,91,4.15,4.14,0,0,0,0,4.253,82.76,35.4331048084,35.433072,38,Tripod,
112200,2022-08-12 04:43:44,0,0,35.433072,,,35.4331048084,3.28084,0.4921268,0,0,0,0,8.288,35.4331048084,35.433072,0,0,0.223694,-0.447388,0,208.4, 0.4, -2.6,0,0,1024,698,1024,1024,0,-49,0,0,211.3,-27.1,0,91,4.15,4.14,0,0,0,0,4.253,82.76,35.4331048084,35.433072,38,Tripod,
112300,2022-08-12 04:43:44,0,0,35.433072,,,35.4331048084,3.28084,0.3131716,0,0,0,0,8.288,35.4331048084,35.433072,0,0,0.223694,-0.223694,0,208.6, 0.5, -2.3,0,0,1024,364,1024,1024,0,-100,0,0,211.3,-27.1,0,91,4.15,4.14,0,0,0,0,4.253,82.76,35.4331048084,35.433072,38,Tripod,
112400,2022-08-12 04:43:44,0,0,35.433072,,,35.4331048084,3.28084,0.223694,0,0,0,0,8.288,35.4331048084,35.433072,0,0,0,-0.223694,0,208.5, 0.4, -7.9,0,0,1024,808,1024,1024,0,-33,0,0,211.3,-27.1,0,91,4.15,4.14,0,0,0,0,4.253,82.76,35.4331048084,35.433072,38,Tripod,
112500,2022-08-12 04:43:44,0,0,35.433072,,,35.4331048084,3.28084,0,0,0,0,0,8.288,35.4331048084,35.433072,0,0,0,0,0,208.4, 0.3, -11.6,0,0,1024,1024,1024,1024,0,0,0,0,211.3,-27.1,0,91,4.15,4.14,0,0,0,0,4.253,82.76,35.4331048084,35.433072,38,Tripod,
112600,2022-08-12 04:43:44,0,0,35.433072,,,35.4331048084,3.28084,0.223694,0,0,0,0,8.288,35.4331048084,35.433072,0,0,0,0.223694,0,208.6, 0.1, -4.9,0,0,1024,1024,1024,1024,0,0,0,0,211.3,-27.1,0,91,4.15,4.14,0,0,0,0,4.253,82.76,35.4331048084,35.433072,38,Tripod,
112700,2022-08-12 04:43:44,0,0,35.433072,,,35.4331048084,3.28084,0.447388,0,0,0,0,8.288,35.4331048084,35.433072,0,0,0,0.447388,0,209, 0.1, 2,0,0,1024,1024,1024,1024,0,0,0,0,211.3,-27.1,0,91,4.15,4.14,0,0,0,0,4.253,82.76,35.4331048084,35.433072,38,Tripod,
112800,2022-08-12 04:43:44,0,0,35.433072,,,35.4331048084,3.28084,0.447388,0,0,0,0,8.288,35.4331048084,35.433072,0,0,0,0.447388,0,208.9, 0.4, 3.2,0,0,1024,1114,1024,1024,0,14,0,0,211.3,-27.1,0,91,4.15,4.14,0,0,0,0,4.253,82.76,35.4331048084,35.433072,38,Tripod,
112900,2022-08-12 04:43:44,0,0,35.433072,,,35.4331048084,3.28084,0.223694,0,0,0,0,8.291,35.4331048084,35.433072,0,0,0,0.223694,0,208.7, 0, 2.6,0,0,1024,1114,1024,1024,0,14,0,0,211.3,-27.1,0,91,4.148,4.138,0,0,0,0,4.226,82.94,35.4331048084,35.433072,38,Tripod,
113000,2022-08-12 04:43:44,0,0,35.104988,,,35.1050208084,3.28084,0.223694,0,0,0,0,8.291,35.4331048084,35.433072,0,0,0,0.223694,0,208.6, 0, 2.4,0,0,1024,1451,1024,1024,0,65,0,0,211.3,-27.1,0,91,4.148,4.138,0,0,0,0,4.226,82.94,35.1050208084,35.104988,38,Tripod,
113100,2022-08-12 04:43:44,0,0,35.104988,,,35.1050208084,3.28084,0,0,0,0,0,8.291,35.4331048084,35.433072,0,0,0,0,0,208.6, -0.1, 5.4,0,0,1024,1024,1024,1024,0,0,0,0,211.3,-27.1,0,91,4.148,4.138,0,0,0,0,4.226,82.94,35.1050208084,35.104988,38,Tripod,
113200,2022-08-12 04:43:45,0,0,35.104988,,,35.1050208084,3.28084,0,0,0,0,0,8.291,35.4331048084,35.433072,0,0,0,0,0,208.7, 0, 3.3,0,0,1024,1024,1024,1024,0,0,0,0,211.3,-27.1,0,91,4.148,4.138,0,0,0,0,4.226,82.94,35.1050208084,35.104988,38,Tripod,
113300,2022-08-12 04:43:45,0,0,35.104988,,,35.1050208084,3.28084,0,0,0,0,0,8.291,35.4331048084,35.433072,0,0,0,0,0,208.5, 0, 0.1,0,0,1024,1024,1024,1024,0,0,0,0,211.3,-27.1,0,91,4.148,4.138,0,0,0,0,4.226,82.94,35.1050208084,35.104988,38,Tripod,
113400,2022-08-12 04:43:45,0,0,35.104988,,,35.1050208084,3.28084,0,0,0,0,0,8.291,35.4331048084,35.433072,0,0,0,0,0,208.6, 0, 0,0,0,1024,1024,1024,1024,0,0,0,0,211.3,-27.1,0,91,4.148,4.138,0,0,0,0,4.226,82.94,35.1050208084,35.104988,38,Tripod,
113500,2022-08-12 04:43:45,0,0,35.104988,,,35.1050208084,3.28084,0,0,0,0,0,8.291,35.4331048084,35.433072,0,0,0,0,0,208.6, 0.2, -0.3,0,0,1024,1024,1024,1024,0,0,0,0,211.3,-27.1,0,91,4.148,4.138,0,0,0,0,4.226,82.94,35.1050208084,35.104988,38,Tripod,
113600,2022-08-12 04:43:45,0,0,35.104988,,,35.1050208084,3.28084,0,0,0,0,0,8.291,35.4331048084,35.433072,0,0,0,0,0,208.6, 0.3, -0.3,0,0,1024,1024,1024,1024,0,0,0,0,211.3,-27.1,0,91,4.148,4.138,0,0,0,0,4.226,82.94,35.1050208084,35.104988,38,Tripod,
113700,2022-08-12 04:43:45,0,0,35.104988,,,35.1050208084,3.28084,0,0,0,0,0,8.291,35.4331048084,35.433072,0,0,0,0,0,208.7, 0.2, -0.1,0,0,1060,1024,1024,1024,5,0,0,0,211.3,-27.1,0,91,4.148,4.138,0,0,0,0,4.226,82.94,35.1050208084,35.104988,38,Tripod,
113800,2022-08-12 04:43:45,0,0,35.104988,,,35.1050208084,3.28084,0,0,0,0,0,8.291,35.4331048084,35.433072,0,0,0,0,0,208.6, 0.1, -0.4,0,0,1560,1024,1024,1024,81,0,0,0,211.3,-27.1,0,91,4.148,4.138,0,0,0,0,4.226,82.94,35.1050208084,35.104988,38,Tripod,
113900,2022-08-12 04:43:45,0,0,35.104988,,,35.1050208084,3.28084,0,0,0,0,0,8.291,35.4331048084,35.433072,0,0,0,0,0,208.6, 0, -0.2,0,0,1359,1024,1024,1024,51,0,0,0,211.3,-27.1,0,91,4.148,4.138,0,0,0,0,4.226,82.94,35.1050208084,35.104988,38,Tripod,
114000,2022-08-12 04:43:45,0,0,35.104988,,,35.1050208084,3.28084,0,0,0,0,0,8.286,35.4331048084,35.433072,0,0,0,0,0,208.7, -4.7, 0.2,0,0,1359,1024,1024,1024,51,0,0,0,211.3,-27.1,0,91,4.149,4.139,0,0,0,0,4.259,82.94,35.1050208084,35.104988,38,Tripod,
114100,2022-08-12 04:43:45,0,0,35.104988,,,35.1050208084,3.28084,0,0,0,0,0,8.286,35.4331048084,35.433072,0,0,0,0,0,208.6, -7.4, 0.3,0,0,1024,1024,1024,1024,0,0,0,0,211.3,-27.1,0,91,4.149,4.139,0,0,0,0,4.259,82.94,35.1050208084,35.104988,38,Tripod,
114200,2022-08-12 04:43:46,0,0,35.104988,,,35.1050208084,3.28084,0.3131716,0,0,0,0,8.286,35.4331048084,35.433072,0,0,-0.223694,-0.223694,0,208.6, 0.9, 0.6,0,0,1024,1024,1024,1024,0,0,0,0,211.3,-27.1,0,91,4.149,4.139,0,0,0,0,4.259,82.94,35.1050208084,35.104988,38,Tripod,
114300,2022-08-12 04:43:46,0,0,35.104988,,,35.1050208084,3.28084,0.3131716,0,0,0,0,8.286,35.4331048084,35.433072,0,0,-0.223694,-0.223694,0,208.6, 2.4, 0.5,0,0,1024,1024,1024,1024,0,0,0,0,211.3,-27.1,0,91,4.149,4.139,0,0,0,0,4.259,82.94,35.1050208084,35.104988,38,Tripod,
114400,2022-08-12 04:43:46,0,0,34.776904,,,34.7769368084,3.28084,0,0,0,0,0,8.286,35.4331048084,35.433072,0,0,0,0,0,208.7, 2.3, 0.3,0,0,1024,1024,1024,1024,0,0,0,0,211.3,-27.1,0,91,4.149,4.139,0,0,0,0,4.259,82.94,34.7769368084,34.776904,38,Tripod,
114500,2022-08-12 04:43:46,0,0,34.776904,,,34.7769368084,3.28084,0,0,0,0,0,8.286,35.4331048084,35.433072,0,0,0,0,0,208.6, 2, 0,0,0,1024,1024,1024,1024,0,0,0,0,211.3,-27.1,0,91,4.149,4.139,0,0,0,0,4.259,82.94,34.7769368084,34.776904,38,Tripod,
114600,2022-08-12 04:43:46,0,0,34.776904,,,34.7769368084,3.28084,0,0,0,0,0,8.286,35.4331048084,35.433072,0,0,0,0,0,208.6, 1.5, 0,0,0,1024,480,1024,1024,0,-82,0,0,211.3,-27.1,0,91,4.149,4.139,0,0,0,0,4.259,82.94,34.7769368084,34.776904,38,Tripod,
114700,2022-08-12 04:43:46,0,0,34.776904,,,34.7769368084,3.28084,0,0,0,0,0,8.286,35.4331048084,35.433072,0,0,0,0,0,208.6, 1.6, -0.1,0,0,1024,364,1024,1024,0,-100,0,0,211.3,-27.1,0,91,4.149,4.139,0,0,0,0,4.259,82.94,34.7769368084,34.776904,38,Tripod,
114800,2022-08-12 04:43:46,0,0,34.776904,,,34.7769368084,3.28084,0,0,0,0,0,8.286,35.4331048084,35.433072,0,0,0,0,0,208.5, 0.9, -6,0,0,1024,1024,1024,1024,0,0,0,0,211.3,-27.1,0,91,4.149,4.139,0,0,0,0,4.259,82.94,34.7769368084,34.776904,38,Tripod,
114900,2022-08-12 04:43:46,0,0,34.776904,,,34.7769368084,3.28084,0.223694,0,0,0,0,8.286,35.4331048084,35.433072,0,0,0,0.223694,0,208.3, 0.7, -11,0,0,1024,1024,1024,1024,0,0,0,0,211.3,-27.1,0,91,4.149,4.139,0,0,0,0,4.259,82.94,34.7769368084,34.776904,38,Tripod,
115000,2022-08-12 04:43:46,0,0,34.776904,,,34.7769368084,3.28084,0.4921268,0,0,0,0,8.269,35.4331048084,35.433072,0,0,-0.223694,0.447388,0,208.6, 0.2, -5,0,0,1024,1024,1024,1024,0,0,0,0,211.3,-27.1,0,91,4.147,4.137,0,0,0,0,4.24,82.94,34.7769368084,34.776904,38,Tripod,
115100,2022-08-12 04:43:46,0,0,34.776904,,,34.7769368084,3.28084,0.7158208,0,0,0,0,8.269,35.4331048084,35.433072,0,0,-0.223694,0.671082,0,208.9, 0, 3.2,0,0,1024,1024,1024,1024,0,0,0,0,211.3,-27.1,0,91,4.147,4.137,0,0,0,0,4.24,82.94,34.7769368084,34.776904,38,Tripod,
115200,2022-08-12 04:43:47,0,0,34.776904,,,34.7769368084,3.28084,0.4921268,0,0,0,0,8.269,35.4331048084,35.433072,0,0,-0.223694,0.447388,0,208.7, -0.2, 4.3,0,0,1024,1024,1024,1024,0,0,0,0,211.3,-27.1,0,91,4.147,4.137,0,0,0,0,4.24,82.94,34.7769368084,34.776904,38,Tripod,
115300,2022-08-12 04:43:47,0,0,34.776904,,,34.7769368084,3.28084,0.223694,0,0,0,0,8.269,35.4331048084,35.433072,0,0,0,0.223694,0,208.7, 0.3, 3.4,0,0,1024,1024,1024,1024,0,0,0,0,211.3,-27.1,0,91,4.147,4.137,0,0,0,0,4.24,82.94,34.7769368084,34.776904,38,Tripod,
115400,2022-08-12 04:43:47,0,0,34.776904,,,34.7769368084,3.28084,0.223694,0,0,0,0,8.269,35.4331048084,35.433072,0,0,0,0.223694,0,208.7, 0.2, 2.8,0,0,1024,1684,1024,1024,0,100,0,0,211.3,-27.1,0,91,4.147,4.137,0,0,0,0,4.24,82.94,34.7769368084,34.776904,38,Tripod,
115500,2022-08-12 04:43:47,0,0,34.44882,,,34.4488528084,3.28084,0,0,0,0,0,8.269,35.4331048084,35.433072,0,0,0,0,0,208.7, 0, 3.8,0,0,1024,1024,1024,1024,0,0,0,0,211.3,-27.1,0,91,4.147,4.137,0,0,0,0,4.24,82.94,34.4488528084,34.44882,38,Tripod,
115600,2022-08-12 04:43:47,0,0,34.44882,,,34.4488528084,3.28084,0,0,0,0,0,8.269,35.4331048084,35.433072,0,0,0,0,0,209, 0, 9.5,0,0,1024,1024,1024,1024,0,0,0,0,211.3,-27.1,0,91,4.147,4.137,0,0,0,0,4.24,82.94,34.4488528084,34.44882,38,Tripod,
115700,2022-08-12 04:43:47,0,0,34.44882,,,34.4488528084,3.28084,0.223694,0,0,0,0,8.269,35.4331048084,35.433072,0,0,0,-0.223694,0,208.6, -0.1, 0.1,0,0,1024,1024,1024,1024,0,0,0,0,211.3,-27.1,0,91,4.147,4.137,0,0,0,0,4.24,82.94,34.4488528084,34.44882,38,Tripod,
115800,2022-08-12 04:43:47,0,0,34.44882,,,34.4488528084,3.28084,0.223694,0,0,0,0,8.269,35.4331048084,35.433072,0,0,0,-0.223694,0,208.7, 0, -1,0,0,1024,697,1024,1024,0,-50,0,0,211.3,-27.1,0,91,4.147,4.137,0,0,0,0,4.24,82.94,34.4488528084,34.44882,38,Tripod,
115900,2022-08-12 04:43:47,0,0,34.44882,,,34.4488528084,3.28084,0.223694,0,0,0,0,8.269,35.4331048084,35.433072,0,0,0,-0.223694,0,208.8, 0, -1.2,0,0,1024,697,1024,1024,0,-50,0,0,211.3,-27.1,0,91,4.147,4.137,0,0,0,0,4.24,82.94,34.4488528084,34.44882,38,Tripod,
116000,2022-08-12 04:43:47,0,0,34.44882,,,34.4488528084,3.28084,0,0,0,0,0,8.279,35.4331048084,35.433072,0,0,0,0,0,208.8, 0.2, -2.5,0,0,1024,364,1024,1024,0,-100,0,0,211.3,-27.1,0,91,4.132,4.138,0,0,0,0,4.275,82.94,34.4488528084,34.44882,38,Tripod,
116100,2022-08-12 04:43:47,0,0,34.44882,,,34.4488528084,3.28084,0,0,0,0,0,8.279,35.4331048084,35.433072,0,0,0,0,0,208.5, 0.4, -10,0,0,1024,1024,1024,1024,0,0,0,0,211.3,-27.1,0,91,4.132,4.138,0,0,0,0,4.275,82.94,34.4488528084,34.44882,38,Tripod,
116200,2022-08-12 04:43:48,0,0,34.44882,,,34.4488528084,3.28084,0.223694,0,0,0,0,8.279,35.4331048084,35.433072,0,0,0,0.223694,0,208.7, 0.2, -3.3,0,0,1024,1024,1024,1024,0,0,0,0,211.3,-27.1,0,91,4.132,4.138,0,0,0,0,4.275,82.94,34.4488528084,34.44882,38,Tripod,
116300,2022-08-12 04:43:48,0,0,34.44882,,,34.4488528084,3.28084,0.223694,0,0,0,0,8.279,35.4331048084,35.433072,0,0,0,0.223694,0,208.9, 0, 1.7,0,0,1024,1024,1024,1024,0,0,0,0,211.3,-27.1,0,91,4.132,4.138,0,0,0,0,4.275,82.94,34.4488528084,34.44882,38,Tripod,
116400,2022-08-12 04:43:48,0,0,34.44882,,,34.4488528084,3.28084,0.223694,0,0,0,0,8.279,35.4331048084,35.433072,0,0,0,0.223694,0,208.8, 0.4, 2.2,0,0,1024,1024,1024,1024,0,0,0,0,211.3,-27.1,0,91,4.132,4.138,0,0,0,0,4.275,82.94,34.4488528084,34.44882,38,Tripod,
116500,2022-08-12 04:43:48,0,0,34.120736,,,34.1207688084,3.28084,0.223694,0,0,0,0,8.279,35.4331048084,35.433072,0,0,0,0.223694,0,208.6, 0.5, 2.2,0,0,1024,1024,1024,1024,0,0,0,0,211.3,-27.1,0,91,4.132,4.138,0,0,0,0,4.275,82.94,34.1207688084,34.120736,38,Tripod,
116600,2022-08-12 04:43:48,0,0,34.120736,,,34.1207688084,3.28084,0,0,0,0,0,8.279,35.4331048084,35.433072,0,0,0,0,0,208.6, 0.5, 2,0,0,1024,1024,1024,1024,0,0,0,0,211.3,-27.1,0,91,4.132,4.138,0,0,0,0,4.275,82.94,34.1207688084,34.120736,38,Tripod,
116700,2022-08-12 04:43:48,0,0,34.120736,,,34.1207688084,3.28084,0,0,0,0,0,8.279,35.4331048084,35.433072,0,0,0,0,0,208.6, 0.1, 2.3,0,0,1024,1024,1024,1024,0,0,0,0,211.3,-27.1,0,91,4.132,4.138,0,0,0,0,4.275,82.94,34.1207688084,34.120736,38,Tripod,
116800,2022-08-12 04:43:48,0,0,34.120736,,,34.1207688084,3.28084,0,0,0,0,0,8.279,35.4331048084,35.433072,0,0,0,0,0,208.6, 0.1, 1.6,0,0,1024,1024,650,1024,0,0,-57,0,211.3,-27.1,0,91,4.132,4.138,0,0,0,0,4.275,82.94,34.1207688084,34.120736,38,Tripod,
116900,2022-08-12 04:43:48,0,0,34.120736,,,34.1207688084,3.28084,0,0,0,0,0,8.279,35.4331048084,35.433072,0,0,0,0,0,208.6, 0.1, 0.9,0,0,1024,1024,364,1015,0,0,-100,-1,211.3,-27.1,0,91,4.132,4.138,0,0,0,0,4.275,82.94,34.1207688084,34.120736,38,Tripod,
117000,2022-08-12 04:43:48,0,0,34.120736,,,34.1207688084,3.28084,0,0,0,0,0,8.272,35.4331048084,35.433072,0,0,0,0,0,208.6, 0.1, 0.3,0,0,1024,1024,364,1015,0,0,-100,-1,211.3,-27.1,0,91,4.144,4.135,0,0,0,0,4.271,82.94,34.1207688084,34.120736,38,Tripod,
117100,2022-08-12 04:43:48,0,0,34.120736,,,34.1207688084,3.28084,0,0,0,0,0,8.272,35.4331048084,35.433072,0,0,0,0,0.223694,208.6, 0.1, 0.2,0,0,1024,1024,364,1024,0,0,-100,0,211.3,-27.1,0,91,4.144,4.135,0,0,0,0,4.271,82.94,34.1207688084,34.120736,38,Tripod,
117200,2022-08-12 04:43:49,0,0,33.792652,,,33.7926848084,3.28084,0,0,0,0,0,8.272,35.4331048084,35.433072,0,0,0,0,0.447388,208.6, 0, 0,0,0,1024,1024,1024,1024,0,0,0,0,211.3,-27.1,0,91,4.144,4.135,0,0,0,0,4.271,82.94,33.7926848084,33.792652,38,Tripod,
117300,2022-08-12 04:43:49,0,0,33.792652,,,33.7926848084,3.28084,0,0,0,0,0,8.272,35.4331048084,35.433072,0,0,0,0,0.447388,208.6, 0, 0,0,0,1024,1024,1024,1024,0,0,0,0,211.3,-27.1,0,91,4.144,4.135,0,0,0,0,4.271,82.94,33.7926848084,33.792652,38,Tripod,
117400,2022-08-12 04:43:49,0,0,33.792652,,,33.7926848084,2.952756,0,0,0,0,0,8.272,35.4331048084,35.433072,0,0,0,0,0.223694,208.6, -0.4, 0,0,0,1024,1024,984,1024,0,0,-6,0,211.3,-27.1,0,91,4.144,4.135,0,0,0,0,4.271,82.94,33.7926848084,33.792652,38,Tripod,
117500,2022-08-12 04:43:49,0,0,33.464568,,,33.4646008084,2.952756,0,0,0,0,0,8.272,35.4331048084,35.433072,0,0,0,0,0.223694,208.6, -0.2, 0.1,0,0,1024,1024,364,1024,0,0,-100,0,211.3,-27.1,0,91,4.144,4.135,0,0,0,0,4.271,82.94,33.4646008084,33.464568,38,Tripod,
117600,2022-08-12 04:43:49,0,0,33.464568,,,33.4646008084,2.952756,0,0,0,0,0,8.272,35.4331048084,35.433072,0,0,0,0,0,208.6, 0.3, -0.3,0,0,1024,1024,364,1024,0,0,-100,0,211.3,-27.1,0,91,4.144,4.135,0,0,0,0,4.271,82.94,33.4646008084,33.464568,38,Tripod,
117700,2022-08-12 04:43:49,0,0,33.464568,,,33.4646008084,2.952756,0,0,0,0,0,8.272,35.4331048084,35.433072,0,0,0,0,0.223694,208.6, 0.5, -0.2,0,0,1024,1024,964,1024,0,0,-9,0,211.3,-27.1,0,91,4.144,4.135,0,0,0,0,4.271,82.94,33.4646008084,33.464568,38,Tripod,
117800,2022-08-12 04:43:49,0,0,33.464568,,,33.4646008084,2.952756,0,0,0,0,0,8.272,35.4331048084,35.433072,0,0,0,0,0.447388,208.7, 0.1, -0.1,0,0,1024,1024,1024,1024,0,0,0,0,211.3,-27.1,0,91,4.144,4.135,0,0,0,0,4.271,82.94,33.4646008084,33.464568,38,Tripod,
117900,2022-08-12 04:43:49,0,0,33.136484,,,33.1365168084,2.952756,0,0,0,0,0,8.272,35.4331048084,35.433072,0,0,0,0,0.447388,208.6, 0.1, -0.2,0,0,1024,1024,1024,1024,0,0,0,0,211.3,-27.1,0,91,4.144,4.135,0,0,0,0,4.271,82.94,33.1365168084,33.136484,38,Tripod,
118000,2022-08-12 04:43:49,0,0,33.136484,,,33.1365168084,2.624672,0,0,0,0,0,8.294,35.4331048084,35.433072,0,0,0,0,0.223694,208.6, 0, -0.8,0,0,1024,1024,1024,1024,0,0,0,0,211.3,-27.1,0,91,4.145,4.137,0,0,0,0,4.133,83.12,33.1365168084,33.136484,38,Tripod,
118100,2022-08-12 04:43:49,0,0,33.136484,,,33.1365168084,2.624672,0,0,0,0,0,8.294,35.4331048084,35.433072,0,0,0,0,0.223694,208.6, -0.4, -0.1,0,0,1024,364,1024,1024,0,-100,0,0,211.3,-27.1,0,91,4.145,4.137,0,0,0,0,4.133,83.12,33.1365168084,33.136484,38,Tripod,
118200,2022-08-12 04:43:50,0,0,33.136484,,,33.1365168084,2.624672,0,0,0,0,0,8.294,35.4331048084,35.433072,0,0,0,0,0,208.7, -0.4, -2.1,0,0,1024,393,1024,1024,0,-96,0,0,211.3,-27.1,0,91,4.145,4.137,0,0,0,0,4.133,83.12,33.1365168084,33.136484,38,Tripod,
118300,2022-08-12 04:43:50,0,0,33.136484,,,33.1365168084,2.624672,0.223694,0,0,0,0,8.294,35.4331048084,35.433072,0,0,0,0.223694,0,208.3, 0.4, -9.5,0,0,1024,1024,1024,1024,0,0,0,0,211.3,-27.1,0,91,4.145,4.137,0,0,0,0,4.133,83.12,33.1365168084,33.136484,38,Tripod,
118400,2022-08-12 04:43:50,0,0,32.8084,,,32.8084328084,2.624672,0.4921268,0,0,0,0,8.294,35.4331048084,35.433072,0,0,-0.223694,0.447388,0,208.5, 0, -7,0,0,1024,1024,1024,1024,0,0,0,0,211.3,-27.1,0,91,4.145,4.137,0,0,0,0,4.133,83.12,32.8084328084,32.8084,38,Tripod,
118500,2022-08-12 04:43:50,0,0,32.8084,,,32.8084328084,2.624672,0.4921268,0,0,0,0,8.294,35.4331048084,35.433072,0,0,-0.223694,0.447388,0,208.8, 0, 2.6,0,0,1024,1024,1024,1024,0,0,0,0,211.3,-27.1,0,91,4.145,4.137,0,0,0,0,4.133,83.12,32.8084328084,32.8084,38,Tripod,
118600,2022-08-12 04:43:50,0,0,32.8084,,,32.8084328084,2.624672,0.4921268,0,0,0,0,8.294,35.4331048084,35.433072,0,0,-0.223694,0.447388,0,208.7, 0.4, 3.4,0,0,1024,1024,579,1024,0,0,-67,0,211.3,-27.1,0,91,4.145,4.137,0,0,0,0,4.133,83.12,32.8084328084,32.8084,38,Tripod,
118700,2022-08-12 04:43:50,0,0,32.8084,,,32.8084328084,2.624672,0.447388,0,0,0,0,8.294,35.4331048084,35.433072,0,0,0,0.447388,0,208.9, 0.2, 2.6,0,0,1024,1024,364,1024,0,0,-100,0,211.3,-27.1,0,91,4.145,4.137,0,0,0,0,4.133,83.12,32.8084328084,32.8084,38,Tripod,
118800,2022-08-12 04:43:50,0,0,32.8084,,,32.8084328084,2.624672,0.223694,0,0,0,0,8.294,35.4331048084,35.433072,0,0,0,0.223694,0,208.9, 0.5, 3.6,0,0,1024,1024,391,1024,0,0,-96,0,211.3,-27.1,0,91,4.145,4.137,0,0,0,0,4.133,83.12,32.8084328084,32.8084,38,Tripod,
118900,2022-08-12 04:43:50,0,0,32.8084,,,32.8084328084,2.624672,0.223694,0,0,0,0,8.294,35.4331048084,35.433072,0,0,0,0.223694,0.223694,208.8, 0.8, 3,0,0,1024,1024,391,1024,0,0,-96,0,211.3,-27.1,0,91,4.145,4.137,0,0,0,0,4.133,83.12,32.8084328084,32.8084,38,Tripod,
119000,2022-08-12 04:43:50,0,0,32.8084,,,32.8084328084,2.624672,0,0,0,0,0,8.294,35.4331048084,35.433072,0,0,0,0,0.223694,208.9, 0.8, 2.6,0,0,1024,1024,1024,1024,0,0,0,0,211.3,-27.1,0,91,4.145,4.137,0,0,0,0,4.133,83.12,32.8084328084,32.8084,38,Tripod,
119100,2022-08-12 04:43:50,0,0,32.480316,,,32.4803488084,2.624672,0,0,0,0,0,8.271,35.4331048084,35.433072,0,0,0,0,0.223694,208.9, 0.2, 1.2,0,0,1024,1024,1024,1024,0,0,0,0,211.3,-27.1,0,91,4.139,4.13,0,0,0,0,4.263,83.12,32.4803488084,32.480316,38,Tripod,
119200,2022-08-12 04:43:51,0,0,32.480316,,,32.4803488084,2.624672,0,0,0,0,0,8.271,35.4331048084,35.433072,0,0,0,0,0,208.9, 0, 1,0,0,1024,1024,1024,1024,0,0,0,0,211.3,-27.1,0,91,4.139,4.13,0,0,0,0,4.263,83.12,32.4803488084,32.480316,38,Tripod,
119300,2022-08-12 04:43:51,0,0,32.480316,,,32.4803488084,2.624672,0,0,0,0,0,8.271,35.4331048084,35.433072,0,0,0,0,0,208.7, 0, 0,0,0,1024,1370,838,1024,0,52,-28,0,211.3,-27.1,0,91,4.139,4.13,0,0,0,0,4.263,83.12,32.4803488084,32.480316,38,Tripod,
119400,2022-08-12 04:43:51,0,0,32.480316,,,32.4803488084,2.296588,0,0,0,0,0,8.271,35.4331048084,35.433072,0,0,0,0,0,208.6, 0, -0.2,0,0,1024,1024,614,1024,0,0,-62,0,211.3,-27.1,0,91,4.139,4.13,0,0,0,0,4.263,83.12,32.4803488084,32.480316,38,Tripod,
119500,2022-08-12 04:43:51,0,0,32.152232,,,32.1522648084,2.296588,0,0,0,0,0,8.271,35.4331048084,35.433072,0,0,0,0,0,208.5, 0.1, 3.6,0,0,1024,1024,1024,1024,0,0,0,0,211.3,-27.1,0,91,4.139,4.13,0,0,0,0,4.263,83.12,32.1522648084,32.152232,38,Tripod,
119600,2022-08-12 04:43:51,0,0,32.152232,,,32.1522648084,2.296588,0,0,0,0,0,8.271,35.4331048084,35.433072,0,0,0,0,0.223694,208.6, 0.5, 2.1,0,0,1024,1024,1024,1024,0,0,0,0,211.3,-27.1,0,91,4.139,4.13,0,0,0,0,4.263,83.12,32.1522648084,32.152232,38,Tripod,
119700,2022-08-12 04:43:51,0,0,32.152232,,,32.1522648084,2.296588,0,0,0,0,0,8.271,35.4331048084,35.433072,0,0,0,0,0.223694,208.3, 0.5, 0.2,0,0,1024,1024,1024,1024,0,0,0,0,211.3,-27.1,0,91,4.139,4.13,0,0,0,0,4.263,83.12,32.1522648084,32.152232,38,Tripod,
119800,2022-08-12 04:43:51,0,0,32.152232,,,32.1522648084,2.296588,0,0,0,0,0,8.271,35.4331048084,35.433072,0,0,0,0,0,208.2, 0.7, 0,0,0,1024,1024,1024,1024,0,0,0,0,211.3,-27.1,0,91,4.139,4.13,0,0,0,0,4.263,83.12,32.1522648084,32.152232,38,Tripod,
119900,2022-08-12 04:43:51,0,0,32.152232,,,32.1522648084,2.296588,0,0,0,0,0,8.271,35.4331048084,35.433072,0,0,0,0,0,208.2, 0.8, -0.4,0,0,1024,1024,364,1024,0,0,-100,0,211.3,-27.1,0,91,4.139,4.13,0,0,0,0,4.263,83.12,32.1522648084,32.152232,38,Tripod,
120000,2022-08-12 04:43:51,0,0,31.824148,,,31.8241808084,2.296588,0,0,0,0,0,8.271,35.4331048084,35.433072,0,0,0,0,0,208.3, 0.5, 0.1,0,0,1024,1024,364,929,0,0,-100,-14,211.3,-27.1,0,91,4.139,4.13,0,0,0,0,4.263,83.12,31.8241808084,31.824148,38,Tripod,
120100,2022-08-12 04:43:51,0,0,31.824148,,,31.8241808084,2.296588,0,0,0,0,0,8.272,35.4331048084,35.433072,0,0,0,0,0.223694,208.2, 0.8, 0,0,0,1024,1024,679,1024,0,0,-52,0,211.3,-27.1,0,91,4.136,4.13,0,0,0,0,4.208,83.12,31.8241808084,31.824148,38,Tripod,
120200,2022-08-12 04:43:52,0,0,31.824148,,,31.8241808084,2.296588,0,0,0,0,0,8.272,35.4331048084,35.433072,0,0,0,0,0.223694,208.2, 0.2, -0.1,0,0,1024,1024,1024,1024,0,0,0,0,211.2,-27.1,0,91,4.136,4.13,0,0,0,0,4.208,83.12,31.8241808084,31.824148,38,Tripod,
120300,2022-08-12 04:43:52,0,0,31.824148,,,31.8241808084,2.296588,0,0,0,0,0,8.272,35.4331048084,35.433072,0,0,0,0,0.223694,208.3, 0.3, -0.3,0,0,1024,1024,985,1024,0,0,-6,0,211.2,-27.1,0,91,4.136,4.13,0,0,0,0,4.208,83.12,31.8241808084,31.824148,38,Tripod,
120400,2022-08-12 04:43:52,0,0,31.496064,,,31.4960968084,1.968504,0,0,0,0,0,8.272,35.4331048084,35.433072,0,0,0,0,0,208.3, 0.7, -1.7,0,0,1024,394,752,1024,0,-95,-41,0,211.2,-27.1,0,91,4.136,4.13,0,0,0,0,4.208,83.12,31.4960968084,31.496064,38,Tripod,
120500,2022-08-12 04:43:52,0,0,31.496064,,,31.4960968084,1.968504,0,0,0,0,0,8.272,35.4331048084,35.433072,0,0,0,0,0,208.4, 1.2, -2.1,0,0,1024,1024,826,1024,0,0,-30,0,211.1,-27.1,0,91,4.136,4.13,0,0,0,0,4.208,83.12,31.4960968084,31.496064,38,Tripod,
120600,2022-08-12 04:43:52,0,0,31.496064,,,31.4960968084,1.968504,0,0,0,0,0,8.272,35.4331048084,35.433072,0,0,0,0,0,208.4, 0.8, -6.9,0,0,1024,1024,492,1024,0,0,-81,0,211.1,-27.1,0,91,4.136,4.13,0,0,0,0,4.208,83.12,31.4960968084,31.496064,38,Tripod,
120700,2022-08-12 04:43:52,0,0,31.496064,,,31.4960968084,1.968504,0.223694,0,0,0,0,8.272,35.4331048084,35.433072,0,0,0,0.223694,0,208.7, 0.4, 0.9,0,0,1024,1024,492,1024,0,0,-81,0,211.1,-27.1,0,91,4.136,4.13,0,0,0,0,4.208,83.12,31.4960968084,31.496064,38,Tripod,
120800,2022-08-12 04:43:52,0,0,31.496064,,,31.4960968084,1.968504,0.223694,0,0,0,0,8.272,35.4331048084,35.433072,0,0,0,0.223694,0.223694,208.5, 0.5, 2.8,0,0,1024,1024,364,1024,0,0,-100,0,211.1,-27.1,0,91,4.136,4.13,0,0,0,0,4.208,83.12,31.4960968084,31.496064,38,Tripod,
120900,2022-08-12 04:43:52,0,0,31.496064,,,31.4960968084,1.968504,0,0,0,0,0,8.272,35.4331048084,35.433072,0,0,0,0,0.223694,208.6, 0.7, 3.3,0,0,1024,1024,761,1024,0,0,-40,0,211.1,-27.1,0,91,4.136,4.13,0,0,0,0,4.208,83.12,31.4960968084,31.496064,38,Tripod,
121000,2022-08-12 04:43:52,0,0,31.16798,,,31.1680128084,1.968504,0,0,0,0,0,8.272,35.4331048084,35.433072,0,0,0,0,0.223694,208.6, 0.7, 2.4,0,0,1024,1024,364,1024,0,0,-100,0,211.1,-27.1,0,91,4.136,4.13,0,0,0,0,4.208,83.12,31.1680128084,31.16798,38,Tripod,
121100,2022-08-12 04:43:52,0,0,31.16798,,,31.1680128084,1.968504,0,0,0,0,0,8.268,35.4331048084,35.433072,0,0,0,0,0,208.6, 0.5, 0.9,0,0,1024,1024,364,1024,0,0,-100,0,211.1,-27.1,0,91,4.138,4.132,0,0,0,0,4.322,83.3,31.1680128084,31.16798,38,Tripod,
121200,2022-08-12 04:43:53,0,0,31.16798,,,31.1680128084,1.968504,0,0,0,0,0,8.268,35.4331048084,35.433072,0,0,0,0,0,208.6, 0.8, 1.5,0,0,1024,1024,528,1024,0,0,-75,0,211.1,-27.1,0,91,4.138,4.132,0,0,0,0,4.322,83.3,31.1680128084,31.16798,38,Tripod,
121300,2022-08-12 04:43:53,0,0,31.16798,,,31.1680128084,1.968504,0,0,0,0,0,8.268,35.4331048084,35.433072,0,0,0,0,0,208.9, 0.3, 0.6,0,0,1024,1024,364,1024,0,0,-100,0,211.1,-27.1,0,91,4.138,4.132,0,0,0,0,4.322,83.3,31.1680128084,31.16798,38,Tripod,
121400,2022-08-12 04:43:53,0,0,31.16798,,,31.1680128084,1.64042,0,0,0,0,0,8.268,35.4331048084,35.433072,0,0,0,0,0,208.9, 0.5, 0.5,0,0,1024,1024,364,1024,0,0,-100,0,211.1,-27.1,0,91,4.138,4.132,0,0,0,0,4.322,83.3,31.1680128084,31.16798,38,Tripod,
121500,2022-08-12 04:43:53,0,0,31.16798,,,31.1680128084,1.64042,0,0,0,0,0,8.268,35.4331048084,35.433072,0,0,0,0,0,208.8, 1.1, 0.6,0,0,1024,1024,364,1024,0,0,-100,0,211.1,-27.1,0,91,4.138,4.132,0,0,0,0,4.322,83.3,31.1680128084,31.16798,38,Tripod,
121600,2022-08-12 04:43:53,0,0,30.839896,,,30.8399288084,1.64042,0,0,0,0,0,8.268,35.4331048084,35.433072,0,0,0,0,0,208.6, 0.7, 0,0,0,1024,1024,364,1024,0,0,-100,0,211.1,-27.1,0,91,4.138,4.132,0,0,0,0,4.322,83.3,30.8399288084,30.839896,38,Tripod,
121700,2022-08-12 04:43:53,0,0,30.839896,,,30.8399288084,1.64042,0,0,0,0,0,8.268,35.4331048084,35.433072,0,0,0,0,0,208.6, 0.4, 0.5,0,0,1024,1024,364,1024,0,0,-100,0,211.1,-27.1,0,91,4.138,4.132,0,0,0,0,4.322,83.3,30.8399288084,30.839896,38,Tripod,
121800,2022-08-12 04:43:53,0,0,30.839896,,,30.8399288084,1.64042,0,0,0,0,0,8.268,35.4331048084,35.433072,0,0,0,0,0,208.7, 0.5, 0.3,0,0,1024,1024,364,1024,0,0,-100,0,211.1,-27.1,0,91,4.138,4.132,0,0,0,0,4.322,83.3,30.8399288084,30.839896,38,Tripod,
121900,2022-08-12 04:43:53,0,0,30.839896,,,30.8399288084,1.64042,0,0,0,0,0,8.268,35.4331048084,35.433072,0,0,0,0,0,208.6, 0.1, 0.1,0,0,1024,1024,364,1024,0,0,-100,0,211.1,-27.1,0,91,4.138,4.132,0,0,0,0,4.322,83.3,30.8399288084,30.839896,38,Tripod,
122000,2022-08-12 04:43:53,0,0,30.839896,,,30.8399288084,1.64042,0,0,0,0,0,8.268,35.4331048084,35.433072,0,0,0,0,0,208.4, 0.7, -0.8,0,0,1024,1024,364,1024,0,0,-100,0,211.1,-27.1,0,91,4.138,4.132,0,0,0,0,4.322,83.3,30.8399288084,30.839896,38,Tripod,
122100,2022-08-12 04:43:53,0,0,30.839896,,,30.8399288084,1.64042,0,0,0,0,0,8.268,35.4331048084,35.433072,0,0,0,0,0,208.3, 0.5, 0,0,0,1024,1024,364,1024,0,0,-100,0,211.1,-26,0,91,4.137,4.127,0,0,0,0,4.258,83.3,30.8399288084,30.839896,38,Tripod,
122200,2022-08-12 04:43:53,0,0,30.839896,,,30.8399288084,1.64042,0,0,0,0,0,8.268,35.4331048084,35.433072,0,0,0,0,0,208.3, 0.6, -0.1,0,0,1024,1024,364,1024,0,0,-100,0,211.1,-20.1,0,91,4.137,4.127,0,0,0,0,4.258,83.3,30.8399288084,30.839896,33,Confirm_Landing,
122300,2022-08-12 04:43:54,0,0,30.839896,,,30.8399288084,1.64042,0,0,0,0,0,8.268,35.4331048084,35.433072,0,0,0,0,0.223694,208.3, 0.8, 0,0,0,1024,1024,364,1024,0,0,-100,0,211.1,-14.1,0,91,4.137,4.127,0,0,0,0,4.258,83.3,30.8399288084,30.839896,33,Confirm_Landing,
122400,2022-08-12 04:43:54,0,0,30.511812,,,30.5118448084,1.64042,0,0,0,0,0,8.268,35.4331048084,35.433072,0,0,0,0,0.447388,208.3, 0.6, 0.2,0,0,1024,1024,364,1024,0,0,-100,0,211.1,-8,0,91,4.137,4.127,0,0,0,0,4.258,83.3,30.5118448084,30.511812,33,Confirm_Landing,
122500,2022-08-12 04:43:54,0,0,30.511812,,,30.5118448084,1.64042,0,0,0,0,0,8.268,35.4331048084,35.433072,0,0,0,0,0.671082,208.3, 0.5, 0.5,0,0,1024,1024,364,1024,0,0,-100,0,211.1,-2,0,91,4.137,4.127,0,0,0,0,4.258,83.3,30.5118448084,30.511812,33,Confirm_Landing,
122600,2022-08-12 04:43:54,0,0,30.511812,,,30.5118448084,1.312336,0,0,0,0,0,8.268,35.4331048084,35.433072,0,0,0,0,0.671082,208.4, 0.6, 1,0,0,1024,1024,364,1024,0,0,-100,0,211.1,0,0,91,4.137,4.127,0,0,0,0,4.258,83.3,30.5118448084,30.511812,33,Confirm_Landing,
