time(millisecond),datetime(utc),latitude,longitude,height_above_takeoff(feet),height_above_ground_at_drone_location(feet),ground_elevation_at_drone_location(feet),altitude_above_seaLevel(feet),height_sonar(feet),speed(mph),distance(feet),mileage(feet),satellites,gpslevel,voltage(v),max_altitude(feet),max_ascent(feet),max_speed(mph),max_distance(feet), xSpeed(mph), ySpeed(mph), zSpeed(mph), compass_heading(degrees), pitch(degrees), roll(degrees),isPhoto,isVideo,rc_elevator,rc_aileron,rc_throttle,rc_rudder,rc_elevator(percent),rc_aileron(percent),rc_throttle(percent),rc_rudder(percent),gimbal_heading(degrees),gimbal_pitch(degrees),gimbal_roll(degrees),battery_percent,voltageCell1,voltageCell2,voltageCell3,voltageCell4,voltageCell5,voltageCell6,current(A),battery_temperature(f),altitude(feet),ascent(feet),flycStateRaw,flycState,message
0,2022-10-27 20:25:29,-34.9108227750996,-56.1438229295857,0,0,37.803510396064,37.803510396064,0.984252,0,0,0,18,5,0,37.803510396064,0,0,0,-0.223694,0,0,188.4, -12, 3.7,0,0,1024,1024,1024,1024,0,0,0,0,197.9,0,0,96,4.279,4.274,0,0,0,0,0,77.18,37.803510396064,0,41,Motors_Started,"Aeronave en Zona de altitud restringida (150). Vuela con precauci贸n (Code: 190001). Error de calibraci贸n del estabilizador. Reinicia la aeronave o contacta con la Asistencia DJI (Code: 40011)"
100,2022-10-27 20:25:29,-34.9108229328632,-56.1438232052518,0,0,37.803510396064,37.803510396064,0.984252,0,0.100576446788,0.100576446788,18,5,0,37.803510396064,0,0,0.100576446788,0,0,0,191.7, -11.5, 0,0,0,364,364,364,1684,-100,-100,-100,100,199.9,0,0,96,4.279,4.274,0,0,0,0,0,77.18,37.803510396064,0,41,Motors_Started,
200,2022-10-27 20:25:29,-34.9108232374515,-56.1438238240986,0,-0.065616800000004,37.869127196064,37.803510396064,0.328084,0.223694,0.31635827784,0.316520351336,18,5,0,37.803510396064,0,0.223694,0.31635827784,-0.223694,0,0,192.9, -11.4, -1.6,0,0,364,364,364,1684,-100,-100,-100,100,201.7,0,0,96,4.279,4.274,0,0,0,0,0,77.18,37.803510396064,0,41,Motors_Started,
300,2022-10-27 20:25:29,-34.910823221763,-56.143823989338,0,-0.065616800000004,37.869127196064,37.803510396064,0.328084,0,0.35649935524,0.3662893818,18,5,0,37.803510396064,0,0.223694,0.35649935524,0,0,0,194.1, -10.8, -1.4,0,0,506,364,364,1684,-78,-100,-100,100,203,0,0,96,4.279,4.274,0,0,0,0,0,77.18,37.803510396064,0,41,Motors_Started,
400,2022-10-27 20:25:29,-34.9108231314577,-56.1438240794479,0,-0.065616800000004,37.869127196064,37.803510396064,0.328084,0,0.36777888316,0.40886156164,18,5,0,37.803510396064,0,0.223694,0.36777888316,0,0,0,194.6, -10.2, -0.9,0,0,1024,1024,1024,1314,0,0,0,44,204,0,0,96,4.279,4.274,0,0,0,0,0,77.18,37.803510396064,0,41,Motors_Started,
500,2022-10-27 20:25:29,-34.9108230091338,-56.143824128614,0,-0.065616800000004,37.869127196064,37.803510396064,0.328084,0,0.36876313516,0.45585303296,18,5,0,37.803510396064,0,0.223694,0.36876313516,0,0,0,194.8, -10.3, -0.3,0,0,1024,1024,1650,1102,0,0,95,12,204.5,0,0,96,4.279,4.274,0,0,0,0,0,77.18,37.803510396064,0,41,Motors_Started,
600,2022-10-27 20:25:29,-34.9108221621866,-56.1438238009265,0,-0.032808399999999,37.836318796064,37.803510396064,0.328084,0,0.34346785876,0.78004267588,18,5,0,37.803510396064,0,0.223694,0.36876313516,0,0,0,195.1, -10.2, -0.1,0,0,1024,1024,1684,1024,0,0,100,0,205,0,0,96,4.279,4.274,0,0,0,0,0,77.18,37.803510396064,0,41,Motors_Started,
700,2022-10-27 20:25:29,-34.9108220035648,-56.1438238227855,0,-0.032808399999999,37.836318796064,37.803510396064,0.328084,0,0.38814305704,0.83828414756,18,5,0,37.803510396064,0,0.223694,0.38814305704,0,0,0,196.1, -9.3, -0.2,0,0,1024,1024,1684,1013,0,0,100,-2,205.7,0,0,96,4.279,4.274,0,0,0,0,0,77.18,37.803510396064,0,41,Motors_Started,"Error de calibraci贸n del estabilizador. Reinicia la aeronave o contacta con la Asistencia DJI (Code: 40011)"
800,2022-10-27 20:25:30,-34.9108218712732,-56.1438238871991,0,-0.032808399999999,37.836318796064,37.803510396064,0.328084,0,0.43684056516,0.890255934,18,5,0,37.803510396064,0,0.223694,0.43684056516,0,0,0,196.8, -9.3, 0,0,0,1024,1024,1684,1024,0,0,100,0,206.6,0,0,96,4.279,4.274,0,0,0,0,0,77.18,37.803510396064,0,41,Motors_Started,"Setting new Return-To-Home altitude to 100m (328 ft). Data Recorder File Index is 57. Setting new Maximum Flight Altitude to 120m (394 ft)"
900,2022-10-27 20:25:30,-34.9108217480155,-56.1438239769759,0,-0.032808399999999,37.836318796064,37.803510396064,0.328084,0,0.48849411012,0.94263782544,18,5,0,37.803510396064,0,0.223694,0.48849411012,0,0,0,196.9, -9.5, 0,0,0,1024,1024,1684,1024,0,0,100,0,207,0,0,96,4.279,4.274,0,0,0,0,0,77.18,37.803510396064,0,41,Motors_Started,
1000,2022-10-27 20:25:30,-34.9108218397254,-56.1438239969173,0,-0.032808399999999,37.836318796064,37.803510396064,0.328084,0,0.46737862388,0.976624047,18,5,0,37.803510396064,0,0.223694,0.48849411012,0,0,0,196.6, -9.8, -0.4,0,0,1024,1024,1684,1024,0,0,100,0,207,0,0,96,4.279,4.274,0,0,0,0,0,77.18,37.803510396064,0,41,Motors_Started,
1100,2022-10-27 20:25:30,-34.910821869162,-56.1438239902044,0,-0.032808399999999,37.836318796064,37.803510396064,0.328084,0,0.4582021144,0.9875492442,18,5,0,37.803510396064,0,0.223694,0.48849411012,0,0,0,196.5, -9.5, -0.1,0,0,1024,1024,1684,1024,0,0,100,0,207,0,0,96,4.279,4.274,0,0,0,0,0,77.18,37.803510396064,0,10,Assisted_Takeoff,
1200,2022-10-27 20:25:30,-34.9108219471685,-56.143823998058,0,-0.032808399999999,37.836318796064,37.803510396064,0.328084,0,0.43981956788,1.0161089564,18,5,0,37.803510396064,0,0.223694,0.48849411012,0,0,0,196.6, -8.7, -0.4,0,0,1024,1024,1585,1024,0,0,85,0,206.9,0,0,96,4.279,4.274,0,0,0,0,0,77.18,37.803510396064,0,10,Assisted_Takeoff,
1300,2022-10-27 20:25:30,-34.9108220507563,-56.143824017635,0,-0.032808399999999,37.836318796064,37.803510396064,0.328084,0,0.41930447536,1.05435370828,18,5,0,37.803510396064,0,0.223694,0.48849411012,0,0,0,196.7, -5.6, -0.3,0,0,1024,1024,1054,1024,0,0,5,0,206.9,0,0,96,4.279,4.274,0,0,0,0,0,77.18,37.803510396064,0,6,P-GPS,"Error de calibraci贸n del estabilizador. Reinicia la aeronave o contacta con la Asistencia DJI (Code: 40011)"
1400,2022-10-27 20:25:30,-34.9108221141304,-56.1438240516047,0,-0.032808399999999,37.836318796064,37.803510396064,0.328084,0,0.41333990824,1.0796096146,18,5,0,37.803510396064,0,0.223694,0.48849411012,0,0,0,197.1, -3.3, -0.3,0,0,1024,1024,1024,1024,0,0,0,0,206.9,0,0,96,4.279,4.274,0,0,0,0,0,77.18,37.803510396064,0,6,P-GPS,
1500,2022-10-27 20:25:30,-34.9108225528829,-56.143824190882,0,-0.065616800000004,37.869127196064,37.803510396064,0.328084,0,0.38598098348,1.24502300572,18,5,8.559,37.803510396064,0,0.223694,0.48849411012,0,0,0,197.1, -1.8, -0.5,0,0,1024,1024,1024,1024,0,0,0,0,206.9,0,0,96,4.279,4.274,0,0,0,0,1.322,77.18,37.803510396064,0,6,P-GPS,
1600,2022-10-27 20:25:30,-34.910822593309,-56.1438242342266,0,-0.065616800000004,37.869127196064,37.803510396064,0.328084,0,0.39593505204,1.26466211396,18,5,8.559,37.803510396064,0,0.223694,0.48849411012,0,0,0,196.8, -0.2, -0.6,0,0,1024,1024,1206,1024,0,0,28,0,206.9,0,0,96,4.279,4.274,0,0,0,0,1.322,77.18,37.803510396064,0,6,P-GPS,
1700,2022-10-27 20:25:30,-34.9108226309644,-56.1438242660246,0,-0.065616800000004,37.869127196064,37.803510396064,0.328084,0,0.403297257,1.28137471292,18,5,8.559,37.803510396064,0,0.223694,0.48849411012,0,0,0,196.3, 1.3, -0.8,0,0,1024,1024,1578,1024,0,0,84,0,206.9,0,0,96,4.279,4.274,0,0,0,0,1.322,77.18,37.803510396064,0,6,P-GPS,
1800,2022-10-27 20:25:31,-34.9108226577352,-56.1438243283651,0,-0.065616800000004,37.869127196064,37.803510396064,0.328084,0,0.42068898984,1.3024278632,18,5,8.559,37.803510396064,0,0.223694,0.48849411012,0,0,0,196.2, 1.2, -0.7,0,0,1024,1024,1444,1024,0,0,64,0,206.9,0,0,96,4.279,4.274,0,0,0,0,1.322,77.18,37.803510396064,0,6,P-GPS,
1900,2022-10-27 20:25:31,-34.9108227538923,-56.1438245115681,0,-0.164042,37.967552396064,37.803510396064,0.328084,0.223694,0.47337928024,1.36750660544,18,5,8.559,37.803510396064,0,0.223694,0.48849411012,0.223694,0,-0.447388,196.1, -0.4, -1.1,0,0,1024,1024,1444,1024,0,0,64,0,206.9,0,0,96,4.279,4.274,0,0,0,0,1.322,77.18,37.803510396064,0,6,P-GPS,
2000,2022-10-27 20:25:31,-34.9108227410455,-56.1438245463095,0,-0.164042,37.967552396064,37.803510396064,0.656168,0.223694,0.48387140656,1.37891080528,18,5,8.559,37.803510396064,0,0.223694,0.48849411012,0.223694,0,-0.894776,196.2, -2.1, -0.4,0,0,1024,1024,1024,1024,0,0,0,0,206.9,0,0,96,4.279,4.274,0,0,0,0,1.322,77.18,37.803510396064,0,6,P-GPS,
2100,2022-10-27 20:25:31,-34.9108227312545,-56.1438245431291,0,-0.164042,37.967552396064,37.803510396064,0.656168,0.223694,0.48302494984,1.38260831196,17,5,8.559,37.803510396064,0,0.223694,0.48849411012,0.223694,0,-1.11847,196.2, -2.8, 0.1,0,0,1024,1024,1024,1024,0,0,0,0,206.9,0,0,96,4.279,4.274,0,0,0,0,1.322,77.18,37.803510396064,0,6,P-GPS,
2200,2022-10-27 20:25:31,-34.9108227281646,-56.1438245125227,0.328084,0.164042,37.967552396064,38.131594396064,0.656168,0.223694,0.47391077632,1.39183403404,17,5,8.559,38.131594396064,0.328084,0.223694,0.48849411012,0.223694,0,-1.11847,196.2, -3, 0,0,0,1024,1024,1024,1024,0,0,0,0,206.9,0,0,96,4.279,4.274,0,0,0,0,1.322,77.18,38.131594396064,0.328084,6,P-GPS,
2300,2022-10-27 20:25:31,-34.9108228296231,-56.1438244517512,0.328084,0.2624672,37.869127196064,38.131594396064,0.984252,0,0.4558563138,1.43307419284,18,5,8.559,38.131594396064,0.328084,0.223694,0.48849411012,0,0,-1.11847,196.2, -3.3, 0.4,0,0,1024,1024,1024,1024,0,0,0,0,206.9,0,0,96,4.279,4.274,0,0,0,0,1.322,77.18,38.131594396064,0.328084,6,P-GPS,
2400,2022-10-27 20:25:31,-34.9108228032521,-56.1438243508822,0.656168,0.5905512,37.869127196064,38.459678396064,0.984252,0,0.42536418684,1.46475070304,18,5,8.559,38.459678396064,0.656168,0.223694,0.48849411012,0,0,-1.11847,196.2, -3.1, 0.4,0,0,1024,1024,1024,1024,0,0,0,0,206.9,0,0,96,4.279,4.274,0,0,0,0,1.322,77.18,38.459678396064,0.656168,6,P-GPS,
2500,2022-10-27 20:25:31,-34.9108227618326,-56.1438242154605,0.656168,0.5905512,37.869127196064,38.459678396064,1.312336,0,0.38475394932,1.50799545508,18,5,8.445,38.459678396064,0.656168,0.223694,0.48849411012,0,0,-0.894776,196.2, -2.6, 0.4,0,0,1024,1024,1024,1024,0,0,0,0,206.9,0,0,96,4.194,4.187,0,0,0,0,2.836,77.18,38.459678396064,0.656168,6,P-GPS,
2600,2022-10-27 20:25:31,-34.910822801806,-56.1438241358884,0.984252,0.9186352,37.869127196064,38.787762396064,2.624672,0,0.36104659948,1.53591540348,18,5,8.445,38.787762396064,0.984252,0.223694,0.48849411012,0,0,-0.671082,196.3, -2.1, 0.6,0,0,1024,1024,1024,1024,0,0,0,0,206.9,0,0,96,4.194,4.187,0,0,0,0,2.836,77.18,38.787762396064,0.984252,6,P-GPS,
2700,2022-10-27 20:25:31,-34.9108229177521,-56.1438239602882,0.984252,0.9186352,37.869127196064,38.787762396064,2.624672,0,0.312739839404,1.60336619304,18,5,8.445,38.787762396064,0.984252,0.223694,0.48849411012,0,0,-0.447388,196.3, -1.9, 0.6,0,0,1024,1024,1024,1024,0,0,0,0,206.9,0,0,96,4.194,4.187,0,0,0,0,2.836,77.18,38.787762396064,0.984252,6,P-GPS,
2800,2022-10-27 20:25:32,-34.9108230646336,-56.1438239579879,0.984252,0.9186352,37.869127196064,38.787762396064,2.624672,0,0.325318908048,1.65695871444,18,5,8.445,38.787762396064,0.984252,0.223694,0.48849411012,0,0,-0.223694,196.4, -2.2, -0.4,0,0,1024,1024,1024,1024,0,0,0,0,206.9,0,0,96,4.194,4.187,0,0,0,0,2.836,77.18,38.787762396064,0.984252,6,P-GPS,
2900,2022-10-27 20:25:32,-34.9108232568861,-56.1438239730877,0.984252,0.9186352,37.869127196064,38.787762396064,2.952756,0,0.35829069388,1.7272474306,18,5,8.445,38.787762396064,0.984252,0.223694,0.48849411012,0,0,0,196.4, -1.6, 1.3,0,0,1024,1024,1024,1024,0,0,0,0,206.9,0,0,96,4.194,4.187,0,0,0,0,2.836,77.18,38.787762396064,0.984252,6,P-GPS,
3000,2022-10-27 20:25:32,-34.9108234001257,-56.1438240437139,1.312336,1.2467192,37.869127196064,39.115846396064,2.952756,0,0.40387796568,1.78361882348,18,5,8.445,39.115846396064,1.312336,0.223694,0.48849411012,0,0,0,196.2, -1.5, 0.4,0,0,1024,1024,1024,1024,0,0,0,0,206.9,0,0,96,4.194,4.187,0,0,0,0,2.836,77.18,39.115846396064,1.312336,6,P-GPS,
3100,2022-10-27 20:25:32,-34.9108235125811,-56.1438241437145,1.312336,1.1811024,37.934743996064,39.115846396064,2.952756,0,0.45205710108,1.834399665,18,5,8.445,39.115846396064,1.312336,0.223694,0.48849411012,0,0,0,196.2, -1.3, 0.3,0,0,1024,1024,1024,1024,0,0,0,0,206.9,0,0,96,4.194,4.187,0,0,0,0,2.836,77.18,39.115846396064,1.312336,6,P-GPS,
3200,2022-10-27 20:25:32,-34.9108238775032,-56.1438244478702,1.312336,1.1811024,37.934743996064,39.115846396064,2.952756,0,0.60673230288,1.9956693552,18,5,8.445,39.115846396064,1.312336,0.223694,0.60673230288,0,0,0,196.2, -1.2, 0.1,0,0,1024,1024,1024,1024,0,0,0,0,206.9,0,0,96,4.194,4.187,0,0,0,0,2.836,77.18,39.115846396064,1.312336,6,P-GPS,
3300,2022-10-27 20:25:32,-34.9108240112156,-56.1438244289624,0.984252,0.8530184,37.934743996064,38.787762396064,2.952756,0,0.63611550592,2.04478024916,18,5,8.445,39.115846396064,1.312336,0.223694,0.63611550592,0,0,0,196.2, -2, 0.8,0,0,1024,1024,1024,1024,0,0,0,0,206.9,0,0,96,4.194,4.187,0,0,0,0,2.836,77.18,38.787762396064,0.984252,6,P-GPS,
3400,2022-10-27 20:25:32,-34.9108241030614,-56.1438243733302,0.984252,0.8530184,37.934743996064,38.787762396064,2.952756,0,0.64910107064,2.08219822936,18,5,8.445,39.115846396064,1.312336,0.223694,0.64910107064,0,0,0,196.2, -2.1, 0.9,0,0,1032,992,1024,1024,1,-5,0,0,206.9,0,0,96,4.194,4.187,0,0,0,0,2.836,77.18,38.787762396064,0.984252,6,P-GPS,
3500,2022-10-27 20:25:32,-34.9108241690028,-56.1438242984214,0.984252,0.8530184,37.934743996064,38.787762396064,2.952756,0,0.65296590016,2.11507880784,18,5,8.427,39.115846396064,1.312336,0.223694,0.65296590016,0,0,0,196.3, -2.4, 0.9,0,0,1627,909,1024,1024,91,-17,0,0,206.9,0,0,96,4.203,4.198,0,0,0,0,3.97,77.18,38.787762396064,0.984252,6,P-GPS,
3600,2022-10-27 20:25:32,-34.9108242632865,-56.143824082264,0.984252,0.8530184,37.934743996064,38.787762396064,2.952756,0,0.64323164788,2.18833012252,18,5,8.427,39.115846396064,1.312336,0.223694,0.65296590016,0,0,0,196.4, -4.3, -1,0,0,1684,1024,1024,1024,100,0,0,0,206.9,0,0,96,4.203,4.198,0,0,0,0,3.97,77.18,38.787762396064,0.984252,6,P-GPS,
3700,2022-10-27 20:25:32,-34.9108242798356,-56.1438239819481,0.984252,0.8530184,37.934743996064,38.787762396064,2.624672,0,0.63288059768,2.21894364056,19,5,8.427,39.115846396064,1.312336,0.223694,0.65296590016,0,0,0,196.6, -13.8, -1.6,0,0,1684,1024,1024,1024,100,0,0,0,206.9,0,0,96,4.203,4.198,0,0,0,0,3.97,77.18,38.787762396064,0.984252,6,P-GPS,
3800,2022-10-27 20:25:33,-34.9108243990303,-56.1438238762924,0.984252,0.8530184,37.934743996064,38.787762396064,2.624672,0.223694,0.65671590028,2.27270676564,19,5,8.427,39.115846396064,1.312336,0.223694,0.65671590028,-0.223694,0,0,196.9, -20.2, -0.2,0,0,1684,1024,1024,1024,100,0,0,0,206.9,0,0,96,4.203,4.198,0,0,0,0,3.97,77.18,38.787762396064,0.984252,6,P-GPS,
3900,2022-10-27 20:25:33,-34.9108247391382,-56.143823819355,0.984252,0.82021,37.967552396064,38.787762396064,2.624672,0.894776,0.76442915832,2.39795939432,19,5,8.427,39.115846396064,1.312336,0.894776,0.76442915832,-0.894776,0,0,196.7, -20.7, 1.2,0,0,1684,1024,1024,1024,100,0,0,0,206.9,0,0,96,4.203,4.198,0,0,0,0,3.97,77.18,38.787762396064,0.984252,6,P-GPS,
4000,2022-10-27 20:25:33,-34.9108249275549,-56.1438236123191,1.312336,1.148294,37.967552396064,39.115846396064,2.296588,0.894776,0.81145343804,2.49049548652,19,5,8.427,39.115846396064,1.312336,0.894776,0.81145343804,-1.789552,-0.223694,0,196.4, -20.3, 1.3,0,0,1684,1024,1024,1024,100,0,0,0,206.9,0,0,96,4.203,4.198,0,0,0,0,3.97,77.18,39.115846396064,1.312336,6,P-GPS,
4100,2022-10-27 20:25:33,-34.9108257806258,-56.1438238113533,1.312336,1.0826772,38.033169196064,39.115846396064,2.296588,2.5053728,1.1278543668,2.8073819796,19,5,8.427,39.115846396064,1.312336,2.5053728,1.1278543668,-2.460634,-0.447388,0,196.2, -18.9, 0.7,0,0,1684,1024,1024,1024,100,0,0,0,206.9,0,0,96,4.203,4.198,0,0,0,0,3.97,77.18,39.115846396064,1.312336,6,P-GPS,
4200,2022-10-27 20:25:33,-34.9108268818481,-56.1438241053401,1.312336,1.0498688,38.065977596064,39.115846396064,2.296588,3.1988242,1.53908469492,3.21867792452,19,5,8.427,39.115846396064,1.312336,3.1988242,1.53908469492,-3.131716,-0.671082,0,196.2, -18, 0.5,0,0,1382,1024,1024,1024,54,0,0,0,206.9,0,0,96,4.203,4.198,0,0,0,0,3.97,77.18,39.115846396064,1.312336,6,P-GPS,
4300,2022-10-27 20:25:33,-34.9108283094609,-56.1438245085659,1.312336,0.9186352,38.197211196064,39.115846396064,2.296588,3.914645,2.073736943,3.7533465768,19,5,8.427,39.115846396064,1.312336,3.914645,2.073736943,-3.802798,-0.894776,0,196.2, -14.7, -0.3,0,0,1024,1024,1024,1024,0,0,0,0,206.9,0,0,96,4.203,4.198,0,0,0,0,3.97,77.18,39.115846396064,1.312336,6,P-GPS,
4400,2022-10-27 20:25:33,-34.9108301794699,-56.1438250247876,1.312336,0.82021,38.295636396064,39.115846396064,2.624672,4.1159696,2.77325796276,4.4528544732,19,5,8.427,39.115846396064,1.312336,4.1159696,2.77325796276,-4.026492,-0.894776,0,196.2, 0.3, -0.1,0,0,1024,1024,1024,1024,0,0,0,0,206.9,0,0,96,4.203,4.198,0,0,0,0,3.97,77.18,39.115846396064,1.312336,6,P-GPS,
4500,2022-10-27 20:25:33,-34.9108318854034,-56.1438255199992,1.312336,0.6233596,38.492486796064,39.115846396064,2.952756,3.690951,3.413057852,5.0926510816,19,5,8.427,39.115846396064,1.312336,4.1159696,3.413057852,-3.579104,-0.894776,0,196.3, 14.8, 0.4,0,0,1024,1024,1024,1024,0,0,0,0,206.9,0,0,96,4.182,4.178,0,0,0,0,3.97,77.18,39.115846396064,1.312336,6,P-GPS,
4600,2022-10-27 20:25:33,-34.9108333272766,-56.1438258852554,1.312336,0.5905512,38.525295196064,39.115846396064,2.952756,2.9751302,3.9501969768,5.6299542484,19,5,8.427,39.115846396064,1.312336,4.1159696,3.9501969768,-2.908022,-0.671082,0,196.2, 17.8, -0.1,0,0,1024,1024,1024,1024,0,0,0,0,206.9,0,0,96,4.182,4.178,0,0,0,0,3.97,77.18,39.115846396064,1.312336,6,P-GPS,
4700,2022-10-27 20:25:33,-34.9108345753666,-56.1438261439516,1.312336,0.5577428,38.558103596064,39.115846396064,2.952756,2.2816788,4.411417464,6.091863712,19,5,8.427,39.115846396064,1.312336,4.1159696,4.411417464,-2.23694,-0.447388,0,196.5, 14.2, 1,0,0,1024,1024,1024,1024,0,0,0,0,206.9,0,0,96,4.182,4.178,0,0,0,0,3.97,77.18,39.115846396064,1.312336,6,P-GPS,
4800,2022-10-27 20:25:34,-34.9108355563445,-56.1438262874815,1.312336,0.5577428,38.558103596064,39.115846396064,3.28084,1.5882274,4.7702101264,6.4523296028,19,5,8.427,39.115846396064,1.312336,4.1159696,4.7702101264,-1.565858,-0.223694,0,196.5, 10.9, 1.4,0,0,1024,1024,1024,1024,0,0,0,0,206.9,0,0,96,4.182,4.178,0,0,0,0,3.97,77.18,39.115846396064,1.312336,6,P-GPS,
4900,2022-10-27 20:25:34,-34.9108368145064,-56.1438262702407,1.312336,0.5577428,38.558103596064,39.115846396064,3.28084,0.894776,5.2188649964,6.911417544,19,5,8.427,39.115846396064,1.312336,4.1159696,5.2188649964,-0.894776,0,0,196.4, 7.6, 0.8,0,0,1024,1024,1024,1024,0,0,0,0,206.9,0,0,96,4.182,4.178,0,0,0,0,3.97,77.18,39.115846396064,1.312336,6,P-GPS,
5000,2022-10-27 20:25:34,-34.9108373198223,-56.1438262468884,1.64042,0.8858268,38.558103596064,39.443930396064,3.28084,0.447388,5.3986550284,7.0958991772,19,5,8.427,39.443930396064,1.64042,4.1159696,5.3986550284,-0.447388,0,0,196.3, 4.9, 1,0,0,1024,1024,1024,1024,0,0,0,0,206.9,0,0,96,4.182,4.178,0,0,0,0,3.97,77.18,39.443930396064,1.64042,6,P-GPS,
5100,2022-10-27 20:25:34,-34.9108376424269,-56.1438261564553,1.64042,0.8858268,38.558103596064,39.443930396064,3.28084,0.223694,5.5095802288,7.2166668976,19,5,8.427,39.443930396064,1.64042,4.1159696,5.5095802288,-0.223694,0,0,196.4, 3.5, 0.3,0,0,1024,1024,1024,1024,0,0,0,0,206.9,0,0,96,4.182,4.178,0,0,0,0,3.97,77.18,39.443930396064,1.64042,6,P-GPS,
5200,2022-10-27 20:25:34,-34.9108377379546,-56.1438260119023,1.64042,0.8858268,38.558103596064,39.443930396064,3.28084,0,5.5365487336,7.2722115188,19,5,8.427,39.443930396064,1.64042,4.1159696,5.5365487336,0,0,0,196.6, 1.7, 0.5,0,0,1024,1024,1024,1024,0,0,0,0,206.9,0,0,96,4.182,4.178,0,0,0,0,3.97,77.18,39.443930396064,1.64042,6,P-GPS,
5300,2022-10-27 20:25:34,-34.9108369964655,-56.143825370043,1.64042,0.9514436,38.492486796064,39.443930396064,3.28084,0,5.2397967556,7.6039700596,19,5,8.427,39.443930396064,1.64042,4.1159696,5.5365487336,0,0,0,196.6, 0, 0.2,0,0,1024,1024,1024,1024,0,0,0,0,206.9,0,0,96,4.182,4.178,0,0,0,0,3.97,77.18,39.443930396064,1.64042,6,P-GPS,
5400,2022-10-27 20:25:34,-34.9108369359737,-56.1438252019764,1.64042,0.9514436,38.492486796064,39.443930396064,3.28084,0,5.211122214,7.6588913212,19,5,8.427,39.443930396064,1.64042,4.1159696,5.5365487336,0,0,0,196.5, -1.3, 0.3,0,0,1024,1024,1024,1344,0,0,0,48,206.9,0,0,96,4.182,4.178,0,0,0,0,3.97,77.18,39.443930396064,1.64042,6,P-GPS,
5500,2022-10-27 20:25:34,-34.9108368741693,-56.1438250335853,1.64042,0.9514436,38.492486796064,39.443930396064,3.28084,0,5.182414864,7.7141078584,19,5,8.388,39.443930396064,1.64042,4.1159696,5.5365487336,0,0,0,196.5, -1.8, 0.9,0,0,1024,1024,1024,1589,0,0,0,86,207.1,0,0,96,4.199,4.193,0,0,0,0,4.296,77.36,39.443930396064,1.64042,6,P-GPS,
5600,2022-10-27 20:25:34,-34.9108368741156,-56.1438248923694,1.64042,0.9514436,38.492486796064,39.443930396064,3.28084,0,5.1774279872,7.7563322692,19,5,8.388,39.443930396064,1.64042,4.1159696,5.5365487336,0,0,0,197.2, -1.5, 1.3,0,0,1024,1024,1024,1222,0,0,0,30,208.8,0,0,96,4.199,4.193,0,0,0,0,4.296,77.36,39.443930396064,1.64042,6,P-GPS,
5700,2022-10-27 20:25:34,-34.910836743827,-56.1438247703126,1.64042,0.9514436,38.492486796064,39.443930396064,3.28084,0,5.126148458,7.816273216,19,5,8.388,39.443930396064,1.64042,4.1159696,5.5365487336,0,0,0,199.7, -1.4, 1,0,0,1024,1024,1024,1024,0,0,0,0,211.9,0,0,96,4.199,4.193,0,0,0,0,4.296,77.36,39.443930396064,1.64042,6,P-GPS,
5800,2022-10-27 20:25:35,-34.9108367816362,-56.1438247067668,1.64042,0.9514436,38.492486796064,39.443930396064,3.28084,0,5.1378610568,7.8397640304,19,5,8.388,39.443930396064,1.64042,4.1159696,5.5365487336,0,0,0,202.3, -1.4, 1.2,0,0,1024,1024,1024,1308,0,0,0,43,213.6,0,0,96,4.199,4.193,0,0,0,0,4.296,77.36,39.443930396064,1.64042,6,P-GPS,
5900,2022-10-27 20:25:35,-34.9108368106861,-56.1438246812866,1.64042,0.9514436,38.492486796064,39.443930396064,3.28084,0,5.14763796,7.8528217736,19,5,8.388,39.443930396064,1.64042,4.1159696,5.5365487336,0,0,0,203.5, -1.9, 1.8,0,0,1024,1024,1024,1308,0,0,0,43,214.4,0,0,96,4.199,4.193,0,0,0,0,4.296,77.36,39.443930396064,1.64042,6,P-GPS,
6000,2022-10-27 20:25:35,-34.9108368106633,-56.1438246556477,1.64042,0.9514436,38.492486796064,39.443930396064,3.28084,0,5.1468505584,7.8604989392,19,5,8.388,39.443930396064,1.64042,4.1159696,5.5365487336,0,0,0,203.9, -2.2, 1.5,0,0,1024,1024,1024,1684,0,0,0,100,215,0,0,96,4.199,4.193,0,0,0,0,4.296,77.36,39.443930396064,1.64042,6,P-GPS,
6100,2022-10-27 20:25:35,-34.9108368552077,-56.1438249677849,1.64042,0.9514436,38.492486796064,39.443930396064,3.28084,0,5.1731957036,7.9552824068,19,5,8.388,39.443930396064,1.64042,4.1159696,5.5365487336,0,0,0,205.6, -2.5, 1.9,0,0,1024,1024,1024,1287,0,0,0,40,218.2,0,0,96,4.199,4.193,0,0,0,0,4.296,77.36,39.443930396064,1.64042,6,P-GPS,
6200,2022-10-27 20:25:35,-34.9108368022784,-56.1438249535248,1.64042,0.9514436,38.492486796064,39.443930396064,3.28084,0,5.1535106636,7.975065872,19,5,8.388,39.443930396064,1.64042,4.1159696,5.5365487336,0,0,0,209.2, -2.8, 1.1,0,0,1024,1024,1024,1035,0,0,0,2,222,0,0,96,4.199,4.193,0,0,0,0,4.296,77.36,39.443930396064,1.64042,6,P-GPS,
6300,2022-10-27 20:25:35,-34.9108367236441,-56.1438249503313,1.64042,0.9514436,38.492486796064,39.443930396064,3.28084,0,5.1249017388,8.003773222,19,5,8.388,39.443930396064,1.64042,4.1159696,5.5365487336,0,0,0,211.7, -3, 0.9,0,0,1024,1024,1024,1024,0,0,0,0,223.3,0,0,96,4.199,4.193,0,0,0,0,4.296,77.36,39.443930396064,1.64042,6,P-GPS,
6400,2022-10-27 20:25:35,-34.9108366277971,-56.1438249633267,1.64042,0.9514436,38.492486796064,39.443930396064,3.28084,0,5.0906497692,8.0389766352,19,5,8.388,39.443930396064,1.64042,4.1159696,5.5365487336,0,0,0,212.4, -3, 0.4,0,0,1024,1024,1024,1024,0,0,0,0,223.7,0,0,96,4.199,4.193,0,0,0,0,4.296,77.36,39.443930396064,1.64042,6,P-GPS,
6500,2022-10-27 20:25:35,-34.9108365257881,-56.1438249865516,1.64042,0.9514436,38.492486796064,39.443930396064,3.28084,0,5.0545277208,8.0768375288,19,5,8.377,39.443930396064,1.64042,4.1159696,5.5365487336,0,0,0,212.9, -3, 0.6,0,0,1024,1024,1024,1213,0,0,0,29,223.8,0,0,96,4.198,4.193,0,0,0,0,4.475,77.36,39.443930396064,1.64042,6,P-GPS,
6600,2022-10-27 20:25:35,-34.9108363526911,-56.1438251338333,1.64042,0.984252,38.459678396064,39.443930396064,3.28084,0,4.9974739132,8.1538388436,19,5,8.377,39.443930396064,1.64042,4.1159696,5.5365487336,0,0,0,213.2, -2.9, 1.4,0,0,1024,1024,1024,1684,0,0,0,100,223.8,0,0,96,4.198,4.193,0,0,0,0,4.475,77.36,39.443930396064,1.64042,6,P-GPS,
6700,2022-10-27 20:25:35,-34.9108363303879,-56.1438251860996,1.64042,0.984252,38.459678396064,39.443930396064,3.28084,0,4.9915027844,8.1714569544,19,5,8.377,39.443930396064,1.64042,4.1159696,5.5365487336,0,0,0,213.3, -2.4, -0.3,0,0,1024,1024,1024,1380,0,0,0,54,224.7,0,0,96,4.198,4.193,0,0,0,0,4.475,77.36,39.443930396064,1.64042,6,P-GPS,
6800,2022-10-27 20:25:36,-34.9108362855487,-56.1438252459929,1.64042,0.984252,38.459678396064,39.443930396064,3.28084,0,4.9777560648,8.1957351704,19,5,8.377,39.443930396064,1.64042,4.1159696,5.5365487336,0,0,0,215.5, -2.3, -0.9,0,0,1024,1024,1024,1024,0,0,0,0,228.4,0,0,96,4.198,4.193,0,0,0,0,4.475,77.36,39.443930396064,1.64042,6,P-GPS,
6900,2022-10-27 20:25:36,-34.9108362356646,-56.1438252892388,1.64042,0.984252,38.459678396064,39.443930396064,3.28084,0,4.9615487152,8.2180448824,19,5,8.377,39.443930396064,1.64042,4.1159696,5.5365487336,0,0,0,219.5, -2.2, -0.2,0,0,1024,1024,1024,1024,0,0,0,0,231.9,0,0,96,4.198,4.193,0,0,0,0,4.475,77.36,39.443930396064,1.64042,6,P-GPS,
7000,2022-10-27 20:25:36,-34.9108362540041,-56.1438253225673,1.64042,0.984252,38.459678396064,39.443930396064,3.28084,0,4.9696195816,8.2300527568,19,5,8.377,39.443930396064,1.64042,4.1159696,5.5365487336,0,0,0,221.8, -2.2, 0.5,0,0,1024,1024,1024,1024,0,0,0,0,233.4,0,0,96,4.198,4.193,0,0,0,0,4.475,77.36,39.443930396064,1.64042,6,P-GPS,
7100,2022-10-27 20:25:36,-34.9108362849755,-56.1438253174477,1.64042,0.984252,38.459678396064,39.443930396064,3.28084,0,4.9805775872,8.24147008,19,5,8.377,39.443930396064,1.64042,4.1159696,5.5365487336,0,0,0,222.8, -2.6, 0.6,0,0,1024,1024,1024,1121,0,0,0,15,233.9,0,0,96,4.198,4.193,0,0,0,0,4.475,77.36,39.443930396064,1.64042,6,P-GPS,
7200,2022-10-27 20:25:36,-34.9108362866658,-56.1438253328727,1.64042,0.984252,38.459678396064,39.443930396064,3.28084,0,4.9818571148,8.2461288728,19,5,8.377,39.443930396064,1.64042,4.1159696,5.5365487336,0,0,0,223, -2.6, 0.1,0,0,1024,1024,1024,1089,0,0,0,10,234,0,0,96,4.198,4.193,0,0,0,0,4.475,77.36,39.443930396064,1.64042,6,P-GPS,
7300,2022-10-27 20:25:36,-34.9108362776296,-56.1438253641679,1.64042,0.984252,38.459678396064,39.443930396064,3.28084,0,4.9799542276,8.2560370096,19,5,8.377,39.443930396064,1.64042,4.1159696,5.5365487336,0,0,0,223.2, -3, 0.2,0,0,1024,1024,1024,1024,0,0,0,0,234.1,0,0,96,4.198,4.193,0,0,0,0,4.475,77.36,39.443930396064,1.64042,6,P-GPS,
7400,2022-10-27 20:25:36,-34.9108364073775,-56.1438252938825,1.64042,0.984252,38.459678396064,39.443930396064,3.28084,0,5.02378625,8.3078414732,19,5,8.377,39.443930396064,1.64042,4.1159696,5.5365487336,0,0,0,223.3, -2.6, 0,0,0,1024,1024,1024,1024,0,0,0,0,234.2,0,0,96,4.198,4.193,0,0,0,0,4.475,77.36,39.443930396064,1.64042,6,P-GPS,
7500,2022-10-27 20:25:36,-34.9108364434263,-56.1438252802851,1.64042,0.984252,38.459678396064,39.443930396064,3.28084,0,5.0362206336,8.3216210012,19,5,8.391,39.443930396064,1.64042,4.1159696,5.5365487336,0,0,0,223.5, -2.5, -0.3,0,0,1024,1024,1024,1024,0,0,0,0,234.3,0,0,96,4.19,4.188,0,0,0,0,3.985,77.36,39.443930396064,1.64042,6,P-GPS,
7600,2022-10-27 20:25:36,-34.9108364803236,-56.1438252737551,1.64042,0.984252,38.459678396064,39.443930396064,3.28084,0,5.0492783768,8.3352364872,19,5,8.391,39.443930396064,1.64042,4.1159696,5.5365487336,0,0,0,223.5, -1.9, 0.5,0,0,1024,1024,1024,1024,0,0,0,0,234.3,0,0,96,4.19,4.188,0,0,0,0,3.985,77.36,39.443930396064,1.64042,6,P-GPS,
7700,2022-10-27 20:25:36,-34.9108365095314,-56.143825271159,1.64042,0.9514436,38.492486796064,39.443930396064,3.28084,0,5.0597442564,8.3458992172,19,5,8.391,39.443930396064,1.64042,4.1159696,5.5365487336,0,0,0,223.6, -2, 0.5,0,0,1024,1024,1024,1024,0,0,0,0,234.3,0,0,96,4.19,4.188,0,0,0,0,3.985,77.36,39.443930396064,1.64042,6,P-GPS,
7800,2022-10-27 20:25:37,-34.9108366572997,-56.1438252537511,1.64042,0.9514436,38.492486796064,39.443930396064,3.28084,0,5.1124345468,8.4000658856,19,5,8.391,39.443930396064,1.64042,4.1159696,5.5365487336,0,0,0,223.6, -2.5, 0.2,0,0,1024,1024,1024,1024,0,0,0,0,234.3,0,0,95,4.19,4.188,0,0,0,0,3.985,77.36,39.443930396064,1.64042,6,P-GPS,
7900,2022-10-27 20:25:37,-34.9108367209604,-56.1438252485635,1.64042,0.9514436,38.492486796064,39.443930396064,3.28084,0,5.1352363848,8.4233598496,19,5,8.391,39.443930396064,1.64042,4.1159696,5.5365487336,0,0,0,223.6, -2.8, 0.2,0,0,1024,1024,1024,1024,0,0,0,0,234.3,0,0,95,4.19,4.188,0,0,0,0,3.985,77.36,39.443930396064,1.64042,6,P-GPS,
8100,2022-10-27 20:25:37,-34.9108367526825,-56.1438253088746,1.64042,0.9514436,38.492486796064,39.443930396064,3.28084,0,5.1491471464,8.4447837348,19,5,8.391,39.443930396064,1.64042,4.1159696,5.5365487336,0,0,0,223.6, -3.2, 0,0,0,1024,1024,1024,1024,0,0,0,0,234.3,0,0,95,4.19,4.188,0,0,0,0,3.985,77.36,39.443930396064,1.64042,6,P-GPS,
8200,2022-10-27 20:25:37,-34.9108367394579,-56.1438253392597,1.312336,0.6233596,38.492486796064,39.115846396064,3.28084,0,5.1456366476,8.4550855724,19,5,8.391,39.443930396064,1.64042,4.1159696,5.5365487336,0,0,0,223.7, -3.3, 0,0,0,1024,1024,1024,1024,0,0,0,0,234.3,0,0,95,4.19,4.188,0,0,0,0,3.985,77.36,39.115846396064,1.312336,6,P-GPS,
8300,2022-10-27 20:25:37,-34.9108366143234,-56.1438254122835,1.312336,0.6233596,38.492486796064,39.115846396064,3.28084,0,5.1035762788,8.5056761252,19,5,8.391,39.443930396064,1.64042,4.1159696,5.5365487336,0,0,0,223.7, -3.5, -0.3,0,0,1024,1024,1024,1053,0,0,0,4,234.3,0,0,95,4.19,4.188,0,0,0,0,3.985,77.36,39.115846396064,1.312336,6,P-GPS,
8400,2022-10-27 20:25:37,-34.9108366083779,-56.1438254072017,1.312336,0.6233596,38.492486796064,39.115846396064,3.28084,0,5.101214074,8.5083336056,19,5,8.391,39.443930396064,1.64042,4.1159696,5.5365487336,0,0,0,223.7, -3.4, -0.5,0,0,1024,1024,1024,1544,0,0,0,79,234.3,0,0,95,4.19,4.188,0,0,0,0,3.985,77.36,39.115846396064,1.312336,6,P-GPS,
8500,2022-10-27 20:25:37,-34.9108366198406,-56.1438253817626,1.312336,0.6233596,38.492486796064,39.115846396064,3.28084,0,5.1042652552,8.5170278316,19,5,8.381,39.443930396064,1.64042,4.1159696,5.5365487336,0,0,0,223.8, -3.3, -0.4,0,0,1024,1024,1024,1647,0,0,0,94,234.4,0,0,95,4.188,4.184,0,0,0,0,3.993,77.36,39.115846396064,1.312336,6,P-GPS,
8600,2022-10-27 20:25:37,-34.9108366479573,-56.1438254073773,1.312336,0.6233596,38.492486796064,39.115846396064,3.28084,0,5.1155185364,8.5298231076,19,5,8.381,39.443930396064,1.64042,4.1159696,5.5365487336,0,0,0,224.5, -3.2, -0.5,0,0,1024,1024,1024,1349,0,0,0,49,236.6,0,0,95,4.188,4.184,0,0,0,0,3.993,77.36,39.115846396064,1.312336,6,P-GPS,
8700,2022-10-27 20:25:37,-34.9108366643329,-56.1438254319467,1.312336,0.6233596,38.492486796064,39.115846396064,3.28084,0,5.1224739172,8.5393047352,19,5,8.381,39.443930396064,1.64042,4.1159696,5.5365487336,0,0,0,227.6, -3, -0.4,0,0,1024,1024,1024,1024,0,0,0,0,240.5,0,0,95,4.188,4.184,0,0,0,0,3.993,77.36,39.115846396064,1.312336,6,P-GPS,
8800,2022-10-27 20:25:38,-34.9108367254777,-56.1438254592577,1.312336,0.6233596,38.492486796064,39.115846396064,3.28084,0,5.1457678812,8.5630580168,19,5,8.381,39.443930396064,1.64042,4.1159696,5.5365487336,0,0,0,231.1, -2.9, 0.5,0,0,1024,1024,1024,1024,0,0,0,0,243.2,0,0,95,4.188,4.184,0,0,0,0,3.993,77.36,39.115846396064,1.312336,6,P-GPS,
8900,2022-10-27 20:25:38,-34.9108367934229,-56.1438254828647,1.312336,0.6233596,38.492486796064,39.115846396064,3.28084,0,5.1713256248,8.5888454192,19,5,8.381,39.443930396064,1.64042,4.1159696,5.5365487336,0,0,0,232.9, -2.7, 0.2,0,0,1024,1024,1024,1024,0,0,0,0,244.4,0,0,95,4.188,4.184,0,0,0,0,3.993,77.36,39.115846396064,1.312336,6,P-GPS,
9000,2022-10-27 20:25:38,-34.9108368508125,-56.1438255312767,1.312336,0.5577428,38.558103596064,39.115846396064,3.28084,0,5.1941602712,8.6143047376,19,5,8.381,39.443930396064,1.64042,4.1159696,5.5365487336,0,0,0,234.1, -2.1, 0.4,0,0,1024,1024,1024,1024,0,0,0,0,244.7,0,0,95,4.188,4.184,0,0,0,0,3.993,77.36,39.115846396064,1.312336,6,P-GPS,
9100,2022-10-27 20:25:38,-34.9108368501123,-56.1438256126751,1.312336,0.5577428,38.558103596064,39.115846396064,3.28084,0,5.1976379616,8.6386485704,19,5,8.381,39.443930396064,1.64042,4.1159696,5.5365487336,0,0,0,234, -1.9, 0.6,0,0,1024,1024,1024,1024,0,0,0,0,244.7,0,0,95,4.188,4.184,0,0,0,0,3.993,77.36,39.115846396064,1.312336,6,P-GPS,
9200,2022-10-27 20:25:38,-34.9108368864641,-56.1438256450425,1.312336,0.5577428,38.558103596064,39.115846396064,3.28084,0,5.2122376996,8.6550855788,19,5,8.381,39.443930396064,1.64042,4.1159696,5.5365487336,0,0,0,233.9, -2.1, -0.5,0,0,1024,1024,1024,1024,0,0,0,0,244.7,0,0,95,4.188,4.184,0,0,0,0,3.993,77.36,39.115846396064,1.312336,6,P-GPS,
9300,2022-10-27 20:25:38,-34.9108369346269,-56.1438256476026,1.312336,0.5577428,38.558103596064,39.115846396064,3.28084,0,5.2297245768,8.6726708812,19,5,8.381,39.443930396064,1.64042,4.1159696,5.5365487336,0,0,0,234, -1.6, -0.3,0,0,1024,1024,1024,1024,0,0,0,0,244.7,0,0,95,4.188,4.184,0,0,0,0,3.993,77.36,39.115846396064,1.312336,6,P-GPS,
9400,2022-10-27 20:25:38,-34.9108369791046,-56.1438256121475,1.312336,0.5577428,38.558103596064,39.115846396064,3.28084,0,5.244094656,8.6920606456,19,5,8.381,39.443930396064,1.64042,4.1159696,5.5365487336,0,0,0,234, -2.4, -0.7,0,0,1024,1122,1024,1024,0,15,0,0,244.7,0,0,95,4.188,4.184,0,0,0,0,3.993,77.36,39.115846396064,1.312336,6,P-GPS,
9500,2022-10-27 20:25:38,-34.9108370470759,-56.143825447689,1.312336,0.6233596,38.492486796064,39.115846396064,3.28084,0,5.2613518744,8.7471459492,19,5,8.375,39.443930396064,1.64042,4.1159696,5.5365487336,0,0,0,234.2, -3, -0.2,0,0,1024,1488,1024,1024,0,70,0,0,244.7,0,0,95,4.187,4.186,0,0,0,0,4.029,77.36,39.115846396064,1.312336,6,P-GPS,
9600,2022-10-27 20:25:38,-34.910837100269,-56.1438254086401,1.312336,0.6233596,38.492486796064,39.115846396064,3.28084,0,5.2789043684,8.7698165536,19,5,8.375,39.443930396064,1.64042,4.1159696,5.5365487336,0,0,0,234.3, -2.6, 3,0,0,1024,1521,1024,1024,0,75,0,0,244.7,0,0,95,4.187,4.186,0,0,0,0,4.029,77.36,39.115846396064,1.312336,6,P-GPS,
9700,2022-10-27 20:25:38,-34.9108371220348,-56.1438254145857,1.312336,0.6233596,38.492486796064,39.115846396064,3.28084,0,5.2870080432,8.7779530368,19,5,8.375,39.443930396064,1.64042,4.1159696,5.5365487336,0,0,0,234.2, -2.5, 8.2,0,0,1024,1490,1024,1024,0,71,0,0,244.7,0,0,95,4.187,4.186,0,0,0,0,4.029,77.36,39.115846396064,1.312336,6,P-GPS,
9800,2022-10-27 20:25:39,-34.9108370414333,-56.143825508179,1.312336,0.5577428,38.558103596064,39.115846396064,3.28084,0.3131716,5.2619424256,8.8185370276,19,5,8.375,39.443930396064,1.64042,4.1159696,5.5365487336,0.223694,-0.223694,0,234.1, -2.6, 10.7,0,0,1024,1490,1024,1024,0,71,0,0,244.7,0,0,95,4.187,4.186,0,0,0,0,4.029,77.36,39.115846396064,1.312336,6,P-GPS,
9900,2022-10-27 20:25:39,-34.9108368317402,-56.1438257152632,1.312336,0.5577428,38.558103596064,39.115846396064,3.28084,0.6263432,5.1958334996,8.916995036,19,5,8.375,39.443930396064,1.64042,4.1159696,5.5365487336,0.447388,-0.447388,0,234, -2.6, 12,0,0,1024,1346,1024,1024,0,49,0,0,244.7,0,0,95,4.187,4.186,0,0,0,0,4.029,77.36,39.115846396064,1.312336,6,P-GPS,
10000,2022-10-27 20:25:39,-34.9108364604452,-56.1438260738268,1.312336,0.5577428,38.558103596064,39.115846396064,3.28084,1.11847,5.0809384828,9.0897968788,19,5,8.375,39.443930396064,1.64042,4.1159696,5.5365487336,0.894776,-0.671082,0,233.8, -2.4, 10.7,0,0,1024,1345,1024,1024,0,49,0,0,244.7,0,0,95,4.187,4.186,0,0,0,0,4.029,77.36,39.115846396064,1.312336,6,P-GPS,
10100,2022-10-27 20:25:39,-34.9108360320635,-56.1438264492538,1.312336,0.5577428,38.558103596064,39.115846396064,3.28084,1.4316416,4.9500985836,9.2822837616,19,5,8.375,39.443930396064,1.64042,4.1159696,5.5365487336,1.11847,-0.894776,0,233.7, -2.2, 7.5,0,0,1024,1342,1024,1024,0,48,0,0,244.7,0,0,95,4.187,4.186,0,0,0,0,4.029,77.36,39.115846396064,1.312336,6,P-GPS,
10200,2022-10-27 20:25:39,-34.9108355227758,-56.1438269411654,1.312336,0.492126,38.623720396064,39.115846396064,3.28084,1.6105968,4.8033466104,9.5192916432,19,5,8.375,39.443930396064,1.64042,4.1159696,5.5365487336,1.342164,-0.894776,0,233.9, -2.6, 6.7,0,0,1024,1338,1024,931,0,48,0,-14,244.7,0,0,95,4.187,4.186,0,0,0,0,4.029,77.36,39.115846396064,1.312336,6,P-GPS,
10300,2022-10-27 20:25:39,-34.9108349071278,-56.1438275601111,0.984252,0.065616799999996,38.722145596064,38.787762396064,3.28084,1.9237684,4.638123508,9.8104333848,19,5,8.375,39.443930396064,1.64042,4.1159696,5.5365487336,1.565858,-1.11847,0,233.9, -2.7, 5.8,0,0,1024,1338,1024,931,0,48,0,-14,244.7,0,0,95,4.187,4.186,0,0,0,0,4.029,77.36,38.787762396064,0.984252,6,P-GPS,
10400,2022-10-27 20:25:39,-34.9108342009612,-56.1438283528739,0.984252,0.065616799999996,38.722145596064,38.787762396064,3.28084,2.1027236,4.4733597232,10.1606302464,19,5,8.375,39.443930396064,1.64042,4.1159696,5.5365487336,1.789552,-1.11847,0,233.9, -2.6, 4.8,0,0,1024,1173,1024,881,0,23,0,-22,244.6,0,0,95,4.187,4.186,0,0,0,0,4.029,77.36,38.787762396064,0.984252,6,P-GPS,
10500,2022-10-27 20:25:39,-34.9108334338306,-56.1438291134906,0.984252,-2.3676016702723E-15,38.787762396064,38.787762396064,3.28084,2.23694,4.3065290092,10.5213586044,19,5,8.362,39.443930396064,1.64042,4.1159696,5.5365487336,1.789552,-1.342164,0,234, -2.4, 4.6,0,0,1024,1024,1024,975,0,0,0,-7,244.4,0,0,95,4.183,4.181,0,0,0,0,4.13,77.54,38.787762396064,0.984252,6,P-GPS,
10600,2022-10-27 20:25:39,-34.9108326527018,-56.1438298976509,0.984252,-0.065616800000001,38.853379196064,38.787762396064,3.28084,2.23694,4.1634187684,10.8904859128,19,5,8.362,39.443930396064,1.64042,4.1159696,5.5365487336,1.789552,-1.342164,0,233.8, -2.5, 3.2,0,0,1024,1024,1024,975,0,0,0,-7,244.2,0,0,95,4.183,4.181,0,0,0,0,4.13,77.54,38.787762396064,0.984252,6,P-GPS,
10700,2022-10-27 20:25:39,-34.9108318109803,-56.1438307431141,0.984252,-0.0984252,38.886187596064,38.787762396064,2.952756,2.23694,4.0414699456,11.2883533796,19,5,8.362,39.443930396064,1.64042,4.1159696,5.5365487336,1.789552,-1.342164,0,233.5, -2.8, -0.5,0,0,1024,1024,1024,875,0,0,0,-23,244,0,0,95,4.183,4.181,0,0,0,0,4.13,77.54,38.787762396064,0.984252,6,P-GPS,
10800,2022-10-27 20:25:40,-34.9108309821821,-56.1438318768738,0.984252,-0.1312336,38.918995996064,38.787762396064,2.952756,1.9237684,4.0165027532,11.742782528,19,5,8.362,39.443930396064,1.64042,4.1159696,5.5365487336,1.565858,-1.11847,0,233.3, -2.4, -6.9,0,0,1024,1024,1024,829,0,0,0,-30,243.9,0,0,95,4.183,4.181,0,0,0,0,4.13,77.54,38.787762396064,0.984252,6,P-GPS,
10900,2022-10-27 20:25:40,-34.9108303568368,-56.1438325513551,0.984252,-0.164042,38.951804396064,38.787762396064,2.952756,1.6105968,3.9923885792,12.0473757136,19,5,8.362,39.443930396064,1.64042,4.1159696,5.5365487336,1.342164,-0.894776,0,233.1, -2, -8,0,0,1024,1024,1024,1024,0,0,0,0,243.5,0,0,95,4.183,4.181,0,0,0,0,4.13,77.54,38.787762396064,0.984252,6,P-GPS,
11000,2022-10-27 20:25:40,-34.9108299053084,-56.1438330929088,0.984252,-0.164042,38.951804396064,38.787762396064,2.952756,1.11847,4.0017389732,12.2784452748,19,5,8.362,39.443930396064,1.64042,4.1159696,5.5365487336,0.894776,-0.671082,0,232.9, -2.5, -7.4,0,0,1024,1024,1024,1024,0,0,0,0,243.1,0,0,95,4.183,4.181,0,0,0,0,4.13,77.54,38.787762396064,0.984252,6,P-GPS,
11100,2022-10-27 20:25:40,-34.9108295655808,-56.1438335577686,0.984252,-0.2624672,39.050229596064,38.787762396064,2.952756,0.8052984,4.0310696828,12.46473137,19,5,8.362,39.443930396064,1.64042,4.1159696,5.5365487336,0.671082,-0.447388,0,232.6, -3, -5.8,0,0,1024,1024,1024,1000,0,0,0,-4,242.9,0,0,95,4.183,4.181,0,0,0,0,4.13,77.54,38.787762396064,0.984252,6,P-GPS,
11200,2022-10-27 20:25:40,-34.9108295554421,-56.1438339263933,0.984252,-0.2624672,39.050229596064,38.787762396064,2.624672,0.4921268,4.1164043312,12.5750988276,19,5,8.362,39.443930396064,1.64042,4.1159696,5.5365487336,0.447388,-0.223694,0,232.4, -2.8, -4.5,0,0,1024,1024,1024,957,0,0,0,-10,242.9,0,0,95,4.183,4.181,0,0,0,0,4.13,77.54,38.787762396064,0.984252,6,P-GPS,
11300,2022-10-27 20:25:40,-34.9108294141973,-56.1438341661087,0.984252,-0.1968504,38.984612796064,38.787762396064,2.624672,0.223694,4.1436353032,12.6634190404,19,5,8.362,39.443930396064,1.64042,4.1159696,5.5365487336,0.223694,0,0,232.4, -3.1, -3.1,0,0,1024,1024,1024,606,0,0,0,-63,242.9,0,0,95,4.183,4.181,0,0,0,0,4.13,77.54,38.787762396064,0.984252,6,P-GPS,
11400,2022-10-27 20:25:40,-34.9108294443024,-56.1438342569779,0.984252,-0.1968504,38.984612796064,38.787762396064,2.624672,0,4.1721129944,12.69274975,19,5,8.362,39.443930396064,1.64042,4.1159696,5.5365487336,0,0,0,232.3, -2.9, -1.7,0,0,1024,1024,1024,640,0,0,0,-58,242.8,0,0,95,4.183,4.181,0,0,0,0,4.13,77.54,38.787762396064,0.984252,6,P-GPS,
11500,2022-10-27 20:25:40,-34.9108295844675,-56.1438342614766,0.984252,-0.2624672,39.050229596064,38.787762396064,2.624672,0,4.2032153576,12.7438980456,19,5,8.363,39.443930396064,1.64042,4.1159696,5.5365487336,0,0,0,232.2, -2.9, -0.4,0,0,1024,1024,1024,640,0,0,0,-58,242,0,0,95,4.178,4.176,0,0,0,0,3.991,77.54,38.787762396064,0.984252,6,P-GPS,
11600,2022-10-27 20:25:40,-34.9108297043193,-56.1438341983572,0.984252,-0.2624672,39.050229596064,38.787762396064,2.624672,0,4.2141077464,12.7915358424,19,5,8.363,39.443930396064,1.64042,4.1159696,5.5365487336,0,0,0,230.5, -2.7, 0.4,0,0,1024,1024,1024,1024,0,0,0,0,239.9,0,0,95,4.178,4.176,0,0,0,0,3.991,77.54,38.787762396064,0.984252,6,P-GPS,
11700,2022-10-27 20:25:40,-34.910830168605,-56.1438336537321,0.984252,-0.2624672,39.050229596064,38.787762396064,2.624672,0,4.1918636512,13.02657522,19,5,8.363,39.443930396064,1.64042,4.1159696,5.5365487336,0,0,0,228.8, -2.6, 0.8,0,0,1024,1024,1024,1024,0,0,0,0,238.7,0,0,95,4.178,4.176,0,0,0,0,3.991,77.54,38.787762396064,0.984252,6,P-GPS,
11800,2022-10-27 20:25:40,-34.9108302614149,-56.1438335691127,0.984252,-0.2624672,39.050229596064,38.787762396064,2.624672,0,4.1944883232,13.0688652476,19,5,8.363,39.443930396064,1.64042,4.1159696,5.5365487336,0,0,0,228, -2.2, 0.7,0,0,1148,1024,1024,1024,19,0,0,0,238.4,0,0,95,4.178,4.176,0,0,0,0,3.991,77.54,38.787762396064,0.984252,6,P-GPS,
11900,2022-10-27 20:25:41,-34.9108303522625,-56.1438334884097,0.984252,-0.164042,38.951804396064,38.787762396064,2.624672,0,4.1979332052,13.1098429392,19,5,8.363,39.443930396064,1.64042,4.1159696,5.5365487336,0,0,0,227.7, -2.2, 0.9,0,0,1612,1024,1024,1024,89,0,0,0,238.4,0,0,95,4.178,4.176,0,0,0,0,3.991,77.54,38.787762396064,0.984252,6,P-GPS,
12000,2022-10-27 20:25:41,-34.9108304210854,-56.1438334373906,0.984252,-0.164042,38.951804396064,38.787762396064,2.624672,0,4.203084124,13.1392392656,19,5,8.363,39.443930396064,1.64042,4.1159696,5.5365487336,0,0,0,227.6, -7.3, 1.3,0,0,1655,1024,1024,1024,96,0,0,0,238.4,0,0,95,4.178,4.176,0,0,0,0,3.991,77.54,38.787762396064,0.984252,6,P-GPS,
12100,2022-10-27 20:25:41,-34.9108303987546,-56.143833393175,0.984252,-0.164042,38.951804396064,38.787762396064,2.624672,0.3131716,4.1877626012,13.1547904472,19,5,8.363,39.443930396064,1.64042,4.1159696,5.5365487336,-0.223694,-0.223694,0,227.5, -14.4, 1.5,0,0,1662,1024,1024,1024,97,0,0,0,238.4,0,0,95,4.178,4.176,0,0,0,0,3.991,77.54,38.787762396064,0.984252,6,P-GPS,
12200,2022-10-27 20:25:41,-34.9108305610697,-56.1438336169143,0.984252,-0.2952756,39.083037996064,38.787762396064,2.624672,0.3131716,4.2771654912,13.2441605288,19,5,8.363,39.443930396064,1.64042,4.1159696,5.5365487336,-0.447388,-0.447388,0,227.6, -17.7, 1.5,0,0,1662,1024,1024,1024,97,0,0,0,238.4,0,0,95,4.178,4.176,0,0,0,0,3.991,77.54,38.787762396064,0.984252,6,P-GPS,
12300,2022-10-27 20:25:41,-34.9108308598566,-56.1438340840763,1.312336,0.032808399999998,39.083037996064,39.115846396064,2.624672,1.2750558,4.454068384,13.421424314,19,5,8.363,39.443930396064,1.64042,4.1159696,5.5365487336,-0.894776,-0.894776,0,227.6, -18.4, 0.6,0,0,1662,1024,1024,1024,97,0,0,0,238.4,0,0,95,4.178,4.176,0,0,0,0,3.991,77.54,39.115846396064,1.312336,6,P-GPS,
12400,2022-10-27 20:25:41,-34.9108313092209,-56.1438347314489,1.312336,-0.0656168,39.181463196064,39.115846396064,2.624672,1.901399,4.7077757412,13.6751644796,19,5,8.363,39.443930396064,1.64042,4.1159696,5.5365487336,-1.342164,-1.342164,0,227.6, -17.4, 1,0,0,1662,1024,1024,1024,97,0,0,0,238.4,0,0,95,4.178,4.176,0,0,0,0,3.991,77.54,39.115846396064,1.312336,6,P-GPS,
12500,2022-10-27 20:25:41,-34.9108316491439,-56.1438357862908,0.984252,-0.5249344,39.312696796064,38.787762396064,2.624672,2.684328,5.0278544916,14.014272102,19,5,8.363,39.443930396064,1.64042,4.1159696,5.5365487336,-1.789552,-2.013246,0,227.6, -16.9, 0.7,0,0,1661,1024,1024,1024,97,0,0,0,238.4,0,0,95,4.178,4.176,0,0,0,0,3.991,77.54,38.787762396064,0.984252,6,P-GPS,
12600,2022-10-27 20:25:41,-34.9108324708421,-56.1438368358334,0.984252,-0.5905512,39.378313596064,38.787762396064,2.624672,3.3330406,5.4612206472,14.4484256592,19,5,8.363,39.443930396064,1.64042,4.1159696,5.5365487336,-2.23694,-2.460634,0,227.6, -16.4, 0.5,0,0,1655,1024,1024,1024,96,0,0,0,238.4,0,0,95,4.178,4.176,0,0,0,0,3.991,77.54,38.787762396064,0.984252,6,P-GPS,
12700,2022-10-27 20:25:41,-34.9108335235937,-56.1438381275712,0.984252,-0.7545932,39.542355596064,38.787762396064,2.624672,3.802798,6.004593368,14.9933075664,19,5,8.348,39.443930396064,1.64042,4.1159696,6.004593368,-2.684328,-2.684328,0,227.8, -16.7, 1.1,0,0,1641,1024,1024,1024,93,0,0,0,238.4,0,0,95,4.164,4.159,0,0,0,0,4.187,77.54,38.787762396064,0.984252,6,P-GPS,
12800,2022-10-27 20:25:42,-34.9108347210114,-56.1438395864739,0.984252,-0.9186352,39.706397596064,38.787762396064,2.624672,4.2725554,6.6206038864,15.6108600796,19,5,8.348,39.443930396064,1.64042,4.2725554,6.6206038864,-2.908022,-3.131716,0,227.8, -16.6, 1.2,0,0,1545,1024,1024,1024,79,0,0,0,238.4,0,0,95,4.164,4.159,0,0,0,0,4.187,77.54,38.787762396064,0.984252,6,P-GPS,
12900,2022-10-27 20:25:42,-34.9108364928154,-56.1438416572909,0.984252,-1.0826772,39.870439596064,38.787762396064,2.952756,4.585727,7.512959558,16.5062669324,19,5,8.348,39.443930396064,1.64042,4.585727,7.512959558,-3.131716,-3.35541,0,227.8, -16, 1.2,0,0,1394,1024,1024,1024,56,0,0,0,238.4,0,0,95,4.164,4.159,0,0,0,0,4.187,77.54,38.787762396064,0.984252,6,P-GPS,
13000,2022-10-27 20:25:42,-34.9108379893636,-56.143843475083,0.984252,-1.1811024,39.968864796064,38.787762396064,2.952756,5.0778538,8.2824477716,17.2769362484,19,5,8.348,39.443930396064,1.64042,5.0778538,8.2824477716,-3.35541,-3.802798,0,227.7, -13.3, 0.9,0,0,1297,1024,947,1024,41,0,-12,0,238.4,0,0,95,4.164,4.159,0,0,0,0,4.187,77.54,38.787762396064,0.984252,6,P-GPS,
13100,2022-10-27 20:25:42,-34.9108396705903,-56.1438455111572,0.656168,-1.7716536,40.231331996064,38.459678396064,2.952756,5.3910254,9.1458008176,18.1414375884,19,5,8.348,39.443930396064,1.64042,5.3910254,9.1458008176,-3.579104,-4.026492,0,227.6, -10, 0.6,0,0,1251,1024,920,1024,34,0,-16,0,238.4,0,0,95,4.164,4.159,0,0,0,0,4.187,77.54,38.459678396064,0.656168,6,P-GPS,
13200,2022-10-27 20:25:42,-34.9108413379737,-56.1438474294729,0.656168,-1.8372704,40.296948796064,38.459678396064,2.952756,5.5476112,9.979987196,18.9777893212,19,5,8.348,39.443930396064,1.64042,5.5476112,9.979987196,-3.802798,-4.026492,0,227.7, -6.7, 0.3,0,0,1251,1024,920,1024,34,0,-16,0,238.4,0,0,95,4.164,4.159,0,0,0,0,4.187,77.54,38.459678396064,0.656168,6,P-GPS,
13300,2022-10-27 20:25:42,-34.9108431237482,-56.1438494093345,0.656168,-2.0013124,40.460990796064,38.459678396064,2.624672,5.5476112,10.8575134708,19.8583667772,19,5,8.348,39.443930396064,1.64042,5.5476112,10.8575134708,-3.802798,-4.026492,0,227.7, -3.8, 1.2,0,0,1264,1024,1024,1024,36,0,0,0,238.4,0,0,95,4.164,4.159,0,0,0,0,4.187,77.54,38.459678396064,0.656168,6,P-GPS,
13400,2022-10-27 20:25:42,-34.9108452176699,-56.1438512908272,0.656168,-2.1981628,40.657841196064,38.459678396064,2.624672,5.5476112,11.7918967028,20.8073169388,19,5,8.348,39.443930396064,1.64042,5.5476112,11.7918967028,-3.802798,-4.026492,0,227.6, -2.6, 0.8,0,0,1276,1024,1024,1024,38,0,0,0,238.4,0,0,95,4.164,4.159,0,0,0,0,4.187,77.54,38.459678396064,0.656168,6,P-GPS,
13500,2022-10-27 20:25:42,-34.9108469959991,-56.143853153625,0.656168,-2.3622048,40.821883196064,38.459678396064,2.624672,5.5476112,12.6437668088,21.6626647352,19,5,8.348,39.443930396064,1.64042,5.5476112,12.6437668088,-3.802798,-4.026492,0,228, -2.8, 1.1,0,0,1285,1024,1024,1024,40,0,0,0,238.4,0,0,95,4.164,4.159,0,0,0,0,4.187,77.54,38.459678396064,0.656168,6,P-GPS,
13600,2022-10-27 20:25:42,-34.9108486742735,-56.1438548922916,0.656168,-2.5262468,40.985925196064,38.459678396064,2.624672,5.368656,13.4439636848,22.4661096428,19,5,8.348,39.443930396064,1.64042,5.5476112,13.4439636848,-3.802798,-3.802798,0,228.1, -2.7, 1.9,0,0,1259,1024,1024,1024,36,0,0,0,238.4,0,0,95,4.164,4.159,0,0,0,0,4.187,77.54,38.459678396064,0.656168,6,P-GPS,
13700,2022-10-27 20:25:42,-34.9108504166662,-56.1438566986965,0.656168,-2.6902888,41.149967196064,38.459678396064,2.624672,5.368656,14.275426966,23.3004928716,19,5,8.348,39.443930396064,1.64042,5.5476112,14.275426966,-3.802798,-3.802798,0,227.9, -3, 1.8,0,0,1204,1024,1024,1024,27,0,0,0,238.4,0,0,95,4.164,4.159,0,0,0,0,4.187,77.54,38.459678396064,0.656168,6,P-GPS,
13800,2022-10-27 20:25:43,-34.9108520928301,-56.1438579072671,0.656168,-2.788714,41.248392396064,38.459678396064,2.624672,5.2120702,14.964403366,24.0109587736,19,5,8.348,39.443930396064,1.64042,5.5476112,14.964403366,-3.579104,-3.802798,0,227.8, -2.3, 1.6,0,0,1187,1024,1024,1024,25,0,0,0,238.4,0,0,95,4.164,4.159,0,0,0,0,4.187,77.54,38.459678396064,0.656168,6,P-GPS,
13900,2022-10-27 20:25:43,-34.9108537781655,-56.1438595002192,0.656168,-2.952756,41.412434396064,38.459678396064,2.952756,5.2344396,15.7375005036,24.7889443628,19,5,8.348,39.443930396064,1.64042,5.5476112,15.7375005036,-4.026492,-3.35541,0,222.1, -1.7, 2.1,0,0,1162,1024,1024,1024,21,0,0,0,238.4,0,0,95,4.164,4.159,0,0,0,0,4.187,77.54,38.459678396064,0.656168,6,P-GPS,
14000,2022-10-27 20:25:43,-34.910855342465,-56.1438609972155,0.656168,-3.0183728,41.478051196064,38.459678396064,2.952756,5.1002232,16.4592853036,25.514436512,19,5,8.348,39.443930396064,1.64042,5.5476112,16.4592853036,-4.026492,-3.131716,0,222.1, -0.9, 2,0,0,1162,1024,1024,1024,21,0,0,0,238.4,0,0,95,4.164,4.159,0,0,0,0,4.187,77.54,38.459678396064,0.656168,6,P-GPS,
14100,2022-10-27 20:25:43,-34.9108569460264,-56.1438625583382,0.656168,-3.1824148,41.642093196064,38.459678396064,2.952756,4.921268,17.2049874272,26.2630585832,19,5,8.348,39.443930396064,1.64042,5.5476112,17.2049874272,-3.802798,-3.131716,0,222, -0.9, 1.9,0,0,1096,1024,1024,1024,11,0,0,0,238.4,0,0,95,4.164,4.159,0,0,0,0,4.187,77.54,38.459678396064,0.656168,6,P-GPS,
14200,2022-10-27 20:25:43,-34.9108583455991,-56.1438633061338,0.656168,-3.1824148,41.642093196064,38.459678396064,2.952756,4.7870516,17.7302171028,26.820538916,19,5,8.348,39.443930396064,1.64042,5.5476112,17.7302171028,-3.802798,-2.908022,0,222, -0.5, 2.2,0,0,1024,1024,1024,1024,0,0,0,0,238.4,0,0,95,4.164,4.159,0,0,0,0,4.187,77.54,38.459678396064,0.656168,6,P-GPS,
14300,2022-10-27 20:25:43,-34.9108599143737,-56.1438647663463,0.656168,-3.3464568,41.806135196064,38.459678396064,2.952756,4.6080964,18.4469494092,27.5406176792,19,5,8.348,39.443930396064,1.64042,5.5476112,18.4469494092,-3.579104,-2.908022,0,222.3, 9.5, 2.4,0,0,1024,1024,1024,1024,0,0,0,0,238.4,0,0,95,4.164,4.159,0,0,0,0,4.187,77.54,38.459678396064,0.656168,6,P-GPS,
14400,2022-10-27 20:25:43,-34.9108612377873,-56.1438660287973,0.656168,-3.444882,41.904560396064,38.459678396064,2.952756,3.9817532,19.0580058592,28.1536426332,19,5,8.348,39.443930396064,1.64042,5.5476112,19.0580058592,-3.131716,-2.460634,0,222.4, 16.5, 1.8,0,0,1024,1024,1024,1024,0,0,0,0,238.4,0,0,95,4.164,4.159,0,0,0,0,4.187,77.54,38.459678396064,0.656168,6,P-GPS,
14500,2022-10-27 20:25:43,-34.9108623894359,-56.1438671409422,0.656168,-3.5104988,41.970177196064,38.459678396064,2.952756,3.1764548,19.5925859288,28.6896006556,19,5,8.348,39.443930396064,1.64042,5.5476112,19.5925859288,-2.460634,-2.013246,0,222.3, 16.4, 1.8,0,0,1024,1024,1024,1024,0,0,0,0,238.4,0,0,95,4.164,4.159,0,0,0,0,4.187,77.54,38.459678396064,0.656168,6,P-GPS,
14600,2022-10-27 20:25:43,-34.9108632338069,-56.1438681206193,0.656168,-3.608924,42.068602396064,38.459678396064,2.952756,2.5501116,20.017717176,29.114830328,19,5,8.348,39.443930396064,1.64042,5.5476112,20.017717176,-2.013246,-1.565858,0,222.2, 14.1, 2,0,0,1024,1024,1024,1024,0,0,0,0,238.4,0,0,95,4.164,4.159,0,0,0,0,4.187,77.54,38.459678396064,0.656168,6,P-GPS,
14700,2022-10-27 20:25:43,-34.9108640144146,-56.143868896486,0.656168,-3.6745408,42.134219196064,38.459678396064,2.952756,1.7448132,20.3845478964,29.4822515996,19,5,8.348,39.443930396064,1.64042,5.5476112,20.3845478964,-1.342164,-1.11847,0,222.1, 11.8, 1.4,0,0,1024,1024,1024,1024,0,0,0,0,238.4,0,0,95,4.164,4.159,0,0,0,0,4.187,77.54,38.459678396064,0.656168,6,P-GPS,
14800,2022-10-27 20:25:44,-34.9108645263355,-56.1438694562567,0.656168,-3.7073492,42.167027596064,38.459678396064,2.952756,1.4316416,20.6354009228,29.7331374344,19,5,8.348,39.443930396064,1.64042,5.5476112,20.6354009228,-1.11847,-0.894776,0,222.4, 9.1, 1.2,0,0,1024,1024,1024,1024,0,0,0,0,238.4,0,0,95,4.164,4.159,0,0,0,0,4.187,77.54,38.459678396064,0.656168,6,P-GPS,
14900,2022-10-27 20:25:44,-34.910864889104,-56.1438698996792,0.984252,-3.444882,42.232644396064,38.787762396064,2.952756,0.8052984,20.8226056532,29.9205390152,19,5,8.358,39.443930396064,1.64042,5.5476112,20.8226056532,-0.671082,-0.447388,0,222.1, 7, 1.4,0,0,1024,1024,1024,1024,0,0,0,0,238.4,0,0,95,4.169,4.166,0,0,0,0,3.949,77.72,38.787762396064,0.984252,6,P-GPS,
15000,2022-10-27 20:25:44,-34.9108650880803,-56.143870100251,0.984252,-3.444882,42.232644396064,38.787762396064,2.952756,0.6263432,20.916667336,30.0147319316,19,5,8.358,39.443930396064,1.64042,5.5476112,20.916667336,-0.447388,-0.447388,0,221.8, 4.6, 1.5,0,0,1024,1024,1024,1015,0,0,0,-1,238.4,0,0,95,4.169,4.166,0,0,0,0,3.949,77.72,38.787762396064,0.984252,6,P-GPS,
15100,2022-10-27 20:25:44,-34.9108648102873,-56.1438698552899,0.984252,-3.444882,42.232644396064,38.787762396064,2.952756,0.4921268,20.7924219252,30.1397975524,19,5,8.358,39.443930396064,1.64042,5.5476112,20.916667336,-0.447388,-0.223694,0,221.7, 3.4, 0.9,0,0,1024,1024,1024,1015,0,0,0,-1,238.4,0,0,95,4.169,4.166,0,0,0,0,3.949,77.72,38.787762396064,0.984252,6,P-GPS,
15200,2022-10-27 20:25:44,-34.9108648612315,-56.1438698622267,0.984252,-3.444882,42.232644396064,38.787762396064,2.952756,0.3131716,20.8075465976,30.1584983404,19,5,8.358,39.443930396064,1.64042,5.5476112,20.916667336,-0.223694,-0.223694,0,221.9, 2.7, 0.5,0,0,1024,1024,1024,992,0,0,0,-5,238.4,0,0,95,4.169,4.166,0,0,0,0,3.949,77.72,38.787762396064,0.984252,6,P-GPS,
15300,2022-10-27 20:25:44,-34.9108648863063,-56.1438698311835,0.984252,-3.444882,42.232644396064,38.787762396064,2.952756,0.3131716,20.8080387236,30.1715232752,19,5,8.358,39.443930396064,1.64042,5.5476112,20.916667336,-0.223694,-0.223694,0,221.9, 1.8, 0.5,0,0,1024,1024,1024,1024,0,0,0,0,238.3,0,0,95,4.169,4.166,0,0,0,0,3.949,77.72,38.787762396064,0.984252,6,P-GPS,
15400,2022-10-27 20:25:44,-34.9108649387618,-56.1438697977688,0.984252,-3.444882,42.232644396064,38.787762396064,2.952756,0.223694,20.8154206136,30.1931440108,19,5,8.358,39.443930396064,1.64042,5.5476112,20.916667336,-0.223694,0,0,222, 1.2, 1.1,0,0,1024,1024,1024,1024,0,0,0,0,238.3,0,0,95,4.169,4.166,0,0,0,0,3.949,77.72,38.787762396064,0.984252,6,P-GPS,
15500,2022-10-27 20:25:44,-34.9108649796096,-56.1438696562277,0.984252,-3.444882,42.232644396064,38.787762396064,2.952756,0.223694,20.7979665448,30.238025902,19,5,8.358,39.443930396064,1.64042,5.5476112,20.916667336,-0.223694,0,0,222, 1.1, 1.3,0,0,1024,1024,1024,1024,0,0,0,0,238.3,0,0,95,4.169,4.166,0,0,0,0,3.949,77.72,38.787762396064,0.984252,6,P-GPS,
15600,2022-10-27 20:25:44,-34.9108650838268,-56.1438696573873,0.984252,-3.444882,42.232644396064,38.787762396064,2.952756,0,20.8263458108,30.2760508376,19,5,8.358,39.443930396064,1.64042,5.5476112,20.916667336,0,0,0,221.9, 1.1, 1.1,0,0,1024,1024,1024,1024,0,0,0,0,238.3,0,0,95,4.169,4.166,0,0,0,0,3.949,77.72,38.787762396064,0.984252,6,P-GPS,
15700,2022-10-27 20:25:44,-34.9108652048463,-56.1438696711199,1.312336,-3.116798,42.232644396064,39.115846396064,2.952756,0,20.8618444996,30.3204077944,19,5,8.358,39.443930396064,1.64042,5.5476112,20.916667336,0,0,0,221.9, 1.2, 0.9,0,0,1024,1024,1024,1024,0,0,0,0,238.3,0,0,95,4.169,4.166,0,0,0,0,3.949,77.72,39.115846396064,1.312336,6,P-GPS,
15800,2022-10-27 20:25:44,-34.9108653247356,-56.1438697258465,1.312336,-3.116798,42.232644396064,39.115846396064,2.952756,0,20.9052828212,30.3670941476,19,5,8.358,39.443930396064,1.64042,5.5476112,20.916667336,0,0,0,222, 0.8, 0.9,0,0,1024,1024,1024,1024,0,0,0,0,238.3,0,0,95,4.169,4.166,0,0,0,0,3.949,77.72,39.115846396064,1.312336,6,P-GPS,
15900,2022-10-27 20:25:45,-34.910865784885,-56.1438701879796,1.312336,-3.116798,42.232644396064,39.115846396064,2.952756,0,21.1225728544,30.5845810312,19,5,8.358,39.443930396064,1.64042,5.5476112,21.1225728544,0,0,0,221.9, 0.8, 0.7,0,0,1024,1024,1024,1024,0,0,0,0,238.3,0,0,95,4.169,4.166,0,0,0,0,3.949,77.72,39.115846396064,1.312336,6,P-GPS,
16000,2022-10-27 20:25:45,-34.910865894248,-56.143870251022,1.312336,-3.116798,42.232644396064,39.115846396064,2.952756,0,21.164862882,30.6287411376,19,5,8.34,39.443930396064,1.64042,5.5476112,21.164862882,0,0,0,221.8, 1, 1,0,0,1024,1024,1024,1024,0,0,0,0,238.3,0,0,95,4.169,4.165,0,0,0,0,4.179,77.72,39.115846396064,1.312336,6,P-GPS,
16100,2022-10-27 20:25:45,-34.9108659944918,-56.1438702962052,1.312336,-3.116798,42.232644396064,39.115846396064,3.28084,0,21.2010833556,30.6677175168,19,5,8.34,39.443930396064,1.64042,5.5476112,21.2010833556,0,0,0,221.9, 1.2, 1.8,0,0,1024,1024,1024,1024,0,0,0,0,238.3,0,0,95,4.169,4.165,0,0,0,0,4.179,77.72,39.115846396064,1.312336,6,P-GPS,
16200,2022-10-27 20:25:45,-34.91086605975,-56.1438703511773,1.312336,-3.116798,42.232644396064,39.115846396064,3.28084,0,21.2297907056,30.6966545256,19,5,8.34,39.443930396064,1.64042,5.5476112,21.2297907056,0,0,0,221.9, 1, 1.8,0,0,1024,1024,1024,1024,0,0,0,0,238.3,0,0,95,4.169,4.165,0,0,0,0,4.179,77.72,39.115846396064,1.312336,6,P-GPS,
16300,2022-10-27 20:25:45,-34.9108662082544,-56.1438706919007,1.312336,-3.1824148,42.298261196064,39.115846396064,3.28084,0,21.338255276,30.8121072852,19,5,8.34,39.443930396064,1.64042,5.5476112,21.338255276,0,0,0,221.8, 0.9, 1.3,0,0,1024,1024,1024,1024,0,0,0,0,238.3,0,0,95,4.169,4.165,0,0,0,0,4.179,77.72,39.115846396064,1.312336,6,P-GPS,
16400,2022-10-27 20:25:45,-34.9108662413574,-56.1438707350572,1.312336,-3.1824148,42.298261196064,39.115846396064,3.28084,0,21.3558733868,30.8297910128,19,5,8.34,39.443930396064,1.64042,5.5476112,21.3558733868,0,0,0,221.8, 1.1, 0.9,0,0,1024,1024,1024,1024,0,0,0,0,238.3,0,0,95,4.169,4.165,0,0,0,0,4.179,77.72,39.115846396064,1.312336,6,P-GPS,
16500,2022-10-27 20:25:45,-34.9108662746819,-56.1438707551259,1.312336,-3.1824148,42.298261196064,39.115846396064,3.28084,0,21.36893113,30.843340882,19,5,8.34,39.443930396064,1.64042,5.5476112,21.36893113,0,0,0,221.9, 0.4, 0.8,0,0,1024,1024,1024,1024,0,0,0,0,238.3,0,0,95,4.169,4.165,0,0,0,0,4.179,77.72,39.115846396064,1.312336,6,P-GPS,
16600,2022-10-27 20:25:45,-34.9108663197702,-56.1438707402598,1.312336,-3.1824148,42.298261196064,39.115846396064,3.28084,0,21.3781502904,30.8603684416,19,5,8.34,39.443930396064,1.64042,5.5476112,21.3781502904,0,0,0,222, 0.4, 1.2,0,0,1024,1024,1024,1024,0,0,0,0,238.3,0,0,95,4.169,4.165,0,0,0,0,4.179,77.72,39.115846396064,1.312336,6,P-GPS,
16700,2022-10-27 20:25:45,-34.9108663750266,-56.1438707068816,1.312336,-3.1824148,42.298261196064,39.115846396064,3.28084,0,21.386483624,30.882875004,19,5,8.34,39.443930396064,1.64042,5.5476112,21.386483624,0,0,0,222, 0.3, 1.2,0,0,1024,1024,1024,1024,0,0,0,0,238.3,0,0,95,4.169,4.165,0,0,0,0,4.179,77.72,39.115846396064,1.312336,6,P-GPS,
