time(millisecond),datetime(utc),latitude,longitude,height_above_takeoff(feet),height_above_ground_at_drone_location(feet),ground_elevation_at_drone_location(feet),altitude_above_seaLevel(feet),height_sonar(feet),speed(mph),distance(feet),mileage(feet),satellites,gpslevel,voltage(v),max_altitude(feet),max_ascent(feet),max_speed(mph),max_distance(feet), xSpeed(mph), ySpeed(mph), zSpeed(mph), compass_heading(degrees), pitch(degrees), roll(degrees),isPhoto,isVideo,rc_elevator,rc_aileron,rc_throttle,rc_rudder,rc_elevator(percent),rc_aileron(percent),rc_throttle(percent),rc_rudder(percent),gimbal_heading(degrees),gimbal_pitch(degrees),gimbal_roll(degrees),battery_percent,voltageCell1,voltageCell2,voltageCell3,voltageCell4,voltageCell5,voltageCell6,current(A),battery_temperature(f),altitude(feet),ascent(feet),flycStateRaw,flycState,message
6100,2022-09-03 18:00:29,-34.8684885312661,-55.2612872580056,0,0,174.41175689351,174.41175689351,0.328084,0,0,0,11,2,0,174.41175689351,0,0,0,0,0,0,89.2, 5.6, 2.3,0,0,364,364,364,1684,-100,-100,-100,100,100.4,0,0,95,4.261,4.255,0,0,0,0,0,72.86,174.41175689351,0,41,Motors_Started,"Vuela con cuidado (sin GPS) Sin señal GPS. La aeronave no puede hacer vuelo estacionario. Vuela con cuidado (Code: 30008). Señal débil del GPS. Vuelo estacionario inestable. Vuela con cuidado (Code: 30002)"
6200,2022-09-03 18:00:29,-34.8684890554817,-55.2612865002002,0,0,174.41175689351,174.41175689351,0.328084,0,0.296714904508,0.296714904508,11,2,0,174.41175689351,0,0,0.296714904508,0,0,0,89.2, 5.6, 2.3,0,0,364,364,364,1671,-100,-100,-100,98,100.4,0,0,95,4.261,4.255,0,0,0,0,0,72.86,174.41175689351,0,41,Motors_Started,
6300,2022-09-03 18:00:29,-34.8684895533427,-55.2612857802558,0,0.032808399999993,174.37894849351,174.41175689351,0.328084,0,0.57856629148,0.57856629148,11,2,0,174.41175689351,0,0,0.57856629148,0,0,0,89.2, 5.5, 2.3,0,0,364,364,364,1671,-100,-100,-100,98,100.4,0,0,95,4.261,4.255,0,0,0,0,0,72.86,174.41175689351,0,41,Motors_Started,
6400,2022-09-03 18:00:29,-34.8684900767636,-55.2612850215734,0,0,174.41175689351,174.41175689351,0.328084,0,0.8752953036,0.8752953036,11,2,0,174.41175689351,0,0,0.8752953036,0,0,0,89.2, 5.6, 2.3,0,0,1024,1024,1024,1024,0,0,0,0,100.3,0,0,95,4.261,4.255,0,0,0,0,0,72.86,174.41175689351,0,41,Motors_Started,
6500,2022-09-03 18:00:29,-34.8684906376909,-55.2612842604684,0,0.032808399999993,174.37894849351,174.41175689351,0.328084,0,1.18143376484,1.18154859424,11,2,0,174.41175689351,0,0,1.18143376484,0,0,0,89.2, 5.5, 2.2,0,0,1024,1024,1024,1024,0,0,0,0,100.3,0,0,95,4.261,4.255,0,0,0,0,0,72.86,174.41175689351,0,41,Motors_Started,"Setting new Return-To-Home altitude to 60m (197 ft). Data Recorder File Index is 48. Setting new Maximum Flight Altitude to 120m (394 ft)"
6600,2022-09-03 18:00:29,-34.8684911920003,-55.2612834608969,0,0,174.41175689351,174.41175689351,0.328084,0,1.49478023156,1.49490162264,11,2,0,174.41175689351,0,0,1.49478023156,0,0,0,89.2, 5.6, 2.3,0,0,1024,1024,1024,1024,0,0,0,0,100.3,0,0,95,4.261,4.255,0,0,0,0,0,72.86,174.41175689351,0,41,Motors_Started,
6700,2022-09-03 18:00:29,-34.868491692597,-55.2612827358779,0,0.032808399999993,174.37894849351,174.41175689351,0.328084,0,1.77843181544,1.77855648736,11,2,0,174.41175689351,0,0,1.77843181544,0,0,0,89.2, 5.6, 2.3,0,0,1024,1024,1024,1024,0,0,0,0,100.3,0,0,95,4.261,4.255,0,0,0,0,0,72.86,174.41175689351,0,41,Motors_Started,
6800,2022-09-03 18:00:29,-34.868492219809,-55.2612819728935,0,0.032808399999993,174.37894849351,174.41175689351,0.328084,0,2.07703090636,2.07716213996,11,2,8.562,174.41175689351,0,0,2.07703090636,0,0,0,89.2, 5.6, 2.3,0,0,1024,1024,1024,1024,0,0,0,0,100.3,0,0,95,4.261,4.255,0,0,0,0,0.611,72.86,174.41175689351,0,41,Motors_Started,
6900,2022-09-03 18:00:29,-34.8684927395301,-55.2612812148376,0,0.032808399999993,174.37894849351,174.41175689351,0.328084,0,2.37273957724,2.37288065336,11,2,8.562,174.41175689351,0,0,2.37273957724,0,0,0,89.2, 5.5, 2.2,0,0,1024,1024,1024,1024,0,0,0,0,100.3,0,0,95,4.261,4.255,0,0,0,0,0.611,72.86,174.41175689351,0,41,Motors_Started,
7000,2022-09-03 18:00:30,-34.868493262912,-55.2612804495351,0,0.032808399999993,174.37894849351,174.41175689351,0.328084,0,2.67096793324,2.67111885188,11,2,8.562,174.41175689351,0,0,2.67096793324,0,0,0,89.2, 5.6, 2.2,0,0,1024,1024,1024,1024,0,0,0,0,100.3,0,0,95,4.261,4.255,0,0,0,0,0.611,72.86,174.41175689351,0,41,Motors_Started,
7100,2022-09-03 18:00:30,-34.868493812323,-55.2612796448472,0,0.032808399999993,174.37894849351,174.41175689351,0.328084,0,2.984334085,2.98449484616,11,2,8.562,174.41175689351,0,0,2.984334085,0,0,0,89.2, 5.5, 2.3,0,0,1024,1024,1024,1024,0,0,0,0,100.3,0,0,95,4.261,4.255,0,0,0,0,0.611,72.86,174.41175689351,0,41,Motors_Started,
7200,2022-09-03 18:00:30,-34.8684943083079,-55.2612789164243,0,0.032808399999993,174.37894849351,174.41175689351,0.328084,0,3.26768055076,3.26785443528,11,2,8.562,174.41175689351,0,0,3.26768055076,0,0,0,89.1, 5.6, 2.3,0,0,1024,1024,1039,1024,0,0,2,0,100.3,0,0,95,4.261,4.255,0,0,0,0,0.611,72.86,174.41175689351,0,10,Assisted_Takeoff,
7300,2022-09-03 18:00:30,-34.8684948446262,-55.2612781464859,0,0.032808399999993,174.37894849351,174.41175689351,0.328084,0,3.5700132376,3.570210088,11,2,8.562,174.41175689351,0,0,3.5700132376,0,0,0,89.1, 5.5, 2.2,0,0,1024,1024,1024,1024,0,0,0,0,100.3,0,0,95,4.261,4.255,0,0,0,0,0.611,72.86,174.41175689351,0,10,Assisted_Takeoff,
7400,2022-09-03 18:00:30,-34.868495367956,-55.2612773752109,0,0.032808399999993,174.37894849351,174.41175689351,0.328084,0,3.8696195464,3.8697835884,11,2,8.562,174.41175689351,0,0,3.8696195464,0,0,0,89.1, 5.5, 2.2,0,0,1024,1024,1024,1024,0,0,0,0,100.3,0,0,95,4.261,4.255,0,0,0,0,0.611,72.86,174.41175689351,0,10,Assisted_Takeoff,
7500,2022-09-03 18:00:30,-34.8684958902827,-55.2612766022235,0,0.06561680000001,174.34614009351,174.41175689351,0.328084,0,4.1693570888,4.1695539392,11,2,8.562,174.41175689351,0,0,4.1693570888,0,0,0,89.1, 5.6, 2.2,0,0,1024,1024,1024,1024,0,0,0,0,100.3,0,0,95,4.261,4.255,0,0,0,0,0.611,72.86,174.41175689351,0,10,Assisted_Takeoff,
7600,2022-09-03 18:00:30,-34.8684964381564,-55.2612757904562,0,0.032808399999993,174.37894849351,174.41175689351,0.328084,0,4.4839896448,4.4842193036,11,2,8.562,174.41175689351,0,0,4.4839896448,0,0,0,89.1, 5.6, 2.2,0,0,1024,1024,1024,1024,0,0,0,0,100.3,0,0,95,4.261,4.255,0,0,0,0,0.611,72.86,174.41175689351,0,10,Assisted_Takeoff,
7700,2022-09-03 18:00:30,-34.8684969381668,-55.2612750724122,0,0.06561680000001,174.34614009351,174.41175689351,0.328084,0,4.765912226,4.7661418848,11,2,8.562,174.41175689351,0,0,4.765912226,0,0,0,89.2, 5.5, 2.3,0,0,1024,1024,1082,1024,0,0,9,0,100.3,0,0,95,4.261,4.255,0,0,0,0,0.611,72.86,174.41175689351,0,10,Assisted_Takeoff,
7800,2022-09-03 18:00:30,-34.8684974596076,-55.2612743010328,0,0.032808399999993,174.37894849351,174.41175689351,0.328084,0,5.0650920256,5.0653216844,11,2,8.562,174.41175689351,0,0,5.0650920256,0,0,0,89.2, 5.5, 2.3,0,0,1024,1024,1387,1024,0,0,55,0,100.3,0,0,95,4.261,4.255,0,0,0,0,0.611,72.86,174.41175689351,0,10,Assisted_Takeoff,
7900,2022-09-03 18:00:30,-34.8684979801365,-55.2612735284213,0,0.06561680000001,174.34614009351,174.41175689351,0.328084,0,5.364337442,5.3645999092,11,2,8.504,174.41175689351,0,0,5.364337442,0,0,0,89.1, 5.6, 2.2,0,0,1024,1024,1446,1024,0,0,64,0,100.3,0,0,95,4.265,4.26,0,0,0,0,1.458,72.86,174.41175689351,0,10,Assisted_Takeoff,
8000,2022-09-03 18:00:31,-34.8684984992584,-55.2612727562066,0,0.06561680000001,174.34614009351,174.41175689351,0.328084,0,5.6631563492,5.6634188164,10,2,8.504,174.41175689351,0,0,5.6631563492,0,0,0,89.1, 5.6, 2.1,0,0,1024,1024,1024,1024,0,0,0,0,100.3,0,0,95,4.265,4.26,0,0,0,0,1.458,72.86,174.41175689351,0,10,Assisted_Takeoff,
8100,2022-09-03 18:00:31,-34.8684990436798,-55.2612719465485,0,0.06561680000001,174.34614009351,174.41175689351,0.328084,0,5.9765093776,5.9768046532,10,2,8.504,174.41175689351,0,0,5.9765093776,0,0,0,89, 5.4, 2.2,0,0,1024,1024,1082,1024,0,0,9,0,100.2,0,0,95,4.265,4.26,0,0,0,0,1.458,72.86,174.41175689351,0,10,Assisted_Takeoff,
8200,2022-09-03 18:00:31,-34.8684995307148,-55.2612712433733,0,0.098425200000004,174.31333169351,174.41175689351,0.328084,0,6.251968704,6.2522639796,10,2,8.504,174.41175689351,0,0,6.251968704,0,0,0,88.7, 5.5, 2.2,0,0,1024,1024,1082,1024,0,0,9,0,100.1,0,0,95,4.265,4.26,0,0,0,0,1.458,72.86,174.41175689351,0,10,Assisted_Takeoff,
8300,2022-09-03 18:00:31,-34.868500049524,-55.2612704813704,0,0.06561680000001,174.34614009351,174.41175689351,0.328084,0,6.5483597896,6.5486878736,10,2,8.504,174.41175689351,0,0,6.5483597896,0,0,0,88.6, 5.5, 2.2,0,0,1024,1024,1425,1024,0,0,61,0,99.9,0,0,95,4.265,4.26,0,0,0,0,1.458,72.86,174.41175689351,0,10,Assisted_Takeoff,
8400,2022-09-03 18:00:31,-34.8685005659753,-55.2612697158174,0,0.098425200000004,174.31333169351,174.41175689351,0.328084,0,6.8450461508,6.8453742348,10,2,8.504,174.41175689351,0,0,6.8450461508,0,0,0,88.5, 5.4, 2.2,0,0,1024,1024,1662,1024,0,0,97,0,99.9,0,0,95,4.265,4.26,0,0,0,0,1.458,72.86,174.41175689351,0,10,Assisted_Takeoff,
8500,2022-09-03 18:00:31,-34.8685010843676,-55.2612689548586,0,0.098425200000004,174.31333169351,174.41175689351,0.328084,0,7.1411091524,7.1414372364,10,2,8.504,174.41175689351,0,0,7.1411091524,0,0,0,88.4, 4.1, 2.2,0,0,1024,1024,1101,1024,0,0,12,0,99.8,0,0,95,4.265,4.26,0,0,0,0,1.458,72.86,174.41175689351,0,10,Assisted_Takeoff,
8600,2022-09-03 18:00:31,-34.8685016530854,-55.2612681756481,0,0.098425200000004,174.31333169351,174.41175689351,0.328084,0,7.4531826532,7.4536091624,10,2,8.504,174.41175689351,0,0,7.4531826532,0,0,0,88.8, 0.7, 1.5,0,0,1024,1024,1024,1024,0,0,0,0,99.8,0,0,95,4.265,4.26,0,0,0,0,1.458,72.86,174.41175689351,0,10,Assisted_Takeoff,
8700,2022-09-03 18:00:31,-34.8685021756987,-55.2612674796566,0,0.098425200000004,174.31333169351,174.41175689351,0.328084,0,7.7353348932,7.736056678,10,2,8.504,174.41175689351,0,0,7.7353348932,0,0,-0.223694,89.3, -0.8, 0.9,0,0,1024,1024,1502,1024,0,0,72,0,100.1,0,0,95,4.265,4.26,0,0,0,0,1.458,72.86,174.41175689351,0,10,Assisted_Takeoff,"Señal débil del GPS. Vuelo estacionario inestable. Vuela con cuidado (Code: 30002)"
8800,2022-09-03 18:00:31,-34.8685027409511,-55.2612667444258,0,0.098425200000004,174.31333169351,174.41175689351,0.328084,0,8.0365160052,8.0376642992,10,2,8.504,174.41175689351,0,0,8.0365160052,0,0,-0.223694,89.2, -0.8, -0.1,0,0,1024,1024,1024,1024,0,0,0,0,100.1,0,0,95,4.265,4.26,0,0,0,0,1.458,72.86,174.41175689351,0,6,P-GPS,
8900,2022-09-03 18:00:32,-34.8685033077799,-55.2612659949319,0,0.098425200000004,174.31333169351,174.41175689351,0.328084,0,8.341371658,8.3427824192,10,2,8.482,174.41175689351,0,0,8.341371658,0,0,-0.223694,89.1, -0.1, -0.5,0,0,1024,1024,1024,1024,0,0,0,0,100.1,0,0,95,4.216,4.206,0,0,0,0,1.514,72.86,174.41175689351,0,6,P-GPS,
9000,2022-09-03 18:00:32,-34.8685038527876,-55.2612652195847,0,0.098425200000004,174.31333169351,174.41175689351,0.328084,0,8.6470147124,8.6484254736,11,2,8.482,174.41175689351,0,0,8.6470147124,0,0,-0.447388,88.9, -0.3, -0.5,0,0,1024,1024,1024,1024,0,0,0,0,100.1,0,0,95,4.216,4.206,0,0,0,0,1.514,72.86,174.41175689351,0,6,P-GPS,
9100,2022-09-03 18:00:32,-34.8685044211015,-55.261264409864,0,0.098425200000004,174.31333169351,174.41175689351,0.656168,0,8.9659779772,8.9673887384,11,2,8.482,174.41175689351,0,0,8.9659779772,0,0,-0.447388,88.9, 0, -0.5,0,0,1024,1024,1024,1024,0,0,0,0,100.1,0,0,95,4.216,4.206,0,0,0,0,1.514,72.86,174.41175689351,0,6,P-GPS,
9200,2022-09-03 18:00:32,-34.8684935265245,-55.2612740806327,0,-0.032808399999993,174.44456529351,174.41175689351,0.656168,0,4.3452757296,13.8847445388,12,2,8.482,174.41175689351,0,0,8.9659779772,0,0,-0.447388,89.1, 0, 0.5,0,0,1024,1024,1024,1024,0,0,0,0,100.1,0,0,95,4.216,4.206,0,0,0,0,1.514,72.86,174.41175689351,0,6,P-GPS,
9300,2022-09-03 18:00:32,-34.8684182502352,-55.2613424728303,0.328084,-0.68897640000001,175.42881729351,174.73984089351,0.656168,0,30.5073500576,48.140421488,12,2,8.482,174.73984089351,0.328084,0,30.5073500576,0,0,-0.671082,89.1, 0.4, 0.1,0,0,1024,1024,1024,1024,0,0,0,0,100.1,0,0,95,4.216,4.206,0,0,0,0,1.514,72.86,174.73984089351,0.328084,6,P-GPS,
9400,2022-09-03 18:00:32,-34.8683522785899,-55.2614039866825,0.328084,-1.5091864,176.24902729351,174.73984089351,0.656168,0,60.763781472,78.445868652,12,2,8.482,174.73984089351,0.328084,0,60.763781472,0,0,-0.894776,88.9, 0.7, -0.3,0,0,1024,1024,1211,1024,0,0,28,0,100.1,0,0,95,4.216,4.206,0,0,0,0,1.514,72.86,174.73984089351,0.328084,6,P-GPS,
9500,2022-09-03 18:00:32,-34.8683528027135,-55.261403967397,0.328084,-1.476378,176.21621889351,174.73984089351,0.984252,0,60.604004564,78.637141624,12,2,8.482,174.73984089351,0.328084,0,60.763781472,0,0,-1.11847,88.9, 1.4, -0.5,0,0,1024,1024,1346,1024,0,0,49,0,100.1,0,0,95,4.216,4.206,0,0,0,0,1.514,72.86,174.73984089351,0.328084,6,P-GPS,
9600,2022-09-03 18:00:32,-34.8683532683764,-55.2614039882487,0.656168,-1.148294,176.21621889351,175.06792489351,0.984252,0,60.468833956,78.807089136,12,2,8.482,175.06792489351,0.656168,0,60.763781472,0,0,-1.11847,88.9, 1.1, -0.4,0,0,1024,1024,1024,1024,0,0,0,0,100.1,0,0,95,4.216,4.206,0,0,0,0,1.514,72.86,175.06792489351,0.656168,6,P-GPS,
9700,2022-09-03 18:00:32,-34.8683532721304,-55.261404170579,0.656168,-1.148294,176.21621889351,175.06792489351,1.312336,0,60.499345768,78.861879164,12,2,8.482,175.06792489351,0.656168,0,60.763781472,0,0,-1.342164,88.9, 0.8, -0.3,0,0,1024,1024,1024,1024,0,0,0,0,100.1,0,0,95,4.216,4.206,0,0,0,0,1.514,72.86,175.06792489351,0.656168,6,P-GPS,
9800,2022-09-03 18:00:32,-34.8683533112061,-55.2614043566786,0.984252,-0.82020999999999,176.21621889351,175.39600889351,1.312336,0,60.52001506,78.919293864,12,2,8.482,175.39600889351,0.984252,0,60.763781472,0,0,-1.342164,88.9, 0.5, -0.6,0,0,1024,1024,1024,1024,0,0,0,0,100.1,0,0,95,4.216,4.206,0,0,0,0,1.514,72.86,175.39600889351,0.984252,6,P-GPS,
9900,2022-09-03 18:00:32,-34.8683543313506,-55.261404932018,1.312336,-0.4593176,176.18341049351,175.72409289351,1.64042,0,60.317259148,79.329398864,12,2,8.35,175.72409289351,1.312336,0,60.763781472,0,0,-0.894776,88.9, -0.4, -1.7,0,0,1024,1024,1024,1024,0,0,0,0,100.1,0,0,95,4.173,4.145,0,0,0,0,3.626,72.86,175.72409289351,1.312336,6,P-GPS,
10000,2022-09-03 18:00:33,-34.8683547199596,-55.2614050340528,1.312336,-0.4593176,176.18341049351,175.72409289351,1.64042,0,60.220146284,79.474411992,12,2,8.35,175.72409289351,1.312336,0,60.763781472,0,0,-0.671082,88.9, 0, -1.2,0,0,1024,1024,1024,1024,0,0,0,0,100.1,0,0,95,4.173,4.145,0,0,0,0,3.626,72.86,175.72409289351,1.312336,6,P-GPS,
10100,2022-09-03 18:00:33,-34.8683550174222,-55.2614047277397,1.312336,-0.4593176,176.18341049351,175.72409289351,1.64042,0,60.078413996,79.616472364,12,2,8.35,175.72409289351,1.312336,0,60.763781472,0,0,-0.447388,88.9, 0.3, -0.5,0,0,1024,1024,1024,1024,0,0,0,0,100.1,0,0,95,4.173,4.145,0,0,0,0,3.626,72.86,175.72409289351,1.312336,6,P-GPS,
10200,2022-09-03 18:00:33,-34.8683552803023,-55.2614044465803,1.312336,-0.4593176,176.18341049351,175.72409289351,1.64042,0,59.951445488,79.74409704,12,2,8.35,175.72409289351,1.312336,0,60.763781472,0,0,0,88.9, 0.5, -0.3,0,0,1024,1024,1024,1024,0,0,0,0,100.1,0,0,95,4.173,4.145,0,0,0,0,3.626,72.86,175.72409289351,1.312336,6,P-GPS,
10300,2022-09-03 18:00:33,-34.868355603022,-55.261403895956,1.64042,-0.098425200000004,176.15060209351,176.05217689351,1.968504,0,59.759516348,79.946524868,12,4,8.35,176.05217689351,1.64042,0,60.763781472,0,0,0,88.9, 1.1, 0,0,0,1024,1024,1024,1024,0,0,0,0,100.1,0,0,95,4.173,4.145,0,0,0,0,3.626,72.86,176.05217689351,1.64042,6,P-GPS,
10400,2022-09-03 18:00:33,-34.8683557084223,-55.2614039095822,1.64042,-0.098425200000004,176.15060209351,176.05217689351,1.968504,0,59.730644956,79.98523878,13,4,8.35,176.05217689351,1.64042,0,60.763781472,0,0,0,88.8, 0.8, 0.1,0,0,1024,1024,1024,1024,0,0,0,0,100.1,0,0,95,4.173,4.145,0,0,0,0,3.626,72.86,176.05217689351,1.64042,6,P-GPS,
10500,2022-09-03 18:00:33,-34.868355642879,-55.2614041045571,1.64042,-0.098425200000004,176.15060209351,176.05217689351,1.64042,0,59.784122648,80.048558992,13,4,8.35,176.05217689351,1.64042,0,60.763781472,0,0,0,88.9, 0.9, 0.3,0,0,1024,1024,1024,1024,0,0,0,0,100.1,0,0,95,4.173,4.145,0,0,0,0,3.626,72.86,176.05217689351,1.64042,6,P-GPS,
10600,2022-09-03 18:00:33,-34.8683555618289,-55.2614042533699,1.64042,-0.098425200000004,176.15060209351,176.05217689351,1.64042,0,59.8343195,80.1017086,14,4,8.35,176.05217689351,1.64042,0,60.763781472,0,0,0,88.9, 0.9, 0.4,0,0,1024,1024,1024,1024,0,0,0,0,100.1,0,0,95,4.173,4.145,0,0,0,0,3.626,72.86,176.05217689351,1.64042,6,P-GPS,
10700,2022-09-03 18:00:33,-34.8683547769869,-55.2614040552834,1.64042,-0.1312336,176.18341049351,176.05217689351,1.64042,0,60.032154152,80.394359528,14,4,8.35,176.05217689351,1.64042,0,60.763781472,0,0,0,88.9, 1, 0.5,0,0,1024,1024,1024,1024,0,0,0,0,100.1,0,0,95,4.173,4.145,0,0,0,0,3.626,72.86,176.05217689351,1.64042,6,P-GPS,
10800,2022-09-03 18:00:33,-34.8683546515808,-55.2614038596194,1.64042,-0.1312336,176.18341049351,176.05217689351,1.64042,0,60.035434992,80.468506512,14,4,8.35,176.05217689351,1.64042,0,60.763781472,0,0,0,88.8, 0.9, 0.5,0,0,1024,1024,1279,1024,0,0,39,0,100.1,0,0,95,4.173,4.145,0,0,0,0,3.626,72.86,176.05217689351,1.64042,6,P-GPS,
10900,2022-09-03 18:00:33,-34.8683545514441,-55.2614034521799,1.64042,-0.1312336,176.18341049351,176.05217689351,1.64042,0,59.994096408,80.595803104,14,4,8.372,176.05217689351,1.64042,0,60.763781472,0,0,0,88.9, 0.8, 0.5,0,0,1024,1024,1024,1024,0,0,0,0,100.1,0,0,94,4.177,4.171,0,0,0,0,3.994,72.86,176.05217689351,1.64042,6,P-GPS,
11000,2022-09-03 18:00:34,-34.8683544781731,-55.2614030616454,1.64042,-0.16404199999999,176.21621889351,176.05217689351,1.968504,0,59.948492732,80.715881848,12,4,8.372,176.05217689351,1.64042,0,60.763781472,0,0,0,88.9, 0.7, 0.7,0,0,1024,1024,1024,1024,0,0,0,0,100.1,0,0,94,4.177,4.171,0,0,0,0,3.994,72.86,176.05217689351,1.64042,6,P-GPS,
11100,2022-09-03 18:00:34,-34.8683545614937,-55.2614018098924,1.64042,-0.16404199999999,176.21621889351,176.05217689351,1.968504,0,59.707679076,81.091866112,12,4,8.372,176.05217689351,1.64042,0,60.763781472,0,0,-0.223694,88.8, 0.9, 0.4,0,0,1024,1024,1024,1024,0,0,0,0,100.1,0,0,94,4.177,4.171,0,0,0,0,3.994,72.86,176.05217689351,1.64042,6,P-GPS,
11200,2022-09-03 18:00:34,-34.8683546526157,-55.2614014889089,1.64042,-0.16404199999999,176.21621889351,176.05217689351,1.968504,0,59.625329992,81.193572152,12,4,8.372,176.05217689351,1.64042,0,60.763781472,0,0,0,88.8, 1, 0.4,0,0,1024,1024,1024,1024,0,0,0,0,100.1,0,0,94,4.177,4.171,0,0,0,0,3.994,72.86,176.05217689351,1.64042,6,P-GPS,
11300,2022-09-03 18:00:34,-34.8683545794921,-55.2614013485537,1.64042,-0.16404199999999,176.21621889351,176.05217689351,1.968504,0,59.623033404,81.243112836,12,4,8.372,176.05217689351,1.64042,0,60.763781472,0,0,0,88.8, 0.9, 0.2,0,0,1024,1024,1024,1024,0,0,0,0,100.1,0,0,94,4.177,4.171,0,0,0,0,3.994,72.86,176.05217689351,1.64042,6,P-GPS,
11400,2022-09-03 18:00:34,-34.8683545070226,-55.2614012312012,1.64042,-0.16404199999999,176.21621889351,176.05217689351,1.968504,0,59.624673824,81.287076092,12,4,8.372,176.05217689351,1.64042,0,60.763781472,0,0,0,88.8, 0.8, 0,0,0,1024,1024,1273,1024,0,0,38,0,100.1,0,0,94,4.177,4.171,0,0,0,0,3.994,72.86,176.05217689351,1.64042,6,P-GPS,
11500,2022-09-03 18:00:34,-34.8683544016884,-55.2614011815621,1.64042,-0.19685040000001,176.24902729351,176.05217689351,1.968504,0,59.647639704,81.328414676,12,4,8.372,176.05217689351,1.64042,0,60.763781472,0,0,0,88.9, 0.9, 0,0,0,1024,1024,1024,1024,0,0,0,0,100.1,0,0,94,4.177,4.171,0,0,0,0,3.994,72.86,176.05217689351,1.64042,6,P-GPS,
11600,2022-09-03 18:00:34,-34.8683539135208,-55.2614014558719,1.968504,0.13123359999999,176.24902729351,176.38026089351,1.968504,0,59.840553096,81.524608908,13,4,8.372,176.38026089351,1.968504,0,60.763781472,0,0,-0.223694,88.8, 0.6, 0.2,0,0,1024,1024,1024,1024,0,0,0,0,100.1,0,0,94,4.177,4.171,0,0,0,0,3.994,72.86,176.38026089351,1.968504,6,P-GPS,
11700,2022-09-03 18:00:34,-34.8683537000338,-55.2614016211824,1.968504,0.16404200000001,176.21621889351,176.38026089351,1.968504,0,59.9327447,81.616800512,13,4,8.372,176.38026089351,1.968504,0,60.763781472,0,0,-0.223694,88.9, 1, 0.2,0,0,1024,1024,1024,1024,0,0,0,0,100.1,0,0,94,4.177,4.171,0,0,0,0,3.994,72.86,176.38026089351,1.968504,6,P-GPS,
11800,2022-09-03 18:00:34,-34.8683534947981,-55.2614018021761,1.968504,0.13123359999999,176.24902729351,176.38026089351,1.968504,0,60.025264388,81.7093202,13,4,8.372,176.38026089351,1.968504,0,60.763781472,0,0,0,88.9, 1.1, 0.2,0,0,1024,1024,1024,1024,0,0,0,0,100.1,0,0,94,4.177,4.171,0,0,0,0,3.994,72.86,176.38026089351,1.968504,6,P-GPS,
11900,2022-09-03 18:00:34,-34.8683533927354,-55.261401985989,1.968504,0.13123359999999,176.24902729351,176.38026089351,1.968504,0,60.087272264,81.775593168,13,4,8.389,176.38026089351,1.968504,0,60.763781472,0,0,0,88.9, 1, 0.4,0,0,1024,1024,1024,1024,0,0,0,0,100.1,0,0,94,4.152,4.19,0,0,0,0,4.093,72.86,176.38026089351,1.968504,6,P-GPS,
12000,2022-09-03 18:00:35,-34.8683530028574,-55.2614028629219,1.968504,0.13123359999999,176.24902729351,176.38026089351,1.968504,0,60.354004556,82.074149608,13,4,8.389,176.38026089351,1.968504,0,60.763781472,0,0,0,88.8, 1, 0.4,0,0,1024,1024,1024,1024,0,0,0,0,100.1,0,0,94,4.152,4.19,0,0,0,0,4.093,72.86,176.38026089351,1.968504,6,P-GPS,
12100,2022-09-03 18:00:35,-34.8683529675633,-55.2614028597999,1.968504,0.13123359999999,176.24902729351,176.38026089351,1.968504,0,60.36417516,82.087272968,13,4,8.389,176.38026089351,1.968504,0,60.763781472,0,0,0,88.8, 0.9, 0.5,0,0,1024,1024,1024,1024,0,0,0,0,100.1,0,0,94,4.152,4.19,0,0,0,0,4.093,72.86,176.38026089351,1.968504,6,P-GPS,"En vuelo"
12200,2022-09-03 18:00:35,-34.8683529421523,-55.2614028813617,1.968504,0.13123359999999,176.24902729351,176.38026089351,1.968504,0,60.375330016,82.098427824,13,4,8.389,176.38026089351,1.968504,0,60.763781472,0,0,0,88.8, 0.8, 0.6,0,0,1024,1024,1024,1024,0,0,0,0,100.1,0,0,94,4.152,4.19,0,0,0,0,4.093,72.86,176.38026089351,1.968504,6,P-GPS,
12300,2022-09-03 18:00:35,-34.8683528894542,-55.261403114135,1.968504,0.13123359999999,176.24902729351,176.38026089351,1.968504,0,60.431104296,82.170606304,13,4,8.389,176.38026089351,1.968504,0,60.763781472,0,0,0,88.9, 0.8, 0.5,0,0,1024,1024,1024,1024,0,0,0,0,100.1,0,0,94,4.152,4.19,0,0,0,0,4.093,72.86,176.38026089351,1.968504,6,P-GPS,
12400,2022-09-03 18:00:35,-34.8683529297321,-55.2614034408926,1.968504,0.13123359999999,176.24902729351,176.38026089351,1.968504,0,60.475395636,82.269687672,13,4,8.389,176.38026089351,1.968504,0,60.763781472,0,0,0,88.9, 0.7, 0.5,0,0,1024,1024,1024,1024,0,0,0,0,100.1,0,0,94,4.152,4.19,0,0,0,0,4.093,72.86,176.38026089351,1.968504,6,P-GPS,
12500,2022-09-03 18:00:35,-34.8683529780082,-55.2614037826443,1.968504,0.16404200000001,176.21621889351,176.38026089351,1.968504,0,60.52001506,82.373362216,13,4,8.389,176.38026089351,1.968504,0,60.763781472,0,0,0,88.8, 0.6, 0.4,0,0,1024,1024,1024,1024,0,0,0,0,100.1,0,0,94,4.152,4.19,0,0,0,0,4.093,72.86,176.38026089351,1.968504,6,P-GPS,
12600,2022-09-03 18:00:35,-34.868353039223,-55.2614041251687,1.968504,0.16404200000001,176.21621889351,176.38026089351,1.968504,0,60.560697476,82.478349096,13,4,8.389,176.38026089351,1.968504,0,60.763781472,0,0,0,88.8, 0.6, 0.3,0,0,1024,1024,1024,1024,0,0,0,0,100.1,0,0,94,4.152,4.19,0,0,0,0,4.093,72.86,176.38026089351,1.968504,6,P-GPS,
12700,2022-09-03 18:00:35,-34.8683531150417,-55.2614044189728,1.968504,0.16404200000001,176.21621889351,176.38026089351,1.968504,0,60.5889127,82.5705407,13,4,8.389,176.38026089351,1.968504,0,60.763781472,0,0,0,88.8, 0.7, 0.1,0,0,1024,1024,1024,1024,0,0,0,0,100.1,0,0,94,4.152,4.19,0,0,0,0,4.093,72.86,176.38026089351,1.968504,6,P-GPS,
12800,2022-09-03 18:00:35,-34.8683538247172,-55.2614048913273,1.968504,0.1968504,176.18341049351,176.38026089351,1.968504,0,60.460303772,82.865488216,13,4,8.389,176.38026089351,1.968504,0,60.763781472,0,0,0,88.8, 0.9, 0.1,0,0,1024,1024,1024,1024,0,0,0,0,100.1,0,0,94,4.152,4.19,0,0,0,0,4.093,72.86,176.38026089351,1.968504,6,P-GPS,
12900,2022-09-03 18:00:35,-34.8683541550304,-55.2614049859695,1.968504,0.1968504,176.18341049351,176.38026089351,1.968504,0,60.37893894,82.989503968,13,4,8.389,176.38026089351,1.968504,0,60.763781472,0,0,0,88.8, 0.9, 0.4,0,0,1024,1024,1024,1024,0,0,0,0,100.1,0,0,94,4.152,4.19,0,0,0,0,4.093,72.86,176.38026089351,1.968504,6,P-GPS,
13000,2022-09-03 18:00:36,-34.8683544564611,-55.2614050587366,1.968504,0.1968504,176.18341049351,176.38026089351,1.968504,0,60.302495368,83.101380612,13,4,8.336,176.38026089351,1.968504,0,60.763781472,0,0,0,88.9, 0.9, 0.3,0,0,1024,1024,1024,1024,0,0,0,0,100.1,0,0,94,4.169,4.162,0,0,0,0,4.074,72.86,176.38026089351,1.968504,6,P-GPS,
13100,2022-09-03 18:00:36,-34.868354831585,-55.2614050777924,1.968504,0.1968504,176.18341049351,176.38026089351,1.968504,0,60.194883816,83.238519724,13,4,8.336,176.38026089351,1.968504,0,60.763781472,0,0,0,88.9, 0.8, 0.2,0,0,1024,1024,1024,1024,0,0,0,0,100.1,0,0,94,4.169,4.162,0,0,0,0,4.074,72.86,176.38026089351,1.968504,6,P-GPS,
13200,2022-09-03 18:00:36,-34.8683551911226,-55.2614050880877,1.968504,0.1968504,176.18341049351,176.38026089351,1.968504,0,60.09022502,83.369753324,13,4,8.336,176.38026089351,1.968504,0,60.763781472,0,0,0,88.8, 0.8, 0.2,0,0,1024,1024,1024,1024,0,0,0,0,100.1,0,0,94,4.169,4.162,0,0,0,0,4.074,72.86,176.38026089351,1.968504,6,P-GPS,
13300,2022-09-03 18:00:36,-34.8683559210852,-55.2614045261761,1.968504,0.2296588,176.15060209351,176.38026089351,1.968504,0,59.775920548,83.684713964,13,4,8.336,176.38026089351,1.968504,0,60.763781472,0,0,0,88.8, 0.9, 0.5,0,0,1024,1024,1024,1024,0,0,0,0,100.1,0,0,94,4.169,4.162,0,0,0,0,4.074,72.86,176.38026089351,1.968504,6,P-GPS,
13400,2022-09-03 18:00:36,-34.8683562059009,-55.2614045232421,1.968504,0.2296588,176.15060209351,176.38026089351,1.968504,0,59.691274876,83.788716592,13,4,8.336,176.38026089351,1.968504,0,60.763781472,0,0,0,88.9, 0.7, 0.4,0,0,1024,1024,1024,1024,0,0,0,0,100.1,0,0,94,4.169,4.162,0,0,0,0,4.074,72.86,176.38026089351,1.968504,6,P-GPS,
13500,2022-09-03 18:00:36,-34.8683563543796,-55.2614048667688,1.968504,0.2296588,176.15060209351,176.38026089351,1.968504,0,59.708335244,83.904858328,13,4,8.336,176.38026089351,1.968504,0,60.763781472,0,0,0,88.8, 0.4, 0.1,0,0,1024,1024,1024,1024,0,0,0,0,100.1,0,0,94,4.169,4.162,0,0,0,0,4.074,72.86,176.38026089351,1.968504,6,P-GPS,
13600,2022-09-03 18:00:36,-34.8683564962152,-55.2614052094289,1.968504,0.2296588,176.15060209351,176.38026089351,1.968504,0,59.727036032,84.019687728,13,4,8.336,176.38026089351,1.968504,0,60.763781472,0,0,0,88.8, 0.4, 0,0,0,1024,1024,1024,1024,0,0,0,0,100.1,0,0,94,4.169,4.162,0,0,0,0,4.074,72.86,176.38026089351,1.968504,6,P-GPS,
13700,2022-09-03 18:00:36,-34.8683561778188,-55.261405915841,1.968504,0.2296588,176.15060209351,176.38026089351,1.968504,0,59.94586806,84.261157552,13,4,8.336,176.38026089351,1.968504,0,60.763781472,0,0,0,88.8, 0.7, 0.2,0,0,1024,1024,1024,1024,0,0,0,0,100.1,0,0,94,4.169,4.162,0,0,0,0,4.074,72.86,176.38026089351,1.968504,6,P-GPS,
13800,2022-09-03 18:00:36,-34.8683562590859,-55.2614061584503,1.968504,0.2296588,176.15060209351,176.38026089351,1.968504,0,59.964896932,84.339569628,13,4,8.336,176.38026089351,1.968504,0,60.763781472,0,0,0,88.8, 0.7, 0.2,0,0,1024,1024,1024,1024,0,0,0,0,100.1,0,0,94,4.169,4.162,0,0,0,0,4.074,72.86,176.38026089351,1.968504,6,P-GPS,
13900,2022-09-03 18:00:36,-34.8683563937513,-55.2614063560878,1.968504,0.2296588,176.15060209351,176.38026089351,1.968504,0,59.96063184,84.416341284,13,4,8.336,176.38026089351,1.968504,0,60.763781472,0,0,0,88.8, 0.6, 0,0,0,1024,1024,1024,1024,0,0,0,0,100.1,0,0,94,4.169,4.162,0,0,0,0,4.074,72.86,176.38026089351,1.968504,6,P-GPS,
14000,2022-09-03 18:00:37,-34.8683565077589,-55.2614065427408,1.968504,0.29527560000001,176.08498529351,176.38026089351,1.968504,0,59.960303756,84.485895092,13,4,8.326,176.38026089351,1.968504,0,60.763781472,0,0,0,88.8, 0.6, 0,0,0,1024,1024,1024,1024,0,0,0,0,100.1,0,0,94,4.164,4.158,0,0,0,0,4.085,72.86,176.38026089351,1.968504,6,P-GPS,
14100,2022-09-03 18:00:37,-34.8683561538273,-55.2614065878274,1.968504,0.26246719999999,176.11779369351,176.38026089351,1.968504,0,60.0721804,84.615816356,13,4,8.326,176.38026089351,1.968504,0,60.763781472,0,0,0,88.8, 0.6, 0.1,0,0,1024,1024,1024,1024,0,0,0,0,100.1,0,0,94,4.164,4.158,0,0,0,0,4.085,72.86,176.38026089351,1.968504,6,P-GPS,
14200,2022-09-03 18:00:37,-34.8683561424824,-55.2614067465806,1.968504,0.26246719999999,176.11779369351,176.38026089351,1.968504,0,60.103676464,84.66371662,13,5,8.326,176.38026089351,1.968504,0,60.763781472,0,0,0,88.8, 0.7, 0.4,0,0,1024,1024,1024,1024,0,0,0,0,100.1,0,0,94,4.164,4.158,0,0,0,0,4.085,72.86,176.38026089351,1.968504,6,P-GPS,
14300,2022-09-03 18:00:37,-34.8683561487043,-55.2614070025341,1.968504,0.26246719999999,176.11779369351,176.38026089351,1.968504,0,60.14763972,84.740160192,13,5,8.326,176.38026089351,1.968504,0,60.763781472,0,0,0,88.8, 0.5, 0.4,0,0,1024,1024,1024,1024,0,0,0,0,100.1,0,0,94,4.164,4.158,0,0,0,0,4.085,72.86,176.38026089351,1.968504,6,P-GPS,
14400,2022-09-03 18:00:37,-34.8683561601127,-55.2614072259309,1.968504,0.26246719999999,176.11779369351,176.38026089351,1.968504,0,60.184057044,84.807089328,13,5,8.326,176.38026089351,1.968504,0,60.763781472,0,0,0,88.8, 0.6, 0.5,0,0,1024,1024,1024,1024,0,0,0,0,100.1,0,0,94,4.164,4.158,0,0,0,0,4.085,72.86,176.38026089351,1.968504,6,P-GPS,
14500,2022-09-03 18:00:37,-34.8683559696267,-55.261407056235,1.968504,0.26246719999999,176.11779369351,176.38026089351,1.968504,0,60.209647596,84.89337542,13,5,8.326,176.38026089351,1.968504,0,60.763781472,0,0,0,88.8, 0.7, 0.7,0,0,1024,1024,1024,1024,0,0,0,0,100.1,0,0,94,4.164,4.158,0,0,0,0,4.085,72.86,176.38026089351,1.968504,6,P-GPS,
14600,2022-09-03 18:00:37,-34.8683560078846,-55.2614070853042,1.968504,0.26246719999999,176.11779369351,176.38026089351,1.968504,0,60.203742084,84.90977962,13,5,8.326,176.38026089351,1.968504,0,60.763781472,0,0,0,88.8, 0.9, 0.7,0,0,1024,1024,1024,1024,0,0,0,0,100.1,0,0,94,4.164,4.158,0,0,0,0,4.085,72.86,176.38026089351,1.968504,6,P-GPS,
14700,2022-09-03 18:00:37,-34.8683559859278,-55.2614071382324,1.968504,0.26246719999999,176.11779369351,176.38026089351,1.968504,0,60.219490116,84.927496156,13,5,8.326,176.38026089351,1.968504,0,60.763781472,0,0,0,88.8, 0.9, 0.3,0,0,1024,1024,1024,1024,0,0,0,0,100.1,0,0,94,4.164,4.158,0,0,0,0,4.085,72.86,176.38026089351,1.968504,6,P-GPS,
14800,2022-09-03 18:00:37,-34.868355974131,-55.2614071858876,1.968504,0.26246719999999,176.11779369351,176.38026089351,1.968504,0,60.231629224,84.942259936,13,5,8.326,176.38026089351,1.968504,0,60.763781472,0,0,0,88.9, 0.6, -0.1,0,0,1024,1024,1024,1024,0,0,0,0,100.1,0,0,94,4.164,4.158,0,0,0,0,4.085,72.86,176.38026089351,1.968504,6,P-GPS,
14900,2022-09-03 18:00:37,-34.8683560320902,-55.2614071699956,1.968504,0.26246719999999,176.11779369351,176.38026089351,1.968504,0,60.2116161,84.964241564,13,5,8.326,176.38026089351,1.968504,0,60.763781472,0,0,0,88.9, 0.5, -0.2,0,0,1024,1024,1024,1024,0,0,0,0,100.1,0,0,94,4.164,4.158,0,0,0,0,4.085,72.86,176.38026089351,1.968504,6,P-GPS,
15000,2022-09-03 18:00:38,-34.8683559105915,-55.2614067682259,1.968504,0.26246719999999,176.11779369351,176.38026089351,1.968504,0,60.17552686,85.092194324,13,5,8.32,176.38026089351,1.968504,0,60.763781472,0,0,0,88.8, 0.6, -0.1,0,0,1024,1024,1024,1024,0,0,0,0,100.1,0,0,94,4.162,4.157,0,0,0,0,4.079,73.04,176.38026089351,1.968504,6,P-GPS,
15100,2022-09-03 18:00:38,-34.8683560958336,-55.26140668319,1.968504,0.26246719999999,176.11779369351,176.38026089351,1.968504,0,60.106301136,85.164372804,13,5,8.32,176.38026089351,1.968504,0,60.763781472,0,0,0,88.8, 0.5, -0.1,0,0,1024,1024,1024,1024,0,0,0,0,100.1,0,0,94,4.162,4.157,0,0,0,0,4.079,73.04,176.38026089351,1.968504,6,P-GPS,
15200,2022-09-03 18:00:38,-34.8683562687108,-55.2614065878587,1.968504,0.26246719999999,176.11779369351,176.38026089351,1.968504,0,60.038387748,85.233598528,13,5,8.32,176.38026089351,1.968504,0,60.763781472,0,0,0,88.8, 0.5, -0.2,0,0,1024,1024,1024,1024,0,0,0,0,100.1,0,0,94,4.162,4.157,0,0,0,0,4.079,73.04,176.38026089351,1.968504,6,P-GPS,
15300,2022-09-03 18:00:38,-34.8683565613483,-55.2614063391098,1.968504,0.26246719999999,176.11779369351,176.38026089351,1.968504,0,59.908466484,85.363847876,13,5,8.32,176.38026089351,1.968504,0,60.763781472,0,0,0,88.9, 0.4, 0,0,0,1024,1024,1024,1024,0,0,0,0,100.1,0,0,94,4.162,4.157,0,0,0,0,4.079,73.04,176.38026089351,1.968504,6,P-GPS,
15400,2022-09-03 18:00:38,-34.868357321036,-55.2614054563923,1.968504,0.26246719999999,176.11779369351,176.38026089351,1.968504,0,59.528545212,85.746721904,13,5,8.32,176.38026089351,1.968504,0,60.763781472,0,0,0,88.8, 0.4, 0.3,0,0,1024,1024,1024,1024,0,0,0,0,100.1,0,0,94,4.162,4.157,0,0,0,0,4.079,73.04,176.38026089351,1.968504,6,P-GPS,
15500,2022-09-03 18:00:38,-34.8683576324453,-55.2614053193783,1.968504,0.29527560000001,176.08498529351,176.38026089351,1.968504,0,59.41273156,85.8677849,13,5,8.32,176.38026089351,1.968504,0,60.763781472,0,0,0,88.9, 0.5, 0.4,0,0,1024,1024,1024,1024,0,0,0,0,100.1,0,0,94,4.162,4.157,0,0,0,0,4.079,73.04,176.38026089351,1.968504,6,P-GPS,
15600,2022-09-03 18:00:38,-34.8683579517649,-55.2614051826568,1.968504,0.29527560000001,176.08498529351,176.38026089351,1.968504,0,59.29462132,85.991144484,13,5,8.32,176.38026089351,1.968504,0,60.763781472,0,0,0,88.8, 0.6, 0.4,0,0,1024,1024,1024,1024,0,0,0,0,100.1,0,0,94,4.162,4.157,0,0,0,0,4.079,73.04,176.38026089351,1.968504,6,P-GPS,
15700,2022-09-03 18:00:38,-34.8683582469042,-55.2614050685621,1.968504,0.29527560000001,176.08498529351,176.38026089351,1.968504,0,59.18799402,86.10400538,13,5,8.32,176.38026089351,1.968504,0,60.763781472,0,0,0,88.9, 0.6, 0.4,0,0,1024,1024,1024,1024,0,0,0,0,100.1,0,0,94,4.162,4.157,0,0,0,0,4.079,73.04,176.38026089351,1.968504,6,P-GPS,
15800,2022-09-03 18:00:38,-34.8683589142386,-55.2614047963302,1.968504,0.29527560000001,176.08498529351,176.38026089351,1.968504,0,58.943899524,86.360895152,13,5,8.32,176.38026089351,1.968504,0,60.763781472,0,0,0,88.8, 0.6, 0.3,0,0,1024,1024,1024,1013,0,0,0,-2,100.1,0,0,94,4.162,4.157,0,0,0,0,4.079,73.04,176.38026089351,1.968504,6,P-GPS,
15900,2022-09-03 18:00:38,-34.8683592096481,-55.2614045521025,1.968504,0.29527560000001,176.08498529351,176.38026089351,1.968504,0,58.813650176,86.4911445,13,5,8.32,176.38026089351,1.968504,0,60.763781472,0,0,0,88.8, 0.5, 0,0,0,1024,1024,1024,765,0,0,0,-39,100.1,0,0,94,4.162,4.157,0,0,0,0,4.079,73.04,176.38026089351,1.968504,6,P-GPS,
16000,2022-09-03 18:00:39,-34.8683595120682,-55.2614043036773,1.968504,0.328084,176.05217689351,176.38026089351,1.968504,0,58.680776156,86.62401852,13,5,8.316,176.38026089351,1.968504,0,60.763781472,0,0,0,88.7, 0.4, -0.1,0,0,1024,1024,1024,1024,0,0,0,0,99.8,0,0,94,4.16,4.154,0,0,0,0,4.068,73.04,176.38026089351,1.968504,6,P-GPS,
16100,2022-09-03 18:00:39,-34.8683598752898,-55.2614040417616,1.968504,0.328084,176.05217689351,176.38026089351,1.968504,0,58.527560928,86.778218,13,5,8.316,176.38026089351,1.968504,0,60.763781472,0,0,0,88.1, 0.5, -0.3,0,0,1024,1024,1024,1024,0,0,0,0,99.2,0,0,94,4.16,4.154,0,0,0,0,4.068,73.04,176.38026089351,1.968504,6,P-GPS,
16200,2022-09-03 18:00:39,-34.8683602122141,-55.2614034582674,1.968504,0.29527560000001,176.08498529351,176.38026089351,1.968504,0,58.324805016,86.991800684,13,5,8.316,176.38026089351,1.968504,0,60.763781472,0,0,0,87.6, 0.5, -0.3,0,0,1024,1024,1024,1024,0,0,0,0,98.9,0,0,94,4.16,4.154,0,0,0,0,4.068,73.04,176.38026089351,1.968504,6,P-GPS,
16300,2022-09-03 18:00:39,-34.8683604374011,-55.2614032809282,1.968504,0.29527560000001,176.08498529351,176.38026089351,1.968504,0,58.227364068,87.089569716,13,5,8.316,176.38026089351,1.968504,0,60.763781472,0,0,0,87.4, 0.3, 0.1,0,0,1024,1024,1024,551,0,0,0,-72,98.8,0,0,94,4.16,4.154,0,0,0,0,4.068,73.04,176.38026089351,1.968504,6,P-GPS,
16400,2022-09-03 18:00:39,-34.8683606480569,-55.2614031103761,1.968504,0.328084,176.05217689351,176.38026089351,1.968504,0,58.135172464,87.18176132,13,5,8.316,176.38026089351,1.968504,0,60.763781472,0,0,0,87.5, 0.1, 0.6,0,0,1024,1024,1024,1024,0,0,0,0,98.6,0,0,94,4.16,4.154,0,0,0,0,4.068,73.04,176.38026089351,1.968504,6,P-GPS,
16500,2022-09-03 18:00:39,-34.8683608755609,-55.2614029045524,1.968504,0.328084,176.05217689351,176.38026089351,1.968504,0,58.031826004,87.28510778,13,5,8.316,176.38026089351,1.968504,0,60.763781472,0,0,0,86.7, 0.4, 0.6,0,0,1024,1024,1024,1024,0,0,0,0,96.8,0,0,94,4.16,4.154,0,0,0,0,4.068,73.04,176.38026089351,1.968504,6,P-GPS,
16600,2022-09-03 18:00:39,-34.8683611171392,-55.2614026913361,1.968504,0.328084,176.05217689351,176.38026089351,1.968504,0,57.922902116,87.394031668,13,5,8.316,176.38026089351,1.968504,0,60.763781472,0,0,0,84.8, 0.5, 0.1,0,0,1024,1024,1024,1024,0,0,0,0,95.3,0,0,94,4.16,4.154,0,0,0,0,4.068,73.04,176.38026089351,1.968504,6,P-GPS,
16700,2022-09-03 18:00:39,-34.8683612602407,-55.2614024245442,1.968504,0.328084,176.05217689351,176.38026089351,1.968504,0,57.833335184,87.489504112,13,5,8.316,176.38026089351,1.968504,0,60.763781472,0,0,0,83.7, 0.6, 0,0,0,1024,1024,1024,1024,0,0,0,0,94.6,0,0,94,4.16,4.154,0,0,0,0,4.068,73.04,176.38026089351,1.968504,6,P-GPS,
16800,2022-09-03 18:00:39,-34.8683615088834,-55.2614022224795,1.968504,0.328084,176.05217689351,176.38026089351,1.968504,0,57.724411296,87.598428,13,5,8.316,176.38026089351,1.968504,0,60.763781472,0,0,0,83.4, 0.5, 0,0,0,1024,1024,1024,1024,0,0,0,0,94.5,0,0,94,4.16,4.154,0,0,0,0,4.068,73.04,176.38026089351,1.968504,6,P-GPS,
16900,2022-09-03 18:00:39,-34.8683617862056,-55.2614021026837,1.968504,0.328084,176.05217689351,176.38026089351,1.968504,0,57.621721004,87.705711468,13,5,8.316,176.38026089351,1.968504,0,60.763781472,0,0,0,83.3, 0.5, 0,0,0,1024,1024,1024,1024,0,0,0,0,94.5,0,0,94,4.16,4.154,0,0,0,0,4.068,73.04,176.38026089351,1.968504,6,P-GPS,
17000,2022-09-03 18:00:40,-34.8683620506058,-55.2614019852894,1.968504,0.328084,176.05217689351,176.38026089351,1.968504,0,57.523623888,87.80840176,13,5,8.31,176.38026089351,1.968504,0,60.763781472,0,0,0,83.3, 0.6, -0.1,0,0,1024,1024,1024,1024,0,0,0,0,94.5,0,0,94,4.158,4.151,0,0,0,0,4.089,73.04,176.38026089351,1.968504,6,P-GPS,
17100,2022-09-03 18:00:40,-34.8683623418309,-55.26140192784,1.968504,0.328084,176.05217689351,176.38026089351,1.968504,0,57.42782336,87.916013312,13,5,8.31,176.38026089351,1.968504,0,60.763781472,0,0,0,83.3, 0.6, 0,0,0,1024,1024,1024,1024,0,0,0,0,94.5,0,0,94,4.158,4.151,0,0,0,0,4.089,73.04,176.38026089351,1.968504,6,P-GPS,
17200,2022-09-03 18:00:40,-34.8683626020568,-55.2614017539466,1.968504,0.36089239999999,176.01936849351,176.38026089351,1.968504,0,57.320867976,88.024281032,13,5,8.31,176.38026089351,1.968504,0,60.763781472,0,0,0,83.2, 0.5, -0.1,0,0,1024,1024,1031,1024,0,0,1,0,94.5,0,0,94,4.158,4.151,0,0,0,0,4.089,73.04,176.38026089351,1.968504,6,P-GPS,
17300,2022-09-03 18:00:40,-34.8683627513921,-55.2614016165046,1.968504,0.36089239999999,176.01936849351,176.38026089351,1.968504,0,57.252626504,88.092522504,13,5,8.31,176.38026089351,1.968504,0,60.763781472,0,0,0,83.2, 0.5, 0,0,0,1024,1024,1259,1024,0,0,36,0,94.5,0,0,94,4.158,4.151,0,0,0,0,4.089,73.04,176.38026089351,1.968504,6,P-GPS,
17400,2022-09-03 18:00:40,-34.8683628980516,-55.2614014791043,1.968504,0.36089239999999,176.01936849351,176.38026089351,1.968504,0,57.1850412,88.160107808,13,5,8.31,176.38026089351,1.968504,0,60.763781472,0,0,0,83.3, 0.4, 0.2,0,0,1024,1024,1024,1024,0,0,0,0,94.5,0,0,94,4.158,4.151,0,0,0,0,4.089,73.04,176.38026089351,1.968504,6,P-GPS,
17500,2022-09-03 18:00:40,-34.8683627929583,-55.2614012896738,1.968504,0.36089239999999,176.01936849351,176.38026089351,1.968504,0,57.18176036,88.228677364,13,5,8.31,176.38026089351,1.968504,0,60.763781472,0,0,-0.223694,83.3, 0.2, 0.3,0,0,1024,1024,1024,1024,0,0,0,0,94.5,0,0,94,4.158,4.151,0,0,0,0,4.089,73.04,176.38026089351,1.968504,6,P-GPS,
17600,2022-09-03 18:00:40,-34.8683629583718,-55.2614011088472,2.296588,0.68897639999999,176.01936849351,176.70834489351,1.968504,0,57.101051696,88.309714112,13,5,8.31,176.70834489351,2.296588,0,60.763781472,0,0,-0.447388,83.2, 0.3, 0.2,0,0,1024,1024,1024,1024,0,0,0,0,94.5,0,0,94,4.158,4.151,0,0,0,0,4.089,73.04,176.70834489351,2.296588,6,P-GPS,
17700,2022-09-03 18:00:40,-34.8683630945828,-55.2614010010696,2.296588,0.68897639999999,176.01936849351,176.70834489351,2.296588,0,57.041996576,88.368769232,13,5,8.31,176.70834489351,2.296588,0,60.763781472,0,0,-0.223694,83.3, 0.8, 0.3,0,0,1024,1024,1276,1024,0,0,38,0,94.5,0,0,94,4.158,4.151,0,0,0,0,4.089,73.04,176.70834489351,2.296588,6,P-GPS,
17800,2022-09-03 18:00:40,-34.8683632345886,-55.2614008991915,2.296588,0.68897639999999,176.01936849351,176.70834489351,2.296588,0,56.982941456,88.42848052,13,5,8.31,176.70834489351,2.296588,0,60.763781472,0,0,-0.223694,83.3, 0.9, 0.4,0,0,1024,1024,1406,1024,0,0,58,0,94.5,0,0,94,4.158,4.151,0,0,0,0,4.089,73.04,176.70834489351,2.296588,6,P-GPS,
17900,2022-09-03 18:00:40,-34.8683632013055,-55.2614010092349,2.296588,0.68897639999999,176.01936849351,176.70834489351,2.296588,0,57.012140932,88.463585508,13,5,8.31,176.70834489351,2.296588,0,60.763781472,0,0,-0.671082,83.3, 0.5, 0.2,0,0,1024,1024,1024,1024,0,0,0,0,94.5,0,0,94,4.158,4.151,0,0,0,0,4.089,73.04,176.70834489351,2.296588,6,P-GPS,
18000,2022-09-03 18:00:41,-34.8683633468062,-55.2614009231861,2.624672,1.0170604,176.01936849351,177.03642889351,2.624672,0,56.954398148,88.522640628,13,5,8.31,177.03642889351,2.624672,0,60.763781472,0,0,-1.11847,83.2, 0, -0.2,0,0,1024,1024,1024,1024,0,0,0,0,94.5,0,0,94,4.158,4.151,0,0,0,0,4.089,73.04,177.03642889351,2.624672,6,P-GPS,
18100,2022-09-03 18:00:41,-34.8683634158216,-55.2614007217166,2.624672,1.0170604,176.01936849351,177.03642889351,2.624672,0,56.8979677,88.587929344,13,5,8.305,177.03642889351,2.624672,0,60.763781472,0,0,-0.671082,83.2, 0.9, -0.1,0,0,1024,1024,1302,1024,0,0,42,0,94.5,0,0,94,4.185,4.149,0,0,0,0,4.063,73.04,177.03642889351,2.624672,6,P-GPS,
18200,2022-09-03 18:00:41,-34.8683634667785,-55.2614005381543,2.624672,1.0170604,176.01936849351,177.03642889351,2.624672,0,56.85039552,88.646000212,13,5,8.305,177.03642889351,2.624672,0,60.763781472,0,0,-0.447388,83.3, 1, 0,0,0,1024,1024,1024,1024,0,0,0,0,94.5,0,0,94,4.185,4.149,0,0,0,0,4.063,73.04,177.03642889351,2.624672,6,P-GPS,
18300,2022-09-03 18:00:41,-34.8683634970496,-55.2614002668308,2.952756,1.312336,176.05217689351,177.36451289351,2.952756,0,56.79298082,88.727693128,13,5,8.305,177.36451289351,2.952756,0,60.763781472,0,0,-0.894776,83.3, 0.4, 0,0,0,1024,1024,1024,1024,0,0,0,0,94.5,0,0,94,4.185,4.149,0,0,0,0,4.063,73.04,177.36451289351,2.952756,6,P-GPS,
18400,2022-09-03 18:00:41,-34.8683631349183,-55.261399747813,2.952756,1.312336,176.05217689351,177.36451289351,2.952756,0,56.807088432,88.931761376,13,5,8.305,177.36451289351,2.952756,0,60.763781472,0,0,-0.671082,83.2, 0.6, -0.2,0,0,1024,1024,1024,1024,0,0,0,0,94.5,0,0,94,4.185,4.149,0,0,0,0,4.063,73.04,177.36451289351,2.952756,6,P-GPS,
18500,2022-09-03 18:00:41,-34.86836305079,-55.261399653599,2.952756,1.312336,176.05217689351,177.36451289351,2.952756,0,56.814962448,88.973428044,13,5,8.305,177.36451289351,2.952756,0,60.763781472,0,0,-0.223694,83.2, 0.7, 0,0,0,1024,1024,1471,1024,0,0,68,0,94.5,0,0,94,4.185,4.149,0,0,0,0,4.063,73.04,177.36451289351,2.952756,6,P-GPS,
18600,2022-09-03 18:00:41,-34.8683629913757,-55.2613995742641,2.952756,1.312336,176.05217689351,177.36451289351,2.952756,0,56.818571372,89.005580276,13,5,8.305,177.36451289351,2.952756,0,60.763781472,0,0,-0.447388,83.3, 0.5, 0.3,0,0,1024,1024,1024,1024,0,0,0,0,94.5,0,0,94,4.185,4.149,0,0,0,0,4.063,73.04,177.36451289351,2.952756,6,P-GPS,
18700,2022-09-03 18:00:41,-34.868363137376,-55.2613996113003,3.28084,1.64042,176.05217689351,177.69259689351,3.28084,0,56.782154048,89.06004222,13,5,8.305,177.69259689351,3.28084,0,60.763781472,0,0,-0.894776,83.3, 0.3, 0,0,0,1024,1024,1024,1024,0,0,0,0,94.5,0,0,94,4.185,4.149,0,0,0,0,4.063,73.04,177.69259689351,3.28084,6,P-GPS,
18800,2022-09-03 18:00:41,-34.8683631417057,-55.2614000989934,3.28084,1.64042,176.05217689351,177.69259689351,3.28084,0,56.867455888,89.2060396,13,5,8.305,177.69259689351,3.28084,0,60.763781472,0,0,-0.447388,83.3, 1, 0,0,0,1024,1024,1321,1024,0,0,45,0,94.5,0,0,94,4.185,4.149,0,0,0,0,4.063,73.04,177.69259689351,3.28084,6,P-GPS,
18900,2022-09-03 18:00:41,-34.8683631395492,-55.2614001075033,3.28084,1.64042,176.05217689351,177.69259689351,3.28084,0,56.869424392,89.208664272,13,5,8.305,177.69259689351,3.28084,0,60.763781472,0,0,-0.223694,83.3, 0.9, 0.2,0,0,1024,1024,1030,1024,0,0,1,0,94.5,0,0,94,4.185,4.149,0,0,0,0,4.063,73.04,177.69259689351,3.28084,6,P-GPS,
19000,2022-09-03 18:00:42,-34.8683631670475,-55.261400132208,3.28084,1.64042,176.05217689351,177.69259689351,3.28084,0,56.865815468,89.221131464,13,5,8.305,177.69259689351,3.28084,0,60.763781472,0,0,-0.671082,83.3, 0.4, 0.1,0,0,1024,1024,1024,1024,0,0,0,0,94.5,0,0,94,4.185,4.149,0,0,0,0,4.063,73.04,177.69259689351,3.28084,6,P-GPS,
19100,2022-09-03 18:00:42,-34.8683634805043,-55.2614002277898,3.608924,1.968504,176.05217689351,178.02068089351,3.608924,0,56.791012316,89.33891362,13,5,8.358,178.02068089351,3.608924,0,60.763781472,0,0,-0.671082,83.2, 0.7, -0.1,0,0,1024,1024,1024,1024,0,0,0,0,94.5,0,0,94,4.12,4.122,0,0,0,0,4.334,73.04,178.02068089351,3.608924,6,P-GPS,
19200,2022-09-03 18:00:42,-34.8683639514034,-55.2614006547863,3.608924,2.0013124,176.01936849351,178.02068089351,3.608924,0,56.729332524,89.553152472,13,5,8.358,178.02068089351,3.608924,0,60.763781472,0,0,-0.223694,83.2, 0.6, 0,0,0,1024,1024,1024,1024,0,0,0,0,94.5,0,0,94,4.12,4.122,0,0,0,0,4.334,73.04,178.02068089351,3.608924,6,P-GPS,
19300,2022-09-03 18:00:42,-34.8683640912868,-55.2614006591926,3.608924,2.0013124,176.01936849351,178.02068089351,3.608924,0,56.689306276,89.604333576,13,5,8.358,178.02068089351,3.608924,0,60.763781472,0,0,-0.223694,83.2, 0.6, 0,0,0,1024,1024,1024,1024,0,0,0,0,94.5,0,0,94,4.12,4.122,0,0,0,0,4.334,73.04,178.02068089351,3.608924,6,P-GPS,
19400,2022-09-03 18:00:42,-34.8683642280708,-55.2614006645909,3.608924,2.0013124,176.01936849351,178.02068089351,3.608924,0,56.65026428,89.654202344,13,5,8.358,178.02068089351,3.608924,0,60.763781472,0,0,0,83.2, 0.5, 0.1,0,0,1024,1024,1127,1024,0,0,16,0,94.5,0,0,94,4.12,4.122,0,0,0,0,4.334,73.04,178.02068089351,3.608924,6,P-GPS,
19500,2022-09-03 18:00:42,-34.8683643920905,-55.2614006722654,3.608924,2.0013124,176.01936849351,178.02068089351,3.608924,0,56.603676352,89.713913632,13,5,8.358,178.02068089351,3.608924,0,60.763781472,0,0,0,83.3, 0.2, 0.2,0,0,1024,1024,1024,1024,0,0,0,0,94.5,0,0,94,4.12,4.122,0,0,0,0,4.334,73.04,178.02068089351,3.608924,6,P-GPS,
19600,2022-09-03 18:00:42,-34.8683640706027,-55.2614005028514,3.608924,2.0013124,176.01936849351,178.02068089351,3.608924,0,56.667324648,89.841866392,13,5,8.358,178.02068089351,3.608924,0,60.763781472,0,0,0,83.3, 0.4, 0.2,0,0,1024,1024,1024,1024,0,0,0,0,94.5,0,0,94,4.12,4.122,0,0,0,0,4.334,73.04,178.02068089351,3.608924,6,P-GPS,
19700,2022-09-03 18:00:42,-34.8683639390912,-55.2614003980392,3.608924,2.0013124,176.01936849351,178.02068089351,3.608924,0,56.687009688,89.899281092,13,5,8.358,178.02068089351,3.608924,0,60.763781472,0,0,0,83.3, 0.5, 0.4,0,0,1024,1024,1082,1024,0,0,9,0,94.5,0,0,94,4.12,4.122,0,0,0,0,4.334,73.04,178.02068089351,3.608924,6,P-GPS,
19800,2022-09-03 18:00:42,-34.8683638060025,-55.2614002925796,3.608924,2.0013124,176.01936849351,178.02068089351,3.608924,0,56.707022812,89.957023876,13,5,8.358,178.02068089351,3.608924,0,60.763781472,0,0,0,83.3, 0.5, 0.3,0,0,1024,1024,1092,1024,0,0,10,0,94.5,0,0,94,4.12,4.122,0,0,0,0,4.334,73.04,178.02068089351,3.608924,6,P-GPS,
19900,2022-09-03 18:00:42,-34.8683637394411,-55.261400249101,3.608924,2.0013124,176.01936849351,178.02068089351,3.608924,0,56.718833836,89.984582932,13,5,8.358,178.02068089351,3.608924,0,60.763781472,0,0,0,83.2, 0.4, 0.2,0,0,1024,1024,1091,1024,0,0,10,0,94.5,0,0,94,4.12,4.122,0,0,0,0,4.334,73.04,178.02068089351,3.608924,6,P-GPS,
20000,2022-09-03 18:00:43,-34.8683636694278,-55.2614001977286,3.937008,2.3293964,176.01936849351,178.34876489351,3.608924,0,56.730316776,90.014438576,13,5,8.358,178.34876489351,3.937008,0,60.763781472,0,0,0,83.3, 0.4, 0.1,0,0,1024,1024,1093,1024,0,0,10,0,94.5,0,0,94,4.12,4.122,0,0,0,0,4.334,73.04,178.34876489351,3.937008,6,P-GPS,
20100,2022-09-03 18:00:43,-34.8683631256938,-55.2613999712203,3.937008,2.296588,176.05217689351,178.34876489351,3.937008,0,56.849411268,90.224084252,13,5,8.277,178.34876489351,3.937008,0,60.763781472,0,0,0,83.2, 0.7, 0,0,0,1024,1024,1093,1024,0,0,10,0,94.5,0,0,94,4.149,4.142,0,0,0,0,4.071,73.22,178.34876489351,3.937008,6,P-GPS,
20200,2022-09-03 18:00:43,-34.8683630136473,-55.2613998561231,3.937008,2.296588,176.05217689351,178.34876489351,3.937008,0,56.86187846,90.277561944,13,5,8.277,178.34876489351,3.937008,0,60.763781472,0,0,0,83.2, 0.6, -0.2,0,0,1024,1024,1094,1024,0,0,11,0,94.5,0,0,94,4.149,4.142,0,0,0,0,4.071,73.22,178.34876489351,3.937008,6,P-GPS,
20300,2022-09-03 18:00:43,-34.8683628916343,-55.2613997271179,3.937008,2.296588,176.05217689351,178.34876489351,3.937008,0,56.87500182,90.336617064,13,5,8.277,178.34876489351,3.937008,0,60.763781472,0,0,0,83.2, 0.5, -0.2,0,0,1024,1024,1093,1024,0,0,10,0,94.5,0,0,94,4.149,4.142,0,0,0,0,4.071,73.22,178.34876489351,3.937008,6,P-GPS,
20400,2022-09-03 18:00:43,-34.8683627704166,-55.2613996045864,3.937008,2.296588,176.05217689351,178.34876489351,3.937008,0,56.888781348,90.394031764,12,5,8.277,178.34876489351,3.937008,0,60.763781472,0,0,0,83.2, 0.6, 0,0,0,1024,1024,1094,1024,0,0,11,0,94.5,0,0,94,4.149,4.142,0,0,0,0,4.071,73.22,178.34876489351,3.937008,6,P-GPS,
20500,2022-09-03 18:00:43,-34.8683623836782,-55.2613993575499,3.937008,2.2637796,176.08498529351,178.34876489351,3.937008,0,56.958991324,90.553152504,12,5,8.277,178.34876489351,3.937008,0,60.763781472,0,0,0,83.2, 0.5, 0,0,0,1024,1024,1096,1024,0,0,11,0,94.5,0,0,94,4.149,4.142,0,0,0,0,4.071,73.22,178.34876489351,3.937008,6,P-GPS,
20600,2022-09-03 18:00:43,-34.8683622575721,-55.2613992493442,3.937008,2.2637796,176.08498529351,178.34876489351,3.937008,0,56.977364028,90.609582952,12,5,8.277,178.34876489351,3.937008,0,60.763781472,0,0,0,83.3, 0.4, 0,0,0,1024,1024,1054,1024,0,0,5,0,94.5,0,0,94,4.149,4.142,0,0,0,0,4.071,73.22,178.34876489351,3.937008,6,P-GPS,
20700,2022-09-03 18:00:43,-34.8683621427607,-55.2613991984939,3.937008,2.2637796,176.08498529351,178.34876489351,3.937008,0,57.002298412,90.654202376,12,5,8.277,178.34876489351,3.937008,0,60.763781472,0,0,0,83.3, 0.5, 0,0,0,1024,1024,1024,1024,0,0,0,0,94.5,0,0,94,4.149,4.142,0,0,0,0,4.071,73.22,178.34876489351,3.937008,6,P-GPS,
20800,2022-09-03 18:00:43,-34.8683620290878,-55.2613991365338,3.937008,2.2637796,176.08498529351,178.34876489351,3.937008,0,57.024936208,90.699477968,13,5,8.277,178.34876489351,3.937008,0,60.763781472,0,0,0,83.2, 0.5, 0,0,0,1024,1024,1024,1024,0,0,0,0,94.5,0,0,94,4.149,4.142,0,0,0,0,4.071,73.22,178.34876489351,3.937008,6,P-GPS,
20900,2022-09-03 18:00:43,-34.8683618234426,-55.2613988594675,3.937008,2.2637796,176.08498529351,178.34876489351,3.937008,0,57.037075316,90.811354612,13,5,8.277,178.34876489351,3.937008,0,60.763781472,0,0,0,83.3, 0.5, 0.1,0,0,1024,1024,1024,1024,0,0,0,0,94.5,0,0,94,4.149,4.142,0,0,0,0,4.071,73.22,178.34876489351,3.937008,6,P-GPS,
21000,2022-09-03 18:00:44,-34.8683617172652,-55.2613986910349,4.265092,2.5918636,176.08498529351,178.67684889351,3.937008,0,57.038715736,90.875002908,13,5,8.277,178.67684889351,4.265092,0,60.763781472,0,0,0,83.3, 0.4, 0.1,0,0,1024,1024,1024,1024,0,0,0,0,94.5,0,0,94,4.149,4.142,0,0,0,0,4.071,73.22,178.67684889351,4.265092,6,P-GPS,
21100,2022-09-03 18:00:44,-34.8683615721524,-55.2613986094134,4.265092,2.5918636,176.08498529351,178.67684889351,3.937008,0,57.067587128,90.93340186,13,5,8.288,178.67684889351,4.265092,0,60.763781472,0,0,0,83.2, 0.3, 0,0,0,1024,1024,1024,1024,0,0,0,0,94.5,0,0,94,4.147,4.142,0,0,0,0,4.122,73.22,178.67684889351,4.265092,6,P-GPS,
21200,2022-09-03 18:00:44,-34.8683614388367,-55.2613985457722,3.937008,2.2637796,176.08498529351,178.34876489351,3.937008,0,57.095802352,90.985567216,13,5,8.288,178.67684889351,4.265092,0,60.763781472,0,0,0,83.3, 0.3, 0,0,0,1024,1024,1024,1024,0,0,0,0,94.5,0,0,94,4.147,4.142,0,0,0,0,4.122,73.22,178.34876489351,3.937008,6,P-GPS,
21300,2022-09-03 18:00:44,-34.8683612507602,-55.2613989139932,3.937008,2.2637796,176.08498529351,178.34876489351,3.937008,0,57.215881096,91.11548848,13,5,8.288,178.67684889351,4.265092,0,60.763781472,0,0,0,83.2, 0.3, 0,0,0,1024,1024,1024,1024,0,0,0,0,94.5,0,0,94,4.147,4.142,0,0,0,0,4.122,73.22,178.34876489351,3.937008,6,P-GPS,
21400,2022-09-03 18:00:44,-34.868361153634,-55.261399000919,3.937008,2.2637796,176.08498529351,178.34876489351,3.937008,0,57.259844352,91.159451736,13,5,8.288,178.67684889351,4.265092,0,60.763781472,0,0,0,83.2, 0.4, 0,0,0,1024,1024,1024,1024,0,0,0,0,94.5,0,0,94,4.147,4.142,0,0,0,0,4.122,73.22,178.34876489351,3.937008,6,P-GPS,
21500,2022-09-03 18:00:44,-34.8683610645645,-55.2613993068876,3.937008,2.2637796,176.08498529351,178.34876489351,3.937008,0,57.339896848,91.2565646,13,5,8.288,178.67684889351,4.265092,0,60.763781472,0,0,0,83.2, 0.4, -0.1,0,0,1024,1024,1024,1024,0,0,0,0,94.5,0,0,94,4.147,4.142,0,0,0,0,4.122,73.22,178.34876489351,3.937008,6,P-GPS,
21600,2022-09-03 18:00:44,-34.8683609975035,-55.2613996168239,3.937008,2.2637796,176.08498529351,178.34876489351,3.937008,0,57.414043832,91.352365128,13,5,8.288,178.67684889351,4.265092,0,60.763781472,0,0,0,83.2, 0.4, -0.2,0,0,1024,1024,1024,1024,0,0,0,0,94.5,0,0,94,4.147,4.142,0,0,0,0,4.122,73.22,178.34876489351,3.937008,6,P-GPS,
21700,2022-09-03 18:00:44,-34.8683610546299,-55.261399862931,3.937008,2.2637796,176.08498529351,178.34876489351,3.937008,0,57.440290552,91.429136784,13,5,8.288,178.67684889351,4.265092,0,60.763781472,0,0,0,83.2, 0.5, -0.2,0,0,1024,1024,1024,1024,0,0,0,0,94.5,0,0,94,4.147,4.142,0,0,0,0,4.122,73.22,178.34876489351,3.937008,6,P-GPS,
21800,2022-09-03 18:00:44,-34.8683613675263,-55.2614009210352,3.937008,2.2637796,176.08498529351,178.34876489351,3.937008,0,57.534778744,91.765750968,13,5,8.288,178.67684889351,4.265092,0,60.763781472,0,0,0,83.2, 0.5, 0,0,0,1024,1024,1024,1024,0,0,0,0,94.5,0,0,94,4.147,4.142,0,0,0,0,4.122,73.22,178.34876489351,3.937008,6,P-GPS,
21900,2022-09-03 18:00:44,-34.8683614171487,-55.2614011786176,3.937008,2.2637796,176.08498529351,178.34876489351,3.937008,0,57.56561864,91.844819212,13,5,8.288,178.67684889351,4.265092,0,60.763781472,0,0,0,83.3, 0.5, 0.2,0,0,1024,1024,1024,1024,0,0,0,0,94.5,0,0,94,4.147,4.142,0,0,0,0,4.122,73.22,178.34876489351,3.937008,6,P-GPS,
22000,2022-09-03 18:00:45,-34.8683614685688,-55.2614014249023,3.937008,2.2637796,176.08498529351,178.34876489351,3.937008,0,57.594161948,91.9209347,12,5,8.288,178.67684889351,4.265092,0,60.763781472,0,0,0,83.3, 0.5, 0,0,0,1024,1024,1024,1024,0,0,0,0,94.5,0,0,94,4.147,4.142,0,0,0,0,4.122,73.22,178.34876489351,3.937008,6,P-GPS,
22100,2022-09-03 18:00:45,-34.8683615049594,-55.2614016753427,3.937008,2.296588,176.05217689351,178.34876489351,3.937008,0,57.6279546,91.997050188,12,5,8.289,178.67684889351,4.265092,0,60.763781472,0,0,0,83.3, 0.4, 0,0,0,1024,1024,1024,1024,0,0,0,0,94.5,0,0,94,4.147,4.141,0,0,0,0,4.019,73.22,178.34876489351,3.937008,6,P-GPS,
22200,2022-09-03 18:00:45,-34.8683617287419,-55.261402152281,3.937008,2.296588,176.05217689351,178.34876489351,3.937008,0,57.64763964,92.161420272,12,5,8.289,178.67684889351,4.265092,0,60.763781472,0,0,0,83.2, 0.6, -0.1,0,0,1024,1024,1024,1024,0,0,0,0,94.5,0,0,94,4.147,4.141,0,0,0,0,4.019,73.22,178.34876489351,3.937008,6,P-GPS,
22300,2022-09-03 18:00:45,-34.8683616980292,-55.2614023296724,3.937008,2.296588,176.05217689351,178.34876489351,3.937008,0,57.688322056,92.215882216,12,5,8.289,178.67684889351,4.265092,0,60.763781472,0,0,0,83.2, 0.5, -0.2,0,0,1024,1024,1024,1024,0,0,0,0,94.5,0,0,94,4.147,4.141,0,0,0,0,4.019,73.22,178.34876489351,3.937008,6,P-GPS,
22400,2022-09-03 18:00:45,-34.8683616635402,-55.261402507544,3.937008,2.3293964,176.01936849351,178.34876489351,3.937008,0,57.729988724,92.270672244,12,5,8.289,178.67684889351,4.265092,0,60.763781472,0,0,0,83.2, 0.4, -0.2,0,0,1024,1024,1024,1024,0,0,0,0,94.5,0,0,94,4.147,4.141,0,0,0,0,4.019,73.22,178.34876489351,3.937008,6,P-GPS,
22500,2022-09-03 18:00:45,-34.8683615997925,-55.2614027552801,3.937008,2.3293964,176.01936849351,178.34876489351,3.937008,0,57.792980852,92.348428152,12,5,8.289,178.67684889351,4.265092,0,60.763781472,0,0,0,83.1, 0.4, -0.1,0,0,1024,1024,1024,1024,0,0,0,0,94.5,0,0,94,4.147,4.141,0,0,0,0,4.019,73.22,178.34876489351,3.937008,6,P-GPS,
22600,2022-09-03 18:00:45,-34.868361393787,-55.2614030319287,3.937008,2.296588,176.05217689351,178.34876489351,3.937008,0,57.902888992,92.459976712,11,4,8.289,178.67684889351,4.265092,0,60.763781472,0,0,0,83.2, 0.6, 0.1,0,0,1024,1024,1024,1024,0,0,0,0,94.5,0,0,94,4.147,4.141,0,0,0,0,4.019,73.22,178.34876489351,3.937008,6,P-GPS,
22700,2022-09-03 18:00:45,-34.8683613706961,-55.261403198983,3.937008,2.296588,176.05217689351,178.34876489351,3.937008,0,57.9396344,92.510829732,11,4,8.289,178.67684889351,4.265092,0,60.763781472,0,0,0,83.2, 0.4, 0.2,0,0,1024,1024,1024,1024,0,0,0,0,94.5,0,0,94,4.147,4.141,0,0,0,0,4.019,73.22,178.34876489351,3.937008,6,P-GPS,
22800,2022-09-03 18:00:45,-34.8683613453715,-55.2614033694516,3.937008,2.296588,176.05217689351,178.34876489351,3.937008,0,57.977692144,92.562667004,11,4,8.289,178.67684889351,4.265092,0,60.763781472,0,0,0,83.2, 0.4, 0.1,0,0,1024,1024,1024,1024,0,0,0,0,94.5,0,0,94,4.147,4.141,0,0,0,0,4.019,73.22,178.34876489351,3.937008,6,P-GPS,
22900,2022-09-03 18:00:45,-34.8683612923491,-55.261403573636,3.937008,2.296588,176.05217689351,178.34876489351,3.937008,0,58.029529416,92.626643384,11,4,8.289,178.67684889351,4.265092,0,60.763781472,0,0,0,83.2, 0.2, 0.2,0,0,1024,1024,1024,1024,0,0,0,0,94.5,0,0,94,4.147,4.141,0,0,0,0,4.019,73.22,178.34876489351,3.937008,6,P-GPS,
23000,2022-09-03 18:00:46,-34.8683612645109,-55.2614037979516,3.937008,2.296588,176.05217689351,178.34876489351,3.937008,0,58.078085848,92.694556772,11,4,8.289,178.67684889351,4.265092,0,60.763781472,0,0,0,83.2, 0.1, 0.3,0,0,1024,1024,1024,1024,0,0,0,0,94.5,0,0,94,4.147,4.141,0,0,0,0,4.019,73.22,178.34876489351,3.937008,6,P-GPS,
23100,2022-09-03 18:00:46,-34.8683612660147,-55.2614040486217,3.937008,2.296588,176.05217689351,178.34876489351,3.937008,0,58.122705272,92.769688008,11,4,8.286,178.67684889351,4.265092,0,60.763781472,0,0,0,83.2, 0.3, 0.3,0,0,1024,1024,1024,1024,0,0,0,0,94.5,0,0,94,4.145,4.138,0,0,0,0,4.05,73.22,178.34876489351,3.937008,6,P-GPS,
23200,2022-09-03 18:00:46,-34.8683612731957,-55.2614042732402,3.937008,2.296588,176.05217689351,178.34876489351,3.937008,0,58.1610911,92.836945228,11,4,8.286,178.67684889351,4.265092,0,60.763781472,0,0,0,83.2, 0.2, 0.1,0,0,1024,1024,1024,1024,0,0,0,0,94.5,0,0,94,4.145,4.138,0,0,0,0,4.05,73.22,178.34876489351,3.937008,6,P-GPS,
23300,2022-09-03 18:00:46,-34.8683612986186,-55.2614045329109,3.937008,2.3293964,176.01936849351,178.34876489351,3.937008,0,58.20046118,92.915357304,11,4,8.286,178.67684889351,4.265092,0,60.763781472,0,0,0,83.3, 0.4, 0.1,0,0,1024,1024,1024,1024,0,0,0,0,94.5,0,0,94,4.145,4.138,0,0,0,0,4.05,73.22,178.34876489351,3.937008,6,P-GPS,
23400,2022-09-03 18:00:46,-34.8683613258961,-55.2614047801667,3.937008,2.3293964,176.01936849351,178.34876489351,3.937008,0,58.237206588,92.989832372,11,4,8.286,178.67684889351,4.265092,0,60.763781472,0,0,0,83.3, 0.5, 0.1,0,0,1024,1024,1024,1024,0,0,0,0,94.5,0,0,94,4.145,4.138,0,0,0,0,4.05,73.22,178.34876489351,3.937008,6,P-GPS,
23500,2022-09-03 18:00:46,-34.8683614406288,-55.2614051606982,3.937008,2.3293964,176.01936849351,178.34876489351,3.937008,0,58.272967744,93.111223452,11,4,8.286,178.67684889351,4.265092,0,60.763781472,0,0,0,83.3, 0.3, 0.1,0,0,1024,1024,1024,1024,0,0,0,0,94.5,0,0,94,4.145,4.138,0,0,0,0,4.05,73.22,178.34876489351,3.937008,6,P-GPS,
23600,2022-09-03 18:00:46,-34.8683614790939,-55.2614054173305,3.937008,2.3293964,176.01936849351,178.34876489351,3.937008,0,58.308400816,93.189307444,11,4,8.286,178.67684889351,4.265092,0,60.763781472,0,0,0,83.3, 0.4, 0,0,0,1024,1024,1024,1024,0,0,0,0,94.5,0,0,94,4.145,4.138,0,0,0,0,4.05,73.22,178.34876489351,3.937008,6,P-GPS,
