time(millisecond),datetime(utc),latitude,longitude,height_above_takeoff(feet),height_above_ground_at_drone_location(feet),ground_elevation_at_drone_location(feet),altitude_above_seaLevel(feet),height_sonar(feet),speed(mph),distance(feet),mileage(feet),satellites,gpslevel,voltage(v),max_altitude(feet),max_ascent(feet),max_speed(mph),max_distance(feet), xSpeed(mph), ySpeed(mph), zSpeed(mph), compass_heading(degrees), pitch(degrees), roll(degrees),isPhoto,isVideo,rc_elevator,rc_aileron,rc_throttle,rc_rudder,rc_elevator(percent),rc_aileron(percent),rc_throttle(percent),rc_rudder(percent),gimbal_heading(degrees),gimbal_pitch(degrees),gimbal_roll(degrees),battery_percent,voltageCell1,voltageCell2,voltageCell3,voltageCell4,voltageCell5,voltageCell6,current(A),battery_temperature(f),altitude(feet),ascent(feet),flycStateRaw,flycState,message
671300,2022-08-12 04:57:28,0,0,0,,,3.28084E-5,0.328084,0,0,0,0,0,0,3.28084E-5,0,0,0,0,0,0,5.5, 3, -0.4,0,0,364,364,364,1684,-100,-100,-100,100,8.2,0,0,57,3.923,3.919,0,0,0,0,0,108.32,3.28084E-5,0,41,Motors_Started,"Baja velocidad de la tarjeta SD. Puede afectar a su uso normal. Sustituye la tarjeta SD (Code: 10028)"
671400,2022-08-12 04:57:28,0,0,0,,,3.28084E-5,0.328084,0,0,0,0,0,7.841,3.28084E-5,0,0,0,0,0,0,5.5, 3, -0.4,0,0,364,364,364,1684,-100,-100,-100,100,8.2,0,0,57,3.923,3.919,0,0,0,0,0.559,108.32,3.28084E-5,0,41,Motors_Started,
671500,2022-08-12 04:57:28,0,0,0,,,3.28084E-5,0.328084,0,0,0,0,0,7.841,3.28084E-5,0,0,0,0,0,0,5.5, 3, -0.4,0,0,364,364,364,1684,-100,-100,-100,100,8.2,0,0,57,3.923,3.919,0,0,0,0,0.559,108.32,3.28084E-5,0,41,Motors_Started,
671600,2022-08-12 04:57:28,0,0,0,,,3.28084E-5,0.328084,0,0,0,0,0,7.841,3.28084E-5,0,0,0,0,0,0,5.5, 3, -0.4,0,0,364,364,364,1684,-100,-100,-100,100,8.2,0,0,57,3.923,3.919,0,0,0,0,0.559,108.32,3.28084E-5,0,41,Motors_Started,
671700,2022-08-12 04:57:28,0,0,0,,,3.28084E-5,0.328084,0,0,0,0,0,7.841,3.28084E-5,0,0,0,0,0,0,5.5, 3, -0.4,0,0,539,939,516,1024,-73,-13,-77,0,8.2,0,0,57,3.923,3.919,0,0,0,0,0.559,108.32,3.28084E-5,0,41,Motors_Started,
671800,2022-08-12 04:57:29,0,0,0,,,3.28084E-5,0.328084,0,0,0,0,0,7.841,3.28084E-5,0,0,0,0,0,0,5.5, 3, -0.4,0,0,1024,1024,1024,1024,0,0,0,0,8.2,0,0,57,3.923,3.919,0,0,0,0,0.559,108.32,3.28084E-5,0,41,Motors_Started,
671900,2022-08-12 04:57:29,0,0,0,,,3.28084E-5,0.328084,0,0,0,0,0,7.841,3.28084E-5,0,0,0,0,0,0,5.5, 3, -0.4,0,0,1024,1024,1024,1024,0,0,0,0,8.2,0,0,57,3.923,3.919,0,0,0,0,0.559,108.32,3.28084E-5,0,41,Motors_Started,"Setting new Return-To-Home altitude to 40m (131 ft). Data Recorder File Index is 39. Setting new Maximum Flight Altitude to 30m (98 ft)"
672000,2022-08-12 04:57:29,0,0,0,,,3.28084E-5,0.328084,0,0,0,0,0,7.841,3.28084E-5,0,0,0,0,0,0,5.5, 3, -0.4,0,0,1024,1024,1024,1024,0,0,0,0,8.2,0,0,57,3.923,3.919,0,0,0,0,0.559,108.32,3.28084E-5,0,41,Motors_Started,
672100,2022-08-12 04:57:29,0,0,0,,,3.28084E-5,0.328084,0,0,0,0,0,7.841,3.28084E-5,0,0,0,0,0,0,5.5, 3, -0.4,0,0,1024,1024,1024,1024,0,0,0,0,8.2,0,0,57,3.923,3.919,0,0,0,0,0.559,108.32,3.28084E-5,0,41,Motors_Started,
672200,2022-08-12 04:57:29,0,0,0,,,3.28084E-5,0.328084,0,0,0,0,0,7.841,3.28084E-5,0,0,0,0,0,0,5.5, 3, -0.3,0,0,1024,1024,1024,1024,0,0,0,0,8.2,0,0,57,3.923,3.919,0,0,0,0,0.559,108.32,3.28084E-5,0,41,Motors_Started,
672300,2022-08-12 04:57:29,0,0,0,,,3.28084E-5,0.328084,0,0,0,0,0,7.841,3.28084E-5,0,0,0,0,0,0,5.5, 3.1, -0.4,0,0,1024,1024,1024,1024,0,0,0,0,8.2,0,0,57,3.923,3.919,0,0,0,0,0.559,108.32,3.28084E-5,0,41,Motors_Started,
672400,2022-08-12 04:57:29,0,0,0,,,3.28084E-5,0.328084,0,0,0,0,0,7.841,3.28084E-5,0,0,0,0,0,0,5.5, 3, -0.4,0,0,1024,1024,1102,1024,0,0,12,0,8.2,0,0,57,3.923,3.919,0,0,0,0,0.559,108.32,3.28084E-5,0,10,Assisted_Takeoff,
672500,2022-08-12 04:57:29,0,0,0,,,3.28084E-5,0.328084,0,0,0,0,0,7.822,3.28084E-5,0,0,0,0,0,0,5.5, 3, -0.4,0,0,1024,1024,1381,1024,0,0,54,0,8.2,0,0,57,3.913,3.908,0,0,0,0,1.094,108.32,3.28084E-5,0,10,Assisted_Takeoff,
672600,2022-08-12 04:57:29,0,0,0,,,3.28084E-5,0.328084,0,0,0,0,0,7.822,3.28084E-5,0,0,0,0,0,0,5.6, 3, -0.4,0,0,1024,1024,1381,1024,0,0,54,0,8.2,0,0,57,3.913,3.908,0,0,0,0,1.094,108.32,3.28084E-5,0,10,Assisted_Takeoff,
672700,2022-08-12 04:57:29,0,0,0,,,3.28084E-5,0.328084,0,0,0,0,0,7.822,3.28084E-5,0,0,0,0,0,0,5.7, 3, -0.4,0,0,1024,1024,1024,1024,0,0,0,0,8.2,0,0,57,3.913,3.908,0,0,0,0,1.094,108.32,3.28084E-5,0,10,Assisted_Takeoff,
672800,2022-08-12 04:57:30,0,0,0,,,3.28084E-5,0.328084,0,0,0,0,0,7.822,3.28084E-5,0,0,0,0,0,0,5.7, 3, -0.4,0,0,1024,1024,1024,1024,0,0,0,0,8.2,0,0,57,3.913,3.908,0,0,0,0,1.094,108.32,3.28084E-5,0,10,Assisted_Takeoff,
672900,2022-08-12 04:57:30,0,0,0,,,3.28084E-5,0.328084,0,0,0,0,0,7.822,3.28084E-5,0,0,0,0,0,0,5.8, 3, -0.4,0,0,1024,1024,1024,1024,0,0,0,0,8.3,0,0,57,3.913,3.908,0,0,0,0,1.094,108.32,3.28084E-5,0,10,Assisted_Takeoff,
673000,2022-08-12 04:57:30,0,0,0,,,3.28084E-5,0.328084,0,0,0,0,0,7.822,3.28084E-5,0,0,0,0,0,0,5.8, 3, -0.4,0,0,1024,1024,1039,1024,0,0,2,0,8.4,0,0,57,3.913,3.908,0,0,0,0,1.094,108.32,3.28084E-5,0,10,Assisted_Takeoff,
673100,2022-08-12 04:57:30,0,0,0,,,3.28084E-5,0.328084,0,0,0,0,0,7.822,3.28084E-5,0,0,0,0,0,0,5.8, 3, -0.4,0,0,1024,1024,1476,1024,0,0,68,0,8.4,0,0,57,3.913,3.908,0,0,0,0,1.094,108.32,3.28084E-5,0,10,Assisted_Takeoff,
673200,2022-08-12 04:57:30,0,0,0,,,3.28084E-5,0.328084,0,0,0,0,0,7.822,3.28084E-5,0,0,0,0,0,0,5.9, 3, -0.4,0,0,1024,1024,1433,1024,0,0,62,0,8.4,0,0,57,3.913,3.908,0,0,0,0,1.094,108.32,3.28084E-5,0,10,Assisted_Takeoff,
673300,2022-08-12 04:57:30,0,0,0,,,3.28084E-5,0.328084,0,0,0,0,0,7.822,3.28084E-5,0,0,0,0,0,0,5.9, 3.1, -0.4,0,0,1024,1024,1024,1024,0,0,0,0,8.5,0,0,57,3.913,3.908,0,0,0,0,1.094,108.32,3.28084E-5,0,10,Assisted_Takeoff,
673400,2022-08-12 04:57:30,0,0,0,,,3.28084E-5,0.328084,0,0,0,0,0,7.822,3.28084E-5,0,0,0,0,0,0,5.9, 3, -0.4,0,0,1024,1024,1059,1024,0,0,5,0,8.5,0,0,57,3.913,3.908,0,0,0,0,1.094,108.32,3.28084E-5,0,10,Assisted_Takeoff,
673500,2022-08-12 04:57:30,0,0,0,,,3.28084E-5,0.328084,0,0,0,0,0,7.815,3.28084E-5,0,0,0,0,0,0,6, 3, -0.3,0,0,1024,1024,1469,1024,0,0,67,0,8.5,0,0,57,3.913,3.907,0,0,0,0,1.563,108.32,3.28084E-5,0,10,Assisted_Takeoff,
673600,2022-08-12 04:57:30,0,0,0,,,3.28084E-5,0.328084,0,0,0,0,0,7.815,3.28084E-5,0,0,0,0,0,0,6.1, 3, -0.4,0,0,1024,1024,1469,1024,0,0,67,0,8.6,0,0,57,3.913,3.907,0,0,0,0,1.563,108.32,3.28084E-5,0,10,Assisted_Takeoff,
673700,2022-08-12 04:57:30,0,0,0,,,3.28084E-5,0.328084,0,0,0,0,0,7.815,3.28084E-5,0,0,0,0,0,0,6, 3, -0.4,0,0,1024,1024,1636,1024,0,0,93,0,8.6,0,0,57,3.913,3.907,0,0,0,0,1.563,108.32,3.28084E-5,0,10,Assisted_Takeoff,
673800,2022-08-12 04:57:31,0,0,0,,,3.28084E-5,0.328084,0,0,0,0,0,7.815,3.28084E-5,0,0,0,0,0,0,6.3, 2.7, -0.4,0,0,1024,1024,1024,1024,0,0,0,0,8.6,0,0,57,3.913,3.907,0,0,0,0,1.563,108.32,3.28084E-5,0,10,Assisted_Takeoff,
673900,2022-08-12 04:57:31,0,0,0,,,3.28084E-5,0.328084,0,0,0,0,0,7.815,3.28084E-5,0,0,0,0,0,0,7.2, -0.2, 0,0,0,1024,1024,1024,1024,0,0,0,0,9.1,0,0,57,3.913,3.907,0,0,0,0,1.563,108.32,3.28084E-5,0,10,Assisted_Takeoff,
674000,2022-08-12 04:57:31,0,0,0,,,3.28084E-5,0.328084,0,0,0,0,0,7.815,3.28084E-5,0,0,0,0,0,-0.223694,8.2, -2, 0.3,0,0,1024,1024,1024,1024,0,0,0,0,9.9,0,0,57,3.913,3.907,0,0,0,0,1.563,108.32,3.28084E-5,0,10,Assisted_Takeoff,
674100,2022-08-12 04:57:31,0,0,0,,,3.28084E-5,0.328084,0,0,0,0,0,7.815,3.28084E-5,0,0,0,0,0,0,9, -1.2, 0.2,0,0,1024,1024,1084,1024,0,0,9,0,10.8,0,0,57,3.913,3.907,0,0,0,0,1.563,108.32,3.28084E-5,0,10,Assisted_Takeoff,"Baja velocidad de la tarjeta SD. Puede afectar a su uso normal. Sustituye la tarjeta SD (Code: 10028)"
674200,2022-08-12 04:57:31,0,0,0,,,3.28084E-5,0.328084,0,0,0,0,0,7.815,3.28084E-5,0,0,0,0,0,0.223694,9, -0.8, 0,0,0,1024,1024,1165,1024,0,0,21,0,10.9,0,0,57,3.913,3.907,0,0,0,0,1.563,108.32,3.28084E-5,0,38,Tripod,
674300,2022-08-12 04:57:31,0,0,0,,,3.28084E-5,0.328084,0,0,0,0,0,7.815,3.28084E-5,0,0,0,0,0,0,8.7, 0.4, -0.1,0,0,1024,1024,1678,1024,0,0,99,0,10.9,0,0,57,3.913,3.907,0,0,0,0,1.563,108.32,3.28084E-5,0,38,Tripod,
674400,2022-08-12 04:57:31,0,0,0,,,3.28084E-5,0.328084,0,0,0,0,0,7.815,3.28084E-5,0,0,0,0,0,-0.223694,8.5, -1.1, 0.2,0,0,1024,1024,1684,1024,0,0,100,0,10.9,0,0,57,3.913,3.907,0,0,0,0,1.563,108.32,3.28084E-5,0,38,Tripod,
674500,2022-08-12 04:57:31,0,0,0,,,3.28084E-5,0.328084,0,0,0,0,0,7.793,3.28084E-5,0,0,0,0,0,-0.447388,8.5, -0.6, -0.2,0,0,1024,1024,1684,1024,0,0,100,0,10.9,0,0,57,3.889,3.881,0,0,0,0,2.246,108.32,3.28084E-5,0,38,Tripod,
674600,2022-08-12 04:57:31,0,0,0.328084,,,0.3281168084,0.328084,0,0,0,0,0,7.793,0.3281168084,0.328084,0,0,0,0,-0.447388,8.3, -0.1, 0.1,0,0,1024,1024,1024,1024,0,0,0,0,10.9,0,0,57,3.889,3.881,0,0,0,0,2.246,108.32,0.3281168084,0.328084,38,Tripod,
674700,2022-08-12 04:57:31,0,0,0.328084,,,0.3281168084,0.656168,0,0,0,0,0,7.793,0.3281168084,0.328084,0,0,0,0,-0.671082,8.2, 0, -0.2,0,0,1024,1024,1024,1024,0,0,0,0,10.9,0,0,57,3.889,3.881,0,0,0,0,2.246,108.32,0.3281168084,0.328084,38,Tripod,
674800,2022-08-12 04:57:32,0,0,0.328084,,,0.3281168084,0.656168,0,0,0,0,0,7.793,0.3281168084,0.328084,0,0,0,0,-0.671082,8.2, 0.1, 0,0,0,1024,1024,1024,1024,0,0,0,0,10.9,0,0,57,3.889,3.881,0,0,0,0,2.246,108.32,0.3281168084,0.328084,1,Atti,"Vuela con cuidado (modo Atti) Señal del GPS demasiado débil. Se ha pasado al modo Atti. La aeronave no puede hacer vuelo estacionario. Vuela con precaución (Code: 30022). Baja velocidad de la tarjeta SD. Puede afectar a su uso normal. Sustituye la tarjeta SD (Code: 10028). Aerona"
674900,2022-08-12 04:57:32,0,0,0.328084,,,0.3281168084,0.656168,0,0,0,0,0,7.793,0.3281168084,0.328084,0,0,0,0,-0.894776,8.2, 0.3, 0,0,0,1024,1024,1024,1024,0,0,0,0,10.9,0,0,57,3.889,3.881,0,0,0,0,2.246,108.32,0.3281168084,0.328084,1,Atti,"Aeronave en modo Atti. No se puede hacer vuelo estacionario. Vuela con cuidado (Code: 30004). Baja velocidad de la tarjeta SD. Puede afectar a su uso normal. Sustituye la tarjeta SD (Code: 10028). La brújula no funciona bien el GPS no tiene buena señ"
675000,2022-08-12 04:57:32,0,0,0.656168,,,0.6562008084,0.984252,0,0,0,0,0,7.793,0.6562008084,0.656168,0,0,0,0,-0.894776,8.2, 0.1, 0,0,0,1024,1024,1024,1024,0,0,0,0,10.9,0,0,57,3.889,3.881,0,0,0,0,2.246,108.32,0.6562008084,0.656168,1,Atti,
675100,2022-08-12 04:57:32,0,0,0.656168,,,0.6562008084,0.984252,0,0,0,0,0,7.793,0.6562008084,0.656168,0,0,0,0,-0.894776,8.2, 0.1, -0.2,0,0,1024,1024,1024,1024,0,0,0,0,10.9,0,0,57,3.889,3.881,0,0,0,0,2.246,108.32,0.6562008084,0.656168,1,Atti,
675200,2022-08-12 04:57:32,0,0,0.656168,,,0.6562008084,0.984252,0,0,0,0,0,7.793,0.6562008084,0.656168,0,0,0,0,-0.894776,8.1, 0, -0.1,0,0,1024,1024,1024,1024,0,0,0,0,10.9,0,0,57,3.889,3.881,0,0,0,0,2.246,108.32,0.6562008084,0.656168,1,Atti,
675300,2022-08-12 04:57:32,0,0,0.984252,,,0.9842848084,1.312336,0,0,0,0,0,7.793,0.9842848084,0.984252,0,0,0,0,-0.894776,8.2, 0, -0.1,0,0,1024,1024,1024,1024,0,0,0,0,10.9,0,0,57,3.889,3.881,0,0,0,0,2.246,108.32,0.9842848084,0.984252,1,Atti,
675400,2022-08-12 04:57:32,0,0,0.984252,,,0.9842848084,1.312336,0,0,0,0,0,7.793,0.9842848084,0.984252,0,0,0,0,-0.671082,8.2, 0, -0.1,0,0,1024,1024,1024,1024,0,0,0,0,10.9,0,0,57,3.889,3.881,0,0,0,0,2.246,108.32,0.9842848084,0.984252,1,Atti,
675500,2022-08-12 04:57:32,0,0,0.984252,,,0.9842848084,1.312336,0,0,0,0,0,7.758,0.9842848084,0.984252,0,0,0,0,-0.447388,8.2, 0.2, 0,0,0,1024,1024,1024,1024,0,0,0,0,10.9,0,0,57,3.879,3.871,0,0,0,0,4.021,108.32,0.9842848084,0.984252,38,Tripod,"Baja velocidad de la tarjeta SD. Puede afectar a su uso normal. Sustituye la tarjeta SD (Code: 10028)"
675600,2022-08-12 04:57:32,0,0,1.312336,,,1.3123688084,1.64042,0,0,0,0,0,7.758,1.3123688084,1.312336,0,0,0,0,-0.447388,8.2, 0.4, 0,0,0,1024,1024,1024,1024,0,0,0,0,10.9,0,0,57,3.879,3.871,0,0,0,0,4.021,108.32,1.3123688084,1.312336,38,Tripod,
675700,2022-08-12 04:57:32,0,0,1.312336,,,1.3123688084,1.64042,0,0,0,0,0,7.758,1.3123688084,1.312336,0,0,0,0,-0.223694,8.3, 0.5, 0,0,0,1024,1024,1024,1024,0,0,0,0,10.9,0,0,57,3.879,3.871,0,0,0,0,4.021,108.32,1.3123688084,1.312336,38,Tripod,
675800,2022-08-12 04:57:33,0,0,1.312336,,,1.3123688084,1.64042,0,0,0,0,0,7.758,1.3123688084,1.312336,0,0,0,0,0,8.2, 0.6, 0,0,0,1024,1024,1024,1024,0,0,0,0,10.9,0,0,57,3.879,3.871,0,0,0,0,4.021,108.32,1.3123688084,1.312336,38,Tripod,
675900,2022-08-12 04:57:33,0,0,1.312336,,,1.3123688084,1.64042,0,0,0,0,0,7.758,1.3123688084,1.312336,0,0,0,0,0,8.2, 0.6, -0.1,0,0,1024,1024,1024,1024,0,0,0,0,10.9,0,0,57,3.879,3.871,0,0,0,0,4.021,108.32,1.3123688084,1.312336,38,Tripod,
676000,2022-08-12 04:57:33,0,0,1.312336,,,1.3123688084,1.64042,0,0,0,0,0,7.758,1.3123688084,1.312336,0,0,0,0,0,8.2, 0.7, 0,0,0,1024,1024,1024,1024,0,0,0,0,10.9,0,0,57,3.879,3.871,0,0,0,0,4.021,108.32,1.3123688084,1.312336,38,Tripod,
676100,2022-08-12 04:57:33,0,0,1.312336,,,1.3123688084,1.64042,0,0,0,0,0,7.758,1.3123688084,1.312336,0,0,0,0,0,8.2, 0.6, -0.1,0,0,1024,1024,1024,1024,0,0,0,0,10.9,0,0,57,3.879,3.871,0,0,0,0,4.021,108.32,1.3123688084,1.312336,38,Tripod,
676200,2022-08-12 04:57:33,0,0,1.312336,,,1.3123688084,1.64042,0,0,0,0,0,7.758,1.3123688084,1.312336,0,0,0,0,0,8.2, 0.5, -0.1,0,0,1024,1024,1024,1024,0,0,0,0,10.9,0,0,57,3.879,3.871,0,0,0,0,4.021,108.32,1.3123688084,1.312336,38,Tripod,
676300,2022-08-12 04:57:33,0,0,1.312336,,,1.3123688084,1.64042,0,0,0,0,0,7.758,1.3123688084,1.312336,0,0,0,0,0,8.2, 0.4, -0.1,0,0,1024,1024,1467,1024,0,0,67,0,10.9,0,0,57,3.879,3.871,0,0,0,0,4.021,108.32,1.3123688084,1.312336,38,Tripod,
676400,2022-08-12 04:57:33,0,0,1.312336,,,1.3123688084,1.64042,0,0,0,0,0,7.758,1.3123688084,1.312336,0,0,0,0,0,8.2, 0.5, -0.1,0,0,1024,1024,1497,1024,0,0,72,0,10.9,0,0,57,3.879,3.871,0,0,0,0,4.021,108.32,1.3123688084,1.312336,38,Tripod,
676500,2022-08-12 04:57:33,0,0,1.312336,,,1.3123688084,1.64042,0,0,0,0,0,7.75,1.3123688084,1.312336,0,0,0,0,-0.223694,8.3, 0.5, 0,0,0,1024,1024,1179,1024,0,0,23,0,10.9,0,0,57,3.875,3.868,0,0,0,0,4.22,108.32,1.3123688084,1.312336,38,Tripod,
676600,2022-08-12 04:57:33,0,0,1.64042,,,1.6404528084,1.64042,0,0,0,0,0,7.75,1.6404528084,1.64042,0,0,0,0,-0.671082,8.3, 0.3, 0,0,0,1024,1024,1179,1024,0,0,23,0,10.9,0,0,57,3.875,3.868,0,0,0,0,4.22,108.32,1.6404528084,1.64042,38,Tripod,
676700,2022-08-12 04:57:33,0,0,1.64042,,,1.6404528084,1.968504,0,0,0,0,0,7.75,1.6404528084,1.64042,0,0,0,0,-1.11847,8.2, 0.2, 0,0,0,1024,1024,1042,1024,0,0,3,0,10.9,0,0,57,3.875,3.868,0,0,0,0,4.22,108.32,1.6404528084,1.64042,38,Tripod,
676800,2022-08-12 04:57:34,0,0,1.968504,,,1.9685368084,1.968504,0,0,0,0,0,7.75,1.9685368084,1.968504,0,0,0,0,-0.671082,8.2, 0.4, 0,0,0,1024,1024,1024,1024,0,0,0,0,10.9,0,0,57,3.875,3.868,0,0,0,0,4.22,108.32,1.9685368084,1.968504,38,Tripod,
676900,2022-08-12 04:57:34,0,0,1.968504,,,1.9685368084,2.296588,0,0,0,0,0,7.75,1.9685368084,1.968504,0,0,0,0,-0.447388,8.2, 0.5, 0,0,0,1024,1024,1024,1024,0,0,0,0,10.9,0,0,57,3.875,3.868,0,0,0,0,4.22,108.32,1.9685368084,1.968504,38,Tripod,
677000,2022-08-12 04:57:34,0,0,1.968504,,,1.9685368084,2.296588,0,0,0,0,0,7.75,1.9685368084,1.968504,0,0,0,0,-0.223694,8.3, 0.5, 0,0,0,1024,1024,1033,1024,0,0,1,0,10.9,0,0,57,3.875,3.868,0,0,0,0,4.22,108.32,1.9685368084,1.968504,38,Tripod,
677100,2022-08-12 04:57:34,0,0,1.968504,,,1.9685368084,2.296588,0,0,0,0,0,7.75,1.9685368084,1.968504,0,0,0,0,0,8.3, 0.4, 0,0,0,1024,1024,1329,1024,0,0,46,0,10.9,0,0,57,3.875,3.868,0,0,0,0,4.22,108.32,1.9685368084,1.968504,38,Tripod,
677200,2022-08-12 04:57:34,0,0,1.968504,,,1.9685368084,2.296588,0,0,0,0,0,7.75,1.9685368084,1.968504,0,0,0,0,0,8.3, 0.5, 0,0,0,1024,1024,1313,1024,0,0,44,0,10.9,0,0,57,3.875,3.868,0,0,0,0,4.22,108.32,1.9685368084,1.968504,38,Tripod,
677300,2022-08-12 04:57:34,0,0,1.968504,,,1.9685368084,2.296588,0,0,0,0,0,7.75,1.9685368084,1.968504,0,0,0,0,-0.223694,8.3, 0.4, 0.1,0,0,1024,1024,1024,1024,0,0,0,0,10.9,0,0,57,3.875,3.868,0,0,0,0,4.22,108.32,1.9685368084,1.968504,38,Tripod,
677400,2022-08-12 04:57:34,0,0,2.296588,,,2.2966208084,2.296588,0,0,0,0,0,7.75,2.2966208084,2.296588,0,0,0,0,-0.671082,8.3, 0.2, -0.1,0,0,1024,1024,1024,1024,0,0,0,0,10.9,0,0,57,3.875,3.868,0,0,0,0,4.22,108.32,2.2966208084,2.296588,38,Tripod,
677500,2022-08-12 04:57:34,0,0,2.296588,,,2.2966208084,2.624672,0,0,0,0,0,7.75,2.2966208084,2.296588,0,0,0,0,-0.447388,8.3, 0.5, -0.2,0,0,1024,1024,1024,1024,0,0,0,0,10.9,0,0,57,3.875,3.868,0,0,0,0,4.22,108.32,2.2966208084,2.296588,38,Tripod,
677600,2022-08-12 04:57:34,0,0,2.296588,,,2.2966208084,2.624672,0,0,0,0,0,7.75,2.2966208084,2.296588,0,0,0,0,-0.223694,8.3, 0.4, 0,0,0,1024,1024,1086,1024,0,0,9,0,10.9,0,0,57,3.869,3.848,0,0,0,0,4.515,108.32,2.2966208084,2.296588,38,Tripod,
677700,2022-08-12 04:57:34,0,0,2.296588,,,2.2966208084,2.624672,0,0,0,0,0,7.75,2.2966208084,2.296588,0,0,0,0,-0.223694,8.3, 0.3, 0,0,0,1024,1024,1366,1024,0,0,52,0,10.9,0,0,57,3.869,3.848,0,0,0,0,4.515,108.32,2.2966208084,2.296588,38,Tripod,
677800,2022-08-12 04:57:35,0,0,2.624672,,,2.6247048084,2.624672,0,0,0,0,0,7.75,2.6247048084,2.624672,0,0,0,0,-0.223694,8.2, 0.4, 0,0,0,1024,1024,1185,1024,0,0,24,0,10.9,0,0,57,3.869,3.848,0,0,0,0,4.515,108.32,2.6247048084,2.624672,38,Tripod,"Se detectó tarjeta SD de baja velocidad"
677900,2022-08-12 04:57:35,0,0,2.624672,,,2.6247048084,2.624672,0,0,0,0,0,7.75,2.6247048084,2.624672,0,0,0,0,-0.671082,8.3, 0.3, 0,0,0,1024,1024,1102,1024,0,0,12,0,10.9,0,0,57,3.869,3.848,0,0,0,0,4.515,108.32,2.6247048084,2.624672,38,Tripod,
678000,2022-08-12 04:57:35,0,0,2.624672,,,2.6247048084,2.952756,0,0,0,0,0,7.75,2.6247048084,2.624672,0,0,0,0,-0.447388,8.3, 0.2, 0,0,0,1024,1024,1068,1024,0,0,7,0,10.9,0,0,57,3.869,3.848,0,0,0,0,4.515,108.32,2.6247048084,2.624672,38,Tripod,
678100,2022-08-12 04:57:35,0,0,2.624672,,,2.6247048084,2.952756,0,0,0,0,0,7.75,2.6247048084,2.624672,0,0,0,0,-0.447388,8.3, 0.4, -0.1,0,0,1024,1024,1054,1024,0,0,5,0,10.9,0,0,57,3.869,3.848,0,0,0,0,4.515,108.32,2.6247048084,2.624672,38,Tripod,
678200,2022-08-12 04:57:35,0,0,2.952756,,,2.9527888084,2.952756,0,0,0,0,0,7.75,2.9527888084,2.952756,0,0,0,0,-0.223694,8.3, 0.6, -0.1,0,0,1024,1024,1093,1024,0,0,10,0,10.9,0,0,57,3.869,3.848,0,0,0,0,4.515,108.32,2.9527888084,2.952756,38,Tripod,
678300,2022-08-12 04:57:35,0,0,2.952756,,,2.9527888084,2.952756,0,0,0,0,0,7.75,2.9527888084,2.952756,0,0,0,0,0,8.3, 0.6, -0.2,0,0,1024,1024,1093,1024,0,0,10,0,10.9,0,0,57,3.869,3.848,0,0,0,0,4.515,108.32,2.9527888084,2.952756,38,Tripod,
678400,2022-08-12 04:57:35,0,0,2.952756,,,2.9527888084,2.952756,0,0,0,0,0,7.75,2.9527888084,2.952756,0,0,0,0,0,8.3, 0.6, -0.2,0,0,1024,1024,1144,1024,0,0,18,0,10.9,0,0,57,3.869,3.848,0,0,0,0,4.515,108.32,2.9527888084,2.952756,38,Tripod,
678500,2022-08-12 04:57:35,0,0,2.952756,,,2.9527888084,2.952756,0,0,0,0,0,7.75,2.9527888084,2.952756,0,0,0,0,0,8.3, 0.4, 0,0,0,1024,1024,1047,1024,0,0,3,0,10.9,0,0,57,3.869,3.848,0,0,0,0,4.515,108.32,2.9527888084,2.952756,38,Tripod,
678600,2022-08-12 04:57:35,0,0,2.952756,,,2.9527888084,2.952756,0,0,0,0,0,7.728,2.9527888084,2.952756,0,0,0,0,0,8.3, 0.2, 0.2,0,0,1024,1024,1024,1024,0,0,0,0,10.9,0,0,56,3.875,3.864,0,0,0,0,4.638,108.32,2.9527888084,2.952756,38,Tripod,
678700,2022-08-12 04:57:35,0,0,2.952756,,,2.9527888084,2.952756,0,0,0,0,0,7.728,2.9527888084,2.952756,0,0,0,0,0,8.3, 0.3, 0.5,0,0,1024,1024,1035,1024,0,0,2,0,10.9,0,0,56,3.875,3.864,0,0,0,0,4.638,108.32,2.9527888084,2.952756,38,Tripod,
678800,2022-08-12 04:57:36,0,0,2.952756,,,2.9527888084,2.952756,0,0,0,0,0,7.728,2.9527888084,2.952756,0,0,0,0,0,8.2, 0.3, 0.4,0,0,1024,1024,1232,1024,0,0,32,0,10.9,0,0,56,3.875,3.864,0,0,0,0,4.638,108.32,2.9527888084,2.952756,38,Tripod,
678900,2022-08-12 04:57:36,0,0,2.952756,,,2.9527888084,2.952756,0,0,0,0,0,7.728,2.9527888084,2.952756,0,0,0,0,0,8.2, 0.4, 0.5,0,0,1024,1024,1187,1024,0,0,25,0,10.9,0,0,56,3.875,3.864,0,0,0,0,4.638,108.32,2.9527888084,2.952756,38,Tripod,
679000,2022-08-12 04:57:36,0,0,2.952756,,,2.9527888084,2.952756,0,0,0,0,0,7.728,2.9527888084,2.952756,0,0,0,0,-0.223694,8.3, 0.3, 0.6,0,0,1024,1024,1027,1024,0,0,0,0,10.9,0,0,56,3.875,3.864,0,0,0,0,4.638,108.32,2.9527888084,2.952756,38,Tripod,
679100,2022-08-12 04:57:36,0,0,2.952756,,,2.9527888084,3.28084,0,0,0,0,0,7.728,2.9527888084,2.952756,0,0,0,0,-0.447388,8.3, 0.2, 0.3,0,0,1024,1024,1053,1024,0,0,4,0,10.9,0,0,56,3.875,3.864,0,0,0,0,4.638,108.32,2.9527888084,2.952756,38,Tripod,
679200,2022-08-12 04:57:36,0,0,3.28084,,,3.2808728084,3.28084,0,0,0,0,0,7.728,3.2808728084,3.28084,0,0,0,0,-0.223694,8.3, 0.4, 0.2,0,0,1024,1024,1053,1024,0,0,4,0,10.9,0,0,56,3.875,3.864,0,0,0,0,4.638,108.32,3.2808728084,3.28084,38,Tripod,
679300,2022-08-12 04:57:36,0,0,3.28084,,,3.2808728084,3.28084,0,0,0,0,0,7.728,3.2808728084,3.28084,0,0,0,0,0,8.3, 0.5, 0.1,0,0,1024,1024,1074,1024,0,0,8,0,10.9,0,0,56,3.875,3.864,0,0,0,0,4.638,108.32,3.2808728084,3.28084,38,Tripod,
679400,2022-08-12 04:57:36,0,0,3.28084,,,3.2808728084,3.28084,0,0,0,0,0,7.728,3.2808728084,3.28084,0,0,0,0,0,8.4, 0.5, 0,0,0,1024,1024,1100,1024,0,0,12,0,10.9,0,0,56,3.875,3.864,0,0,0,0,4.638,108.32,3.2808728084,3.28084,38,Tripod,
679500,2022-08-12 04:57:36,0,0,3.28084,,,3.2808728084,3.28084,0,0,0,0,0,7.728,3.2808728084,3.28084,0,0,0,0,0,8.4, 0.6, -0.1,0,0,1024,1024,1293,1024,0,0,41,0,10.9,0,0,56,3.875,3.864,0,0,0,0,4.638,108.32,3.2808728084,3.28084,38,Tripod,
679600,2022-08-12 04:57:36,0,0,3.28084,,,3.2808728084,3.28084,0,0,0,0,0,7.729,3.2808728084,3.28084,0,0,0,0,0,8.4, 0.5, -0.5,0,0,1024,1024,1324,1024,0,0,45,0,10.9,0,0,56,3.865,3.858,0,0,0,0,4.293,108.32,3.2808728084,3.28084,38,Tripod,
679700,2022-08-12 04:57:36,0,0,3.28084,,,3.2808728084,3.28084,0,0,0,0,0,7.729,3.2808728084,3.28084,0,0,0,0,-0.447388,8.4, 0.4, -0.6,0,0,1024,1024,1139,1024,0,0,17,0,10.9,0,0,56,3.865,3.858,0,0,0,0,4.293,108.32,3.2808728084,3.28084,38,Tripod,
679800,2022-08-12 04:57:37,0,0,3.28084,,,3.2808728084,3.28084,0,0,0,0,0,7.729,3.2808728084,3.28084,0,0,0,0,-0.671082,8.4, 0.1, -0.1,0,0,1024,1024,1024,1024,0,0,0,0,10.9,0,0,56,3.865,3.858,0,0,0,0,4.293,108.32,3.2808728084,3.28084,38,Tripod,
679900,2022-08-12 04:57:37,0,0,3.608924,,,3.6089568084,3.608924,0,0,0,0,0,7.729,3.6089568084,3.608924,0,0,0,0,-0.671082,8.4, 0.3, 0.1,0,0,1024,1024,1024,1024,0,0,0,0,10.9,0,0,56,3.865,3.858,0,0,0,0,4.293,108.32,3.6089568084,3.608924,38,Tripod,
680000,2022-08-12 04:57:37,0,0,3.608924,,,3.6089568084,3.608924,0,0,0,0,0,7.729,3.6089568084,3.608924,0,0,0,0,-0.447388,8.4, 0.3, 0.4,0,0,1024,1024,1024,1024,0,0,0,0,10.9,0,0,56,3.865,3.858,0,0,0,0,4.293,108.32,3.6089568084,3.608924,38,Tripod,
680100,2022-08-12 04:57:37,0,0,3.608924,,,3.6089568084,3.608924,0,0,0,0,0,7.729,3.6089568084,3.608924,0,0,0,0,-0.223694,8.3, 0.4, 0.5,0,0,1024,1024,1024,1024,0,0,0,0,10.9,0,0,56,3.865,3.858,0,0,0,0,4.293,108.32,3.6089568084,3.608924,38,Tripod,
680200,2022-08-12 04:57:37,0,0,3.608924,,,3.6089568084,3.608924,0,0,0,0,0,7.729,3.6089568084,3.608924,0,0,0,0,0,8.3, 0.4, 0.6,0,0,1024,1024,1024,1024,0,0,0,0,10.9,0,0,56,3.865,3.858,0,0,0,0,4.293,108.32,3.6089568084,3.608924,38,Tripod,
680300,2022-08-12 04:57:37,0,0,3.608924,,,3.6089568084,3.608924,0,0,0,0,0,7.729,3.6089568084,3.608924,0,0,0,0,0,8.3, 0.3, 0.5,0,0,1024,1024,1024,1024,0,0,0,0,10.9,0,0,56,3.865,3.858,0,0,0,0,4.293,108.32,3.6089568084,3.608924,38,Tripod,
680400,2022-08-12 04:57:37,0,0,3.608924,,,3.6089568084,3.608924,0,0,0,0,0,7.729,3.6089568084,3.608924,0,0,0,0,0,8.3, 0.3, 0.1,0,0,1024,1024,1024,1024,0,0,0,0,10.9,0,0,56,3.865,3.858,0,0,0,0,4.293,108.32,3.6089568084,3.608924,38,Tripod,
680500,2022-08-12 04:57:37,0,0,3.608924,,,3.6089568084,3.608924,0,0,0,0,0,7.729,3.6089568084,3.608924,0,0,0,0,0,8.2, 0.2, 0.1,0,0,1024,1024,1024,1024,0,0,0,0,10.9,0,0,56,3.865,3.858,0,0,0,0,4.293,108.32,3.6089568084,3.608924,38,Tripod,
680600,2022-08-12 04:57:37,0,0,3.608924,,,3.6089568084,3.608924,0,0,0,0,0,7.716,3.6089568084,3.608924,0,0,0,0,0,8.2, 0.2, 0.1,0,0,1024,1024,1024,1024,0,0,0,0,10.9,0,0,56,3.867,3.859,0,0,0,0,4.458,108.32,3.6089568084,3.608924,38,Tripod,
680700,2022-08-12 04:57:37,0,0,3.608924,,,3.6089568084,3.608924,0,0,0,0,0,7.716,3.6089568084,3.608924,0,0,0,0,0,8.3, 0.3, 0,0,0,1024,1312,1024,1024,0,44,0,0,10.9,0,0,56,3.867,3.859,0,0,0,0,4.458,108.32,3.6089568084,3.608924,38,Tripod,
680800,2022-08-12 04:57:38,0,0,3.608924,,,3.6089568084,3.608924,0,0,0,0,0,7.716,3.6089568084,3.608924,0,0,0,0,0,8.3, 0.2, 0,0,0,1024,1376,1024,1024,0,53,0,0,10.9,0,0,56,3.867,3.859,0,0,0,0,4.458,108.32,3.6089568084,3.608924,38,Tripod,
680900,2022-08-12 04:57:38,0,0,3.608924,,,3.6089568084,3.608924,0,0,0,0,0,7.716,3.6089568084,3.608924,0,0,0,0,0,8.3, 0.2, 2.3,0,0,1024,1024,1024,1024,0,0,0,0,10.9,0,0,56,3.867,3.859,0,0,0,0,4.458,108.32,3.6089568084,3.608924,38,Tripod,
681000,2022-08-12 04:57:38,0,0,3.608924,,,3.6089568084,3.608924,0,0,0,0,0,7.716,3.6089568084,3.608924,0,0,0,0,0,8.4, 0.2, 4.2,0,0,1024,1024,1024,1024,0,0,0,0,10.9,0,0,56,3.867,3.859,0,0,0,0,4.458,108.32,3.6089568084,3.608924,38,Tripod,
681100,2022-08-12 04:57:38,0,0,3.608924,,,3.6089568084,3.608924,0,0,0,0,0,7.716,3.6089568084,3.608924,0,0,0,0,0,8.3, 0.2, 0.1,0,0,1024,1024,1024,1024,0,0,0,0,10.9,0,0,56,3.867,3.859,0,0,0,0,4.458,108.32,3.6089568084,3.608924,38,Tripod,
681200,2022-08-12 04:57:38,0,0,3.608924,,,3.6089568084,3.608924,0,0,0,0,0,7.716,3.6089568084,3.608924,0,0,0,0,0,8.2, 0.1, -0.8,0,0,1024,1024,1024,1024,0,0,0,0,10.9,0,0,56,3.867,3.859,0,0,0,0,4.458,108.32,3.6089568084,3.608924,38,Tripod,
681300,2022-08-12 04:57:38,0,0,3.608924,,,3.6089568084,3.608924,0,0,0,0,0,7.716,3.6089568084,3.608924,0,0,0,0,0,8.2, 0, -0.8,0,0,1024,364,1024,1024,0,-100,0,0,10.9,0,0,56,3.867,3.859,0,0,0,0,4.458,108.32,3.6089568084,3.608924,38,Tripod,
681400,2022-08-12 04:57:38,0,0,3.608924,,,3.6089568084,3.608924,0,0,0,0,0,7.716,3.6089568084,3.608924,0,0,0,0,0,8.2, 0.2, -2,0,0,1024,364,1024,1024,0,-100,0,0,10.9,0,0,56,3.867,3.859,0,0,0,0,4.458,108.32,3.6089568084,3.608924,38,Tripod,
681500,2022-08-12 04:57:38,0,0,3.608924,,,3.6089568084,3.608924,0,0,0,0,0,7.716,3.6089568084,3.608924,0,0,0,0,0,8, 0.3, -9.5,0,0,1024,1024,1024,1024,0,0,0,0,10.9,0,0,56,3.867,3.859,0,0,0,0,4.458,108.32,3.6089568084,3.608924,38,Tripod,
681600,2022-08-12 04:57:38,0,0,3.608924,,,3.6089568084,3.608924,0.447388,0,0,0,0,7.721,3.6089568084,3.608924,0,0,0,-0.447388,0,8, 0.4, -11.4,0,0,1024,829,1024,1024,0,-30,0,0,10.9,0,0,56,3.863,3.855,0,0,0,0,4.293,108.32,3.6089568084,3.608924,38,Tripod,
681700,2022-08-12 04:57:39,0,0,3.608924,,,3.6089568084,3.608924,0.671082,0,0,0,0,7.721,3.6089568084,3.608924,0,0,0,-0.671082,0,8.5, 0.3, 0.2,0,0,1024,741,1024,1024,0,-43,0,0,10.9,0,0,56,3.863,3.855,0,0,0,0,4.293,108.32,3.6089568084,3.608924,38,Tripod,
681800,2022-08-12 04:57:39,0,0,3.608924,,,3.6089568084,3.608924,0.671082,0,0,0,0,7.721,3.6089568084,3.608924,0,0,0,-0.671082,0,8.5, 0.2, 1,0,0,1024,1024,1024,1024,0,0,0,0,10.9,0,0,56,3.863,3.855,0,0,0,0,4.293,108.32,3.6089568084,3.608924,38,Tripod,
681900,2022-08-12 04:57:39,0,0,3.937008,,,3.9370408084,3.608924,0.671082,0,0,0,0,7.721,3.9370408084,3.937008,0,0,0,-0.671082,0,8.2, 0.1, -1.4,0,0,1024,1024,1024,1024,0,0,0,0,10.9,0,0,56,3.863,3.855,0,0,0,0,4.293,108.32,3.9370408084,3.937008,38,Tripod,
682000,2022-08-12 04:57:39,0,0,3.937008,,,3.9370408084,3.608924,0.671082,0,0,0,0,7.721,3.9370408084,3.937008,0,0,0,-0.671082,0,8.3, 0.1, 1.8,0,0,1024,1024,1024,1024,0,0,0,0,10.9,0,0,56,3.863,3.855,0,0,0,0,4.293,108.32,3.9370408084,3.937008,38,Tripod,
682100,2022-08-12 04:57:39,0,0,3.937008,,,3.9370408084,3.608924,0.447388,0,0,0,0,7.721,3.9370408084,3.937008,0,0,0,-0.447388,0,8.4, 0.1, 3.5,0,0,1024,1024,1035,1024,0,0,2,0,10.9,0,0,56,3.863,3.855,0,0,0,0,4.293,108.32,3.9370408084,3.937008,38,Tripod,
682200,2022-08-12 04:57:39,0,0,3.937008,,,3.9370408084,3.608924,0.447388,0,0,0,0,7.721,3.9370408084,3.937008,0,0,0,-0.447388,0,8.3, 0.2, 3.3,0,0,1024,1024,1296,1024,0,0,41,0,10.9,0,0,56,3.863,3.855,0,0,0,0,4.293,108.32,3.9370408084,3.937008,38,Tripod,
682300,2022-08-12 04:57:39,0,0,3.937008,,,3.9370408084,3.608924,0.447388,0,0,0,0,7.721,3.9370408084,3.937008,0,0,0,-0.223694,0,8.3, 0.3, 2.9,0,0,1024,1024,1255,1024,0,0,35,0,10.9,0,0,56,3.863,3.855,0,0,0,0,4.293,108.32,3.9370408084,3.937008,38,Tripod,
682400,2022-08-12 04:57:39,0,0,3.937008,,,3.9370408084,3.608924,0.223694,0,0,0,0,7.721,3.9370408084,3.937008,0,0,0,-0.223694,-0.447388,8.3, 0.3, 2.2,0,0,1024,1024,1024,1024,0,0,0,0,10.9,0,0,56,3.863,3.855,0,0,0,0,4.293,108.32,3.9370408084,3.937008,38,Tripod,
682500,2022-08-12 04:57:39,0,0,3.937008,,,3.9370408084,3.937008,0,0,0,0,0,7.721,3.9370408084,3.937008,0,0,0,0,-0.447388,8.2, 0.4, 1.4,0,0,1024,1024,1024,1024,0,0,0,0,10.9,0,0,56,3.863,3.855,0,0,0,0,4.293,108.32,3.9370408084,3.937008,38,Tripod,
682600,2022-08-12 04:57:39,0,0,3.937008,,,3.9370408084,3.937008,0,0,0,0,0,7.721,3.9370408084,3.937008,0,0,0,0,-0.223694,8.3, 0.3, 0.9,0,0,1024,1024,1024,1024,0,0,0,0,10.9,0,0,56,3.863,3.855,0,0,0,0,4.293,108.32,3.9370408084,3.937008,38,Tripod,
682700,2022-08-12 04:57:39,0,0,3.937008,,,3.9370408084,3.937008,0,0,0,0,0,7.716,3.9370408084,3.937008,0,0,0,0,-0.223694,8.3, 0.2, 1,0,0,1024,1024,1024,1024,0,0,0,0,10.9,0,0,56,3.862,3.845,0,0,0,0,4.462,108.32,3.9370408084,3.937008,38,Tripod,
682800,2022-08-12 04:57:40,0,0,3.937008,,,3.9370408084,3.937008,0,0,0,0,0,7.716,3.9370408084,3.937008,0,0,0,0,0,8.3, 0.1, 0.8,0,0,1445,1024,1024,1024,64,0,0,0,10.9,0,0,56,3.862,3.845,0,0,0,0,4.462,108.32,3.9370408084,3.937008,38,Tripod,
682900,2022-08-12 04:57:40,0,0,3.937008,,,3.9370408084,3.937008,0,0,0,0,0,7.716,3.9370408084,3.937008,0,0,0,0,0,8.3, 0, 0.7,0,0,1445,1024,1024,1024,64,0,0,0,10.9,0,0,56,3.862,3.845,0,0,0,0,4.462,108.32,3.9370408084,3.937008,38,Tripod,
683000,2022-08-12 04:57:40,0,0,3.937008,,,3.9370408084,3.937008,0,0,0,0,0,7.716,3.9370408084,3.937008,0,0,0,0,0,8.3, -2.4, 0.7,0,0,1468,1024,1024,1024,67,0,0,0,10.9,0,0,56,3.862,3.845,0,0,0,0,4.462,108.32,3.9370408084,3.937008,38,Tripod,
683100,2022-08-12 04:57:40,0,0,3.937008,,,3.9370408084,3.937008,0,0,0,0,0,7.716,3.9370408084,3.937008,0,0,0,0,0,8.2, -6.2, 0.7,0,0,1159,1024,1024,1024,20,0,0,0,10.9,0,0,56,3.862,3.845,0,0,0,0,4.462,108.32,3.9370408084,3.937008,38,Tripod,
683200,2022-08-12 04:57:40,0,0,3.937008,,,3.9370408084,3.937008,0.223694,0,0,0,0,7.716,3.9370408084,3.937008,0,0,0.223694,0,0,8.3, -5.1, 0.2,0,0,1024,1024,1024,1024,0,0,0,0,10.9,0,0,56,3.862,3.845,0,0,0,0,4.462,108.32,3.9370408084,3.937008,38,Tripod,
683300,2022-08-12 04:57:40,0,0,3.937008,,,3.9370408084,3.937008,0.447388,0,0,0,0,7.716,3.9370408084,3.937008,0,0,0.447388,0,0,8.3, -1.3, 0.2,0,0,1024,1024,1024,1024,0,0,0,0,10.9,0,0,56,3.862,3.845,0,0,0,0,4.462,108.32,3.9370408084,3.937008,38,Tripod,
683400,2022-08-12 04:57:40,0,0,3.937008,,,3.9370408084,3.937008,0.447388,0,0,0,0,7.716,3.9370408084,3.937008,0,0,0.447388,0,0,8.3, 2.1, 0.2,0,0,1082,1024,1024,1024,9,0,0,0,10.9,0,0,56,3.862,3.845,0,0,0,0,4.462,108.32,3.9370408084,3.937008,38,Tripod,
683500,2022-08-12 04:57:40,0,0,3.937008,,,3.9370408084,3.937008,0.447388,0,0,0,0,7.716,3.9370408084,3.937008,0,0,0.447388,0,0,8.3, 2.5, 0.1,0,0,1281,1024,1024,1024,39,0,0,0,10.9,0,0,56,3.862,3.845,0,0,0,0,4.462,108.32,3.9370408084,3.937008,38,Tripod,
683600,2022-08-12 04:57:40,0,0,3.937008,,,3.9370408084,3.937008,0.223694,0,0,0,0,7.716,3.9370408084,3.937008,0,0,0.223694,0,0,8.3, 1.3, 0,0,0,1069,1024,1024,1024,7,0,0,0,10.9,0,0,56,3.862,3.845,0,0,0,0,4.462,108.32,3.9370408084,3.937008,38,Tripod,
683700,2022-08-12 04:57:40,0,0,3.937008,,,3.9370408084,3.937008,0.223694,0,0,0,0,7.713,3.9370408084,3.937008,0,0,0.223694,0,0,8.3, -1.1, 0,0,0,1024,1024,1024,1024,0,0,0,0,10.9,0,0,56,3.86,3.851,0,0,0,0,4.471,108.32,3.9370408084,3.937008,38,Tripod,
683800,2022-08-12 04:57:41,0,0,3.937008,,,3.9370408084,3.937008,0.223694,0,0,0,0,7.713,3.9370408084,3.937008,0,0,0.223694,0,0,8.2, -0.3, 0,0,0,1024,1024,1024,1024,0,0,0,0,10.9,0,0,56,3.86,3.851,0,0,0,0,4.471,108.32,3.9370408084,3.937008,38,Tripod,
683900,2022-08-12 04:57:41,0,0,3.937008,,,3.9370408084,3.937008,0.223694,0,0,0,0,7.713,3.9370408084,3.937008,0,0,0.223694,0,0,8.2, 1.4, 0,0,0,1232,1024,1024,1024,32,0,0,0,10.9,0,0,56,3.86,3.851,0,0,0,0,4.471,108.32,3.9370408084,3.937008,38,Tripod,
684000,2022-08-12 04:57:41,0,0,3.937008,,,3.9370408084,3.937008,0.223694,0,0,0,0,7.713,3.9370408084,3.937008,0,0,0.223694,0,0,8.2, 1.2, 0,0,0,1445,1024,1024,1024,64,0,0,0,10.9,0,0,56,3.86,3.851,0,0,0,0,4.471,108.32,3.9370408084,3.937008,38,Tripod,
684100,2022-08-12 04:57:41,0,0,3.937008,,,3.9370408084,3.937008,0.223694,0,0,0,0,7.713,3.9370408084,3.937008,0,0,0.223694,0,0,8.2, -2.7, 0,0,0,1225,1024,1024,1024,30,0,0,0,10.9,0,0,56,3.86,3.851,0,0,0,0,4.471,108.32,3.9370408084,3.937008,38,Tripod,
684200,2022-08-12 04:57:41,0,0,4.265092,,,4.2651248084,3.937008,0.223694,0,0,0,0,7.713,4.2651248084,4.265092,0,0,0.223694,0,0,8.2, -4.6, -0.2,0,0,1099,1024,1024,1024,11,0,0,0,10.9,0,0,56,3.86,3.851,0,0,0,0,4.471,108.32,4.2651248084,4.265092,38,Tripod,
684300,2022-08-12 04:57:41,0,0,4.265092,,,4.2651248084,3.937008,0.447388,0,0,0,0,7.713,4.2651248084,4.265092,0,0,0.447388,0,0,8.1, -2.1, -0.1,0,0,1194,1024,1024,1024,26,0,0,0,10.9,0,0,56,3.86,3.851,0,0,0,0,4.471,108.32,4.2651248084,4.265092,38,Tripod,
684400,2022-08-12 04:57:41,0,0,4.265092,,,4.2651248084,3.937008,0.447388,0,0,0,0,7.713,4.2651248084,4.265092,0,0,0.447388,0,0,8.1, -0.1, -0.2,0,0,1453,1024,1024,1024,65,0,0,0,10.9,0,0,56,3.86,3.851,0,0,0,0,4.471,108.32,4.2651248084,4.265092,38,Tripod,
684500,2022-08-12 04:57:41,0,0,4.265092,,,4.2651248084,3.937008,0.447388,0,0,0,0,7.713,4.2651248084,4.265092,0,0,0.447388,0,0,8.1, -0.4, -0.3,0,0,1215,1024,1024,1024,29,0,0,0,10.9,0,0,56,3.86,3.851,0,0,0,0,4.471,108.32,4.2651248084,4.265092,38,Tripod,
684600,2022-08-12 04:57:41,0,0,4.265092,,,4.2651248084,3.937008,0.671082,0,0,0,0,7.713,4.2651248084,4.265092,0,0,0.671082,0,0,8.2, -4.2, -0.3,0,0,1215,1024,1024,1024,29,0,0,0,10.9,0,0,56,3.86,3.851,0,0,0,0,4.471,108.32,4.2651248084,4.265092,38,Tripod,
684700,2022-08-12 04:57:41,0,0,4.265092,,,4.2651248084,3.937008,0.671082,0,0,0,0,7.707,4.2651248084,4.265092,0,0,0.671082,0,0,8.1, -3.9, -0.2,0,0,1098,1024,1024,1024,11,0,0,0,10.9,0,0,56,3.857,3.849,0,0,0,0,4.427,108.32,4.2651248084,4.265092,38,Tripod,
684800,2022-08-12 04:57:42,0,0,4.265092,,,4.2651248084,3.937008,0.9171454,0,0,0,0,7.707,4.2651248084,4.265092,0,0,0.894776,0.223694,0,8.1, -0.9, -0.3,0,0,1337,1024,1024,1024,47,0,0,0,10.9,0,0,56,3.857,3.849,0,0,0,0,4.427,108.32,4.2651248084,4.265092,38,Tripod,
684900,2022-08-12 04:57:42,0,0,4.265092,,,4.2651248084,3.937008,0.9171454,0,0,0,0,7.707,4.2651248084,4.265092,0,0,0.894776,0.223694,0,8.1, -0.6, -0.3,0,0,1258,1024,1024,1024,35,0,0,0,10.9,0,0,56,3.857,3.849,0,0,0,0,4.427,108.32,4.2651248084,4.265092,38,Tripod,
685000,2022-08-12 04:57:42,0,0,4.265092,,,4.2651248084,3.937008,0.9171454,0,0,0,0,7.707,4.2651248084,4.265092,0,0,0.894776,0.223694,0,8.2, -2.4, -0.3,0,0,1038,1024,1024,1024,2,0,0,0,10.9,0,0,56,3.857,3.849,0,0,0,0,4.427,108.32,4.2651248084,4.265092,38,Tripod,
685100,2022-08-12 04:57:42,0,0,4.265092,,,4.2651248084,3.937008,0.9171454,0,0,0,0,7.707,4.2651248084,4.265092,0,0,0.894776,0.223694,0,8.2, -1.7, -0.1,0,0,1024,1024,1024,1024,0,0,0,0,10.9,0,0,56,3.857,3.849,0,0,0,0,4.427,108.32,4.2651248084,4.265092,38,Tripod,
685200,2022-08-12 04:57:42,0,0,4.265092,,,4.2651248084,3.937008,0.9171454,0,0,0,0,7.707,4.2651248084,4.265092,0,0,0.894776,0.223694,0,8.1, 2, -0.1,0,0,1024,1024,1024,1024,0,0,0,0,10.9,0,0,56,3.857,3.849,0,0,0,0,4.427,108.32,4.2651248084,4.265092,38,Tripod,
685300,2022-08-12 04:57:42,0,0,4.265092,,,4.2651248084,3.937008,0.894776,0,0,0,0,7.707,4.2651248084,4.265092,0,0,0.894776,0,0,8.1, 4.3, -0.1,0,0,1024,1024,1024,1024,0,0,0,0,10.9,0,0,56,3.857,3.849,0,0,0,0,4.427,108.32,4.2651248084,4.265092,38,Tripod,
685400,2022-08-12 04:57:42,0,0,4.265092,,,4.2651248084,3.937008,0.671082,0,0,0,0,7.707,4.2651248084,4.265092,0,0,0.671082,0,0,8.2, 4.5, 0,0,0,1024,1024,1024,1024,0,0,0,0,10.9,0,0,56,3.857,3.849,0,0,0,0,4.427,108.32,4.2651248084,4.265092,38,Tripod,
685500,2022-08-12 04:57:42,0,0,4.265092,,,4.2651248084,3.937008,0.447388,0,0,0,0,7.707,4.2651248084,4.265092,0,0,0.447388,0,0,8.2, 3.9, -0.1,0,0,1024,1024,1024,1024,0,0,0,0,10.9,0,0,56,3.857,3.849,0,0,0,0,4.427,108.32,4.2651248084,4.265092,38,Tripod,
685600,2022-08-12 04:57:42,0,0,4.265092,,,4.2651248084,3.937008,0.223694,0,0,0,0,7.707,4.2651248084,4.265092,0,0,0.223694,0,0,8.2, 3.2, -0.1,0,0,1024,1024,1024,1024,0,0,0,0,10.9,0,0,56,3.857,3.849,0,0,0,0,4.427,108.32,4.2651248084,4.265092,38,Tripod,
685700,2022-08-12 04:57:42,0,0,4.265092,,,4.2651248084,3.937008,0.223694,0,0,0,0,7.704,4.2651248084,4.265092,0,0,0.223694,0,0,8.1, 2.5, -0.2,0,0,1024,1024,1024,1024,0,0,0,0,10.9,0,0,56,3.855,3.848,0,0,0,0,4.432,108.32,4.2651248084,4.265092,38,Tripod,
685800,2022-08-12 04:57:43,0,0,4.265092,,,4.2651248084,3.937008,0.223694,0,0,0,0,7.704,4.2651248084,4.265092,0,0,0.223694,0,0,8.1, 2, -0.2,0,0,1024,1024,1024,1024,0,0,0,0,10.9,0,0,56,3.855,3.848,0,0,0,0,4.432,108.32,4.2651248084,4.265092,38,Tripod,
685900,2022-08-12 04:57:43,0,0,4.265092,,,4.2651248084,3.937008,0,0,0,0,0,7.704,4.2651248084,4.265092,0,0,0,0,0,8.1, 1.6, -0.1,0,0,1024,1024,1024,1024,0,0,0,0,10.9,0,0,56,3.855,3.848,0,0,0,0,4.432,108.32,4.2651248084,4.265092,38,Tripod,
686000,2022-08-12 04:57:43,0,0,4.265092,,,4.2651248084,3.937008,0,0,0,0,0,7.704,4.2651248084,4.265092,0,0,0,0,0,8.1, 1.4, -0.1,0,0,1119,1024,1024,1024,14,0,0,0,10.9,0,0,56,3.855,3.848,0,0,0,0,4.432,108.32,4.2651248084,4.265092,38,Tripod,
686100,2022-08-12 04:57:43,0,0,4.265092,,,4.2651248084,3.937008,0,0,0,0,0,7.704,4.2651248084,4.265092,0,0,0,0,0,8.1, 1.3, -0.5,0,0,1404,1024,1024,1024,58,0,0,0,10.9,0,0,56,3.855,3.848,0,0,0,0,4.432,108.32,4.2651248084,4.265092,38,Tripod,
686200,2022-08-12 04:57:43,0,0,4.265092,,,4.2651248084,3.937008,0,0,0,0,0,7.704,4.2651248084,4.265092,0,0,0,0,0,8.1, 0, -0.4,0,0,1163,1024,1024,1024,21,0,0,0,10.9,0,0,56,3.855,3.848,0,0,0,0,4.432,108.32,4.2651248084,4.265092,38,Tripod,
686300,2022-08-12 04:57:43,0,0,4.265092,,,4.2651248084,3.937008,0,0,0,0,0,7.704,4.2651248084,4.265092,0,0,0,0,0,8.1, -3.1, -0.4,0,0,1024,1024,1024,1024,0,0,0,0,10.9,0,0,56,3.855,3.848,0,0,0,0,4.432,108.32,4.2651248084,4.265092,38,Tripod,
686400,2022-08-12 04:57:43,0,0,4.265092,,,4.2651248084,3.937008,0.223694,0,0,0,0,7.704,4.2651248084,4.265092,0,0,0.223694,0,0,8.1, -2, -0.4,0,0,1024,1024,1024,1024,0,0,0,0,10.9,0,0,56,3.855,3.848,0,0,0,0,4.432,108.32,4.2651248084,4.265092,38,Tripod,
686500,2022-08-12 04:57:43,0,0,4.265092,,,4.2651248084,3.937008,0.223694,0,0,0,0,7.704,4.2651248084,4.265092,0,0,0.223694,0,0,8.1, 1.5, -0.2,0,0,1024,1024,1024,1024,0,0,0,0,10.9,0,0,56,3.855,3.848,0,0,0,0,4.432,108.32,4.2651248084,4.265092,38,Tripod,
686600,2022-08-12 04:57:43,0,0,4.265092,,,4.2651248084,3.937008,0.223694,0,0,0,0,7.704,4.2651248084,4.265092,0,0,0.223694,0,0,8.2, 1.9, -0.2,0,0,1024,1024,1024,1024,0,0,0,0,10.9,0,0,56,3.855,3.848,0,0,0,0,4.432,108.32,4.2651248084,4.265092,38,Tripod,
686700,2022-08-12 04:57:43,0,0,4.265092,,,4.2651248084,3.937008,0.223694,0,0,0,0,7.704,4.2651248084,4.265092,0,0,0.223694,0,0,8.2, 1.8, -0.1,0,0,1024,1024,1024,1024,0,0,0,0,10.9,0,0,56,3.855,3.848,0,0,0,0,4.432,108.32,4.2651248084,4.265092,38,Tripod,
686800,2022-08-12 04:57:44,0,0,4.265092,,,4.2651248084,3.937008,0,0,0,0,0,7.699,4.2651248084,4.265092,0,0,0,0,0,8.3, 1.5, -0.2,0,0,1024,1024,1024,1024,0,0,0,0,10.9,0,0,56,3.854,3.845,0,0,0,0,4.474,108.32,4.2651248084,4.265092,38,Tripod,
686900,2022-08-12 04:57:44,0,0,4.265092,,,4.2651248084,3.937008,0,0,0,0,0,7.699,4.2651248084,4.265092,0,0,0,0,0,8.2, 1.3, 0,0,0,1024,1024,1024,1024,0,0,0,0,10.9,0,0,56,3.854,3.845,0,0,0,0,4.474,108.32,4.2651248084,4.265092,38,Tripod,
687000,2022-08-12 04:57:44,0,0,4.265092,,,4.2651248084,3.937008,0,0,0,0,0,7.699,4.2651248084,4.265092,0,0,0,0,0,8.2, 1.5, 0,0,0,1024,1024,1024,1024,0,0,0,0,10.9,0,0,56,3.854,3.845,0,0,0,0,4.474,108.32,4.2651248084,4.265092,38,Tripod,
687100,2022-08-12 04:57:44,0,0,4.265092,,,4.2651248084,3.937008,0,0,0,0,0,7.699,4.2651248084,4.265092,0,0,0,0,0,8.3, 1.3, 0.1,0,0,1024,1024,1024,1024,0,0,0,0,10.9,0,0,56,3.854,3.845,0,0,0,0,4.474,108.32,4.2651248084,4.265092,38,Tripod,
687200,2022-08-12 04:57:44,0,0,4.265092,,,4.2651248084,3.937008,0,0,0,0,0,7.699,4.2651248084,4.265092,0,0,0,0,0,8.3, 1.1, 0.3,0,0,1024,1024,1024,1024,0,0,0,0,10.9,0,0,56,3.854,3.845,0,0,0,0,4.474,108.32,4.2651248084,4.265092,38,Tripod,
687300,2022-08-12 04:57:44,0,0,4.265092,,,4.2651248084,3.937008,0,0,0,0,0,7.699,4.2651248084,4.265092,0,0,0,0,0,8.3, 0.9, 0.2,0,0,1024,1024,1024,1024,0,0,0,0,10.9,0,0,56,3.854,3.845,0,0,0,0,4.474,108.32,4.2651248084,4.265092,38,Tripod,
687400,2022-08-12 04:57:44,0,0,4.265092,,,4.2651248084,3.937008,0,0,0,0,0,7.699,4.2651248084,4.265092,0,0,0,0,0,8.3, 0.6, 0.2,0,0,1024,1024,1024,1024,0,0,0,0,10.9,0,0,56,3.854,3.845,0,0,0,0,4.474,108.32,4.2651248084,4.265092,38,Tripod,
687500,2022-08-12 04:57:44,0,0,4.265092,,,4.2651248084,3.937008,0,0,0,0,0,7.699,4.2651248084,4.265092,0,0,0,0,0,8.3, 0.5, 0,0,0,1024,1024,1024,1024,0,0,0,0,10.9,0,0,56,3.854,3.845,0,0,0,0,4.474,108.32,4.2651248084,4.265092,38,Tripod,
687600,2022-08-12 04:57:44,0,0,4.265092,,,4.2651248084,3.937008,0,0,0,0,0,7.699,4.2651248084,4.265092,0,0,0,0,0,8.3, 0.6, -0.2,0,0,1024,1024,1024,1024,0,0,0,0,10.9,0,0,56,3.854,3.845,0,0,0,0,4.474,108.32,4.2651248084,4.265092,38,Tripod,
687700,2022-08-12 04:57:45,0,0,4.265092,,,4.2651248084,3.937008,0,0,0,0,0,7.699,4.2651248084,4.265092,0,0,0,0,0,8.3, 0.6, -0.1,0,0,1024,1024,1024,1024,0,0,0,0,10.9,0,0,56,3.854,3.845,0,0,0,0,4.474,108.32,4.2651248084,4.265092,38,Tripod,
687800,2022-08-12 04:57:45,0,0,4.265092,,,4.2651248084,3.937008,0,0,0,0,0,7.7,4.2651248084,4.265092,0,0,0,0,0,8.3, 0.7, -0.1,0,0,1024,1024,1024,1024,0,0,0,0,10.9,0,0,56,3.854,3.845,0,0,0,0,4.397,108.32,4.2651248084,4.265092,38,Tripod,
687900,2022-08-12 04:57:45,0,0,4.265092,,,4.2651248084,3.937008,0,0,0,0,0,7.7,4.2651248084,4.265092,0,0,0,0,0,8.4, 0.4, -0.1,0,0,1024,1024,1024,1024,0,0,0,0,10.9,0,0,56,3.854,3.845,0,0,0,0,4.397,108.32,4.2651248084,4.265092,38,Tripod,
688000,2022-08-12 04:57:45,0,0,4.265092,,,4.2651248084,3.937008,0,0,0,0,0,7.7,4.2651248084,4.265092,0,0,0,0,0,8.2, 0.6, -0.5,0,0,1024,1024,1024,1024,0,0,0,0,10.9,0,0,56,3.854,3.845,0,0,0,0,4.397,108.32,4.2651248084,4.265092,38,Tripod,
688100,2022-08-12 04:57:45,0,0,4.265092,,,4.2651248084,3.937008,0,0,0,0,0,7.7,4.2651248084,4.265092,0,0,0,0,0,8.2, 0.5, 0,0,0,1024,1024,1024,1024,0,0,0,0,10.9,0,0,56,3.854,3.845,0,0,0,0,4.397,108.32,4.2651248084,4.265092,38,Tripod,
688200,2022-08-12 04:57:45,0,0,4.265092,,,4.2651248084,3.937008,0,0,0,0,0,7.7,4.2651248084,4.265092,0,0,0,0,0,8.2, 0.3, 0.3,0,0,1024,1024,1024,1024,0,0,0,0,10.9,0,0,56,3.854,3.845,0,0,0,0,4.397,108.32,4.2651248084,4.265092,38,Tripod,
688300,2022-08-12 04:57:45,0,0,4.265092,,,4.2651248084,3.937008,0,0,0,0,0,7.7,4.2651248084,4.265092,0,0,0,0,0,8.2, 0.4, 0.4,0,0,1024,1024,1024,1024,0,0,0,0,10.9,0,0,56,3.854,3.845,0,0,0,0,4.397,108.32,4.2651248084,4.265092,38,Tripod,
688400,2022-08-12 04:57:45,0,0,4.265092,,,4.2651248084,3.937008,0,0,0,0,0,7.7,4.2651248084,4.265092,0,0,0,0,0,8.3, 0.5, 0.1,0,0,1024,1024,1024,1024,0,0,0,0,10.9,0,0,56,3.854,3.845,0,0,0,0,4.397,108.32,4.2651248084,4.265092,38,Tripod,
688500,2022-08-12 04:57:45,0,0,4.265092,,,4.2651248084,3.937008,0,0,0,0,0,7.7,4.2651248084,4.265092,0,0,0,0,0,8.2, 0.2, 0.2,0,0,1024,1024,1024,1024,0,0,0,0,10.9,0,0,56,3.854,3.845,0,0,0,0,4.397,108.32,4.2651248084,4.265092,38,Tripod,
688600,2022-08-12 04:57:45,0,0,4.265092,,,4.2651248084,3.937008,0,0,0,0,0,7.7,4.2651248084,4.265092,0,0,0,0,0,8.3, 0.2, 0.3,0,0,1024,1024,1024,1024,0,0,0,0,10.9,0,0,56,3.854,3.845,0,0,0,0,4.397,108.32,4.2651248084,4.265092,38,Tripod,
688700,2022-08-12 04:57:45,0,0,4.265092,,,4.2651248084,3.937008,0,0,0,0,0,7.7,4.2651248084,4.265092,0,0,0,0,0,8.4, 0.1, 0.6,0,0,1024,1024,1024,1024,0,0,0,0,10.9,0,0,56,3.854,3.845,0,0,0,0,4.397,108.32,4.2651248084,4.265092,38,Tripod,
688800,2022-08-12 04:57:46,0,0,4.265092,,,4.2651248084,3.937008,0,0,0,0,0,7.696,4.2651248084,4.265092,0,0,0,0,0,8.3, 0.4, 0.5,0,0,1024,1024,1024,1024,0,0,0,0,10.9,0,0,56,3.853,3.842,0,0,0,0,4.42,108.5,4.2651248084,4.265092,38,Tripod,
688900,2022-08-12 04:57:46,0,0,4.265092,,,4.2651248084,3.937008,0,0,0,0,0,7.696,4.2651248084,4.265092,0,0,0,0,0,8.3, 0.2, 0.5,0,0,1024,1024,1024,1024,0,0,0,0,10.9,0,0,56,3.853,3.842,0,0,0,0,4.42,108.5,4.2651248084,4.265092,38,Tripod,
689000,2022-08-12 04:57:46,0,0,4.265092,,,4.2651248084,3.937008,0,0,0,0,0,7.696,4.2651248084,4.265092,0,0,0,0,0,8.3, 0, 0.5,0,0,1024,1024,1024,1024,0,0,0,0,10.9,0,0,56,3.853,3.842,0,0,0,0,4.42,108.5,4.2651248084,4.265092,38,Tripod,
689100,2022-08-12 04:57:46,0,0,4.265092,,,4.2651248084,3.937008,0,0,0,0,0,7.696,4.2651248084,4.265092,0,0,0,0,0,8.2, 0, 0.5,0,0,1024,1024,1024,1024,0,0,0,0,10.9,0,0,56,3.853,3.842,0,0,0,0,4.42,108.5,4.2651248084,4.265092,38,Tripod,
689200,2022-08-12 04:57:46,0,0,4.265092,,,4.2651248084,3.937008,0,0,0,0,0,7.696,4.2651248084,4.265092,0,0,0,0,0,8.2, 0, 0.5,0,0,1024,1024,1024,1024,0,0,0,0,10.9,0,0,56,3.853,3.842,0,0,0,0,4.42,108.5,4.2651248084,4.265092,38,Tripod,
689300,2022-08-12 04:57:46,0,0,4.265092,,,4.2651248084,3.937008,0,0,0,0,0,7.696,4.2651248084,4.265092,0,0,0,0,0,8.3, 0.2, 0.1,0,0,1024,1024,1024,1024,0,0,0,0,10.9,0,0,56,3.853,3.842,0,0,0,0,4.42,108.5,4.2651248084,4.265092,38,Tripod,
689400,2022-08-12 04:57:46,0,0,4.265092,,,4.2651248084,3.937008,0,0,0,0,0,7.696,4.2651248084,4.265092,0,0,0,0,0,8.2, 0.3, 0.2,0,0,1024,1024,1024,1024,0,0,0,0,10.9,0,0,56,3.853,3.842,0,0,0,0,4.42,108.5,4.2651248084,4.265092,38,Tripod,
689500,2022-08-12 04:57:46,0,0,4.265092,,,4.2651248084,3.937008,0,0,0,0,0,7.696,4.2651248084,4.265092,0,0,0,0,0,8.2, 0.5, 0.6,0,0,1024,1024,1024,1024,0,0,0,0,10.9,0,0,56,3.853,3.842,0,0,0,0,4.42,108.5,4.2651248084,4.265092,38,Tripod,
689600,2022-08-12 04:57:46,0,0,4.265092,,,4.2651248084,3.937008,0,0,0,0,0,7.696,4.2651248084,4.265092,0,0,0,0,0,8.2, 0.3, 0.6,0,0,1024,1024,1024,1024,0,0,0,0,10.9,0,0,56,3.853,3.842,0,0,0,0,4.42,108.5,4.2651248084,4.265092,38,Tripod,
689700,2022-08-12 04:57:46,0,0,4.265092,,,4.2651248084,3.937008,0,0,0,0,0,7.696,4.2651248084,4.265092,0,0,0,0,0,8.2, 0.1, 0.4,0,0,1024,1024,978,1024,0,0,-7,0,10.9,0,0,56,3.853,3.842,0,0,0,0,4.42,108.5,4.2651248084,4.265092,38,Tripod,
689800,2022-08-12 04:57:47,0,0,4.265092,,,4.2651248084,3.937008,0,0,0,0,0,7.696,4.2651248084,4.265092,0,0,0,0,0,8.3, 0.2, 0.6,0,0,1024,1024,978,1024,0,0,-7,0,10.9,0,0,56,3.852,3.842,0,0,0,0,4.42,108.5,4.2651248084,4.265092,38,Tripod,
689900,2022-08-12 04:57:47,0,0,4.265092,,,4.2651248084,3.937008,0,0,0,0,0,7.696,4.2651248084,4.265092,0,0,0,0,0,8.3, 0.3, 0.6,0,0,1024,1024,569,1024,0,0,-69,0,10.9,0,0,56,3.852,3.842,0,0,0,0,4.42,108.5,4.2651248084,4.265092,38,Tripod,
690000,2022-08-12 04:57:47,0,0,4.265092,,,4.2651248084,3.608924,0,0,0,0,0,7.696,4.2651248084,4.265092,0,0,0,0,0,8.3, 0, 0.9,0,0,1024,1024,599,1024,0,0,-64,0,10.9,0,0,56,3.852,3.842,0,0,0,0,4.42,108.5,4.2651248084,4.265092,38,Tripod,
690100,2022-08-12 04:57:47,0,0,3.937008,,,3.9370408084,3.608924,0,0,0,0,0,7.696,4.2651248084,4.265092,0,0,0,0,0.447388,8.3, 0, 1,0,0,1024,1024,1024,1024,0,0,0,0,10.9,0,0,56,3.852,3.842,0,0,0,0,4.42,108.5,3.9370408084,3.937008,38,Tripod,
690200,2022-08-12 04:57:47,0,0,3.937008,,,3.9370408084,3.608924,0,0,0,0,0,7.696,4.2651248084,4.265092,0,0,0,0,0.447388,8.3, 0, 1,0,0,1024,1024,1024,1024,0,0,0,0,10.9,0,0,56,3.852,3.842,0,0,0,0,4.42,108.5,3.9370408084,3.937008,38,Tripod,
690300,2022-08-12 04:57:47,0,0,3.937008,,,3.9370408084,3.608924,0,0,0,0,0,7.696,4.2651248084,4.265092,0,0,0,0,0.223694,8.3, 0, 0.6,0,0,1024,1024,1024,1024,0,0,0,0,10.9,0,0,56,3.852,3.842,0,0,0,0,4.42,108.5,3.9370408084,3.937008,38,Tripod,
690400,2022-08-12 04:57:47,0,0,3.937008,,,3.9370408084,0.984252,0,0,0,0,0,7.696,4.2651248084,4.265092,0,0,0,0,0.223694,8.2, 0.2, 0.6,0,0,1024,1024,1024,1024,0,0,0,0,10.9,0,0,56,3.852,3.842,0,0,0,0,4.42,108.5,3.9370408084,3.937008,38,Tripod,
690500,2022-08-12 04:57:47,0,0,3.937008,,,3.9370408084,0.984252,0,0,0,0,0,7.696,4.2651248084,4.265092,0,0,0,0,0,8.3, 0.2, 0.7,0,0,1024,1024,1024,1024,0,0,0,0,10.9,0,0,56,3.852,3.842,0,0,0,0,4.42,108.5,3.9370408084,3.937008,38,Tripod,
690600,2022-08-12 04:57:47,0,0,3.937008,,,3.9370408084,0.984252,0,0,0,0,0,7.696,4.2651248084,4.265092,0,0,0,0,-0.447388,8.2, 0.2, 0.5,0,0,1024,1024,926,1024,0,0,-15,0,10.9,0,0,56,3.852,3.842,0,0,0,0,4.42,108.5,3.9370408084,3.937008,38,Tripod,
690700,2022-08-12 04:57:47,0,0,3.937008,,,3.9370408084,0.984252,0,0,0,0,0,7.696,4.2651248084,4.265092,0,0,0,0,-0.671082,8.2, 0.3, 0.4,0,0,1024,1024,634,1024,0,0,-59,0,10.9,0,0,56,3.852,3.842,0,0,0,0,4.42,108.5,3.9370408084,3.937008,38,Tripod,
690800,2022-08-12 04:57:48,0,0,3.937008,,,3.9370408084,0.984252,0,0,0,0,0,7.691,4.2651248084,4.265092,0,0,0,0,-0.671082,8.2, 0.3, 0.3,0,0,1024,1024,634,1024,0,0,-59,0,10.9,0,0,56,3.844,3.837,0,0,0,0,4.513,108.32,3.9370408084,3.937008,38,Tripod,
690900,2022-08-12 04:57:48,0,0,4.265092,,,4.2651248084,1.312336,0,0,0,0,0,7.691,4.2651248084,4.265092,0,0,0,0,-0.671082,8.2, 0.3, 0.3,0,0,1024,1024,1024,1024,0,0,0,0,10.9,0,0,56,3.844,3.837,0,0,0,0,4.513,108.32,4.2651248084,4.265092,38,Tripod,
691000,2022-08-12 04:57:48,0,0,4.265092,,,4.2651248084,1.312336,0,0,0,0,0,7.691,4.2651248084,4.265092,0,0,0,0,-0.671082,8.2, 0.3, 0.4,0,0,1024,1024,1024,1024,0,0,0,0,10.9,0,0,56,3.844,3.837,0,0,0,0,4.513,108.32,4.2651248084,4.265092,38,Tripod,
691100,2022-08-12 04:57:48,0,0,4.265092,,,4.2651248084,1.312336,0,0,0,0,0,7.691,4.2651248084,4.265092,0,0,0,0,-0.447388,8.1, 0.1, 0.2,0,0,1024,1024,862,1024,0,0,-25,0,10.9,0,0,56,3.844,3.837,0,0,0,0,4.513,108.32,4.2651248084,4.265092,38,Tripod,
691200,2022-08-12 04:57:48,0,0,4.265092,,,4.2651248084,1.312336,0,0,0,0,0,7.691,4.2651248084,4.265092,0,0,0,0,-0.447388,8.1, 0, 0.2,0,0,1024,1024,595,1024,0,0,-65,0,10.9,0,0,56,3.844,3.837,0,0,0,0,4.513,108.32,4.2651248084,4.265092,38,Tripod,
691300,2022-08-12 04:57:48,0,0,4.593176,,,4.5932088084,1.312336,0,0,0,0,0,7.691,4.5932088084,4.593176,0,0,0,0,-0.447388,8.2, 0.1, 0.4,0,0,1024,1024,1024,1024,0,0,0,0,10.9,0,0,56,3.844,3.837,0,0,0,0,4.513,108.32,4.5932088084,4.593176,38,Tripod,
691400,2022-08-12 04:57:48,0,0,4.593176,,,4.5932088084,1.312336,0,0,0,0,0,7.691,4.5932088084,4.593176,0,0,0,0,-0.447388,8.3, 0.2, 0.4,0,0,1024,1024,1024,1024,0,0,0,0,10.9,0,0,56,3.844,3.837,0,0,0,0,4.513,108.32,4.5932088084,4.593176,38,Tripod,
691500,2022-08-12 04:57:48,0,0,4.593176,,,4.5932088084,1.312336,0,0,0,0,0,7.691,4.5932088084,4.593176,0,0,0,0,-0.223694,8.3, 0.3, 0.4,0,0,1024,1024,583,1024,0,0,-67,0,10.9,0,0,56,3.844,3.837,0,0,0,0,4.513,108.32,4.5932088084,4.593176,38,Tripod,
691600,2022-08-12 04:57:48,0,0,4.593176,,,4.5932088084,1.312336,0,0,0,0,0,7.691,4.5932088084,4.593176,0,0,0,0,-0.223694,8.3, 0.2, 0.2,0,0,1024,1024,364,1024,0,0,-100,0,10.9,0,0,56,3.844,3.837,0,0,0,0,4.513,108.32,4.5932088084,4.593176,38,Tripod,
691700,2022-08-12 04:57:48,0,0,4.92126,,,4.9212928084,1.312336,0,0,0,0,0,7.691,4.9212928084,4.92126,0,0,0,0,-0.223694,8.3, 0.1, 0.1,0,0,1024,1024,364,1024,0,0,-100,0,10.9,0,0,56,3.844,3.837,0,0,0,0,4.513,108.32,4.9212928084,4.92126,38,Tripod,
691800,2022-08-12 04:57:49,0,0,4.92126,,,4.9212928084,1.312336,0,0,0,0,0,7.697,4.9212928084,4.92126,0,0,0,0,-0.223694,8.3, 0.2, 0,0,0,1024,1024,1024,1024,0,0,0,0,10.9,0,0,56,3.849,3.84,0,0,0,0,4.344,108.5,4.9212928084,4.92126,38,Tripod,
691900,2022-08-12 04:57:49,0,0,4.92126,,,4.9212928084,1.312336,0,0,0,0,0,7.697,4.9212928084,4.92126,0,0,0,0,-0.223694,8.3, 0.1, 0.2,0,0,1024,1024,1024,1024,0,0,0,0,10.9,0,0,56,3.849,3.84,0,0,0,0,4.344,108.5,4.9212928084,4.92126,38,Tripod,
692000,2022-08-12 04:57:49,0,0,4.92126,,,4.9212928084,1.312336,0,0,0,0,0,7.697,4.9212928084,4.92126,0,0,0,0,-0.223694,8.4, 0.1, 0.1,0,0,1024,1024,1024,1024,0,0,0,0,10.9,0,0,56,3.849,3.84,0,0,0,0,4.344,108.5,4.9212928084,4.92126,38,Tripod,
692100,2022-08-12 04:57:49,0,0,4.92126,,,4.9212928084,1.312336,0,0,0,0,0,7.697,4.9212928084,4.92126,0,0,0,0,-0.223694,8.4, 0.1, 0.2,0,0,1024,1024,840,1024,0,0,-28,0,10.9,0,0,56,3.849,3.84,0,0,0,0,4.344,108.5,4.9212928084,4.92126,38,Tripod,
692200,2022-08-12 04:57:49,0,0,4.92126,,,4.9212928084,1.312336,0,0,0,0,0,7.697,4.9212928084,4.92126,0,0,0,0,-0.223694,8.3, 0.1, 0.3,0,0,1024,1024,364,1024,0,0,-100,0,10.9,0,0,56,3.849,3.84,0,0,0,0,4.344,108.5,4.9212928084,4.92126,38,Tripod,
692300,2022-08-12 04:57:49,0,0,5.249344,,,5.2493768084,1.312336,0,0,0,0,0,7.697,5.2493768084,5.249344,0,0,0,0,-0.223694,8.3, 0.1, 0,0,0,1024,1024,364,1024,0,0,-100,0,10.9,0,0,56,3.849,3.84,0,0,0,0,4.344,108.5,5.2493768084,5.249344,38,Tripod,
692400,2022-08-12 04:57:49,0,0,5.249344,,,5.2493768084,1.312336,0,0,0,0,0,7.697,5.2493768084,5.249344,0,0,0,0,-0.223694,8.3, 0, 0.1,0,0,1024,1024,364,1024,0,0,-100,0,10.9,0,0,56,3.849,3.84,0,0,0,0,4.344,108.5,5.2493768084,5.249344,38,Tripod,
692500,2022-08-12 04:57:49,0,0,5.249344,,,5.2493768084,1.312336,0,0,0,0,0,7.697,5.2493768084,5.249344,0,0,0,0,-0.223694,8.3, 0, 0.3,0,0,1024,1024,1024,1024,0,0,0,0,10.9,0,0,56,3.849,3.84,0,0,0,0,4.344,108.5,5.2493768084,5.249344,38,Tripod,
692600,2022-08-12 04:57:49,0,0,5.249344,,,5.2493768084,1.312336,0,0,0,0,0,7.697,5.2493768084,5.249344,0,0,0,0,-0.223694,8.3, 0, 0.3,0,0,1024,1024,959,1024,0,0,-10,0,10.9,0,0,56,3.849,3.84,0,0,0,0,4.344,108.5,5.2493768084,5.249344,38,Tripod,
692700,2022-08-12 04:57:49,0,0,5.577428,,,5.5774608084,1.312336,0,0,0,0,0,7.697,5.5774608084,5.577428,0,0,0,0,-0.223694,8.3, 0, 0.4,0,0,1024,1024,959,1024,0,0,-10,0,10.9,0,0,56,3.849,3.84,0,0,0,0,4.344,108.5,5.5774608084,5.577428,38,Tripod,
692800,2022-08-12 04:57:50,0,0,5.577428,,,5.5774608084,1.64042,0,0,0,0,0,7.688,5.5774608084,5.577428,0,0,0,0,-0.223694,8.3, 0, 0.8,0,0,1024,1024,377,1024,0,0,-98,0,10.9,0,0,56,3.846,3.837,0,0,0,0,4.661,108.5,5.5774608084,5.577428,38,Tripod,
692900,2022-08-12 04:57:50,0,0,5.577428,,,5.5774608084,1.64042,0,0,0,0,0,7.688,5.5774608084,5.577428,0,0,0,0,0,8.2, -0.1, 0.9,0,0,1024,1024,364,1024,0,0,-100,0,10.9,0,0,56,3.846,3.837,0,0,0,0,4.661,108.5,5.5774608084,5.577428,38,Tripod,
693000,2022-08-12 04:57:50,0,0,5.577428,,,5.5774608084,1.64042,0,0,0,0,0,7.688,5.5774608084,5.577428,0,0,0,0,0,8.3, 0, 1.1,0,0,1024,1024,364,1024,0,0,-100,0,10.9,0,0,56,3.846,3.837,0,0,0,0,4.661,108.5,5.5774608084,5.577428,38,Tripod,
693100,2022-08-12 04:57:50,0,0,5.577428,,,5.5774608084,1.64042,0,0,0,0,0,7.688,5.5774608084,5.577428,0,0,0,0,0,8.2, 0, 1.1,0,0,1024,1024,1024,1024,0,0,0,0,10.9,0,0,56,3.846,3.837,0,0,0,0,4.661,108.5,5.5774608084,5.577428,38,Tripod,
693200,2022-08-12 04:57:50,0,0,5.577428,,,5.5774608084,1.64042,0,0,0,0,0,7.688,5.5774608084,5.577428,0,0,0,0,0,8.2, -0.1, 0.7,0,0,1024,1024,1024,1024,0,0,0,0,10.9,0,0,56,3.846,3.837,0,0,0,0,4.661,108.5,5.5774608084,5.577428,38,Tripod,
693300,2022-08-12 04:57:50,0,0,5.905512,,,5.9055448084,1.64042,0,0,0,0,0,7.688,5.9055448084,5.905512,0,0,0,0,0,8.2, 0, 0.4,0,0,1024,1024,1024,1024,0,0,0,0,10.9,0,0,56,3.846,3.837,0,0,0,0,4.661,108.5,5.9055448084,5.905512,38,Tripod,
693400,2022-08-12 04:57:50,0,0,5.905512,,,5.9055448084,1.64042,0,0,0,0,0,7.688,5.9055448084,5.905512,0,0,0,0,0,8.2, 0, 0,0,0,1024,1024,1024,1024,0,0,0,0,10.9,0,0,56,3.846,3.837,0,0,0,0,4.661,108.5,5.9055448084,5.905512,38,Tripod,
693500,2022-08-12 04:57:50,0,0,5.905512,,,5.9055448084,1.64042,0,0,0,0,0,7.688,5.9055448084,5.905512,0,0,0,0,0,8.2, 0.2, -0.4,0,0,1024,1024,1024,1024,0,0,0,0,10.9,0,0,56,3.846,3.837,0,0,0,0,4.661,108.5,5.9055448084,5.905512,38,Tripod,
693600,2022-08-12 04:57:50,0,0,5.905512,,,5.9055448084,5.905512,0,0,0,0,0,7.688,5.9055448084,5.905512,0,0,0,0,0,8.1, 0.1, -0.4,0,0,1024,1024,1024,1024,0,0,0,0,10.9,0,0,56,3.846,3.837,0,0,0,0,4.661,108.5,5.9055448084,5.905512,38,Tripod,
693700,2022-08-12 04:57:51,0,0,5.905512,,,5.9055448084,5.905512,0,0,0,0,0,7.688,5.9055448084,5.905512,0,0,0,0,0,8.2, 0, -0.3,0,0,1024,1024,1024,1024,0,0,0,0,10.9,0,0,56,3.846,3.837,0,0,0,0,4.661,108.5,5.9055448084,5.905512,38,Tripod,
693800,2022-08-12 04:57:51,0,0,5.905512,,,5.9055448084,5.905512,0,0,0,0,0,7.684,5.9055448084,5.905512,0,0,0,0,0,8.2, 0, -0.2,0,0,1024,1024,1024,1024,0,0,0,0,10.9,0,0,56,3.846,3.836,0,0,0,0,4.44,108.5,5.9055448084,5.905512,38,Tripod,
693900,2022-08-12 04:57:51,0,0,5.905512,,,5.9055448084,5.905512,0,0,0,0,0,7.684,5.9055448084,5.905512,0,0,0,0,0,8.2, -0.2, 0.1,0,0,1024,1024,1024,1024,0,0,0,0,10.9,0,0,56,3.846,3.836,0,0,0,0,4.44,108.5,5.9055448084,5.905512,38,Tripod,
694000,2022-08-12 04:57:51,0,0,5.905512,,,5.9055448084,5.905512,0,0,0,0,0,7.684,5.9055448084,5.905512,0,0,0,0,0,8.2, -0.2, 0.1,0,0,1024,1024,542,1024,0,0,-73,0,10.9,0,0,56,3.846,3.836,0,0,0,0,4.44,108.5,5.9055448084,5.905512,38,Tripod,
694100,2022-08-12 04:57:51,0,0,6.233596,,,6.2336288084,5.905512,0,0,0,0,0,7.684,6.2336288084,6.233596,0,0,0,0,0,8.2, -0.3, 0.1,0,0,1024,1024,364,1024,0,0,-100,0,10.9,0,0,56,3.846,3.836,0,0,0,0,4.44,108.5,6.2336288084,6.233596,38,Tripod,
694200,2022-08-12 04:57:51,0,0,5.905512,,,5.9055448084,5.905512,0,0,0,0,0,7.684,6.2336288084,6.233596,0,0,0,0,0.223694,8.2, -0.3, 0.1,0,0,1024,1024,1024,1024,0,0,0,0,10.9,0,0,56,3.846,3.836,0,0,0,0,4.44,108.5,5.9055448084,5.905512,38,Tripod,
694300,2022-08-12 04:57:51,0,0,5.905512,,,5.9055448084,5.905512,0,0,0,0,0,7.684,6.2336288084,6.233596,0,0,0,0,0.671082,8.3, -0.2, 0,0,0,1024,1024,1024,1024,0,0,0,0,10.9,0,0,56,3.846,3.836,0,0,0,0,4.44,108.5,5.9055448084,5.905512,38,Tripod,
694400,2022-08-12 04:57:51,0,0,5.905512,,,5.9055448084,5.577428,0,0,0,0,0,7.684,6.2336288084,6.233596,0,0,0,0,0.447388,8.3, -0.1, 0,0,0,1024,1024,1024,1024,0,0,0,0,10.9,0,0,56,3.846,3.836,0,0,0,0,4.44,108.5,5.9055448084,5.905512,38,Tripod,
694500,2022-08-12 04:57:51,0,0,5.905512,,,5.9055448084,5.577428,0,0,0,0,0,7.684,6.2336288084,6.233596,0,0,0,0,0.223694,8.3, 0.1, -0.3,0,0,1024,1024,1024,1024,0,0,0,0,10.9,0,0,56,3.846,3.836,0,0,0,0,4.44,108.5,5.9055448084,5.905512,38,Tripod,
694600,2022-08-12 04:57:51,0,0,5.905512,,,5.9055448084,5.577428,0,0,0,0,0,7.684,6.2336288084,6.233596,0,0,0,0,0.223694,8.3, 0.2, -0.4,0,0,1024,1024,387,1024,0,0,-97,0,10.9,0,0,56,3.846,3.836,0,0,0,0,4.44,108.5,5.9055448084,5.905512,38,Tripod,
694700,2022-08-12 04:57:52,0,0,5.905512,,,5.9055448084,5.577428,0,0,0,0,0,7.684,6.2336288084,6.233596,0,0,0,0,0,8.2, 0.2, -0.6,0,0,1024,1024,387,1024,0,0,-97,0,10.9,0,0,56,3.846,3.836,0,0,0,0,4.44,108.5,5.9055448084,5.905512,38,Tripod,
694800,2022-08-12 04:57:52,0,0,5.905512,,,5.9055448084,5.577428,0,0,0,0,0,7.682,6.2336288084,6.233596,0,0,0,0,0,8.2, 0.1, -0.9,0,0,1024,1024,590,1024,0,0,-66,0,10.9,0,0,56,3.843,3.828,0,0,0,0,4.469,108.5,5.9055448084,5.905512,38,Tripod,
694900,2022-08-12 04:57:52,0,0,5.905512,,,5.9055448084,5.577428,0,0,0,0,0,7.682,6.2336288084,6.233596,0,0,0,0,0.447388,8.2, 0.1, -0.6,0,0,1024,1024,1024,1024,0,0,0,0,10.9,0,0,56,3.843,3.828,0,0,0,0,4.469,108.5,5.9055448084,5.905512,38,Tripod,
695000,2022-08-12 04:57:52,0,0,5.905512,,,5.9055448084,5.577428,0,0,0,0,0,7.682,6.2336288084,6.233596,0,0,0,0,0.447388,8.2, 0, -0.3,0,0,1024,1024,1024,1024,0,0,0,0,10.9,0,0,56,3.843,3.828,0,0,0,0,4.469,108.5,5.9055448084,5.905512,38,Tripod,
695100,2022-08-12 04:57:52,0,0,5.577428,,,5.5774608084,5.577428,0,0,0,0,0,7.682,6.2336288084,6.233596,0,0,0,0,0.223694,8.1, 0.1, -0.7,0,0,1024,1024,1024,1024,0,0,0,0,10.9,0,0,56,3.843,3.828,0,0,0,0,4.469,108.5,5.5774608084,5.577428,38,Tripod,
695200,2022-08-12 04:57:52,0,0,5.577428,,,5.5774608084,5.577428,0,0,0,0,0,7.682,6.2336288084,6.233596,0,0,0,0,0.223694,8.1, 0.3, -1.5,0,0,1024,1024,1024,1024,0,0,0,0,10.9,0,0,56,3.843,3.828,0,0,0,0,4.469,108.5,5.5774608084,5.577428,38,Tripod,
695300,2022-08-12 04:57:52,0,0,5.577428,,,5.5774608084,5.577428,0,0,0,0,0,7.682,6.2336288084,6.233596,0,0,0,0,0,8.2, 0.3, -1.6,0,0,1024,1024,1024,1024,0,0,0,0,10.9,0,0,56,3.843,3.828,0,0,0,0,4.469,108.5,5.5774608084,5.577428,38,Tripod,
695400,2022-08-12 04:57:52,0,0,5.577428,,,5.5774608084,5.577428,0,0,0,0,0,7.682,6.2336288084,6.233596,0,0,0,0,0,8.2, 0.2, -1.5,0,0,1024,1373,1024,1024,0,53,0,0,10.9,0,0,56,3.843,3.828,0,0,0,0,4.469,108.5,5.5774608084,5.577428,38,Tripod,
695500,2022-08-12 04:57:52,0,0,5.577428,,,5.5774608084,5.577428,0,0,0,0,0,7.682,6.2336288084,6.233596,0,0,0,0,0,8.2, 0.1, -1.2,0,0,1024,1684,1024,1024,0,100,0,0,10.9,0,0,56,3.843,3.828,0,0,0,0,4.469,108.5,5.5774608084,5.577428,38,Tripod,
695600,2022-08-12 04:57:52,0,0,5.577428,,,5.5774608084,5.577428,0,0,0,0,0,7.682,6.2336288084,6.233596,0,0,0,0,0,8.2, 0, 1.4,0,0,1024,1307,1024,1024,0,43,0,0,10.9,0,0,56,3.843,3.828,0,0,0,0,4.469,108.5,5.5774608084,5.577428,38,Tripod,
