time(millisecond),datetime(utc),latitude,longitude,height_above_takeoff(feet),height_above_ground_at_drone_location(feet),ground_elevation_at_drone_location(feet),altitude_above_seaLevel(feet),height_sonar(feet),speed(mph),distance(feet),mileage(feet),satellites,gpslevel,voltage(v),max_altitude(feet),max_ascent(feet),max_speed(mph),max_distance(feet), xSpeed(mph), ySpeed(mph), zSpeed(mph), compass_heading(degrees), pitch(degrees), roll(degrees),isPhoto,isVideo,rc_elevator,rc_aileron,rc_throttle,rc_rudder,rc_elevator(percent),rc_aileron(percent),rc_throttle(percent),rc_rudder(percent),gimbal_heading(degrees),gimbal_pitch(degrees),gimbal_roll(degrees),battery_percent,voltageCell1,voltageCell2,voltageCell3,voltageCell4,voltageCell5,voltageCell6,current(A),battery_temperature(f),altitude(feet),ascent(feet),flycStateRaw,flycState,message
0,2022-09-06 22:02:02,-34.8957140637046,-55.0385033402899,0,0,160.02444016015,160.02444016015,0.328084,0,0,0,21,5,0,160.02444016015,0,0,0,0,0,0,290.4, 6.1, -0.8,0,0,1024,1024,1024,1024,0,0,0,0,0,0,0,81,4.139,4.137,0,0,0,0,0,72.68,160.02444016015,0,41,Motors_Started,"En vuelo"
100,2022-09-06 22:02:02,-34.8957141428473,-55.0385035039823,0,0.032808399999993,159.99163176015,160.02444016015,0.328084,0,0.05686187846,0.05686187846,21,5,0,160.02444016015,0,0,0.05686187846,0,0,0,290.4, 6.1, -0.8,0,0,364,364,364,1684,-100,-100,-100,100,294.4,-9.6,0,81,4.139,4.137,0,0,0,0,0,72.68,160.02444016015,0,41,Motors_Started,
200,2022-09-06 22:02:02,-34.8957141441021,-55.0385035423554,0,0.032808399999993,159.99163176015,160.02444016015,0.328084,0,0.067206695064,0.068354004812,21,5,0,160.02444016015,0,0,0.067206695064,0,0,0,290.4, 6.1, -0.8,0,0,364,364,364,1684,-100,-100,-100,100,294.4,-9.6,0,81,4.139,4.137,0,0,0,0,0,72.68,160.02444016015,0,41,Motors_Started,
300,2022-09-06 22:02:02,-34.895714146298,-55.0385035095371,0,0.032808399999993,159.99163176015,160.02444016015,0.328084,0,0.05893372892,0.078207351584,21,5,0,160.02444016015,0,0,0.067206695064,0,0,0,290.4, 6, -0.8,0,0,364,364,364,1684,-100,-100,-100,100,294.4,-9.6,0,81,4.139,4.137,0,0,0,0,0,72.68,160.02444016015,0,41,Motors_Started,
400,2022-09-06 22:02:02,-34.8957141424581,-55.0385034857983,0,0,160.02444016015,160.02444016015,0.328084,0,0.052168964924,0.08544783738,21,5,0,160.02444016015,0,0,0.067206695064,0,0,0,290.4, 6.1, -0.7,0,0,364,364,364,1684,-100,-100,-100,100,294.4,-9.6,0,81,4.139,4.137,0,0,0,0,0,72.68,160.02444016015,0,41,Motors_Started,
500,2022-09-06 22:02:02,-34.895714082888,-55.0385035507039,0,0.032808399999993,159.99163176015,160.02444016015,0.328084,0,0.063353676568,0.114596132276,21,5,0,160.02444016015,0,0,0.067206695064,0,0,0,290.4, 6.1, -0.8,0,0,386,364,364,1684,-97,-100,-100,100,294.4,-9.6,0,81,4.139,4.137,0,0,0,0,0,72.68,160.02444016015,0,41,Motors_Started,
600,2022-09-06 22:02:03,-34.8957140384743,-55.0385035863689,0,0.032808399999993,159.99163176015,160.02444016015,0.328084,0,0.074211616548,0.13399934812,21,5,0,160.02444016015,0,0,0.074211616548,0,0,0,290.4, 6.1, -0.8,0,0,1024,1024,1024,1024,0,0,0,0,294.4,-9.6,0,81,4.139,4.137,0,0,0,0,0,72.68,160.02444016015,0,41,Motors_Started,
700,2022-09-06 22:02:03,-34.8957140229992,-55.0385035983057,0,0.032808399999993,159.99163176015,160.02444016015,0.328084,0,0.078625986768,0.14068077878,21,5,0,160.02444016015,0,0,0.078625986768,0,0,0,290.4, 6.1, -0.8,0,0,1024,1024,1024,1024,0,0,0,0,294.4,-9.6,0,81,4.139,4.137,0,0,0,0,0,72.68,160.02444016015,0,41,Motors_Started,
800,2022-09-06 22:02:03,-34.8957140090532,-55.0385036081612,0,0.032808399999993,159.99163176015,160.02444016015,0.328084,0,0.082602692932,0.14656168448,21,5,0,160.02444016015,0,0,0.082602692932,0,0,0,290.4, 6.1, -0.8,0,0,1024,1024,1362,1024,0,0,51,0,294.4,-9.6,0,81,4.139,4.137,0,0,0,0,0,72.68,160.02444016015,0,41,Motors_Started,
900,2022-09-06 22:02:03,-34.8957140521906,-55.0385036113009,0,0.032808399999993,159.99163176015,160.02444016015,0.328084,0,0.081208007848,0.162328417268,21,5,0,160.02444016015,0,0,0.082602692932,0,0,0,290.4, 6.1, -0.8,0,0,1024,1024,1684,1024,0,0,100,0,294.4,-9.6,0,81,4.139,4.137,0,0,0,0,0,72.68,160.02444016015,0,41,Motors_Started,"Setting new Return-To-Home altitude to 60m (197 ft). Data Recorder File Index is 62. Setting new Maximum Flight Altitude to 120m (394 ft)"
1000,2022-09-06 22:02:03,-34.8957140484737,-55.0385036150946,0,0.032808399999993,159.99163176015,160.02444016015,0.328084,0,0.082422246732,0.164097118112,21,5,0,160.02444016015,0,0,0.082602692932,0,0,0,290.4, 6.1, -0.8,0,0,1024,1024,1684,1024,0,0,100,0,294.4,-9.6,0,81,4.139,4.137,0,0,0,0,0,72.68,160.02444016015,0,41,Motors_Started,
1100,2022-09-06 22:02:03,-34.8957140471938,-55.0385036617528,0,0.032808399999993,159.99163176015,160.02444016015,0.328084,0,0.096385501772,0.178067262916,21,5,0,160.02444016015,0,0,0.096385501772,0,0,0,290.4, 6.1, -0.8,0,0,1024,1024,1684,1024,0,0,100,0,294.4,-9.6,0,81,4.139,4.137,0,0,0,0,0,72.68,160.02444016015,0,10,Assisted_Takeoff,
1200,2022-09-06 22:02:03,-34.895714046774,-55.0385037027838,0,0.032808399999993,159.99163176015,160.02444016015,0.328084,0,0.108651250196,0.190346462784,21,5,0,160.02444016015,0,0,0.108651250196,0,0,0,290.4, 6.1, -0.8,0,0,1024,1024,1684,1024,0,0,100,0,294.4,-9.6,0,81,4.139,4.137,0,0,0,0,0,72.68,160.02444016015,0,10,Assisted_Takeoff,
1300,2022-09-06 22:02:03,-34.8957141186185,-55.0385037591023,0,0.032808399999993,159.99163176015,160.02444016015,0.328084,0,0.126919951568,0.221509521524,21,5,8.285,160.02444016015,0,0,0.126919951568,0,0,0,290.2, 6.1, -0.8,0,0,1024,1024,1452,1024,0,0,65,0,294.4,-9.6,0,81,4.139,4.137,0,0,0,0,1.167,72.68,160.02444016015,0,10,Assisted_Takeoff,
1400,2022-09-06 22:02:03,-34.8957141273617,-55.0385037543927,-0.328084,-0.29527560000001,159.99163176015,159.69635616015,0.328084,0,0.126076775688,0.22499672636,21,5,8.285,160.02444016015,0,0,0.126919951568,0,0,0,289.9, 6, -0.9,0,0,1024,1024,1401,1024,0,0,57,0,294.3,-9.6,0,81,4.139,4.137,0,0,0,0,1.167,72.68,159.69635616015,-0.328084,10,Assisted_Takeoff,
1500,2022-09-06 22:02:04,-34.8957141479615,-55.0385037172277,-0.328084,-0.29527560000001,159.99163176015,159.69635616015,0.328084,0,0.116911749148,0.238419627052,21,5,8.285,160.02444016015,0,0,0.126919951568,0,0,0,289.5, 5.1, -0.8,0,0,1024,1024,1510,1024,0,0,74,0,294,-9.6,0,81,4.139,4.137,0,0,0,0,1.167,72.68,159.69635616015,-0.328084,10,Assisted_Takeoff,
1600,2022-09-06 22:02:04,-34.8957141781072,-55.0385036728404,-0.328084,-0.29527560000001,159.99163176015,159.69635616015,0.328084,0,0.107914045448,0.255665034428,21,5,8.285,160.02444016015,0,0,0.126919951568,0,0,0,289.3, 0.1, -0.7,0,0,1024,1024,1464,1024,0,0,67,0,293.6,-9.6,0,81,4.139,4.137,0,0,0,0,1.167,72.68,159.69635616015,-0.328084,10,Assisted_Takeoff,
1700,2022-09-06 22:02:04,-34.8957141864217,-55.03850368138,0,0.032808399999993,159.99163176015,160.02444016015,0.328084,0,0.111458664984,0.259631569988,21,5,8.285,160.02444016015,0,0,0.126919951568,0,0,-0.223694,289.1, -2.2, -0.3,0,0,1024,1024,1323,1024,0,0,45,0,293.3,-9.6,0,81,4.139,4.137,0,0,0,0,1.167,72.68,160.02444016015,0,10,Assisted_Takeoff,
1800,2022-09-06 22:02:04,-34.8957141461763,-55.0385037573188,0,0.032808399999993,159.99163176015,160.02444016015,0.328084,0,0.1283710671,0.286687017048,21,5,8.285,160.02444016015,0,0,0.1283710671,0,0,-0.447388,289.3, -1, 0.8,0,0,1024,1024,1286,1024,0,0,40,0,293.3,-9.6,0,81,4.139,4.137,0,0,0,0,1.167,72.68,160.02444016015,0,6,P-GPS,
1900,2022-09-06 22:02:04,-34.8957141983883,-55.0385038679194,0,0.032808399999993,159.99163176015,160.02444016015,0.328084,0,0.165361553848,0.324874682312,21,5,8.285,160.02444016015,0,0,0.165361553848,0,0,-0.671082,289.5, -0.3, 0.5,0,0,1024,1024,1286,1024,0,0,40,0,293.3,-9.6,0,81,4.139,4.137,0,0,0,0,1.167,72.68,160.02444016015,0,6,P-GPS,
2000,2022-09-06 22:02:04,-34.8957142517337,-55.0385039882308,0,0.032808399999993,159.99163176015,160.02444016015,0.656168,0,0.205673234928,0.36580053664,21,5,8.285,160.02444016015,0,0,0.205673234928,0,0,-0.894776,289.6, 0.4, 0.9,0,0,1024,1024,1275,1024,0,0,38,0,293.3,-9.6,0,81,4.139,4.137,0,0,0,0,1.167,72.68,160.02444016015,0,6,P-GPS,
2100,2022-09-06 22:02:04,-34.8957143564658,-55.03850406039,0,0.032808399999993,159.99163176015,160.02444016015,0.656168,0,0.24050853788,0.40969161416,21,5,8.285,160.02444016015,0,0,0.24050853788,0,0,-1.11847,289.7, 1.1, 1.9,0,0,1024,1024,1284,1024,0,0,39,0,293.3,-9.6,0,81,4.139,4.137,0,0,0,0,1.167,72.68,160.02444016015,0,6,P-GPS,
2200,2022-09-06 22:02:04,-34.8957145464869,-55.0385041395414,0,0.065616799999987,159.95882336015,160.02444016015,0.984252,0,0.297036098744,0.4829560522,22,5,8.285,160.02444016015,0,0,0.297036098744,0,0,-1.11847,289.4, 1.1, 1.6,0,0,1024,1024,1222,1024,0,0,30,0,293.3,-9.6,0,81,4.139,4.137,0,0,0,0,1.167,72.68,160.02444016015,0,6,P-GPS,
2300,2022-09-06 22:02:04,-34.8957146159738,-55.0385042140606,0.328084,0.39370079999999,159.95882336015,160.35252416015,0.984252,0,0.33010499744,0.51671917664,22,5,8.2,160.35252416015,0.328084,0,0.33010499744,0,0,-1.342164,289.3, 0.4, 0.9,0,0,1024,1024,1117,1024,0,0,14,0,293.3,-9.6,0,81,4.066,4.057,0,0,0,0,2.385,72.86,160.35252416015,0.328084,6,P-GPS,
2400,2022-09-06 22:02:04,-34.8957146749308,-55.038504312921,0.328084,0.39370079999999,159.95882336015,160.35252416015,1.312336,0,0.36666995924,0.5532972618,23,5,8.2,160.35252416015,0.328084,0,0.36666995924,0,0,-1.342164,289.3, 0.8, 1,0,0,1024,1024,1189,1024,0,0,25,0,293.3,-9.6,0,81,4.066,4.057,0,0,0,0,2.385,72.86,160.35252416015,0.328084,6,P-GPS,
2500,2022-09-06 22:02:05,-34.8957146731953,-55.0385046119439,0.656168,0.7545932,159.92601496015,160.68060816015,1.312336,0,0.4407480456,0.6427821728,23,5,8.2,160.68060816015,0.656168,0,0.4407480456,0,0,-1.11847,289.3, 1.6, 2.3,0,0,1024,1024,1313,1024,0,0,44,0,293.3,-9.6,0,81,4.066,4.057,0,0,0,0,2.385,72.86,160.68060816015,0.656168,6,P-GPS,
2600,2022-09-06 22:02:05,-34.8957145766697,-55.0385051515259,0.656168,0.7545932,159.92601496015,160.68060816015,1.64042,0,0.57341209184,0.80804464528,23,5,8.2,160.68060816015,0.656168,0,0.57341209184,0,0,-0.894776,289.5, 1.8, 2.6,0,0,1024,1024,1332,1024,0,0,47,0,293.3,-9.6,0,81,4.066,4.057,0,0,0,0,2.385,72.86,160.68060816015,0.656168,6,P-GPS,
2700,2022-09-06 22:02:05,-34.8957145813006,-55.0385053526443,0.656168,0.7545932,159.92601496015,160.68060816015,1.64042,0,0.63110894408,0.86825462096,23,5,8.2,160.68060816015,0.656168,0,0.63110894408,0,0,-0.894776,289.8, 1.5, 2,0,0,1024,1024,1332,1024,0,0,47,0,293.3,-9.6,0,81,4.066,4.057,0,0,0,0,2.385,72.86,160.68060816015,0.656168,6,P-GPS,
2800,2022-09-06 22:02:05,-34.895714593334,-55.038505511171,0.984252,1.148294,159.86039816015,161.00869216015,1.968504,0,0.67776248888,0.9158956986,22,5,8.2,161.00869216015,0.984252,0,0.67776248888,0,0,-1.11847,289.5, 1, 2.5,0,0,1024,1024,1335,1024,0,0,47,0,293.3,-9.6,0,81,4.066,4.057,0,0,0,0,2.385,72.86,161.00869216015,0.984252,6,P-GPS,
2900,2022-09-06 22:02:05,-34.8957147143518,-55.0385056129988,1.312336,1.476378,159.86039816015,161.33677616015,1.968504,0,0.7203412304,0.96954399428,22,5,8.2,161.33677616015,1.312336,0,0.7203412304,0,0,-1.565858,289.5, 0.1, 2.5,0,0,1024,1024,1332,1024,0,0,47,0,293.3,-9.6,0,81,4.066,4.057,0,0,0,0,2.385,72.86,161.33677616015,1.312336,6,P-GPS,"Punto de origen actualizado. Altitud de RPO establecida en 60m (Code: 3000001)"
3000,2022-09-06 22:02:05,-34.8957149712958,-55.0385059678772,1.312336,1.476378,159.86039816015,161.33677616015,2.296588,0,0.85317916116,1.11119754212,23,5,8.2,161.33677616015,1.312336,0,0.85317916116,0,0,-1.789552,289.5, 0, 2.1,0,0,1024,1024,1321,1024,0,0,45,0,293.3,-9.6,0,81,4.066,4.057,0,0,0,0,2.385,72.86,161.33677616015,1.312336,6,P-GPS,
3100,2022-09-06 22:02:05,-34.8957149938457,-55.0385061899487,1.64042,1.804462,159.86039816015,161.66486016015,2.624672,0,0.9177985858,1.17815948652,23,5,8.2,161.66486016015,1.64042,0,0.9177985858,0,0,-2.013246,289.3, 0.6, 2.1,0,0,1024,1024,1311,1024,0,0,43,0,293.3,-9.6,0,81,4.066,4.057,0,0,0,0,2.385,72.86,161.66486016015,1.64042,6,P-GPS,
3200,2022-09-06 22:02:05,-34.8957150004881,-55.0385063943015,1.968504,2.132546,159.86039816015,161.99294416015,2.952756,0,0.97572509684,1.23936027588,23,5,8.2,161.99294416015,1.968504,0,0.97572509684,0,0,-2.23694,289.2, 0.9, 1.7,0,0,1024,1024,1308,1024,0,0,43,0,293.3,-9.6,0,81,4.066,4.057,0,0,0,0,2.385,72.86,161.99294416015,1.968504,6,P-GPS,
3300,2022-09-06 22:02:05,-34.8957149357013,-55.0385064297829,2.296588,2.46063,159.86039816015,162.32102816015,3.28084,0,0.97773297092,1.2652723502,23,5,8.135,162.32102816015,2.296588,0,0.97773297092,0,0,-2.23694,289.3, 1.4, 1.3,0,0,1024,1024,1271,1024,0,0,37,0,293.3,-9.6,0,80,4.044,4.042,0,0,0,0,4.607,72.68,162.32102816015,2.296588,6,P-GPS,
3400,2022-09-06 22:02:05,-34.8957148822484,-55.0385064669089,2.624672,2.788714,159.86039816015,162.64911216015,3.608924,0,0.98213913904,1.28771657664,23,5,8.135,162.64911216015,2.624672,0,0.98213913904,0,0,-2.23694,289.3, 1.4, 1.6,0,0,1024,1024,1024,1024,0,0,0,0,293.3,-9.6,0,80,4.044,4.042,0,0,0,0,4.607,72.68,162.64911216015,2.624672,6,P-GPS,
3500,2022-09-06 22:02:06,-34.8957148075318,-55.0385065483518,2.952756,3.1824148,159.79478136015,162.97719616015,3.937008,0,0.99762798468,1.32428153844,23,5,8.135,162.97719616015,2.952756,0,0.99762798468,0,0,-2.013246,289.2, 1.5, 1.4,0,0,1024,1024,1024,1024,0,0,0,0,293.3,-9.6,0,80,4.044,4.042,0,0,0,0,4.607,72.68,162.97719616015,2.952756,6,P-GPS,
3600,2022-09-06 22:02:06,-34.895714816316,-55.0385067077771,3.28084,3.5104988,159.79478136015,163.30528016015,4.265092,0,1.04445213316,1.3720965006,22,5,8.135,163.30528016015,3.28084,0,1.04445213316,0,0,-1.565858,289.2, 1.6, 2.5,0,0,1024,1024,1024,1024,0,0,0,0,293.3,-9.6,0,80,4.044,4.042,0,0,0,0,4.607,72.68,163.30528016015,3.28084,6,P-GPS,
3700,2022-09-06 22:02:06,-34.8957147854655,-55.0385069241129,3.608924,3.8385828,159.79478136015,163.63336416015,4.593176,0,1.10430777812,1.43780844496,22,5,8.135,163.63336416015,3.608924,0,1.10430777812,0,0,-1.11847,289.1, 2.1, 2.7,0,0,1024,1024,1041,1024,0,0,3,0,293.3,-9.6,0,80,4.044,4.042,0,0,0,0,4.607,72.68,163.63336416015,3.608924,6,P-GPS,
3800,2022-09-06 22:02:06,-34.8957147529899,-55.0385071130881,3.608924,3.8385828,159.79478136015,163.63336416015,4.593176,0,1.15666998452,1.49558403736,22,5,8.135,163.63336416015,3.608924,0,1.15666998452,0,0,-0.671082,289, 1.6, 2.6,0,0,1024,1024,1363,1024,0,0,51,0,293.3,-9.6,0,80,4.044,4.042,0,0,0,0,4.607,72.68,163.63336416015,3.608924,6,P-GPS,
3900,2022-09-06 22:02:06,-34.8957145965664,-55.0385071997811,3.937008,4.1666668,159.79478136015,163.96144816015,4.92126,0,1.17119098236,1.55827760892,22,5,8.135,163.96144816015,3.937008,0,1.17119098236,0,0,-0.447388,289, 2.1, 2.3,0,0,1024,1024,1538,1024,0,0,78,0,293.3,-9.6,0,80,4.044,4.042,0,0,0,0,4.607,72.68,163.96144816015,3.937008,6,P-GPS,
4000,2022-09-06 22:02:06,-34.8957145655409,-55.0385072507132,3.937008,4.1666668,159.79478136015,163.96144816015,4.92126,0,1.18442261008,1.57726054916,23,5,8.135,163.96144816015,3.937008,0,1.18442261008,0,0,-0.671082,289, 2.1, 2.2,0,0,1024,1024,1598,1024,0,0,87,0,293.3,-9.6,0,80,4.044,4.042,0,0,0,0,4.607,72.68,163.96144816015,3.937008,6,P-GPS,
4100,2022-09-06 22:02:06,-34.8957146203531,-55.0385072619498,4.265092,4.4947508,159.79478136015,164.28953216015,5.249344,0,1.19099085176,1.5975394212,23,5,8.135,164.28953216015,4.265092,0,1.19099085176,0,0,-1.342164,289.1, 2.8, 2.7,0,0,1024,1024,1590,1024,0,0,86,0,293.3,-9.6,0,80,4.044,4.042,0,0,0,0,4.607,72.68,164.28953216015,4.265092,6,P-GPS,
4200,2022-09-06 22:02:06,-34.8957146663514,-55.0385072625508,4.593176,4.8228348,159.79478136015,164.61761616015,5.577428,0,1.194143739,1.61432419864,23,5,8.135,164.61761616015,4.593176,0,1.194143739,0,0,-2.013246,289.4, 3.5, 2.8,0,0,1024,1024,1598,1024,0,0,87,0,293.3,-9.6,0,80,4.044,4.042,0,0,0,0,4.607,72.68,164.61761616015,4.593176,6,P-GPS,
4300,2022-09-06 22:02:06,-34.8957146864496,-55.0385069901507,4.92126,5.1509188,159.79478136015,164.94570016015,5.905512,0,1.11559386772,1.69616803328,23,5,8.163,164.94570016015,4.92126,0,1.194143739,0,0,-2.908022,289.4, 3.6, 3.4,0,0,1024,1024,1537,1024,0,0,78,0,293.3,-9.6,0,80,4.034,4.029,0,0,0,0,4.247,72.68,164.94570016015,4.92126,6,P-GPS,
4400,2022-09-06 22:02:06,-34.8957146670716,-55.038506942135,5.577428,5.8070868,159.79478136015,165.60186816015,6.233596,0,1.10009517956,1.71218181332,23,5,8.163,165.60186816015,5.577428,0,1.194143739,0,0,-3.579104,289.3, 3.3, 2.5,0,0,1024,1024,1537,1024,0,0,78,0,293.3,-9.6,0,80,4.034,4.029,0,0,0,0,4.247,72.68,165.60186816015,5.577428,6,P-GPS,
4500,2022-09-06 22:02:06,-34.8957146328282,-55.0385069326983,6.233596,6.4632548,159.79478136015,166.25803616015,6.889764,0,1.09488848648,1.72499021268,23,5,8.163,166.25803616015,6.233596,0,1.194143739,0,0,-4.026492,289.5, 3.6, 3.5,0,0,1024,1024,1119,1024,0,0,14,0,293.3,-9.6,0,80,4.034,4.029,0,0,0,0,4.247,72.68,166.25803616015,6.233596,6,P-GPS,
4600,2022-09-06 22:02:07,-34.8957146045059,-55.0385069126812,6.889764,7.1194228,159.79478136015,166.91420416015,7.545932,0,1.08708664896,1.73693575112,23,5,8.163,166.91420416015,6.889764,0,1.194143739,0,0,-4.026492,289.6, 3.3, 4.3,0,0,1024,1024,1024,1024,0,0,0,0,293.3,-9.6,0,80,4.034,4.029,0,0,0,0,4.247,72.68,166.91420416015,6.889764,6,P-GPS,
4700,2022-09-06 22:02:07,-34.8957144297804,-55.0385070158522,7.545932,7.7427824,159.82758976015,167.57037216015,8.2021,0,1.10798231892,1.80776580588,23,5,8.163,167.57037216015,7.545932,0,1.194143739,0,0,-3.35541,289.5, 3.7, 4,0,0,1024,1024,1024,1024,0,0,0,0,293.3,-9.6,0,80,4.034,4.029,0,0,0,0,4.247,72.68,167.57037216015,7.545932,6,P-GPS,
4800,2022-09-06 22:02:07,-34.8957144052699,-55.0385070013874,7.874016,8.0708664,159.82758976015,167.89845616015,8.530184,0,1.10263783056,1.8177001894,23,5,8.163,167.89845616015,7.874016,0,1.194143739,0,0,-2.684328,289.4, 3.9, 3.9,0,0,1087,1024,1024,1024,10,0,0,0,293.3,-9.6,0,80,4.034,4.029,0,0,0,0,4.247,72.68,167.89845616015,7.874016,6,P-GPS,
4900,2022-09-06 22:02:07,-34.8957144667473,-55.0385069287789,8.2021,8.3989504,159.82758976015,168.22654016015,8.858268,0,1.08386814492,1.84893050536,23,5,8.163,168.22654016015,8.2021,0,1.194143739,0,0,-1.789552,289.3, 3.2, 2.9,0,0,1106,1024,1024,1024,12,0,0,0,293.3,-9.6,0,80,4.034,4.029,0,0,0,0,4.247,72.68,168.22654016015,8.2021,6,P-GPS,
5000,2022-09-06 22:02:07,-34.8957145209977,-55.0385068671176,8.530184,8.7598428,159.79478136015,168.55462416015,8.858268,0,1.06850069036,1.87598759284,23,5,8.163,168.55462416015,8.530184,0,1.194143739,0,0,-1.11847,289.3, 2.5, 2.9,0,0,1128,1024,1024,1024,16,0,0,0,293.3,-9.6,0,80,4.034,4.029,0,0,0,0,4.247,72.68,168.55462416015,8.530184,6,P-GPS,
5100,2022-09-06 22:02:07,-34.895714538146,-55.0385068900835,8.530184,8.7598428,159.79478136015,168.55462416015,9.186352,0,1.076279562,1.88528221256,23,5,8.163,168.55462416015,8.530184,0,1.194143739,0,0,-0.671082,289.2, 1.7, 2.5,0,0,1267,1024,1024,1024,37,0,0,0,293.3,-9.6,0,80,4.034,4.029,0,0,0,0,4.247,72.68,168.55462416015,8.530184,6,P-GPS,
5200,2022-09-06 22:02:07,-34.8957146725309,-55.0385069929289,8.530184,8.7598428,159.79478136015,168.55462416015,9.186352,0,1.1153871748,1.94317263436,23,5,8.163,168.55462416015,8.530184,0,1.194143739,0,0,-0.223694,289.2, 1.1, 2.8,0,0,1267,1024,1024,1024,37,0,0,0,293.3,-9.6,0,80,4.034,4.029,0,0,0,0,4.247,72.68,168.55462416015,8.530184,6,P-GPS,
5300,2022-09-06 22:02:07,-34.8957147441364,-55.0385070097173,8.530184,8.7598428,159.79478136015,168.55462416015,9.186352,0,1.12578087592,1.96977696592,23,5,8.163,168.55462416015,8.530184,0,1.194143739,0,0,0,289.3, -0.1, 2.9,0,0,1326,1024,1024,1024,46,0,0,0,293.3,-9.6,0,80,4.034,4.029,0,0,0,0,4.247,72.68,168.55462416015,8.530184,6,P-GPS,
5400,2022-09-06 22:02:07,-34.8957148021103,-55.0385070613885,8.530184,8.7598428,159.79478136015,168.55462416015,9.186352,0,1.14565620464,1.99597775416,23,5,8.098,168.55462416015,8.530184,0,1.194143739,0,0,0,289.3, -3.2, 2.4,0,0,1316,1024,1024,1024,44,0,0,0,293.3,-9.6,0,80,4.072,4.067,0,0,0,0,5.091,72.68,168.55462416015,8.530184,6,P-GPS,
5500,2022-09-06 22:02:08,-34.8957148605564,-55.0385071818607,8.530184,8.7598428,159.79478136015,168.55462416015,9.186352,0.223694,1.18577431616,2.0378609576,23,5,8.098,168.55462416015,8.530184,0.223694,1.194143739,0,-0.223694,0,289.4, -4.3, 1.7,0,0,1311,1024,1024,1024,43,0,0,0,293.3,-9.6,0,80,4.072,4.067,0,0,0,0,5.091,72.68,168.55462416015,8.530184,6,P-GPS,
5600,2022-09-06 22:02:08,-34.895715128834,-55.0385073549132,8.530184,8.7598428,159.79478136015,168.55462416015,9.186352,0.447388,1.26265423988,2.14859915012,23,5,8.098,168.55462416015,8.530184,0.447388,1.26265423988,0,-0.447388,0,289.5, -4.3, 2.5,0,0,1284,1024,1024,1024,39,0,0,0,293.3,-9.6,0,80,4.072,4.067,0,0,0,0,5.091,72.68,168.55462416015,8.530184,6,P-GPS,
5700,2022-09-06 22:02:08,-34.8957149932155,-55.03850779865,8.530184,8.7926512,159.76197296015,168.55462416015,9.186352,0.7158208,1.37658140888,2.2903051914,23,5,8.098,168.55462416015,8.530184,0.7158208,1.37658140888,0.223694,-0.671082,0,289.4, -4.4, 2.4,0,0,1295,1024,1024,1024,41,0,0,0,293.3,-9.6,0,80,4.072,4.067,0,0,0,0,5.091,72.68,168.55462416015,8.530184,6,P-GPS,
5800,2022-09-06 22:02:08,-34.8957148395755,-55.0385083072152,8.530184,8.7926512,159.76197296015,168.55462416015,9.186352,0.9171454,1.5130577912,2.45248695512,23,5,8.098,168.55462416015,8.530184,0.9171454,1.5130577912,0.223694,-0.894776,0,289.3, -3.8, 1.8,0,0,1293,1024,1024,1024,41,0,0,0,293.3,-9.6,0,80,4.072,4.067,0,0,0,0,5.091,72.68,168.55462416015,8.530184,6,P-GPS,
5900,2022-09-06 22:02:08,-34.8957147304201,-55.0385089226146,8.530184,8.858268,159.69635616015,168.55462416015,9.186352,1.1408394,1.68811357108,2.64089903464,23,5,8.098,168.55462416015,8.530184,1.1408394,1.68811357108,0.223694,-1.11847,0,289.4, -3.6, 2.1,0,0,1290,1024,1024,1024,40,0,0,0,293.3,-9.6,0,80,4.072,4.067,0,0,0,0,5.091,72.68,168.55462416015,8.530184,6,P-GPS,
6000,2022-09-06 22:02:08,-34.8957144994412,-55.0385098754095,8.530184,8.8910764,159.66354776015,168.55462416015,9.186352,1.1408394,1.96207027276,2.93821531712,23,5,8.098,168.55462416015,8.530184,1.1408394,1.96207027276,0.223694,-1.11847,0,289.4, -4.4, 2.7,0,0,1286,1024,1024,1024,40,0,0,0,293.3,-9.6,0,80,4.072,4.067,0,0,0,0,5.091,72.68,168.55462416015,8.530184,6,P-GPS,
6100,2022-09-06 22:02:08,-34.895714374112,-55.038510652071,8.530184,8.9238848,159.63073936015,168.55462416015,9.186352,1.3645334,2.1909613562,3.17508540344,23,5,8.098,168.55462416015,8.530184,1.3645334,2.1909613562,0.223694,-1.342164,0,289.6, -2.8, 3.6,0,0,1286,1024,1024,1024,40,0,0,0,293.3,-9.6,0,80,4.072,4.067,0,0,0,0,5.091,72.68,168.55462416015,8.530184,6,P-GPS,
6200,2022-09-06 22:02:08,-34.8957142331686,-55.0385114307697,8.530184,8.9238848,159.63073936015,168.55462416015,9.186352,1.3645334,2.42184390952,3.41371402,23,5,8.098,168.55462416015,8.530184,1.3645334,2.42184390952,0.223694,-1.342164,0,289.8, -3.1, 2.7,0,0,1304,1024,1024,1024,42,0,0,0,293.3,-9.6,0,80,4.072,4.067,0,0,0,0,5.091,72.68,168.55462416015,8.530184,6,P-GPS,
6300,2022-09-06 22:02:08,-34.8957141145279,-55.0385123015983,8.530184,8.9895016,159.56512256015,168.55462416015,9.186352,1.6329662,2.68171268424,3.6778872568,23,5,8.098,168.55462416015,8.530184,1.6329662,2.68171268424,0.447388,-1.565858,0,289.7, -4, 2.5,0,0,1303,1024,1024,1024,42,0,0,0,293.3,-9.6,0,80,4.072,4.067,0,0,0,0,5.091,72.68,168.55462416015,8.530184,6,P-GPS,
6400,2022-09-06 22:02:08,-34.8957140005429,-55.0385131786305,8.530184,9.0551184,159.49950576015,168.55462416015,9.186352,1.6329662,2.94418972676,3.9436024884,23,5,8.097,168.55462416015,8.530184,1.6329662,2.94418972676,0.447388,-1.565858,0,289.7, -4.5, 2.9,0,0,1370,1024,1024,1024,52,0,0,0,293.3,-9.6,0,80,4.049,4.046,0,0,0,0,3.797,72.68,168.55462416015,8.530184,6,P-GPS,
6500,2022-09-06 22:02:09,-34.8957140704785,-55.0385141839004,8.530184,9.0879268,159.46669736015,168.55462416015,9.186352,1.8342908,3.24492464452,4.2455053852,23,5,8.097,168.55462416015,8.530184,1.8342908,3.24492464452,0.447388,-1.789552,0,289.5, -4.9, 2.7,0,0,1449,1024,1024,1024,64,0,0,0,293.3,-9.6,0,80,4.049,4.046,0,0,0,0,3.797,72.68,168.55462416015,8.530184,6,P-GPS,
6600,2022-09-06 22:02:09,-34.8957141169689,-55.0385151949757,8.530184,9.1535436,159.40108056015,168.55462416015,9.186352,1.8342908,3.5475394836,4.548556576,23,5,8.097,168.55462416015,8.530184,1.8342908,3.5475394836,0.447388,-1.789552,0,289.4, -7.7, 2.7,0,0,1498,1024,1024,1024,72,0,0,0,293.3,-9.6,0,80,4.049,4.046,0,0,0,0,3.797,72.68,168.55462416015,8.530184,6,P-GPS,
6700,2022-09-06 22:02:09,-34.8957139633033,-55.0385162512222,8.530184,9.186352,159.36827216015,168.55462416015,9.186352,2.3264176,3.8637468428,4.8695539616,23,5,8.097,168.55462416015,8.530184,2.3264176,3.8637468428,0.671082,-2.23694,0,289.4, -11.5, 2.6,0,0,1495,1024,1024,1024,71,0,0,0,293.3,-9.6,0,80,4.049,4.046,0,0,0,0,3.797,72.68,168.55462416015,8.530184,6,P-GPS,
6800,2022-09-06 22:02:09,-34.8957137697708,-55.038517406888,8.530184,9.2519688,159.30265536015,168.55462416015,9.186352,2.7738056,4.2107612896,5.2225067288,23,5,8.097,168.55462416015,8.530184,2.7738056,4.2107612896,0.671082,-2.684328,0,289.2, -13.5, 3,0,0,1502,1024,1024,1024,72,0,0,0,293.3,-9.6,0,80,4.049,4.046,0,0,0,0,3.797,72.68,168.55462416015,8.530184,6,P-GPS,
6900,2022-09-06 22:02:09,-34.8957137226164,-55.0385187890682,8.530184,9.350394,159.20423016015,168.55462416015,9.186352,3.2659324,4.624672064,5.63648312,23,5,8.097,168.55462416015,8.530184,3.2659324,4.624672064,0.894776,-3.131716,0,289.2, -13.2, 2.8,0,0,1542,1024,1024,1024,78,0,0,0,293.3,-9.6,0,80,4.049,4.046,0,0,0,0,3.797,72.68,168.55462416015,8.530184,6,P-GPS,
7000,2022-09-06 22:02:09,-34.8957134111899,-55.0385203581064,8.2021,9.0551184,159.17142176015,168.22654016015,9.186352,3.690951,5.098097276,6.11958681,23,5,8.097,168.55462416015,8.530184,3.690951,5.098097276,0.894776,-3.579104,0,289.3, -13, 2.7,0,0,1542,1024,1024,1024,78,0,0,0,293.3,-9.6,0,80,4.049,4.046,0,0,0,0,3.797,72.68,168.22654016015,8.2021,6,P-GPS,
7100,2022-09-06 22:02:09,-34.8957129982943,-55.0385222741739,8.2021,9.1535436,159.07299656015,168.22654016015,9.186352,4.1830778,5.6792324652,6.7124017896,23,5,8.097,168.55462416015,8.530184,4.1830778,5.6792324652,1.11847,-4.026492,0,289.3, -13.4, 2.3,0,0,1525,1024,1024,1024,76,0,0,0,293.3,-9.6,0,80,4.049,4.046,0,0,0,0,3.797,72.68,168.22654016015,8.2021,6,P-GPS,
7200,2022-09-06 22:02:09,-34.8957125482591,-55.0385242951219,8.2021,9.2847772,158.94176296015,168.22654016015,9.186352,4.6080964,6.2950133248,7.339075038,23,5,8.097,168.55462416015,8.530184,4.6080964,6.2950133248,1.11847,-4.47388,0,289.3, -13.2, 2.2,0,0,1531,1024,1024,1024,77,0,0,0,293.3,-9.6,0,80,4.049,4.046,0,0,0,0,3.797,72.68,168.22654016015,8.2021,6,P-GPS,
7300,2022-09-06 22:02:09,-34.8957121084665,-55.038527108746,8.2021,9.4160108,158.81052936015,168.22654016015,9.186352,5.1002232,7.1483270004,8.196194488,23,5,8.097,168.55462416015,8.530184,5.1002232,7.1483270004,1.342164,-4.921268,0,289.4, -13.2, 2.9,0,0,1568,1024,1024,1024,82,0,0,0,293.3,-9.6,0,80,4.049,4.046,0,0,0,0,3.797,72.68,168.22654016015,8.2021,6,P-GPS,
7400,2022-09-06 22:02:09,-34.8957115414606,-55.0385296642473,8.2021,9.5800528,158.64648736015,168.22654016015,8.858268,5.5252418,7.930938574,8.9884189228,23,5,8.103,168.55462416015,8.530184,5.5252418,7.930938574,1.342164,-5.368656,0,289.6, -13.3, 3,0,0,1534,1024,1024,1024,77,0,0,0,293.3,-9.6,0,80,4.048,4.044,0,0,0,0,4.119,72.68,168.22654016015,8.2021,6,P-GPS,
7500,2022-09-06 22:02:10,-34.8957109310787,-55.0385326722681,8.2021,9.7112864,158.51525376015,168.22654016015,8.858268,6.0173686,8.8516078948,9.915682732,23,5,8.103,168.55462416015,8.530184,6.0173686,8.8516078948,1.565858,-5.816044,0,289.7, -13.9, 3.8,0,0,1507,1024,1024,1024,73,0,0,0,293.3,-9.6,0,80,4.048,4.044,0,0,0,0,4.119,72.68,168.22654016015,8.2021,6,P-GPS,
7600,2022-09-06 22:02:10,-34.8957102807467,-55.03853573442,8.2021,9.84252,158.38402016015,168.22654016015,9.186352,6.2410626,9.7916341716,10.8622706888,23,5,8.103,168.55462416015,8.530184,6.2410626,9.7916341716,1.565858,-6.039738,0,289.8, -12.6, 4.2,0,0,1434,1024,1024,1024,62,0,0,0,293.3,-9.6,0,80,4.048,4.044,0,0,0,0,4.119,72.68,168.22654016015,8.2021,6,P-GPS,
7700,2022-09-06 22:02:10,-34.8957097651539,-55.0385398634482,8.530184,10.4002628,158.15436136015,168.55462416015,9.186352,6.7331894,11.0414045528,12.1121066868,23,5,8.103,168.55462416015,8.530184,6.7331894,11.0414045528,1.789552,-6.487126,0,289.7, -11.8, 3.3,0,0,1431,1024,1024,1024,62,0,0,0,293.3,-9.6,0,80,4.048,4.044,0,0,0,0,4.119,72.68,168.55462416015,8.530184,6,P-GPS,
7800,2022-09-06 22:02:10,-34.8957090308169,-55.0385433427543,8.530184,10.5314964,158.02312776015,168.55462416015,9.186352,7.158208,12.1106631172,13.187172338,23,5,8.103,168.55462416015,8.530184,7.158208,12.1106631172,1.789552,-6.934514,0,289.8, -8.5, 3.2,0,0,1398,1024,1024,1024,57,0,0,0,293.3,-9.6,0,80,4.048,4.044,0,0,0,0,4.119,72.68,168.55462416015,8.530184,6,P-GPS,
7900,2022-09-06 22:02:10,-34.8957082145874,-55.0385472382536,8.530184,10.7283468,157.82627736015,168.55462416015,9.186352,7.381902,13.308563418,14.3903547912,23,5,8.103,168.55462416015,8.530184,7.381902,13.308563418,1.789552,-7.158208,0,289.8, -8, 3.5,0,0,1398,1024,1024,1024,57,0,0,0,293.3,-9.6,0,80,4.048,4.044,0,0,0,0,4.119,72.68,168.55462416015,8.530184,6,P-GPS,
8000,2022-09-06 22:02:10,-34.8957074247318,-55.0385510145888,8.530184,10.9251972,157.62942696015,168.55462416015,9.186352,7.381902,14.4705713292,15.5565621776,23,5,8.103,168.55462416015,8.530184,7.381902,14.4705713292,1.789552,-7.158208,0,289.9, -7.6, 4.7,0,0,1374,1024,1128,1024,53,0,16,0,293.3,-9.6,0,80,4.048,4.044,0,0,0,0,4.119,72.68,168.55462416015,8.530184,6,P-GPS,
8100,2022-09-06 22:02:10,-34.8957067484081,-55.0385553586139,8.530184,11.154856,157.39976816015,168.55462416015,9.186352,7.4266408,15.7935044424,16.8797249496,23,5,8.103,168.55462416015,8.530184,7.4266408,15.7935044424,2.013246,-7.158208,0,289.6, -7.8, 5,0,0,1429,1024,1449,1024,61,0,64,0,293.3,-9.6,0,80,4.048,4.044,0,0,0,0,4.119,72.68,168.55462416015,8.530184,6,P-GPS,
8200,2022-09-06 22:02:10,-34.895705935374,-55.0385590798518,8.858268,11.6797904,157.20291776015,168.88270816015,9.186352,7.6503348,16.9415031668,18.0321199996,23,5,8.103,168.88270816015,8.858268,7.6503348,16.9415031668,2.013246,-7.381902,-0.223694,289.5, -7.3, 2.9,0,0,1479,1024,1583,1024,69,0,85,0,293.3,-9.6,0,80,4.048,4.044,0,0,0,0,4.119,72.68,168.88270816015,8.858268,6,P-GPS,
8300,2022-09-06 22:02:10,-34.8957051303511,-55.0385629401229,8.858268,11.8766408,157.00606736015,168.88270816015,22.309712,7.8740288,18.1304795828,19.2240491716,23,5,8.103,168.88270816015,8.858268,7.8740288,18.1304795828,2.013246,-7.605596,-1.11847,289.6, -8, 4.3,0,0,1479,1024,1639,1024,69,0,93,0,293.3,-9.6,0,80,4.048,4.044,0,0,0,0,4.119,72.68,168.88270816015,8.858268,6,P-GPS,
8400,2022-09-06 22:02:10,-34.8957043456967,-55.0385667104104,9.186352,12.4015752,156.80921696015,169.21079216015,22.96588,8.0753534,19.2919625596,20.3880583952,23,5,8.089,169.21079216015,9.186352,8.0753534,19.2919625596,2.013246,-7.82929,-1.789552,289.8, -8.8, 6.1,0,0,1454,1024,1684,1024,65,0,100,0,293.3,-9.6,0,80,4.038,4.034,0,0,0,0,4.163,72.68,169.21079216015,9.186352,6,P-GPS,
8500,2022-09-06 22:02:11,-34.8957034862374,-55.0385708735075,9.84252,13.2545936,156.61236656015,169.86696016015,23.293964,8.3661556,20.5743444904,21.6727041056,23,5,8.089,169.86696016015,9.84252,8.3661556,20.5743444904,2.23694,-8.052984,-2.460634,289.6, -8.8, 6.1,0,0,1455,1024,1684,1024,65,0,100,0,293.3,-9.6,0,80,4.038,4.034,0,0,0,0,4.163,72.68,169.86696016015,9.84252,6,P-GPS,
8600,2022-09-06 22:02:11,-34.8957029377396,-55.0385747645234,10.170604,13.779528,156.41551616015,170.19504416015,23.622048,8.6345884,21.755578124,22.854167398,23,5,8.089,170.19504416015,10.170604,8.6345884,21.755578124,2.460634,-8.276678,-3.35541,289.7, -8.1, 6.1,0,0,1458,1024,1684,1024,66,0,100,0,293.3,-9.6,0,80,4.038,4.034,0,0,0,0,4.163,72.68,170.19504416015,10.170604,6,P-GPS,
8700,2022-09-06 22:02:11,-34.8957018612245,-55.0385789958889,10.826772,14.6325464,156.21866576015,170.85121216015,24.278216,8.9030212,23.0733603184,24.1798892252,23,5,8.089,170.85121216015,10.826772,8.9030212,23.0733603184,2.684328,-8.500372,-4.026492,289.6, -7.9, 5.2,0,0,1458,1024,1684,1024,66,0,100,0,293.3,-9.6,0,80,4.038,4.034,0,0,0,0,4.163,72.68,170.85121216015,10.826772,6,P-GPS,
8800,2022-09-06 22:02:11,-34.8957007771013,-55.0385830959766,11.48294,15.4855648,156.02181536015,171.50738016015,24.934384,9.1267152,24.3540362124,25.4690296864,23,5,8.089,171.50738016015,11.48294,9.1267152,24.3540362124,2.684328,-8.724066,-4.697574,289.8, -7, 3.4,0,0,1459,1024,1684,1024,66,0,100,0,293.3,-9.6,0,80,4.038,4.034,0,0,0,0,4.163,72.68,171.50738016015,11.48294,6,P-GPS,
8900,2022-09-06 22:02:11,-34.8956996043237,-55.0385876152267,12.467192,16.732284,155.75934816015,172.49163216015,25.918636,9.1267152,25.764928646,26.887468052,23,5,8.089,172.49163216015,12.467192,9.1267152,25.764928646,2.684328,-8.724066,-5.368656,289.6, -7.4, 3.2,0,0,1493,1024,1684,1024,71,0,100,0,293.3,-9.6,0,80,4.038,4.034,0,0,0,0,4.163,72.68,172.49163216015,12.467192,6,P-GPS,
9000,2022-09-06 22:02:11,-34.8956984846048,-55.03859196461,13.451444,17.880578,155.59530616015,173.47588416015,26.574804,9.1267152,27.1229011304,28.251641324,23,5,8.089,173.47588416015,13.451444,9.1267152,27.1229011304,2.908022,-8.94776,-5.816044,289.6, -8.4, 3.8,0,0,1503,1024,1684,1024,73,0,100,0,293.3,-9.6,0,80,4.038,4.034,0,0,0,0,4.163,72.68,173.47588416015,13.451444,6,P-GPS,
9100,2022-09-06 22:02:11,-34.8956971158235,-55.0385967629655,14.435696,19.1272972,155.33283896015,174.46013616015,27.559056,9.4175174,28.6321859556,29.7718841548,23,5,8.089,174.46013616015,14.435696,9.4175174,28.6321859556,2.908022,-8.94776,-6.039738,289.6, -9.1, 5.7,0,0,1545,1024,1682,1024,79,0,100,0,293.3,-9.6,0,80,4.038,4.034,0,0,0,0,4.163,72.68,174.46013616015,14.435696,6,P-GPS,
9200,2022-09-06 22:02:11,-34.8956958177688,-55.0386013901539,15.419948,20.3083996,155.13598856015,175.44438816015,28.543308,9.842536,30.0868776032,31.2353028368,23,5,8.089,175.44438816015,15.419948,9.842536,30.0868776032,2.908022,-9.395148,-6.263432,289.8, -10.9, 5.3,0,0,1558,1024,1419,1024,81,0,60,0,293.3,-9.6,0,80,4.038,4.034,0,0,0,0,4.163,72.68,175.44438816015,15.419948,6,P-GPS,
9300,2022-09-06 22:02:11,-34.8956944570923,-55.0386062630605,16.732284,21.8832028,154.87352136015,176.75672416015,29.52756,10.0438606,31.6192267336,32.7757228336,23,5,8.089,176.75672416015,16.732284,10.0438606,31.6192267336,2.908022,-9.618842,-6.263432,290, -9.2, 4.9,0,0,1563,1024,1415,1024,82,0,59,0,293.3,-9.6,0,80,4.038,4.034,0,0,0,0,4.163,72.68,176.75672416015,16.732284,6,P-GPS,
9400,2022-09-06 22:02:11,-34.895692794223,-55.0386111833559,17.716536,23.0971136,154.64386256015,177.74097616015,30.183728,10.1109688,33.191602112,34.368111336,23,5,8.089,177.74097616015,17.716536,10.1109688,33.191602112,3.131716,-9.618842,-5.816044,289, -10.5, 4.9,0,0,1563,1024,1415,1024,82,0,59,0,293.3,-9.6,0,80,4.038,4.034,0,0,0,0,4.163,72.68,177.74097616015,17.716536,6,P-GPS,
9500,2022-09-06 22:02:11,-34.8956913632148,-55.03861613977,18.700788,24.3110244,154.41420376015,178.72522816015,31.16798,10.2675546,34.756234708,35.940617948,23,5,7.934,178.72522816015,18.700788,10.2675546,34.756234708,2.908022,-9.842536,-5.368656,289, -12.6, 6.5,0,0,1568,1024,1425,1024,82,0,61,0,293.3,-9.6,0,80,3.973,3.96,0,0,0,0,6.234,72.68,178.72522816015,18.700788,6,P-GPS,
9600,2022-09-06 22:02:12,-34.8956899892038,-55.0386208775917,19.356956,25.1968512,154.18454496015,179.38139616015,31.496064,10.3346628,36.252953916,37.444555004,23,5,7.934,179.38139616015,19.356956,10.3346628,36.252953916,3.131716,-9.842536,-4.697574,288.9, -14.4, 5.8,0,0,1565,1024,1418,1024,82,0,60,0,293.3,-9.6,0,80,3.973,3.96,0,0,0,0,6.234,72.68,179.38139616015,19.356956,6,P-GPS,
9700,2022-09-06 22:02:12,-34.8956885284537,-55.0386258905759,20.013124,26.0498696,153.98769456015,180.03756416015,31.496064,10.5359874,37.83792772,39.036418572,23,5,7.934,180.03756416015,20.013124,10.5359874,37.83792772,3.131716,-10.06623,-4.250186,288.7, -15.3, 5,0,0,1562,1024,1464,1024,82,0,67,0,293.3,-9.6,0,80,3.973,3.96,0,0,0,0,6.234,72.68,180.03756416015,20.013124,6,P-GPS,
9800,2022-09-06 22:02:12,-34.8956870992335,-55.0386307581868,20.341208,26.6076124,153.75803576015,180.36564816015,31.496064,10.8267896,39.3782821,40.583662716,23,5,7.934,180.36564816015,20.341208,10.8267896,39.3782821,3.35541,-10.289924,-3.802798,288.8, -15, 4.1,0,0,1562,1024,1561,919,82,0,81,-16,293.3,-9.6,0,80,3.973,3.96,0,0,0,0,6.234,72.68,180.36564816015,20.341208,6,P-GPS,
9900,2022-09-06 22:02:12,-34.8956854589491,-55.0386361035302,20.997376,27.4606308,153.56118536015,181.02181616015,31.496064,11.0281142,41.077101052,42.291339936,23,5,7.934,181.02181616015,20.997376,11.0281142,41.077101052,3.35541,-10.513618,-3.802798,288.9, -13.6, 4.6,0,0,1556,1024,1683,720,81,0,100,-46,293.3,-9.6,0,80,3.973,3.96,0,0,0,0,6.234,72.68,181.02181616015,20.997376,6,P-GPS,
10000,2022-09-06 22:02:12,-34.8956838484196,-55.0386413098509,21.32546,28.0183736,153.33152656015,181.34990016015,31.496064,11.3189164,42.733597168,43.956366236,23,5,7.934,181.34990016015,21.32546,11.3189164,42.733597168,3.579104,-10.737312,-4.026492,289, -13.2, 4.7,0,0,1563,1024,1684,652,82,0,100,-56,293,-9.6,0,80,3.973,3.96,0,0,0,0,6.234,72.68,181.34990016015,21.32546,6,P-GPS,
10100,2022-09-06 22:02:12,-34.8956822172236,-55.0386468915851,21.981628,28.9370088,153.06905936015,182.00606816015,31.496064,11.8110432,44.500985676,45.729660256,23,5,7.934,182.00606816015,21.981628,11.8110432,44.500985676,3.802798,-11.1847,-4.697574,288.7, -11.9, 3.4,0,0,1558,1024,1506,957,81,0,73,-10,292,-9.6,0,80,3.973,3.96,0,0,0,0,6.234,72.68,182.00606816015,21.981628,6,P-GPS,
10200,2022-09-06 22:02:12,-34.895680611993,-55.0386523168013,22.637796,29.8228356,152.83940056015,182.66223616015,31.496064,12.1018454,46.221458172,47.45571018,23,5,7.934,182.66223616015,22.637796,12.1018454,46.221458172,4.026492,-11.408394,-5.368656,287.3, -11.7, 3.4,0,0,1558,1024,1506,957,81,0,73,-10,290.6,-9.6,0,80,3.973,3.96,0,0,0,0,6.234,72.68,182.66223616015,22.637796,6,P-GPS,
10300,2022-09-06 22:02:12,-34.8956788122237,-55.0386581546986,23.622048,31.0695548,152.57693336015,183.64648816015,31.496064,12.1018454,48.080054032,49.321851972,23,5,7.934,183.64648816015,23.622048,12.1018454,48.080054032,4.026492,-11.408394,-5.368656,286, -12.3, 2.7,0,0,1558,1024,1375,1024,81,0,53,0,289.7,-9.6,0,80,3.973,3.96,0,0,0,0,6.234,72.68,183.64648816015,23.622048,6,P-GPS,
10400,2022-09-06 22:02:12,-34.8956771357601,-55.0386637621587,24.278216,31.98819,152.31446616015,184.30265616015,31.496064,12.30317,49.8605659,51.107941268,23,5,7.934,184.30265616015,24.278216,12.30317,49.8605659,4.026492,-11.632088,-4.921268,285.3, -12.7, 2.5,0,0,1556,1024,1355,1024,81,0,50,0,289.3,-9.6,0,80,3.973,3.96,0,0,0,0,6.234,72.68,184.30265616015,24.278216,6,P-GPS,
10500,2022-09-06 22:02:13,-34.8956753386159,-55.0386698526469,24.934384,32.9068252,152.05199896015,184.95882416015,31.496064,12.526864,51.792652576,53.044949204,23,5,8.024,184.95882416015,24.934384,12.526864,51.792652576,4.026492,-11.855782,-4.250186,285, -13.8, 3.2,0,0,1556,1024,1409,1024,81,0,58,0,289.2,-9.6,0,80,3.948,3.935,0,0,0,0,6.124,72.86,184.95882416015,24.934384,6,P-GPS,
10600,2022-09-06 22:02:13,-34.8956736288181,-55.0386757332015,25.590552,33.8254604,151.78953176015,185.61499216015,31.496064,12.526864,53.656169696,54.911747164,23,5,8.024,185.61499216015,25.590552,12.526864,53.656169696,4.026492,-11.855782,-3.35541,284.9, -14.1, 1.4,0,0,1550,1024,1465,1024,80,0,67,0,289.2,-9.6,0,80,3.948,3.935,0,0,0,0,6.124,72.86,185.61499216015,25.590552,6,P-GPS,
10700,2022-09-06 22:02:13,-34.8956716412175,-55.0386827627769,25.918636,34.44882,151.49425616015,185.94307616015,31.496064,12.7281886,55.878282628,57.136812852,23,5,8.024,185.94307616015,25.918636,12.7281886,55.878282628,4.026492,-12.079476,-3.131716,285, -12.5, 4.1,0,0,1548,1024,1462,895,79,0,66,-20,289.2,-9.6,0,80,3.948,3.935,0,0,0,0,6.124,72.86,185.94307616015,25.918636,6,P-GPS,
10800,2022-09-06 22:02:13,-34.895669941959,-55.0386889607649,26.574804,35.3674552,151.23178896015,186.59924416015,31.496064,12.9518826,57.832022848,59.092521576,23,5,8.024,186.59924416015,26.574804,12.9518826,57.832022848,4.026492,-12.30317,-3.131716,285.2, -10.9, 3,0,0,1544,1024,1396,1024,79,0,56,0,289.2,-9.6,0,80,3.948,3.935,0,0,0,0,6.124,72.86,186.59924416015,26.574804,6,P-GPS,
10900,2022-09-06 22:02:13,-34.8956682352422,-55.038695277554,27.230972,36.2860904,150.96932176015,187.25541216015,31.496064,13.086099,59.82119614,61.08267912,23,5,8.024,187.25541216015,27.230972,13.086099,59.82119614,3.802798,-12.526864,-3.131716,284.8, -10.4, 3.4,0,0,1544,1024,1396,1024,79,0,56,0,289.1,-9.6,0,80,3.948,3.935,0,0,0,0,6.124,72.86,187.25541216015,27.230972,6,P-GPS,
11000,2022-09-06 22:02:13,-34.8956666542054,-55.0387013562394,27.88714,37.237534,150.67404616015,187.91158016015,31.496064,13.309793,61.728676516,62.991143748,23,5,8.024,187.91158016015,27.88714,13.309793,61.728676516,3.802798,-12.750558,-3.35541,284.5, -11.5, 4.4,0,0,1532,1024,1370,1024,77,0,52,0,289,-9.6,0,80,3.948,3.935,0,0,0,0,6.124,72.86,187.91158016015,27.88714,6,P-GPS,
11100,2022-09-06 22:02:13,-34.8956649072563,-55.0387078387068,28.215224,37.8608936,150.37877056015,188.23966416015,31.496064,13.2426848,63.76968708,65.03281048,23,5,8.024,188.23966416015,28.215224,13.309793,63.76968708,3.579104,-12.750558,-3.579104,284.3, -10.9, 6.4,0,0,1534,1024,1390,1024,77,0,55,0,289,-9.6,0,80,3.948,3.935,0,0,0,0,6.124,72.86,188.23966416015,28.215224,6,P-GPS,
11200,2022-09-06 22:02:13,-34.8956633440152,-55.0387141444242,28.871392,38.7795288,150.11630336015,188.89583216015,31.496064,13.2426848,65.740815752,67.004267236,23,5,8.024,188.89583216015,28.871392,13.309793,65.740815752,3.579104,-12.750558,-3.131716,284.7, -9.2, 7.6,0,0,1534,1024,1554,1024,77,0,80,0,289,-9.6,0,80,3.948,3.935,0,0,0,0,6.124,72.86,188.89583216015,28.871392,6,P-GPS,
11300,2022-09-06 22:02:13,-34.8956617825817,-55.0387205999018,29.199476,39.4356968,149.78821936015,189.22391616015,31.496064,13.2426848,67.754923428,69.018374912,23,5,8.024,189.22391616015,29.199476,13.309793,67.754923428,3.579104,-12.750558,-3.35541,284.4, -10.7, 6.2,0,0,1534,1024,1684,1024,77,0,100,0,289,-9.6,0,80,3.948,3.935,0,0,0,0,6.124,72.86,189.22391616015,29.199476,6,P-GPS,
11400,2022-09-06 22:02:13,-34.8956602897773,-55.0387267470853,29.52756,39.9934396,149.55856056015,189.55200016015,31.496064,13.5111176,69.673230576,70.93668206,23,5,8.024,189.55200016015,29.52756,13.5111176,69.673230576,3.802798,-12.974252,-4.026492,284.3, -11.7, 5.7,0,0,1542,1024,1684,1024,78,0,100,0,289,-9.6,0,80,3.948,3.935,0,0,0,0,6.124,72.86,189.55200016015,29.52756,6,P-GPS,
11500,2022-09-06 22:02:14,-34.8956588275323,-55.0387328380123,30.511812,41.2729672,149.26328496015,190.53625216015,31.496064,13.5111176,71.572508852,72.835960336,23,5,8.006,190.53625216015,30.511812,13.5111176,71.572508852,3.802798,-12.974252,-4.47388,284.1, -12.8, 5.8,0,0,1545,1024,1684,1024,79,0,100,0,289,-9.6,0,80,4.006,4.007,0,0,0,0,6.254,72.86,190.53625216015,30.511812,6,P-GPS,
11600,2022-09-06 22:02:14,-34.8956573204725,-55.0387391261613,31.16798,42.1916024,149.00081776015,191.19242016015,31.496064,13.7348116,73.532810752,74.796262236,23,5,8.006,191.19242016015,31.16798,13.7348116,73.532810752,3.802798,-13.197946,-4.697574,284.6, -11.6, 5.4,0,0,1548,1024,1684,1024,79,0,100,0,289,-9.6,0,80,4.006,4.007,0,0,0,0,6.254,72.86,191.19242016015,31.16798,6,P-GPS,
11700,2022-09-06 22:02:14,-34.8956556775517,-55.0387460446856,32.152232,43.47113,148.70554216015,192.17667216015,31.496064,13.9585056,75.688322632,76.951774116,23,5,8.006,192.17667216015,32.152232,13.9585056,75.688322632,3.802798,-13.42164,-5.368656,284.3, -11.4, 6.3,0,0,1548,1024,1684,1024,79,0,100,0,289,-9.6,0,80,4.006,4.007,0,0,0,0,6.254,72.86,192.17667216015,32.152232,6,P-GPS,
11800,2022-09-06 22:02:14,-34.8956541607538,-55.0387526532448,33.136484,44.783466,148.37745816015,193.16092416015,31.496064,14.1150914,77.741800388,79.005251872,23,5,8.006,193.16092416015,33.136484,14.1150914,77.741800388,3.579104,-13.645334,-5.816044,284.3, -11.9, 7.8,0,0,1552,1024,1684,1024,80,0,100,0,289,-9.6,0,80,4.006,4.007,0,0,0,0,6.254,72.86,193.16092416015,33.136484,6,P-GPS,
11900,2022-09-06 22:02:14,-34.8956526376897,-55.0387593779731,34.44882,46.3582692,148.11499096015,194.47326016015,31.496064,14.1150914,79.829070796,81.092850364,23,5,8.006,194.47326016015,34.44882,14.1150914,79.829070796,3.579104,-13.645334,-6.039738,284.3, -12.5, 8.5,0,0,1553,1024,1684,1024,80,0,100,0,289,-9.6,0,80,4.006,4.007,0,0,0,0,6.254,72.86,194.47326016015,34.44882,6,P-GPS,
12000,2022-09-06 22:02:14,-34.89565111628,-55.0387657152343,35.761156,47.9658808,147.81971536015,195.78559616015,31.496064,14.2716772,81.805120728,83.068900296,23,5,8.006,195.78559616015,35.761156,14.2716772,81.805120728,3.35541,-13.869028,-6.487126,283.9, -12.2, 9.9,0,0,1548,1024,1684,1024,79,0,100,0,289,-9.6,0,80,4.006,4.007,0,0,0,0,6.254,72.86,195.78559616015,35.761156,6,P-GPS,
12100,2022-09-06 22:02:14,-34.8956496310414,-55.0387726235226,37.073492,49.6063008,147.49163136015,197.09793216015,31.496064,14.2716772,83.941275652,85.206039472,23,5,8.006,197.09793216015,37.073492,14.2716772,83.941275652,3.35541,-13.869028,-6.71082,284, -12.3, 12.2,0,0,1547,1024,1684,1024,79,0,100,0,289,-9.6,0,80,4.006,4.007,0,0,0,0,6.254,72.86,197.09793216015,37.073492,6,P-GPS,
12200,2022-09-06 22:02:14,-34.8956481870089,-55.0387792519691,38.057744,50.85302,147.22916416015,198.08218416015,31.496064,14.2716772,85.993112988,87.258204892,23,5,8.006,198.08218416015,38.057744,14.2716772,85.993112988,3.35541,-13.869028,-6.487126,284.2, -11.9, 9.3,0,0,1550,1024,1684,1024,80,0,100,0,289,-9.6,0,80,4.006,4.007,0,0,0,0,6.254,72.86,198.08218416015,38.057744,6,P-GPS,
12300,2022-09-06 22:02:14,-34.8956465977583,-55.0387864612399,39.37008,52.49344,146.90108016015,199.39452016015,31.496064,14.4953712,88.22670886,89.492456932,23,5,8.006,199.39452016015,39.37008,14.4953712,88.22670886,3.35541,-14.092722,-6.934514,283.7, -11.4, 10.7,0,0,1549,1024,1684,1024,80,0,100,0,289,-9.6,0,80,4.006,4.007,0,0,0,0,6.254,72.86,199.39452016015,39.37008,6,P-GPS,
12400,2022-09-06 22:02:14,-34.8956447802259,-55.0387935220667,40.682416,54.1666684,146.54018776015,200.70685616015,31.496064,14.54011,90.440619692,91.706695848,23,5,8.006,200.70685616015,40.682416,14.54011,90.440619692,3.579104,-14.092722,-6.934514,284.2, -11.5, 11.5,0,0,1549,1024,1684,1024,80,0,100,0,289,-9.6,0,80,4.006,4.007,0,0,0,0,6.254,72.86,200.70685616015,40.682416,6,P-GPS,
12500,2022-09-06 22:02:15,-34.8956432809761,-55.0388005885755,41.666668,55.446196,146.24491216015,201.69110816015,31.496064,14.54011,92.624018712,93.89107912,23,5,7.825,201.69110816015,41.666668,14.54011,92.624018712,3.579104,-14.092722,-6.71082,284.4, -11, 10.6,0,0,1549,1024,1684,1024,80,0,100,0,289,-9.6,0,80,3.955,3.928,0,0,0,0,6.835,72.86,201.69110816015,41.666668,6,P-GPS,
12600,2022-09-06 22:02:15,-34.8956418198971,-55.0388073347786,42.322836,56.3648312,145.98244496015,202.34727616015,31.496064,14.6072182,94.71128912,95.979005696,23,5,7.825,202.34727616015,42.322836,14.6072182,94.71128912,3.802798,-14.092722,-6.71082,284.1, -10.6, 9.1,0,0,1549,1024,1684,1024,80,0,100,0,289,-9.6,0,80,3.955,3.928,0,0,0,0,6.835,72.86,202.34727616015,42.322836,6,P-GPS,
12700,2022-09-06 22:02:15,-34.8956401886978,-55.0388144709137,43.307088,57.6771672,145.65436096015,203.33152816015,31.496064,14.8085428,96.928152708,98.195869284,23,5,7.825,203.33152816015,43.307088,14.8085428,96.928152708,3.802798,-14.316416,-6.71082,284.4, -10.6, 9.2,0,0,1548,1024,1684,1024,79,0,100,0,289,-9.6,0,80,3.955,3.928,0,0,0,0,6.835,72.86,203.33152816015,43.307088,6,P-GPS,
12800,2022-09-06 22:02:15,-34.8956385767923,-55.0388210079248,43.963256,58.6286108,145.35908536015,203.98769616015,31.496064,14.8085428,98.970475608,100.238520268,23,5,7.825,203.98769616015,43.963256,14.8085428,98.970475608,3.802798,-14.316416,-6.934514,284.2, -11.1, 7.2,0,0,1548,1024,1684,1024,79,0,100,0,289,-9.6,0,80,3.955,3.928,0,0,0,0,6.835,72.86,203.98769616015,43.963256,6,P-GPS,
12900,2022-09-06 22:02:15,-34.8956368352626,-55.0388281935064,44.947508,59.9409468,145.03100136015,204.97194816015,31.496064,14.8085428,101.212601664,102.480646324,23,5,7.825,204.97194816015,44.947508,14.8085428,101.212601664,3.802798,-14.316416,-6.71082,284.2, -11.8, 7.5,0,0,1548,1024,1684,1024,79,0,100,0,289,-9.6,0,80,3.955,3.928,0,0,0,0,6.835,72.86,204.97194816015,44.947508,6,P-GPS,
13000,2022-09-06 22:02:15,-34.8956351604405,-55.0388351011262,45.603676,60.8923904,144.73572576015,205.62811616015,31.496064,14.875651,103.368113544,104.636158204,23,5,7.825,205.62811616015,45.603676,14.875651,103.368113544,4.026492,-14.316416,-6.487126,284.5, -11.2, 8.2,0,0,1531,960,1684,1024,77,-10,100,0,289,-9.6,0,80,3.955,3.928,0,0,0,0,6.835,72.86,205.62811616015,45.603676,6,P-GPS,
13100,2022-09-06 22:02:15,-34.895633317576,-55.0388425580684,46.587928,62.2375348,144.37483336015,206.61236816015,31.496064,15.0769756,105.69882228,106.96686694,23,5,7.825,206.61236816015,46.587928,15.0769756,105.69882228,4.026492,-14.54011,-6.487126,284.5, -11.2, 5.8,0,0,1423,560,1684,1024,60,-70,100,0,289,-9.6,0,80,3.955,3.928,0,0,0,0,6.835,72.86,206.61236816015,46.587928,6,P-GPS,
13200,2022-09-06 22:02:15,-34.8956310480202,-55.0388498712667,47.57218,63.5170624,144.07955776015,207.59662016015,31.496064,15.3006696,108.03149952,109.306762028,23,5,7.825,207.59662016015,47.57218,15.3006696,108.03149952,4.026492,-14.763804,-6.263432,284.9, -9.8, 4.5,0,0,1398,431,1684,1024,57,-90,100,0,289,-9.6,0,80,3.955,3.928,0,0,0,0,6.835,72.86,207.59662016015,47.57218,6,P-GPS,
13300,2022-09-06 22:02:15,-34.8956291735769,-55.0388574691534,48.228348,64.5013144,143.75147376015,208.25278816015,31.496064,15.5243636,110.405515344,111.681105936,23,5,7.825,208.25278816015,48.228348,15.5243636,110.405515344,4.026492,-14.987498,-6.263432,285.5, -4.5, -2.3,0,0,1397,426,1684,1024,57,-91,100,0,289,-9.6,0,80,3.955,3.928,0,0,0,0,6.835,72.86,208.25278816015,48.228348,6,P-GPS,
13400,2022-09-06 22:02:15,-34.8956274962014,-55.0388647427444,49.2126,65.8136504,143.42338976015,209.23704016015,31.496064,15.4125166,112.666342188,113.94193278,23,5,7.825,209.23704016015,49.2126,15.5243636,112.666342188,3.579104,-14.987498,-6.487126,284.8, -0.5, -10.7,0,0,1397,426,1684,1024,57,-91,100,0,289,-9.6,0,80,3.955,3.928,0,0,0,0,6.835,72.86,209.23704016015,49.2126,6,P-GPS,
13500,2022-09-06 22:02:16,-34.8956261353238,-55.0388722076875,50.196852,67.1259864,143.09530576015,210.22129216015,31.496064,15.4572554,114.950134912,116.23031868,23,5,7.913,210.22129216015,50.196852,15.5243636,114.950134912,2.684328,-15.211192,-6.934514,284.7, 0, -12.4,0,0,1392,436,1684,1024,56,-89,100,0,289,-9.6,0,80,3.949,3.945,0,0,0,0,7.182,72.86,210.22129216015,50.196852,6,P-GPS,
13600,2022-09-06 22:02:16,-34.8956251709983,-55.0388793313303,50.85302,68.1102384,142.76722176015,210.87746016015,31.496064,15.323039,117.095476188,118.391079904,23,5,7.913,210.87746016015,50.85302,15.5243636,117.095476188,1.789552,-15.211192,-6.934514,284.9, -0.4, -11,0,0,1392,435,1684,1024,56,-89,100,0,289,-9.6,0,80,3.949,3.945,0,0,0,0,7.182,72.86,210.87746016015,50.85302,6,P-GPS,
13700,2022-09-06 22:02:16,-34.8956241961857,-55.0388870294888,51.837272,69.4553828,142.40632936015,211.86171216015,31.496064,15.323039,119.40781222,120.72178864,23,5,7.913,211.86171216015,51.837272,15.5243636,119.40781222,1.11847,-14.987498,-6.934514,285.2, -1, -9,0,0,1384,542,1684,1024,55,-73,100,0,289,-9.6,0,80,3.949,3.945,0,0,0,0,7.182,72.86,211.86171216015,51.837272,6,P-GPS,
13800,2022-09-06 22:02:16,-34.895623689453,-55.0388944145487,52.821524,70.702102,142.14386216015,212.84596416015,31.496064,14.987498,121.58464956,122.93963648,23,5,7.913,212.84596416015,52.821524,15.5243636,121.58464956,0.447388,-14.987498,-6.71082,285.1, -0.6, -8.7,0,0,1403,1003,1684,1024,57,-3,100,0,289,-9.6,0,80,3.949,3.945,0,0,0,0,7.182,72.86,212.84596416015,52.821524,6,P-GPS,
13900,2022-09-06 22:02:16,-34.8956235062791,-55.0389021074847,53.805776,71.9816296,141.84858656015,213.83021616015,31.496064,14.987498,123.819557768,125.24278616,23,5,7.913,213.83021616015,53.805776,15.5243636,123.819557768,0,-14.987498,-6.263432,285.3, -1.3, -1.3,0,0,1396,1024,1684,1024,56,0,100,0,289,-9.6,0,80,3.949,3.945,0,0,0,0,7.182,72.86,213.83021616015,53.805776,6,P-GPS,
14000,2022-09-06 22:02:16,-34.895623491786,-55.0389093822037,54.461944,72.8674564,141.61892776015,214.48638416015,31.496064,14.763804,125.920607704,127.4196235,23,5,7.913,214.48638416015,54.461944,15.5243636,125.920607704,0,-14.763804,-6.039738,285.8, -1.4, 7.9,0,0,1381,1024,1684,1024,54,0,100,0,289,-9.6,0,80,3.949,3.945,0,0,0,0,7.182,72.86,214.48638416015,54.461944,6,P-GPS,
14100,2022-09-06 22:02:16,-34.8956238064469,-55.0389168204494,55.446196,74.146984,141.32365216015,215.47063616015,31.496064,14.54011,128.040030344,129.648298112,23,5,7.913,215.47063616015,55.446196,15.5243636,128.040030344,0,-14.54011,-6.039738,285.6, -1.7, 10,0,0,1215,1024,1643,1024,29,0,94,0,289,-9.6,0,80,3.949,3.945,0,0,0,0,7.182,72.86,215.47063616015,55.446196,6,P-GPS,
14200,2022-09-06 22:02:16,-34.89562386653,-55.0389238213011,56.430448,75.3937032,141.06118496015,216.45488816015,31.496064,14.316416,130.060043532,131.743442536,23,5,7.913,216.45488816015,56.430448,15.5243636,130.060043532,0.223694,-14.316416,-6.263432,285.5, -1.7, 9.4,0,0,1215,1024,1643,1024,29,0,94,0,289,-9.6,0,80,3.949,3.945,0,0,0,0,7.182,72.86,216.45488816015,56.430448,6,P-GPS,
14300,2022-09-06 22:02:16,-34.8956238431846,-55.0389308723305,57.086616,76.27953,140.83152616015,217.11105616015,31.496064,14.092722,132.10466302,133.853678824,23,5,7.913,217.11105616015,57.086616,15.5243636,132.10466302,0.223694,-14.092722,-6.487126,285.6, 0.3, 8.3,0,0,1024,1024,1271,1024,0,0,37,0,289,-9.6,0,80,3.949,3.945,0,0,0,0,7.182,72.86,217.11105616015,57.086616,6,P-GPS,
14400,2022-09-06 22:02:16,-34.8956238052419,-55.0389374431415,58.070868,77.4934408,140.60186736015,218.09530816015,31.496064,13.645334,134.013127648,135.819886236,23,5,7.913,218.09530816015,58.070868,15.5243636,134.013127648,0.447388,-13.645334,-6.039738,287.2, 14.1, 10.1,0,0,1024,1024,1024,1024,0,0,0,0,289,-9.6,0,80,3.949,3.945,0,0,0,0,7.182,72.86,218.09530816015,58.070868,6,P-GPS,
14500,2022-09-06 22:02:16,-34.8956236426776,-55.0389433074542,59.05512,78.6745432,140.40501696015,219.07956016015,31.496064,12.974252,135.729335052,137.575791804,23,5,7.922,219.07956016015,59.05512,15.5243636,135.729335052,0.223694,-12.974252,-5.368656,286.7, 18.6, 6.4,0,0,1024,1024,1024,1024,0,0,0,0,289,-9.6,0,80,3.936,3.937,0,0,0,0,6.499,73.04,219.07956016015,59.05512,6,P-GPS,
14600,2022-09-06 22:02:17,-34.8956235947427,-55.038949151044,59.711288,79.56037,140.17535816015,219.73572816015,31.496064,11.855782,137.430450592,139.324479524,23,5,7.922,219.73572816015,59.711288,15.5243636,137.430450592,0,-11.855782,-4.921268,286.2, 18, 6.8,0,0,1024,1024,1024,1024,0,0,0,0,289,-9.6,0,80,3.936,3.937,0,0,0,0,6.499,73.04,219.73572816015,59.711288,6,P-GPS,
14700,2022-09-06 22:02:17,-34.8956234902943,-55.0389548456466,60.367456,80.4133884,139.97850776015,220.39189616015,31.496064,11.1847,139.09449264,141.029203988,23,5,7.922,220.39189616015,60.367456,15.5243636,139.09449264,0,-11.1847,-4.026492,286.5, 18.6, 7.4,0,0,1024,1024,1024,1024,0,0,0,0,289,-9.6,0,80,3.936,3.937,0,0,0,0,6.499,73.04,220.39189616015,60.367456,6,P-GPS,
14800,2022-09-06 22:02:17,-34.8956234533808,-55.0389599445094,60.69554,80.9055144,139.81446576015,220.71998016015,31.496064,10.513618,140.580056992,142.555122672,23,5,7.922,220.71998016015,60.69554,15.5243636,140.580056992,-0.223694,-10.513618,-3.35541,286.4, 18.1, 7.3,0,0,1024,1024,1024,1024,0,0,0,0,289,-9.6,0,80,3.936,3.937,0,0,0,0,6.499,73.04,220.71998016015,60.69554,6,P-GPS,
14900,2022-09-06 22:02:17,-34.8956226412627,-55.0389643322362,61.351708,81.692916,139.68323216015,221.37614816015,31.496064,9.842536,141.926185644,143.90092324,23,5,7.922,221.37614816015,61.351708,15.5243636,141.926185644,-0.447388,-9.842536,-2.460634,286.5, 17.7, 7.5,0,0,1024,1024,1024,1024,0,0,0,0,289,-9.6,0,80,3.936,3.937,0,0,0,0,6.499,73.04,221.37614816015,61.351708,6,P-GPS,
15000,2022-09-06 22:02:17,-34.8956226756098,-55.038968797047,61.679792,82.2178504,139.48638176015,221.70423216015,31.496064,9.171454,143.222117444,145.237209372,23,5,7.922,221.70423216015,61.679792,15.5243636,143.222117444,-0.447388,-9.171454,-1.565858,286.6, 18.5, 7.1,0,0,1024,1024,1024,1024,0,0,0,0,289,-9.6,0,80,3.936,3.937,0,0,0,0,6.499,73.04,221.70423216015,61.679792,6,P-GPS,
15100,2022-09-06 22:02:17,-34.8956228008111,-55.0389730942785,61.679792,82.349084,139.35514816015,221.70423216015,31.496064,8.5227414,144.462603048,146.52395482,23,5,7.922,221.70423216015,61.679792,15.5243636,144.462603048,-0.671082,-8.500372,-1.11847,286.7, 17.8, 7.2,0,0,1024,1024,1024,1024,0,0,0,0,289,-9.6,0,80,3.936,3.937,0,0,0,0,6.499,73.04,221.70423216015,61.679792,6,P-GPS,
15200,2022-09-06 22:02:17,-34.8956229944071,-55.0389768456972,62.007876,82.8084016,139.22391456015,222.03231616015,31.496064,7.8740288,145.539046652,147.648626772,23,5,7.922,222.03231616015,62.007876,15.5243636,145.539046652,-0.894776,-7.82929,-0.671082,286.9, 17.4, 7.9,0,0,1024,1024,1024,1024,0,0,0,0,289,-9.6,0,80,3.936,3.937,0,0,0,0,6.499,73.04,222.03231616015,62.007876,6,P-GPS,
15300,2022-09-06 22:02:17,-34.8956232249947,-55.038980239062,62.007876,82.9396352,139.09268096015,222.03231616015,31.496064,7.2029468,146.508862956,148.667655676,23,5,7.922,222.03231616015,62.007876,15.5243636,146.508862956,-0.894776,-7.158208,-0.447388,287, 17, 8.8,0,0,1024,1024,1024,1024,0,0,0,0,289,-9.6,0,80,3.936,3.937,0,0,0,0,6.499,73.04,222.03231616015,62.007876,6,P-GPS,
15400,2022-09-06 22:02:17,-34.895622965538,-55.0389823474019,62.007876,83.005252,139.02706416015,222.03231616015,31.496064,6.5542342,147.144689748,149.305779056,23,5,7.922,222.03231616015,62.007876,15.5243636,147.144689748,-0.894776,-6.487126,-0.223694,287, 16.1, 9.2,0,0,1024,1024,1024,1024,0,0,0,0,289,-9.6,0,80,3.936,3.937,0,0,0,0,6.499,73.04,222.03231616015,62.007876,6,P-GPS,
15500,2022-09-06 22:02:18,-34.8956232791894,-55.0389852129611,62.33596,83.4317612,138.92863896015,222.36040016015,31.496064,5.927891,147.95440106,150.170936564,23,5,7.922,222.36040016015,62.33596,15.5243636,147.95440106,-1.11847,-5.816044,0,287.6, 16.4, 10.8,0,0,1024,1024,1024,1024,0,0,0,0,289,-9.6,0,80,3.936,3.937,0,0,0,0,6.499,73.04,222.36040016015,62.33596,6,P-GPS,
15600,2022-09-06 22:02:18,-34.8956236049237,-55.0389876213226,62.33596,83.5629948,138.79740536015,222.36040016015,31.496064,5.0107456,148.630582184,150.901251548,23,5,8.023,222.36040016015,62.33596,15.5243636,148.630582184,-0.894776,-4.921268,0,287.8, 16.9, 11.4,0,0,1024,1024,1024,1024,0,0,0,0,289,-9.6,0,80,4.023,4.015,0,0,0,0,5.159,73.04,222.36040016015,62.33596,6,P-GPS,
15700,2022-09-06 22:02:18,-34.8956239356021,-55.0389897426143,62.007876,83.3005276,138.73178856015,222.03231616015,31.496064,4.1830778,149.223101888,151.547248944,23,5,8.023,222.36040016015,62.33596,15.5243636,149.223101888,-1.11847,-4.026492,0,287.7, 16.2, 12.7,0,0,1024,1024,1024,1024,0,0,0,0,289,-9.6,0,80,4.023,4.015,0,0,0,0,5.159,73.04,222.03231616015,62.007876,6,P-GPS,
15800,2022-09-06 22:02:18,-34.8956237995879,-55.0389912788618,62.007876,83.333336,138.69898016015,222.03231616015,31.496064,3.467257,149.682419488,152.009847384,23,5,8.023,222.36040016015,62.33596,15.5243636,149.682419488,-0.894776,-3.35541,0,287.2, 14.1, 13.9,0,0,1024,1024,1024,1024,0,0,0,0,289,-9.6,0,80,4.023,4.015,0,0,0,0,5.159,73.04,222.03231616015,62.007876,6,P-GPS,
15900,2022-09-06 22:02:18,-34.8956240037297,-55.0389927624666,62.007876,83.3989528,138.63336336015,222.03231616015,31.496064,2.7738056,150.099086168,152.459978632,23,5,8.023,222.36040016015,62.33596,15.5243636,150.099086168,-0.671082,-2.684328,0,287.5, 13.1, 14.6,0,0,1024,1024,1024,1024,0,0,0,0,289,-9.6,0,80,4.023,4.015,0,0,0,0,5.159,73.04,222.03231616015,62.007876,6,P-GPS,
16000,2022-09-06 22:02:18,-34.8956241299601,-55.0389938772801,62.007876,83.4317612,138.60055496015,222.03231616015,31.496064,2.0579848,150.414702976,152.796592816,23,5,8.023,222.36040016015,62.33596,15.5243636,150.414702976,-0.447388,-2.013246,0,287.5, 13.3, 14.8,0,0,1024,1024,1024,1024,0,0,0,0,289,-9.6,0,80,4.023,4.015,0,0,0,0,5.159,73.04,222.03231616015,62.007876,6,P-GPS,
