time(millisecond),datetime(utc),latitude,longitude,height_above_takeoff(feet),height_above_ground_at_drone_location(feet),ground_elevation_at_drone_location(feet),altitude_above_seaLevel(feet),height_sonar(feet),speed(mph),distance(feet),mileage(feet),satellites,gpslevel,voltage(v),max_altitude(feet),max_ascent(feet),max_speed(mph),max_distance(feet), xSpeed(mph), ySpeed(mph), zSpeed(mph), compass_heading(degrees), pitch(degrees), roll(degrees),isPhoto,isVideo,rc_elevator,rc_aileron,rc_throttle,rc_rudder,rc_elevator(percent),rc_aileron(percent),rc_throttle(percent),rc_rudder(percent),gimbal_heading(degrees),gimbal_pitch(degrees),gimbal_roll(degrees),battery_percent,voltageCell1,voltageCell2,voltageCell3,voltageCell4,voltageCell5,voltageCell6,current(A),battery_temperature(f),altitude(feet),ascent(feet),flycStateRaw,flycState,message
0,2022-11-02 20:51:59,-34.9087191950685,-56.1335396240729,0,0,32.794407873568,32.794407873568,0.328084,0,0,0,15,4,0,32.794407873568,0,0,0,0,0,0,79.3, -9.9, -2.5,0,0,364,364,364,1684,-100,-100,-100,100,89.2,0,0,95,4.259,4.26,0,0,0,0,0,72.86,32.794407873568,0,41,Motors_Started,"Setting new Return-To-Home altitude to 100m (328 ft). Data Recorder File Index is 69. Setting new Maximum Flight Altitude to 120m (394 ft) Aeronave en Zona de altitud restringida (150). Vuela con precauci贸n (Code: 190001). Error de calibraci贸n del estabilizador. Reinicia la aeronave o contacta con la Asistencia DJI (Code: 40011)"
100,2022-11-02 20:51:59,-34.9087193414766,-56.1335396339329,0,0,32.794407873568,32.794407873568,0.328084,0,0.053498361292,0.053498361292,15,4,0,32.794407873568,0,0,0.053498361292,0,0,0,79.2, -9.8, -2,0,0,364,364,364,1684,-100,-100,-100,100,89.2,0,0,95,4.259,4.26,0,0,0,0,0,72.86,32.794407873568,0,41,Motors_Started,
200,2022-11-02 20:51:59,-34.9087193925887,-56.1335396559474,0,0,32.794407873568,32.794407873568,0.328084,0,0.072693243796,0.073275592896,15,4,0,32.794407873568,0,0,0.072693243796,0,0,0,79.1, -10.5, -1.9,0,0,364,364,364,1684,-100,-100,-100,100,89.3,0,0,95,4.259,4.26,0,0,0,0,0,72.86,32.794407873568,0,41,Motors_Started,
300,2022-11-02 20:52:00,-34.9087194276923,-56.1335396539077,0,0,32.794407873568,32.794407873568,0.328084,0,0.085340881996,0.086097771784,15,4,0,32.794407873568,0,0,0.085340881996,0,0,0,79.3, -10.3, -0.4,0,0,364,364,364,1684,-100,-100,-100,100,89.3,0,0,95,4.259,4.26,0,0,0,0,0,72.86,32.794407873568,0,41,Motors_Started,
400,2022-11-02 20:52:00,-34.9087194814552,-56.1335396720919,0,0,32.794407873568,32.794407873568,0.328084,0,0.105471131984,0.10645341548,15,4,0,32.794407873568,0,0,0.105471131984,0,0,0,78.9, -9.8, 0.5,0,0,364,364,364,1684,-100,-100,-100,100,89.5,0,0,95,4.259,4.26,0,0,0,0,0,72.86,32.794407873568,0,41,Motors_Started,
500,2022-11-02 20:52:00,-34.9087195866946,-56.1335396380392,0,-0.032808399999999,32.827216273568,32.794407873568,0.328084,0,0.142945542632,0.146178810452,15,4,0,32.794407873568,0,0,0.142945542632,0,0,0,79, -9.2, 1.8,0,0,364,364,364,1684,-100,-100,-100,100,89.5,0,0,95,4.259,4.26,0,0,0,0,0,72.86,32.794407873568,0,41,Motors_Started,
600,2022-11-02 20:52:00,-34.9087196458257,-56.1335396682507,0,-0.032808399999999,32.827216273568,32.794407873568,0.328084,0,0.164988850424,0.169569887316,15,4,0,32.794407873568,0,0,0.164988850424,0,0,0,78.7, -9, 2,0,0,364,364,364,1684,-100,-100,-100,100,89.5,0,0,95,4.259,4.26,0,0,0,0,0,72.86,32.794407873568,0,41,Motors_Started,
700,2022-11-02 20:52:00,-34.9087196726591,-56.133539674964,-0.328084,-0.3608924,32.827216273568,32.466323873568,0.328084,0,0.174912735256,0.179563982124,15,4,0,32.794407873568,0,0,0.174912735256,0,0,0,78.5, -9.5, 1.7,0,0,364,364,364,1684,-100,-100,-100,100,89.4,0,0,95,4.259,4.26,0,0,0,0,0,72.86,32.466323873568,-0.328084,41,Motors_Started,
800,2022-11-02 20:52:00,-34.9087196837854,-56.1335397081751,-0.328084,-0.3608924,32.827216273568,32.466323873568,0.328084,0,0.180074808912,0.190297906352,15,4,0,32.794407873568,0,0,0.180074808912,0,0,0,78.4, -10.1, 1.9,0,0,1024,1024,532,1490,0,0,-75,71,89.3,0,0,95,4.259,4.26,0,0,0,0,0,72.86,32.466323873568,-0.328084,41,Motors_Started,
900,2022-11-02 20:52:00,-34.9087195544064,-56.1335398510036,-0.328084,-0.3608924,32.827216273568,32.466323873568,0.328084,0,0.14764272126,0.253972449072,15,4,0,32.794407873568,0,0,0.180074808912,0,0,0,78.4, -10, 2.2,0,0,1024,1024,532,1490,0,0,-75,71,89.2,0,0,95,4.259,4.26,0,0,0,0,0,72.86,32.466323873568,-0.328084,41,Motors_Started,
1000,2022-11-02 20:52:00,-34.9087195594355,-56.1335399042342,-0.328084,-0.3608924,32.827216273568,32.466323873568,0.328084,0,0.157160110016,0.270004273732,15,4,0,32.794407873568,0,0,0.180074808912,0,0,0,78.3, -10.3, 2.8,0,0,1024,1024,1024,1024,0,0,0,0,89.2,0,0,95,4.259,4.26,0,0,0,0,0,72.86,32.466323873568,-0.328084,41,Motors_Started,
1100,2022-11-02 20:52:00,-34.9087195787155,-56.133539889711,-0.328084,-0.3608924,32.827216273568,32.466323873568,0.328084,0,0.160964243996,0.2782726467,15,4,0,32.794407873568,0,0,0.180074808912,0,0,0,77.9, -12, 2.5,0,0,1024,1024,1684,1024,0,0,100,0,89.1,0,0,95,4.259,4.26,0,0,0,0,0,72.86,32.466323873568,-0.328084,10,Assisted_Takeoff,
1200,2022-11-02 20:52:00,-34.9087195806701,-56.1335398639856,-0.328084,-0.3608924,32.827216273568,32.466323873568,0.328084,0,0.157940949936,0.286002633824,16,4,0,32.794407873568,0,0,0.180074808912,0,0,0,77.1, -12.9, 2.2,0,0,1024,1024,1684,1024,0,0,100,0,88.6,0,0,95,4.259,4.26,0,0,0,0,0,72.86,32.466323873568,-0.328084,10,Assisted_Takeoff,
1300,2022-11-02 20:52:01,-34.908719546914,-56.1335398572971,-0.328084,-0.3608924,32.827216273568,32.466323873568,0.328084,0,0.146110897064,0.298479996428,16,4,0,32.794407873568,0,0,0.180074808912,0,0,0,76, -10.5, 2.3,0,0,1024,1024,1684,1024,0,0,100,0,87.4,0,0,95,4.259,4.26,0,0,0,0,0,72.86,32.466323873568,-0.328084,10,Assisted_Takeoff,
1400,2022-11-02 20:52:01,-34.9087195357722,-56.1335398632596,-0.328084,-0.3608924,32.827216273568,32.466323873568,0.328084,0,0.143434059708,0.302919301032,16,4,0,32.794407873568,0,0,0.180074808912,0,0,0,76, -8.1, 2.9,0,0,1024,1024,1684,1024,0,0,100,0,86.9,0,0,95,4.259,4.26,0,0,0,0,0,72.86,32.466323873568,-0.328084,10,Assisted_Takeoff,
1500,2022-11-02 20:52:01,-34.9087194951773,-56.133539791015,-0.328084,-0.328084,32.794407873568,32.466323873568,0.328084,0,0.1203494133,0.32912074544,16,4,0,32.794407873568,0,0,0.180074808912,0,0,0,74.9, -7.6, 2.5,0,0,1024,1024,1684,1024,0,0,100,0,86.5,0,0,95,4.259,4.26,0,0,0,0,0,72.86,32.466323873568,-0.328084,10,Assisted_Takeoff,
1600,2022-11-02 20:52:01,-34.9087194189886,-56.1335396961317,-0.328084,-0.328084,32.794407873568,32.466323873568,0.328084,0,0.084494097192,0.36885499868,16,4,0,32.794407873568,0,0,0.180074808912,0,0,0,70.3, -8.3, 1.4,0,0,1024,1024,1684,1024,0,0,100,0,82.9,0,0,95,4.259,4.26,0,0,0,0,0,72.86,32.466323873568,-0.328084,10,Assisted_Takeoff,
1700,2022-11-02 20:52:01,-34.9087193212287,-56.1335395967929,-0.328084,-0.328084,32.794407873568,32.466323873568,0.328084,0.223694,0.046747376824,0.41528216552,16,4,8.517,32.794407873568,0,0.223694,0.180074808912,0.223694,0,0,64.1, -8.2, -0.7,0,0,1024,1024,1684,1024,0,0,100,0,76.5,0,0,95,4.259,4.26,0,0,0,0,1.484,72.86,32.466323873568,-0.328084,10,Assisted_Takeoff,"Error de calibraci贸n del estabilizador. Reinicia la aeronave o contacta con la Asistencia DJI (Code: 40011)"
1800,2022-11-02 20:52:01,-34.9087191422811,-56.1335394133623,-0.328084,-0.2952756,32.761599473568,32.466323873568,0.328084,0.223694,0.065920933868,0.500574163,16,4,8.517,32.794407873568,0,0.223694,0.180074808912,0.223694,0,-0.223694,64.7, -3.2, -1.6,0,0,1024,1024,1684,1024,0,0,100,0,74.3,0,0,95,4.259,4.26,0,0,0,0,1.484,72.86,32.466323873568,-0.328084,6,P-GPS,
1900,2022-11-02 20:52:01,-34.9087189381393,-56.1335393627101,-0.328084,-0.2952756,32.761599473568,32.466323873568,0.656168,0.447388,0.122075791308,0.57658138328,16,4,8.517,32.794407873568,0,0.447388,0.180074808912,0.447388,0,-0.671082,64.4, 0.7, 1,0,0,1024,1024,1684,1024,0,0,100,0,74.2,0,0,95,4.259,4.26,0,0,0,0,1.484,72.86,32.466323873568,-0.328084,6,P-GPS,
2000,2022-11-02 20:52:01,-34.9087187164029,-56.133539263622,0,0.032808399999999,32.761599473568,32.794407873568,0.984252,0.447388,0.205256896332,0.66274280336,16,4,8.517,32.794407873568,0,0.447388,0.205256896332,0.447388,0,-1.11847,63.8, 1.7, 1.7,0,0,1024,1024,1582,1024,0,0,85,0,74.2,0,0,95,4.259,4.26,0,0,0,0,1.484,72.86,32.794407873568,0,6,P-GPS,"Error de calibraci贸n del estabilizador. Reinicia la aeronave o contacta con la Asistencia DJI (Code: 40011)"
2100,2022-11-02 20:52:01,-34.9087184785825,-56.1335391136281,0,0.032808399999999,32.761599473568,32.794407873568,1.312336,0.447388,0.302753946696,0.76042981436,16,4,8.517,32.794407873568,0,0.447388,0.302753946696,0.447388,0,-1.789552,63.8, 2, 2.3,0,0,1024,1024,1024,1024,0,0,0,0,74.2,0,0,95,4.259,4.26,0,0,0,0,1.484,72.86,32.794407873568,0,6,P-GPS,
2200,2022-11-02 20:52:02,-34.9087182438229,-56.1335389867446,0,0.032808399999999,32.761599473568,32.794407873568,1.64042,0.223694,0.395997388,0.85412076224,16,4,8.517,32.794407873568,0,0.447388,0.395997388,0.223694,0,-2.23694,63.8, 2.5, 2.5,0,0,1024,1024,1024,1024,0,0,0,0,74.2,0,0,95,4.259,4.26,0,0,0,0,1.484,72.86,32.794407873568,0,6,P-GPS,
2300,2022-11-02 20:52:02,-34.9087180422284,-56.1335388633782,0.328084,0.3608924,32.761599473568,33.122491873568,1.968504,0.223694,0.47824476596,0.93641407196,16,4,8.517,33.122491873568,0.328084,0.447388,0.47824476596,0.223694,0,-2.013246,63.8, 3, 2.8,0,0,1024,1024,1024,1024,0,0,0,0,74.2,0,0,95,4.259,4.26,0,0,0,0,1.484,72.86,33.122491873568,0.328084,6,P-GPS,
2400,2022-11-02 20:52:02,-34.9087178371053,-56.1335387146145,0.656168,0.6889764,32.761599473568,33.450575873568,2.296588,0.223694,0.56525920444,1.02348756556,16,4,8.517,33.450575873568,0.656168,0.447388,0.56525920444,0.223694,0,-1.789552,63.8, 3.1, 2.4,0,0,1024,1024,1024,1024,0,0,0,0,74.2,0,0,95,4.259,4.26,0,0,0,0,1.484,72.86,33.450575873568,0.656168,6,P-GPS,
2500,2022-11-02 20:52:02,-34.9087175968076,-56.1335385150055,0.984252,1.0170604,32.761599473568,33.778659873568,2.624672,0.223694,0.67093178,1.12957024612,16,4,8.517,33.778659873568,0.984252,0.447388,0.67093178,0.223694,0,-1.342164,63.7, 3, 1.9,0,0,1024,1024,1024,1024,0,0,0,0,74.2,0,0,95,4.259,4.26,0,0,0,0,1.484,72.86,33.778659873568,0.984252,6,P-GPS,
2600,2022-11-02 20:52:02,-34.9087171856012,-56.1335381486923,0.984252,1.0826772,32.695982673568,33.778659873568,2.624672,0.223694,0.8557907098,1.31536749616,16,4,8.517,33.778659873568,0.984252,0.447388,0.8557907098,0.223694,0,-0.671082,63.8, 2.3, 1.4,0,0,1024,1024,1024,1024,0,0,0,0,74.2,0,0,95,4.259,4.26,0,0,0,0,1.484,72.86,33.778659873568,0.984252,6,P-GPS,
2700,2022-11-02 20:52:02,-34.9087170823597,-56.1335380278588,0.984252,1.0826772,32.695982673568,33.778659873568,2.952756,0.3131716,0.90678152508,1.36757878392,16,4,8.297,33.778659873568,0.984252,0.447388,0.90678152508,0.223694,0.223694,-0.223694,63.8, 2, 1.3,0,0,1024,1024,1024,1024,0,0,0,0,74.2,0,0,95,4.172,4.173,0,0,0,0,4.172,73.04,33.778659873568,0.984252,6,P-GPS,
2800,2022-11-02 20:52:02,-34.9087169846752,-56.1335379062399,1.312336,1.4107612,32.695982673568,34.106743873568,2.952756,0.3131716,0.95632220908,1.41851382492,16,4,8.297,34.106743873568,1.312336,0.447388,0.95632220908,0.223694,0.223694,0,63.7, 2, 1.5,0,0,1024,1024,1024,1024,0,0,0,0,74.2,0,0,95,4.172,4.173,0,0,0,0,4.172,73.04,34.106743873568,1.312336,6,P-GPS,
2900,2022-11-02 20:52:02,-34.9087168806881,-56.1335377646182,1.312336,1.4107612,32.695982673568,34.106743873568,2.952756,0.3131716,1.0112041006,1.47539046716,16,4,8.297,34.106743873568,1.312336,0.447388,1.0112041006,0.223694,0.223694,0,63.7, 2, 1.6,0,0,1024,1024,1024,1024,0,0,0,0,74.2,0,0,95,4.172,4.173,0,0,0,0,4.172,73.04,34.106743873568,1.312336,6,P-GPS,
3000,2022-11-02 20:52:02,-34.9087168696753,-56.1335376933799,0.984252,1.0826772,32.695982673568,33.778659873568,2.952756,0.3131716,1.02640751316,1.4970801004,16,4,8.297,34.106743873568,1.312336,0.447388,1.02640751316,0.223694,0.223694,0,63.5, 2, 1.5,0,0,1024,1024,1024,1024,0,0,0,0,74.2,0,0,95,4.172,4.173,0,0,0,0,4.172,73.04,33.778659873568,0.984252,6,P-GPS,
3100,2022-11-02 20:52:02,-34.9087167763644,-56.1335376929419,0.984252,1.0826772,32.695982673568,33.778659873568,2.952756,0.223694,1.05479334084,1.53112209624,16,4,8.297,34.106743873568,1.312336,0.447388,1.05479334084,0.223694,0,0,63.4, 2.8, 1.7,0,0,1096,1024,1024,1024,11,0,0,0,74.2,0,0,95,4.172,4.173,0,0,0,0,4.172,73.04,33.778659873568,0.984252,6,P-GPS,
3200,2022-11-02 20:52:02,-34.9087167146042,-56.1335376857789,0.984252,1.0826772,32.695982673568,33.778659873568,2.952756,0.223694,1.0748688008,1.55375989224,16,4,8.297,34.106743873568,1.312336,0.447388,1.0748688008,0,0,0,63.1, 2.5, 1.7,0,0,1185,1024,1024,1024,24,0,0,0,74.2,0,0,95,4.172,4.173,0,0,0,0,4.172,73.04,33.778659873568,0.984252,6,P-GPS,
3300,2022-11-02 20:52:03,-34.9087166854054,-56.1335376487372,0.984252,1.0826772,32.695982673568,33.778659873568,2.952756,0,1.08982615036,1.56913062764,16,4,8.297,34.106743873568,1.312336,0.447388,1.08982615036,0,0,0,62.9, 1.3, 1.8,0,0,1078,1024,1024,1024,8,0,0,0,74.2,0,0,95,4.172,4.173,0,0,0,0,4.172,73.04,33.778659873568,0.984252,6,P-GPS,
3400,2022-11-02 20:52:03,-34.908716663054,-56.1335376142649,0.984252,1.0826772,32.695982673568,33.778659873568,2.952756,0,1.10227693816,1.58228023436,16,4,8.297,34.106743873568,1.312336,0.447388,1.10227693816,0,0,0,62.6, 0.1, 1.7,0,0,1024,1024,1159,1024,0,0,20,0,74.2,0,0,95,4.172,4.173,0,0,0,0,4.172,73.04,33.778659873568,0.984252,6,P-GPS,
3500,2022-11-02 20:52:03,-34.9087167032324,-56.1335374865833,0.984252,1.148294,32.630365873568,33.778659873568,2.952756,0,1.11155515368,1.62319887084,16,4,8.297,34.106743873568,1.312336,0.447388,1.11155515368,0,0,0,62.4, 1.8, 1.6,0,0,1024,1024,1684,1024,0,0,100,0,74.2,0,0,95,4.172,4.173,0,0,0,0,4.172,73.04,33.778659873568,0.984252,6,P-GPS,
3600,2022-11-02 20:52:03,-34.9087166492452,-56.1335374469922,0.984252,1.148294,32.630365873568,33.778659873568,2.952756,0,1.1344816636,1.64618115504,16,4,8.297,34.106743873568,1.312336,0.447388,1.1344816636,0,0,0,62.1, 1.7, 1,0,0,1024,1024,1684,1024,0,0,100,0,74.2,0,0,95,4.172,4.173,0,0,0,0,4.172,73.04,33.778659873568,0.984252,6,P-GPS,
3700,2022-11-02 20:52:03,-34.9087165431331,-56.1335374361478,0.984252,1.148294,32.630365873568,33.778659873568,2.952756,0,1.16820541796,1.68503286232,16,4,8.367,34.106743873568,1.312336,0.447388,1.16820541796,0,0,-0.447388,62, 1.3, 1,0,0,1040,1024,1684,1024,2,0,100,0,74.2,0,0,95,4.178,4.176,0,0,0,0,3.662,73.04,33.778659873568,0.984252,6,P-GPS,
3800,2022-11-02 20:52:03,-34.9087164567232,-56.1335374477362,1.312336,1.476378,32.630365873568,34.106743873568,3.28084,0,1.1925525316,1.7167487426,16,4,8.367,34.106743873568,1.312336,0.447388,1.1925525316,0,0,-1.11847,61.9, 1.4, 1.3,0,0,1040,1024,1684,1024,2,0,100,0,74.2,0,0,95,4.178,4.176,0,0,0,0,3.662,73.04,34.106743873568,1.312336,6,P-GPS,
3900,2022-11-02 20:52:03,-34.908716280093,-56.1335375363856,1.64042,1.7716536,32.663174273568,34.434827873568,3.28084,0,1.23339242792,1.78643706504,16,4,8.367,34.434827873568,1.64042,0.447388,1.23339242792,0,0,-2.013246,61.6, 1.3, 1.4,0,0,1684,960,1684,1024,100,-10,100,0,74.2,0,0,95,4.178,4.176,0,0,0,0,3.662,73.04,34.434827873568,1.64042,6,P-GPS,
4000,2022-11-02 20:52:03,-34.908716219759,-56.1335375355223,1.968504,2.0997376,32.663174273568,34.762911873568,3.937008,0,1.25255253352,1.80845150144,16,4,8.367,34.762911873568,1.968504,0.447388,1.25255253352,0,0,-2.684328,61.4, -6.8, 1,0,0,1684,913,1684,1024,100,-17,100,0,74.2,0,0,95,4.178,4.176,0,0,0,0,3.662,73.04,34.762911873568,1.968504,6,P-GPS,
4100,2022-11-02 20:52:03,-34.9087160693565,-56.1335373708873,2.296588,2.46063,32.630365873568,35.090995873568,4.265092,0.6263432,1.32477366444,1.88219166128,16,4,8.367,35.090995873568,2.296588,0.6263432,1.32477366444,0.447388,0.447388,-3.579104,61.2, -13.3, -0.3,0,0,1684,959,1684,1024,100,-10,100,0,74.2,0,0,95,4.178,4.176,0,0,0,0,3.662,73.04,35.090995873568,2.296588,6,P-GPS,
4200,2022-11-02 20:52:03,-34.9087157698476,-56.1335369452291,2.952756,3.116798,32.630365873568,35.747163873568,4.593176,1.4316416,1.48463587428,2.05000662728,16,4,8.367,35.747163873568,2.952756,1.4316416,1.48463587428,0.894776,1.11847,-4.47388,61.1, -13.6, -0.1,0,0,1684,1009,1684,1024,100,-2,100,0,74.2,0,0,95,4.178,4.176,0,0,0,0,3.662,73.04,35.747163873568,2.952756,6,P-GPS,
4300,2022-11-02 20:52:04,-34.9087151162661,-56.1335360190334,3.937008,4.1666668,32.564749073568,36.731415873568,5.249344,2.23694,1.83793969136,2.41559719016,16,4,8.367,36.731415873568,3.937008,2.23694,1.83793969136,1.342164,1.789552,-5.144962,61.1, -12.2, 0.7,0,0,1684,990,1684,1024,100,-5,100,0,74.2,0,0,95,4.178,4.176,0,0,0,0,3.662,73.04,36.731415873568,3.937008,6,P-GPS,
4400,2022-11-02 20:52:04,-34.908714537123,-56.1335350075095,4.593176,4.8556432,32.531940673568,37.387583873568,6.233596,2.908022,2.18999022756,2.78470809436,16,4,8.367,37.387583873568,4.593176,2.908022,2.18999022756,1.565858,2.460634,-5.816044,61, -11.4, 1.2,0,0,1684,973,1684,1024,100,-8,100,0,74.2,0,0,95,4.178,4.176,0,0,0,0,3.662,73.04,37.387583873568,4.593176,6,P-GPS,
4500,2022-11-02 20:52:04,-34.9087138134169,-56.1335336022439,5.577428,5.905512,32.466323873568,38.371835873568,7.217848,3.5343652,2.66487213252,3.2812008924,16,4,8.367,38.371835873568,5.577428,3.5343652,2.66487213252,2.013246,2.908022,-6.263432,60.9, -11.4, 1,0,0,1684,973,1684,1024,100,-8,100,0,74.2,0,0,95,4.178,4.176,0,0,0,0,3.662,73.04,38.371835873568,5.577428,6,P-GPS,
4600,2022-11-02 20:52:04,-34.9087129653481,-56.1335320407228,6.56168,6.9881892,32.367898673568,39.356087873568,8.2021,4.2278166,3.21157490592,3.8415683644,16,4,8.367,39.356087873568,6.56168,4.2278166,3.21157490592,2.23694,3.579104,-6.487126,60.9, -11.2, 0.4,0,0,1684,970,1684,1024,100,-8,100,0,74.2,0,0,95,4.178,4.176,0,0,0,0,3.662,73.04,39.356087873568,6.56168,6,P-GPS,
4700,2022-11-02 20:52:04,-34.9087115819079,-56.1335297788669,7.545932,8.0708664,32.269473473568,40.340339873568,9.186352,4.7199434,4.0487534104,4.6858269216,16,4,8.23,40.340339873568,7.545932,4.7199434,4.0487534104,2.460634,4.026492,-6.487126,60.8, -11.3, 0.2,0,0,1684,970,1684,1024,100,-8,100,0,74.2,0,0,95,4.11,4.112,0,0,0,0,5.395,73.04,40.340339873568,7.545932,6,P-GPS,
4800,2022-11-02 20:52:04,-34.908710441082,-56.1335277541042,8.530184,9.186352,32.138239873568,41.324591873568,10.170604,5.2120702,4.776410914,5.4208335068,16,4,8.23,41.324591873568,8.530184,5.2120702,4.776410914,2.684328,4.47388,-6.487126,60.7, -11.5, -0.2,0,0,1684,955,1684,1024,100,-10,100,0,74.2,0,0,95,4.11,4.112,0,0,0,0,5.395,73.04,41.324591873568,8.530184,6,P-GPS,
4900,2022-11-02 20:52:04,-34.9087091444994,-56.1335253560575,9.514436,10.334646,31.974197873568,42.308843873568,11.154856,5.5252418,5.6276904688,6.2802495448,16,4,8.23,42.308843873568,9.514436,5.5252418,5.6276904688,2.908022,4.697574,-6.487126,60.6, -11.7, -0.1,0,0,1684,956,1684,1024,100,-10,100,0,74.2,0,0,95,4.11,4.112,0,0,0,0,5.395,73.04,42.308843873568,9.514436,6,P-GPS,
5000,2022-11-02 20:52:04,-34.9087078388415,-56.1335229295324,10.498688,11.4173232,31.875772673568,43.293095873568,12.139108,6.0173686,6.4897639872,7.1485894676,16,4,8.23,43.293095873568,10.498688,6.0173686,6.4897639872,3.131716,5.144962,-6.487126,60.5, -11.7, 0,0,0,1684,954,1684,1024,100,-11,100,0,74.2,0,0,95,4.11,4.112,0,0,0,0,5.395,73.04,43.293095873568,10.498688,6,P-GPS,
5100,2022-11-02 20:52:04,-34.9087064029659,-56.1335202305335,11.48294,12.5656172,31.711730673568,44.277347873568,13.12336,6.4423872,7.4466209732,8.1111879236,16,4,8.23,44.277347873568,11.48294,6.4423872,7.4466209732,3.579104,5.368656,-6.487126,60.4, -11.6, -0.2,0,0,1684,939,1684,1024,100,-13,100,0,74.2,0,0,95,4.11,4.112,0,0,0,0,5.395,73.04,44.277347873568,11.48294,6,P-GPS,
5200,2022-11-02 20:52:04,-34.9087047775296,-56.1335170770319,12.467192,13.7139112,31.547688673568,45.261599873568,14.107612,6.9568834,8.5544950244,9.2256236548,16,4,8.23,45.261599873568,12.467192,6.9568834,8.5544950244,3.802798,5.816044,-6.487126,60.3, -11.4, -0.1,0,0,1684,935,1684,1024,100,-13,100,0,74.2,0,0,95,4.11,4.112,0,0,0,0,5.395,73.04,45.261599873568,12.467192,6,P-GPS,
5300,2022-11-02 20:52:05,-34.9087031568989,-56.1335141376554,13.451444,14.8622052,31.383646673568,46.245851873568,15.091864,7.2476856,9.6119097564,10.2853677832,16,4,8.23,46.245851873568,13.451444,7.2476856,9.6119097564,4.026492,6.039738,-6.487126,60.2, -11.3, -0.2,0,0,1684,932,1684,1024,100,-14,100,0,74.2,0,0,95,4.11,4.112,0,0,0,0,5.395,73.04,46.245851873568,13.451444,6,P-GPS,
5400,2022-11-02 20:52:05,-34.9087015405542,-56.1335112145444,14.435696,15.9776908,31.252413073568,47.230103873568,16.076116,7.7621818,10.6649937796,11.3401906516,16,4,8.23,47.230103873568,14.435696,7.7621818,10.6649937796,4.250186,6.487126,-6.487126,60, -11.3, -0.2,0,0,1684,925,1684,1024,100,-15,100,0,74.2,0,0,95,4.11,4.112,0,0,0,0,5.395,73.04,47.230103873568,14.435696,6,P-GPS,
5500,2022-11-02 20:52:05,-34.9086997722888,-56.1335080201844,15.419948,17.1259848,31.088371073568,48.214355873568,17.060368,8.0753534,11.8165358112,12.4933074864,16,4,8.23,48.214355873568,15.419948,8.0753534,11.8165358112,4.47388,6.71082,-6.487126,59.9, -11.4, 0,0,0,1684,925,1684,1024,100,-15,100,0,74.2,0,0,95,4.11,4.112,0,0,0,0,5.395,73.04,48.214355873568,15.419948,6,P-GPS,
5600,2022-11-02 20:52:05,-34.9086980538488,-56.1335049900938,16.4042,18.3070872,30.891520673568,49.198607873568,18.04462,8.3661556,12.9181106496,13.5956041096,16,4,8.23,49.198607873568,16.4042,8.3661556,12.9181106496,4.697574,6.934514,-6.487126,59.8, -11.4, -0.2,0,0,1684,923,1684,1024,100,-15,100,0,74.2,0,0,95,4.11,4.112,0,0,0,0,5.395,73.04,49.198607873568,16.4042,6,P-GPS,
5700,2022-11-02 20:52:05,-34.9086960595553,-56.1335014582161,17.388452,19.4881896,30.694670273568,50.182859873568,19.028872,8.8806518,14.2003285384,14.8786094,16,4,8.253,50.182859873568,17.388452,8.8806518,14.2003285384,4.921268,7.381902,-6.487126,59.9, -11.1, -0.3,0,0,1684,930,1684,1024,100,-14,100,0,74.2,0,0,94,4.124,4.122,0,0,0,0,5.851,73.04,50.182859873568,17.388452,6,P-GPS,
5800,2022-11-02 20:52:05,-34.9086940823003,-56.1334980111919,18.372704,20.6364836,30.530628273568,51.167111873568,20.341208,9.171454,15.4585306784,16.1372380492,16,4,8.253,51.167111873568,18.372704,9.171454,15.4585306784,5.144962,7.605596,-6.487126,59.8, -11.1, -0.3,0,0,1684,953,1684,1024,100,-11,100,0,74.2,0,0,94,4.124,4.122,0,0,0,0,5.851,73.04,51.167111873568,18.372704,6,P-GPS,
5900,2022-11-02 20:52:05,-34.9086919252536,-56.1334943317884,19.356956,21.8503944,30.300969473568,52.151363873568,21.32546,9.4846256,16.811680328,17.490486124,16,4,8.253,52.151363873568,19.356956,9.4846256,16.811680328,5.368656,7.82929,-6.487126,59.7, -11.1, 0.6,0,0,1684,960,1684,1024,100,-10,100,0,74.2,0,0,94,4.124,4.122,0,0,0,0,5.851,73.04,52.151363873568,19.356956,6,P-GPS,
6000,2022-11-02 20:52:05,-34.9086897889142,-56.1334908583,20.341208,22.9986884,30.136927473568,53.135615873568,22.309712,9.7977972,18.1106961176,18.7895675304,16,4,8.253,53.135615873568,20.341208,9.7977972,18.1106961176,5.59235,8.052984,-6.487126,59.6, -11.3, 1.1,0,0,1684,960,1684,1024,100,-10,100,0,74.2,0,0,94,4.124,4.122,0,0,0,0,5.851,73.04,53.135615873568,20.341208,6,P-GPS,
6100,2022-11-02 20:52:05,-34.9086874763381,-56.1334868608749,21.32546,24.1797908,29.940077073568,54.119867873568,23.293964,9.9991218,19.5741147996,20.2532486796,16,4,8.253,54.119867873568,21.32546,9.9991218,19.5741147996,5.59235,8.276678,-6.487126,59.5, -11.3, 1.3,0,0,1684,961,1684,1024,100,-10,100,0,74.2,0,0,94,4.124,4.122,0,0,0,0,5.851,73.04,54.119867873568,21.32546,6,P-GPS,
6200,2022-11-02 20:52:06,-34.9086852080263,-56.1334829346286,22.309712,25.3937016,29.710418273568,55.104119873568,24.278216,10.289924,21.0108602524,21.6902237912,16,5,8.253,55.104119873568,22.309712,10.289924,21.0108602524,5.816044,8.500372,-6.487126,59.4, -11.3, 1.4,0,0,1684,960,1684,1024,100,-10,100,0,74.2,0,0,94,4.124,4.122,0,0,0,0,5.851,73.04,55.104119873568,22.309712,6,P-GPS,
6300,2022-11-02 20:52:06,-34.9086827444153,-56.1334786704362,23.293964,26.574804,29.513567873568,56.088371873568,25.590552,10.6030956,22.5712933732,23.2509193792,16,5,8.253,56.088371873568,23.293964,10.6030956,22.5712933732,6.039738,8.724066,-6.487126,59.4, -11.1, 1.2,0,0,1684,959,1684,1024,100,-10,100,0,74.2,0,0,94,4.124,4.122,0,0,0,0,5.851,73.04,56.088371873568,23.293964,6,P-GPS,
6400,2022-11-02 20:52:06,-34.908680445707,-56.1334745845953,24.278216,27.7887148,29.283909073568,57.072623873568,26.574804,10.9833754,24.0532488012,24.73343255,16,5,8.253,57.072623873568,24.278216,10.9833754,24.0532488012,6.039738,9.171454,-6.487126,59.5, -10.9, 0.9,0,0,1684,959,1684,1024,100,-10,100,0,74.2,0,0,94,4.124,4.122,0,0,0,0,5.851,73.04,57.072623873568,24.278216,6,P-GPS,
6500,2022-11-02 20:52:06,-34.9086779538815,-56.1334701321375,25.262468,29.035434,29.021441873568,58.056875873568,27.88714,11.1623306,25.6654207688,26.3462606856,16,5,8.253,58.056875873568,25.262468,11.1623306,25.6654207688,6.039738,9.395148,-6.487126,59.6, -10.9, 1,0,0,1684,958,1684,1024,100,-10,100,0,74.2,0,0,94,4.124,4.122,0,0,0,0,5.851,73.04,58.056875873568,25.262468,6,P-GPS,
6600,2022-11-02 20:52:06,-34.9086755262428,-56.1334658020994,26.24672,30.2493448,28.791783073568,59.041127873568,29.199476,11.1623306,27.2342856484,27.9156504996,16,5,8.253,59.041127873568,26.24672,11.1623306,27.2342856484,6.039738,9.395148,-6.487126,59.6, -10.9, 1,0,0,1684,958,1684,1024,100,-10,100,0,74.2,0,0,94,4.124,4.122,0,0,0,0,5.851,73.04,59.041127873568,26.24672,6,P-GPS,
6700,2022-11-02 20:52:06,-34.9086729103722,-56.1334611552857,27.230972,31.496064,28.529315873568,60.025379873568,30.183728,11.4755022,28.9202437076,29.602035068,16,5,8.253,60.025379873568,27.230972,11.4755022,28.9202437076,6.263432,9.618842,-6.487126,59.6, -11.7, 1,0,0,1684,958,1684,1024,100,-10,100,0,74.2,0,0,94,4.124,4.122,0,0,0,0,5.851,73.04,60.025379873568,27.230972,6,P-GPS,
6800,2022-11-02 20:52:06,-34.9086703832356,-56.1334566452037,28.215224,32.7099748,28.299657073568,61.009631873568,31.496064,11.4755022,30.5541020276,31.2363527056,16,5,8.239,61.009631873568,28.215224,11.4755022,30.5541020276,6.263432,9.618842,-6.487126,59.7, -12.2, 0.9,0,0,1684,954,1684,1024,100,-11,100,0,74.2,0,0,94,4.116,4.117,0,0,0,0,5.621,73.04,61.009631873568,28.215224,6,P-GPS,
6900,2022-11-02 20:52:06,-34.9086676031267,-56.1334518721675,29.52756,34.284778,28.037189873568,62.321967873568,32.152232,11.7886738,32.3057425036,32.987861948,16,5,8.239,62.321967873568,29.52756,11.7886738,32.3057425036,6.487126,9.842536,-6.487126,59.6, -12.3, 1,0,0,1684,943,1684,1024,100,-12,100,0,74.2,0,0,94,4.116,4.117,0,0,0,0,5.621,73.04,62.321967873568,29.52756,6,P-GPS,
7000,2022-11-02 20:52:06,-34.90866494889,-56.1334470809488,30.511812,35.5314972,27.774722673568,63.306219873568,33.136484,11.967629,34.035106076,34.71784888,16,5,8.239,63.306219873568,30.511812,11.967629,34.035106076,6.487126,10.06623,-6.487126,59.6, -12.3, 0.5,0,0,1684,858,1684,1024,100,-25,100,0,74.2,0,0,94,4.116,4.117,0,0,0,0,5.621,73.04,63.306219873568,30.511812,6,P-GPS,
7100,2022-11-02 20:52:06,-34.9086620789496,-56.1334418560452,31.496064,36.7782164,27.512255473568,64.290471873568,34.120736,12.2808006,35.915683564,36.59941062,16,5,8.239,64.290471873568,31.496064,12.2808006,35.915683564,6.71082,10.289924,-6.487126,59.6, -12.1, 0.4,0,0,1684,862,1684,1024,100,-25,100,0,74.2,0,0,94,4.116,4.117,0,0,0,0,5.621,73.04,64.290471873568,31.496064,6,P-GPS,
7200,2022-11-02 20:52:06,-34.9086593398221,-56.1334368847773,32.480316,38.0249356,27.249788273568,65.274723873568,35.104988,12.2808006,37.707022204,38.391405428,16,5,8.239,65.274723873568,32.480316,12.2808006,37.707022204,6.71082,10.513618,-6.487126,59.6, -12.1, -0.3,0,0,1684,1012,1684,1024,100,-2,100,0,74.2,0,0,94,4.116,4.117,0,0,0,0,5.621,73.04,65.274723873568,32.480316,6,P-GPS,
7300,2022-11-02 20:52:07,-34.9086565215458,-56.133431832725,33.464568,39.2716548,26.987321073568,66.258975873568,36.08924,12.5939722,39.535106252,40.21981756,16,5,8.239,66.258975873568,33.464568,12.5939722,39.535106252,6.934514,10.513618,-6.487126,59.7, -12.2, -0.8,0,0,1684,1012,1684,1024,100,-2,100,0,74.2,0,0,94,4.116,4.117,0,0,0,0,5.621,73.04,66.258975873568,33.464568,6,P-GPS,
7400,2022-11-02 20:52:07,-34.9086537145968,-56.1334268213,34.44882,40.5511824,26.692045473568,67.243227873568,37.073492,12.9071438,41.350395024,42.035434416,16,5,8.239,67.243227873568,34.44882,12.9071438,41.350395024,7.158208,10.737312,-6.487126,59.7, -12, 0.5,0,0,1684,928,1684,1024,100,-15,100,0,74.2,0,0,94,4.116,4.117,0,0,0,0,5.621,73.04,67.243227873568,34.44882,6,P-GPS,
7500,2022-11-02 20:52:07,-34.9086506862056,-56.1334214100583,35.433072,41.83071,26.396769873568,68.227479873568,38.057744,12.9071438,43.31036884,43.995736316,16,5,8.239,68.227479873568,35.433072,12.9071438,43.31036884,7.158208,10.961006,-6.487126,59.6, -12.1, 1.2,0,0,1684,897,1684,1024,100,-19,100,0,74.2,0,0,94,4.116,4.117,0,0,0,0,5.621,73.04,68.227479873568,35.433072,6,P-GPS,
7600,2022-11-02 20:52:07,-34.9086477810941,-56.1334161689518,36.417324,43.1102376,26.101494273568,69.211731873568,39.041996,13.2203154,45.202757352,45.888452912,16,5,8.239,69.211731873568,36.417324,13.2203154,45.202757352,7.381902,10.961006,-6.487126,59.6, -12, 0.1,0,0,1684,949,1684,1024,100,-11,100,0,74.2,0,0,94,4.116,4.117,0,0,0,0,5.621,73.04,69.211731873568,36.417324,6,P-GPS,
7700,2022-11-02 20:52:07,-34.9086448273833,-56.1334106346687,37.72966,44.6850408,25.839027073568,70.524067873568,40.026248,13.3992706,47.177166864,47.863846676,16,5,8.239,70.524067873568,37.72966,13.3992706,47.177166864,7.381902,11.1847,-6.71082,59.6, -11.8, 0.2,0,0,1684,956,1684,1024,100,-10,100,0,74.2,0,0,94,4.116,4.117,0,0,0,0,5.621,73.04,70.524067873568,37.72966,6,P-GPS,
7800,2022-11-02 20:52:07,-34.9086418481971,-56.1334052365167,38.713912,45.9973768,25.510943073568,71.508319873568,41.0105,13.3992706,49.123361152,49.810697132,16,5,8.212,71.508319873568,38.713912,13.3992706,49.123361152,7.381902,11.408394,-6.71082,59.6, -11.8, 0.5,0,0,1684,977,1684,1024,100,-7,100,0,74.2,0,0,94,4.1,4.1,0,0,0,0,5.771,73.04,71.508319873568,38.713912,6,P-GPS,
7900,2022-11-02 20:52:07,-34.9086386526623,-56.1333994943649,39.698164,47.2769044,25.215667473568,72.492571873568,41.994752,13.7124422,51.199476704,51.887140768,16,5,8.212,72.492571873568,39.698164,13.7124422,51.199476704,7.605596,11.408394,-6.487126,59.6, -11.6, 0.7,0,0,1684,978,1684,1024,100,-7,100,0,74.2,0,0,94,4.1,4.1,0,0,0,0,5.771,73.04,72.492571873568,39.698164,6,P-GPS,
8000,2022-11-02 20:52:07,-34.9086355819446,-56.1333939641142,40.682416,48.556432,24.920391873568,73.476823873568,41.994752,13.8913974,53.197508264,53.885500412,16,5,8.212,73.476823873568,40.682416,13.8913974,53.197508264,7.605596,11.632088,-6.71082,59.5, -11.9, 0.5,0,0,1684,978,1684,1024,100,-7,100,0,74.2,0,0,94,4.1,4.1,0,0,0,0,5.771,73.04,73.476823873568,40.682416,6,P-GPS,
8100,2022-11-02 20:52:07,-34.9086322968063,-56.133388200275,41.666668,49.868768,24.592307873568,74.461075873568,41.994752,14.092722,55.297573948,55.985566096,16,5,8.212,74.461075873568,41.666668,14.092722,55.297573948,7.605596,11.855782,-6.71082,59.5, -11.7, 0.6,0,0,1684,969,1684,1024,100,-8,100,0,74.2,0,0,94,4.1,4.1,0,0,0,0,5.771,73.04,74.461075873568,41.666668,6,P-GPS,
8200,2022-11-02 20:52:07,-34.9086291615696,-56.1333825140757,42.65092,51.1154872,24.329840673568,75.445327873568,41.994752,14.204569,57.34744278,58.035763012,16,5,8.212,75.445327873568,42.65092,14.204569,57.34744278,7.82929,11.855782,-6.71082,59.5, -11.6, 0.7,0,0,1684,969,1684,1024,100,-8,100,0,74.2,0,0,94,4.1,4.1,0,0,0,0,5.771,73.04,75.445327873568,42.65092,6,P-GPS,
8300,2022-11-02 20:52:08,-34.9086258321442,-56.1333764209456,43.963256,52.7887156,23.968948273568,76.757663873568,41.994752,14.4058936,59.537731564,60.22637988,16,5,8.212,76.757663873568,43.963256,14.4058936,59.537731564,7.82929,12.079476,-6.71082,59.5, -11.7, 0.6,0,0,1684,949,1684,1024,100,-11,100,0,74.2,0,0,94,4.1,4.1,0,0,0,0,5.771,73.04,76.757663873568,43.963256,6,P-GPS,
8400,2022-11-02 20:52:08,-34.9086226521839,-56.1333705720179,44.947508,54.0354348,23.706481073568,77.741915873568,41.994752,14.4058936,61.636812996,62.32611748,16,5,8.212,77.741915873568,44.947508,14.4058936,61.636812996,7.82929,12.079476,-6.71082,59.5, -11.8, 0.2,0,0,1684,947,1684,1024,100,-12,100,0,74.2,0,0,94,4.1,4.1,0,0,0,0,5.771,73.04,77.741915873568,44.947508,6,P-GPS,
8500,2022-11-02 20:52:08,-34.9086193024486,-56.1333643806364,45.93176,55.4133876,23.312780273568,78.726167873568,41.994752,14.6966958,63.855317004,64.545277656,16,5,8.212,78.726167873568,45.93176,14.6966958,63.855317004,8.052984,12.30317,-6.71082,59.6, -11.7, 0,0,0,1684,947,1684,1024,100,-12,100,0,74.2,0,0,94,4.1,4.1,0,0,0,0,5.771,73.04,78.726167873568,45.93176,6,P-GPS,
8600,2022-11-02 20:52:08,-34.9086161081319,-56.1333583883589,46.916012,56.7257236,22.984696273568,79.710419873568,41.994752,14.6966958,65.992784264,66.683729168,16,5,8.212,79.710419873568,46.916012,14.6966958,65.992784264,8.052984,12.30317,-6.71082,59.7, -11.8, 0,0,0,1684,947,1684,1024,100,-12,100,0,74.2,0,0,94,4.1,4.1,0,0,0,0,5.771,73.04,79.710419873568,46.916012,6,P-GPS,
8700,2022-11-02 20:52:08,-34.9086127311885,-56.1333521143543,47.900264,58.0052512,22.689420673568,80.694671873568,41.994752,14.8980204,68.237534992,68.929136064,16,5,8.212,80.694671873568,47.900264,14.8980204,68.237534992,8.052984,12.526864,-6.71082,59.8, -11.9, 0,0,0,1684,958,1684,1024,100,-10,100,0,74.2,0,0,94,4.1,4.1,0,0,0,0,5.771,73.04,80.694671873568,47.900264,6,P-GPS,
8800,2022-11-02 20:52:08,-34.9086094977566,-56.1333460900889,48.884516,59.383204,22.295719873568,81.678923873568,41.994752,14.8980204,70.390750284,71.083335608,16,5,8.199,81.678923873568,48.884516,14.8980204,70.390750284,8.052984,12.526864,-6.71082,59.7, -11.7, -0.1,0,0,1684,964,1684,1024,100,-9,100,0,74.2,0,0,94,4.096,4.096,0,0,0,0,6.053,73.04,81.678923873568,48.884516,6,P-GPS,
8900,2022-11-02 20:52:08,-34.908606072266,-56.1333397007944,49.868768,60.7611568,21.902019073568,82.663175873568,41.994752,15.211192,72.674214924,73.367128332,16,5,8.199,82.663175873568,49.868768,15.211192,72.674214924,8.276678,12.750558,-6.487126,59.7, -11.8, 0.1,0,0,1684,964,1684,1024,100,-9,100,0,74.2,0,0,94,4.096,4.096,0,0,0,0,6.053,73.04,82.663175873568,49.868768,6,P-GPS,
9000,2022-11-02 20:52:08,-34.9086028685565,-56.1333336331752,50.85302,62.1391096,21.508318273568,83.647427873568,41.994752,15.211192,74.832351476,75.52657722,16,5,8.199,83.647427873568,50.85302,15.211192,74.832351476,8.276678,12.750558,-6.487126,59.7, -11.7, 0.1,0,0,1684,964,1684,1024,100,-9,100,0,74.2,0,0,94,4.096,4.096,0,0,0,0,6.053,73.04,83.647427873568,50.85302,6,P-GPS,
9100,2022-11-02 20:52:08,-34.9085993931574,-56.1333272164685,51.509188,63.0905532,21.213042673568,84.303595873568,41.994752,15.3901472,77.1325484,77.827430312,16,5,8.199,84.303595873568,51.509188,15.3901472,77.1325484,8.276678,12.974252,-6.71082,59.8, -11.8, 0,0,0,1684,963,1684,1024,100,-9,100,0,74.2,0,0,94,4.096,4.096,0,0,0,0,6.053,73.04,84.303595873568,51.509188,6,P-GPS,
9200,2022-11-02 20:52:08,-34.9085960697898,-56.1333210662366,52.49344,64.304464,20.983383873568,85.287847873568,41.994752,15.3901472,79.335960544,80.030842456,17,5,8.199,85.287847873568,52.49344,15.3901472,79.335960544,8.276678,12.974252,-6.487126,59.7, -12.1, -0.1,0,0,1684,963,1684,1024,100,-9,100,0,74.2,0,0,94,4.096,4.096,0,0,0,0,6.053,73.04,85.287847873568,52.49344,6,P-GPS,
9300,2022-11-02 20:52:09,-34.9085925498495,-56.13331453658,53.477692,65.5183748,20.753725073568,86.272099873568,41.994752,15.5019942,81.673559044,82.369097124,17,5,8.199,86.272099873568,53.477692,15.5019942,81.673559044,8.500372,12.974252,-6.487126,59.5, -11.6, -0.1,0,0,1684,964,1684,1024,100,-9,100,0,74.2,0,0,94,4.096,4.096,0,0,0,0,6.053,73.04,86.272099873568,53.477692,6,P-GPS,
9400,2022-11-02 20:52:09,-34.9085892436261,-56.1333084807447,54.461944,66.7979024,20.458449473568,87.256351873568,41.994752,15.7033188,83.8500683,84.54560638,17,5,8.199,87.256351873568,54.461944,15.7033188,83.8500683,8.500372,13.197946,-6.71082,59.6, -11.5, -0.3,0,0,1684,964,1684,1024,100,-9,100,0,74.2,0,0,94,4.096,4.096,0,0,0,0,6.053,73.04,87.256351873568,54.461944,6,P-GPS,
9500,2022-11-02 20:52:09,-34.9085858066062,-56.1333020133296,55.446196,68.0118132,20.228790673568,88.240603873568,41.994752,15.7033188,86.155186484,86.851380732,17,5,8.199,88.240603873568,55.446196,15.7033188,86.155186484,8.500372,13.197946,-6.487126,59.5, -12, 0.5,0,0,1684,963,1684,1024,100,-9,100,0,74.2,0,0,94,4.096,4.096,0,0,0,0,6.053,73.04,88.240603873568,55.446196,6,P-GPS,
9600,2022-11-02 20:52:09,-34.9085824282884,-56.1332956610792,56.758532,69.553808,19.999131873568,89.552939873568,41.994752,15.882274,88.419622252,89.116800752,17,5,8.199,89.552939873568,56.758532,15.882274,88.419622252,8.500372,13.42164,-6.487126,59.5, -11.1, 1.1,0,0,1684,963,1684,1024,100,-9,100,0,74.2,0,0,94,4.096,4.096,0,0,0,0,6.053,73.04,89.552939873568,56.758532,6,P-GPS,
9700,2022-11-02 20:52:09,-34.9085787257669,-56.1332886995972,57.742784,70.7677188,19.769473073568,90.537191873568,41.994752,16.0164904,90.901577712,91.59941238,17,5,8.199,90.537191873568,57.742784,16.0164904,90.901577712,8.724066,13.42164,-6.487126,59.6, -10.9, 0.4,0,0,1684,964,1684,1024,100,-9,100,0,74.2,0,0,94,4.096,4.096,0,0,0,0,6.053,73.04,90.537191873568,57.742784,6,P-GPS,
9800,2022-11-02 20:52:09,-34.9085754905698,-56.1332821172683,58.727036,72.014438,19.507005873568,91.521443873568,41.994752,16.1954456,93.193572536,93.895344212,17,5,8.186,91.521443873568,58.727036,16.1954456,93.193572536,8.724066,13.645334,-6.487126,59.7, -10.6, 1.2,0,0,1684,964,1684,1024,100,-9,100,0,74.2,0,0,94,4.097,4.09,0,0,0,0,5.994,73.22,91.521443873568,58.727036,6,P-GPS,
9900,2022-11-02 20:52:09,-34.9085719797748,-56.1332753348012,59.711288,73.1955404,19.310155473568,92.505695873568,41.994752,16.1954456,95.59219466,96.295278672,17,5,8.186,92.505695873568,59.711288,16.1954456,95.59219466,8.724066,13.645334,-6.71082,59.9, -9.4, 0,0,0,1684,964,1684,1024,100,-9,100,0,74.2,0,0,94,4.097,4.09,0,0,0,0,5.994,73.22,92.505695873568,59.711288,6,P-GPS,
10000,2022-11-02 20:52:09,-34.9085686280462,-56.1332688656103,60.69554,74.3766428,19.113305073568,93.489947873568,41.994752,16.1954456,97.880252476,98.584648824,17,5,8.186,93.489947873568,60.69554,16.1954456,97.880252476,8.724066,13.645334,-6.71082,59.8, -10.6, -0.1,0,0,1684,967,1684,1024,100,-9,100,0,74.2,0,0,94,4.097,4.09,0,0,0,0,5.994,73.22,93.489947873568,60.69554,6,P-GPS,
10100,2022-11-02 20:52:09,-34.9085650581062,-56.133262046517,61.679792,75.5905536,18.883646273568,94.474199873568,41.994752,16.3744008,100.30020006,101.005252576,17,5,8.186,94.474199873568,61.679792,16.3744008,100.30020006,8.724066,13.869028,-6.71082,59.7, -10.4, -0.1,0,0,1684,973,1684,1024,100,-8,100,0,74.2,0,0,94,4.097,4.09,0,0,0,0,5.994,73.22,94.474199873568,61.679792,6,P-GPS,
10200,2022-11-02 20:52:10,-34.9085616520267,-56.1332555511674,62.664044,76.771656,18.686795873568,95.458451873568,41.994752,16.3744008,102.605974412,103.31201118,17,5,8.186,95.458451873568,62.664044,16.3744008,102.605974412,8.724066,13.869028,-6.71082,59.7, -9.8, -0.4,0,0,1684,973,1684,1024,100,-8,100,0,74.2,0,0,94,4.097,4.09,0,0,0,0,5.994,73.22,95.458451873568,62.664044,6,P-GPS,
10300,2022-11-02 20:52:10,-34.9085581208305,-56.1332489608155,63.648296,77.9855668,18.457137073568,96.442703873568,41.994752,16.3744008,104.961289448,105.6676543,17,5,8.186,96.442703873568,63.648296,16.3744008,104.961289448,8.724066,13.869028,-6.71082,59.8, -10.3, 0.2,0,0,1684,1014,1684,1024,100,-2,100,0,74.2,0,0,94,4.097,4.09,0,0,0,0,5.994,73.22,96.442703873568,63.648296,6,P-GPS,
10400,2022-11-02 20:52:10,-34.9085546866245,-56.1332424332274,64.632548,79.1338608,18.293095073568,97.426955873568,41.994752,16.3744008,107.280843328,107.987864348,17,5,8.186,97.426955873568,64.632548,16.3744008,107.280843328,8.724066,13.869028,-6.487126,59.8, -10.6, -0.3,0,0,1684,1024,1684,1024,100,0,100,0,74.2,0,0,94,4.097,4.09,0,0,0,0,5.994,73.22,97.426955873568,64.632548,6,P-GPS,
10500,2022-11-02 20:52:10,-34.9085510424535,-56.1332354989277,65.6168,80.3477716,18.063436273568,98.411207873568,41.994752,16.6875724,109.744426084,110.452103272,17,5,8.186,98.411207873568,65.6168,16.6875724,109.744426084,8.94776,14.092722,-6.71082,59.6, -10.7, 0.3,0,0,1684,1024,1684,1024,100,0,100,0,74.2,0,0,94,4.097,4.09,0,0,0,0,5.994,73.22,98.411207873568,65.6168,6,P-GPS,
10600,2022-11-02 20:52:10,-34.9085475756134,-56.1332288561123,66.601052,81.4960656,17.899394273568,99.395459873568,41.994752,16.6875724,112.099413036,112.808074476,17,5,8.186,99.395459873568,66.601052,16.6875724,112.099413036,8.94776,14.092722,-6.71082,59.6, -10.1, 0.5,0,0,1684,1024,1684,1024,100,0,100,0,74.2,0,0,94,4.097,4.09,0,0,0,0,5.994,73.22,99.395459873568,66.601052,6,P-GPS,
10700,2022-11-02 20:52:10,-34.9085440654308,-56.1332217680162,67.25722,82.349084,17.702543873568,100.05162787357,41.994752,16.6875724,114.574150648,115.28543676,17,5,8.186,100.05162787357,67.25722,16.6875724,114.574150648,8.94776,14.092722,-6.487126,59.6, -10.2, 0.9,0,0,1684,1024,1684,1024,100,0,100,0,74.2,0,0,94,4.097,4.09,0,0,0,0,5.994,73.22,100.05162787357,67.25722,6,P-GPS,
10800,2022-11-02 20:52:10,-34.9085406164124,-56.1332150628757,68.241472,83.497378,17.538501873568,101.03587987357,41.994752,16.5757254,116.940948624,117.653547072,17,5,8.191,101.03587987357,68.241472,16.6875724,116.940948624,8.724066,14.092722,-6.487126,59.6, -10.3, 0.7,0,0,1684,1024,1684,1024,100,0,100,0,74.2,0,0,94,4.09,4.098,0,0,0,0,6.206,73.22,101.03587987357,68.241472,6,P-GPS,
10900,2022-11-02 20:52:10,-34.9085369795107,-56.1332080118027,69.225724,84.645672,17.374459873568,102.02013187357,41.994752,16.6875724,119.43241852,120.14600122,17,5,8.191,102.02013187357,69.225724,16.6875724,119.43241852,8.94776,14.092722,-6.487126,59.5, -10.5, 0.8,0,0,1684,1024,1684,1024,100,0,100,0,74.2,0,0,94,4.09,4.098,0,0,0,0,6.206,73.22,102.02013187357,69.225724,6,P-GPS,
11000,2022-11-02 20:52:10,-34.9085334994478,-56.1332012894878,70.209976,85.793966,17.210417873568,103.00438387357,41.994752,16.6875724,121.810043268,122.52461022,17,5,8.191,103.00438387357,70.209976,16.6875724,121.810043268,8.94776,14.092722,-6.487126,59.5, -10.7, 0.6,0,0,1684,1024,1024,1024,100,0,0,0,74.2,0,0,94,4.09,4.098,0,0,0,0,6.206,73.22,103.00438387357,70.209976,6,P-GPS,
11100,2022-11-02 20:52:10,-34.9085297965355,-56.1331942418831,71.194228,86.94226,17.046375873568,103.98863587357,41.994752,16.6875724,124.313980356,125.028875392,17,5,8.191,103.98863587357,71.194228,16.6875724,124.313980356,8.94776,14.092722,-6.487126,59.6, -10.1, 1,0,0,1684,1024,1024,1024,100,0,0,0,74.2,0,0,94,4.09,4.098,0,0,0,0,6.206,73.22,103.98863587357,71.194228,6,P-GPS,
11200,2022-11-02 20:52:10,-34.9085262765691,-56.1331874585803,72.17848,88.090554,16.882333873568,104.97288787357,41.994752,16.6875724,126.714899068,127.430778356,17,5,8.191,104.97288787357,72.17848,16.6875724,126.714899068,8.724066,14.092722,-6.487126,59.8, -10.2, 1.3,0,0,1684,1024,1024,1024,100,0,0,0,74.2,0,0,94,4.09,4.098,0,0,0,0,6.206,73.22,104.97288787357,72.17848,6,P-GPS,
11300,2022-11-02 20:52:11,-34.9085225996077,-56.1331803001777,73.162732,89.2060396,16.751100273568,105.95713987357,41.994752,16.5757254,129.241145868,129.958009408,17,5,8.191,105.95713987357,73.162732,16.6875724,129.241145868,8.724066,14.092722,-5.816044,59.7, -10.9, 1.2,0,0,1684,1024,1024,1024,100,0,0,0,74.2,0,0,94,4.09,4.098,0,0,0,0,6.206,73.22,105.95713987357,73.162732,6,P-GPS,
11400,2022-11-02 20:52:11,-34.908519119232,-56.133173513532,73.8189,89.9934412,16.619866673568,106.61330787357,41.994752,16.5757254,131.634846732,132.352694524,17,5,8.191,106.61330787357,73.8189,16.6875724,131.634846732,8.724066,14.092722,-5.144962,59.7, -12.1, 1.2,0,0,1684,1024,1024,1024,100,0,0,0,74.2,0,0,94,4.09,4.098,0,0,0,0,6.206,73.22,106.61330787357,73.8189,6,P-GPS,
11500,2022-11-02 20:52:11,-34.9085155143651,-56.1331664209228,74.475068,90.7808428,16.488633073568,107.26947587357,41.994752,16.5757254,134.130253636,134.849413764,17,5,8.191,107.26947587357,74.475068,16.6875724,134.130253636,8.724066,14.092722,-4.47388,59.7, -12.8, 1.1,0,0,1684,1007,1024,1024,100,-3,0,0,74.2,0,0,94,4.09,4.098,0,0,0,0,6.206,73.22,107.26947587357,74.475068,6,P-GPS,
11600,2022-11-02 20:52:11,-34.9085120361911,-56.1331596578449,74.803152,91.2401604,16.357399473568,107.59755987357,41.994752,16.5757254,136.518048988,137.237865284,17,5,8.191,107.59755987357,74.803152,16.6875724,136.518048988,8.724066,14.092722,-3.579104,59.7, -13, 1.3,0,0,1684,1024,1024,1024,100,0,0,0,74.2,0,0,94,4.09,4.098,0,0,0,0,6.206,73.22,107.59755987357,74.803152,6,P-GPS,
11700,2022-11-02 20:52:11,-34.9085083558816,-56.1331525407486,75.45932,92.027562,16.226165873568,108.25372787357,41.994752,16.5757254,139.034781352,139.755253816,17,5,8.191,108.25372787357,75.45932,16.6875724,139.034781352,8.724066,14.092722,-2.684328,59.7, -12.8, 1.5,0,0,1684,939,1024,1024,100,-13,0,0,74.2,0,0,94,4.09,4.098,0,0,0,0,6.206,73.22,108.25372787357,75.45932,6,P-GPS,
11800,2022-11-02 20:52:11,-34.908504865136,-56.1331457510524,75.45932,92.1259872,16.127740673568,108.25372787357,41.994752,16.5757254,141.431434972,142.153219772,17,5,8.191,108.25372787357,75.45932,16.6875724,141.431434972,8.724066,14.092722,-1.789552,59.7, -12.7, 1.3,0,0,1684,935,1024,1024,100,-13,0,0,74.2,0,0,94,4.09,4.098,0,0,0,0,6.206,73.22,108.25372787357,75.45932,6,P-GPS,
11900,2022-11-02 20:52:11,-34.9085012179556,-56.1331385979359,75.787404,92.5853048,15.996507073568,108.58181187357,41.994752,16.5757254,143.950463924,144.673232976,17,5,8.159,108.58181187357,75.787404,16.6875724,143.950463924,8.724066,14.092722,-1.11847,59.7, -12.4, 0.8,0,0,1684,1024,1024,1024,100,0,0,0,74.2,0,0,94,4.153,4.151,0,0,0,0,5.851,73.22,108.58181187357,75.787404,6,P-GPS,
12000,2022-11-02 20:52:11,-34.9084977934682,-56.1331318541635,75.787404,92.68373,15.898081873568,108.58181187357,41.994752,16.888897,146.322839328,147.046592632,17,5,8.159,108.58181187357,75.787404,16.888897,146.322839328,8.94776,14.316416,-0.671082,59.7, -12.5, 0.3,0,0,1684,1024,1024,1024,100,0,0,0,74.2,0,0,94,4.153,4.151,0,0,0,0,5.851,73.22,108.58181187357,75.787404,6,P-GPS,
12100,2022-11-02 20:52:11,-34.9084941741016,-56.1331246703336,75.45932,92.4540712,15.799656673568,108.25372787357,41.994752,16.888897,148.843836784,149.569230508,17,5,8.159,108.58181187357,75.787404,16.888897,148.843836784,8.94776,14.316416,-0.447388,59.7, -12.3, 1.1,0,0,1684,1024,1024,1024,100,0,0,0,74.2,0,0,94,4.153,4.151,0,0,0,0,5.851,73.22,108.25372787357,75.45932,6,P-GPS,
12200,2022-11-02 20:52:11,-34.9084906725822,-56.1331176994078,75.45932,92.519688,15.734039873568,108.25372787357,41.994752,16.888897,151.288390668,152.015096728,17,5,8.159,108.58181187357,75.787404,16.888897,151.288390668,8.94776,14.316416,-0.223694,59.7, -12.3, 1.6,0,0,1684,997,1024,1024,100,-4,0,0,74.2,0,0,94,4.153,4.151,0,0,0,0,5.851,73.22,108.25372787357,75.45932,6,P-GPS,
12300,2022-11-02 20:52:12,-34.908486915332,-56.1331101951981,75.45932,92.6181132,15.635614673568,108.25372787357,41.994752,17.0678522,153.91732776,154.64567424,17,5,8.159,108.58181187357,75.787404,17.0678522,153.91732776,8.94776,14.54011,0,59.6, -11.9, 1.8,0,0,1684,801,1024,1024,100,-34,0,0,74.2,0,0,94,4.153,4.151,0,0,0,0,5.851,73.22,108.25372787357,75.45932,6,P-GPS,
12400,2022-11-02 20:52:12,-34.9084833616243,-56.1331027342795,75.131236,92.355646,15.569997873568,107.92564387357,41.994752,17.2020686,156.494755664,157.227367236,17,5,8.159,108.58181187357,75.787404,17.2020686,156.494755664,9.171454,14.54011,0,59.6, -11.5, 0.7,0,0,1684,816,1024,1024,100,-32,0,0,74.2,0,0,94,4.153,4.151,0,0,0,0,5.851,73.22,107.92564387357,75.131236,6,P-GPS,
12500,2022-11-02 20:52:12,-34.9084796819922,-56.1330955305173,75.131236,92.4212628,15.504381073568,107.92564387357,41.994752,17.2020686,159.033469656,159.766409312,17,5,8.159,108.58181187357,75.787404,17.2020686,159.033469656,9.171454,14.54011,0,59.7, -10.6, -1.9,0,0,1684,1024,1024,1024,100,0,0,0,74.2,0,0,94,4.153,4.151,0,0,0,0,5.851,73.22,107.92564387357,75.131236,6,P-GPS,
12600,2022-11-02 20:52:12,-34.9084761190088,-56.1330886684881,75.131236,92.4868796,15.438764273568,107.92564387357,41.994752,17.4928708,161.462931676,162.1965275,17,5,8.159,108.58181187357,75.787404,17.4928708,161.462931676,9.395148,14.763804,0,59.7, -10.4, -0.4,0,0,1684,1024,1024,1024,100,0,0,0,74.2,0,0,94,4.153,4.151,0,0,0,0,5.851,73.22,107.92564387357,75.131236,6,P-GPS,
12700,2022-11-02 20:52:12,-34.9084722901592,-56.1330814177157,74.803152,92.2244124,15.373147473568,107.59755987357,41.994752,17.3139156,164.043312336,164.77690816,17,5,8.159,108.58181187357,75.787404,17.4928708,164.043312336,9.395148,14.54011,0,59.8, -10.4, 1.7,0,0,1684,1024,1024,1024,100,0,0,0,74.2,0,0,94,4.153,4.151,0,0,0,0,5.851,73.22,107.59755987357,74.803152,6,P-GPS,
12800,2022-11-02 20:52:12,-34.9084686655295,-56.1330748464812,74.803152,92.2900292,15.307530673568,107.59755987357,41.994752,17.4928708,166.4124069,167.146330808,17,5,8.159,108.58181187357,75.787404,17.4928708,166.4124069,9.395148,14.763804,0,59.7, -10.3, 2.1,0,0,1684,1024,1024,1024,100,0,0,0,74.2,0,0,94,4.153,4.151,0,0,0,0,5.851,73.22,107.59755987357,74.803152,6,P-GPS,
12900,2022-11-02 20:52:12,-34.908464894418,-56.1330675806237,74.803152,92.3228376,15.274722273568,107.59755987357,41.994752,17.4928708,168.984913544,169.719165536,17,5,8.159,108.58181187357,75.787404,17.4928708,168.984913544,9.395148,14.763804,0,59.7, -10.2, 2,0,0,1684,1024,1024,1024,100,0,0,0,74.2,0,0,94,4.136,4.135,0,0,0,0,5.851,73.22,107.59755987357,74.803152,6,P-GPS,
13000,2022-11-02 20:52:12,-34.9084613347175,-56.1330606503565,74.803152,92.355646,15.241913873568,107.59755987357,41.994752,17.4928708,171.431107848,172.166016008,17,5,8.159,108.58181187357,75.787404,17.4928708,171.431107848,9.395148,14.763804,0,59.6, -10.1, 2.2,0,0,1684,1024,1024,1024,100,0,0,0,74.2,0,0,94,4.136,4.135,0,0,0,0,5.851,73.22,107.59755987357,74.803152,6,P-GPS,
13100,2022-11-02 20:52:12,-34.9084576291346,-56.1330533429629,74.475068,92.0603704,15.209105473568,107.26947587357,41.994752,17.4928708,174.000661736,174.736554148,17,5,8.159,108.58181187357,75.787404,17.4928708,174.000661736,9.395148,14.763804,0,59.6, -10.2, 2,0,0,1684,1004,1024,1024,100,-3,0,0,74.2,0,0,94,4.136,4.135,0,0,0,0,5.851,73.22,107.26947587357,74.475068,6,P-GPS,
13200,2022-11-02 20:52:12,-34.9084542694332,-56.1330464586195,74.475068,92.0603704,15.209105473568,107.26947587357,41.994752,17.3810238,176.395346852,177.133535852,17,5,8.159,108.58181187357,75.787404,17.4928708,176.395346852,9.171454,14.763804,0,59.6, -10, 1.9,0,0,1684,1004,1024,1024,100,-3,0,0,74.2,0,0,94,4.136,4.135,0,0,0,0,5.851,73.22,107.26947587357,74.475068,6,P-GPS,
13300,2022-11-02 20:52:13,-34.9084506120522,-56.1330391080182,74.475068,92.0603704,15.209105473568,107.26947587357,41.994752,17.3810238,178.96654116,179.705714412,17,5,8.159,108.58181187357,75.787404,17.4928708,178.96654116,9.171454,14.763804,0,59.6, -10.6, 1.7,0,0,1684,1024,1024,1024,100,0,0,0,74.2,0,0,94,4.136,4.135,0,0,0,0,5.851,73.22,107.26947587357,74.475068,6,P-GPS,
13400,2022-11-02 20:52:13,-34.9084471236385,-56.133032088954,74.475068,92.0603704,15.209105473568,107.26947587357,41.994752,17.3810238,181.42060948,182.161423152,17,5,8.159,108.58181187357,75.787404,17.4928708,181.42060948,9.171454,14.763804,0,59.5, -10.3, 1.6,0,0,1684,1024,1024,1024,100,0,0,0,74.2,0,0,94,4.136,4.135,0,0,0,0,5.851,73.22,107.26947587357,74.475068,6,P-GPS,
13500,2022-11-02 20:52:13,-34.9084434274615,-56.1330246684015,74.475068,92.0603704,15.209105473568,107.26947587357,41.994752,17.559979,184.017066256,184.759192264,17,5,8.159,108.58181187357,75.787404,17.559979,184.017066256,9.171454,14.987498,-0.223694,59.6, -10.8, 1.3,0,0,1684,1024,1024,1024,100,0,0,0,74.2,0,0,94,4.136,4.135,0,0,0,0,5.851,73.22,107.26947587357,74.475068,6,P-GPS,
13600,2022-11-02 20:52:13,-34.9084399165362,-56.1330176036224,74.475068,92.0603704,15.209105473568,107.26947587357,41.994752,17.2691768,186.487210692,187.23097712,17,5,8.159,108.58181187357,75.787404,17.559979,186.487210692,8.94776,14.763804,-0.223694,59.6, -11, 1.2,0,0,1684,1024,1024,1024,100,0,0,0,74.2,0,0,94,4.136,4.135,0,0,0,0,5.851,73.22,107.26947587357,74.475068,6,P-GPS,
13700,2022-11-02 20:52:13,-34.908436202798,-56.1330101539446,74.475068,92.0603704,15.209105473568,107.26947587357,41.994752,17.2691768,189.09449424,189.83924492,17,5,8.159,108.58181187357,75.787404,17.559979,189.09449424,8.94776,14.763804,-0.223694,59.6, -11, 0.9,0,0,1684,1024,1024,1024,100,0,0,0,74.2,0,0,94,4.136,4.135,0,0,0,0,5.851,73.22,107.26947587357,74.475068,6,P-GPS,
13800,2022-11-02 20:52:13,-34.9084327065679,-56.1330030581178,74.475068,92.0603704,15.209105473568,107.26947587357,41.994752,17.448132,191.569559936,192.31627912,17,5,8.159,108.58181187357,75.787404,17.559979,191.569559936,8.94776,14.987498,-0.223694,59.7, -10.7, 0.5,0,0,1684,1024,1024,1024,100,0,0,0,74.2,0,0,94,4.136,4.135,0,0,0,0,5.851,73.22,107.26947587357,74.475068,6,P-GPS,
13900,2022-11-02 20:52:13,-34.9084290361332,-56.1329955428346,74.475068,92.0603704,15.209105473568,107.26947587357,41.994752,17.448132,194.1847175,194.933405188,17,5,8.309,108.58181187357,75.787404,17.559979,194.1847175,8.94776,14.987498,-0.223694,59.6, -10.9, 0.6,0,0,1684,1024,1024,1024,100,0,0,0,74.2,0,0,94,4.133,4.133,0,0,0,0,3.472,73.4,107.26947587357,74.475068,6,P-GPS,
14000,2022-11-02 20:52:13,-34.9084255288036,-56.1329883985351,74.475068,92.0603704,15.209105473568,107.26947587357,41.994752,17.448132,196.674218892,197.424547,17,5,8.309,108.58181187357,75.787404,17.559979,196.674218892,8.94776,14.987498,-0.223694,59.6, -10.7, 0.8,0,0,1655,1024,1024,1024,96,0,0,0,74.2,0,0,94,4.133,4.133,0,0,0,0,3.472,73.4,107.26947587357,74.475068,6,P-GPS,
14100,2022-11-02 20:52:13,-34.9084218279887,-56.132980807743,74.803152,92.3884544,15.209105473568,107.59755987357,41.994752,17.448132,199.31431084,200.066935536,17,5,8.309,108.58181187357,75.787404,17.559979,199.31431084,8.94776,14.987498,-0.223694,59.6, -11, 0.8,0,0,1462,1024,1024,1024,66,0,0,0,74.2,0,0,94,4.133,4.133,0,0,0,0,3.472,73.4,107.59755987357,74.803152,6,P-GPS,
14200,2022-11-02 20:52:14,-34.9084183134939,-56.1329736978341,74.803152,92.3884544,15.209105473568,107.59755987357,41.994752,17.448132,201.796922468,202.5508595,17,5,8.309,108.58181187357,75.787404,17.559979,201.796922468,8.94776,14.987498,-0.223694,59.7, -10.7, 0.6,0,0,1462,1024,1024,1024,66,0,0,0,74.2,0,0,94,4.133,4.133,0,0,0,0,3.472,73.4,107.59755987357,74.803152,6,P-GPS,
14300,2022-11-02 20:52:14,-34.9084146372751,-56.1329662468608,74.803152,92.3884544,15.209105473568,107.59755987357,41.994752,17.448132,204.397316252,205.15256562,17,5,8.309,108.58181187357,75.787404,17.559979,204.397316252,8.94776,14.987498,-0.223694,59.7, -6.7, 0.7,0,0,1289,1024,1024,1024,40,0,0,0,74.2,0,0,94,4.133,4.133,0,0,0,0,3.472,73.4,107.59755987357,74.803152,6,P-GPS,
14400,2022-11-02 20:52:14,-34.9084111070951,-56.1329591559232,74.803152,92.3884544,15.209105473568,107.59755987357,41.994752,17.2691768,206.87828746,207.63452108,17,5,8.309,108.58181187357,75.787404,17.559979,206.87828746,8.94776,14.763804,-0.223694,59.7, -2, 0.9,0,0,1024,1024,1024,1024,0,0,0,0,74.2,0,0,94,4.133,4.133,0,0,0,0,3.472,73.4,107.59755987357,74.803152,6,P-GPS,
14500,2022-11-02 20:52:14,-34.9084071665733,-56.1329516567279,74.803152,92.3884544,15.209105473568,107.59755987357,41.994752,16.9560052,209.542985708,210.299219328,17,5,8.309,108.58181187357,75.787404,17.559979,209.542985708,8.724066,14.54011,-0.223694,59.9, 4.3, 1.3,0,0,1024,1024,1024,1024,0,0,0,0,74.2,0,0,94,4.133,4.133,0,0,0,0,3.472,73.4,107.59755987357,74.803152,6,P-GPS,
14600,2022-11-02 20:52:14,-34.9084037182585,-56.1329447698354,74.803152,92.3884544,15.209105473568,107.59755987357,41.994752,16.1507068,211.956371612,212.713589484,17,5,8.309,108.58181187357,75.787404,17.559979,211.956371612,8.276678,13.869028,-0.223694,59.9, 25.9, 0.5,0,0,1024,1024,1024,1024,0,0,0,0,74.2,0,0,94,4.133,4.133,0,0,0,0,3.472,73.4,107.59755987357,74.803152,6,P-GPS,
14700,2022-11-02 20:52:14,-34.9084003704903,-56.132937973913,74.803152,92.3884544,15.209105473568,107.59755987357,41.994752,14.8532816,214.327106596,215.085636804,17,5,8.309,108.58181187357,75.787404,17.559979,214.327106596,7.605596,12.750558,-0.223694,59.9, 21.4, -0.3,0,0,1024,1024,1024,1024,0,0,0,0,74.2,0,0,94,4.133,4.133,0,0,0,0,3.472,73.4,107.59755987357,74.803152,6,P-GPS,
14800,2022-11-02 20:52:14,-34.9083973206882,-56.1329318820574,74.803152,92.3884544,15.209105473568,107.59755987357,41.994752,13.9585056,216.461949184,217.22113556,17,5,8.309,108.58181187357,75.787404,17.559979,216.461949184,7.381902,11.855782,0,60.2, 22.2, 0.2,0,0,1024,1024,1024,1024,0,0,0,0,74.2,0,0,94,4.133,4.133,0,0,0,0,3.472,73.4,107.59755987357,74.803152,6,P-GPS,
14900,2022-11-02 20:52:14,-34.9083939512943,-56.132925350395,74.803152,92.3884544,15.209105473568,107.59755987357,41.994752,12.862405,218.770676292,219.529862668,17,5,8.267,108.58181187357,75.787404,17.559979,218.770676292,6.71082,10.961006,0,60.5, 21.4, 1.6,0,0,1024,1024,1024,1474,0,0,0,68,74.2,0,0,94,4.143,4.144,0,0,0,0,4.233,73.58,107.59755987357,74.803152,6,P-GPS,
15000,2022-11-02 20:52:14,-34.9083913201978,-56.1329202541113,74.803152,92.3884544,15.209105473568,107.59755987357,41.994752,11.6768268,220.572185536,221.331699996,17,5,8.267,108.58181187357,75.787404,17.559979,220.572185536,6.263432,9.842536,0,60.5, 18.6, 1.1,0,0,1024,1024,1024,1684,0,0,0,100,74.3,0,0,94,4.143,4.144,0,0,0,0,4.233,73.58,107.59755987357,74.803152,6,P-GPS,
15100,2022-11-02 20:52:14,-34.9083889538212,-56.132915649659,75.131236,92.7165384,15.209105473568,107.92564387357,41.994752,10.6702038,222.197841756,222.9576843,17,5,8.267,108.58181187357,75.787404,17.559979,222.197841756,5.816044,8.94776,0,60.5, 17, 1,0,0,1024,1024,1024,1684,0,0,0,100,75.5,0,0,94,4.143,4.144,0,0,0,0,4.233,73.58,107.92564387357,75.131236,6,P-GPS,
15200,2022-11-02 20:52:15,-34.9083868650877,-56.1329117638571,75.131236,92.7165384,15.209105473568,107.92564387357,41.994752,9.8649054,223.587933664,224.347776208,17,5,8.267,108.58181187357,75.787404,17.559979,223.587933664,5.368656,8.276678,0,62.2, 16.7, 1.5,0,0,1024,1024,1024,1684,0,0,0,100,78.1,0,0,94,4.143,4.144,0,0,0,0,4.233,73.58,107.92564387357,75.131236,6,P-GPS,
15300,2022-11-02 20:52:15,-34.9083848097048,-56.1329082322824,75.45932,93.0446224,15.209105473568,108.25372787357,41.994752,9.8649054,224.882553128,225.643379924,17,5,8.267,108.58181187357,75.787404,17.559979,224.882553128,5.144962,7.605596,-0.223694,65.1, 16.6, 2.9,0,0,1024,1024,1024,1684,0,0,0,100,81.2,0,0,94,4.143,4.144,0,0,0,0,4.233,73.58,108.25372787357,75.45932,6,P-GPS,
15400,2022-11-02 20:52:15,-34.9083835878767,-56.1329065351926,75.45932,93.0446224,15.209105473568,108.25372787357,41.994752,8.3661556,225.550860236,226.31890488,17,5,8.267,108.58181187357,75.787404,17.559979,225.550860236,4.697574,6.934514,-0.223694,68.3, 16.6, 4.3,0,0,1024,1024,1024,1684,0,0,0,100,84.4,0,0,94,4.143,4.144,0,0,0,0,4.233,73.58,108.25372787357,75.45932,6,P-GPS,
15500,2022-11-02 20:52:15,-34.9083818634197,-56.1329035502736,75.787404,93.3727064,15.209105473568,108.58181187357,41.994752,7.5608572,226.642723788,227.4114246,17,5,8.267,108.58181187357,75.787404,17.559979,226.642723788,4.250186,6.263432,-0.223694,71.5, 16.5, 5.5,0,0,1025,1024,1024,1684,0,0,0,100,87.6,0,0,94,4.143,4.144,0,0,0,0,4.233,73.58,108.58181187357,75.787404,6,P-GPS,
15600,2022-11-02 20:52:15,-34.9083803619161,-56.1329009929596,75.787404,93.3727064,15.209105473568,108.58181187357,41.994752,7.0687304,227.582684448,228.352697596,17,5,8.267,108.58181187357,75.787404,17.559979,227.582684448,4.026492,5.816044,-0.223694,74.8, 16.3, 6.6,0,0,1335,1024,1024,1684,47,0,0,100,90.8,0,0,94,4.143,4.144,0,0,0,0,4.233,73.58,108.58181187357,75.787404,6,P-GPS,
15700,2022-11-02 20:52:15,-34.9083789151023,-56.1328985761329,76.115488,93.7007904,15.209105473568,108.90989587357,41.994752,6.263432,228.476385264,229.247710748,17,5,8.267,108.90989587357,76.115488,17.559979,228.476385264,3.579104,5.144962,0,78.1, 15.9, 7.7,0,0,1684,1024,1024,1272,100,0,0,38,94,0,0,94,4.143,4.144,0,0,0,0,4.233,73.58,108.90989587357,76.115488,6,P-GPS,
