time(millisecond),datetime(utc),latitude,longitude,height_above_takeoff(feet),height_above_ground_at_drone_location(feet),ground_elevation_at_drone_location(feet),altitude_above_seaLevel(feet),height_sonar(feet),speed(mph),distance(feet),mileage(feet),satellites,gpslevel,voltage(v),max_altitude(feet),max_ascent(feet),max_speed(mph),max_distance(feet), xSpeed(mph), ySpeed(mph), zSpeed(mph), compass_heading(degrees), pitch(degrees), roll(degrees),isPhoto,isVideo,rc_elevator,rc_aileron,rc_throttle,rc_rudder,rc_elevator(percent),rc_aileron(percent),rc_throttle(percent),rc_rudder(percent),gimbal_heading(degrees),gimbal_pitch(degrees),gimbal_roll(degrees),battery_percent,voltageCell1,voltageCell2,voltageCell3,voltageCell4,voltageCell5,voltageCell6,current(A),battery_temperature(f),altitude(feet),ascent(feet),flycStateRaw,flycState,message
0,2022-10-21 18:43:12,-34.9540341319987,-54.940751552321,0,0,16.158142249344,16.158142249344,0,0,0,0,24,5,0,16.158142249344,0,0,0,0,-0.223694,0,249.8, -4.6, -1.4,0,0,364,364,364,1684,-100,-100,-100,100,261.6,0,0,91,4.26,4.255,0,0,0,0,0,84.2,16.158142249344,0,41,Motors_Started,
100,2022-10-21 18:43:12,-34.9540341652253,-54.9407516009682,0,0,16.158142249344,16.158142249344,0,0,0.0189362210784,0.0189362210784,24,5,0,16.158142249344,0,0,0.0189362210784,0,0,0,248, -4.3, -1.4,0,0,364,364,364,1684,-100,-100,-100,100,260.3,0,0,91,4.26,4.255,0,0,0,0,0,84.2,16.158142249344,0,41,Motors_Started,"En vuelo"
200,2022-10-21 18:43:12,-34.9540342072953,-54.9407516156893,0,0,16.158142249344,16.158142249344,0,0,0.033373360648,0.034904200592,24,5,0,16.158142249344,0,0,0.033373360648,0,0,0,248.1, -3.7, -1.7,0,0,364,364,364,1684,-100,-100,-100,100,259.5,0,0,91,4.26,4.255,0,0,0,0,0,84.2,16.158142249344,0,41,Motors_Started,
300,2022-10-21 18:43:13,-34.9540342240764,-54.9407516517961,0,0,16.158142249344,16.158142249344,0.328084,0,0.044871392512,0.047316602564,24,5,0,16.158142249344,0,0,0.044871392512,0,0,0,247.5, -3.5, -1.3,0,0,1024,1024,364,1387,0,0,-100,55,259,0,0,91,4.26,4.255,0,0,0,0,0,84.2,16.158142249344,0,41,Motors_Started,
400,2022-10-21 18:43:13,-34.9540342073181,-54.9407516656901,0,0,16.158142249344,16.158142249344,0.328084,0,0.04364009326,0.054708991252,24,5,0,16.158142249344,0,0,0.044871392512,0,0,0,247.5, -3.4, -0.4,0,0,1024,1024,969,1024,0,0,-8,0,258.8,0,0,91,4.26,4.255,0,0,0,0,0,84.2,16.158142249344,0,41,Motors_Started,
500,2022-10-21 18:43:13,-34.9540342084511,-54.9407517241325,0,0,16.158142249344,16.158142249344,0.328084,0,0.05846128796,0.07218996294,24,5,0,16.158142249344,0,0,0.05846128796,0,0,0,247.4, -3.7, 0.5,0,0,1024,1024,1223,1024,0,0,30,0,258.7,0,0,91,4.26,4.255,0,0,0,0,0,84.2,16.158142249344,0,41,Motors_Started,
600,2022-10-21 18:43:13,-34.9540342105052,-54.940751781322,0,0,16.158142249344,16.158142249344,0.328084,0,0.074228348832,0.089308073724,24,5,0,16.158142249344,0,0,0.074228348832,0,0,0,247.5, -3.5, 0.7,0,0,1024,1024,1684,1024,0,0,100,0,258.6,0,0,91,4.26,4.255,0,0,0,0,0,84.2,16.158142249344,0,41,Motors_Started,
700,2022-10-21 18:43:13,-34.9540341905075,-54.9407518237304,0,0,16.158142249344,16.158142249344,0.328084,0,0.083921262528,0.103938979704,24,5,0,16.158142249344,0,0,0.083921262528,0,0,0,247.8, -4.1, -0.1,0,0,1024,1024,1684,1024,0,0,100,0,258.6,0,0,91,4.26,4.255,0,0,0,0,0,84.2,16.158142249344,0,41,Motors_Started,"Setting new Return-To-Home altitude to 100m (328 ft). Data Recorder File Index is 12. Setting new Maximum Flight Altitude to 120m (394 ft)"
800,2022-10-21 18:43:13,-34.9540341574448,-54.940751860923,0,0,16.158142249344,16.158142249344,0.328084,0,0.092748690632,0.120346460544,24,5,0,16.158142249344,0,0,0.092748690632,0,0,0,248.9, -4.5, -1.7,0,0,1024,1024,1684,1024,0,0,100,0,259.2,0,0,91,4.26,4.255,0,0,0,0,0,84.2,16.158142249344,0,41,Motors_Started,
900,2022-10-21 18:43:13,-34.9540339912303,-54.9407519350585,0,0,16.158142249344,16.158142249344,0.328084,0,0.125447182492,0.18491470408,24,5,0,16.158142249344,0,0,0.125447182492,0,0,0,249.4, -6.2, -1.9,0,0,1024,1024,1684,1024,0,0,100,0,260,0,0,91,4.26,4.255,0,0,0,0,0,84.2,16.158142249344,0,41,Motors_Started,
1000,2022-10-21 18:43:13,-34.9540339610312,-54.9407520116766,-0.328084,-0.328084,16.158142249344,15.830058249344,0.328084,0,0.15086286572,0.21033793324,24,5,0,16.158142249344,0,0,0.15086286572,0,0,0,247.8, -6.3, 0.5,0,0,1024,1024,1684,1024,0,0,100,0,259.9,0,0,91,4.26,4.255,0,0,0,0,0,84.2,15.830058249344,-0.328084,41,Motors_Started,
1100,2022-10-21 18:43:13,-34.9540339387362,-54.9407520646707,-0.328084,-0.328084,16.158142249344,15.830058249344,0.328084,0,0.168657485712,0.228150925936,24,5,0,16.158142249344,0,0,0.168657485712,0,0,0.223694,246.5, -6.9, 1.9,0,0,1024,1024,1684,1024,0,0,100,0,258.6,0,0,91,4.26,4.255,0,0,0,0,0,84.2,15.830058249344,-0.328084,10,Assisted_Takeoff,
1200,2022-10-21 18:43:13,-34.9540339242013,-54.9407521148505,-0.328084,-0.328084,16.158142249344,15.830058249344,0.328084,0,0.184511488844,0.244065952692,24,5,0,16.158142249344,0,0,0.184511488844,0,0,0,246.7, -5.2, 2,0,0,1024,1024,1684,1024,0,0,100,0,258.3,0,0,91,4.26,4.255,0,0,0,0,0,84.2,15.830058249344,-0.328084,10,Assisted_Takeoff,
1300,2022-10-21 18:43:14,-34.9540340498337,-54.9407520817187,-0.328084,-0.328084,16.158142249344,15.830058249344,0.328084,0,0.161121724316,0.2909612954,24,5,8.538,16.158142249344,0,0,0.184511488844,0,0,0,246.5, -2.3, 2.5,0,0,1024,1024,1684,1024,0,0,100,0,258.2,0,0,91,4.26,4.255,0,0,0,0,0.577,84.2,15.830058249344,-0.328084,10,Assisted_Takeoff,
1400,2022-10-21 18:43:14,-34.9540340787504,-54.9407520782511,-0.328084,-0.328084,16.158142249344,15.830058249344,0.328084,0,0.158466868588,0.301562345608,24,5,8.538,16.158142249344,0,0,0.184511488844,0,0,0,247.8, 0.6, 2.9,0,0,1024,1024,1588,1024,0,0,85,0,258.3,0,0,91,4.26,4.255,0,0,0,0,0.577,84.2,15.830058249344,-0.328084,10,Assisted_Takeoff,
1500,2022-10-21 18:43:14,-34.9540340658552,-54.9407520870782,-0.328084,-0.328084,16.158142249344,15.830058249344,0.328084,0,0.161721789952,0.30695703082,24,5,8.538,16.158142249344,0,0,0.184511488844,0,0,0.223694,248.7, 3.5, 1,0,0,1024,1024,1024,1024,0,0,0,0,259.5,0,0,91,4.26,4.255,0,0,0,0,0.577,84.2,15.830058249344,-0.328084,10,Assisted_Takeoff,
1600,2022-10-21 18:43:14,-34.9540340043849,-54.9407520592916,-0.328084,-0.328084,16.158142249344,15.830058249344,0.328084,0,0.158590556256,0.330872714,24,5,8.538,16.158142249344,0,0,0.184511488844,0,0,0,247.7, 5.6, 1.6,0,0,1024,1024,999,1024,0,0,-4,0,259.5,0,0,91,4.26,4.255,0,0,0,0,0.577,84.2,15.830058249344,-0.328084,10,Assisted_Takeoff,
1700,2022-10-21 18:43:14,-34.9540339213192,-54.9407518164215,-0.328084,-0.328084,16.158142249344,15.830058249344,0.328084,0.3131716,0.11020669644,0.40957022308,24,5,8.538,16.158142249344,0,0.3131716,0.184511488844,0.223694,0.223694,0,245.5, 5.6, 1,0,0,1024,1024,1024,1024,0,0,0,0,257.8,0,0,91,4.26,4.255,0,0,0,0,0.577,84.2,15.830058249344,-0.328084,10,Assisted_Takeoff,
1800,2022-10-21 18:43:14,-34.954033802356,-54.9407516062598,-0.328084,-0.328084,16.158142249344,15.830058249344,0.328084,0.3131716,0.12134678866,0.48594817828,24,5,8.538,16.158142249344,0,0.3131716,0.184511488844,0.223694,0.223694,0,245.2, 8.4, 2.5,0,0,1024,1024,1024,1024,0,0,0,0,256.6,0,0,91,4.26,4.255,0,0,0,0,0.577,84.2,15.830058249344,-0.328084,10,Assisted_Takeoff,
1900,2022-10-21 18:43:14,-34.9540336109526,-54.9407515086479,0,0,16.158142249344,16.158142249344,0.328084,0.447388,0.190551515284,0.56163715708,24,5,8.538,16.158142249344,0,0.447388,0.190551515284,0.447388,0,0,247.4, 8.5, 4.4,0,0,1024,1024,1300,1024,0,0,42,0,257,0,0,91,4.26,4.255,0,0,0,0,0.577,84.2,16.158142249344,0,10,Assisted_Takeoff,
2000,2022-10-21 18:43:14,-34.9540334295842,-54.9407515119966,0,0,16.158142249344,16.158142249344,0.328084,0.223694,0.256559063328,0.62781498072,24,5,8.538,16.158142249344,0,0.447388,0.256559063328,0.223694,0,0,246.2, 4, 3.4,0,0,1024,1024,1588,1024,0,0,85,0,257.8,0,0,91,4.26,4.255,0,0,0,0,0.577,84.2,16.158142249344,0,10,Assisted_Takeoff,
2100,2022-10-21 18:43:14,-34.9540332347793,-54.9407516163242,0,0,16.158142249344,16.158142249344,0.328084,0.223694,0.327909131228,0.70543637428,24,5,8.538,16.158142249344,0,0.447388,0.327909131228,0.223694,0,0,243.2, 1.7, 2.4,0,0,1024,1024,1684,1024,0,0,100,0,256.1,0,0,91,4.26,4.255,0,0,0,0,0.577,84.2,16.158142249344,0,10,Assisted_Takeoff,
2200,2022-10-21 18:43:14,-34.9540331083332,-54.9407516454475,0,0,16.158142249344,16.158142249344,0.328084,0.223694,0.37452100936,0.75238519468,24,5,8.538,16.158142249344,0,0.447388,0.37452100936,0.223694,0,0,243.1, 0.8, 1.5,0,0,1024,1024,1684,1024,0,0,100,0,255.1,0,0,91,4.26,4.255,0,0,0,0,0.577,84.2,16.158142249344,0,10,Assisted_Takeoff,
2300,2022-10-21 18:43:15,-34.9540329777535,-54.9407516229733,0,0,16.158142249344,16.158142249344,0.328084,0,0.42165683764,0.80049871328,24,5,8.501,16.158142249344,0,0.447388,0.42165683764,0,0,-0.223694,245.5, 1.5, 0.9,0,0,1024,1024,1684,1024,0,0,100,0,255.7,0,0,91,4.248,4.237,0,0,0,0,1.313,84.2,16.158142249344,0,10,Assisted_Takeoff,
2400,2022-10-21 18:43:15,-34.9540327969135,-54.9407516283224,0,0,16.158142249344,16.158142249344,0.328084,0.3131716,0.48763453004,0.86649609072,24,5,8.501,16.158142249344,0,0.447388,0.48763453004,0.223694,-0.223694,-0.223694,244.4, 2.9, 0.2,0,0,1024,1024,1684,1024,0,0,100,0,256.1,0,0,91,4.248,4.237,0,0,0,0,1.313,84.2,16.158142249344,0,10,Assisted_Takeoff,
2500,2022-10-21 18:43:15,-34.954032622447,-54.9407517721199,0,0,16.158142249344,16.158142249344,0.328084,0.447388,0.55466865292,0.94331367848,24,5,8.501,16.158142249344,0,0.447388,0.55466865292,0.447388,0,-0.894776,244.6, 1.8, -0.2,0,0,1024,1024,1493,1024,0,0,71,0,255.9,0,0,91,4.248,4.237,0,0,0,0,1.313,84.2,16.158142249344,0,6,P-GPS,
2600,2022-10-21 18:43:15,-34.9540324418663,-54.9407520270705,0,0,16.158142249344,16.158142249344,0.656168,0.671082,0.6327756108,1.0440781174,24,5,8.501,16.158142249344,0,0.671082,0.6327756108,0.671082,0,-1.565858,244.8, -1.4, -2.1,0,0,1024,1024,1493,1024,0,0,71,0,255.9,0,0,91,4.248,4.237,0,0,0,0,1.313,84.2,16.158142249344,0,6,P-GPS,
2700,2022-10-21 18:43:15,-34.954032211047,-54.9407519746108,0.656168,0.656168,16.158142249344,16.814310249344,0.984252,0.447388,0.71214241124,1.1297408498,24,5,8.501,16.814310249344,0.656168,0.671082,0.71214241124,0.447388,0,-2.23694,244.9, -2.9, -2.6,0,0,1024,1024,1024,1024,0,0,0,0,255.9,0,0,91,4.248,4.237,0,0,0,0,1.313,84.2,16.814310249344,0.656168,6,P-GPS,
2800,2022-10-21 18:43:15,-34.9540319919532,-54.9407519067793,0.984252,0.984252,16.158142249344,17.142394249344,1.312336,0.447388,0.78795606196,1.21220804404,24,5,8.501,17.142394249344,0.984252,0.671082,0.78795606196,0.447388,0,-2.460634,244.8, -2.7, -3.1,0,0,1024,1024,1024,1024,0,0,0,0,255.9,0,0,91,4.248,4.237,0,0,0,0,1.313,84.2,17.142394249344,0.984252,6,P-GPS,
2900,2022-10-21 18:43:15,-34.9540317452558,-54.9407518960525,1.312336,1.312336,16.158142249344,17.470478249344,1.64042,0.447388,0.87684714092,1.30227366372,24,5,8.501,17.470478249344,1.312336,0.671082,0.87684714092,0.447388,0,-2.460634,244.9, -3, -3.5,0,0,1024,1024,1024,1024,0,0,0,0,255.9,0,0,91,4.248,4.237,0,0,0,0,1.313,84.2,17.470478249344,1.312336,6,P-GPS,
3000,2022-10-21 18:43:15,-34.9540314621881,-54.9407518788385,1.64042,1.6076116,16.190950649344,17.798562249344,1.968504,0.223694,0.97896000508,1.40567917884,24,5,8.501,17.798562249344,1.64042,0.671082,0.97896000508,0.223694,0,-2.013246,244.9, -3.2, -3.9,0,0,1024,1024,1024,1024,0,0,0,0,255.9,0,0,91,4.248,4.237,0,0,0,0,1.313,84.2,17.798562249344,1.64042,6,P-GPS,
3100,2022-10-21 18:43:15,-34.9540312569017,-54.9407517922854,1.968504,1.9356956,16.190950649344,18.126646249344,3.608924,0.223694,1.05143047984,1.4849245882,24,5,8.501,18.126646249344,1.968504,0.671082,1.05143047984,0.223694,0,-1.565858,244.9, -3.2, -3.6,0,0,1024,1024,1024,1024,0,0,0,0,255.9,0,0,91,4.248,4.237,0,0,0,0,1.313,84.2,18.126646249344,1.968504,6,P-GPS,
3200,2022-10-21 18:43:15,-34.9540310570704,-54.9407516979059,2.296588,2.2637796,16.190950649344,18.454730249344,3.937008,0.223694,1.12272969472,1.56310372456,24,5,8.501,18.454730249344,2.296588,0.671082,1.12272969472,0.223694,0,-0.894776,244.8, -2.8, -3.3,0,0,1024,1024,1024,1024,0,0,0,0,255.9,0,0,91,4.248,4.237,0,0,0,0,1.313,84.2,18.454730249344,2.296588,6,P-GPS,
3300,2022-10-21 18:43:16,-34.9540308236956,-54.9407515957172,2.296588,2.2637796,16.190950649344,18.454730249344,3.937008,0.223694,1.207103057,1.65356960672,24,5,8.405,18.454730249344,2.296588,0.671082,1.207103057,0.223694,0,-0.447388,244.6, -2.8, -3.8,0,0,1024,1024,1024,1024,0,0,0,0,255.9,0,0,91,4.215,4.206,0,0,0,0,2.656,84.2,18.454730249344,2.296588,6,P-GPS,
3400,2022-10-21 18:43:16,-34.9540304263651,-54.940751282933,2.296588,2.2309712,16.223759049344,18.454730249344,3.937008,0.223694,1.3543963688,1.82608929728,24,5,8.405,18.454730249344,2.296588,0.671082,1.3543963688,0.223694,0,-0.223694,244.7, -2.7, -3.7,0,0,1024,1024,1024,1024,0,0,0,0,255.9,0,0,91,4.215,4.206,0,0,0,0,2.656,84.2,18.454730249344,2.296588,6,P-GPS,
3500,2022-10-21 18:43:16,-34.9540302957326,-54.9407512507994,2.624672,2.5590552,16.223759049344,18.782814249344,4.265092,0.223694,1.4025591,1.87470806524,24,5,8.405,18.782814249344,2.624672,0.671082,1.4025591,0.223694,0,0,244.6, -2.8, -3.2,0,0,1024,1024,1024,1024,0,0,0,0,255.9,0,0,91,4.215,4.206,0,0,0,0,2.656,84.2,18.782814249344,2.624672,6,P-GPS,
3600,2022-10-21 18:43:16,-34.954030190841,-54.9407512313486,2.624672,2.5590552,16.223759049344,18.782814249344,4.265092,0.223694,1.44112865504,1.9134186964,24,5,8.405,18.782814249344,2.624672,0.671082,1.44112865504,0.223694,0,0,244.6, -2.6, -3.6,0,0,1024,1024,1024,1024,0,0,0,0,255.9,0,0,91,4.215,4.206,0,0,0,0,2.656,84.2,18.782814249344,2.624672,6,P-GPS,
3700,2022-10-21 18:43:16,-34.9540300650133,-54.9407511541204,2.624672,2.5590552,16.223759049344,18.782814249344,4.265092,0,1.48860897152,1.96480977416,24,5,8.405,18.782814249344,2.624672,0.671082,1.48860897152,0,0,0,244.6, -2.3, -3.4,0,0,1024,1024,1024,1024,0,0,0,0,255.9,0,0,91,4.215,4.206,0,0,0,0,2.656,84.2,18.782814249344,2.624672,6,P-GPS,
3800,2022-10-21 18:43:16,-34.9540299343415,-54.9407510809072,2.624672,2.5590552,16.223759049344,18.782814249344,4.265092,0,1.53798561352,2.01727040576,24,5,8.405,18.782814249344,2.624672,0.671082,1.53798561352,0,0,0,244.7, -2.7, -3.2,0,0,1024,1024,1024,1024,0,0,0,0,255.9,0,0,91,4.215,4.206,0,0,0,0,2.656,84.2,18.782814249344,2.624672,6,P-GPS,"Punto de origen actualizado. Altitud de RPO establecida en 100m (Code: 3000001)"
3900,2022-10-21 18:43:16,-34.9540298868398,-54.9407510429712,2.624672,2.5590552,16.223759049344,18.782814249344,4.265092,0,1.5563156666,2.03798234868,24,5,8.405,18.782814249344,2.624672,0.671082,1.5563156666,0,0,0,244.8, -2.8, -3.6,0,0,1024,1024,1024,1024,0,0,0,0,255.9,0,0,91,4.215,4.206,0,0,0,0,2.656,84.2,18.782814249344,2.624672,6,P-GPS,
4000,2022-10-21 18:43:16,-34.9540298664621,-54.9407510129569,2.624672,2.5590552,16.223759049344,18.782814249344,4.265092,0,1.56461291096,2.0496391732,24,5,8.405,18.782814249344,2.624672,0.671082,1.56461291096,0,0,0,245.1, -3.1, -3.1,0,0,1024,1024,1038,1024,0,0,2,0,255.9,0,0,91,4.215,4.206,0,0,0,0,2.656,84.2,18.782814249344,2.624672,6,P-GPS,
4100,2022-10-21 18:43:16,-34.9540298513945,-54.940750976219,2.624672,2.5590552,16.223759049344,18.782814249344,4.265092,0,1.57125005028,2.06192263816,24,5,8.405,18.782814249344,2.624672,0.671082,1.57125005028,0,0,0,245.4, -3, -2.5,0,0,1024,1024,1684,1024,0,0,100,0,255.9,0,0,91,4.215,4.206,0,0,0,0,2.656,84.2,18.782814249344,2.624672,6,P-GPS,
4200,2022-10-21 18:43:16,-34.9540298453452,-54.9407509495704,2.624672,2.5590552,16.223759049344,18.782814249344,4.265092,0,1.57433403988,2.0701936358,24,5,8.405,18.782814249344,2.624672,0.671082,1.57433403988,0,0,0,245.4, -2.6, -2.1,0,0,1024,1024,1684,1043,0,0,100,3,255.9,0,0,91,4.215,4.206,0,0,0,0,2.656,84.2,18.782814249344,2.624672,6,P-GPS,
4300,2022-10-21 18:43:17,-34.954030014324,-54.9407510804891,2.624672,2.5590552,16.223759049344,18.782814249344,4.265092,0,1.50894361784,2.1432251342,24,5,8.332,18.782814249344,2.624672,0.671082,1.57433403988,0,0,-0.671082,245.5, -2.2, -2.4,0,0,1024,1024,1024,1024,0,0,0,0,256,0,0,91,4.21,4.201,0,0,0,0,4.179,84.2,18.782814249344,2.624672,6,P-GPS,
4400,2022-10-21 18:43:17,-34.9540300872278,-54.9407510685302,2.952756,2.8871392,16.223759049344,19.110898249344,4.265092,0,1.48280516556,2.1700624054,24,5,8.332,19.110898249344,2.952756,0.671082,1.57433403988,0,0,-1.342164,246.2, -2.5, -2.4,0,0,1024,1024,1024,1024,0,0,0,0,256.1,0,0,91,4.21,4.201,0,0,0,0,4.179,84.2,19.110898249344,2.952756,6,P-GPS,
4500,2022-10-21 18:43:17,-34.954030139644,-54.9407510592654,2.952756,2.8871392,16.223759049344,19.110898249344,4.593176,0,1.46405188412,2.189386553,24,5,8.332,19.110898249344,2.952756,0.671082,1.57433403988,0,0,-1.11847,246.5, -2.7, -2.6,0,0,1024,1024,1024,1024,0,0,0,0,256.2,0,0,91,4.21,4.201,0,0,0,0,4.179,84.2,19.110898249344,2.952756,6,P-GPS,
4600,2022-10-21 18:43:17,-34.9540301897192,-54.9407510501743,3.28084,3.2152232,16.223759049344,19.438982249344,4.593176,0,1.44615490192,2.2078576822,24,5,8.332,19.438982249344,3.28084,0.671082,1.57433403988,0,0,-0.894776,246.8, -2.6, -2.5,0,0,1024,1024,1024,1024,0,0,0,0,256.2,0,0,91,4.21,4.201,0,0,0,0,4.179,84.2,19.438982249344,3.28084,6,P-GPS,
4700,2022-10-21 18:43:17,-34.9540300877059,-54.9407511249031,3.28084,3.2152232,16.223759049344,19.438982249344,4.92126,0,1.48108272456,2.25126975708,24,5,8.332,19.438982249344,3.28084,0.671082,1.57433403988,0,0,-0.447388,247, -2.3, -2.4,0,0,1024,1024,1024,1024,0,0,0,0,256.2,0,0,91,4.21,4.201,0,0,0,0,4.179,84.2,19.438982249344,3.28084,6,P-GPS,
4800,2022-10-21 18:43:17,-34.9540300717801,-54.9407511567387,3.608924,3.5433072,16.223759049344,19.767066249344,4.92126,0,1.48608272472,2.26242133224,24,5,8.332,19.767066249344,3.608924,0.671082,1.57433403988,0,0,-0.223694,247.1, -2.3, -2.8,0,0,1684,975,1024,1024,100,-7,0,0,256.2,0,0,91,4.21,4.201,0,0,0,0,4.179,84.2,19.767066249344,3.608924,6,P-GPS,
4900,2022-10-21 18:43:17,-34.9540300659975,-54.940751184558,3.608924,3.5433072,16.223759049344,19.767066249344,4.92126,0,1.4875492602,2.27100400968,24,5,8.332,19.767066249344,3.608924,0.671082,1.57433403988,0,0,0,247.5, -8.5, -2.7,0,0,1684,850,1024,1024,100,-26,0,0,256.2,0,0,91,4.21,4.201,0,0,0,0,4.179,84.2,19.767066249344,3.608924,6,P-GPS,
5000,2022-10-21 18:43:17,-34.9540300966693,-54.9407513030096,3.608924,3.5433072,16.223759049344,19.767066249344,4.92126,0.3131716,1.47417327552,2.308152961,24,5,8.332,19.767066249344,3.608924,0.671082,1.57433403988,-0.223694,-0.223694,0,248, -16.1, -4.2,0,0,1684,859,1024,1024,100,-25,0,0,256.2,0,0,91,4.21,4.201,0,0,0,0,4.179,84.2,19.767066249344,3.608924,6,P-GPS,
5100,2022-10-21 18:43:17,-34.9540302506322,-54.9407516179392,3.608924,3.5761156,16.190950649344,19.767066249344,4.92126,1.006623,1.41625004532,2.41780847632,24,5,8.332,19.767066249344,3.608924,1.006623,1.57433403988,-0.447388,-0.894776,0,248.1, -18.4, -4.8,0,0,1684,896,1024,1024,100,-19,0,0,256.2,0,0,91,4.21,4.201,0,0,0,0,4.179,84.2,19.767066249344,3.608924,6,P-GPS,
5200,2022-10-21 18:43:17,-34.9540305366655,-54.9407521957776,3.28084,3.2480316,16.190950649344,19.438982249344,4.92126,1.4987498,1.32579400568,2.619668719,24,5,8.332,19.767066249344,3.608924,1.4987498,1.57433403988,-0.671082,-1.342164,0,248.3, -18.6, -5,0,0,1684,954,1024,1024,100,-11,0,0,256.2,0,0,91,4.21,4.201,0,0,0,0,4.179,84.2,19.438982249344,3.28084,6,P-GPS,
5300,2022-10-21 18:43:18,-34.9540309057437,-54.9407530050917,3.28084,3.28084,16.158142249344,19.438982249344,4.92126,2.1922012,1.25470476456,2.89662410844,24,5,8.383,19.767066249344,3.608924,2.1922012,1.57433403988,-0.894776,-2.013246,0,248.4, -18.8, -4,0,0,1684,1024,1024,1024,100,0,0,0,256.2,0,0,91,4.171,4.153,0,0,0,0,3.502,84.38,19.438982249344,3.28084,6,P-GPS,
5400,2022-10-21 18:43:18,-34.9540313909859,-54.9407541031283,3.28084,3.3136484,16.125333849344,19.438982249344,4.92126,2.796175,1.25775594576,3.26966217812,24,5,8.383,19.767066249344,3.608924,2.796175,1.57433403988,-1.342164,-2.460634,0,248.4, -18.9, -3.2,0,0,1684,1024,1024,1024,100,0,0,0,256.2,0,0,91,4.171,4.153,0,0,0,0,3.502,84.38,19.438982249344,3.28084,6,P-GPS,
5500,2022-10-21 18:43:18,-34.9540321008431,-54.9407555294201,3.28084,3.4120736,16.026908649344,19.438982249344,4.92126,3.5119958,1.40128285324,3.7686352912,24,5,8.383,19.767066249344,3.608924,3.5119958,1.57433403988,-1.565858,-3.131716,0,248.5, -18.9, -2.6,0,0,1684,1024,1089,1024,100,0,10,0,256.2,0,0,91,4.171,4.153,0,0,0,0,3.502,84.38,19.438982249344,3.28084,6,P-GPS,
5600,2022-10-21 18:43:18,-34.9540328318096,-54.9407571855988,3.28084,3.444882,15.994100249344,19.438982249344,4.92126,4.0041226,1.7500656728,4.3311353092,24,5,8.383,19.767066249344,3.608924,4.0041226,1.7500656728,-1.789552,-3.579104,0,248.5, -18.6, -2.3,0,0,1684,1024,1089,1024,100,0,10,0,256.2,0,0,91,4.171,4.153,0,0,0,0,3.502,84.38,19.438982249344,3.28084,6,P-GPS,
5700,2022-10-21 18:43:18,-34.9540336093394,-54.9407591367833,3.28084,3.5433072,15.895675049344,19.438982249344,4.92126,4.6080964,2.27602041404,4.9799214192,24,5,8.383,19.767066249344,3.608924,4.6080964,2.27602041404,-1.789552,-4.250186,0,248.5, -18, -2.1,0,0,1684,1024,1544,1024,100,0,79,0,256.2,0,0,91,4.171,4.153,0,0,0,0,3.502,84.38,19.438982249344,3.28084,6,P-GPS,
5800,2022-10-21 18:43:18,-34.9540344973136,-54.9407614590547,3.28084,3.608924,15.830058249344,19.438982249344,4.92126,5.1002232,2.96545613164,5.746227218,24,5,8.383,19.767066249344,3.608924,5.1002232,2.96545613164,-2.013246,-4.697574,-0.447388,248.5, -17.1, -1.8,0,0,1684,1024,1684,1035,100,0,100,2,256.2,0,0,91,4.171,4.153,0,0,0,0,3.502,84.38,19.438982249344,3.28084,6,P-GPS,
5900,2022-10-21 18:43:18,-34.9540354292907,-54.9407639365272,3.608924,4.0682416,15.698824649344,19.767066249344,5.249344,5.816044,3.733431878,6.5613847244,24,5,8.383,19.767066249344,3.608924,5.816044,3.733431878,-2.23694,-5.368656,-1.11847,248.6, -16.2, -2.4,0,0,1563,1024,1684,1050,82,0,100,4,256.2,0,0,91,4.171,4.153,0,0,0,0,3.502,84.38,19.767066249344,3.608924,6,P-GPS,
6000,2022-10-21 18:43:18,-34.9540366621653,-54.9407672393127,3.608924,4.1994752,15.567591049344,19.767066249344,5.577428,6.3081708,4.7809384732,7.6466209796,24,5,8.383,19.767066249344,3.608924,6.3081708,4.7809384732,-2.460634,-5.816044,-2.013246,248.6, -15, -2.5,0,0,1296,1024,1684,1032,41,0,100,1,256.2,0,0,91,4.171,4.153,0,0,0,0,3.502,84.38,19.767066249344,3.608924,6,P-GPS,
6100,2022-10-21 18:43:18,-34.9540377167342,-54.9407701395101,4.265092,4.9540684,15.469165849344,20.423234249344,5.905512,6.822667,5.7100395528,8.5954070992,24,5,8.383,20.423234249344,4.265092,6.822667,5.7100395528,-2.684328,-6.263432,-2.684328,248.6, -11, -2.1,0,0,1024,1024,1684,1034,0,0,100,2,256.2,0,0,91,4.171,4.153,0,0,0,0,3.502,84.38,20.423234249344,4.265092,6,P-GPS,
6200,2022-10-21 18:43:18,-34.9540388654313,-54.9407732914034,4.593176,5.413386,15.337932249344,20.751318249344,6.56168,6.822667,6.726214126,9.6269031952,24,5,8.383,20.751318249344,4.593176,6.822667,6.726214126,-2.684328,-6.263432,-3.579104,248.5, -2.5, -2,0,0,1024,1024,1684,1034,0,0,100,2,256.2,0,0,91,4.171,4.153,0,0,0,0,3.502,84.38,20.751318249344,4.593176,6,P-GPS,
6300,2022-10-21 18:43:19,-34.9540399007626,-54.9407761150885,5.249344,6.1679792,15.239507049344,21.407486249344,7.217848,6.1068462,7.6407154676,10.5519360332,24,5,8.374,21.407486249344,5.249344,6.822667,7.6407154676,-2.460634,-5.59235,-4.47388,248.3, 19.2, 0.4,0,0,1199,1024,1684,1032,27,0,100,1,256.2,0,0,91,4.188,4.174,0,0,0,0,4.165,84.38,21.407486249344,5.249344,6,P-GPS,
6400,2022-10-21 18:43:19,-34.9540407328779,-54.9407785263263,5.905512,6.9553808,15.108273449344,22.063654249344,8.2021,4.6080964,8.4180120804,11.3342851396,24,5,8.374,22.063654249344,5.905512,6.822667,8.4180120804,-1.789552,-4.250186,-5.368656,248.3, 20.2, 0,0,0,1630,1024,1684,1030,92,0,100,1,256.2,0,0,91,4.188,4.174,0,0,0,0,4.165,84.38,22.063654249344,5.905512,6,P-GPS,
6500,2022-10-21 18:43:19,-34.9540413541627,-54.9407803209456,6.56168,7.6443572,15.075465049344,22.719822249344,9.186352,3.4001488,8.9973099992,11.9168638984,24,5,8.374,22.719822249344,6.56168,6.822667,8.9973099992,-1.342164,-3.131716,-6.039738,248.8, 6.3, -1.3,0,0,1630,1024,1684,1030,92,0,100,1,256.2,0,0,91,4.188,4.174,0,0,0,0,4.165,84.38,22.719822249344,6.56168,6,P-GPS,
6600,2022-10-21 18:43:19,-34.9540418996246,-54.9407819016128,7.545932,8.7270344,14.977039849344,23.704074249344,10.170604,2.908022,9.507710278,12.4297248072,24,5,8.374,23.704074249344,7.545932,6.822667,9.507710278,-1.11847,-2.684328,-6.263432,249.1, -8, -2.1,0,0,1684,1024,1684,1024,100,0,100,0,256.2,0,0,91,4.188,4.174,0,0,0,0,4.165,84.38,23.704074249344,7.545932,6,P-GPS,
6700,2022-10-21 18:43:19,-34.9540425048066,-54.9407832953478,8.530184,9.7440948,14.944231449344,24.688326249344,11.154856,2.908022,9.9717194792,12.9013783656,24,5,8.374,24.688326249344,8.530184,6.822667,9.9717194792,-1.11847,-2.684328,-6.263432,249.1, -16.8, -2,0,0,1684,1024,1024,1024,100,0,0,0,256.2,0,0,91,4.188,4.174,0,0,0,0,4.165,84.38,24.688326249344,8.530184,6,P-GPS,
6800,2022-10-21 18:43:19,-34.9540433080048,-54.9407849617516,9.514436,10.7939636,14.878614649344,25.672578249344,11.811024,3.4001488,10.5366145104,13.4794623736,24,5,8.374,25.672578249344,9.514436,6.822667,10.5366145104,-1.342164,-3.131716,-5.816044,248.4, -19.2, -1.8,0,0,1684,944,1024,1024,100,-12,0,0,256.2,0,0,91,4.188,4.174,0,0,0,0,4.165,84.38,25.672578249344,9.514436,6,P-GPS,
6900,2022-10-21 18:43:19,-34.9540438757903,-54.9407864802161,10.498688,11.8438324,14.812997849344,26.656830249344,12.467192,3.7133204,11.0331040276,13.9785437544,24,5,8.374,26.656830249344,10.498688,6.822667,11.0331040276,-1.565858,-3.35541,-5.144962,248.5, -19.9, -1.4,0,0,1684,915,1024,1024,100,-17,0,0,256.2,0,0,91,4.188,4.174,0,0,0,0,4.165,84.38,26.656830249344,10.498688,6,P-GPS,
7000,2022-10-21 18:43:19,-34.9540444928387,-54.9407882095909,11.154856,12.5656172,14.747381049344,27.312998249344,13.451444,4.1159696,11.5952759616,14.5425857672,24,5,8.374,27.312998249344,11.154856,6.822667,11.5952759616,-1.565858,-3.802798,-4.47388,248.6, -20.8, -1.9,0,0,1684,914,1024,1024,100,-17,0,0,256.2,0,0,91,4.188,4.174,0,0,0,0,4.165,84.38,27.312998249344,11.154856,6,P-GPS,
7100,2022-10-21 18:43:19,-34.9540450703932,-54.9407898320054,11.811024,13.287402,14.681764249344,27.969166249344,13.779528,4.1159696,12.1227038,15.071522792,24,5,8.374,27.969166249344,11.811024,6.822667,12.1227038,-1.789552,-4.250186,-3.579104,248.6, -20.2, -2.6,0,0,1684,914,1024,1024,100,-17,0,0,256.2,0,0,91,4.188,4.174,0,0,0,0,4.165,84.38,27.969166249344,11.811024,6,P-GPS,
7200,2022-10-21 18:43:19,-34.9540454247597,-54.9407908369966,12.139108,13.6482944,14.648955849344,28.297250249344,14.435696,5.1002232,12.4490489548,15.3986881568,24,5,8.374,28.297250249344,12.139108,6.822667,12.4490489548,-2.013246,-4.697574,-2.908022,248.7, -19.7, -2.7,0,0,1684,911,1024,1024,100,-17,0,0,256.2,0,0,91,4.188,4.174,0,0,0,0,4.165,84.38,28.297250249344,12.139108,6,P-GPS,
7300,2022-10-21 18:43:20,-34.9540461384465,-54.9407933086079,12.467192,14.0748036,14.550530649344,28.625334249344,14.76378,5.5252418,13.2326775888,16.1823167908,24,5,8.281,28.625334249344,12.467192,6.822667,13.2326775888,-2.013246,-5.144962,-2.013246,248.7, -19.3, -2.8,0,0,1684,914,1455,1084,100,-17,65,9,256.2,0,0,91,4.135,4.119,0,0,0,0,5.27,84.38,28.625334249344,12.467192,6,P-GPS,
7400,2022-10-21 18:43:20,-34.9540469437267,-54.9407961166117,12.795276,14.5341212,14.419297049344,28.953418249344,14.76378,5.816044,14.1223101632,17.0719165568,24,5,8.281,28.953418249344,12.795276,6.822667,14.1223101632,-2.23694,-5.368656,-1.11847,248.7, -19.1, -3.2,0,0,1684,914,1455,1084,100,-17,65,9,256.2,0,0,91,4.135,4.119,0,0,0,0,5.27,84.38,28.953418249344,12.795276,6,P-GPS,
7500,2022-10-21 18:43:20,-34.954047832051,-54.9407988884133,13.12336,14.9606304,14.320871849344,29.281502249344,15.091864,6.3081708,15.0117458872,17.9618772152,24,5,8.281,29.281502249344,13.12336,6.822667,15.0117458872,-2.460634,-5.816044,-0.894776,248.7, -18.3, -2.8,0,0,1684,920,1684,1399,100,-16,100,57,256.2,0,0,91,4.135,4.119,0,0,0,0,5.27,84.38,29.281502249344,13.12336,6,P-GPS,
7600,2022-10-21 18:43:20,-34.9540488743708,-54.940802020392,13.12336,15.091864,14.189638249344,29.281502249344,15.419948,6.822667,16.0215556308,18.9727368276,24,5,8.281,29.281502249344,13.12336,6.822667,16.0215556308,-2.684328,-6.263432,-1.342164,248.9, -18.6, -3.1,0,0,1684,920,1684,1518,100,-16,100,75,257,0,0,91,4.135,4.119,0,0,0,0,5.27,84.38,29.281502249344,13.12336,6,P-GPS,
7700,2022-10-21 18:43:20,-34.9540501580585,-54.9408061097352,13.451444,15.5511816,14.058404649344,29.609586249344,15.748032,7.3147938,17.330709216,20.2822184968,24,5,8.281,29.609586249344,13.451444,7.3147938,17.330709216,-2.908022,-6.71082,-2.013246,250.2, -18.8, -4.2,0,0,1684,918,1684,1669,100,-16,100,98,259.1,0,0,91,4.135,4.119,0,0,0,0,5.27,84.38,29.609586249344,13.451444,6,P-GPS,
7800,2022-10-21 18:43:20,-34.9540514757889,-54.940809664193,14.107612,16.3713916,13.894362649344,30.265754249344,16.076116,8.0977228,18.4937341876,21.4487867756,24,5,8.281,30.265754249344,14.107612,8.0977228,18.4937341876,-3.35541,-7.381902,-2.684328,252.7, -17.7, -4.3,0,0,1684,918,1684,1684,100,-16,100,100,262.1,0,0,91,4.135,4.119,0,0,0,0,5.27,84.38,30.265754249344,14.107612,6,P-GPS,
7900,2022-10-21 18:43:20,-34.9540528622592,-54.9408132143497,14.76378,17.1587932,13.763129049344,30.921922249344,16.732284,8.612219,19.664698792,22.6247710652,24,5,8.281,30.921922249344,14.76378,8.612219,19.664698792,-3.579104,-7.82929,-3.579104,256.3, -16.5, -3.8,0,0,1684,918,1684,1684,100,-16,100,100,266.4,0,0,91,4.135,4.119,0,0,0,0,5.27,84.38,30.921922249344,14.76378,6,P-GPS,
8000,2022-10-21 18:43:20,-34.9540544045324,-54.9408171495866,15.419948,17.9790032,13.599087049344,31.578090249344,17.388452,9.1043458,20.9640098572,23.929134624,24,5,8.281,31.578090249344,15.419948,9.1043458,20.9640098572,-3.802798,-8.276678,-4.47388,260.8, -15.5, -3.2,0,0,1684,920,1684,1594,100,-16,100,86,271.1,0,0,91,4.135,4.119,0,0,0,0,5.27,84.38,31.578090249344,15.419948,6,P-GPS,
8100,2022-10-21 18:43:20,-34.9540561730845,-54.9408213921266,16.076116,18.7992132,13.435045049344,32.234258249344,18.372704,9.3056704,22.3792986164,25.3524942496,24,5,8.281,32.234258249344,16.076116,9.3056704,22.3792986164,-3.802798,-8.500372,-5.144962,265.5, -15.2, -2.7,0,0,1684,920,1674,1514,100,-16,98,74,275.9,0,0,91,4.135,4.119,0,0,0,0,5.27,84.38,32.234258249344,16.076116,6,P-GPS,
8200,2022-10-21 18:43:20,-34.9540578034614,-54.9408259116681,17.060368,19.9803156,13.238194649344,33.218510249344,19.356956,9.730689,23.8543642804,26.8291019084,24,5,8.281,33.218510249344,17.060368,9.730689,23.8543642804,-3.802798,-8.94776,-5.816044,270, -15, -2.6,0,0,1684,952,1617,1375,100,-11,90,53,280.2,0,0,91,4.135,4.119,0,0,0,0,5.27,84.38,33.218510249344,17.060368,6,P-GPS,
8300,2022-10-21 18:43:21,-34.9540592340886,-54.9408302028331,18.04462,21.1286096,13.074152649344,34.202762249344,20.341208,9.842536,25.23950212,28.21440379,24,5,8.344,34.202762249344,18.04462,9.842536,25.23950212,-3.579104,-9.171454,-6.263432,273.9, -15.2, -3.2,0,0,1684,952,1617,1375,100,-11,90,53,283.4,0,0,91,4.191,4.183,0,0,0,0,5.095,84.38,34.202762249344,18.04462,6,P-GPS,
8400,2022-10-21 18:43:21,-34.9540606816483,-54.9408348452018,19.028872,22.2769036,12.910110649344,35.187014249344,21.32546,9.9767524,26.7247711964,29.6997056748,24,5,8.344,35.187014249344,19.028872,9.9767524,26.7247711964,-3.35541,-9.395148,-6.263432,276.6, -15.5, -3.3,0,0,1684,969,1594,1305,100,-8,86,43,285.4,0,0,91,4.191,4.183,0,0,0,0,5.095,84.38,35.187014249344,19.028872,6,P-GPS,
8500,2022-10-21 18:43:21,-34.9540620439231,-54.9408394583975,20.013124,23.3267724,12.844493849344,36.171266249344,22.309712,10.401771,28.1906505084,31.166011496,24,5,8.344,36.171266249344,20.013124,10.401771,28.1906505084,-3.35541,-9.842536,-5.816044,278.3, -15.9, -2.8,0,0,1684,974,1577,1197,100,-8,84,26,286.8,0,0,91,4.191,4.183,0,0,0,0,5.095,84.38,36.171266249344,20.013124,6,P-GPS,
8600,2022-10-21 18:43:21,-34.9540634351223,-54.9408444893375,20.997376,24.4094496,12.746068649344,37.155518249344,22.96588,10.3346628,29.77690384,32.753774014,24,5,8.344,37.155518249344,20.997376,10.401771,29.77690384,-3.131716,-9.842536,-5.59235,279.5, -16.1, -2.4,0,0,1684,974,1570,1147,100,-8,83,19,287.7,0,0,91,4.191,4.183,0,0,0,0,5.095,84.38,37.155518249344,20.997376,6,P-GPS,
8700,2022-10-21 18:43:21,-34.9540646040455,-54.9408493216697,21.653544,25.1640428,12.647643449344,37.811686249344,23.950132,10.6925732,31.2789708172,34.260499784,24,5,8.344,37.811686249344,21.653544,10.6925732,31.2789708172,-2.908022,-10.289924,-5.368656,280.2, -16.2, -2.5,0,0,1684,974,1560,1147,100,-8,81,19,288.1,0,0,91,4.191,4.183,0,0,0,0,5.095,84.38,37.811686249344,21.653544,6,P-GPS,
8800,2022-10-21 18:43:21,-34.954065744764,-54.9408545074946,22.309712,25.918636,12.549218249344,38.467854249344,24.6063,10.625465,32.876641472,35.86614288,24,5,8.344,38.467854249344,22.309712,10.6925732,32.876641472,-2.684328,-10.289924,-5.144962,280.5, -16.4, -2.3,0,0,1684,974,1559,1146,100,-8,81,18,288.4,0,0,91,4.191,4.183,0,0,0,0,5.095,84.38,38.467854249344,22.309712,6,P-GPS,
8900,2022-10-21 18:43:21,-34.9540668205695,-54.9408597066465,23.293964,27.0013132,12.450793049344,39.452106249344,25.590552,11.0057448,34.470801628,37.469489388,24,5,8.344,39.452106249344,23.293964,11.0057448,34.470801628,-2.460634,-10.737312,-5.144962,280.8, -16.6, -2.4,0,0,1684,974,1565,1147,100,-8,82,19,288.6,0,0,91,4.191,4.183,0,0,0,0,5.095,84.38,39.452106249344,23.293964,6,P-GPS,
9000,2022-10-21 18:43:21,-34.954067895349,-54.9408652416264,23.950132,27.7559064,12.352367849344,40.108274249344,26.24672,11.1847,36.160106144,39.170604928,24,5,8.344,40.108274249344,23.950132,11.1847,36.160106144,-2.23694,-10.961006,-4.921268,281, -16.4, -2.4,0,0,1684,974,1566,1144,100,-8,82,18,288.8,0,0,91,4.191,4.183,0,0,0,0,5.095,84.38,40.108274249344,23.950132,6,P-GPS,
9100,2022-10-21 18:43:21,-34.9540686447557,-54.9408704106229,24.6063,28.5104996,12.253942649344,40.764442249344,26.902888,11.3636552,37.707350288,40.740158784,24,5,8.344,40.764442249344,24.6063,11.3636552,37.707350288,-2.013246,-11.1847,-4.921268,281.3, -16.3, -2.6,0,0,1684,974,1566,1144,100,-8,82,18,289,0,0,91,4.191,4.183,0,0,0,0,5.095,84.38,40.764442249344,24.6063,6,P-GPS,
9200,2022-10-21 18:43:21,-34.9540693300212,-54.9408759489476,25.262468,29.2650928,12.155517449344,41.420610249344,27.88714,11.5426104,39.353347716,42.415027604,24,5,8.344,41.420610249344,25.262468,11.5426104,39.353347716,-1.789552,-11.408394,-4.921268,281.4, -16, -3.3,0,0,1684,974,1565,1144,100,-8,82,18,289.2,0,0,91,4.191,4.183,0,0,0,0,5.095,84.38,41.420610249344,25.262468,6,P-GPS,
9300,2022-10-21 18:43:22,-34.9540699602258,-54.940881353679,25.918636,29.9868776,12.089900649344,42.076778249344,28.543308,11.743935,40.957022308,44.047573588,24,5,8.194,42.076778249344,25.918636,11.743935,40.957022308,-1.565858,-11.632088,-4.921268,281.7, -16, -3.2,0,0,1684,974,1565,1144,100,-8,82,18,289.4,0,0,91,4.119,4.097,0,0,0,0,6.395,84.38,42.076778249344,25.918636,6,P-GPS,
9400,2022-10-21 18:43:22,-34.9540702145757,-54.9408867105485,26.574804,30.7414708,11.991475449344,42.732946249344,29.199476,11.9228902,42.506891124,45.652232432,24,5,8.194,42.732946249344,26.574804,11.9228902,42.506891124,-1.342164,-11.855782,-4.921268,282, -16.4, -3.3,0,0,1684,974,1564,1144,100,-8,82,18,289.6,0,0,91,4.119,4.097,0,0,0,0,6.395,84.38,42.732946249344,26.574804,6,P-GPS,
9500,2022-10-21 18:43:22,-34.9540707692433,-54.9408922950523,27.230972,31.496064,11.893050249344,43.389114249344,29.855644,11.9228902,44.158794064,47.3343191,24,5,8.194,43.389114249344,27.230972,11.9228902,44.158794064,-1.342164,-11.855782,-4.921268,282.2, -16.8, -3.3,0,0,1684,974,1563,1144,100,-8,82,18,289.8,0,0,91,4.119,4.097,0,0,0,0,6.395,84.38,43.389114249344,27.230972,6,P-GPS,
9600,2022-10-21 18:43:22,-34.9540712888635,-54.9408982553963,28.215224,32.5787412,11.794625049344,44.373366249344,30.511812,12.1242148,45.916340052,49.126641992,24,5,8.194,44.373366249344,28.215224,12.1242148,45.916340052,-1.11847,-12.079476,-4.921268,282.3, -16.7, -3.8,0,0,1684,974,1563,1143,100,-8,82,18,290,0,0,91,4.119,4.097,0,0,0,0,6.395,84.38,44.373366249344,28.215224,6,P-GPS,
9700,2022-10-21 18:43:22,-34.9540717029442,-54.9409040071399,28.871392,33.3333344,11.696199849344,45.029534249344,31.496064,12.3255394,47.605644568,50.853348084,24,5,8.194,45.029534249344,28.871392,12.3255394,47.605644568,-0.894776,-12.30317,-4.921268,282.7, -17.5, -3.8,0,0,1684,974,1564,1143,100,-8,82,18,290.2,0,0,91,4.119,4.097,0,0,0,0,6.395,84.38,45.029534249344,28.871392,6,P-GPS,
9800,2022-10-21 18:43:22,-34.9540720750078,-54.9409100106317,29.52756,34.0879276,11.597774649344,45.685702249344,32.152232,12.5492334,49.365487144,52.653873076,24,5,8.194,45.685702249344,29.52756,12.5492334,49.365487144,-0.671082,-12.526864,-4.921268,282.8, -18.2, -4,0,0,1684,973,1561,1143,100,-8,81,18,290.4,0,0,91,4.119,4.097,0,0,0,0,6.395,84.38,45.685702249344,29.52756,6,P-GPS,
9900,2022-10-21 18:43:22,-34.9540723588814,-54.9409159710384,30.183728,34.8425208,11.499349449344,46.341870249344,32.8084,12.5492334,51.106957016,54.43897812,24,5,8.194,46.341870249344,30.183728,12.5492334,51.106957016,-0.671082,-12.526864,-4.921268,283.2, -18.2, -3.9,0,0,1684,973,1560,1143,100,-8,81,18,290.6,0,0,91,4.119,4.097,0,0,0,0,6.395,84.38,46.341870249344,30.183728,6,P-GPS,
10000,2022-10-21 18:43:22,-34.9540726011874,-54.9409223274272,30.839896,35.597114,11.400924249344,46.998038249344,33.464568,12.5492334,52.961287784,56.34186532,24,5,8.194,46.998038249344,30.839896,12.5492334,52.961287784,-0.671082,-12.526864,-4.921268,283.3, -18, -3.9,0,0,1684,973,1560,1143,100,-8,81,18,290.8,0,0,91,4.119,4.097,0,0,0,0,6.395,84.38,46.998038249344,30.839896,6,P-GPS,
10100,2022-10-21 18:43:22,-34.9540728084851,-54.9409284192008,31.824148,36.6797912,11.302499049344,47.982290249344,34.44882,12.750558,54.739503064,58.165028108,24,5,8.194,47.982290249344,31.824148,12.750558,54.739503064,-0.447388,-12.750558,-4.697574,283.3, -18.6, -3.6,0,0,1684,972,1559,1142,100,-8,81,18,291,0,0,91,4.119,4.097,0,0,0,0,6.395,84.38,47.982290249344,31.824148,6,P-GPS,
10200,2022-10-21 18:43:22,-34.9540730146949,-54.9409348499695,32.480316,37.4343844,11.204073849344,48.638458249344,35.104988,12.974252,56.618440132,60.089568852,24,5,8.194,48.638458249344,32.480316,12.974252,56.618440132,-0.447388,-12.974252,-4.697574,283.4, -18.7, -2.9,0,0,1684,972,1555,1142,100,-8,80,18,291.2,0,0,91,4.119,4.097,0,0,0,0,6.395,84.38,48.638458249344,32.480316,6,P-GPS,
10300,2022-10-21 18:43:23,-34.9540731105289,-54.9409410324915,33.136484,38.1889776,11.105648649344,49.294626249344,35.761156,13.197946,58.41863704,61.938650276,24,5,8.278,49.294626249344,33.136484,13.197946,58.41863704,-0.223694,-13.197946,-4.697574,283.7, -18.3, -3.1,0,0,1684,972,1534,1142,100,-8,77,18,291.4,0,0,91,4.148,4.131,0,0,0,0,5.373,84.38,49.294626249344,33.136484,6,P-GPS,
10400,2022-10-21 18:43:23,-34.9540731412022,-54.9409476452172,33.792652,38.9435708,11.007223449344,49.950794249344,36.417324,13.42164,60.34120928,63.916340628,24,5,8.278,49.950794249344,33.792652,13.42164,60.34120928,-0.223694,-13.42164,-4.697574,283.8, -17.5, -2.9,0,0,1684,973,1538,1135,100,-8,78,17,291.6,0,0,91,4.148,4.131,0,0,0,0,5.373,84.38,49.950794249344,33.792652,6,P-GPS,
10500,2022-10-21 18:43:23,-34.9540732117692,-54.9409542948401,34.44882,39.698164,10.908798249344,50.606962249344,37.073492,13.645334,62.281169972,65.904857752,24,5,8.278,50.606962249344,34.44882,13.645334,62.281169972,0,-13.645334,-4.697574,283.8, -16.2, -2.7,0,0,1684,970,1529,1109,100,-8,77,13,291.8,0,0,91,4.148,4.131,0,0,0,0,5.373,84.38,50.606962249344,34.44882,6,P-GPS,
10600,2022-10-21 18:43:23,-34.9540734522904,-54.9409614225181,35.433072,40.8136496,10.777564649344,51.591214249344,37.72966,13.869028,64.377298648,68.03805992,24,5,8.278,51.591214249344,35.433072,13.869028,64.377298648,0,-13.869028,-4.921268,284.1, -15.9, -2.3,0,0,1684,968,1523,1074,100,-8,76,8,292,0,0,91,4.148,4.131,0,0,0,0,5.373,84.38,51.591214249344,35.433072,6,P-GPS,
10700,2022-10-21 18:43:23,-34.9540733670186,-54.9409683415644,36.08924,41.5682428,10.679139449344,52.247382249344,38.713912,13.869028,66.389109736,70.107285708,24,5,8.278,52.247382249344,36.08924,13.869028,66.389109736,0.223694,-13.869028,-4.697574,284.2, -16.6, -2.7,0,0,1684,967,1511,1050,100,-9,74,4,292.1,0,0,91,4.148,4.131,0,0,0,0,5.373,84.38,52.247382249344,36.08924,6,P-GPS,
10800,2022-10-21 18:43:23,-34.954073212134,-54.9409756558402,36.745408,42.3556444,10.547905849344,52.903550249344,38.713912,13.869028,68.514765972,72.295277904,24,5,8.278,52.903550249344,36.745408,13.869028,68.514765972,0.223694,-14.092722,-4.697574,284.4, -17.1, -3.1,0,0,1684,967,1511,1050,100,-9,74,4,292.2,0,0,91,4.148,4.131,0,0,0,0,5.373,84.38,52.903550249344,36.745408,6,P-GPS,
10900,2022-10-21 18:43:23,-34.9540729903855,-54.9409824032148,37.401576,43.1102376,10.449480649344,53.559718249344,38.713912,14.092722,70.473427452,74.314634924,24,5,8.278,53.559718249344,37.401576,14.092722,70.473427452,0.447388,-14.092722,-4.47388,284.5, -16.8, -2.6,0,0,1684,967,1454,1024,100,-9,65,0,292.2,0,0,91,4.148,4.131,0,0,0,0,5.373,84.38,53.559718249344,37.401576,6,P-GPS,
11000,2022-10-21 18:43:23,-34.9540727079156,-54.9409895384813,37.72966,43.5695552,10.318247049344,53.887802249344,38.713912,14.3387854,72.544621744,76.450789848,24,5,8.278,53.887802249344,37.72966,14.3387854,72.544621744,0.671082,-14.316416,-4.250186,284.5, -17.2, -2.9,0,0,1684,967,1444,1024,100,-9,64,0,292.3,0,0,91,4.148,4.131,0,0,0,0,5.373,84.38,53.887802249344,37.72966,6,P-GPS,
11100,2022-10-21 18:43:23,-34.9540721630415,-54.9409963134296,38.385828,44.29134,10.252630249344,54.543970249344,38.713912,14.3387854,74.495737292,78.486551068,24,5,8.278,54.543970249344,38.385828,14.3387854,74.495737292,0.671082,-14.316416,-3.802798,284.7, -17.5, -3.1,0,0,1684,964,1354,1024,100,-9,50,0,292.3,0,0,91,4.148,4.131,0,0,0,0,5.373,84.38,54.543970249344,38.385828,6,P-GPS,
11200,2022-10-21 18:43:23,-34.9540717313312,-54.9410035871916,39.041996,45.0787416,10.121396649344,55.200138249344,38.713912,14.5624794,76.605645496,80.667325416,24,5,8.278,55.200138249344,39.041996,14.5624794,76.605645496,0.671082,-14.54011,-3.579104,284.6, -17.6, -2.7,0,0,1684,963,1286,1024,100,-9,40,0,292.3,0,0,91,4.148,4.131,0,0,0,0,5.373,84.38,55.200138249344,39.041996,6,P-GPS,
11300,2022-10-21 18:43:24,-34.9540713567305,-54.9410107199913,39.37008,45.5380592,9.990163049344,55.528222249344,38.713912,14.5624794,78.68110488,82.804792676,24,5,8.267,55.528222249344,39.37008,14.5624794,78.68110488,0.671082,-14.54011,-2.908022,284.5, -18.3, -2.6,0,0,1684,957,1244,1024,100,-10,33,0,292.3,0,0,91,4.132,4.117,0,0,0,0,5.42,84.56,55.528222249344,39.37008,6,P-GPS,
11400,2022-10-21 18:43:24,-34.9540709329345,-54.9410182541457,39.698164,45.9645684,9.891737849344,55.856306249344,38.713912,14.5624794,80.875330672,85.062994848,24,5,8.267,55.856306249344,39.698164,14.5624794,80.875330672,0.894776,-14.54011,-2.460634,284.6, -17.6, -1.8,0,0,1684,958,1127,1024,100,-10,16,0,292.3,0,0,91,4.132,4.117,0,0,0,0,5.42,84.56,55.856306249344,39.698164,6,P-GPS,
11500,2022-10-21 18:43:24,-34.9540707391171,-54.9410250406335,40.026248,46.3910776,9.793312649344,56.184390249344,38.713912,14.8085428,82.8658163,87.093506724,24,5,8.267,56.184390249344,40.026248,14.8085428,82.8658163,1.11847,-14.763804,-2.013246,284.5, -17.7, -3.1,0,0,1684,956,1111,1024,100,-10,13,0,292.3,0,0,91,4.132,4.117,0,0,0,0,5.42,84.56,56.184390249344,40.026248,6,P-GPS,
11600,2022-10-21 18:43:24,-34.9540702560424,-54.9410323544494,40.354332,46.8503952,9.662079049344,56.512474249344,38.713912,14.8085428,84.997706132,89.287732516,24,5,8.267,56.512474249344,40.354332,14.8085428,84.997706132,1.11847,-14.763804,-1.565858,284.6, -18, -3.1,0,0,1684,956,1111,1024,100,-10,13,0,292.3,0,0,91,4.132,4.117,0,0,0,0,5.42,84.56,56.512474249344,40.354332,6,P-GPS,
11700,2022-10-21 18:43:24,-34.9540696936821,-54.9410392865195,40.354332,46.9488204,9.563653849344,56.512474249344,38.713912,15.0546062,87.015422732,91.370737832,24,5,8.267,56.512474249344,40.354332,15.0546062,87.015422732,1.342164,-14.987498,-0.894776,284.6, -17.9, -3.7,0,0,1684,955,1066,1024,100,-10,6,0,292.3,0,0,91,4.132,4.117,0,0,0,0,5.42,84.56,56.512474249344,40.354332,6,P-GPS,
11800,2022-10-21 18:43:24,-34.9540690473233,-54.9410466354558,40.682416,47.408138,9.432420249344,56.840558249344,38.713912,15.0546062,89.154858496,93.58103974,24,5,8.267,56.840558249344,40.682416,15.0546062,89.154858496,1.342164,-14.987498,-0.671082,284.5, -16.9, -3.8,0,0,1684,942,1024,1024,100,-12,0,0,292.3,0,0,91,4.132,4.117,0,0,0,0,5.42,84.56,56.840558249344,40.682416,6,P-GPS,
11900,2022-10-21 18:43:24,-34.9540683963268,-54.9410538517291,40.682416,47.5065632,9.333995049344,56.840558249344,38.713912,15.3006696,91.258533104,95.751971568,24,5,8.267,56.840558249344,40.682416,15.3006696,91.258533104,1.565858,-15.211192,-0.223694,284.6, -16.8, -3.7,0,0,1684,940,1024,1024,100,-13,0,0,292.3,0,0,91,4.132,4.117,0,0,0,0,5.42,84.56,56.840558249344,40.682416,6,P-GPS,
12000,2022-10-21 18:43:24,-34.9540677092374,-54.9410616812499,40.682416,47.6377968,9.202761449344,56.840558249344,38.713912,15.5243636,93.5449505,98.106630436,24,5,8.267,56.840558249344,40.682416,15.5243636,93.5449505,1.565858,-15.434886,0,284.6, -15.7, -3.2,0,0,1684,938,1024,1024,100,-13,0,0,292.3,0,0,91,4.132,4.117,0,0,0,0,5.42,84.56,56.840558249344,40.682416,6,P-GPS,
12100,2022-10-21 18:43:24,-34.9540670031962,-54.9410691936841,40.354332,47.408138,9.104336249344,56.512474249344,38.713912,15.7256882,95.73983246,100.367785364,24,5,8.267,56.840558249344,40.682416,15.7256882,95.73983246,1.565858,-15.65858,0,284.4, -14.6, -3.6,0,0,1684,940,1024,1024,100,-13,0,0,292.3,0,0,91,4.132,4.117,0,0,0,0,5.42,84.56,56.512474249344,40.354332,6,P-GPS,
12200,2022-10-21 18:43:24,-34.9540662406578,-54.9410771406909,40.354332,47.5393716,8.973102649344,56.512474249344,38.713912,15.770427,98.064635684,102.760501976,23,5,8.267,56.840558249344,40.682416,15.770427,98.064635684,1.789552,-15.65858,0,284.4, -14.1, -3.6,0,0,1684,935,1024,1024,100,-13,0,0,292.3,0,0,91,4.132,4.117,0,0,0,0,5.42,84.56,56.512474249344,40.354332,6,P-GPS,
12300,2022-10-21 18:43:25,-34.9540653302924,-54.9410849494531,40.354332,47.6706052,8.841869049344,56.512474249344,38.713912,15.770427,100.345147568,105.119097852,23,5,8.317,56.840558249344,40.682416,15.770427,100.345147568,1.789552,-15.65858,0,284.5, -14, -3.1,0,0,1684,930,1024,1024,100,-14,0,0,292.3,0,0,91,4.169,4.168,0,0,0,0,5.165,84.56,56.512474249344,40.354332,6,P-GPS,
12400,2022-10-21 18:43:25,-34.9540644956823,-54.9410929977863,40.026248,47.4737548,8.710635449344,56.184390249344,38.713912,15.9717516,102.70341536,107.544950948,24,5,8.317,56.840558249344,40.682416,15.9717516,102.70341536,1.789552,-15.882274,0,284.4, -14.2, -3.1,0,0,1684,930,1024,1024,100,-14,0,0,292.3,0,0,91,4.169,4.168,0,0,0,0,5.165,84.56,56.184390249344,40.026248,6,P-GPS,
12500,2022-10-21 18:43:25,-34.9540636995067,-54.941100662555,40.026248,47.6049884,8.579401849344,56.184390249344,38.713912,15.9717516,104.952103096,109.855318476,24,5,8.317,56.840558249344,40.682416,15.9717516,104.952103096,1.789552,-15.882274,0,284.4, -14.3, -2.9,0,0,1684,928,1024,1024,100,-15,0,0,292.3,0,0,91,4.169,4.168,0,0,0,0,5.165,84.56,56.184390249344,40.026248,6,P-GPS,
12600,2022-10-21 18:43:25,-34.9540628515434,-54.9411087636107,40.026248,47.736222,8.448168249344,56.184390249344,38.713912,16.0164904,107.331368264,112.297575772,24,5,8.317,56.840558249344,40.682416,16.0164904,107.331368264,2.013246,-15.882274,0,284.4, -14.2, -2.8,0,0,1684,928,1024,1024,100,-15,0,0,292.3,0,0,91,4.169,4.168,0,0,0,0,5.165,84.56,56.184390249344,40.026248,6,P-GPS,
12700,2022-10-21 18:43:25,-34.9540620438677,-54.9411165230789,39.698164,47.4409464,8.415359849344,55.856306249344,38.713912,16.2401844,109.613192484,114.636486608,24,5,8.317,56.840558249344,40.682416,16.2401844,109.613192484,2.013246,-16.105968,0,284.4, -14.4, -2.8,0,0,1684,929,1024,1024,100,-14,0,0,292.3,0,0,91,4.169,4.168,0,0,0,0,5.165,84.56,55.856306249344,39.698164,6,P-GPS,
12800,2022-10-21 18:43:25,-34.9540611390847,-54.941124718416,39.698164,47.4409464,8.415359849344,55.856306249344,38.713912,16.4638784,112.023953716,117.109255716,24,5,8.317,56.840558249344,40.682416,16.4638784,112.023953716,2.013246,-16.329662,0,284.4, -14, -2.9,0,0,1684,929,1024,1024,100,-14,0,0,292.3,0,0,91,4.169,4.168,0,0,0,0,5.165,84.56,55.856306249344,39.698164,6,P-GPS,
12900,2022-10-21 18:43:25,-34.95406027996,-54.9411325857539,39.698164,47.4409464,8.415359849344,55.856306249344,38.713912,16.4638784,114.340882924,119.482615372,24,5,8.317,56.840558249344,40.682416,16.4638784,114.340882924,2.013246,-16.329662,0,284.5, -13.8, -3,0,0,1684,922,1024,1024,100,-15,0,0,292.3,0,0,91,4.169,4.168,0,0,0,0,5.165,84.56,55.856306249344,39.698164,6,P-GPS,
13000,2022-10-21 18:43:25,-34.9540593687088,-54.9411408930163,39.698164,47.4409464,8.415359849344,55.856306249344,38.713912,16.665203,116.790029984,121.989177132,24,5,8.317,56.840558249344,40.682416,16.665203,116.790029984,2.013246,-16.553356,0,284.5, -13.7, -2.7,0,0,1684,920,1024,1024,100,-16,0,0,292.3,0,0,91,4.169,4.168,0,0,0,0,5.165,84.56,55.856306249344,39.698164,6,P-GPS,
13100,2022-10-21 18:43:25,-34.9540585059477,-54.9411489345763,39.698164,47.4409464,8.415359849344,55.856306249344,38.713912,16.665203,119.16338964,124.41437406,24,5,8.317,56.840558249344,40.682416,16.665203,119.16338964,2.013246,-16.553356,0,284.4, -12.8, -2.9,0,0,1684,920,1024,1024,100,-16,0,0,292.3,0,0,91,4.169,4.168,0,0,0,0,5.165,84.56,55.856306249344,39.698164,6,P-GPS,
13200,2022-10-21 18:43:25,-34.9540575638571,-54.9411576353121,39.698164,47.4409464,8.415359849344,55.856306249344,38.713912,16.9336358,121.733599696,127.038717976,24,5,8.317,56.840558249344,40.682416,16.9336358,121.733599696,2.23694,-16.77705,0,284.4, -13, -2.4,0,0,1684,920,1024,1024,100,-16,0,0,292.3,0,0,91,4.169,4.168,0,0,0,0,5.165,84.56,55.856306249344,39.698164,6,P-GPS,
13300,2022-10-21 18:43:26,-34.9540566584487,-54.9411657809372,39.698164,47.4409464,8.415359849344,55.856306249344,38.713912,16.9336358,124.141080088,129.496723304,24,5,8.323,56.840558249344,40.682416,16.9336358,124.141080088,2.23694,-16.77705,0,284.5, -13.2, -1.9,0,0,1684,920,1024,1024,100,-16,0,0,292.3,0,0,91,4.165,4.156,0,0,0,0,3.659,84.56,55.856306249344,39.698164,6,P-GPS,
13400,2022-10-21 18:43:26,-34.954055700523,-54.9411743817054,39.698164,47.4409464,8.415359849344,55.856306249344,38.713912,16.888897,126.685371508,132.092523912,23,5,8.323,56.840558249344,40.682416,16.9336358,126.685371508,2.013246,-16.77705,0,284.4, -13.1, -1.8,0,0,1684,921,1024,1024,100,-16,0,0,292.3,0,0,91,4.165,4.156,0,0,0,0,3.659,84.56,55.856306249344,39.698164,6,P-GPS,
13500,2022-10-21 18:43:26,-34.9540548770157,-54.9411824895342,39.698164,47.4409464,8.415359849344,55.856306249344,38.713912,16.888897,129.087274472,134.535437376,23,5,8.323,56.840558249344,40.682416,16.9336358,129.087274472,2.013246,-16.77705,0,284.4, -13, -1.6,0,0,1684,927,1262,1024,100,-15,36,0,292.3,0,0,91,4.165,4.156,0,0,0,0,3.659,84.56,55.856306249344,39.698164,6,P-GPS,
13600,2022-10-21 18:43:26,-34.9540541406447,-54.9411909769557,39.698164,47.4409464,8.415359849344,55.856306249344,38.713912,16.888897,131.60597534,137.087602812,24,5,8.323,56.840558249344,40.682416,16.9336358,131.60597534,2.013246,-16.77705,0,284.4, -12, -1.4,0,0,1684,960,1684,1024,100,-10,100,0,292.3,0,0,91,4.165,4.156,0,0,0,0,3.659,84.56,55.856306249344,39.698164,6,P-GPS,
13700,2022-10-21 18:43:26,-34.9540533058603,-54.941199032313,39.698164,47.4409464,8.415359849344,55.856306249344,38.713912,17.1573298,133.994754944,139.515752496,24,5,8.323,56.840558249344,40.682416,17.1573298,133.994754944,2.23694,-17.000744,-0.223694,284.6, -11.7, -0.5,0,0,1684,965,1684,1024,100,-9,100,0,292.3,0,0,91,4.165,4.156,0,0,0,0,3.659,84.56,55.856306249344,39.698164,6,P-GPS,
13800,2022-10-21 18:43:26,-34.9540523783361,-54.9412075348696,40.026248,47.7690304,8.415359849344,56.184390249344,38.713912,17.1573298,136.517064736,142.080713208,24,5,8.323,56.840558249344,40.682416,17.1573298,136.517064736,2.23694,-17.000744,-0.894776,284.6, -11.7, -1.6,0,0,1684,966,1684,1024,100,-9,100,0,292.3,0,0,91,4.165,4.156,0,0,0,0,3.659,84.56,56.184390249344,40.026248,6,P-GPS,
13900,2022-10-21 18:43:26,-34.9540514245076,-54.9412158495323,40.354332,48.0971144,8.415359849344,56.512474249344,38.713912,17.1796992,138.984256416,144.591211976,24,5,8.323,56.840558249344,40.682416,17.1796992,138.984256416,2.460634,-17.000744,-1.565858,284.5, -11, -1.7,0,0,1684,966,1684,1024,100,-9,100,0,292.3,0,0,91,4.165,4.156,0,0,0,0,3.659,84.56,56.512474249344,40.354332,6,P-GPS,
14000,2022-10-21 18:43:26,-34.9540504464364,-54.941224717508,40.682416,48.4251984,8.415359849344,56.840558249344,38.713912,17.4033932,141.618114768,147.26706508,24,5,8.323,56.840558249344,40.682416,17.4033932,141.618114768,2.460634,-17.224438,-2.460634,284.5, -11.4, -2.2,0,0,1684,966,1684,1024,100,-9,100,0,292.3,0,0,91,4.165,4.156,0,0,0,0,3.659,84.56,56.840558249344,40.682416,6,P-GPS,
14100,2022-10-21 18:43:26,-34.9540493596031,-54.9412332745012,41.338584,49.0813664,8.415359849344,57.496726249344,38.713912,17.4033932,144.158797264,149.856304008,24,5,8.323,57.496726249344,41.338584,17.4033932,144.158797264,2.460634,-17.224438,-3.131716,284.6, -11.2, -2.1,0,0,1684,965,1684,1024,100,-9,100,0,292.3,0,0,91,4.165,4.156,0,0,0,0,3.659,84.56,57.496726249344,41.338584,6,P-GPS,
14200,2022-10-21 18:43:27,-34.954048189856,-54.9412422945815,41.994752,49.7375344,8.415359849344,58.152894249344,38.713912,17.4257626,146.838587376,152.587275224,24,5,8.323,58.152894249344,41.994752,17.4257626,146.838587376,2.684328,-17.224438,-3.802798,284.5, -11.1, -1.8,0,0,1684,965,1684,1024,100,-9,100,0,292.3,0,0,91,4.165,4.156,0,0,0,0,3.659,84.56,58.152894249344,41.994752,6,P-GPS,
14300,2022-10-21 18:43:27,-34.9540470528813,-54.941250585956,42.65092,50.3937024,8.415359849344,58.809062249344,38.713912,17.4257626,149.3028263,155.101054832,24,5,8.304,58.809062249344,42.65092,17.4257626,149.3028263,2.684328,-17.224438,-4.697574,284.4, -11.6, -2.1,0,0,1684,958,1684,1024,100,-10,100,0,292.3,0,0,91,4.16,4.145,0,0,0,0,4.072,84.56,58.809062249344,42.65092,6,P-GPS,
14400,2022-10-21 18:43:27,-34.9540458148909,-54.9412592437948,43.635172,51.3779544,8.415359849344,59.793314249344,38.713912,17.6941954,151.877301448,157.729335756,24,5,8.304,59.793314249344,43.635172,17.6941954,151.877301448,2.908022,-17.448132,-5.144962,284.1, -10.7, -3.8,0,0,1684,957,1684,1024,100,-10,100,0,292.3,0,0,91,4.16,4.145,0,0,0,0,4.072,84.56,59.793314249344,43.635172,6,P-GPS,
14500,2022-10-21 18:43:27,-34.95404380806,-54.9412689632721,44.619424,52.3622064,8.415359849344,60.777566249344,38.713912,17.6941954,154.764112564,160.726383096,24,5,8.304,60.777566249344,44.619424,17.6941954,154.764112564,2.684328,-17.224438,-5.816044,284.2, -11.7, -3.4,0,0,1684,958,1684,1024,100,-10,100,0,292.3,0,0,91,4.16,4.145,0,0,0,0,4.072,84.56,60.777566249344,44.619424,6,P-GPS,
14600,2022-10-21 18:43:27,-34.9540423725793,-54.9412781574073,45.603676,53.3464584,8.415359849344,61.761818249344,38.713912,17.4257626,157.501973544,163.5252677,22,5,8.304,61.761818249344,45.603676,17.6941954,157.501973544,2.684328,-17.224438,-6.039738,284.6, -13.2, -2.7,0,0,1684,961,1684,1024,100,-10,100,0,292.3,0,0,91,4.16,4.145,0,0,0,0,4.072,84.56,61.761818249344,45.603676,6,P-GPS,
14700,2022-10-21 18:43:27,-34.9540410770797,-54.9412868468544,46.587928,54.3307104,8.415359849344,62.746070249344,38.713912,17.6941954,160.09186864,166.1663439,22,5,8.304,62.746070249344,46.587928,17.6941954,160.09186864,2.908022,-17.448132,-6.263432,284.2, -12.7, -2.7,0,0,1684,977,1684,1024,100,-7,100,0,292.3,0,0,91,4.16,4.145,0,0,0,0,4.072,84.56,62.746070249344,46.587928,6,P-GPS,
14800,2022-10-21 18:43:27,-34.9540397215784,-54.9412959723794,47.900264,55.6430464,8.415359849344,64.058406249344,38.713912,17.6941954,162.81332542,168.939637952,23,5,8.304,64.058406249344,47.900264,17.6941954,162.81332542,2.908022,-17.448132,-6.71082,284.1, -11.5, -2.7,0,0,1684,980,1684,1024,100,-7,100,0,292.3,0,0,91,4.16,4.145,0,0,0,0,4.072,84.56,64.058406249344,47.900264,6,P-GPS,
14900,2022-10-21 18:43:27,-34.9540384873106,-54.9413051697339,48.884516,56.6272984,8.415359849344,65.042658249344,38.713912,17.6941954,165.558404248,171.726711532,23,5,8.304,65.042658249344,48.884516,17.6941954,165.558404248,2.908022,-17.448132,-6.934514,284.5, -11.8, -1.9,0,0,1684,980,1684,1024,100,-7,100,0,292.3,0,0,91,4.16,4.145,0,0,0,0,4.072,84.56,65.042658249344,48.884516,6,P-GPS,
15000,2022-10-21 18:43:27,-34.9540371548302,-54.9413142647795,49.868768,57.6115504,8.415359849344,66.026910249344,38.713912,17.9402588,168.2742836,174.489506896,23,5,8.304,66.026910249344,49.868768,17.9402588,168.2742836,3.131716,-17.671826,-6.934514,284.3, -11.3, -2.4,0,0,1684,979,1684,1024,100,-7,100,0,292.3,0,0,91,4.16,4.145,0,0,0,0,4.072,84.56,66.026910249344,49.868768,6,P-GPS,
15100,2022-10-21 18:43:27,-34.9540356751006,-54.9413231182471,50.85302,58.5958024,8.415359849344,67.011162249344,38.713912,17.9402588,170.918968724,177.19160672,23,5,8.304,67.011162249344,50.85302,17.9402588,170.918968724,3.131716,-17.671826,-6.934514,284.5, -10.6, -2.4,0,0,1684,958,1684,1024,100,-10,100,0,292.3,0,0,91,4.16,4.145,0,0,0,0,4.072,84.56,67.011162249344,50.85302,6,P-GPS,
15200,2022-10-21 18:43:27,-34.9540340622125,-54.9413324299519,51.837272,59.5800544,8.415359849344,67.995414249344,38.713912,17.9849976,173.702761464,180.037407336,23,5,8.304,67.995414249344,51.837272,17.9849976,173.702761464,3.35541,-17.671826,-6.934514,284.4, -9.2, -3.4,0,0,1684,966,1619,1024,100,-9,90,0,292.3,0,0,91,4.16,4.145,0,0,0,0,4.072,84.56,67.995414249344,51.837272,6,P-GPS,
15300,2022-10-21 18:43:28,-34.9540319718868,-54.9413419784264,52.821524,60.5643064,8.415359849344,68.979666249344,38.713912,17.9849976,176.559716936,182.992788008,23,5,8.172,68.979666249344,52.821524,17.9849976,176.559716936,3.35541,-17.671826,-6.71082,284.5, -9.5, -4.8,0,0,1684,969,1266,1024,100,-8,37,0,292.3,0,0,90,4.069,4.045,0,0,0,0,6.337,84.74,68.979666249344,52.821524,6,P-GPS,
15400,2022-10-21 18:43:28,-34.9540303098051,-54.941351190289,53.805776,61.5485584,8.415359849344,69.963918249344,38.713912,18.2534304,179.318247208,185.81365424,21,5,8.172,69.963918249344,53.805776,18.2534304,179.318247208,3.579104,-17.89552,-6.263432,284.6, -10, -5.2,0,0,1542,1024,1024,1024,78,0,0,0,292.3,0,0,90,4.069,4.045,0,0,0,0,6.337,84.74,69.963918249344,53.805776,6,P-GPS,
15500,2022-10-21 18:43:28,-34.9540286769574,-54.9413601639602,54.790028,62.5328104,8.415359849344,70.948170249344,38.713912,18.0297364,182.006895588,188.562341992,21,5,8.172,70.948170249344,54.790028,18.2534304,182.006895588,3.579104,-17.671826,-5.59235,284.6, -9.8, -5.4,0,0,1024,1024,1024,1024,0,0,0,0,292.3,0,0,90,4.069,4.045,0,0,0,0,6.337,84.74,70.948170249344,54.790028,6,P-GPS,
15600,2022-10-21 18:43:28,-34.9540269551278,-54.9413695757998,55.446196,63.1889784,8.415359849344,71.604338249344,38.713912,17.8060424,184.829074156,191.446200352,22,5,8.172,71.604338249344,55.446196,18.2534304,184.829074156,3.579104,-17.448132,-4.697574,284.4, -4.9, -5.2,0,0,1024,1024,1024,1024,0,0,0,0,292.3,0,0,90,4.069,4.045,0,0,0,0,6.337,84.74,71.604338249344,55.446196,6,P-GPS,
15700,2022-10-21 18:43:28,-34.9540254327933,-54.9413778117762,56.102364,63.8451464,8.415359849344,72.260506249344,38.713912,17.5376096,187.300202844,193.970806732,22,5,8.172,72.260506249344,56.102364,18.2534304,187.300202844,3.35541,-17.224438,-4.026492,283.6, 13.2, -3.1,0,0,1024,1024,1024,1024,0,0,0,0,292.3,0,0,90,4.069,4.045,0,0,0,0,6.337,84.74,72.260506249344,56.102364,6,P-GPS,
15800,2022-10-21 18:43:28,-34.9540239259598,-54.941386122216,56.430448,64.1732304,8.415359849344,72.588590249344,38.713912,16.441509,189.79495358,196.516082404,20,5,8.172,72.588590249344,56.430448,18.2534304,189.79495358,3.35541,-16.105968,-3.579104,283.7, 20.2, -1.2,0,0,1024,1024,1024,1024,0,0,0,0,292.3,0,0,90,4.069,4.045,0,0,0,0,6.337,84.74,72.588590249344,56.430448,6,P-GPS,
