time(millisecond),datetime(utc),latitude,longitude,height_above_takeoff(feet),height_above_ground_at_drone_location(feet),ground_elevation_at_drone_location(feet),altitude_above_seaLevel(feet),height_sonar(feet),speed(mph),distance(feet),mileage(feet),satellites,gpslevel,voltage(v),max_altitude(feet),max_ascent(feet),max_speed(mph),max_distance(feet), xSpeed(mph), ySpeed(mph), zSpeed(mph), compass_heading(degrees), pitch(degrees), roll(degrees),isPhoto,isVideo,rc_elevator,rc_aileron,rc_throttle,rc_rudder,rc_elevator(percent),rc_aileron(percent),rc_throttle(percent),rc_rudder(percent),gimbal_heading(degrees),gimbal_pitch(degrees),gimbal_roll(degrees),battery_percent,voltageCell1,voltageCell2,voltageCell3,voltageCell4,voltageCell5,voltageCell6,current(A),battery_temperature(f),altitude(feet),ascent(feet),flycStateRaw,flycState,message
0,2023-12-27 18:04:00,0,0,0,,,105.04266116976,0.328084,0,0,0,0,0,0,105.04266116976,0,0,0,0,0,0,11.6, -6.1, 3.5,0,0,447,481,364,1066,-87,-82,-100,6,12.7,0,0,100,4.339,4.337,0,0,0,0,0,81.86,105.04266116976,0,1,Atti,"Aeronave en modo Atti. No se puede hacer vuelo estacionario. Vuela con cuidado (Code: 30004). Error de calibración del estabilizador. Reinicia la aeronave o contacta con la Asistencia DJI (Code: 40011)"
100,2023-12-27 18:04:00,0,0,0,,,105.04266116976,0.328084,0,0,0,0,0,0,105.04266116976,0,0,0,0,0,0,12.1, -5.7, 2.5,0,0,1024,549,1030,1020,0,-72,1,-1,12.3,0,0,100,4.339,4.337,0,0,0,0,0,81.86,105.04266116976,0,41,Motors_Started,"Error de calibración del estabilizador. Reinicia la aeronave o contacta con la Asistencia DJI (Code: 40011). Señal débil del GPS. Vuelo estacionario inestable. Vuela con cuidado (Code: 30002)"
200,2023-12-27 18:04:00,0,0,0,,,105.04266116976,0.328084,0,0,0,0,0,0,105.04266116976,0,0,0,0,0,0,11, -5.3, 4.1,0,0,1024,429,1026,1024,0,-90,0,0,12.1,0,0,100,4.339,4.337,0,0,0,0,0,81.86,105.04266116976,0,41,Motors_Started,
300,2023-12-27 18:04:00,0,0,0,,,105.04266116976,0.328084,0,0,0,0,0,0,105.04266116976,0,0,0,0,0,0,9.6, -5.5, 3,0,0,1024,1024,1024,1024,0,0,0,0,10.6,0,0,100,4.339,4.337,0,0,0,0,0,81.86,105.04266116976,0,41,Motors_Started,"Setting new Return-To-Home altitude to 100m (328 ft). Data Recorder File Index is 29. Setting new Maximum Flight Altitude to 30m (98 ft)"
400,2023-12-27 18:04:00,0,0,0,,,105.04266116976,0.328084,0,0,0,0,0,0,105.04266116976,0,0,0,0,0,0,10.3, -4.4, 2.8,0,0,1024,1024,1024,1024,0,0,0,0,10.3,0,0,100,4.339,4.337,0,0,0,0,0,81.86,105.04266116976,0,41,Motors_Started,
500,2023-12-27 18:04:01,0,0,0,,,105.04266116976,0.328084,0,0,0,0,0,0,105.04266116976,0,0,0,0,0,0,10.1, -4.6, 2,0,0,1024,1024,1024,1024,0,0,0,0,10.3,0,0,100,4.339,4.337,0,0,0,0,0,81.86,105.04266116976,0,41,Motors_Started,
600,2023-12-27 18:04:01,0,0,0,,,105.04266116976,0.328084,0,0,0,0,0,0,105.04266116976,0,0,0,0,0,0,11.1, -6.1, 1.7,0,0,1024,1024,1024,1024,0,0,0,0,10.7,0,0,100,4.339,4.337,0,0,0,0,0,81.86,105.04266116976,0,41,Motors_Started,
700,2023-12-27 18:04:01,0,0,0,,,105.04266116976,0.328084,0,0,0,0,0,0,105.04266116976,0,0,0,0,0,0,9.8, -5.4, 2.4,0,0,1024,1024,1024,1024,0,0,0,0,10.5,0,0,100,4.339,4.337,0,0,0,0,0,81.86,105.04266116976,0,41,Motors_Started,
800,2023-12-27 18:04:01,0,0,0,,,105.04266116976,0.328084,0,0,0,5,0,0,105.04266116976,0,0,0,0,0,0,10.1, -5.5, 1.1,0,0,1024,1024,1024,1024,0,0,0,0,10.2,0,0,100,4.339,4.337,0,0,0,0,0,81.86,105.04266116976,0,41,Motors_Started,
900,2023-12-27 18:04:01,0,0,0,,,105.04266116976,0.328084,0,0,0,5,0,0,105.04266116976,0,0,0,0,0,0,9.4, -5.3, 0.4,0,0,1024,1024,1024,1024,0,0,0,0,9.9,0,0,100,4.339,4.337,0,0,0,0,0,81.86,105.04266116976,0,41,Motors_Started,
1000,2023-12-27 18:04:01,0,0,-0.328084,,,104.71457716976,0.328084,0,0,0,5,0,8.722,105.04266116976,0,0,0,0,0,0,8.5, -6.9, -0.1,0,0,1024,1024,1096,1024,0,0,11,0,9.1,0,0,100,4.339,4.337,0,0,0,0,0.581,81.86,104.71457716976,-0.328084,41,Motors_Started,
1100,2023-12-27 18:04:01,0,0,-0.328084,,,104.71457716976,0.328084,0,0,0,5,0,8.722,105.04266116976,0,0,0,0,0,0.223694,8.3, -7, 0.9,0,0,1024,1024,1137,1024,0,0,17,0,8.5,0,0,100,4.339,4.337,0,0,0,0,0.581,81.86,104.71457716976,-0.328084,41,Motors_Started,
1200,2023-12-27 18:04:01,0,0,-0.328084,,,104.71457716976,0.328084,0,0,0,5,0,8.722,105.04266116976,0,0,0,0,0,0,7.1, -5.3, 2.1,0,0,1024,1024,1274,1024,0,0,38,0,8,0,0,100,4.339,4.337,0,0,0,0,0.581,81.86,104.71457716976,-0.328084,10,Assisted_Takeoff,
1300,2023-12-27 18:04:01,0,0,-0.328084,,,104.71457716976,0.328084,0,0,0,5,0,8.722,105.04266116976,0,0,0,0,0,0,7.6, -3.8, 2.2,0,0,1024,1024,1024,1024,0,0,0,0,7.6,0,0,100,4.339,4.337,0,0,0,0,0.581,81.86,104.71457716976,-0.328084,10,Assisted_Takeoff,
1400,2023-12-27 18:04:01,0,0,-0.328084,,,104.71457716976,0.328084,0,0,0,5,0,8.722,105.04266116976,0,0,0,0,0,0,7.4, 1.1, 1.4,0,0,1024,1024,1024,1024,0,0,0,0,7.5,0,0,100,4.339,4.337,0,0,0,0,0.581,81.86,104.71457716976,-0.328084,10,Assisted_Takeoff,
1500,2023-12-27 18:04:02,0,0,-0.328084,,,104.71457716976,0.328084,0,0,0,5,0,8.722,105.04266116976,0,0,0,0,0,0,7.1, 1.2, 0.4,0,0,1024,1024,1024,1024,0,0,0,0,7.4,0,0,100,4.339,4.337,0,0,0,0,0.581,81.86,104.71457716976,-0.328084,10,Assisted_Takeoff,
1600,2023-12-27 18:04:02,0,0,-0.328084,,,104.71457716976,0.328084,0,0,0,5,0,8.722,105.04266116976,0,0,0,0,0,0,7.2, 3.1, 1,0,0,1024,1024,1039,1024,0,0,2,0,7.2,0,0,100,4.339,4.337,0,0,0,0,0.581,81.86,104.71457716976,-0.328084,10,Assisted_Takeoff,
1700,2023-12-27 18:04:02,0,0,-0.656168,,,104.38649316976,0.328084,0,0,0,5,0,8.722,105.04266116976,0,0,0,0,0,0,7, 3, -0.5,0,0,1024,1024,1212,1024,0,0,28,0,7.2,0,0,100,4.339,4.337,0,0,0,0,0.581,81.86,104.38649316976,-0.656168,10,Assisted_Takeoff,
1800,2023-12-27 18:04:02,0,0,-0.656168,,,104.38649316976,0.328084,0,0,0,5,0,8.722,105.04266116976,0,0,0,0,0,0,7.4, 1.8, 1.1,0,0,1024,1024,1097,1024,0,0,11,0,7.2,0,0,100,4.339,4.337,0,0,0,0,0.581,81.86,104.38649316976,-0.656168,10,Assisted_Takeoff,
1900,2023-12-27 18:04:02,0,0,-0.656168,,,104.38649316976,0.328084,0,0,0,5,0,8.722,105.04266116976,0,0,0,0,0,0,7.3, 1.7, 0.6,0,0,1024,1024,1024,1024,0,0,0,0,7.2,0,0,100,4.339,4.337,0,0,0,0,0.581,81.86,104.38649316976,-0.656168,10,Assisted_Takeoff,
2000,2023-12-27 18:04:02,0,0,-0.656168,,,104.38649316976,0.328084,0,0,0,5,0,8.685,105.04266116976,0,0,0,0,0,0,6.7, 2.1, 0.7,0,0,1024,1024,1024,1024,0,0,0,0,7.1,0,0,100,4.328,4.327,0,0,0,0,0.965,81.86,104.38649316976,-0.656168,10,Assisted_Takeoff,
2100,2023-12-27 18:04:02,0,0,-0.656168,,,104.38649316976,0.328084,0,0,0,5,0,8.685,105.04266116976,0,0,0,0,0,0,6.6, 2, 1.2,0,0,1024,1024,1024,1024,0,0,0,0,6.9,0,0,100,4.328,4.327,0,0,0,0,0.965,81.86,104.38649316976,-0.656168,10,Assisted_Takeoff,
2200,2023-12-27 18:04:02,0,0,-0.656168,,,104.38649316976,0.328084,0,0,0,5,0,8.685,105.04266116976,0,0,0,0,0,0,7.2, 0.9, -0.4,0,0,1024,1024,1024,1024,0,0,0,0,6.8,0,0,100,4.328,4.327,0,0,0,0,0.965,81.86,104.38649316976,-0.656168,10,Assisted_Takeoff,
2300,2023-12-27 18:04:02,0,0,-0.656168,,,104.38649316976,0.328084,0,0,0,5,0,8.685,105.04266116976,0,0,0,0,0,0,7.5, 0.1, -1,0,0,1024,1024,1024,1024,0,0,0,0,7.1,0,0,100,4.328,4.327,0,0,0,0,0.965,81.86,104.38649316976,-0.656168,10,Assisted_Takeoff,
2400,2023-12-27 18:04:02,0,0,-0.656168,,,104.38649316976,0.328084,0,0,0,5,0,8.685,105.04266116976,0,0,0,0,0,0,6.1, -0.3, -1,0,0,1024,1024,1024,1024,0,0,0,0,6.9,0,0,100,4.328,4.327,0,0,0,0,0.965,81.86,104.38649316976,-0.656168,10,Assisted_Takeoff,
2500,2023-12-27 18:04:03,0,0,-0.656168,,,104.38649316976,0.328084,0,0,0,5,0,8.685,105.04266116976,0,0,0,0,0,0,6.7, -0.5, 0,0,0,1024,1024,1024,1024,0,0,0,0,6.5,0,0,100,4.328,4.327,0,0,0,0,0.965,81.86,104.38649316976,-0.656168,10,Assisted_Takeoff,
2600,2023-12-27 18:04:03,0,0,-0.656168,,,104.38649316976,0.328084,0,0,0,5,0,8.685,105.04266116976,0,0,0,0,0,0,6.1, -0.4, -0.1,0,0,1024,1024,1024,1024,0,0,0,0,6.4,0,0,100,4.328,4.327,0,0,0,0,0.965,81.86,104.38649316976,-0.656168,10,Assisted_Takeoff,"Error de calibración del estabilizador"
2700,2023-12-27 18:04:03,0,0,-0.328084,,,104.71457716976,0.328084,0,0,0,5,0,8.685,105.04266116976,0,0,0,0,0,0,5.7, -1.1, -0.1,0,0,1024,1024,1024,1024,0,0,0,0,6,0,0,100,4.328,4.327,0,0,0,0,0.965,81.86,104.71457716976,-0.328084,10,Assisted_Takeoff,
2800,2023-12-27 18:04:03,0,0,-0.328084,,,104.71457716976,0.328084,0,0,0,5,0,8.685,105.04266116976,0,0,0,0,0,0,5.3, -1.4, -1,0,0,1024,1024,1172,1024,0,0,22,0,5.9,0,0,100,4.328,4.327,0,0,0,0,0.965,81.86,104.71457716976,-0.328084,10,Assisted_Takeoff,
2900,2023-12-27 18:04:03,0,0,-0.328084,,,104.71457716976,0.328084,0,0,0,5,0,8.685,105.04266116976,0,0,0,0,0,0,5.1, -1.8, -0.5,0,0,1024,1024,1454,1024,0,0,65,0,5.5,0,0,100,4.328,4.327,0,0,0,0,0.965,81.86,104.71457716976,-0.328084,10,Assisted_Takeoff,
3000,2023-12-27 18:04:03,0,0,-0.328084,,,104.71457716976,0.328084,0,0,0,5,0,8.647,105.04266116976,0,0,0,0,0,0,4.3, -1.8, -0.2,0,0,1024,1024,1457,1024,0,0,66,0,5,0,0,100,4.341,4.34,0,0,0,0,1.717,81.86,104.71457716976,-0.328084,10,Assisted_Takeoff,
3100,2023-12-27 18:04:03,0,0,-0.328084,,,104.71457716976,0.328084,0,0,0,5,0,8.647,105.04266116976,0,0,0,0,0,0,4.8, -2, -0.3,0,0,1024,1024,1518,1024,0,0,75,0,4.8,0,0,100,4.341,4.34,0,0,0,0,1.717,81.86,104.71457716976,-0.328084,10,Assisted_Takeoff,
3200,2023-12-27 18:04:03,0,0,-0.328084,,,104.71457716976,0.328084,0,0,0,5,0,8.647,105.04266116976,0,0,0,0,0,0,4.1, -1.1, -0.2,0,0,1024,1024,1454,1024,0,0,65,0,4.6,0,0,100,4.341,4.34,0,0,0,0,1.717,81.86,104.71457716976,-0.328084,10,Assisted_Takeoff,
3300,2023-12-27 18:04:03,0,0,-0.328084,,,104.71457716976,0.328084,0,0,0,5,0,8.647,105.04266116976,0,0,0,0,0,0,3.8, 0.1, -0.4,0,0,1024,1024,1430,1024,0,0,62,0,4.4,0,0,100,4.341,4.34,0,0,0,0,1.717,81.86,104.71457716976,-0.328084,10,Assisted_Takeoff,
3400,2023-12-27 18:04:03,0,0,-0.328084,,,104.71457716976,0.328084,0,0,0,5,0,8.647,105.04266116976,0,0,0,0,0,0,3.6, 1, 0.9,0,0,1024,1024,1430,1024,0,0,62,0,4.1,0,0,100,4.341,4.34,0,0,0,0,1.717,81.86,104.71457716976,-0.328084,10,Assisted_Takeoff,
3500,2023-12-27 18:04:04,0,0,0,,,105.04266116976,0.328084,0,0,0,5,0,8.647,105.04266116976,0,0,0,0,0,0,3, 2.9, 0.5,0,0,1024,1024,1365,1024,0,0,52,0,3.8,0,0,100,4.341,4.34,0,0,0,0,1.717,81.86,105.04266116976,0,10,Assisted_Takeoff,
3600,2023-12-27 18:04:04,0,0,0,,,105.04266116976,0.328084,0,0,0,5,0,8.647,105.04266116976,0,0,0,0,0,-0.223694,2.1, 3.1, 1,0,0,1024,1024,1333,1024,0,0,47,0,3.3,0,0,100,4.341,4.34,0,0,0,0,1.717,81.86,105.04266116976,0,10,Assisted_Takeoff,
3700,2023-12-27 18:04:04,0,0,0,,,105.04266116976,0.328084,0,0,0,5,0,8.647,105.04266116976,0,0,0,0,0,-0.671082,1.5, 1.6, 0.3,0,0,1024,1024,1024,1024,0,0,0,0,2.6,0,0,100,4.341,4.34,0,0,0,0,1.717,81.86,105.04266116976,0,6,P-GPS,
3800,2023-12-27 18:04:04,0,0,0,,,105.04266116976,0.656168,0,0,0,5,0,8.647,105.04266116976,0,0,0,0,0,-1.11847,1.7, -1.4, -0.4,0,0,1024,1024,1024,1024,0,0,0,0,2.4,0,0,100,4.341,4.34,0,0,0,0,1.717,81.86,105.04266116976,0,6,P-GPS,
3900,2023-12-27 18:04:04,0,0,0.328084,,,105.37074516976,0.656168,0,0,0,5,0,8.647,105.37074516976,0.328084,0,0,0,0,-1.565858,2.1, -3.1, -0.6,0,0,1024,1024,1024,1024,0,0,0,0,2.4,0,0,100,4.341,4.34,0,0,0,0,1.717,81.86,105.37074516976,0.328084,6,P-GPS,
4000,2023-12-27 18:04:04,0,0,0.656168,,,105.69882916976,0.984252,0,0,0,5,0,8.647,105.69882916976,0.656168,0,0,0,0,-1.565858,2.3, -3.9, -0.7,0,0,1024,1024,1024,1024,0,0,0,0,2.4,0,0,100,4.341,4.34,0,0,0,0,1.717,81.86,105.69882916976,0.656168,6,P-GPS,
4100,2023-12-27 18:04:04,0,0,0.656168,,,105.69882916976,1.312336,0,0,0,5,0,8.58,105.69882916976,0.656168,0,0,0,0,-1.565858,2.3, -3.3, -0.2,0,0,1024,1024,1024,1024,0,0,0,0,2.4,0,0,100,4.242,4.241,0,0,0,0,2.352,82.04,105.69882916976,0.656168,6,P-GPS,
4200,2023-12-27 18:04:04,0,0,0.984252,,,106.02691316976,1.64042,0,0,0,5,0,8.58,106.02691316976,0.984252,0,0,0,0,-1.342164,2.4, -2.6, -0.1,0,0,1024,1024,1024,1024,0,0,0,0,2.4,0,0,100,4.242,4.241,0,0,0,0,2.352,82.04,106.02691316976,0.984252,6,P-GPS,
4300,2023-12-27 18:04:04,0,0,1.312336,,,106.35499716976,1.968504,0,0,0,5,0,8.58,106.35499716976,1.312336,0,0,0,0,-0.894776,2.4, -1.9, 0,0,0,1024,1024,1024,1024,0,0,0,0,2.4,0,0,100,4.242,4.241,0,0,0,0,2.352,82.04,106.35499716976,1.312336,6,P-GPS,
4400,2023-12-27 18:04:04,0,0,1.312336,,,106.35499716976,2.296588,0,0,0,5,0,8.58,106.35499716976,1.312336,0,0,0,0,-0.447388,2.4, -1.3, 0.4,0,0,1024,1024,1024,1024,0,0,0,0,2.4,0,0,100,4.242,4.241,0,0,0,0,2.352,82.04,106.35499716976,1.312336,6,P-GPS,
4500,2023-12-27 18:04:05,0,0,1.312336,,,106.35499716976,2.296588,0,0,0,5,0,8.58,106.35499716976,1.312336,0,0,0,0,-0.223694,2.3, -1.2, 0.5,0,0,1024,1024,1024,1024,0,0,0,0,2.4,0,0,100,4.242,4.241,0,0,0,0,2.352,82.04,106.35499716976,1.312336,6,P-GPS,
4600,2023-12-27 18:04:05,0,0,1.312336,,,106.35499716976,2.296588,0,0,0,5,0,8.58,106.35499716976,1.312336,0,0,0,0,0,2.2, -1, 0.2,0,0,1480,1024,1024,1024,69,0,0,0,2.4,0,0,100,4.242,4.241,0,0,0,0,2.352,82.04,106.35499716976,1.312336,6,P-GPS,
4700,2023-12-27 18:04:05,0,0,1.64042,,,106.68308116976,2.296588,0,0,0,5,0,8.58,106.68308116976,1.64042,0,0,0,0,0,2.5, -7.1, -1.1,0,0,1547,1024,1024,1024,79,0,0,0,2.4,0,0,100,4.242,4.241,0,0,0,0,2.352,82.04,106.68308116976,1.64042,1,Atti,"Vuela con cuidado (modo Atti) Señal del GPS demasiado débil. Se ha pasado al modo Atti. La aeronave no puede hacer vuelo estacionario. Vuela con precaución (Code: 30022). Error de calibración del estabilizador. Reinicia la aeronave o contacta con la Asistencia DJI (Code: 40011). "
4800,2023-12-27 18:04:05,0,0,1.64042,,,106.68308116976,2.296588,0.447388,0,0,5,0,8.58,106.68308116976,1.64042,0.447388,0,-0.447388,0,0,2.2, -4.7, -0.1,0,0,1024,1024,1024,1024,0,0,0,0,2.4,0,0,100,4.242,4.241,0,0,0,0,2.352,82.04,106.68308116976,1.64042,6,P-GPS,"La brújula no funciona bien el GPS no tiene buena señal. Cambia a modo Atti (Code: 30020). Error de calibración del estabilizador. Reinicia la aeronave o contacta con la Asistencia DJI (Code: 40011)"
4900,2023-12-27 18:04:05,0,0,1.64042,,,106.68308116976,2.296588,0.223694,0,0,5,0,8.58,106.68308116976,1.64042,0.447388,0,-0.223694,0,0,2.4, -7.7, -0.1,0,0,1476,1024,1024,1024,68,0,0,0,2.4,0,0,100,4.242,4.241,0,0,0,0,2.352,82.04,106.68308116976,1.64042,6,P-GPS,
5000,2023-12-27 18:04:05,0,0,1.64042,,,106.68308116976,2.296588,0.223694,0,0,5,0,8.58,106.68308116976,1.64042,0.447388,0,-0.223694,0,0,2.4, -1.4, 0.4,0,0,1644,1024,1024,1024,94,0,0,0,2.4,0,0,100,4.242,4.241,0,0,0,0,2.352,82.04,106.68308116976,1.64042,6,P-GPS,
5100,2023-12-27 18:04:05,0,0,1.64042,,,106.68308116976,2.296588,0.223694,0,0,5,0,8.58,106.68308116976,1.64042,0.447388,0,-0.223694,0,0,2.5, -8, 0.5,0,0,1684,1024,1024,1024,100,0,0,0,2.4,0,0,100,4.242,4.241,0,0,0,0,2.352,82.04,106.68308116976,1.64042,6,P-GPS,
5200,2023-12-27 18:04:05,0,0,1.64042,,,106.68308116976,2.296588,0,0,0,5,0,8.58,106.68308116976,1.64042,0.447388,0,0,0,0,2.6, -15.9, 0.2,0,0,1684,1024,1024,1024,100,0,0,0,2.4,0,0,100,4.242,4.241,0,0,0,0,2.352,82.04,106.68308116976,1.64042,6,P-GPS,
5300,2023-12-27 18:04:05,0,0,1.64042,,,106.68308116976,2.296588,0.447388,0,0,5,0,8.58,106.68308116976,1.64042,0.447388,0,0.447388,0,0,2.8, -18.9, 0.1,0,0,1684,1024,1024,1024,100,0,0,0,2.4,0,0,100,4.242,4.241,0,0,0,0,2.352,82.04,106.68308116976,1.64042,6,P-GPS,
5400,2023-12-27 18:04:05,0,0,1.64042,,,106.68308116976,2.296588,1.11847,0,0,5,0,8.58,106.68308116976,1.64042,1.11847,0,1.11847,0,0,2.8, -19.6, 0.4,0,0,1684,1024,1024,1024,100,0,0,0,2.4,0,0,100,4.242,4.241,0,0,0,0,2.352,82.04,106.68308116976,1.64042,6,P-GPS,
5500,2023-12-27 18:04:05,0,0,1.64042,,,106.68308116976,2.296588,1.789552,0,0,5,0,8.58,106.68308116976,1.64042,1.789552,0,1.789552,0,0,2.8, -19.5, 0.5,0,0,1684,1024,1024,1024,100,0,0,0,2.4,0,0,100,4.242,4.241,0,0,0,0,2.352,82.04,106.68308116976,1.64042,6,P-GPS,
5600,2023-12-27 18:04:06,0,0,1.64042,,,106.68308116976,2.296588,2.460634,0,0,5,0,8.58,106.68308116976,1.64042,2.460634,0,2.460634,0.223694,0,2.8, -18.7, 0.7,0,0,1684,1024,1024,1024,100,0,0,0,2.4,0,0,100,4.242,4.241,0,0,0,0,2.352,82.04,106.68308116976,1.64042,6,P-GPS,
5700,2023-12-27 18:04:06,0,0,1.64042,,,106.68308116976,2.296588,3.131716,0,0,5,0,8.58,106.68308116976,1.64042,3.131716,0,3.131716,0.223694,0,2.9, -17.7, 0.4,0,0,1684,1024,1024,1024,100,0,0,0,2.4,0,0,100,4.242,4.241,0,0,0,0,2.352,82.04,106.68308116976,1.64042,6,P-GPS,
5800,2023-12-27 18:04:06,0,0,1.968504,,,107.01116516976,2.296588,3.802798,0,0,5,0,8.58,107.01116516976,1.968504,3.802798,0,3.802798,0.223694,-0.223694,3.1, -17.5, -1,0,0,1684,1024,1024,1024,100,0,0,0,2.4,0,0,100,4.242,4.241,0,0,0,0,2.352,82.04,107.01116516976,1.968504,6,P-GPS,
5900,2023-12-27 18:04:06,0,0,1.968504,,,107.01116516976,2.624672,4.250186,0,0,5,0,8.58,107.01116516976,1.968504,4.250186,0,4.250186,0.223694,-0.223694,3.4, -17.8, -0.9,0,0,1684,1024,1024,1024,100,0,0,0,2.4,0,0,100,4.242,4.241,0,0,0,0,2.352,82.04,107.01116516976,1.968504,6,P-GPS,
6000,2023-12-27 18:04:06,0,0,1.968504,,,107.01116516976,2.624672,4.697574,0,0,5,0,8.537,107.01116516976,1.968504,4.697574,0,4.697574,0.223694,-0.223694,3.4, -17.3, -0.6,0,0,1684,1024,1024,1024,100,0,0,0,2.4,0,0,100,4.252,4.25,0,0,0,0,4.275,82.04,107.01116516976,1.968504,6,P-GPS,
6100,2023-12-27 18:04:06,0,0,1.968504,,,107.01116516976,2.624672,5.144962,0,0,5,0,8.537,107.01116516976,1.968504,5.144962,0,5.144962,0.223694,-0.223694,3.5, -17.8, -0.5,0,0,1684,1024,1024,1024,100,0,0,0,2.4,0,0,100,4.252,4.25,0,0,0,0,4.275,82.04,107.01116516976,1.968504,6,P-GPS,
6200,2023-12-27 18:04:06,0,0,1.968504,,,107.01116516976,2.624672,5.59235,0,0,5,0,8.537,107.01116516976,1.968504,5.59235,0,5.59235,0.223694,-0.223694,3.6, -18.2, 0,0,0,1684,1024,1024,1024,100,0,0,0,2.4,0,0,100,4.252,4.25,0,0,0,0,4.275,82.04,107.01116516976,1.968504,6,P-GPS,
6300,2023-12-27 18:04:06,0,0,1.968504,,,107.01116516976,3.937008,6.039738,0,0,5,0,8.537,107.01116516976,1.968504,6.039738,0,6.039738,0.223694,0,3.6, -18.7, 1.1,0,0,1684,1024,1024,1024,100,0,0,0,2.4,0,0,100,4.252,4.25,0,0,0,0,4.275,82.04,107.01116516976,1.968504,6,P-GPS,
6400,2023-12-27 18:04:06,0,0,2.296588,,,107.33924916976,3.937008,6.5094954,0,0,5,0,8.537,107.33924916976,2.296588,6.5094954,0,6.487126,0.447388,0,3.6, -18.4, 0.5,0,0,1684,1024,1024,1024,100,0,0,0,2.4,0,0,100,4.252,4.25,0,0,0,0,4.275,82.04,107.33924916976,2.296588,6,P-GPS,
6500,2023-12-27 18:04:06,0,0,2.296588,,,107.33924916976,4.265092,6.9568834,0,0,5,0,8.537,107.33924916976,2.296588,6.9568834,0,6.934514,0.447388,-0.223694,3.6, -17.3, 0.1,0,0,1684,1024,1024,1024,100,0,0,0,2.4,0,0,100,4.252,4.25,0,0,0,0,4.275,82.04,107.33924916976,2.296588,6,P-GPS,
6600,2023-12-27 18:04:07,0,0,2.296588,,,107.33924916976,4.265092,7.1805774,0,0,5,0,8.537,107.33924916976,2.296588,7.1805774,0,7.158208,0.447388,0,3.7, -17.9, 0,0,0,1684,1024,1024,1024,100,0,0,0,2.4,0,0,100,4.252,4.25,0,0,0,0,4.275,82.04,107.33924916976,2.296588,6,P-GPS,
6700,2023-12-27 18:04:07,0,0,2.296588,,,107.33924916976,4.265092,7.6279654,0,0,5,0,8.537,107.33924916976,2.296588,7.6279654,0,7.605596,0.447388,0,3.7, -18.6, -0.6,0,0,1684,1024,1024,1024,100,0,0,0,2.4,0,0,100,4.252,4.25,0,0,0,0,4.275,82.04,107.33924916976,2.296588,6,P-GPS,
6800,2023-12-27 18:04:07,0,0,2.296588,,,107.33924916976,3.937008,8.0753534,0,0,5,0,8.537,107.33924916976,2.296588,8.0753534,0,8.052984,0.447388,0,3.8, -17.7, -0.5,0,0,1684,1024,1024,1024,100,0,0,0,2.4,0,0,100,4.252,4.25,0,0,0,0,4.275,82.04,107.33924916976,2.296588,6,P-GPS,
6900,2023-12-27 18:04:07,0,0,2.296588,,,107.33924916976,3.937008,8.2990474,0,0,5,0,8.537,107.33924916976,2.296588,8.2990474,0,8.276678,0.447388,0,3.8, -18, -0.1,0,0,1684,1024,1024,901,100,0,0,-19,2.4,0,0,100,4.252,4.25,0,0,0,0,4.275,82.04,107.33924916976,2.296588,6,P-GPS,
7000,2023-12-27 18:04:07,0,0,2.296588,,,107.33924916976,3.608924,8.7464354,0,0,5,0,8.476,107.33924916976,2.296588,8.7464354,0,8.724066,0.447388,0,3.8, -17.9, 0.1,0,0,1684,1022,1024,1024,100,-0,0,0,2.4,0,0,100,4.248,4.243,0,0,0,0,4.686,82.04,107.33924916976,2.296588,6,P-GPS,
7100,2023-12-27 18:04:07,0,0,2.296588,,,107.33924916976,3.937008,8.94776,0,0,5,0,8.476,107.33924916976,2.296588,8.94776,0,8.94776,0.447388,0,3.9, -17.9, 0.2,0,0,1684,1024,1024,1024,100,0,0,0,2.2,0,0,100,4.248,4.243,0,0,0,0,4.686,82.04,107.33924916976,2.296588,6,P-GPS,
7200,2023-12-27 18:04:07,0,0,2.296588,,,107.33924916976,4.265092,9.395148,0,0,5,0,8.476,107.33924916976,2.296588,9.395148,0,9.395148,0.447388,0,3.7, -17.5, 0.4,0,0,1684,1024,1024,1024,100,0,0,0,2.1,0,0,100,4.248,4.243,0,0,0,0,4.686,82.04,107.33924916976,2.296588,6,P-GPS,
7300,2023-12-27 18:04:07,0,0,2.296588,,,107.33924916976,4.265092,9.618842,0,0,5,0,8.476,107.33924916976,2.296588,9.618842,0,9.618842,0.447388,0,3.7, -17.3, 0.7,0,0,1684,1021,1024,1024,100,-0,0,0,2.1,0,0,100,4.248,4.243,0,0,0,0,4.686,82.04,107.33924916976,2.296588,6,P-GPS,
7400,2023-12-27 18:04:07,0,0,1.968504,,,107.01116516976,4.593176,9.8649054,0,0,5,0,8.476,107.33924916976,2.296588,9.8649054,0,9.842536,0.671082,0,3.7, -17.6, 0.8,0,0,1684,1021,1024,1024,100,-0,0,0,2.1,0,0,100,4.248,4.243,0,0,0,0,4.686,82.04,107.01116516976,1.968504,6,P-GPS,
7500,2023-12-27 18:04:08,0,0,1.968504,,,107.01116516976,4.593176,10.3122934,0,0,5,0,8.476,107.33924916976,2.296588,10.3122934,0,10.289924,0.671082,0,3.7, -17.6, 1.1,0,0,1684,1019,1024,1024,100,-1,0,0,2.1,0,0,100,4.248,4.243,0,0,0,0,4.686,82.04,107.01116516976,1.968504,6,P-GPS,
7600,2023-12-27 18:04:08,0,0,1.968504,,,107.01116516976,4.593176,10.5359874,0,0,5,0,8.476,107.33924916976,2.296588,10.5359874,0,10.513618,0.671082,0,3.7, -17.7, 1.2,0,0,1684,1024,1065,1024,100,0,6,0,2.1,0,0,100,4.248,4.243,0,0,0,0,4.686,82.04,107.01116516976,1.968504,6,P-GPS,
7700,2023-12-27 18:04:08,0,0,1.968504,,,107.01116516976,4.593176,10.7596814,0,0,5,0,8.476,107.33924916976,2.296588,10.7596814,0,10.737312,0.671082,0,3.7, -17.5, 1.3,0,0,1684,1024,1359,1024,100,0,51,0,2.1,0,0,100,4.248,4.243,0,0,0,0,4.686,82.04,107.01116516976,1.968504,6,P-GPS,"Error de calibración del estabilizador"
7800,2023-12-27 18:04:08,0,0,1.968504,,,107.01116516976,4.593176,10.9833754,0,0,5,0,8.476,107.33924916976,2.296588,10.9833754,0,10.961006,0.671082,0,3.8, -17, 1.2,0,0,1684,1024,1684,1024,100,0,100,0,2.1,0,0,100,4.248,4.243,0,0,0,0,4.686,82.04,107.01116516976,1.968504,6,P-GPS,
7900,2023-12-27 18:04:08,0,0,1.968504,,,107.01116516976,4.593176,11.4307634,0,0,5,0,8.476,107.33924916976,2.296588,11.4307634,0,11.408394,0.671082,-0.223694,3.7, -16.5, 1,0,0,1684,1022,1684,1024,100,-0,100,0,2.1,0,0,100,4.248,4.243,0,0,0,0,4.686,82.04,107.01116516976,1.968504,6,P-GPS,
8000,2023-12-27 18:04:08,0,0,1.968504,,,107.01116516976,4.92126,11.6544574,0,0,5,0,8.474,107.33924916976,2.296588,11.6544574,0,11.632088,0.671082,-0.894776,3.7, -16.7, 1.3,0,0,1684,990,1684,1024,100,-5,100,0,2.1,0,0,100,4.244,4.242,0,0,0,0,4.459,82.04,107.01116516976,1.968504,6,P-GPS,
8100,2023-12-27 18:04:08,0,0,2.296588,,,107.33924916976,5.249344,12.1018454,0,0,5,0,8.474,107.33924916976,2.296588,12.1018454,0,12.079476,0.894776,-1.565858,3.7, -15.1, 0.4,0,0,1684,903,1684,1024,100,-18,100,0,2.1,0,0,100,4.244,4.242,0,0,0,0,4.459,82.04,107.33924916976,2.296588,6,P-GPS,
8200,2023-12-27 18:04:08,0,0,2.624672,,,107.66733316976,5.577428,12.3255394,0,0,5,0,8.474,107.66733316976,2.624672,12.3255394,0,12.30317,0.894776,-2.460634,3.7, -14.4, 0,0,0,1684,1024,1684,1024,100,0,100,0,2.1,0,0,100,4.244,4.242,0,0,0,0,4.459,82.04,107.66733316976,2.624672,6,P-GPS,
8300,2023-12-27 18:04:08,0,0,3.28084,,,108.32350116976,6.233596,12.5492334,0,0,5,0,8.474,108.32350116976,3.28084,12.5492334,0,12.526864,0.894776,-3.35541,3.8, -14.2, -0.7,0,0,1684,1024,1684,1024,100,0,100,0,2.1,0,0,100,4.244,4.242,0,0,0,0,4.459,82.04,108.32350116976,3.28084,6,P-GPS,
8400,2023-12-27 18:04:08,0,0,3.937008,,,108.97966916976,6.889764,12.7729274,0,0,5,0,8.474,108.97966916976,3.937008,12.7729274,0,12.750558,0.671082,-4.026492,3.8, -14.5, 0.2,0,0,1684,1024,1684,1013,100,0,100,-2,2.1,0,0,100,4.244,4.242,0,0,0,0,4.459,82.04,108.97966916976,3.937008,6,P-GPS,
8500,2023-12-27 18:04:09,0,0,4.593176,,,109.63583716976,7.545932,12.9966214,0,0,5,0,8.474,109.63583716976,4.593176,12.9966214,0,12.974252,0.671082,-4.47388,3.8, -15.1, 1.1,0,0,1684,1024,1684,1008,100,0,100,-2,2.1,0,0,100,4.244,4.242,0,0,0,0,4.459,82.04,109.63583716976,4.593176,6,P-GPS,
8600,2023-12-27 18:04:09,0,0,5.249344,,,110.29200516976,8.2021,13.2203154,0,0,5,0,8.474,110.29200516976,5.249344,13.2203154,0,13.197946,0.671082,-4.47388,3.8, -15.7, 1.6,0,0,1684,1024,1684,1008,100,0,100,-2,2.1,0,0,100,4.244,4.242,0,0,0,0,4.459,82.04,110.29200516976,5.249344,6,P-GPS,
8700,2023-12-27 18:04:09,0,0,6.233596,,,111.27625716976,8.858268,13.2203154,0,0,6,0,8.474,111.27625716976,6.233596,13.2203154,0,13.197946,0.671082,-4.47388,3.7, -16.1, 1.5,0,0,1684,1024,1684,1008,100,0,100,-2,2.1,0,0,100,4.244,4.242,0,0,0,0,4.459,82.04,111.27625716976,6.233596,6,P-GPS,
8800,2023-12-27 18:04:09,0,0,6.889764,,,111.93242516976,9.514436,13.4440094,0,0,6,0,8.474,111.93242516976,6.889764,13.4440094,0,13.42164,0.671082,-4.250186,3.8, -16.1, 1.2,0,0,1684,1024,1684,1007,100,0,100,-3,2.1,0,0,100,4.244,4.242,0,0,0,0,4.459,82.04,111.93242516976,6.889764,6,P-GPS,
8900,2023-12-27 18:04:09,0,0,7.545932,,,112.58859316976,10.498688,13.4440094,0,0,6,0,8.474,112.58859316976,7.545932,13.4440094,0,13.42164,0.671082,-4.026492,3.9, -16.3, 1.5,0,0,1684,1024,1684,1007,100,0,100,-3,2.1,0,0,100,4.244,4.242,0,0,0,0,4.459,82.04,112.58859316976,7.545932,6,P-GPS,
9000,2023-12-27 18:04:09,0,0,8.2021,,,113.24476116976,10.826772,13.6677034,0,0,6,0,8.496,113.24476116976,8.2021,13.6677034,0,13.645334,0.671082,-3.579104,3.9, -16.4, 1.5,0,0,1684,1024,1684,1007,100,0,100,-3,2.1,0,0,100,4.182,4.165,0,0,0,0,4.191,81.86,113.24476116976,8.2021,6,P-GPS,
9100,2023-12-27 18:04:09,0,0,8.858268,,,113.90092916976,11.48294,13.6677034,0,0,6,0,8.496,113.90092916976,8.858268,13.6677034,0,13.645334,0.671082,-3.35541,3.9, -17.1, 1.8,0,0,1684,1024,1684,1008,100,0,100,-2,2.1,0,0,100,4.182,4.165,0,0,0,0,4.191,81.86,113.90092916976,8.858268,6,P-GPS,
9200,2023-12-27 18:04:09,0,0,9.186352,,,114.22901316976,12.139108,13.8913974,0,0,6,0,8.496,114.22901316976,9.186352,13.8913974,0,13.869028,0.671082,-2.908022,4, -17.5, 1.9,0,0,1684,1024,1684,1008,100,0,100,-2,2.1,0,0,100,4.182,4.165,0,0,0,0,4.191,81.86,114.22901316976,9.186352,6,P-GPS,
9300,2023-12-27 18:04:09,0,0,9.514436,,,114.55709716976,12.467192,13.8913974,0,0,6,0,8.496,114.55709716976,9.514436,13.8913974,0,13.869028,0.671082,-2.684328,3.9, -17.8, 1.3,0,0,1388,1024,1684,1007,55,0,100,-3,2.1,0,0,100,4.182,4.165,0,0,0,0,4.191,81.86,114.55709716976,9.514436,6,P-GPS,
9400,2023-12-27 18:04:09,0,0,10.170604,,,115.21326516976,12.795276,14.1150914,0,0,6,0,8.496,115.21326516976,10.170604,14.1150914,0,14.092722,0.894776,-2.23694,4, -13.9, 1.7,0,0,1065,1024,1684,1007,6,0,100,-3,2.1,0,0,100,4.182,4.165,0,0,0,0,4.191,81.86,115.21326516976,10.170604,6,P-GPS,
9500,2023-12-27 18:04:10,0,0,10.170604,,,115.21326516976,13.451444,14.1150914,0,0,6,0,8.496,115.21326516976,10.170604,14.1150914,0,14.092722,0.894776,-2.013246,4.2, -3.5, 1.4,0,0,1024,1024,1684,1008,0,0,100,-2,2.1,0,0,100,4.182,4.165,0,0,0,0,4.191,81.86,115.21326516976,10.170604,6,P-GPS,
9600,2023-12-27 18:04:10,0,0,10.498688,,,115.54134916976,13.779528,13.4440094,0,0,6,0,8.496,115.54134916976,10.498688,14.1150914,0,13.42164,0.894776,-2.013246,4.6, 21.6, 1.5,0,0,1024,1024,1684,1008,0,0,100,-2,2.2,0,0,100,4.182,4.165,0,0,0,0,4.191,81.86,115.54134916976,10.498688,6,P-GPS,
9700,2023-12-27 18:04:10,0,0,10.498688,,,115.54134916976,14.107612,12.1018454,0,0,6,0,8.496,115.54134916976,10.498688,14.1150914,0,12.079476,0.894776,-2.23694,4.3, 20.8, 0.2,0,0,1024,1024,1684,1006,0,0,100,-3,2.1,0,0,100,4.182,4.165,0,0,0,0,4.191,81.86,115.54134916976,10.498688,6,P-GPS,
9800,2023-12-27 18:04:10,0,0,10.826772,,,115.86943316976,14.76378,11.2070694,0,0,7,0,8.496,115.86943316976,10.826772,14.1150914,0,11.1847,0.671082,-1.565858,4.2, 21.2, 0,0,0,1024,1024,1684,1007,0,0,100,-3,2.2,0,0,100,4.182,4.165,0,0,0,0,4.191,81.86,115.86943316976,10.826772,6,P-GPS,
9900,2023-12-27 18:04:10,0,0,10.826772,,,115.86943316976,15.091864,10.3122934,0,0,7,0,8.496,115.86943316976,10.826772,14.1150914,0,10.289924,0.671082,-1.11847,4.1, 21.3, -0.8,0,0,1024,1024,1684,1006,0,0,100,-3,2.1,0,0,100,4.182,4.165,0,0,0,0,4.191,81.86,115.86943316976,10.826772,6,P-GPS,
10000,2023-12-27 18:04:10,0,0,10.826772,,,115.86943316976,15.091864,9.395148,0,0,7,0,8.401,115.86943316976,10.826772,14.1150914,0,9.395148,0.447388,-0.894776,4, 21.5, -0.9,0,0,1319,1024,1024,1024,45,0,0,0,2.1,0,0,100,4.239,4.24,0,0,0,0,6.196,81.86,115.86943316976,10.826772,6,P-GPS,
10100,2023-12-27 18:04:10,0,0,10.826772,,,115.86943316976,15.419948,8.2990474,0,0,7,0,8.401,115.86943316976,10.826772,14.1150914,0,8.276678,0.447388,-0.671082,4.2, 20.8, 0.6,0,0,1684,1024,1024,1024,100,0,0,0,2.1,0,0,100,4.239,4.24,0,0,0,0,6.196,81.86,115.86943316976,10.826772,6,P-GPS,
10200,2023-12-27 18:04:10,0,0,10.826772,,,115.86943316976,15.748032,7.381902,0,0,7,0,8.401,115.86943316976,10.826772,14.1150914,0,7.381902,0.223694,-0.447388,4.5, 17.4, 1.7,0,0,1684,1024,1024,1024,100,0,0,0,2.2,0,0,100,4.239,4.24,0,0,0,0,6.196,81.86,115.86943316976,10.826772,6,P-GPS,
10300,2023-12-27 18:04:10,0,0,10.826772,,,115.86943316976,15.748032,6.71082,0,0,7,0,8.401,115.86943316976,10.826772,14.1150914,0,6.71082,0.223694,0,4.6, 11.4, 0.6,0,0,1684,1024,1024,1024,100,0,0,0,2.1,0,0,100,4.239,4.24,0,0,0,0,6.196,81.86,115.86943316976,10.826772,6,P-GPS,"Se ha alcanzado la altitud máxima (Code: 20000001)"
10400,2023-12-27 18:04:10,0,0,10.826772,,,115.86943316976,16.076116,6.263432,0,0,7,0,8.401,115.86943316976,10.826772,14.1150914,0,6.263432,0.223694,0,4.5, 8.3, 1.2,0,0,1684,1024,1024,1024,100,0,0,0,2.1,0,0,100,4.239,4.24,0,0,0,0,6.196,81.86,115.86943316976,10.826772,6,P-GPS,
10500,2023-12-27 18:04:11,0,0,10.826772,,,115.86943316976,16.076116,5.816044,0,0,7,0,8.401,115.86943316976,10.826772,14.1150914,0,5.816044,0.223694,0,4.6, 5, 0.8,0,0,1684,1024,1024,1024,100,0,0,0,2.1,0,0,100,4.239,4.24,0,0,0,0,6.196,81.86,115.86943316976,10.826772,6,P-GPS,
10600,2023-12-27 18:04:11,0,0,10.826772,,,115.86943316976,16.076116,5.59235,0,0,7,0,8.401,115.86943316976,10.826772,14.1150914,0,5.59235,0.223694,0,4.5, 3.1, 2.1,0,0,1684,1024,1024,1024,100,0,0,0,2.1,0,0,100,4.239,4.24,0,0,0,0,6.196,81.86,115.86943316976,10.826772,6,P-GPS,
10700,2023-12-27 18:04:11,0,0,10.826772,,,115.86943316976,16.076116,5.368656,0,0,8,0,8.401,115.86943316976,10.826772,14.1150914,0,5.368656,0.223694,0,4.2, -3.3, 2,0,0,1684,1024,1024,1024,100,0,0,0,2.1,0,0,100,4.239,4.24,0,0,0,0,6.196,81.86,115.86943316976,10.826772,6,P-GPS,
10800,2023-12-27 18:04:11,0,0,10.826772,,,115.86943316976,16.4042,5.368656,0,0,8,0,8.401,115.86943316976,10.826772,14.1150914,0,5.368656,0.223694,0,4, -8.3, 2.2,0,0,1684,1024,1024,1024,100,0,0,0,2.1,0,0,100,4.239,4.24,0,0,0,0,6.196,81.86,115.86943316976,10.826772,6,P-GPS,
10900,2023-12-27 18:04:11,0,0,11.154856,,,116.19751716976,16.076116,5.368656,0,0,8,0,8.401,116.19751716976,11.154856,14.1150914,0,5.368656,0.223694,0,4, -11.2, 1.7,0,0,1684,1024,1024,1024,100,0,0,0,2.1,0,0,100,4.239,4.24,0,0,0,0,6.196,81.86,116.19751716976,11.154856,6,P-GPS,
11000,2023-12-27 18:04:11,0,0,11.154856,,,116.19751716976,16.4042,5.6147194,0,0,8,0,8.483,116.19751716976,11.154856,14.1150914,0,5.59235,0.447388,0,3.7, -13.3, 0.9,0,0,1684,1024,1024,1024,100,0,0,0,2.1,0,0,100,4.25,4.251,0,0,0,0,4.097,81.86,116.19751716976,11.154856,6,P-GPS,
11100,2023-12-27 18:04:11,0,0,11.154856,,,116.19751716976,16.4042,5.8384134,0,0,8,0,8.483,116.19751716976,11.154856,14.1150914,0,5.816044,0.447388,0,3.8, -15.3, 0.9,0,0,1337,1024,1024,1024,47,0,0,0,2.1,0,0,100,4.25,4.251,0,0,0,0,4.097,81.86,116.19751716976,11.154856,6,P-GPS,
11200,2023-12-27 18:04:11,0,0,11.154856,,,116.19751716976,16.4042,6.2858014,0,0,8,0,8.483,116.19751716976,11.154856,14.1150914,0,6.263432,0.447388,0,3.9, -15.5, 1.3,0,0,1337,1024,1024,1024,47,0,0,0,2.1,0,0,100,4.25,4.251,0,0,0,0,4.097,81.86,116.19751716976,11.154856,6,P-GPS,
11300,2023-12-27 18:04:11,0,0,11.48294,,,116.52560116976,16.4042,6.5094954,0,0,8,0,8.483,116.52560116976,11.48294,14.1150914,0,6.487126,0.447388,0,3.9, -9.3, 1,0,0,1078,1024,1024,1024,8,0,0,0,2.1,0,0,100,4.25,4.251,0,0,0,0,4.097,81.86,116.52560116976,11.48294,6,P-GPS,
11400,2023-12-27 18:04:11,0,0,11.48294,,,116.52560116976,16.4042,6.5094954,0,0,8,0,8.483,116.52560116976,11.48294,14.1150914,0,6.487126,0.447388,0,4, -2.3, 0.7,0,0,1024,1024,1024,1024,0,0,0,0,2.1,0,0,100,4.25,4.251,0,0,0,0,4.097,81.86,116.52560116976,11.48294,6,P-GPS,
11500,2023-12-27 18:04:12,0,0,11.48294,,,116.52560116976,16.732284,6.2858014,0,0,8,0,8.483,116.52560116976,11.48294,14.1150914,0,6.263432,0.447388,0,4.1, 14.5, 0.7,0,0,1024,1024,1024,1024,0,0,0,0,2.1,0,0,100,4.25,4.251,0,0,0,0,4.097,81.86,116.52560116976,11.48294,6,P-GPS,
11600,2023-12-27 18:04:12,0,0,11.48294,,,116.52560116976,16.732284,5.3910254,0,0,8,0,8.483,116.52560116976,11.48294,14.1150914,0,5.368656,0.447388,0,4.1, 23.3, -0.1,0,0,1024,1024,1024,1024,0,0,0,0,2.1,0,0,100,4.25,4.251,0,0,0,0,4.097,81.86,116.52560116976,11.48294,6,P-GPS,
11700,2023-12-27 18:04:12,0,0,11.48294,,,116.52560116976,16.732284,4.250186,0,0,8,0,8.483,116.52560116976,11.48294,14.1150914,0,4.250186,0.223694,0,4.5, 23.3, 0.7,0,0,1024,1024,1024,1024,0,0,0,0,2.1,0,0,100,4.25,4.251,0,0,0,0,4.097,81.86,116.52560116976,11.48294,6,P-GPS,
11800,2023-12-27 18:04:12,0,0,11.48294,,,116.52560116976,17.060368,3.131716,0,0,8,0,8.483,116.52560116976,11.48294,14.1150914,0,3.131716,0.223694,0,4.7, 18.2, 1.1,0,0,1024,1024,1024,1024,0,0,0,0,2.1,0,0,100,4.25,4.251,0,0,0,0,4.097,81.86,116.52560116976,11.48294,6,P-GPS,
11900,2023-12-27 18:04:12,0,0,11.48294,,,116.52560116976,17.060368,2.23694,0,0,8,0,8.483,116.52560116976,11.48294,14.1150914,0,2.23694,0,0,4.3, 13.5, 0.9,0,0,1024,1024,1024,1024,0,0,0,0,2.1,0,0,100,4.25,4.251,0,0,0,0,4.097,81.86,116.52560116976,11.48294,6,P-GPS,
12000,2023-12-27 18:04:12,0,0,11.48294,,,116.52560116976,17.388452,1.565858,0,0,8,2,8.473,116.52560116976,11.48294,14.1150914,0,1.565858,0,0,4.1, 10.7, 0.7,0,0,1024,1024,1024,1024,0,0,0,0,2.1,0,0,100,4.236,4.232,0,0,0,0,3.851,82.04,116.52560116976,11.48294,6,P-GPS,
12100,2023-12-27 18:04:12,0,0,11.811024,,,116.85368516976,17.388452,0.894776,0,0,8,2,8.473,116.85368516976,11.811024,14.1150914,0,0.894776,0,0,4.1, 7.8, 0.6,0,0,1024,1024,1024,1024,0,0,0,0,2.1,0,0,100,4.236,4.232,0,0,0,0,3.851,82.04,116.85368516976,11.811024,6,P-GPS,
12200,2023-12-27 18:04:12,0,0,11.811024,,,116.85368516976,17.388452,0.447388,0,0,8,2,8.473,116.85368516976,11.811024,14.1150914,0,0.447388,0,0,4.1, 5.4, 0.5,0,0,1024,1024,1024,1024,0,0,0,0,2.1,0,0,100,4.236,4.232,0,0,0,0,3.851,82.04,116.85368516976,11.811024,6,P-GPS,
12300,2023-12-27 18:04:12,0,0,11.811024,,,116.85368516976,17.388452,0,0,0,8,2,8.473,116.85368516976,11.811024,14.1150914,0,0,0,0,4.1, 3, 0.4,0,0,1024,1024,1024,1024,0,0,0,0,2.1,0,0,100,4.236,4.232,0,0,0,0,3.851,82.04,116.85368516976,11.811024,6,P-GPS,"Setting new Maximum Flight Altitude to 120m (394 ft)"
12400,2023-12-27 18:04:12,0,0,11.811024,,,116.85368516976,17.388452,0,0,0,8,2,8.473,116.85368516976,11.811024,14.1150914,0,0,0,0,4.1, 1.5, 0.2,0,0,1062,1024,1024,1024,6,0,0,0,2.1,0,0,100,4.236,4.232,0,0,0,0,3.851,82.04,116.85368516976,11.811024,6,P-GPS,
12500,2023-12-27 18:04:12,0,0,12.139108,,,117.18176916976,17.716536,0,0,0,8,2,8.473,117.18176916976,12.139108,14.1150914,0,0,0,0,4.1, 0.2, 0.4,0,0,1684,1024,1024,1024,100,0,0,0,2.1,0,0,100,4.236,4.232,0,0,0,0,3.851,82.04,117.18176916976,12.139108,6,P-GPS,
12600,2023-12-27 18:04:13,0,0,12.139108,,,117.18176916976,17.716536,0,0,0,8,2,8.473,117.18176916976,12.139108,14.1150914,0,0,0,0,4.2, -7.7, 0.7,0,0,1684,1024,1024,1024,100,0,0,0,2.1,0,0,100,4.236,4.232,0,0,0,0,3.851,82.04,117.18176916976,12.139108,6,P-GPS,
12700,2023-12-27 18:04:13,0,0,12.139108,,,117.18176916976,17.388452,0,0,0,8,2,8.473,117.18176916976,12.139108,14.1150914,0,0,0,0,4.2, -16, 0.8,0,0,1684,1024,1024,1024,100,0,0,0,2.1,0,0,100,4.236,4.232,0,0,0,0,3.851,82.04,117.18176916976,12.139108,6,P-GPS,
12800,2023-12-27 18:04:13,0,0,12.139108,,,117.18176916976,17.388452,0.671082,0,0,8,2,8.473,117.18176916976,12.139108,14.1150914,0,0.671082,0,0,4.1, -19.1, 1.1,0,0,1684,1024,1024,1024,100,0,0,0,2.1,0,0,100,4.236,4.232,0,0,0,0,3.851,82.04,117.18176916976,12.139108,6,P-GPS,
12900,2023-12-27 18:04:13,0,0,12.139108,,,117.18176916976,17.060368,1.342164,0,0,8,2,8.473,117.18176916976,12.139108,14.1150914,0,1.342164,0,0,4, -19.1, 0.2,0,0,1684,1024,1024,1024,100,0,0,0,2.1,0,0,100,4.236,4.232,0,0,0,0,3.851,82.04,117.18176916976,12.139108,6,P-GPS,
13000,2023-12-27 18:04:13,0,0,12.139108,,,117.18176916976,17.060368,2.013246,0,0,8,2,8.446,117.18176916976,12.139108,14.1150914,0,2.013246,0,0,4.1, -18.6, 0.9,0,0,1684,1024,1024,1024,100,0,0,0,2.1,0,0,100,4.225,4.226,0,0,0,0,4.327,82.22,117.18176916976,12.139108,6,P-GPS,
13100,2023-12-27 18:04:13,0,0,12.139108,,,117.18176916976,17.060368,2.684328,0,0,8,2,8.446,117.18176916976,12.139108,14.1150914,0,2.684328,0.223694,0,4.2, -18.3, 0.4,0,0,1684,1024,1024,1024,100,0,0,0,2.1,0,0,100,4.225,4.226,0,0,0,0,4.327,82.22,117.18176916976,12.139108,6,P-GPS,
13200,2023-12-27 18:04:13,0,0,12.139108,,,117.18176916976,17.060368,3.35541,0,0,8,2,8.446,117.18176916976,12.139108,14.1150914,0,3.35541,0.223694,0,4.1, -17.8, -0.2,0,0,1684,1024,1024,1024,100,0,0,0,2.1,0,0,100,4.225,4.226,0,0,0,0,4.327,82.22,117.18176916976,12.139108,6,P-GPS,
13300,2023-12-27 18:04:13,0,0,12.139108,,,117.18176916976,17.060368,3.802798,0,0,8,2,8.446,117.18176916976,12.139108,14.1150914,0,3.802798,0.223694,0,4.1, -18, -0.1,0,0,1684,1024,1024,1024,100,0,0,0,2.1,0,0,100,4.225,4.226,0,0,0,0,4.327,82.22,117.18176916976,12.139108,6,P-GPS,
13400,2023-12-27 18:04:13,0,0,12.139108,,,117.18176916976,17.060368,4.250186,0,0,8,2,8.446,117.18176916976,12.139108,14.1150914,0,4.250186,0.223694,0,4.1, -18.1, 0,0,0,1536,1024,1024,1024,78,0,0,0,2.1,0,0,100,4.225,4.226,0,0,0,0,4.327,82.22,117.18176916976,12.139108,6,P-GPS,
13500,2023-12-27 18:04:13,0,0,12.139108,,,117.18176916976,17.060368,4.697574,0,0,8,2,8.446,117.18176916976,12.139108,14.1150914,0,4.697574,0.223694,0,4, -16.3, 0.3,0,0,1217,1024,1024,1024,29,0,0,0,2.1,0,0,100,4.225,4.226,0,0,0,0,4.327,82.22,117.18176916976,12.139108,6,P-GPS,
13600,2023-12-27 18:04:14,0,0,12.139108,,,117.18176916976,17.060368,5.144962,0,0,8,2,8.446,117.18176916976,12.139108,14.1150914,0,5.144962,0.223694,0,4, -10, 0.5,0,0,1049,1024,1024,1024,4,0,0,0,2.1,0,0,100,4.225,4.226,0,0,0,0,4.327,82.22,117.18176916976,12.139108,6,P-GPS,
13700,2023-12-27 18:04:14,0,0,12.139108,,,117.18176916976,17.388452,5.144962,0,0,8,2,8.446,117.18176916976,12.139108,14.1150914,0,5.144962,0.223694,0,3.9, -4.6, 0,0,0,1317,1024,1024,1024,44,0,0,0,2.1,0,0,100,4.225,4.226,0,0,0,0,4.327,82.22,117.18176916976,12.139108,6,P-GPS,
13800,2023-12-27 18:04:14,0,0,12.139108,,,117.18176916976,17.388452,4.921268,0,0,8,2,8.446,117.18176916976,12.139108,14.1150914,0,4.921268,0.223694,0,3.8, 10.5, 0,0,0,1684,1024,1024,1024,100,0,0,0,2.1,0,0,100,4.225,4.226,0,0,0,0,4.327,82.22,117.18176916976,12.139108,6,P-GPS,
13900,2023-12-27 18:04:14,0,0,12.139108,,,117.18176916976,17.388452,4.250186,0,0,8,2,8.446,117.18176916976,12.139108,14.1150914,0,4.250186,0.223694,0,4.2, 5.7, 1.1,0,0,1684,1024,1024,1024,100,0,0,0,2.1,0,0,100,4.225,4.226,0,0,0,0,4.327,82.22,117.18176916976,12.139108,6,P-GPS,
14000,2023-12-27 18:04:14,0,0,11.811024,,,116.85368516976,17.716536,4.026492,0,0,8,2,8.446,117.18176916976,12.139108,14.1150914,0,4.026492,0.223694,0,4.2, -16, 1.4,0,0,1684,1024,1024,1024,100,0,0,0,2.1,0,0,100,4.225,4.223,0,0,0,0,4.25,82.22,116.85368516976,11.811024,6,P-GPS,
14100,2023-12-27 18:04:14,0,0,11.811024,,,116.85368516976,17.388452,4.250186,0,0,8,2,8.446,117.18176916976,12.139108,14.1150914,0,4.250186,0.223694,0.223694,4, -20.8, 1.1,0,0,1409,1024,1024,1024,58,0,0,0,2.1,0,0,100,4.225,4.223,0,0,0,0,4.25,82.22,116.85368516976,11.811024,6,P-GPS,
14200,2023-12-27 18:04:14,0,0,11.811024,,,116.85368516976,17.388452,4.921268,0,0,8,2,8.446,117.18176916976,12.139108,14.1150914,0,4.921268,0.223694,0.223694,3.9, -21.3, 1.1,0,0,1409,1024,1024,1024,58,0,0,0,2.1,0,0,100,4.225,4.223,0,0,0,0,4.25,82.22,116.85368516976,11.811024,6,P-GPS,
14300,2023-12-27 18:04:14,0,0,11.811024,,,116.85368516976,17.388452,5.3910254,0,0,8,2,8.446,117.18176916976,12.139108,14.1150914,0,5.368656,0.447388,0.223694,4.1, -18.2, 0,0,0,1024,1024,1024,1024,0,0,0,0,2.1,0,0,100,4.225,4.223,0,0,0,0,4.25,82.22,116.85368516976,11.811024,6,P-GPS,
14400,2023-12-27 18:04:14,0,0,11.811024,,,116.85368516976,17.388452,5.6147194,0,0,8,2,8.446,117.18176916976,12.139108,14.1150914,0,5.59235,0.447388,0,4.2, -2.9, 0.1,0,0,1024,1024,1024,1024,0,0,0,0,2.1,0,0,100,4.225,4.223,0,0,0,0,4.25,82.22,116.85368516976,11.811024,6,P-GPS,
14500,2023-12-27 18:04:15,0,0,11.811024,,,116.85368516976,17.388452,5.1673314,0,0,8,2,8.446,117.18176916976,12.139108,14.1150914,0,5.144962,0.447388,0,3.9, 18.9, -0.6,0,0,1024,1024,1024,1024,0,0,0,0,2.1,0,0,100,4.225,4.223,0,0,0,0,4.25,82.22,116.85368516976,11.811024,6,P-GPS,
14600,2023-12-27 18:04:15,0,0,11.811024,,,116.85368516976,17.388452,4.0488614,0,0,8,2,8.446,117.18176916976,12.139108,14.1150914,0,4.026492,0.447388,0,3.6, 21.5, -1.9,0,0,1024,1024,1024,1024,0,0,0,0,2.1,0,0,100,4.225,4.223,0,0,0,0,4.25,82.22,116.85368516976,11.811024,6,P-GPS,
14700,2023-12-27 18:04:15,0,0,11.811024,,,116.85368516976,17.388452,3.1540854,0,0,8,2,8.446,117.18176916976,12.139108,14.1150914,0,3.131716,0.447388,0,4, 16.6, -0.1,0,0,1024,1024,1024,1024,0,0,0,0,2.1,0,0,100,4.225,4.223,0,0,0,0,4.25,82.22,116.85368516976,11.811024,6,P-GPS,
14800,2023-12-27 18:04:15,0,0,11.811024,,,116.85368516976,17.716536,2.2816788,0,0,8,2,8.446,117.18176916976,12.139108,14.1150914,0,2.23694,0.447388,0,3.7, 14.3, -1.7,0,0,1024,1024,1024,1024,0,0,0,0,2.2,0,0,100,4.225,4.223,0,0,0,0,4.25,82.22,116.85368516976,11.811024,6,P-GPS,
14900,2023-12-27 18:04:15,0,0,12.139108,,,117.18176916976,17.716536,1.6329662,0,0,8,2,8.446,117.18176916976,12.139108,14.1150914,0,1.565858,0.447388,0,3.6, 11.4, -2.5,0,0,1024,1024,1024,1024,0,0,0,0,2.1,0,0,100,4.225,4.223,0,0,0,0,4.25,82.22,117.18176916976,12.139108,6,P-GPS,
15000,2023-12-27 18:04:15,0,0,12.139108,,,117.18176916976,17.716536,0.9171454,0,0,8,2,8.408,117.18176916976,12.139108,14.1150914,0,0.894776,0.223694,0,3.7, 8.4, -2.7,0,0,1024,1024,1024,1024,0,0,0,0,2.2,0,0,100,4.211,4.194,0,0,0,0,4.209,82.22,117.18176916976,12.139108,6,P-GPS,
15100,2023-12-27 18:04:15,0,0,12.139108,,,117.18176916976,17.716536,0.4921268,0,0,8,2,8.408,117.18176916976,12.139108,14.1150914,0,0.447388,0.223694,0,4, 5, -2.7,0,0,1024,1024,1024,1024,0,0,0,0,2.2,0,0,100,4.211,4.194,0,0,0,0,4.209,82.22,117.18176916976,12.139108,6,P-GPS,
15200,2023-12-27 18:04:15,0,0,12.139108,,,117.18176916976,17.716536,0.223694,0,0,8,2,8.408,117.18176916976,12.139108,14.1150914,0,0,0.223694,0,4.1, 2.7, -2.6,0,0,1024,1024,1024,1024,0,0,0,0,2.1,0,0,100,4.211,4.194,0,0,0,0,4.209,82.22,117.18176916976,12.139108,6,P-GPS,
15300,2023-12-27 18:04:15,0,0,12.139108,,,117.18176916976,17.716536,0,0,0,8,2,8.408,117.18176916976,12.139108,14.1150914,0,0,0,0,4.2, 0, -1.5,0,0,1024,1024,1024,1024,0,0,0,0,2.1,0,0,100,4.211,4.194,0,0,0,0,4.209,82.22,117.18176916976,12.139108,6,P-GPS,
15400,2023-12-27 18:04:15,0,0,12.139108,,,117.18176916976,17.716536,0,0,0,8,2,8.408,117.18176916976,12.139108,14.1150914,0,0,0,0,4.2, -0.8, -2,0,0,1024,1024,1024,1024,0,0,0,0,2.1,0,0,100,4.211,4.194,0,0,0,0,4.209,82.22,117.18176916976,12.139108,6,P-GPS,
15500,2023-12-27 18:04:16,0,0,12.467192,,,117.50985316976,17.716536,0,0,0,8,2,8.408,117.50985316976,12.467192,14.1150914,0,0,0,0,4.3, -2, -2.1,0,0,1024,1024,1024,1024,0,0,0,0,2.1,0,0,100,4.211,4.194,0,0,0,0,4.209,82.22,117.50985316976,12.467192,6,P-GPS,
15600,2023-12-27 18:04:16,0,0,12.467192,,,117.50985316976,17.716536,0,0,0,8,2,8.408,117.50985316976,12.467192,14.1150914,0,0,0,0,4.5, -2.5, -1.1,0,0,1024,1024,1024,1024,0,0,0,0,2.1,0,0,100,4.211,4.194,0,0,0,0,4.209,82.22,117.50985316976,12.467192,6,P-GPS,
15700,2023-12-27 18:04:16,0,0,12.467192,,,117.50985316976,17.716536,0,0,0,8,2,8.408,117.50985316976,12.467192,14.1150914,0,0,0,0,4.5, -1.7, -0.4,0,0,1024,1024,1024,1024,0,0,0,0,2.1,0,0,100,4.211,4.194,0,0,0,0,4.209,82.22,117.50985316976,12.467192,6,P-GPS,
15800,2023-12-27 18:04:16,0,0,12.467192,,,117.50985316976,17.716536,0.223694,0,0,9,2,8.408,117.50985316976,12.467192,14.1150914,0,0,0.223694,0,4.1, -0.4, -2.3,0,0,1024,1024,1024,1024,0,0,0,0,2.1,0,0,100,4.211,4.194,0,0,0,0,4.209,82.22,117.50985316976,12.467192,6,P-GPS,
15900,2023-12-27 18:04:16,0,0,12.467192,,,117.50985316976,17.716536,0,0,0,9,2,8.408,117.50985316976,12.467192,14.1150914,0,0,0,0,4.1, -1, -2.6,0,0,1024,1024,1024,1024,0,0,0,0,2.1,0,0,100,4.211,4.194,0,0,0,0,4.209,82.22,117.50985316976,12.467192,6,P-GPS,
16000,2023-12-27 18:04:16,0,0,12.795276,,,117.83793716976,17.716536,0,0,0,9,2,8.453,117.83793716976,12.795276,14.1150914,0,0,0,0,4.2, -0.9, -2.5,0,0,1024,1024,1024,1024,0,0,0,0,2.1,0,0,100,4.224,4.223,0,0,0,0,4.542,82.4,117.83793716976,12.795276,6,P-GPS,
16100,2023-12-27 18:04:16,0,0,12.795276,,,117.83793716976,17.716536,0,0,0,9,2,8.453,117.83793716976,12.795276,14.1150914,0,0,0,0,4.3, -1.2, -2.2,0,0,1024,1024,1024,1024,0,0,0,0,2.1,0,0,100,4.224,4.223,0,0,0,0,4.542,82.4,117.83793716976,12.795276,6,P-GPS,
16200,2023-12-27 18:04:16,0,0,12.795276,,,117.83793716976,17.716536,0,0,0,9,2,8.453,117.83793716976,12.795276,14.1150914,0,0,0,0,4.2, -0.5, -2.2,0,0,1024,1024,1024,1024,0,0,0,0,2.1,0,0,100,4.224,4.223,0,0,0,0,4.542,82.4,117.83793716976,12.795276,6,P-GPS,
16300,2023-12-27 18:04:16,0,0,12.795276,,,117.83793716976,17.716536,0,0,0,9,2,8.453,117.83793716976,12.795276,14.1150914,0,0,0,0,4.4, -1, -2.2,0,0,1024,1024,1024,1024,0,0,0,0,2.1,0,0,100,4.224,4.223,0,0,0,0,4.542,82.4,117.83793716976,12.795276,6,P-GPS,
16400,2023-12-27 18:04:16,0,0,13.12336,,,118.16602116976,17.716536,0.223694,0,0,9,2,8.453,118.16602116976,13.12336,14.1150914,0,-0.223694,0,0,4.7, -1.7, -1,0,0,1024,1024,1024,1024,0,0,0,0,2.1,0,0,100,4.224,4.223,0,0,0,0,4.542,82.4,118.16602116976,13.12336,6,P-GPS,
16500,2023-12-27 18:04:17,0,0,13.12336,,,118.16602116976,17.716536,0.223694,0,0,9,2,8.453,118.16602116976,13.12336,14.1150914,0,-0.223694,0,0,4.2, -1.9, -0.3,0,0,1024,1024,1024,1024,0,0,0,0,2.1,0,0,100,4.224,4.223,0,0,0,0,4.542,82.4,118.16602116976,13.12336,6,P-GPS,
16600,2023-12-27 18:04:17,0,0,13.12336,,,118.16602116976,17.716536,0,0,0,9,2,8.453,118.16602116976,13.12336,14.1150914,0,0,0,0,3.6, -1.7, -1.7,0,0,1024,1024,1024,1024,0,0,0,0,2.1,0,0,100,4.224,4.223,0,0,0,0,4.542,82.4,118.16602116976,13.12336,6,P-GPS,
16700,2023-12-27 18:04:17,0,0,13.12336,,,118.16602116976,17.716536,0,0,0,9,2,8.453,118.16602116976,13.12336,14.1150914,0,0,0,0,3.9, -1.9, -0.6,0,0,1024,1024,1024,1024,0,0,0,0,2.1,0,0,100,4.224,4.223,0,0,0,0,4.542,82.4,118.16602116976,13.12336,6,P-GPS,
16800,2023-12-27 18:04:17,0,0,13.12336,,,118.16602116976,17.716536,0.223694,0,0,9,2,8.453,118.16602116976,13.12336,14.1150914,0,0,-0.223694,0,4.3, -2.2, -0.1,0,0,1024,1024,1024,1024,0,0,0,0,2.1,0,0,100,4.224,4.223,0,0,0,0,4.542,82.4,118.16602116976,13.12336,6,P-GPS,
16900,2023-12-27 18:04:17,0,0,13.12336,,,118.16602116976,17.716536,0.223694,0,0,9,2,8.453,118.16602116976,13.12336,14.1150914,0,0,-0.223694,0,4.3, -1.9, 1,0,0,1021,1024,1024,1024,-0,0,0,0,2.1,0,0,100,4.224,4.223,0,0,0,0,4.542,82.4,118.16602116976,13.12336,6,P-GPS,
17000,2023-12-27 18:04:17,0,0,13.12336,,,118.16602116976,17.716536,0.223694,0,0,9,2,8.445,118.16602116976,13.12336,14.1150914,0,0,-0.223694,0,4.3, -2.6, 1.6,0,0,503,1024,1024,1024,-79,0,0,0,2.1,0,0,100,4.226,4.221,0,0,0,0,4.196,82.4,118.16602116976,13.12336,6,P-GPS,
17100,2023-12-27 18:04:17,0,0,13.12336,,,118.16602116976,17.716536,0.223694,0,0,9,2,8.445,118.16602116976,13.12336,14.1150914,0,0,-0.223694,0,4.6, -1.6, 2.6,0,0,364,1024,1024,1024,-100,0,0,0,2.1,0,0,100,4.226,4.221,0,0,0,0,4.196,82.4,118.16602116976,13.12336,6,P-GPS,
17200,2023-12-27 18:04:17,0,0,13.12336,,,118.16602116976,17.716536,0.3131716,0,0,9,2,8.445,118.16602116976,13.12336,14.1150914,0,-0.223694,-0.223694,0,4.6, 6.3, 2.3,0,0,364,1024,1024,1024,-100,0,0,0,2.1,0,0,100,4.226,4.221,0,0,0,0,4.196,82.4,118.16602116976,13.12336,6,P-GPS,
17300,2023-12-27 18:04:17,0,0,13.12336,,,118.16602116976,17.716536,0.7158208,0,0,9,2,8.445,118.16602116976,13.12336,14.1150914,0,-0.671082,-0.223694,0,4.4, 12.7, 2.1,0,0,364,1024,1024,1024,-100,0,0,0,2.1,0,0,100,4.226,4.221,0,0,0,0,4.196,82.4,118.16602116976,13.12336,6,P-GPS,
17400,2023-12-27 18:04:17,0,0,13.12336,,,118.16602116976,17.716536,1.1408394,0,0,9,2,8.445,118.16602116976,13.12336,14.1150914,0,-1.11847,-0.223694,0,4.3, 14.6, 1.9,0,0,664,1024,1024,1024,-55,0,0,0,2.1,0,0,100,4.226,4.221,0,0,0,0,4.196,82.4,118.16602116976,13.12336,6,P-GPS,
17500,2023-12-27 18:04:18,0,0,13.12336,,,118.16602116976,17.388452,1.789552,0,0,9,2,8.445,118.16602116976,13.12336,14.1150914,0,-1.789552,0,0,4.1, 15, 1.3,0,0,664,1024,1024,1024,-55,0,0,0,2.1,0,0,100,4.226,4.221,0,0,0,0,4.196,82.4,118.16602116976,13.12336,6,P-GPS,
17600,2023-12-27 18:04:18,0,0,13.451444,,,118.49410516976,17.388452,2.460634,0,0,9,2,8.445,118.49410516976,13.451444,14.1150914,0,-2.460634,-0.223694,0,4, 11.4, 0.9,0,0,895,1024,1024,1024,-20,0,0,0,2.1,0,0,100,4.226,4.221,0,0,0,0,4.196,82.4,118.49410516976,13.451444,6,P-GPS,
17700,2023-12-27 18:04:18,0,0,13.451444,,,118.49410516976,17.388452,2.908022,0,0,9,2,8.445,118.49410516976,13.451444,14.1150914,0,-2.908022,-0.223694,0,4.1, 5.4, 0.8,0,0,1024,1024,1024,1024,0,0,0,0,2.1,0,0,100,4.226,4.221,0,0,0,0,4.196,82.4,118.49410516976,13.451444,6,P-GPS,
17800,2023-12-27 18:04:18,0,0,13.12336,,,118.16602116976,17.388452,2.908022,0,0,9,2,8.445,118.49410516976,13.451444,14.1150914,0,-2.908022,-0.223694,0,4.2, -8.1, 0.6,0,0,818,1024,1024,1024,-31,0,0,0,2.1,0,0,100,4.226,4.221,0,0,0,0,4.196,82.4,118.16602116976,13.12336,6,P-GPS,
17900,2023-12-27 18:04:18,0,0,13.12336,,,118.16602116976,17.388452,2.684328,0,0,9,2,8.445,118.49410516976,13.451444,14.1150914,0,-2.684328,-0.223694,0,4.1, -12.2, 0.7,0,0,364,1024,1024,1024,-100,0,0,0,2.1,0,0,100,4.226,4.221,0,0,0,0,4.196,82.4,118.16602116976,13.12336,6,P-GPS,
18000,2023-12-27 18:04:18,0,0,13.12336,,,118.16602116976,17.388452,2.23694,0,0,9,2,8.445,118.49410516976,13.451444,14.1150914,0,-2.23694,-0.223694,0,4, -2.8, 0.4,0,0,635,1024,1024,1024,-59,0,0,0,2.1,0,0,100,4.226,4.221,0,0,0,0,4.196,82.4,118.16602116976,13.12336,6,P-GPS,
18100,2023-12-27 18:04:18,0,0,13.12336,,,118.16602116976,17.388452,2.23694,0,0,9,2,8.445,118.49410516976,13.451444,14.1150914,0,-2.23694,-0.223694,0,4.2, 8, 0.7,0,0,1024,1024,1024,1024,0,0,0,0,2.1,0,0,100,4.226,4.221,0,0,0,0,4.196,82.4,118.16602116976,13.12336,6,P-GPS,
18200,2023-12-27 18:04:18,0,0,13.12336,,,118.16602116976,17.388452,2.684328,0,0,9,2,8.445,118.49410516976,13.451444,14.1150914,0,-2.684328,-0.223694,0,4.2, 5.2, 0.9,0,0,1106,1024,1024,1024,12,0,0,0,2.1,0,0,100,4.226,4.221,0,0,0,0,4.196,82.4,118.16602116976,13.12336,6,P-GPS,
18300,2023-12-27 18:04:18,0,0,13.12336,,,118.16602116976,17.388452,2.460634,0,0,9,2,8.445,118.49410516976,13.451444,14.1150914,0,-2.460634,-0.223694,0,4.3, -10.1, 0,0,0,1106,1024,1024,1024,12,0,0,0,2.1,0,0,100,4.226,4.221,0,0,0,0,4.196,82.4,118.16602116976,13.12336,6,P-GPS,
18400,2023-12-27 18:04:18,0,0,13.12336,,,118.16602116976,17.388452,2.0356154,0,0,9,2,8.445,118.49410516976,13.451444,14.1150914,0,-2.013246,-0.223694,0,4.2, -9.4, 0.1,0,0,1604,1024,1024,1024,88,0,0,0,2.1,0,0,100,4.226,4.221,0,0,0,0,4.196,82.4,118.16602116976,13.12336,6,P-GPS,
18500,2023-12-27 18:04:19,0,0,13.12336,,,118.16602116976,17.388452,1.8119214,0,0,9,2,8.445,118.49410516976,13.451444,14.1150914,0,-1.789552,-0.223694,0,4.2, -10.4, 0.3,0,0,1684,1024,1024,1024,100,0,0,0,2.1,0,0,100,4.226,4.221,0,0,0,0,4.196,82.4,118.16602116976,13.12336,6,P-GPS,
18600,2023-12-27 18:04:19,0,0,12.795276,,,117.83793716976,17.388452,1.3645334,0,0,9,2,8.437,118.49410516976,13.451444,14.1150914,0,-1.342164,-0.223694,0,4.3, -17.5, 0.4,0,0,1684,1024,1024,1024,100,0,0,0,2.1,0,0,100,4.218,4.209,0,0,0,0,4.16,82.4,117.83793716976,12.795276,6,P-GPS,
18700,2023-12-27 18:04:19,0,0,12.795276,,,117.83793716976,17.060368,0.671082,0,0,9,2,8.437,118.49410516976,13.451444,14.1150914,0,-0.671082,0,0,4.3, -19.3, 1.1,0,0,1399,1024,1024,1024,57,0,0,0,2.1,0,0,100,4.218,4.209,0,0,0,0,4.16,82.4,117.83793716976,12.795276,6,P-GPS,
18800,2023-12-27 18:04:19,0,0,12.795276,,,117.83793716976,17.060368,0.671082,0,0,9,2,8.437,118.49410516976,13.451444,14.1150914,0,0,0,0,4.1, -19.1, 1.7,0,0,1024,1024,1024,1024,0,0,0,0,2.1,0,0,100,4.218,4.209,0,0,0,0,4.16,82.4,117.83793716976,12.795276,6,P-GPS,
18900,2023-12-27 18:04:19,0,0,12.795276,,,117.83793716976,17.060368,0.447388,0,0,9,2,8.437,118.49410516976,13.451444,14.1150914,0,0.447388,0,0,4.2, -11.2, 1.6,0,0,1024,1024,1024,1024,0,0,0,0,2.1,0,0,100,4.218,4.209,0,0,0,0,4.16,82.4,117.83793716976,12.795276,6,P-GPS,
19000,2023-12-27 18:04:19,0,0,12.795276,,,117.83793716976,17.388452,0.671082,0,0,9,2,8.437,118.49410516976,13.451444,14.1150914,0,0.671082,0,0,4.2, 0.8, 0.9,0,0,1024,1024,1024,1024,0,0,0,0,2.1,0,0,100,4.218,4.209,0,0,0,0,4.16,82.4,117.83793716976,12.795276,6,P-GPS,
19100,2023-12-27 18:04:19,0,0,12.467192,,,117.50985316976,17.388452,0.671082,0,0,9,2,8.437,118.49410516976,13.451444,14.1150914,0,0.671082,0,0,4.2, 1.6, 0.3,0,0,1024,1024,1024,1024,0,0,0,0,2.1,0,0,100,4.218,4.209,0,0,0,0,4.16,82.4,117.50985316976,12.467192,6,P-GPS,
19200,2023-12-27 18:04:19,0,0,12.467192,,,117.50985316976,17.388452,0.447388,0,0,9,2,8.437,118.49410516976,13.451444,14.1150914,0,0.447388,0,0,4.2, 1.1, 0,0,0,1024,1024,1024,1024,0,0,0,0,2.1,0,0,100,4.218,4.209,0,0,0,0,4.16,82.4,117.50985316976,12.467192,6,P-GPS,
19300,2023-12-27 18:04:19,0,0,12.467192,,,117.50985316976,17.388452,0.447388,0,0,9,2,8.437,118.49410516976,13.451444,14.1150914,0,0.447388,0,0,4.1, 0.6, 0,0,0,1024,1024,1024,1024,0,0,0,0,2.1,0,0,100,4.218,4.209,0,0,0,0,4.16,82.4,117.50985316976,12.467192,6,P-GPS,
19400,2023-12-27 18:04:19,-34.864811564786,-54.8228176144808,12.467192,12.467192,105.04266116976,117.50985316976,17.388452,0.223694,0,0,9,2,8.437,118.49410516976,13.451444,14.1150914,0,0.223694,0,0,4.2, -0.3, 0.2,0,0,1024,1024,1050,1024,0,0,4,0,2.1,0,0,100,4.218,4.209,0,0,0,0,4.16,82.4,117.50985316976,12.467192,6,P-GPS,
19500,2023-12-27 18:04:19,-34.8648109098388,-54.822817580307,12.467192,12.5000004,105.00985276976,117.50985316976,17.388452,0,0.239175860672,0.239175860672,9,2,8.437,118.49410516976,13.451444,14.1150914,0.239175860672,0,0,0,4.3, -0.9, 0.9,0,0,1024,1024,1684,1024,0,0,100,0,2.1,0,0,100,4.218,4.209,0,0,0,0,4.16,82.4,117.50985316976,12.467192,6,P-GPS,
19600,2023-12-27 18:04:20,-34.8648866337614,-54.8228311307686,12.467192,10.1049872,107.40486596976,117.50985316976,17.388452,0,27.6861557416,28.163222686,9,2,8.437,118.49410516976,13.451444,14.1150914,27.6861557416,0,0,-0.223694,4, 0.1, 2.3,0,0,1024,1024,1684,1024,0,0,100,0,2.1,0,0,100,4.218,4.209,0,0,0,0,4.16,82.4,117.50985316976,12.467192,6,P-GPS,
19700,2023-12-27 18:04:20,-34.8650556430331,-54.8228612492705,12.795276,2.9855644,114.85237276976,117.83793716976,17.716536,0,90.004596056,90.481958276,9,2,8.421,118.49410516976,13.451444,14.1150914,90.004596056,0,0,-0.894776,3.7, -0.2, 0.8,0,0,1024,1024,1684,1024,0,0,100,0,2.1,0,0,100,4.228,4.223,0,0,0,0,4.314,82.58,117.83793716976,12.795276,6,P-GPS,
19800,2023-12-27 18:04:20,-34.8651484504546,-54.8228777751938,12.795276,-3.5761156,121.41405276976,117.83793716976,17.716536,0,124.225069592,124.702103728,9,2,8.421,118.49410516976,13.451444,14.1150914,124.225069592,0,0,-1.789552,3.8, -1.8, 0.5,0,0,1024,1024,1684,1024,0,0,100,0,2.1,0,0,100,4.228,4.223,0,0,0,0,4.314,82.58,117.83793716976,12.795276,6,P-GPS,
19900,2023-12-27 18:04:20,-34.8651482476299,-54.82287772913,13.12336,-3.2480316,121.41405276976,118.16602116976,18.04462,0,124.149610272,124.777234964,9,2,8.421,118.49410516976,13.451444,14.1150914,124.225069592,0,0,-2.684328,4.1, -1.9, 1.8,0,0,1024,1024,1684,1024,0,0,100,0,2.1,0,0,100,4.228,4.223,0,0,0,0,4.314,82.58,118.16602116976,13.12336,6,P-GPS,
20000,2023-12-27 18:04:20,-34.8651466249452,-54.8228773693773,13.779528,-2.5262468,121.34843596976,118.82218916976,18.700788,0,123.5482323,125.37894102,9,2,8.421,118.82218916976,13.779528,14.1150914,124.225069592,0,0,-3.579104,4.2, -2.7, 2.1,0,0,1024,1024,1684,1024,0,0,100,0,2.1,0,0,100,4.228,4.223,0,0,0,0,4.314,82.58,118.82218916976,13.779528,6,P-GPS,
20100,2023-12-27 18:04:20,-34.8651468053727,-54.8228773861372,14.107612,-2.1981628,121.34843596976,119.15027316976,19.356956,0,123.614177184,125.445213988,9,2,8.421,119.15027316976,14.107612,14.1150914,124.225069592,0,0,-4.250186,4.3, -3.4, 1.2,0,0,1024,1024,1684,1024,0,0,100,0,2.1,0,0,100,4.228,4.223,0,0,0,0,4.314,82.58,119.15027316976,14.107612,6,P-GPS,
20200,2023-12-27 18:04:20,-34.8651469239899,-54.822877268825,14.76378,-1.5419948,121.34843596976,119.80644116976,20.013124,0,123.651906844,125.500988268,9,2,8.421,119.80644116976,14.76378,14.1150914,124.225069592,0,0,-5.144962,4.2, -3.6, -0.2,0,0,1024,1024,1684,1024,0,0,100,0,2.1,0,0,100,4.228,4.223,0,0,0,0,4.314,82.58,119.80644116976,14.76378,6,P-GPS,
20300,2023-12-27 18:04:20,-34.865146972198,-54.8228770260015,15.748032,-0.5577428,121.34843596976,120.79069316976,20.669292,0.223694,123.658796608,125.575463336,9,2,8.421,120.79069316976,15.748032,14.1150914,124.225069592,0,0.223694,-5.59235,4.2, -2.6, -0.8,0,0,1024,1024,1684,1024,0,0,100,0,2.1,0,0,100,4.228,4.223,0,0,0,0,4.314,82.58,120.79069316976,15.748032,6,P-GPS,
20400,2023-12-27 18:04:20,-34.8651469952919,-54.8228768660526,16.4042,0.098425200000004,121.34843596976,121.44686116976,21.32546,0.223694,123.660437028,125.624347852,9,2,8.421,121.44686116976,16.4042,14.1150914,124.225069592,0,0.223694,-6.039738,4, -1.7, -1.4,0,0,1024,1024,1684,1024,0,0,100,0,2.1,0,0,100,4.228,4.223,0,0,0,0,4.314,82.58,121.44686116976,16.4042,6,P-GPS,
20500,2023-12-27 18:04:21,-34.865146797925,-54.8228767458388,17.388452,1.0826772,121.34843596976,122.43111316976,22.309712,0.223694,123.583993456,125.704728432,9,2,8.421,122.43111316976,17.388452,14.1150914,124.225069592,0,0.223694,-6.263432,4.2, -1.5, -2.4,0,0,1024,1024,1455,1024,0,0,65,0,2.1,0,0,100,4.228,4.223,0,0,0,0,4.314,82.58,122.43111316976,17.388452,6,P-GPS,
20600,2023-12-27 18:04:21,-34.8651467991663,-54.8228767238392,18.372704,2.0669292,121.34843596976,123.41536516976,23.293964,0.223694,123.583337288,125.711290112,9,4,8.421,123.41536516976,18.372704,14.1150914,124.225069592,0,0.223694,-6.263432,4.3, -1.9, -2.3,0,0,1024,1024,1083,1024,0,0,9,0,2.1,0,0,100,4.228,4.223,0,0,0,0,4.314,82.58,123.41536516976,18.372704,6,P-GPS,
20700,2023-12-27 18:04:21,-34.8651467760669,-54.8228767399755,19.356956,3.0511812,121.34843596976,124.39961716976,23.950132,0,123.575791356,125.721132632,9,4,8.344,124.39961716976,19.356956,14.1150914,124.225069592,0,0,-5.816044,4.5, -2.2, -1.9,0,0,1024,1024,1024,1024,0,0,0,0,2.1,0,0,100,4.165,4.164,0,0,0,0,5.08,82.58,124.39961716976,19.356956,6,P-GPS,
20800,2023-12-27 18:04:21,-34.8651467364452,-54.8228767780446,20.013124,3.7073492,121.34843596976,125.05578516976,24.6063,0,123.56299608,125.739505336,9,4,8.344,125.05578516976,20.013124,14.1150914,124.225069592,0,0,-5.144962,4.4, -1.2, -1.6,0,0,1024,1024,1128,1024,0,0,16,0,2.1,0,0,100,4.165,4.164,0,0,0,0,5.08,82.58,125.05578516976,20.013124,6,P-GPS,
20900,2023-12-27 18:04:21,-34.8651463913574,-54.8228770888781,20.669292,4.429134,121.28281916976,125.71195316976,25.262468,0,123.451775604,125.896001404,9,4,8.344,125.71195316976,20.669292,14.1150914,124.225069592,0,0,-4.250186,4.3, -1, -1.5,0,0,1024,1024,1587,1024,0,0,85,0,2.1,0,0,100,4.165,4.164,0,0,0,0,5.08,82.58,125.71195316976,20.669292,6,P-GPS,
21000,2023-12-27 18:04:21,-34.865146351439,-54.822877158167,21.32546,5.085302,121.28281916976,126.36812116976,25.590552,0,123.440620748,125.921263872,9,4,8.344,126.36812116976,21.32546,14.1150914,124.225069592,0,0,-3.579104,4.3, -0.6, -1.3,0,0,1024,1024,1684,1024,0,0,100,0,2.1,0,0,100,4.165,4.164,0,0,0,0,5.08,82.58,126.36812116976,21.32546,6,P-GPS,
21100,2023-12-27 18:04:21,-34.8651463334011,-54.8228772519901,21.653544,5.413386,121.28281916976,126.69620516976,25.918636,0,123.437996076,125.950135264,9,4,8.344,126.69620516976,21.653544,14.1150914,124.225069592,0,0,-3.579104,4.2, -1.2, -0.7,0,0,1024,1024,1684,1024,0,0,100,0,2.1,0,0,100,4.165,4.164,0,0,0,0,5.08,82.58,126.69620516976,21.653544,6,P-GPS,
