time(millisecond),datetime(utc),latitude,longitude,height_above_takeoff(feet),height_above_ground_at_drone_location(feet),ground_elevation_at_drone_location(feet),altitude_above_seaLevel(feet),height_sonar(feet),speed(mph),distance(feet),mileage(feet),satellites,gpslevel,voltage(v),max_altitude(feet),max_ascent(feet),max_speed(mph),max_distance(feet), xSpeed(mph), ySpeed(mph), zSpeed(mph), compass_heading(degrees), pitch(degrees), roll(degrees),isPhoto,isVideo,rc_elevator,rc_aileron,rc_throttle,rc_rudder,rc_elevator(percent),rc_aileron(percent),rc_throttle(percent),rc_rudder(percent),gimbal_heading(degrees),gimbal_pitch(degrees),gimbal_roll(degrees),battery_percent,voltageCell1,voltageCell2,voltageCell3,voltageCell4,voltageCell5,voltageCell6,current(A),battery_temperature(f),altitude(feet),ascent(feet),flycStateRaw,flycState,message
0,2022-08-24 20:09:08,-34.9180307070191,-56.1686371109751,0,0,22.90296661216,22.90296661216,0.328084,0,0,0,20,5,0,22.90296661216,0,0,0,0,0,0,221.9, -3.8, 5.2,0,0,364,364,364,1684,-100,-100,-100,100,232.8,0,0,99,4.325,4.322,0,0,0,0,0,73.94,22.90296661216,0,6,P-GPS,"En vuelo. Setting new Return-To-Home altitude to 100m (328 ft). Data Recorder File Index is 9. Setting new Maximum Flight Altitude to 120m (394 ft) Aeronave en Zona de altitud restringida (150). Vuela con precaución (Code: 190001)"
100,2022-08-24 20:09:09,-34.9180307601096,-56.1686370855721,0,0,22.90296661216,22.90296661216,0.328084,0,0.0208075465976,0.0208075465976,20,5,0,22.90296661216,0,0,0.0208075465976,0,0,0,222.3, -3.7, 5.3,0,0,364,364,364,1684,-100,-100,-100,100,232.8,0,0,99,4.325,4.322,0,0,0,0,0,73.94,22.90296661216,0,41,Motors_Started,
200,2022-08-24 20:09:09,-34.9180308056938,-56.1686370602505,0,0,22.90296661216,22.90296661216,0.328084,0,0.039068898888,0.0390830065,20,5,0,22.90296661216,0,0,0.039068898888,0,0,0,221.4, -3.6, 5.9,0,0,1024,620,364,1399,0,-61,-100,57,232.8,0,0,99,4.325,4.322,0,0,0,0,0,73.94,22.90296661216,0,41,Motors_Started,
300,2022-08-24 20:09:09,-34.9180307533467,-56.1686370501201,0,0,22.90296661216,22.90296661216,0.328084,0,0.0248424548632,0.058420605544,20,5,0,22.90296661216,0,0,0.039068898888,0,0,0,222.1, -3.5, 5.9,0,0,563,364,364,1371,-70,-100,-100,53,232.7,0,0,99,4.325,4.322,0,0,0,0,0,73.94,22.90296661216,0,41,Motors_Started,
400,2022-08-24 20:09:09,-34.9180307827189,-56.1686369960399,0,0,22.90296661216,22.90296661216,0.328084,0,0.044103675952,0.077826774144,20,5,0,22.90296661216,0,0,0.044103675952,0,0,0,222, -3.4, 6.4,0,0,1024,1024,1024,1024,0,0,0,0,232.8,0,0,99,4.325,4.322,0,0,0,0,0,73.94,22.90296661216,0,41,Motors_Started,
500,2022-08-24 20:09:09,-34.918030817934,-56.1686368735444,0,0,22.90296661216,22.90296661216,0.328084,0,0.081749674532,0.116660436804,20,5,0,22.90296661216,0,0,0.081749674532,0,0,0,221.8, -2.9, 6.9,0,0,1024,1024,1024,1024,0,0,0,0,232.8,0,0,99,4.325,4.322,0,0,0,0,0,73.94,22.90296661216,0,41,Motors_Started,
600,2022-08-24 20:09:09,-34.9180308544104,-56.1686367715951,0,0,22.90296661216,22.90296661216,0.328084,0,0.114892720212,0.149937340756,20,5,0,22.90296661216,0,0,0.114892720212,0,0,0,222.4, -3.2, 6.6,0,0,1024,1024,1024,1024,0,0,0,0,232.9,0,0,99,4.325,4.322,0,0,0,0,0,73.94,22.90296661216,0,41,Motors_Started,
700,2022-08-24 20:09:09,-34.9180308928612,-56.168636688077,-0.328084,-0.328084,22.90296661216,22.57488261216,0.328084,0,0.143540687008,0.178592197316,20,5,0,22.90296661216,0,0,0.143540687008,0,0,0,223, -3.3, 6.5,0,0,1024,1024,1024,1024,0,0,0,0,233.3,0,0,99,4.325,4.322,0,0,0,0,0,73.94,22.57488261216,-0.328084,41,Motors_Started,
800,2022-08-24 20:09:09,-34.9180309416828,-56.1686366559977,-0.328084,-0.328084,22.90296661216,22.57488261216,0.328084,0,0.160801842416,0.19882546568,20,5,0,22.90296661216,0,0,0.160801842416,0,0,0,222.6, -3.1, 6.8,0,0,1024,1024,1024,1024,0,0,0,0,233.6,0,0,99,4.325,4.322,0,0,0,0,0,73.94,22.57488261216,-0.328084,41,Motors_Started,
900,2022-08-24 20:09:09,-34.9180310553319,-56.1686366058438,-0.328084,-0.328084,22.90296661216,22.57488261216,0.328084,0,0.197449809468,0.2429215957,20,5,0,22.90296661216,0,0,0.197449809468,0,0,0,222.8, -3.6, 6.8,0,0,1024,1024,1024,1024,0,0,0,0,233.6,0,0,99,4.325,4.322,0,0,0,0,0,73.94,22.57488261216,-0.328084,41,Motors_Started,
1000,2022-08-24 20:09:09,-34.9180311618378,-56.1686365542267,-0.328084,-0.328084,22.90296661216,22.57488261216,0.328084,0,0.235113852668,0.2847359015,20,5,0,22.90296661216,0,0,0.235113852668,0,0,0,222.8, -3.8, 7,0,0,1024,1024,1024,1024,0,0,0,0,233.7,0,0,99,4.325,4.322,0,0,0,0,0,73.94,22.57488261216,-0.328084,41,Motors_Started,
1100,2022-08-24 20:09:10,-34.9180312008602,-56.1686365252801,-0.328084,-0.328084,22.90296661216,22.57488261216,0.328084,0,0.2513287482,0.301400272112,20,5,8.66,22.90296661216,0,0,0.2513287482,0,0,0,222.9, -3.5, 7.1,0,0,1024,1024,1024,1024,0,0,0,0,233.7,0,0,99,4.325,4.322,0,0,0,0,0.92,73.94,22.57488261216,-0.328084,41,Motors_Started,
1200,2022-08-24 20:09:10,-34.9180312212727,-56.1686364714689,-0.328084,-0.3937008,22.96858341216,22.57488261216,0.328084,0,0.267966544008,0.319137805488,20,5,8.66,22.90296661216,0,0,0.267966544008,0,0,0,222.8, -3.5, 7.4,0,0,1024,1024,1024,1024,0,0,0,0,233.7,0,0,99,4.325,4.322,0,0,0,0,0.92,73.94,22.57488261216,-0.328084,10,Assisted_Takeoff,
1300,2022-08-24 20:09:10,-34.918031267067,-56.1686364122405,-0.328084,-0.3937008,22.96858341216,22.57488261216,0.328084,0,0.29231628232,0.34349082464,20,5,8.66,22.90296661216,0,0,0.29231628232,0,0,0,222.9, -3.7, 7.1,0,0,1024,1024,1024,1024,0,0,0,0,233.8,0,0,99,4.325,4.322,0,0,0,0,0.92,73.94,22.57488261216,-0.328084,10,Assisted_Takeoff,
1400,2022-08-24 20:09:10,-34.9180313218218,-56.1686363432887,-0.328084,-0.3937008,22.96858341216,22.57488261216,0.328084,0,0.321032162504,0.37220801716,20,5,8.66,22.90296661216,0,0,0.321032162504,0,0,0,222.9, -4.1, 6.8,0,0,1024,1024,1024,1024,0,0,0,0,233.8,0,0,99,4.325,4.322,0,0,0,0,0.92,73.94,22.57488261216,-0.328084,10,Assisted_Takeoff,
1500,2022-08-24 20:09:10,-34.9180313847889,-56.1686362749421,-0.328084,-0.3937008,22.96858341216,22.57488261216,0.328084,0,0.35171917136,0.40296261132,20,5,8.66,22.90296661216,0,0,0.35171917136,0,0,0,222.9, -4.4, 6.8,0,0,1024,1024,1024,1024,0,0,0,0,233.8,0,0,99,4.325,4.322,0,0,0,0,0.92,73.94,22.57488261216,-0.328084,10,Assisted_Takeoff,
1600,2022-08-24 20:09:10,-34.9180313952647,-56.1686362270862,-0.328084,-0.3937008,22.96858341216,22.57488261216,0.328084,0,0.36466208516,0.4177821656,20,5,8.66,22.90296661216,0,0,0.36466208516,0,0,0,222.8, -4, 7,0,0,1024,1024,1025,1024,0,0,0,0,233.8,0,0,99,4.325,4.322,0,0,0,0,0.92,73.94,22.57488261216,-0.328084,10,Assisted_Takeoff,
1700,2022-08-24 20:09:10,-34.9180314477624,-56.1686361718963,-0.328084,-0.3937008,22.96858341216,22.57488261216,0.328084,0,0.3898294088,0.44306759948,20,5,8.66,22.90296661216,0,0,0.3898294088,0,0,0,222.8, -3.8, 7,0,0,1024,1024,1335,1024,0,0,47,0,233.8,0,0,99,4.325,4.322,0,0,0,0,0.92,73.94,22.57488261216,-0.328084,10,Assisted_Takeoff,
1800,2022-08-24 20:09:10,-34.9180314997171,-56.1686361114356,-0.328084,-0.3937008,22.96858341216,22.57488261216,0.328084,0,0.416010512,0.46926838772,20,5,8.66,22.90296661216,0,0,0.416010512,0,0,0,222.5, -4, 6.8,0,0,1024,1024,1335,1024,0,0,47,0,233.8,0,0,99,4.325,4.322,0,0,0,0,0.92,73.94,22.57488261216,-0.328084,10,Assisted_Takeoff,
1900,2022-08-24 20:09:10,-34.9180315688202,-56.1686360520141,-0.656168,-0.7545932,23.00139181216,22.24679861216,0.328084,0,0.44635172032,0.50011812624,20,5,8.66,22.90296661216,0,0,0.44635172032,0,0,0,222.5, -4.2, 6.5,0,0,1024,1024,1534,1024,0,0,77,0,233.7,0,0,99,4.325,4.322,0,0,0,0,0.92,73.94,22.24679861216,-0.656168,10,Assisted_Takeoff,
2000,2022-08-24 20:09:10,-34.9180316059137,-56.1686359979545,-0.656168,-0.7545932,23.00139181216,22.24679861216,0.328084,0,0.46736878136,0.52120736576,20,5,8.66,22.90296661216,0,0,0.46736878136,0,0,0,222.4, -4, 6,0,0,1024,1024,1413,1024,0,0,59,0,233.6,0,0,99,4.325,4.322,0,0,0,0,0.92,73.94,22.24679861216,-0.656168,10,Assisted_Takeoff,
2100,2022-08-24 20:09:11,-34.9180316522063,-56.1686359183287,-0.656168,-0.7545932,23.00139181216,22.24679861216,0.328084,0,0.49621392664,0.5504101226,20,5,8.66,22.90296661216,0,0,0.49621392664,0,0,0,222.3, -3.9, 5.1,0,0,1024,1024,1131,1024,0,0,16,0,233.4,0,0,99,4.325,4.322,0,0,0,0,0.92,73.94,22.24679861216,-0.656168,10,Assisted_Takeoff,
2200,2022-08-24 20:09:11,-34.9180317123699,-56.1686358433784,-0.656168,-0.7545932,23.00139181216,22.24679861216,0.328084,0,0.5275918804,0.58178807636,20,5,8.659,22.90296661216,0,0,0.5275918804,0,0,0,222.7, -3.7, 4.1,0,0,1024,1024,1024,1024,0,0,0,0,233.4,0,0,99,4.334,4.33,0,0,0,0,1.33,73.94,22.24679861216,-0.656168,10,Assisted_Takeoff,
2300,2022-08-24 20:09:11,-34.9180318352002,-56.1686358081671,-0.656168,-0.7545932,23.00139181216,22.24679861216,0.328084,0,0.56686681604,0.62782482324,20,5,8.659,22.90296661216,0,0,0.56686681604,0,0,0,222.5, -3.5, 3.3,0,0,1024,1024,1129,1024,0,0,16,0,233.4,0,0,99,4.334,4.33,0,0,0,0,1.33,73.94,22.24679861216,-0.656168,10,Assisted_Takeoff,
2400,2022-08-24 20:09:11,-34.9180320250369,-56.1686358969108,-0.656168,-0.7545932,23.00139181216,22.24679861216,0.328084,0,0.60263125288,0.70199805396,20,5,8.659,22.90296661216,0,0,0.60263125288,0,0,0,222.2, -3.6, 1.8,0,0,1024,1024,1239,1024,0,0,33,0,233.2,0,0,99,4.334,4.33,0,0,0,0,1.33,73.94,22.24679861216,-0.656168,10,Assisted_Takeoff,
2500,2022-08-24 20:09:11,-34.9180321065193,-56.1686358709423,-0.656168,-0.7545932,23.00139181216,22.24679861216,0.328084,0,0.63114503332,0.7327264014,20,5,8.659,22.90296661216,0,0,0.63114503332,0,0,0,221.4, -4.4, 1.7,0,0,1024,1024,1290,1024,0,0,40,0,232.8,0,0,99,4.334,4.33,0,0,0,0,1.33,73.94,22.24679861216,-0.656168,10,Assisted_Takeoff,
2600,2022-08-24 20:09:11,-34.9180321714397,-56.1686358228021,-0.656168,-0.7545932,23.00139181216,22.24679861216,0.328084,0,0.6587762678,0.76044621856,20,5,8.659,22.90296661216,0,0,0.6587762678,0,0,0,221.7, -4, 2.3,0,0,1024,1024,1290,1024,0,0,40,0,232.5,0,0,99,4.334,4.33,0,0,0,0,1.33,73.94,22.24679861216,-0.656168,10,Assisted_Takeoff,
2700,2022-08-24 20:09:11,-34.9180322197149,-56.1686357302936,-0.656168,-0.7545932,23.00139181216,22.24679861216,0.328084,0,0.68935697744,0.79325133772,20,5,8.659,22.90296661216,0,0,0.68935697744,0,0,0,221.7, -2.8, 2.3,0,0,1024,1024,1316,1024,0,0,44,0,232.5,0,0,99,4.334,4.33,0,0,0,0,1.33,73.94,22.24679861216,-0.656168,10,Assisted_Takeoff,
2800,2022-08-24 20:09:11,-34.9180322055914,-56.1686357074027,-0.656168,-0.7545932,23.00139181216,22.24679861216,0.328084,0,0.68938978584,0.8018208918,20,5,8.659,22.90296661216,0,0,0.68938978584,0,0,0,221.2, -3.2, 2.4,0,0,1024,1024,1312,1024,0,0,44,0,232.3,0,0,99,4.334,4.33,0,0,0,0,1.33,73.94,22.24679861216,-0.656168,10,Assisted_Takeoff,
2900,2022-08-24 20:09:11,-34.9180322509224,-56.1686356679053,-0.656168,-0.7545932,23.00139181216,22.24679861216,0.328084,0,0.70970146628,0.82214897644,20,5,8.659,22.90296661216,0,0,0.70970146628,0,0,0,221.7, -3.5, 2.2,0,0,1024,1024,1293,1024,0,0,41,0,232.2,0,0,99,4.334,4.33,0,0,0,0,1.33,73.94,22.24679861216,-0.656168,10,Assisted_Takeoff,
3000,2022-08-24 20:09:11,-34.9180323160398,-56.168635714671,-0.328084,-0.4265092,23.00139181216,22.57488261216,0.328084,0.223694,0.72050199156,0.8497211558,20,5,8.659,22.90296661216,0,0.223694,0.72050199156,0,-0.223694,-0.223694,223.1, -3.4, 1.9,0,0,1024,1024,1279,1024,0,0,39,0,232.7,0,0,99,4.334,4.33,0,0,0,0,1.33,73.94,22.57488261216,-0.328084,10,Assisted_Takeoff,
3100,2022-08-24 20:09:12,-34.9180324179812,-56.1686359386773,-0.328084,-0.4265092,23.00139181216,22.57488261216,0.328084,0.4921268,0.71601708328,0.92636485904,20,5,8.659,22.90296661216,0,0.4921268,0.72050199156,-0.223694,-0.447388,-0.671082,223.3, -1.4, 1.2,0,0,1024,1024,1294,1024,0,0,41,0,233,0,0,99,4.334,4.33,0,0,0,0,1.33,73.94,22.57488261216,-0.328084,6,P-GPS,
3200,2022-08-24 20:09:12,-34.9180325409532,-56.1686362199235,0,-0.098425200000004,23.00139181216,22.90296661216,0.656168,0.4921268,0.72025592856,1.0217191928,20,5,8.585,22.90296661216,0,0.4921268,0.72050199156,-0.223694,-0.447388,-1.342164,223.2, 2.3, -0.2,0,0,1024,1024,1316,1024,0,0,44,0,233,0,0,99,4.254,4.247,0,0,0,0,1.978,73.94,22.90296661216,0,6,P-GPS,
3300,2022-08-24 20:09:12,-34.9180325985806,-56.1686367252845,0,-0.032808399999999,22.93577501216,22.90296661216,0.984252,0.447388,0.69971458932,1.1743602738,20,5,8.585,22.90296661216,0,0.4921268,0.72050199156,0,-0.447388,-1.565858,223, 3.3, -0.1,0,0,1024,1024,1326,1024,0,0,46,0,233,0,0,99,4.254,4.247,0,0,0,0,1.978,73.94,22.90296661216,0,6,P-GPS,
3400,2022-08-24 20:09:12,-34.9180327098839,-56.1686369811342,0,-0.032808399999999,22.93577501216,22.90296661216,1.312336,0.447388,0.7317749578,1.2610072582,20,5,8.585,22.90296661216,0,0.4921268,0.7317749578,0,-0.447388,-1.789552,222.8, 2.8, -0.8,0,0,1024,1024,1326,1024,0,0,46,0,233,0,0,99,4.254,4.247,0,0,0,0,1.978,73.94,22.90296661216,0,6,P-GPS,
3500,2022-08-24 20:09:12,-34.918032834687,-56.1686372609507,0.328084,0.2952756,22.93577501216,23.23105061216,1.968504,0.447388,0.7775754842,1.35630253684,20,5,8.585,23.23105061216,0.328084,0.4921268,0.7775754842,0,-0.447388,-2.013246,222.7, 2.8, -2.4,0,0,1024,1024,1298,1024,0,0,42,0,233,0,0,99,4.254,4.247,0,0,0,0,1.978,73.94,23.23105061216,0.328084,6,P-GPS,
3600,2022-08-24 20:09:12,-34.9180329561258,-56.1686375095097,0.656168,0.6889764,22.87015821216,23.55913461216,2.296588,0.223694,0.82920278244,1.44286093856,20,5,8.585,23.55913461216,0.656168,0.4921268,0.82920278244,0,-0.223694,-2.23694,222.7, 3.5, -2.6,0,0,1024,1024,1312,1024,0,0,44,0,233,0,0,99,4.254,4.247,0,0,0,0,1.978,73.94,23.55913461216,0.656168,6,P-GPS,
3700,2022-08-24 20:09:12,-34.9180331987285,-56.1686379471197,1.312336,1.3451444,22.87015821216,24.21530261216,2.624672,0.223694,0.94288716928,1.60089243968,20,5,8.585,24.21530261216,1.312336,0.4921268,0.94288716928,0,-0.223694,-2.013246,222.6, 4, -1.8,0,0,1024,1024,1346,1024,0,0,49,0,233,0,0,99,4.254,4.247,0,0,0,0,1.978,73.94,24.21530261216,1.312336,6,P-GPS,
3800,2022-08-24 20:09:12,-34.9180333244065,-56.1686381756266,1.64042,1.6732284,22.87015821216,24.54338661216,2.952756,0.223694,1.00666669888,1.68320871528,19,5,8.585,24.54338661216,1.64042,0.4921268,1.00666669888,0,-0.223694,-2.013246,222.6, 4.1, -1.3,0,0,1024,1024,1345,1024,0,0,49,0,233,0,0,99,4.254,4.247,0,0,0,0,1.978,73.94,24.54338661216,1.64042,6,P-GPS,
3900,2022-08-24 20:09:12,-34.9180334643229,-56.168638429881,1.968504,2.0013124,22.87015821216,24.87147061216,3.28084,0.223694,1.08061355164,1.77481632976,19,5,8.585,24.87147061216,1.968504,0.4921268,1.08061355164,0,-0.223694,-2.013246,222.5, 3.6, -1.6,0,0,1024,1024,1279,1024,0,0,39,0,233,0,0,99,4.254,4.247,0,0,0,0,1.978,73.94,24.87147061216,1.968504,6,P-GPS,
4000,2022-08-24 20:09:13,-34.9180335736432,-56.1686386738661,2.296588,2.3622048,22.83734981216,25.19955461216,3.937008,0.223694,1.14563980044,1.85799546628,19,5,8.585,25.19955461216,2.296588,0.4921268,1.14563980044,0,-0.223694,-2.23694,222.5, 3.7, -2,0,0,1024,1024,1280,1024,0,0,39,0,233,0,0,99,4.254,4.247,0,0,0,0,1.978,73.94,25.19955461216,2.296588,6,P-GPS,
4100,2022-08-24 20:09:13,-34.9180336877189,-56.1686392088931,2.624672,2.6902888,22.83734981216,25.52763861216,4.265092,0.223694,1.25562011892,2.02337932984,19,5,8.585,25.52763861216,2.624672,0.4921268,1.25562011892,0,-0.223694,-2.23694,222.4, 3.8, -3.4,0,0,1024,1024,1178,1024,0,0,23,0,233,0,0,99,4.254,4.247,0,0,0,0,1.978,73.94,25.52763861216,2.624672,6,P-GPS,
4200,2022-08-24 20:09:13,-34.9180337272718,-56.1686394524237,2.952756,3.0183728,22.83734981216,25.85572261216,4.593176,0.223694,1.30573494992,2.09765098576,19,5,8.441,25.85572261216,2.952756,0.4921268,1.30573494992,0,-0.223694,-1.789552,222.3, 4.4, -4.2,0,0,1024,1024,1178,1024,0,0,23,0,233,0,0,99,4.231,4.228,0,0,0,0,4.607,73.94,25.85572261216,2.952756,6,P-GPS,
4300,2022-08-24 20:09:13,-34.9180337547583,-56.1686395752918,3.28084,3.4120736,22.77173301216,26.18380661216,4.92126,0.223694,1.33416342852,2.13575138068,19,5,8.441,26.18380661216,3.28084,0.4921268,1.33416342852,0,-0.223694,-1.789552,222.3, 4.4, -3.8,0,0,1024,1024,1033,1024,0,0,1,0,233,0,0,99,4.231,4.228,0,0,0,0,4.607,73.94,26.18380661216,3.28084,6,P-GPS,
4400,2022-08-24 20:09:13,-34.9180337724758,-56.1686396457244,3.608924,3.7401576,22.77173301216,26.51189061216,4.92126,0,1.35126644744,2.1577920638,19,5,8.441,26.51189061216,3.608924,0.4921268,1.35126644744,0,0,-1.11847,222.3, 4.4, -3.6,0,0,1024,1024,1024,1024,0,0,0,0,233,0,0,99,4.231,4.228,0,0,0,0,4.607,73.94,26.51189061216,3.608924,6,P-GPS,
4500,2022-08-24 20:09:13,-34.9180335267008,-56.168639467595,3.608924,3.6745408,22.83734981216,26.51189061216,5.249344,0,1.24715555172,2.26210309076,19,5,8.441,26.51189061216,3.608924,0.4921268,1.35126644744,0,0,-0.671082,222.4, 3.9, -3.5,0,0,1024,1024,1024,1024,0,0,0,0,233,0,0,99,4.231,4.228,0,0,0,0,4.607,73.94,26.51189061216,3.608924,6,P-GPS,
4600,2022-08-24 20:09:13,-34.9180334719371,-56.1686394435903,3.608924,3.7073492,22.80454141216,26.51189061216,5.249344,0,1.22662733584,2.2833334064,19,5,8.441,26.51189061216,3.608924,0.4921268,1.35126644744,0,0,-0.223694,222.4, 3.6, -3.4,0,0,1024,1024,1024,1024,0,0,0,0,233,0,0,99,4.231,4.228,0,0,0,0,4.607,73.94,26.51189061216,3.608924,6,P-GPS,
4700,2022-08-24 20:09:13,-34.9180334301931,-56.1686394879332,3.937008,4.0354332,22.80454141216,26.83997461216,5.249344,0,1.22180450104,2.30353353828,19,5,8.441,26.83997461216,3.937008,0.4921268,1.35126644744,0,0,0,222.4, 3.2, -3.1,0,0,1024,1024,1024,1024,0,0,0,0,233,0,0,99,4.231,4.228,0,0,0,0,4.607,73.94,26.83997461216,3.937008,6,P-GPS,
4800,2022-08-24 20:09:13,-34.9180333874994,-56.1686394966948,3.937008,4.0354332,22.80454141216,26.83997461216,5.249344,0,1.21071526184,2.31932750204,19,5,8.441,26.83997461216,3.937008,0.4921268,1.35126644744,0,0,0,222.4, 3, -2.5,0,0,1024,1024,1024,1024,0,0,0,0,233,0,0,99,4.231,4.228,0,0,0,0,4.607,73.94,26.83997461216,3.937008,6,P-GPS,
4900,2022-08-24 20:09:13,-34.9180333143293,-56.1686393502915,3.937008,4.0354332,22.80454141216,26.83997461216,5.249344,0,1.16349741256,2.37062343544,19,5,8.441,26.83997461216,3.937008,0.4921268,1.35126644744,0,0,0,222.4, 2.9, -2.6,0,0,1024,1024,1024,1024,0,0,0,0,233,0,0,99,4.231,4.228,0,0,0,0,4.607,73.94,26.83997461216,3.937008,6,P-GPS,
5000,2022-08-24 20:09:13,-34.9180330933059,-56.1686391055316,3.937008,4.0354332,22.80454141216,26.83997461216,5.249344,0,1.05549215976,2.47954732344,19,5,8.441,26.83997461216,3.937008,0.4921268,1.35126644744,0,0,0,222.4, 2.8, -2.5,0,0,1024,1024,1024,1024,0,0,0,0,233,0,0,99,4.231,4.228,0,0,0,0,4.607,73.94,26.83997461216,3.937008,6,P-GPS,
5100,2022-08-24 20:09:14,-34.9180331215289,-56.168639053167,3.937008,4.0354332,22.80454141216,26.83997461216,5.249344,0,1.05529530936,2.4982940432,19,5,8.441,26.83997461216,3.937008,0.4921268,1.35126644744,0,0,0,222.4, 2.8, -2.6,0,0,1024,1024,1024,1024,0,0,0,0,233,0,0,99,4.231,4.228,0,0,0,0,4.607,73.94,26.83997461216,3.937008,6,P-GPS,
5200,2022-08-24 20:09:14,-34.9180331538865,-56.1686389917731,3.937008,4.0354332,22.80454141216,26.83997461216,5.249344,0,1.05526250096,2.5201280334,19,5,8.53,26.83997461216,3.937008,0.4921268,1.35126644744,0,0,0,222.4, 2.6, -2.4,0,0,1024,1024,1024,1024,0,0,0,0,233,0,0,99,4.246,4.239,0,0,0,0,3.91,73.94,26.83997461216,3.937008,6,P-GPS,
5300,2022-08-24 20:09:14,-34.9180331818558,-56.1686389106961,3.937008,4.0354332,22.80454141216,26.83997461216,5.249344,0,1.05128284204,2.54644365104,19,5,8.53,26.83997461216,3.937008,0.4921268,1.35126644744,0,0,0,222.4, 2.3, -2.1,0,0,1024,1024,1024,1024,0,0,0,0,233,0,0,99,4.246,4.239,0,0,0,0,3.91,73.94,26.83997461216,3.937008,6,P-GPS,
5400,2022-08-24 20:09:14,-34.9180333490311,-56.1686389451154,3.937008,4.0354332,22.80454141216,26.83997461216,5.249344,0,1.109169983,2.60829732756,19,5,8.53,26.83997461216,3.937008,0.4921268,1.35126644744,0,0,0,222.4, 2.2, -1.7,0,0,1024,1024,1024,1024,0,0,0,0,233,0,0,99,4.246,4.239,0,0,0,0,3.91,73.94,26.83997461216,3.937008,6,P-GPS,
5500,2022-08-24 20:09:14,-34.9180333738327,-56.1686388406131,3.937008,4.0354332,22.80454141216,26.83997461216,5.249344,0,1.10202431348,2.6408465412,19,5,8.53,26.83997461216,3.937008,0.4921268,1.35126644744,0,0,0,222.4, 2.3, -1.7,0,0,1024,1024,1024,1024,0,0,0,0,233,0,0,99,4.246,4.239,0,0,0,0,3.91,73.94,26.83997461216,3.937008,6,P-GPS,
5600,2022-08-24 20:09:14,-34.9180334046286,-56.1686387596663,4.265092,4.3635172,22.80454141216,27.16805861216,5.249344,0,1.10089570452,2.66754273628,19,5,8.53,27.16805861216,4.265092,0.4921268,1.35126644744,0,0,0,222.4, 2.5, -1.8,0,0,1024,1024,1024,1024,0,0,0,0,233,0,0,99,4.246,4.239,0,0,0,0,3.91,73.94,27.16805861216,4.265092,6,P-GPS,
5700,2022-08-24 20:09:14,-34.9180334703921,-56.1686387407843,4.265092,4.3635172,22.80454141216,27.16805861216,5.249344,0,1.11992785736,2.6921916872,19,5,8.53,27.16805861216,4.265092,0.4921268,1.35126644744,0,0,0,222.4, 2.5, -1.8,0,0,1024,1024,1024,1024,0,0,0,0,233,0,0,99,4.246,4.239,0,0,0,0,3.91,73.94,27.16805861216,4.265092,6,P-GPS,
5800,2022-08-24 20:09:14,-34.9180336150691,-56.1686388335105,4.265092,4.3307088,22.83734981216,27.16805861216,5.249344,0,1.17952431596,2.7518209542,19,5,8.53,27.16805861216,4.265092,0.4921268,1.35126644744,0,0,0,222.4, 2.4, -1.8,0,0,1024,1024,1024,1024,0,0,0,0,233,0,0,99,4.246,4.239,0,0,0,0,3.91,73.94,27.16805861216,4.265092,6,P-GPS,"Punto de origen actualizado. Altitud de RPO establecida en 100m (Code: 3000001)"
5900,2022-08-24 20:09:14,-34.9180336273382,-56.1686387742033,4.265092,4.3307088,22.83734981216,27.16805861216,5.249344,0,1.17593835784,2.77012147972,19,5,8.53,27.16805861216,4.265092,0.4921268,1.35126644744,0,0,0,222.4, 2.3, -1.8,0,0,1024,1024,1024,1024,0,0,0,0,233,0,0,99,4.246,4.239,0,0,0,0,3.91,73.94,27.16805861216,4.265092,6,P-GPS,
6000,2022-08-24 20:09:14,-34.9180336392422,-56.1686387271286,4.265092,4.3307088,22.83734981216,27.16805861216,5.249344,0,1.17400266224,2.784859013,19,5,8.53,27.16805861216,4.265092,0.4921268,1.35126644744,0,0,0,222.4, 2.4, -2,0,0,1024,1024,1024,1024,0,0,0,0,233,0,0,99,4.246,4.239,0,0,0,0,3.91,73.94,27.16805861216,4.265092,6,P-GPS,
6100,2022-08-24 20:09:15,-34.9180336716649,-56.1686387071581,4.265092,4.3307088,22.83734981216,27.16805861216,5.249344,0,1.18236880424,2.79811032576,19,5,8.53,27.16805861216,4.265092,0.4921268,1.35126644744,0,0,0,222.4, 2.4, -1.9,0,0,1024,1024,1374,1024,0,0,53,0,233,0,0,99,4.246,4.239,0,0,0,0,3.91,73.94,27.16805861216,4.265092,6,P-GPS,
6200,2022-08-24 20:09:15,-34.9180337066984,-56.1686387103437,4.265092,4.3307088,22.83734981216,27.16805861216,5.249344,0,1.1944554188,2.81092856764,19,5,8.473,27.16805861216,4.265092,0.4921268,1.35126644744,0,0,0,222.4, 2.3, -2.2,0,0,1024,1024,1684,1024,0,0,100,0,233,0,0,99,4.241,4.236,0,0,0,0,4.117,73.94,27.16805861216,4.265092,6,P-GPS,
6300,2022-08-24 20:09:15,-34.9180337729171,-56.1686388106782,4.265092,4.3307088,22.83734981216,27.16805861216,5.249344,0,1.22874347764,2.84946203344,19,5,8.473,27.16805861216,4.265092,0.4921268,1.35126644744,0,0,-0.223694,222.4, 2.4, -1.6,0,0,1024,1024,1684,1024,0,0,100,0,233,0,0,99,4.241,4.236,0,0,0,0,4.117,73.94,27.16805861216,4.265092,6,P-GPS,
6400,2022-08-24 20:09:15,-34.9180338343843,-56.1686388915333,4.593176,4.6587928,22.83734981216,27.49614261216,5.577428,0,1.2592356046,2.8824475988,19,5,8.473,27.49614261216,4.593176,0.4921268,1.35126644744,0,0,-0.894776,222.4, 2.5, -1.7,0,0,1024,1024,1684,1024,0,0,100,0,233,0,0,99,4.241,4.236,0,0,0,0,4.117,73.94,27.49614261216,4.593176,6,P-GPS,
6500,2022-08-24 20:09:15,-34.9180338864111,-56.1686388581888,4.92126,4.9868768,22.83734981216,27.82422661216,5.577428,0,1.27232943704,2.90389116904,19,5,8.473,27.82422661216,4.92126,0.4921268,1.35126644744,0,0,-1.565858,222.4, 2.3, -1.7,0,0,1024,1024,1684,1024,0,0,100,0,233,0,0,99,4.241,4.236,0,0,0,0,4.117,73.94,27.82422661216,4.92126,6,P-GPS,
6600,2022-08-24 20:09:15,-34.9180339309055,-56.1686388121556,5.249344,5.3149608,22.83734981216,28.15231061216,5.905512,0,1.28161749508,2.92517725896,19,5,8.473,28.15231061216,5.249344,0.4921268,1.35126644744,0,0,-2.460634,222.4, 2, -1.3,0,0,1024,1024,1684,1024,0,0,100,0,233,0,0,99,4.241,4.236,0,0,0,0,4.117,73.94,28.15231061216,5.249344,6,P-GPS,
6700,2022-08-24 20:09:15,-34.9180339267659,-56.168638781521,5.577428,5.6430448,22.83734981216,28.48039461216,6.56168,0,1.27661421408,2.934465317,19,5,8.473,28.48039461216,5.577428,0.4921268,1.35126644744,0,0,-3.35541,222.4, 2.1, -1,0,0,1024,1024,1684,1024,0,0,100,0,233,0,0,99,4.241,4.236,0,0,0,0,4.117,73.94,28.48039461216,5.577428,6,P-GPS,
6800,2022-08-24 20:09:15,-34.9180339319444,-56.1686387532516,6.233596,6.2992128,22.83734981216,29.13656261216,7.217848,0,1.27507221928,2.94313329628,19,5,8.473,29.13656261216,6.233596,0.4921268,1.35126644744,0,0,-4.250186,222.5, 2, -1.2,0,0,1024,1024,1684,1024,0,0,100,0,233,0,0,99,4.241,4.236,0,0,0,0,4.117,73.94,29.13656261216,6.233596,6,P-GPS,
6900,2022-08-24 20:09:15,-34.9180339600493,-56.1686387373218,6.889764,6.9553808,22.83734981216,29.79273061216,7.874016,0,1.28272313816,2.95443907092,19,5,8.473,29.79273061216,6.889764,0.4921268,1.35126644744,0,0,-4.921268,222.4, 2, -1.4,0,0,1024,1024,1684,1024,0,0,100,0,233,0,0,99,4.241,4.236,0,0,0,0,4.117,73.94,29.79273061216,6.889764,6,P-GPS,
7000,2022-08-24 20:09:15,-34.918033974665,-56.1686387233778,7.874016,7.9396328,22.83734981216,30.77698261216,8.530184,0,1.28608928,2.96121072468,19,5,8.473,30.77698261216,7.874016,0.4921268,1.35126644744,0,0,-5.59235,222.4, 2.2, -1.5,0,0,1024,1024,1684,1024,0,0,100,0,233,0,0,99,4.241,4.236,0,0,0,0,4.117,73.94,30.77698261216,7.874016,6,P-GPS,
7100,2022-08-24 20:09:16,-34.9180338139933,-56.1686386680972,8.530184,8.5958008,22.83734981216,31.43315061216,9.514436,0,1.22556106284,3.02211951928,19,5,8.473,31.43315061216,8.530184,0.4921268,1.35126644744,0,0,-6.039738,222.4, 2.4, -2,0,0,1024,1024,1680,1024,0,0,99,0,233,0,0,99,4.241,4.236,0,0,0,0,4.117,73.94,31.43315061216,8.530184,6,P-GPS,
7200,2022-08-24 20:09:16,-34.9180337799849,-56.1686386165975,9.514436,9.5800528,22.83734981216,32.41740261216,10.498688,0,1.2082677552,3.04189970364,19,5,8.388,32.41740261216,9.514436,0.4921268,1.35126644744,0,0,-6.263432,222.3, 2.2, -1.9,0,0,1024,1024,1684,1024,0,0,100,0,233,0,0,99,4.16,4.155,0,0,0,0,4.916,74.12,32.41740261216,9.514436,6,P-GPS,
7300,2022-08-24 20:09:16,-34.9180338593443,-56.168638513876,10.498688,10.5643048,22.83734981216,33.40165461216,11.154856,0,1.2243110628,3.08412411444,19,5,8.388,33.40165461216,10.498688,0.4921268,1.35126644744,0,0,-6.487126,222.4, 2, -1.5,0,0,1024,1024,1298,1024,0,0,42,0,233,0,0,99,4.16,4.155,0,0,0,0,4.916,74.12,33.40165461216,10.498688,6,P-GPS,
7400,2022-08-24 20:09:16,-34.9180339247621,-56.1686384181846,11.48294,11.48294,22.90296661216,34.38590661216,12.139108,0,1.23741473776,3.12139445684,19,5,8.388,34.38590661216,11.48294,0.4921268,1.35126644744,0,0,-6.487126,222.3, 1.9, -1.6,0,0,1024,1024,1298,1024,0,0,42,0,233,0,0,99,4.16,4.155,0,0,0,0,4.916,74.12,34.38590661216,11.48294,6,P-GPS,
7500,2022-08-24 20:09:16,-34.9180339535758,-56.1686382402165,12.467192,12.467192,22.90296661216,35.37015861216,12.795276,0,1.23173888456,3.17566611212,19,5,8.388,35.37015861216,12.467192,0.4921268,1.35126644744,0,0,-6.039738,222.2, 2.1, -2.4,0,0,1024,1024,1024,1024,0,0,0,0,233,0,0,99,4.16,4.155,0,0,0,0,4.916,74.12,35.37015861216,12.467192,6,P-GPS,
7600,2022-08-24 20:09:16,-34.9180339447395,-56.1686381707954,13.451444,13.451444,22.90296661216,36.35441061216,13.779528,0,1.22309059032,3.19668317316,19,5,8.388,36.35441061216,13.451444,0.4921268,1.35126644744,0,0,-5.368656,222.3, 2.2, -2.7,0,0,1024,1024,1024,1024,0,0,0,0,233,0,0,99,4.16,4.155,0,0,0,0,4.916,74.12,36.35441061216,13.451444,6,P-GPS,
7700,2022-08-24 20:09:16,-34.9180339500775,-56.1686380668273,14.107612,14.107612,22.90296661216,37.01057861216,14.435696,0,1.21729334604,3.22784787232,19,5,8.388,37.01057861216,14.107612,0.4921268,1.35126644744,0,0,-4.697574,222.3, 2.2, -2.3,0,0,1024,1024,1024,1024,0,0,0,0,233,0,0,99,4.16,4.155,0,0,0,0,4.916,74.12,37.01057861216,14.107612,6,P-GPS,
7800,2022-08-24 20:09:16,-34.918033954947,-56.1686379895666,14.76378,14.76378,22.90296661216,37.66674661216,14.76378,0,1.21380581312,3.25103028776,19,5,8.388,37.66674661216,14.76378,0.4921268,1.35126644744,0,0,-3.802798,222.4, 2.1, -2.5,0,0,1024,1024,1024,1024,0,0,0,0,233,0,0,99,4.16,4.155,0,0,0,0,4.916,74.12,37.66674661216,14.76378,6,P-GPS,
7900,2022-08-24 20:09:16,-34.9180339091193,-56.1686380331106,15.091864,15.091864,22.90296661216,37.99483061216,15.419948,0,1.20041342424,3.27222451416,19,5,8.388,37.99483061216,15.091864,0.4921268,1.35126644744,0,0,-3.131716,222.3, 2.4, -2.9,0,0,1024,1024,1024,1024,0,0,0,0,233,0,0,99,4.16,4.155,0,0,0,0,4.916,74.12,37.99483061216,15.091864,6,P-GPS,
8000,2022-08-24 20:09:16,-34.9180339072841,-56.1686380598549,15.419948,15.419948,22.90296661216,38.32291461216,15.748032,0,1.20162733504,3.28025272964,19,5,8.388,38.32291461216,15.419948,0.4921268,1.35126644744,0,0,-2.23694,222.2, 2.7, -3.7,0,0,1024,1024,1024,1024,0,0,0,0,233,0,0,99,4.16,4.155,0,0,0,0,4.916,74.12,38.32291461216,15.419948,6,P-GPS,
8100,2022-08-24 20:09:17,-34.9180339105947,-56.1686380749633,15.748032,15.748032,22.90296661216,38.65099861216,15.748032,0,1.20387471044,3.28494105,19,5,8.388,38.65099861216,15.748032,0.4921268,1.35126644744,0,0,-1.342164,222.3, 2.5, -3.8,0,0,1024,1024,1024,1024,0,0,0,0,233,0,0,99,4.16,4.155,0,0,0,0,4.916,74.12,38.65099861216,15.748032,6,P-GPS,
8200,2022-08-24 20:09:17,-34.9180339242353,-56.1686380825785,15.748032,15.748032,22.90296661216,38.65099861216,15.748032,0,1.20925528804,3.2904200528,18,5,8.388,38.65099861216,15.748032,0.4921268,1.35126644744,0,0,-0.671082,222.3, 2.5, -3.6,0,0,1024,1024,1024,1024,0,0,0,0,233,0,0,99,4.16,4.155,0,0,0,0,4.916,74.12,38.65099861216,15.748032,6,P-GPS,
8300,2022-08-24 20:09:17,-34.9180339472237,-56.1686380927707,15.748032,15.748032,22.90296661216,38.65099861216,15.748032,0,1.21812996024,3.2993439376,18,5,8.381,38.65099861216,15.748032,0.4921268,1.35126644744,0,0,-0.223694,222.3, 2.4, -3.3,0,0,1024,1024,1024,1024,0,0,0,0,233,0,0,99,4.254,4.253,0,0,0,0,5.705,74.12,38.65099861216,15.748032,6,P-GPS,
8400,2022-08-24 20:09:17,-34.9180339453978,-56.1686381890815,16.076116,16.076116,22.90296661216,38.97908261216,15.748032,0,1.2247539762,3.3281497128,19,5,8.381,38.97908261216,16.076116,0.4921268,1.35126644744,0,0,0,222.4, 2.6, -3.2,0,0,1024,1024,1024,1024,0,0,0,0,233,0,0,99,4.254,4.253,0,0,0,0,5.705,74.12,38.97908261216,16.076116,6,P-GPS,
8500,2022-08-24 20:09:17,-34.9180340386669,-56.1686381036359,16.076116,16.076116,22.90296661216,38.97908261216,15.748032,0,1.25129925264,3.3707022076,19,5,8.381,38.97908261216,16.076116,0.4921268,1.35126644744,0,0,0,222.4, 2.5, -3,0,0,1024,1024,1024,1024,0,0,0,0,233,0,0,99,4.254,4.253,0,0,0,0,5.705,74.12,38.97908261216,16.076116,6,P-GPS,
8600,2022-08-24 20:09:17,-34.9180341424,-56.1686380089717,16.076116,16.076116,22.90296661216,38.97908261216,15.748032,0,1.28186355808,3.417979112,18,5,8.381,38.97908261216,16.076116,0.4921268,1.35126644744,0,0,0,222.5, 2.5, -2.8,0,0,1024,1024,1024,1024,0,0,0,0,233,0,0,99,4.254,4.253,0,0,0,0,5.705,74.12,38.97908261216,16.076116,6,P-GPS,
8700,2022-08-24 20:09:17,-34.9180343068501,-56.1686379197834,16.076116,16.076116,22.90296661216,38.97908261216,15.748032,0,1.3354987304,3.4836615288,18,5,8.381,38.97908261216,16.076116,0.4921268,1.35126644744,0,0,0,222.5, 2.4, -2.8,0,0,1024,1024,1024,1024,0,0,0,0,233,0,0,99,4.254,4.253,0,0,0,0,5.705,74.12,38.97908261216,16.076116,6,P-GPS,
8800,2022-08-24 20:09:17,-34.9180346721585,-56.1686377456276,16.076116,16.0433076,22.93577501216,38.97908261216,15.748032,0,1.45908469236,3.6267389612,18,5,8.381,38.97908261216,16.076116,0.4921268,1.45908469236,0,0,0,222.3, 2.5, -2.7,0,0,1024,1024,1024,1024,0,0,0,0,233,0,0,99,4.254,4.253,0,0,0,0,5.705,74.12,38.97908261216,16.076116,6,P-GPS,
8900,2022-08-24 20:09:17,-34.9180347827701,-56.1686375855248,16.076116,16.0433076,22.93577501216,38.97908261216,15.748032,0,1.49379597956,3.6893701968,18,5,8.381,38.97908261216,16.076116,0.4921268,1.49379597956,0,0,0,222.3, 2.3, -2.4,0,0,1024,1024,1024,1024,0,0,0,0,233,0,0,99,4.254,4.253,0,0,0,0,5.705,74.12,38.97908261216,16.076116,6,P-GPS,
9000,2022-08-24 20:09:18,-34.9180348784127,-56.1686374395311,16.076116,15.9776908,23.00139181216,38.97908261216,15.748032,0,1.52510175484,3.7452757104,18,5,8.381,38.97908261216,16.076116,0.4921268,1.52510175484,0,0,0,222.4, 2.4, -2.3,0,0,1024,1024,1024,1024,0,0,0,0,233,0,0,99,4.254,4.253,0,0,0,0,5.705,74.12,38.97908261216,16.076116,6,P-GPS,
9100,2022-08-24 20:09:18,-34.9180349341471,-56.1686373406222,16.076116,15.9776908,23.00139181216,38.97908261216,15.748032,0,1.54379598116,3.7812009084,18,5,8.381,38.97908261216,16.076116,0.4921268,1.54379598116,0,0,0,222.5, 2.5, -2.3,0,0,1024,1024,1238,1024,0,0,32,0,233,0,0,99,4.254,4.253,0,0,0,0,5.705,74.12,38.97908261216,16.076116,6,P-GPS,
9200,2022-08-24 20:09:18,-34.9180349181093,-56.1686371685518,16.076116,15.9776908,23.00139181216,38.97908261216,15.748032,0,1.53650923552,3.833005372,19,5,8.381,38.97908261216,16.076116,0.4921268,1.54379598116,0,0,0,222.5, 2.7, -2,0,0,1024,1024,1573,1024,0,0,83,0,233,0,0,99,4.254,4.253,0,0,0,0,5.705,74.12,38.97908261216,16.076116,6,P-GPS,
9300,2022-08-24 20:09:18,-34.9180349356184,-56.168637135398,16.076116,15.9776908,23.00139181216,38.97908261216,15.748032,0,1.54281829084,3.8447835876,19,5,8.466,38.97908261216,16.076116,0.4921268,1.54379598116,0,0,-0.223694,222.6, 2, -1.8,0,0,1024,1024,1684,1024,0,0,100,0,233,0,0,99,4.223,4.22,0,0,0,0,3.433,74.12,38.97908261216,16.076116,6,P-GPS,
9400,2022-08-24 20:09:18,-34.9180349472817,-56.168637126659,16.076116,15.9776908,23.00139181216,38.97908261216,16.076116,0,1.5470636978,3.8498032728,19,5,8.466,38.97908261216,16.076116,0.4921268,1.5470636978,0,0,-0.894776,222.6, 2.5, -1.6,0,0,1024,1024,1684,1024,0,0,100,0,233,0,0,99,4.223,4.22,0,0,0,0,3.433,74.12,38.97908261216,16.076116,6,P-GPS,
9500,2022-08-24 20:09:18,-34.9180349619959,-56.1686371763491,16.4042,16.3057748,23.00139181216,39.30716661216,16.076116,0,1.55254926228,3.8655841132,19,5,8.466,39.30716661216,16.4042,0.4921268,1.55254926228,0,0,-1.565858,222.7, 2.8, -1,0,0,1024,1024,1684,1024,0,0,100,0,233,0,0,99,4.223,4.22,0,0,0,0,3.433,74.12,39.30716661216,16.4042,6,P-GPS,
9600,2022-08-24 20:09:18,-34.9180349529405,-56.1686372638417,16.732284,16.6338588,23.00139181216,39.63525061216,16.4042,0,1.54979663752,3.8919948752,19,5,8.466,39.63525061216,16.732284,0.4921268,1.55254926228,0,0,-2.23694,222.6, 2.8, -1.8,0,0,1024,1024,1684,1024,0,0,100,0,233,0,0,99,4.223,4.22,0,0,0,0,3.433,74.12,39.63525061216,16.732284,6,P-GPS,
9700,2022-08-24 20:09:18,-34.918034878578,-56.1686375161334,17.060368,17.0275596,22.93577501216,39.96333461216,17.060368,0,1.52681107248,3.9721786048,19,5,8.466,39.96333461216,17.060368,0.4921268,1.55254926228,0,0,-3.131716,222.6, 2.7, -1.6,0,0,1024,1024,1684,1024,0,0,100,0,233,0,0,99,4.223,4.22,0,0,0,0,3.433,74.12,39.96333461216,17.060368,6,P-GPS,
9800,2022-08-24 20:09:18,-34.9180348170652,-56.168637723606,17.716536,17.6837276,22.93577501216,40.61950261216,17.388452,0,1.51070542892,4.0381891056,19,5,8.466,40.61950261216,17.716536,0.4921268,1.55254926228,0,0,-4.026492,222.5, 2.4, -1.4,0,0,1024,1024,1684,1024,0,0,100,0,233,0,0,99,4.223,4.22,0,0,0,0,3.433,74.12,40.61950261216,17.716536,6,P-GPS,
9900,2022-08-24 20:09:18,-34.9180348776673,-56.1686377503836,18.372704,18.3398956,22.93577501216,41.27567061216,18.04462,0,1.53363521968,4.0617127284,19,5,8.466,41.27567061216,18.372704,0.4921268,1.55254926228,0,0,-4.921268,222.5, 2.3, -1.2,0,0,1024,1024,1684,1024,0,0,100,0,233,0,0,99,4.223,4.22,0,0,0,0,3.433,74.12,41.27567061216,18.372704,6,P-GPS,
10000,2022-08-24 20:09:18,-34.9180349247981,-56.1686377793188,19.356956,19.3241476,22.93577501216,42.25992261216,19.028872,0,1.5517881074,4.0809712592,20,5,8.466,42.25992261216,19.356956,0.4921268,1.55254926228,0,0,-5.59235,222.4, 2.6, -1.7,0,0,1024,1024,1684,1024,0,0,100,0,233,0,0,99,4.223,4.22,0,0,0,0,3.433,74.12,42.25992261216,19.356956,6,P-GPS,
10100,2022-08-24 20:09:19,-34.9180350576238,-56.1686378002078,20.341208,20.3083996,22.93577501216,43.24417461216,19.68504,0,1.60065293836,4.1298229668,20,5,8.466,43.24417461216,20.341208,0.4921268,1.60065293836,0,0,-6.039738,222.4, 2.3, -2.1,0,0,1024,1024,1684,1024,0,0,100,0,233,0,0,99,4.223,4.22,0,0,0,0,3.433,74.12,43.24417461216,20.341208,6,P-GPS,
10200,2022-08-24 20:09:19,-34.9180350649559,-56.1686377790517,20.997376,20.9645676,22.93577501216,43.90034261216,20.669292,0,1.60250333212,4.1366799224,20,5,8.466,43.90034261216,20.997376,0.4921268,1.60250333212,0,0,-6.263432,222.3, 1.8, -2.2,0,0,1024,1024,1684,1024,0,0,100,0,233,0,0,99,4.223,4.22,0,0,0,0,3.433,74.12,43.90034261216,20.997376,6,P-GPS,
10300,2022-08-24 20:09:19,-34.9180350801761,-56.1686377342413,21.981628,21.9488196,22.93577501216,44.88459461216,21.653544,0,1.60640097004,4.1512140436,20,5,8.362,44.88459461216,21.981628,0.4921268,1.60640097004,0,0,-6.487126,222.4, 1.8, -1.9,0,0,1024,1024,1684,1024,0,0,100,0,233,0,0,99,4.147,4.147,0,0,0,0,5.13,74.12,44.88459461216,21.981628,6,P-GPS,
10400,2022-08-24 20:09:19,-34.9180351085269,-56.1686376759567,22.96588,22.9330716,22.93577501216,45.86884661216,22.637796,0,1.61475726952,4.1714896348,20,5,8.362,45.86884661216,22.96588,0.4921268,1.61475726952,0,0,-6.487126,222.5, 1.8, -1.3,0,0,1024,1024,1684,1024,0,0,100,0,233,0,0,99,4.147,4.147,0,0,0,0,5.13,74.12,45.86884661216,22.96588,6,P-GPS,
10500,2022-08-24 20:09:19,-34.9180353309667,-56.1686373581208,23.950132,23.8517068,23.00139181216,46.85309861216,23.293964,0,1.6886647522,4.2964896388,20,5,8.362,46.85309861216,23.950132,0.4921268,1.6886647522,0,0,-6.487126,222.5, 1.7, -1.3,0,0,1024,1024,1684,1024,0,0,100,0,233,0,0,99,4.147,4.147,0,0,0,0,5.13,74.12,46.85309861216,23.950132,6,P-GPS,
10600,2022-08-24 20:09:19,-34.9180354001633,-56.1686372479253,24.934384,24.8359588,23.00139181216,47.83735061216,24.278216,0,1.71278220704,4.3379922648,20,5,8.362,47.83735061216,24.934384,0.4921268,1.71278220704,0,0,-6.487126,222.5, 1.6, -2.3,0,0,1024,1024,1678,1024,0,0,99,0,233,0,0,99,4.147,4.147,0,0,0,0,5.13,74.12,47.83735061216,24.934384,6,P-GPS,
10700,2022-08-24 20:09:19,-34.9180353896367,-56.1686371585619,25.918636,25.8202108,23.00139181216,48.82160261216,25.262468,0,1.70851055336,4.3650263864,20,5,8.362,48.82160261216,25.918636,0.4921268,1.71278220704,0,0,-6.487126,222.6, 1.9, -1.8,0,0,1024,1024,1678,1024,0,0,99,0,233,0,0,99,4.147,4.147,0,0,0,0,5.13,74.12,48.82160261216,25.918636,6,P-GPS,
10800,2022-08-24 20:09:19,-34.918035391176,-56.1686370905995,26.902888,26.8044628,23.00139181216,49.80585461216,26.24672,0,1.7090223644,4.3853675944,20,5,8.362,49.80585461216,26.902888,0.4921268,1.71278220704,0,0,-6.487126,222.4, 2.6, -1,0,0,1024,1024,1305,1024,0,0,43,0,233,0,0,99,4.147,4.147,0,0,0,0,5.13,74.12,49.80585461216,26.902888,6,P-GPS,
10900,2022-08-24 20:09:19,-34.9180351423542,-56.1686372842541,27.88714,27.7887148,23.00139181216,50.79010661216,27.230972,0,1.61905845076,4.4930447632,20,5,8.362,50.79010661216,27.88714,0.4921268,1.71278220704,0,0,-6.039738,222.3, 2.6, -1.7,0,0,1024,1024,1024,1024,0,0,0,0,233,0,0,99,4.147,4.147,0,0,0,0,5.13,74.12,50.79010661216,27.88714,6,P-GPS,
11000,2022-08-24 20:09:19,-34.9180350616339,-56.1686373635271,28.871392,28.7729668,23.00139181216,51.77435861216,28.543308,0,1.59057419788,4.5308728484,20,5,8.362,51.77435861216,28.871392,0.4921268,1.71278220704,0,0,-5.59235,222.3, 2.5, -1.9,0,0,1024,1024,1024,1024,0,0,0,0,233,0,0,99,4.147,4.147,0,0,0,0,5.13,74.12,51.77435861216,28.871392,6,P-GPS,
11100,2022-08-24 20:09:20,-34.9180346789133,-56.1686375648653,29.52756,29.4947516,22.93577501216,52.43052661216,29.52756,0,1.45549217256,4.6829397824,20,5,8.362,52.43052661216,29.52756,0.4921268,1.71278220704,0,0,-4.697574,222.4, 2.2, -1.8,0,0,1024,1024,1024,1024,0,0,0,0,233,0,0,99,4.147,4.147,0,0,0,0,5.13,74.12,52.43052661216,29.52756,6,P-GPS,
11200,2022-08-24 20:09:20,-34.918034291802,-56.1686377612655,30.183728,30.183728,22.90296661216,53.08669461216,30.183728,0,1.32229663024,4.8358925432,20,5,8.362,53.08669461216,30.183728,0.4921268,1.71278220704,0,0,-4.026492,222.3, 1.8, -2.1,0,0,1024,1024,1024,1024,0,0,0,0,233,0,0,99,4.147,4.147,0,0,0,0,5.13,74.12,53.08669461216,30.183728,6,P-GPS,
11300,2022-08-24 20:09:20,-34.9180329612403,-56.1686384356127,30.839896,30.8727044,22.87015821216,53.74286261216,31.16798,0,0.91294622344,5.3616143448,20,5,8.356,53.74286261216,30.839896,0.4921268,1.71278220704,0,0,-3.131716,222.4, 1, -2.5,0,0,1024,1024,1024,1024,0,0,0,0,233,0,0,99,4.223,4.215,0,0,0,0,6.205,74.12,53.74286261216,30.839896,6,P-GPS,
11400,2022-08-24 20:09:20,-34.9180325947415,-56.1686385984352,31.16798,31.2664052,22.80454141216,54.07094661216,31.496064,0,0.81998690288,5.503937184,20,5,8.356,54.07094661216,31.16798,0.4921268,1.71278220704,0,0,-2.460634,222.6, 0.8, -2.7,0,0,1024,1024,1156,1024,0,0,20,0,233,0,0,99,4.223,4.215,0,0,0,0,6.205,74.12,54.07094661216,31.16798,6,P-GPS,
11500,2022-08-24 20:09:20,-34.9180324902752,-56.1686386410969,31.16798,31.2664052,22.80454141216,54.07094661216,31.824148,0,0.79551839816,5.544127474,20,5,8.356,54.07094661216,31.16798,0.4921268,1.71278220704,0,0,-1.565858,222.6, 1.2, -2.5,0,0,1024,1024,1529,1024,0,0,77,0,233,0,0,99,4.223,4.215,0,0,0,0,6.205,74.12,54.07094661216,31.16798,6,P-GPS,
11600,2022-08-24 20:09:20,-34.9180324184657,-56.1686386828288,31.496064,31.5944892,22.80454141216,54.39903061216,32.152232,0,0.78168637672,5.5731300996,20,5,8.356,54.39903061216,31.496064,0.4921268,1.71278220704,0,0,-0.894776,222.7, 1.4, -1.8,0,0,1024,1024,1684,1024,0,0,100,0,233,0,0,99,4.223,4.215,0,0,0,0,6.205,74.12,54.39903061216,31.496064,6,P-GPS,
11700,2022-08-24 20:09:20,-34.9180323974767,-56.1686386909987,31.496064,31.5944892,22.80454141216,54.39903061216,32.152232,0,0.777066954,5.5811681576,20,5,8.356,54.39903061216,31.496064,0.4921268,1.71278220704,0,0,-1.342164,222.8, 1.8, -1.7,0,0,1024,1024,1684,1024,0,0,100,0,233,0,0,99,4.223,4.215,0,0,0,0,6.205,74.12,54.39903061216,31.496064,6,P-GPS,
11800,2022-08-24 20:09:20,-34.9180327698693,-56.1686384352258,31.824148,31.8569564,22.87015821216,54.72711461216,32.480316,0,0.85053152328,5.7371064828,20,5,8.356,54.72711461216,31.824148,0.4921268,1.71278220704,0,0,-2.013246,222.5, 2, -1.9,0,0,1024,1024,1684,1024,0,0,100,0,233,0,0,99,4.223,4.215,0,0,0,0,6.205,74.12,54.72711461216,31.824148,6,P-GPS,
11900,2022-08-24 20:09:20,-34.9180327825793,-56.1686383610384,32.152232,32.1850404,22.87015821216,55.05519861216,32.8084,0,0.84457679868,5.7597770872,20,5,8.356,55.05519861216,32.152232,0.4921268,1.71278220704,0,0,-2.684328,222.7, 2.2, -1.6,0,0,1024,1024,1684,1024,0,0,100,0,233,0,0,99,4.223,4.215,0,0,0,0,6.205,74.12,55.05519861216,32.152232,6,P-GPS,
12000,2022-08-24 20:09:20,-34.9180328162938,-56.1686382826742,32.480316,32.5131244,22.87015821216,55.38328261216,33.464568,0,0.84563979084,5.786253466,20,5,8.356,55.38328261216,32.480316,0.4921268,1.71278220704,0,0,-3.579104,222.6, 2.4, -1.6,0,0,1024,1024,1684,1024,0,0,100,0,233,0,0,99,4.223,4.215,0,0,0,0,6.205,74.12,55.38328261216,32.480316,6,P-GPS,
12100,2022-08-24 20:09:21,-34.9180330037773,-56.1686382596288,33.136484,33.1692924,22.87015821216,56.03945061216,34.120736,0,0.90569556704,5.8550198724,20,5,8.356,56.03945061216,33.136484,0.4921268,1.71278220704,0,0,-4.47388,222.6, 2.3, -1.8,0,0,1024,1024,1684,1024,0,0,100,0,233,0,0,99,4.223,4.215,0,0,0,0,6.205,74.12,56.03945061216,33.136484,6,P-GPS,
12200,2022-08-24 20:09:21,-34.918033669782,-56.1686380207327,33.792652,33.792652,22.90296661216,56.69561861216,34.776904,0,1.1146981984,6.1083007204,20,5,8.356,56.69561861216,33.792652,0.4921268,1.71278220704,0,0,-5.144962,222.6, 2.1, -1.6,0,0,1024,1024,1684,1024,0,0,100,0,233,0,0,99,4.223,4.215,0,0,0,0,6.205,74.12,56.69561861216,33.792652,6,P-GPS,
12300,2022-08-24 20:09:21,-34.9180336664229,-56.1686379281329,34.776904,34.776904,22.90296661216,57.67987061216,35.761156,0,1.10706696456,6.1360238184,20,5,8.5,57.67987061216,34.776904,0.4921268,1.71278220704,0,0,-5.816044,222.6, 2, -1.3,0,0,1024,1024,1684,1024,0,0,100,0,233,0,0,99,4.162,4.157,0,0,0,0,3.778,74.3,57.67987061216,34.776904,6,P-GPS,
12400,2022-08-24 20:09:21,-34.9180336864011,-56.1686378425966,35.761156,35.761156,22.90296661216,58.66412261216,36.417324,0,1.108841899,6.1626314308,20,5,8.5,58.66412261216,35.761156,0.4921268,1.71278220704,0,0,-6.039738,222.6, 1.8, -1.2,0,0,1024,1024,1684,1024,0,0,100,0,233,0,0,99,4.162,4.157,0,0,0,0,3.778,74.3,58.66412261216,35.761156,6,P-GPS,
12500,2022-08-24 20:09:21,-34.9180338929729,-56.1686378919162,36.417324,36.417324,22.90296661216,59.32029061216,37.401576,0,1.18563980172,6.2394358952,20,5,8.5,59.32029061216,36.417324,0.4921268,1.71278220704,0,0,-6.263432,222.6, 1.8, -0.7,0,0,1024,1024,1684,1024,0,0,100,0,233,0,0,99,4.162,4.157,0,0,0,0,3.778,74.3,59.32029061216,36.417324,6,P-GPS,
12600,2022-08-24 20:09:21,-34.918034276239,-56.168638117325,37.401576,37.401576,22.90296661216,60.30454261216,38.385828,0.223694,1.33657812676,6.394685244,20,5,8.5,60.30454261216,37.401576,0.4921268,1.71278220704,0,0.223694,-6.487126,222.6, 1.3, -0.6,0,0,1024,1024,1684,1024,0,0,100,0,233,0,0,99,4.162,4.157,0,0,0,0,3.778,74.3,60.30454261216,37.401576,6,P-GPS,
12700,2022-08-24 20:09:21,-34.9180344006456,-56.1686381937292,38.385828,38.385828,22.90296661216,61.28879461216,39.37008,0.223694,1.38600070052,6.4455054556,20,5,8.5,61.28879461216,38.385828,0.4921268,1.71278220704,0,0.223694,-6.487126,222.6, 1.4, 0,0,0,1024,1024,1684,1024,0,0,100,0,233,0,0,99,4.162,4.157,0,0,0,0,3.778,74.3,61.28879461216,38.385828,6,P-GPS,
12800,2022-08-24 20:09:21,-34.9180345077223,-56.1686382655739,39.37008,39.3372716,22.93577501216,62.27304661216,40.354332,0,1.42905844468,6.4900920712,20,5,8.5,62.27304661216,39.37008,0.4921268,1.71278220704,0,0,-6.487126,222.4, 1.3, 0.3,0,0,1024,1024,1684,1024,0,0,100,0,233,0,0,99,4.162,4.157,0,0,0,0,3.778,74.3,62.27304661216,39.37008,6,P-GPS,
12900,2022-08-24 20:09:21,-34.9180345127399,-56.1686382458819,40.354332,40.3215236,22.93577501216,63.25729861216,41.0105,0,1.42942261792,6.4962600504,20,5,8.5,63.25729861216,40.354332,0.4921268,1.71278220704,0,0,-6.71082,222.1, 1.2, -0.5,0,0,1024,1024,1684,1024,0,0,100,0,233,0,0,99,4.162,4.157,0,0,0,0,3.778,74.3,63.25729861216,40.354332,6,P-GPS,
13000,2022-08-24 20:09:21,-34.9180344833298,-56.1686382099385,41.338584,41.338584,22.90296661216,64.24155061216,41.0105,0,1.4164698616,6.5114503396,20,5,8.5,64.24155061216,41.338584,0.4921268,1.71278220704,0,0,-6.71082,222.4, 0.5, 0.1,0,0,1024,1024,1684,1024,0,0,100,0,233,0,0,99,4.162,4.157,0,0,0,0,3.778,74.3,64.24155061216,41.338584,6,P-GPS,
13100,2022-08-24 20:09:22,-34.9180343736627,-56.1686381194034,42.65092,42.65092,22.90296661216,65.55388661216,41.0105,0,1.37136815412,6.5597771128,20,5,8.5,65.55388661216,42.65092,0.4921268,1.71278220704,0,0,-6.487126,222.4, 0.2, -0.2,0,0,1024,1024,1684,1024,0,0,100,0,233,0,0,99,4.162,4.157,0,0,0,0,3.778,74.3,65.55388661216,42.65092,6,P-GPS,
13200,2022-08-24 20:09:22,-34.918034262663,-56.168638042102,43.635172,43.635172,22.90296661216,66.53813861216,41.0105,0,1.32684387448,6.6063978492,20,5,8.5,66.53813861216,43.635172,0.4921268,1.71278220704,0,0,-6.71082,222.4, -0.1, -0.4,0,0,1024,1024,1684,1024,0,0,100,0,233,0,0,99,4.162,4.157,0,0,0,0,3.778,74.3,66.53813861216,43.635172,6,P-GPS,
13300,2022-08-24 20:09:22,-34.9180342189027,-56.168637952234,44.619424,44.619424,22.90296661216,67.52239061216,41.0105,0,1.3057907242,6.6376642544,20,5,8.327,67.52239061216,44.619424,0.4921268,1.71278220704,0,0,-6.487126,222.4, -0.4, -0.8,0,0,1024,1024,1684,1024,0,0,100,0,233,0,0,99,4.185,4.179,0,0,0,0,6.34,74.3,67.52239061216,44.619424,6,P-GPS,
13400,2022-08-24 20:09:22,-34.9180341641047,-56.1686378734927,45.603676,45.603676,22.90296661216,68.50664261216,41.0105,0,1.28177825624,6.6685697672,20,5,8.327,68.50664261216,45.603676,0.4921268,1.71278220704,0,0,-6.487126,222.3, -0.4, -0.3,0,0,1024,1024,1684,1024,0,0,100,0,233,0,0,99,4.185,4.179,0,0,0,0,6.34,74.3,68.50664261216,45.603676,6,P-GPS,
13500,2022-08-24 20:09:22,-34.918033737807,-56.1686378241988,46.587928,46.587928,22.90296661216,69.49089461216,41.0105,0,1.12617785756,6.824803368,20,5,8.327,69.49089461216,46.587928,0.4921268,1.71278220704,0,0,-6.487126,222.3, -0.8, -0.7,0,0,1024,1024,1684,1024,0,0,100,0,233,0,0,99,4.185,4.179,0,0,0,0,6.34,74.3,69.49089461216,46.587928,6,P-GPS,
13600,2022-08-24 20:09:22,-34.9180335564362,-56.168637833486,47.900264,47.900264,22.90296661216,70.80323061216,41.0105,0,1.06184058516,6.8910435276,20,5,8.327,70.80323061216,47.900264,0.4921268,1.71278220704,0,0,-6.71082,222.5, -1.3, -1.3,0,0,1024,1024,1684,1024,0,0,100,0,233,0,0,99,4.185,4.179,0,0,0,0,6.34,74.3,70.80323061216,47.900264,6,P-GPS,
13700,2022-08-24 20:09:22,-34.9180333303675,-56.1686378325225,48.884516,48.9173244,22.87015821216,71.78748261216,41.0105,0,0.9811680104,6.9735238452,20,5,8.327,71.78748261216,48.884516,0.4921268,1.71278220704,0,0,-6.71082,222.5, -1.4, -1,0,0,1024,1024,1684,1024,0,0,100,0,233,0,0,99,4.185,4.179,0,0,0,0,6.34,74.3,71.78748261216,48.884516,6,P-GPS,
13800,2022-08-24 20:09:22,-34.9180331312845,-56.1686378425616,49.868768,49.9015764,22.87015821216,72.77173461216,41.0105,0,0.91116800816,7.0461944512,20,5,8.327,72.77173461216,49.868768,0.4921268,1.71278220704,0,0,-6.487126,222.4, -1.3, -1,0,0,1024,1024,1684,1024,0,0,100,0,233,0,0,99,4.185,4.179,0,0,0,0,6.34,74.3,72.77173461216,49.868768,6,P-GPS,
13900,2022-08-24 20:09:22,-34.9180329050142,-56.168637793557,50.85302,50.8858284,22.87015821216,73.75598661216,41.0105,0,0.82752955404,7.1300527216,20,5,8.327,73.75598661216,50.85302,0.4921268,1.71278220704,0,0,-6.71082,222.5, -1.5, -1.2,0,0,1024,1024,1684,1024,0,0,100,0,233,0,0,99,4.185,4.179,0,0,0,0,6.34,74.3,73.75598661216,50.85302,6,P-GPS,
14000,2022-08-24 20:09:23,-34.9180328410046,-56.1686378055156,51.837272,51.8700804,22.87015821216,74.74023861216,41.0105,0,0.80583335912,7.1536747696,20,5,8.327,74.74023861216,51.837272,0.4921268,1.71278220704,0,0,-6.71082,222.5, -1.3, -2.1,0,0,1024,1024,1684,1024,0,0,100,0,233,0,0,99,4.185,4.179,0,0,0,0,6.34,74.3,74.74023861216,51.837272,6,P-GPS,
14100,2022-08-24 20:09:23,-34.9180327949904,-56.1686378582975,53.149608,53.1824164,22.87015821216,76.05257461216,41.0105,0,0.79392390992,7.1767390748,20,5,8.327,76.05257461216,53.149608,0.4921268,1.71278220704,0,0,-6.487126,222.4, -1, -1.2,0,0,1024,1024,1684,1024,0,0,100,0,233,0,0,99,4.185,4.179,0,0,0,0,6.34,74.3,76.05257461216,53.149608,6,P-GPS,
14200,2022-08-24 20:09:23,-34.9180327511894,-56.1686379184905,54.13386,54.1666684,22.87015821216,77.03682661216,41.0105,0,0.78396327968,7.2008204404,20,5,8.327,77.03682661216,54.13386,0.4921268,1.71278220704,0,0,-6.487126,222.4, -1.2, -0.8,0,0,1024,1024,1684,1024,0,0,100,0,233,0,0,99,4.185,4.179,0,0,0,0,6.34,74.3,77.03682661216,54.13386,6,P-GPS,
14300,2022-08-24 20:09:23,-34.9180327469367,-56.1686380451433,55.118112,55.1509204,22.87015821216,78.02107861216,41.0105,0,0.79500330628,7.2387141424,20,5,8.341,78.02107861216,55.118112,0.4921268,1.71278220704,0,0,-6.71082,222.4, -1.9, -1.6,0,0,1024,1024,1684,1024,0,0,100,0,233,0,0,99,4.172,4.169,0,0,0,0,5.397,74.3,78.02107861216,55.118112,6,P-GPS,
14400,2022-08-24 20:09:23,-34.9180326882696,-56.1686381366161,56.430448,56.4632564,22.87015821216,79.33341461216,41.0105,0,0.7852854582,7.273458238,20,5,8.341,79.33341461216,56.430448,0.4921268,1.71278220704,0,0,-6.71082,222.4, -1.3, -2.2,0,0,1024,1024,1684,1024,0,0,100,0,233,0,0,99,4.172,4.169,0,0,0,0,5.397,74.3,79.33341461216,56.430448,6,P-GPS,
14500,2022-08-24 20:09:23,-34.9180326077471,-56.1686382101471,57.4147,57.4475084,22.87015821216,80.31766661216,41.0105,0,0.76749346288,7.3101708376,20,5,8.341,80.31766661216,57.4147,0.4921268,1.71278220704,0,0,-6.71082,222.5, -1, -3.2,0,0,1024,1024,1684,1024,0,0,100,0,233,0,0,99,4.172,4.169,0,0,0,0,5.397,74.3,80.31766661216,57.4147,6,P-GPS,
14600,2022-08-24 20:09:23,-34.9180325460388,-56.1686382772452,58.398952,58.4317604,22.87015821216,81.30191861216,41.0105,0,0.75626314756,7.3403217572,20,5,8.341,81.30191861216,58.398952,0.4921268,1.71278220704,0,0,-6.71082,222.6, -1.3, -3.2,0,0,1024,1024,1684,1024,0,0,100,0,233,0,0,99,4.172,4.169,0,0,0,0,5.397,74.3,81.30191861216,58.398952,6,P-GPS,
14700,2022-08-24 20:09:23,-34.9180326379172,-56.1686384474195,59.383204,59.4160124,22.87015821216,82.28617061216,41.0105,0,0.81003611516,7.4012797644,20,5,8.341,82.28617061216,59.383204,0.4921268,1.71278220704,0,0,-6.71082,222.6, -1.3, -2.2,0,0,1024,1024,1684,1024,0,0,100,0,233,0,0,99,4.172,4.169,0,0,0,0,5.397,74.3,82.28617061216,59.383204,6,P-GPS,
14800,2022-08-24 20:09:23,-34.9180326770968,-56.1686385502556,60.69554,60.7939652,22.80454141216,83.59850661216,41.0105,0,0.83788388508,7.43520365,20,5,8.341,83.59850661216,60.69554,0.4921268,1.71278220704,0,0,-6.71082,222.6, -1.6, -2.1,0,0,1024,1024,1684,1024,0,0,100,0,233,0,0,99,4.172,4.169,0,0,0,0,5.397,74.3,83.59850661216,60.69554,6,P-GPS,
14900,2022-08-24 20:09:23,-34.9180326738,-56.1686386579938,61.679792,61.7782172,22.80454141216,84.58275861216,41.0105,0,0.85388454176,7.4674543072,20,5,8.341,84.58275861216,61.679792,0.4921268,1.71278220704,0,0,-6.71082,222.6, -0.8, -2.4,0,0,1024,1024,1684,1024,0,0,100,0,233,0,0,99,4.172,4.169,0,0,0,0,5.397,74.3,84.58275861216,61.679792,6,P-GPS,
15000,2022-08-24 20:09:23,-34.9180326884446,-56.1686387577174,62.664044,62.7624692,22.80454141216,85.56701061216,41.0105,0,0.87482614348,7.4977692688,20,5,8.341,85.56701061216,62.664044,0.4921268,1.71278220704,0,0,-6.71082,222.6, -0.2, -2.8,0,0,1024,1024,1684,1024,0,0,100,0,233,0,0,99,4.172,4.169,0,0,0,0,5.397,74.3,85.56701061216,62.664044,6,P-GPS,
15100,2022-08-24 20:09:24,-34.918032698326,-56.1686387819729,63.320212,63.4186372,22.80454141216,86.22317861216,41.0105,0,0.88189963452,7.5058729436,20,5,8.341,86.22317861216,63.320212,0.4921268,1.71278220704,0,0,-6.71082,222.6, 0, -2.4,0,0,1024,1024,1684,1024,0,0,100,0,233,0,0,99,4.172,4.169,0,0,0,0,5.397,74.3,86.22317861216,63.320212,6,P-GPS,
15200,2022-08-24 20:09:24,-34.9180325842226,-56.1686387520498,64.304464,64.4028892,22.80454141216,87.20743061216,41.0105,0,0.84268703484,7.5484582468,20,5,8.341,87.20743061216,64.304464,0.4921268,1.71278220704,0,0,-6.487126,222.6, 0, -2.4,0,0,1024,1024,1684,1024,0,0,100,0,233,0,0,99,4.172,4.169,0,0,0,0,5.397,74.3,87.20743061216,64.304464,6,P-GPS,
15300,2022-08-24 20:09:24,-34.9180325745643,-56.1686387559384,65.288716,65.3871412,22.80454141216,88.19168261216,41.0105,0,0.84050527624,7.552165596,20,5,8.341,88.19168261216,65.288716,0.4921268,1.71278220704,0,0,-6.487126,222.6, 0.3, -2,0,0,1024,1024,1684,1024,0,0,100,0,233,0,0,99,4.172,4.169,0,0,0,0,5.397,74.3,88.19168261216,65.288716,6,P-GPS,
15400,2022-08-24 20:09:24,-34.9180325686066,-56.1686387524782,66.272968,66.3713932,22.80454141216,89.17593461216,41.0105,0,0.83813650976,7.5545934176,20,5,8.332,89.17593461216,66.272968,0.4921268,1.71278220704,0,0,-6.71082,222.6, 0.2, -2,0,0,1024,1024,1684,1024,0,0,100,0,233,0,0,99,4.16,4.158,0,0,0,0,5.792,74.3,89.17593461216,66.272968,6,P-GPS,
15500,2022-08-24 20:09:24,-34.9180326059428,-56.1686387562012,67.25722,67.3556452,22.80454141216,90.16018661216,41.0105,0,0.84985895108,7.568241712,20,5,8.332,90.16018661216,67.25722,0.4921268,1.71278220704,0,0,-6.71082,222.6, 0, -2.5,0,0,1024,1024,1684,1024,0,0,100,0,233,0,0,99,4.16,4.158,0,0,0,0,5.792,74.3,90.16018661216,67.25722,6,P-GPS,
15600,2022-08-24 20:09:24,-34.9180325284744,-56.1686386993711,68.241472,68.3398972,22.80454141216,91.14443861216,41.0105,0,0.81697181092,7.601214154,20,5,8.332,91.14443861216,68.241472,0.4921268,1.71278220704,0,0,-6.487126,222.7, 0.2, -2.8,0,0,1024,1024,1684,1024,0,0,100,0,233,0,0,99,4.16,4.158,0,0,0,0,5.792,74.3,91.14443861216,68.241472,6,P-GPS,
15700,2022-08-24 20:09:24,-34.9180326187146,-56.1686387511944,69.225724,69.3241492,22.80454141216,92.12869061216,41.0105,0,0.85279858372,7.637631478,20,5,8.332,92.12869061216,69.225724,0.4921268,1.71278220704,0,0,-6.487126,222.6, 0.4, -2.1,0,0,1024,1024,1684,1024,0,0,100,0,233,0,0,99,4.16,4.158,0,0,0,0,5.792,74.3,92.12869061216,69.225724,6,P-GPS,
15800,2022-08-24 20:09:24,-34.918032713999,-56.1686387803848,69.881892,69.9803172,22.80454141216,92.78485861216,41.0105,0,0.88634845356,7.6734582508,20,5,8.332,92.78485861216,69.881892,0.4921268,1.71278220704,0,0,-6.487126,222.6, 0, -1.8,0,0,1024,1024,1684,1024,0,0,100,0,233,0,0,99,4.16,4.158,0,0,0,0,5.792,74.3,92.78485861216,69.881892,6,P-GPS,
15900,2022-08-24 20:09:24,-34.9180328520812,-56.1686387519812,70.866144,70.9645692,22.80454141216,93.76911061216,41.0105,0,0.92385829728,7.724573738,20,5,8.332,93.76911061216,70.866144,0.4921268,1.71278220704,0,0,-6.487126,222.5, 0, -2.6,0,0,1024,1024,1684,1024,0,0,100,0,233,0,0,99,4.16,4.158,0,0,0,0,5.792,74.3,93.76911061216,70.866144,6,P-GPS,
16000,2022-08-24 20:09:24,-34.9180331039128,-56.168638776511,71.850396,71.9488212,22.80454141216,94.75336261216,41.0105,0,1.0064960952,7.8167325336,20,5,8.332,94.75336261216,71.850396,0.4921268,1.71278220704,0,0,-6.487126,222.8, -0.4, -2.7,0,0,1024,1024,1684,1024,0,0,100,0,233,0,0,99,4.16,4.158,0,0,0,0,5.792,74.3,94.75336261216,71.850396,6,P-GPS,
16100,2022-08-24 20:09:25,-34.9180332228727,-56.1686387856816,72.834648,72.9330732,22.80454141216,95.73761461216,41.0105,0,1.04573822244,7.8602036636,20,5,8.332,95.73761461216,72.834648,0.4921268,1.71278220704,0,0,-6.487126,222.8, 0.5, -1.5,0,0,1024,1024,1684,1024,0,0,100,0,233,0,0,99,4.16,4.158,0,0,0,0,5.792,74.3,95.73761461216,72.834648,6,P-GPS,
16200,2022-08-24 20:09:25,-34.9180333417776,-56.1686388104141,73.8189,73.9173252,22.80454141216,96.72186661216,41.0105,0,1.08745738388,7.9042325364,20,5,8.332,96.72186661216,73.8189,0.4921268,1.71278220704,0,0,-6.487126,222.7, 1, -1.3,0,0,1024,1024,1684,1024,0,0,100,0,233,0,0,99,4.16,4.158,0,0,0,0,5.792,74.3,96.72186661216,73.8189,6,P-GPS,
16300,2022-08-24 20:09:25,-34.9180334325202,-56.1686388365662,74.803152,74.9015772,22.80454141216,97.70611861216,41.0105,0,1.12041342168,7.9382548472,20,5,8.332,97.70611861216,74.803152,0.4921268,1.71278220704,0,0,-6.71082,222.8, 1.3, -2,0,0,1024,1024,1684,1024,0,0,100,0,233,0,0,99,4.16,4.158,0,0,0,0,5.792,74.3,97.70611861216,74.803152,6,P-GPS,
16400,2022-08-24 20:09:25,-34.9180334632338,-56.1686389185477,75.787404,75.8858292,22.80454141216,98.69037061216,41.0105,0,1.1417815326,7.965223352,20,5,8.337,98.69037061216,75.787404,0.4921268,1.71278220704,0,0,-6.71082,222.8, 1.5, -1.4,0,0,1024,1024,1684,1024,0,0,100,0,233,0,0,98,4.162,4.157,0,0,0,0,5.739,74.48,98.69037061216,75.787404,6,P-GPS,
16500,2022-08-24 20:09:25,-34.918033540214,-56.168638949577,76.443572,76.5091888,22.83734981216,99.34653861216,41.0105,0,1.17092523432,7.9947837204,20,5,8.337,99.34653861216,76.443572,0.4921268,1.71278220704,0,0,-6.71082,222.8, 1.3, -1.6,0,0,1024,1024,1684,1024,0,0,100,0,233,0,0,98,4.162,4.157,0,0,0,0,5.739,74.48,99.34653861216,76.443572,6,P-GPS,
16600,2022-08-24 20:09:25,-34.9180336148705,-56.168638974029,77.427824,77.4934408,22.83734981216,100.33079061216,41.0105,0,1.1984252352,8.0229989444,20,5,8.337,100.33079061216,77.427824,0.4921268,1.71278220704,0,0,-6.487126,222.8, 1.6, -1.6,0,0,1024,1024,1684,1024,0,0,100,0,233,0,0,98,4.162,4.157,0,0,0,0,5.739,74.48,100.33079061216,77.427824,6,P-GPS,
16700,2022-08-24 20:09:25,-34.9180336804015,-56.1686390223049,78.412076,78.4776928,22.83734981216,101.31504261216,41.0105,0.223694,1.22630909436,8.0509188928,20,5,8.337,101.31504261216,78.412076,0.4921268,1.71278220704,-0.223694,0,-6.487126,222.7, 1.6, -1.2,0,0,1024,1024,1684,1024,0,0,100,0,233,0,0,98,4.162,4.157,0,0,0,0,5.739,74.48,101.31504261216,78.412076,6,P-GPS,
16800,2022-08-24 20:09:25,-34.9180337537409,-56.168639044999,79.396328,79.4619448,22.83734981216,102.29929461216,41.0105,0.223694,1.25316276976,8.0785435656,20,5,8.337,102.29929461216,79.396328,0.4921268,1.71278220704,-0.223694,0,-6.487126,222.7, 1.7, -0.1,0,0,1024,1024,1684,1024,0,0,100,0,233,0,0,98,4.162,4.157,0,0,0,0,5.739,74.48,102.29929461216,79.396328,6,P-GPS,
16900,2022-08-24 20:09:25,-34.9180338878421,-56.1686389690783,80.052496,80.1181128,22.83734981216,102.95546261216,41.0105,0.223694,1.28678481808,8.1324805752,20,5,8.337,102.95546261216,80.052496,0.4921268,1.71278220704,-0.223694,0,-6.487126,222.6, 1.4, 1.3,0,0,1024,1024,1684,1024,0,0,100,0,233,0,0,98,4.162,4.157,0,0,0,0,5.739,74.48,102.95546261216,80.052496,6,P-GPS,
