time(millisecond),datetime(utc),latitude,longitude,height_above_takeoff(feet),height_above_ground_at_drone_location(feet),ground_elevation_at_drone_location(feet),altitude_above_seaLevel(feet),height_sonar(feet),speed(mph),distance(feet),mileage(feet),satellites,gpslevel,voltage(v),max_altitude(feet),max_ascent(feet),max_speed(mph),max_distance(feet), xSpeed(mph), ySpeed(mph), zSpeed(mph), compass_heading(degrees), pitch(degrees), roll(degrees),isPhoto,isVideo,rc_elevator,rc_aileron,rc_throttle,rc_rudder,rc_elevator(percent),rc_aileron(percent),rc_throttle(percent),rc_rudder(percent),gimbal_heading(degrees),gimbal_pitch(degrees),gimbal_roll(degrees),battery_percent,voltageCell1,voltageCell2,voltageCell3,voltageCell4,voltageCell5,voltageCell6,current(A),battery_temperature(f),altitude(feet),ascent(feet),flycStateRaw,flycState,message
981200,2022-08-24 01:07:09,-34.9065300161313,-56.1631164377698,0,0,120.26291362532,119.08181122532,0,0,0,0,17,5,0,119.08181122532,0,0,0,0,0.223694,0,282, -6.4, -11,0,0,364,364,364,1684,-100,-100,-100,100,297.5,0,0,40,3.809,3.804,0,0,0,0,0,95.54,119.08181122532,0,41,Motors_Started,"En vuelo Aeronave en Zona de altitud restringida (150). Vuela con precaución (Code: 190001)"
981300,2022-08-24 01:07:09,-34.9065300502961,-56.1631164118993,0,0,120.26291362532,119.08181122532,0.328084,0.223694,0.014672900732,0.014672900732,17,5,7.612,119.08181122532,0,0.223694,0.014672900732,0,0.223694,0,281.9, -6.4, -10.9,0,0,364,364,364,1684,-100,-100,-100,100,297.4,0,0,40,3.809,3.804,0,0,0,0,0.622,95.54,119.08181122532,0,41,Motors_Started,
981400,2022-08-24 01:07:09,-34.9065300486774,-56.1631164570303,0,0,120.26291362532,119.08181122532,0.328084,0.223694,0.013198983362,0.0281893709808,17,5,7.612,119.08181122532,0,0.223694,0.014672900732,0,0.223694,0,281.4, -6.6, -10.2,0,0,364,364,364,1684,-100,-100,-100,100,297.1,0,0,40,3.809,3.804,0,0,0,0,0.622,95.54,119.08181122532,0,41,Motors_Started,
981500,2022-08-24 01:07:09,-34.9065300147846,-56.1631163766819,0,0,120.26291362532,119.08181122532,0.328084,0,0.0182845806376,0.055224083132,17,5,7.612,119.08181122532,0,0.223694,0.0182845806376,0,0,0,281.2, -6.6, -9.3,0,0,364,364,364,1684,-100,-100,-100,100,296.8,0,0,40,3.809,3.804,0,0,0,0,0.622,95.54,119.08181122532,0,41,Motors_Started,
981600,2022-08-24 01:07:10,-34.9065299697125,-56.1631163895075,0,0,120.26291362532,119.08181122532,0.328084,0,0.0222564967752,0.072110566612,17,5,7.612,119.08181122532,0,0.223694,0.0222564967752,0,0,0,280.9, -6.7, -8.4,0,0,364,364,364,1684,-100,-100,-100,100,296.6,0,0,40,3.809,3.804,0,0,0,0,0.622,95.54,119.08181122532,0,41,Motors_Started,
981700,2022-08-24 01:07:10,-34.9065299282914,-56.1631164044171,0,0,120.26291362532,119.08181122532,0.328084,0,0.03356627404,0.08786745688,17,5,7.612,119.08181122532,0,0.223694,0.03356627404,0,0,0,280.8, -7.1, -7.6,0,0,364,364,364,1684,-100,-100,-100,100,296.5,0,0,40,3.809,3.804,0,0,0,0,0.622,95.54,119.08181122532,0,41,Motors_Started,
981800,2022-08-24 01:07:10,-34.9065298753312,-56.1631164562625,0,0,120.26291362532,119.08181122532,0.328084,0,0.051667980656,0.112646657148,17,5,7.612,119.08181122532,0,0.223694,0.051667980656,0,0,0,279.8, -7, -6.5,0,0,364,364,364,1684,-100,-100,-100,100,296,0,0,40,3.809,3.804,0,0,0,0,0.622,95.54,119.08181122532,0,41,Motors_Started,
981900,2022-08-24 01:07:10,-34.9065298165623,-56.1631165154335,0,0.032808399999993,120.23010522532,119.08181122532,0.328084,0,0.076430776724,0.140453088484,17,5,7.612,119.08181122532,0,0.223694,0.076430776724,0,0,0,279.5, -7, -5.8,0,0,364,364,364,1684,-100,-100,-100,100,295.5,0,0,40,3.809,3.804,0,0,0,0,0.622,95.54,119.08181122532,0,41,Motors_Started,
982000,2022-08-24 01:07:10,-34.9065295603722,-56.1631168309432,0,0.032808399999993,120.23010522532,119.08181122532,0.328084,0,0.203689639064,0.273301517932,17,5,7.612,119.08181122532,0,0.223694,0.203689639064,0,0,0,279.1, -6.5, -5.8,0,0,364,364,364,1684,-100,-100,-100,100,295.2,0,0,40,3.809,3.804,0,0,0,0,0.622,95.54,119.08181122532,0,41,Motors_Started,"Setting new Return-To-Home altitude to 100m (328 ft). Data Recorder File Index is 6. Setting new Maximum Flight Altitude to 120m (394 ft)"
982100,2022-08-24 01:07:10,-34.9065294248173,-56.1631170385443,0,0,120.26291362532,119.08181122532,0.328084,0,12.9803481844,0.35270342336,17,5,7.612,119.08181122532,0,0.223694,12.9803481844,0,0,0,278.9, -6.3, -5.7,0,0,364,364,364,1684,-100,-100,-100,100,294.9,0,0,40,3.809,3.804,0,0,0,0,0.622,95.54,119.08181122532,0,41,Motors_Started,
982200,2022-08-24 01:07:10,-34.906529331229,-56.163117314316,0,0,120.26291362532,119.08181122532,0.328084,0,12.895997788,0.44200132648,17,5,7.612,119.08181122532,0,0.223694,12.9803481844,0,0,0,278.8, -6.1, -5.7,0,0,1024,1117,675,1024,0,14,-53,0,294.8,0,0,40,3.809,3.804,0,0,0,0,0.622,95.54,119.08181122532,0,41,Motors_Started,
982300,2022-08-24 01:07:10,-34.9065292379549,-56.163117610923,0,0.032808399999993,120.23010522532,119.08181122532,0.328084,0,12.8054794124,0.53705054212,17,5,7.591,119.08181122532,0,0.223694,12.9803481844,0,0,0,278.7, -6.1, -5.5,0,0,1024,1024,1024,1024,0,0,0,0,294.7,0,0,40,3.798,3.79,0,0,0,0,1.122,95.54,119.08181122532,0,10,Assisted_Takeoff,
982400,2022-08-24 01:07:10,-34.9065291392159,-56.1631184906032,-0.328084,-0.29527560000001,120.23010522532,118.75372722532,0.328084,0,12.5407156244,0.80270999944,17,5,7.591,119.08181122532,0,0.223694,12.9803481844,0,0,0,278.5, -6, -5.4,0,0,1024,1024,1024,1024,0,0,0,0,294.6,0,0,40,3.798,3.79,0,0,0,0,1.122,95.54,118.75372722532,-0.328084,10,Assisted_Takeoff,
982500,2022-08-24 01:07:10,-34.9065290626415,-56.1631187440875,-0.328084,-0.26246719999999,120.19729682532,118.75372722532,0.328084,0,12.4635502676,0.88353677368,17,5,7.591,119.08181122532,0,0.223694,12.9803481844,0,0,0,277.9, -6.1, -4.6,0,0,1024,1024,1024,1024,0,0,0,0,294.2,0,0,40,3.798,3.79,0,0,0,0,1.122,95.54,118.75372722532,-0.328084,10,Assisted_Takeoff,
982600,2022-08-24 01:07:11,-34.9065289990508,-56.1631190086946,-0.328084,-0.26246719999999,120.19729682532,118.75372722532,0.328084,0,12.3833009212,0.96604005716,17,5,7.591,119.08181122532,0,0.223694,12.9803481844,0,0,0,277.7, -6.2, -4.2,0,0,1024,1024,1024,1024,0,0,0,0,293.9,0,0,40,3.798,3.79,0,0,0,0,1.122,95.54,118.75372722532,-0.328084,10,Assisted_Takeoff,
982700,2022-08-24 01:07:11,-34.9065289286157,-56.1631192737822,-0.328084,-0.26246719999999,120.19729682532,118.75372722532,0.328084,0,12.302821916,1.04941604408,16,5,7.591,119.08181122532,0,0.223694,12.9803481844,0,0,0,276.6, -6.4, -3.4,0,0,1024,1024,1024,1024,0,0,0,0,293.3,0,0,40,3.798,3.79,0,0,0,0,1.122,95.54,118.75372722532,-0.328084,10,Assisted_Takeoff,
982800,2022-08-24 01:07:11,-34.9065289352484,-56.1631198980168,-0.328084,-0.2296588,120.16448842532,118.75372722532,0.328084,0,12.1164045872,1.23620738864,16,5,7.591,119.08181122532,0,0.223694,12.9803481844,0,0,0,276, -7.4, -2.8,0,0,1024,1024,1024,1024,0,0,0,0,292.5,0,0,40,3.798,3.79,0,0,0,0,1.122,95.54,118.75372722532,-0.328084,10,Assisted_Takeoff,
982900,2022-08-24 01:07:11,-34.9065288646504,-56.1631202465998,-0.328084,-0.2296588,120.16448842532,118.75372722532,0.328084,0,12.010991198,1.34363849444,15,5,7.591,119.08181122532,0,0.223694,12.9803481844,0,0,0,275.2, -9, -2.1,0,0,1024,1024,1024,1024,0,0,0,0,291.8,0,0,40,3.798,3.79,0,0,0,0,1.122,95.54,118.75372722532,-0.328084,10,Assisted_Takeoff,
983000,2022-08-24 01:07:11,-34.9065287337838,-56.1631205274641,-0.328084,-0.1968504,120.13168002532,118.75372722532,0.328084,0,11.924869148,1.44029204084,15,5,7.591,119.08181122532,0,0.223694,12.9803481844,0,0,-0.223694,274.6, -8.9, -1.7,0,0,1024,1024,1024,1024,0,0,0,0,291.2,0,0,40,3.798,3.79,0,0,0,0,1.122,95.54,118.75372722532,-0.328084,10,Assisted_Takeoff,
983100,2022-08-24 01:07:11,-34.9065285296648,-56.1631208621377,0,0.1312336,120.13168002532,119.08181122532,0.328084,0.223694,11.8218179636,1.56508535192,15,5,7.591,119.08181122532,0,0.223694,12.9803481844,0.223694,0,-0.671082,275.6, -6.4, -0.6,0,0,1024,1024,1024,1024,0,0,0,0,291.1,0,0,40,3.798,3.79,0,0,0,0,1.122,95.54,119.08181122532,0,6,P-GPS,
983200,2022-08-24 01:07:11,-34.9065282290329,-56.1631205624856,0,0.06561680000001,120.19729682532,119.08181122532,0.328084,0.223694,11.9078743968,1.70675530396,15,5,7.591,119.08181122532,0,0.223694,12.9803481844,0.223694,0,0,276.6, -5.3, 0.5,0,0,1024,1024,1024,1024,0,0,0,0,291.1,0,0,40,3.798,3.79,0,0,0,0,1.122,95.54,119.08181122532,0,6,P-GPS,
983300,2022-08-24 01:07:11,-34.9065280539556,-56.1631205962797,0,0.06561680000001,120.19729682532,119.08181122532,0.328084,0,11.896161798,1.77142722204,16,5,7.591,119.08181122532,0,0.223694,12.9803481844,0,0,0.447388,275.7, -6.2, -0.2,0,0,1024,1024,1024,1024,0,0,0,0,291.1,0,0,40,3.798,3.79,0,0,0,0,1.122,95.54,119.08181122532,0,6,P-GPS,
983400,2022-08-24 01:07:11,-34.9065279385397,-56.1631206719638,0,0.06561680000001,120.19729682532,119.08181122532,0.328084,0,11.8726381752,1.81923890336,16,5,7.598,119.08181122532,0,0.223694,12.9803481844,0,0,0.223694,275.9, -6.2, 0,0,0,1024,1024,1024,1024,0,0,0,0,291.2,0,0,40,3.795,3.785,0,0,0,0,1.367,95.54,119.08181122532,0,6,P-GPS,
983500,2022-08-24 01:07:11,-34.9065278358207,-56.1631207547723,0,0.06561680000001,120.19729682532,119.08181122532,0.328084,0,11.8472444736,1.86416344548,16,5,7.598,119.08181122532,0,0.223694,12.9803481844,0,0,0,275.3, -5.3, -0.2,0,0,1024,1024,1024,1024,0,0,0,0,291.1,0,0,40,3.795,3.785,0,0,0,0,1.367,95.54,119.08181122532,0,6,P-GPS,
983600,2022-08-24 01:07:12,-34.9065276465222,-56.1631208015043,0,0.06561680000001,120.19729682532,119.08181122532,0.328084,0,11.83234946,1.93463260784,16,5,7.598,119.08181122532,0,0.223694,12.9803481844,0,0,0,275.5, -5, -0.9,0,0,1024,1024,1024,1024,0,0,0,0,291.1,0,0,40,3.795,3.785,0,0,0,0,1.367,95.54,119.08181122532,0,6,P-GPS,
983700,2022-08-24 01:07:12,-34.9065272427967,-56.1631205763872,0,0.032808399999993,120.23010522532,119.08181122532,0.328084,0,11.8991473624,2.09660111696,16,5,7.598,119.08181122532,0,0.223694,12.9803481844,0,0,0,276, -4.4, 0,0,0,1024,1024,1024,1024,0,0,0,0,291.1,0,0,40,3.795,3.785,0,0,0,0,1.367,95.54,119.08181122532,0,6,P-GPS,
983800,2022-08-24 01:07:12,-34.9065270983212,-56.1631205766353,0,0.032808399999993,120.23010522532,119.08181122532,0.328084,0,11.8993442128,2.1493110924,16,5,7.598,119.08181122532,0,0.223694,12.9803481844,0,0,-0.223694,277.2, -2.7, 2,0,0,1024,1024,1024,1024,0,0,0,0,291.1,0,0,40,3.795,3.785,0,0,0,0,1.367,95.54,119.08181122532,0,6,P-GPS,
983900,2022-08-24 01:07:12,-34.9065269643263,-56.1631205642876,0,0.032808399999993,120.23010522532,119.08181122532,0.328084,0,11.9034780712,2.19833996536,16,5,7.598,119.08181122532,0,0.223694,12.9803481844,0,0,-0.447388,277.5, -1.1, 3.3,0,0,1024,1024,1024,1024,0,0,0,0,291.1,0,0,40,3.795,3.785,0,0,0,0,1.367,95.54,119.08181122532,0,6,P-GPS,
984000,2022-08-24 01:07:12,-34.9065268506723,-56.163120619596,0,0.032808399999993,120.23010522532,119.08181122532,0.328084,0,11.8874347636,2.24298563608,16,5,7.598,119.08181122532,0,0.223694,12.9803481844,0,0,-0.223694,278.8, -0.2, 3.5,0,0,1024,1024,1024,1024,0,0,0,0,291.2,0,0,40,3.795,3.785,0,0,0,0,1.367,95.54,119.08181122532,0,6,P-GPS,
984100,2022-08-24 01:07:12,-34.9065268678882,-56.1631206105051,0,0.032808399999993,120.23010522532,119.08181122532,0.328084,0,11.8900594356,2.24983274916,17,5,7.598,119.08181122532,0,0.223694,12.9803481844,0,0,0,279.7, 0.6, 2.4,0,0,1024,1024,1024,1024,0,0,0,0,291.2,0,0,40,3.795,3.785,0,0,0,0,1.367,95.54,119.08181122532,0,6,P-GPS,
984200,2022-08-24 01:07:12,-34.9065267236439,-56.1631207288392,0,0.032808399999993,120.23010522532,119.08181122532,0.328084,0,11.8555121904,2.31326122888,17,5,7.598,119.08181122532,0,0.223694,12.9803481844,0,0,0,280.7, 0.9, 0.8,0,0,1024,1024,1121,1024,0,0,15,0,291.1,0,0,40,3.795,3.785,0,0,0,0,1.367,95.54,119.08181122532,0,6,P-GPS,
984300,2022-08-24 01:07:12,-34.9065265732604,-56.1631208590665,0,0.032808399999993,120.23010522532,119.08181122532,0.328084,0,11.8177169136,2.38055781896,17,5,7.598,119.08181122532,0,0.223694,12.9803481844,0,0,0,280.9, 0.9, 0.2,0,0,1024,1024,1121,1024,0,0,15,0,291.1,0,0,40,3.795,3.785,0,0,0,0,1.367,95.54,119.08181122532,0,6,P-GPS,
984400,2022-08-24 01:07:12,-34.9065264978716,-56.1631210207845,0,-0.032808399999993,120.29572202532,119.08181122532,0.328084,0,11.7700135,2.43621398872,17,5,7.535,119.08181122532,0,0.223694,12.9803481844,0,0,0,280.5, 1.3, -0.6,0,0,1024,1024,1193,1159,0,0,26,20,291.1,0,0,40,3.732,3.716,0,0,0,0,2.738,95.36,119.08181122532,0,6,P-GPS,
984500,2022-08-24 01:07:12,-34.9065264846486,-56.1631214537352,0,-0.032808399999993,120.29572202532,119.08181122532,0.328084,0,11.6406171704,2.5658465388,17,5,7.535,119.08181122532,0,0.223694,12.9803481844,0,0,-0.223694,280.2, 3.6, -2.4,0,0,1024,1024,1316,1598,0,0,44,87,291.2,0,0,40,3.732,3.716,0,0,0,0,2.738,95.36,119.08181122532,0,6,P-GPS,
984600,2022-08-24 01:07:13,-34.9065264231162,-56.163121757827,0.328084,0.328084,120.26291362532,119.40989522532,0.656168,0,11.5502956452,2.6595637334,17,5,7.535,119.40989522532,0.328084,0.223694,12.9803481844,0,0,-1.11847,280.9, 9.2, -7.1,0,0,1024,1024,1305,1544,0,0,43,79,292.1,0,0,40,3.732,3.716,0,0,0,0,2.738,95.36,119.40989522532,0.328084,6,P-GPS,
984700,2022-08-24 01:07:13,-34.9065264920173,-56.1631219320859,0.656168,0.656168,120.26291362532,119.73797922532,0.656168,0.4921268,11.4974741212,2.71744759352,18,5,7.535,119.73797922532,0.656168,0.4921268,12.9803481844,-0.447388,0.223694,-2.460634,271.1, 3.5, -3.6,0,0,1024,1024,1024,1024,0,0,0,0,295.2,0,0,40,3.732,3.716,0,0,0,0,2.738,95.36,119.73797922532,0.656168,6,P-GPS,
984800,2022-08-24 01:07:13,-34.9065266743379,-56.1631220610753,0.984252,1.0498688,120.19729682532,120.06606322532,0.984252,0.4921268,11.457349448,2.79435048312,18,5,7.535,120.06606322532,0.984252,0.4921268,12.9803481844,-0.447388,0.223694,-2.908022,275.5, 1.6, 0,0,0,1024,1024,1024,1024,0,0,0,0,298.3,0,0,40,3.732,3.716,0,0,0,0,2.738,95.36,120.06606322532,0.984252,6,P-GPS,
984900,2022-08-24 01:07:13,-34.9065269013951,-56.1631227341285,1.64042,1.7388452,120.16448842532,120.72223122532,1.64042,0.4921268,11.2545607276,3.0121063956,17,5,7.535,120.72223122532,1.64042,0.4921268,12.9803481844,-0.447388,0.223694,-2.684328,278.4, -0.8, 1.4,0,0,1024,1024,1024,1024,0,0,0,0,299.8,0,0,40,3.732,3.716,0,0,0,0,2.738,95.36,120.72223122532,1.64042,6,P-GPS,
985000,2022-08-24 01:07:13,-34.9065270383765,-56.1631228811353,1.968504,2.0669292,120.16448842532,121.05031522532,1.968504,0.4921268,11.2100069204,3.07868448172,17,5,7.535,121.05031522532,1.968504,0.4921268,12.9803481844,-0.447388,0.223694,-2.23694,279.7, -0.5, 1.6,0,0,1024,1024,1024,1024,0,0,0,0,300.2,0,0,40,3.732,3.716,0,0,0,0,2.738,95.36,121.05031522532,1.968504,6,P-GPS,
985100,2022-08-24 01:07:13,-34.9065271470361,-56.1631230656969,2.296588,2.3950132,120.16448842532,121.37839922532,2.296588,0.4921268,11.1544951076,3.14666348652,17,5,7.535,121.37839922532,2.296588,0.4921268,12.9803481844,-0.447388,0.223694,-1.789552,280.2, -0.9, 2,0,0,1024,1024,1024,1024,0,0,0,0,300.2,0,0,40,3.732,3.716,0,0,0,0,2.738,95.36,121.37839922532,2.296588,6,P-GPS,
985200,2022-08-24 01:07:13,-34.9065272423734,-56.1631233351825,2.624672,2.7230972,120.16448842532,121.70648322532,2.624672,0.223694,11.0737208268,3.23447844996,17,5,7.535,121.70648322532,2.624672,0.4921268,12.9803481844,-0.223694,0,-1.11847,280.7, 0.1, 1.9,0,0,1024,1024,1024,1024,0,0,0,0,300.2,0,0,40,3.732,3.716,0,0,0,0,2.738,95.36,121.70648322532,2.624672,6,P-GPS,
985300,2022-08-24 01:07:13,-34.9065273231165,-56.1631236262007,2.624672,2.7559056,120.13168002532,121.70648322532,2.624672,0.223694,10.9865817164,3.3264108676,18,5,7.535,121.70648322532,2.624672,0.4921268,12.9803481844,-0.223694,0,-0.671082,281.1, -0.2, 2.3,0,0,1024,1024,1024,1024,0,0,0,0,300.2,0,0,40,3.732,3.716,0,0,0,0,2.738,95.36,121.70648322532,2.624672,6,P-GPS,
985400,2022-08-24 01:07:13,-34.9065274009871,-56.1631244168358,2.624672,2.7559056,120.13168002532,121.70648322532,4.265092,0.223694,10.7500659608,3.5646654684,18,5,7.332,121.70648322532,2.624672,0.4921268,12.9803481844,-0.223694,0,-0.223694,281.5, 1, 2.5,0,0,1024,1024,1024,1024,0,0,0,0,300.2,0,0,40,3.757,3.749,0,0,0,0,8.864,95.36,121.70648322532,2.624672,6,P-GPS,
985500,2022-08-24 01:07:13,-34.9065275210962,-56.1631246621144,2.624672,2.8215224,120.06606322532,121.70648322532,4.265092,0.3131716,10.6768704204,3.6501313504,18,5,7.332,121.70648322532,2.624672,0.4921268,12.9803481844,-0.223694,0.223694,0,281.6, 0.3, 2.2,0,0,1024,1024,1024,1024,0,0,0,0,300.2,0,0,40,3.757,3.749,0,0,0,0,8.864,95.36,121.70648322532,2.624672,6,P-GPS,
985600,2022-08-24 01:07:13,-34.9065275069629,-56.1631249023945,2.952756,3.1496064,120.06606322532,122.03456722532,4.265092,0,10.6049544076,3.7222114052,18,5,7.332,122.03456722532,2.952756,0.4921268,12.9803481844,0,0,0,281.9, 1, 1.5,0,0,1024,1024,1024,1024,0,0,0,0,300.2,0,0,40,3.757,3.749,0,0,0,0,8.864,95.36,122.03456722532,2.952756,6,P-GPS,
985700,2022-08-24 01:07:14,-34.9065274547322,-56.1631251403424,2.952756,3.0839896,120.13168002532,122.03456722532,4.265092,0.223694,10.5336617544,3.79593188,18,5,7.332,122.03456722532,2.952756,0.4921268,12.9803481844,0,0.223694,0,282.1, 0.2, 1.2,0,0,1024,1024,1024,1024,0,0,0,0,300.2,0,0,40,3.757,3.749,0,0,0,0,8.864,95.36,122.03456722532,2.952756,6,P-GPS,
985800,2022-08-24 01:07:14,-34.9065273869938,-56.1631254450819,2.952756,3.0839896,120.13168002532,122.03456722532,4.265092,0.223694,10.4423887856,3.8903872636,18,5,7.332,122.03456722532,2.952756,0.4921268,12.9803481844,0,0.223694,0,282.2, 0.5, 0.4,0,0,1024,1024,1024,1024,0,0,0,0,300.2,0,0,40,3.757,3.749,0,0,0,0,8.864,95.36,122.03456722532,2.952756,6,P-GPS,
985900,2022-08-24 01:07:14,-34.9065273115594,-56.1631255856355,2.952756,3.116798,120.09887162532,122.03456722532,4.265092,0.223694,10.4003284168,3.9406497324,18,5,7.332,122.03456722532,2.952756,0.4921268,12.9803481844,0,0.223694,0,282.4, 0.1, 0.2,0,0,1024,1024,1024,1024,0,0,0,0,300.2,0,0,40,3.757,3.749,0,0,0,0,8.864,95.36,122.03456722532,2.952756,6,P-GPS,
986000,2022-08-24 01:07:14,-34.9065271636511,-56.1631257267349,2.952756,3.116798,120.09887162532,122.03456722532,4.265092,0.223694,10.358268048,4.00918648,18,5,7.332,122.03456722532,2.952756,0.4921268,12.9803481844,0,0.223694,0,282.6, 1.3, 0,0,0,1024,1024,1024,1024,0,0,0,0,300.2,0,0,40,3.757,3.749,0,0,0,0,8.864,95.36,122.03456722532,2.952756,6,P-GPS,
986100,2022-08-24 01:07:14,-34.9065270032689,-56.1631258664815,2.952756,3.116798,120.09887162532,122.03456722532,4.265092,0.223694,10.316929464,4.0811024928,19,5,7.332,122.03456722532,2.952756,0.4921268,12.9803481844,0,0.223694,0,282.7, 0.8, 0,0,0,1024,1024,1024,1024,0,0,0,0,300.2,0,0,40,3.757,3.749,0,0,0,0,8.864,95.36,122.03456722532,2.952756,6,P-GPS,"Punto de origen actualizado. Altitud de RPO establecida en 100m (Code: 3000001)"
986200,2022-08-24 01:07:14,-34.9065266764109,-56.1631250833417,2.952756,3.0839896,120.13168002532,122.03456722532,4.265092,0.223694,10.5532483692,4.3440290104,19,5,7.332,122.03456722532,2.952756,0.4921268,12.9803481844,0,0.223694,0,282.8, 1.9, -0.3,0,0,1024,1024,1024,1024,0,0,0,0,300.2,0,0,40,3.757,3.749,0,0,0,0,8.864,95.36,122.03456722532,2.952756,6,P-GPS,
986300,2022-08-24 01:07:14,-34.9065265682382,-56.1631248105916,2.952756,3.0839896,120.13168002532,122.03456722532,3.937008,0.223694,10.6357943036,4.4346786196,19,5,7.332,122.03456722532,2.952756,0.4921268,12.9803481844,0,0.223694,0,282.9, 1.3, 0,0,0,1024,1024,1024,1024,0,0,0,0,300.2,0,0,40,3.757,3.749,0,0,0,0,8.864,95.36,122.03456722532,2.952756,6,P-GPS,
986400,2022-08-24 01:07:14,-34.9065265666929,-56.1631244695117,2.952756,3.0839896,120.13168002532,122.03456722532,3.937008,0.223694,10.7378284276,4.5367127436,19,5,7.495,122.03456722532,2.952756,0.4921268,12.9803481844,0,0.223694,0,283, 1.6, -0.2,0,0,1024,1024,1024,1024,0,0,0,0,300.2,0,0,40,3.751,3.74,0,0,0,0,3.908,95.36,122.03456722532,2.952756,6,P-GPS,
986500,2022-08-24 01:07:14,-34.9065265866104,-56.163124098469,2.952756,3.0839896,120.13168002532,122.03456722532,3.937008,0.223694,10.8486223944,4.647966028,19,5,7.495,122.03456722532,2.952756,0.4921268,12.9803481844,0,0.223694,0,283.1, 0.9, 0,0,0,1024,1024,1024,1024,0,0,0,0,300.2,0,0,40,3.751,3.74,0,0,0,0,3.908,95.36,122.03456722532,2.952756,6,P-GPS,
986600,2022-08-24 01:07:15,-34.9065269429383,-56.1631231896172,2.952756,3.0511812,120.16448842532,122.03456722532,3.937008,0.223694,11.1180777836,4.9493767988,19,5,7.495,122.03456722532,2.952756,0.4921268,12.9803481844,0,0.223694,0,283.2, 1.4, 0,0,0,1024,1024,1024,1024,0,0,0,0,300.2,0,0,40,3.751,3.74,0,0,0,0,3.908,95.36,122.03456722532,2.952756,6,P-GPS,
986700,2022-08-24 01:07:15,-34.9065270205321,-56.1631228865021,2.952756,3.0511812,120.16448842532,122.03456722532,3.937008,0.223694,11.2084649256,5.0443899252,19,5,7.495,122.03456722532,2.952756,0.4921268,12.9803481844,0,0.223694,0,283.2, 0.9, 0,0,0,1024,1024,1474,1024,0,0,68,0,300.2,0,0,40,3.751,3.74,0,0,0,0,3.908,95.36,122.03456722532,2.952756,6,P-GPS,
986800,2022-08-24 01:07:15,-34.9065270506013,-56.1631225744345,2.952756,3.0511812,120.16448842532,122.03456722532,3.608924,0.223694,11.3017392068,5.1384187996,19,5,7.495,122.03456722532,2.952756,0.4921268,12.9803481844,0,0.223694,0,283.3, 0.2, 0.3,0,0,1024,1024,1325,1024,0,0,46,0,300.2,0,0,40,3.751,3.74,0,0,0,0,3.908,95.36,122.03456722532,2.952756,6,P-GPS,
986900,2022-08-24 01:07:15,-34.9065270686477,-56.1631222481728,2.952756,3.0183728,120.19729682532,122.03456722532,3.608924,0.223694,11.39927858,5.2362534484,18,5,7.495,122.03456722532,2.952756,0.4921268,12.9803481844,0,0.223694,-0.447388,283.3, 0, 0.4,0,0,1024,1024,1024,1024,0,0,0,0,300.2,0,0,40,3.751,3.74,0,0,0,0,3.908,95.36,122.03456722532,2.952756,6,P-GPS,
987000,2022-08-24 01:07:15,-34.9065270389986,-56.1631219848219,2.952756,3.0183728,120.19729682532,122.03456722532,3.937008,0.223694,11.478182782,5.31578101,18,5,7.495,122.03456722532,2.952756,0.4921268,12.9803481844,0,0.223694,-0.671082,283.3, -0.4, 0,0,0,1024,1024,1024,1024,0,0,0,0,300.2,0,0,40,3.751,3.74,0,0,0,0,3.908,95.36,122.03456722532,2.952756,6,P-GPS,
987100,2022-08-24 01:07:15,-34.9065269001558,-56.1631215961247,3.28084,3.3464568,120.19729682532,122.36265122532,3.937008,0.223694,11.5950463028,5.4426510928,18,5,7.495,122.36265122532,3.28084,0.4921268,12.9803481844,0,0.223694,-0.447388,283.4, -0.1, -0.1,0,0,1024,1024,1024,1024,0,0,0,0,300.2,0,0,40,3.751,3.74,0,0,0,0,3.908,95.36,122.36265122532,3.28084,6,P-GPS,
987200,2022-08-24 01:07:15,-34.9065268323507,-56.1631214539127,3.28084,3.3136484,120.23010522532,122.36265122532,3.937008,0.223694,11.6379268816,5.4918636928,18,5,7.495,122.36265122532,3.28084,0.4921268,12.9803481844,0,0.223694,-0.223694,283.4, -0.2, -0.2,0,0,1060,1024,1024,1024,5,0,0,0,300.2,0,0,40,3.751,3.74,0,0,0,0,3.908,95.36,122.36265122532,3.28084,6,P-GPS,
987300,2022-08-24 01:07:15,-34.9065267627543,-56.1631213277595,3.28084,3.3136484,120.23010522532,122.36265122532,4.265092,0.223694,11.6760830508,5.5373689436,18,5,7.495,122.36265122532,3.28084,0.4921268,12.9803481844,0,0.223694,-0.223694,283.4, -0.3, -0.1,0,0,1060,1024,1024,1024,5,0,0,0,300.2,0,0,40,3.751,3.74,0,0,0,0,3.908,95.36,122.36265122532,3.28084,6,P-GPS,
987400,2022-08-24 01:07:15,-34.9065267376062,-56.1631212243742,3.608924,3.6417324,120.23010522532,122.69073522532,4.265092,0.223694,11.707185414,5.5696196008,18,5,7.484,122.69073522532,3.608924,0.4921268,12.9803481844,0,0.223694,0,283.5, -0.3, 0,0,0,1572,1024,1024,1024,83,0,0,0,300.2,0,0,40,3.742,3.732,0,0,0,0,4.521,95.36,122.69073522532,3.608924,6,P-GPS,
987500,2022-08-24 01:07:15,-34.9065266566188,-56.1631213855463,3.608924,3.6417324,120.23010522532,122.69073522532,4.265092,0,11.6595476172,5.6261812824,18,5,7.484,122.69073522532,3.608924,0.4921268,12.9803481844,0,0,0,283.5, -4.2, 0.1,0,0,1684,1024,1024,1024,100,0,0,0,300.2,0,0,40,3.742,3.732,0,0,0,0,4.521,95.36,122.69073522532,3.608924,6,P-GPS,
987600,2022-08-24 01:07:16,-34.9065266520999,-56.1631214438137,3.608924,3.6417324,120.23010522532,122.69073522532,4.265092,0,11.6421591652,5.643700968,18,5,7.484,122.69073522532,3.608924,0.4921268,12.9803481844,0,0,0,283.6, -13.1, 0.2,0,0,1684,1024,1024,1024,100,0,0,0,300.2,0,0,40,3.742,3.732,0,0,0,0,4.521,95.36,122.69073522532,3.608924,6,P-GPS,
987700,2022-08-24 01:07:16,-34.9065266100958,-56.1631217113536,3.608924,3.6745408,120.19729682532,122.69073522532,4.265092,0.447388,11.5624675616,5.7251970336,17,5,7.484,122.69073522532,3.608924,0.4921268,12.9803481844,0,-0.447388,0,283.6, -17, 0.2,0,0,1684,1024,1024,1024,100,0,0,0,300.2,0,0,40,3.742,3.732,0,0,0,0,4.521,95.36,122.69073522532,3.608924,6,P-GPS,
987800,2022-08-24 01:07:16,-34.9065265609738,-56.1631223464785,3.608924,3.6745408,120.19729682532,122.69073522532,4.265092,1.1408394,11.3729006264,5.9160763048,17,5,7.484,122.69073522532,3.608924,1.1408394,12.9803481844,0.223694,-1.11847,0,283.6, -17.1, 0.3,0,0,1607,1024,1024,1024,88,0,0,0,300.2,0,0,40,3.742,3.732,0,0,0,0,4.521,95.36,122.69073522532,3.608924,6,P-GPS,
987900,2022-08-24 01:07:16,-34.9065266283523,-56.1631237588437,3.608924,3.7401576,120.13168002532,122.69073522532,4.593176,1.8119214,10.9498363084,6.3393702816,17,5,7.484,122.69073522532,3.608924,1.8119214,12.9803481844,0.223694,-1.789552,0,283.7, -16.5, 0.5,0,0,1024,1024,1024,1024,0,0,0,0,300.2,0,0,40,3.742,3.732,0,0,0,0,4.521,95.36,122.69073522532,3.608924,6,P-GPS,
988000,2022-08-24 01:07:16,-34.9065264217727,-56.163124939803,3.608924,3.7073492,120.16448842532,122.69073522532,4.265092,2.5053728,10.5986551948,6.7006891908,17,5,7.484,122.69073522532,3.608924,2.5053728,12.9803481844,0.447388,-2.460634,0,283.7, -13.1, 0.3,0,0,1024,1024,1024,1024,0,0,0,0,300.2,0,0,40,3.742,3.732,0,0,0,0,4.521,95.36,122.69073522532,3.608924,6,P-GPS,
988100,2022-08-24 01:07:16,-34.9065261460593,-56.1631263860406,3.608924,3.7401576,120.13168002532,122.69073522532,4.593176,2.7738056,10.1698822152,7.1449477352,17,5,7.484,122.69073522532,3.608924,2.7738056,12.9803481844,0.671082,-2.684328,0,283.6, 3.7, 0,0,0,1024,1024,1024,1024,0,0,0,0,300.2,0,0,40,3.742,3.732,0,0,0,0,4.521,95.36,122.69073522532,3.608924,6,P-GPS,
988200,2022-08-24 01:07:16,-34.9065259337558,-56.163127887255,3.937008,4.1338584,120.06606322532,123.01881922532,4.593176,2.5053728,9.7248690776,7.6007548364,17,5,7.484,123.01881922532,3.937008,2.7738056,12.9803481844,0.447388,-2.460634,0,283.6, 11.4, 0.1,0,0,1024,1024,1024,1024,0,0,0,0,300.2,0,0,40,3.742,3.732,0,0,0,0,4.521,95.36,123.01881922532,3.937008,6,P-GPS,
988300,2022-08-24 01:07:16,-34.9065258523384,-56.1631296321053,3.937008,4.1994752,120.00044642532,123.01881922532,4.593176,2.0579848,9.20521683,8.123687924,17,5,7.484,123.01881922532,3.937008,2.7738056,12.9803481844,0.447388,-2.013246,0,283.6, 11.9, 0,0,0,1024,1024,1024,1024,0,0,0,0,300.2,0,0,40,3.742,3.732,0,0,0,0,4.521,95.36,123.01881922532,3.937008,6,P-GPS,
988400,2022-08-24 01:07:16,-34.9065256989586,-56.1631307955538,3.937008,4.2322836,119.96763802532,123.01881922532,4.92126,1.5882274,8.8612863728,8.4762469904,17,5,7.484,123.01881922532,3.937008,2.7738056,12.9803481844,0.223694,-1.565858,0,283.7, 10.2, 0,0,0,1024,1024,1024,1024,0,0,0,0,300.2,0,0,40,3.742,3.732,0,0,0,0,4.521,95.36,123.01881922532,3.937008,6,P-GPS,
988500,2022-08-24 01:07:16,-34.9065255724464,-56.1631318231784,3.937008,4.2322836,119.96763802532,123.01881922532,4.92126,1.1408394,8.5578414812,8.7871721972,17,5,7.48,123.01881922532,3.937008,2.7738056,12.9803481844,0.223694,-1.11847,0,283.7, 8.2, -0.1,0,0,1024,1024,1024,1024,0,0,0,0,300.2,0,0,40,3.736,3.733,0,0,0,0,4.533,95.36,123.01881922532,3.937008,6,P-GPS,
988600,2022-08-24 01:07:17,-34.9065254021404,-56.1631327706831,3.937008,4.2322836,119.96763802532,123.01881922532,4.92126,0.9171454,8.280183992,9.0773953036,17,5,7.48,123.01881922532,3.937008,2.7738056,12.9803481844,0.223694,-0.894776,0,283.8, 6.3, -0.1,0,0,1084,1024,1024,1024,9,0,0,0,300.2,0,0,40,3.736,3.733,0,0,0,0,4.533,95.36,123.01881922532,3.937008,6,P-GPS,
988700,2022-08-24 01:07:17,-34.906525243758,-56.1631336526275,3.937008,4.265092,119.93482962532,123.01881922532,4.92126,0.671082,8.0225396268,9.3475396692,18,5,7.48,123.01881922532,3.937008,2.7738056,12.9803481844,0,-0.671082,0,283.7, 5.1, 0,0,0,1574,1024,1024,1024,83,0,0,0,300.2,0,0,40,3.736,3.733,0,0,0,0,4.533,95.36,123.01881922532,3.937008,6,P-GPS,
988800,2022-08-24 01:07:17,-34.9065251875034,-56.1631348895716,3.937008,4.2979004,119.90202122532,123.01881922532,4.92126,0.447388,7.6562338408,9.7182089724,18,5,7.48,123.01881922532,3.937008,2.7738056,12.9803481844,0,-0.447388,0,283.5, 1.2, 0.2,0,0,1574,1024,1024,1024,83,0,0,0,300.2,0,0,40,3.736,3.733,0,0,0,0,4.533,95.36,123.01881922532,3.937008,6,P-GPS,
988900,2022-08-24 01:07:17,-34.9065252118144,-56.1631353767286,3.937008,4.2979004,119.90202122532,123.01881922532,4.92126,0.671082,7.510334886,9.8642391608,19,5,7.48,123.01881922532,3.937008,2.7738056,12.9803481844,0,-0.671082,0,283.6, -8, 0,0,0,1031,1024,1024,1024,1,0,0,0,300.2,0,0,40,3.736,3.733,0,0,0,0,4.533,95.36,123.01881922532,3.937008,6,P-GPS,
989000,2022-08-24 01:07:17,-34.9065252356011,-56.163135540293,3.937008,4.3307088,119.86921282532,123.01881922532,4.92126,0.894776,7.4607613936,9.9139438868,19,5,7.48,123.01881922532,3.937008,2.7738056,12.9803481844,0,-0.894776,0,283.5, -11.8, 0,0,0,1024,1024,1024,1024,0,0,0,0,300.2,0,0,40,3.736,3.733,0,0,0,0,4.533,95.36,123.01881922532,3.937008,6,P-GPS,
989100,2022-08-24 01:07:17,-34.9065252300953,-56.1631358392047,3.937008,4.3307088,119.86921282532,123.01881922532,4.92126,1.3645334,7.3720146716,10.0034123936,19,5,7.48,123.01881922532,3.937008,2.7738056,12.9803481844,0.223694,-1.342164,0,283.5, -3.9, 0,0,0,1024,1024,1024,1024,0,0,0,0,300.2,0,0,40,3.736,3.733,0,0,0,0,4.533,95.36,123.01881922532,3.937008,6,P-GPS,
989200,2022-08-24 01:07:17,-34.9065255516707,-56.1631348361893,3.937008,4.3307088,119.86921282532,123.01881922532,4.92126,1.3645334,7.659777148,10.32562369,19,5,7.48,123.01881922532,3.937008,2.7738056,12.9803481844,0.223694,-1.342164,0,283.7, 6.1, 0.3,0,0,1024,1024,1024,1491,0,0,0,71,300.2,0,0,40,3.736,3.733,0,0,0,0,4.533,95.36,123.01881922532,3.937008,6,P-GPS,
989300,2022-08-24 01:07:17,-34.9065255555431,-56.1631352761939,3.937008,4.3307088,119.86921282532,123.01881922532,4.92126,1.1408394,7.5284779312,10.4572837992,19,5,7.48,123.01881922532,3.937008,2.7738056,12.9803481844,0.223694,-1.11847,0,283.8, 7, 0.3,0,0,1024,1024,1024,1684,0,0,0,100,300.9,0,0,40,3.736,3.733,0,0,0,0,4.533,95.36,123.01881922532,3.937008,6,P-GPS,
989400,2022-08-24 01:07:17,-34.9065256413165,-56.1631355359421,3.937008,4.3635172,119.83640442532,123.01881922532,4.92126,0.894776,7.4484254352,10.5410764528,19,5,7.48,123.01881922532,3.937008,2.7738056,12.9803481844,0,-0.894776,0,285.6, 6.2, 0.4,0,0,1024,1024,1024,1684,0,0,0,100,304.3,0,0,40,3.736,3.733,0,0,0,0,4.533,95.36,123.01881922532,3.937008,6,P-GPS,
989500,2022-08-24 01:07:17,-34.9065257592094,-56.1631356963608,3.937008,4.3635172,119.83640442532,123.01881922532,4.92126,0.671082,7.397145906,10.6055449588,19,5,7.476,123.01881922532,3.937008,2.7738056,12.9803481844,0,-0.671082,0,289.6, 5.1, 0.7,0,0,1024,1024,1024,1142,0,0,0,18,308.9,0,0,40,3.743,3.722,0,0,0,0,4.56,95.36,123.01881922532,3.937008,6,P-GPS,
989600,2022-08-24 01:07:18,-34.9065259330702,-56.1631360716866,3.937008,4.3635172,119.83640442532,123.01881922532,4.92126,0.447388,7.2804792356,10.7345147792,19,5,7.476,123.01881922532,3.937008,2.7738056,12.9803481844,0,-0.447388,0,293.9, 4.1, 1.1,0,0,1024,1024,1024,1667,0,0,0,97,312.2,0,0,40,3.743,3.722,0,0,0,0,4.56,95.36,123.01881922532,3.937008,6,P-GPS,
989700,2022-08-24 01:07:18,-34.9065259743643,-56.1631363686971,3.937008,4.3635172,119.83640442532,123.01881922532,4.92126,0.223694,7.19078107,10.824639454,19,5,7.476,123.01881922532,3.937008,2.7738056,12.9803481844,0,-0.223694,0,296.1, 3.3, 1.1,0,0,1024,1024,1024,1684,0,0,0,100,313.6,0,0,40,3.743,3.722,0,0,0,0,4.56,95.36,123.01881922532,3.937008,6,P-GPS,
989800,2022-08-24 01:07:18,-34.9065260029744,-56.1631367031043,3.937008,4.3963256,119.80359602532,123.01881922532,4.92126,0.223694,7.0902561324,10.9252300084,19,5,7.476,123.01881922532,3.937008,2.7738056,12.9803481844,0,-0.223694,0,298, 2.7, 0.6,0,0,1024,1024,1024,1608,0,0,0,88,316.8,0,0,40,3.743,3.722,0,0,0,0,4.56,95.36,123.01881922532,3.937008,6,P-GPS,
989900,2022-08-24 01:07:18,-34.9065260437653,-56.1631370128973,3.937008,4.3963256,119.80359602532,123.01881922532,4.92126,0.223694,6.9967521924,11.0191276492,19,5,7.476,123.01881922532,3.937008,2.7738056,12.9803481844,0,-0.223694,0,302, 2.1, 0.7,0,0,1024,1024,1024,1684,0,0,0,100,321.4,0,0,40,3.743,3.722,0,0,0,0,4.56,95.36,123.01881922532,3.937008,6,P-GPS,
990000,2022-08-24 01:07:18,-34.9065261808282,-56.1631376334143,3.937008,4.429134,119.77078762532,123.01881922532,4.92126,0.223694,6.8083007428,11.2114176816,19,5,7.476,123.01881922532,3.937008,2.7738056,12.9803481844,0,-0.223694,0,306.5, 1.5, 1.1,0,0,1024,1024,1024,1684,0,0,0,100,325.9,0,0,40,3.743,3.722,0,0,0,0,4.56,95.36,123.01881922532,3.937008,6,P-GPS,
990100,2022-08-24 01:07:18,-34.9065263053276,-56.1631377569324,3.937008,4.429134,119.77078762532,123.01881922532,4.92126,0,6.7687666208,11.2699806756,19,5,7.476,123.01881922532,3.937008,2.7738056,12.9803481844,0,0,0,311, 1.7, 1.2,0,0,1024,1024,1024,1684,0,0,0,100,330.5,0,0,40,3.743,3.722,0,0,0,0,4.56,95.36,123.01881922532,3.937008,6,P-GPS,
990200,2022-08-24 01:07:18,-34.9065263769189,-56.1631380045001,3.937008,4.429134,119.77078762532,123.01881922532,4.92126,0,6.693405726,11.3485239852,19,5,7.476,123.01881922532,3.937008,2.7738056,12.9803481844,0,0,0,315.6, 1.5, 1.2,0,0,1024,1024,1024,1684,0,0,0,100,335.3,0,0,40,3.743,3.722,0,0,0,0,4.56,95.36,123.01881922532,3.937008,6,P-GPS,
990300,2022-08-24 01:07:18,-34.9065264505408,-56.1631382545841,3.937008,4.429134,119.77078762532,123.01881922532,4.92126,0,6.6173230464,11.4280187384,20,5,7.476,123.01881922532,3.937008,2.7738056,12.9803481844,0,0,0,320.4, 1, 1.1,0,0,1024,1024,1024,1684,0,0,0,100,340.1,0,0,40,3.743,3.722,0,0,0,0,4.56,95.36,123.01881922532,3.937008,6,P-GPS,
990400,2022-08-24 01:07:18,-34.9065265233714,-56.1631385033545,3.937008,4.4947508,119.70517082532,123.01881922532,4.92126,0,6.5417324928,11.507054174,20,5,7.476,123.01881922532,3.937008,2.7738056,12.9803481844,0,0,0,325.2, 0.6, 1.1,0,0,1024,1024,1024,1684,0,0,0,100,344.9,0,0,40,3.743,3.722,0,0,0,0,4.56,95.36,123.01881922532,3.937008,6,P-GPS,
990500,2022-08-24 01:07:18,-34.9065265379459,-56.163139263033,3.608924,4.1666668,119.70517082532,122.69073522532,4.92126,0,6.3144358976,11.734416386,20,5,7.472,123.01881922532,3.937008,2.7738056,12.9803481844,0,0,0,330, 0.5, 0.7,0,0,1024,1024,1024,1300,0,0,0,42,349.7,0,0,40,3.741,3.728,0,0,0,0,4.538,95.36,122.69073522532,3.608924,6,P-GPS,
990600,2022-08-24 01:07:19,-34.9065266096186,-56.1631394531404,3.608924,4.1666668,119.70517082532,122.69073522532,4.92126,0,6.2564634548,11.7970148132,20,5,7.472,123.01881922532,3.937008,2.7738056,12.9803481844,0,0,0,334.7, 0.3, 0.6,0,0,1024,1024,1024,1142,0,0,0,18,353.7,0,0,40,3.741,3.728,0,0,0,0,4.538,95.36,122.69073522532,3.608924,6,P-GPS,
990700,2022-08-24 01:07:19,-34.906526686149,-56.1631396391044,3.608924,4.1994752,119.67236242532,122.69073522532,4.92126,0,6.1997705396,11.8592851564,20,5,7.472,123.01881922532,3.937008,2.7738056,12.9803481844,0,0,0,337.7, 0.2, 0.6,0,0,1024,1024,1024,1058,0,0,0,5,355.3,0,0,40,3.741,3.728,0,0,0,0,4.538,95.36,122.69073522532,3.608924,6,P-GPS,
990800,2022-08-24 01:07:19,-34.9065267921819,-56.1631397550045,3.608924,4.1994752,119.67236242532,122.69073522532,4.92126,0,6.1637797248,11.9112208536,20,5,7.472,123.01881922532,3.937008,2.7738056,12.9803481844,0,0,0,338.7, 0, 0.2,0,0,1024,1024,1024,1512,0,0,0,74,355.7,0,0,40,3.741,3.728,0,0,0,0,4.538,95.36,122.69073522532,3.608924,6,P-GPS,
990900,2022-08-24 01:07:19,-34.9065269259015,-56.1631399867237,3.608924,4.1994752,119.67236242532,122.69073522532,4.92126,0,6.0931104312,11.9959977592,21,5,7.472,123.01881922532,3.937008,2.7738056,12.9803481844,0,0,0,339, 0, 0.1,0,0,1024,1024,1024,1512,0,0,0,74,355.8,0,0,40,3.741,3.728,0,0,0,0,4.538,95.36,122.69073522532,3.608924,6,P-GPS,
991000,2022-08-24 01:07:19,-34.9065270425958,-56.1631401187544,3.608924,4.1994752,119.67236242532,122.69073522532,4.92126,0,6.0527560992,12.0540686272,21,5,7.472,123.01881922532,3.937008,2.7738056,12.9803481844,0,0,0,339.4, 0, 0.3,0,0,1024,1024,1024,1684,0,0,0,100,357,0,0,40,3.741,3.728,0,0,0,0,4.538,95.36,122.69073522532,3.608924,6,P-GPS,
991100,2022-08-24 01:07:19,-34.9065271672679,-56.1631402683715,3.608924,4.1994752,119.67236242532,122.69073522532,4.92126,0,6.007382082,12.1179137736,21,5,7.472,123.01881922532,3.937008,2.7738056,12.9803481844,0,0,0,341.8, 0, 0.3,0,0,1024,1024,1024,1684,0,0,0,100,0.9,0,0,40,3.741,3.728,0,0,0,0,4.538,95.36,122.69073522532,3.608924,6,P-GPS,
991200,2022-08-24 01:07:19,-34.9065271998237,-56.1631403606954,3.608924,4.1994752,119.67236242532,122.69073522532,4.92126,0,5.979658984,12.147966268,21,5,7.472,123.01881922532,3.937008,2.7738056,12.9803481844,0,0,0,346.3, 0, 0.9,0,0,1024,1024,1024,1684,0,0,0,100,5.6,0,0,40,3.741,3.728,0,0,0,0,4.538,95.36,122.69073522532,3.608924,6,P-GPS,
991300,2022-08-24 01:07:19,-34.9065271102316,-56.1631403501145,3.608924,4.1994752,119.67236242532,122.69073522532,4.92126,0,5.9831694828,12.1808074764,20,5,7.472,123.01881922532,3.937008,2.7738056,12.9803481844,0,0,0,350.9, -0.1, 1,0,0,1024,1024,1024,1684,0,0,0,100,10.4,0,0,40,3.741,3.728,0,0,0,0,4.538,95.36,122.69073522532,3.608924,6,P-GPS,
991400,2022-08-24 01:07:19,-34.9065271291248,-56.1631403506251,3.608924,4.1994752,119.67236242532,122.69073522532,4.92126,0,5.982939824,12.1876972404,20,5,7.472,123.01881922532,3.937008,2.7738056,12.9803481844,0,0,0,355.7, -0.3, 0.8,0,0,1024,1024,1024,1343,0,0,0,48,15.2,0,0,40,3.741,3.728,0,0,0,0,4.538,95.36,122.69073522532,3.608924,6,P-GPS,
991500,2022-08-24 01:07:19,-34.9065271471485,-56.1631403389056,3.608924,4.1994752,119.67236242532,122.69073522532,4.92126,0,5.9863518976,12.1951447472,19,5,7.468,123.01881922532,3.937008,2.7738056,12.9803481844,0,0,0,0.3, -0.3, 0.6,0,0,1024,1024,1024,1024,0,0,0,0,19.7,0,0,40,3.739,3.727,0,0,0,0,4.501,95.36,122.69073522532,3.608924,6,P-GPS,
991600,2022-08-24 01:07:19,-34.9065271232445,-56.1631403419703,3.608924,4.1994752,119.67236242532,122.69073522532,4.92126,0,5.9855316876,12.2039373984,19,5,7.468,123.01881922532,3.937008,2.7738056,12.9803481844,0,0,0,4.2, -0.3, 0.6,0,0,1024,1024,1024,1024,0,0,0,0,21.9,0,0,40,3.739,3.727,0,0,0,0,4.501,95.36,122.69073522532,3.608924,6,P-GPS,
991700,2022-08-24 01:07:20,-34.9065268976171,-56.163140087726,3.608924,4.1994752,119.67236242532,122.69073522532,4.92126,0,6.063156362,12.3160108928,19,5,7.468,123.01881922532,3.937008,2.7738056,12.9803481844,0,0,0,5.5, -0.3, 0.6,0,0,1024,1024,1024,1024,0,0,0,0,22.7,0,0,40,3.739,3.727,0,0,0,0,4.501,95.36,122.69073522532,3.608924,6,P-GPS,
991800,2022-08-24 01:07:20,-34.9065269019781,-56.1631401109065,3.608924,4.1994752,119.67236242532,122.69073522532,4.92126,0,6.0561681728,12.3231303156,19,5,7.468,123.01881922532,3.937008,2.7738056,12.9803481844,0,0,0,6.2, -0.5, 0.6,0,0,1024,1024,1024,1024,0,0,0,0,22.9,0,0,40,3.739,3.727,0,0,0,0,4.501,95.36,122.69073522532,3.608924,6,P-GPS,
991900,2022-08-24 01:07:20,-34.9065269089299,-56.1631401358904,3.608924,4.1994752,119.67236242532,122.69073522532,4.92126,0,6.0486550492,12.33103714,19,5,7.468,123.01881922532,3.937008,2.7738056,12.9803481844,0,0,0,6.3, -0.5, 0.4,0,0,1024,1024,1024,1024,0,0,0,0,22.9,0,0,40,3.739,3.727,0,0,0,0,4.501,95.36,122.69073522532,3.608924,6,P-GPS,
992000,2022-08-24 01:07:20,-34.9065268904878,-56.1631401350286,3.608924,4.1994752,119.67236242532,122.69073522532,4.92126,0,6.0490815584,12.337762862,19,5,7.468,123.01881922532,3.937008,2.7738056,12.9803481844,0,0,0,6.4, -0.5, 0.3,0,0,1182,1024,1024,1024,24,0,0,0,22.9,0,0,40,3.739,3.727,0,0,0,0,4.501,95.36,122.69073522532,3.608924,6,P-GPS,
992100,2022-08-24 01:07:20,-34.9065268648365,-56.1631401325919,3.608924,4.1994752,119.67236242532,122.69073522532,4.92126,0,6.0500658104,12.3471460644,19,5,7.468,123.01881922532,3.937008,2.7738056,12.9803481844,0,0,0,6.4, -0.7, 0.4,0,0,1533,1024,1024,1024,77,0,0,0,22.9,0,0,40,3.739,3.727,0,0,0,0,4.501,95.36,122.69073522532,3.608924,6,P-GPS,
992200,2022-08-24 01:07:20,-34.9065267878242,-56.1631399972276,3.608924,4.1994752,119.67236242532,122.69073522532,4.92126,0,6.091371586,12.3964570896,19,5,7.468,123.01881922532,3.937008,2.7738056,12.9803481844,0,0,0,6.4, -4.8, 0.5,0,0,1664,1024,1024,1024,97,0,0,0,22.9,0,0,40,3.739,3.727,0,0,0,0,4.501,95.36,122.69073522532,3.608924,6,P-GPS,
992300,2022-08-24 01:07:20,-34.9065266862109,-56.1631399260916,3.608924,4.1994752,119.67236242532,122.69073522532,4.92126,0.223694,6.1139437652,12.4392064348,19,5,7.468,123.01881922532,3.937008,2.7738056,12.9803481844,0.223694,0,0,6.3, -11, 0.4,0,0,1684,1024,1024,1024,100,0,0,0,22.9,0,0,40,3.739,3.727,0,0,0,0,4.501,95.36,122.69073522532,3.608924,6,P-GPS,
992400,2022-08-24 01:07:20,-34.9065264509121,-56.1631398701042,3.608924,4.1666668,119.70517082532,122.69073522532,4.92126,0.671082,6.1345474404,12.5266736292,19,5,7.468,123.01881922532,3.937008,2.7738056,12.9803481844,0.671082,0,0,6.3, -15.8, 0.4,0,0,1684,1024,1024,1024,100,0,0,0,22.9,0,0,40,3.739,3.727,0,0,0,0,4.501,95.36,122.69073522532,3.608924,6,P-GPS,
992500,2022-08-24 01:07:20,-34.9065259885643,-56.1631397936771,3.608924,4.1666668,119.70517082532,122.69073522532,4.92126,1.342164,6.1684057092,12.6968836084,19,5,7.465,123.01881922532,3.937008,2.7738056,12.9803481844,1.342164,0,0,6.2, -17.1, 0.6,0,0,1684,1024,1024,1024,100,0,0,0,22.9,0,0,40,3.738,3.726,0,0,0,0,4.487,95.36,122.69073522532,3.608924,6,P-GPS,
992600,2022-08-24 01:07:21,-34.9065252997129,-56.1631394727287,3.608924,4.0682416,119.80359602532,122.69073522532,4.92126,2.0356154,6.2886484952,12.9659452968,19,5,7.465,123.01881922532,3.937008,2.7738056,12.9803481844,2.013246,0.223694,0,6.3, -16.8, 0.6,0,0,1684,1024,1024,1024,100,0,0,0,22.9,0,0,40,3.738,3.726,0,0,0,0,4.487,95.36,122.69073522532,3.608924,6,P-GPS,
992700,2022-08-24 01:07:21,-34.9065243529568,-56.1631393057457,3.608924,4.0354332,119.83640442532,122.69073522532,4.92126,2.460634,6.3877298632,13.314961056,18,5,7.465,123.01881922532,3.937008,2.7738056,12.9803481844,2.460634,0.223694,0,6.3, -16.4, 0.6,0,0,1684,1024,1024,1024,100,0,0,0,22.9,0,0,40,3.738,3.726,0,0,0,0,4.487,95.36,122.69073522532,3.608924,6,P-GPS,
992800,2022-08-24 01:07:21,-34.9065231749274,-56.1631391101422,3.608924,4.0026248,119.86921282532,122.69073522532,4.92126,3.131716,6.5314306552,13.7487209124,18,5,7.465,123.01881922532,3.937008,3.131716,12.9803481844,3.131716,0.223694,0,6.4, -16.4, 0.9,0,0,1684,1024,1024,1024,100,0,0,0,22.9,0,0,40,3.738,3.726,0,0,0,0,4.487,95.36,122.69073522532,3.608924,6,P-GPS,
992900,2022-08-24 01:07:21,-34.9065217122883,-56.1631388727885,3.608924,3.937008,119.93482962532,122.69073522532,4.92126,3.6014734,6.7429136016,14.287073948,17,5,7.465,123.01881922532,3.937008,3.6014734,12.9803481844,3.579104,0.447388,0,6.4, -16.2, 0.5,0,0,1684,1024,1024,1024,100,0,0,0,22.9,0,0,40,3.738,3.726,0,0,0,0,4.487,95.36,122.69073522532,3.608924,6,P-GPS,
993000,2022-08-24 01:07:21,-34.9065197662374,-56.1631386230153,3.608924,3.8713912,120.00044642532,122.69073522532,4.92126,4.2725554,7.0600067876,15.0010175404,17,5,7.465,123.01881922532,3.937008,4.2725554,12.9803481844,4.250186,0.447388,0,6.2, -16, 0.5,0,0,1645,1024,1024,1024,94,0,0,0,22.9,0,0,40,3.738,3.726,0,0,0,0,4.487,95.36,122.69073522532,3.608924,6,P-GPS,
993100,2022-08-24 01:07:21,-34.9065177769726,-56.163138374937,3.608924,3.7401576,120.13168002532,122.69073522532,4.92126,4.7199434,7.4392718916,15.7305779312,18,5,7.465,123.01881922532,3.937008,4.7199434,12.9803481844,4.697574,0.447388,0,6.4, -15.7, 0.8,0,0,1290,1024,1024,1024,40,0,0,0,22.9,0,0,40,3.738,3.726,0,0,0,0,4.487,95.36,122.69073522532,3.608924,6,P-GPS,
993200,2022-08-24 01:07:21,-34.9065155961571,-56.1631381797657,3.28084,3.3136484,120.23010522532,122.36265122532,4.92126,5.1673314,7.8923558956,16.528379794,18,5,7.465,123.01881922532,3.937008,5.1673314,12.9803481844,5.144962,0.447388,0,6.4, -11.6, 0.8,0,0,1147,1024,1024,1024,19,0,0,0,22.9,0,0,40,3.738,3.726,0,0,0,0,4.487,95.36,122.36265122532,3.28084,6,P-GPS,
993300,2022-08-24 01:07:21,-34.9065131698342,-56.1631379673188,3.28084,3.1824148,120.36133882532,122.36265122532,4.593176,5.1673314,8.4554792732,17.4159126308,18,5,7.465,123.01881922532,3.937008,5.1673314,12.9803481844,5.144962,0.447388,0,6.4, -4.8, 0.7,0,0,1091,1024,1024,1024,10,0,0,0,22.9,0,0,40,3.738,3.726,0,0,0,0,4.487,95.36,122.36265122532,3.28084,6,P-GPS,
993400,2022-08-24 01:07:21,-34.9065104429233,-56.1631381230614,3.28084,3.0511812,120.49257242532,122.36265122532,4.593176,5.1673314,9.062992416,18.411910038,18,5,7.465,123.01881922532,3.937008,5.1673314,12.9803481844,5.144962,0.447388,0,6.5, -0.5, 0.9,0,0,1072,1024,1024,886,7,0,0,-21,22.9,0,0,40,3.738,3.726,0,0,0,0,4.487,95.36,122.36265122532,3.28084,6,P-GPS,
993500,2022-08-24 01:07:21,-34.9065080764294,-56.1631379747893,3.28084,2.9855644,120.55818922532,122.36265122532,4.593176,4.921268,9.7010501792,19.2764769948,17,5,7.465,123.01881922532,3.937008,5.1673314,12.9803481844,4.921268,0.223694,0,6.6, 0.5, 1.3,0,0,1060,1024,1024,543,5,0,0,-73,22.9,0,0,40,3.738,3.726,0,0,0,0,4.487,95.36,122.36265122532,3.28084,6,P-GPS,
993600,2022-08-24 01:07:22,-34.9065059910636,-56.1631377153845,3.28084,2.8871392,120.65661442532,122.36265122532,4.593176,4.921268,10.3159780204,20.0412736072,17,5,7.456,123.01881922532,3.937008,5.1673314,12.9803481844,4.921268,0.223694,0,6.7, 0.3, 1.5,0,0,1035,1024,1024,1024,2,0,0,0,22.6,0,0,40,3.735,3.722,0,0,0,0,4.618,95.36,122.36265122532,3.28084,6,P-GPS,
993700,2022-08-24 01:07:22,-34.9065038765942,-56.1631374298271,3.28084,2.788714,120.75503962532,122.36265122532,4.265092,4.7199434,10.9630252852,20.8174547344,19,5,7.456,123.01881922532,3.937008,5.1673314,12.9803481844,4.697574,0.447388,0,5.7, 0, 1.6,0,0,1035,1024,1024,1024,2,0,0,0,20.8,0,0,40,3.735,3.722,0,0,0,0,4.618,95.36,122.36265122532,3.28084,6,P-GPS,
993800,2022-08-24 01:07:22,-34.9065019725882,-56.1631371365956,3.28084,2.6902888,120.85346482532,122.36265122532,4.265092,4.4962494,11.5657155932,21.5176187988,19,5,7.456,123.01881922532,3.937008,5.1673314,12.9803481844,4.47388,0.447388,0,3.8, 5, 1.1,0,0,1024,1024,1024,1024,0,0,0,0,19.4,0,0,40,3.735,3.722,0,0,0,0,4.618,95.36,122.36265122532,3.28084,6,P-GPS,
993900,2022-08-24 01:07:22,-34.9065003414833,-56.1631365352713,3.28084,2.5918636,120.95189002532,122.36265122532,4.265092,4.026492,12.1515423836,22.1393379788,18,5,7.456,123.01881922532,3.937008,5.1673314,12.9803481844,4.026492,0.223694,0,2.8, 15.6, 0,0,0,1024,1024,1024,1024,0,0,0,0,18.7,0,0,40,3.735,3.722,0,0,0,0,4.618,95.36,122.36265122532,3.28084,6,P-GPS,
994000,2022-08-24 01:07:22,-34.9064988698715,-56.1631365167982,3.28084,2.5590552,120.98469842532,122.36265122532,4.265092,3.131716,12.5935699568,22.6762802532,18,5,7.456,123.01881922532,3.937008,5.1673314,12.9803481844,3.131716,0.223694,0,2.4, 16.1, 0,0,0,1024,1024,1024,1024,0,0,0,0,18.7,0,0,40,3.735,3.722,0,0,0,0,4.618,95.36,122.36265122532,3.28084,6,P-GPS,
994100,2022-08-24 01:07:22,-34.9064976155755,-56.1631365679476,3.28084,2.5262468,121.01750682532,122.36265122532,3.937008,2.684328,12.9649610448,23.134187092,18,5,7.456,123.01881922532,3.937008,5.1673314,12.9803481844,2.684328,0,0,2.3, 13.8, 0.1,0,0,1024,1024,1024,1024,0,0,0,0,18.7,0,0,40,3.735,3.722,0,0,0,0,4.618,95.36,122.36265122532,3.28084,6,P-GPS,
994200,2022-08-24 01:07:22,-34.9064966872028,-56.163136670052,3.28084,2.46063,121.08312362532,122.36265122532,3.937008,2.013246,13.2330712896,23.4742789664,18,5,7.456,123.01881922532,3.937008,5.1673314,13.2330712896,2.013246,0,0,2.2, 11.3, 0.5,0,0,1024,1024,1024,1024,0,0,0,0,18.7,0,0,40,3.735,3.722,0,0,0,0,4.618,95.36,122.36265122532,3.28084,6,P-GPS,
994300,2022-08-24 01:07:22,-34.9064961128409,-56.1631373140145,3.28084,2.4278216,121.11593202532,122.36265122532,3.937008,1.565858,13.3097773288,23.7589246448,18,5,7.456,123.01881922532,3.937008,5.1673314,13.3097773288,1.565858,0,0,2.2, 9.2, 0.6,0,0,1024,1024,1024,861,0,0,0,-25,18.7,0,0,40,3.735,3.722,0,0,0,0,4.618,95.36,122.36265122532,3.28084,6,P-GPS,
994400,2022-08-24 01:07:22,-34.9064955142607,-56.1631373639561,3.28084,2.4278216,121.11593202532,122.36265122532,3.937008,1.342164,13.4894689356,23.977855098,18,5,7.456,123.01881922532,3.937008,5.1673314,13.4894689356,1.342164,0,0,2.1, 7.6, 0.7,0,0,1024,1024,1024,746,0,0,0,-42,18.7,0,0,40,3.735,3.722,0,0,0,0,4.618,95.36,122.36265122532,3.28084,6,P-GPS,
994500,2022-08-24 01:07:22,-34.9064950219462,-56.1631374103642,3.28084,2.3950132,121.14874042532,122.36265122532,3.937008,0.894776,13.637303586,24.1580060224,19,5,7.456,123.01881922532,3.937008,5.1673314,13.637303586,0.894776,0,0,2, 5.9, 0.7,0,0,1024,1024,969,447,0,0,-8,-87,18.4,0,0,40,3.735,3.722,0,0,0,0,4.618,95.36,122.36265122532,3.28084,6,P-GPS,
994600,2022-08-24 01:07:23,-34.9064948378441,-56.1631374642872,3.608924,2.7230972,121.14874042532,122.69073522532,3.937008,0.671082,13.6873035876,24.2270677044,19,5,7.453,123.01881922532,3.937008,5.1673314,13.6873035876,0.671082,0,0,1.4, 4.6, 0.7,0,0,1024,1024,1024,476,0,0,0,-83,17.6,0,0,39,3.733,3.72,0,0,0,0,4.486,95.36,122.69073522532,3.608924,6,P-GPS,
994700,2022-08-24 01:07:23,-34.9064951827616,-56.1631374860104,3.608924,2.7230972,121.14874042532,122.69073522532,3.937008,0.447388,13.5751972848,24.3530847688,19,5,7.453,123.01881922532,3.937008,5.1673314,13.6873035876,0.447388,0,0,0.2, 3.6, 0.5,0,0,1024,1024,1024,476,0,0,0,-83,15.2,0,0,39,3.733,3.72,0,0,0,0,4.486,95.36,122.69073522532,3.608924,6,P-GPS,
994800,2022-08-24 01:07:23,-34.9064951771337,-56.1631374373551,3.608924,2.7230972,121.14874042532,122.69073522532,3.937008,0.223694,13.58431802,24.367782932,19,5,7.453,123.01881922532,3.937008,5.1673314,13.6873035876,0.223694,0,0,357.1, 2.7, 0.1,0,0,1024,1024,1024,1024,0,0,0,0,11.4,0,0,39,3.733,3.72,0,0,0,0,4.486,95.36,122.69073522532,3.608924,6,P-GPS,
994900,2022-08-24 01:07:23,-34.906495218418,-56.1631373781397,3.608924,2.7230972,121.14874042532,122.69073522532,3.937008,0.223694,13.5802825868,24.3910440876,19,5,7.453,123.01881922532,3.937008,5.1673314,13.6873035876,0.223694,0,0,354, 1.9, -0.4,0,0,1024,1024,1024,1024,0,0,0,0,9.5,0,0,39,3.733,3.72,0,0,0,0,4.486,95.36,122.69073522532,3.608924,6,P-GPS,
995000,2022-08-24 01:07:23,-34.9064952179718,-56.1631373228156,3.608924,2.7230972,121.14874042532,122.69073522532,3.937008,0.223694,13.5888127708,24.4076123296,19,5,7.453,123.01881922532,3.937008,5.1673314,13.6873035876,0.223694,0,0,352.8, 1.5, -0.2,0,0,1024,1024,1024,1024,0,0,0,0,8.7,0,0,39,3.733,3.72,0,0,0,0,4.486,95.36,122.69073522532,3.608924,6,P-GPS,
995100,2022-08-24 01:07:23,-34.9064953769373,-56.1631369644287,3.608924,2.7230972,121.14874042532,122.69073522532,3.937008,0,13.5937012224,24.5294955356,19,5,7.453,123.01881922532,3.937008,5.1673314,13.6873035876,0,0,0,352.3, 1.3, 0,0,0,1024,1024,1024,1024,0,0,0,0,8.6,0,0,39,3.733,3.72,0,0,0,0,4.486,95.36,122.69073522532,3.608924,6,P-GPS,
995200,2022-08-24 01:07:23,-34.9064953474982,-56.1631368845973,3.608924,2.7230972,121.14874042532,122.69073522532,3.937008,0,13.6152235328,24.5557094472,19,5,7.453,123.01881922532,3.937008,5.1673314,13.6873035876,0,0,0,352.3, 1.3, -0.3,0,0,1104,1024,1024,1024,12,0,0,0,8.6,0,0,39,3.733,3.72,0,0,0,0,4.486,95.36,122.69073522532,3.608924,6,P-GPS,
995300,2022-08-24 01:07:23,-34.9064953339463,-56.1631368138557,3.608924,2.7230972,121.14874042532,122.69073522532,3.937008,0,13.6303810136,24.577428608,19,5,7.453,123.01881922532,3.937008,5.1673314,13.6873035876,0,0,0,352.2, 0.9, -0.4,0,0,1316,1024,1024,1024,44,0,0,0,8.6,0,0,39,3.733,3.72,0,0,0,0,4.486,95.36,122.69073522532,3.608924,6,P-GPS,
995400,2022-08-24 01:07:23,-34.9064953275205,-56.1631367443349,3.608924,2.7230972,121.14874042532,122.69073522532,3.937008,0,13.6431434812,24.5983603672,19,5,7.453,123.01881922532,3.937008,5.1673314,13.6873035876,0,0,0,352.3, 0, 0,0,0,1394,1024,1024,1024,56,0,0,0,8.6,0,0,39,3.733,3.72,0,0,0,0,4.486,95.36,122.69073522532,3.608924,6,P-GPS,
995500,2022-08-24 01:07:23,-34.9064953262308,-56.163136685668,3.608924,2.7230972,121.14874042532,122.69073522532,3.937008,0,13.6526251088,24.6159456696,19,5,7.453,123.01881922532,3.937008,5.1673314,13.6873035876,0,0,0,352.3, -3.3, 0.2,0,0,1356,1024,1024,1024,50,0,0,0,8.6,0,0,39,3.733,3.72,0,0,0,0,4.486,95.36,122.69073522532,3.608924,6,P-GPS,
995600,2022-08-24 01:07:24,-34.9064950254865,-56.1631364043584,3.608924,2.6902888,121.18154882532,122.69073522532,3.937008,0,13.7901251132,24.7542330756,19,5,7.457,123.01881922532,3.937008,5.1673314,13.7901251132,0,0,0,352.2, -6.4, 0.3,0,0,1356,1024,1024,1024,50,0,0,0,8.6,0,0,39,3.734,3.722,0,0,0,0,4.512,95.36,122.69073522532,3.608924,6,P-GPS,
995700,2022-08-24 01:07:24,-34.9064948754612,-56.1631364257566,3.608924,2.6902888,121.18154882532,122.69073522532,3.937008,0.223694,13.8335962432,24.8093183792,18,5,7.457,123.01881922532,3.937008,5.1673314,13.8335962432,0.223694,0,0,352.2, -7.1, 0.3,0,0,1093,1024,1024,1024,10,0,0,0,8.6,0,0,39,3.734,3.722,0,0,0,0,4.512,95.36,122.69073522532,3.608924,6,P-GPS,
995800,2022-08-24 01:07:24,-34.9064946272993,-56.1631364665641,3.608924,2.6902888,121.18154882532,122.69073522532,3.937008,0.447388,13.9048888964,24.9006897732,18,5,7.457,123.01881922532,3.937008,5.1673314,13.9048888964,0.447388,0,0,352.3, -4.8, 0.4,0,0,1024,1024,1024,1024,0,0,0,0,8.6,0,0,39,3.734,3.722,0,0,0,0,4.512,95.36,122.69073522532,3.608924,6,P-GPS,
995900,2022-08-24 01:07:24,-34.9064943064145,-56.1631365251749,3.608924,2.6574804,121.21435722532,122.69073522532,3.937008,0.671082,13.9965227576,25.0190624804,17,5,7.457,123.01881922532,3.937008,5.1673314,13.9965227576,0.671082,0,0,352.3, 2.3, 0.5,0,0,1024,1024,1024,1024,0,0,0,0,8.6,0,0,39,3.734,3.722,0,0,0,0,4.512,95.36,122.69073522532,3.608924,6,P-GPS,
996000,2022-08-24 01:07:24,-34.9064938013558,-56.1631366992078,3.608924,2.6574804,121.21435722532,122.69073522532,3.937008,0.447388,14.129265544,25.2105651112,17,5,7.457,123.01881922532,3.937008,5.1673314,14.129265544,0.447388,0,0,352.3, 3.5, 0.5,0,0,1024,1024,1024,1024,0,0,0,0,8.6,0,0,39,3.734,3.722,0,0,0,0,4.512,95.36,122.69073522532,3.608924,6,P-GPS,
996100,2022-08-24 01:07:24,-34.9064935758098,-56.1631368186218,3.608924,2.6574804,121.21435722532,122.69073522532,3.937008,0.223694,14.1828088528,25.3002632768,17,5,7.457,123.01881922532,3.937008,5.1673314,14.1828088528,0.223694,0,0,352.3, 3.1, 0.5,0,0,1024,1024,1024,1024,0,0,0,0,8.6,0,0,39,3.734,3.722,0,0,0,0,4.512,95.36,122.69073522532,3.608924,6,P-GPS,
996200,2022-08-24 01:07:24,-34.9064933603829,-56.1631369196998,3.608924,2.624672,121.24716562532,122.69073522532,3.937008,0.223694,14.2361553112,25.3844824396,17,5,7.457,123.01881922532,3.937008,5.1673314,14.2361553112,0.223694,0,0,352.4, 2.5, 0.5,0,0,1024,1024,1024,1024,0,0,0,0,8.7,0,0,39,3.734,3.722,0,0,0,0,4.512,95.36,122.69073522532,3.608924,6,P-GPS,
996300,2022-08-24 01:07:24,-34.9064931717798,-56.1631370156434,3.608924,2.624672,121.24716562532,122.69073522532,3.937008,0,14.2820542628,25.4590559328,17,5,7.457,123.01881922532,3.937008,5.1673314,14.2820542628,0,0,0,352.3, 2, 0.4,0,0,1024,1024,1024,1024,0,0,0,0,8.6,0,0,39,3.734,3.722,0,0,0,0,4.512,95.36,122.69073522532,3.608924,6,P-GPS,
996400,2022-08-24 01:07:24,-34.9064928297024,-56.1631371664488,3.608924,2.624672,121.24716562532,122.69073522532,3.937008,0,14.3692261816,25.5917659108,17,5,7.457,123.01881922532,3.937008,5.1673314,14.3692261816,0,0,0,352.3, 1.4, 0.4,0,0,1024,1024,1024,1024,0,0,0,0,8.6,0,0,39,3.734,3.722,0,0,0,0,4.512,95.36,122.69073522532,3.608924,6,P-GPS,
996500,2022-08-24 01:07:24,-34.9064927014396,-56.1631372505135,3.608924,2.624672,121.24716562532,122.69073522532,3.937008,0,14.398130382,25.6448827104,17,5,7.457,123.01881922532,3.937008,5.1673314,14.398130382,0,0,0,352.3, 1.6, 0.2,0,0,1024,1024,1024,1024,0,0,0,0,8.6,0,0,39,3.734,3.722,0,0,0,0,4.512,95.36,122.69073522532,3.608924,6,P-GPS,
996600,2022-08-24 01:07:25,-34.9064926940399,-56.16313723478,3.608924,2.624672,121.24716562532,122.69073522532,3.937008,0,14.4027891748,25.6503289048,17,5,7.452,123.01881922532,3.937008,5.1673314,14.4027891748,0,0,0,352.2, 0.6, 0,0,0,1024,1024,1024,1024,0,0,0,0,8.6,0,0,39,3.733,3.721,0,0,0,0,4.486,95.36,122.69073522532,3.608924,31,Sport,
996700,2022-08-24 01:07:25,-34.9064927137441,-56.163137214621,3.608924,2.624672,121.24716562532,122.69073522532,3.937008,0,14.3993771012,25.6597121072,18,5,7.452,123.01881922532,3.937008,5.1673314,14.4027891748,0,0,0,352.3, 0.2, 0.1,0,0,1024,1024,1024,1024,0,0,0,0,8.6,0,0,39,3.733,3.721,0,0,0,0,4.486,95.36,122.69073522532,3.608924,31,Sport,
996800,2022-08-24 01:07:25,-34.9064931378561,-56.1631369218466,3.608924,2.624672,121.24716562532,122.69073522532,3.937008,0,14.3065621376,25.8375008268,18,5,7.452,123.01881922532,3.937008,5.1673314,14.4027891748,0,0,0,352.3, 0, 0.2,0,0,1024,1024,1024,1024,0,0,0,0,8.6,0,0,39,3.733,3.721,0,0,0,0,4.486,95.36,122.69073522532,3.608924,31,Sport,
996900,2022-08-24 01:07:25,-34.9064932663175,-56.1631368893504,3.608924,2.624672,121.24716562532,122.69073522532,3.937008,0,14.270505706,25.8853682824,19,5,7.452,123.01881922532,3.937008,5.1673314,14.4027891748,0,0,0,352.2, -0.1, 0.3,0,0,1024,1024,1024,1024,0,0,0,0,8.6,0,0,39,3.733,3.721,0,0,0,0,4.486,95.36,122.69073522532,3.608924,31,Sport,
997000,2022-08-24 01:07:25,-34.9064933382296,-56.1631369204023,3.608924,2.624672,121.24716562532,122.69073522532,3.937008,0,14.243110692,25.913222614,19,5,7.452,123.01881922532,3.937008,5.1673314,14.4027891748,0,0,0,352.2, -0.1, 0.4,0,0,1024,1024,1024,1024,0,0,0,0,8.6,0,0,39,3.733,3.721,0,0,0,0,4.486,95.36,122.69073522532,3.608924,31,Sport,
997100,2022-08-24 01:07:25,-34.9064934030351,-56.1631369651965,3.608924,2.624672,121.24716562532,122.69073522532,3.937008,0,14.2159125284,25.9403879692,19,5,7.452,123.01881922532,3.937008,5.1673314,14.4027891748,0,0,0,352.2, -0.1, 0.4,0,0,1024,1024,1306,1024,0,0,43,0,8.6,0,0,39,3.733,3.721,0,0,0,0,4.486,95.36,122.69073522532,3.608924,31,Sport,
997200,2022-08-24 01:07:25,-34.9064934352751,-56.163136994449,3.608924,2.624672,121.24716562532,122.69073522532,3.937008,0,14.2013784072,25.955053324,19,5,7.452,123.01881922532,3.937008,5.1673314,14.4027891748,0,0,0,352.2, -0.1, 0.5,0,0,1024,1024,1684,1024,0,0,100,0,8.7,0,0,39,3.733,3.721,0,0,0,0,4.486,95.36,122.69073522532,3.608924,31,Sport,
997300,2022-08-24 01:07:25,-34.9064934673945,-56.1631370235121,3.937008,2.952756,121.24716562532,123.01881922532,3.937008,0,14.1869099028,25.969653062,19,5,7.452,123.01881922532,3.937008,5.1673314,14.4027891748,0,0,-0.447388,352.2, -0.1, 0.9,0,0,1024,1024,1646,1024,0,0,94,0,8.6,0,0,39,3.733,3.721,0,0,0,0,4.486,95.36,123.01881922532,3.937008,31,Sport,
997400,2022-08-24 01:07:25,-34.9064934173166,-56.163137066388,3.937008,2.952756,121.24716562532,123.01881922532,4.265092,0,14.196522764,25.991962774,19,5,7.452,123.01881922532,3.937008,5.1673314,14.4027891748,0,0,-1.342164,352.3, -0.2, 0.6,0,0,1024,1024,1610,1024,0,0,89,0,8.6,0,0,39,3.733,3.721,0,0,0,0,4.486,95.36,123.01881922532,3.937008,31,Sport,
997500,2022-08-24 01:07:25,-34.9064933535011,-56.1631371090093,4.265092,3.28084,121.24716562532,123.34690322532,4.593176,0,14.2105647592,26.0185047696,19,5,7.452,123.34690322532,4.265092,5.1673314,14.4027891748,0,0,-2.23694,352.2, -0.2, 0.4,0,0,1024,1024,1612,1024,0,0,89,0,8.6,0,0,39,3.733,3.721,0,0,0,0,4.486,95.36,123.34690322532,4.265092,31,Sport,
997600,2022-08-24 01:07:25,-34.9064933082955,-56.1631371555075,4.593176,3.608924,121.24716562532,123.67498722532,4.92126,0,14.2181434996,26.0400926968,19,5,7.45,123.67498722532,4.593176,5.1673314,14.4027891748,0,0,-3.131716,352.3, -0.2, 0.3,0,0,1024,1024,1612,1024,0,0,89,0,8.6,0,0,39,3.73,3.719,0,0,0,0,4.488,95.36,123.67498722532,4.593176,31,Sport,
997700,2022-08-24 01:07:26,-34.9064930557858,-56.1631372892735,5.249344,4.265092,121.24716562532,124.33115522532,5.577428,0,14.2792655488,26.1405520176,18,5,7.45,124.33115522532,5.249344,5.1673314,14.4027891748,0,0,-4.250186,352.4, -0.2, 0.5,0,0,1345,1024,1473,1024,49,0,68,0,8.6,0,0,39,3.73,3.719,0,0,0,0,4.488,95.36,124.33115522532,5.249344,31,Sport,
