time(millisecond),datetime(utc),latitude,longitude,height_above_takeoff(feet),height_above_ground_at_drone_location(feet),ground_elevation_at_drone_location(feet),altitude_above_seaLevel(feet),height_sonar(feet),speed(mph),distance(feet),mileage(feet),satellites,gpslevel,voltage(v),max_altitude(feet),max_ascent(feet),max_speed(mph),max_distance(feet), xSpeed(mph), ySpeed(mph), zSpeed(mph), compass_heading(degrees), pitch(degrees), roll(degrees),isPhoto,isVideo,rc_elevator,rc_aileron,rc_throttle,rc_rudder,rc_elevator(percent),rc_aileron(percent),rc_throttle(percent),rc_rudder(percent),gimbal_heading(degrees),gimbal_pitch(degrees),gimbal_roll(degrees),battery_percent,voltageCell1,voltageCell2,voltageCell3,voltageCell4,voltageCell5,voltageCell6,current(A),battery_temperature(f),altitude(feet),ascent(feet),flycStateRaw,flycState,message
93900,2022-08-12 02:08:56,-34.9064679407443,-56.163066301687,0,0,120.55988706002,122.16749866002,0.328084,0,0,0,18,5,0,122.16749866002,0,0,0,0,0,0,317.3, 3, 0.3,0,0,364,364,364,1684,-100,-100,-100,100,332.1,0,0,93,4.257,4.25,0,0,0,0,0,78.08,122.16749866002,0,41,Motors_Started,"Aeronave en Zona de altitud restringida (150). Vuela con precaución (Code: 190001). Baja velocidad de la tarjeta SD. Puede afectar a su uso normal. Sustituye la tarjeta SD (Code: 10028)"
94000,2022-08-12 02:08:56,-34.9064679679833,-56.1630663298113,0,0,120.55988706002,122.16749866002,0.328084,0,0.0130222445112,0.0130222445112,18,5,0,122.16749866002,0,0,0.0130222445112,0,0,0,317.3, 3, 0.3,0,0,364,364,364,1684,-100,-100,-100,100,332.1,0,0,93,4.257,4.25,0,0,0,0,0,78.08,122.16749866002,0,41,Motors_Started,
94100,2022-08-12 02:08:56,-34.906468019465,-56.1630662908672,0,0,120.55988706002,122.16749866002,0.328084,0,0.028903052106,0.035125985376,18,5,0,122.16749866002,0,0,0.028903052106,0,0,0,317.3, 3, 0.3,0,0,364,364,364,1684,-100,-100,-100,100,332.1,0,0,93,4.257,4.25,0,0,0,0,0,78.08,122.16749866002,0,41,Motors_Started,
94200,2022-08-12 02:08:56,-34.9064680686179,-56.1630662542525,0,0,120.55988706002,122.16749866002,0.328084,0,0.048765749592,0.056141077912,18,5,0,122.16749866002,0,0,0.048765749592,0,0,0,317.3, 3, 0.3,0,0,364,364,364,1684,-100,-100,-100,100,332.1,0,0,93,4.257,4.25,0,0,0,0,0,78.08,122.16749866002,0,41,Motors_Started,
94300,2022-08-12 02:08:56,-34.9064681209414,-56.1630662008297,0,0,120.55988706002,122.16749866002,0.328084,0,0.072339897328,0.081039700756,18,5,0,122.16749866002,0,0,0.072339897328,0,0,0,317.3, 3, 0.3,0,0,1024,1024,1024,1024,0,0,0,0,332.1,0,0,93,4.257,4.25,0,0,0,0,0,78.08,122.16749866002,0,41,Motors_Started,"Setting new Return-To-Home altitude to 40m (131 ft). Data Recorder File Index is 35. Setting new Maximum Flight Altitude to 120m (394 ft)"
94400,2022-08-12 02:08:57,-34.9064681648964,-56.1630661077731,0,0,120.55988706002,122.16749866002,0.328084,0,9.6278874472,0.113171263464,18,5,0,122.16749866002,0,0,9.6278874472,0,0,0,317.3, 3, 0.3,0,0,1024,1024,1024,1024,0,0,0,0,332.1,0,0,93,4.257,4.25,0,0,0,0,0,78.08,122.16749866002,0,41,Motors_Started,
94500,2022-08-12 02:08:57,-34.9064682187539,-56.163066100492,0,0,120.55988706002,122.16749866002,0.328084,0,9.6426184188,0.132941605304,18,5,0,122.16749866002,0,0,9.6426184188,0,0,0,317.3, 3, 0.3,0,0,1024,1024,1024,1024,0,0,0,0,332.1,0,0,93,4.257,4.25,0,0,0,0,0,78.08,122.16749866002,0,41,Motors_Started,
94600,2022-08-12 02:08:57,-34.9064682699685,-56.1630660935765,0,0,120.55988706002,122.16749866002,0.328084,0,9.656660414,0.151741474672,18,5,8.536,122.16749866002,0,0,9.656660414,0,0,0,317.3, 3, 0.3,0,0,1024,1024,1024,1024,0,0,0,0,332.1,0,0,93,4.257,4.25,0,0,0,0,0.636,78.08,122.16749866002,0,41,Motors_Started,
94700,2022-08-12 02:08:57,-34.9064683209909,-56.1630660536713,0,0,120.55988706002,122.16749866002,0.328084,0,9.6649281308,0.173856960944,18,5,8.536,122.16749866002,0,0,9.6649281308,0,0,0,317.3, 3, 0.3,0,0,1024,1024,1024,1024,0,0,0,0,332.1,0,0,93,4.257,4.25,0,0,0,0,0.636,78.08,122.16749866002,0,41,Motors_Started,
94800,2022-08-12 02:08:57,-34.9064683673348,-56.1630660516212,0,0,120.55988706002,122.16749866002,0.328084,0,9.6784123832,0.190776580908,18,5,8.536,122.16749866002,0,0,9.6784123832,0,0,0,317.3, 3, 0.3,0,0,1024,1024,1024,1024,0,0,0,0,332.1,0,0,93,4.257,4.25,0,0,0,0,0.636,78.08,122.16749866002,0,41,Motors_Started,
94900,2022-08-12 02:08:57,-34.906468418779,-56.1630659979241,0,0,120.55988706002,122.16749866002,0.328084,0,9.6845147456,0.215483274612,18,5,8.536,122.16749866002,0,0,9.6845147456,0,0,0,317.3, 3, 0.3,0,0,1024,1024,1024,1024,0,0,0,0,332.1,0,0,93,4.257,4.25,0,0,0,0,0.636,78.08,122.16749866002,0,41,Motors_Started,
95000,2022-08-12 02:08:57,-34.9064684683814,-56.1630659480477,0,0,120.55988706002,122.16749866002,0.328084,0,9.69078115,0.23894029636,18,5,8.536,122.16749866002,0,0,9.69078115,0,0,0,317.3, 3, 0.3,0,0,1024,1024,1024,1024,0,0,0,0,332.1,0,0,93,4.257,4.25,0,0,0,0,0.636,78.08,122.16749866002,0,10,Assisted_Takeoff,
95100,2022-08-12 02:08:57,-34.9064684694969,-56.1630658933321,0,0,120.55988706002,122.16749866002,0.328084,0,9.68175884,0.25531660922,18,5,8.536,122.16749866002,0,0,9.69078115,0,0,0,317.3, 3, 0.3,0,0,1024,1024,1024,1024,0,0,0,0,332.1,0,0,93,4.257,4.25,0,0,0,0,0.636,78.08,122.16749866002,0,10,Assisted_Takeoff,
95200,2022-08-12 02:08:57,-34.9064683888416,-56.1630657703284,0,0,120.55988706002,122.16749866002,0.328084,0,9.6365816732,0.302438329888,18,5,8.536,122.16749866002,0,0,9.69078115,0,0,0,317.3, 3, 0.3,0,0,1024,1024,1024,1024,0,0,0,0,332.1,0,0,93,4.257,4.25,0,0,0,0,0.636,78.08,122.16749866002,0,10,Assisted_Takeoff,
95300,2022-08-12 02:08:57,-34.9064684264848,-56.1630657683488,0,0,120.55988706002,122.16749866002,0.328084,0,9.6475396788,0.316185377572,18,5,8.536,122.16749866002,0,0,9.69078115,0,0,0,317.3, 3, 0.3,0,0,1024,1024,1024,1024,0,0,0,0,332.1,0,0,93,4.257,4.25,0,0,0,0,0.636,78.08,122.16749866002,0,10,Assisted_Takeoff,
95400,2022-08-12 02:08:58,-34.9064684640709,-56.1630657687954,0,0,120.55988706002,122.16749866002,0.328084,0,9.6588913852,0.32989830452,18,5,8.536,122.16749866002,0,0,9.69078115,0,0,0,317.3, 3, 0.3,0,0,1024,1024,1024,1024,0,0,0,0,332.1,0,0,93,4.257,4.25,0,0,0,0,0.636,78.08,122.16749866002,0,10,Assisted_Takeoff,
95500,2022-08-12 02:08:58,-34.9064685204574,-56.1630657878705,0,0.065616799999987,120.49427026002,122.16749866002,0.328084,0,9.6790685512,0.35125001124,18,5,8.536,122.16749866002,0,0,9.69078115,0,0,0,317.3, 3, 0.3,0,0,1024,1024,1240,1024,0,0,33,0,332.1,0,0,93,4.257,4.25,0,0,0,0,0.636,78.08,122.16749866002,0,10,Assisted_Takeoff,
95600,2022-08-12 02:08:58,-34.9064685747709,-56.163065807165,0,0.065616799999987,120.49427026002,122.16749866002,0.328084,0,9.698655166,0.37188977568,18,5,8.488,122.16749866002,0,0,9.698655166,0,0,0,317.3, 3, 0.3,0,0,1024,1024,1656,1024,0,0,96,0,332.1,0,0,93,4.254,4.249,0,0,0,0,1.44,78.08,122.16749866002,0,10,Assisted_Takeoff,
95700,2022-08-12 02:08:58,-34.9064686870049,-56.1630658513298,0,0.065616799999987,120.49427026002,122.16749866002,0.328084,0,9.7398625164,0.41491799228,18,5,8.488,122.16749866002,0,0,9.7398625164,0,0,0,317.3, 2.9, 0.3,0,0,1024,1024,1684,1024,0,0,100,0,332.1,0,0,93,4.254,4.249,0,0,0,0,1.44,78.08,122.16749866002,0,10,Assisted_Takeoff,
95800,2022-08-12 02:08:58,-34.9064687463405,-56.1630658117353,0,0.065616799999987,120.49427026002,122.16749866002,0.328084,0,9.7510173724,0.43959647076,18,5,8.488,122.16749866002,0,0,9.7510173724,0,0,0,317.2, 2.9, 0.3,0,0,1024,1024,1684,1024,0,0,100,0,332.1,0,0,93,4.254,4.249,0,0,0,0,1.44,78.08,122.16749866002,0,10,Assisted_Takeoff,
95900,2022-08-12 02:08:58,-34.906468804826,-56.1630657472915,0,0.065616799999987,120.49427026002,122.16749866002,0.328084,0,9.7577759028,0.4683563142,18,5,8.488,122.16749866002,0,0,9.7577759028,0,0,0,317.2, 2.8, 0.3,0,0,1024,1024,1684,1024,0,0,100,0,332.1,0,0,93,4.254,4.249,0,0,0,0,1.44,78.08,122.16749866002,0,10,Assisted_Takeoff,
96000,2022-08-12 02:08:58,-34.9064688607566,-56.1630656845138,0,0.065616799999987,120.49427026002,122.16749866002,0.328084,0,9.7641407324,0.49608925472,18,5,8.488,122.16749866002,0,0,9.7641407324,0,0,0,316.9, 1.8, 0.4,0,0,1024,1024,1684,1024,0,0,100,0,332,0,0,93,4.254,4.249,0,0,0,0,1.44,78.08,122.16749866002,0,10,Assisted_Takeoff,
96100,2022-08-12 02:08:58,-34.9064687914077,-56.163065533378,0,0.065616799999987,120.49427026002,122.16749866002,0.328084,0,9.7178808884,0.54790684168,18,5,8.488,122.16749866002,0,0,9.7641407324,0,0,0,317.4, -0.9, 0.9,0,0,1024,1024,1684,1024,0,0,100,0,331.9,0,0,93,4.254,4.249,0,0,0,0,1.44,78.08,122.16749866002,0,10,Assisted_Takeoff,
96200,2022-08-12 02:08:58,-34.9064687638707,-56.16306548282,0,0.032808399999993,120.52707866002,122.16749866002,0.328084,0,9.701115796,0.56606957192,18,5,8.488,122.16749866002,0,0,9.7641407324,0,0,-0.223694,318.1, -0.8, 1.1,0,0,1024,1024,1673,1024,0,0,98,0,332.2,0,0,93,4.254,4.249,0,0,0,0,1.44,78.08,122.16749866002,0,6,P-GPS,"Baja velocidad de la tarjeta SD. Puede afectar a su uso normal. Sustituye la tarjeta SD (Code: 10028)"
96300,2022-08-12 02:08:58,-34.9064687431715,-56.1630654578505,0,0.032808399999993,120.52707866002,122.16749866002,0.328084,0,9.6906827248,0.576689651,18,5,8.488,122.16749866002,0,0,9.7641407324,0,0,-0.671082,317.7, -0.5, 0.6,0,0,1024,1024,1684,1024,0,0,100,0,332.2,0,0,93,4.254,4.249,0,0,0,0,1.44,78.08,122.16749866002,0,6,P-GPS,
96400,2022-08-12 02:08:59,-34.9064687024099,-56.1630654135787,0,0.032808399999993,120.52707866002,122.16749866002,0.656168,0,9.670932068,0.59660763064,18,5,8.488,122.16749866002,0,0,9.7641407324,0,0,-1.11847,317.3, 0.2, -0.7,0,0,1024,1024,1684,1024,0,0,100,0,332.2,0,0,93,4.254,4.249,0,0,0,0,1.44,78.08,122.16749866002,0,6,P-GPS,"Baja velocidad de la tarjeta SD. Puede afectar a su uso normal. Sustituye la tarjeta SD (Code: 10028)"
96500,2022-08-12 02:08:59,-34.9064686925644,-56.1630652440559,0.328084,0.36089239999999,120.52707866002,122.49558266002,0.656168,0,9.6397968964,0.6474573698,18,5,8.488,122.49558266002,0.328084,0,9.7641407324,0,0,-1.565858,317.2, 0.7, -0.7,0,0,1024,1024,1348,1024,0,0,49,0,332.2,0,0,93,4.254,4.249,0,0,0,0,1.44,78.08,122.49558266002,0.328084,6,P-GPS,
96600,2022-08-12 02:08:59,-34.9064686765502,-56.1630650930218,0.656168,0.68897639999999,120.52707866002,122.82366666002,0.984252,0,9.6099740608,0.69302495656,18,5,8.469,122.82366666002,0.656168,0,9.7641407324,0,0,-2.013246,317.4, 0.1, -1.1,0,0,1024,1024,1112,1024,0,0,13,0,332.2,0,0,93,4.212,4.201,0,0,0,0,1.597,78.08,122.82366666002,0.656168,6,P-GPS,
96700,2022-08-12 02:08:59,-34.906468644535,-56.163064985531,0.984252,1.0170604,120.52707866002,123.15175066002,1.312336,0,9.5825462384,0.72724083692,18,5,8.469,123.15175066002,0.984252,0,9.7641407324,0,0,-2.460634,317.4, -0.2, -1.5,0,0,1024,1024,1312,1024,0,0,44,0,332.2,0,0,93,4.212,4.201,0,0,0,0,1.597,78.08,123.15175066002,0.984252,6,P-GPS,
96800,2022-08-12 02:08:59,-34.9064686232659,-56.1630648788576,1.312336,1.3451444,120.52707866002,123.47983466002,1.64042,0.223694,9.558563298,0.760088607,18,5,8.469,123.47983466002,1.312336,0.223694,9.7641407324,0,0.223694,-2.460634,317.3, -0.4, -2.4,0,0,1024,1024,1312,1024,0,0,44,0,332.2,0,0,93,4.212,4.201,0,0,0,0,1.597,78.08,123.47983466002,1.312336,6,P-GPS,
96900,2022-08-12 02:08:59,-34.9064685213742,-56.163064840377,1.64042,1.6732284,120.52707866002,123.80791866002,1.968504,0,9.5211289136,0.79900593108,18,5,8.469,123.80791866002,1.64042,0.223694,9.7641407324,0,0,-2.23694,317.4, -1.2, -2.1,0,0,1024,1024,1577,1024,0,0,84,0,332.2,0,0,93,4.212,4.201,0,0,0,0,1.597,78.08,123.80791866002,1.64042,6,P-GPS,
97000,2022-08-12 02:08:59,-34.9064685030656,-56.1630647516727,1.968504,2.0013124,120.52707866002,124.13600266002,2.296588,0,9.5010501728,0.82637469836,18,5,8.469,124.13600266002,1.968504,0.223694,9.7641407324,0,0,-2.23694,317.4, -1.5, -1.8,0,0,1024,1024,1484,1024,0,0,70,0,332.2,0,0,93,4.212,4.201,0,0,0,0,1.597,78.08,124.13600266002,1.968504,6,P-GPS,
97100,2022-08-12 02:08:59,-34.9064684460033,-56.1630646587259,2.624672,2.5918636,120.59269546002,124.79217066002,2.624672,0,9.4684058148,0.86111551312,18,5,8.469,124.79217066002,2.624672,0.223694,9.7641407324,0,0,-2.460634,317.4, -1.6, -2,0,0,1024,1024,1292,1024,0,0,41,0,332.2,0,0,93,4.212,4.201,0,0,0,0,1.597,78.08,124.79217066002,2.624672,6,P-GPS,
97200,2022-08-12 02:08:59,-34.9064683918461,-56.1630645981773,2.952756,2.9199476,120.59269546002,125.12025466002,2.952756,0,9.4419622444,0.88792325676,18,5,8.469,125.12025466002,2.952756,0.223694,9.7641407324,0,0,-2.684328,317.4, -1.2, -1.6,0,0,1024,1024,1645,1024,0,0,94,0,332.2,0,0,93,4.212,4.201,0,0,0,0,1.597,78.08,125.12025466002,2.952756,6,P-GPS,
97300,2022-08-12 02:08:59,-34.9064683587138,-56.163064479044,3.28084,3.2152232,120.62550386002,125.44833866002,3.608924,0,9.4124674928,0.92556105324,18,5,8.469,125.44833866002,3.28084,0.223694,9.7641407324,0,0,-2.460634,317.4, -0.9, -1.1,0,0,1024,1024,1672,1024,0,0,98,0,332.2,0,0,93,4.212,4.201,0,0,0,0,1.597,78.08,125.44833866002,3.28084,6,P-GPS,
97400,2022-08-12 02:09:00,-34.9064682084149,-56.1630642307879,3.608924,3.5433072,120.62550386002,125.77642266002,3.937008,0,9.3261485924,1.01789045252,18,5,8.469,125.77642266002,3.608924,0.223694,9.7641407324,0,0,-2.908022,317.3, -0.2, -1.1,0,0,1024,1024,1180,1024,0,0,24,0,332.2,0,0,93,4.212,4.201,0,0,0,0,1.597,78.08,125.77642266002,3.608924,6,P-GPS,
97500,2022-08-12 02:09:00,-34.9064682621943,-56.1630641943222,4.265092,4.1994752,120.62550386002,126.43259066002,4.265092,0,9.3368113224,1.04034124064,18,5,8.469,126.43259066002,4.265092,0.223694,9.7641407324,0,0,-3.35541,317.2, -0.3, -1.8,0,0,1024,1024,1231,1024,0,0,31,0,332.2,0,0,93,4.212,4.201,0,0,0,0,1.597,78.08,126.43259066002,4.265092,6,P-GPS,
97600,2022-08-12 02:09:00,-34.9064683216227,-56.1630641642431,4.92126,4.8556432,120.62550386002,127.08875866002,4.92126,0,9.3502627664,1.06381565084,18,5,8.371,127.08875866002,4.92126,0.223694,9.7641407324,0,0,-3.579104,317.3, 0.2, -2.3,0,0,1024,1024,1231,1024,0,0,31,0,332.2,0,0,93,4.16,4.157,0,0,0,0,4.706,78.08,127.08875866002,4.92126,6,P-GPS,
97700,2022-08-12 02:09:00,-34.9064683657959,-56.1630641256919,5.249344,5.1837272,120.62550386002,127.41684266002,5.249344,0,9.3576774648,1.08363520528,18,5,8.371,127.41684266002,5.249344,0.223694,9.7641407324,0,0,-3.131716,317.5, 0.2, -2.3,0,0,1024,1024,1592,1024,0,0,86,0,332.2,0,0,93,4.16,4.157,0,0,0,0,4.706,78.08,127.41684266002,5.249344,6,P-GPS,
97800,2022-08-12 02:09:00,-34.9064685595873,-56.1630641406616,5.905512,5.905512,120.55988706002,128.07301066002,5.905512,0,9.4199149996,1.15448166424,18,5,8.371,128.07301066002,5.905512,0.223694,9.7641407324,0,0,-3.131716,317.4, 0.4, -1.9,0,0,1024,1024,1395,1024,0,0,56,0,332.2,0,0,93,4.16,4.157,0,0,0,0,4.706,78.08,128.07301066002,5.905512,6,P-GPS,
97900,2022-08-12 02:09:00,-34.9064686053498,-56.1630641137974,6.233596,6.233596,120.55988706002,128.40109466002,6.233596,0,9.429790328,1.17301184856,18,5,8.371,128.40109466002,6.233596,0.223694,9.7641407324,0,0,-3.35541,317.1, 0.7, -1.9,0,0,1024,1024,1286,1024,0,0,40,0,332.2,0,0,93,4.16,4.157,0,0,0,0,4.706,78.08,128.40109466002,6.233596,6,P-GPS,
98000,2022-08-12 02:09:00,-34.9064686616809,-56.1630640832117,6.889764,6.889764,120.55988706002,129.05726266002,6.889764,0,9.4423887536,1.19551184928,19,5,8.371,129.05726266002,6.889764,0.223694,9.7641407324,0,0,-3.131716,317.2, 0.1, -2.3,0,0,1024,1024,1684,1024,0,0,100,0,332.2,0,0,93,4.16,4.157,0,0,0,0,4.706,78.08,129.05726266002,6.889764,6,P-GPS,
98100,2022-08-12 02:09:00,-34.9064688850953,-56.1630639318943,7.217848,7.217848,120.55988706002,129.38534666002,7.217848,0,9.488025238,1.28875332208,19,5,8.371,129.38534666002,7.217848,0.223694,9.7641407324,0,0,-2.908022,317.3, 0.4, -2,0,0,1024,1024,1684,1024,0,0,100,0,332.2,0,0,93,4.16,4.157,0,0,0,0,4.706,78.08,129.38534666002,7.217848,6,P-GPS,
98200,2022-08-12 02:09:00,-34.9064693220426,-56.1630636211492,7.874016,7.874016,120.55988706002,130.04151466002,7.874016,0,9.5770344272,1.47330713376,19,5,8.371,130.04151466002,7.874016,0.223694,9.7641407324,0,0,-3.35541,317.3, 0.4, -0.9,0,0,1024,1024,1684,1024,0,0,100,0,332.2,0,0,93,4.16,4.157,0,0,0,0,4.706,78.08,130.04151466002,7.874016,6,P-GPS,
98300,2022-08-12 02:09:01,-34.9064694989161,-56.1630634528865,8.530184,8.4973756,120.59269546002,130.69768266002,8.2021,0,9.6074806224,1.55515424924,19,5,8.371,130.69768266002,8.530184,0.223694,9.7641407324,0,0,-3.802798,317.3, -0.3, -1.7,0,0,1024,1024,1684,1024,0,0,100,0,332.2,0,0,93,4.16,4.157,0,0,0,0,4.706,78.08,130.69768266002,8.530184,6,P-GPS,
98400,2022-08-12 02:09:01,-34.906469672588,-56.1630632981923,9.186352,9.186352,120.55988706002,131.35385066002,8.858268,0,9.6395016208,1.63362209952,19,5,8.371,131.35385066002,9.186352,0.223694,9.7641407324,0,0,-4.47388,317.6, -0.5, -1.7,0,0,1024,1024,1684,1024,0,0,100,0,332.2,0,0,93,4.16,4.157,0,0,0,0,4.706,78.08,131.35385066002,9.186352,6,P-GPS,
98500,2022-08-12 02:09:01,-34.9064697325148,-56.1630632270393,9.84252,9.84252,120.55988706002,132.01001866002,9.84252,0,9.6480974216,1.6641404732,19,5,8.371,132.01001866002,9.84252,0.223694,9.7641407324,0,0,-5.368656,317.6, 0.3, -1.7,0,0,1024,1024,1684,1024,0,0,100,0,332.2,0,0,93,4.16,4.157,0,0,0,0,4.706,78.08,132.01001866002,9.84252,6,P-GPS,
98600,2022-08-12 02:09:01,-34.9064696588179,-56.1630631199089,10.826772,10.826772,120.55988706002,132.99427066002,10.498688,0,9.6089570004,1.70597774488,18,5,8.32,132.99427066002,10.826772,0.223694,9.7641407324,0,0,-5.816044,317.5, 1.2, -1.9,0,0,1024,1024,1684,1024,0,0,100,0,332.2,0,0,93,4.152,4.137,0,0,0,0,4.398,78.08,132.99427066002,10.826772,6,P-GPS,
98700,2022-08-12 02:09:01,-34.9064698582599,-56.1630631257615,11.811024,11.811024,120.55988706002,133.97852266002,11.48294,0,9.6733270812,1.77876646112,18,5,8.32,133.97852266002,11.811024,0.223694,9.7641407324,0,0,-6.263432,317.4, 1.4, -1.7,0,0,1024,1024,1684,1024,0,0,100,0,332.2,0,0,93,4.152,4.137,0,0,0,0,4.398,78.08,133.97852266002,11.811024,6,P-GPS,
98800,2022-08-12 02:09:01,-34.9064700897074,-56.1630631385753,12.795276,12.795276,120.55988706002,134.96277466002,12.139108,0,9.7490488684,1.86329730372,19,5,8.32,134.96277466002,12.795276,0.223694,9.7641407324,0,0,-6.487126,317.3, 1.4, -0.2,0,0,1024,1024,1684,1024,0,0,100,0,332.2,0,0,93,4.152,4.137,0,0,0,0,4.398,78.08,134.96277466002,12.795276,6,P-GPS,
98900,2022-08-12 02:09:01,-34.9064702850719,-56.1630631101741,14.107612,14.107612,120.55988706002,136.27511066002,13.12336,0,9.8074806288,1.93507880208,19,5,8.32,136.27511066002,14.107612,0.223694,9.8074806288,0,0,-6.71082,317.3, 1.2, -0.7,0,0,1024,1024,1684,1024,0,0,100,0,332.2,0,0,93,4.152,4.137,0,0,0,0,4.398,78.08,136.27511066002,14.107612,6,P-GPS,
99000,2022-08-12 02:09:01,-34.9064704891126,-56.163063072793,15.091864,15.091864,120.55988706002,137.25936266002,14.107612,0,9.8675528092,2.01035767588,19,5,8.32,137.25936266002,15.091864,0.223694,9.8675528092,0,0,-6.71082,317.5, 1, 0,0,0,1024,1024,1140,1024,0,0,18,0,332.2,0,0,93,4.152,4.137,0,0,0,0,4.398,78.08,137.25936266002,15.091864,6,P-GPS,
99100,2022-08-12 02:09:01,-34.9064705427829,-56.1630635139117,16.076116,16.1417328,120.49427026002,138.24361466002,14.76378,0.223694,9.9480646228,2.14378943868,19,5,8.32,138.24361466002,16.076116,0.223694,9.9480646228,-0.223694,0,-6.71082,317.5, -0.3, 0.2,0,0,1024,1024,1264,1024,0,0,36,0,332.2,0,0,93,4.152,4.137,0,0,0,0,4.398,78.08,138.24361466002,16.076116,6,P-GPS,
99200,2022-08-12 02:09:01,-34.9064706879815,-56.163063592705,17.060368,17.1259848,120.49427026002,139.22786666002,15.748032,0.223694,10.0058074068,2.20177500484,19,5,8.32,139.22786666002,17.060368,0.223694,10.0058074068,-0.223694,0,-6.263432,317.4, -0.7, -0.3,0,0,1024,1024,1684,1024,0,0,100,0,332.2,0,0,93,4.152,4.137,0,0,0,0,4.398,78.08,139.22786666002,17.060368,6,P-GPS,
99300,2022-08-12 02:09:01,-34.9064709010471,-56.1630635823709,17.716536,17.7821528,120.49427026002,139.88403466002,16.4042,0,10.0724412672,2.27957356376,19,5,8.32,139.88403466002,17.716536,0.223694,10.0724412672,0,0,-5.59235,317.5, -0.6, -0.5,0,0,1024,1024,1538,1024,0,0,78,0,332.2,0,0,93,4.152,4.137,0,0,0,0,4.398,78.08,139.88403466002,17.716536,6,P-GPS,
99400,2022-08-12 02:09:02,-34.9064711093902,-56.1630635718696,18.700788,18.7664048,120.49427026002,140.86828666002,17.388452,0,10.1376643664,2.35565296252,17,5,8.32,140.86828666002,18.700788,0.223694,10.1376643664,0,0,-5.59235,317.4, -0.9, 0.1,0,0,1026,1024,1024,1024,0,0,0,0,332.2,0,0,93,4.152,4.137,0,0,0,0,4.398,78.08,140.86828666002,18.700788,6,P-GPS,
99500,2022-08-12 02:09:02,-34.9064708645406,-56.1630637783231,19.68504,19.7506568,120.49427026002,141.85253866002,18.04462,0,10.089075126,2.46426188988,17,5,8.32,141.85253866002,19.68504,0.223694,10.1376643664,0,0,-6.039738,317.3, -1.2, -0.4,0,0,1026,1024,1024,1024,0,0,0,0,332.2,0,0,93,4.152,4.137,0,0,0,0,4.398,78.08,141.85253866002,19.68504,6,P-GPS,
99600,2022-08-12 02:09:02,-34.9064708923089,-56.1630638331876,20.341208,20.4068248,120.49427026002,142.50870666002,18.700788,0,10.1059058352,2.48355322908,19,5,8.292,142.50870666002,20.341208,0.223694,10.1376643664,0,0,-5.368656,317.4, -0.8, 0.2,0,0,1684,1024,1024,1024,100,0,0,0,332.2,0,0,93,4.157,4.181,0,0,0,0,5.696,78.08,142.50870666002,20.341208,6,P-GPS,
99700,2022-08-12 02:09:02,-34.9064710388623,-56.1630637817299,20.997376,21.0629928,120.49427026002,143.16487466002,19.356956,0,10.1452431068,2.53919627548,19,5,8.292,143.16487466002,20.997376,0.223694,10.1452431068,0,0,-4.697574,317.4, -8, 0,0,0,1684,536,1024,1024,100,-74,0,0,332.2,0,0,93,4.157,4.181,0,0,0,0,5.696,78.08,143.16487466002,20.997376,6,P-GPS,
99800,2022-08-12 02:09:02,-34.9064711291009,-56.1630637832799,21.653544,21.7191608,120.49427026002,143.82104266002,20.013124,0,10.1743113492,2.57212278572,19,5,8.292,143.82104266002,21.653544,0.223694,10.1743113492,0,0,-4.026492,318, -19.2, -5.7,0,0,1684,539,1024,1024,100,-73,0,0,332.2,0,0,93,4.157,4.181,0,0,0,0,5.696,78.08,143.82104266002,21.653544,6,P-GPS,"Punto de origen actualizado. Altitud de RPO establecida en 40m (Code: 3000001)"
99900,2022-08-12 02:09:02,-34.9064712476842,-56.1630639087242,22.309712,22.3753288,120.49427026002,144.47721066002,20.341208,0.4921268,10.2302824796,2.62939969044,19,5,8.292,144.47721066002,22.309712,0.4921268,10.2302824796,0.223694,-0.447388,-3.131716,319, -21.3, -11.6,1,0,1684,868,1024,1024,100,-24,0,0,332.2,0,0,93,4.157,4.181,0,0,0,0,5.696,78.08,144.47721066002,22.309712,6,P-GPS,
100000,2022-08-12 02:09:02,-34.9064712142131,-56.163064328907,22.637796,22.7034128,120.49427026002,144.80529466002,20.669292,1.2079476,10.2809058408,2.75571203044,19,5,8.292,144.80529466002,22.637796,1.2079476,10.2809058408,0.447388,-1.11847,-2.23694,319.4, -21, -12.4,0,0,1684,950,1024,1024,100,-11,0,0,332.2,0,0,93,4.157,4.181,0,0,0,0,5.696,78.08,144.80529466002,22.637796,6,P-GPS,
100100,2022-08-12 02:09:02,-34.9064711089049,-56.1630651222535,22.96588,23.0643052,120.46146186002,145.13337866002,20.997376,1.7000744,10.366798232,2.9961779174,19,5,8.292,145.13337866002,22.96588,1.7000744,10.366798232,0.671082,-1.565858,-1.342164,319.4, -22.9, -8.2,0,0,1627,1024,1024,1024,91,0,0,0,332.2,0,0,93,4.157,4.181,0,0,0,0,5.696,78.08,145.13337866002,22.96588,6,P-GPS,
100200,2022-08-12 02:09:02,-34.9064709106191,-56.1630661123878,22.96588,23.0971136,120.42865346002,145.13337866002,20.997376,2.4158952,10.46013813,3.3011483996,19,5,8.292,145.13337866002,22.96588,2.4158952,10.46013813,0.894776,-2.23694,-0.671082,318.7, -23.6, -4.6,0,0,1599,1024,1024,1024,87,0,0,0,332.2,0,0,93,4.157,4.181,0,0,0,0,5.696,78.08,145.13337866002,22.96588,6,P-GPS,
100300,2022-08-12 02:09:02,-34.9064705904833,-56.163067735395,23.293964,23.4908144,120.36303666002,145.46146266002,20.997376,2.9974996,10.6317588704,3.8005906728,19,5,8.292,145.46146266002,23.293964,2.9974996,10.6317588704,1.342164,-2.684328,-0.447388,318.3, -23.5, -2.8,0,0,1599,1024,1024,1024,87,0,0,0,332.2,0,0,93,4.157,4.181,0,0,0,0,5.696,78.08,145.46146266002,23.293964,6,P-GPS,
100400,2022-08-12 02:09:03,-34.9064700326044,-56.1630692710076,23.293964,23.4908144,120.36303666002,145.46146266002,21.32546,3.7133204,10.7389439132,4.303149744,19,5,8.292,145.46146266002,23.293964,3.7133204,10.7389439132,2.013246,-3.131716,-0.223694,318.2, -23.4, -2.5,0,0,1684,1024,1024,1024,100,0,0,0,332.2,0,0,93,4.157,4.181,0,0,0,0,5.696,78.08,145.46146266002,23.293964,6,P-GPS,
100500,2022-08-12 02:09:03,-34.9064690451095,-56.1630711972581,23.293964,23.4908144,120.36303666002,145.46146266002,20.997376,4.3396636,10.8253940472,4.9828413668,19,5,8.292,145.46146266002,23.293964,4.3396636,10.8253940472,2.460634,-3.579104,0,318, -23.6, -1.5,0,0,1684,1024,1024,1024,100,0,0,0,332.2,0,0,93,4.157,4.181,0,0,0,0,5.696,78.08,145.46146266002,23.293964,6,P-GPS,
100600,2022-08-12 02:09:03,-34.9064678954085,-56.1630732655821,23.293964,23.5236228,120.33022826002,145.46146266002,20.997376,5.1002232,10.9414045496,5.7304463776,19,5,8.382,145.46146266002,23.293964,5.1002232,10.9414045496,3.131716,-4.026492,0,317.7, -23, -1.9,0,0,1684,1024,1024,1024,100,0,0,0,332.2,0,0,93,4.196,4.184,0,0,0,0,3.548,78.08,145.46146266002,23.293964,6,P-GPS,
100700,2022-08-12 02:09:03,-34.9064665883737,-56.1630756609672,23.293964,23.5564312,120.29741986002,145.46146266002,20.997376,5.9055216,11.1429137424,6.5913387936,19,5,8.382,145.46146266002,23.293964,5.9055216,11.1429137424,3.579104,-4.697574,0,317.7, -22.7, -1.5,0,0,1598,1024,1024,1024,87,0,0,0,332.2,0,0,93,4.196,4.184,0,0,0,0,3.548,78.08,145.46146266002,23.293964,6,P-GPS,
100800,2022-08-12 02:09:03,-34.9064649042369,-56.1630784159147,23.293964,23.5564312,120.29741986002,145.46146266002,20.997376,6.5318648,11.4120410476,7.6194556244,19,5,8.382,145.46146266002,23.293964,6.5318648,11.4120410476,4.026492,-5.144962,0,317.7, -22.3, -0.8,0,0,1024,1024,1024,1024,0,0,0,0,332.2,0,0,93,4.196,4.184,0,0,0,0,3.548,78.08,145.46146266002,23.293964,6,P-GPS,
100900,2022-08-12 02:09:03,-34.9064630354053,-56.1630813039049,22.96588,23.2283472,120.29741986002,145.13337866002,20.669292,7.158208,11.7650266232,8.7201774444,19,5,8.382,145.46146266002,23.293964,7.158208,11.7650266232,4.47388,-5.59235,0,317.6, -16.5, -0.3,1,0,1024,1024,1024,1024,0,0,0,0,332.2,0,0,93,4.196,4.184,0,0,0,0,3.548,78.08,145.13337866002,22.96588,6,P-GPS,
101000,2022-08-12 02:09:03,-34.9064611244507,-56.163084188103,22.96588,23.2283472,120.29741986002,145.13337866002,20.997376,7.4713796,12.1997051148,9.8295934904,19,5,8.382,145.46146266002,23.293964,7.4713796,12.1997051148,4.697574,-5.816044,0,317.4, 5.5, 0.2,0,0,1024,1024,1024,1024,0,0,0,0,332.2,0,0,93,4.196,4.184,0,0,0,0,3.548,78.08,145.13337866002,22.96588,6,P-GPS,
101100,2022-08-12 02:09:03,-34.9064590246927,-56.1630870781642,22.96588,23.2283472,120.29741986002,145.13337866002,20.997376,6.6660812,12.6936355768,10.9848756796,19,5,8.382,145.46146266002,23.293964,7.4713796,12.6936355768,4.250186,-5.144962,0,318.3, 22, 3.4,0,0,1024,1024,1236,1024,0,0,32,0,332.2,0,0,93,4.196,4.184,0,0,0,0,3.548,78.08,145.13337866002,22.96588,6,P-GPS,
101200,2022-08-12 02:09:03,-34.9064566325605,-56.1630895417538,22.96588,23.2283472,120.29741986002,145.13337866002,20.997376,5.7265664,13.1177169552,12.1272641676,19,5,8.382,145.46146266002,23.293964,7.4713796,13.1177169552,3.579104,-4.47388,0.223694,317.6, 22, 2.5,0,0,1024,1024,1684,1024,0,0,100,0,332.2,0,0,93,4.196,4.184,0,0,0,0,3.548,78.08,145.13337866002,22.96588,6,P-GPS,
101300,2022-08-12 02:09:03,-34.9064549496695,-56.1630915880673,22.96588,23.1955388,120.33022826002,145.13337866002,20.997376,4.7870516,13.557579174,12.9943901796,19,5,8.382,145.46146266002,23.293964,7.4713796,13.557579174,2.908022,-3.802798,0,317.8, 17.6, 2.7,0,0,1024,1024,1684,1024,0,0,100,0,332.2,0,0,93,4.196,4.184,0,0,0,0,3.548,78.08,145.13337866002,22.96588,6,P-GPS,
101400,2022-08-12 02:09:04,-34.9064535639842,-56.1630931977423,23.293964,23.5236228,120.33022826002,145.46146266002,20.997376,3.6685816,13.927657926,13.6926513568,19,5,8.382,145.46146266002,23.293964,7.4713796,13.927657926,2.23694,-2.908022,-0.447388,317.9, 16.7, 3.9,0,0,1024,1024,1684,1024,0,0,100,0,332.2,0,0,93,4.196,4.184,0,0,0,0,3.548,78.08,145.46146266002,23.293964,6,P-GPS,
101500,2022-08-12 02:09:04,-34.9064524831199,-56.1630942395563,23.622048,23.78609,120.39584506002,145.78954666002,19.68504,2.5501116,14.1702104272,14.1953088532,19,5,8.382,145.78954666002,23.622048,7.4713796,14.1702104272,1.565858,-2.013246,-1.11847,318, 16, 3.8,0,0,1024,1024,1684,1024,0,0,100,0,332.2,0,0,93,4.196,4.184,0,0,0,0,3.548,78.08,145.78954666002,23.622048,6,P-GPS,
101600,2022-08-12 02:09:04,-34.9064512049086,-56.1630941161008,23.622048,23.7532816,120.42865346002,145.78954666002,20.341208,2.0579848,14.0714899516,14.6631238288,19,5,8.33,145.78954666002,23.622048,7.4713796,14.1702104272,1.342164,-1.565858,-2.013246,317.6, 10.8, 1.2,0,0,1414,1024,1684,1024,59,0,100,0,332.2,0,0,93,4.156,4.156,0,0,0,0,4.139,78.08,145.78954666002,23.622048,6,P-GPS,
101700,2022-08-12 02:09:04,-34.9064506633085,-56.1630943491651,24.278216,24.4094496,120.42865346002,146.44571466002,20.341208,1.5882274,14.11909494,14.8726710796,19,5,8.33,146.44571466002,24.278216,7.4713796,14.1702104272,1.11847,-1.11847,-2.908022,317.5, 5.7, 0,0,0,1684,1024,1684,1024,100,0,100,0,332.2,0,0,93,4.156,4.156,0,0,0,0,4.139,78.08,146.44571466002,24.278216,6,P-GPS,
101800,2022-08-12 02:09:04,-34.9064502325517,-56.1630944482231,24.6063,24.6719168,120.49427026002,146.77379866002,20.997376,1.4316416,14.1333009772,15.0326120296,19,5,8.33,146.77379866002,24.6063,7.4713796,14.1702104272,0.894776,-1.11847,-3.802798,317.5, -4.6, -0.3,0,0,1684,1024,1220,1024,100,0,30,0,332.2,0,0,93,4.156,4.156,0,0,0,0,4.139,78.08,146.77379866002,24.6063,6,P-GPS,
101900,2022-08-12 02:09:04,-34.9064498695658,-56.1630946208342,25.262468,25.3608932,120.46146186002,147.42996666002,21.653544,1.7448132,14.1732944168,15.1747708268,19,5,8.33,147.42996666002,25.262468,7.4713796,14.1732944168,1.11847,-1.342164,-4.47388,317.5, -14.3, -0.3,1,0,1684,1024,1024,1024,100,0,0,0,332.2,0,0,93,4.156,4.156,0,0,0,0,4.139,78.08,147.42996666002,25.262468,6,P-GPS,
102000,2022-08-12 02:09:04,-34.9064500499779,-56.1630939539727,25.918636,25.9842528,120.49427026002,148.08613466002,22.309712,2.3711564,13.9800529408,15.3848758204,19,5,8.33,148.08613466002,25.918636,7.4713796,14.1732944168,1.565858,-1.789552,-4.47388,317.4, -15.3, 0.1,0,0,1502,1024,1024,1024,72,0,0,0,332.2,0,0,93,4.156,4.156,0,0,0,0,4.139,78.08,148.08613466002,25.918636,6,P-GPS,
102100,2022-08-12 02:09:04,-34.9064494200868,-56.1630946618154,26.574804,26.6404208,120.49427026002,148.74230266002,23.293964,2.8632832,14.1730319496,15.6974086388,19,5,8.33,148.74230266002,26.574804,7.4713796,14.1732944168,1.789552,-2.23694,-3.802798,317.3, -17.6, 0.2,0,0,1393,1024,1024,1024,56,0,0,0,332.2,0,0,93,4.156,4.156,0,0,0,0,4.139,78.08,148.74230266002,26.574804,6,P-GPS,
102200,2022-08-12 02:09:04,-34.9064487064855,-56.1630954663029,27.230972,27.2965888,120.49427026002,149.39847066002,23.950132,3.3330406,14.3975070224,16.0519690176,19,5,8.33,149.39847066002,27.230972,7.4713796,14.3975070224,2.23694,-2.460634,-3.131716,317.3, -16.5, 0.7,0,0,1393,1024,1024,1024,56,0,0,0,332.2,0,0,93,4.156,4.156,0,0,0,0,4.139,78.08,149.39847066002,27.230972,6,P-GPS,
102300,2022-08-12 02:09:04,-34.906447829049,-56.1630965148339,27.559056,27.6574812,120.46146186002,149.72655466002,24.6063,3.6462122,14.6982616252,16.5001973784,19,5,8.33,149.72655466002,27.559056,7.4713796,14.6982616252,2.460634,-2.684328,-2.23694,317.4, -11.6, 0.7,0,0,1459,1024,1024,1024,66,0,0,0,332.2,0,0,93,4.156,4.156,0,0,0,0,4.139,78.08,149.72655466002,27.559056,6,P-GPS,
102400,2022-08-12 02:09:05,-34.9064469155465,-56.1630975696224,27.88714,27.9527568,120.49427026002,150.05463866002,24.934384,3.802798,15.00820258,16.9592197028,19,5,8.33,150.05463866002,27.88714,7.4713796,15.00820258,2.684328,-2.684328,-1.342164,317.2, -10.1, 0.4,0,0,1684,1024,1024,1024,100,0,0,0,332.2,0,0,93,4.156,4.156,0,0,0,0,4.139,78.08,150.05463866002,27.88714,6,P-GPS,
102500,2022-08-12 02:09:05,-34.9064459988143,-56.1630996661204,28.215224,28.3136492,120.46146186002,150.38272266002,24.934384,3.9593838,15.63730365,17.670112114,19,5,8.33,150.38272266002,28.215224,7.4713796,15.63730365,2.908022,-2.684328,-0.671082,317.2, -15.1, 0.6,0,0,1684,1024,1024,1024,100,0,0,0,332.2,0,0,93,4.156,4.156,0,0,0,0,4.139,78.08,150.38272266002,28.215224,6,P-GPS,
102600,2022-08-12 02:09:05,-34.9064446724249,-56.1631011274774,28.215224,28.3136492,120.46146186002,150.38272266002,24.934384,4.4291412,16.0893377852,18.3223102976,19,5,8.217,150.38272266002,28.215224,7.4713796,16.0893377852,3.131716,-3.131716,-0.223694,317.1, -20.6, -0.1,0,0,1684,1024,1302,1024,100,0,42,0,332.2,0,0,93,4.171,4.167,0,0,0,0,5.632,78.08,150.38272266002,28.215224,6,P-GPS,
102700,2022-08-12 02:09:05,-34.9064430629703,-56.1631027757413,28.215224,28.2808408,120.49427026002,150.38272266002,25.262468,4.8988986,16.6184060436,19.0891410308,19,5,8.217,150.38272266002,28.215224,7.4713796,16.6184060436,3.579104,-3.35541,0,317.4, -20.7, -0.1,0,0,1581,1024,1684,1024,84,0,100,0,332.2,0,0,93,4.171,4.167,0,0,0,0,5.632,78.08,150.38272266002,28.215224,6,P-GPS,
102800,2022-08-12 02:09:05,-34.9064413421293,-56.163104557552,28.543308,28.5761164,120.52707866002,150.71080666002,25.262468,5.8607828,17.2097118368,19.9127959128,19,5,8.217,150.71080666002,28.543308,7.4713796,17.2097118368,4.250186,-4.026492,-0.223694,317.6, -20, -0.6,0,0,1493,1024,1684,1024,71,0,100,0,332.2,0,0,93,4.171,4.167,0,0,0,0,5.632,78.08,150.71080666002,28.543308,6,P-GPS,
102900,2022-08-12 02:09:05,-34.9064388721425,-56.1631067324502,28.543308,28.543308,120.55988706002,150.71080666002,25.590552,6.487126,17.977198738,21.0243773132,19,5,8.217,150.71080666002,28.543308,7.4713796,17.977198738,4.697574,-4.47388,-1.11847,317.5, -16.5, 0.1,1,0,1465,1024,1684,1024,67,0,100,0,332.2,0,0,93,4.171,4.167,0,0,0,0,5.632,78.08,150.71080666002,28.543308,6,P-GPS,
103000,2022-08-12 02:09:05,-34.9064366139869,-56.1631089623017,28.871392,28.871392,120.55988706002,151.03889066002,25.918636,7.1134692,18.7799546692,22.0845479508,19,5,8.217,151.03889066002,28.871392,7.4713796,18.7799546692,5.144962,-4.921268,-1.789552,317.4, -12.4, 1.1,0,0,1465,1024,1684,1024,67,0,100,0,332.2,0,0,93,4.171,4.167,0,0,0,0,5.632,78.08,151.03889066002,28.871392,6,P-GPS,
103100,2022-08-12 02:09:05,-34.9064343995441,-56.1631112348894,29.199476,29.1338592,120.62550386002,151.36697466002,26.24672,7.4266408,19.615978318,23.1405191132,19,5,8.217,151.36697466002,29.199476,7.4713796,19.615978318,5.368656,-5.144962,-2.460634,317.4, -9.9, 0.9,0,0,1468,1024,1684,1024,67,0,100,0,332.2,0,0,93,4.171,4.167,0,0,0,0,5.632,78.08,151.36697466002,29.199476,6,P-GPS,
103200,2022-08-12 02:09:05,-34.9064319653981,-56.1631137041305,29.855644,29.7900272,120.62550386002,152.02314266002,26.574804,7.605596,20.550033466,24.295768494,19,5,8.217,152.02314266002,29.855644,7.605596,20.550033466,5.59235,-5.144962,-3.35541,317.4, -9.6, 0.9,0,0,1466,1024,1684,1024,67,0,100,0,332.2,0,0,93,4.171,4.167,0,0,0,0,5.632,78.08,152.02314266002,29.855644,6,P-GPS,
103300,2022-08-12 02:09:05,-34.9064290674583,-56.1631163002797,30.511812,30.3805784,120.69112066002,152.67931066002,27.230972,7.7621818,21.5916673576,25.6077436016,19,5,8.217,152.67931066002,30.511812,7.7621818,21.5916673576,5.816044,-5.144962,-4.250186,317.5, -10.4, -0.7,0,0,1465,1024,1684,1024,67,0,100,0,332.2,0,0,93,4.171,4.167,0,0,0,0,5.632,78.08,152.67931066002,30.511812,6,P-GPS,
103400,2022-08-12 02:09:06,-34.9064263073572,-56.1631189693447,31.16798,31.003938,120.72392906002,153.33547866002,27.88714,8.0753534,22.6654206728,26.8930126716,19,5,8.217,153.33547866002,31.16798,8.0753534,22.6654206728,6.039738,-5.368656,-4.921268,317.6, -10.5, -1.3,0,0,1454,1024,1673,1024,65,0,98,0,332.2,0,0,93,4.171,4.167,0,0,0,0,5.632,78.08,153.33547866002,31.16798,6,P-GPS,
103500,2022-08-12 02:09:06,-34.90642361267,-56.1631214601472,32.152232,31.9553816,120.75673746002,154.31973066002,28.543308,8.2319392,23.7018708372,28.1267069368,19,5,8.217,154.31973066002,32.152232,8.2319392,23.7018708372,6.039738,-5.59235,-5.59235,317.5, -10.7, -0.6,0,0,1299,1024,1024,1024,42,0,0,0,332.2,0,0,93,4.171,4.167,0,0,0,0,5.632,78.08,154.31973066002,32.152232,6,P-GPS,
103600,2022-08-12 02:09:06,-34.9064208602072,-56.1631240367198,33.136484,32.9068252,120.78954586002,155.30398266002,29.199476,8.4556332,24.7881569612,29.3927502844,19,5,8.231,155.30398266002,33.136484,8.4556332,24.7881569612,6.71082,-5.144962,-5.59235,322.9, -10.8, 0.8,0,0,1079,1024,1024,1024,8,0,0,0,332.2,0,0,93,4.101,4.092,0,0,0,0,4.841,78.26,155.30398266002,33.136484,6,P-GPS,
103700,2022-08-12 02:09:06,-34.9064173972738,-56.1631262105838,33.792652,33.464568,120.88797106002,155.96015066002,30.183728,8.4556332,25.886483768,30.8137805136,19,5,8.231,155.96015066002,33.792652,8.4556332,25.886483768,6.71082,-5.144962,-5.144962,323, -7, 1,0,0,1024,1024,1024,1024,0,0,0,0,332.2,0,0,93,4.101,4.092,0,0,0,0,4.841,78.26,155.96015066002,33.792652,6,P-GPS,
103800,2022-08-12 02:09:06,-34.9064144023715,-56.1631288427992,34.776904,34.4160116,120.92077946002,156.94440266002,30.183728,8.3214168,27.0632226508,32.1607293756,19,5,8.231,156.94440266002,34.776904,8.4556332,27.0632226508,6.71082,-4.921268,-4.47388,322.7, 0.3, 0,0,0,1024,1024,1024,1024,0,0,0,0,332.2,0,0,93,4.101,4.092,0,0,0,0,4.841,78.26,156.94440266002,34.776904,6,P-GPS,
103900,2022-08-12 02:09:06,-34.9064117674547,-56.1631312070384,35.104988,34.7440956,120.92077946002,157.27248666002,30.183728,7.82929,28.1240494564,33.354331776,19,5,8.231,157.27248666002,35.104988,8.4556332,28.1240494564,6.263432,-4.697574,-4.026492,322.8, 20.3, -0.6,1,0,1024,1024,1024,1024,0,0,0,0,332.2,0,0,93,4.101,4.092,0,0,0,0,4.841,78.26,157.27248666002,35.104988,6,P-GPS,
104000,2022-08-12 02:09:06,-34.9064093415095,-56.1631334035188,35.761156,35.3346468,120.98639626002,157.92865466002,30.183728,7.0239916,29.1150599868,34.456694016,19,5,8.231,157.92865466002,35.761156,8.4556332,29.1150599868,5.59235,-4.250186,-3.35541,323, 20.7, -0.8,0,0,1024,1024,1024,1024,0,0,0,0,332.2,0,0,93,4.101,4.092,0,0,0,0,4.841,78.26,157.92865466002,35.761156,6,P-GPS,
104100,2022-08-12 02:09:06,-34.9064071234451,-56.1631354896853,36.08924,35.6299224,121.01920466002,158.25673866002,30.183728,6.2186932,30.04839335,35.478675676,19,5,8.231,158.25673866002,36.08924,8.4556332,30.04839335,4.921268,-3.802798,-2.460634,323.1, 21, -0.1,0,0,1024,1024,1024,1024,0,0,0,0,332.2,0,0,93,4.101,4.092,0,0,0,0,4.841,78.26,158.25673866002,36.08924,6,P-GPS,
104200,2022-08-12 02:09:06,-34.9064054063779,-56.1631368776355,36.08924,35.597114,121.05201306002,158.25673866002,30.183728,5.4133948,30.7155849724,36.23031612,19,5,8.231,158.25673866002,36.08924,8.4556332,30.7155849724,4.250186,-3.35541,-1.789552,323.2, 22.5, 1,0,0,1024,1024,1024,1024,0,0,0,0,332.2,0,0,93,4.101,4.092,0,0,0,0,4.841,78.26,158.25673866002,36.08924,6,P-GPS,
104300,2022-08-12 02:09:07,-34.9064037203293,-56.1631384974853,36.417324,35.925198,121.05201306002,158.58482266002,30.183728,4.6080964,31.4410443132,37.013452628,19,5,8.231,158.58482266002,36.417324,8.4556332,31.4410443132,3.579104,-2.908022,-0.894776,323.6, 22.3, 1.1,0,0,1024,1024,1024,1024,0,0,0,0,332.2,0,0,93,4.101,4.092,0,0,0,0,4.841,78.26,158.58482266002,36.417324,6,P-GPS,
104400,2022-08-12 02:09:07,-34.9064023098656,-56.1631398891021,36.417324,35.925198,121.05201306002,158.58482266002,30.183728,3.802798,32.0594498448,37.67552614,19,5,8.231,158.58482266002,36.417324,8.4556332,32.0594498448,2.908022,-2.460634,-0.447388,324, 22.1, 1.8,0,0,1024,1024,1024,1024,0,0,0,0,332.2,0,0,93,4.101,4.092,0,0,0,0,4.841,78.26,158.58482266002,36.417324,6,P-GPS,
104500,2022-08-12 02:09:07,-34.906401346908,-56.1631408280766,36.417324,35.8923896,121.08482146002,158.58482266002,30.183728,3.019869,32.4797582572,38.125329304,19,5,8.231,158.58482266002,36.417324,8.4556332,32.4797582572,2.23694,-2.013246,0,324, 20.2, 2.3,0,0,1024,1024,1024,1024,0,0,0,0,332.2,0,0,93,4.101,4.092,0,0,0,0,4.841,78.26,158.58482266002,36.417324,6,P-GPS,
104600,2022-08-12 02:09:07,-34.9064009644484,-56.1631410418934,36.417324,35.8923896,121.08482146002,158.58482266002,30.183728,2.2145706,32.6060049804,38.278872616,19,5,8.296,158.58482266002,36.417324,8.4556332,32.6060049804,1.565858,-1.565858,0,323.5, 16.2, 1.6,0,0,1024,1024,1024,1024,0,0,0,0,332.2,0,0,93,4.186,4.175,0,0,0,0,5.15,78.26,158.58482266002,36.417324,6,P-GPS,
104700,2022-08-12 02:09:07,-34.906400683734,-56.1631414961237,36.745408,36.2204736,121.08482146002,158.91290666002,30.183728,1.4316416,32.7751978992,38.449148212,19,5,8.296,158.91290666002,36.745408,8.4556332,32.7751978992,0.894776,-1.11847,0,323.3, 11.4, 1.7,0,0,1024,1024,1024,1024,0,0,0,0,332.2,0,0,93,4.186,4.175,0,0,0,0,5.15,78.26,158.91290666002,36.745408,6,P-GPS,
104800,2022-08-12 02:09:07,-34.9064005953746,-56.1631417684299,36.745408,36.253282,121.05201306002,158.91290666002,30.183728,1.4316416,32.861549608,38.53674664,19,5,8.296,158.91290666002,36.745408,8.4556332,32.861549608,0.671082,-0.894776,0,323.2, 8.1, 2.4,0,0,1024,1024,1297,1024,0,0,41,0,332.2,0,0,93,4.186,4.175,0,0,0,0,5.15,78.26,158.91290666002,36.745408,6,P-GPS,
104900,2022-08-12 02:09:07,-34.9064005356172,-56.1631419480975,36.745408,36.253282,121.05201306002,158.91290666002,30.183728,0.8052984,32.918964308,38.594489424,19,5,8.296,158.91290666002,36.745408,8.4556332,32.918964308,0.447388,-0.671082,0,323.2, 5.7, 2.8,1,0,1024,1024,1566,1024,0,0,82,0,332.2,0,0,93,4.186,4.175,0,0,0,0,5.15,78.26,158.91290666002,36.745408,6,P-GPS,
105000,2022-08-12 02:09:07,-34.9064011251693,-56.163141503269,36.745408,36.253282,121.05201306002,158.91290666002,30.183728,0.7158208,32.6948501276,38.847442188,19,5,8.296,158.91290666002,36.745408,8.4556332,32.918964308,0.223694,-0.671082,-0.223694,323.2, 4.3, 2.9,0,0,1024,1024,1566,1024,0,0,82,0,332.2,0,0,93,4.186,4.175,0,0,0,0,5.15,78.26,158.91290666002,36.745408,6,P-GPS,
105100,2022-08-12 02:09:07,-34.9064013231523,-56.1631413369415,36.745408,36.2204736,121.08482146002,158.91290666002,30.183728,0.447388,32.6152897576,38.9353687,19,5,8.296,158.91290666002,36.745408,8.4556332,32.918964308,0,-0.447388,-0.894776,323, 2.4, 2.6,0,0,1024,1024,1684,1024,0,0,100,0,332.2,0,0,93,4.186,4.175,0,0,0,0,5.15,78.26,158.91290666002,36.745408,6,P-GPS,
105200,2022-08-12 02:09:07,-34.9064015733725,-56.1631410863951,37.073492,36.6141744,121.01920466002,159.24099066002,30.183728,0.223694,32.5043973656,39.05347894,19,5,8.296,159.24099066002,37.073492,8.4556332,32.918964308,0,-0.223694,-1.565858,322.9, 0.6, 2.2,0,0,1024,1024,1684,1024,0,0,100,0,332.2,0,0,93,4.186,4.175,0,0,0,0,5.15,78.26,159.24099066002,37.073492,6,P-GPS,
105300,2022-08-12 02:09:07,-34.9064017677728,-56.1631409156801,37.401576,36.9422584,121.01920466002,159.56907466002,30.183728,0.223694,32.4244432948,39.140749284,19,5,8.296,159.56907466002,37.401576,8.4556332,32.918964308,0,-0.223694,-2.460634,322.9, -0.6, 2.3,0,0,1024,1024,1189,1024,0,0,25,0,332.2,0,0,93,4.186,4.175,0,0,0,0,5.15,78.26,159.56907466002,37.401576,6,P-GPS,
105400,2022-08-12 02:09:08,-34.9064021382862,-56.1631404019785,38.057744,37.565618,121.05201306002,160.22524266002,30.183728,0,32.2235246532,39.3454737,19,5,8.296,160.22524266002,38.057744,8.4556332,32.918964308,0,0,-3.131716,322.9, -1.1, 2.7,0,0,1242,1024,1024,1024,33,0,0,0,332.2,0,0,93,4.186,4.175,0,0,0,0,5.15,78.26,160.22524266002,38.057744,6,P-GPS,
105500,2022-08-12 02:09:08,-34.9064022555016,-56.1631403449934,38.385828,37.893702,121.05201306002,160.55332666002,30.183728,0,32.1872385628,39.39140546,19,5,8.296,160.55332666002,38.385828,8.4556332,32.918964308,0,0,-2.908022,322.9, 0, 2.4,0,0,1678,1024,1024,1024,99,0,0,0,332.2,0,0,93,4.186,4.175,0,0,0,0,5.15,78.26,160.55332666002,38.385828,6,P-GPS,
105600,2022-08-12 02:09:08,-34.9064023745311,-56.1631402847594,38.713912,38.221786,121.05201306002,160.88141066002,30.183728,0,32.1498041784,39.438649556,19,5,8.326,160.88141066002,38.713912,8.4556332,32.918964308,0,0,-2.23694,322.8, -5.8, 2.2,0,0,1684,1024,1024,1024,100,0,0,0,332.2,0,0,93,4.133,4.124,0,0,0,0,4.082,78.26,160.88141066002,38.713912,6,P-GPS,
105700,2022-08-12 02:09:08,-34.9064023770421,-56.1631402477687,39.041996,38.54987,121.05201306002,161.20949466002,30.183728,0,32.139764808,39.449804412,19,5,8.326,161.20949466002,39.041996,8.4556332,32.918964308,0,0,-1.565858,322.6, -16.2, 2,0,0,1684,1024,1024,1024,100,0,0,0,332.2,0,0,93,4.133,4.124,0,0,0,0,4.082,78.26,161.20949466002,39.041996,6,P-GPS,
105800,2022-08-12 02:09:08,-34.9064022821071,-56.1631403014423,39.041996,38.54987,121.05201306002,161.20949466002,30.183728,0.4921268,32.17109683,39.487862156,19,5,8.326,161.20949466002,39.041996,8.4556332,32.918964308,0.447388,-0.223694,-0.894776,322.5, -22.8, 1.7,0,0,1684,1024,1024,1024,100,0,0,0,332.2,0,0,93,4.133,4.124,0,0,0,0,4.082,78.26,161.20949466002,39.041996,6,P-GPS,
105900,2022-08-12 02:09:08,-34.906401508632,-56.1631410884635,39.37008,38.9107624,121.01920466002,161.53757866002,30.183728,1.11847,32.516897366,39.855316236,19,5,8.326,161.53757866002,39.37008,8.4556332,32.918964308,0.894776,-0.671082,-0.223694,322.5, -24.3, 1.9,0,0,1684,1024,1024,1024,100,0,0,0,332.2,0,0,93,4.133,4.124,0,0,0,0,4.082,78.26,161.53757866002,39.37008,6,P-GPS,
106000,2022-08-12 02:09:08,-34.9064010445613,-56.1631415759028,39.37008,38.877954,121.05201306002,161.53757866002,30.183728,1.9237684,32.728511546,40.07874144,19,5,8.326,161.53757866002,39.37008,8.4556332,32.918964308,1.565858,-1.11847,0,322.6, -24.2, 1.7,0,0,1684,1024,1024,1024,100,0,0,0,332.2,0,0,93,4.133,4.124,0,0,0,0,4.082,78.26,161.53757866002,39.37008,6,P-GPS,
106100,2022-08-12 02:09:08,-34.9064001840785,-56.1631422892664,39.37008,38.8451456,121.08482146002,161.53757866002,30.183728,2.8632832,33.07250762,40.458662712,19,5,8.326,161.53757866002,39.37008,8.4556332,33.07250762,2.23694,-1.789552,0,322.8, -22.9, 1.2,0,0,1684,1024,1024,1024,100,0,0,0,332.2,0,0,93,4.133,4.124,0,0,0,0,4.082,78.26,161.53757866002,39.37008,6,P-GPS,
106200,2022-08-12 02:09:08,-34.9063991271011,-56.163143185536,39.37008,38.8451456,121.08482146002,161.53757866002,30.183728,3.6685816,33.500985324,40.928150916,19,5,8.326,161.53757866002,39.37008,8.4556332,33.500985324,2.908022,-2.23694,0,322.8, -22.2, 1.4,0,0,1684,1024,1024,1024,100,0,0,0,332.2,0,0,93,4.133,4.124,0,0,0,0,4.082,78.26,161.53757866002,39.37008,6,P-GPS,
106300,2022-08-12 02:09:08,-34.9063974912802,-56.1631449095363,39.37008,38.8123372,121.11762986002,161.53757866002,30.183728,4.47388,34.252297684,41.717192936,19,5,8.326,161.53757866002,39.37008,8.4556332,34.252297684,3.579104,-2.684328,0,322.8, -22.4, 1.7,0,0,1684,1024,1024,1024,100,0,0,0,332.2,0,0,93,4.133,4.124,0,0,0,0,4.082,78.26,161.53757866002,39.37008,6,P-GPS,
106400,2022-08-12 02:09:09,-34.9063959300975,-56.1631464541407,39.37008,38.8123372,121.11762986002,161.53757866002,30.183728,5.2791784,34.945211092,42.450460676,19,5,8.326,161.53757866002,39.37008,8.4556332,34.945211092,4.250186,-3.131716,0,322.7, -21.5, 1.4,0,0,1684,1024,1024,1024,100,0,0,0,332.2,0,0,93,4.133,4.124,0,0,0,0,4.082,78.26,161.53757866002,39.37008,6,P-GPS,
106500,2022-08-12 02:09:09,-34.9063941328327,-56.1631481116393,39.041996,38.4842532,121.11762986002,161.20949466002,30.183728,5.9055216,35.714568072,43.27263918,19,5,8.326,161.53757866002,39.37008,8.4556332,35.714568072,4.697574,-3.579104,0,322.7, -21.4, 0,0,0,1537,1024,1024,1024,78,0,0,0,332.2,0,0,93,4.133,4.124,0,0,0,0,4.082,78.26,161.20949466002,39.041996,6,P-GPS,
106600,2022-08-12 02:09:09,-34.9063921471928,-56.1631499631797,39.041996,38.4514448,121.15043826002,161.20949466002,30.183728,6.3976484,36.572179648,44.1847127,19,5,8.312,161.53757866002,39.37008,8.4556332,36.572179648,5.144962,-3.802798,0,322.7, -20.8, 0.6,0,0,1382,1024,1024,1024,54,0,0,0,332.2,0,0,93,4.152,4.147,0,0,0,0,4.304,78.26,161.20949466002,39.041996,6,P-GPS,
106700,2022-08-12 02:09:09,-34.9063891493414,-56.1631526316806,39.041996,38.4186364,121.18324666002,161.20949466002,30.183728,7.0239916,37.840224308,45.539043452,19,5,8.312,161.53757866002,39.37008,8.4556332,37.840224308,5.59235,-4.250186,0,322.7, -16.2, 1.2,0,0,1202,1024,1463,1024,27,0,67,0,332.2,0,0,93,4.152,4.147,0,0,0,0,4.304,78.26,161.20949466002,39.041996,6,P-GPS,
106800,2022-08-12 02:09:09,-34.9063867202012,-56.1631548755459,39.041996,38.4514448,121.15043826002,161.20949466002,30.183728,7.3371632,38.892389696,46.650920128,19,5,8.312,161.53757866002,39.37008,8.4556332,38.892389696,5.816044,-4.47388,0,322.7, -9.8, 1,0,0,1093,1024,1684,1024,10,0,100,0,332.2,0,0,93,4.152,4.147,0,0,0,0,4.304,78.26,161.20949466002,39.041996,6,P-GPS,
106900,2022-08-12 02:09:09,-34.9063841354763,-56.1631572605943,39.041996,38.4514448,121.15043826002,161.20949466002,30.183728,7.3371632,40.014436976,47.833334864,19,5,8.312,161.53757866002,39.37008,8.4556332,40.014436976,5.816044,-4.47388,-0.223694,322.8, -3.8, 1.6,0,0,1093,1024,1684,1024,10,0,100,0,332.2,0,0,93,4.152,4.147,0,0,0,0,4.304,78.26,161.20949466002,39.041996,6,P-GPS,
107000,2022-08-12 02:09:09,-34.9063816876058,-56.1631595273999,39.041996,38.5170616,121.08482146002,161.20949466002,30.183728,7.158208,41.082350396,48.954725976,19,5,8.312,161.53757866002,39.37008,8.4556332,41.082350396,5.59235,-4.47388,-0.894776,322.9, -1, 1.4,0,0,1024,1024,1684,1024,0,0,100,0,332.2,0,0,93,4.152,4.147,0,0,0,0,4.304,78.26,161.20949466002,39.041996,6,P-GPS,
107100,2022-08-12 02:09:09,-34.9063790818479,-56.1631616768716,39.37008,38.8451456,121.08482146002,161.53757866002,30.183728,6.8450364,42.158465916,50.102691892,19,5,8.312,161.53757866002,39.37008,8.4556332,42.158465916,5.368656,-4.250186,-1.565858,323.6, 14.6, 1.9,0,0,1024,1024,1684,1024,0,0,100,0,332.2,0,0,93,4.152,4.147,0,0,0,0,4.304,78.26,161.53757866002,39.37008,6,P-GPS,
107200,2022-08-12 02:09:09,-34.9063770481558,-56.1631635297387,39.698164,39.206038,121.05201306002,161.86566266002,30.183728,5.4133948,43.04298038,51.028873024,19,5,8.312,161.86566266002,39.698164,8.4556332,43.04298038,4.250186,-3.35541,-2.460634,323.6, 20.7, 2.1,0,0,1024,1024,1684,1024,0,0,100,0,332.2,0,0,93,4.152,4.147,0,0,0,0,4.304,78.26,161.86566266002,39.698164,6,P-GPS,
107300,2022-08-12 02:09:09,-34.9063754395137,-56.1631650708121,40.026248,39.5013136,121.08482146002,162.19374666002,30.183728,3.9817532,43.762140508,51.775264124,19,5,8.312,162.19374666002,40.026248,8.4556332,43.762140508,3.131716,-2.460634,-3.35541,323.5, 18.6, 2,0,0,1024,1024,1510,1024,0,0,74,0,332.2,0,0,93,4.152,4.147,0,0,0,0,4.304,78.26,162.19374666002,40.026248,6,P-GPS,
107400,2022-08-12 02:09:10,-34.9063743072175,-56.1631661781512,40.682416,40.19029,121.05201306002,162.84991466002,30.183728,2.684328,44.274279632,52.3047917,19,5,8.312,162.84991466002,40.682416,8.4556332,44.274279632,2.013246,-1.789552,-4.250186,323.3, 13, 2.4,0,0,1024,1024,1070,1024,0,0,7,0,332.2,0,0,93,4.152,4.147,0,0,0,0,4.304,78.26,162.84991466002,40.682416,6,P-GPS,
107500,2022-08-12 02:09:10,-34.9063733816751,-56.1631672401006,41.0105,40.518374,121.05201306002,163.17799866002,30.183728,2.0579848,44.73097256,52.768374392,19,5,8.312,163.17799866002,41.0105,8.4556332,44.73097256,1.565858,-1.342164,-4.250186,322.9, 8.9, 2.1,0,0,1024,1024,1024,1024,0,0,0,0,332.2,0,0,93,4.152,4.147,0,0,0,0,4.304,78.26,163.17799866002,41.0105,6,P-GPS,
107600,2022-08-12 02:09:10,-34.9063726756664,-56.1631683638718,41.666668,41.2073504,121.01920466002,163.83416666002,30.183728,1.6105968,45.15420092,53.19225892,19,5,8.227,163.83416666002,41.666668,8.4556332,45.15420092,1.342164,-0.894776,-3.35541,322.9, 8.8, 1.7,0,0,1024,1024,1024,1024,0,0,0,0,332.2,0,0,93,4.08,4.08,0,0,0,0,5.153,78.26,163.83416666002,41.666668,6,P-GPS,
107700,2022-08-12 02:09:10,-34.9063722674937,-56.1631686825601,42.322836,41.8635184,121.01920466002,164.49033466002,30.183728,1.11847,45.31988334,53.368768112,19,5,8.227,164.49033466002,42.322836,8.4556332,45.31988334,0.894776,-0.671082,-2.684328,323.1, 8.9, 1.8,0,0,1024,1024,1024,1024,0,0,0,0,332.2,0,0,93,4.08,4.08,0,0,0,0,5.153,78.26,164.49033466002,42.322836,6,P-GPS,
107800,2022-08-12 02:09:10,-34.9063719737354,-56.1631688963874,42.65092,42.1916024,121.01920466002,164.81841866002,30.183728,0.8052984,45.435368908,53.493768116,19,5,8.227,164.81841866002,42.65092,8.4556332,45.435368908,0.671082,-0.447388,-2.013246,323, 7.7, 1.7,0,0,1024,1024,1024,1024,0,0,0,0,332.2,0,0,93,4.08,4.08,0,0,0,0,5.153,78.26,164.81841866002,42.65092,6,P-GPS,
107900,2022-08-12 02:09:10,-34.9063719810699,-56.1631689759994,42.65092,42.1916024,121.01920466002,164.81841866002,30.183728,0.6263432,45.45275736,53.517718248,19,5,8.227,164.81841866002,42.65092,8.4556332,45.45275736,0.447388,-0.447388,-1.11847,323.1, 6.6, 1.8,0,0,1024,1024,1024,1024,0,0,0,0,332.2,0,0,93,4.08,4.08,0,0,0,0,5.153,78.26,164.81841866002,42.65092,6,P-GPS,
108000,2022-08-12 02:09:10,-34.906372992477,-56.1631680194541,42.979004,42.5196864,121.01920466002,165.14650266002,30.183728,0.3131716,45.002626112,53.98458178,19,5,8.227,165.14650266002,42.979004,8.4556332,45.45275736,0.223694,-0.223694,-0.671082,323.1, 5.2, 1.9,0,0,1024,1024,1024,1024,0,0,0,0,332.2,0,0,93,4.08,4.08,0,0,0,0,5.153,78.26,165.14650266002,42.979004,6,P-GPS,
108100,2022-08-12 02:09:10,-34.9063730740685,-56.1631681403503,42.979004,42.5196864,121.01920466002,165.14650266002,30.183728,0.223694,45.013780968,54.031497792,19,5,8.227,165.14650266002,42.979004,8.4556332,45.45275736,0,-0.223694,-0.447388,323, 3.6, 1.9,0,0,1024,1024,1024,1024,0,0,0,0,332.2,0,0,93,4.08,4.08,0,0,0,0,5.153,78.26,165.14650266002,42.979004,6,P-GPS,
108200,2022-08-12 02:09:10,-34.9063732161861,-56.1631681961445,42.979004,42.5196864,121.01920466002,165.14650266002,30.183728,0,44.996392516,54.085959736,19,5,8.227,165.14650266002,42.979004,8.4556332,45.45275736,0,0,-0.223694,323, 2.1, 1.6,0,0,1024,1024,1024,1024,0,0,0,0,332.2,0,0,93,4.08,4.08,0,0,0,0,5.153,78.26,165.14650266002,42.979004,6,P-GPS,
108300,2022-08-12 02:09:10,-34.9063732106038,-56.1631682946853,43.307088,42.8477704,121.01920466002,165.47458666002,30.183728,0,45.0213269,54.115487296,19,5,8.227,165.47458666002,43.307088,8.4556332,45.45275736,0,0,0,323.2, 1.1, 2.1,0,0,1024,1024,1024,1024,0,0,0,0,332.2,0,0,93,4.08,4.08,0,0,0,0,5.153,78.26,165.47458666002,43.307088,6,P-GPS,
108400,2022-08-12 02:09:11,-34.9063732291159,-56.1631685374596,43.307088,42.8805788,120.98639626002,165.47458666002,30.183728,0,45.075788844,54.188650028,19,5,8.227,165.47458666002,43.307088,8.4556332,45.45275736,0,0,0,322.9, 0.2, 2.1,0,0,1024,1024,1024,1024,0,0,0,0,332.2,0,0,93,4.08,4.08,0,0,0,0,5.153,78.26,165.47458666002,43.307088,6,P-GPS,
108500,2022-08-12 02:09:11,-34.9063732427427,-56.1631685669707,43.307088,42.8805788,120.98639626002,165.47458666002,30.183728,0,45.079725852,54.198820632,19,5,8.227,165.47458666002,43.307088,8.4556332,45.45275736,0,0,0,322.8, 0, 1.5,0,0,1024,1024,1024,1024,0,0,0,0,332.2,0,0,93,4.08,4.08,0,0,0,0,5.153,78.26,165.47458666002,43.307088,6,P-GPS,
108600,2022-08-12 02:09:11,-34.9063732604863,-56.1631685851683,43.307088,42.8805788,120.98639626002,165.47458666002,30.183728,0,45.08038202,54.207022732,19,5,8.227,165.47458666002,43.307088,8.4556332,45.45275736,0,0,0,322.8, -0.3, 0.9,0,0,1024,1024,1024,1024,0,0,0,0,332.2,0,0,93,4.08,4.08,0,0,0,0,5.153,78.26,165.47458666002,43.307088,6,P-GPS,
108700,2022-08-12 02:09:11,-34.9063733340854,-56.1631685850325,43.307088,42.8805788,120.98639626002,165.47458666002,30.183728,0,45.064305904,54.23392562,19,5,8.328,165.47458666002,43.307088,8.4556332,45.45275736,0,0,0,323, 0, 1.7,0,0,1024,1024,1024,1024,0,0,0,0,332.2,0,0,93,4.16,4.152,0,0,0,0,4.31,78.44,165.47458666002,43.307088,6,P-GPS,
108800,2022-08-12 02:09:11,-34.9063732045916,-56.1631687048632,43.307088,42.8805788,120.98639626002,165.47458666002,30.183728,0,45.12139252,54.293308824,19,5,8.328,165.47458666002,43.307088,8.4556332,45.45275736,0,0,0,323.3, 0.8, 2.1,0,0,1024,1024,1024,1024,0,0,0,0,332.2,0,0,93,4.16,4.152,0,0,0,0,4.31,78.44,165.47458666002,43.307088,6,P-GPS,
108900,2022-08-12 02:09:11,-34.90637315112,-56.1631687796907,43.307088,42.8805788,120.98639626002,165.47458666002,30.183728,0,45.15092008,54.322836384,19,5,8.328,165.47458666002,43.307088,8.4556332,45.45275736,0,0,0,323.2, 1.2, 1.7,0,0,1024,1024,1024,1024,0,0,0,0,332.2,0,0,93,4.16,4.152,0,0,0,0,4.31,78.44,165.47458666002,43.307088,6,P-GPS,
109000,2022-08-12 02:09:11,-34.9063731101288,-56.1631688379503,43.307088,42.8805788,120.98639626002,165.47458666002,30.183728,0,45.17388596,54.345802264,19,5,8.328,165.47458666002,43.307088,8.4556332,45.45275736,0,0,0,323.1, 1.2, 1.8,0,0,1024,1024,1024,1024,0,0,0,0,332.2,0,0,93,4.16,4.152,0,0,0,0,4.31,78.44,165.47458666002,43.307088,6,P-GPS,
109100,2022-08-12 02:09:11,-34.9063731109365,-56.163168914397,43.307088,42.8805788,120.98639626002,165.47458666002,30.183728,0,45.19193058,54.368768144,19,5,8.328,165.47458666002,43.307088,8.4556332,45.45275736,0,0,0,323.1, 0.8, 2.4,0,0,1024,1024,1024,1024,0,0,0,0,332.2,0,0,93,4.16,4.152,0,0,0,0,4.31,78.44,165.47458666002,43.307088,6,P-GPS,
109200,2022-08-12 02:09:11,-34.9063731197301,-56.1631689744533,42.979004,42.5524948,120.98639626002,165.14650266002,30.183728,0,45.204397772,54.387140848,19,5,8.328,165.47458666002,43.307088,8.4556332,45.45275736,0,0,0,323, 0.6, 2.4,0,0,1024,1024,1024,1024,0,0,0,0,332.2,0,0,93,4.16,4.152,0,0,0,0,4.31,78.44,165.14650266002,42.979004,6,P-GPS,
109300,2022-08-12 02:09:11,-34.9063726475465,-56.1631694354006,42.979004,42.5524948,120.98639626002,165.14650266002,30.183728,0,45.417980456,54.607613296,19,5,8.328,165.47458666002,43.307088,8.4556332,45.45275736,0,0,0,323.1, 0.3, 3,0,0,1024,1024,1024,1024,0,0,0,0,332.2,0,0,93,4.16,4.152,0,0,0,0,4.31,78.44,165.14650266002,42.979004,6,P-GPS,
109400,2022-08-12 02:09:12,-34.906372629816,-56.1631694584663,42.979004,42.5524948,120.98639626002,165.14650266002,30.183728,0,45.427166808,54.617127732,19,5,8.328,165.47458666002,43.307088,8.4556332,45.45275736,0,0,0,323, 0.1, 2.6,0,0,1024,1024,1043,1024,0,0,3,0,332.2,0,0,93,4.16,4.152,0,0,0,0,4.31,78.44,165.14650266002,42.979004,6,P-GPS,
109500,2022-08-12 02:09:12,-34.9063726995394,-56.1631694752536,42.979004,42.5524948,120.98639626002,165.14650266002,30.183728,0,45.416011952,54.643046368,19,5,8.328,165.47458666002,43.307088,8.4556332,45.45275736,0,0,0,322.9, 0.3, 2.4,0,0,1024,1024,1051,1024,0,0,4,0,332.2,0,0,93,4.16,4.152,0,0,0,0,4.31,78.44,165.14650266002,42.979004,6,P-GPS,
109600,2022-08-12 02:09:12,-34.9063727665401,-56.1631694808634,42.979004,42.5524948,120.98639626002,165.14650266002,30.183728,0,45.402888592,54.667652668,19,5,8.328,165.47458666002,43.307088,8.4556332,45.45275736,0,0,0,322.8, 0.1, 2.3,0,0,1024,1024,1045,1024,0,0,3,0,332.2,0,0,93,4.16,4.152,0,0,0,0,4.31,78.44,165.14650266002,42.979004,6,P-GPS,
109700,2022-08-12 02:09:12,-34.9063729395786,-56.1631694727465,42.979004,42.5524948,120.98639626002,165.14650266002,30.183728,0,45.363518512,54.73097288,19,5,8.296,165.47458666002,43.307088,8.4556332,45.45275736,0,0,0,322.9, 0, 2.3,0,0,1024,1024,1024,1024,0,0,0,0,332.2,0,0,93,4.154,4.145,0,0,0,0,4.103,78.62,165.14650266002,42.979004,6,P-GPS,
109800,2022-08-12 02:09:12,-34.9063730060647,-56.163169395088,42.979004,42.5524948,120.98639626002,165.14650266002,30.183728,0,45.330382028,54.764437448,19,5,8.296,165.47458666002,43.307088,8.4556332,45.45275736,0,0,0,322.9, -0.2, 2.3,0,0,1024,1024,1024,1024,0,0,0,0,332.2,0,0,93,4.154,4.145,0,0,0,0,4.103,78.62,165.14650266002,42.979004,6,P-GPS,
109900,2022-08-12 02:09:12,-34.906372996991,-56.1631693172728,42.979004,42.5524948,120.98639626002,165.14650266002,30.183728,0,45.313649744,54.788059496,19,5,8.296,165.47458666002,43.307088,8.4556332,45.45275736,0,0,0,322.9, -0.2, 1.8,0,0,1024,1024,1024,1024,0,0,0,0,332.2,0,0,93,4.154,4.145,0,0,0,0,4.103,78.62,165.14650266002,42.979004,6,P-GPS,
110000,2022-08-12 02:09:12,-34.9063729898649,-56.1631692401888,42.979004,42.5524948,120.98639626002,165.14650266002,30.183728,0,45.296589376,54.811025376,19,5,8.296,165.47458666002,43.307088,8.4556332,45.45275736,0,0,0,323, -0.3, 2,0,0,1024,1024,1024,1024,0,0,0,0,332.2,0,0,93,4.154,4.145,0,0,0,0,4.103,78.62,165.14650266002,42.979004,6,P-GPS,
110100,2022-08-12 02:09:12,-34.906373075482,-56.1631689265044,42.979004,42.5524948,120.98639626002,165.14650266002,30.183728,0,45.202429268,54.910106744,19,5,8.296,165.47458666002,43.307088,8.4556332,45.45275736,0,0,0,323, -0.9, 2.2,0,0,1024,1024,1024,1024,0,0,0,0,332.2,0,0,93,4.154,4.145,0,0,0,0,4.103,78.62,165.14650266002,42.979004,6,P-GPS,
