time(millisecond),datetime(utc),latitude,longitude,height_above_takeoff(feet),height_above_ground_at_drone_location(feet),ground_elevation_at_drone_location(feet),altitude_above_seaLevel(feet),height_sonar(feet),speed(mph),distance(feet),mileage(feet),satellites,gpslevel,voltage(v),max_altitude(feet),max_ascent(feet),max_speed(mph),max_distance(feet), xSpeed(mph), ySpeed(mph), zSpeed(mph), compass_heading(degrees), pitch(degrees), roll(degrees),isPhoto,isVideo,rc_elevator,rc_aileron,rc_throttle,rc_rudder,rc_elevator(percent),rc_aileron(percent),rc_throttle(percent),rc_rudder(percent),gimbal_heading(degrees),gimbal_pitch(degrees),gimbal_roll(degrees),battery_percent,voltageCell1,voltageCell2,voltageCell3,voltageCell4,voltageCell5,voltageCell6,current(A),battery_temperature(f),altitude(feet),ascent(feet),flycStateRaw,flycState,message
734500,2023-03-29 16:37:46,-34.9537885791738,-54.9408216604758,0,0,14.977243261424,14.583542461424,1.312336,0,0,0,26,5,0,14.583542461424,0,0,0,0,0,0,8.9, 4.9, -7.4,0,0,364,364,364,1684,-100,-100,-100,100,25.3,0,0,50,3.878,3.876,0,0,0,0,0,112.64,14.583542461424,0,41,Motors_Started,
734600,2023-03-29 16:37:46,-34.9537885903465,-54.9408216505316,0,0,14.977243261424,14.583542461424,1.312336,0,0.0050457350696,0.0050457350696,26,5,0,14.583542461424,0,0,0.0050457350696,0,0,0,8.9, 4.9, -7.4,0,0,364,364,364,1684,-100,-100,-100,100,25.3,0,0,50,3.878,3.876,0,0,0,0,0,112.64,14.583542461424,0,41,Motors_Started,"Error de calibración del estabilizador. Reinicia la aeronave o contacta con la Asistencia DJI (Code: 40011)"
734700,2023-03-29 16:37:46,-34.9537885952091,-54.9408216471045,0,0,14.977243261424,14.583542461424,0.328084,0,0.0070863191244,0.0070945540328,26,5,0,14.583542461424,0,0,0.0070863191244,0,0,0,8.9, 4.9, -7.3,0,0,364,364,364,1684,-100,-100,-100,100,25.3,0,0,50,3.878,3.876,0,0,0,0,0,112.64,14.583542461424,0,41,Motors_Started,
734800,2023-03-29 16:37:47,-34.9537885902521,-54.9408216532741,0,0,14.977243261424,14.583542461424,0.328084,0,0.0045798557896,0.0096780842992,26,5,0,14.583542461424,0,0,0.0070863191244,0,0,0,8.9, 4.9, -7.3,0,0,364,364,364,1684,-100,-100,-100,100,25.3,0,0,50,3.878,3.876,0,0,0,0,0,112.64,14.583542461424,0,41,Motors_Started,
734900,2023-03-29 16:37:47,-34.9537885582694,-54.9408216602498,0,0,14.977243261424,14.583542461424,0.328084,0,0.0076272312152,0.0215319232612,26,5,0,14.583542461424,0,0,0.0076272312152,0,0,0,8.9, 4.8, -7.3,0,0,364,364,364,1684,-100,-100,-100,100,25.3,0,0,50,3.878,3.876,0,0,0,0,0,112.64,14.583542461424,0,41,Motors_Started,"Setting new Return-To-Home altitude to 60m (197 ft). Data Recorder File Index is 4. Setting new Maximum Flight Altitude to 120m (394 ft)"
735000,2023-03-29 16:37:47,-34.9537885513192,-54.9408216167493,0,0,14.977243261424,14.583542461424,0.328084,0,3.8038715128,0.0347851061,26,5,0,14.583542461424,0,0,3.8038715128,0,0,0,8.9, 4.9, -7.4,0,0,364,364,364,1684,-100,-100,-100,100,25.3,0,0,50,3.878,3.876,0,0,0,0,0,112.64,14.583542461424,0,41,Motors_Started,
735100,2023-03-29 16:37:47,-34.9537885438724,-54.9408215899271,0,0,14.977243261424,14.583542461424,0.328084,0,3.8123032716,0.043253610308,27,5,0,14.583542461424,0,0,3.8123032716,0,0,0,8.9, 4.9, -7.4,0,0,364,364,364,1671,-100,-100,-100,98,25.3,0,0,50,3.878,3.876,0,0,0,0,0,112.64,14.583542461424,0,41,Motors_Started,
735200,2023-03-29 16:37:47,-34.9537885361324,-54.9408215817964,0,0,14.977243261424,14.583542461424,0.328084,0,3.8153544528,0.04697998838,27,5,0,14.583542461424,0,0,3.8153544528,0,0,0,8.9, 4.8, -7.3,0,0,1024,1024,1024,1024,0,0,0,0,25.3,0,0,50,3.878,3.876,0,0,0,0,0,112.64,14.583542461424,0,41,Motors_Started,
735300,2023-03-29 16:37:47,-34.9537884884743,-54.9408215363531,0,-0.032808399999999,15.010051661424,14.583542461424,0.328084,0,3.8328741384,0.069048230556,27,5,0,14.583542461424,0,0,3.8328741384,0,0,0,8.9, 4.9, -7.3,0,0,1024,1024,1024,1024,0,0,0,0,25.3,0,0,50,3.878,3.876,0,0,0,0,0,112.64,14.583542461424,0,41,Motors_Started,
735400,2023-03-29 16:37:47,-34.9537884807229,-54.9408215435665,0,-0.032808399999999,15.010051661424,14.583542461424,0.328084,0,3.8314961856,0.0726049892,27,5,0,14.583542461424,0,0,3.8328741384,0,0,0,8.9, 4.9, -7.3,0,0,1024,1024,1024,1024,0,0,0,0,25.3,0,0,50,3.878,3.876,0,0,0,0,0,112.64,14.583542461424,0,41,Motors_Started,
735500,2023-03-29 16:37:47,-34.9537884510152,-54.9408215518906,0,-0.032808399999999,15.010051661424,14.583542461424,0.328084,0,3.831857078,0.083726052548,27,5,7.745,14.583542461424,0,0,3.8328741384,0,0,0,8.9, 4.9, -7.3,0,0,1024,1024,1024,1024,0,0,0,0,25.3,0,0,50,3.87,3.868,0,0,0,0,0.83,112.64,14.583542461424,0,41,Motors_Started,
735600,2023-03-29 16:37:47,-34.9537883937982,-54.9408215611384,0,-0.032808399999999,15.010051661424,14.583542461424,0.328084,0,3.8345801752,0.104784124088,27,5,7.745,14.583542461424,0,0,3.8345801752,0,0,0,8.9, 4.9, -7.4,0,0,1024,1024,1024,1024,0,0,0,0,25.3,0,0,50,3.87,3.868,0,0,0,0,0.83,112.64,14.583542461424,0,10,Assisted_Takeoff,
735700,2023-03-29 16:37:47,-34.953788293447,-54.9408215302946,0,-0.032808399999999,15.010051661424,14.583542461424,0.328084,0,3.853182538,0.14254101506,27,5,7.745,14.583542461424,0,0,3.853182538,0,0,0,8.9, 4.8, -7.4,0,0,1024,1024,1024,1024,0,0,0,0,25.3,0,0,50,3.87,3.868,0,0,0,0,0.83,112.64,14.583542461424,0,10,Assisted_Takeoff,
735800,2023-03-29 16:37:48,-34.9537882738161,-54.9408214865328,0,-0.065616799999999,15.042860061424,14.583542461424,0.328084,0,3.8677166592,0.15745899454,27,5,7.745,14.583542461424,0,0,3.8677166592,0,0,0,8.9, 4.8, -7.4,0,0,1024,1024,1024,1024,0,0,0,0,25.3,0,0,50,3.87,3.868,0,0,0,0,0.83,112.64,14.583542461424,0,10,Assisted_Takeoff,
735900,2023-03-29 16:37:48,-34.9537882632784,-54.9408214568282,0,-0.065616799999999,15.042860061424,14.583542461424,0.328084,0,3.8773295204,0.167138128708,27,5,7.745,14.583542461424,0,0,3.8773295204,0,0,0,8.9, 4.9, -7.3,0,0,1024,1024,1024,1024,0,0,0,0,25.3,0,0,50,3.87,3.868,0,0,0,0,0.83,112.64,14.583542461424,0,10,Assisted_Takeoff,
736000,2023-03-29 16:37:48,-34.9537882616239,-54.9408214435615,0,-0.065616799999999,15.042860061424,14.583542461424,0.328084,0,3.8812993368,0.171150924112,27,5,7.745,14.583542461424,0,0,3.8812993368,0,0,0,8.9, 4.9, -7.3,0,0,1024,1024,1024,1024,0,0,0,0,25.3,0,0,50,3.87,3.868,0,0,0,0,0.83,112.64,14.583542461424,0,10,Assisted_Takeoff,
736100,2023-03-29 16:37:48,-34.9537883261836,-54.9408214573927,0,-0.065616799999999,15.042860061424,14.583542461424,0.328084,0,3.8709974992,0.195065951124,27,5,7.745,14.583542461424,0,0,3.8812993368,0,0,0,8.9, 4.9, -7.3,0,0,1024,1024,1024,1024,0,0,0,0,25.3,0,0,50,3.87,3.868,0,0,0,0,0.83,112.64,14.583542461424,0,10,Assisted_Takeoff,
736200,2023-03-29 16:37:48,-34.9537883291506,-54.9408214594806,0,-0.065616799999999,15.042860061424,14.583542461424,0.328084,0,3.8701116724,0.19631562308,27,5,7.745,14.583542461424,0,0,3.8812993368,0,0,0,8.9, 4.9, -7.3,0,0,1024,1024,1024,1024,0,0,0,0,25.3,0,0,50,3.87,3.868,0,0,0,0,0.83,112.64,14.583542461424,0,10,Assisted_Takeoff,
736300,2023-03-29 16:37:48,-34.9537883323586,-54.9408214646036,0,-0.065616799999999,15.042860061424,14.583542461424,0.328084,0,3.8683400188,0.198243444664,26,5,7.745,14.583542461424,0,0,3.8812993368,0,0,0,8.9, 4.9, -7.3,0,0,1024,1024,1024,1024,0,0,0,0,25.3,0,0,50,3.87,3.868,0,0,0,0,0.83,112.64,14.583542461424,0,10,Assisted_Takeoff,
736400,2023-03-29 16:37:48,-34.9537883348746,-54.9408214721933,0,-0.065616799999999,15.042860061424,14.583542461424,0.328084,0,3.8659121972,0.200691607472,26,5,7.732,14.583542461424,0,0,3.8812993368,0,0,0,8.9, 4.9, -7.3,0,0,1024,1024,1024,1024,0,0,0,0,25.3,0,0,50,3.872,3.87,0,0,0,0,1.577,112.64,14.583542461424,0,10,Assisted_Takeoff,
736500,2023-03-29 16:37:48,-34.9537883365438,-54.940821456972,0,-0.065616799999999,15.042860061424,14.583542461424,0.328084,0,3.8701444808,0.205284127304,26,5,7.732,14.583542461424,0,0,3.8812993368,0,0,0,8.9, 4.8, -7.4,0,0,1024,1024,1034,1024,0,0,2,0,25.3,0,0,50,3.872,3.87,0,0,0,0,1.577,112.64,14.583542461424,0,10,Assisted_Takeoff,
736600,2023-03-29 16:37:48,-34.9537883809596,-54.9408213779423,0,-0.065616799999999,15.042860061424,14.583542461424,0.328084,0,3.8887140352,0.233938983864,26,5,7.732,14.583542461424,0,0,3.8887140352,0,0,0,8.9, 4.8, -7.4,0,0,1024,1024,1024,1024,0,0,0,0,25.3,0,0,50,3.872,3.87,0,0,0,0,1.577,112.64,14.583542461424,0,10,Assisted_Takeoff,
736700,2023-03-29 16:37:48,-34.9537883795119,-54.9408213524802,0,-0.065616799999999,15.042860061424,14.583542461424,0.328084,0,3.8961943504,0.24157153004,26,5,7.732,14.583542461424,0,0,3.8961943504,0,0,0,8.9, 4.8, -7.4,0,0,1024,1024,1024,1024,0,0,0,0,25.3,0,0,50,3.872,3.87,0,0,0,0,1.577,112.64,14.583542461424,0,10,Assisted_Takeoff,
736800,2023-03-29 16:37:49,-34.9537883756671,-54.9408213444409,0,-0.065616799999999,15.042860061424,14.583542461424,0.328084,0,3.8988846392,0.244354666612,26,5,7.732,14.583542461424,0,0,3.8988846392,0,0,0,8.9, 4.8, -7.4,0,0,1024,1024,1024,1024,0,0,0,0,25.3,0,0,50,3.872,3.87,0,0,0,0,1.577,112.64,14.583542461424,0,10,Assisted_Takeoff,
736900,2023-03-29 16:37:49,-34.9537883712573,-54.9408213429841,0,-0.065616799999999,15.042860061424,14.583542461424,0.328084,0,3.8997048492,0.246021661416,26,5,7.732,14.583542461424,0,0,3.8997048492,0,0,0,8.9, 4.9, -7.3,0,0,1024,1024,1024,1024,0,0,0,0,25.3,0,0,50,3.872,3.87,0,0,0,0,1.577,112.64,14.583542461424,0,10,Assisted_Takeoff,
737000,2023-03-29 16:37:49,-34.9537883816744,-54.9408213719988,0,-0.065616799999999,15.042860061424,14.583542461424,0.328084,0,3.8903544552,0.255494102664,26,5,7.732,14.583542461424,0,0,3.8997048492,0,0,0,8.9, 4.9, -7.3,0,0,1024,1024,1081,1024,0,0,9,0,25.3,0,0,50,3.872,3.87,0,0,0,0,1.577,112.64,14.583542461424,0,10,Assisted_Takeoff,
737100,2023-03-29 16:37:49,-34.9537883788019,-54.9408213780377,0,-0.065616799999999,15.042860061424,14.583542461424,0.328084,0,3.8888780772,0.25758202924,26,5,7.732,14.583542461424,0,0,3.8997048492,0,0,0,8.9, 4.9, -7.3,0,0,1024,1024,1129,1024,0,0,16,0,25.3,0,0,50,3.872,3.87,0,0,0,0,1.577,112.64,14.583542461424,0,10,Assisted_Takeoff,
737200,2023-03-29 16:37:49,-34.953788375628,-54.9408213850892,0,-0.065616799999999,15.042860061424,14.583542461424,0.328084,0,3.887139232,0.259987541128,26,5,7.732,14.583542461424,0,0,3.8997048492,0,0,0,8.8, 4.8, -7.3,0,0,1024,1024,1156,1024,0,0,20,0,25.3,0,0,50,3.872,3.87,0,0,0,0,1.577,112.64,14.583542461424,0,10,Assisted_Takeoff,
737300,2023-03-29 16:37:49,-34.9537883490893,-54.9408213912731,0,-0.065616799999999,15.042860061424,14.583542461424,0.328084,0,3.8878938252,0.269845152992,26,5,7.732,14.583542461424,0,0,3.8997048492,0,0,0,8.9, 4.8, -7.3,0,0,1024,1024,1152,1024,0,0,19,0,25.3,0,0,50,3.872,3.87,0,0,0,0,1.577,112.64,14.583542461424,0,10,Assisted_Takeoff,
737400,2023-03-29 16:37:49,-34.9537882245996,-54.9408214335493,0,-0.065616799999999,15.042860061424,14.583542461424,0.328084,0,3.8878610168,0.316991808044,26,5,7.741,14.583542461424,0,0,3.8997048492,0,0,0,8.9, 4.8, -7.3,0,0,1024,1024,1131,1024,0,0,16,0,25.3,0,0,50,3.871,3.87,0,0,0,0,1.147,112.64,14.583542461424,0,10,Assisted_Takeoff,
737500,2023-03-29 16:37:49,-34.9537881869598,-54.9408214172357,0,-0.065616799999999,15.042860061424,14.583542461424,0.328084,0,3.896325584,0.33156497124,26,5,7.741,14.583542461424,0,0,3.8997048492,0,0,0,8.9, 4.7, -7.3,0,0,1024,1024,1064,1024,0,0,6,0,25.3,0,0,50,3.871,3.87,0,0,0,0,1.147,112.64,14.583542461424,0,10,Assisted_Takeoff,
737600,2023-03-29 16:37:49,-34.9537881672198,-54.9408213737914,0,-0.065616799999999,15.042860061424,14.583542461424,0.328084,0,3.9107940884,0.34642061476,26,5,7.741,14.583542461424,0,0,3.9107940884,0,0,0,9, 4.7, -7.3,0,0,1024,1024,1083,1024,0,0,9,0,25.2,0,0,50,3.871,3.87,0,0,0,0,1.147,112.64,14.583542461424,0,10,Assisted_Takeoff,
737700,2023-03-29 16:37:49,-34.9537881549022,-54.940821356375,0,-0.065616799999999,15.042860061424,14.583542461424,0.328084,0,3.9170604928,0.3532972554,26,5,7.741,14.583542461424,0,0,3.9170604928,0,0,0,9.3, 2.8, -7.3,0,0,1024,1024,1083,1024,0,0,9,0,25.3,0,0,50,3.871,3.87,0,0,0,0,1.147,112.64,14.583542461424,0,10,Assisted_Takeoff,
737800,2023-03-29 16:37:49,-34.9537881685746,-54.9408213160273,0,-0.065616799999999,15.042860061424,14.583542461424,0.328084,0,3.9272639052,0.3663549986,26,5,7.741,14.583542461424,0,0,3.9272639052,0,0,0,10.4, 1.7, -7.1,0,0,1024,1024,1140,1024,0,0,18,0,25.5,0,0,50,3.871,3.87,0,0,0,0,1.147,112.64,14.583542461424,0,10,Assisted_Takeoff,
737900,2023-03-29 16:37:50,-34.9537881430081,-54.9408213914208,0,-0.065616799999999,15.042860061424,14.583542461424,0.328084,0,3.9082022248,0.39075460568,26,5,7.741,14.583542461424,0,0,3.9272639052,0,0,0,12.2, 3.5, -7.2,0,0,1024,1024,1024,1024,0,0,0,0,27,0,0,50,3.871,3.87,0,0,0,0,1.147,112.64,14.583542461424,0,10,Assisted_Takeoff,
738000,2023-03-29 16:37:50,-34.9537881307198,-54.9408214960876,0,-0.065616799999999,15.042860061424,14.583542461424,0.328084,0.223694,3.879429258,0.42237206076,26,5,7.741,14.583542461424,0,0.223694,3.9272639052,0,-0.223694,0,13.8, 1.3, -6.7,0,0,1024,1024,1033,1024,0,0,1,0,28.5,0,0,50,3.871,3.87,0,0,0,0,1.147,112.64,14.583542461424,0,10,Assisted_Takeoff,
738100,2023-03-29 16:37:50,-34.953788080909,-54.9408216393919,0,-0.032808399999999,15.010051661424,14.583542461424,0.328084,0.223694,3.8435696768,0.46892061868,26,5,7.741,14.583542461424,0,0.223694,3.9272639052,0,-0.223694,0,15.3, -0.5, -6.1,0,0,1024,1024,1068,1024,0,0,7,0,29.7,0,0,50,3.871,3.87,0,0,0,0,1.147,112.64,14.583542461424,0,10,Assisted_Takeoff,
738200,2023-03-29 16:37:50,-34.953787980548,-54.9408218274928,0,-0.032808399999999,15.010051661424,14.583542461424,0.328084,0.223694,3.8007219064,0.53603676256,26,5,7.741,14.583542461424,0,0.223694,3.9272639052,0,-0.223694,0.223694,17, 3.6, -7,0,0,1024,1024,1360,1024,0,0,51,0,31.5,0,0,50,3.871,3.87,0,0,0,0,1.147,112.64,14.583542461424,0,38,Tripod,"Error de calibración del estabilizador. Reinicia la aeronave o contacta con la Asistencia DJI (Code: 40011)"
738300,2023-03-29 16:37:50,-34.953787910818,-54.9408220351659,0,-0.032808399999999,15.010051661424,14.583542461424,0.328084,0.223694,3.749507994,0.60314634476,26,5,7.741,14.583542461424,0,0.223694,3.9272639052,0,-0.223694,0,17.5, 0.5, -6.3,0,0,1024,1024,1473,1024,0,0,68,0,32.8,0,0,50,3.871,3.87,0,0,0,0,1.147,112.64,14.583542461424,0,38,Tripod,
738400,2023-03-29 16:37:50,-34.9537878854469,-54.9408221848371,0,-0.032808399999999,15.010051661424,14.583542461424,0.328084,0.223694,3.7100066804,0.6488517268,26,5,7.709,14.583542461424,0,0.223694,3.9272639052,0,-0.223694,-0.223694,17, -1.4, -0.7,0,0,1024,1024,1396,1024,0,0,56,0,32.8,0,0,50,3.851,3.851,0,0,0,0,2.018,112.64,14.583542461424,0,38,Tripod,
738500,2023-03-29 16:37:50,-34.953787854096,-54.9408223050807,0,-0.032808399999999,15.010051661424,14.583542461424,0.328084,0,3.6796589104,0.68658466764,27,5,7.709,14.583542461424,0,0.223694,3.9272639052,0,0,0,16.2, -1.5, 1.8,0,0,1024,1024,1396,1024,0,0,56,0,32.8,0,0,50,3.851,3.851,0,0,0,0,2.018,112.64,14.583542461424,0,38,Tripod,
738600,2023-03-29 16:37:50,-34.9537878133068,-54.9408224126507,0,-0.032808399999999,15.010051661424,14.583542461424,0.328084,0,3.6541667836,0.72202758216,27,5,7.709,14.583542461424,0,0.223694,3.9272639052,0,0,0,16.6, -0.7, 3.2,0,0,1024,1024,1431,1024,0,0,62,0,32.8,0,0,50,3.851,3.851,0,0,0,0,2.018,112.64,14.583542461424,0,38,Tripod,
738700,2023-03-29 16:37:50,-34.9537878666774,-54.9408225233082,0,0,14.977243261424,14.583542461424,0.328084,0,3.6165027404,0.76042325268,27,5,7.709,14.583542461424,0,0.223694,3.9272639052,0,0,-0.223694,16.6, 0.1, 2.3,0,0,1024,1024,1418,1024,0,0,60,0,32.8,0,0,50,3.851,3.851,0,0,0,0,2.018,112.64,14.583542461424,0,38,Tripod,
738800,2023-03-29 16:37:51,-34.953787814476,-54.9408225471842,0,0,14.977243261424,14.583542461424,0.328084,0,3.6161090396,0.78076117984,27,5,7.709,14.583542461424,0,0.223694,3.9272639052,0,0,-0.671082,16.7, 0.1, 1.1,0,0,1024,1024,1423,1024,0,0,60,0,32.8,0,0,50,3.851,3.851,0,0,0,0,2.018,112.64,14.583542461424,0,38,Tripod,
738900,2023-03-29 16:37:51,-34.9537877650071,-54.9408225209472,0.328084,0.328084,14.977243261424,14.911626461424,0.656168,0,3.629593292,0.800442939,27,5,7.709,14.911626461424,0.328084,0.223694,3.9272639052,0,0,-0.894776,16.6, 1.2, 0.5,0,0,1024,1024,1163,1024,0,0,21,0,32.8,0,0,50,3.851,3.851,0,0,0,0,2.018,112.64,14.911626461424,0.328084,38,Tripod,"Error de calibración del estabilizador. Reinicia la aeronave o contacta con la Asistencia DJI (Code: 40011)"
739000,2023-03-29 16:37:51,-34.9537877069726,-54.9408224563994,0.328084,0.2952756,15.010051661424,14.911626461424,0.656168,0,3.6549541852,0.82909451472,27,5,7.709,14.911626461424,0.328084,0.223694,3.9272639052,0,0,-1.11847,16.7, 1.5, 0.1,0,0,1024,1024,1024,1024,0,0,0,0,32.8,0,0,50,3.851,3.851,0,0,0,0,2.018,112.64,14.911626461424,0.328084,38,Tripod,
739100,2023-03-29 16:37:51,-34.9537876641837,-54.9408224244581,0.656168,0.6233596,15.010051661424,15.239710461424,0.656168,0.223694,3.669291456,0.84739504024,27,5,7.709,15.239710461424,0.656168,0.223694,3.9272639052,0,0.223694,-1.342164,16.8, 1.4, -1.2,0,0,1024,1024,1024,1024,0,0,0,0,32.8,0,0,50,3.851,3.851,0,0,0,0,2.018,112.64,15.239710461424,0.656168,38,Tripod,
739200,2023-03-29 16:37:51,-34.9537876395941,-54.9408223230067,0.656168,0.6233596,15.010051661424,15.239710461424,0.984252,0,3.7008531368,0.87903218036,27,5,7.709,15.239710461424,0.656168,0.223694,3.9272639052,0,0,-1.342164,16.7, 1, -2.1,0,0,1024,1024,1024,1024,0,0,0,0,32.8,0,0,50,3.851,3.851,0,0,0,0,2.018,112.64,15.239710461424,0.656168,38,Tripod,
739300,2023-03-29 16:37:51,-34.9537876087123,-54.9408222128418,0.984252,0.9514436,15.010051661424,15.567794461424,0.984252,0,3.7356628492,0.91384845444,27,5,7.709,15.567794461424,0.984252,0.223694,3.9272639052,0,0,-1.342164,16.9, 1.3, -1.2,0,0,1024,1024,1024,1024,0,0,0,0,32.8,0,0,50,3.851,3.851,0,0,0,0,2.018,112.64,15.567794461424,0.984252,38,Tripod,
739400,2023-03-29 16:37:51,-34.9537875646988,-54.9408220620261,0.984252,0.9514436,15.010051661424,15.567794461424,1.312336,0,3.7835303048,0.96172247172,27,5,7.671,15.567794461424,0.984252,0.223694,3.9272639052,0,0,-1.11847,16.9, 1.4, -1.7,0,0,1024,1024,1024,1024,0,0,0,0,32.8,0,0,50,3.831,3.825,0,0,0,0,3.827,112.64,15.567794461424,0.984252,38,Tripod,
739500,2023-03-29 16:37:51,-34.9537875034041,-54.9408217558021,1.312336,1.2795276,15.010051661424,15.895878461424,1.312336,0,3.8772310952,1.05598428576,27,5,7.671,15.895878461424,1.312336,0.223694,3.9272639052,0,0,-0.894776,16.8, 2.2, -2.4,0,0,1024,1024,1024,1024,0,0,0,0,32.8,0,0,50,3.831,3.825,0,0,0,0,3.827,112.64,15.895878461424,1.312336,38,Tripod,
739600,2023-03-29 16:37:51,-34.9537874198454,-54.9408216303819,1.312336,1.2467192,15.042860061424,15.895878461424,1.64042,0,3.9229331964,1.10431762064,27,5,7.671,15.895878461424,1.312336,0.223694,3.9272639052,0,0,-0.671082,16.8, 2.5, -1.6,0,0,1024,1024,887,1024,0,0,-21,0,32.8,0,0,50,3.831,3.825,0,0,0,0,3.827,112.64,15.895878461424,1.312336,38,Tripod,
739700,2023-03-29 16:37:51,-34.9537873598861,-54.940821557889,1.64042,1.5748032,15.042860061424,16.223962461424,1.64042,0,3.9508531448,1.13511486572,27,5,7.671,16.223962461424,1.64042,0.223694,3.9508531448,0,0,-0.223694,16.9, 2.4, -1.6,0,0,1024,1024,947,1024,0,0,-12,0,32.8,0,0,50,3.831,3.825,0,0,0,0,3.827,112.64,16.223962461424,1.64042,38,Tripod,
739800,2023-03-29 16:37:52,-34.9537873265584,-54.9408215418079,1.64042,1.5748032,15.042860061424,16.223962461424,1.64042,0,3.9596129876,1.14819229396,27,5,7.671,16.223962461424,1.64042,0.223694,3.9596129876,0,0,-0.223694,17, 2.3, -1.9,0,0,1024,1024,1024,1024,0,0,0,0,32.8,0,0,50,3.831,3.825,0,0,0,0,3.827,112.64,16.223962461424,1.64042,38,Tripod,
739900,2023-03-29 16:37:52,-34.9537872933316,-54.9408215220815,1.64042,1.5748032,15.042860061424,16.223962461424,1.64042,0,3.9694226992,1.16167326552,27,5,7.671,16.223962461424,1.64042,0.223694,3.9694226992,0,0,0,16.9, 2.5, -1.8,0,0,1024,1024,1024,1024,0,0,0,0,32.8,0,0,50,3.831,3.825,0,0,0,0,3.827,112.64,16.223962461424,1.64042,38,Tripod,"Punto de origen actualizado. Altitud de RPO establecida en 60m (Code: 3000001)"
740000,2023-03-29 16:37:52,-34.9537873031478,-54.9408216195166,1.64042,1.5748032,15.042860061424,16.223962461424,1.64042,0,3.9408793912,1.19103022184,27,5,7.671,16.223962461424,1.64042,0.223694,3.9694226992,0,0,0,17, 2.3, -1.6,0,0,1024,1024,1024,1024,0,0,0,0,32.8,0,0,50,3.831,3.825,0,0,0,0,3.827,112.64,16.223962461424,1.64042,38,Tripod,
740100,2023-03-29 16:37:52,-34.9537872549589,-54.9408215670702,1.64042,1.5748032,15.042860061424,16.223962461424,1.64042,0,3.9618111504,1.21458993388,27,5,7.671,16.223962461424,1.64042,0.223694,3.9694226992,0,0,0,17, 2.6, -1.8,0,0,1024,1024,1024,1024,0,0,0,0,32.8,0,0,50,3.831,3.825,0,0,0,0,3.827,112.64,16.223962461424,1.64042,38,Tripod,
740200,2023-03-29 16:37:52,-34.9537871837959,-54.9408214891903,1.64042,1.5419948,15.075668461424,16.223962461424,1.64042,0,3.9928807052,1.24946854392,27,5,7.671,16.223962461424,1.64042,0.223694,3.9928807052,0,0,0,16.9, 2.5, -2.4,0,0,991,1024,1024,1024,-5,0,0,0,32.8,0,0,50,3.831,3.825,0,0,0,0,3.827,112.64,16.223962461424,1.64042,38,Tripod,
740300,2023-03-29 16:37:52,-34.9537871491459,-54.9408214303483,1.64042,1.5419948,15.075668461424,16.223962461424,1.64042,0,4.0138452728,1.27113521128,27,5,7.671,16.223962461424,1.64042,0.223694,4.0138452728,0,0,0,17, 2.6, -2.2,0,0,434,1024,1024,1024,-89,0,0,0,32.8,0,0,50,3.831,3.825,0,0,0,0,3.827,112.64,16.223962461424,1.64042,38,Tripod,
740400,2023-03-29 16:37:52,-34.95378718916,-54.9408213708791,1.64042,1.5419948,15.075668461424,16.223962461424,1.64042,0,4.0251969792,1.29414046136,27,5,7.67,16.223962461424,1.64042,0.223694,4.0251969792,0,0,0,17, 2.6, -2.2,0,0,434,1024,1024,1024,-89,0,0,0,32.8,0,0,50,3.834,3.83,0,0,0,0,4.349,112.64,16.223962461424,1.64042,38,Tripod,
740500,2023-03-29 16:37:52,-34.9537872010379,-54.9408213486062,1.64042,1.5419948,15.075668461424,16.223962461424,1.64042,0,4.029855772,1.30208665584,27,5,7.67,16.223962461424,1.64042,0.223694,4.029855772,0,0,0,17, 5.8, -1.9,0,0,364,1024,1024,1024,-100,0,0,0,32.8,0,0,50,3.834,3.83,0,0,0,0,4.349,112.64,16.223962461424,1.64042,38,Tripod,
740600,2023-03-29 16:37:52,-34.9537872391435,-54.940821347267,1.64042,1.5419948,15.075668461424,16.223962461424,1.64042,0,4.0252954044,1.31599741744,27,5,7.67,16.223962461424,1.64042,0.223694,4.029855772,0,0,0,16.8, 10.4, -2.1,0,0,364,1024,1024,1024,-100,0,0,0,32.8,0,0,50,3.834,3.83,0,0,0,0,4.349,112.64,16.223962461424,1.64042,38,Tripod,
740700,2023-03-29 16:37:52,-34.9537873820427,-54.9408213693178,1.64042,1.5419948,15.075668461424,16.223962461424,1.64042,0.447388,4.00098438,1.36854991256,27,5,7.67,16.223962461424,1.64042,0.447388,4.029855772,-0.447388,0,0,16.9, 12, -1.6,0,0,364,1024,1024,1024,-100,0,0,0,32.8,0,0,50,3.834,3.83,0,0,0,0,4.349,112.64,16.223962461424,1.64042,38,Tripod,
740800,2023-03-29 16:37:53,-34.9537877224917,-54.9408213533477,1.64042,1.5748032,15.042860061424,16.223962461424,1.64042,0.671082,3.9646654812,1.49285437848,27,5,7.67,16.223962461424,1.64042,0.671082,4.029855772,-0.671082,0,0,16.9, 12.3, -2,0,0,364,1024,1024,1024,-100,0,0,0,32.8,0,0,50,3.834,3.83,0,0,0,0,4.349,112.64,16.223962461424,1.64042,38,Tripod,
740900,2023-03-29 16:37:53,-34.953788139406,-54.9408214481044,1.64042,1.5748032,15.042860061424,16.223962461424,1.64042,1.1408394,3.8922901508,1.64758207372,27,5,7.67,16.223962461424,1.64042,1.1408394,4.029855772,-1.11847,-0.223694,0,16.9, 12.4, -2.1,0,0,364,1024,1308,1024,-100,0,43,0,32.8,0,0,50,3.834,3.83,0,0,0,0,4.349,112.64,16.223962461424,1.64042,38,Tripod,
741000,2023-03-29 16:37:53,-34.9537887164646,-54.9408216115192,1.64042,1.64042,14.977243261424,16.223962461424,1.64042,1.3645334,3.7908793864,1.86371725124,27,5,7.67,16.223962461424,1.64042,1.3645334,4.029855772,-1.342164,-0.223694,0,16.8, 12.5, -2.3,0,0,364,1024,1684,1024,-100,0,100,0,32.8,0,0,50,3.834,3.83,0,0,0,0,4.349,112.64,16.223962461424,1.64042,38,Tripod,
741100,2023-03-29 16:37:53,-34.9537893903587,-54.9408218058484,1.968504,1.968504,14.977243261424,16.552046461424,1.64042,1.8342908,3.6839568108,2.11636161628,27,5,7.67,16.552046461424,1.968504,1.8342908,4.029855772,-1.789552,-0.447388,0,16.9, 11.6, -2.3,0,0,364,1024,1684,1024,-100,0,100,0,32.8,0,0,50,3.834,3.83,0,0,0,0,4.349,112.64,16.552046461424,1.968504,38,Tripod,
741200,2023-03-29 16:37:53,-34.9537902322366,-54.9408220037328,1.968504,2.0341208,14.911626461424,16.552046461424,1.64042,2.0579848,3.5844161252,2.4291667444,27,5,7.67,16.552046461424,1.968504,2.0579848,4.029855772,-2.013246,-0.447388,-0.671082,16.9, 10.9, -2,0,0,364,1024,1684,1024,-100,0,100,0,32.8,0,0,50,3.834,3.83,0,0,0,0,4.349,112.64,16.552046461424,1.968504,38,Tripod,
741300,2023-03-29 16:37:53,-34.9537911978583,-54.9408223099437,2.296588,2.3950132,14.878818061424,16.880130461424,1.968504,2.5501116,3.4775919748,2.79317922324,27,5,7.67,16.880130461424,2.296588,2.5501116,4.029855772,-2.460634,-0.671082,-1.342164,16.9, 10.3, -1.8,0,0,364,1024,1684,1024,-100,0,100,0,32.8,0,0,50,3.834,3.83,0,0,0,0,4.349,112.64,16.880130461424,2.296588,38,Tripod,
741400,2023-03-29 16:37:53,-34.9537924025144,-54.9408226989327,2.624672,2.788714,14.813201261424,17.208214461424,2.296588,2.7738056,3.3926838356,3.24782818792,27,5,7.658,17.208214461424,2.624672,2.7738056,4.029855772,-2.684328,-0.671082,-2.23694,16.9, 10.1, -1.5,0,0,364,1024,1684,1024,-100,0,100,0,32.8,0,0,50,3.822,3.805,0,0,0,0,4.209,112.64,17.208214461424,2.624672,38,Tripod,
741500,2023-03-29 16:37:53,-34.9537936753925,-54.94082312086,2.952756,3.2152232,14.714776061424,17.536298461424,2.952756,3.2659324,3.3647966956,3.7290683608,27,5,7.658,17.536298461424,2.952756,3.2659324,4.029855772,-3.131716,-0.894776,-2.908022,16.9, 10.4, -1.7,0,0,364,1024,1684,1024,-100,0,100,0,32.8,0,0,50,3.822,3.805,0,0,0,0,4.209,112.64,17.536298461424,2.952756,38,Tripod,
741600,2023-03-29 16:37:53,-34.9537951281616,-54.9408236223344,3.608924,3.937008,14.649159261424,18.192466461424,3.608924,3.2659324,3.4111549648,4.2799213968,27,5,7.658,18.192466461424,3.608924,3.2659324,4.029855772,-3.35541,-0.894776,-3.579104,17, 10.5, -1.5,0,0,364,1024,1684,1024,-100,0,100,0,32.8,0,0,50,3.822,3.805,0,0,0,0,4.209,112.64,18.192466461424,3.608924,38,Tripod,
741700,2023-03-29 16:37:53,-34.9537968210431,-54.9408241325639,4.265092,4.6916012,14.550734061424,18.848634461424,4.265092,3.7580592,3.5912402724,4.9161418896,27,5,7.658,18.848634461424,4.265092,3.7580592,4.029855772,-3.579104,-1.11847,-4.026492,16.9, 11.1, -1.5,0,0,364,1024,1684,1024,-100,0,100,0,32.8,0,0,50,3.822,3.805,0,0,0,0,4.209,112.64,18.848634461424,4.265092,38,Tripod,
741800,2023-03-29 16:37:53,-34.9537984840118,-54.9408247594114,4.92126,5.413386,14.485117261424,19.504802461424,5.249344,3.9593838,3.8362205952,5.5511484716,27,5,7.658,19.504802461424,4.92126,3.9593838,4.029855772,-3.802798,-1.11847,-4.026492,16.9, 11.3, -1.8,0,0,364,1024,1684,1024,-100,0,100,0,32.8,0,0,50,3.822,3.805,0,0,0,0,4.209,112.64,19.504802461424,4.92126,38,Tripod,
741900,2023-03-29 16:37:54,-34.9538001465863,-54.9408253699687,5.577428,6.1679792,14.386692061424,20.160970461424,5.905512,4.1830778,4.1672901596,6.1846458672,27,5,7.658,20.160970461424,5.577428,4.1830778,4.1672901596,-4.026492,-1.11847,-4.250186,16.9, 11.3, -1.5,0,0,364,1024,1684,1024,-100,0,100,0,32.8,0,0,50,3.822,3.805,0,0,0,0,4.209,112.64,20.160970461424,5.577428,38,Tripod,
742000,2023-03-29 16:37:54,-34.9538019675767,-54.9408260083152,6.233596,6.9225724,14.288266861424,20.817138461424,6.56168,4.3844024,4.6079069716,6.8758860468,27,5,7.658,20.817138461424,6.233596,4.3844024,4.6079069716,-4.250186,-1.11847,-4.250186,16.9, 10.8, -1.6,0,0,364,1024,1684,1024,-100,0,100,0,32.8,0,0,50,3.822,3.805,0,0,0,0,4.209,112.64,20.817138461424,6.233596,38,Tripod,
742100,2023-03-29 16:37:54,-34.9538040306207,-54.9408266898839,6.889764,7.709974,14.157033261424,21.473306461424,7.217848,4.6752046,5.178969982,7.6557089064,27,5,7.658,21.473306461424,6.889764,4.6752046,5.178969982,-4.47388,-1.342164,-4.250186,16.9, 11.3, -1.4,0,0,364,1024,1684,1024,-100,0,100,0,32.8,0,0,50,3.822,3.805,0,0,0,0,4.209,112.64,21.473306461424,6.889764,38,Tripod,
742200,2023-03-29 16:37:54,-34.9538061425586,-54.9408274326829,7.545932,8.4645672,14.058608061424,22.129474461424,7.874016,4.8765292,5.8094818132,8.4576118192,27,5,7.658,22.129474461424,7.545932,4.8765292,5.8094818132,-4.697574,-1.342164,-4.250186,16.9, 11.6, -1.3,0,0,364,1024,1684,1024,-100,0,100,0,32.8,0,0,50,3.822,3.805,0,0,0,0,4.209,112.64,22.129474461424,7.545932,38,Tripod,
742300,2023-03-29 16:37:54,-34.9538081408263,-54.9408281429004,8.2021,9.2191604,13.960182861424,22.785642461424,8.530184,4.8765292,6.4406498124,9.2169950456,27,5,7.658,22.785642461424,8.2021,4.8765292,6.4406498124,-4.697574,-1.342164,-4.250186,16.9, 11.6, -1.1,0,0,364,1024,1684,1024,-100,0,100,0,32.8,0,0,50,3.822,3.805,0,0,0,0,4.209,112.64,22.785642461424,8.2021,38,Tripod,
742400,2023-03-29 16:37:54,-34.953810204759,-54.9408288781247,8.858268,10.006562,13.828949261424,23.441810461424,9.186352,5.1002232,7.1187994404,10.0014438896,27,5,7.658,23.441810461424,8.858268,5.1002232,7.1187994404,-4.921268,-1.342164,-4.250186,16.9, 11.5, -1.5,0,0,401,1022,1684,1024,-94,-0,100,0,32.8,0,0,50,3.822,3.805,0,0,0,0,4.209,112.64,23.441810461424,8.858268,38,Tripod,
742500,2023-03-29 16:37:54,-34.9538123603525,-54.940829700525,9.514436,10.7939636,13.697715661424,24.097978461424,10.170604,5.3239172,7.8456039256,10.8254924724,27,5,7.606,24.097978461424,9.514436,5.3239172,7.8456039256,-5.144962,-1.342164,-4.250186,16.9, 12.1, -1.7,0,0,401,1022,1684,1024,-94,-0,100,0,32.8,0,0,50,3.816,3.812,0,0,0,0,5.933,112.64,24.097978461424,9.514436,38,Tripod,
742600,2023-03-29 16:37:54,-34.9538145912308,-54.9408305504022,10.170604,11.6141736,13.533673661424,24.754146461424,10.826772,5.59235,8.6162732416,11.67814998,27,5,7.606,24.754146461424,10.170604,5.59235,8.6162732416,-5.368656,-1.565858,-4.47388,16.9, 11.9, -2.1,0,0,1024,1024,1650,1024,0,0,95,0,32.8,0,0,50,3.816,3.812,0,0,0,0,5.933,112.64,24.754146461424,10.170604,38,Tripod,
742700,2023-03-29 16:37:54,-34.9538167717561,-54.9408313610879,10.826772,12.3687668,13.435248461424,25.410314461424,11.48294,5.59235,9.3837601428,12.50984292,27,5,7.606,25.410314461424,10.826772,5.59235,9.3837601428,-5.368656,-1.565858,-4.47388,17.1, 3, -1.7,0,0,1024,1024,1024,1024,0,0,0,0,32.8,0,0,50,3.816,3.812,0,0,0,0,5.933,112.64,25.410314461424,10.826772,38,Tripod,
742800,2023-03-29 16:37:55,-34.9538190196627,-54.9408321572428,11.48294,13.12336,13.336823261424,26.066482461424,12.139108,5.1002232,10.1861223732,13.363845572,27,5,7.606,26.066482461424,11.48294,5.59235,10.1861223732,-4.921268,-1.342164,-4.250186,17.8, -16, -1.6,0,0,1024,1024,1024,1024,0,0,0,0,32.8,0,0,50,3.816,3.812,0,0,0,0,5.933,112.64,26.066482461424,11.48294,38,Tripod,
742900,2023-03-29 16:37:55,-34.9538211501939,-54.9408327077979,12.139108,13.9107616,13.205589661424,26.722650461424,12.795276,4.1830778,10.955709012,14.1584322116,27,5,7.606,26.722650461424,12.139108,5.59235,10.955709012,-4.026492,-1.11847,-3.802798,17.8, -19.1, -1.2,0,0,1024,1024,1024,1024,0,0,0,0,32.8,0,0,50,3.816,3.812,0,0,0,0,5.933,112.64,26.722650461424,12.139108,38,Tripod,
743000,2023-03-29 16:37:55,-34.9538229365208,-54.9408332351061,12.467192,14.3372708,13.107164461424,27.050734461424,13.12336,3.467257,11.6031499776,14.8289702908,27,5,7.606,27.050734461424,12.467192,5.59235,11.6031499776,-3.35541,-0.894776,-3.131716,17.6, -18.4, -1.8,0,0,1024,1024,1024,1024,0,0,0,0,32.8,0,0,50,3.816,3.812,0,0,0,0,5.933,112.64,27.050734461424,12.467192,38,Tripod,"Error de calibración del estabilizador. Reinicia la aeronave o contacta con la Asistencia DJI (Code: 40011)"
743100,2023-03-29 16:37:55,-34.9538243987178,-54.9408336037285,12.795276,14.7309716,13.041547661424,27.378818461424,13.451444,2.9751302,12.1351381836,15.3737209644,27,5,7.606,27.378818461424,12.795276,5.59235,12.1351381836,-2.908022,-0.671082,-2.460634,17.6, -17.5, -2,0,0,1024,1024,1024,1024,0,0,0,0,32.8,0,0,50,3.816,3.812,0,0,0,0,5.933,112.64,27.378818461424,12.795276,31,Sport,"Error de calibración del estabilizador. Reinicia la aeronave o contacta con la Asistencia DJI (Code: 40011)"
743200,2023-03-29 16:37:55,-34.9538257056679,-54.9408338713578,13.12336,15.1574808,12.943122461424,27.706902461424,13.779528,2.2816788,12.6115817684,15.8572183552,27,5,7.606,27.706902461424,13.12336,5.59235,12.6115817684,-2.23694,-0.447388,-1.565858,17.6, -15.8, -2.2,0,0,1024,1024,1024,1024,0,0,0,0,32.8,0,0,50,3.816,3.812,0,0,0,0,5.933,112.64,27.706902461424,13.12336,31,Sport,
743300,2023-03-29 16:37:55,-34.9538267134353,-54.9408340948138,13.12336,15.2230976,12.877505661424,27.706902461424,14.107612,1.5882274,12.979331124,16.2309388396,27,5,7.606,27.706902461424,13.12336,5.59235,12.979331124,-1.565858,-0.223694,-0.671082,17.8, -14.2, -2.4,0,0,1024,1024,1024,1024,0,0,0,0,32.8,0,0,50,3.816,3.812,0,0,0,0,5.933,112.64,27.706902461424,13.12336,31,Sport,
743400,2023-03-29 16:37:55,-34.9538274872597,-54.9408343109746,13.12336,15.2230976,12.877505661424,27.706902461424,14.107612,1.11847,13.2620411068,16.5205713948,27,5,7.606,27.706902461424,13.12336,5.59235,13.2620411068,-1.11847,0,-0.223694,17.5, -11, -2.6,0,0,1024,1024,1024,1024,0,0,0,0,32.8,0,0,50,3.816,3.812,0,0,0,0,5.933,112.64,27.706902461424,13.12336,31,Sport,
743500,2023-03-29 16:37:55,-34.9538280115494,-54.9408343532305,13.451444,15.58399,12.844697261424,28.034986461424,14.107612,0.671082,13.4534453124,16.712270876,27,5,7.618,28.034986461424,13.451444,5.59235,13.4534453124,-0.671082,0,0,17.2, -7.3, -3.1,0,0,1024,1024,1024,1024,0,0,0,0,32.8,0,0,50,3.838,3.834,0,0,0,0,5.273,112.64,28.034986461424,13.451444,31,Sport,
743600,2023-03-29 16:37:55,-34.953828353131,-54.9408342505601,13.451444,15.58399,12.844697261424,28.034986461424,14.107612,0.223694,13.5778219568,16.8406173368,27,5,7.618,28.034986461424,13.451444,5.59235,13.5778219568,-0.223694,0,0,17.2, -4.1, -3,0,0,1024,1024,1024,1024,0,0,0,0,32.8,0,0,50,3.838,3.834,0,0,0,0,5.273,112.64,28.034986461424,13.451444,31,Sport,
743700,2023-03-29 16:37:55,-34.953828556093,-54.940834123818,13.451444,15.6167984,12.811888861424,28.034986461424,14.107612,0.223694,13.6516736652,16.9238194392,27,5,7.618,28.034986461424,13.451444,5.59235,13.6516736652,0,0.223694,0,17.1, -1.5, -2.9,0,0,1024,1024,1024,1024,0,0,0,0,32.8,0,0,50,3.838,3.834,0,0,0,0,5.273,112.64,28.034986461424,13.451444,31,Sport,"Error de calibración del estabilizador. Reinicia la aeronave o contacta con la Asistencia DJI (Code: 40011)"
743800,2023-03-29 16:37:56,-34.9538283850453,-54.9408337550273,13.451444,15.58399,12.844697261424,28.034986461424,14.107612,0.223694,13.58923928,17.05052548,27,5,7.618,28.034986461424,13.451444,5.59235,13.6516736652,0,0.223694,0,17.1, 0.1, -3,0,0,1024,1024,1024,1024,0,0,0,0,32.8,0,0,50,3.838,3.834,0,0,0,0,5.273,112.64,28.034986461424,13.451444,6,P-GPS,
743900,2023-03-29 16:37:56,-34.9538284775173,-54.940833657002,13.451444,15.58399,12.844697261424,28.034986461424,14.107612,0.223694,13.6231303572,17.0952105208,27,5,7.618,28.034986461424,13.451444,5.59235,13.6516736652,0,0.223694,0,17.1, 1.1, -2.9,0,0,1024,1024,1024,1024,0,0,0,0,32.8,0,0,50,3.838,3.834,0,0,0,0,5.273,112.64,28.034986461424,13.451444,6,P-GPS,
744000,2023-03-29 16:37:56,-34.9538285748974,-54.9408336130844,13.451444,15.6167984,12.811888861424,28.034986461424,14.435696,0,13.6587602796,17.1331042228,27,5,7.618,28.034986461424,13.451444,5.59235,13.6587602796,0,0,0,17.1, 1.7, -2.9,0,0,1024,1024,1024,1024,0,0,0,0,32.8,0,0,50,3.838,3.834,0,0,0,0,5.273,112.64,28.034986461424,13.451444,6,P-GPS,
744100,2023-03-29 16:37:56,-34.9538286571225,-54.940833561029,13.451444,15.6167984,12.811888861424,28.034986461424,14.435696,0,13.6888783908,17.1668968748,27,5,7.618,28.034986461424,13.451444,5.59235,13.6888783908,0,0,0,17.1, 1.9, -2.6,0,0,1024,1024,1024,1024,0,0,0,0,32.8,0,0,50,3.838,3.834,0,0,0,0,5.273,112.64,28.034986461424,13.451444,6,P-GPS,
744200,2023-03-29 16:37:56,-34.9538289390346,-54.940833698376,13.451444,15.6167984,12.811888861424,28.034986461424,14.435696,0,13.7914374492,17.2776252248,27,5,7.618,28.034986461424,13.451444,5.59235,13.7914374492,0,0,0,17.1, 1, -2.9,0,0,1024,1024,1024,1024,0,0,0,0,32.8,0,0,50,3.838,3.834,0,0,0,0,5.273,112.64,28.034986461424,13.451444,6,P-GPS,
744300,2023-03-29 16:37:56,-34.9538290172512,-54.9408336305887,13.451444,15.6167984,12.811888861424,28.034986461424,14.435696,0,13.8201119908,17.3126317876,27,5,7.618,28.034986461424,13.451444,5.59235,13.8201119908,0,0,0,17.1, 0.1, -2.6,0,0,1024,1024,1024,1024,0,0,0,0,32.8,0,0,50,3.838,3.834,0,0,0,0,5.273,112.64,28.034986461424,13.451444,6,P-GPS,
744400,2023-03-29 16:37:56,-34.953829079825,-54.9408335424014,13.451444,15.6167984,12.811888861424,28.034986461424,14.435696,0,13.8431434876,17.3475399252,27,5,7.618,28.034986461424,13.451444,5.59235,13.8431434876,0,0,0,17.1, 0.6, -2.7,0,0,1228,1024,1024,1024,31,0,0,0,32.8,0,0,50,3.838,3.834,0,0,0,0,5.273,112.64,28.034986461424,13.451444,6,P-GPS,
744500,2023-03-29 16:37:56,-34.9538291136543,-54.9408334502566,13.451444,15.58399,12.844697261424,28.034986461424,14.107612,0,13.8557419132,17.3777236532,27,5,7.64,28.034986461424,13.451444,5.59235,13.8557419132,0,0,0,17.1, 1, -2.8,0,0,1228,1024,1024,1024,31,0,0,0,32.8,0,0,50,3.824,3.819,0,0,0,0,3.761,112.64,28.034986461424,13.451444,6,P-GPS,
744600,2023-03-29 16:37:56,-34.9538294293314,-54.940833422589,13.451444,15.58399,12.844697261424,28.034986461424,14.107612,0,13.9709978224,17.4931764128,27,5,7.64,28.034986461424,13.451444,5.59235,13.9709978224,0,0,0,17.2, 0.4, -2.9,0,0,1684,1024,1024,1024,100,0,0,0,32.8,0,0,50,3.824,3.819,0,0,0,0,3.761,112.64,28.034986461424,13.451444,6,P-GPS,
744700,2023-03-29 16:37:56,-34.9538293856842,-54.94083331308,13.451444,15.58399,12.844697261424,28.034986461424,14.107612,0.3131716,13.9554794492,17.5295937368,27,5,7.64,28.034986461424,13.451444,5.59235,13.9709978224,0.223694,0.223694,0,17.5, -8, -2.6,0,0,1684,1024,1024,1024,100,0,0,0,32.8,0,0,50,3.824,3.819,0,0,0,0,3.761,112.64,28.034986461424,13.451444,6,P-GPS,
744800,2023-03-29 16:37:56,-34.9538291939187,-54.9408331476831,13.451444,15.58399,12.844697261424,28.034986461424,14.107612,0.3131716,13.8862865336,17.6152892776,27,5,7.64,28.034986461424,13.451444,5.59235,13.9709978224,0.671082,0.223694,0,17.7, -14.1, -2.7,0,0,1684,1024,1024,1024,100,0,0,0,32.8,0,0,50,3.824,3.819,0,0,0,0,3.761,112.64,28.034986461424,13.451444,6,P-GPS,
744900,2023-03-29 16:37:57,-34.9538288035139,-54.940832896361,13.451444,15.58399,12.844697261424,28.034986461424,14.107612,1.2079476,13.7453416472,17.7763457132,27,5,7.64,28.034986461424,13.451444,5.59235,13.9709978224,1.11847,0.447388,0,17.5, -15.2, -2.8,0,0,1547,1024,1024,1024,79,0,0,0,32.8,0,0,50,3.824,3.819,0,0,0,0,3.761,112.64,28.034986461424,13.451444,6,P-GPS,
745000,2023-03-29 16:37:57,-34.9538281361091,-54.940832522932,13.451444,15.5511816,12.877505661424,28.034986461424,14.107612,1.901399,13.5049545004,18.0442262992,27,5,7.64,28.034986461424,13.451444,5.59235,13.9709978224,1.789552,0.671082,0,17.4, -14.6, -2.6,0,0,1547,1024,1024,1024,79,0,0,0,32.8,0,0,50,3.824,3.819,0,0,0,0,3.761,112.64,28.034986461424,13.451444,6,P-GPS,
745100,2023-03-29 16:37:57,-34.9538275126528,-54.9408321070684,13.451444,15.5183732,12.910314061424,28.034986461424,14.107612,2.6172198,13.282152656,18.303478276,27,5,7.64,28.034986461424,13.451444,5.59235,13.9709978224,2.460634,0.894776,0,17.1, -10.8, -2.7,0,0,1235,1024,1024,1024,32,0,0,0,32.8,0,0,50,3.824,3.819,0,0,0,0,3.761,112.64,28.034986461424,13.451444,6,P-GPS,
745200,2023-03-29 16:37:57,-34.9538264189735,-54.9408315951502,13.451444,15.419948,13.008739261424,28.034986461424,14.107612,3.1093466,12.8908796776,18.7308404944,27,5,7.64,28.034986461424,13.451444,5.59235,13.9709978224,2.908022,1.11847,0,17, -9.2, -2.6,0,0,1024,1024,1024,1024,0,0,0,0,32.8,0,0,50,3.824,3.819,0,0,0,0,3.761,112.64,28.034986461424,13.451444,6,P-GPS,
745300,2023-03-29 16:37:57,-34.9538251842189,-54.9408310567526,13.451444,15.3543312,13.074356061424,28.034986461424,14.107612,3.5343652,12.4511815008,19.2092525832,27,5,7.64,28.034986461424,13.451444,5.59235,13.9709978224,3.35541,1.11847,0,17.1, -4.5, -2.4,0,0,1024,1024,1024,1024,0,0,0,0,32.8,0,0,50,3.824,3.819,0,0,0,0,3.761,112.64,28.034986461424,13.451444,6,P-GPS,
745400,2023-03-29 16:37:57,-34.9538237243865,-54.9408304521832,13.451444,15.2887144,13.139972861424,28.034986461424,13.779528,3.7580592,11.9343507756,19.7717197928,27,5,7.64,28.034986461424,13.451444,5.59235,13.9709978224,3.579104,1.11847,0,16.5, 7.3, -2.5,0,0,1024,1024,1024,1024,0,0,0,0,32.8,0,0,50,3.824,3.819,0,0,0,0,3.761,112.64,28.034986461424,13.451444,6,P-GPS,
745500,2023-03-29 16:37:57,-34.9538224355601,-54.9408298758236,13.451444,15.1902892,13.238398061424,28.034986461424,13.779528,3.0422384,11.48294,20.2725400188,27,5,7.632,28.034986461424,13.451444,5.59235,13.9709978224,2.908022,0.894776,0,16.2, 14.9, -2.4,0,0,1024,1024,1024,1024,0,0,0,0,32.8,0,0,50,3.817,3.812,0,0,0,0,4.362,112.64,28.034986461424,13.451444,6,P-GPS,
745600,2023-03-29 16:37:57,-34.9538211851395,-54.9408293171026,13.12336,14.7965884,13.304014861424,27.706902461424,13.779528,2.6172198,11.04904891,20.7583996144,27,5,7.632,28.034986461424,13.451444,5.59235,13.9709978224,2.460634,0.894776,0,16.6, 15.2, -2.2,0,0,1024,1024,1024,364,0,0,0,-100,32.8,0,0,50,3.817,3.812,0,0,0,0,4.362,112.64,27.706902461424,13.12336,6,P-GPS,
745700,2023-03-29 16:37:57,-34.9538202092171,-54.9408288756409,13.12336,14.7309716,13.369631661424,27.706902461424,13.779528,1.901399,10.713747062,21.138124036,27,5,7.632,28.034986461424,13.451444,5.59235,13.9709978224,1.789552,0.671082,0,16.6, 13.7, -2.1,0,0,1024,1024,1024,364,0,0,0,-100,31.3,0,0,50,3.817,3.812,0,0,0,0,4.362,112.64,27.706902461424,13.12336,6,P-GPS,
745800,2023-03-29 16:37:57,-34.9538194032769,-54.9408285008679,13.12336,14.6981632,13.402440061424,27.706902461424,13.779528,1.4092722,10.4396000716,21.4528222088,27,5,7.632,28.034986461424,13.451444,5.59235,13.9709978224,1.342164,0.447388,0,13.9, 12, -2.9,0,0,1024,1024,1024,364,0,0,0,-100,27.2,0,0,50,3.817,3.812,0,0,0,0,4.362,112.64,27.706902461424,13.12336,6,P-GPS,
745900,2023-03-29 16:37:58,-34.9538187997159,-54.9408279696048,13.12336,14.6653548,13.435248461424,27.706902461424,13.779528,1.006623,10.2485895668,21.7243445272,27,5,7.632,28.034986461424,13.451444,5.59235,13.9709978224,0.894776,0.447388,0,10, 9.7, -4.1,0,0,1024,1024,1024,364,0,0,0,-100,22.5,0,0,50,3.817,3.812,0,0,0,0,4.362,112.64,27.706902461424,13.12336,6,P-GPS,
746000,2023-03-29 16:37:58,-34.9538183407247,-54.9408276144268,13.12336,14.6325464,13.468056861424,27.706902461424,13.779528,0.8052984,10.1030843128,21.9226384968,27,5,7.632,28.034986461424,13.451444,5.59235,13.9709978224,0.671082,0.447388,0,5.1, 8.3, -4.5,0,0,1024,1024,1024,364,0,0,0,-100,17.7,0,0,50,3.817,3.812,0,0,0,0,4.362,112.64,27.706902461424,13.12336,6,P-GPS,
746100,2023-03-29 16:37:58,-34.9538180303179,-54.9408273506155,13.12336,14.599738,13.500865261424,27.706902461424,13.779528,0.4921268,10.0070869344,22.0606634356,27,5,7.632,28.034986461424,13.451444,5.59235,13.9709978224,0.447388,0.223694,0,0, 6.8, -4.6,0,0,1024,1024,1024,364,0,0,0,-100,12.9,0,0,50,3.817,3.812,0,0,0,0,4.362,112.64,27.706902461424,13.12336,6,P-GPS,"Error de calibración del estabilizador. Reinicia la aeronave o contacta con la Asistencia DJI (Code: 40011)"
746200,2023-03-29 16:37:58,-34.9538178337492,-54.9408271676507,13.451444,14.927822,13.500865261424,28.034986461424,13.779528,0.3131716,9.9477693472,22.1508865356,27,5,7.632,28.034986461424,13.451444,5.59235,13.9709978224,0.223694,0.223694,0,355.4, 5.1, -5,0,0,1024,1024,1024,364,0,0,0,-100,8.1,0,0,50,3.817,3.812,0,0,0,0,4.362,112.64,28.034986461424,13.451444,6,P-GPS,
746300,2023-03-29 16:37:58,-34.9538181135057,-54.9408272800341,13.451444,14.927822,13.500865261424,28.034986461424,14.107612,0.3131716,10.04101082,22.2583340456,27,5,7.632,28.034986461424,13.451444,5.59235,13.9709978224,0.223694,0.223694,0,350.6, 4.1, -4.7,0,0,1024,1024,1024,364,0,0,0,-100,3.3,0,0,50,3.817,3.812,0,0,0,0,4.362,112.64,28.034986461424,13.451444,6,P-GPS,
746400,2023-03-29 16:37:58,-34.9538180563467,-54.9408271474435,13.451444,14.927822,13.500865261424,28.034986461424,14.107612,0.223694,10.0285108196,22.30315032,27,5,7.632,28.034986461424,13.451444,5.59235,13.9709978224,0.223694,0,0,345.8, 3.2, -4.7,0,0,1024,1024,1024,364,0,0,0,-100,358.6,0,0,50,3.817,3.812,0,0,0,0,4.362,112.64,28.034986461424,13.451444,6,P-GPS,
746500,2023-03-29 16:37:58,-34.9538180253106,-54.9408270291493,13.451444,14.927822,13.500865261424,28.034986461424,14.107612,0.223694,10.0246722368,22.3402894288,27,5,7.632,28.034986461424,13.451444,5.59235,13.9709978224,0.223694,0,0,341, 2.6, -4.6,0,0,1024,1024,1024,364,0,0,0,-100,353.9,0,0,50,3.816,3.812,0,0,0,0,4.362,112.64,28.034986461424,13.451444,6,P-GPS,
746600,2023-03-29 16:37:58,-34.9538179993933,-54.9408269035514,13.451444,14.927822,13.500865261424,28.034986461424,14.107612,0,10.0232286672,22.3790033408,27,5,7.632,28.034986461424,13.451444,5.59235,13.9709978224,0,0,0,336.2, 1.7, -4.5,0,0,1024,1024,1024,364,0,0,0,-100,353.9,0,0,50,3.816,3.812,0,0,0,0,4.362,112.64,28.034986461424,13.451444,6,P-GPS,
746700,2023-03-29 16:37:58,-34.9538180000007,-54.940826759991,13.451444,14.927822,13.500865261424,28.034986461424,13.779528,0,10.0325462528,22.4219495364,27,5,7.632,28.034986461424,13.451444,5.59235,13.9709978224,0,0,0,331.4, 1.5, -4.3,0,0,1024,1024,1024,364,0,0,0,-100,344.3,0,0,50,3.816,3.812,0,0,0,0,4.362,112.64,28.034986461424,13.451444,6,P-GPS,"Error de calibración del estabilizador. Reinicia la aeronave o contacta con la Asistencia DJI (Code: 40011)"
746800,2023-03-29 16:37:59,-34.9538182317957,-54.9408264200396,13.779528,15.2230976,13.533673661424,28.363070461424,13.779528,0,10.1372378572,22.5541673884,27,5,7.632,28.363070461424,13.779528,5.59235,13.9709978224,0,0,0,326.6, 0.6, -4.4,0,0,1024,1024,1024,364,0,0,0,-100,339.5,0,0,50,3.816,3.812,0,0,0,0,4.362,112.64,28.363070461424,13.779528,6,P-GPS,
746900,2023-03-29 16:37:59,-34.9538182526324,-54.940826237374,13.779528,15.2230976,13.533673661424,28.363070461424,13.779528,0,10.1568900888,22.6093183088,27,5,7.632,28.363070461424,13.779528,5.59235,13.9709978224,0,0,0,321.8, 0.2, -4.6,0,0,1024,1024,1024,364,0,0,0,-100,334.7,0,0,50,3.816,3.812,0,0,0,0,4.362,112.64,28.363070461424,13.779528,6,P-GPS,
747000,2023-03-29 16:37:59,-34.9538182561833,-54.9408260654104,13.779528,15.2230976,13.533673661424,28.363070461424,13.779528,0,10.169947832,22.66076188,27,5,7.632,28.363070461424,13.779528,5.59235,13.9709978224,0,0,0,317.1, -0.4, -4.2,0,0,1024,1024,1024,364,0,0,0,-100,329.9,0,0,50,3.816,3.812,0,0,0,0,4.362,112.64,28.363070461424,13.779528,6,P-GPS,
747100,2023-03-29 16:37:59,-34.9538182574752,-54.9408258940922,13.779528,15.2230976,13.533673661424,28.363070461424,13.779528,0,10.1823822156,22.7120086008,27,5,7.632,28.363070461424,13.779528,5.59235,13.9709978224,0,0,0,312.3, -1, -4,0,0,1024,1024,1024,364,0,0,0,-100,325.1,0,0,50,3.816,3.812,0,0,0,0,4.362,112.64,28.363070461424,13.779528,6,P-GPS,
747200,2023-03-29 16:37:59,-34.9538181352693,-54.9408256639856,13.779528,15.2230976,13.533673661424,28.363070461424,13.779528,0,10.1556105612,22.7939967924,27,5,7.632,28.363070461424,13.779528,5.59235,13.9709978224,0,0,0,307.5, -1.9, -3.3,0,0,1024,1024,1024,364,0,0,0,-100,320.3,0,0,50,3.816,3.812,0,0,0,0,4.362,112.64,28.363070461424,13.779528,6,P-GPS,
747300,2023-03-29 16:37:59,-34.9538181210067,-54.9408254637664,13.779528,15.1902892,13.566482061424,28.363070461424,13.779528,0.223694,10.1653218476,22.8541017812,27,5,7.632,28.363070461424,13.779528,5.59235,13.9709978224,0,0.223694,0,302.6, -2.7, -3.3,0,0,1024,1024,1024,364,0,0,0,-100,315.5,0,0,50,3.816,3.812,0,0,0,0,4.362,112.64,28.363070461424,13.779528,6,P-GPS,
747400,2023-03-29 16:37:59,-34.9538180978403,-54.9408252475954,13.779528,15.1902892,13.566482061424,28.363070461424,13.779528,0.223694,10.1734583308,22.919292072,27,5,7.632,28.363070461424,13.779528,5.59235,13.9709978224,0,0.223694,0,298, -3.2, -3,0,0,1024,1024,1056,364,0,0,5,-100,310.7,0,0,50,3.816,3.812,0,0,0,0,4.362,112.64,28.363070461424,13.779528,6,P-GPS,
747500,2023-03-29 16:37:59,-34.9538180898493,-54.9408250532662,13.451444,14.8622052,13.566482061424,28.034986461424,13.779528,0.223694,10.1856630556,22.9774613652,27,5,7.626,28.363070461424,13.779528,5.59235,13.9709978224,0,0.223694,0,293.2, -3.9, -3,0,0,1024,1024,1056,364,0,0,5,-100,305.9,0,0,50,3.814,3.809,0,0,0,0,4.582,112.64,28.034986461424,13.451444,6,P-GPS,
747600,2023-03-29 16:37:59,-34.9538180910904,-54.9408248533332,13.451444,14.8622052,13.566482061424,28.034986461424,13.779528,0,10.2018375968,23.03723827,27,5,7.626,28.363070461424,13.779528,5.59235,13.9709978224,0,0,0,288.4, -4.1, -2.6,0,0,1024,1024,1056,364,0,0,5,-100,301.1,0,0,50,3.814,3.809,0,0,0,0,4.582,112.64,28.034986461424,13.451444,6,P-GPS,
747700,2023-03-29 16:37:59,-34.9538180693055,-54.9408247075059,13.451444,14.8622052,13.566482061424,28.034986461424,13.779528,0,10.2059058384,23.0815624184,27,5,7.626,28.363070461424,13.779528,5.59235,13.9709978224,0,0,0,283.7, -4.5, -2.4,0,0,1024,1024,1055,364,0,0,5,-100,296.3,0,0,50,3.814,3.809,0,0,0,0,4.582,112.64,28.034986461424,13.451444,6,P-GPS,
747800,2023-03-29 16:38:00,-34.9538179987641,-54.9408245918352,13.12336,14.5341212,13.566482061424,27.706902461424,13.779528,0,10.1905515072,23.1247054644,27,5,7.626,28.363070461424,13.779528,5.59235,13.9709978224,0,0,0,278.9, -4.5, -2.1,0,0,1438,1024,1024,761,63,0,0,-40,291.5,0,0,50,3.814,3.809,0,0,0,0,4.582,112.64,27.706902461424,13.12336,6,P-GPS,
747900,2023-03-29 16:38:00,-34.9538179305714,-54.9408244961992,13.12336,14.5013128,13.599290461424,27.706902461424,13.779528,0,10.174541008,23.1625991664,26,5,7.626,28.363070461424,13.779528,5.59235,13.9709978224,0,0,0,274.3, -4.8, -2,0,0,1684,1024,1024,1024,100,0,0,0,287.3,0,0,50,3.814,3.809,0,0,0,0,4.582,112.64,27.706902461424,13.12336,6,P-GPS,
748000,2023-03-29 16:38:00,-34.9538178625808,-54.9408244205379,13.12336,14.5013128,13.599290461424,27.706902461424,13.779528,0,10.1570213224,23.1961621596,26,5,7.626,28.363070461424,13.779528,5.59235,13.9709978224,0,0,0,271.3, -12.6, -1.7,0,0,1684,1024,1024,1024,100,0,0,0,285.4,0,0,50,3.814,3.809,0,0,0,0,4.582,112.64,27.706902461424,13.12336,6,P-GPS,
748100,2023-03-29 16:38:00,-34.9538177915939,-54.9408244958752,12.795276,14.1732288,13.599290461424,27.378818461424,13.779528,0.223694,10.1258533424,23.2305125544,26,5,7.626,28.363070461424,13.779528,5.59235,13.9709978224,0,-0.223694,0,269.9, -18.4, -1.3,0,0,1684,1024,1024,1024,100,0,0,0,284.6,0,0,50,3.814,3.809,0,0,0,0,4.582,112.64,27.378818461424,12.795276,6,P-GPS,
748200,2023-03-29 16:38:00,-34.9538176972872,-54.9408248352073,12.795276,14.2060372,13.566482061424,27.378818461424,13.779528,0.894776,10.0648953352,23.3376319804,26,5,7.626,28.363070461424,13.779528,5.59235,13.9709978224,0,-0.894776,0,269.3, -18.9, -1.4,0,0,1684,1024,1024,1024,100,0,0,0,284.5,0,0,50,3.814,3.809,0,0,0,0,4.582,112.64,27.378818461424,12.795276,6,P-GPS,
748300,2023-03-29 16:38:00,-34.9538175841527,-54.9408254370865,12.795276,14.2060372,13.566482061424,27.378818461424,13.779528,1.342164,9.9777890332,23.522310464,26,5,7.626,28.363070461424,13.779528,5.59235,13.9709978224,0,-1.342164,0,269.2, -19, -1.8,0,0,1684,1024,1024,1024,100,0,0,0,284.5,0,0,50,3.814,3.809,0,0,0,0,4.582,112.64,27.378818461424,12.795276,6,P-GPS,
748400,2023-03-29 16:38:00,-34.9538174457297,-54.940826358996,12.467192,13.8779532,13.566482061424,27.050734461424,13.779528,2.013246,9.8619753812,23.8025598168,26,5,7.626,28.363070461424,13.779528,5.59235,13.9709978224,0,-2.013246,0,269.2, -19, -1.8,0,0,1684,1024,1024,1024,100,0,0,0,284.5,0,0,50,3.814,3.809,0,0,0,0,4.582,112.64,27.050734461424,12.467192,6,P-GPS,
748500,2023-03-29 16:38:00,-34.95381731738,-54.940827553148,12.467192,13.9107616,13.533673661424,27.050734461424,13.779528,2.460634,9.740157792,24.162730432,26,5,7.623,28.363070461424,13.779528,5.59235,13.9709978224,0,-2.460634,0,269.3, -19.1, -1.8,0,0,1684,1024,1024,1024,100,0,0,0,284.5,0,0,50,3.813,3.807,0,0,0,0,4.503,112.64,27.050734461424,12.467192,6,P-GPS,
748600,2023-03-29 16:38:00,-34.9538172493703,-54.9408290257838,12.467192,13.94357,13.500865261424,27.050734461424,13.779528,3.131716,9.638943878,24.6038065616,26,5,7.623,28.363070461424,13.779528,5.59235,13.9709978224,0,-3.131716,0,269.3, -19, -2,0,0,1601,1024,1024,1024,87,0,0,0,284.5,0,0,50,3.813,3.807,0,0,0,0,4.503,112.64,27.050734461424,12.467192,6,P-GPS,
748700,2023-03-29 16:38:00,-34.9538171636025,-54.9408306858136,12.467192,14.0091868,13.435248461424,27.050734461424,13.779528,3.579104,9.5447181532,25.1011819056,26,5,7.623,28.363070461424,13.779528,5.59235,13.9709978224,0.223694,-3.579104,0,269.3, -19, -2.3,0,0,1024,1024,1024,1024,0,0,0,0,284.5,0,0,50,3.813,3.807,0,0,0,0,4.503,112.64,27.050734461424,12.467192,6,P-GPS,
748800,2023-03-29 16:38:01,-34.9538170505891,-54.9408326988754,12.139108,13.7139112,13.402440061424,26.722650461424,13.779528,4.026492,9.4610567332,25.70456119,26,5,7.623,28.363070461424,13.779528,5.59235,13.9709978224,0.223694,-4.026492,0,268.9, -3.6, -2.7,0,0,1024,1024,1024,1024,0,0,0,0,284.5,0,0,50,3.813,3.807,0,0,0,0,4.503,112.64,26.722650461424,12.139108,6,P-GPS,
748900,2023-03-29 16:38:01,-34.9538169905616,-54.9408348863748,12.139108,13.779528,13.336823261424,26.722650461424,14.107612,3.579104,9.4361223492,26.35908877,26,5,7.623,28.363070461424,13.779528,5.59235,13.9709978224,0.223694,-3.579104,-0.223694,268, 11.7, -4.2,0,0,1024,1024,1024,1024,0,0,0,0,284.5,0,0,50,3.813,3.807,0,0,0,0,4.503,112.64,26.722650461424,12.139108,6,P-GPS,
749000,2023-03-29 16:38:01,-34.9538168907449,-54.9408366506359,12.139108,13.8451448,13.271206461424,26.722650461424,14.107612,2.908022,9.4303808792,26.8879273696,26,5,7.623,28.363070461424,13.779528,5.59235,13.9709978224,0.223694,-2.908022,0,267.7, 13, -4.1,0,0,1024,1024,1024,1024,0,0,0,0,284.5,0,0,50,3.813,3.807,0,0,0,0,4.503,112.64,26.722650461424,12.139108,31,Sport,"Error de calibración del estabilizador. Reinicia la aeronave o contacta con la Asistencia DJI (Code: 40011)"
749100,2023-03-29 16:38:01,-34.9538168107317,-54.9408380065575,12.139108,13.9107616,13.205589661424,26.722650461424,14.435696,2.23694,9.4449150004,27.2944234456,25,5,7.623,28.363070461424,13.779528,5.59235,13.9709978224,0.223694,-2.23694,0,268, 11.6, -4,0,0,1024,1024,1024,1024,0,0,0,0,284.5,0,0,50,3.813,3.807,0,0,0,0,4.503,112.64,26.722650461424,12.139108,31,Sport,
749200,2023-03-29 16:38:01,-34.9538167369826,-54.9408391033048,11.811024,13.615486,13.172781261424,26.394566461424,14.435696,2.23694,9.4661748436,27.6234916976,25,5,7.623,28.363070461424,13.779528,5.59235,13.9709978224,0.223694,-1.565858,0,268.3, 6.9, -3,0,0,1658,902,1024,1024,96,-18,0,0,284.5,0,0,50,3.813,3.807,0,0,0,0,4.503,112.64,26.394566461424,11.811024,31,Sport,
749300,2023-03-29 16:38:01,-34.9538165850202,-54.9408402435246,11.811024,13.6482944,13.139972861424,26.394566461424,14.435696,1.1408394,9.4733926916,27.9689641496,27,5,7.623,28.363070461424,13.779528,5.59235,13.9709978224,0.223694,-1.11847,0,268.9, 3.8, -4.7,0,0,1684,938,1024,1024,100,-13,0,0,284.5,0,0,50,3.813,3.807,0,0,0,0,4.503,112.64,26.394566461424,11.811024,31,Sport,
749400,2023-03-29 16:38:01,-34.9538164894921,-54.9408409885134,11.811024,13.615486,13.172781261424,26.394566461424,14.435696,0.894776,9.4862535844,28.1944234744,27,5,7.623,28.363070461424,13.779528,5.59235,13.9709978224,0,-0.894776,0,270, -7.9, -11.7,0,0,1684,938,1024,1024,100,-13,0,0,284.5,0,0,50,3.813,3.807,0,0,0,0,4.503,112.64,26.394566461424,11.811024,31,Sport,
749500,2023-03-29 16:38:01,-34.9538165089911,-54.9408416148976,11.811024,13.7139112,13.074356061424,26.394566461424,14.107612,1.11847,9.5365160532,28.381890672,27,5,7.625,28.363070461424,13.779528,5.59235,13.9709978224,0,-1.11847,0,272, -23.9, -6.3,0,0,1684,858,1024,1024,100,-25,0,0,284.5,-0.3,0,50,3.813,3.806,0,0,0,0,4.396,112.64,26.394566461424,11.811024,31,Sport,"Error de calibración del estabilizador. Reinicia la aeronave o contacta con la Asistencia DJI (Code: 40011). El ángulo de posición de vuelo es mayor en el modo Sport. El estabilizador rotará cuando la aeronave comience a moverse o se detenga. Si es n"
749600,2023-03-29 16:38:01,-34.953816607782,-54.940842394339,11.811024,13.7139112,13.074356061424,26.394566461424,14.107612,2.0356154,9.6300528016,28.6177174512,26,5,7.625,28.363070461424,13.779528,5.59235,13.9709978224,-0.223694,-2.013246,0,271.5, -29.1, -6.2,0,0,1684,825,1024,1024,100,-30,0,0,284.6,-7.4,0,50,3.813,3.806,0,0,0,0,4.396,112.64,26.394566461424,11.811024,31,Sport,
749700,2023-03-29 16:38:01,-34.9538168746149,-54.9408429551587,11.811024,13.7467196,13.041547661424,26.394566461424,13.779528,2.0356154,9.7689963756,28.8116479036,26,5,7.625,28.363070461424,13.779528,5.59235,13.9709978224,-0.447388,-3.131716,0,271.4, -29, -7.8,0,0,1684,824,1024,1024,100,-30,0,0,284.5,-8,0,50,3.813,3.806,0,0,0,0,4.396,112.64,26.394566461424,11.811024,31,Sport,
749800,2023-03-29 16:38:01,-34.9538171474699,-54.9408447185635,12.139108,14.1404204,12.975930861424,26.722650461424,13.779528,4.2949248,10.0216866724,29.3482949024,26,5,7.625,28.363070461424,13.779528,5.59235,13.9709978224,-0.671082,-4.250186,0,271.2, -27.3, -8.2,0,0,1684,823,1024,1024,100,-30,0,0,284.5,-8,0,50,3.813,3.806,0,0,0,0,4.396,112.64,26.722650461424,12.139108,31,Sport,
749900,2023-03-29 16:38:02,-34.9538175257818,-54.9408468479571,12.139108,14.271654,12.844697261424,26.722650461424,13.779528,5.2120702,10.372211618,29.999836918,26,5,7.625,28.363070461424,13.779528,5.59235,13.9709978224,-0.894776,-5.144962,0,271.1, -26.1, -8.2,0,0,1684,822,1024,1024,100,-31,0,0,284.5,-8,0,50,3.813,3.806,0,0,0,0,4.396,112.64,26.722650461424,12.139108,31,Sport,
750000,2023-03-29 16:38:02,-34.9538180510353,-54.9408495371862,12.139108,14.3700792,12.746272061424,26.722650461424,13.779528,6.1068462,10.8703743636,30.8265429812,26,5,7.625,28.363070461424,13.779528,6.1068462,13.9709978224,-0.894776,-6.039738,0,271, -25.8, -8,0,0,1684,810,1024,1024,100,-32,0,0,284.5,-8,0,50,3.813,3.806,0,0,0,0,4.396,112.64,26.722650461424,12.139108,31,Sport,
750100,2023-03-29 16:38:02,-34.9538186142989,-54.9408525431147,12.139108,14.5341212,12.582230061424,26.722650461424,13.779528,6.8002976,11.464567296,31.7485902548,26,5,7.625,28.363070461424,13.779528,6.8002976,13.9709978224,-1.11847,-6.71082,0,271, -25.5, -7.7,0,0,1684,771,1024,1024,100,-38,0,0,284.5,-8,0,50,3.813,3.806,0,0,0,0,4.396,112.64,26.722650461424,12.139108,31,Sport,
750200,2023-03-29 16:38:02,-34.9538194734148,-54.9408566131385,12.139108,14.6653548,12.450996461424,26.722650461424,13.779528,7.493749,12.3629269048,33.0052504,26,5,7.625,28.363070461424,13.779528,7.493749,13.9709978224,-1.342164,-7.381902,0,270.9, -26.1, -8,0,0,1684,764,1064,1024,100,-39,6,0,284.5,-8,0,50,3.813,3.806,0,0,0,0,4.396,112.64,26.722650461424,12.139108,31,Sport,
750300,2023-03-29 16:38:02,-34.9538201396121,-54.9408605477287,12.139108,14.8622052,12.254146061424,26.722650461424,13.779528,8.2095698,13.2388127596,34.206694008,26,5,7.625,28.363070461424,13.779528,8.2095698,13.9709978224,-1.565858,-8.052984,0,270.7, -25.9, -8.4,0,0,1684,764,1064,1024,100,-39,6,0,284.5,-8,0,50,3.813,3.806,0,0,0,0,4.396,112.64,26.722650461424,12.139108,31,Sport,
750400,2023-03-29 16:38:02,-34.9538208977264,-54.940865128152,12.139108,15.0262472,12.090104061424,26.722650461424,13.779528,8.9030212,14.3132550512,35.604331848,26,5,7.625,28.363070461424,13.779528,8.9030212,14.3132550512,-1.789552,-8.724066,0,270.7, -25.3, -9.2,0,0,1684,764,1285,1024,100,-39,40,0,284.5,-8,0,50,3.813,3.806,0,0,0,0,4.396,112.64,26.722650461424,12.139108,31,Sport,
750500,2023-03-29 16:38:02,-34.953821738214,-54.9408697490106,12.139108,15.255906,11.860445261424,26.722650461424,14.107612,9.395148,15.4695543008,37.019686224,26,5,7.599,28.363070461424,13.779528,9.395148,15.4695543008,-2.013246,-9.171454,-0.223694,270.8, -25.3, -8.8,0,0,1684,764,1452,1024,100,-39,65,0,284.5,-8,0,50,3.797,3.793,0,0,0,0,4.565,112.82,26.722650461424,12.139108,31,Sport,
750600,2023-03-29 16:38:02,-34.9538228873394,-54.9408757120936,12.139108,15.4855648,11.630786461424,26.722650461424,14.107612,10.3122934,17.0356632748,38.851379196,26,5,7.599,28.363070461424,13.779528,10.3122934,17.0356632748,-2.23694,-10.06623,-0.894776,270.5, -23.6, -8.2,0,0,1684,765,1684,1024,100,-39,100,0,284.5,-8,0,50,3.797,3.793,0,0,0,0,4.565,112.82,26.722650461424,12.139108,31,Sport,
