time(millisecond),datetime(utc),latitude,longitude,height_above_takeoff(feet),height_above_ground_at_drone_location(feet),ground_elevation_at_drone_location(feet),altitude_above_seaLevel(feet),height_sonar(feet),speed(mph),distance(feet),mileage(feet),satellites,gpslevel,voltage(v),max_altitude(feet),max_ascent(feet),max_speed(mph),max_distance(feet), xSpeed(mph), ySpeed(mph), zSpeed(mph), compass_heading(degrees), pitch(degrees), roll(degrees),isPhoto,isVideo,rc_elevator,rc_aileron,rc_throttle,rc_rudder,rc_elevator(percent),rc_aileron(percent),rc_throttle(percent),rc_rudder(percent),gimbal_heading(degrees),gimbal_pitch(degrees),gimbal_roll(degrees),battery_percent,voltageCell1,voltageCell2,voltageCell3,voltageCell4,voltageCell5,voltageCell6,current(A),battery_temperature(f),altitude(feet),ascent(feet),flycStateRaw,flycState,message
0,2022-10-21 20:46:19,-34.9543107952539,-54.935828382292,0,0,55.60776260622,55.60776260622,0.328084,0,0,0,10,4,0,55.60776260622,0,0,0,0,0,0,23.1, 4.1, 1.4,0,0,364,364,364,1684,-100,-100,-100,100,34.5,0,0,99,4.335,4.331,0,0,0,0,0,73.76,55.60776260622,0,41,Motors_Started,
100,2022-10-21 20:46:20,-34.9543109152416,-54.9358282681409,0,0,55.60776260622,55.60776260622,0.328084,0,0.055512797052,0.055512797052,10,4,0,55.60776260622,0,0,0.055512797052,0,0,0,23.2, 4.1, 1.4,0,0,364,364,364,1684,-100,-100,-100,100,34.5,0,0,99,4.335,4.331,0,0,0,0,0,73.76,55.60776260622,0,41,Motors_Started,
200,2022-10-21 20:46:20,-34.9543110341723,-54.9358281603109,0,0,55.60776260622,55.60776260622,0.328084,0,0.109566276472,0.10957349432,10,4,0,55.60776260622,0,0,0.109566276472,0,0,0,23.1, 4.1, 1.4,0,0,364,364,364,1684,-100,-100,-100,100,34.5,0,0,99,4.335,4.331,0,0,0,0,0,73.76,55.60776260622,0,41,Motors_Started,
300,2022-10-21 20:46:20,-34.9543111705599,-54.935828079957,0,0,55.60776260622,55.60776260622,0.328084,0,0.164083994752,0.164832354356,10,4,0,55.60776260622,0,0,0.164083994752,0,0,0,23.1, 4, 1.4,0,0,364,364,364,1684,-100,-100,-100,100,34.5,0,0,99,4.335,4.331,0,0,0,0,0,73.76,55.60776260622,0,41,Motors_Started,"Setting new Return-To-Home altitude to 100m (328 ft). Data Recorder File Index is 19. Setting new Maximum Flight Altitude to 120m (394 ft)"
400,2022-10-21 20:46:20,-34.9543115558422,-54.9358278209007,0,0,55.60776260622,55.60776260622,0.328084,0,0.3243274382,0.32533465608,11,4,0,55.60776260622,0,0,0.3243274382,0,0,0,23.1, 4.1, 1.4,0,0,364,364,364,1684,-100,-100,-100,100,34.5,0,0,99,4.335,4.331,0,0,0,0,0,73.76,55.60776260622,0,41,Motors_Started,
500,2022-10-21 20:46:20,-34.9543116838519,-54.9358277105329,0,0,55.60776260622,55.60776260622,0.328084,0,0.38139436916,0.38252297812,11,4,0,55.60776260622,0,0,0.38139436916,0,0,0,23.1, 4, 1.4,0,0,364,364,364,1684,-100,-100,-100,100,34.5,0,0,99,4.335,4.331,0,0,0,0,0,73.76,55.60776260622,0,41,Motors_Started,
600,2022-10-21 20:46:20,-34.9543118056868,-54.9358276087447,0,0,55.60776260622,55.60776260622,0.328084,0,0.43521654936,0.43639765176,11,4,0,55.60776260622,0,0,0.43521654936,0,0,0,23.1, 4, 1.4,0,0,364,405,364,1684,-100,-94,-100,100,34.5,0,0,99,4.335,4.331,0,0,0,0,0,73.76,55.60776260622,0,41,Motors_Started,
700,2022-10-21 20:46:20,-34.9543119220355,-54.9358275436582,0,0,55.60776260622,55.60776260622,0.328084,0,0.48155841436,0.48309712832,11,4,0,55.60776260622,0,0,0.48155841436,0,0,0,23.1, 4, 1.4,0,0,951,1024,806,1353,-11,0,-33,50,34.5,0,0,99,4.335,4.331,0,0,0,0,0,73.76,55.60776260622,0,41,Motors_Started,
800,2022-10-21 20:46:20,-34.9543121179045,-54.9358274248179,0,0.032808400000005,55.57495420622,55.60776260622,0.328084,0,0.56111550352,0.56290684216,11,4,0,55.60776260622,0,0,0.56111550352,0,0,0,23.1, 4, 1.4,0,0,951,1024,806,1353,-11,0,-33,50,34.5,0,0,99,4.335,4.331,0,0,0,0,0,73.76,55.60776260622,0,41,Motors_Started,
900,2022-10-21 20:46:20,-34.9543121739735,-54.9358273264264,0,0.032808400000005,55.57495420622,55.60776260622,0.328084,0,0.59390749932,0.59874345748,11,4,0,55.60776260622,0,0,0.59390749932,0,0,0,23.1, 4, 1.4,0,0,1024,1024,1024,1024,0,0,0,0,34.5,0,0,99,4.335,4.331,0,0,0,0,0,73.76,55.60776260622,0,41,Motors_Started,
1000,2022-10-21 20:46:20,-34.9543122286426,-54.9358272301522,0,0.032808400000005,55.57495420622,55.60776260622,0.328084,0,0.62625658172,0.63376642448,11,4,0,55.60776260622,0,0,0.62625658172,0,0,0,23.1, 4, 1.4,0,0,1024,1024,1024,1024,0,0,0,0,34.5,0,0,99,4.335,4.331,0,0,0,0,0,73.76,55.60776260622,0,41,Motors_Started,"En vuelo"
1100,2022-10-21 20:46:21,-34.9543123164316,-54.9358271193833,0,0.032808400000005,55.57495420622,55.60776260622,0.328084,0,0.67130251492,0.67984254144,11,4,8.681,55.60776260622,0,0,0.67130251492,0,0,0,23.2, 4, 1.4,0,0,1024,1024,1024,1024,0,0,0,0,34.5,0,0,99,4.335,4.331,0,0,0,0,0.883,73.76,55.60776260622,0,10,Assisted_Takeoff,
1200,2022-10-21 20:46:21,-34.9543124064224,-54.9358270144123,0,0.032808400000005,55.57495420622,55.60776260622,0.328084,0,0.71614503604,0.72526577124,10,4,8.681,55.60776260622,0,0,0.71614503604,0,0,0,23.1, 4, 1.4,0,0,1024,1024,1164,1055,0,0,21,5,34.5,0,0,99,4.335,4.331,0,0,0,0,0.883,73.76,55.60776260622,0,10,Assisted_Takeoff,
1300,2022-10-21 20:46:21,-34.9543125872204,-54.9358268130802,0,0.065616799999999,55.54214580622,55.60776260622,0.328084,0,0.80476380528,0.81457351688,10,4,8.681,55.60776260622,0,0,0.80476380528,0,0,0,23.1, 4, 1.4,0,0,1024,1024,1684,1024,0,0,100,0,34.5,0,0,99,4.335,4.331,0,0,0,0,0.883,73.76,55.60776260622,0,10,Assisted_Takeoff,
1400,2022-10-21 20:46:21,-34.9543127370585,-54.9358267104093,0,0.065616799999999,55.54214580622,55.60776260622,0.328084,0,0.86710632696,0.87727365012,10,4,8.681,55.60776260622,0,0,0.86710632696,0,0,0,23.1, 4.1, 1.4,0,0,1024,1024,1684,1024,0,0,100,0,34.5,0,0,99,4.335,4.331,0,0,0,0,0.883,73.76,55.60776260622,0,10,Assisted_Takeoff,
1600,2022-10-21 20:46:21,-34.9543130759075,-54.9358265025744,0,0.065616799999999,55.54214580622,55.60776260622,0.328084,0,1.00416013712,1.01564635796,10,4,8.681,55.60776260622,0,0,1.00416013712,0,0,0,23.1, 4, 1.4,0,0,1024,1024,1684,1024,0,0,100,0,34.5,0,0,99,4.335,4.331,0,0,0,0,0.883,73.76,55.60776260622,0,10,Assisted_Takeoff,
1700,2022-10-21 20:46:21,-34.9543132778541,-54.9358263791322,0,0.098425200000004,55.50933740622,55.60776260622,0.328084,0,1.08593179328,1.09805449708,10,4,8.681,55.60776260622,0,0,1.08593179328,0,0,0,23.5, 1.1, 1.4,0,0,1024,1024,1662,1024,0,0,97,0,34.6,0,0,99,4.335,4.331,0,0,0,0,0.883,73.76,55.60776260622,0,10,Assisted_Takeoff,
1800,2022-10-21 20:46:21,-34.9543134096799,-54.9358262687559,0,0.098425200000004,55.50933740622,55.60776260622,0.328084,0,1.14425528596,1.15638783228,10,4,8.681,55.60776260622,0,0,1.14425528596,0,0,-0.223694,23.3, -1.7, -0.5,0,0,1024,1024,1224,1024,0,0,30,0,34.8,0,0,99,4.335,4.331,0,0,0,0,0.883,73.76,55.60776260622,0,10,Assisted_Takeoff,
1900,2022-10-21 20:46:21,-34.9543135624817,-54.9358261968194,0,0.098425200000004,55.50933740622,55.60776260622,0.328084,0,1.20268048468,1.21614505204,10,4,8.681,55.60776260622,0,0,1.20268048468,0,0,-0.671082,23.1, -1.4, -0.1,0,0,1024,1024,1224,1024,0,0,30,0,34.8,0,0,99,4.335,4.331,0,0,0,0,0.883,73.76,55.60776260622,0,6,P-GPS,
2000,2022-10-21 20:46:22,-34.9543136785315,-54.9358261317632,0.328084,0.4265092,55.50933740622,55.93584660622,0.656168,0,1.24881237592,1.26273954172,10,4,8.681,55.93584660622,0.328084,0,1.24881237592,0,0,-0.894776,23.1, 0, 0,0,0,1024,1024,1024,1024,0,0,0,0,34.8,0,0,99,4.335,4.331,0,0,0,0,0.883,73.76,55.93584660622,0.328084,6,P-GPS,
2100,2022-10-21 20:46:22,-34.9543137428099,-54.9358260977524,0.328084,0.4265092,55.50933740622,55.93584660622,0.656168,0,1.27405515888,1.288303847,10,4,8.648,55.93584660622,0.328084,0,1.27405515888,0,0,-0.894776,23.1, 0.4, 0.2,0,0,1024,1024,1024,1024,0,0,0,0,34.8,0,0,99,4.295,4.287,0,0,0,0,1.699,73.76,55.93584660622,0.328084,6,P-GPS,
2200,2022-10-21 20:46:22,-34.9543138024073,-54.935826015624,0.656168,0.7545932,55.50933740622,56.26393060622,0.656168,0,1.305610278,1.32110568532,11,4,8.648,56.26393060622,0.656168,0,1.305610278,0,0,-0.894776,22.8, 1.3, -0.2,0,0,1024,1024,1024,1024,0,0,0,0,34.8,0,0,99,4.295,4.287,0,0,0,0,1.699,73.76,56.26393060622,0.656168,6,P-GPS,
2300,2022-10-21 20:46:22,-34.9543138541731,-54.9358259507534,0.656168,0.7545932,55.50933740622,56.26393060622,0.656168,0,1.33200791664,1.348179177,11,4,8.648,56.26393060622,0.656168,0,1.33200791664,0,0,-0.894776,22.9, 0.9, 0.7,0,0,1024,1024,1024,1024,0,0,0,0,34.8,0,0,99,4.295,4.287,0,0,0,0,1.699,73.76,56.26393060622,0.656168,6,P-GPS,
2400,2022-10-21 20:46:22,-34.9543139208184,-54.9358258882944,0.656168,0.7545932,55.50933740622,56.26393060622,0.984252,0,1.36257878376,1.3788386268,10,4,8.648,56.26393060622,0.656168,0,1.36257878376,0,0,-0.894776,23, 0.6, 0.9,0,0,1024,1024,1112,1024,0,0,13,0,34.8,0,0,99,4.295,4.287,0,0,0,0,1.699,73.76,56.26393060622,0.656168,6,P-GPS,
2500,2022-10-21 20:46:22,-34.9543140348941,-54.9358255735701,0.984252,1.0826772,55.50933740622,56.59201460622,0.984252,0,1.45000660808,1.48174545424,10,4,8.648,56.59201460622,0.984252,0,1.45000660808,0,0,-0.894776,23.1, 0.6, 0.6,0,0,1024,1024,1554,1024,0,0,80,0,34.8,0,0,99,4.295,4.287,0,0,0,0,1.699,73.76,56.59201460622,0.984252,6,P-GPS,
2600,2022-10-21 20:46:22,-34.9543141722969,-54.9358254284163,0.984252,1.1154856,55.47652900622,56.59201460622,1.312336,0,1.5160269514,1.54805779232,11,4,8.648,56.59201460622,0.984252,0,1.5160269514,0,0,-0.894776,23.3, 0, 0.7,0,0,1024,1024,1540,1024,0,0,78,0,34.8,0,0,99,4.295,4.287,0,0,0,0,1.699,73.76,56.59201460622,0.984252,6,P-GPS,
2700,2022-10-21 20:46:22,-34.9543144534046,-54.9358252907995,1.312336,1.4435696,55.47652900622,56.92009860622,1.312336,0,1.62356960576,1.65856632604,11,4,8.648,56.92009860622,1.312336,0,1.62356960576,0,0,-1.11847,23.6, 0, 0.2,0,0,1024,1024,1024,1024,0,0,0,0,34.8,0,0,99,4.295,4.287,0,0,0,0,1.699,73.76,56.92009860622,1.312336,6,P-GPS,
2800,2022-10-21 20:46:22,-34.9543147339355,-54.9358251659883,1.64042,1.804462,55.44372060622,57.24818260622,1.64042,0,1.7291831262,1.76750989908,11,4,8.648,57.24818260622,1.64042,0,1.7291831262,0,0,-1.565858,23.8, -0.1, 1.1,0,0,1024,1024,1024,1024,0,0,0,0,34.8,0,0,99,4.295,4.287,0,0,0,0,1.699,73.76,57.24818260622,1.64042,6,P-GPS,
2900,2022-10-21 20:46:22,-34.9543151479055,-54.9358249807951,1.968504,2.132546,55.44372060622,57.57626660622,1.64042,0,1.88588588712,1.9283793268,11,4,8.648,57.57626660622,1.968504,0,1.88588588712,0,0,-1.565858,23.8, 0, 1.3,0,0,1024,1024,1024,1024,0,0,0,0,34.8,0,0,99,4.295,4.287,0,0,0,0,1.699,73.76,57.57626660622,1.968504,6,P-GPS,
3000,2022-10-21 20:46:22,-34.9543161935811,-54.9358245459888,1.968504,2.132546,55.44372060622,57.57626660622,1.968504,0,2.27931109656,2.33144036332,12,4,8.648,57.57626660622,1.968504,0,2.27931109656,0,0,-1.342164,23.6, -0.4, 1.8,0,0,1024,1024,1024,1024,0,0,0,0,34.8,0,0,99,4.295,4.287,0,0,0,0,1.699,73.76,57.57626660622,1.968504,6,P-GPS,
3100,2022-10-21 20:46:23,-34.9543164154154,-54.9358243156401,2.296588,2.4934384,55.41091220622,57.90435060622,2.296588,0,2.38399285844,2.43771989428,12,4,8.51,57.90435060622,2.296588,0,2.38399285844,0,0,-0.894776,23.2, -0.8, 0.7,0,0,1024,1024,1024,1024,0,0,0,0,34.8,0,0,99,4.229,4.226,0,0,0,0,4.284,73.76,57.90435060622,2.296588,6,P-GPS,
3200,2022-10-21 20:46:23,-34.954316589321,-54.9358241157521,2.296588,2.5262468,55.37810380622,57.90435060622,2.296588,0,2.46913065644,2.52489181308,13,4,8.51,57.90435060622,2.296588,0,2.46913065644,0,0,-0.671082,23.1, -0.9, 0.4,0,0,1024,1024,1595,1024,0,0,87,0,34.8,0,0,99,4.229,4.226,0,0,0,0,4.284,73.76,57.90435060622,2.296588,6,P-GPS,
3300,2022-10-21 20:46:23,-34.95431649244,-54.9358241367806,2.296588,2.4934384,55.41091220622,57.90435060622,2.296588,0,2.43565296508,2.5607940452,13,4,8.51,57.90435060622,2.296588,0,2.46913065644,0,0,-0.223694,23.1, -0.6, 0.3,0,0,1024,1024,1684,1024,0,0,100,0,34.8,0,0,99,4.229,4.226,0,0,0,0,4.284,73.76,57.90435060622,2.296588,6,P-GPS,
3400,2022-10-21 20:46:23,-34.9543158622941,-54.9358243310419,2.624672,2.8215224,55.41091220622,58.23243460622,2.624672,0,2.21028222296,2.79792659872,10,4,8.51,58.23243460622,2.624672,0,2.46913065644,0,0,-0.447388,23, 0.1, 0.2,0,0,1024,1024,1684,1024,0,0,100,0,34.8,0,0,99,4.229,4.226,0,0,0,0,4.284,73.76,58.23243460622,2.624672,6,P-GPS,
3500,2022-10-21 20:46:23,-34.9543155988375,-54.9358244930539,2.624672,2.8215224,55.41091220622,58.23243460622,2.624672,0,2.10336620904,2.90556767828,10,4,8.51,58.23243460622,2.624672,0,2.46913065644,0,0,-1.11847,22.1, 0.2, 0.6,0,0,1024,1024,1684,1024,0,0,100,0,34.8,0,0,99,4.229,4.226,0,0,0,0,4.284,73.76,58.23243460622,2.624672,6,P-GPS,
3600,2022-10-21 20:46:23,-34.9543153966336,-54.9358246074802,2.952756,3.116798,55.44372060622,58.56051860622,2.952756,0,2.0230151566,2.98688985936,12,4,8.51,58.56051860622,2.952756,0,2.46913065644,0,0,-1.789552,20.4, 0.8, 1.3,0,0,1024,1024,1684,1024,0,0,100,0,34.8,0,0,99,4.229,4.226,0,0,0,0,4.284,73.76,58.56051860622,2.952756,6,P-GPS,
3700,2022-10-21 20:46:23,-34.9543156409547,-54.9358243792789,3.28084,3.4776904,55.41091220622,58.88860260622,3.28084,0,2.13507552764,3.09915364248,12,4,8.51,58.88860260622,3.28084,0,2.46913065644,0,0,-2.460634,18.7, 1, 1.3,0,0,1024,1024,1684,1024,0,0,100,0,34.8,0,0,99,4.229,4.226,0,0,0,0,4.284,73.76,58.88860260622,3.28084,6,P-GPS,
3800,2022-10-21 20:46:23,-34.9543159061241,-54.9358243730408,3.937008,4.1338584,55.41091220622,59.54477060622,3.608924,0,2.21686030716,3.19591873744,11,4,8.51,59.54477060622,3.937008,0,2.46913065644,0,0,-3.35541,17, 0.7, 1.8,0,0,1024,1024,1567,1024,0,0,82,0,34.8,0,0,99,4.229,4.226,0,0,0,0,4.284,73.76,59.54477060622,3.937008,6,P-GPS,
3900,2022-10-21 20:46:23,-34.9543163691937,-54.9358240238052,4.265092,4.4619424,55.41091220622,59.87285460622,4.265092,0,2.4154528332,3.3945539144,11,4,8.51,59.87285460622,4.265092,0,2.46913065644,0,0,-4.026492,15.4, 0.8, 2.2,0,0,1024,1024,1567,1024,0,0,82,0,34.8,0,0,99,4.229,4.226,0,0,0,0,4.284,73.76,59.87285460622,4.265092,6,P-GPS,
4000,2022-10-21 20:46:23,-34.9543168330796,-54.9358236542316,4.92126,5.1509188,55.37810380622,60.52902260622,4.92126,0,2.61758210476,3.5966864668,10,4,8.51,60.52902260622,4.92126,0,2.61758210476,0,0,-4.697574,13.4, 0.7, 0.9,0,0,1024,1024,1139,1024,0,0,17,0,34.8,0,0,99,4.229,4.226,0,0,0,0,4.284,73.76,60.52902260622,4.92126,6,P-GPS,
4100,2022-10-21 20:46:24,-34.9543173511698,-54.9358232635185,5.905512,6.1679792,55.34529540622,61.51327460622,5.577428,0,2.83977043208,3.81889776,10,4,8.51,61.51327460622,5.905512,0,2.83977043208,0,0,-4.697574,11.9, 0.9, 0.7,0,0,1024,1024,1083,1024,0,0,9,0,34.8,0,0,99,4.229,4.226,0,0,0,0,4.284,73.76,61.51327460622,5.905512,6,P-GPS,
4200,2022-10-21 20:46:24,-34.9543188280407,-54.9358222498073,6.233596,6.56168,55.27967860622,61.84135860622,6.233596,0,3.45718515,4.4371392496,10,4,8.452,61.84135860622,6.233596,0,3.45718515,0,0,-4.026492,10.5, 0.2, 1.3,0,0,1024,1024,1024,1024,0,0,0,0,34.8,0,0,99,4.205,4.202,0,0,0,0,4.603,73.76,61.84135860622,6.233596,6,P-GPS,
4300,2022-10-21 20:46:24,-34.9543192969031,-54.9358219274413,6.889764,7.217848,55.27967860622,62.49752660622,6.889764,0,3.6533465736,4.6334975236,10,4,8.452,62.49752660622,6.889764,0,3.6533465736,0,0,-3.579104,9.1, -0.1, 0.9,0,0,1024,1024,1024,1024,0,0,0,0,34.8,0,0,99,4.205,4.202,0,0,0,0,4.603,73.76,62.49752660622,6.889764,6,P-GPS,
4400,2022-10-21 20:46:24,-34.9543197102983,-54.9358216523558,7.217848,7.545932,55.27967860622,62.82561060622,7.217848,0,3.8249016972,4.8053151144,9,4,8.452,62.82561060622,7.217848,0,3.8249016972,0,0,-2.684328,7.9, 0.5, 2,0,0,1024,1024,1024,1024,0,0,0,0,34.8,0,0,99,4.205,4.202,0,0,0,0,4.603,73.76,62.82561060622,7.217848,6,P-GPS,
4500,2022-10-21 20:46:24,-34.9543197711606,-54.9358215423856,7.545932,7.874016,55.27967860622,63.15369460622,7.545932,0,3.8611221708,4.84498047,9,4,8.452,63.15369460622,7.545932,0,3.8611221708,0,0,-1.789552,6.5, -0.2, 2,0,0,1024,1024,1024,1024,0,0,0,0,34.8,0,0,99,4.205,4.202,0,0,0,0,4.603,73.76,63.15369460622,7.545932,6,P-GPS,
4600,2022-10-21 20:46:24,-34.9543198047301,-54.9358214720016,7.874016,8.2677168,55.21406180622,63.48177860622,7.874016,0,3.8826772896,4.8693243028,7,3,8.452,63.48177860622,7.874016,0,3.8826772896,0,0,-1.11847,5.2, -0.4, 2.5,0,0,1024,1024,1024,1024,0,0,0,0,34.8,0,0,99,4.205,4.202,0,0,0,0,4.603,73.76,63.48177860622,7.874016,6,P-GPS,
4700,2022-10-21 20:46:24,-34.9543188322291,-54.9358219883324,8.2021,8.530184,55.27967860622,63.80986260622,7.874016,0,3.5005906632,5.2562993808,7,3,8.452,63.80986260622,8.2021,0,3.8826772896,0,0,-0.671082,4.2, -0.5, 2.6,0,0,1173,1024,1024,1024,23,0,0,0,34.8,0,0,99,4.205,4.202,0,0,0,0,4.603,73.76,63.80986260622,8.2021,6,P-GPS,
4800,2022-10-21 20:46:24,-34.9543188393771,-54.9358219919483,8.2021,8.530184,55.27967860622,63.80986260622,8.2021,0,3.5021654664,5.2591209032,8,3,8.452,63.80986260622,8.2021,0,3.8826772896,0,0,-0.223694,3.1, -1.1, 3.1,0,0,1173,1024,1024,1024,23,0,0,0,34.8,0,0,99,4.205,4.202,0,0,0,0,4.603,73.76,63.80986260622,8.2021,6,P-GPS,
4900,2022-10-21 20:46:24,-34.9543190817327,-54.9358218535289,8.2021,8.530184,55.27967860622,63.80986260622,8.2021,0,3.5988846296,5.3567587016,8,3,8.452,63.80986260622,8.2021,0,3.8826772896,0,0,0,1.9, -1.7, 3,0,0,1592,1024,1024,1024,86,0,0,0,34.8,0,0,99,4.205,4.202,0,0,0,0,4.603,73.76,63.80986260622,8.2021,6,P-GPS,
5000,2022-10-21 20:46:24,-34.9543193103956,-54.9358216812636,8.2021,8.530184,55.27967860622,63.80986260622,8.2021,0,3.6969161288,5.4547902008,8,3,8.452,63.80986260622,8.2021,0,3.8826772896,0,0,0,0.8, -8.2, 1.6,0,0,1463,1024,1024,1024,67,0,0,0,34.8,0,0,99,4.205,4.202,0,0,0,0,4.603,73.76,63.80986260622,8.2021,6,P-GPS,
5100,2022-10-21 20:46:25,-34.9543200488119,-54.9358210835318,8.2021,8.5958008,55.21406180622,63.80986260622,7.874016,0.223694,4.0202101024,5.7781169828,8,3,8.452,63.80986260622,8.2021,0.223694,4.0202101024,0.223694,0,0,0, -12.4, 1.3,0,0,1024,1024,1024,1024,0,0,0,0,34.8,0,0,99,4.205,4.202,0,0,0,0,4.603,73.76,63.80986260622,8.2021,6,P-GPS,
5200,2022-10-21 20:46:25,-34.9543202173054,-54.9358208033881,8.2021,8.5958008,55.21406180622,63.80986260622,7.874016,0.671082,4.1174870084,5.8820211856,9,3,8.567,63.80986260622,8.2021,0.671082,4.1174870084,0.671082,0,0,359.4, -8.5, 1.5,0,0,1024,1024,1585,1024,0,0,85,0,34.8,0,0,99,4.272,4.269,0,0,0,0,3.962,73.76,63.80986260622,8.2021,6,P-GPS,
5300,2022-10-21 20:46:25,-34.9543202086974,-54.9358206015447,8.2021,8.5958008,55.21406180622,63.80986260622,7.874016,0.7158208,4.1483925212,5.9424542584,9,3,8.567,63.80986260622,8.2021,0.7158208,4.1483925212,0.671082,-0.223694,0,359.1, 1.9, 2,0,0,1024,1024,1684,1024,0,0,100,0,34.8,0,0,99,4.272,4.269,0,0,0,0,3.962,73.76,63.80986260622,8.2021,6,P-GPS,
5400,2022-10-21 20:46:25,-34.954320203155,-54.935820411648,8.530184,8.9566932,55.18125340622,64.13794660622,7.874016,0.671082,4.1788715248,5.9992784072,10,3,8.567,64.13794660622,8.530184,0.7158208,4.1788715248,0.671082,0,-0.671082,358.2, 2.6, 1.7,0,0,1024,1024,1680,1024,0,0,99,0,34.8,0,0,99,4.272,4.269,0,0,0,0,3.962,73.76,64.13794660622,8.530184,6,P-GPS,
5500,2022-10-21 20:46:25,-34.9543201062951,-54.9358200484727,8.858268,9.2847772,55.18125340622,64.46603060622,8.2021,0.447388,4.2131891112,6.1134844476,10,3,8.567,64.46603060622,8.858268,0.7158208,4.2131891112,0.447388,0,-1.565858,357.4, 1.6, 1.1,0,0,1024,1024,1682,1024,0,0,100,0,34.8,0,0,99,4.272,4.269,0,0,0,0,3.962,73.76,64.46603060622,8.858268,6,P-GPS,
5600,2022-10-21 20:46:25,-34.9543200701706,-54.9358198925427,9.186352,9.6128612,55.18125340622,64.79411460622,8.530184,0.223694,4.2303807128,6.1619424544,10,3,8.567,64.79411460622,9.186352,0.7158208,4.2303807128,0.223694,0,-2.23694,357, 1.5, 1,0,0,1024,1024,1644,1024,0,0,94,0,34.8,0,0,99,4.272,4.269,0,0,0,0,3.962,73.76,64.79411460622,9.186352,6,P-GPS,
5700,2022-10-21 20:46:25,-34.954319854953,-54.9358200223303,9.514436,9.9409452,55.18125340622,65.12219860622,9.186352,0.3131716,4.1443242796,6.2495408824,10,3,8.567,65.12219860622,9.514436,0.7158208,4.2303807128,0.223694,-0.223694,-3.131716,356.2, 1.5, 1.4,0,0,1024,1024,1644,1024,0,0,94,0,34.8,0,0,99,4.272,4.269,0,0,0,0,3.962,73.76,65.12219860622,9.514436,6,P-GPS,
5800,2022-10-21 20:46:25,-34.9543197035411,-54.9358201728635,10.170604,10.5971132,55.18125340622,65.77836660622,9.84252,0.223694,4.0730972432,6.3208007272,10,3,8.567,65.77836660622,10.170604,0.7158208,4.2303807128,0,-0.223694,-4.026492,356, 0.9, 2.8,0,0,1024,1024,1334,1024,0,0,47,0,34.8,0,0,99,4.272,4.269,0,0,0,0,3.962,73.76,65.77836660622,10.170604,6,P-GPS,
5900,2022-10-21 20:46:25,-34.9543189427125,-54.9358210805163,10.826772,11.1876644,55.24687020622,66.43453460622,10.498688,0,3.6883531364,6.7090225244,10,3,8.567,66.43453460622,10.826772,0.7158208,4.2303807128,0,0,-4.47388,355.4, -0.5, 5,0,0,1024,1024,1024,1024,0,0,0,0,34.8,0,0,99,4.272,4.269,0,0,0,0,3.962,73.76,66.43453460622,10.826772,6,P-GPS,
6000,2022-10-21 20:46:26,-34.9543189650515,-54.9358211913195,11.48294,11.8438324,55.24687020622,67.09070260622,11.154856,0.223694,3.6754266268,6.7431432604,11,3,8.567,67.09070260622,11.48294,0.7158208,4.2303807128,-0.223694,0,-4.026492,354.5, -0.9, 3.1,0,0,1254,1005,1024,1024,35,-3,0,0,34.8,0,0,99,4.272,4.269,0,0,0,0,3.962,73.76,67.09070260622,11.48294,6,P-GPS,
6100,2022-10-21 20:46:26,-34.9543192788876,-54.9358212141909,12.139108,12.5000004,55.24687020622,67.74687060622,11.48294,0.223694,3.7649935588,6.8578414268,11,3,8.567,67.74687060622,12.139108,0.7158208,4.2303807128,-0.223694,0,-3.35541,354.1, -1.8, 2.4,0,0,1547,1008,1024,1024,79,-2,0,0,34.8,0,0,99,4.272,4.269,0,0,0,0,3.962,73.76,67.74687060622,12.139108,6,P-GPS,
6200,2022-10-21 20:46:26,-34.9543195910416,-54.9358212564563,12.795276,13.1889768,55.21406180622,68.40303860622,12.139108,0.223694,3.8521654776,6.972441168,11,3,8.418,68.40303860622,12.795276,0.7158208,4.2303807128,-0.223694,0,-2.684328,353.8, -6.4, 3.4,0,0,1620,1013,1024,1024,90,-2,0,0,34.8,0,0,99,4.198,4.196,0,0,0,0,4.829,73.76,68.40303860622,12.795276,6,P-GPS,
6300,2022-10-21 20:46:26,-34.954319850377,-54.9358213207739,13.12336,13.5170608,55.21406180622,68.73112260622,12.467192,0.223694,3.920931884,7.0689962892,11,3,8.418,68.73112260622,13.12336,0.7158208,4.2303807128,0,-0.223694,-1.789552,353.1, -13.2, 4.1,0,0,1621,1013,1024,1024,90,-2,0,0,34.8,0,0,99,4.198,4.196,0,0,0,0,4.829,73.76,68.73112260622,13.12336,6,P-GPS,
6400,2022-10-21 20:46:26,-34.954320398771,-54.9358215316828,13.451444,13.779528,55.27967860622,69.05920660622,12.139108,0.223694,4.0587599724,7.2787731988,11,3,8.418,69.05920660622,13.451444,0.7158208,4.2303807128,0,-0.223694,-0.894776,352.5, -18.2, 3.4,0,0,1619,1013,1061,1024,90,-2,6,0,34.8,0,0,99,4.198,4.196,0,0,0,0,4.829,73.76,69.05920660622,13.451444,6,P-GPS,
6500,2022-10-21 20:46:26,-34.9543202211982,-54.9358215796645,13.451444,13.779528,55.27967860622,69.05920660622,12.139108,0.8052984,3.9956366108,7.345144592,11,3,8.418,69.05920660622,13.451444,0.8052984,4.2303807128,0.671082,-0.447388,-0.447388,352.4, -18.6, 2.8,0,0,1550,1024,1599,1024,80,0,87,0,34.8,0,0,99,4.198,4.196,0,0,0,0,4.829,73.76,69.05920660622,13.451444,6,P-GPS,
6600,2022-10-21 20:46:26,-34.9543198355647,-54.9358216922877,13.779528,14.107612,55.27967860622,69.38729060622,12.139108,1.4987498,3.857611672,7.4897968276,10,3,8.418,69.38729060622,13.779528,1.4987498,4.2303807128,1.342164,-0.671082,-0.223694,351.9, -18.8, 4.1,0,0,1550,1024,1599,1024,80,0,87,0,34.8,0,0,99,4.198,4.196,0,0,0,0,4.829,73.76,69.38729060622,13.779528,6,P-GPS,
6700,2022-10-21 20:46:26,-34.9543191692071,-54.9358218866359,14.107612,14.435696,55.27967860622,69.71537460622,12.139108,2.125093,3.62040694,7.7397640272,10,3,8.418,69.71537460622,14.107612,2.125093,4.2303807128,2.013246,-0.671082,-0.447388,351.5, -16.5, 2.7,0,0,1024,1024,1684,1024,0,0,100,0,34.8,0,0,99,4.198,4.196,0,0,0,0,4.829,73.76,69.71537460622,14.107612,6,P-GPS,
6800,2022-10-21 20:46:26,-34.9543180874765,-54.9358219261576,14.107612,14.435696,55.27967860622,69.71537460622,12.139108,2.8185444,3.287237638,8.1346131212,10,3,8.418,69.71537460622,14.107612,2.8185444,4.2303807128,2.684328,-0.894776,-1.342164,351.6, -10, 3.9,0,0,1024,1024,1684,1024,0,0,100,0,34.8,0,0,99,4.198,4.196,0,0,0,0,4.829,73.76,69.71537460622,14.107612,6,P-GPS,
6900,2022-10-21 20:46:26,-34.9543175978881,-54.9358219843291,14.435696,14.76378,55.27967860622,70.04345860622,12.795276,3.0422384,3.13374681944,8.3140750692,10,3,8.418,70.04345860622,14.435696,3.0422384,4.2303807128,2.908022,-0.894776,-2.23694,351.8, 5.9, 4.2,0,0,1024,1024,1684,1024,0,0,100,0,34.8,0,0,99,4.198,4.196,0,0,0,0,4.829,73.76,70.04345860622,14.435696,6,P-GPS,
7000,2022-10-21 20:46:26,-34.9543172294542,-54.9358219903105,14.76378,15.0590556,55.31248700622,70.37154260622,13.12336,2.5501116,3.02726715724,8.4485238924,10,3,8.418,70.37154260622,14.76378,3.0422384,4.2303807128,2.460634,-0.671082,-3.131716,351.8, 10.1, 3.9,0,0,1024,1024,1684,1024,0,0,100,0,34.8,0,0,99,4.198,4.196,0,0,0,0,4.829,73.76,70.37154260622,14.76378,6,P-GPS,
7100,2022-10-21 20:46:27,-34.954316940517,-54.935822108177,15.419948,15.7152236,55.31248700622,71.02771060622,13.779528,1.8342908,2.92352699644,8.5596787516,10,3,8.418,71.02771060622,15.419948,3.0422384,4.2303807128,1.789552,-0.447388,-4.026492,351.2, 7.6, 2.3,0,0,1024,1024,1684,1024,0,0,100,0,34.8,0,0,99,4.198,4.196,0,0,0,0,4.829,73.76,71.02771060622,15.419948,6,P-GPS,
7200,2022-10-21 20:46:27,-34.9543178895668,-54.9358218660216,16.076116,16.4042,55.27967860622,71.68387860622,14.107612,1.1408394,3.23984262336,8.9134189204,9,3,8.526,71.68387860622,16.076116,3.0422384,4.2303807128,1.11847,-0.223694,-4.697574,350.8, 4.4, 2.3,0,0,1024,1024,1663,1024,0,0,97,0,34.8,0,0,99,4.203,4.207,0,0,0,0,3.581,73.76,71.68387860622,16.076116,6,P-GPS,
7300,2022-10-21 20:46:27,-34.9543180715446,-54.935821988122,16.732284,17.060368,55.27967860622,72.34004660622,17.060368,0.9171454,3.271653648,8.9892063244,9,3,8.526,72.34004660622,16.732284,3.0422384,4.2303807128,0.894776,-0.223694,-5.368656,350.6, 2.4, 2.7,0,0,1322,1024,1024,1024,45,0,0,0,34.8,0,0,99,4.203,4.207,0,0,0,0,3.581,73.76,72.34004660622,16.732284,6,P-GPS,
7400,2022-10-21 20:46:27,-34.9543183554654,-54.9358220915693,17.716536,18.04462,55.27967860622,73.32429860622,18.04462,0.4921268,3.3387140176,9.0973100024,11,3,8.526,73.32429860622,17.716536,3.0422384,4.2303807128,0.447388,-0.223694,-5.816044,350.1, 1.7, 3.3,0,0,1612,1024,1024,1024,89,0,0,0,34.8,0,0,99,4.203,4.207,0,0,0,0,3.581,73.76,73.32429860622,17.716536,6,P-GPS,
7500,2022-10-21 20:46:27,-34.9543187902242,-54.9358220998144,18.372704,18.700788,55.27967860622,73.98046660622,18.700788,0.223694,3.4695867252,9.2559386164,11,3,8.526,73.98046660622,18.372704,3.0422384,4.2303807128,0,-0.223694,-5.368656,349.8, -2.1, 3.5,0,0,1612,1024,1024,1024,89,0,0,0,34.8,0,0,99,4.203,4.207,0,0,0,0,3.581,73.76,73.98046660622,18.372704,6,P-GPS,
7600,2022-10-21 20:46:27,-34.9543199844517,-54.9358222988068,19.028872,19.356956,55.27967860622,74.63663460622,19.356956,0.223694,3.8144030092,9.69570241,11,3,8.526,74.63663460622,19.028872,3.0422384,4.2303807128,0,-0.223694,-4.697574,349.4, -11, 3.8,0,0,1637,1024,1024,1024,93,0,0,0,34.8,0,0,99,4.203,4.207,0,0,0,0,3.581,73.76,74.63663460622,19.028872,6,P-GPS,
7700,2022-10-21 20:46:27,-34.9543206267556,-54.9358221584994,19.68504,20.0459324,55.24687020622,75.29280260622,20.013124,0.3131716,4.0411090532,9.9337929688,11,3,8.526,75.29280260622,19.68504,3.0422384,4.2303807128,0.223694,-0.223694,-3.802798,349, -17.5, 3.5,0,0,1638,1024,1024,1024,93,0,0,0,34.8,0,0,99,4.203,4.207,0,0,0,0,3.581,73.76,75.29280260622,19.68504,6,P-GPS,
7800,2022-10-21 20:46:27,-34.9543211150087,-54.9358220498566,20.013124,20.3740164,55.24687020622,75.62088660622,20.669292,0.7158208,4.2145342556,10.1148625284,14,3,8.526,75.62088660622,20.013124,3.0422384,4.2303807128,0.671082,-0.223694,-2.908022,348.9, -19.8, 3.2,0,0,1637,1024,1095,1024,93,0,11,0,34.8,0,0,99,4.203,4.207,0,0,0,0,3.581,73.76,75.62088660622,20.013124,6,P-GPS,
7900,2022-10-21 20:46:27,-34.9543214063707,-54.9358219851431,20.341208,20.7021004,55.24687020622,75.94897060622,20.669292,1.1408394,4.3182744164,10.2229005896,14,3,8.526,75.94897060622,20.341208,3.0422384,4.3182744164,1.11847,-0.223694,-2.013246,348.9, -19.5, 3,0,0,1610,1024,1585,1024,89,0,85,0,34.8,0,0,99,4.203,4.207,0,0,0,0,3.581,73.76,75.94897060622,20.341208,6,P-GPS,
8000,2022-10-21 20:46:27,-34.9543214975652,-54.9358219623468,20.669292,21.0301844,55.24687020622,76.27705460622,18.372704,1.8342908,4.3511484332,10.2568572836,12,3,8.526,76.27705460622,20.669292,3.0422384,4.3511484332,1.789552,-0.447388,-1.565858,348.9, -19.1, 2.3,0,0,1591,1024,1684,1024,86,0,100,0,34.8,0,0,99,4.203,4.207,0,0,0,0,3.581,73.76,76.27705460622,20.669292,6,P-GPS,
8100,2022-10-21 20:46:28,-34.9543206515129,-54.9358222580054,20.669292,21.0301844,55.24687020622,76.27705460622,18.700788,2.7290668,4.0355316252,10.5779530944,12,3,8.526,76.27705460622,20.669292,3.0422384,4.3511484332,2.684328,-0.447388,-2.013246,348.9, -17.9, 2.3,0,0,1590,1024,1684,1024,86,0,100,0,34.8,0,0,99,4.203,4.207,0,0,0,0,3.581,73.76,76.27705460622,20.669292,6,P-GPS,
8200,2022-10-21 20:46:28,-34.9543195756602,-54.9358225560667,20.997376,21.2926516,55.31248700622,76.60513860622,19.356956,3.6462122,3.64665366,10.980479354,12,3,8.52,76.60513860622,20.997376,3.6462122,4.3511484332,3.579104,-0.671082,-2.684328,348.8, -14.8, 1.3,0,0,1590,1024,1684,1024,86,0,100,0,34.8,0,0,99,4.278,4.273,0,0,0,0,4.687,73.76,76.60513860622,20.997376,6,P-GPS,
8300,2022-10-21 20:46:28,-34.9543183840919,-54.9358227411266,21.653544,21.9160112,55.34529540622,77.26130660622,20.013124,4.2949248,3.24218842396,11.4187339612,12,3,8.52,77.26130660622,21.653544,4.2949248,4.3511484332,4.250186,-0.671082,-3.579104,348.7, -13.4, -0.1,0,0,1590,1024,1684,1024,86,0,100,0,34.8,0,0,99,4.278,4.273,0,0,0,0,4.687,73.76,77.26130660622,21.653544,6,P-GPS,
8400,2022-10-21 20:46:28,-34.9543170231434,-54.9358229964887,22.309712,22.5721792,55.34529540622,77.91747460622,20.997376,5.0107456,2.78512476104,11.921096182,10,3,8.52,77.91747460622,22.309712,5.0107456,4.3511484332,4.921268,-0.894776,-4.250186,348.6, -12.1, 1.2,0,0,1590,1024,1684,1024,86,0,100,0,34.8,0,0,99,4.278,4.273,0,0,0,0,4.687,73.76,77.91747460622,22.309712,6,P-GPS,
8500,2022-10-21 20:46:28,-34.9543147271966,-54.9358237482376,22.96588,23.1627304,55.41091220622,78.57364260622,21.653544,5.4357642,1.99455715044,12.7884190444,10,3,8.52,78.57364260622,22.96588,5.4357642,4.3511484332,5.368656,-0.894776,-5.144962,348.4, -11.2, 0,0,0,1590,1024,1684,1024,86,0,100,0,34.8,0,0,99,4.278,4.273,0,0,0,0,4.687,73.76,78.57364260622,22.96588,6,P-GPS,
8600,2022-10-21 20:46:28,-34.9543129445817,-54.9358242663271,23.950132,24.114174,55.44372060622,79.55789460622,22.637796,5.8831522,1.45939637216,13.457021428,12,3,8.52,79.55789460622,23.950132,5.8831522,4.3511484332,5.816044,-0.894776,-5.59235,348.3, -10.9, -0.6,0,0,1590,1024,1684,1024,86,0,100,0,34.8,0,0,99,4.278,4.273,0,0,0,0,4.687,73.76,79.55789460622,23.950132,6,P-GPS,
8700,2022-10-21 20:46:28,-34.9543111270564,-54.9358248892644,24.6063,24.7047252,55.50933740622,80.21406260622,23.950132,6.151585,1.0515256242,14.1458009776,12,3,8.52,80.21406260622,24.6063,6.151585,4.3511484332,6.039738,-1.11847,-6.039738,348.4, -11.3, -0.6,0,0,1589,1024,1684,1024,86,0,100,0,34.8,0,0,99,4.278,4.273,0,0,0,0,4.687,73.76,80.21406260622,24.6063,6,P-GPS,
8800,2022-10-21 20:46:28,-34.9543092938547,-54.9358255521284,25.590552,25.6233604,55.57495420622,81.19831460622,24.934384,6.5766036,1.00812667268,14.8434059868,13,3,8.52,81.19831460622,25.590552,6.5766036,4.3511484332,6.487126,-1.11847,-6.263432,348.4, -10.8, -0.7,0,0,1575,1024,1684,1024,83,0,100,0,34.8,0,0,99,4.278,4.273,0,0,0,0,4.687,73.76,81.19831460622,25.590552,6,P-GPS,
8900,2022-10-21 20:46:28,-34.9543074754287,-54.9358269842551,26.574804,26.5419956,55.64057100622,82.18256660622,26.24672,6.5766036,1.28135502788,15.6330713664,13,3,8.52,82.18256660622,26.574804,6.5766036,4.3511484332,6.487126,-1.11847,-6.487126,348.3, -11.4, -0.3,0,0,1543,1024,1684,1024,79,0,100,0,34.8,0,0,99,4.278,4.273,0,0,0,0,4.687,73.76,82.18256660622,26.574804,6,P-GPS,
9000,2022-10-21 20:46:28,-34.9543055110039,-54.9358278201324,27.88714,27.8215232,55.67337940622,83.49490260622,27.230972,6.8450364,1.9352690908,16.3921265088,13,3,8.52,83.49490260622,27.88714,6.8450364,4.3511484332,6.71082,-1.342164,-6.487126,348.5, -11.6, 0.1,0,0,1537,1024,1684,1024,78,0,100,0,34.8,0,0,99,4.278,4.273,0,0,0,0,4.687,73.76,83.49490260622,27.88714,6,P-GPS,
9100,2022-10-21 20:46:29,-34.9543035062204,-54.9358288671205,28.871392,28.7401584,55.73899620622,84.47915460622,28.215224,7.0687304,2.66334982276,17.1877630172,13,3,8.52,84.47915460622,28.871392,7.0687304,4.3511484332,6.934514,-1.342164,-6.487126,348.1, -10.3, -0.4,0,0,1528,1024,1684,1024,76,0,100,0,34.8,0,0,99,4.278,4.273,0,0,0,0,4.687,73.76,84.47915460622,28.871392,6,P-GPS,
9200,2022-10-21 20:46:29,-34.9543015660084,-54.9358299074002,29.855644,29.6587936,55.80461300622,85.46340660622,29.52756,7.2924244,3.3980316048,17.96095858,12,3,8.52,85.46340660622,29.855644,7.2924244,4.3511484332,7.158208,-1.342164,-6.487126,348.1, -10.1, -0.3,0,0,1391,1024,1684,1024,56,0,100,0,34.8,0,0,99,4.278,4.273,0,0,0,0,4.687,73.76,85.46340660622,29.855644,6,P-GPS,
9300,2022-10-21 20:46:29,-34.954300643722,-54.9358319324996,30.839896,30.5446204,55.90303820622,86.44765860622,30.511812,7.5384878,3.8529200708,18.6537407544,12,3,8.354,86.44765860622,30.839896,7.5384878,4.3511484332,7.381902,-1.565858,-6.71082,348, -10.2, -0.4,0,0,1024,1024,1684,1024,0,0,100,0,34.8,0,0,99,4.189,4.185,0,0,0,0,5.453,73.76,86.44765860622,30.839896,6,P-GPS,
9400,2022-10-21 20:46:29,-34.9542988752123,-54.9358330772174,32.152232,31.7913396,55.96865500622,87.75999460622,31.496064,7.5384878,4.5700132696,19.384186972,12,3,8.354,87.75999460622,32.152232,7.5384878,4.5700132696,7.381902,-1.565858,-6.71082,347.8, -7.8, 0.1,0,0,1024,1024,1684,1024,0,0,100,0,34.8,0,0,99,4.189,4.185,0,0,0,0,5.453,73.76,87.75999460622,32.152232,6,P-GPS,
9500,2022-10-21 20:46:29,-34.9542972823213,-54.9358341582828,33.136484,32.7755916,55.96865500622,88.74424660622,32.480316,7.5384878,5.2239831068,20.04921324,12,3,8.354,88.74424660622,33.136484,7.5384878,5.2239831068,7.381902,-1.565858,-6.934514,347.7, -0.1, 0.9,0,0,1024,1024,1684,1024,0,0,100,0,34.8,0,0,99,4.189,4.185,0,0,0,0,5.453,73.76,88.74424660622,33.136484,6,P-GPS,
9600,2022-10-21 20:46:29,-34.9542959017631,-54.9358351618348,33.792652,33.4317596,55.96865500622,89.40041460622,33.464568,6.8450364,5.7997377184,20.635499348,13,3,8.354,89.40041460622,33.792652,7.5384878,5.7997377184,6.71082,-1.342164,-6.934514,348, 20.2, 0.5,0,0,1024,1024,1684,1024,0,0,100,0,34.8,0,0,99,4.189,4.185,0,0,0,0,5.453,73.76,89.40041460622,33.792652,6,P-GPS,"Señal del GPS débil Señal del GPS débil. La precisión del posicionamiento se verá afectada. Vuela con cuidado (Code: 30049)"
9700,2022-10-21 20:46:29,-34.9542948311239,-54.9358361363997,34.776904,34.44882,55.93584660622,90.38466660622,34.120736,5.7489358,6.2690946888,21.12286813,13,3,8.354,90.38466660622,34.776904,7.5384878,6.2690946888,5.59235,-1.342164,-6.934514,348, 20.6, 0.5,0,0,1024,1024,1684,1024,0,0,100,0,34.8,0,0,99,4.189,4.185,0,0,0,0,5.453,73.76,90.38466660622,34.776904,6,P-GPS,
9800,2022-10-21 20:46:29,-34.9542957136314,-54.9358370145842,35.761156,35.4986888,55.87022980622,91.36891860622,19.68504,4.8317904,6.077920142,21.5383537076,13,4,8.354,91.36891860622,35.761156,7.5384878,6.2690946888,4.697574,-1.11847,-6.71082,347.9, 19.8, 1.4,0,0,1024,1024,1684,1024,0,0,100,0,34.8,0,0,99,4.189,4.185,0,0,0,0,5.453,73.76,91.36891860622,35.761156,6,P-GPS,
9900,2022-10-21 20:46:29,-34.9542958801952,-54.9358377443338,36.745408,36.5157492,55.83742140622,92.35317060622,20.997376,3.6462122,6.1196524268,21.7648957096,13,4,8.354,92.35317060622,36.745408,7.5384878,6.2690946888,3.579104,-0.671082,-6.487126,347.8, 18.9, 1,0,0,1024,1024,1684,1024,0,0,100,0,34.8,0,0,99,4.189,4.185,0,0,0,0,5.453,73.76,92.35317060622,36.745408,6,P-GPS,
10000,2022-10-21 20:46:30,-34.9542963778558,-54.9358383095556,37.72966,37.5000012,55.83742140622,93.33742260622,21.981628,2.7290668,6.04002644,22.012960022,13,4,8.354,93.33742260622,37.72966,7.5384878,6.2690946888,2.684328,-0.447388,-6.487126,347.8, 17.5, 0.7,0,0,1024,1024,1684,1024,0,0,100,0,34.8,0,0,99,4.189,4.185,0,0,0,0,5.453,73.76,93.33742260622,37.72966,6,P-GPS,
10100,2022-10-21 20:46:30,-34.9542976517916,-54.9358384348258,39.041996,38.8451456,55.80461300622,94.64975860622,22.96588,2.0579848,5.6596786588,22.4792658112,13,4,8.354,94.64975860622,39.041996,7.5384878,6.2690946888,2.013246,-0.447388,-6.487126,347.7, 13.8, -0.1,0,0,1024,1024,1684,1024,0,0,100,0,34.8,0,0,99,4.189,4.185,0,0,0,0,5.453,73.76,94.64975860622,39.041996,6,P-GPS,
10200,2022-10-21 20:46:30,-34.9543016037866,-54.9358378666067,40.026248,39.862206,55.77180460622,95.63401060622,23.950132,1.5882274,4.3919948912,23.931103128,12,4,8.354,95.63401060622,40.026248,7.5384878,6.2690946888,1.565858,-0.223694,-6.487126,347.9, 11, 0,0,0,1024,1024,1684,1024,0,0,100,0,34.8,0,0,99,4.189,4.185,0,0,0,0,5.453,73.76,95.63401060622,40.026248,6,P-GPS,
10300,2022-10-21 20:46:30,-34.9543037697991,-54.9358376052193,41.0105,40.8792664,55.73899620622,96.61826260622,24.934384,1.5882274,3.7651904092,24.72523045,12,4,8.431,96.61826260622,41.0105,7.5384878,6.2690946888,1.11847,0,-6.487126,347.9, 8.5, 0.4,0,0,1024,1024,1684,1024,0,0,100,0,34.8,0,0,99,4.214,4.209,0,0,0,0,5.292,73.94,96.61826260622,41.0105,6,P-GPS,
10400,2022-10-21 20:46:30,-34.9543059762158,-54.9358372615739,41.994752,41.83071,55.77180460622,97.60251460622,25.590552,0.671082,3.18456703104,25.5367790324,13,4,8.431,97.60251460622,41.994752,7.5384878,6.2690946888,0.671082,0,-6.487126,347.8, 6.7, 0,0,0,1024,1024,1684,1024,0,0,100,0,34.8,0,0,99,4.214,4.209,0,0,0,0,5.292,73.94,97.60251460622,41.994752,6,P-GPS,
10500,2022-10-21 20:46:30,-34.9543079024466,-54.9358366763976,42.979004,42.8477704,55.73899620622,98.58676660622,26.574804,0.671082,2.69544628048,26.2610244624,13,4,8.431,98.58676660622,42.979004,7.5384878,6.2690946888,0.671082,0,-6.487126,347.6, 5.6, 0,0,0,1024,1024,1684,1024,0,0,100,0,34.8,0,0,99,4.214,4.209,0,0,0,0,5.292,73.94,98.58676660622,42.979004,6,P-GPS,
10600,2022-10-21 20:46:30,-34.9543115250617,-54.9358344205766,44.29134,44.0944896,55.80461300622,99.89910260622,27.559056,0.447388,1.8251805046,27.744915586,13,4,8.431,99.89910260622,44.29134,7.5384878,6.2690946888,0.447388,0,-6.487126,347.6, 4.6, -0.7,0,0,1024,1024,1684,1024,0,0,100,0,34.8,0,0,99,4.214,4.209,0,0,0,0,5.292,73.94,99.89910260622,44.29134,6,P-GPS,
10700,2022-10-21 20:46:30,-34.9543131232419,-54.935833782507,45.275592,45.0787416,55.80461300622,100.88335460622,28.215224,0.447388,1.82459651508,28.358432666,13,4,8.431,100.88335460622,45.275592,7.5384878,6.2690946888,0.447388,0,-6.487126,347.5, 4.2, -0.3,0,0,1024,1024,1684,1024,0,0,100,0,34.8,0,0,99,4.214,4.209,0,0,0,0,5.292,73.94,100.88335460622,45.275592,6,P-GPS,
10800,2022-10-21 20:46:30,-34.9543146702674,-54.9358331727075,46.259844,46.095802,55.77180460622,101.86760660622,29.199476,0.223694,2.01267722976,28.951608538,14,4,8.431,101.86760660622,46.259844,7.5384878,6.2690946888,0.223694,0,-6.487126,347.5, 4, 0.3,0,0,1024,1024,1684,1024,0,0,100,0,34.8,0,0,99,4.214,4.209,0,0,0,0,5.292,73.94,101.86760660622,46.259844,6,P-GPS,
10900,2022-10-21 20:46:30,-34.9543160212555,-54.9358323618295,47.244096,47.1128624,55.73899620622,102.85185860622,30.183728,0.223694,2.2475886546,29.5009195792,14,4,8.431,102.85185860622,47.244096,7.5384878,6.2690946888,0.223694,0,-6.487126,347.5, 3.7, 0,0,0,1024,1024,1684,1024,0,0,100,0,34.8,0,0,99,4.214,4.209,0,0,0,0,5.292,73.94,102.85185860622,47.244096,6,P-GPS,
11000,2022-10-21 20:46:30,-34.9543159359791,-54.9358303137535,48.228348,48.1955396,55.64057100622,103.83611060622,31.496064,0.223694,1.96250662448,30.1141413836,14,4,8.431,103.83611060622,48.228348,7.5384878,6.2690946888,0.223694,0,-6.487126,347.5, 3.3, 1.5,0,0,1024,1024,1684,1024,0,0,100,0,34.8,0,0,99,4.214,4.209,0,0,0,0,5.292,73.94,103.83611060622,48.228348,6,P-GPS,
11100,2022-10-21 20:46:31,-34.9543168777282,-54.9358297092529,49.540684,49.5078756,55.64057100622,105.14844660622,32.480316,0.223694,2.25438327424,30.5023959892,14,4,8.431,105.14844660622,49.540684,7.5384878,6.2690946888,0.223694,0,-6.487126,347.6, 3.1, 0.5,0,0,1024,1024,1684,1024,0,0,100,0,34.8,0,0,99,4.214,4.209,0,0,0,0,5.292,73.94,105.14844660622,49.540684,6,P-GPS,
11200,2022-10-21 20:46:31,-34.9543177810782,-54.9358291288623,50.524936,50.5577444,55.57495420622,106.13269860622,33.464568,0,2.55853354644,30.8749025628,14,4,8.431,106.13269860622,50.524936,7.5384878,6.2690946888,0,0,-6.71082,347.5, 3.6, -0.3,0,0,1024,1024,1684,1024,0,0,100,0,34.8,0,0,99,4.214,4.209,0,0,0,0,5.292,73.94,106.13269860622,50.524936,6,P-GPS,
11300,2022-10-21 20:46:31,-34.9543190819322,-54.9358284314366,51.509188,51.5748048,55.54214580622,107.11695060622,34.44882,0,3.0234252936,31.3933080912,14,4,8.411,107.11695060622,51.509188,7.5384878,6.2690946888,0,0,-6.71082,347.7, 2.8, 0.5,0,0,1024,1024,1684,1024,0,0,100,0,34.8,0,0,99,4.198,4.194,0,0,0,0,5.009,73.94,107.11695060622,51.509188,6,P-GPS,
11400,2022-10-21 20:46:31,-34.9543203273605,-54.935827784428,52.49344,52.5918652,55.50933740622,108.10120260622,35.433072,0,3.4823820012,31.8871729364,14,4,8.411,108.10120260622,52.49344,7.5384878,6.2690946888,0,0,-6.71082,347.9, 3, 0.7,0,0,1024,1024,1684,1024,0,0,100,0,34.8,0,0,99,4.198,4.194,0,0,0,0,5.009,73.94,108.10120260622,52.49344,6,P-GPS,
11500,2022-10-21 20:46:31,-34.9543199016518,-54.9358266749002,53.477692,53.6089256,55.47652900622,109.08545460622,36.417324,0,3.3614502388,32.2535115308,14,4,8.411,109.08545460622,53.477692,7.5384878,6.2690946888,0,0,-6.71082,347.8, 2.7, 2.9,0,0,1024,1024,1684,1024,0,0,100,0,34.8,0,0,99,4.198,4.194,0,0,0,0,5.009,73.94,109.08545460622,53.477692,6,P-GPS,
11600,2022-10-21 20:46:31,-34.9543212130655,-54.9358260963975,54.461944,54.6587944,55.41091220622,110.06970660622,37.401576,0,3.8619095724,32.762304198,16,4,8.411,110.06970660622,54.461944,7.5384878,6.2690946888,0,0,-6.71082,348.2, 2.3, 2.6,0,0,1024,1024,1684,1024,0,0,100,0,34.8,0,0,99,4.198,4.194,0,0,0,0,5.009,73.94,110.06970660622,54.461944,6,P-GPS,
11700,2022-10-21 20:46:31,-34.9543225504618,-54.9358255872054,55.446196,55.6430464,55.41091220622,111.05395860622,38.385828,0.223694,4.3695539456,33.273295028,16,4,8.411,111.05395860622,55.446196,7.5384878,6.2690946888,-0.223694,0,-6.487126,347.7, 0.5, 1.3,0,0,1024,1024,1684,1024,0,0,100,0,34.8,0,0,99,4.198,4.194,0,0,0,0,5.009,73.94,111.05395860622,55.446196,6,P-GPS,
11800,2022-10-21 20:46:31,-34.9543238543455,-54.9358251485267,56.430448,56.6929152,55.34529540622,112.03821060622,39.37008,0.3131716,4.8617455624,33.767061448,15,4,8.411,112.03821060622,56.430448,7.5384878,6.2690946888,-0.223694,-0.223694,-6.487126,347.6, -1.3, 3.3,0,0,1024,1024,1684,1024,0,0,100,0,34.8,0,0,99,4.198,4.194,0,0,0,0,5.009,73.94,112.03821060622,56.430448,6,P-GPS,
11900,2022-10-21 20:46:31,-34.9543243098978,-54.9358253719672,57.742784,58.0052512,55.34529540622,113.35054660622,40.354332,0.3131716,5.01230331,33.946195312,15,4,8.411,113.35054660622,57.742784,7.5384878,6.2690946888,-0.223694,-0.223694,-6.487126,347.6, -2.2, 4.4,0,0,1024,1024,1684,1024,0,0,100,0,34.8,0,0,99,4.198,4.194,0,0,0,0,5.009,73.94,113.35054660622,57.742784,6,P-GPS,
12000,2022-10-21 20:46:31,-34.9543254101902,-54.9358251533838,58.727036,58.9895032,55.34529540622,114.33479860622,41.338584,0.3131716,5.418963428,34.352691388,14,4,8.411,114.33479860622,58.727036,7.5384878,6.2690946888,-0.223694,-0.223694,-6.71082,347.4, -1.9, 4.5,0,0,1024,1024,1684,1024,0,0,100,0,34.8,0,0,99,4.198,4.194,0,0,0,0,5.009,73.94,114.33479860622,58.727036,6,P-GPS,
12100,2022-10-21 20:46:32,-34.9543262466649,-54.9358248807985,59.711288,60.0065636,55.31248700622,115.31905060622,42.322836,0.3131716,5.7338584512,34.66863628,14,4,8.411,115.31905060622,59.711288,7.5384878,6.2690946888,-0.223694,-0.223694,-6.71082,347.4, -1.5, 4.8,0,0,1024,1024,1684,1024,0,0,100,0,34.8,0,0,99,4.198,4.194,0,0,0,0,5.009,73.94,115.31905060622,59.711288,6,P-GPS,
12200,2022-10-21 20:46:32,-34.9543270109685,-54.9358246066244,60.69554,60.9908156,55.31248700622,116.30330260622,42.65092,0,6.0230644972,34.959318704,15,4,8.411,116.30330260622,60.69554,7.5384878,6.2690946888,0,0,-6.487126,347.4, -0.8, 5.1,0,0,1024,1024,1684,1024,0,0,100,0,34.8,0,0,99,4.198,4.194,0,0,0,0,5.009,73.94,116.30330260622,60.69554,6,P-GPS,
12300,2022-10-21 20:46:32,-34.9543272534341,-54.9358243703355,61.679792,62.007876,55.27967860622,117.28755460622,42.65092,0,6.1234253928,35.072507684,15,4,8.421,117.28755460622,61.679792,7.5384878,6.2690946888,0,0,-6.71082,347.6, -1.3, 4.9,0,0,1024,1024,1684,1024,0,0,100,0,34.8,0,0,99,4.212,4.209,0,0,0,0,4.973,73.94,117.28755460622,61.679792,6,P-GPS,
12400,2022-10-21 20:46:32,-34.9543282521474,-54.935823919802,62.664044,63.0249364,55.24687020622,118.27180660622,42.65092,0,6.5074149064,35.46095914,17,4,8.421,118.27180660622,62.664044,7.5384878,6.5074149064,0,0,-6.71082,347.5, -2.2, 3.1,0,0,1096,1024,1684,1024,11,0,100,0,34.8,0,0,99,4.212,4.209,0,0,0,0,4.973,73.94,118.27180660622,62.664044,6,P-GPS,
12500,2022-10-21 20:46:32,-34.9543292059482,-54.9358233126565,63.648296,64.0419968,55.21406180622,119.25605860622,42.65092,0,6.8860894592,35.853675688,17,4,8.421,119.25605860622,63.648296,7.5384878,6.8860894592,0,0,-6.71082,347.1, -2.3, 2.1,0,0,1459,1024,1684,1024,66,0,100,0,34.8,0,0,99,4.212,4.209,0,0,0,0,4.973,73.94,119.25605860622,63.648296,6,P-GPS,
12600,2022-10-21 20:46:32,-34.954330087381,-54.9358227511518,64.632548,65.0262488,55.21406180622,120.24031060622,42.65092,0,7.2373361896,36.216208508,17,4,8.421,120.24031060622,64.632548,7.5384878,7.2373361896,0,0,-6.71082,347.1, -2.4, 0.7,0,0,1587,1024,1684,1024,85,0,100,0,34.8,0,0,99,4.212,4.209,0,0,0,0,4.973,73.94,120.24031060622,64.632548,6,P-GPS,
12700,2022-10-21 20:46:32,-34.9543310549096,-54.9358217411722,65.6168,66.0761176,55.14844500622,121.22456260622,42.65092,0,7.6538388276,36.680775452,17,4,8.421,121.22456260622,65.6168,7.5384878,7.6538388276,0,0,-6.71082,347.1, -6.7, 2.5,0,0,1587,1024,1684,1024,85,0,100,0,34.8,0,0,99,4.212,4.209,0,0,0,0,4.973,73.94,121.22456260622,65.6168,6,P-GPS,
12800,2022-10-21 20:46:32,-34.9543319422129,-54.9358212067206,66.601052,67.1259864,55.08282820622,122.20881460622,42.65092,0.447388,8.0082679728,37.041995936,17,4,8.421,122.20881460622,66.601052,7.5384878,8.0082679728,0.447388,0,-6.487126,346.9, -11, 2.9,0,0,1632,1024,1684,1024,92,0,100,0,34.8,0,0,99,4.212,4.209,0,0,0,0,4.973,73.94,122.20881460622,66.601052,6,P-GPS,
12900,2022-10-21 20:46:32,-34.9543326113763,-54.935820708248,67.585304,68.1102384,55.08282820622,123.19306660622,42.65092,0.9171454,8.283792916,37.328085184,17,4,8.421,123.19306660622,67.585304,7.5384878,8.283792916,0.894776,-0.223694,-6.487126,346.8, -14, 2.8,0,0,1602,1024,1684,1024,88,0,100,0,34.8,0,0,99,4.212,4.209,0,0,0,0,4.973,73.94,123.19306660622,67.585304,6,P-GPS,
13000,2022-10-21 20:46:33,-34.9543330382778,-54.9358202827077,68.569556,69.1272988,55.05001980622,124.17731860622,42.65092,1.6329662,8.4690947592,37.529200676,17,4,8.421,124.17731860622,68.569556,7.5384878,8.4690947592,1.565858,-0.447388,-6.487126,346.8, -14.4, 3,0,0,1546,1024,1684,1024,79,0,100,0,34.8,0,0,99,4.212,4.209,0,0,0,0,4.973,73.94,124.17731860622,68.569556,6,P-GPS,
13100,2022-10-21 20:46:33,-34.9543331380282,-54.9358199824291,69.553808,70.1115508,55.05001980622,125.16157060622,42.65092,2.0579848,8.5299543412,37.625985456,17,4,8.421,125.16157060622,69.553808,7.5384878,8.5299543412,2.013246,-0.447388,-6.487126,347, -13.2, 3.3,0,0,1540,1024,1684,1024,78,0,100,0,34.8,0,0,99,4.212,4.209,0,0,0,0,4.973,73.94,125.16157060622,69.553808,6,P-GPS,
13200,2022-10-21 20:46:33,-34.9543328033829,-54.9358196625011,70.53806,71.0958028,55.05001980622,126.14582260622,42.65092,2.7290668,8.44242153,37.781169188,17,4,8.421,126.14582260622,70.53806,7.5384878,8.5299543412,2.684328,-0.447388,-6.487126,347, -11.3, 3,0,0,1536,1024,1684,1024,78,0,100,0,34.8,0,0,99,4.212,4.209,0,0,0,0,4.973,73.94,126.14582260622,70.53806,6,P-GPS,
13300,2022-10-21 20:46:33,-34.9543325710658,-54.9358194395437,71.522312,72.1128632,55.01721140622,127.13007460622,42.65092,2.9751302,8.382874284,37.889108824,17,4,8.414,127.13007460622,71.522312,7.5384878,8.5299543412,2.908022,-0.671082,-6.487126,347, -9.8, 2.8,0,0,1509,1024,1684,1024,73,0,100,0,34.8,0,0,99,4.205,4.202,0,0,0,0,4.687,73.94,127.13007460622,71.522312,6,P-GPS,
13400,2022-10-21 20:46:33,-34.9543321937309,-54.9358192516571,72.506564,73.0971152,55.01721140622,128.11432660622,42.65092,3.4225182,8.2708992148,38.037730876,17,4,8.414,128.11432660622,72.506564,7.5384878,8.5299543412,3.35541,-0.671082,-6.487126,347.1, -9.9, 1.6,0,0,1378,1024,1684,1024,54,0,100,0,34.8,0,0,99,4.205,4.202,0,0,0,0,4.687,73.94,128.11432660622,72.506564,6,P-GPS,
13500,2022-10-21 20:46:33,-34.9543314975662,-54.9358193108471,73.490816,74.0813672,55.01721140622,129.09857860622,42.65092,3.7580592,8.0255579996,38.29232406,17,4,8.414,129.09857860622,73.490816,7.5384878,8.5299543412,3.579104,-1.11847,-6.71082,347, -9.9, 1.3,0,0,1210,1024,1684,1024,28,0,100,0,34.8,0,0,99,4.205,4.202,0,0,0,0,4.687,73.94,129.09857860622,73.490816,6,P-GPS,
13600,2022-10-21 20:46:33,-34.9543305418895,-54.9358202917838,74.146984,74.7047268,55.05001980622,129.75474660622,42.65092,3.8251674,7.599901818,38.748032736,17,4,8.414,129.75474660622,74.146984,7.5384878,8.5299543412,3.579104,-1.342164,-6.487126,346.9, -6.8, 1.8,0,0,1210,1024,1684,1024,28,0,100,0,34.8,0,0,99,4.205,4.202,0,0,0,0,4.687,73.94,129.75474660622,74.146984,6,P-GPS,
13700,2022-10-21 20:46:33,-34.9543296745688,-54.9358207114412,75.131236,75.623362,55.11563660622,130.73899860622,42.65092,4.026492,7.260006794,39.088255844,17,4,8.414,130.73899860622,75.131236,7.5384878,8.5299543412,3.802798,-1.342164,-6.71082,346.6, -2.7, 2.3,0,0,1160,1024,1684,1024,21,0,100,0,34.8,0,0,99,4.205,4.202,0,0,0,0,4.687,73.94,130.73899860622,75.131236,6,P-GPS,
13800,2022-10-21 20:46:33,-34.9543288138205,-54.9358211013821,76.115488,76.607614,55.11563660622,131.72325060622,42.65092,4.026492,6.9252298804,39.423229608,17,4,8.414,131.72325060622,76.115488,7.5384878,8.5299543412,3.579104,-1.342164,-6.71082,346.3, -1.4, 1.3,0,0,1119,1024,1684,1024,14,0,100,0,34.8,0,0,99,4.205,4.202,0,0,0,0,4.687,73.94,131.72325060622,76.115488,6,P-GPS,
13900,2022-10-21 20:46:33,-34.9543279013903,-54.9358214661273,77.09974,77.5590576,55.14844500622,132.70750260622,42.65092,3.8251674,6.5749017852,39.77362332,17,4,8.414,132.70750260622,77.09974,7.5384878,8.5299543412,3.579104,-1.342164,-6.487126,346.3, 0, 1.5,0,0,1032,1024,1684,1024,1,0,100,0,34.8,0,0,99,4.205,4.202,0,0,0,0,4.687,73.94,132.70750260622,77.09974,6,P-GPS,
14000,2022-10-21 20:46:33,-34.9543268783692,-54.9358225516923,78.083992,78.4448844,55.24687020622,133.69175460622,42.65092,3.7580592,6.1214568888,40.268373992,17,4,8.414,133.69175460622,78.083992,7.5384878,8.5299543412,3.579104,-1.11847,-6.487126,346.2, 0.7, 3.3,0,0,1024,1024,1684,1024,0,0,100,0,34.8,0,0,99,4.205,4.202,0,0,0,0,4.687,73.94,133.69175460622,78.083992,6,P-GPS,
14100,2022-10-21 20:46:34,-34.9543260202053,-54.9358227490195,79.068244,79.4291364,55.24687020622,134.67600660622,42.65092,3.5343652,5.80462617,40.586943556,17,4,8.414,134.67600660622,79.068244,7.5384878,8.5299543412,3.35541,-1.11847,-6.487126,345.4, 11.1, 1.6,0,0,1024,1024,1684,1024,0,0,100,0,34.8,0,0,99,4.205,4.202,0,0,0,0,4.687,73.94,134.67600660622,79.068244,6,P-GPS,
14200,2022-10-21 20:46:34,-34.9543253133727,-54.9358228440812,79.724412,80.0853044,55.24687020622,135.33217460622,42.65092,3.2659324,5.5498033272,40.846458,17,4,8.414,135.33217460622,79.724412,7.5384878,8.5299543412,3.131716,-0.894776,-6.487126,344.9, 16.5, -0.2,0,0,1024,1024,1684,1024,0,0,100,0,34.8,0,0,99,4.205,4.202,0,0,0,0,4.687,73.94,135.33217460622,79.724412,6,P-GPS,
14300,2022-10-21 20:46:34,-34.9543248197604,-54.9358229280457,80.708664,81.0695564,55.24687020622,136.31642660622,42.65092,2.5501116,5.3705054212,41.028216536,17,4,8.414,136.31642660622,80.708664,7.5384878,8.5299543412,2.460634,-0.671082,-6.487126,344.8, 15.4, 0.4,0,0,1024,1024,1684,1024,0,0,100,0,34.8,0,0,99,4.205,4.202,0,0,0,0,4.687,73.94,136.31642660622,80.708664,6,P-GPS,
14400,2022-10-21 20:46:34,-34.9543243918948,-54.9358233626247,81.692916,82.021,55.27967860622,137.30067860622,42.65092,2.125093,5.1828413732,41.231300532,17,5,8.405,137.30067860622,81.692916,7.5384878,8.5299543412,2.013246,-0.671082,-6.487126,344.5, 13.2, 0.5,0,0,1024,1024,1684,1024,0,0,100,0,34.8,0,0,99,4.202,4.194,0,0,0,0,4.697,74.12,137.30067860622,81.692916,6,P-GPS,
14500,2022-10-21 20:46:34,-34.9543242607155,-54.9358233133483,82.677168,83.005252,55.27967860622,138.28493060622,42.65092,1.6329662,5.1413715556,41.281497384,17,5,8.405,138.28493060622,82.677168,7.5384878,8.5299543412,1.565858,-0.447388,-6.487126,344.3, 11.2, 0,0,0,1024,1024,1684,1024,0,0,100,0,34.8,0,0,99,4.202,4.194,0,0,0,0,4.697,74.12,138.28493060622,82.677168,6,P-GPS,
14600,2022-10-21 20:46:34,-34.9543242816166,-54.9358232030788,83.66142,83.989504,55.27967860622,139.26918260622,42.65092,1.1408394,5.158464732,41.315290036,17,5,8.405,139.26918260622,83.66142,7.5384878,8.5299543412,1.11847,-0.223694,-6.487126,344, 9.1, -1.2,0,0,1024,1024,1684,1024,0,0,100,0,34.8,0,0,99,4.202,4.194,0,0,0,0,4.697,74.12,139.26918260622,83.66142,6,P-GPS,"Señal del GPS débil. La precisión del posicionamiento se verá afectada. Vuela con cuidado (Code: 30049)"
14700,2022-10-21 20:46:34,-34.9543243746985,-54.9358227475542,84.645672,84.973756,55.27967860622,140.25343460622,42.65092,0.9171454,5.2331366504,41.455709988,17,5,8.405,140.25343460622,84.645672,7.5384878,8.5299543412,0.894776,-0.223694,-6.487126,343.8, 7.8, -0.3,0,0,1024,1024,1684,1024,0,0,100,0,34.8,0,0,99,4.202,4.194,0,0,0,0,4.697,74.12,140.25343460622,84.645672,6,P-GPS,
14800,2022-10-21 20:46:34,-34.9543245588755,-54.9358222944873,85.958008,86.3517088,55.21406180622,141.56577060622,42.65092,0.671082,5.3414371788,41.606956712,18,5,8.405,141.56577060622,85.958008,7.5384878,8.5299543412,0.671082,0,-6.487126,343.6, 7.2, 0.4,0,0,1024,1024,1684,1024,0,0,100,0,34.8,0,0,99,4.202,4.194,0,0,0,0,4.697,74.12,141.56577060622,85.958008,6,P-GPS,
14900,2022-10-21 20:46:34,-34.9543247753934,-54.9358204153312,86.94226,87.4015776,55.14844500622,142.55002260622,42.65092,0.671082,5.629593356,42.174213948,18,5,8.405,142.55002260622,86.94226,7.5384878,8.5299543412,0.671082,0,-6.487126,343.3, 6.8, 0.9,0,0,1024,1024,1684,1024,0,0,100,0,34.8,0,0,99,4.202,4.194,0,0,0,0,4.697,74.12,142.55002260622,86.94226,6,P-GPS,
15000,2022-10-21 20:46:34,-34.9543253120113,-54.9358196243154,87.926512,88.3858296,55.14844500622,143.53427460622,42.65092,0.671082,5.9085631812,42.481300572,18,5,8.405,143.53427460622,87.926512,7.5384878,8.5299543412,0.671082,0,-6.71082,342.9, 5.6, 0.7,0,0,1024,1024,1024,1024,0,0,0,0,34.8,0,0,99,4.202,4.194,0,0,0,0,4.697,74.12,143.53427460622,87.926512,6,P-GPS,
15100,2022-10-21 20:46:35,-34.9543258576882,-54.9358187724576,88.910764,89.4356984,55.08282820622,144.51852660622,42.65092,0.447388,6.2015093848,42.804791396,18,5,8.405,144.51852660622,88.910764,7.5384878,8.5299543412,0.447388,0,-6.71082,342.4, 5.1, 0.6,0,0,1024,1024,1024,1024,0,0,0,0,34.8,0,0,99,4.202,4.194,0,0,0,0,4.697,74.12,144.51852660622,88.910764,6,P-GPS,
15200,2022-10-21 20:46:35,-34.9543264189233,-54.9358179441217,89.895016,90.4527588,55.05001980622,145.50277860622,42.65092,0.447388,6.4989503392,43.125985632,18,5,8.405,145.50277860622,89.895016,7.5384878,8.5299543412,0.447388,0,-6.263432,342.1, 4.9, 0.6,0,0,1024,1024,1024,1024,0,0,0,0,34.8,0,0,99,4.202,4.194,0,0,0,0,4.697,74.12,145.50277860622,89.895016,6,P-GPS,
15300,2022-10-21 20:46:35,-34.9543269322154,-54.9358161497134,90.551184,91.207352,54.95159460622,146.15894660622,42.65092,0.4921268,6.9313650512,43.69422712,18,5,8.405,146.15894660622,90.551184,7.5384878,8.5299543412,0.447388,0.223694,-5.59235,341.7, 5.1, 0.6,0,0,1024,1024,1024,1024,0,0,0,0,34.8,0,0,99,4.202,4.194,0,0,0,0,4.697,74.12,146.15894660622,90.551184,6,P-GPS,
15400,2022-10-21 20:46:35,-34.9543275056703,-54.9358152940717,91.535436,92.2572208,54.88597780622,147.14319860622,42.65092,0.4921268,7.24491493,44.024935792,18,5,8.38,147.14319860622,91.535436,7.5384878,8.5299543412,0.447388,0.223694,-4.697574,341.4, 5.2, 0,0,0,1024,1024,1024,1024,0,0,0,0,34.8,0,0,99,4.196,4.197,0,0,0,0,4.954,74.12,147.14319860622,91.535436,6,P-GPS,
15500,2022-10-21 20:46:35,-34.9543279459038,-54.9358145446798,92.191604,92.9133888,54.88597780622,147.79936660622,42.65092,0.3131716,7.5018375104,44.300526352,18,5,8.38,147.79936660622,92.191604,7.5384878,8.5299543412,0.223694,0.223694,-4.026492,340.8, 3.1, -0.7,0,0,1024,1024,1024,1024,0,0,0,0,34.8,0,0,99,4.196,4.197,0,0,0,0,4.954,74.12,147.79936660622,92.191604,6,P-GPS,
15600,2022-10-21 20:46:35,-34.9543283761697,-54.9358138408086,92.519688,93.2742812,54.85316940622,148.12745060622,42.65092,0.3131716,7.7493768884,44.563321636,18,5,8.38,148.12745060622,92.519688,7.5384878,8.5299543412,0.223694,0.223694,-2.908022,340.5, 4.1, -1,0,0,1024,1024,1024,1024,0,0,0,0,34.8,0,0,99,4.196,4.197,0,0,0,0,4.954,74.12,148.12745060622,92.519688,6,P-GPS,
15700,2022-10-21 20:46:35,-34.9543285245323,-54.935813062654,92.847772,93.6351736,54.82036100622,148.45553460622,42.65092,0.3131716,7.9264110148,44.802166788,18,5,8.38,148.45553460622,92.847772,7.5384878,8.5299543412,0.223694,0.223694,-2.013246,340.1, 1.4, -3.4,0,0,1024,1024,1024,1024,0,0,0,0,34.8,0,0,99,4.196,4.197,0,0,0,0,4.954,74.12,148.45553460622,92.847772,6,P-GPS,
15800,2022-10-21 20:46:35,-34.9543290641677,-54.9358123538166,93.175856,94.0288744,54.75474420622,148.78361860622,42.65092,0.223694,8.209809974,45.091536876,18,5,8.38,148.78361860622,93.175856,7.5384878,8.5299543412,0,0.223694,-1.342164,339.7, 1, -2.8,0,0,1024,1024,1024,1024,0,0,0,0,34.8,0,0,99,4.196,4.197,0,0,0,0,4.954,74.12,148.78361860622,93.175856,6,P-GPS,"Señal del GPS débil. La precisión del posicionamiento se verá afectada. Vuela con cuidado (Code: 30049)"
15900,2022-10-21 20:46:35,-34.9543296148993,-54.9358116761865,93.175856,94.0288744,54.75474420622,148.78361860622,42.65092,0,8.4913716628,45.376641872,18,5,8.38,148.78361860622,93.175856,7.5384878,8.5299543412,0,0,-0.671082,339.4, -0.6, -3.3,0,0,1024,1024,1024,1024,0,0,0,0,34.8,0,0,99,4.196,4.197,0,0,0,0,4.954,74.12,148.78361860622,93.175856,6,P-GPS,
16000,2022-10-21 20:46:35,-34.9543301325312,-54.9358111085221,93.175856,94.0616828,54.72193580622,148.78361860622,42.65092,0,8.7439963428,45.630578888,18,5,8.38,148.78361860622,93.175856,7.5384878,8.7439963428,0,0,-0.223694,339.2, 0.5, -2.2,0,0,1024,1024,1024,1024,0,0,0,0,34.8,0,0,99,4.196,4.197,0,0,0,0,4.954,74.12,148.78361860622,93.175856,6,P-GPS,
16100,2022-10-21 20:46:36,-34.9543307762535,-54.9358103866517,93.50394,94.4553836,54.65631900622,149.11170260622,42.65092,0,9.0610895288,45.94980462,18,5,8.38,149.11170260622,93.50394,7.5384878,9.0610895288,0,0,0,339, -0.5, -1.6,0,0,1024,1024,1024,1024,0,0,0,0,34.8,0,0,99,4.196,4.197,0,0,0,0,4.954,74.12,149.11170260622,93.50394,6,P-GPS,
16200,2022-10-21 20:46:36,-34.9543313892519,-54.9358098749148,93.50394,94.4553836,54.65631900622,149.11170260622,42.65092,0.3131716,9.3319228708,46.220802004,18,5,8.38,149.11170260622,93.50394,7.5384878,9.3319228708,0.223694,-0.223694,0,338.6, -0.7, -2,0,0,1024,1024,1024,1024,0,0,0,0,34.8,0,0,99,4.196,4.197,0,0,0,0,4.954,74.12,149.11170260622,93.50394,6,P-GPS,
16300,2022-10-21 20:46:36,-34.954331771096,-54.9358095963199,93.50394,94.4553836,54.65631900622,149.11170260622,42.65092,0.3131716,9.4935042408,46.3828755,18,5,8.38,149.11170260622,93.50394,7.5384878,9.4935042408,0.223694,-0.223694,-0.223694,338.8, -1.2, -1,0,0,1024,1024,1024,1024,0,0,0,0,34.8,0,0,99,4.196,4.197,0,0,0,0,4.954,74.12,149.11170260622,93.50394,6,P-GPS,
16400,2022-10-21 20:46:36,-34.9543321097325,-54.9358094130311,93.50394,94.488192,54.62351060622,149.11170260622,42.65092,0.4921268,9.6255908592,46.518046108,18,5,8.494,149.11170260622,93.50394,7.5384878,9.6255908592,0.223694,-0.447388,0,338.1, 1.6, -0.5,0,0,1024,1024,1024,1024,0,0,0,0,34.8,0,0,99,4.22,4.211,0,0,0,0,3.584,74.12,149.11170260622,93.50394,6,P-GPS,
16500,2022-10-21 20:46:36,-34.9543325192374,-54.93580944156,93.50394,94.5210004,54.59070220622,149.11170260622,42.65092,0.4921268,9.7417325952,46.667980496,18,5,8.494,149.11170260622,93.50394,7.5384878,9.7417325952,0.223694,-0.447388,0,338, -0.2, -0.4,0,0,1024,1024,1024,1024,0,0,0,0,34.8,0,0,99,4.22,4.211,0,0,0,0,3.584,74.12,149.11170260622,93.50394,6,P-GPS,
