time(millisecond),datetime(utc),latitude,longitude,height_above_takeoff(feet),height_above_ground_at_drone_location(feet),ground_elevation_at_drone_location(feet),altitude_above_seaLevel(feet),height_sonar(feet),speed(mph),distance(feet),mileage(feet),satellites,gpslevel,voltage(v),max_altitude(feet),max_ascent(feet),max_speed(mph),max_distance(feet), xSpeed(mph), ySpeed(mph), zSpeed(mph), compass_heading(degrees), pitch(degrees), roll(degrees),isPhoto,isVideo,rc_elevator,rc_aileron,rc_throttle,rc_rudder,rc_elevator(percent),rc_aileron(percent),rc_throttle(percent),rc_rudder(percent),gimbal_heading(degrees),gimbal_pitch(degrees),gimbal_roll(degrees),battery_percent,voltageCell1,voltageCell2,voltageCell3,voltageCell4,voltageCell5,voltageCell6,current(A),battery_temperature(f),altitude(feet),ascent(feet),flycStateRaw,flycState,message
0,2022-08-14 03:26:02,-34.9065732160174,-56.1630681748234,0,0,119.7969670881,119.7969670881,0,0,0,0,13,4,0,119.7969670881,0,0,0,0,0,0,290.9, -2.6, -2.1,0,0,364,364,364,1684,-100,-100,-100,100,299.8,0,0,98,4.304,4.301,0,0,0,0,0,70.7,119.7969670881,0,41,Motors_Started,"En vuelo Aeronave en Zona de altitud restringida (150). Vuela con precaución (Code: 190001)"
100,2022-08-14 03:26:03,-34.9065730326253,-56.1630680757285,0,0,119.7969670881,119.7969670881,0,0,0.07318569788,0.07318569788,13,4,0,119.7969670881,0,0,0.07318569788,0,0,0,290.9, -2.9, -2,0,0,364,364,364,1684,-100,-100,-100,100,299.9,0,0,98,4.304,4.301,0,0,0,0,0,70.7,119.7969670881,0,41,Motors_Started,
200,2022-08-14 03:26:03,-34.9065730336838,-56.1630680506779,0,0,119.7969670881,119.7969670881,0.328084,0,0.076192259656,0.080690947464,13,4,0,119.7969670881,0,0,0.076192259656,0,0,0,290.9, -2.9, -1.9,0,0,364,364,364,1684,-100,-100,-100,100,300.1,0,0,98,4.304,4.301,0,0,0,0,0,70.7,119.7969670881,0,41,Motors_Started,
300,2022-08-14 03:26:03,-34.9065728082811,-56.1630679808958,0,0,119.7969670881,119.7969670881,0.328084,0,0.159678154716,0.16553806304,13,4,0,119.7969670881,0,0,0.159678154716,0,0,0,291.4, -2.6, -2.3,0,0,364,364,364,1684,-100,-100,-100,100,300.1,0,0,98,4.304,4.301,0,0,0,0,0,70.7,119.7969670881,0,41,Motors_Started,
400,2022-08-14 03:26:03,-34.906572555361,-56.1630679177889,0,0,119.7969670881,119.7969670881,0.328084,0,0.25301181912,0.259728026684,13,4,0,119.7969670881,0,0,0.25301181912,0,0,0,291.3, -2.6, -2.1,0,0,364,364,364,1684,-100,-100,-100,100,300.2,0,0,98,4.304,4.301,0,0,0,0,0,70.7,119.7969670881,0,41,Motors_Started,
500,2022-08-14 03:26:03,-34.9065723539713,-56.1630678424805,0,-0.065616799999987,119.8625838881,119.7969670881,0.328084,0,0.32986221528,0.3365813756,13,4,0,119.7969670881,0,0,0.32986221528,0,0,0,291.3, -2.5, -2.5,0,0,364,364,364,1684,-100,-100,-100,100,300.3,0,0,98,4.304,4.301,0,0,0,0,0,70.7,119.7969670881,0,41,Motors_Started,
600,2022-08-14 03:26:03,-34.906572228656,-56.1630678434938,0,-0.065616799999987,119.8625838881,119.7969670881,0.328084,0,0.37363190172,0.38230316184,13,4,0,119.7969670881,0,0,0.37363190172,0,0,0,291.4, -2.4, -2.4,0,0,1024,1024,1024,1024,0,0,0,0,300.3,0,0,98,4.304,4.301,0,0,0,0,0,70.7,119.7969670881,0,41,Motors_Started,
700,2022-08-14 03:26:03,-34.9065720431437,-56.163067755117,-0.328084,-0.39370079999999,119.8625838881,119.4688830881,0.328084,0,0.44596786204,0.454970487,13,4,0,119.7969670881,0,0,0.44596786204,0,0,0,291.6, -2.3, -2.8,0,0,1024,1024,1024,1024,0,0,0,0,300.4,0,0,98,4.304,4.301,0,0,0,0,0,70.7,119.4688830881,-0.328084,41,Motors_Started,
800,2022-08-14 03:26:03,-34.9065718408909,-56.1630676608692,-0.328084,-0.39370079999999,119.8625838881,119.4688830881,0.328084,0,0.5247539538,0.53396655252,13,4,0,119.7969670881,0,0,0.5247539538,0,0,0,291.8, -2.2, -3.3,0,0,1024,1024,1024,1024,0,0,0,0,300.6,0,0,98,4.304,4.301,0,0,0,0,0,70.7,119.4688830881,-0.328084,41,Motors_Started,"Setting new Return-To-Home altitude to 60m (197 ft). Data Recorder File Index is 58. Setting new Maximum Flight Altitude to 120m (394 ft)"
900,2022-08-14 03:26:03,-34.9065716527275,-56.1630675787498,-0.328084,-0.39370079999999,119.8625838881,119.4688830881,0.328084,0.223694,0.59759844432,0.60688322152,13,4,0,119.7969670881,0,0.223694,0.59759844432,0.223694,0,0,292.3, -2.3, -3.6,0,0,1024,1024,1024,1024,0,0,0,0,301,0,0,98,4.304,4.301,0,0,0,0,0,70.7,119.4688830881,-0.328084,41,Motors_Started,
1000,2022-08-14 03:26:03,-34.9065714395055,-56.1630675048099,-0.328084,-0.4265092,119.8953922881,119.4688830881,0.328084,0.223694,0.67845474612,0.6877624892,13,4,8.615,119.7969670881,0,0.223694,0.67845474612,0.223694,0,0,292.8, -2.8, -3.6,0,0,1024,1024,1024,1024,0,0,0,0,301.5,0,0,98,4.304,4.301,0,0,0,0,0.923,70.7,119.4688830881,-0.328084,41,Motors_Started,
1100,2022-08-14 03:26:04,-34.9065714142972,-56.1630673727356,-0.328084,-0.4593176,119.9282006881,119.4688830881,0.328084,0.223694,0.69979661032,0.72833663748,13,4,8.615,119.7969670881,0,0.223694,0.69979661032,0.223694,0,0,293, -3.5, -3.4,0,0,1024,1024,1024,1024,0,0,0,0,301.8,0,0,98,4.304,4.301,0,0,0,0,0.923,70.7,119.4688830881,-0.328084,10,Assisted_Takeoff,
1200,2022-08-14 03:26:04,-34.906571130847,-56.1630673113628,-0.328084,-0.4593176,119.9282006881,119.4688830881,0.328084,0.223694,0.8034449076,0.83336944924,13,4,8.615,119.7969670881,0,0.223694,0.8034449076,0.223694,0,0,293.2, -4.5, -2.8,0,0,1024,1024,1024,1024,0,0,0,0,301.9,0,0,98,4.304,4.301,0,0,0,0,0.923,70.7,119.4688830881,-0.328084,10,Assisted_Takeoff,
1300,2022-08-14 03:26:04,-34.9065708953447,-56.1630672478485,-0.328084,-0.4593176,119.9282006881,119.4688830881,0.328084,0.223694,0.89096787628,0.92136813972,13,4,8.615,119.7969670881,0,0.223694,0.89096787628,0.223694,0,0,294, -5.3, -2.8,0,0,1024,1024,1024,1024,0,0,0,0,302.3,0,0,98,4.304,4.301,0,0,0,0,0.923,70.7,119.4688830881,-0.328084,10,Assisted_Takeoff,
1400,2022-08-14 03:26:04,-34.9065706408612,-56.1630671640994,-0.328084,-0.4593176,119.9282006881,119.4688830881,0.328084,0.223694,0.98701446728,1.01753940264,13,4,8.615,119.7969670881,0,0.223694,0.98701446728,0.223694,0,0,293.3, -6.3, -2.1,0,0,1024,1024,1024,1024,0,0,0,0,302.6,0,0,98,4.304,4.301,0,0,0,0,0.923,70.7,119.4688830881,-0.328084,10,Assisted_Takeoff,
1500,2022-08-14 03:26:04,-34.906570552782,-56.1630671326243,-0.328084,-0.4593176,119.9282006881,119.4688830881,0.328084,0.223694,1.02049215864,1.05102693652,13,4,8.615,119.7969670881,0,0.223694,1.02049215864,0.223694,0,0,293, -7.7, -2,0,0,1024,1024,1024,1024,0,0,0,0,302.3,0,0,98,4.304,4.301,0,0,0,0,0.923,70.7,119.4688830881,-0.328084,10,Assisted_Takeoff,
1600,2022-08-14 03:26:04,-34.906570279135,-56.1630671183441,-0.328084,-0.52493439999998,119.9938174881,119.4688830881,0.328084,0.223694,1.1171752326,1.15095804208,13,4,8.615,119.7969670881,0,0.223694,1.1171752326,0.223694,0,0,290.3, -8.4, -1.9,0,0,1024,1024,1024,1024,0,0,0,0,300.5,0,0,98,4.304,4.301,0,0,0,0,0.923,70.7,119.4688830881,-0.328084,10,Assisted_Takeoff,
1700,2022-08-14 03:26:04,-34.9065700649294,-56.1630671704718,-0.328084,-0.52493439999998,119.9938174881,119.4688830881,0.328084,0.3131716,1.18829728212,1.23065292652,13,4,8.615,119.7969670881,0,0.3131716,1.18829728212,0.223694,-0.223694,0,289.2, -9.4, -2.6,0,0,1024,1024,1024,1024,0,0,0,0,298.4,0,0,98,4.304,4.301,0,0,0,0,0.923,70.7,119.4688830881,-0.328084,10,Assisted_Takeoff,
1800,2022-08-14 03:26:04,-34.9065698201841,-56.1630673138282,-0.656168,-0.85301839999998,119.9938174881,119.1407990881,0.328084,0.4921268,1.26546591976,1.32971460948,13,4,8.615,119.7969670881,0,0.4921268,1.26546591976,0.223694,-0.447388,0,288.5, -10.7, -1.1,0,0,1024,1024,1024,1024,0,0,0,0,298,0,0,98,4.304,4.301,0,0,0,0,0.923,70.7,119.1407990881,-0.656168,10,Assisted_Takeoff,
1900,2022-08-14 03:26:04,-34.9065698309937,-56.1630675711134,-0.328084,-0.49212599999999,119.9610090881,119.4688830881,0.328084,0.3131716,1.2481627696,1.40679794528,13,4,8.615,119.7969670881,0,0.4921268,1.26546591976,0.223694,-0.223694,-0.223694,285.3, -5.3, 0.5,0,0,1024,1024,1024,1024,0,0,0,0,295.9,0,0,98,4.304,4.301,0,0,0,0,0.923,70.7,119.4688830881,-0.328084,6,P-GPS,
2000,2022-08-14 03:26:05,-34.9065695913454,-56.1630677180426,-0.328084,-0.49212599999999,119.9610090881,119.4688830881,0.328084,0.3131716,1.32950463572,1.50466212164,13,4,8.61,119.7969670881,0,0.4921268,1.32950463572,0.223694,-0.223694,0,282.7, -4.7, 0.7,0,0,1024,1024,1024,1024,0,0,0,0,293.1,0,4.3,98,4.308,4.309,0,0,0,0,1.341,70.7,119.4688830881,-0.328084,6,P-GPS,
2100,2022-08-14 03:26:05,-34.9065693461408,-56.1630677278518,-0.328084,-0.52493439999998,119.9938174881,119.4688830881,0.328084,0.447388,1.4182415152,1.59417327936,13,4,8.61,119.7969670881,0,0.4921268,1.4182415152,0.447388,0,0,283.6, -2.5, 5.6,0,0,1024,1024,1024,1024,0,0,0,0,272.4,-0.3,37.3,98,4.308,4.309,0,0,0,0,1.341,70.7,119.4688830881,-0.328084,6,P-GPS,
2200,2022-08-14 03:26:05,-34.906569024002,-56.1630677440542,-0.328084,-0.52493439999998,119.9938174881,119.4688830881,0.328084,0.447388,1.5348753772,1.71180451672,13,4,8.61,119.7969670881,0,0.4921268,1.5348753772,0.447388,0,0,285.4, -3, 7.8,0,0,1024,1024,1024,1024,0,0,0,0,281.9,-1.6,30.8,98,4.308,4.309,0,0,0,0,1.341,70.7,119.4688830881,-0.328084,6,P-GPS,
2300,2022-08-14 03:26:05,-34.9065689141895,-56.1630681534918,-0.328084,-0.52493439999998,119.9938174881,119.4688830881,0.328084,0.4921268,1.56953089012,1.8406988778,13,4,8.61,119.7969670881,0,0.4921268,1.56953089012,0.447388,-0.223694,0.223694,286.1, -6.1, 7.1,0,0,1024,1024,1024,1024,0,0,0,0,285.4,-1.9,27.2,98,4.308,4.309,0,0,0,0,1.341,70.7,119.4688830881,-0.328084,6,P-GPS,
2400,2022-08-14 03:26:05,-34.9065685704217,-56.163068403569,-0.328084,-0.52493439999998,119.9938174881,119.4688830881,0.328084,0.7158208,1.6963255136,1.9867454704,14,4,8.61,119.7969670881,0,0.7158208,1.6963255136,0.671082,-0.223694,0.223694,288.9, -10.3, 6.7,0,0,1024,1024,1024,1024,0,0,0,0,282.9,-0.5,28.1,98,4.308,4.309,0,0,0,0,1.341,70.7,119.4688830881,-0.328084,6,P-GPS,
2500,2022-08-14 03:26:05,-34.9065682513998,-56.1630686745704,-0.328084,-0.5577428,120.0266258881,119.4688830881,0.328084,0.8052984,1.81750005816,2.12859914948,14,4,8.61,119.7969670881,0,0.8052984,1.81750005816,0.671082,-0.447388,0,290.6, -14, 5.8,0,0,1024,1024,1024,1024,0,0,0,0,292.7,-0.2,2.6,98,4.308,4.309,0,0,0,0,1.341,70.7,119.4688830881,-0.328084,6,P-GPS,
2600,2022-08-14 03:26:05,-34.9065678980046,-56.1630689668617,-0.656168,-0.8858268,120.0266258881,119.1407990881,0.328084,0.8052984,1.9546916636,2.28439639856,14,4,8.61,119.7969670881,0,0.8052984,1.9546916636,0.671082,-0.447388,0.223694,291.3, -17.1, 6.3,0,0,1024,1024,1024,1024,0,0,0,0,292.5,0,-3.3,98,4.308,4.309,0,0,0,0,1.341,70.7,119.1407990881,-0.656168,6,P-GPS,
2700,2022-08-14 03:26:05,-34.9065675955537,-56.1630690797041,-0.656168,-0.8858268,120.0266258881,119.1407990881,0.328084,0.8052984,2.06841870136,2.39979666472,14,4,8.61,119.7969670881,0,0.8052984,2.06841870136,0.671082,-0.447388,0.223694,293, -21.1, 5.4,0,0,1024,1024,1024,1024,0,0,0,0,292.5,0,-3.1,98,4.308,4.309,0,0,0,0,1.341,70.7,119.1407990881,-0.656168,6,P-GPS,
2800,2022-08-14 03:26:05,-34.9065674709517,-56.1630688670669,-0.656168,-0.91863519999999,120.0594342881,119.1407990881,0.328084,0.7158208,2.10629271832,2.47799220528,14,4,8.61,119.7969670881,0,0.8052984,2.10629271832,0.671082,-0.223694,0.223694,293.9, -23.3, 4.7,0,0,1024,1024,1024,1024,0,0,0,0,292.5,0,-2.9,98,4.308,4.309,0,0,0,0,1.341,70.7,119.1407990881,-0.656168,6,P-GPS,
2900,2022-08-14 03:26:05,-34.9065670943186,-56.163069112276,-0.656168,-0.91863519999999,120.0594342881,119.1407990881,0.328084,0.671082,2.25104337912,2.63376648848,14,4,8.61,119.7969670881,0,0.8052984,2.25104337912,0.671082,0,0,295.7, -23.2, 3.5,0,0,1024,1024,1024,1024,0,0,0,0,292.5,0,-2.8,98,4.308,4.309,0,0,0,0,1.341,70.7,119.1407990881,-0.656168,6,P-GPS,
3000,2022-08-14 03:26:06,-34.9065667210272,-56.1630694663057,-0.656168,-0.91863519999999,120.0594342881,119.1407990881,0.328084,0.671082,2.40099417132,2.80630586408,14,4,8.61,119.7969670881,0,0.8052984,2.40099417132,0.671082,0,0,297, -22.5, 3.1,0,0,1024,1024,1024,1024,0,0,0,0,292.5,0,-2.6,98,4.146,4.129,0,0,0,0,1.341,70.7,119.1407990881,-0.656168,6,P-GPS,
3100,2022-08-14 03:26:06,-34.9065663765136,-56.1630698745942,-0.656168,-0.95144359999999,120.0922426881,119.1407990881,0.328084,0.7158208,2.54668971404,2.98158802192,14,4,8.61,119.7969670881,0,0.8052984,2.54668971404,0.671082,-0.223694,0,297.6, -22.7, 3.6,0,0,1024,1024,1024,1024,0,0,0,0,292.5,0,-2.4,98,4.146,4.129,0,0,0,0,1.341,70.7,119.1407990881,-0.656168,6,P-GPS,
3200,2022-08-14 03:26:06,-34.9065661936328,-56.1630710105709,-0.656168,-0.91863519999999,120.0594342881,119.1407990881,0.328084,0.4921268,2.6989502176,3.3279528624,14,4,8.61,119.7969670881,0,0.8052984,2.6989502176,0.447388,-0.223694,0.223694,296.9, -23.7, 4.5,0,0,1024,1024,1024,1024,0,0,0,0,292.5,0,-2.3,98,4.146,4.129,0,0,0,0,1.341,70.7,119.1407990881,-0.656168,6,P-GPS,
3300,2022-08-14 03:26:06,-34.9065659060691,-56.1630713855979,-0.656168,-0.91863519999999,120.0594342881,119.1407990881,0.328084,0.7158208,2.83478027444,3.4815945996,14,4,8.61,119.7969670881,0,0.8052984,2.83478027444,0.671082,-0.223694,0.223694,297.7, -26.9, 4.2,0,0,1024,1024,1024,1024,0,0,0,0,295.2,-0.2,-3.3,98,4.146,4.129,0,0,0,0,1.341,70.7,119.1407990881,-0.656168,6,P-GPS,
3400,2022-08-14 03:26:06,-34.9065654846604,-56.1630720253481,-0.656168,-0.91863519999999,120.0594342881,119.1407990881,0.328084,1.2974252,3.04699156732,3.7270998568,14,4,8.61,119.7969670881,0,1.2974252,3.04699156732,0.671082,-1.11847,-0.894776,321, 5.6, -14.2,0,0,1024,1024,1024,1024,0,0,0,0,312.9,3.7,1.1,98,4.146,4.129,0,0,0,0,1.341,70.7,119.1407990881,-0.656168,6,P-GPS,
3500,2022-08-14 03:26:06,-34.9065654119341,-56.1630728249078,-0.328084,-0.59055119999999,120.0594342881,119.4688830881,0.656168,1.006623,3.16907490456,3.9678150876,14,4,8.61,119.7969670881,0,1.2974252,3.16907490456,-0.447388,-0.894776,-2.013246,337.8, 32.9, 3.2,0,0,1024,1024,1024,1024,0,0,0,0,318.7,6.4,14.4,98,4.146,4.129,0,0,0,0,1.341,70.7,119.4688830881,-0.328084,6,P-GPS,
3600,2022-08-14 03:26:06,-34.9065661752183,-56.1630735574641,0,-0.16404199999999,119.9610090881,119.7969670881,0.984252,2.0356154,3.03194563508,4.3222114244,14,4,8.61,119.7969670881,0,2.0356154,3.16907490456,-2.013246,-0.223694,-2.684328,344.5, 29.5, 1.8,0,0,1024,1024,1024,1024,0,0,0,0,322.9,11.8,14.1,98,4.146,4.129,0,0,0,0,1.341,70.7,119.7969670881,0,6,P-GPS,
3700,2022-08-14 03:26:06,-34.9065672478418,-56.1630737406528,0.328084,0.1968504,119.9282006881,120.1250510881,1.312336,3.131716,2.74131242368,4.717355794,14,4,8.61,120.1250510881,0.328084,3.131716,3.16907490456,-3.131716,0,-2.908022,335.9, 18.3, -5.6,0,0,1024,1024,1024,1024,0,0,0,0,316.6,5.9,4.6,98,4.146,4.129,0,0,0,0,1.341,70.7,120.1250510881,0.328084,6,P-GPS,
3800,2022-08-14 03:26:06,-34.9065686717598,-56.163073833438,0.656168,0.62335960000001,119.8297754881,120.4531350881,1.64042,3.802798,2.36969495772,5.2376314012,14,4,8.61,120.4531350881,0.656168,3.802798,3.16907490456,-3.802798,0,-2.908022,313.6, 2.1, 0.7,0,0,1024,1024,1024,1024,0,0,0,0,294.5,0,-1.5,98,4.146,4.129,0,0,0,0,1.341,70.7,120.4531350881,0.656168,6,P-GPS,
3900,2022-08-14 03:26:06,-34.9065699448089,-56.1630741792568,1.312336,1.312336,119.7969670881,121.1093030881,3.608924,3.579104,2.15687670944,5.7134844348,14,4,8.61,121.1093030881,1.312336,3.802798,3.16907490456,-3.579104,0,-2.460634,289.7, -0.7, 13.9,0,0,1024,1024,1024,1024,0,0,0,0,292.5,0,-1.5,98,4.146,4.129,0,0,0,0,1.341,70.7,121.1093030881,1.312336,6,P-GPS,
4000,2022-08-14 03:26:07,-34.9065712567192,-56.1630753139799,1.64042,1.7388452,119.6985418881,121.4373870881,3.937008,2.908022,2.25253288048,6.3003282856,14,4,8.377,121.4373870881,1.64042,3.802798,3.16907490456,-2.908022,-0.223694,-1.565858,278.4, -0.7, 16.4,0,0,1024,1024,1024,1024,0,0,0,0,292.5,0,-1.4,98,4.044,4.065,0,0,0,0,3.49,70.7,121.4373870881,1.64042,6,P-GPS,
4100,2022-08-14 03:26:07,-34.9065722776819,-56.1630761430404,1.64042,1.804462,119.6329250881,121.4373870881,4.265092,2.23694,2.40860900096,6.74786767,14,4,8.377,121.4373870881,1.64042,3.802798,3.16907490456,-2.23694,-0.223694,-0.894776,273.8, 0.6, 18.3,0,0,1024,1024,1024,1024,0,0,0,0,292.5,0,-1.4,98,4.044,4.065,0,0,0,0,3.49,70.7,121.4373870881,1.64042,6,P-GPS,
4200,2022-08-14 03:26:07,-34.9065731742706,-56.1630770974267,1.968504,2.1981628,119.5673082881,121.7654710881,4.265092,1.5882274,2.66975730328,7.182086844,15,4,8.377,121.7654710881,1.968504,3.802798,3.16907490456,-1.565858,-0.223694,-0.447388,273, 1.1, 16,0,0,1024,1024,1024,1024,0,0,0,0,292.5,0,-1.4,98,4.044,4.065,0,0,0,0,3.49,70.7,121.7654710881,1.968504,6,P-GPS,
4300,2022-08-14 03:26:07,-34.9065738101096,-56.1630777673984,1.968504,2.2637796,119.5016914881,121.7654710881,4.265092,1.2079476,2.8783465488,7.488681342,15,4,8.377,121.7654710881,1.968504,3.802798,3.16907490456,-1.11847,-0.447388,0,273.4, 1.5, 11.8,0,0,1024,1024,1024,1024,0,0,0,0,292.5,0,-1.4,98,4.044,4.065,0,0,0,0,3.49,70.7,121.7654710881,1.968504,6,P-GPS,
4400,2022-08-14 03:26:07,-34.9065742961187,-56.1630783826621,1.968504,2.2637796,119.5016914881,121.7654710881,4.593176,0.8052984,3.07958343188,7.7442915864,15,4,8.377,121.7654710881,1.968504,3.802798,3.16907490456,-0.671082,-0.447388,0,274.7, 1.8, 8.2,0,0,1024,1024,1024,1024,0,0,0,0,292.5,0,-1.3,98,4.044,4.065,0,0,0,0,3.49,70.7,121.7654710881,1.968504,6,P-GPS,
4500,2022-08-14 03:26:07,-34.9065741818866,-56.163079031229,1.968504,2.296588,119.4688830881,121.7654710881,4.265092,0.8052984,3.26738199432,7.942749598,15,4,8.377,121.7654710881,1.968504,3.802798,3.26738199432,-0.671082,-0.447388,0.223694,276.2, 2.4, 6.3,0,0,1024,1024,1024,1024,0,0,0,0,292.5,0,-1.2,98,4.044,4.065,0,0,0,0,3.49,70.7,121.7654710881,1.968504,6,P-GPS,
4600,2022-08-14 03:26:07,-34.9065738396073,-56.1630797207564,1.968504,2.3293964,119.4360746881,121.7654710881,4.265092,0.6263432,3.46210641,8.1839241464,14,4,8.377,121.7654710881,1.968504,3.802798,3.46210641,-0.447388,-0.447388,0.447388,277.2, 2.7, 4.4,0,0,1024,1024,1024,1024,0,0,0,0,292.5,0,-1.1,98,4.044,4.065,0,0,0,0,3.49,70.7,121.7654710881,1.968504,6,P-GPS,
4700,2022-08-14 03:26:07,-34.9065735730668,-56.1630802423417,1.64042,2.0013124,119.4360746881,121.4373870881,4.265092,0.4921268,3.6130578584,8.3678152284,14,4,8.377,121.7654710881,1.968504,3.802798,3.6130578584,-0.223694,-0.447388,0.447388,277.8, 3.2, 3.4,0,0,1024,1024,1024,1024,0,0,0,0,292.5,0,-1.1,98,4.044,4.065,0,0,0,0,3.49,70.7,121.4373870881,1.64042,6,P-GPS,
4800,2022-08-14 03:26:07,-34.9065733094478,-56.1630807240947,1.64042,2.0013124,119.4360746881,121.4373870881,4.265092,0.4921268,3.7549869968,8.5411091972,14,4,8.377,121.7654710881,1.968504,3.802798,3.7549869968,-0.223694,-0.447388,0.671082,278.4, 3.2, 2.5,0,0,1024,1024,1024,1024,0,0,0,0,292.5,0,-1,98,4.044,4.065,0,0,0,0,3.49,70.7,121.4373870881,1.64042,6,P-GPS,
4900,2022-08-14 03:26:07,-34.9065725651675,-56.1630814590746,1.312336,1.6732284,119.4360746881,121.1093030881,3.937008,0.3131716,3.9818570828,8.8905186572,14,4,8.377,121.7654710881,1.968504,3.802798,3.9818570828,-0.223694,-0.223694,0.671082,278.8, 3.3, 2.3,0,0,1024,1024,1024,1024,0,0,0,0,292.5,0,-0.9,98,4.044,4.065,0,0,0,0,3.49,70.7,121.1093030881,1.312336,6,P-GPS,"Punto de origen actualizado. Altitud de RPO establecida en 60m (Code: 3000001)"
5000,2022-08-14 03:26:08,-34.9065723399764,-56.1630820375825,1.312336,1.64042,119.4688830881,121.1093030881,3.937008,0.3131716,4.1601379284,9.0821197132,14,4,7.939,121.7654710881,1.968504,3.802798,4.1601379284,-0.223694,-0.223694,0.671082,279.2, 3.2, 2.1,0,0,1024,1024,1024,1024,0,0,0,0,292.5,0,-0.9,98,4.215,4.211,0,0,0,0,11.698,70.7,121.1093030881,1.312336,6,P-GPS,
5100,2022-08-14 03:26:08,-34.9065722468099,-56.1630825083929,1.312336,1.6732284,119.4360746881,121.1093030881,3.937008,0.3131716,4.3032809776,9.227034416,14,4,7.939,121.7654710881,1.968504,3.802798,4.3032809776,-0.223694,-0.223694,0.671082,279.6, 3.1, 2,0,0,1024,1024,1024,1024,0,0,0,0,292.5,0,-0.8,98,4.215,4.211,0,0,0,0,11.698,70.7,121.1093030881,1.312336,6,P-GPS,
5200,2022-08-14 03:26:08,-34.9065721635182,-56.1630829612458,0.984252,1.3451444,119.4360746881,120.7812190881,3.608924,0.3131716,4.4408465988,9.3659123732,15,4,7.939,121.7654710881,1.968504,3.802798,4.4408465988,-0.223694,-0.223694,0.447388,279.8, 3.3, 2.4,0,0,1024,1024,1024,1024,0,0,0,0,292.5,0,-0.8,98,4.215,4.211,0,0,0,0,11.698,70.7,120.7812190881,0.984252,6,P-GPS,
5300,2022-08-14 03:26:08,-34.9065727690942,-56.1630830650939,0.984252,1.3779528,119.4032662881,120.7812190881,3.608924,0.3131716,4.4582678592,9.5890094932,15,4,7.939,121.7654710881,1.968504,3.802798,4.4582678592,-0.223694,-0.223694,0.447388,280.3, 3.5, 3.4,0,0,1024,1024,1024,1024,0,0,0,0,292.5,0,-0.7,98,4.215,4.211,0,0,0,0,11.698,70.7,120.7812190881,0.984252,6,P-GPS,
5400,2022-08-14 03:26:08,-34.9065727705077,-56.1630833346902,0.656168,1.0498688,119.4032662881,120.4531350881,3.608924,0.223694,4.538878098,9.6696853488,15,4,7.939,121.7654710881,1.968504,3.802798,4.538878098,0,-0.223694,0.447388,280.7, 3.3, 3.2,0,0,1024,1024,1024,1024,0,0,0,0,292.5,0,-0.7,98,4.215,4.211,0,0,0,0,11.698,70.7,120.4531350881,0.656168,6,P-GPS,
5500,2022-08-14 03:26:08,-34.9065728428367,-56.1630835787346,0.656168,1.0826772,119.3704578881,120.4531350881,3.28084,0.223694,4.6109909612,9.7473428316,15,4,7.939,121.7654710881,1.968504,3.802798,4.6109909612,0,0,0.223694,280.9, 3.6, 2.6,0,0,1024,1024,1024,1024,0,0,0,0,292.5,0,-0.6,98,4.215,4.211,0,0,0,0,11.698,70.7,120.4531350881,0.656168,6,P-GPS,
5600,2022-08-14 03:26:08,-34.9065729036754,-56.1630838226484,0.656168,1.0826772,119.3704578881,120.4531350881,3.28084,0,4.6833334832,9.8236223616,15,4,7.939,121.7654710881,1.968504,3.802798,4.6833334832,0,0,0.223694,281, 3.8, 2.3,0,0,1024,1024,1024,1024,0,0,0,0,292.5,0,-0.6,98,4.215,4.211,0,0,0,0,11.698,70.7,120.4531350881,0.656168,6,P-GPS,
5700,2022-08-14 03:26:08,-34.9065738707529,-56.1630837382987,0.328084,0.7874016,119.3376494881,120.1250510881,3.28084,0,4.6628282332,10.1773625304,15,4,7.939,121.7654710881,1.968504,3.802798,4.6833334832,0,0,0.223694,281.1, 3.4, 2.1,0,0,1024,1024,1024,1024,0,0,0,0,292.5,0,-0.6,98,4.215,4.211,0,0,0,0,11.698,70.7,120.1250510881,0.328084,6,P-GPS,
5800,2022-08-14 03:26:08,-34.9065739419354,-56.163083889819,0.328084,0.7874016,119.3376494881,120.1250510881,3.28084,0,4.7095145864,10.2295935032,15,4,7.939,121.7654710881,1.968504,3.802798,4.7095145864,0,0,0.223694,281.3, 3.3, 2.2,0,0,1024,1024,1024,1024,0,0,0,0,292.5,0,-0.5,98,4.215,4.211,0,0,0,0,11.698,70.7,120.1250510881,0.328084,6,P-GPS,
5900,2022-08-14 03:26:08,-34.9065739481137,-56.1630841153106,0.328084,0.7874016,119.3376494881,120.1250510881,3.28084,0,4.7770014652,10.2971131904,15,4,7.939,121.7654710881,1.968504,3.802798,4.7770014652,0,0,0.223694,281.4, 3.5, 2.4,0,0,1024,1024,1024,1024,0,0,0,0,292.5,0,-0.5,98,4.215,4.211,0,0,0,0,11.698,70.7,120.1250510881,0.328084,6,P-GPS,
6000,2022-08-14 03:26:08,-34.9065739007032,-56.1630843659989,0.328084,0.7874016,119.3376494881,120.1250510881,3.28084,0,4.8509515988,10.3740816968,14,4,8.432,121.7654710881,1.968504,3.802798,4.8509515988,0,0,0.223694,281.5, 3.4, 2.5,0,0,1024,1024,1024,1024,0,0,0,0,292.5,0,-0.5,98,4.195,4.191,0,0,0,0,4.045,70.88,120.1250510881,0.328084,6,P-GPS,
6100,2022-08-14 03:26:09,-34.9065739395156,-56.1630844988253,0,0.4593176,119.3376494881,119.7969670881,2.952756,0,4.891404356,10.4162732992,14,4,8.432,121.7654710881,1.968504,3.802798,4.891404356,0,0,0,281.7, 3.2, 1.8,0,0,1024,1024,1024,1024,0,0,0,0,292.5,0,-0.4,98,4.195,4.191,0,0,0,0,4.045,70.88,119.7969670881,0,6,P-GPS,
6200,2022-08-14 03:26:09,-34.9065745157861,-56.1630846027673,0,0.55774280000001,119.2392242881,119.7969670881,2.952756,0,4.9381891344,10.6288061144,15,4,8.432,121.7654710881,1.968504,3.802798,4.9381891344,0,0,0,281.8, 3.1, 2.2,0,0,1024,1024,1024,1024,0,0,0,0,292.5,0,-0.4,98,4.195,4.191,0,0,0,0,4.045,70.88,119.7969670881,0,6,P-GPS,
6300,2022-08-14 03:26:09,-34.906574624032,-56.1630847553689,0,0.55774280000001,119.2392242881,119.7969670881,2.952756,0,4.9875657764,10.6891735704,15,4,8.432,121.7654710881,1.968504,3.802798,4.9875657764,0,0,0,281.9, 2.6, 2,0,0,1024,1024,1024,1024,0,0,0,0,292.5,0,-0.4,98,4.195,4.191,0,0,0,0,4.045,70.88,119.7969670881,0,6,P-GPS,
6400,2022-08-14 03:26:09,-34.9065747257283,-56.1630849332664,0,0.55774280000001,119.2392242881,119.7969670881,2.952756,0,5.0444227336,10.7540685856,14,4,8.432,121.7654710881,1.968504,3.802798,5.0444227336,0,0,0,282, 2.9, 2.3,0,0,1024,1024,1024,1024,0,0,0,0,292.5,0,-0.3,98,4.195,4.191,0,0,0,0,4.045,70.88,119.7969670881,0,6,P-GPS,
6500,2022-08-14 03:26:09,-34.9065747675468,-56.1630850855232,0,0.55774280000001,119.2392242881,119.7969670881,2.952756,0,5.091371554,10.8021000832,14,4,8.432,121.7654710881,1.968504,3.802798,5.091371554,0,0,0,282.2, 3.2, 2.2,0,0,1024,1024,1024,1024,0,0,0,0,292.5,0,-0.3,98,4.195,4.191,0,0,0,0,4.045,70.88,119.7969670881,0,6,P-GPS,
6600,2022-08-14 03:26:09,-34.9065753249925,-56.1630853559344,0,0.55774280000001,119.2392242881,119.7969670881,2.952756,0,5.197998854,11.020997728,15,4,8.432,121.7654710881,1.968504,3.802798,5.197998854,0,0,0,282.3, 3.2, 2.4,0,0,1024,1024,1024,1024,0,0,0,0,292.5,0,-0.3,98,4.195,4.191,0,0,0,0,4.045,70.88,119.7969670881,0,6,P-GPS,
6700,2022-08-14 03:26:09,-34.9065753029498,-56.163085463423,0,0.55774280000001,119.2392242881,119.7969670881,2.952756,0.223694,5.2286090912,11.0541670204,15,4,8.432,121.7654710881,1.968504,3.802798,5.2286090912,0.223694,0,0,282.3, 3.2, 1.1,0,0,1024,1024,1024,1024,0,0,0,0,292.5,0,-0.3,98,4.195,4.191,0,0,0,0,4.045,70.88,119.7969670881,0,6,P-GPS,
6800,2022-08-14 03:26:09,-34.9065752651341,-56.1630855609823,0,0.5905512,119.2064158881,119.7969670881,2.952756,0,5.2555119792,11.086450486,14,4,8.432,121.7654710881,1.968504,3.802798,5.2555119792,0,0,0,282.3, 3.1, 1,0,0,1024,1024,1024,1024,0,0,0,0,292.5,0,-0.3,98,4.195,4.191,0,0,0,0,4.045,70.88,119.7969670881,0,6,P-GPS,
6900,2022-08-14 03:26:09,-34.9065752533735,-56.1630856230446,0,0.5905512,119.2064158881,119.7969670881,2.952756,0,5.273294132,11.1055121664,14,4,8.432,121.7654710881,1.968504,3.802798,5.273294132,0,0,0,282.3, 3, 1.6,0,0,1024,1024,1024,1024,0,0,0,0,292.5,0,-0.2,98,4.195,4.191,0,0,0,0,4.045,70.88,119.7969670881,0,6,P-GPS,
7000,2022-08-14 03:26:09,-34.9065755371201,-56.1630855920709,0,0.62335960000002,119.1736074881,119.7969670881,2.952756,0.223694,5.2797245784,11.2094491776,14,4,8.388,121.7654710881,1.968504,3.802798,5.2797245784,0.223694,0,0,282.4, 3.2, 2.1,0,0,1024,1024,1024,1024,0,0,0,0,292.5,0,-0.2,98,4.199,4.2,0,0,0,0,3.936,70.88,119.7969670881,0,6,P-GPS,
7100,2022-08-14 03:26:10,-34.9065755224771,-56.1630856428353,0,0.62335960000002,119.1736074881,119.7969670881,2.952756,0.223694,5.2938649988,11.2255252936,14,4,8.388,121.7654710881,1.968504,3.802798,5.2938649988,0.223694,0,0,282.5, 3.4, 1.7,0,0,1024,1024,1024,1024,0,0,0,0,292.5,0,-0.2,98,4.199,4.2,0,0,0,0,3.936,70.88,119.7969670881,0,6,P-GPS,
7200,2022-08-14 03:26:10,-34.9065754734023,-56.1630856906696,0,0.5905512,119.2064158881,119.7969670881,2.952756,0.223694,5.3052167052,11.2484583652,14,4,8.388,121.7654710881,1.968504,3.802798,5.3052167052,0.223694,0,0,282.5, 3.9, 1,0,0,1024,1024,1024,1024,0,0,0,0,292.5,0,-0.2,98,4.199,4.2,0,0,0,0,3.936,70.88,119.7969670881,0,6,P-GPS,
7300,2022-08-14 03:26:10,-34.9065754513109,-56.1630857036649,0,0.5905512,119.2064158881,119.7969670881,2.952756,0.223694,5.3078085688,11.2574150584,14,4,8.388,121.7654710881,1.968504,3.802798,5.3078085688,0.223694,0,0,282.6, 4.1, 0,0,0,1024,1024,1024,1024,0,0,0,0,292.5,0,-0.2,98,4.199,4.2,0,0,0,0,3.936,70.88,119.7969670881,0,6,P-GPS,
7400,2022-08-14 03:26:10,-34.9065758683977,-56.1630855942019,0,0.62335960000002,119.1736074881,119.7969670881,2.952756,0.223694,5.3010828468,11.413058108,14,4,8.388,121.7654710881,1.968504,3.802798,5.3078085688,0.223694,0,0,282.6, 4, 0,0,0,1024,1024,1024,1024,0,0,0,0,292.5,0,-0.2,98,4.199,4.2,0,0,0,0,3.936,70.88,119.7969670881,0,6,P-GPS,
7500,2022-08-14 03:26:10,-34.9065758917235,-56.1630855827056,0,0.62335960000002,119.1736074881,119.7969670881,2.952756,0.223694,5.2992783848,11.42224446,14,4,8.388,121.7654710881,1.968504,3.802798,5.3078085688,0.223694,0,0,282.7, 3.8, 0.7,0,0,1024,1024,1024,1024,0,0,0,0,292.5,0,-0.2,98,4.199,4.2,0,0,0,0,3.936,70.88,119.7969670881,0,6,P-GPS,
7600,2022-08-14 03:26:10,-34.906575917935,-56.1630855529229,0,0.62335960000002,119.1736074881,119.7969670881,2.952756,0.223694,5.2922901956,11.4353022032,14,4,8.388,121.7654710881,1.968504,3.802798,5.3078085688,0.223694,0,0,282.6, 3.3, 0.5,0,0,1024,1024,1024,1024,0,0,0,0,292.5,0,-0.1,98,4.199,4.2,0,0,0,0,3.936,70.88,119.7969670881,0,6,P-GPS,
7700,2022-08-14 03:26:10,-34.9065759647397,-56.1630855131219,0,0.62335960000002,119.1736074881,119.7969670881,2.624672,0,5.28379282,11.4561355372,14,4,8.388,121.7654710881,1.968504,3.802798,5.3078085688,0,0,0,282.7, 2.6, 0.7,0,0,1024,1024,1024,1024,0,0,0,0,292.5,0,-0.1,98,4.199,4.2,0,0,0,0,3.936,70.88,119.7969670881,0,6,P-GPS,
7800,2022-08-14 03:26:10,-34.9065760097206,-56.1630854534728,0,0.5905512,119.2064158881,119.7969670881,2.624672,0,5.2694227408,11.4803809448,14,4,8.388,121.7654710881,1.968504,3.802798,5.3078085688,0,0,0,282.7, 1.8, 1.5,0,0,1024,1024,1024,1024,0,0,0,0,292.5,0,-0.1,98,4.199,4.2,0,0,0,0,3.936,70.88,119.7969670881,0,6,P-GPS,
7900,2022-08-14 03:26:10,-34.9065762249357,-56.1630854787793,0,0.5905512,119.2064158881,119.7969670881,2.624672,0,5.2925854712,11.5592523384,14,4,8.388,121.7654710881,1.968504,3.802798,5.3078085688,0,0,0,282.7, 1.4, 2.4,0,0,1024,1024,1024,1024,0,0,0,0,292.5,0,-0.1,98,4.199,4.2,0,0,0,0,3.936,70.88,119.7969670881,0,6,P-GPS,
8000,2022-08-14 03:26:11,-34.9065764853011,-56.1630855306249,0,0.62335960000002,119.1736074881,119.7969670881,2.624672,0,5.3282153936,11.655512184,14,4,8.394,121.7654710881,1.968504,3.802798,5.3282153936,0,0,0,282.8, 1.5, 2.7,0,0,1024,1024,1024,1024,0,0,0,0,292.5,0,-0.1,98,4.196,4.195,0,0,0,0,3.955,70.88,119.7969670881,0,6,P-GPS,
8100,2022-08-14 03:26:11,-34.9065765676743,-56.1630855140308,0,0.65616800000001,119.1407990881,119.7969670881,2.624672,0,5.3301838976,11.6859911876,14,4,8.394,121.7654710881,1.968504,3.802798,5.3301838976,0,0,0,283, 1.2, 2.3,0,0,1024,1024,1024,1024,0,0,0,0,292.5,0,-0.1,98,4.196,4.195,0,0,0,0,3.955,70.88,119.7969670881,0,6,P-GPS,
8200,2022-08-14 03:26:11,-34.9065765699411,-56.1630854726838,0,0.65616800000001,119.1407990881,119.7969670881,2.624672,0,5.3183400652,11.6983927628,14,4,8.394,121.7654710881,1.968504,3.802798,5.3301838976,0,0,0,282.9, 1.4, 1.6,0,0,1024,1024,1024,1024,0,0,0,0,292.5,0,-0.1,98,4.196,4.195,0,0,0,0,3.955,70.88,119.7969670881,0,6,P-GPS,
8300,2022-08-14 03:26:11,-34.9065768198389,-56.1630854899361,0,0.65616800000001,119.1407990881,119.7969670881,2.624672,0,5.3450789112,11.78969854,14,4,8.394,121.7654710881,1.968504,3.802798,5.3450789112,0,0,0,282.9, 1.5, 2.1,0,0,1024,1024,1024,1024,0,0,0,0,292.5,0,-0.1,98,4.196,4.195,0,0,0,0,3.955,70.88,119.7969670881,0,6,P-GPS,
8400,2022-08-14 03:26:11,-34.9065768245516,-56.1630854853396,0,0.65616800000001,119.1407990881,119.7969670881,2.624672,0.223694,5.344160276,11.7918967028,13,4,8.394,121.7654710881,1.968504,3.802798,5.3450789112,0.223694,0,0,282.9, 1.8, 2.1,0,0,1024,1024,1024,1024,0,0,0,0,292.5,0,-0.1,98,4.196,4.195,0,0,0,0,3.955,70.88,119.7969670881,0,6,P-GPS,
8500,2022-08-14 03:26:11,-34.9065767768447,-56.1630855469945,0,0.65616800000001,119.1407990881,119.7969670881,2.624672,0.223694,5.357775762,11.817257596,13,4,8.394,121.7654710881,1.968504,3.802798,5.357775762,0.223694,0,0,283.1, 2.3, 1.3,0,0,1024,1024,1024,1024,0,0,0,0,292.5,0,-0.1,98,4.196,4.195,0,0,0,0,3.955,70.88,119.7969670881,0,6,P-GPS,
8600,2022-08-14 03:26:11,-34.9065766973311,-56.1630856322061,0,0.65616800000001,119.1407990881,119.7969670881,2.624672,0.223694,5.3755907232,11.8558730828,13,4,8.394,121.7654710881,1.968504,3.802798,5.3755907232,0.223694,0,0,283, 2.2, 1,0,0,1024,1024,1024,1024,0,0,0,0,292.5,0,-0.1,98,4.196,4.195,0,0,0,0,3.955,70.88,119.7969670881,0,6,P-GPS,
8700,2022-08-14 03:26:11,-34.906576759974,-56.1630859926499,0,0.65616800000001,119.1407990881,119.7969670881,2.624672,0.223694,5.4857941388,11.9661421152,13,4,8.394,121.7654710881,1.968504,3.802798,5.4857941388,0.223694,0,0,282.9, 2.2, 1.3,0,0,1024,1024,1024,1024,0,0,0,0,292.5,0,-0.1,98,4.196,4.195,0,0,0,0,3.955,70.88,119.7969670881,0,6,P-GPS,
8800,2022-08-14 03:26:11,-34.906576694338,-56.1630861128413,0,0.65616800000001,119.1407990881,119.7969670881,2.624672,0.223694,5.5151904652,12.009350778,13,4,8.394,121.7654710881,1.968504,3.802798,5.5151904652,0.223694,0,0,283.2, 2.5, 1.9,0,0,1024,1024,1024,1024,0,0,0,0,292.5,0,0,98,4.196,4.195,0,0,0,0,3.955,70.88,119.7969670881,0,6,P-GPS,
8900,2022-08-14 03:26:11,-34.906576615834,-56.163086265375,0,0.65616800000001,119.1407990881,119.7969670881,2.624672,0.223694,5.553149784,12.0632221708,13,4,8.394,121.7654710881,1.968504,3.802798,5.553149784,0.223694,0,0,283.4, 2.6, 2,0,0,1024,1024,1024,1024,0,0,0,0,292.5,0,0,98,4.196,4.195,0,0,0,0,3.955,70.88,119.7969670881,0,6,P-GPS,
9000,2022-08-14 03:26:12,-34.9065765073405,-56.1630864208179,0,0.65616800000001,119.1407990881,119.7969670881,2.624672,0.223694,5.5898623836,12.1242786032,13,4,8.395,121.7654710881,1.968504,3.802798,5.5898623836,0.223694,0,0,283.1, 2.6, 0.7,0,0,1024,1024,1024,1024,0,0,0,0,292.5,0,0,98,4.196,4.194,0,0,0,0,3.821,70.88,119.7969670881,0,6,P-GPS,
9100,2022-08-14 03:26:12,-34.9065765878377,-56.1630868587847,0,0.6889764,119.1079906881,119.7969670881,2.624672,0.223694,5.7241471648,12.2585961928,13,4,8.395,121.7654710881,1.968504,3.802798,5.7241471648,0.223694,0,0,282.9, 1.8, 1,0,0,1024,1024,1024,1024,0,0,0,0,292.5,0,0,98,4.196,4.194,0,0,0,0,3.821,70.88,119.7969670881,0,6,P-GPS,
9200,2022-08-14 03:26:12,-34.9065765152906,-56.1630870267164,0,0.6889764,119.1079906881,119.7969670881,2.624672,0.223694,5.7676511032,12.3153875332,13,4,8.395,121.7654710881,1.968504,3.802798,5.7676511032,0.223694,0,0,282.9, 1.9, 1.2,0,0,1024,1024,1024,1024,0,0,0,0,292.5,0,0,98,4.196,4.194,0,0,0,0,3.821,70.88,119.7969670881,0,6,P-GPS,
9300,2022-08-14 03:26:12,-34.9065764633139,-56.1630871729508,0,0.65616800000001,119.1407990881,119.7969670881,2.624672,0.223694,5.8065618656,12.3630581384,13,4,8.395,121.7654710881,1.968504,3.802798,5.8065618656,0.223694,0,0,282.7, 1.8, 1,0,0,1024,1024,1024,1024,0,0,0,0,292.5,0,0,98,4.196,4.194,0,0,0,0,3.821,70.88,119.7969670881,0,6,P-GPS,
9400,2022-08-14 03:26:12,-34.906576415151,-56.1630873186316,0,0.65616800000001,119.1407990881,119.7969670881,2.624672,0.223694,5.8457022868,12.4100725756,13,4,8.395,121.7654710881,1.968504,3.802798,5.8457022868,0.223694,0,0,282.6, 1.5, 1.6,0,0,1024,1024,1024,1096,0,0,0,11,292.5,0,0,98,4.196,4.194,0,0,0,0,3.821,70.88,119.7969670881,0,6,P-GPS,
9500,2022-08-14 03:26:12,-34.9065763902782,-56.1630874526907,0,0.65616800000001,119.1407990881,119.7969670881,2.624672,0.223694,5.883202288,12.4511815008,13,4,8.395,121.7654710881,1.968504,3.802798,5.883202288,0.223694,0,0,282.7, 1.4, 2.2,0,0,1024,1024,1024,1096,0,0,0,11,292.5,0,0,98,4.196,4.194,0,0,0,0,3.821,70.88,119.7969670881,0,6,P-GPS,
9600,2022-08-14 03:26:12,-34.9065766021681,-56.1630877058235,0,0.7217848,119.0751822881,119.7969670881,2.624672,0.223694,5.9729988788,12.5594164124,13,4,8.395,121.7654710881,1.968504,3.802798,5.9729988788,0.223694,0,0,282.8, 1.8, 2.3,0,0,1024,1024,1024,1684,0,0,0,100,292.7,0,0,98,4.196,4.194,0,0,0,0,3.821,70.88,119.7969670881,0,6,P-GPS,
9700,2022-08-14 03:26:12,-34.9065765619813,-56.1630878182167,0,0.7217848,119.0751822881,119.7969670881,2.624672,0.223694,6.0028873312,12.5960962036,13,4,8.395,121.7654710881,1.968504,3.802798,6.0028873312,0.223694,0,0,283.6, 2.1, 1.3,0,0,1024,1024,1024,1684,0,0,0,100,295.1,0,0,98,4.196,4.194,0,0,0,0,3.821,70.88,119.7969670881,0,6,P-GPS,
9800,2022-08-14 03:26:12,-34.9065765177528,-56.1630879347205,0,0.7217848,119.0751822881,119.7969670881,2.624672,0.223694,6.033792844,12.63451484,13,4,8.395,121.7654710881,1.968504,3.802798,6.033792844,0.223694,0,0,287.4, 1.9, 1.1,0,0,1024,1024,1024,1242,0,0,0,33,299.6,0,0,98,4.196,4.194,0,0,0,0,3.821,70.88,119.7969670881,0,6,P-GPS,
9900,2022-08-14 03:26:12,-34.9065764433036,-56.1630880228049,0,0.6889764,119.1079906881,119.7969670881,2.624672,0.223694,6.0542652856,12.6723757336,13,4,8.395,121.7654710881,1.968504,3.802798,6.0542652856,0.223694,0,0,291.7, 2.3, 1.3,0,0,1024,1024,1024,1024,0,0,0,0,303,0,0,98,4.196,4.194,0,0,0,0,3.821,70.88,119.7969670881,0,6,P-GPS,
10000,2022-08-14 03:26:13,-34.9065764891443,-56.1630879698415,0,0.6889764,119.1079906881,119.7969670881,2.624672,0.223694,6.0420277524,12.6954072304,13,4,8.395,121.7654710881,1.968504,3.802798,6.0542652856,0.223694,0,0,293.9, 2.3, 2.2,0,0,1024,1024,1024,1024,0,0,0,0,304.1,0,0,98,4.196,4.195,0,0,0,0,3.775,71.06,119.7969670881,0,6,P-GPS,
10100,2022-08-14 03:26:13,-34.906576379778,-56.1630881339132,0,0.6889764,119.1079906881,119.7969670881,2.624672,0.223694,6.0824477012,12.7586618256,13,4,8.395,121.7654710881,1.968504,3.802798,6.0824477012,0.223694,0,0,294.5, 2.5, 1.8,0,0,1024,1024,1024,1024,0,0,0,0,304.4,0,0,98,4.196,4.195,0,0,0,0,3.775,71.06,119.7969670881,0,6,P-GPS,
10200,2022-08-14 03:26:13,-34.9065762488641,-56.1630883222728,0.328084,1.0170604,119.1079906881,120.1250510881,2.624672,0.223694,6.1290028208,12.8325463424,13,4,8.395,121.7654710881,1.968504,3.802798,6.1290028208,0.223694,0,0,294.8, 2.2, 1.6,0,0,1024,1024,1024,1024,0,0,0,0,304.5,0,0,98,4.196,4.195,0,0,0,0,3.775,71.06,120.1250510881,0.328084,6,P-GPS,
10300,2022-08-14 03:26:13,-34.9065761075021,-56.1630884845791,0.328084,1.0170604,119.1079906881,120.1250510881,2.624672,0.223694,6.1677167328,12.903379678,13,4,8.395,121.7654710881,1.968504,3.802798,6.1677167328,0.223694,0,0,295, 2.7, 1.7,0,0,1024,1024,1024,1024,0,0,0,0,304.5,0,0,98,4.196,4.195,0,0,0,0,3.775,71.06,120.1250510881,0.328084,6,P-GPS,
10400,2022-08-14 03:26:13,-34.9065759564835,-56.1630887049362,0.328084,1.0170604,119.1079906881,120.1250510881,2.624672,0.223694,6.2236222464,12.9893048776,13,4,8.395,121.7654710881,1.968504,3.802798,6.2236222464,0.223694,0,0,295.1, 2.9, 2,0,0,1024,1024,1024,1024,0,0,0,0,304.5,0,0,98,4.196,4.195,0,0,0,0,3.775,71.06,120.1250510881,0.328084,6,P-GPS,
10500,2022-08-14 03:26:13,-34.9065758216223,-56.1630888617581,0.328084,1.0170604,119.1079906881,120.1250510881,2.624672,0.223694,6.2622705416,13.0572838824,13,4,8.395,121.7654710881,1.968504,3.802798,6.2622705416,0.223694,0,0,295, 2.5, 2,0,0,1024,1024,1024,1024,0,0,0,0,304.5,0,0,98,4.196,4.195,0,0,0,0,3.775,71.06,120.1250510881,0.328084,6,P-GPS,
10600,2022-08-14 03:26:13,-34.9065756769871,-56.1630890168407,0.328084,1.0170604,119.1079906881,120.1250510881,2.624672,0.223694,6.3003939024,13.1275594752,13,4,8.395,121.7654710881,1.968504,3.802798,6.3003939024,0.223694,0,0,295, 2.6, 2.2,0,0,1242,1024,1024,1024,33,0,0,0,304.5,0,0,98,4.196,4.195,0,0,0,0,3.775,71.06,120.1250510881,0.328084,6,P-GPS,
10700,2022-08-14 03:26:13,-34.906575585664,-56.1630891172152,0.328084,1.0170604,119.1079906881,120.1250510881,2.624672,0.223694,6.3254923284,13.172408558,13,4,8.395,121.7654710881,1.968504,3.802798,6.3254923284,0.223694,0,0,295, 1.9, 1.8,0,0,1628,1024,1024,1024,92,0,0,0,304.5,0,0,98,4.196,4.195,0,0,0,0,3.775,71.06,120.1250510881,0.328084,6,P-GPS,
10800,2022-08-14 03:26:13,-34.9065756178095,-56.1630891600247,0.328084,1.0170604,119.1079906881,120.1250510881,2.624672,0.223694,6.3397967908,13.18979701,13,4,8.395,121.7654710881,1.968504,3.802798,6.3397967908,0.223694,0,0,295, -4.6, 1.4,0,0,1642,1024,1024,1024,94,0,0,0,304.5,0,0,98,4.196,4.195,0,0,0,0,3.775,71.06,120.1250510881,0.328084,6,P-GPS,
10900,2022-08-14 03:26:13,-34.906575517911,-56.1630893966104,0.328084,1.0170604,119.1079906881,120.1250510881,2.624672,0.3131716,6.40501989,13.2694229968,13,4,8.395,121.7654710881,1.968504,3.802798,6.40501989,0.223694,-0.223694,0,294.9, -10.8, 1.4,0,0,1658,1024,1024,1024,96,0,0,0,304.5,0,0,98,4.196,4.195,0,0,0,0,3.775,71.06,120.1250510881,0.328084,6,P-GPS,
11000,2022-08-14 03:26:13,-34.9065753436642,-56.1630898595755,0.328084,1.0170604,119.1079906881,120.1250510881,2.624672,1.006623,6.5345146448,13.4218180148,13,4,8.395,121.7654710881,1.968504,3.802798,6.5345146448,0.447388,-0.894776,0,294.8, -13.3, 2.2,0,0,1483,1024,1024,1024,70,0,0,0,304.5,0,0,98,4.196,4.195,0,0,0,0,3.775,71.06,120.1250510881,0.328084,6,P-GPS,
11100,2022-08-14 03:26:14,-34.906575081286,-56.1630904919348,0.328084,1.0170604,119.1079906881,120.1250510881,2.624672,1.4987498,6.7120408972,13.633858704,13,4,8.395,121.7654710881,1.968504,3.802798,6.7120408972,0.671082,-1.342164,0,294.9, -13.4, 2.1,0,0,1228,1024,1024,1024,31,0,0,0,304.5,0,0,98,4.196,4.195,0,0,0,0,3.775,71.06,120.1250510881,0.328084,6,P-GPS,
11200,2022-08-14 03:26:14,-34.9065746910359,-56.1630913948724,0.328084,1.0498688,119.0751822881,120.1250510881,2.624672,2.1027236,6.9684385432,13.9392720996,13,4,8.385,121.7654710881,1.968504,3.802798,6.9684385432,1.11847,-1.789552,0,295.1, -8.9, 2.2,0,0,1077,1024,1024,1024,8,0,0,0,304.5,0,0,98,4.191,4.188,0,0,0,0,3.8,71.06,120.1250510881,0.328084,6,P-GPS,
11300,2022-08-14 03:26:14,-34.906574663613,-56.163092379731,0.328084,1.0826772,119.0423738881,120.1250510881,2.624672,2.5053728,7.2615487888,14.2341211904,13,4,8.385,121.7654710881,1.968504,3.802798,7.2615487888,1.11847,-2.23694,0,295.2, -3.3, 1.4,0,0,1077,1024,1024,1024,8,0,0,0,304.5,0,0,98,4.191,4.188,0,0,0,0,3.8,71.06,120.1250510881,0.328084,6,P-GPS,
11400,2022-08-14 03:26:14,-34.9065741956177,-56.163093646403,0.328084,1.0826772,119.0423738881,120.1250510881,2.624672,2.5053728,7.6296918452,14.6498036184,14,4,8.385,121.7654710881,1.968504,3.802798,7.6296918452,1.11847,-2.23694,0,295.2, 1.9, 1.1,0,0,1024,1024,1024,1024,0,0,0,0,304.5,0,0,98,4.191,4.188,0,0,0,0,3.8,71.06,120.1250510881,0.328084,6,P-GPS,
11500,2022-08-14 03:26:14,-34.9065736637027,-56.163095075982,0.328084,1.1154856,119.0095654881,120.1250510881,2.624672,2.5053728,8.050689234,15.1194886728,14,4,8.385,121.7654710881,1.968504,3.802798,8.050689234,1.11847,-2.23694,0,295.4, 9.4, 0.4,0,0,1024,1024,1024,1024,0,0,0,0,304.5,0,0,98,4.191,4.188,0,0,0,0,3.8,71.06,120.1250510881,0.328084,6,P-GPS,
11600,2022-08-14 03:26:14,-34.906573131182,-56.1630965206666,0.328084,1.1154856,119.0095654881,120.1250510881,2.624672,2.1922012,8.4813651008,15.5934060108,13,4,8.385,121.7654710881,1.968504,3.802798,8.4813651008,0.894776,-2.013246,0,295.4, 13, 0.1,0,0,1024,1024,1024,1024,0,0,0,0,304.5,0,0,98,4.191,4.188,0,0,0,0,3.8,71.06,120.1250510881,0.328084,6,P-GPS,
11700,2022-08-14 03:26:14,-34.9065727132484,-56.1630984726666,0.328084,1.148294,118.9767570881,120.1250510881,2.296588,1.7000744,9.0672246996,16.1970477624,13,4,8.385,121.7654710881,1.968504,3.802798,9.0672246996,0.671082,-1.565858,0,295.4, 12.7, 0.4,0,0,1024,1024,1024,1024,0,0,0,0,304.5,0,0,98,4.191,4.188,0,0,0,0,3.8,71.06,120.1250510881,0.328084,6,P-GPS,
11800,2022-08-14 03:26:14,-34.9065724083906,-56.1630995531832,0.328084,1.148294,118.9767570881,120.1250510881,2.296588,1.2079476,9.3932745788,16.5389440988,13,4,8.385,121.7654710881,1.968504,3.802798,9.3932745788,0.447388,-1.11847,0,295.4, 10.7, 0.4,0,0,1024,1024,1024,1024,0,0,0,0,304.5,0,0,98,4.191,4.188,0,0,0,0,3.8,71.06,120.1250510881,0.328084,6,P-GPS,
11900,2022-08-14 03:26:14,-34.9065722739593,-56.16310021918,0.328084,1.148294,118.9767570881,120.1250510881,2.296588,0.9171454,9.5940947952,16.7441606408,13,4,8.385,121.7654710881,1.968504,3.802798,9.5940947952,0.223694,-0.894776,0,295.5, 8.9, 0.8,0,0,1024,1024,1024,1024,0,0,0,0,304.5,0,0,98,4.191,4.188,0,0,0,0,3.8,71.06,120.1250510881,0.328084,6,P-GPS,
12000,2022-08-14 03:26:14,-34.906572205379,-56.1631007469025,0.328084,1.1811024,118.9439486881,120.1250510881,2.296588,0.671082,9.752789026,16.904035974,14,4,8.385,121.7654710881,1.968504,3.802798,9.752789026,0,-0.671082,0,295.4, 7.3, 1.7,0,0,1024,1024,1024,1024,0,0,0,0,304.5,0,0,98,4.191,4.188,0,0,0,0,3.8,71.06,120.1250510881,0.328084,6,P-GPS,
12100,2022-08-14 03:26:15,-34.9065723245258,-56.1631003978924,0.328084,1.148294,118.9767570881,120.1250510881,2.296588,0.447388,9.6468835108,17.0171593372,14,4,8.385,121.7654710881,1.968504,3.802798,9.752789026,0,-0.447388,0,295.4, 5.9, 1.7,0,0,1024,1024,1024,1024,0,0,0,0,304.5,0,0,98,4.191,4.188,0,0,0,0,3.8,71.06,120.1250510881,0.328084,6,P-GPS,
12200,2022-08-14 03:26:15,-34.9065722546264,-56.1631005699347,0.328084,1.1811024,118.9439486881,120.1250510881,2.296588,0.223694,9.6992129088,17.0746068456,14,4,8.367,121.7654710881,1.968504,3.802798,9.752789026,0,-0.223694,0,295.3, 5, 1.9,0,0,1024,1024,1024,1024,0,0,0,0,304.5,0,0,98,4.181,4.18,0,0,0,0,4.019,71.06,120.1250510881,0.328084,6,P-GPS,
12300,2022-08-14 03:26:15,-34.9065723380451,-56.1631005682998,0.328084,1.1811024,118.9439486881,120.1250510881,2.296588,0.223694,9.697670914,17.1050202324,14,4,8.367,121.7654710881,1.968504,3.802798,9.752789026,0,-0.223694,0,295.5, 4, 1.9,0,0,1024,1024,1024,1024,0,0,0,0,304.5,0,0,98,4.181,4.18,0,0,0,0,4.019,71.06,120.1250510881,0.328084,6,P-GPS,
12400,2022-08-14 03:26:15,-34.9065724557751,-56.1631005195254,0.328084,1.1811024,118.9439486881,120.1250510881,2.296588,0.223694,9.68175884,17.1503942496,14,4,8.367,121.7654710881,1.968504,3.802798,9.752789026,0,-0.223694,0,295.6, 3.9, 2,0,0,1024,1024,1024,1024,0,0,0,0,304.5,0,0,98,4.181,4.18,0,0,0,0,4.019,71.06,120.1250510881,0.328084,6,P-GPS,
12500,2022-08-14 03:26:15,-34.9065734762526,-56.1630996087948,0.328084,1.2139108,118.9111402881,120.1250510881,2.296588,0,9.4057745792,17.6117787788,14,4,8.367,121.7654710881,1.968504,3.802798,9.752789026,0,0,0,295.5, 3.4, 1.1,0,0,1024,1024,1024,1024,0,0,0,0,304.5,0,0,98,4.181,4.18,0,0,0,0,4.019,71.06,120.1250510881,0.328084,6,P-GPS,
12600,2022-08-14 03:26:15,-34.9065738212091,-56.1630994601838,0.328084,1.2139108,118.9111402881,120.1250510881,2.624672,0,9.3634189348,17.7452761584,14,4,8.367,121.7654710881,1.968504,3.802798,9.752789026,0,0,0,295.4, 3.5, 1.2,0,0,1024,1024,1024,1024,0,0,0,0,304.5,0,0,98,4.181,4.18,0,0,0,0,4.019,71.06,120.1250510881,0.328084,6,P-GPS,
12700,2022-08-14 03:26:15,-34.9065739034944,-56.1630994888436,0.328084,1.2139108,118.9111402881,120.1250510881,2.624672,0,9.3727693288,17.7764769468,14,4,8.367,121.7654710881,1.968504,3.802798,9.752789026,0,0,0,295.5, 3.6, 1.9,0,0,1024,1024,1024,1024,0,0,0,0,304.5,0,0,98,4.181,4.18,0,0,0,0,4.019,71.06,120.1250510881,0.328084,6,P-GPS,
12800,2022-08-14 03:26:15,-34.9065739074971,-56.163099565651,0.328084,1.2467192,118.8783318881,120.1250510881,2.624672,0,9.3957680172,17.7995084436,14,4,8.367,121.7654710881,1.968504,3.802798,9.752789026,0,0,0,295.5, 3.5, 2.7,0,0,1024,1024,1024,1024,0,0,0,0,304.5,0,0,98,4.181,4.18,0,0,0,0,4.019,71.06,120.1250510881,0.328084,6,P-GPS,
12900,2022-08-14 03:26:15,-34.9065738743387,-56.1630996739335,0.328084,1.2467192,118.8783318881,120.1250510881,2.624672,0,9.4278546324,17.8340884972,14,4,8.367,121.7654710881,1.968504,3.802798,9.752789026,0,0,0,295.4, 3.1, 2.7,0,0,1024,1024,1024,1024,0,0,0,0,304.5,0,0,98,4.181,4.18,0,0,0,0,4.019,71.06,120.1250510881,0.328084,6,P-GPS,
13000,2022-08-14 03:26:15,-34.9065734363915,-56.1631001272827,0.656168,1.5419948,118.9111402881,120.4531350881,2.624672,0,9.5607614608,18.0437013648,14,4,8.367,121.7654710881,1.968504,3.802798,9.752789026,0,0,0,295.5, 2.9, 2.7,0,0,1024,1024,1024,1024,0,0,0,0,304.5,0,0,98,4.181,4.18,0,0,0,0,4.019,71.06,120.4531350881,0.656168,6,P-GPS,
13100,2022-08-14 03:26:16,-34.9065733617273,-56.1631002459385,0.656168,1.5419948,118.9111402881,120.4531350881,2.624672,0,9.5960961076,18.0884520224,14,4,8.367,121.7654710881,1.968504,3.802798,9.752789026,0,0,0,295.5, 2.7, 1.9,0,0,1069,1024,1024,1024,7,0,0,0,304.5,0,0,98,4.181,4.18,0,0,0,0,4.019,71.06,120.4531350881,0.656168,6,P-GPS,
13200,2022-08-14 03:26:16,-34.9065732644734,-56.1631003659733,0.656168,1.5419948,118.9111402881,120.4531350881,2.296588,0,9.6318572636,18.13894415,14,4,8.367,121.7654710881,1.968504,3.802798,9.752789026,0,0,0,295.5, 2.1, 1.6,0,0,1155,1024,1024,1024,20,0,0,0,304.5,0,0,98,4.182,4.18,0,0,0,0,4.072,71.24,120.4531350881,0.656168,6,P-GPS,
13300,2022-08-14 03:26:16,-34.9065731901415,-56.1631004609888,0.656168,1.5419948,118.9111402881,120.4531350881,2.624672,0,9.660269338,18.1782158048,14,4,8.367,121.7654710881,1.968504,3.802798,9.752789026,0,0,0,295.5, 1.8, 0.5,0,0,1159,1024,1024,1024,20,0,0,0,304.5,0,0,98,4.182,4.18,0,0,0,0,4.072,71.24,120.4531350881,0.656168,6,P-GPS,
13400,2022-08-14 03:26:16,-34.906573001281,-56.1631009297569,0.656168,1.5419948,118.9111402881,120.4531350881,2.624672,0,9.800853332,18.3345150224,14,4,8.367,121.7654710881,1.968504,3.802798,9.800853332,0,0,0,295.5, 0.9, 0.3,0,0,1159,1024,1024,1024,20,0,0,0,304.5,0,0,98,4.182,4.18,0,0,0,0,4.072,71.24,120.4531350881,0.656168,6,P-GPS,
13500,2022-08-14 03:26:16,-34.9065729179112,-56.1631010290242,0.656168,1.5419948,118.9111402881,120.4531350881,2.624672,0,9.8308402096,18.3770019004,14,4,8.367,121.7654710881,1.968504,3.802798,9.8308402096,0,0,0,295.5, 0.8, 0.5,0,0,1160,1024,1024,1024,21,0,0,0,304.5,0,0,98,4.182,4.18,0,0,0,0,4.072,71.24,120.4531350881,0.656168,6,P-GPS,
13600,2022-08-14 03:26:16,-34.9065728173776,-56.1631011454497,0.656168,1.5419948,118.9111402881,120.4531350881,2.624672,0,9.866142048,18.4275924532,14,4,8.367,121.7654710881,1.968504,3.802798,9.866142048,0,0,0,295.7, 0.8, 0.6,0,0,1160,1024,1024,1024,21,0,0,0,304.5,0,0,98,4.182,4.18,0,0,0,0,4.072,71.24,120.4531350881,0.656168,6,P-GPS,
13700,2022-08-14 03:26:16,-34.9065727034582,-56.1631013344101,0.656168,1.5419948,118.9111402881,120.4531350881,2.624672,0,9.9233598976,18.4977696208,14,4,8.367,121.7654710881,1.968504,3.802798,9.9233598976,0,0,0,295.5, 0.5, 1,0,0,1182,1024,1024,1024,24,0,0,0,304.5,0,0,98,4.182,4.18,0,0,0,0,4.072,71.24,120.4531350881,0.656168,6,P-GPS,
13800,2022-08-14 03:26:16,-34.9065725516188,-56.1631017536046,0.656168,1.5748032,118.8783318881,120.4531350881,2.624672,0,10.0499675132,18.6348759244,14,4,8.367,121.7654710881,1.968504,3.802798,10.0499675132,0,0,0,295.6, 0.8, 0.9,0,0,1214,1024,1024,1024,29,0,0,0,304.5,0,0,98,4.182,4.18,0,0,0,0,4.072,71.24,120.4531350881,0.656168,6,P-GPS,
13900,2022-08-14 03:26:16,-34.9065723735615,-56.1631020806459,0.656168,1.5419948,118.9111402881,120.4531350881,2.624672,0.223694,10.1495410072,18.7523299964,14,4,8.367,121.7654710881,1.968504,3.802798,10.1495410072,0,-0.223694,0,295.4, 0.5, 0.2,0,0,1216,1024,1024,1024,29,0,0,0,304.5,0,0,98,4.182,4.18,0,0,0,0,4.072,71.24,120.4531350881,0.656168,6,P-GPS,
14000,2022-08-14 03:26:17,-34.9065721683547,-56.1631024732073,0.656168,1.5419948,118.9111402881,120.4531350881,2.624672,0.223694,10.2694557092,18.8916344628,14,4,8.367,121.7654710881,1.968504,3.802798,10.2694557092,0,-0.223694,0,295.5, 0.2, 0.1,0,0,1216,1024,1024,1024,29,0,0,0,304.5,0,0,98,4.182,4.18,0,0,0,0,4.072,71.24,120.4531350881,0.656168,6,P-GPS,
14100,2022-08-14 03:26:17,-34.9065720090115,-56.1631028778552,0.328084,1.2467192,118.8783318881,120.1250510881,2.624672,0.223694,10.3927496764,19.0259520524,14,4,8.367,121.7654710881,1.968504,3.802798,10.3927496764,0,-0.223694,0,295.5, 0.1, 0,0,0,1216,1024,1024,1024,29,0,0,0,304.5,0,0,98,4.182,4.18,0,0,0,0,4.072,71.24,120.1250510881,0.328084,6,P-GPS,
14200,2022-08-14 03:26:17,-34.9065718704407,-56.1631036496535,0.328084,1.2795276,118.8455234881,120.1250510881,2.624672,0.447388,10.6256893164,19.2623365744,14,4,8.367,121.7654710881,1.968504,3.802798,10.6256893164,0,-0.447388,0,295.5, 0, 0.8,0,0,1216,1024,1024,1024,29,0,0,0,304.5,0,0,98,4.182,4.18,0,0,0,0,4.072,71.24,120.1250510881,0.328084,6,P-GPS,
14300,2022-08-14 03:26:17,-34.906571702851,-56.1631040576129,0.328084,1.2795276,118.8455234881,120.1250510881,2.624672,0.4921268,10.7505908952,19.3988523268,14,4,8.372,121.7654710881,1.968504,3.802798,10.7505908952,0.223694,-0.447388,0,295.5, 0.1, 1.2,0,0,1216,1024,1024,1024,29,0,0,0,304.5,0,0,98,4.188,4.186,0,0,0,0,3.948,71.06,120.1250510881,0.328084,6,P-GPS,
14400,2022-08-14 03:26:17,-34.9065714940258,-56.163104496358,0.328084,1.2139108,118.9111402881,120.1250510881,2.624672,0.4921268,10.88582712,19.5506567936,14,4,8.372,121.7654710881,1.968504,3.802798,10.88582712,0.223694,-0.447388,0,295.6, -0.1, 1.2,0,0,1216,1024,1024,1024,29,0,0,0,304.5,0,0,98,4.188,4.186,0,0,0,0,3.948,71.06,120.1250510881,0.328084,6,P-GPS,
14500,2022-08-14 03:26:17,-34.9065712566769,-56.1631049956715,0.328084,1.2467192,118.8783318881,120.1250510881,2.624672,0.4921268,11.0402562588,19.7233274028,14,4,8.372,121.7654710881,1.968504,3.802798,11.0402562588,0.223694,-0.447388,0,295.8, 0.3, 0.3,0,0,1216,1024,1024,1024,29,0,0,0,304.5,0,0,98,4.188,4.186,0,0,0,0,3.948,71.06,120.1250510881,0.328084,6,P-GPS,
14600,2022-08-14 03:26:17,-34.9065709899703,-56.1631055674466,0.328084,1.2795276,118.8455234881,120.1250510881,2.624672,0.7158208,11.2176184692,19.9201449944,14,4,8.372,121.7654710881,1.968504,3.802798,11.2176184692,0.223694,-0.671082,0,295.7, 0, 0.2,0,0,1216,1024,1024,1024,29,0,0,0,304.5,0,0,98,4.188,4.186,0,0,0,0,3.948,71.06,120.1250510881,0.328084,6,P-GPS,
14700,2022-08-14 03:26:17,-34.9065709074766,-56.1631059663594,0.328084,1.2795276,118.8455234881,120.1250510881,2.624672,0.7158208,11.3388455072,20.0432421112,14,4,8.372,121.7654710881,1.968504,3.802798,11.3388455072,0.223694,-0.671082,0,295.7, 0.2, 0.4,0,0,1216,1024,1155,1024,29,0,20,0,304.5,0,0,98,4.188,4.186,0,0,0,0,3.948,71.06,120.1250510881,0.328084,6,P-GPS,
14800,2022-08-14 03:26:17,-34.9065708568906,-56.1631063663273,0.328084,1.2795276,118.8455234881,120.1250510881,2.624672,0.7158208,11.4595804192,20.1643379156,14,4,8.372,121.7654710881,1.968504,3.802798,11.4595804192,0.223694,-0.671082,0,295.7, 0.6, 0.3,0,0,1215,1024,1318,1024,29,0,45,0,304.5,0,0,98,4.188,4.186,0,0,0,0,3.948,71.06,120.1250510881,0.328084,6,P-GPS,
14900,2022-08-14 03:26:17,-34.906570735565,-56.1631067845243,0.656168,1.64042,118.8127150881,120.4531350881,2.624672,0.9171454,11.5877300296,20.2970478936,14,4,8.372,121.7654710881,1.968504,3.802798,11.5877300296,0.223694,-0.894776,-0.223694,295.6, 0.5, 0.5,0,0,1214,1024,1349,1024,29,0,49,0,304.5,0,0,98,4.188,4.186,0,0,0,0,3.948,71.06,120.4531350881,0.656168,6,P-GPS,
15000,2022-08-14 03:26:18,-34.906570556954,-56.1631072746449,0.656168,1.64042,118.8127150881,120.4531350881,2.624672,1.006623,11.7391407956,20.457513778,13,4,8.372,121.7654710881,1.968504,3.802798,11.7391407956,0.447388,-0.894776,-0.894776,295.6, 0.2, 0.5,0,0,1215,1024,1275,1024,29,0,38,0,304.5,0,0,98,4.188,4.186,0,0,0,0,3.948,71.06,120.4531350881,0.656168,6,P-GPS,
15100,2022-08-14 03:26:18,-34.9065706252054,-56.1631074743807,0.984252,1.968504,118.8127150881,120.7812190881,2.952756,1.006623,11.7966867292,20.5222775596,13,4,8.372,121.7654710881,1.968504,3.802798,11.7966867292,0.447388,-0.894776,-1.342164,295.4, 0.6, 0.3,0,0,1214,1024,1024,1024,29,0,0,0,304.5,0,0,98,4.188,4.186,0,0,0,0,3.948,71.06,120.7812190881,0.984252,6,P-GPS,
15200,2022-08-14 03:26:18,-34.906570420422,-56.1631080374175,0.984252,1.9356956,118.8455234881,120.7812190881,2.952756,1.2079476,11.9707352912,20.7065623424,13,4,8.372,121.7654710881,1.968504,3.802798,11.9707352912,0.447388,-1.11847,-1.565858,295.3, 1.3, 0.7,0,0,1215,1024,1024,1024,29,0,0,0,304.5,0,0,98,4.188,4.186,0,0,0,0,3.948,71.06,120.7812190881,0.984252,6,P-GPS,
15300,2022-08-14 03:26:18,-34.9065702184722,-56.1631085258092,1.312336,2.296588,118.8127150881,121.1093030881,3.28084,1.2079476,12.1227694168,20.8702106416,13,4,8.373,121.7654710881,1.968504,3.802798,12.1227694168,0.447388,-1.11847,-1.11847,295.4, 1.2, 1.3,0,0,1215,1024,1024,1024,29,0,0,0,304.5,0,0,97,4.155,4.143,0,0,0,0,3.722,71.06,121.1093030881,1.312336,6,P-GPS,
15400,2022-08-14 03:26:18,-34.9065699847905,-56.1631090414348,1.312336,2.296588,118.8127150881,121.1093030881,3.28084,1.2079476,12.2843179784,21.0464901748,13,4,8.373,121.7654710881,1.968504,3.802798,12.2843179784,0.447388,-1.11847,-0.671082,295.3, 0.9, 1,0,0,1215,1024,1024,1024,29,0,0,0,304.5,0,0,97,4.155,4.143,0,0,0,0,3.722,71.06,121.1093030881,1.312336,6,P-GPS,
15500,2022-08-14 03:26:18,-34.9065697873221,-56.1631097491442,1.312336,2.3293964,118.7799066881,121.1093030881,3.28084,1.2079476,12.5021001376,21.2701450376,13,4,8.373,121.7654710881,1.968504,3.802798,12.5021001376,0.447388,-1.11847,-0.223694,295.3, 0.3, 0.8,0,0,1215,1024,1024,1024,29,0,0,0,304.5,0,0,97,4.155,4.143,0,0,0,0,3.722,71.06,121.1093030881,1.312336,6,P-GPS,
15600,2022-08-14 03:26:18,-34.906569495303,-56.163110516764,1.64042,2.624672,118.8127150881,121.4373870881,3.28084,1.2079476,12.7415686492,21.5233602688,13,4,8.373,121.7654710881,1.968504,3.802798,12.7415686492,0.447388,-1.11847,0,295.3, 0.1, 0.5,0,0,1195,1024,1049,1024,26,0,4,0,304.5,0,0,97,4.155,4.143,0,0,0,0,3.722,71.06,121.4373870881,1.64042,6,P-GPS,
15700,2022-08-14 03:26:18,-34.9065692226982,-56.1631112951957,1.64042,2.624672,118.8127150881,121.4373870881,3.28084,1.4092722,12.9839571084,21.7766083084,13,4,8.373,121.7654710881,1.968504,3.802798,12.9839571084,0.447388,-1.342164,0,295.3, 0.3, 0.5,0,0,1152,1024,1074,1024,19,0,8,0,304.5,0,0,97,4.155,4.143,0,0,0,0,3.722,71.06,121.4373870881,1.64042,6,P-GPS,
15800,2022-08-14 03:26:18,-34.9065689320177,-56.1631121340758,1.312336,2.3293964,118.7799066881,121.1093030881,3.28084,1.4987498,13.2455056732,22.0490820704,14,4,8.373,121.7654710881,1.968504,3.802798,13.2455056732,0.671082,-1.342164,0,295.4, 0.6, 1.1,0,0,1024,1024,1024,1024,0,0,0,0,304.5,0,0,97,4.155,4.143,0,0,0,0,3.722,71.06,121.1093030881,1.312336,6,P-GPS,
15900,2022-08-14 03:26:18,-34.906569003539,-56.1631127652651,1.312336,2.3622048,118.7470982881,121.1093030881,3.28084,1.4987498,13.4300529232,22.2397316828,14,4,8.373,121.7654710881,1.968504,3.802798,13.4300529232,0.671082,-1.342164,0,295.3, 1.4, 1.1,0,0,1024,1024,1024,1024,0,0,0,0,304.5,0,0,97,4.155,4.143,0,0,0,0,3.722,71.06,121.1093030881,1.312336,6,P-GPS,
16000,2022-08-14 03:26:19,-34.9065688318814,-56.1631134091103,1.312336,2.3622048,118.7470982881,121.1093030881,3.28084,1.4987498,13.6286421684,22.4423235528,15,4,8.373,121.7654710881,1.968504,3.802798,13.6286421684,0.671082,-1.342164,0,295.4, 6.4, 0.9,0,0,1024,1024,1024,1024,0,0,0,0,304.5,0,0,97,4.155,4.143,0,0,0,0,3.722,71.06,121.1093030881,1.312336,6,P-GPS,
16100,2022-08-14 03:26:19,-34.9065686245023,-56.163113909296,1.312336,2.3950132,118.7142898881,121.1093030881,3.28084,1.2079476,13.7862865304,22.6100072852,15,4,8.373,121.7654710881,1.968504,3.802798,13.7862865304,0.447388,-1.11847,0,295.4, 8.7, 0.5,0,0,1024,1024,1024,1024,0,0,0,0,304.5,0,0,97,4.155,4.143,0,0,0,0,3.722,71.06,121.1093030881,1.312336,6,P-GPS,
16200,2022-08-14 03:26:19,-34.9065684277179,-56.1631143252052,1.312336,2.3293964,118.7799066881,121.1093030881,3.28084,1.006623,13.918635616,22.7536752688,14,4,8.373,121.7654710881,1.968504,3.802798,13.918635616,0.447388,-0.894776,0,295.3, 8.8, 0.3,0,0,1024,1024,1024,1024,0,0,0,0,304.5,0,0,97,4.155,4.143,0,0,0,0,3.722,71.06,121.1093030881,1.312336,6,P-GPS,
16300,2022-08-14 03:26:19,-34.9065683548646,-56.1631146373917,1.312336,2.3622048,118.7470982881,121.1093030881,3.28084,0.7158208,14.0146658028,22.8507881328,14,4,8.381,121.7654710881,1.968504,3.802798,14.0146658028,0.223694,-0.671082,0,295.3, 8.1, 0.2,0,0,1024,1024,1024,1024,0,0,0,0,304.5,0,0,97,4.19,4.192,0,0,0,0,3.862,71.24,121.1093030881,1.312336,6,P-GPS,
16400,2022-08-14 03:26:19,-34.9065685162434,-56.1631145829501,1.312336,2.4278216,118.6814814881,121.1093030881,3.28084,0.4921268,13.99114218,22.9118773736,14,4,8.381,121.7654710881,1.968504,3.802798,14.0146658028,0.223694,-0.447388,0,295.4, 6.9, 0.4,0,0,1024,1024,1024,1024,0,0,0,0,304.5,0,0,97,4.19,4.192,0,0,0,0,3.862,71.24,121.1093030881,1.312336,6,P-GPS,
16500,2022-08-14 03:26:19,-34.9065684891982,-56.1631147568362,1.312336,2.3622048,118.7470982881,121.1093030881,3.28084,0.447388,14.0439965124,22.9648301312,14,4,8.381,121.7654710881,1.968504,3.802798,14.0439965124,0,-0.447388,0,295.4, 6.4, 1.1,0,0,1024,1024,1024,1024,0,0,0,0,304.5,0,0,97,4.19,4.192,0,0,0,0,3.862,71.24,121.1093030881,1.312336,6,P-GPS,
16600,2022-08-14 03:26:19,-34.9065684611499,-56.1631148847006,1.312336,2.3622048,118.7470982881,121.1093030881,3.28084,0.223694,14.0832353588,23.00442987,15,4,8.381,121.7654710881,1.968504,3.802798,14.0832353588,0,-0.223694,0,295.4, 5.8, 1.1,0,0,1024,1024,1024,1024,0,0,0,0,304.5,0,0,97,4.19,4.192,0,0,0,0,3.862,71.24,121.1093030881,1.312336,6,P-GPS,
