time(millisecond),datetime(utc),latitude,longitude,height_above_takeoff(feet),height_above_ground_at_drone_location(feet),ground_elevation_at_drone_location(feet),altitude_above_seaLevel(feet),height_sonar(feet),speed(mph),distance(feet),mileage(feet),satellites,gpslevel,voltage(v),max_altitude(feet),max_ascent(feet),max_speed(mph),max_distance(feet), xSpeed(mph), ySpeed(mph), zSpeed(mph), compass_heading(degrees), pitch(degrees), roll(degrees),isPhoto,isVideo,rc_elevator,rc_aileron,rc_throttle,rc_rudder,rc_elevator(percent),rc_aileron(percent),rc_throttle(percent),rc_rudder(percent),gimbal_heading(degrees),gimbal_pitch(degrees),gimbal_roll(degrees),battery_percent,voltageCell1,voltageCell2,voltageCell3,voltageCell4,voltageCell5,voltageCell6,current(A),battery_temperature(f),altitude(feet),ascent(feet),flycStateRaw,flycState,message
0,2025-05-20 10:44:15,-34.9206101996143,-56.1693600126172,0,0,38.310021567128,38.310021567128,0.328084,0,0,0,16,4,0,38.310021567128,0,0,0,0,0,0,187, -6.3, 1.8,0,0,897,935,1024,1771,-19,-13,0,100,204.7,0,1.8,99,4.136,4.136,0,0,0,0,0,75.56,38.310021567128,0,6,P-GPS,"Zona de altitud restringida 150m Arranque de motores..."
100,2025-05-20 10:44:15,-34.9206101969221,-56.1693599944808,0,0,38.310021567128,38.310021567128,0.328084,0,0.0055138453208,0.0055138453208,16,4,0,38.310021567128,0,0,0.0055138453208,0,0,0,187, -6.3, 1.8,0,0,897,935,1024,1771,-19,-13,0,100,204.7,0,1.8,99,4.136,4.136,0,0,0,0,0,75.56,38.310021567128,0,41,Motors_Started,"Zona de altitud restringida 150m Arranque de motores..."
200,2025-05-20 10:44:15,-34.9206101972263,-56.1693599944798,0,0,38.310021567128,38.310021567128,0.328084,0,0.0054954398084,0.0056248033296,16,4,0,38.310021567128,0,0,0.0055138453208,0,0,0,187, -6.3, 1.8,0,0,897,935,1024,1771,-19,-13,0,100,204.8,0,1.8,99,4.136,4.136,0,0,0,0,0,75.56,38.310021567128,0,41,Motors_Started,"Zona de altitud restringida 150m Arranque de motores..."
300,2025-05-20 10:44:15,-34.9206099999204,-56.1693599055717,0,0,38.310021567128,38.310021567128,0.328084,0,0.079585304384,0.082368112872,16,4,0,38.310021567128,0,0,0.079585304384,0,0,0,187, -6.4, 1.8,0,0,897,935,1024,1771,-19,-13,0,100,204.7,0,1.8,99,4.136,4.136,0,0,0,0,0,75.56,38.310021567128,0,41,Motors_Started,"Zona de altitud restringida 150m Arranque de motores..."
400,2025-05-20 10:44:15,-34.9206099922466,-56.1693599181742,0,0,38.310021567128,38.310021567128,0.328084,0,0.08076115744,0.087064307248,16,4,0,38.310021567128,0,0,0.08076115744,0,0,0,187, -6.5, 1.8,0,0,897,935,1024,1771,-19,-13,0,100,204.7,0,1.8,99,4.136,4.136,0,0,0,0,0,75.56,38.310021567128,0,41,Motors_Started,"Zona de altitud restringida 150m Arranque de motores..."
500,2025-05-20 10:44:16,-34.9206098893102,-56.1693600215321,0,0,38.310021567128,38.310021567128,0.328084,0,0.113245738532,0.135711290432,16,4,0,38.310021567128,0,0,0.113245738532,0,0,0,187, -6.5, 1.8,0,0,897,935,1024,1771,-19,-13,0,100,204.7,0,1.8,99,4.136,4.136,0,0,0,0,0,75.56,38.310021567128,0,41,Motors_Started,"Setting new Return-To-Home altitude to 30m (98 ft). Data Recorder File Index is 10. Setting new Maximum Flight Altitude to 120m (394 ft). Zona de altitud restringida 150m Arranque de motores..."
600,2025-05-20 10:44:16,-34.9206098716333,-56.1693600342241,0,0,38.310021567128,38.310021567128,0.328084,0,0.119838258428,0.143195214556,16,4,0,38.310021567128,0,0,0.119838258428,0,0,0,186.9, -6.5, 1.8,0,0,897,935,1024,1771,-19,-13,0,100,204.7,0,1.8,99,4.136,4.136,0,0,0,0,0,75.56,38.310021567128,0,41,Motors_Started,"Zona de altitud restringida 150m Arranque de motores..."
700,2025-05-20 10:44:16,-34.9206098621037,-56.1693599096955,0,0,38.310021567128,38.310021567128,0.328084,0,0.126931434508,0.180610898168,16,4,0,38.310021567128,0,0,0.126931434508,0,0,0,186.9, -6.5, 1.8,0,0,897,935,1024,1771,-19,-13,0,100,204.7,0,1.8,99,4.136,4.136,0,0,0,0,0,75.56,38.310021567128,0,41,Motors_Started,"Zona de altitud restringida 150m Arranque de motores..."
800,2025-05-20 10:44:16,-34.9206098535463,-56.1693599000459,0,0,38.310021567128,38.310021567128,0.328084,0,0.130676513368,0.184862866808,16,4,0,38.310021567128,0,0,0.130676513368,0,0,0,186.9, -6.4, 1.8,0,0,897,935,1024,1771,-19,-13,0,100,204.7,0,1.8,99,4.136,4.136,0,0,0,0,0,75.56,38.310021567128,0,41,Motors_Started,"Zona de altitud restringida 150m Arranque de motores..."
900,2025-05-20 10:44:16,-34.9206098864402,-56.1693598881209,0,0,38.310021567128,38.310021567128,0.328084,0,0.120178153452,0.197383208416,16,4,0,38.310021567128,0,0,0.130676513368,0,0,0,186.8, -6.4, 1.7,0,0,897,935,1024,1771,-19,-13,0,100,204.8,0,1.8,99,4.136,4.136,0,0,0,0,0,75.56,38.310021567128,0,41,Motors_Started,"Zona de altitud restringida 150m Arranque de motores..."
1000,2025-05-20 10:44:16,-34.92060988429,-56.1693598845052,0,0,38.310021567128,38.310021567128,0.328084,0,0.121261814904,0.198719494548,16,4,0,38.310021567128,0,0,0.130676513368,0,0,0,186.8, -6.3, 1.8,0,0,897,935,1024,1771,-19,-13,0,100,204.8,0,1.8,99,4.136,4.136,0,0,0,0,0,75.56,38.310021567128,0,41,Motors_Started,"Zona de altitud restringida 150m Arranque de motores..."
1100,2025-05-20 10:44:16,-34.9206096891184,-56.1693599982454,0,0,38.310021567128,38.310021567128,0.328084,0,0.186303811736,0.277639772664,14,4,0,38.310021567128,0,0,0.186303811736,0,0,0,186.8, -6.4, 1.8,0,0,897,935,1024,1771,-19,-13,0,100,204.7,0,1.8,99,4.136,4.136,0,0,0,0,0,75.56,38.310021567128,0,41,Motors_Started,"Zona de altitud restringida 150m Arranque de motores..."
1200,2025-05-20 10:44:16,-34.9206096832918,-56.1693599976146,0,0,38.310021567128,38.310021567128,0.328084,0,0.18843340498,0.279773959084,14,4,0,38.310021567128,0,0,0.18843340498,0,0,0,187, -6.5, 1.8,0,0,897,935,1024,1771,-19,-13,0,100,204.7,0,1.8,99,4.136,4.136,0,0,0,0,0,75.56,38.310021567128,0,41,Motors_Started,"Zona de altitud restringida 150m Arranque de motores..."
1300,2025-05-20 10:44:16,-34.9206096046791,-56.1693598969408,0,0,38.310021567128,38.310021567128,0.328084,0,0.219802828556,0.321363527344,14,4,0,38.310021567128,0,0,0.219802828556,0,0,0,186.7, -6.7, 1.7,0,0,897,935,1024,1771,-19,-13,0,100,204.7,0,1.8,99,4.136,4.136,0,0,0,0,0,75.56,38.310021567128,0,41,Motors_Started,"Zona de altitud restringida 150m Arranque de motores..."
1400,2025-05-20 10:44:16,-34.9206096573596,-56.1693598701285,0,0,38.310021567128,38.310021567128,0.328084,0,0.202381240072,0.342191612,14,4,0,38.310021567128,0,0,0.219802828556,0,0,0,186.7, -6.7, 1.7,0,0,897,935,1024,1771,-19,-13,0,100,204.7,0,1.8,99,4.136,4.136,0,0,0,0,0,75.56,38.310021567128,0,41,Motors_Started,"Zona de altitud restringida 150m Arranque de motores..."
1500,2025-05-20 10:44:17,-34.920609652123,-56.1693599634306,0,0,38.310021567128,38.310021567128,0.328084,0,0.200292985412,0.37016733468,13,4,0,38.310021567128,0,0,0.219802828556,0,0,0,186.8, -6.7, 1.7,0,0,897,935,1024,1771,-19,-13,0,100,204.7,0,1.8,99,4.136,4.136,0,0,0,0,0,75.56,38.310021567128,0,41,Motors_Started,"Zona de altitud restringida 150m Arranque de motores..."
1600,2025-05-20 10:44:17,-34.9206096321952,-56.1693599652643,0,0,38.310021567128,38.310021567128,0.328084,0,0.20750656832,0.377460642,13,4,0,38.310021567128,0,0,0.219802828556,0,0,0,186.8, -6.7, 1.7,0,0,897,935,1024,1771,-19,-13,0,100,204.7,0,1.8,99,4.136,4.136,0,0,0,0,0,75.56,38.310021567128,0,41,Motors_Started,"Zona de altitud restringida 150m Arranque de motores..."
1700,2025-05-20 10:44:17,-34.9206094539466,-56.1693600067274,0,0,38.310021567128,38.310021567128,0.328084,0,0.27206201658,0.44366471236,13,4,0,38.310021567128,0,0,0.27206201658,0,0,0,186.9, -6.7, 1.7,0,0,897,935,1024,1771,-19,-13,0,100,204.7,0,1.8,99,4.136,4.136,0,0,0,0,0,75.56,38.310021567128,0,41,Motors_Started,"Zona de altitud restringida 150m Arranque de motores..."
1800,2025-05-20 10:44:17,-34.9206094385528,-56.1693600046518,0,0,38.310021567128,38.310021567128,0.328084,0,0.277683079752,0.44931431884,13,4,0,38.310021567128,0,0,0.277683079752,0,0,0,186.9, -6.6, 1.7,0,0,897,935,1024,1771,-19,-13,0,100,204.7,0,1.8,99,4.136,4.136,0,0,0,0,0,75.56,38.310021567128,0,41,Motors_Started,"Zona de altitud restringida 150m Arranque de motores..."
1900,2025-05-20 10:44:17,-34.9206094811349,-56.1693598967851,0,0,38.310021567128,38.310021567128,0.328084,0,0.264417331296,0.48513124912,13,4,0,38.310021567128,0,0,0.277683079752,0,0,0,186.9, -6.7, 1.7,0,0,897,935,1024,1771,-19,-13,0,100,204.7,0,1.8,99,4.136,4.136,0,0,0,0,0,75.56,38.310021567128,0,41,Motors_Started,"Zona de altitud restringida 150m Arranque de motores..."
2000,2025-05-20 10:44:17,-34.9206094802589,-56.169359896517,0,0,38.310021567128,38.310021567128,0.328084,0,0.264744431044,0.48545933312,13,4,0,38.310021567128,0,0,0.277683079752,0,0,0,186.8, -6.7, 1.7,0,0,897,935,1024,1771,-19,-13,0,100,204.7,0,1.7,99,4.136,4.136,0,0,0,0,0,75.56,38.310021567128,0,41,Motors_Started,"Zona de altitud restringida 150m Arranque de motores..."
2100,2025-05-20 10:44:17,-34.9206097984918,-56.1693598986459,0,0,38.310021567128,38.310021567128,0.328084,0,0.150268377512,0.60156826072,12,4,0,38.310021567128,0,0,0.277683079752,0,0,0,186.8, -6.7, 1.7,0,0,897,935,1024,1771,-19,-13,0,100,204.7,0,1.7,99,4.136,4.136,0,0,0,0,0,75.56,38.310021567128,0,41,Motors_Started,"Zona de altitud restringida 150m Arranque de motores..."
2200,2025-05-20 10:44:17,-34.9206097958457,-56.1693598959809,0,0,38.310021567128,38.310021567128,0.328084,0,0.151390752876,0.6028215416,12,4,0,38.310021567128,0,0,0.277683079752,0,0,0,186.8, -6.7, 1.6,0,0,897,935,1024,1771,-19,-13,0,100,204.7,0,1.7,99,4.136,4.136,0,0,0,0,0,75.56,38.310021567128,0,10,Assisted_Takeoff,"Zona de altitud restringida 150m Arranque de motores..."
2300,2025-05-20 10:44:17,-34.920609891816,-56.1693598928699,0,0,38.310021567128,38.310021567128,0.328084,0,0.117875331856,0.63784778944,13,4,0,38.310021567128,0,0,0.277683079752,0,0,0,186.8, -6.7, 1.7,0,0,897,935,1024,1771,-19,-13,0,100,204.7,0,1.7,99,4.136,4.136,0,0,0,0,0,75.56,38.310021567128,0,10,Assisted_Takeoff,"Zona de altitud restringida 150m Arranque de motores..."
2400,2025-05-20 10:44:17,-34.9206098892481,-56.1693598901825,0,0,38.310021567128,38.310021567128,0.328084,0,0.119013127168,0.63908138528,13,4,0,38.310021567128,0,0,0.277683079752,0,0,0,186.8, -6.7, 1.6,0,0,897,935,1024,1771,-19,-13,0,100,204.7,0,1.7,99,4.136,4.136,0,0,0,0,0,75.56,38.310021567128,0,10,Assisted_Takeoff,"Zona de altitud restringida 150m Arranque de motores..."
2500,2025-05-20 10:44:17,-34.9206098979585,-56.1693596953854,0,0,38.310021567128,38.310021567128,0.328084,0,0.145325135884,0.69744424804,14,4,0,38.310021567128,0,0,0.277683079752,0,0,0,186.8, -6.7, 1.7,0,0,897,935,1024,1771,-19,-13,0,100,204.7,0,1.7,99,4.136,4.136,0,0,0,0,0,75.56,38.310021567128,0,10,Assisted_Takeoff,"Zona de altitud restringida 150m Arranque de motores..."
2600,2025-05-20 10:44:18,-34.9206098994567,-56.1693596954745,0,0,38.310021567128,38.310021567128,0.328084,0,0.144894033508,0.69799214832,14,4,0,38.310021567128,0,0,0.277683079752,0,0,0,186.8, -6.7, 1.7,0,0,897,935,1024,1771,-19,-13,0,100,204.7,0,1.7,99,4.136,4.136,0,0,0,0,0,75.56,38.310021567128,0,10,Assisted_Takeoff,"Zona de altitud restringida 150m Arranque de motores..."
2700,2025-05-20 10:44:18,-34.920609502306,-56.1693598012496,0,0,38.310021567128,38.310021567128,0.328084,0,0.262152567444,0.84630580136,15,4,0,38.310021567128,0,0,0.277683079752,0,0,0,186.8, -6.7, 1.7,0,0,897,935,1024,1771,-19,-13,0,100,204.7,0,1.7,99,4.136,4.136,0,0,0,0,0,75.56,38.310021567128,0,10,Assisted_Takeoff,"Zona de altitud restringida 150m Arranque de motores..."
2800,2025-05-20 10:44:18,-34.9206094993397,-56.1693598055468,0,0,38.310021567128,38.310021567128,0.328084,0,0.262897318124,0.84798559144,15,4,0,38.310021567128,0,0,0.277683079752,0,0,0,186.8, -6.8, 1.7,0,0,897,935,1024,1771,-19,-13,0,100,204.7,0,1.7,99,4.136,4.136,0,0,0,0,0,75.56,38.310021567128,0,10,Assisted_Takeoff,"Zona de altitud restringida 150m Arranque de motores..."
2900,2025-05-20 10:44:18,-34.9206095935464,-56.1693595077401,0,0,38.310021567128,38.310021567128,0.328084,0,0.267783473136,0.94347772048,15,4,0,38.310021567128,0,0,0.277683079752,0,0,0,186.9, -6.7, 1.7,0,0,897,935,1024,1771,-19,-13,0,100,204.7,0,1.8,99,4.136,4.136,0,0,0,0,0,75.56,38.310021567128,0,41,Motors_Started,"Zona de altitud restringida 150m Arranque de motores..."
3000,2025-05-20 10:44:18,-34.9206095875559,-56.1693595106124,0,0,38.310021567128,38.310021567128,0.328084,0,0.269110572916,0.94582680192,15,4,0,38.310021567128,0,0,0.277683079752,0,0,0,186.8, -6.7, 1.7,0,0,897,935,1024,1771,-19,-13,0,100,204.7,0,1.7,99,4.136,4.136,0,0,0,0,0,75.56,38.310021567128,0,41,Motors_Started,"Zona de altitud restringida 150m Arranque de motores.... Motores iniciándose. Mantén presionado el botón Bloqueo para despegar"
3100,2025-05-20 10:44:18,-34.920609491109,-56.1693595016423,0,0,38.310021567128,38.310021567128,0.328084,0,0.300312673652,0.98111551696,16,4,8.272,38.310021567128,0,0,0.300312673652,0,0,0,186.8, -6.7, 1.7,0,0,897,935,1024,1771,-19,-13,0,100,204.7,0,1.7,99,4.136,4.136,0,0,0,0,1.301,75.56,38.310021567128,0,41,Motors_Started,"Zona de altitud restringida 150m Motores iniciándose. Mantén presionado el botón Bloqueo para despegar"
3200,2025-05-20 10:44:18,-34.9206094882712,-56.1693595033264,0,0,38.310021567128,38.310021567128,0.328084,0,0.300949156612,0.9822670918,16,4,8.272,38.310021567128,0,0,0.300949156612,0,0,0,186.8, -6.7, 1.7,0,0,897,935,1024,1771,-19,-13,0,100,204.7,0,1.7,99,4.136,4.136,0,0,0,0,1.301,75.56,38.310021567128,0,41,Motors_Started,"Zona de altitud restringida 150m Motores iniciándose. Mantén presionado el botón Bloqueo para despegar"
3300,2025-05-20 10:44:18,-34.9206093961078,-56.1693596250458,0,0,38.310021567128,38.310021567128,0.328084,0,0.31525427518,1.03183402252,16,4,8.272,38.310021567128,0,0,0.31525427518,0,0,0,186.8, -6.8, 1.8,0,0,897,935,1024,1771,-19,-13,0,100,204.7,0,1.8,99,4.136,4.136,0,0,0,0,1.301,75.56,38.310021567128,0,41,Motors_Started,"Zona de altitud restringida 150m Motores iniciándose. Mantén presionado el botón Bloqueo para despegar"
3400,2025-05-20 10:44:18,-34.9206093948624,-56.1693596550746,0,0,38.310021567128,38.310021567128,0.328084,0,0.312489183228,1.04082680496,16,4,8.272,38.310021567128,0,0,0.31525427518,0,0,0,186.8, -6.7, 1.8,0,0,897,935,1024,1771,-19,-13,0,100,204.7,0,1.8,99,4.136,4.136,0,0,0,0,1.301,75.56,38.310021567128,0,41,Motors_Started,"Zona de altitud restringida 150m Motores iniciándose. Mantén presionado el botón Bloqueo para despegar"
3500,2025-05-20 10:44:19,-34.9206090904469,-56.1693597350249,0,0,38.310021567128,38.310021567128,0.328084,0,0.41311024944,1.15443901332,16,4,8.272,38.310021567128,0,0,0.41311024944,0,0,0,186.8, -6.7, 1.8,0,0,897,935,1024,1771,-19,-13,0,100,204.7,0,1.8,99,4.136,4.136,0,0,0,0,1.301,75.56,38.310021567128,0,41,Motors_Started,"Zona de altitud restringida 150m Motores iniciándose. Mantén presionado el botón Bloqueo para despegar"
3600,2025-05-20 10:44:19,-34.9206090769433,-56.1693597312074,0,0,38.310021567128,38.310021567128,0.328084,0,0.41816602388,1.1594980686,16,4,8.272,38.310021567128,0,0,0.41816602388,0,0,0,186.8, -6.7, 1.8,0,0,897,935,1024,1771,-19,-13,0,100,204.7,0,1.8,99,4.136,4.136,0,0,0,0,1.301,75.56,38.310021567128,0,41,Motors_Started,"Zona de altitud restringida 150m Motores iniciándose. Mantén presionado el botón Bloqueo para despegar"
3700,2025-05-20 10:44:19,-34.9206089755875,-56.1693595863179,0,0,38.310021567128,38.310021567128,0.328084,0,0.46443899124,1.21647313604,16,4,8.272,38.310021567128,0,0,0.46443899124,0,0,0,186.8, -6.7, 1.8,0,0,897,935,1024,1771,-19,-13,0,100,204.7,0,1.8,99,4.136,4.136,0,0,0,0,1.301,75.56,38.310021567128,0,41,Motors_Started,"Zona de altitud restringida 150m Motores iniciándose. Mantén presionado el botón Bloqueo para despegar"
3800,2025-05-20 10:44:19,-34.920608967028,-56.1693595809968,0,0,38.310021567128,38.310021567128,0.328084,0,0.46787731156,1.21997707316,16,4,8.272,38.310021567128,0,0,0.46787731156,0,0,0,186.8, -6.7, 1.8,0,0,897,935,1024,1771,-19,-13,0,100,204.7,0,1.8,99,4.136,4.136,0,0,0,0,1.301,75.56,38.310021567128,0,41,Motors_Started,"Zona de altitud restringida 150m Motores iniciándose. Mantén presionado el botón Bloqueo para despegar"
3900,2025-05-20 10:44:19,-34.9206088911129,-56.1693595896691,0,0,38.310021567128,38.310021567128,0.328084,0,0.49388781108,1.24779531552,16,4,8.272,38.310021567128,0,0,0.49388781108,0,0,0,186.8, -6.7, 1.8,0,0,897,935,1024,1771,-19,-13,0,100,204.7,0,1.8,99,4.136,4.136,0,0,0,0,1.301,75.56,38.310021567128,0,41,Motors_Started,"Zona de altitud restringida 150m Motores iniciándose. Mantén presionado el botón Bloqueo para despegar"
4000,2025-05-20 10:44:19,-34.9206088935224,-56.1693595861595,0,0,38.310021567128,38.310021567128,0.328084,0,0.49331038324,1.24916670664,16,4,8.272,38.310021567128,0,0,0.49388781108,0,0,0,186.8, -6.7, 1.8,0,0,897,935,1024,1771,-19,-13,0,100,204.7,0,1.8,99,4.136,4.136,0,0,0,0,1.301,75.56,38.310021567128,0,41,Motors_Started,"Zona de altitud restringida 150m Motores iniciándose. Mantén presionado el botón Bloqueo para despegar"
4100,2025-05-20 10:44:19,-34.9206090049743,-56.1693596930355,0,0,38.310021567128,38.310021567128,0.328084,0,0.4462270484,1.30089243008,16,4,8.27,38.310021567128,0,0,0.49388781108,0,0,0,186.8, -6.7, 1.7,0,0,897,935,1024,1771,-19,-13,0,100,204.6,0,1.8,99,4.135,4.135,0,0,0,0,0.987,75.56,38.310021567128,0,41,Motors_Started,"Zona de altitud restringida 150m Motores iniciándose. Mantén presionado el botón Bloqueo para despegar"
4200,2025-05-20 10:44:19,-34.9206090066877,-56.1693596892752,0,0,38.310021567128,38.310021567128,0.328084,0,0.44585631348,1.3021818002,16,4,8.27,38.310021567128,0,0,0.49388781108,0,0,0,186.8, -6.7, 1.7,0,0,897,935,1024,1771,-19,-13,0,100,204.6,0,1.8,99,4.135,4.135,0,0,0,0,0.987,75.56,38.310021567128,0,41,Motors_Started,"Zona de altitud restringida 150m Motores iniciándose. Mantén presionado el botón Bloqueo para despegar"
4300,2025-05-20 10:44:19,-34.9206089050985,-56.169359793644,0,0,38.310021567128,38.310021567128,0.328084,0,0.47682416224,1.35064308784,16,4,8.27,38.310021567128,0,0,0.49388781108,0,0,0,186.8, -6.7, 1.7,0,0,897,935,1024,1771,-19,-13,0,100,204.6,0,1.8,99,4.135,4.135,0,0,0,0,0.987,75.56,38.310021567128,0,41,Motors_Started,"Zona de altitud restringida 150m Motores iniciándose. Mantén presionado el botón Bloqueo para despegar"
4400,2025-05-20 10:44:19,-34.9206089094869,-56.1693597897047,0,0,38.310021567128,38.310021567128,0.328084,0,0.47540355852,1.35263127688,16,4,8.27,38.310021567128,0,0,0.49388781108,0,0,0,186.8, -6.7, 1.7,0,0,897,935,1024,1771,-19,-13,0,100,204.6,0,1.8,99,4.135,4.135,0,0,0,0,0.987,75.56,38.310021567128,0,41,Motors_Started,"Zona de altitud restringida 150m Motores iniciándose. Mantén presionado el botón Bloqueo para despegar"
4500,2025-05-20 10:44:20,-34.9206088080626,-56.1693597930857,0,0,38.310021567128,38.310021567128,0.328084,0,0.51193571192,1.3896489946,16,4,8.27,38.310021567128,0,0,0.51193571192,0,0,0,186.8, -6.7, 1.7,0,0,897,935,1024,1771,-19,-13,0,100,204.7,0,1.8,99,4.135,4.135,0,0,0,0,0.987,75.56,38.310021567128,0,41,Motors_Started,"Zona de altitud restringida 150m Motores iniciándose. Mantén presionado el botón Bloqueo para despegar"
4600,2025-05-20 10:44:20,-34.9206088086891,-56.1693597858852,0,0,38.310021567128,38.310021567128,0.328084,0,0.5119914862,1.39181762984,16,4,8.27,38.310021567128,0,0,0.5119914862,0,0,0,186.9, -6.7, 1.7,0,0,897,935,1024,1771,-19,-13,0,100,204.7,0,1.8,99,4.135,4.135,0,0,0,0,0.987,75.56,38.310021567128,0,41,Motors_Started,"Zona de altitud restringida 150m Motores iniciándose. Mantén presionado el botón Bloqueo para despegar"
4700,2025-05-20 10:44:20,-34.9206085913248,-56.1693597846318,0,0,38.310021567128,38.310021567128,0.328084,0,0.59073492704,1.47112209432,16,4,8.27,38.310021567128,0,0,0.59073492704,0,0,0,186.9, -6.7, 1.7,0,0,897,935,1024,1771,-19,-13,0,100,204.7,0,1.8,99,4.135,4.135,0,0,0,0,0.987,75.56,38.310021567128,0,41,Motors_Started,"Zona de altitud restringida 150m Motores iniciándose. Mantén presionado el botón Bloqueo para despegar"
4800,2025-05-20 10:44:20,-34.920608580162,-56.1693597718141,0,0,38.310021567128,38.310021567128,0.328084,0,0.59523295868,1.47671592652,16,4,8.27,38.310021567128,0,0,0.59523295868,0,0,0,187, -6.6, 1.7,0,0,897,935,1024,1771,-19,-13,0,100,204.7,0,1.7,99,4.135,4.135,0,0,0,0,0.987,75.56,38.310021567128,0,41,Motors_Started,"Zona de altitud restringida 150m Motores iniciándose. Mantén presionado el botón Bloqueo para despegar"
4900,2025-05-20 10:44:20,-34.9206083845717,-56.1693598784912,0,-0.032808399999999,38.342829967128,38.310021567128,0.328084,0,0.66343177976,1.5548885012,16,4,8.27,38.310021567128,0,0,0.66343177976,0,0,0,187.1, -6.4, 1.5,0,0,897,935,1024,1771,-19,-13,0,100,204.7,0,1.6,99,4.135,4.135,0,0,0,0,0.987,75.56,38.310021567128,0,11,AutoTakeoff,"Zona de altitud restringida 150m Motores iniciándose. Mantén presionado el botón Bloqueo para despegar. Despegando..."
5000,2025-05-20 10:44:20,-34.9206083846788,-56.1693598791851,0,-0.032808399999999,38.342829967128,38.310021567128,0.328084,0,0.66337928632,1.55509847496,16,4,8.27,38.310021567128,0,0,0.66343177976,0,0,0,187.4, -5.5, 1.4,0,0,897,935,1024,1771,-19,-13,0,100,205.2,0,1.7,99,4.135,4.135,0,0,0,0,0.987,75.56,38.310021567128,0,11,AutoTakeoff,"Zona de altitud restringida 150m Despegando..."
5100,2025-05-20 10:44:20,-34.9206083261343,-56.1693601397556,0,-0.032808399999999,38.342829967128,38.310021567128,0.328084,0,0.6845964786,1.6359252492,16,4,8.178,38.310021567128,0,0,0.6845964786,0,0,0,187.8, -1, 1.5,0,0,897,935,1024,1771,-19,-13,0,100,204.9,0,1.4,99,4.091,4.087,0,0,0,0,0.993,75.56,38.310021567128,0,11,AutoTakeoff,"Zona de altitud restringida 150m Despegando..."
5200,2025-05-20 10:44:20,-34.9206083478794,-56.1693602256516,0,-0.032808399999999,38.342829967128,38.310021567128,0.328084,0,0.67860238392,1.66281829468,16,4,8.178,38.310021567128,0,0,0.6845964786,0,0,-0.447388,187.5, 0.7, 0.6,0,0,897,935,1024,1771,-19,-13,0,100,204.6,0,-2,99,4.091,4.087,0,0,0,0,0.993,75.56,38.310021567128,0,11,AutoTakeoff,"Zona de altitud restringida 150m Despegando..."
5300,2025-05-20 10:44:20,-34.920608110568,-56.169360259209,0,-0.032808399999999,38.342829967128,38.310021567128,0,0,0.765748056,1.74998037096,16,4,8.178,38.310021567128,0,0,0.765748056,0,0,-0.671082,187.1, -0.2, -3.1,0,0,897,935,1024,1771,-19,-13,0,100,204.3,0,-3.2,99,4.091,4.087,0,0,0,0,0.993,75.56,38.310021567128,0,11,AutoTakeoff,"Zona de altitud restringida 150m Despegando..."
5400,2025-05-20 10:44:20,-34.9206080726409,-56.1693602555286,0,-0.032808399999999,38.342829967128,38.310021567128,0.328084,0,0.77941931628,1.763861605,16,4,8.178,38.310021567128,0,0,0.77941931628,0,0,-0.894776,187.1, -1.6, -3.2,0,0,897,935,1024,1771,-19,-13,0,100,204.3,0,-2.2,99,4.091,4.087,0,0,0,0,0.993,75.56,38.310021567128,0,11,AutoTakeoff,"Zona de altitud restringida 150m Despegando..."
5500,2025-05-20 10:44:21,-34.9206073187586,-56.1693596293002,0,-0.032808399999999,38.342829967128,38.310021567128,0.328084,0,1.0573163068,2.0966536104,16,4,8.178,38.310021567128,0,0,1.0573163068,0,0,-0.894776,187, -2.6, -1.9,0,0,897,935,1024,1771,-19,-13,0,100,204.2,0,-0.8,99,4.091,4.087,0,0,0,0,0.993,75.56,38.310021567128,0,11,AutoTakeoff,"Zona de altitud restringida 150m Despegando.... Punto de origen actualizado. Altitud de RPO establecida en 30m"
5600,2025-05-20 10:44:21,-34.9206072936949,-56.1693595542311,0.328084,0.2952756,38.342829967128,38.638105567128,0.328084,0,1.06905515232,2.12090229884,16,4,8.178,38.638105567128,0.328084,0,1.06905515232,0,0,-0.894776,186.9, -2.8, -0.1,0,0,897,935,1024,1771,-19,-13,0,100,204.3,0,1.5,99,4.091,4.087,0,0,0,0,0.993,75.56,38.638105567128,0.328084,11,AutoTakeoff,"Zona de altitud restringida 150m Punto de origen actualizado. Altitud de RPO establecida en 30m"
5700,2025-05-20 10:44:21,-34.9206062745642,-56.169359056366,0.328084,0.2624672,38.375638367128,38.638105567128,0.656168,0,1.46034453492,2.52145021192,16,4,8.178,38.638105567128,0.328084,0,1.46034453492,0,0,-0.894776,186.9, -2.5, 1.8,0,0,897,935,1024,1771,-19,-13,0,100,204.3,0,2.3,99,4.091,4.087,0,0,0,0,0.993,75.56,38.638105567128,0.328084,11,AutoTakeoff,"Zona de altitud restringida 150m Punto de origen actualizado. Altitud de RPO establecida en 30m"
5800,2025-05-20 10:44:21,-34.9206062907247,-56.1693590213936,0.656168,0.5905512,38.375638367128,38.966189567128,0.656168,0,1.45665687076,2.53346136716,16,4,8.178,38.966189567128,0.656168,0,1.46034453492,0,0,-0.894776,186.9, -2.4, 2,0,0,897,935,1024,1771,-19,-13,0,100,204.3,0,1.9,99,4.091,4.087,0,0,0,0,0.993,75.56,38.966189567128,0.656168,11,AutoTakeoff,"Zona de altitud restringida 150m Punto de origen actualizado. Altitud de RPO establecida en 30m"
5900,2025-05-20 10:44:21,-34.9206053755938,-56.169358698989,0.656168,0.5905512,38.375638367128,38.966189567128,0.984252,0,1.8033793228,2.88099746752,16,4,8.178,38.966189567128,0.656168,0,1.8033793228,0,0,-1.11847,186.9, -1.6, 1.5,0,0,897,935,1024,1771,-19,-13,0,100,204.4,0,1.5,99,4.091,4.087,0,0,0,0,0.993,75.56,38.966189567128,0.656168,11,AutoTakeoff,"Zona de altitud restringida 150m Punto de origen actualizado. Altitud de RPO establecida en 30m"
6000,2025-05-20 10:44:21,-34.9206054167238,-56.1693587266718,0.984252,0.9186352,38.375638367128,39.294273567128,0.984252,0,1.78693575272,2.89813657568,16,4,8.178,39.294273567128,0.984252,0,1.8033793228,0,0,-1.11847,187, -0.6, 1.1,0,0,897,935,1024,1771,-19,-13,0,100,204.4,0,1.2,99,4.091,4.087,0,0,0,0,0.993,75.56,39.294273567128,0.984252,11,AutoTakeoff,"Zona de altitud restringida 150m Punto de origen actualizado. Altitud de RPO establecida en 30m"
6100,2025-05-20 10:44:21,-34.9206051503704,-56.1693586331052,0.984252,0.9186352,38.375638367128,39.294273567128,1.312336,0,1.88787407616,2.99926846868,17,4,7.952,39.294273567128,0.984252,0,1.88787407616,0,0,-1.11847,187.1, -0.5, 1.1,0,0,897,935,1024,1771,-19,-13,0,100,204.5,0,1.7,99,3.979,3.976,0,0,0,0,5.043,75.56,39.294273567128,0.984252,11,AutoTakeoff,"Zona de altitud restringida 150m Punto de origen actualizado. Altitud de RPO establecida en 30m"
6200,2025-05-20 10:44:21,-34.9206051488347,-56.1693586018875,1.312336,1.2467192,38.375638367128,39.622357567128,1.312336,0,1.89048234396,3.00862214352,17,4,7.952,39.622357567128,1.312336,0,1.89048234396,0,0,-1.11847,187.1, -1.1, 1.6,0,0,897,935,1024,1771,-19,-13,0,100,204.5,0,1.9,99,3.979,3.976,0,0,0,0,5.043,75.56,39.622357567128,1.312336,11,AutoTakeoff,"Zona de altitud restringida 150m Punto de origen actualizado. Altitud de RPO establecida en 30m"
6300,2025-05-20 10:44:21,-34.9206062872283,-56.169359132161,1.312336,1.2467192,38.375638367128,39.622357567128,1.64042,0,1.45152891784,3.4532153336,17,4,7.952,39.622357567128,1.312336,0,1.89048234396,0,0,-1.11847,187.1, -1.5, 1.5,0,0,897,935,1024,1771,-19,-13,0,100,204.5,0,1.4,99,3.979,3.976,0,0,0,0,5.043,75.56,39.622357567128,1.312336,11,AutoTakeoff,"Zona de altitud restringida 150m Punto de origen actualizado. Altitud de RPO establecida en 30m"
6400,2025-05-20 10:44:21,-34.9206062712424,-56.1693591319079,1.64042,1.5748032,38.375638367128,39.950441567128,1.968504,0,1.45728023036,3.4590552288,17,4,7.952,39.950441567128,1.64042,0,1.89048234396,0,0,-1.342164,187.1, -1.9, 1,0,0,897,935,1024,1771,-19,-13,0,100,204.5,0,0.7,99,3.979,3.976,0,0,0,0,5.043,75.56,39.950441567128,1.64042,11,AutoTakeoff,"Zona de altitud restringida 150m Punto de origen actualizado. Altitud de RPO establecida en 30m"
6500,2025-05-20 10:44:22,-34.9206072924226,-56.169359663695,1.968504,1.9356956,38.342829967128,40.278525567128,2.296588,0,1.06581040156,3.864173352,17,4,7.952,40.278525567128,1.968504,0,1.89048234396,0,0,-1.789552,187.1, -1.8, 0.1,0,0,897,935,1024,1771,-19,-13,0,100,204.3,0,-0.1,99,3.979,3.976,0,0,0,0,5.043,75.56,40.278525567128,1.968504,11,AutoTakeoff,"Zona de altitud restringida 150m Punto de origen actualizado. Altitud de RPO establecida en 30m"
6600,2025-05-20 10:44:22,-34.9206073345186,-56.1693597424226,2.296588,2.2637796,38.342829967128,40.606609567128,2.624672,0,1.04844819628,3.8922901508,17,4,7.952,40.606609567128,2.296588,0,1.89048234396,0,0,-2.23694,186.9, -1.2, -0.5,0,0,897,935,1024,1771,-19,-13,0,100,204.2,0,-0.4,99,3.979,3.976,0,0,0,0,5.043,75.56,40.606609567128,2.296588,11,AutoTakeoff,"Zona de altitud restringida 150m Punto de origen actualizado. Altitud de RPO establecida en 30m"
6700,2025-05-20 10:44:22,-34.9206075039925,-56.1693600185838,2.624672,2.5918636,38.342829967128,40.934693567128,2.952756,0,0.9834974068,3.9955053772,17,4,7.952,40.934693567128,2.624672,0,1.89048234396,0,0,-2.013246,186.9, 0.6, -0.5,0,0,897,935,1024,1771,-19,-13,0,100,204.3,0,0.6,99,3.979,3.976,0,0,0,0,5.043,75.56,40.934693567128,2.624672,11,AutoTakeoff,"Zona de altitud restringida 150m Punto de origen actualizado. Altitud de RPO establecida en 30m"
6800,2025-05-20 10:44:22,-34.9206075471228,-56.1693600110167,2.624672,2.5918636,38.342829967128,40.934693567128,3.28084,0,0.96775921732,4.0113846428,17,4,7.952,40.934693567128,2.624672,0,1.89048234396,0,0,-1.789552,187, 1.2, 0.8,0,0,897,935,1024,1771,-19,-13,0,100,204.4,0,1.9,99,3.979,3.976,0,0,0,0,5.043,75.56,40.934693567128,2.624672,11,AutoTakeoff,"Zona de altitud restringida 150m Punto de origen actualizado. Altitud de RPO establecida en 30m"
6900,2025-05-20 10:44:22,-34.9206076358445,-56.1693601423464,2.952756,2.9199476,38.342829967128,41.262777567128,3.608924,0,0.93619425568,4.0623032796,17,4,7.952,41.262777567128,2.952756,0,1.89048234396,0,0,-1.565858,187.1, 0.5, 1.8,0,0,858,1077,1024,1009,-25,8,0,-2,205,-8.7,2,99,3.979,3.976,0,0,0,0,5.043,75.56,41.262777567128,2.952756,11,AutoTakeoff,"Zona de altitud restringida 150m Punto de origen actualizado. Altitud de RPO establecida en 30m"
7000,2025-05-20 10:44:22,-34.9206076022995,-56.1693600964837,3.28084,3.2480316,38.342829967128,41.590861567128,3.937008,0,0.94795934792,4.0806759836,17,4,7.952,41.590861567128,3.28084,0,1.89048234396,0,0,-1.11847,188.1, -1.2, 1.6,0,0,863,1080,1024,1004,-24,8,0,-3,206.2,-21.6,1.6,99,3.979,3.976,0,0,0,0,5.043,75.56,41.590861567128,3.28084,6,P-GPS,"Zona de altitud restringida 150m Punto de origen actualizado. Altitud de RPO establecida en 30m"
7100,2025-05-20 10:44:22,-34.9206076197183,-56.1693600140023,3.28084,3.2480316,38.342829967128,41.590861567128,3.937008,0,0.941272996,4.1061681104,17,4,7.963,41.590861567128,3.28084,0,1.89048234396,0,0,-0.671082,189.6, -1.4, 1.6,0,0,864,1077,1024,1005,-24,8,0,-3,207.8,-26.1,1.8,99,4.039,4.028,0,0,0,0,4.432,75.56,41.590861567128,3.28084,6,P-GPS,"Zona de altitud restringida 150m Punto de origen actualizado. Altitud de RPO establecida en 30m"
7200,2025-05-20 10:44:22,-34.9206075662529,-56.1693599815867,3.28084,3.2480316,38.342829967128,41.590861567128,3.937008,0,0.9608268024,4.127952888,17,4,7.963,41.590861567128,3.28084,0,1.89048234396,0,0,-0.447388,191.1, -1.7, 1.9,0,0,864,1078,1024,1008,-24,8,0,-2,209.3,-27.2,1.8,99,4.039,4.028,0,0,0,0,4.432,75.56,41.590861567128,3.28084,6,P-GPS,"Zona de altitud restringida 150m Punto de origen actualizado. Altitud de RPO establecida en 30m"
7300,2025-05-20 10:44:22,-34.9206079177159,-56.1693596536997,3.608924,3.5761156,38.342829967128,41.918945567128,3.937008,0,0.83944556492,4.2894030244,17,4,7.963,41.918945567128,3.608924,0,1.89048234396,0,0,-0.223694,192.6, -1.6, 1.5,0,0,862,1079,1024,1009,-25,8,0,-2,210.7,-27.7,1.2,99,4.039,4.028,0,0,0,0,4.432,75.56,41.918945567128,3.608924,6,P-GPS,"Zona de altitud restringida 150m Punto de origen actualizado. Altitud de RPO establecida en 30m"
7400,2025-05-20 10:44:22,-34.9206079101867,-56.1693596438003,3.608924,3.5761156,38.342829967128,41.918945567128,3.937008,0,0.8425525204,4.2934384576,17,4,7.963,41.918945567128,3.608924,0,1.89048234396,0,0,-0.223694,194, -1.5, 1.1,0,0,862,1081,1024,1009,-25,9,0,-2,211.3,-28,1.2,99,4.039,4.028,0,0,0,0,4.432,75.56,41.918945567128,3.608924,6,P-GPS,"Zona de altitud restringida 150m Punto de origen actualizado. Altitud de RPO establecida en 30m"
7500,2025-05-20 10:44:23,-34.9206083326944,-56.1693595488617,3.608924,3.5761156,38.342829967128,41.918945567128,3.937008,0,0.69513125584,4.4501641844,17,5,7.963,41.918945567128,3.608924,0,1.89048234396,0,0,0,194.2, -1.4, 1.3,0,0,860,1079,1024,1010,-25,8,0,-2,211.5,-28.2,1.1,99,4.039,4.028,0,0,0,0,4.432,75.56,41.918945567128,3.608924,6,P-GPS,"Zona de altitud restringida 150m Punto de origen actualizado. Altitud de RPO establecida en 30m"
7600,2025-05-20 10:44:23,-34.9206083844068,-56.1693596609595,3.608924,3.5761156,38.342829967128,41.918945567128,3.937008,0,0.67058073012,4.4886484376,17,5,7.963,41.918945567128,3.608924,0,1.89048234396,0,0,0,194.3, -1.1, 0.7,0,0,859,1078,1024,1010,-25,8,0,-2,211.5,-28.4,0.2,99,4.039,4.028,0,0,0,0,4.432,75.56,41.918945567128,3.608924,6,P-GPS,"Zona de altitud restringida 150m Punto de origen actualizado. Altitud de RPO establecida en 30m"
7700,2025-05-20 10:44:23,-34.9206087684554,-56.1693602025777,3.608924,3.608924,38.310021567128,41.918945567128,3.937008,0,0.52523951812,4.7028544812,17,5,7.963,41.918945567128,3.608924,0,1.89048234396,0,0,0,195.3, -0.8, -0.2,0,0,859,1076,1024,1012,-25,8,0,-2,211.4,-28.6,-0.7,99,4.039,4.028,0,0,0,0,4.432,75.56,41.918945567128,3.608924,6,P-GPS,"Zona de altitud restringida 150m Punto de origen actualizado. Altitud de RPO establecida en 30m"
7800,2025-05-20 10:44:23,-34.9206087670504,-56.169360290504,3.608924,3.608924,38.310021567128,41.918945567128,3.937008,0,0.52923886208,4.729166818,17,5,7.963,41.918945567128,3.608924,0,1.89048234396,0,0,0,201.2, -1, -0.8,0,0,862,1074,1024,1012,-25,8,0,-2,211.2,-28.7,-0.9,99,4.039,4.028,0,0,0,0,4.432,75.56,41.918945567128,3.608924,6,P-GPS,"Zona de altitud restringida 150m Punto de origen actualizado. Altitud de RPO establecida en 30m"
7900,2025-05-20 10:44:23,-34.9206088590725,-56.1693604460204,3.608924,3.608924,38.310021567128,41.918945567128,3.937008,0,0.50599082984,4.7865487096,17,5,7.963,41.918945567128,3.608924,0,1.89048234396,0,0,0,203.1, -1.3, -0.7,0,0,877,1056,1024,1013,-22,5,0,-2,211.2,-28.3,-0.5,99,4.039,4.028,0,0,0,0,4.432,75.56,41.918945567128,3.608924,6,P-GPS,"Zona de altitud restringida 150m Punto de origen actualizado. Altitud de RPO establecida en 30m"
8000,2025-05-20 10:44:23,-34.9206088366399,-56.1693604537827,3.608924,3.608924,38.310021567128,41.918945567128,3.937008,0,0.51449476712,4.7950460852,17,5,7.963,41.918945567128,3.608924,0,1.89048234396,0,0,0,203.8, -1.6, -0.5,0,0,891,1052,1024,1012,-20,4,0,-2,211.1,-26.8,-0.5,99,4.039,4.028,0,0,0,0,4.432,75.56,41.918945567128,3.608924,6,P-GPS,"Zona de altitud restringida 150m Punto de origen actualizado. Altitud de RPO establecida en 30m"
8100,2025-05-20 10:44:23,-34.9206087820886,-56.1693600885251,3.608924,3.608924,38.310021567128,41.918945567128,3.937008,0,0.51768046276,4.9061353276,17,5,7.928,41.918945567128,3.608924,0,1.89048234396,0,0,0,204, -1.5, -0.4,0,0,901,1059,1024,1007,-19,5,0,-3,211.1,-24.4,-0.1,99,3.962,3.959,0,0,0,0,4.717,75.56,41.918945567128,3.608924,6,P-GPS,"Zona de altitud restringida 150m Punto de origen actualizado. Altitud de RPO establecida en 30m"
8200,2025-05-20 10:44:23,-34.9206088009574,-56.169360069418,3.608924,3.608924,38.310021567128,41.918945567128,3.937008,0,0.510580725,4.9150592124,17,5,7.928,41.918945567128,3.608924,0,1.89048234396,0,0,0,204.1, -1.3, 0,0,0,906,1064,1024,1003,-18,6,0,-3,211.1,-22.6,0.5,99,3.962,3.959,0,0,0,0,4.717,75.56,41.918945567128,3.608924,6,P-GPS,"Zona de altitud restringida 150m Punto de origen actualizado. Altitud de RPO establecida en 30m"
8300,2025-05-20 10:44:23,-34.9206087374751,-56.1693596568652,3.608924,3.608924,38.310021567128,41.918945567128,3.937008,0,0.54397311452,5.0406497676,17,5,7.928,41.918945567128,3.608924,0,1.89048234396,0,0,0,204.3, -1, 0.7,0,0,907,1068,1060,999,-18,7,5,-4,212,-21.2,1.4,99,3.962,3.959,0,0,0,0,4.717,75.56,41.918945567128,3.608924,6,P-GPS,"Zona de altitud restringida 150m Punto de origen actualizado. Altitud de RPO establecida en 30m"
8400,2025-05-20 10:44:23,-34.9206087567293,-56.1693596019735,3.608924,3.608924,38.310021567128,41.918945567128,3.937008,0,0.54058072596,5.0584975372,17,5,7.928,41.918945567128,3.608924,0,1.89048234396,0,0,0,205.6, -1.4, 1.9,0,0,905,1063,1098,998,-18,6,11,-4,213.6,-20.6,2.3,99,3.962,3.959,0,0,0,0,4.717,75.56,41.918945567128,3.608924,6,P-GPS,"Zona de altitud restringida 150m Punto de origen actualizado. Altitud de RPO establecida en 30m"
8500,2025-05-20 10:44:24,-34.9206085378144,-56.1693589813528,3.608924,3.5761156,38.342829967128,41.918945567128,3.937008,0,0.68028545484,5.2606300896,17,5,7.928,41.918945567128,3.608924,0,1.89048234396,0,0,0,207, -2.4, 2.4,0,0,905,1061,1154,999,-18,6,20,-4,214.9,-20.6,2.3,99,3.962,3.959,0,0,0,0,4.717,75.56,41.918945567128,3.608924,6,P-GPS,"Zona de altitud restringida 150m Punto de origen actualizado. Altitud de RPO establecida en 30m. Presiona ligeramente el acelerador para controlar la orientación de la aeronave. Mantén pulsado el botón de bloqueo para que la aeronave aterrice"
8600,2025-05-20 10:44:24,-34.9206085633279,-56.1693589328307,3.608924,3.5761156,38.342829967128,41.918945567128,3.937008,0,0.67878611096,5.2778544996,17,5,7.928,41.918945567128,3.608924,0,1.89048234396,0,0,0,208.1, -4.3, 2.4,0,0,904,1060,1187,998,-18,5,25,-4,215.9,-20.7,2.3,99,3.962,3.959,0,0,0,0,4.717,75.56,41.918945567128,3.608924,6,P-GPS,"Zona de altitud restringida 150m Presiona ligeramente el acelerador para controlar la orientación de la aeronave. Mantén pulsado el botón de bloqueo para que la aeronave aterrice"
8700,2025-05-20 10:44:24,-34.9206085817822,-56.1693586425526,3.608924,3.5761156,38.342829967128,41.918945567128,3.937008,0.223694,0.71861222772,5.3649608016,17,5,7.928,41.918945567128,3.608924,0.223694,1.89048234396,-0.223694,0,0,208.9, -6.9, 2.6,0,0,904,1058,1228,996,-18,5,31,-4,216.7,-20.7,2.4,99,3.962,3.959,0,0,0,0,4.717,75.56,41.918945567128,3.608924,6,P-GPS,"Zona de altitud restringida 150m Presiona ligeramente el acelerador para controlar la orientación de la aeronave. Mantén pulsado el botón de bloqueo para que la aeronave aterrice"
8800,2025-05-20 10:44:24,-34.9206087068675,-56.1693586935085,3.608924,3.5761156,38.342829967128,41.918945567128,3.937008,0.223694,0.67256563832,5.4130907244,17,5,7.928,41.918945567128,3.608924,0.223694,1.89048234396,-0.223694,0,0,209.5, -9.3, 2.4,0,0,905,1057,1247,997,-18,5,34,-4,217.4,-20.8,1.9,99,3.962,3.959,0,0,0,0,4.717,75.56,41.918945567128,3.608924,6,P-GPS,"Zona de altitud restringida 150m Presiona ligeramente el acelerador para controlar la orientación de la aeronave. Mantén pulsado el botón de bloqueo para que la aeronave aterrice"
8900,2025-05-20 10:44:24,-34.9206090393236,-56.1693588668672,3.28084,3.2480316,38.342829967128,41.590861567128,3.937008,0.223694,0.54469489932,5.5449804924,17,5,7.928,41.918945567128,3.608924,0.223694,1.89048234396,-0.447388,-0.223694,0.223694,210.2, -10.7, 2.1,0,0,905,1056,1268,996,-18,5,37,-4,218.1,-20.7,1.8,99,3.962,3.959,0,0,0,0,4.717,75.56,41.590861567128,3.28084,6,P-GPS,"Zona de altitud restringida 150m Presiona ligeramente el acelerador para controlar la orientación de la aeronave. Mantén pulsado el botón de bloqueo para que la aeronave aterrice"
9000,2025-05-20 10:44:24,-34.9206093649454,-56.1693590588981,3.28084,3.2480316,38.342829967128,41.590861567128,3.937008,1.006623,0.41729988212,5.6769686856,17,5,7.928,41.918945567128,3.608924,1.006623,1.89048234396,-0.894776,-0.447388,0.223694,210.9, -11.3, 2.2,0,0,906,1053,1280,996,-18,4,39,-4,218.9,-20.7,2.2,99,3.962,3.959,0,0,0,0,4.717,75.56,41.590861567128,3.28084,6,P-GPS,"Zona de altitud restringida 150m Presiona ligeramente el acelerador para controlar la orientación de la aeronave. Mantén pulsado el botón de bloqueo para que la aeronave aterrice"
9100,2025-05-20 10:44:24,-34.9206097369542,-56.1693588620258,3.28084,3.28084,38.310021567128,41.590861567128,3.937008,1.2079476,0.38336943484,5.8249017612,17,5,7.921,41.918945567128,3.608924,1.2079476,1.89048234396,-1.11847,-0.447388,0.447388,211.5, -11.6, 2.6,0,0,907,1050,1295,996,-18,4,41,-4,219.6,-20.6,2.2,99,3.96,3.961,0,0,0,0,4.512,75.56,41.590861567128,3.28084,6,P-GPS,"Zona de altitud restringida 150m Presiona ligeramente el acelerador para controlar la orientación de la aeronave. Mantén pulsado el botón de bloqueo para que la aeronave aterrice"
9200,2025-05-20 10:44:24,-34.9206102410592,-56.1693592325519,3.28084,3.28084,38.310021567128,41.590861567128,3.608924,1.4987498,0.233851385436,6.0396655476,17,5,7.921,41.918945567128,3.608924,1.4987498,1.89048234396,-1.342164,-0.671082,0.447388,212.1, -11.8, 2.4,0,0,907,1048,1237,996,-18,4,32,-4,220,-20.5,1.9,99,3.96,3.961,0,0,0,0,4.512,75.56,41.590861567128,3.28084,6,P-GPS,"Zona de altitud restringida 150m Presiona ligeramente el acelerador para controlar la orientación de la aeronave. Mantén pulsado el botón de bloqueo para que la aeronave aterrice"
9300,2025-05-20 10:44:24,-34.9206105378778,-56.1693592086569,3.28084,3.28084,38.310021567128,41.590861567128,3.608924,1.6105968,0.270326780304,6.1481957348,17,5,7.921,41.918945567128,3.608924,1.6105968,1.89048234396,-1.342164,-0.894776,0.447388,212.6, -9.7, 1.8,0,0,908,1043,1186,997,-18,3,25,-4,220,-20.3,1.5,99,3.96,3.961,0,0,0,0,4.512,75.56,41.590861567128,3.28084,6,P-GPS,"Zona de altitud restringida 150m Presiona ligeramente el acelerador para controlar la orientación de la aeronave. Mantén pulsado el botón de bloqueo para que la aeronave aterrice"
9400,2025-05-20 10:44:24,-34.9206111383054,-56.1693597114587,2.952756,2.9855644,38.277213167128,41.262777567128,3.937008,1.6105968,0.3541338696,6.4139109664,17,5,7.921,41.918945567128,3.608924,1.6105968,1.89048234396,-1.342164,-0.894776,0.447388,213, 1.1, 1.4,0,0,909,1041,1161,996,-17,3,21,-4,220,-20.2,1.4,99,3.96,3.961,0,0,0,0,4.512,75.56,41.262777567128,2.952756,6,P-GPS,"Zona de altitud restringida 150m Presiona ligeramente el acelerador para controlar la orientación de la aeronave. Mantén pulsado el botón de bloqueo para que la aeronave aterrice"
9500,2025-05-20 10:44:25,-34.9206116509613,-56.1693601322068,2.952756,2.9855644,38.277213167128,41.262777567128,3.937008,1.4316416,0.53073164428,6.6393702912,17,5,7.921,41.918945567128,3.608924,1.6105968,1.89048234396,-1.11847,-0.894776,0.447388,213.3, 8, 1,0,0,908,1034,1157,997,-18,2,20,-4,220.3,-20.1,1.4,99,3.96,3.961,0,0,0,0,4.512,75.56,41.262777567128,2.952756,6,P-GPS,"Zona de altitud restringida 150m Presiona ligeramente el acelerador para controlar la orientación de la aeronave. Mantén pulsado el botón de bloqueo para que la aeronave aterrice"
9600,2025-05-20 10:44:25,-34.9206119224528,-56.1693602753257,2.952756,2.9855644,38.277213167128,41.262777567128,3.937008,0.8052984,0.63347114888,6.7472771188,17,5,7.921,41.918945567128,3.608924,1.6105968,1.89048234396,-0.671082,-0.447388,0.223694,213.4, 6.1, 1.2,0,0,908,1031,1166,997,-18,1,22,-4,220.4,-20.1,1.2,99,3.96,3.961,0,0,0,0,4.512,75.56,41.262777567128,2.952756,6,P-GPS,"Zona de altitud restringida 150m Presiona ligeramente el acelerador para controlar la orientación de la aeronave. Mantén pulsado el botón de bloqueo para que la aeronave aterrice"
9700,2025-05-20 10:44:25,-34.9206123324191,-56.1693603534835,2.952756,2.9855644,38.277213167128,41.262777567128,3.937008,0.4921268,0.78480645556,6.8986878848,17,5,7.921,41.918945567128,3.608924,1.6105968,1.89048234396,-0.223694,-0.447388,0.223694,213.4, 2.4, 0.4,0,0,907,1026,1193,999,-18,0,26,-4,220.4,-20,-0.1,99,3.96,3.961,0,0,0,0,4.512,75.56,41.262777567128,2.952756,6,P-GPS,"Zona de altitud restringida 150m Presiona ligeramente el acelerador para controlar la orientación de la aeronave. Mantén pulsado el botón de bloqueo para que la aeronave aterrice"
9800,2025-05-20 10:44:25,-34.9206124584344,-56.1693604987137,2.952756,2.9855644,38.277213167128,41.262777567128,3.937008,0.3131716,0.836860263,6.96194248,17,5,7.921,41.918945567128,3.608924,1.6105968,1.89048234396,-0.223694,-0.223694,0.223694,213.2, -1.1, -0.5,0,0,906,1023,1207,1000,-18,-0,28,-4,220.3,-20.1,-0.5,99,3.96,3.961,0,0,0,0,4.512,75.56,41.262777567128,2.952756,6,P-GPS,"Zona de altitud restringida 150m Presiona ligeramente el acelerador para controlar la orientación de la aeronave. Mantén pulsado el botón de bloqueo para que la aeronave aterrice"
9900,2025-05-20 10:44:25,-34.9206129243997,-56.1693607867323,2.952756,3.0183728,38.244404767128,41.262777567128,3.937008,0.3131716,1.02075462584,7.1525264756,17,5,7.921,41.918945567128,3.608924,1.6105968,1.89048234396,-0.223694,-0.223694,0.223694,213.1, -5.5, -0.5,0,0,906,1022,1224,1000,-18,-0,30,-4,220.2,-20.4,-0.2,99,3.96,3.961,0,0,0,0,4.512,75.56,41.262777567128,2.952756,6,P-GPS,"Zona de altitud restringida 150m Presiona ligeramente el acelerador para controlar la orientación de la aeronave. Mantén pulsado el botón de bloqueo para que la aeronave aterrice"
10000,2025-05-20 10:44:25,-34.9206131068665,-56.169361011726,2.952756,3.0183728,38.244404767128,41.262777567128,3.937008,0.3131716,1.10201447096,7.247211518,17,5,7.921,41.918945567128,3.608924,1.6105968,1.89048234396,-0.223694,-0.223694,0.223694,213.1, -7, 0,0,0,908,1025,1239,998,-18,0,33,-4,220.3,-20.4,-0.2,99,3.96,3.961,0,0,0,0,4.512,75.56,41.262777567128,2.952756,6,P-GPS,"Zona de altitud restringida 150m Presiona ligeramente el acelerador para controlar la orientación de la aeronave. Mantén pulsado el botón de bloqueo para que la aeronave aterrice"
10100,2025-05-20 10:44:25,-34.9206135807359,-56.1693613062349,2.624672,2.6902888,38.244404767128,40.934693567128,3.608924,0.4921268,1.29287733796,7.4412403956,16,5,7.892,41.918945567128,3.608924,1.6105968,1.89048234396,-0.447388,-0.223694,0.223694,213.1, -7.9, -0.2,0,0,908,1023,1259,999,-18,-0,36,-4,220.3,-20.3,-0.3,99,3.948,3.949,0,0,0,0,4.753,75.74,40.934693567128,2.624672,6,P-GPS,"Zona de altitud restringida 150m Presiona ligeramente el acelerador para controlar la orientación de la aeronave. Mantén pulsado el botón de bloqueo para que la aeronave aterrice"
10200,2025-05-20 10:44:25,-34.920613840103,-56.1693616335094,2.624672,2.7230972,38.211596367128,40.934693567128,3.608924,0.6263432,1.41397314236,7.5773952556,16,5,7.892,41.918945567128,3.608924,1.6105968,1.89048234396,-0.447388,-0.447388,0.447388,213.1, -9.8, 0,0,0,908,1020,1295,999,-18,-1,41,-4,220.5,-20.2,0.2,99,3.948,3.949,0,0,0,0,4.753,75.74,40.934693567128,2.624672,6,P-GPS,"Zona de altitud restringida 150m Presiona ligeramente el acelerador para controlar la orientación de la aeronave. Mantén pulsado el botón de bloqueo para que la aeronave aterrice"
10300,2025-05-20 10:44:25,-34.9206141652215,-56.1693615545621,2.624672,2.7230972,38.211596367128,40.934693567128,3.608924,0.8052984,1.5186024108,7.6983598264,16,5,7.892,41.918945567128,3.608924,1.6105968,1.89048234396,-0.671082,-0.447388,0.447388,213.2, -12.3, 0.6,0,0,908,1019,1349,1000,-18,-1,49,-4,220.6,-20.1,0,99,3.948,3.949,0,0,0,0,4.753,75.74,40.934693567128,2.624672,6,P-GPS,"Zona de altitud restringida 150m Presiona ligeramente el acelerador para controlar la orientación de la aeronave. Mantén pulsado el botón de bloqueo para que la aeronave aterrice"
10400,2025-05-20 10:44:25,-34.9206145793273,-56.1693619506465,2.624672,2.7230972,38.211596367128,40.934693567128,3.28084,1.2974252,1.69986553996,7.8903545832,16,5,7.892,41.918945567128,3.608924,1.6105968,1.89048234396,-1.11847,-0.671082,0.447388,213.2, -16.9, 0.2,0,0,907,1019,1379,1000,-18,-1,54,-4,220.5,-20.1,-0.3,99,3.948,3.949,0,0,0,0,4.753,75.74,40.934693567128,2.624672,6,P-GPS,"Zona de altitud restringida 150m Presiona ligeramente el acelerador para controlar la orientación de la aeronave. Mantén pulsado el botón de bloqueo para que la aeronave aterrice"
10500,2025-05-20 10:44:26,-34.9206152505588,-56.1693621562105,2.296588,2.3950132,38.211596367128,40.606609567128,3.28084,1.8119214,1.95122053488,8.1428480296,16,5,7.892,41.918945567128,3.608924,1.8119214,1.95122053488,-1.565858,-0.894776,0.447388,213.2, -21.4, 0.3,0,0,907,1017,1415,999,-18,-1,59,-4,220.6,-20.3,-0.1,99,3.948,3.949,0,0,0,0,4.753,75.74,40.606609567128,2.296588,6,P-GPS,"Zona de altitud restringida 150m Presiona ligeramente el acelerador para controlar la orientación de la aeronave. Mantén pulsado el botón de bloqueo para que la aeronave aterrice"
10600,2025-05-20 10:44:26,-34.9206160226856,-56.1693627842014,2.296588,2.4278216,38.178787967128,40.606609567128,3.28084,2.4158952,2.28060374752,8.481463526,16,5,7.892,41.918945567128,3.608924,2.4158952,2.28060374752,-2.013246,-1.342164,0.447388,213, -23.7, 0.5,0,0,910,1019,1449,1002,-17,-1,64,-3,220.5,-20.3,-0.2,99,3.948,3.949,0,0,0,0,4.753,75.74,40.606609567128,2.296588,6,P-GPS,"Zona de altitud restringida 150m Presiona ligeramente el acelerador para controlar la orientación de la aeronave. Mantén pulsado el botón de bloqueo para que la aeronave aterrice"
10700,2025-05-20 10:44:26,-34.920617341084,-56.1693630761166,2.296588,2.4278216,38.178787967128,40.606609567128,3.28084,3.1093466,2.76203748996,8.9703414944,16,5,7.892,41.918945567128,3.608924,3.1093466,2.76203748996,-2.684328,-1.565858,0.447388,213, -26.3, 0.4,0,0,913,1018,1497,1003,-17,-1,72,-3,220.7,-19.9,-0.2,99,3.948,3.949,0,0,0,0,4.753,75.74,40.606609567128,2.296588,6,P-GPS,"Zona de altitud restringida 150m Presiona ligeramente el acelerador para controlar la orientación de la aeronave. Mantén pulsado el botón de bloqueo para que la aeronave aterrice"
10800,2025-05-20 10:44:26,-34.9206186228543,-56.1693640530372,2.296588,2.46063,38.145979567128,40.606609567128,3.28084,3.914645,3.3023623104,9.52181789,16,5,7.892,41.918945567128,3.608924,3.914645,3.3023623104,-3.35541,-2.013246,0.447388,213.1, -27.6, 0.6,0,0,912,1016,1519,1003,-17,-1,75,-3,220.7,-19.6,0,99,3.948,3.949,0,0,0,0,4.753,75.74,40.606609567128,2.296588,6,P-GPS,"Zona de altitud restringida 150m Presiona ligeramente el acelerador para controlar la orientación de la aeronave. Mantén pulsado el botón de bloqueo para que la aeronave aterrice"
10900,2025-05-20 10:44:26,-34.9206203588259,-56.1693646200485,1.968504,2.1653544,38.113171167128,40.278525567128,3.28084,4.7199434,3.954560494,10.177493764,16,5,7.892,41.918945567128,3.608924,4.7199434,3.954560494,-4.026492,-2.460634,0.447388,213, -27.6, 0.6,0,0,912,1013,1338,1001,-17,-2,48,-3,220.5,-19.4,-0.1,99,3.948,3.949,0,0,0,0,4.753,75.74,40.278525567128,1.968504,6,P-GPS,"Zona de altitud restringida 150m Presiona ligeramente el acelerador para controlar la orientación de la aeronave. Mantén pulsado el botón de bloqueo para que la aeronave aterrice"
11000,2025-05-20 10:44:26,-34.9206221749608,-56.1693660422902,1.968504,2.1981628,38.080362767128,40.278525567128,3.28084,5.5252418,4.7269030384,10.9649609808,16,5,7.892,41.918945567128,3.608924,5.5252418,4.7269030384,-4.697574,-2.908022,0.447388,212.8, -22, 0.5,0,0,913,1014,1051,1000,-17,-2,4,-4,220.1,-19.5,0,99,3.948,3.949,0,0,0,0,4.753,75.74,40.278525567128,1.968504,6,P-GPS,"Zona de altitud restringida 150m Presiona ligeramente el acelerador para controlar la orientación de la aeronave. Mantén pulsado el botón de bloqueo para que la aeronave aterrice"
11100,2025-05-20 10:44:26,-34.9206244990141,-56.1693666864844,1.968504,2.2637796,38.014745967128,40.278525567128,3.28084,5.8384134,5.5860894176,11.8345148144,17,5,7.849,41.918945567128,3.608924,5.8384134,5.5860894176,-4.921268,-3.131716,0.223694,212.7, -10.2, 0.4,0,0,913,1014,1024,998,-17,-2,0,-4,220,-19.3,0.7,99,3.912,3.896,0,0,0,0,5.32,75.92,40.278525567128,1.968504,6,P-GPS,"Zona de altitud restringida 150m Presiona ligeramente el acelerador para controlar la orientación de la aeronave. Mantén pulsado el botón de bloqueo para que la aeronave aterrice"
11200,2025-05-20 10:44:26,-34.9206265181882,-56.1693682439938,1.968504,2.296588,37.981937567128,40.278525567128,3.608924,5.8384134,6.4429464004,12.706201194,17,5,7.849,41.918945567128,3.608924,5.8384134,6.4429464004,-4.921268,-3.131716,0,212.8, 1.1, 0.9,0,0,916,1013,1024,996,-16,-2,0,-4,219.8,-19.2,1.3,99,3.912,3.896,0,0,0,0,5.32,75.92,40.278525567128,1.968504,6,P-GPS,"Zona de altitud restringida 150m Presiona ligeramente el acelerador para controlar la orientación de la aeronave. Mantén pulsado el botón de bloqueo para que la aeronave aterrice"
11300,2025-05-20 10:44:26,-34.9206284335896,-56.1693686880871,1.968504,2.3293964,37.949129167128,40.278525567128,3.608924,5.033115,7.1409779188,13.4175201144,17,5,7.849,41.918945567128,3.608924,5.8384134,7.1409779188,-4.250186,-2.684328,0,212.9, 11.6, 0.9,0,0,916,1012,1024,995,-16,-2,0,-4,219.6,-18.9,1.3,99,3.912,3.896,0,0,0,0,5.32,75.92,40.278525567128,1.968504,6,P-GPS,"Zona de altitud restringida 150m Presiona ligeramente el acelerador para controlar la orientación de la aeronave. Mantén pulsado el botón de bloqueo para que la aeronave aterrice"
11400,2025-05-20 10:44:26,-34.920630010781,-56.1693699313222,1.968504,2.3622048,37.916320767128,40.278525567128,3.937008,4.2278166,7.8134516936,14.10269074,17,5,7.849,41.918945567128,3.608924,5.8384134,7.8134516936,-3.579104,-2.23694,0,212.9, 21.7, 0.5,0,0,919,1011,1024,996,-16,-2,0,-4,219.7,-18.7,0.8,99,3.912,3.896,0,0,0,0,5.32,75.92,40.278525567128,1.968504,6,P-GPS,"Zona de altitud restringida 150m Presiona ligeramente el acelerador para controlar la orientación de la aeronave. Mantén pulsado el botón de bloqueo para que la aeronave aterrice"
11500,2025-05-20 10:44:27,-34.9206312425096,-56.1693698119906,1.968504,2.3950132,37.883512367128,40.278525567128,3.937008,3.0422384,8.2181433076,14.5535109644,16,4,7.849,41.918945567128,3.608924,5.8384134,8.2181433076,-2.460634,-1.789552,0,212.8, 21.2, 0.1,0,0,920,1011,1024,996,-16,-2,0,-4,219.8,-18.4,0.1,99,3.912,3.896,0,0,0,0,5.32,75.92,40.278525567128,1.968504,6,P-GPS,"Zona de altitud restringida 150m Presiona ligeramente el acelerador para controlar la orientación de la aeronave. Mantén pulsado el botón de bloqueo para que la aeronave aterrice"
11600,2025-05-20 10:44:27,-34.9206320186489,-56.1693704847979,1.968504,2.3950132,37.883512367128,40.278525567128,3.937008,1.9237684,8.5549215336,14.900919112,16,4,7.849,41.918945567128,3.608924,5.8384134,8.5549215336,-1.565858,-1.11847,0,212.6, 18.4, -0.6,0,0,921,1009,1024,996,-16,-2,0,-4,219.7,-18.2,-0.2,99,3.912,3.896,0,0,0,0,5.32,75.92,40.278525567128,1.968504,6,P-GPS,"Zona de altitud restringida 150m Presiona ligeramente el acelerador para controlar la orientación de la aeronave. Mantén pulsado el botón de bloqueo para que la aeronave aterrice"
11700,2025-05-20 10:44:27,-34.9206325475927,-56.1693696367807,1.968504,2.4278216,37.850703967128,40.278525567128,3.937008,0.9395148,8.6470475208,15.2196855264,16,4,7.849,41.918945567128,3.608924,5.8384134,8.6470475208,-0.671082,-0.671082,-0.223694,211.2, 13, -0.8,0,0,921,1006,1024,995,-16,-3,0,-4,219.6,-18,-0.7,99,3.912,3.896,0,0,0,0,5.32,75.92,40.278525567128,1.968504,6,P-GPS,"Zona de altitud restringida 150m Presiona ligeramente el acelerador para controlar la orientación de la aeronave. Mantén pulsado el botón de bloqueo para que la aeronave aterrice"
11800,2025-05-20 10:44:27,-34.9206327355049,-56.1693698784608,1.968504,2.4278216,37.850703967128,40.278525567128,3.937008,0.3131716,8.735892668,15.3193246372,16,4,7.849,41.918945567128,3.608924,5.8384134,8.735892668,-0.223694,-0.223694,-0.223694,206.3, 8.9, -1.1,0,0,920,1000,1024,1001,-16,-4,0,-3,219.4,-17.9,-0.9,99,3.912,3.896,0,0,0,0,5.32,75.92,40.278525567128,1.968504,6,P-GPS,"Zona de altitud restringida 150m Presiona ligeramente el acelerador para controlar la orientación de la aeronave. Mantén pulsado el botón de bloqueo para que la aeronave aterrice"
11900,2025-05-20 10:44:27,-34.9206331262325,-56.1693694009881,1.968504,2.3950132,37.883512367128,40.278525567128,3.937008,0.3131716,8.8236879464,15.5211291056,16,4,7.849,41.918945567128,3.608924,5.8384134,8.8236879464,0,0,-0.447388,204.4, 5.4, -1.1,0,0,919,999,1024,1004,-16,-4,0,-3,219,-18,-0.7,99,3.912,3.896,0,0,0,0,5.32,75.92,40.278525567128,1.968504,6,P-GPS,"Zona de altitud restringida 150m Presiona ligeramente el acelerador para controlar la orientación de la aeronave. Mantén pulsado el botón de bloqueo para que la aeronave aterrice"
12000,2025-05-20 10:44:27,-34.9206330465275,-56.1693694392677,2.296588,2.7230972,37.883512367128,40.606609567128,4.265092,0.223694,8.7998034312,15.5523955108,16,4,7.849,41.918945567128,3.608924,5.8384134,8.8236879464,0.223694,0,-0.447388,203.4, 2.8, -0.8,0,0,919,995,1024,1008,-16,-4,0,-2,218.6,-18.1,-0.6,99,3.912,3.896,0,0,0,0,5.32,75.92,40.606609567128,2.296588,6,P-GPS,"Zona de altitud restringida 150m"
12100,2025-05-20 10:44:27,-34.9206334587368,-56.169369827198,2.296588,2.7559056,37.850703967128,40.606609567128,4.265092,0.223694,8.97965908,15.7423561468,15,4,7.848,41.918945567128,3.608924,5.8384134,8.97965908,0.223694,0,-0.447388,202.8, -0.4, -0.7,0,0,927,986,1024,1012,-15,-6,0,-2,218.3,-17.9,-0.9,99,3.926,3.927,0,0,0,0,5.192,75.92,40.606609567128,2.296588,6,P-GPS,"Zona de altitud restringida 150m"
12200,2025-05-20 10:44:27,-34.9206332621635,-56.1693697908317,2.296588,2.7559056,37.850703967128,40.606609567128,4.265092,0.223694,8.9083336184,15.8148955192,15,4,7.848,41.918945567128,3.608924,5.8384134,8.97965908,0.223694,0,-0.447388,202.6, -3.3, -1,0,0,958,954,1024,1019,-10,-11,0,-1,218.3,-16.5,-1,99,3.926,3.927,0,0,0,0,5.192,75.92,40.606609567128,2.296588,6,P-GPS,"Zona de altitud restringida 150m"
12300,2025-05-20 10:44:27,-34.9206342513804,-56.1693706320576,2.296588,2.7559056,37.850703967128,40.606609567128,4.265092,0.223694,9.3326446556,16.2548889716,15,4,7.848,41.918945567128,3.608924,5.8384134,9.3326446556,0.223694,0,-0.223694,202.5, -3.3, -1,0,0,998,911,1024,1009,-4,-17,0,-2,218.3,-12.6,-1.1,99,3.926,3.927,0,0,0,0,5.192,75.92,40.606609567128,2.296588,6,P-GPS,"Zona de altitud restringida 150m"
12400,2025-05-20 10:44:27,-34.9206341244801,-56.169370600005,2.296588,2.7559056,37.850703967128,40.606609567128,4.265092,0.223694,9.2858270688,16.302165876,15,4,7.848,41.918945567128,3.608924,5.8384134,9.3326446556,0.223694,0,0,202.5, -3.4, -1,0,0,1000,882,1024,990,-4,-22,0,-5,218.4,-7.7,-0.8,99,3.926,3.927,0,0,0,0,5.192,75.92,40.606609567128,2.296588,6,P-GPS,"Zona de altitud restringida 150m"
12500,2025-05-20 10:44:28,-34.9206356916107,-56.1693715379017,2.296588,2.788714,37.817895567128,40.606609567128,4.265092,0.223694,9.9192588476,16.9390425368,16,4,7.848,41.918945567128,3.608924,5.8384134,9.9192588476,0.223694,0,0,202.5, -3.4, -0.8,0,0,988,856,1024,963,-5,-25,0,-9,218.5,-5.5,-0.4,99,3.926,3.927,0,0,0,0,5.192,75.92,40.606609567128,2.296588,6,P-GPS,"Zona de altitud restringida 150m"
12600,2025-05-20 10:44:28,-34.9206356406265,-56.1693715031392,2.296588,2.788714,37.817895567128,40.606609567128,4.265092,0,9.8981958548,16.9603679968,16,4,7.848,41.918945567128,3.608924,5.8384134,9.9192588476,0,0,0,202.5, -3.3, -0.3,0,0,978,842,1024,950,-7,-28,0,-11,218.5,-5.7,-0.1,99,3.926,3.927,0,0,0,0,5.192,75.92,40.606609567128,2.296588,6,P-GPS,"Zona de altitud restringida 150m"
12700,2025-05-20 10:44:28,-34.9206371308387,-56.1693724516629,2.296588,2.8215224,37.785087167128,40.606609567128,4.265092,0,10.5068901,17.573655418,16,4,7.848,41.918945567128,3.608924,5.8384134,10.5068901,0,0,0,202.5, -3.2, -0.3,0,0,952,826,1024,936,-11,-30,0,-13,218.4,-7.2,-0.5,99,3.926,3.927,0,0,0,0,5.192,75.92,40.606609567128,2.296588,6,P-GPS,"Zona de altitud restringida 150m"
12800,2025-05-20 10:44:28,-34.9206371214664,-56.1693724472577,2.296588,2.8215224,37.785087167128,40.606609567128,4.265092,0,10.5032155592,17.5773299588,16,4,7.848,41.918945567128,3.608924,5.8384134,10.5068901,0,0,0,202.4, -2.9, -0.8,0,0,932,821,1024,936,-14,-31,0,-13,218.3,-10.1,-0.7,99,3.926,3.927,0,0,0,0,5.192,75.92,40.606609567128,2.296588,6,P-GPS,"Zona de altitud restringida 150m"
12900,2025-05-20 10:44:28,-34.9206380048899,-56.1693731978949,2.296588,2.8543308,37.752278767128,40.606609567128,4.265092,0,10.8846132092,17.970144932,16,4,7.848,41.918945567128,3.608924,5.8384134,10.8846132092,0,0,0,202.4, -2.5, -0.7,0,0,917,848,1024,940,-16,-27,0,-13,218.3,-14,-0.3,99,3.926,3.927,0,0,0,0,5.192,75.92,40.606609567128,2.296588,6,P-GPS,"Zona de altitud restringida 150m"
13000,2025-05-20 10:44:28,-34.9206380364463,-56.169373187337,2.296588,2.8543308,37.752278767128,40.606609567128,4.265092,0,10.894193262,17.9820871896,16,4,7.848,41.918945567128,3.608924,5.8384134,10.894193262,0,0,0,202.4, -2.1, -0.1,0,0,918,879,1024,947,-16,-22,0,-12,218.3,-16.8,0.4,99,3.926,3.927,0,0,0,0,5.192,75.92,40.606609567128,2.296588,6,P-GPS,"Zona de altitud restringida 150m"
