time(millisecond),datetime(utc),latitude,longitude,height_above_takeoff(feet),height_above_ground_at_drone_location(feet),ground_elevation_at_drone_location(feet),altitude_above_seaLevel(feet),height_sonar(feet),speed(mph),distance(feet),mileage(feet),satellites,gpslevel,voltage(v),max_altitude(feet),max_ascent(feet),max_speed(mph),max_distance(feet), xSpeed(mph), ySpeed(mph), zSpeed(mph), compass_heading(degrees), pitch(degrees), roll(degrees),isPhoto,isVideo,rc_elevator,rc_aileron,rc_throttle,rc_rudder,rc_elevator(percent),rc_aileron(percent),rc_throttle(percent),rc_rudder(percent),gimbal_heading(degrees),gimbal_pitch(degrees),gimbal_roll(degrees),battery_percent,voltageCell1,voltageCell2,voltageCell3,voltageCell4,voltageCell5,voltageCell6,current(A),battery_temperature(f),altitude(feet),ascent(feet),flycStateRaw,flycState,message
0,2022-09-06 17:02:39,-34.9109952058917,-55.0429758159201,0,0,34.974367260912,34.974367260912,0,0,0,0,14,4,0,34.974367260912,0,0,0,0,0,0,88.2, -9.6, 3,0,0,364,364,364,1684,-100,-100,-100,100,100.3,0,0,100,4.336,4.334,0,0,0,0,0,78.8,34.974367260912,0,41,Motors_Started,"En vuelo"
100,2022-09-06 17:02:40,-34.9109954562909,-55.0429757484525,0,0,34.974367260912,34.974367260912,0,0,0.0935613547,0.0935613547,14,4,0,34.974367260912,0,0,0.0935613547,0,0,0,90.6, -9.1, 2.2,0,0,364,364,364,1684,-100,-100,-100,100,101.4,0,0,100,4.336,4.334,0,0,0,0,0,78.8,34.974367260912,0,41,Motors_Started,
200,2022-09-06 17:02:40,-34.9109956374805,-55.0429759054511,0,0.032808400000005,34.941558860912,34.974367260912,0,0,0.159727039232,0.174657485904,14,4,0,34.974367260912,0,0,0.159727039232,0,0,0,90.3, -8.5, 1.7,0,0,364,364,364,1684,-100,-100,-100,100,102.2,0,0,100,4.336,4.334,0,0,0,0,0,78.8,34.974367260912,0,41,Motors_Started,
300,2022-09-06 17:02:40,-34.910995855152,-55.0429761411855,0,0.032808400000005,34.941558860912,34.974367260912,0.328084,0,0.256093184048,0.280872056232,14,4,0,34.974367260912,0,0,0.256093184048,0,0,0,91.1, -7.7, 2.4,0,0,364,364,364,1684,-100,-100,-100,100,102.5,0,0,100,4.336,4.334,0,0,0,0,0,78.8,34.974367260912,0,41,Motors_Started,
400,2022-09-06 17:02:40,-34.9109960000554,-55.0429763040083,0,0.032808400000005,34.941558860912,34.974367260912,0.328084,0,0.324469498572,0.35276247848,14,4,0,34.974367260912,0,0,0.324469498572,0,0,0,91.3, -6.8, 2.7,0,0,364,364,364,1684,-100,-100,-100,100,102.9,0,0,100,4.336,4.334,0,0,0,0,0,78.8,34.974367260912,0,41,Motors_Started,
500,2022-09-06 17:02:40,-34.9109962045208,-55.0429769617679,0,0.032808400000005,34.941558860912,34.974367260912,0.328084,0,0.50028216824,0.5632218028,14,4,0,34.974367260912,0,0,0.50028216824,0,0,0,92.1, -6.9, 1.7,0,0,1024,1024,364,1684,0,0,-100,100,103.4,0,0,100,4.336,4.334,0,0,0,0,0,78.8,34.974367260912,0,41,Motors_Started,
600,2022-09-06 17:02:40,-34.910996291621,-55.0429770524121,0,0.032808400000005,34.941558860912,34.974367260912,0.328084,0,0.54201445304,0.60500001936,14,4,0,34.974367260912,0,0,0.54201445304,0,0,0,91.9, -5.3, 2.5,0,0,1024,1024,1024,1024,0,0,0,0,103.8,0,0,100,4.336,4.334,0,0,0,0,0,78.8,34.974367260912,0,41,Motors_Started,
700,2022-09-06 17:02:40,-34.9109963883137,-55.0429770922806,0,0.032808400000005,34.941558860912,34.974367260912,0.328084,0,0.57614175072,0.6422408342,14,4,0,34.974367260912,0,0,0.57614175072,0,0,0,91.7, -5.5, 1.4,0,0,1024,1024,1024,1024,0,0,0,0,103.7,0,0,100,4.336,4.334,0,0,0,0,0,78.8,34.974367260912,0,41,Motors_Started,
800,2022-09-06 17:02:40,-34.9109964818403,-55.0429770823219,0,0.032808400000005,34.941558860912,34.974367260912,0.328084,0,0.60023295884,0.6764928038,14,4,0,34.974367260912,0,0,0.60023295884,0,0,0,92, -5.4, 0.9,0,0,1024,1024,1024,1024,0,0,0,0,103.6,0,0,100,4.336,4.334,0,0,0,0,0,78.8,34.974367260912,0,41,Motors_Started,"Setting new Return-To-Home altitude to 60m (197 ft). Data Recorder File Index is 59. Setting new Maximum Flight Altitude to 120m (394 ft)"
900,2022-09-06 17:02:40,-34.9109966976483,-55.0429768207735,0,0.065616800000004,34.908750460912,34.974367260912,0.328084,0,0.62178151596,0.78750330604,14,4,0,34.974367260912,0,0,0.62178151596,0,0,0,91.7, -5.1, 1.3,0,0,1024,1024,1024,1024,0,0,0,0,103.6,0,0,100,4.336,4.334,0,0,0,0,0,78.8,34.974367260912,0,41,Motors_Started,
1000,2022-09-06 17:02:40,-34.9109967943524,-55.0429767968649,0,0.065616800000004,34.908750460912,34.974367260912,0.328084,0,0.64962600504,0.82350396336,14,4,0,34.974367260912,0,0,0.64962600504,0,0,0,92, -5.4, 1.5,0,0,1024,1024,1024,1024,0,0,0,0,103.6,0,0,100,4.336,4.334,0,0,0,0,0,78.8,34.974367260912,0,41,Motors_Started,
1100,2022-09-06 17:02:41,-34.9109968806847,-55.0429768194363,0,0.065616800000004,34.908750460912,34.974367260912,0.328084,0,0.68082679344,0.85571853132,14,4,0,34.974367260912,0,0,0.68082679344,0,0,0,92.4, -5, 2.4,0,0,1024,1024,1024,1024,0,0,0,0,103.7,0,0,100,4.336,4.334,0,0,0,0,0,78.8,34.974367260912,0,10,Assisted_Takeoff,
1200,2022-09-06 17:02:41,-34.9109969306342,-55.0429768046877,0,0.065616800000004,34.908750460912,34.974367260912,0.328084,0,0.6953412296,0.87446853192,14,4,0,34.974367260912,0,0,0.6953412296,0,0,0,92.4, -5.4, 1.7,0,0,1024,1024,1024,1024,0,0,0,0,103.9,0,0,100,4.336,4.334,0,0,0,0,0,78.8,34.974367260912,0,10,Assisted_Takeoff,
1300,2022-09-06 17:02:41,-34.9109969533679,-55.0429767746578,0,0.065616800000004,34.908750460912,34.974367260912,0.328084,0,0.69912075728,0.8866962226,14,4,8.718,34.974367260912,0,0,0.69912075728,0,0,0,91.8, -5.1, 1.3,0,0,1024,1024,1201,1024,0,0,27,0,103.8,0,0,100,4.336,4.334,0,0,0,0,0.546,78.8,34.974367260912,0,10,Assisted_Takeoff,
1400,2022-09-06 17:02:41,-34.9109969241088,-55.0429767143726,0,0.065616800000004,34.908750460912,34.974367260912,0.328084,0,0.68209319768,0.90765422852,14,4,8.718,34.974367260912,0,0,0.69912075728,0,0,0,91.7, -4.9, 2.2,0,0,1024,1024,1544,1024,0,0,79,0,103.6,0,0,100,4.336,4.334,0,0,0,0,0.546,78.8,34.974367260912,0,10,Assisted_Takeoff,
1500,2022-09-06 17:02:41,-34.9109969959251,-55.0429767021744,0,0.065616800000004,34.908750460912,34.974367260912,0.328084,0,0.70486878896,0.93411092228,14,4,8.718,34.974367260912,0,0,0.70486878896,0,0,0,90.9, -4.6, 2.8,0,0,1024,1024,1684,1024,0,0,100,0,103.2,0,0,100,4.336,4.334,0,0,0,0,0.546,78.8,34.974367260912,0,10,Assisted_Takeoff,
1600,2022-09-06 17:02:41,-34.9109970444836,-55.0429767117301,0,0.065616800000004,34.908750460912,34.974367260912,0.328084,0,0.72237207036,0.95205711708,14,4,8.718,34.974367260912,0,0,0.72237207036,0,0,0,90.5, -3.7, 2.6,0,0,1024,1024,1266,1024,0,0,37,0,102.5,0,0,100,4.336,4.334,0,0,0,0,0.546,78.8,34.974367260912,0,10,Assisted_Takeoff,
1700,2022-09-06 17:02:41,-34.9109970789694,-55.042976711862,0,0.065616800000004,34.908750460912,34.974367260912,0.328084,0,0.73408466916,0.96463913848,14,4,8.718,34.974367260912,0,0,0.73408466916,0,0,0,89.8, -3.3, 3,0,0,1024,1024,1024,1024,0,0,0,0,102,0,0,100,4.336,4.334,0,0,0,0,0.546,78.8,34.974367260912,0,10,Assisted_Takeoff,
1800,2022-09-06 17:02:41,-34.910997094992,-55.0429767242809,0,0.065616800000004,34.908750460912,34.974367260912,0.328084,0,0.74088256964,0.97156499172,14,4,8.718,34.974367260912,0,0,0.74088256964,0,0,0,90.3, -2.2, 3.2,0,0,1024,1024,1284,1024,0,0,39,0,101.6,0,0,100,4.336,4.334,0,0,0,0,0.546,78.8,34.974367260912,0,10,Assisted_Takeoff,
1900,2022-09-06 17:02:41,-34.9109971347363,-55.0429767306046,0,0.065616800000004,34.908750460912,34.974367260912,0.328084,0,0.75507548348,0.9861876956,14,4,8.718,34.974367260912,0,0,0.75507548348,0,0,0,91.1, -1.6, 3.1,0,0,1024,1024,1409,1024,0,0,58,0,102.2,0,0,100,4.336,4.334,0,0,0,0,0.546,78.8,34.974367260912,0,10,Assisted_Takeoff,
2000,2022-09-06 17:02:41,-34.9109972169751,-55.0429767023768,0,0.065616800000004,34.908750460912,34.974367260912,0.328084,0,0.78020671788,1.01735895644,14,4,8.718,34.974367260912,0,0,0.78020671788,0,0,0,92.1, -2.2, 3.3,0,0,1024,1024,1422,1024,0,0,60,0,102.9,0,0,100,4.336,4.334,0,0,0,0,0.546,78.8,34.974367260912,0,10,Assisted_Takeoff,
2100,2022-09-06 17:02:42,-34.9109973317481,-55.0429766871509,0,0.065616800000004,34.908750460912,34.974367260912,0.328084,0,0.81824805768,1.0594816612,14,4,8.718,34.974367260912,0,0,0.81824805768,0,0,0,92.5, -1.8, 3,0,0,1024,1024,1422,1024,0,0,60,0,103.7,0,0,100,4.336,4.334,0,0,0,0,0.546,78.8,34.974367260912,0,10,Assisted_Takeoff,
2200,2022-09-06 17:02:42,-34.9109975784252,-55.0429766273985,0,0.1312336,34.843133660912,34.974367260912,0.328084,0,0.89902233848,1.15124019432,14,4,8.718,34.974367260912,0,0,0.89902233848,0,0,0,94.1, -1.6, 2.5,0,0,1024,1024,1423,1024,0,0,60,0,104.7,0,0,100,4.336,4.334,0,0,0,0,0.546,78.8,34.974367260912,0,10,Assisted_Takeoff,
2300,2022-09-06 17:02:42,-34.9109977149608,-55.0429766426453,0,0.1312336,34.843133660912,34.974367260912,0.328084,0,0.9482611852,1.2012631618,14,4,8.676,34.974367260912,0,0,0.9482611852,0,0,0,94.5, 0.1, 3.6,0,0,1024,1024,1397,1024,0,0,57,0,105.6,0,0,100,4.304,4.309,0,0,0,0,1.226,78.8,34.974367260912,0,10,Assisted_Takeoff,
2400,2022-09-06 17:02:42,-34.9109978623228,-55.0429766159015,0,0.1312336,34.843133660912,34.974367260912,0.328084,0.223694,0.99831368024,1.25562011892,14,4,8.676,34.974367260912,0,0.223694,0.99831368024,-0.223694,0,0,95, 0, 5.5,0,0,1024,1024,1219,1024,0,0,30,0,105.6,0,0,100,4.304,4.309,0,0,0,0,1.226,78.8,34.974367260912,0,10,Assisted_Takeoff,
2500,2022-09-06 17:02:42,-34.910998074016,-55.0429765771281,0,0.1312336,34.843133660912,34.974367260912,0.328084,0.447388,1.0709317928,1.33372379596,14,4,8.676,34.974367260912,0,0.447388,1.0709317928,-0.447388,0,-0.447388,95.2, -0.1, 3.2,0,0,1024,1024,1024,1024,0,0,0,0,106.2,0,0,100,4.304,4.309,0,0,0,0,1.226,78.8,34.974367260912,0,6,P-GPS,
2600,2022-09-06 17:02:42,-34.9109982462871,-55.0429766035649,0,0.1312336,34.843133660912,34.974367260912,0.656168,0.671082,1.13404203104,1.39707353552,14,4,8.676,34.974367260912,0,0.671082,1.13404203104,-0.671082,0,-1.11847,94.8, -0.1, -1.7,0,0,1024,1024,1024,1024,0,0,0,0,106.2,0,0,100,4.304,4.309,0,0,0,0,1.226,78.8,34.974367260912,0,6,P-GPS,
2700,2022-09-06 17:02:42,-34.9109985364644,-55.0429766577836,0.328084,0.492126,34.810325260912,35.302451260912,0.656168,0.447388,1.24098757252,1.50417983816,14,4,8.676,35.302451260912,0.328084,0.671082,1.24098757252,-0.447388,0,-1.565858,94.8, 0.5, -3.2,0,0,1024,1024,1024,1024,0,0,0,0,106.2,0,0,100,4.304,4.309,0,0,0,0,1.226,78.8,35.302451260912,0.328084,6,P-GPS,
2800,2022-09-06 17:02:42,-34.9109988382151,-55.0429766955274,0.656168,0.82021,34.810325260912,35.630535260912,0.984252,0.447388,1.35112865216,1.61484913304,14,4,8.676,35.630535260912,0.656168,0.671082,1.35112865216,-0.447388,0,-1.789552,94.8, 0.3, -3.4,0,0,1024,1024,1024,1024,0,0,0,0,106.2,0,0,100,4.304,4.309,0,0,0,0,1.226,78.8,35.630535260912,0.656168,6,P-GPS,
2900,2022-09-06 17:02:42,-34.9109991477058,-55.0429767306125,0.984252,1.148294,34.810325260912,35.958619260912,1.312336,0.447388,1.4639764248,1.72825464848,14,4,8.676,35.958619260912,0.984252,0.671082,1.4639764248,-0.447388,0,-1.789552,94.8, 0.8, -4,0,0,1024,1024,1024,1024,0,0,0,0,106.2,0,0,100,4.304,4.309,0,0,0,0,1.226,78.8,35.958619260912,0.984252,6,P-GPS,
3000,2022-09-06 17:02:43,-34.9109994280978,-55.0429767334312,0.984252,1.148294,34.810325260912,35.958619260912,1.312336,0.223694,1.56473758288,1.83055780136,14,4,8.676,35.958619260912,0.984252,0.671082,1.56473758288,-0.223694,0,-1.342164,94.7, 0.5, -4.5,0,0,1024,1024,1024,1024,0,0,0,0,106.2,0,0,100,4.304,4.309,0,0,0,0,1.226,78.8,35.958619260912,0.984252,6,P-GPS,
3100,2022-09-06 17:02:43,-34.9109998765782,-55.0429766534965,1.312336,1.5091864,34.777516860912,36.286703260912,2.952756,0.223694,1.7224245958,1.99592526072,14,4,8.676,36.286703260912,1.312336,0.671082,1.7224245958,-0.223694,0,-0.894776,94.6, 0.2, -3.9,0,0,1024,1024,1024,1024,0,0,0,0,106.2,0,0,100,4.304,4.309,0,0,0,0,1.226,78.8,36.286703260912,1.312336,6,P-GPS,
3200,2022-09-06 17:02:43,-34.9110000641317,-55.0429767252303,1.312336,1.5091864,34.777516860912,36.286703260912,3.28084,0,1.79328417812,2.06764114228,14,4,8.676,36.286703260912,1.312336,0.671082,1.79328417812,0,0,-0.671082,94.6, 0, -3.4,0,0,1024,1024,1024,1024,0,0,0,0,106.2,0,0,100,4.304,4.309,0,0,0,0,1.226,78.8,36.286703260912,1.312336,6,P-GPS,
3300,2022-09-06 17:02:43,-34.9110002107919,-55.042976850193,1.64042,1.8372704,34.777516860912,36.614787260912,3.28084,0,1.85207026924,2.13291673492,14,4,8.641,36.614787260912,1.64042,0.671082,1.85207026924,0,0,-0.223694,94.6, -0.1, -2.4,0,0,1024,1024,1024,1024,0,0,0,0,106.2,0,0,100,4.274,4.271,0,0,0,0,1.738,78.62,36.614787260912,1.64042,6,P-GPS,
3400,2022-09-06 17:02:43,-34.9110003663815,-55.0429769683593,1.64042,1.8372704,34.777516860912,36.614787260912,3.28084,0,1.91411423448,2.19979337748,14,4,8.641,36.614787260912,1.64042,0.671082,1.91411423448,0,0,0,94.8, -0.2, -1.7,0,0,1024,1024,1024,1024,0,0,0,0,106.2,0,0,100,4.274,4.271,0,0,0,0,1.738,78.62,36.614787260912,1.64042,6,P-GPS,
3500,2022-09-06 17:02:43,-34.9110005802789,-55.0429772916659,1.64042,1.9028872,34.711900060912,36.614787260912,3.28084,0,2.00993772836,2.32407815836,14,4,8.641,36.614787260912,1.64042,0.671082,2.00993772836,0,0,0,94.8, -0.4, -1,0,0,1316,1024,1024,1024,44,0,0,0,106.2,0,0,100,4.274,4.271,0,0,0,0,1.738,78.62,36.614787260912,1.64042,6,P-GPS,
3600,2022-09-06 17:02:43,-34.9110007470206,-55.0429774918133,1.64042,1.9028872,34.711900060912,36.614787260912,3.28084,0,2.08292985668,2.40944233432,14,4,8.641,36.614787260912,1.64042,0.671082,2.08292985668,0,0,0,94.7, -0.4, -1,0,0,1024,1024,1024,1024,0,0,0,0,106.2,0,0,100,4.274,4.271,0,0,0,0,1.738,78.62,36.614787260912,1.64042,6,P-GPS,
3700,2022-09-06 17:02:43,-34.9110009268472,-55.0429777364578,1.64042,1.9028872,34.711900060912,36.614787260912,3.28084,0,2.16493445248,2.50773958156,14,4,8.641,36.614787260912,1.64042,0.671082,2.16493445248,0,0,0,94.7, -2.2, -1.4,0,0,1024,1024,1024,1024,0,0,0,0,106.2,0,0,100,4.274,4.271,0,0,0,0,1.738,78.62,36.614787260912,1.64042,6,P-GPS,
3800,2022-09-06 17:02:43,-34.9110010401885,-55.0429777696408,1.64042,1.9028872,34.711900060912,36.614787260912,3.28084,0,2.20744101552,2.55026582964,14,4,8.641,36.614787260912,1.64042,0.671082,2.20744101552,0,0,0,95.1, -0.6, -1.8,0,0,1071,1024,1024,1024,7,0,0,0,106.2,0,0,100,4.274,4.271,0,0,0,0,1.738,78.62,36.614787260912,1.64042,6,P-GPS,
3900,2022-09-06 17:02:43,-34.911001030119,-55.0429776304884,1.64042,1.9028872,34.711900060912,36.614787260912,3.28084,0,2.19322185496,2.5920604504,14,4,8.641,36.614787260912,1.64042,0.671082,2.20744101552,0,0,0,95.8, -0.3, -1.6,0,0,1362,1024,1024,1024,51,0,0,0,106.2,0,0,100,4.274,4.271,0,0,0,0,1.738,78.62,36.614787260912,1.64042,6,P-GPS,"Punto de origen actualizado. Altitud de RPO establecida en 60m (Code: 3000001)"
4000,2022-09-06 17:02:44,-34.9110011352636,-55.0429775929822,1.64042,1.9028872,34.711900060912,36.614787260912,3.28084,0,2.2277067642,2.63203092412,14,4,8.641,36.614787260912,1.64042,0.671082,2.2277067642,0,0,0,96.4, -0.3, -0.9,0,0,1528,1024,1024,1024,76,0,0,0,106.2,0,0,100,4.274,4.271,0,0,0,0,1.738,78.62,36.614787260912,1.64042,6,P-GPS,
4100,2022-09-06 17:02:44,-34.9110012673328,-55.0429775817328,1.64042,1.9028872,34.711900060912,36.614787260912,3.28084,0,2.27374351108,2.68033473144,14,4,8.641,36.614787260912,1.64042,0.671082,2.27374351108,-0.223694,0,0,97.1, -3.7, -1.6,0,0,1528,1024,1024,1024,76,0,0,0,106.2,0,0,100,4.274,4.271,0,0,0,0,1.738,78.62,36.614787260912,1.64042,6,P-GPS,
4200,2022-09-06 17:02:44,-34.9110014504563,-55.0429775760228,1.968504,2.2309712,34.711900060912,36.942871260912,3.28084,0.223694,2.33839246328,2.74716872308,14,4,8.641,36.942871260912,1.968504,0.671082,2.33839246328,-0.223694,0,0,97.9, -10.2, -2.6,0,0,1459,1024,1024,1024,66,0,0,0,106.2,0,0,100,4.274,4.271,0,0,0,0,1.738,78.62,36.942871260912,1.968504,6,P-GPS,
4300,2022-09-06 17:02:44,-34.9110017728043,-55.0429773698952,1.968504,2.2637796,34.679091660912,36.942871260912,3.28084,0.4921268,2.44062999936,2.87996728376,14,4,8.512,36.942871260912,1.968504,0.671082,2.44062999936,-0.223694,0.447388,0,98.6, -12.5, -2.3,0,0,1532,1024,1024,1024,77,0,0,0,106.2,0,0,100,4.267,4.264,0,0,0,0,4.025,78.8,36.942871260912,1.968504,6,P-GPS,
4400,2022-09-06 17:02:44,-34.9110020258629,-55.0429771020218,1.968504,2.2637796,34.679091660912,36.942871260912,3.28084,0.8052984,2.51783800708,3.00222778636,14,4,8.512,36.942871260912,1.968504,0.8052984,2.51783800708,-0.447388,0.671082,0,99, -12.1, -2.2,0,0,1538,1024,1024,1024,78,0,0,0,106.2,0,0,100,4.267,4.264,0,0,0,0,4.025,78.8,36.942871260912,1.968504,6,P-GPS,
4500,2022-09-06 17:02:44,-34.9110023252832,-55.0429766433876,1.968504,2.2637796,34.679091660912,36.942871260912,3.28084,1.2079476,2.60927829872,3.17762149276,14,4,8.512,36.942871260912,1.968504,1.2079476,2.60927829872,-0.447388,1.11847,0,99.7, -12.7, -2.2,0,0,1533,1024,1055,1024,77,0,5,0,106.2,0,0,100,4.267,4.264,0,0,0,0,4.025,78.8,36.942871260912,1.968504,6,P-GPS,
4600,2022-09-06 17:02:44,-34.9110026163155,-55.0429759941097,1.968504,2.296588,34.646283260912,36.942871260912,3.28084,1.7000744,2.70421268496,3.3990158568,14,4,8.512,36.942871260912,1.968504,1.7000744,2.70421268496,-0.671082,1.565858,0,100.4, -13.1, -2,0,0,1544,1024,1382,1024,79,0,54,0,106.2,0,0,100,4.267,4.264,0,0,0,0,4.025,78.8,36.942871260912,1.968504,6,P-GPS,
4700,2022-09-06 17:02:44,-34.9110029590476,-55.0429751080591,1.968504,2.3293964,34.613474860912,36.942871260912,3.28084,2.1922012,2.83665035324,3.6921261024,14,4,8.512,36.942871260912,1.968504,2.1922012,2.83665035324,-0.894776,2.013246,0,100.9, -13.1, -2.1,0,0,1549,1024,1643,1024,80,0,94,0,106.2,0,0,100,4.267,4.264,0,0,0,0,4.025,78.8,36.942871260912,1.968504,6,P-GPS,
4800,2022-09-06 17:02:44,-34.9110033646506,-55.0429741186777,1.968504,2.3293964,34.613474860912,36.942871260912,3.28084,2.7066974,3.01972122524,4.0230644332,14,4,8.512,36.942871260912,1.968504,2.7066974,3.01972122524,-1.11847,2.460634,-0.223694,101.3, -12.8, -2,0,0,1553,1024,1684,1024,80,0,100,0,106.2,0,0,100,4.267,4.264,0,0,0,0,4.025,78.8,36.942871260912,1.968504,6,P-GPS,
4900,2022-09-06 17:02:44,-34.9110039023718,-55.042972693641,2.296588,2.6902888,34.580666460912,37.270955260912,3.28084,3.1988242,3.307578846,4.4923885952,14,4,8.512,37.270955260912,2.296588,3.1988242,3.307578846,-1.342164,2.908022,-0.894776,101.9, -11.7, -3,0,0,1553,1024,1684,1024,80,0,100,0,106.2,0,0,100,4.267,4.264,0,0,0,0,4.025,78.8,37.270955260912,2.296588,6,P-GPS,
5000,2022-09-06 17:02:44,-34.9110044932543,-55.0429710560714,2.624672,3.0183728,34.580666460912,37.599039260912,3.608924,3.6238428,3.6755906688,5.0276576412,14,4,8.512,37.599039260912,2.624672,3.6238428,3.6755906688,-1.342164,3.35541,-1.789552,102.4, -10.9, -3.4,0,0,1561,1024,1684,1024,81,0,100,0,106.2,0,0,100,4.267,4.264,0,0,0,0,4.025,78.8,37.599039260912,2.624672,6,P-GPS,
5100,2022-09-06 17:02:45,-34.9110051550898,-55.0429691087005,2.952756,3.4120736,34.515049660912,37.927123260912,3.937008,4.1159696,4.1477363532,5.6583663228,14,4,8.512,37.927123260912,2.952756,4.1159696,4.1477363532,-1.565858,3.802798,-2.460634,102.9, -11.3, -2.5,0,0,1570,1024,1684,1024,83,0,100,0,106.2,0,0,100,4.267,4.264,0,0,0,0,4.025,78.8,37.927123260912,2.952756,6,P-GPS,
5200,2022-09-06 17:02:45,-34.9110059929291,-55.04296686068,3.28084,3.8057744,34.449432860912,38.255207260912,4.265092,4.5186188,4.7611221996,6.3971786824,14,4,8.512,38.255207260912,3.28084,4.5186188,4.7611221996,-1.565858,4.250186,-3.35541,103.3, -11.7, -2.1,0,0,1577,1024,1684,1024,84,0,100,0,106.2,0,0,100,4.267,4.264,0,0,0,0,4.025,78.8,38.255207260912,3.28084,6,P-GPS,
5300,2022-09-06 17:02:45,-34.9110069994166,-55.0429641916758,3.937008,4.4947508,34.416624460912,38.911375260912,4.92126,5.033115,5.532644534,7.27608291,14,4,8.542,38.911375260912,3.937008,5.033115,5.532644534,-1.789552,4.697574,-4.026492,103.6, -11.5, -1.7,0,0,1588,1024,1684,1024,85,0,100,0,106.2,0,0,100,4.21,4.205,0,0,0,0,3.654,78.8,38.911375260912,3.937008,6,P-GPS,
5400,2022-09-06 17:02:45,-34.9110079441039,-55.0429616578939,4.593176,5.2165356,34.351007660912,39.567543260912,5.577428,5.4581336,6.2883204112,8.1088585272,14,4,8.542,39.567543260912,4.593176,5.4581336,6.2883204112,-1.789552,5.144962,-4.921268,104, -11.1, -1.7,0,0,1630,1024,1684,1024,92,0,100,0,106.2,0,0,100,4.21,4.205,0,0,0,0,3.654,78.8,39.567543260912,4.593176,6,P-GPS,
5500,2022-09-06 17:02:45,-34.9110089399397,-55.0429589265431,5.577428,6.2664044,34.285390860912,40.551795260912,6.233596,5.7265664,7.1164044272,9.0031827028,14,4,8.542,40.551795260912,5.577428,5.7265664,7.1164044272,-2.013246,5.368656,-5.59235,104.4, -10.3, -1.1,0,0,1633,1024,1684,1024,92,0,100,0,106.2,0,0,100,4.21,4.205,0,0,0,0,3.654,78.8,40.551795260912,5.577428,6,P-GPS,
5600,2022-09-06 17:02:45,-34.9110101044595,-55.0429563025172,6.56168,7.2834648,34.252582460912,41.536047260912,7.217848,6.2410626,7.9770015676,9.8958664584,14,4,8.542,41.536047260912,6.56168,6.2410626,7.9770015676,-2.23694,5.816044,-6.039738,104.8, -11.1, -2.8,0,0,1628,1024,1684,1024,92,0,100,0,106.2,0,0,100,4.21,4.205,0,0,0,0,3.654,78.8,41.536047260912,6.56168,6,P-GPS,
5700,2022-09-06 17:02:45,-34.9110111652247,-55.0429532857094,7.545932,8.3333336,34.186965660912,42.520299260912,8.530184,6.4423872,8.9075134084,10.877953104,14,4,8.542,42.520299260912,7.545932,6.4423872,8.9075134084,-2.23694,6.039738,-6.263432,105, -11.2, -2.3,0,0,1628,1024,1684,1024,92,0,100,0,106.2,0,0,100,4.21,4.205,0,0,0,0,3.654,78.8,42.520299260912,7.545932,6,P-GPS,
5800,2022-09-06 17:02:45,-34.9110121962789,-55.0429502812421,8.530184,9.3832024,34.121348860912,43.504551260912,9.514436,6.934514,9.8383205248,11.8523953924,14,4,8.542,43.504551260912,8.530184,6.934514,9.8383205248,-2.460634,6.487126,-6.487126,105.4, -11.2, -2.2,0,0,1633,1024,1684,1024,92,0,100,0,106.2,0,0,100,4.21,4.205,0,0,0,0,3.654,78.8,43.504551260912,8.530184,6,P-GPS,
5900,2022-09-06 17:02:45,-34.9110133085534,-55.0429469850521,9.514436,10.4330712,34.055732060912,44.488803260912,10.498688,7.158208,10.8641407676,12.9188324344,14,4,8.542,44.488803260912,9.514436,7.158208,10.8641407676,-2.460634,6.71082,-6.487126,105.6, -12.1, -2.2,0,0,1653,1024,1526,1024,95,0,76,0,106.2,0,0,100,4.21,4.205,0,0,0,0,3.654,78.8,44.488803260912,9.514436,6,P-GPS,
6000,2022-09-06 17:02:45,-34.9110146483247,-55.0429436928163,10.498688,11.48294,33.990115260912,45.473055260912,11.48294,7.4266408,11.9452759728,14.0184387688,14,4,8.542,45.473055260912,10.498688,7.4266408,11.9452759728,-2.684328,6.934514,-6.263432,105.8, -12.7, -2.8,0,0,1610,1024,1123,1024,89,0,15,0,106.2,0,0,100,4.21,4.205,0,0,0,0,3.654,78.8,45.473055260912,10.498688,6,P-GPS,
6100,2022-09-06 17:02:46,-34.9110159792146,-55.0429400389751,11.48294,12.5328088,33.924498460912,46.457307260912,12.139108,7.8516594,13.1157484512,15.2146330328,14,4,8.542,46.457307260912,11.48294,7.8516594,13.1157484512,-2.684328,7.381902,-5.59235,106.2, -13, -2.7,0,0,1616,1024,1109,1133,90,0,13,17,106.2,0,0,100,4.21,4.205,0,0,0,0,3.654,78.8,46.457307260912,11.48294,6,P-GPS,
6200,2022-09-06 17:02:46,-34.9110173349789,-55.0429365178529,12.139108,13.2545936,33.858881660912,47.113475260912,12.795276,7.941137,14.2628285404,16.3784782144,14,4,8.542,47.113475260912,12.139108,7.941137,14.2628285404,-2.908022,7.381902,-4.697574,106.6, -13.2, -2.6,0,0,1600,1024,1114,1139,87,0,14,17,106.2,0,0,100,4.21,4.205,0,0,0,0,3.654,78.8,47.113475260912,12.139108,6,P-GPS,
6300,2022-09-06 17:02:46,-34.9110188211262,-55.0429327685416,12.795276,14.0091868,33.760456460912,47.769643260912,13.451444,8.0977228,15.4956369788,17.6244100128,14,4,8.524,47.769643260912,12.795276,8.0977228,15.4956369788,-3.802798,7.158208,-4.026492,116.5, -13.7, -3,0,0,1600,1024,1078,1479,87,0,8,69,106.3,0,0,100,4.251,4.25,0,0,0,0,4.415,78.8,47.769643260912,12.795276,6,P-GPS,
6400,2022-09-06 17:02:46,-34.911020258951,-55.0429291387389,13.451444,14.7309716,33.694839660912,48.425811260912,13.779528,8.2990474,16.6908141824,18.8304796052,14,4,8.524,48.425811260912,13.451444,8.2990474,16.6908141824,-3.802798,7.381902,-3.131716,116.6, -13.8, -3.4,0,0,1599,1024,1062,1394,87,0,6,56,106.6,0,0,100,4.251,4.25,0,0,0,0,4.415,78.8,48.425811260912,13.451444,6,P-GPS,
6500,2022-09-06 17:02:46,-34.9110222729943,-55.0429254807868,13.779528,15.1574808,33.596414460912,48.753895260912,14.107612,8.2990474,18.0089900776,20.1487211172,14,4,8.524,48.753895260912,13.779528,8.2990474,18.0089900776,-3.802798,7.381902,-2.460634,117.5, -15.6, -3.6,0,0,1600,1024,1024,1487,87,0,0,70,108.1,0,0,100,4.251,4.25,0,0,0,0,4.415,78.8,48.753895260912,13.779528,6,P-GPS,
6600,2022-09-06 17:02:46,-34.9110237690002,-55.042921776032,14.107612,15.58399,33.497989260912,49.081979260912,14.107612,8.500372,19.2357945788,21.3842526528,14,4,8.524,49.081979260912,14.107612,8.500372,19.2357945788,-3.802798,7.605596,-1.565858,119.4, -16.3, -4.2,0,0,1600,1024,1024,1487,87,0,0,70,110.2,0,0,100,4.251,4.25,0,0,0,0,4.415,78.8,49.081979260912,14.107612,6,P-GPS,
6700,2022-09-06 17:02:46,-34.9110253735582,-55.0429178002292,14.107612,15.6167984,33.465180860912,49.081979260912,14.107612,8.8135436,20.5533471144,22.7100400968,14,4,8.524,49.081979260912,14.107612,8.8135436,20.5533471144,-4.026492,7.82929,-0.671082,121.1, -16.1, -4.4,0,0,1575,1024,1024,1627,83,0,0,91,111.6,0,0,100,4.251,4.25,0,0,0,0,4.415,78.8,49.081979260912,14.107612,6,P-GPS,
6800,2022-09-06 17:02:46,-34.9110269321159,-55.0429139368312,14.107612,15.7152236,33.366755660912,49.081979260912,14.435696,8.9924988,21.834482326,23.9982291144,14,4,8.524,49.081979260912,14.107612,8.9924988,21.834482326,-4.026492,8.052984,-0.223694,122.9, -15.6, -2.9,0,0,1571,1024,1084,1024,83,0,9,0,114.6,0,0,100,4.251,4.25,0,0,0,0,4.415,78.8,49.081979260912,14.107612,6,P-GPS,
6900,2022-09-06 17:02:46,-34.9110286437831,-55.0429099795509,14.107612,15.8136488,33.268330460912,49.081979260912,14.435696,9.3056704,23.1696857808,25.3368118344,14,4,8.524,49.081979260912,14.107612,9.3056704,23.1696857808,-4.250186,8.276678,0,126, -13.3, -3.6,0,0,1614,1024,1039,1024,89,0,2,0,117.3,0,0,100,4.251,4.25,0,0,0,0,4.415,78.8,49.081979260912,14.107612,6,P-GPS,
7000,2022-09-06 17:02:46,-34.9110303246174,-55.0429058307141,14.107612,15.8792656,33.202713660912,49.081979260912,14.435696,9.5964726,24.548229132,26.7213263144,14,4,8.524,49.081979260912,14.107612,9.5964726,24.548229132,-4.47388,8.500372,0,128.1, -12.2, -2.7,0,0,1568,1024,1024,1024,82,0,0,0,118.5,0,0,100,4.251,4.25,0,0,0,0,4.415,78.8,49.081979260912,14.107612,6,P-GPS,
7100,2022-09-06 17:02:47,-34.9110321608509,-55.0429013639168,14.107612,15.9776908,33.104288460912,49.081979260912,14.435696,10.1109688,26.0381570012,28.2162738688,14,4,8.524,49.081979260912,14.107612,10.1109688,26.0381570012,-4.697574,8.94776,0,129, -12.2, -2.3,0,0,1565,1024,1064,1024,82,0,6,0,118.9,0,0,100,4.251,4.25,0,0,0,0,4.415,78.8,49.081979260912,14.107612,6,P-GPS,
7200,2022-09-06 17:02:47,-34.9110339685116,-55.0428969384689,14.435696,16.4042,33.005863260912,49.410063260912,14.435696,10.2228158,27.5126649224,29.6955061996,14,4,8.524,49.410063260912,14.435696,10.2228158,27.5126649224,-4.921268,8.94776,0,129.1, -11, -2.3,0,0,1586,1024,1088,1024,85,0,10,0,118.9,0,0,100,4.251,4.25,0,0,0,0,4.415,78.8,49.410063260912,14.435696,6,P-GPS,
7300,2022-09-06 17:02:47,-34.911035835806,-55.0428918481986,14.107612,16.1745412,32.907438060912,49.081979260912,14.435696,10.401771,29.1698828232,31.3639117648,14,4,8.416,49.410063260912,14.435696,10.401771,29.1698828232,-4.921268,9.171454,0,129, -10, -2.5,0,0,1568,1024,1381,1024,82,0,54,0,118.9,0,0,100,4.242,4.244,0,0,0,0,6.426,78.8,49.081979260912,14.107612,6,P-GPS,
7400,2022-09-06 17:02:47,-34.9110378687457,-55.0428872870908,14.107612,16.2729664,32.809012860912,49.081979260912,14.76378,10.513618,30.7221794608,32.916995804,14,4,8.416,49.410063260912,14.435696,10.513618,30.7221794608,-5.144962,9.171454,-0.223694,128.7, -10.3, -2.6,0,0,1568,1024,1381,1024,82,0,54,0,118.9,0,0,100,4.242,4.244,0,0,0,0,6.426,78.8,49.081979260912,14.107612,6,P-GPS,
7500,2022-09-06 17:02:47,-34.9110400973658,-55.0428824594168,14.107612,16.3713916,32.710587660912,49.081979260912,14.76378,10.7149426,32.37943017,34.574804256,14,4,8.416,49.410063260912,14.435696,10.7149426,32.37943017,-5.144962,9.395148,-0.447388,128.6, -10, -1.3,0,0,1567,1024,1579,1024,82,0,84,0,118.9,0,0,100,4.242,4.244,0,0,0,0,6.426,78.8,49.081979260912,14.107612,6,P-GPS,
7600,2022-09-06 17:02:47,-34.9110421724529,-55.0428779446312,14.107612,16.4370084,32.644970860912,49.081979260912,15.091864,10.8267896,33.927494524,36.123032652,14,4,8.416,49.410063260912,14.435696,10.8267896,33.927494524,-5.368656,9.395148,-1.11847,128.9, -11, -0.5,0,0,1560,1024,1645,1024,81,0,94,0,118.9,0,0,100,4.242,4.244,0,0,0,0,6.426,78.8,49.081979260912,14.107612,6,P-GPS,
7700,2022-09-06 17:02:47,-34.9110445674218,-55.0428732456854,14.435696,16.896326,32.513737260912,49.410063260912,15.419948,11.0057448,35.58235022,37.778544516,14,4,8.416,49.410063260912,14.435696,11.0057448,35.58235022,-5.368656,9.618842,-1.789552,128.9, -10.8, -0.9,0,0,1569,1024,1637,1024,83,0,93,0,118.9,0,0,100,4.242,4.244,0,0,0,0,6.426,78.8,49.410063260912,14.435696,6,P-GPS,
7800,2022-09-06 17:02:47,-34.9110467490482,-55.0428686902609,14.76378,17.3228352,32.415312060912,49.738147260912,16.076116,11.1175918,37.160762344,39.356628556,14,4,8.416,49.738147260912,14.76378,11.1175918,37.160762344,-5.59235,9.618842,-2.684328,128.8, -10.4, -2.2,0,0,1570,1024,1630,1024,83,0,92,0,118.9,0,0,100,4.242,4.244,0,0,0,0,6.426,78.8,49.738147260912,14.76378,6,P-GPS,
7900,2022-09-06 17:02:47,-34.9110491163205,-55.0428638329382,15.091864,17.7493444,32.316886860912,50.066231260912,16.732284,11.1175918,38.851379196,41.047245408,14,4,8.416,50.066231260912,15.091864,11.1175918,38.851379196,-5.59235,9.618842,-3.35541,128.8, -10.6, -1.7,0,0,1559,1024,1612,1024,81,0,89,0,118.9,0,0,100,4.242,4.244,0,0,0,0,6.426,78.8,50.066231260912,15.091864,6,P-GPS,
8000,2022-09-06 17:02:48,-34.9110513392312,-55.0428589867939,15.419948,18.1758536,32.218461660912,50.394315260912,17.388452,11.4307634,40.512140404,42.708662784,14,4,8.416,50.394315260912,15.419948,11.4307634,40.512140404,-5.816044,9.842536,-4.250186,128.9, -11.6, -1.8,0,0,1548,1024,1598,1024,79,0,87,0,118.9,0,0,100,4.242,4.244,0,0,0,0,6.426,78.8,50.394315260912,15.419948,6,P-GPS,
8100,2022-09-06 17:02:48,-34.9110536809793,-55.0428537701877,16.076116,18.9632552,32.087228060912,51.050483260912,18.04462,11.632088,42.291011852,44.487862316,14,4,8.416,51.050483260912,16.076116,11.632088,42.291011852,-5.816044,10.06623,-4.697574,129, -11.7, -1.3,0,0,1588,1024,1602,1024,85,0,88,0,118.9,0,0,100,4.242,4.244,0,0,0,0,6.426,78.8,51.050483260912,16.076116,6,P-GPS,
8200,2022-09-06 17:02:48,-34.9110557682928,-55.0428480169492,16.732284,19.68504,32.021611260912,51.706651260912,19.028872,11.743935,44.16174682,46.370408308,14,4,8.416,51.706651260912,16.732284,11.743935,44.16174682,-6.039738,10.06623,-4.921268,128.7, -11, -0.6,0,0,1556,1024,1559,1024,81,0,81,0,118.9,0,0,100,4.242,4.244,0,0,0,0,6.426,78.8,51.706651260912,16.732284,6,P-GPS,
8300,2022-09-06 17:02:48,-34.9110581372684,-55.0428423316999,17.716536,20.7677172,31.923186060912,52.690903260912,20.013124,11.855782,46.067258692,48.278216768,13,4,8.416,52.690903260912,17.716536,11.855782,46.067258692,-6.263432,10.06623,-5.144962,128.6, -10.5, -0.9,0,0,1556,1024,1559,1024,81,0,81,0,118.9,0,0,100,4.242,4.244,0,0,0,0,6.426,78.8,52.690903260912,17.716536,6,P-GPS,
8400,2022-09-06 17:02:48,-34.9110605648615,-55.0428369529977,18.372704,21.5551188,31.791952460912,53.347071260912,20.669292,11.855782,47.90354484,50.115159084,13,4,8.416,53.347071260912,18.372704,11.855782,47.90354484,-6.263432,10.06623,-5.368656,128.6, -10.8, -1.3,0,0,1559,1024,1571,1024,81,0,83,0,118.9,0,0,100,4.242,4.244,0,0,0,0,6.426,78.8,53.347071260912,18.372704,6,P-GPS,
8500,2022-09-06 17:02:48,-34.9110632345717,-55.0428313604344,19.028872,22.309712,31.693527260912,54.003239260912,21.653544,12.0571066,49.839896608,52.051182768,14,4,8.416,54.003239260912,19.028872,12.0571066,49.839896608,-6.263432,10.289924,-5.144962,128.7, -11, -1.2,0,0,1604,1024,1561,1024,88,0,81,0,118.9,0,0,100,4.242,4.244,0,0,0,0,6.426,78.8,54.003239260912,19.028872,6,P-GPS,
8600,2022-09-06 17:02:48,-34.9110657959317,-55.0428244966774,19.68504,23.0971136,31.562293660912,54.659407260912,22.309712,11.967629,52.086287756,54.307416436,14,4,8.416,54.659407260912,19.68504,12.0571066,52.086287756,-6.487126,10.06623,-5.144962,128.7, -11.2, -1.1,0,0,1617,1024,1576,1024,90,0,84,0,118.9,0,0,100,4.242,4.244,0,0,0,0,6.426,78.8,54.659407260912,19.68504,6,P-GPS,
8700,2022-09-06 17:02:48,-34.9110684803239,-55.0428184135637,20.341208,23.8188984,31.496676860912,55.315575260912,23.293964,12.3479088,54.152560788,56.374345636,14,4,8.402,55.315575260912,20.341208,12.3479088,54.152560788,-6.487126,10.513618,-5.144962,128.9, -11.6, -0.9,0,0,1598,1024,1578,1024,87,0,84,0,118.9,0,0,100,4.223,4.213,0,0,0,0,5.363,78.8,55.315575260912,20.341208,6,P-GPS,
8800,2022-09-06 17:02:48,-34.9110709549726,-55.0428119915172,21.32546,24.934384,31.365443260912,56.299827260912,23.950132,12.3479088,56.26968684,58.4973772,14,4,8.402,56.299827260912,21.32546,12.3479088,56.26968684,-6.487126,10.513618,-5.144962,128.7, -11.6, -0.4,0,0,1573,1024,1523,1024,83,0,76,0,118.9,0,0,100,4.223,4.213,0,0,0,0,5.363,78.8,56.299827260912,21.32546,6,P-GPS,
8900,2022-09-06 17:02:48,-34.9110735222341,-55.0428048868518,21.981628,25.7217856,31.234209660912,56.955995260912,24.934384,12.2808006,58.581694788,60.82021192,14,4,8.402,56.955995260912,21.981628,12.3479088,58.581694788,-6.71082,10.289924,-5.144962,128.7, -12.4, -0.4,0,0,1573,1024,1528,1024,83,0,76,0,118.9,0,0,100,4.223,4.213,0,0,0,0,5.363,78.8,56.955995260912,21.981628,6,P-GPS,
9000,2022-09-06 17:02:48,-34.911075980227,-55.0427969304406,22.637796,26.4435704,31.168592860912,57.612163260912,25.590552,12.2808006,61.098427152,63.363847172,14,4,8.402,57.612163260912,22.637796,12.3479088,61.098427152,-6.71082,10.289924,-4.921268,128.7, -11.6, -0.2,0,0,1573,1024,1528,1024,83,0,76,0,118.9,0,0,100,4.223,4.213,0,0,0,0,5.363,78.8,57.612163260912,22.637796,6,P-GPS,
9100,2022-09-06 17:02:49,-34.9110788425039,-55.0427914597523,23.293964,27.230972,31.037359260912,58.268331260912,26.24672,12.2136924,63.036091256,65.305448284,14,4,8.402,58.268331260912,23.293964,12.3479088,63.036091256,-6.934514,10.06623,-4.697574,128.6, -11.9, -0.5,0,0,1540,1024,1529,1024,78,0,77,0,118.9,0,0,100,4.223,4.213,0,0,0,0,5.363,78.8,58.268331260912,23.293964,6,P-GPS,
9200,2022-09-06 17:02:49,-34.9110816283547,-55.0427867091355,23.950132,27.9855652,30.938934060912,58.924499260912,27.230972,12.2136924,64.7719837,67.052823668,14,4,8.402,58.924499260912,23.950132,12.3479088,64.7719837,-7.158208,10.06623,-4.47388,128.7, -12, -1.1,0,0,1561,1024,1525,1024,81,0,76,0,118.9,0,0,100,4.223,4.213,0,0,0,0,5.363,78.8,58.924499260912,23.950132,6,P-GPS,
9300,2022-09-06 17:02:49,-34.9110846164908,-55.0427819436213,24.6063,28.7729668,30.807700460912,59.580667260912,27.88714,12.3479088,66.548886644,68.847771232,14,4,8.402,59.580667260912,24.6063,12.3479088,66.548886644,-7.158208,10.06623,-4.47388,128.7, -11.6, -2.4,0,0,1574,1024,1513,1024,83,0,74,0,118.9,0,0,100,4.223,4.213,0,0,0,0,5.363,78.8,59.580667260912,24.6063,6,P-GPS,
9400,2022-09-06 17:02:49,-34.9110878075506,-55.0427800431824,25.262468,29.52756,30.709275260912,60.236835260912,28.871392,12.4821252,67.619096652,70.143374948,14,4,8.402,60.236835260912,25.262468,12.4821252,67.619096652,-7.381902,10.06623,-4.250186,128.8, -11.6, -2.5,0,0,1586,1024,1514,1024,85,0,74,0,118.9,0,0,100,4.223,4.213,0,0,0,0,5.363,78.8,60.236835260912,25.262468,6,P-GPS,
9500,2022-09-06 17:02:49,-34.9110909398561,-55.042775107925,25.918636,30.5446204,30.348382860912,60.893003260912,29.52756,12.7952968,69.469490412,72.010500992,13,4,8.402,60.893003260912,25.918636,12.7952968,69.469490412,-7.605596,10.289924,-4.250186,128.9, -11.5, -3,0,0,1570,1024,1510,1024,83,0,74,0,118.9,0,0,100,4.223,4.213,0,0,0,0,5.363,78.8,60.893003260912,25.918636,6,P-GPS,
9600,2022-09-06 17:02:49,-34.9110939696413,-55.042770170996,26.574804,31.7585312,29.790640060912,61.549171260912,30.183728,12.7952968,71.30249572,73.855645408,13,4,8.402,61.549171260912,26.574804,12.7952968,71.30249572,-7.605596,10.289924,-4.250186,128.9, -10.8, -3.2,0,0,1575,1024,1524,1024,83,0,76,0,118.9,0,0,100,4.223,4.213,0,0,0,0,5.363,78.8,61.549171260912,26.574804,6,P-GPS,
9700,2022-09-06 17:02:49,-34.9110971868799,-55.0427647827556,27.230972,32.972442,29.232897260912,62.205339260912,30.839896,12.974252,73.287075836,75.84973996,14,4,8.495,62.205339260912,27.230972,12.974252,73.287075836,-7.605596,10.513618,-4.250186,128.9, -10.1, -3.2,0,0,1592,1024,1532,1024,86,0,77,0,118.9,0,0,100,4.244,4.229,0,0,0,0,4.774,78.8,62.205339260912,27.230972,6,P-GPS,
9800,2022-09-06 17:02:49,-34.9111001370277,-55.0427594528932,27.88714,34.284778,28.576729260912,62.861507260912,31.824148,12.974252,75.207351488,77.773624536,14,4,8.495,62.861507260912,27.88714,12.974252,75.207351488,-7.605596,10.513618,-4.47388,128.8, -10, -3,0,0,1592,1024,1532,1024,86,0,77,0,118.9,0,0,100,4.244,4.229,0,0,0,0,4.774,78.8,62.861507260912,27.88714,6,P-GPS,
9900,2022-09-06 17:02:49,-34.911103037319,-55.0427532523968,28.543308,35.6299224,27.887752860912,63.517675260912,32.480316,13.3321624,77.342850244,79.909123292,14,4,8.495,63.517675260912,28.543308,13.3321624,77.342850244,-7.605596,10.961006,-4.47388,129, -11.1, -2,0,0,1621,1024,1568,1024,90,0,82,0,118.9,0,0,100,4.244,4.229,0,0,0,0,4.774,78.8,63.517675260912,28.543308,6,P-GPS,
10000,2022-09-06 17:02:49,-34.9111058267589,-55.0427472806902,29.199476,36.9750668,27.198776460912,64.173843260912,33.136484,13.3321624,79.398952672,81.965553804,14,4,8.495,64.173843260912,29.199476,13.3321624,79.398952672,-7.605596,10.961006,-4.47388,128.9, -11.4, -1.7,0,0,1656,1024,1610,1024,96,0,89,0,118.9,0,0,100,4.244,4.229,0,0,0,0,4.774,78.8,64.173843260912,29.199476,6,P-GPS,
10100,2022-09-06 17:02:50,-34.9111087450608,-55.0427407086767,29.855644,38.3202112,26.509800060912,64.830011260912,33.792652,13.645334,81.633532796,84.201446264,13,4,8.495,64.830011260912,29.855644,13.645334,81.633532796,-7.82929,11.1847,-4.697574,128.9, -12, -1.9,0,0,1659,1024,1597,1024,96,0,87,0,118.9,0,0,100,4.244,4.229,0,0,0,0,4.774,78.8,64.830011260912,29.855644,6,P-GPS,
10200,2022-09-06 17:02:50,-34.9111116335948,-55.0427343808101,30.511812,39.7637808,25.722398460912,65.486179260912,34.776904,13.645334,83.799543364,86.368441084,13,4,8.495,65.486179260912,30.511812,13.645334,83.799543364,-7.82929,11.1847,-4.921268,128.6, -11.4, -1.5,0,0,1684,1024,1610,1024,100,0,89,0,118.9,0,0,100,4.244,4.229,0,0,0,0,4.774,78.8,65.486179260912,30.511812,6,P-GPS,
10300,2022-09-06 17:02:50,-34.9111143059887,-55.0427255116007,31.496064,41.6010512,24.869380060912,66.470431260912,35.433072,13.7795504,86.582679936,89.195540912,14,4,8.495,66.470431260912,31.496064,13.7795504,86.582679936,-8.052984,11.1847,-5.144962,128.8, -12, -2,0,0,1684,1024,1620,1024,100,0,90,0,118.9,0,0,100,4.244,4.229,0,0,0,0,4.774,78.8,66.470431260912,31.496064,6,P-GPS,
10400,2022-09-06 17:02:50,-34.9111173475442,-55.042719624494,32.152232,42.979004,24.147595260912,67.126599260912,36.08924,13.7795504,88.66306058,91.277233892,14,4,8.495,67.126599260912,32.152232,13.7795504,88.66306058,-8.052984,11.1847,-5.368656,128.8, -13.6, -1.7,0,0,1684,1024,1684,1024,100,0,100,0,118.9,0,0,100,4.244,4.229,0,0,0,0,4.774,78.8,67.126599260912,32.152232,6,P-GPS,
10500,2022-09-06 17:02:50,-34.9111206206255,-55.0427136889341,33.136484,44.6850408,23.425810460912,68.110851260912,37.073492,14.4058936,90.79888742,93.417325824,14,4,8.495,68.110851260912,33.136484,14.4058936,90.79888742,-8.500372,11.632088,-5.368656,128.8, -12.6, -1.6,0,0,1684,1024,1684,1024,100,0,100,0,118.9,0,0,100,4.244,4.229,0,0,0,0,4.774,78.8,68.110851260912,33.136484,6,P-GPS,
10600,2022-09-06 17:02:50,-34.9111241369441,-55.0427077725549,34.120736,46.3582692,22.736834060912,69.095103260912,37.72966,14.54011,92.974412424,95.603349516,14,4,8.495,69.095103260912,34.120736,14.54011,92.974412424,-8.724066,11.632088,-5.816044,128.6, -10.8, -1.8,0,0,1684,1024,1684,1024,100,0,100,0,118.9,0,0,100,4.244,4.229,0,0,0,0,4.774,78.8,69.095103260912,34.120736,6,P-GPS,
10700,2022-09-06 17:02:50,-34.9111288393954,-55.042701873267,35.104988,48.1299228,21.949432460912,70.079355260912,38.713912,14.7190652,95.366800952,98.064963768,13,4,8.44,70.079355260912,35.104988,14.7190652,95.366800952,-8.724066,11.855782,-6.263432,128.8, -10.3, -1.6,0,0,1684,1024,1684,1024,100,0,100,0,118.9,0,0,99,4.2,4.185,0,0,0,0,5.109,78.98,70.079355260912,35.104988,6,P-GPS,
10800,2022-09-06 17:02:50,-34.9111324732225,-55.0426959138879,36.08924,49.7703428,21.293264460912,71.063607260912,39.698164,14.7190652,97.57710286,100.286748616,13,4,8.44,71.063607260912,36.08924,14.7190652,97.57710286,-8.724066,11.855782,-6.263432,128.8, -10.6, -1.4,0,0,1684,1024,1684,1024,100,0,100,0,118.9,0,0,99,4.2,4.185,0,0,0,0,5.109,78.98,71.063607260912,36.08924,6,P-GPS,
10900,2022-09-06 17:02:50,-34.9111362610614,-55.0426897186777,37.073492,51.4435712,20.604288060912,72.047859260912,40.682416,14.8532816,99.877627868,102.598756564,14,4,8.44,72.047859260912,37.073492,14.8532816,99.877627868,-8.94776,11.855782,-6.487126,128.7, -10.6, -1.8,0,0,1684,1024,1684,1024,100,0,100,0,118.9,0,0,99,4.2,4.185,0,0,0,0,5.109,78.98,72.047859260912,37.073492,6,P-GPS,
11000,2022-09-06 17:02:50,-34.9111397860174,-55.0426838132678,38.057744,53.149608,19.882503260912,73.032111260912,41.0105,14.8532816,102.054793292,104.784124088,14,4,8.44,73.032111260912,38.057744,14.8532816,102.054793292,-8.94776,11.855782,-6.487126,128.7, -10.6, -2.1,0,0,1684,1024,1684,1024,100,0,100,0,118.9,0,0,99,4.2,4.185,0,0,0,0,5.109,78.98,73.032111260912,38.057744,6,P-GPS,
11100,2022-09-06 17:02:51,-34.9111434506678,-55.0426782211642,39.041996,54.7572196,19.259143660912,74.016363260912,41.0105,15.0322368,104.178481024,106.92585644,14,4,8.44,74.016363260912,39.041996,15.0322368,104.178481024,-8.94776,12.079476,-6.487126,128.8, -10.6, -2,0,0,1684,1024,1684,1024,100,0,100,0,118.9,0,0,99,4.2,4.185,0,0,0,0,5.109,78.98,74.016363260912,39.041996,6,P-GPS,
11200,2022-09-06 17:02:51,-34.9111469594956,-55.0426720155697,40.026248,56.430448,18.570167260912,75.000615260912,41.0105,15.1664532,106.430121516,109.181105856,14,4,8.44,75.000615260912,40.026248,15.1664532,106.430121516,-9.171454,12.079476,-6.487126,128.6, -10.8, -1.7,0,0,1684,1024,1684,1024,100,0,100,0,118.9,0,0,99,4.2,4.185,0,0,0,0,5.109,78.98,75.000615260912,40.026248,6,P-GPS,
11300,2022-09-06 17:02:51,-34.9111506845808,-55.0426653050286,41.0105,58.1364848,17.848382460912,75.984867260912,41.0105,15.211192,108.85170952,111.605646616,14,4,8.44,75.984867260912,41.0105,15.211192,108.85170952,-8.94776,12.30317,-6.487126,128.7, -10, -1.5,0,0,1684,1024,1684,1024,100,0,100,0,118.9,0,0,99,4.2,4.185,0,0,0,0,5.109,78.98,75.984867260912,41.0105,6,P-GPS,
11400,2022-09-06 17:02:51,-34.9111542091589,-55.0426589061641,42.322836,60.0721804,17.225022860912,77.297203260912,41.0105,15.3454084,111.155843452,113.911749052,14,4,8.44,77.297203260912,42.322836,15.3454084,111.155843452,-9.171454,12.30317,-6.487126,128.7, -9.8, -0.7,0,0,1684,1024,1684,1024,100,0,100,0,118.9,0,0,99,4.2,4.185,0,0,0,0,5.109,78.98,77.297203260912,42.322836,6,P-GPS,
11500,2022-09-06 17:02:51,-34.9111579267532,-55.0426521897936,43.307088,61.7782172,16.503238060912,78.281455260912,41.0105,15.1664532,113.578087624,116.336289812,14,4,8.44,78.281455260912,43.307088,15.3454084,113.578087624,-9.171454,12.079476,-6.71082,128.8, -10.1, -0.9,0,0,1684,1024,1684,1024,100,0,100,0,118.9,0,0,99,4.2,4.185,0,0,0,0,5.109,78.98,78.281455260912,43.307088,6,P-GPS,
11600,2022-09-06 17:02:51,-34.9111613016448,-55.0426459072045,44.29134,63.3858288,15.879878460912,79.265707260912,41.0105,15.3006696,115.824150688,118.583337128,14,4,8.44,79.265707260912,44.29134,15.3454084,115.824150688,-9.395148,12.079476,-6.71082,128.8, -10.8, -1.8,0,0,1684,1024,1684,1024,100,0,100,0,118.9,0,0,99,4.2,4.185,0,0,0,0,5.109,78.98,79.265707260912,44.29134,6,P-GPS,
11700,2022-09-06 17:02:51,-34.911165223459,-55.0426400718315,45.275592,64.9934404,15.256518860912,80.249959260912,41.0105,15.3006696,118.0610274,120.840555048,14,4,8.375,80.249959260912,45.275592,15.3454084,118.0610274,-9.395148,12.079476,-6.71082,128.8, -11.6, -2.6,0,0,1684,1024,1684,1024,100,0,100,0,118.9,0,0,99,4.186,4.18,0,0,0,0,6.378,78.98,80.249959260912,45.275592,6,P-GPS,
11800,2022-09-06 17:02:51,-34.9111689436198,-55.0426342049085,46.259844,66.5682436,14.665967660912,81.234211260912,41.0105,15.434886,120.267720384,123.059715224,14,4,8.375,81.234211260912,46.259844,15.434886,120.267720384,-9.618842,12.079476,-6.487126,128.8, -11.5, -2.7,0,0,1684,1024,1684,1024,100,0,100,0,118.9,0,0,99,4.186,4.18,0,0,0,0,6.378,78.98,81.234211260912,46.259844,6,P-GPS,
11900,2022-09-06 17:02:51,-34.9111728555461,-55.0426277767297,47.244096,68.1758552,14.042608060912,82.218463260912,41.0105,15.6138412,122.654531484,125.454728424,14,4,8.375,82.218463260912,47.244096,15.6138412,122.654531484,-9.618842,12.30317,-6.487126,128.8, -11.3, -2.5,0,0,1684,1024,1684,1024,100,0,100,0,118.9,0,0,99,4.186,4.18,0,0,0,0,6.378,78.98,82.218463260912,47.244096,6,P-GPS,
12000,2022-09-06 17:02:51,-34.9111765003165,-55.0426224583172,48.228348,69.7506584,13.452056860912,83.202715260912,41.0105,15.6138412,124.708665408,127.528219304,14,4,8.375,83.202715260912,48.228348,15.6138412,124.708665408,-9.618842,12.30317,-6.487126,129, -11.5, -2.5,0,0,1684,1024,1684,1024,100,0,100,0,118.9,0,0,99,4.186,4.18,0,0,0,0,6.378,78.98,83.202715260912,48.228348,6,P-GPS,
12100,2022-09-06 17:02:52,-34.9111802826447,-55.0426153824647,49.2126,71.35827,12.828697260912,84.186967260912,41.0105,15.7927964,127.235240292,130.055450356,13,4,8.375,84.186967260912,49.2126,15.7927964,127.235240292,-9.618842,12.526864,-6.487126,128.9, -11, -2.9,0,0,1684,1024,1684,1024,100,0,100,0,118.9,0,0,99,4.186,4.18,0,0,0,0,6.378,78.98,84.186967260912,49.2126,6,P-GPS,
12200,2022-09-06 17:02:52,-34.9111839133713,-55.0426085528276,50.196852,72.9330732,12.238146060912,85.171219260912,41.0105,15.9270128,129.67027974,132.490489804,13,4,8.375,85.171219260912,50.196852,15.9270128,129.67027974,-9.842536,12.526864,-6.487126,128.8, -10.9, -2.2,0,0,1684,1024,1684,1024,100,0,100,0,118.9,0,0,99,4.186,4.18,0,0,0,0,6.378,78.98,85.171219260912,50.196852,6,P-GPS,
12300,2022-09-06 17:02:52,-34.9111877706471,-55.0426013287527,51.181104,74.6063016,11.549169660912,86.155471260912,41.0105,16.105968,132.24901998,135.069886212,13,4,8.375,86.155471260912,51.181104,16.105968,132.24901998,-9.842536,12.750558,-6.487126,128.6, -11.1, -3.1,0,0,1684,1024,1684,1024,100,0,100,0,118.9,0,0,99,4.186,4.18,0,0,0,0,6.378,78.98,86.155471260912,51.181104,6,P-GPS,
12400,2022-09-06 17:02:52,-34.9111913926713,-55.0425934053122,52.165356,76.27953,10.860193260912,87.139723260912,41.0105,16.2401844,134.959649988,137.78379706,13,4,8.375,87.139723260912,52.165356,16.2401844,134.959649988,-10.06623,12.750558,-6.487126,128.4, -9.9, -0.8,0,0,1684,1024,1684,1024,100,0,100,0,118.9,0,0,99,4.186,4.18,0,0,0,0,6.378,78.98,87.139723260912,52.165356,6,P-GPS,
12500,2022-09-06 17:02:52,-34.9111955187576,-55.0425865056801,53.149608,77.8215248,10.302450460912,88.123975260912,41.0105,16.217815,137.5082065,140.338587168,13,4,8.375,88.123975260912,53.149608,16.2401844,137.5082065,-10.289924,12.526864,-6.487126,128.5, -10.3, -3.1,0,0,1684,1024,1684,1024,100,0,100,0,118.9,0,0,99,4.186,4.18,0,0,0,0,6.378,78.98,88.123975260912,53.149608,6,P-GPS,
12600,2022-09-06 17:02:52,-34.9111996665738,-55.0425804400129,54.461944,79.7572204,9.679090860912,89.436311260912,41.0105,16.217815,139.850070092,142.70177622,13,4,8.375,89.436311260912,54.461944,16.2401844,139.850070092,-10.289924,12.526864,-6.487126,128.7, -9.6, -2.2,0,0,1671,1024,1684,1024,98,0,100,0,118.9,0,0,99,4.186,4.18,0,0,0,0,6.378,78.98,89.436311260912,54.461944,6,P-GPS,
12700,2022-09-06 17:02:52,-34.9112041646618,-55.0425743508609,55.446196,81.2335984,9.186964860912,90.420563260912,41.0105,16.3520314,142.26706492,145.153876036,13,4,8.375,90.420563260912,55.446196,16.3520314,142.26706492,-10.513618,12.526864,-6.487126,128.9, -9.9, -3.5,0,0,1565,1024,1399,1024,82,0,57,0,118.9,0,0,99,4.186,4.18,0,0,0,0,6.378,78.98,90.420563260912,55.446196,6,P-GPS,
12800,2022-09-06 17:02:52,-34.9112096589537,-55.0425727409746,56.430448,82.4147008,8.990114460912,91.404815260912,41.0105,16.0164904,143.75492586,147.215227808,13,4,8.38,91.404815260912,56.430448,16.3520314,143.75492586,-10.513618,12.079476,-6.487126,129, -10, -4.9,0,0,1448,1024,1144,1024,64,0,18,0,118.9,0,0,99,4.165,4.165,0,0,0,0,6.255,78.98,91.404815260912,56.430448,6,P-GPS,
12900,2022-09-06 17:02:52,-34.9112141484565,-55.0425671432505,57.742784,84.2191628,8.497988460912,92.717151260912,41.0105,16.0388598,146.052170028,149.558075652,13,4,8.38,92.717151260912,57.742784,16.3520314,146.052170028,-10.289924,12.30317,-6.039738,128.8, -8.7, -3.9,0,0,1323,1024,1119,1024,45,0,14,0,118.9,0,0,99,4.165,4.165,0,0,0,0,6.255,78.98,92.717151260912,57.742784,6,P-GPS,
13000,2022-09-06 17:02:53,-34.9112182391339,-55.0425616082085,58.398952,85.2690316,8.104287660912,93.373319260912,41.0105,16.0388598,148.255254088,151.787406432,13,4,8.38,93.373319260912,58.398952,16.3520314,148.255254088,-10.289924,12.30317,-5.59235,128.7, -4.1, -4.3,0,0,1323,1024,1119,1024,45,0,14,0,118.9,0,0,99,4.165,4.165,0,0,0,0,6.255,78.98,93.373319260912,58.398952,6,P-GPS,
13100,2022-09-06 17:02:53,-34.9112223797589,-55.0425556545753,59.05512,86.4173256,7.612161660912,94.029487260912,41.0105,15.7256882,150.573823716,154.123036428,13,4,8.38,94.029487260912,59.05512,16.3520314,150.573823716,-10.06623,12.079476,-4.921268,128.7, -0.8, -4.8,0,0,1209,1024,1024,1024,28,0,0,0,118.9,0,0,99,4.165,4.165,0,0,0,0,6.255,78.98,94.029487260912,59.05512,6,P-GPS,
13200,2022-09-06 17:02:53,-34.9112261626734,-55.042549680424,59.711288,87.5328112,7.152844060912,94.685655260912,41.0105,15.4125166,152.825792292,156.3812386,13,4,8.38,94.685655260912,59.711288,16.3520314,152.825792292,-9.842536,11.855782,-4.250186,128.5, 2.5, -4.1,0,0,1187,1024,1024,1024,25,0,0,0,118.9,0,0,99,4.165,4.165,0,0,0,0,6.255,78.98,94.685655260912,59.711288,6,P-GPS,
13300,2022-09-06 17:02:53,-34.9112290716215,-55.0425426131381,60.039372,88.3858296,6.627909660912,95.013739260912,41.0105,15.1217144,155.175201816,158.747052324,14,4,8.38,95.013739260912,60.039372,16.3520314,155.175201816,-9.395148,11.855782,-3.802798,128.5, 4.8, -3.6,0,0,1238,1024,1230,1024,32,0,31,0,118.9,0,0,99,4.165,4.165,0,0,0,0,6.255,78.98,95.013739260912,60.039372,6,P-GPS,
13400,2022-09-06 17:02:53,-34.9112324395043,-55.0425367862063,60.367456,89.1404228,6.201400460912,95.341823260912,41.0105,14.6295876,157.307091648,160.879926408,14,4,8.38,95.341823260912,60.367456,16.3520314,157.307091648,-9.171454,11.408394,-2.908022,128.5, 5.2, -3.6,0,0,1300,1024,1389,1024,42,0,55,0,118.9,0,0,99,4.165,4.165,0,0,0,0,6.255,78.98,95.341823260912,60.367456,6,P-GPS,
13500,2022-09-06 17:02:53,-34.9112357919624,-55.0425308912017,60.367456,89.5997404,5.742082860912,95.341823260912,41.0105,14.3611548,159.452761008,163.026251936,13,4,8.38,95.341823260912,60.367456,16.3520314,159.452761008,-8.724066,11.408394,-2.460634,128.6, 5.7, -3.1,0,0,1439,1024,1416,1024,63,0,59,0,118.9,0,0,99,4.165,4.165,0,0,0,0,6.255,78.98,95.341823260912,60.367456,6,P-GPS,
13600,2022-09-06 17:02:53,-34.9112388847293,-55.0425253518974,60.69554,90.3543336,5.315573660912,95.669907260912,41.0105,13.869028,161.457682332,165.03117326,13,4,8.38,95.669907260912,60.69554,16.3520314,161.457682332,-8.500372,10.961006,-2.460634,128.8, 2.4, -2.4,0,0,1543,1024,1558,1024,79,0,81,0,118.9,0,0,99,4.165,4.165,0,0,0,0,6.255,78.98,95.669907260912,60.69554,6,P-GPS,
13700,2022-09-06 17:02:53,-34.9112412769265,-55.0425192684285,60.69554,90.7480344,4.921872860912,95.669907260912,41.0105,13.42164,163.457682396,167.049874112,13,4,8.38,95.669907260912,60.69554,16.3520314,163.457682396,-8.052984,10.737312,-2.684328,128.8, -2.1, -1.9,0,0,1553,1024,1612,1024,80,0,89,0,118.9,0,0,99,4.165,4.165,0,0,0,0,6.255,78.98,95.669907260912,60.69554,6,P-GPS,
13800,2022-09-06 17:02:53,-34.9112441752442,-55.0425139279101,61.023624,91.4370108,4.560980460912,95.997991260912,41.0105,13.42164,165.37402104,168.965884672,13,4,8.406,95.997991260912,61.023624,16.3520314,165.37402104,-8.052984,10.737312,-3.131716,128.9, -5.9, -1.8,0,0,1553,1024,1612,1024,80,0,89,0,118.9,0,0,99,4.221,4.217,0,0,0,0,6.263,79.16,95.997991260912,61.023624,6,P-GPS,
13900,2022-09-06 17:02:53,-34.9112471960729,-55.042508364703,61.351708,92.1587956,4.167279660912,96.326075260912,41.0105,13.6005952,167.370084096,170.962275812,13,4,8.406,96.326075260912,61.351708,16.3520314,167.370084096,-8.052984,10.961006,-3.802798,128.7, -7, -2.7,0,0,1568,1024,1611,1024,82,0,89,0,118.9,0,0,99,4.221,4.217,0,0,0,0,6.263,79.16,96.326075260912,61.351708,6,P-GPS,
14000,2022-09-06 17:02:54,-34.9112500889972,-55.0425030953079,62.007876,93.1430476,3.839195660912,96.982243260912,41.0105,13.7348116,169.267393868,172.859585584,13,4,8.406,96.982243260912,62.007876,16.3520314,169.267393868,-8.276678,10.961006,-4.47388,128.8, -7.1, -2.8,0,0,1552,1024,1586,1024,80,0,85,0,118.9,0,0,99,4.221,4.217,0,0,0,0,6.263,79.16,96.982243260912,62.007876,6,P-GPS,
14100,2022-09-06 17:02:54,-34.9112525408867,-55.042497399549,62.33596,93.667982,3.642345260912,97.310327260912,41.0105,13.7795504,171.18274826,174.784126328,13,4,8.406,97.310327260912,62.33596,16.3520314,171.18274826,-8.052984,11.1847,-4.697574,128.8, -6.8, -2.9,0,0,1481,1024,1561,1024,69,0,81,0,118.9,0,0,99,4.221,4.217,0,0,0,0,6.263,79.16,97.310327260912,62.33596,6,P-GPS,
14200,2022-09-06 17:02:54,-34.9112554952489,-55.042491898439,62.992128,94.32415,3.642345260912,97.966495260912,41.0105,13.9137668,173.150268008,176.751646076,13,4,8.406,97.966495260912,62.992128,16.3520314,173.150268008,-8.276678,11.1847,-4.921268,128.8, -5.9, -2.7,0,0,1024,1024,1024,1024,0,0,0,0,118.9,0,0,99,4.221,4.217,0,0,0,0,6.263,79.16,97.966495260912,62.992128,6,P-GPS,
14300,2022-09-06 17:02:54,-34.9112586275153,-55.0424859981273,63.648296,94.980318,3.642345260912,98.622663260912,41.0105,13.9137668,175.253286448,178.854664516,13,4,8.406,98.622663260912,63.648296,16.3520314,175.253286448,-8.276678,11.1847,-4.921268,128.6, -1.7, -2.9,0,0,1024,1024,1024,1024,0,0,0,0,118.9,0,0,99,4.221,4.217,0,0,0,0,6.263,79.16,98.622663260912,63.648296,6,P-GPS,
14400,2022-09-06 17:02:54,-34.9112617576973,-55.0424804746189,64.304464,95.636486,3.642345260912,99.278831260912,41.0105,13.6005952,177.261488612,180.863194764,13,4,8.406,99.278831260912,64.304464,16.3520314,177.261488612,-8.052984,10.961006,-4.250186,128, 17.6, -2.3,0,0,1024,1024,1024,1024,0,0,0,0,118.9,0,0,99,4.221,4.217,0,0,0,0,6.263,79.16,99.278831260912,64.304464,6,P-GPS,
14500,2022-09-06 17:02:54,-34.9112652628123,-55.0424740095411,64.632548,95.96457,3.642345260912,99.606915260912,41.0105,12.7952968,179.58005824,183.182092476,14,4,8.406,99.606915260912,64.632548,16.3520314,179.58005824,-7.605596,10.289924,-3.802798,128.4, 19.5, -1.2,0,0,1024,1024,1024,1024,0,0,0,0,118.9,0,0,99,4.221,4.217,0,0,0,0,6.263,79.16,99.606915260912,64.632548,6,P-GPS,
14600,2022-09-06 17:02:54,-34.9112681785087,-55.0424690662604,64.960632,96.292654,3.642345260912,99.934999260912,41.0105,11.9899984,181.400268272,185.003942928,14,4,8.406,99.934999260912,64.960632,16.3520314,181.400268272,-7.158208,9.618842,-3.131716,128.5, 20, -0.4,0,0,1024,1024,1024,1024,0,0,0,0,118.9,0,0,99,4.221,4.217,0,0,0,0,6.263,79.16,99.934999260912,64.960632,6,P-GPS,
14700,2022-09-06 17:02:54,-34.9112710543929,-55.0424641837395,65.288716,96.620738,3.642345260912,100.26308326091,41.0105,11.9899984,183.197512424,186.802499416,14,4,8.406,100.26308326091,65.288716,16.3520314,183.197512424,-6.71082,8.94776,-2.23694,128.5, 20, -0.5,0,0,1024,1024,1024,1024,0,0,0,0,118.9,0,0,99,4.221,4.217,0,0,0,0,6.263,79.16,100.26308326091,65.288716,6,P-GPS,
14800,2022-09-06 17:02:54,-34.9112736907526,-55.04245986494,65.288716,96.620738,3.642345260912,100.26308326091,41.0105,10.513618,184.805452108,188.413391856,14,4,8.337,100.26308326091,65.288716,16.3520314,184.805452108,-6.487126,8.276678,-1.342164,128.6, 19.8, -0.3,0,0,1024,1024,1024,1024,0,0,0,0,118.9,0,0,99,4.217,4.238,0,0,0,0,5.489,79.34,100.26308326091,65.288716,6,P-GPS,
14900,2022-09-06 17:02:54,-34.9112763483471,-55.0424556468499,65.6168,96.948822,3.642345260912,100.59116726091,41.0105,9.8872748,186.3927225,190.00492734,14,4,8.337,100.59116726091,65.6168,16.3520314,186.3927225,-6.039738,7.82929,-0.447388,128.5, 20.3, 0.4,0,0,1024,1024,1024,1024,0,0,0,0,118.9,0,0,99,4.217,4.238,0,0,0,0,5.489,79.34,100.59116726091,65.6168,6,P-GPS,
15000,2022-09-06 17:02:54,-34.9112789602931,-55.0424518125833,65.6168,96.948822,3.642345260912,100.59116726091,41.0105,9.0819764,187.875334096,191.496397204,14,4,8.337,100.59116726091,65.6168,16.3520314,187.875334096,-5.59235,7.158208,-0.223694,128.5, 20.5, 0.1,0,0,1024,1024,1024,1024,0,0,0,0,118.9,0,0,99,4.217,4.238,0,0,0,0,5.489,79.34,100.59116726091,65.6168,6,P-GPS,
15100,2022-09-06 17:02:55,-34.9112812172123,-55.0424484501879,65.6168,96.948822,3.642345260912,100.59116726091,41.0105,8.4556332,189.16831314,192.796266012,14,4,8.337,100.59116726091,65.6168,16.3520314,189.16831314,-5.144962,6.71082,0,128.2, 20, 0.1,0,0,1024,1024,1024,1024,0,0,0,0,118.9,0,0,99,4.217,4.238,0,0,0,0,5.489,79.34,100.59116726091,65.6168,6,P-GPS,
15200,2022-09-06 17:02:55,-34.9112831522467,-55.0424455272362,65.944884,97.276906,3.642345260912,100.91925126091,41.0105,7.4713796,190.287407664,193.920281796,14,4,8.337,100.91925126091,65.944884,16.3520314,190.287407664,-4.697574,5.816044,0,128, 19.4, -0.2,0,0,1024,1024,1024,1024,0,0,0,0,118.9,0,0,99,4.217,4.238,0,0,0,0,5.489,79.34,100.91925126091,65.944884,6,P-GPS,
15300,2022-09-06 17:02:55,-34.9112849918412,-55.0424427600286,65.944884,97.276906,3.642345260912,100.91925126091,41.0105,6.9792528,191.348103236,194.985898628,14,4,8.337,100.91925126091,65.944884,16.3520314,191.348103236,-4.47388,5.368656,0,128, 19, -0.8,0,0,1024,1024,1024,1024,0,0,0,0,118.9,0,0,99,4.217,4.238,0,0,0,0,5.489,79.34,100.91925126091,65.944884,6,P-GPS,
15400,2022-09-06 17:02:55,-34.9112863649452,-55.0424405612645,66.272968,97.60499,3.642345260912,101.24733526091,41.0105,6.1963238,192.173234496,195.812998392,14,4,8.337,101.24733526091,66.272968,16.3520314,192.173234496,-4.026492,4.697574,0,127.9, 18.7, -1.3,0,0,1024,1024,1024,1024,0,0,0,0,118.9,0,0,99,4.217,4.238,0,0,0,0,5.489,79.34,101.24733526091,66.272968,6,P-GPS,
15500,2022-09-06 17:02:55,-34.9112878573816,-55.0424383509668,66.272968,97.60499,3.642345260912,101.24733526091,41.0105,5.5476112,193.025596728,196.669625716,13,4,8.337,101.24733526091,66.272968,16.3520314,193.025596728,-3.579104,4.250186,0,128.1, 18.4, -1.5,0,0,1024,1024,1024,1024,0,0,0,0,118.9,0,0,99,4.217,4.238,0,0,0,0,5.489,79.34,101.24733526091,66.272968,6,P-GPS,
15600,2022-09-06 17:02:55,-34.91128915034,-55.0424365867153,66.272968,97.60499,3.642345260912,101.24733526091,41.0105,4.7646822,193.726056068,197.377302904,13,4,8.337,101.24733526091,66.272968,16.3520314,193.726056068,-3.131716,3.579104,0,128.2, 18.3, -1.9,0,0,1024,1024,1024,1024,0,0,0,0,118.9,0,0,99,4.217,4.238,0,0,0,0,5.489,79.34,101.24733526091,66.272968,6,P-GPS,
15700,2022-09-06 17:02:55,-34.911290370214,-55.042435059653,66.272968,97.60499,3.642345260912,101.24733526091,41.0105,4.1159696,194.353024592,198.015426284,13,4,8.337,101.24733526091,66.272968,16.3520314,194.353024592,-2.684328,3.131716,0,128.3, 17.9, -2.2,0,0,1024,1024,1024,1024,0,0,0,0,118.9,0,0,99,4.217,4.238,0,0,0,0,5.489,79.34,101.24733526091,66.272968,6,P-GPS,
15800,2022-09-06 17:02:55,-34.9112915415993,-55.0424334998288,66.272968,97.60499,3.642345260912,101.24733526091,41.0105,3.4896264,194.978352696,198.647972236,13,4,8.476,101.24733526091,66.272968,16.3520314,194.978352696,-2.23694,2.684328,0.223694,128.2, 17.7, -2.5,0,0,1024,1024,1024,1024,0,0,0,0,118.9,0,0,99,4.227,4.223,0,0,0,0,3.448,79.34,101.24733526091,66.272968,6,P-GPS,
15900,2022-09-06 17:02:55,-34.9112925402915,-55.0424324714656,66.272968,97.60499,3.642345260912,101.24733526091,41.0105,3.019869,195.436686044,199.125006372,14,4,8.476,101.24733526091,66.272968,16.3520314,195.436686044,-2.013246,2.23694,0.223694,128.4, 17.3, -3,0,0,1024,1024,1024,1024,0,0,0,0,118.9,0,0,99,4.227,4.223,0,0,0,0,3.448,79.34,101.24733526091,66.272968,6,P-GPS,
