time(millisecond),datetime(utc),latitude,longitude,height_above_takeoff(feet),height_above_ground_at_drone_location(feet),ground_elevation_at_drone_location(feet),altitude_above_seaLevel(feet),height_sonar(feet),speed(mph),distance(feet),mileage(feet),satellites,gpslevel,voltage(v),max_altitude(feet),max_ascent(feet),max_speed(mph),max_distance(feet), xSpeed(mph), ySpeed(mph), zSpeed(mph), compass_heading(degrees), pitch(degrees), roll(degrees),isPhoto,isVideo,rc_elevator,rc_aileron,rc_throttle,rc_rudder,rc_elevator(percent),rc_aileron(percent),rc_throttle(percent),rc_rudder(percent),gimbal_heading(degrees),gimbal_pitch(degrees),gimbal_roll(degrees),battery_percent,voltageCell1,voltageCell2,voltageCell3,voltageCell4,voltageCell5,voltageCell6,current(A),battery_temperature(f),altitude(feet),ascent(feet),flycStateRaw,flycState,message
0,2022-08-13 23:01:53,0,0,0,,,3.28084E-5,0.328084,0,0,0,0,0,0,3.28084E-5,0,0,0,0,0,0,28.9, 3.5, -0.4,0,0,364,364,364,1684,-100,-100,-100,100,29,0,0,46,3.812,3.806,0,0,0,0,0,73.76,3.28084E-5,0,41,Motors_Started,"Sin señal GPS. La aeronave no puede hacer vuelo estacionario. Vuela con cuidado (Code: 30008). Señal débil del GPS. Vuelo estacionario inestable. Vuela con cuidado (Code: 30002)"
100,2022-08-13 23:01:53,0,0,0,,,3.28084E-5,0.328084,0,0,0,0,0,0,3.28084E-5,0,0,0,0,0,0,28.9, 3.4, -0.4,0,0,364,364,364,1684,-100,-100,-100,100,29,0,0,46,3.812,3.806,0,0,0,0,0,73.76,3.28084E-5,0,41,Motors_Started,
200,2022-08-13 23:01:53,0,0,0,,,3.28084E-5,0.328084,0,0,0,0,0,0,3.28084E-5,0,0,0,0,0,0,29, 3.4, -0.4,0,0,931,939,1024,1024,-14,-13,0,0,29,0,0,46,3.812,3.806,0,0,0,0,0,73.76,3.28084E-5,0,41,Motors_Started,
300,2022-08-13 23:01:53,0,0,0,,,3.28084E-5,0.328084,0,0,0,0,0,0,3.28084E-5,0,0,0,0,0,0,29, 3.4, -0.4,0,0,1024,1024,1024,1024,0,0,0,0,29,0,0,46,3.812,3.806,0,0,0,0,0,73.76,3.28084E-5,0,41,Motors_Started,
400,2022-08-13 23:01:53,0,0,0,,,3.28084E-5,0.328084,0,0,0,0,0,0,3.28084E-5,0,0,0,0,0,0,29, 3.4, -0.4,0,0,1024,1024,1024,1024,0,0,0,0,29,0,0,46,3.812,3.806,0,0,0,0,0,73.76,3.28084E-5,0,41,Motors_Started,"Setting new Return-To-Home altitude to 40m (131 ft). Data Recorder File Index is 57. Setting new Maximum Flight Altitude to 30m (98 ft)"
500,2022-08-13 23:01:54,0,0,0,,,3.28084E-5,0.328084,0,0,0,0,0,0,3.28084E-5,0,0,0,0,0,0,29, 3.4, -0.4,0,0,1024,1024,1024,1024,0,0,0,0,29,0,0,46,3.812,3.806,0,0,0,0,0,73.76,3.28084E-5,0,41,Motors_Started,
600,2022-08-13 23:01:54,0,0,0,,,3.28084E-5,0.328084,0,0,0,0,0,0,3.28084E-5,0,0,0,0,0,0,29, 3.4, -0.4,0,0,1024,1024,1024,1024,0,0,0,0,29,0,0,46,3.812,3.806,0,0,0,0,0,73.76,3.28084E-5,0,41,Motors_Started,
700,2022-08-13 23:01:54,0,0,0,,,3.28084E-5,0.328084,0,0,0,0,0,0,3.28084E-5,0,0,0,0,0,0,29, 3.4, -0.4,0,0,1024,1024,1024,1024,0,0,0,0,29,0,0,46,3.812,3.806,0,0,0,0,0,73.76,3.28084E-5,0,41,Motors_Started,
800,2022-08-13 23:01:54,0,0,0,,,3.28084E-5,0.328084,0,0,0,0,0,0,3.28084E-5,0,0,0,0,0,0,29, 3.4, -0.5,0,0,1024,1024,1024,1024,0,0,0,0,29,0,0,46,3.812,3.806,0,0,0,0,0,73.76,3.28084E-5,0,41,Motors_Started,
900,2022-08-13 23:01:54,0,0,0,,,3.28084E-5,0.328084,0,0,0,0,0,0,3.28084E-5,0,0,0,0,0,0,28.9, 3.4, -0.4,0,0,1024,1024,1024,1024,0,0,0,0,29,0,0,46,3.812,3.806,0,0,0,0,0,73.76,3.28084E-5,0,41,Motors_Started,
1000,2022-08-13 23:01:54,0,0,0,,,3.28084E-5,0.328084,0,0,0,0,0,0,3.28084E-5,0,0,0,0,0,0,29, 3.4, -0.5,0,0,1024,1024,1024,1024,0,0,0,0,29,0,0,46,3.812,3.806,0,0,0,0,0,73.76,3.28084E-5,0,41,Motors_Started,
1100,2022-08-13 23:01:54,0,0,0,,,3.28084E-5,0.328084,0,0,0,0,0,7.664,3.28084E-5,0,0,0,0,0,0,29, 3.4, -0.4,0,0,1024,1024,1024,1024,0,0,0,0,29,0,0,46,3.812,3.806,0,0,0,0,0.692,73.76,3.28084E-5,0,10,Assisted_Takeoff,
1200,2022-08-13 23:01:54,0,0,0,,,3.28084E-5,0.328084,0,0,0,0,0,7.664,3.28084E-5,0,0,0,0,0,0,29, 3.5, -0.4,0,0,1024,1024,1024,1024,0,0,0,0,29,0,0,46,3.812,3.806,0,0,0,0,0.692,73.76,3.28084E-5,0,10,Assisted_Takeoff,
1300,2022-08-13 23:01:54,0,0,0,,,3.28084E-5,0.328084,0,0,0,0,0,7.664,3.28084E-5,0,0,0,0,0,0,29, 3.5, -0.4,0,0,1024,1024,1024,1024,0,0,0,0,29,0,0,46,3.812,3.806,0,0,0,0,0.692,73.76,3.28084E-5,0,10,Assisted_Takeoff,
1400,2022-08-13 23:01:54,0,0,0,,,3.28084E-5,0.328084,0,0,0,0,0,7.664,3.28084E-5,0,0,0,0,0,0,29, 3.4, -0.4,0,0,1024,1024,1185,1024,0,0,24,0,29,0,0,46,3.812,3.806,0,0,0,0,0.692,73.76,3.28084E-5,0,10,Assisted_Takeoff,
1500,2022-08-13 23:01:55,0,0,0,,,3.28084E-5,0.328084,0,0,0,0,0,7.664,3.28084E-5,0,0,0,0,0,0,28.9, 3.5, -0.5,0,0,1024,1024,1557,1024,0,0,81,0,29,0,0,46,3.812,3.806,0,0,0,0,0.692,73.76,3.28084E-5,0,10,Assisted_Takeoff,
1600,2022-08-13 23:01:55,0,0,0,,,3.28084E-5,0.328084,0,0,0,0,0,7.664,3.28084E-5,0,0,0,0,0,0,29, 3.4, -0.4,0,0,1024,1024,1557,1024,0,0,81,0,29,0,0,46,3.812,3.806,0,0,0,0,0.692,73.76,3.28084E-5,0,10,Assisted_Takeoff,
1700,2022-08-13 23:01:55,0,0,0,,,3.28084E-5,0.328084,0,0,0,0,0,7.664,3.28084E-5,0,0,0,0,0,0,29.2, 3.4, -0.4,0,0,1024,1024,1684,1024,0,0,100,0,29,0,0,46,3.812,3.806,0,0,0,0,0.692,73.76,3.28084E-5,0,10,Assisted_Takeoff,
1800,2022-08-13 23:01:55,0,0,0,,,3.28084E-5,0.328084,0,0,0,0,0,7.664,3.28084E-5,0,0,0,0,0,0,29.3, 3.4, -0.5,0,0,1024,1024,1265,1024,0,0,37,0,29.1,0,0,46,3.812,3.806,0,0,0,0,0.692,73.76,3.28084E-5,0,10,Assisted_Takeoff,
1900,2022-08-13 23:01:55,0,0,0,,,3.28084E-5,0.328084,0,0,0,0,0,7.664,3.28084E-5,0,0,0,0,0,0,29.5, 3.4, -0.5,0,0,1024,1024,1024,1024,0,0,0,0,29.2,0,0,46,3.812,3.806,0,0,0,0,0.692,73.76,3.28084E-5,0,10,Assisted_Takeoff,
2000,2022-08-13 23:01:55,0,0,0,,,3.28084E-5,0.328084,0,0,0,0,0,7.664,3.28084E-5,0,0,0,0,0,0,29.8, 3.4, -0.4,0,0,1024,1024,1024,1024,0,0,0,0,29.5,0,0,46,3.812,3.806,0,0,0,0,0.692,73.76,3.28084E-5,0,10,Assisted_Takeoff,
2100,2022-08-13 23:01:55,0,0,0,,,3.28084E-5,0.328084,0,0,0,0,0,7.602,3.28084E-5,0,0,0,0,0,0,30.1, 3.4, -0.5,0,0,1024,1024,1024,1024,0,0,0,0,29.8,0,0,46,3.816,3.814,0,0,0,0,1.664,73.94,3.28084E-5,0,10,Assisted_Takeoff,
2200,2022-08-13 23:01:55,0,0,0,,,3.28084E-5,0.328084,0,0,0,0,0,7.602,3.28084E-5,0,0,0,0,0,0,30.1, 3.3, -0.5,0,0,1024,1024,1095,1024,0,0,11,0,29.9,0,0,46,3.816,3.814,0,0,0,0,1.664,73.94,3.28084E-5,0,10,Assisted_Takeoff,
2300,2022-08-13 23:01:55,0,0,0,,,3.28084E-5,0.328084,0,0,0,0,0,7.602,3.28084E-5,0,0,0,0,0,0,30.2, 3.3, -0.5,0,0,1024,1024,1497,1024,0,0,72,0,30,0,0,46,3.816,3.814,0,0,0,0,1.664,73.94,3.28084E-5,0,10,Assisted_Takeoff,
2400,2022-08-13 23:01:55,0,0,0,,,3.28084E-5,0.328084,0,0,0,0,0,7.602,3.28084E-5,0,0,0,0,0,0,30.3, 3.4, -0.4,0,0,1024,1024,1684,1024,0,0,100,0,30.1,0,0,46,3.816,3.814,0,0,0,0,1.664,73.94,3.28084E-5,0,10,Assisted_Takeoff,
2500,2022-08-13 23:01:56,0,0,0,,,3.28084E-5,0.328084,0,0,0,0,0,7.602,3.28084E-5,0,0,0,0,0,0,30.3, 3.3, -0.5,0,0,1024,1024,1652,1024,0,0,95,0,30.2,0,0,46,3.816,3.814,0,0,0,0,1.664,73.94,3.28084E-5,0,10,Assisted_Takeoff,
2600,2022-08-13 23:01:56,0,0,0,,,3.28084E-5,0.328084,0,0,0,0,0,7.602,3.28084E-5,0,0,0,0,0,0,30.3, 3.4, -0.5,0,0,1024,1024,1652,1024,0,0,95,0,30.2,0,0,46,3.816,3.814,0,0,0,0,1.664,73.94,3.28084E-5,0,10,Assisted_Takeoff,
2700,2022-08-13 23:01:56,0,0,0,,,3.28084E-5,0.328084,0,0,0,0,0,7.602,3.28084E-5,0,0,0,0,0,0,31, 3.2, -0.5,0,0,1024,1024,1024,1024,0,0,0,0,30.5,0,0,46,3.816,3.814,0,0,0,0,1.664,73.94,3.28084E-5,0,10,Assisted_Takeoff,
2800,2022-08-13 23:01:56,0,0,0,,,3.28084E-5,0.328084,0,0,0,0,0,7.602,3.28084E-5,0,0,0,0,0,0,32.2, 1, -0.3,0,0,1024,1024,1024,1024,0,0,0,0,31.3,0,0,46,3.816,3.814,0,0,0,0,1.664,73.94,3.28084E-5,0,10,Assisted_Takeoff,"Vuela con cuidado (sin GPS)"
2900,2022-08-13 23:01:56,0,0,0,,,3.28084E-5,0.328084,0,0,0,0,0,7.602,3.28084E-5,0,0,0,0,0,0,33.1, 0, -0.5,0,0,1024,1024,1024,1024,0,0,0,0,32.3,0,0,46,3.816,3.814,0,0,0,0,1.664,73.94,3.28084E-5,0,10,Assisted_Takeoff,
3000,2022-08-13 23:01:56,0,0,0,,,3.28084E-5,0.328084,0,0,0,0,0,7.602,3.28084E-5,0,0,0,0,0,0,33.3, 1.9, -0.5,0,0,1024,1024,1104,1024,0,0,12,0,32.7,0,0,46,3.816,3.814,0,0,0,0,1.664,73.94,3.28084E-5,0,38,Tripod,"Señal débil del GPS. Vuelo estacionario inestable. Vuela con cuidado (Code: 30002)"
3100,2022-08-13 23:01:56,0,0,0,,,3.28084E-5,0.328084,0,0,0,0,0,7.562,3.28084E-5,0,0,0,0,0,0,33.3, 1.8, -0.5,0,0,1024,1024,1628,1024,0,0,92,0,32.7,0,0,46,3.803,3.795,0,0,0,0,1.744,73.94,3.28084E-5,0,38,Tripod,
3200,2022-08-13 23:01:56,0,0,0,,,3.28084E-5,0.328084,0,0,0,0,0,7.562,3.28084E-5,0,0,0,0,0,0,32.9, -0.9, -0.3,0,0,1024,1024,1684,1024,0,0,100,0,32.7,0,0,46,3.803,3.795,0,0,0,0,1.744,73.94,3.28084E-5,0,38,Tripod,
3300,2022-08-13 23:01:56,0,0,0,,,3.28084E-5,0.328084,0,0,0,0,0,7.562,3.28084E-5,0,0,0,0,0,0,32.9, -2, 0.6,0,0,1024,1024,1434,1024,0,0,62,0,32.7,0,0,46,3.803,3.795,0,0,0,0,1.744,73.94,3.28084E-5,0,38,Tripod,
3400,2022-08-13 23:01:57,0,0,0,,,3.28084E-5,0.328084,0,0,0,0,0,7.562,3.28084E-5,0,0,0,0,0,-0.223694,32.8, -1.2, 0.2,0,0,1024,1024,1434,1024,0,0,62,0,32.7,0,0,46,3.803,3.795,0,0,0,0,1.744,73.94,3.28084E-5,0,38,Tripod,
3500,2022-08-13 23:01:57,0,0,0,,,3.28084E-5,0.328084,0,0,0,0,0,7.562,3.28084E-5,0,0,0,0,0,-0.447388,32.6, -0.5, -0.1,0,0,1024,1024,1075,1024,0,0,8,0,32.7,0,0,46,3.803,3.795,0,0,0,0,1.744,73.94,3.28084E-5,0,1,Atti,"Vuela con cuidado (modo Atti) Señal del GPS demasiado débil. Se ha pasado al modo Atti. La aeronave no puede hacer vuelo estacionario. Vuela con precaución (Code: 30022). Señal débil del GPS. Vuelo estacionario inestable. Vuela con cuidado (Code: 30002). Aeronave en modo Atti. No"
3600,2022-08-13 23:01:57,0,0,0.328084,,,0.3281168084,0.328084,0,0,0,0,0,7.562,0.3281168084,0.328084,0,0,0,0,-0.447388,32.7, -0.2, 0.1,0,0,1024,1024,1024,1024,0,0,0,0,32.7,0,0,46,3.803,3.795,0,0,0,0,1.744,73.94,0.3281168084,0.328084,1,Atti,"La brújula no funciona bien el GPS no tiene buena señal. Cambia a modo Atti (Code: 30020). Aeronave en modo Atti. No se puede hacer vuelo estacionario. Vuela con cuidado (Code: 30004)"
3700,2022-08-13 23:01:57,0,0,0.328084,,,0.3281168084,0.656168,0,0,0,0,0,7.562,0.3281168084,0.328084,0,0,0,0,-0.447388,32.7, -0.2, 0.1,0,0,1024,1024,1024,1024,0,0,0,0,32.7,0,0,46,3.803,3.795,0,0,0,0,1.744,73.94,0.3281168084,0.328084,1,Atti,
3800,2022-08-13 23:01:57,0,0,0.328084,,,0.3281168084,0.656168,0,0,0,0,0,7.562,0.3281168084,0.328084,0,0,0,0,-0.671082,32.7, -0.1, 0.1,0,0,1024,1024,1024,1024,0,0,0,0,32.7,0,0,46,3.803,3.795,0,0,0,0,1.744,73.94,0.3281168084,0.328084,1,Atti,
3900,2022-08-13 23:01:57,0,0,0.328084,,,0.3281168084,0.656168,0,0,0,0,0,7.562,0.3281168084,0.328084,0,0,0,0,-0.671082,32.7, 0, 0,0,0,1024,1024,1024,1024,0,0,0,0,32.7,0,0,46,3.803,3.795,0,0,0,0,1.744,73.94,0.3281168084,0.328084,1,Atti,
4000,2022-08-13 23:01:57,0,0,0.656168,,,0.6562008084,0.656168,0,0,0,0,0,7.562,0.6562008084,0.656168,0,0,0,0,-0.894776,32.7, 0.1, 0,0,0,1024,1024,1024,1024,0,0,0,0,32.7,0,0,46,3.803,3.795,0,0,0,0,1.744,73.94,0.6562008084,0.656168,1,Atti,
4100,2022-08-13 23:01:57,0,0,0.656168,,,0.6562008084,0.984252,0,0,0,0,0,7.557,0.6562008084,0.656168,0,0,0,0,-0.894776,32.7, 0, 0,0,0,1024,1024,1024,1024,0,0,0,0,32.7,0,0,46,3.739,3.728,0,0,0,0,2.479,73.94,0.6562008084,0.656168,1,Atti,
4200,2022-08-13 23:01:57,0,0,0.656168,,,0.6562008084,0.984252,0,0,0,0,0,7.557,0.6562008084,0.656168,0,0,0,0,-0.894776,32.6, 0, 0,0,0,1024,1024,1024,1024,0,0,0,0,32.7,0,0,46,3.739,3.728,0,0,0,0,2.479,73.94,0.6562008084,0.656168,1,Atti,
4300,2022-08-13 23:01:57,0,0,0.984252,,,0.9842848084,1.312336,0,0,0,0,0,7.557,0.9842848084,0.984252,0,0,0,0,-0.894776,32.6, 0, 0,0,0,1024,1024,1024,1024,0,0,0,0,32.7,0,0,46,3.739,3.728,0,0,0,0,2.479,73.94,0.9842848084,0.984252,1,Atti,
4400,2022-08-13 23:01:58,0,0,0.984252,,,0.9842848084,1.312336,0,0,0,0,0,7.557,0.9842848084,0.984252,0,0,0,0,-0.671082,32.6, 0, 0,0,0,1024,1024,1024,1024,0,0,0,0,32.7,0,0,46,3.739,3.728,0,0,0,0,2.479,73.94,0.9842848084,0.984252,1,Atti,
4500,2022-08-13 23:01:58,0,0,0.984252,,,0.9842848084,1.312336,0,0,0,0,0,7.557,0.9842848084,0.984252,0,0,0,0,-0.671082,32.6, 0, 0,0,0,1024,1024,1024,1024,0,0,0,0,32.7,0,0,46,3.739,3.728,0,0,0,0,2.479,73.94,0.9842848084,0.984252,38,Tripod,"Señal débil del GPS. Vuelo estacionario inestable. Vuela con cuidado (Code: 30002)"
4600,2022-08-13 23:01:58,0,0,1.312336,,,1.3123688084,1.64042,0,0,0,0,0,7.557,1.3123688084,1.312336,0,0,0,0,-0.447388,32.6, 0.5, 0,0,0,1024,1024,1024,1024,0,0,0,0,32.7,0,0,46,3.739,3.728,0,0,0,0,2.479,73.94,1.3123688084,1.312336,38,Tripod,
4700,2022-08-13 23:01:58,0,0,1.312336,,,1.3123688084,1.64042,0,0,0,0,0,7.557,1.3123688084,1.312336,0,0,0,0,-0.223694,32.6, 0.7, 0,0,0,1024,1024,1024,1024,0,0,0,0,32.7,0,0,46,3.739,3.728,0,0,0,0,2.479,73.94,1.3123688084,1.312336,38,Tripod,
4800,2022-08-13 23:01:58,0,0,1.312336,,,1.3123688084,1.64042,0,0,0,0,0,7.557,1.3123688084,1.312336,0,0,0,0,0,32.6, 0.7, 0,0,0,1024,1024,1024,1024,0,0,0,0,32.7,0,0,46,3.739,3.728,0,0,0,0,2.479,73.94,1.3123688084,1.312336,38,Tripod,
4900,2022-08-13 23:01:58,0,0,1.312336,,,1.3123688084,1.64042,0,0,0,0,0,7.557,1.3123688084,1.312336,0,0,0,0,0,32.7, 0.7, 0,0,0,1024,1024,1024,1024,0,0,0,0,32.7,0,0,46,3.739,3.728,0,0,0,0,2.479,73.94,1.3123688084,1.312336,38,Tripod,
5000,2022-08-13 23:01:58,0,0,1.312336,,,1.3123688084,1.64042,0,0,0,0,0,7.557,1.3123688084,1.312336,0,0,0,0,0,32.7, 0.7, 0,0,0,1024,1024,1024,1024,0,0,0,0,32.7,0,0,46,3.739,3.728,0,0,0,0,2.479,73.94,1.3123688084,1.312336,38,Tripod,
5100,2022-08-13 23:01:58,0,0,1.312336,,,1.3123688084,1.64042,0,0,0,0,0,7.426,1.3123688084,1.312336,0,0,0,0,0,32.6, 0.6, 0,0,0,1024,1024,1024,1024,0,0,0,0,32.7,0,0,46,3.728,3.72,0,0,0,0,4.549,74.12,1.3123688084,1.312336,38,Tripod,
5200,2022-08-13 23:01:58,0,0,1.312336,,,1.3123688084,1.64042,0,0,0,0,0,7.426,1.3123688084,1.312336,0,0,0,0,0,32.7, 0.5, 0,0,0,1024,1024,1024,1024,0,0,0,0,32.7,0,0,46,3.728,3.72,0,0,0,0,4.549,74.12,1.3123688084,1.312336,38,Tripod,
5300,2022-08-13 23:01:58,0,0,1.312336,,,1.3123688084,1.64042,0,0,0,0,0,7.426,1.3123688084,1.312336,0,0,0,0,0,32.7, 0.4, 0.1,0,0,1024,1024,1024,1024,0,0,0,0,32.7,0,0,46,3.728,3.72,0,0,0,0,4.549,74.12,1.3123688084,1.312336,38,Tripod,
5400,2022-08-13 23:01:58,0,0,1.312336,,,1.3123688084,1.64042,0,0,0,0,0,7.426,1.3123688084,1.312336,0,0,0,0,0,32.7, 0.4, 0.1,0,0,1024,1024,1024,1024,0,0,0,0,32.7,0,0,46,3.728,3.72,0,0,0,0,4.549,74.12,1.3123688084,1.312336,38,Tripod,
5500,2022-08-13 23:01:59,0,0,1.312336,,,1.3123688084,1.64042,0,0,0,0,0,7.426,1.3123688084,1.312336,0,0,0,0,0,32.7, 0.3, 0.1,0,0,1024,1024,1410,1024,0,0,58,0,32.7,0,0,46,3.728,3.72,0,0,0,0,4.549,74.12,1.3123688084,1.312336,38,Tripod,
5600,2022-08-13 23:01:59,0,0,1.312336,,,1.3123688084,1.64042,0,0,0,0,0,7.426,1.3123688084,1.312336,0,0,0,0,0,32.7, 0.3, 0.2,0,0,1024,1024,1410,1024,0,0,58,0,32.7,0,0,46,3.728,3.72,0,0,0,0,4.549,74.12,1.3123688084,1.312336,38,Tripod,
5700,2022-08-13 23:01:59,0,0,1.312336,,,1.3123688084,1.64042,0,0,0,0,0,7.426,1.3123688084,1.312336,0,0,0,0,0,32.7, 0.4, 0.4,0,0,1024,1024,1684,1024,0,0,100,0,32.7,0,0,46,3.728,3.72,0,0,0,0,4.549,74.12,1.3123688084,1.312336,38,Tripod,
5800,2022-08-13 23:01:59,0,0,1.312336,,,1.3123688084,1.64042,0,0,0,0,0,7.426,1.3123688084,1.312336,0,0,0,0,-0.671082,32.7, 0.4, 0.2,0,0,1024,1024,1684,1024,0,0,100,0,32.7,0,0,46,3.728,3.72,0,0,0,0,4.549,74.12,1.3123688084,1.312336,38,Tripod,
5900,2022-08-13 23:01:59,0,0,1.64042,,,1.6404528084,1.968504,0,0,0,0,0,7.426,1.6404528084,1.64042,0,0,0,0,-1.342164,32.7, 0.3, 0.1,0,0,1024,1024,1024,1024,0,0,0,0,32.7,0,0,46,3.728,3.72,0,0,0,0,4.549,74.12,1.6404528084,1.64042,38,Tripod,
6000,2022-08-13 23:01:59,0,0,1.968504,,,1.9685368084,2.296588,0,0,0,0,0,7.426,1.9685368084,1.968504,0,0,0,0,-2.013246,32.7, 0.1, 0,0,0,1024,1024,1024,1024,0,0,0,0,32.7,0,0,46,3.728,3.72,0,0,0,0,4.549,74.12,1.9685368084,1.968504,38,Tripod,
6100,2022-08-13 23:01:59,0,0,2.296588,,,2.2966208084,2.624672,0,0,0,0,0,7.438,2.2966208084,2.296588,0,0,0,0,-1.789552,32.6, 0.5, 0,0,0,1024,1024,1024,1024,0,0,0,0,32.7,0,0,45,3.718,3.709,0,0,0,0,4.437,74.12,2.2966208084,2.296588,38,Tripod,
6200,2022-08-13 23:01:59,0,0,2.296588,,,2.2966208084,2.624672,0,0,0,0,0,7.438,2.2966208084,2.296588,0,0,0,0,-1.11847,32.6, 0.7, 0,0,0,1024,1024,1024,1024,0,0,0,0,32.7,0,0,45,3.718,3.709,0,0,0,0,4.437,74.12,2.2966208084,2.296588,38,Tripod,
6300,2022-08-13 23:01:59,0,0,2.624672,,,2.6247048084,2.952756,0,0,0,0,0,7.438,2.6247048084,2.624672,0,0,0,0,-0.671082,32.5, 0.6, 0,0,0,1024,1024,1024,1024,0,0,0,0,32.7,0,0,45,3.718,3.709,0,0,0,0,4.437,74.12,2.6247048084,2.624672,38,Tripod,
6400,2022-08-13 23:01:59,0,0,2.624672,,,2.6247048084,2.952756,0,0,0,0,0,7.438,2.6247048084,2.624672,0,0,0,0,-0.447388,32.3, 0.4, 0,0,0,1024,1024,1024,1024,0,0,0,0,32.7,0,0,45,3.718,3.709,0,0,0,0,4.437,74.12,2.6247048084,2.624672,38,Tripod,
6500,2022-08-13 23:02:00,0,0,2.624672,,,2.6247048084,2.952756,0,0,0,0,0,7.438,2.6247048084,2.624672,0,0,0,0,0,32.2, 0.4, 0.1,0,0,1024,1024,1024,1024,0,0,0,0,32.7,0,0,45,3.718,3.709,0,0,0,0,4.437,74.12,2.6247048084,2.624672,38,Tripod,"En vuelo"
6600,2022-08-13 23:02:00,0,0,2.624672,,,2.6247048084,2.952756,0,0,0,0,0,7.438,2.6247048084,2.624672,0,0,0,0,0,32, 0.4, 0.1,0,0,1024,1024,1024,1024,0,0,0,0,32.7,0,0,45,3.718,3.709,0,0,0,0,4.437,74.12,2.6247048084,2.624672,38,Tripod,
6700,2022-08-13 23:02:00,0,0,2.624672,,,2.6247048084,2.952756,0,0,0,0,0,7.438,2.6247048084,2.624672,0,0,0,0,0,31.8, 0.4, 0,0,0,1024,1024,1024,1024,0,0,0,0,32.7,0,0,45,3.718,3.709,0,0,0,0,4.437,74.12,2.6247048084,2.624672,38,Tripod,
6800,2022-08-13 23:02:00,0,0,2.624672,,,2.6247048084,2.952756,0,0,0,0,0,7.438,2.6247048084,2.624672,0,0,0,0,0,31.6, 0.4, 0,0,0,1024,1024,1024,1024,0,0,0,0,32.7,0,0,45,3.718,3.709,0,0,0,0,4.437,74.12,2.6247048084,2.624672,38,Tripod,
6900,2022-08-13 23:02:00,0,0,2.624672,,,2.6247048084,2.952756,0,0,0,0,0,7.438,2.6247048084,2.624672,0,0,0,0,0,31.5, 0.4, 0,0,0,1024,1024,1417,1024,0,0,60,0,32.7,0,0,45,3.718,3.709,0,0,0,0,4.437,74.12,2.6247048084,2.624672,38,Tripod,
7000,2022-08-13 23:02:00,0,0,2.624672,,,2.6247048084,2.952756,0,0,0,0,0,7.438,2.6247048084,2.624672,0,0,0,0,0,31.3, 0.5, 0.2,0,0,1024,1024,1642,1024,0,0,94,0,32.7,0,0,45,3.718,3.709,0,0,0,0,4.437,74.12,2.6247048084,2.624672,38,Tripod,
7100,2022-08-13 23:02:00,0,0,2.624672,,,2.6247048084,2.952756,0,0,0,0,0,7.312,2.6247048084,2.624672,0,0,0,0,-0.223694,31.2, 0.5, 0.5,0,0,1024,1024,1024,1024,0,0,0,0,32.7,0,0,45,3.725,3.714,0,0,0,0,5.161,74.12,2.6247048084,2.624672,38,Tripod,
7200,2022-08-13 23:02:00,0,0,2.952756,,,2.9527888084,3.28084,0,0,0,0,0,7.312,2.9527888084,2.952756,0,0,0,0,-0.671082,31, 0.2, 0.2,0,0,1024,1024,1024,1024,0,0,0,0,32.7,0,0,45,3.725,3.714,0,0,0,0,5.161,74.12,2.9527888084,2.952756,38,Tripod,
7300,2022-08-13 23:02:00,0,0,2.952756,,,2.9527888084,3.28084,0,0,0,0,0,7.312,2.9527888084,2.952756,0,0,0,0,-0.447388,30.9, 0.5, 0.1,0,0,1024,1024,1024,1024,0,0,0,0,32.7,0,0,45,3.725,3.714,0,0,0,0,5.161,74.12,2.9527888084,2.952756,38,Tripod,
7400,2022-08-13 23:02:00,0,0,2.952756,,,2.9527888084,3.28084,0,0,0,0,0,7.312,2.9527888084,2.952756,0,0,0,0,-0.223694,30.8, 0.5, 0.1,0,0,1024,1024,1024,1024,0,0,0,0,32.7,0,0,45,3.725,3.714,0,0,0,0,5.161,74.12,2.9527888084,2.952756,38,Tripod,
7500,2022-08-13 23:02:01,0,0,2.952756,,,2.9527888084,3.28084,0,0,0,0,0,7.312,2.9527888084,2.952756,0,0,0,0,-0.223694,30.7, 0.4, 0.1,0,0,1024,1024,1024,1024,0,0,0,0,32.7,0,0,45,3.725,3.714,0,0,0,0,5.161,74.12,2.9527888084,2.952756,38,Tripod,
7600,2022-08-13 23:02:01,0,0,2.952756,,,2.9527888084,3.28084,0,0,0,0,0,7.312,2.9527888084,2.952756,0,0,0,0,0,30.6, 0.4, 0.1,0,0,1024,1024,1024,818,0,0,0,-31,32.7,0,0,45,3.725,3.714,0,0,0,0,5.161,74.12,2.9527888084,2.952756,38,Tripod,
7700,2022-08-13 23:02:01,0,0,2.952756,,,2.9527888084,3.28084,0,0,0,0,0,7.312,2.9527888084,2.952756,0,0,0,0,0,30.5, 0.4, 0,0,0,1024,1024,1024,818,0,0,0,-31,32.7,0,0,45,3.725,3.714,0,0,0,0,5.161,74.12,2.9527888084,2.952756,38,Tripod,
7800,2022-08-13 23:02:01,0,0,2.952756,,,2.9527888084,3.28084,0,0,0,0,0,7.312,2.9527888084,2.952756,0,0,0,0,0,30.4, 0.4, -0.1,0,0,1024,1024,1024,364,0,0,0,-100,32.6,0,0,45,3.725,3.714,0,0,0,0,5.161,74.12,2.9527888084,2.952756,38,Tripod,
7900,2022-08-13 23:02:01,0,0,2.952756,,,2.9527888084,3.28084,0,0,0,0,0,7.312,2.9527888084,2.952756,0,0,0,0,0,30, 0.5, -0.1,0,0,1024,1024,1024,364,0,0,0,-100,31.8,0,0,45,3.725,3.714,0,0,0,0,5.161,74.12,2.9527888084,2.952756,38,Tripod,
8000,2022-08-13 23:02:01,0,0,2.952756,,,2.9527888084,3.28084,0,0,0,0,0,7.312,2.9527888084,2.952756,0,0,0,0,0,28.8, 0.5, 0,0,0,1024,1024,1024,971,0,0,0,-8,30.1,0,0,45,3.725,3.714,0,0,0,0,5.161,74.12,2.9527888084,2.952756,38,Tripod,
8100,2022-08-13 23:02:01,0,0,2.952756,,,2.9527888084,3.28084,0,0,0,0,0,7.419,2.9527888084,2.952756,0,0,0,0,0,26.8, 0.4, 0,0,0,1024,1024,1024,1024,0,0,0,0,28,0,0,45,3.715,3.713,0,0,0,0,4.662,74.12,2.9527888084,2.952756,38,Tripod,
8200,2022-08-13 23:02:01,0,0,2.952756,,,2.9527888084,3.28084,0,0,0,0,0,7.419,2.9527888084,2.952756,0,0,0,0,0,24.9, 0.4, 0,0,0,1024,1024,1024,1024,0,0,0,0,26.3,0,0,45,3.715,3.713,0,0,0,0,4.662,74.12,2.9527888084,2.952756,38,Tripod,
8300,2022-08-13 23:02:01,0,0,2.952756,,,2.9527888084,3.28084,0,0,0,0,0,7.419,2.9527888084,2.952756,0,0,0,0,0,23.3, 0.4, 0,0,0,1024,1024,1024,1024,0,0,0,0,25.1,0,0,45,3.715,3.713,0,0,0,0,4.662,74.12,2.9527888084,2.952756,38,Tripod,
8400,2022-08-13 23:02:02,0,0,2.952756,,,2.9527888084,3.28084,0,0,0,0,0,7.419,2.9527888084,2.952756,0,0,0,0,0,22.2, 0.4, 0,0,0,1024,1024,1024,1024,0,0,0,0,24.3,0,0,45,3.715,3.713,0,0,0,0,4.662,74.12,2.9527888084,2.952756,38,Tripod,
8500,2022-08-13 23:02:02,0,0,2.952756,,,2.9527888084,3.28084,0,0,0,0,0,7.419,2.9527888084,2.952756,0,0,0,0,0,21.6, 0.3, 0,0,0,1024,1024,1024,1024,0,0,0,0,24.1,0,0,45,3.715,3.713,0,0,0,0,4.662,74.12,2.9527888084,2.952756,38,Tripod,
8600,2022-08-13 23:02:02,0,0,2.952756,,,2.9527888084,3.28084,0,0,0,0,0,7.419,2.9527888084,2.952756,0,0,0,0,0,21.4, 0.2, 0,0,0,1024,1024,1024,1024,0,0,0,0,24.1,0,0,45,3.715,3.713,0,0,0,0,4.662,74.12,2.9527888084,2.952756,38,Tripod,
8700,2022-08-13 23:02:02,0,0,2.952756,,,2.9527888084,3.28084,0,0,0,0,0,7.419,2.9527888084,2.952756,0,0,0,0,0,21.3, 0.2, 0,0,0,1024,1024,1024,1024,0,0,0,0,24.1,0,0,45,3.715,3.713,0,0,0,0,4.662,74.12,2.9527888084,2.952756,38,Tripod,
8800,2022-08-13 23:02:02,0,0,2.952756,,,2.9527888084,3.28084,0,0,0,0,0,7.419,2.9527888084,2.952756,0,0,0,0,0,21.2, 0.4, 0,0,0,1024,1024,1024,1024,0,0,0,0,24.1,0,0,45,3.715,3.713,0,0,0,0,4.662,74.12,2.9527888084,2.952756,38,Tripod,
8900,2022-08-13 23:02:02,0,0,2.952756,,,2.9527888084,3.28084,0,0,0,0,0,7.419,2.9527888084,2.952756,0,0,0,0,0,21.1, 0.4, 0,0,0,1024,1024,1024,1024,0,0,0,0,24.1,0,0,45,3.715,3.713,0,0,0,0,4.662,74.12,2.9527888084,2.952756,38,Tripod,
9000,2022-08-13 23:02:02,0,0,2.952756,,,2.9527888084,3.28084,0,0,0,0,0,7.419,2.9527888084,2.952756,0,0,0,0,0,21.1, 0.4, 0.1,0,0,1024,1024,1024,971,0,0,0,-8,24.1,0,0,45,3.715,3.713,0,0,0,0,4.662,74.12,2.9527888084,2.952756,38,Tripod,
9100,2022-08-13 23:02:02,0,0,2.952756,,,2.9527888084,3.28084,0,0,0,0,0,7.412,2.9527888084,2.952756,0,0,0,0,0,21.1, 0.4, 0,0,0,1024,1024,1024,397,0,0,0,-95,24.1,0,0,45,3.706,3.699,0,0,0,0,4.431,74.12,2.9527888084,2.952756,38,Tripod,
9200,2022-08-13 23:02:02,0,0,2.952756,,,2.9527888084,3.28084,0,0,0,0,0,7.412,2.9527888084,2.952756,0,0,0,0,0,20.9, 0.5, 0,0,0,1024,1024,1024,1024,0,0,0,0,23.7,0,0,45,3.706,3.699,0,0,0,0,4.431,74.12,2.9527888084,2.952756,38,Tripod,
9300,2022-08-13 23:02:02,0,0,2.952756,,,2.9527888084,3.28084,0,0,0,0,0,7.412,2.9527888084,2.952756,0,0,0,0,0,20.3, 0.3, 0,0,0,1024,1024,1024,1024,0,0,0,0,22.8,0,0,45,3.706,3.699,0,0,0,0,4.431,74.12,2.9527888084,2.952756,38,Tripod,
9400,2022-08-13 23:02:03,0,0,2.952756,,,2.9527888084,3.28084,0,0,0,0,0,7.412,2.9527888084,2.952756,0,0,0,0,0,19.4, 0.3, -0.1,0,0,1024,1024,1024,1024,0,0,0,0,22,0,0,45,3.706,3.699,0,0,0,0,4.431,74.12,2.9527888084,2.952756,38,Tripod,
9500,2022-08-13 23:02:03,0,0,2.952756,,,2.9527888084,3.28084,0,0,0,0,0,7.412,2.9527888084,2.952756,0,0,0,0,0,18.7, 0.2, -0.1,0,0,1024,1024,1024,1024,0,0,0,0,21.5,0,0,45,3.706,3.699,0,0,0,0,4.431,74.12,2.9527888084,2.952756,38,Tripod,
9600,2022-08-13 23:02:03,0,0,2.952756,,,2.9527888084,3.28084,0,0,0,0,0,7.412,2.9527888084,2.952756,0,0,0,0,0,18.2, 0.2, -0.1,0,0,1024,1024,1024,516,0,0,0,-77,21.2,0,0,45,3.706,3.699,0,0,0,0,4.431,74.12,2.9527888084,2.952756,38,Tripod,
9700,2022-08-13 23:02:03,0,0,2.952756,,,2.9527888084,3.28084,0,0,0,0,0,7.412,2.9527888084,2.952756,0,0,0,0,0,18, 0.1, -0.1,0,0,1024,1024,1024,516,0,0,0,-77,21.2,0,0,45,3.706,3.699,0,0,0,0,4.431,74.12,2.9527888084,2.952756,38,Tripod,
9800,2022-08-13 23:02:03,0,0,2.952756,,,2.9527888084,3.28084,0,0,0,0,0,7.412,2.9527888084,2.952756,0,0,0,0,0,17.8, 0.1, 0,0,0,1024,1024,1024,638,0,0,0,-58,20.6,0,0,45,3.706,3.699,0,0,0,0,4.431,74.12,2.9527888084,2.952756,38,Tripod,
9900,2022-08-13 23:02:03,0,0,2.952756,,,2.9527888084,3.28084,0,0,0,0,0,7.412,2.9527888084,2.952756,0,0,0,0,0,17, 0.4, 0,0,0,1024,1024,1024,1024,0,0,0,0,19.4,0,0,45,3.706,3.699,0,0,0,0,4.431,74.12,2.9527888084,2.952756,38,Tripod,
10000,2022-08-13 23:02:03,0,0,2.952756,,,2.9527888084,3.28084,0,0,0,0,0,7.412,2.9527888084,2.952756,0,0,0,0,0,15.7, 0.3, 0,0,0,1024,1024,1024,1024,0,0,0,0,18.1,0,0,45,3.706,3.699,0,0,0,0,4.431,74.12,2.9527888084,2.952756,38,Tripod,
10100,2022-08-13 23:02:03,0,0,2.952756,,,2.9527888084,3.28084,0,0,0,0,0,7.402,2.9527888084,2.952756,0,0,0,0,0,14.5, 0.4, 0,0,0,1024,1024,1024,1024,0,0,0,0,17.2,0,0,45,3.703,3.694,0,0,0,0,4.675,74.3,2.9527888084,2.952756,38,Tripod,
10200,2022-08-13 23:02:03,0,0,2.952756,,,2.9527888084,3.28084,0,0,0,0,0,7.402,2.9527888084,2.952756,0,0,0,0,0,13.7, 0.4, 0,0,0,1024,1024,1024,1024,0,0,0,0,16.7,0,0,45,3.703,3.694,0,0,0,0,4.675,74.3,2.9527888084,2.952756,38,Tripod,
10300,2022-08-13 23:02:03,0,0,2.952756,,,2.9527888084,3.28084,0,0,0,0,0,7.402,2.9527888084,2.952756,0,0,0,0,0,13.2, 0.4, 0,0,0,1024,1024,1024,1024,0,0,0,0,16.4,0,0,45,3.703,3.694,0,0,0,0,4.675,74.3,2.9527888084,2.952756,38,Tripod,
10400,2022-08-13 23:02:03,0,0,2.952756,,,2.9527888084,3.28084,0,0,0,0,0,7.402,2.9527888084,2.952756,0,0,0,0,0,13, 0.4, 0,0,0,1024,1024,1024,1024,0,0,0,0,16.4,0,0,45,3.703,3.694,0,0,0,0,4.675,74.3,2.9527888084,2.952756,38,Tripod,
10500,2022-08-13 23:02:04,0,0,2.952756,,,2.9527888084,3.28084,0,0,0,0,0,7.402,2.9527888084,2.952756,0,0,0,0,0,13, 0.3, 0,0,0,1024,1024,1024,1024,0,0,0,0,16.4,0,0,45,3.703,3.694,0,0,0,0,4.675,74.3,2.9527888084,2.952756,38,Tripod,
10600,2022-08-13 23:02:04,0,0,2.952756,,,2.9527888084,3.28084,0,0,0,0,0,7.402,2.9527888084,2.952756,0,0,0,0,0,13, 0.2, 0,0,0,1024,1024,1024,1024,0,0,0,0,16.4,0,0,45,3.703,3.694,0,0,0,0,4.675,74.3,2.9527888084,2.952756,38,Tripod,
10700,2022-08-13 23:02:04,0,0,2.952756,,,2.9527888084,3.28084,0,0,0,0,0,7.402,2.9527888084,2.952756,0,0,0,0,0,13, 0.2, 0,0,0,1024,1024,1024,1024,0,0,0,0,16.4,0,0,45,3.703,3.694,0,0,0,0,4.675,74.3,2.9527888084,2.952756,38,Tripod,
10800,2022-08-13 23:02:04,0,0,2.952756,,,2.9527888084,3.28084,0,0,0,0,0,7.402,2.9527888084,2.952756,0,0,0,0,0,12.9, 0.1, 0.1,0,0,1024,1024,1024,1024,0,0,0,0,16.4,0,0,45,3.703,3.694,0,0,0,0,4.675,74.3,2.9527888084,2.952756,38,Tripod,
10900,2022-08-13 23:02:04,0,0,2.952756,,,2.9527888084,3.28084,0,0,0,0,0,7.402,2.9527888084,2.952756,0,0,0,0,0,12.9, 0.2, 0.1,0,0,1024,1024,1024,1066,0,0,0,6,16.4,0,0,45,3.703,3.694,0,0,0,0,4.675,74.3,2.9527888084,2.952756,38,Tripod,
11000,2022-08-13 23:02:04,0,0,2.952756,,,2.9527888084,3.28084,0,0,0,0,0,7.402,2.9527888084,2.952756,0,0,0,0,0,12.9, 0.2, 0.1,0,0,1024,1024,1024,1684,0,0,0,100,16.4,0,0,45,3.703,3.694,0,0,0,0,4.675,74.3,2.9527888084,2.952756,38,Tripod,
11100,2022-08-13 23:02:04,0,0,2.952756,,,2.9527888084,3.28084,0,0,0,0,0,7.395,2.9527888084,2.952756,0,0,0,0,0,12.9, 0.3, 0.1,0,0,1024,1024,1024,1390,0,0,0,55,16.9,0,0,45,3.701,3.691,0,0,0,0,4.681,74.3,2.9527888084,2.952756,38,Tripod,
11200,2022-08-13 23:02:04,0,0,2.952756,,,2.9527888084,3.28084,0,0,0,0,0,7.395,2.9527888084,2.952756,0,0,0,0,0,13.8, 0.3, 0.2,0,0,1024,1024,1024,1024,0,0,0,0,18.2,0,0,45,3.701,3.691,0,0,0,0,4.681,74.3,2.9527888084,2.952756,38,Tripod,
11300,2022-08-13 23:02:04,0,0,2.952756,,,2.9527888084,3.28084,0,0,0,0,0,7.395,2.9527888084,2.952756,0,0,0,0,0,15.1, 0.3, 0.2,0,0,1024,1024,1024,1479,0,0,0,69,19.6,0,0,45,3.701,3.691,0,0,0,0,4.681,74.3,2.9527888084,2.952756,38,Tripod,
11400,2022-08-13 23:02:04,0,0,2.952756,,,2.9527888084,3.28084,0,0,0,0,0,7.395,2.9527888084,2.952756,0,0,0,0,0,16.3, 0.4, 0.3,0,0,1024,1024,1024,1684,0,0,0,100,20.6,0,0,45,3.701,3.691,0,0,0,0,4.681,74.3,2.9527888084,2.952756,38,Tripod,
11500,2022-08-13 23:02:05,0,0,2.952756,,,2.9527888084,3.28084,0,0,0,0,0,7.395,2.9527888084,2.952756,0,0,0,0,0,17.2, 0.4, 0.4,0,0,1024,1024,1024,1024,0,0,0,0,21.5,0,0,45,3.701,3.691,0,0,0,0,4.681,74.3,2.9527888084,2.952756,38,Tripod,
11600,2022-08-13 23:02:05,0,0,2.952756,,,2.9527888084,3.28084,0,0,0,0,0,7.395,2.9527888084,2.952756,0,0,0,0,0,18.4, 0.4, 0.3,0,0,1024,1024,1024,1024,0,0,0,0,23.1,0,0,45,3.701,3.691,0,0,0,0,4.681,74.3,2.9527888084,2.952756,38,Tripod,
11700,2022-08-13 23:02:05,0,0,2.952756,,,2.9527888084,3.28084,0,0,0,0,0,7.395,2.9527888084,2.952756,0,0,0,0,0,19.8, 0.3, 0.3,0,0,1024,1024,1024,1024,0,0,0,0,24.4,0,0,45,3.701,3.691,0,0,0,0,4.681,74.3,2.9527888084,2.952756,38,Tripod,
11800,2022-08-13 23:02:05,0,0,2.952756,,,2.9527888084,3.28084,0,0,0,0,0,7.395,2.9527888084,2.952756,0,0,0,0,0,21, 0.4, 0.3,0,0,1024,1024,1024,1024,0,0,0,0,25.4,0,0,45,3.701,3.691,0,0,0,0,4.681,74.3,2.9527888084,2.952756,38,Tripod,
11900,2022-08-13 23:02:05,0,0,2.952756,,,2.9527888084,3.28084,0,0,0,0,0,7.395,2.9527888084,2.952756,0,0,0,0,0,21.9, 0.4, 0.4,0,0,1024,1024,1024,1024,0,0,0,0,26,0,0,45,3.701,3.691,0,0,0,0,4.681,74.3,2.9527888084,2.952756,38,Tripod,
12000,2022-08-13 23:02:05,0,0,2.952756,,,2.9527888084,3.28084,0,0,0,0,0,7.395,2.9527888084,2.952756,0,0,0,0,0,22.4, 0.3, 0.3,0,0,1024,1024,1024,1024,0,0,0,0,26.2,0,0,45,3.701,3.691,0,0,0,0,4.681,74.3,2.9527888084,2.952756,38,Tripod,
12100,2022-08-13 23:02:05,0,0,2.952756,,,2.9527888084,3.28084,0,0,0,0,0,7.392,2.9527888084,2.952756,0,0,0,0,0,22.4, 0.2, 0.4,0,0,1024,1024,1024,1024,0,0,0,0,26.2,0,0,45,3.7,3.691,0,0,0,0,4.66,74.48,2.9527888084,2.952756,38,Tripod,
12200,2022-08-13 23:02:05,0,0,2.952756,,,2.9527888084,3.28084,0,0,0,0,0,7.392,2.9527888084,2.952756,0,0,0,0,0,22.5, 0.3, 0.2,0,0,1024,1024,1024,1024,0,0,0,0,26.2,0,0,45,3.7,3.691,0,0,0,0,4.66,74.48,2.9527888084,2.952756,38,Tripod,
12300,2022-08-13 23:02:05,0,0,2.952756,,,2.9527888084,3.28084,0,0,0,0,0,7.392,2.9527888084,2.952756,0,0,0,0,0,22.5, 0.2, 0.2,0,0,1024,1024,1024,1024,0,0,0,0,26.2,0,0,45,3.7,3.691,0,0,0,0,4.66,74.48,2.9527888084,2.952756,38,Tripod,
12400,2022-08-13 23:02:05,0,0,2.952756,,,2.9527888084,3.28084,0,0,0,0,0,7.392,2.9527888084,2.952756,0,0,0,0,0,22.5, 0.2, 0.1,0,0,1024,1024,1024,1024,0,0,0,0,26.2,0,0,45,3.7,3.691,0,0,0,0,4.66,74.48,2.9527888084,2.952756,38,Tripod,
12500,2022-08-13 23:02:06,0,0,2.952756,,,2.9527888084,3.28084,0,0,0,0,0,7.392,2.9527888084,2.952756,0,0,0,0,0,22.5, 0.3, 0,0,0,1024,1024,1024,1684,0,0,0,100,26.2,0,0,45,3.7,3.691,0,0,0,0,4.66,74.48,2.9527888084,2.952756,38,Tripod,
12600,2022-08-13 23:02:06,0,0,2.952756,,,2.9527888084,3.28084,0,0,0,0,0,7.392,2.9527888084,2.952756,0,0,0,0,0,22.5, 0.5, 0,0,0,1024,1024,1024,1684,0,0,0,100,26.2,0,0,45,3.7,3.691,0,0,0,0,4.66,74.48,2.9527888084,2.952756,38,Tripod,
12700,2022-08-13 23:02:06,0,0,2.952756,,,2.9527888084,3.28084,0,0,0,0,0,7.392,2.9527888084,2.952756,0,0,0,0,0,22.7, 0.5, 0,0,0,1024,1024,1024,1024,0,0,0,0,26.8,0,0,45,3.7,3.691,0,0,0,0,4.66,74.48,2.9527888084,2.952756,38,Tripod,
12800,2022-08-13 23:02:06,0,0,2.952756,,,2.9527888084,3.28084,0,0,0,0,0,7.392,2.9527888084,2.952756,0,0,0,0,0,23.7, 0.3, 0.1,0,0,1024,1024,1024,1024,0,0,0,0,28.1,0,0,45,3.7,3.691,0,0,0,0,4.66,74.48,2.9527888084,2.952756,38,Tripod,
12900,2022-08-13 23:02:06,0,0,2.952756,,,2.9527888084,3.28084,0,0,0,0,0,7.392,2.9527888084,2.952756,0,0,0,0,0,24.7, 0.1, 0,0,0,1024,1024,1024,1024,0,0,0,0,29,0,0,45,3.7,3.691,0,0,0,0,4.66,74.48,2.9527888084,2.952756,38,Tripod,
13000,2022-08-13 23:02:06,0,0,2.952756,,,2.9527888084,3.28084,0,0,0,0,0,7.392,2.9527888084,2.952756,0,0,0,0,0,25.5, 0.1, 0.1,0,0,1024,1024,1024,1024,0,0,0,0,29.7,0,0,45,3.7,3.691,0,0,0,0,4.66,74.48,2.9527888084,2.952756,38,Tripod,
13100,2022-08-13 23:02:06,0,0,2.952756,,,2.9527888084,3.28084,0,0,0,0,0,7.383,2.9527888084,2.952756,0,0,0,0,0,26.1, 0, 0,0,0,1024,1024,1024,1024,0,0,0,0,30,0,0,45,3.697,3.686,0,0,0,0,4.684,74.48,2.9527888084,2.952756,38,Tripod,
13200,2022-08-13 23:02:06,0,0,2.952756,,,2.9527888084,3.28084,0,0,0,0,0,7.383,2.9527888084,2.952756,0,0,0,0,0,26.4, 0, 0,0,0,1024,1024,1024,1024,0,0,0,0,30.1,0,0,45,3.697,3.686,0,0,0,0,4.684,74.48,2.9527888084,2.952756,38,Tripod,
13300,2022-08-13 23:02:06,0,0,2.952756,,,2.9527888084,3.28084,0,0,0,0,0,7.383,2.9527888084,2.952756,0,0,0,0,0,26.4, 0.2, 0,0,0,1024,1024,1024,1024,0,0,0,0,30.1,0,0,45,3.697,3.686,0,0,0,0,4.684,74.48,2.9527888084,2.952756,38,Tripod,
13400,2022-08-13 23:02:07,0,0,2.952756,,,2.9527888084,3.28084,0,0,0,0,0,7.383,2.9527888084,2.952756,0,0,0,0,0,26.4, 0.4, 0,0,0,1024,1024,1024,1024,0,0,0,0,30.1,0,0,45,3.697,3.686,0,0,0,0,4.684,74.48,2.9527888084,2.952756,38,Tripod,
13500,2022-08-13 23:02:07,0,0,2.952756,,,2.9527888084,3.28084,0,0,0,0,0,7.383,2.9527888084,2.952756,0,0,0,0,0,26.4, 0.4, 0,0,0,1024,1024,1024,1024,0,0,0,0,30.1,0,0,45,3.697,3.686,0,0,0,0,4.684,74.48,2.9527888084,2.952756,38,Tripod,
13600,2022-08-13 23:02:07,0,0,2.952756,,,2.9527888084,3.28084,0,0,0,0,0,7.383,2.9527888084,2.952756,0,0,0,0,0,26.4, 0.3, -0.1,0,0,1024,1024,1024,1024,0,0,0,0,30.1,0,0,45,3.697,3.686,0,0,0,0,4.684,74.48,2.9527888084,2.952756,38,Tripod,
13700,2022-08-13 23:02:07,0,0,2.952756,,,2.9527888084,3.28084,0,0,0,0,0,7.383,2.9527888084,2.952756,0,0,0,0,0,26.4, 0.2, 0,0,0,1024,1024,1024,1024,0,0,0,0,30.1,0,0,45,3.697,3.686,0,0,0,0,4.684,74.48,2.9527888084,2.952756,38,Tripod,
13800,2022-08-13 23:02:07,0,0,2.952756,,,2.9527888084,3.28084,0,0,0,0,0,7.383,2.9527888084,2.952756,0,0,0,0,0,26.4, 0.3, 0,0,0,1024,1024,1085,1024,0,0,9,0,30.1,0,0,45,3.697,3.686,0,0,0,0,4.684,74.48,2.9527888084,2.952756,38,Tripod,
13900,2022-08-13 23:02:07,0,0,2.952756,,,2.9527888084,3.28084,0,0,0,0,0,7.383,2.9527888084,2.952756,0,0,0,0,0,26.4, 0.4, 0,0,0,1024,1024,1603,1024,0,0,88,0,30.1,0,0,45,3.697,3.686,0,0,0,0,4.684,74.48,2.9527888084,2.952756,38,Tripod,
14000,2022-08-13 23:02:07,0,0,2.952756,,,2.9527888084,3.28084,0,0,0,0,0,7.383,2.9527888084,2.952756,0,0,0,0,-0.223694,26.5, 0.3, 0,0,0,1024,1024,1684,1024,0,0,100,0,30.1,0,0,45,3.697,3.686,0,0,0,0,4.684,74.48,2.9527888084,2.952756,38,Tripod,
14100,2022-08-13 23:02:07,0,0,2.952756,,,2.9527888084,3.28084,0,0,0,0,0,7.38,2.9527888084,2.952756,0,0,0,0,-0.894776,26.4, 0.3, 0,0,0,1024,1024,1386,1024,0,0,55,0,30.1,0,0,45,3.695,3.686,0,0,0,0,4.691,74.66,2.9527888084,2.952756,38,Tripod,
14200,2022-08-13 23:02:07,0,0,3.28084,,,3.2808728084,3.608924,0,0,0,0,0,7.38,3.2808728084,3.28084,0,0,0,0,-1.565858,26.4, 0, 0.3,0,0,1024,1024,1024,1024,0,0,0,0,30.1,0,0,45,3.695,3.686,0,0,0,0,4.691,74.66,3.2808728084,3.28084,38,Tripod,
14300,2022-08-13 23:02:07,0,0,3.608924,,,3.6089568084,3.937008,0,0,0,0,0,7.38,3.6089568084,3.608924,0,0,0,0,-1.789552,26.3, 0.3, 0.4,0,0,1024,1024,1024,1024,0,0,0,0,30.1,0,0,45,3.695,3.686,0,0,0,0,4.691,74.66,3.6089568084,3.608924,38,Tripod,
14400,2022-08-13 23:02:08,0,0,3.608924,,,3.6089568084,4.265092,0,0,0,0,0,7.38,3.6089568084,3.608924,0,0,0,0,-1.342164,26.3, 0.6, 0.5,0,0,1024,1024,1024,1024,0,0,0,0,30.1,0,0,45,3.695,3.686,0,0,0,0,4.691,74.66,3.6089568084,3.608924,38,Tripod,
14500,2022-08-13 23:02:08,0,0,3.937008,,,3.9370408084,4.265092,0,0,0,0,0,7.38,3.9370408084,3.937008,0,0,0,0,-0.894776,26.3, 0.6, 0.6,0,0,1024,1024,1024,1024,0,0,0,0,30.1,0,0,45,3.695,3.686,0,0,0,0,4.691,74.66,3.9370408084,3.937008,38,Tripod,
14600,2022-08-13 23:02:08,0,0,3.937008,,,3.9370408084,4.265092,0,0,0,0,0,7.38,3.9370408084,3.937008,0,0,0,0,-0.447388,26.3, 0.5, 0.4,0,0,1024,1024,1024,1024,0,0,0,0,30.1,0,0,45,3.695,3.686,0,0,0,0,4.691,74.66,3.9370408084,3.937008,38,Tripod,
14700,2022-08-13 23:02:08,0,0,3.937008,,,3.9370408084,4.265092,0,0,0,0,0,7.38,3.9370408084,3.937008,0,0,0,0,0,26.3, 0.5, 0.3,0,0,1024,1024,1024,1024,0,0,0,0,30.1,0,0,45,3.695,3.686,0,0,0,0,4.691,74.66,3.9370408084,3.937008,38,Tripod,
14800,2022-08-13 23:02:08,0,0,3.937008,,,3.9370408084,4.265092,0,0,0,0,0,7.38,3.9370408084,3.937008,0,0,0,0,0,26.3, 0.5, 0.3,0,0,1024,1024,1024,1024,0,0,0,0,30.1,0,0,45,3.695,3.686,0,0,0,0,4.691,74.66,3.9370408084,3.937008,38,Tripod,
14900,2022-08-13 23:02:08,0,0,3.937008,,,3.9370408084,4.265092,0,0,0,0,0,7.38,3.9370408084,3.937008,0,0,0,0,0,26.4, 0.4, 0.3,0,0,1024,1024,1024,1024,0,0,0,0,30.1,0,0,45,3.695,3.686,0,0,0,0,4.691,74.66,3.9370408084,3.937008,38,Tripod,
15000,2022-08-13 23:02:08,0,0,3.937008,,,3.9370408084,4.265092,0,0,0,0,0,7.382,3.9370408084,3.937008,0,0,0,0,0,26.4, 0.3, 0,0,0,1024,1024,1024,1024,0,0,0,0,30.1,0,0,45,3.705,3.705,0,0,0,0,4.996,74.66,3.9370408084,3.937008,38,Tripod,
15100,2022-08-13 23:02:08,0,0,3.937008,,,3.9370408084,4.265092,0,0,0,0,0,7.382,3.9370408084,3.937008,0,0,0,0,0,26.4, 0.3, 0,0,0,1024,1024,1024,1024,0,0,0,0,30.1,0,0,45,3.705,3.705,0,0,0,0,4.996,74.66,3.9370408084,3.937008,38,Tripod,
15200,2022-08-13 23:02:08,0,0,3.937008,,,3.9370408084,4.265092,0,0,0,0,0,7.382,3.9370408084,3.937008,0,0,0,0,0,26.4, 0.3, -0.1,0,0,1024,1024,1024,1024,0,0,0,0,30.1,0,0,45,3.705,3.705,0,0,0,0,4.996,74.66,3.9370408084,3.937008,38,Tripod,
15300,2022-08-13 23:02:08,0,0,3.937008,,,3.9370408084,4.265092,0,0,0,0,0,7.382,3.9370408084,3.937008,0,0,0,0,0,26.4, 0.3, 0,0,0,1024,1024,1024,1024,0,0,0,0,30.1,0,0,45,3.705,3.705,0,0,0,0,4.996,74.66,3.9370408084,3.937008,38,Tripod,
15400,2022-08-13 23:02:08,0,0,3.937008,,,3.9370408084,4.265092,0,0,0,0,0,7.382,3.9370408084,3.937008,0,0,0,0,0,26.4, 0.3, 0,0,0,1024,1024,1024,1024,0,0,0,0,30.1,0,0,45,3.705,3.705,0,0,0,0,4.996,74.66,3.9370408084,3.937008,38,Tripod,
15500,2022-08-13 23:02:09,0,0,3.937008,,,3.9370408084,4.265092,0,0,0,0,0,7.382,3.9370408084,3.937008,0,0,0,0,0,26.4, 0.3, 0,0,0,1024,1024,1024,1024,0,0,0,0,30.1,0,0,45,3.705,3.705,0,0,0,0,4.996,74.66,3.9370408084,3.937008,38,Tripod,
15600,2022-08-13 23:02:09,0,0,3.937008,,,3.9370408084,4.265092,0,0,0,0,0,7.382,3.9370408084,3.937008,0,0,0,0,0,26.4, 0.4, -0.1,0,0,1024,1024,1024,1024,0,0,0,0,30.1,0,0,45,3.705,3.705,0,0,0,0,4.996,74.66,3.9370408084,3.937008,38,Tripod,
15700,2022-08-13 23:02:09,0,0,3.937008,,,3.9370408084,4.265092,0,0,0,0,0,7.382,3.9370408084,3.937008,0,0,0,0,0,26.4, 0.4, -0.1,0,0,1024,1024,1024,1024,0,0,0,0,30.1,0,0,45,3.705,3.705,0,0,0,0,4.996,74.66,3.9370408084,3.937008,38,Tripod,
15800,2022-08-13 23:02:09,0,0,3.937008,,,3.9370408084,4.265092,0,0,0,0,0,7.382,3.9370408084,3.937008,0,0,0,0,0,26.4, 0.4, -0.1,0,0,1024,1024,1024,1024,0,0,0,0,30.1,0,0,45,3.705,3.705,0,0,0,0,4.996,74.66,3.9370408084,3.937008,38,Tripod,
15900,2022-08-13 23:02:09,0,0,3.937008,,,3.9370408084,4.265092,0,0,0,0,0,7.382,3.9370408084,3.937008,0,0,0,0,0,26.4, 0.5, -0.1,0,0,1024,1024,1024,1024,0,0,0,0,30.1,0,0,45,3.705,3.705,0,0,0,0,4.996,74.66,3.9370408084,3.937008,38,Tripod,
16000,2022-08-13 23:02:09,0,0,3.937008,,,3.9370408084,4.265092,0,0,0,0,0,7.374,3.9370408084,3.937008,0,0,0,0,0,26.4, 0.6, -0.1,0,0,1024,1024,1024,1024,0,0,0,0,30.1,0,0,45,3.691,3.681,0,0,0,0,4.493,74.66,3.9370408084,3.937008,38,Tripod,
16100,2022-08-13 23:02:09,0,0,3.937008,,,3.9370408084,4.265092,0,0,0,0,0,7.374,3.9370408084,3.937008,0,0,0,0,0,26.4, 0.5, -0.1,0,0,1024,1024,1024,1024,0,0,0,0,30.1,0,0,45,3.691,3.681,0,0,0,0,4.493,74.66,3.9370408084,3.937008,38,Tripod,
16200,2022-08-13 23:02:09,0,0,3.937008,,,3.9370408084,4.265092,0,0,0,0,0,7.374,3.9370408084,3.937008,0,0,0,0,0,26.4, 0.5, -0.1,0,0,1024,1024,1024,1024,0,0,0,0,30.1,0,0,45,3.691,3.681,0,0,0,0,4.493,74.66,3.9370408084,3.937008,38,Tripod,
16300,2022-08-13 23:02:09,0,0,3.937008,,,3.9370408084,4.265092,0,0,0,0,0,7.374,3.9370408084,3.937008,0,0,0,0,0,26.4, 0.4, -0.2,0,0,1024,1024,1024,1024,0,0,0,0,30.1,0,0,45,3.691,3.681,0,0,0,0,4.493,74.66,3.9370408084,3.937008,38,Tripod,
16400,2022-08-13 23:02:09,0,0,3.937008,,,3.9370408084,4.265092,0,0,0,0,0,7.374,3.9370408084,3.937008,0,0,0,0,0,26.4, 0.5, -0.2,0,0,1024,1024,1024,1024,0,0,0,0,30.1,0,0,45,3.691,3.681,0,0,0,0,4.493,74.66,3.9370408084,3.937008,38,Tripod,
16500,2022-08-13 23:02:10,0,0,3.937008,,,3.9370408084,4.265092,0,0,0,0,0,7.374,3.9370408084,3.937008,0,0,0,0,0,26.3, 0.6, -0.1,0,0,1024,1024,1024,1024,0,0,0,0,30.1,0,0,45,3.691,3.681,0,0,0,0,4.493,74.66,3.9370408084,3.937008,38,Tripod,
16600,2022-08-13 23:02:10,0,0,3.937008,,,3.9370408084,4.265092,0,0,0,0,0,7.374,3.9370408084,3.937008,0,0,0,0,0,26.4, 0.6, 0,0,0,1024,1024,1024,1024,0,0,0,0,30.1,0,0,45,3.691,3.681,0,0,0,0,4.493,74.66,3.9370408084,3.937008,38,Tripod,
16700,2022-08-13 23:02:10,0,0,3.937008,,,3.9370408084,4.265092,0,0,0,0,0,7.374,3.9370408084,3.937008,0,0,0,0,0,26.4, 0.5, 0,0,0,1024,1024,1024,1024,0,0,0,0,30.1,0,0,45,3.691,3.681,0,0,0,0,4.493,74.66,3.9370408084,3.937008,38,Tripod,
16800,2022-08-13 23:02:10,0,0,3.937008,,,3.9370408084,4.265092,0,0,0,0,0,7.374,3.9370408084,3.937008,0,0,0,0,0,26.4, 0.6, 0,0,0,1024,1024,1024,1024,0,0,0,0,30.1,0,0,45,3.691,3.681,0,0,0,0,4.493,74.66,3.9370408084,3.937008,38,Tripod,
16900,2022-08-13 23:02:10,0,0,3.937008,,,3.9370408084,4.265092,0,0,0,0,0,7.374,3.9370408084,3.937008,0,0,0,0,0,26.4, 0.5, -0.1,0,0,1024,1024,1024,1024,0,0,0,0,30.1,0,0,45,3.691,3.681,0,0,0,0,4.493,74.66,3.9370408084,3.937008,38,Tripod,
17000,2022-08-13 23:02:10,0,0,3.937008,,,3.9370408084,4.593176,0,0,0,0,0,7.367,3.9370408084,3.937008,0,0,0,0,0,26.4, 0.5, 0,0,0,1024,1024,1024,1024,0,0,0,0,30.1,0,0,45,3.689,3.679,0,0,0,0,4.689,74.84,3.9370408084,3.937008,38,Tripod,
17100,2022-08-13 23:02:10,0,0,3.937008,,,3.9370408084,4.593176,0,0,0,0,0,7.367,3.9370408084,3.937008,0,0,0,0,0,26.4, 0.4, 0,0,0,1024,1024,1024,1024,0,0,0,0,30.1,0,0,45,3.689,3.679,0,0,0,0,4.689,74.84,3.9370408084,3.937008,38,Tripod,
17200,2022-08-13 23:02:10,0,0,3.937008,,,3.9370408084,4.593176,0,0,0,0,0,7.367,3.9370408084,3.937008,0,0,0,0,0,26.4, 0.3, 0,0,0,1024,1024,1024,1024,0,0,0,0,30.1,0,0,45,3.689,3.679,0,0,0,0,4.689,74.84,3.9370408084,3.937008,38,Tripod,
17300,2022-08-13 23:02:10,0,0,3.937008,,,3.9370408084,4.593176,0,0,0,0,0,7.367,3.9370408084,3.937008,0,0,0,0,0,26.3, 0.4, 0,0,0,1024,1024,1024,1024,0,0,0,0,30.1,0,0,45,3.689,3.679,0,0,0,0,4.689,74.84,3.9370408084,3.937008,38,Tripod,
17400,2022-08-13 23:02:10,0,0,3.937008,,,3.9370408084,4.593176,0,0,0,0,0,7.367,3.9370408084,3.937008,0,0,0,0,0,26.4, 0.5, 0.3,0,0,1024,1024,1024,1024,0,0,0,0,30.1,0,0,45,3.689,3.679,0,0,0,0,4.689,74.84,3.9370408084,3.937008,38,Tripod,
17500,2022-08-13 23:02:11,0,0,3.937008,,,3.9370408084,4.593176,0,0,0,0,0,7.367,3.9370408084,3.937008,0,0,0,0,0,26.4, 0.6, 0.4,0,0,1024,1024,1024,1024,0,0,0,0,30.1,0,0,45,3.689,3.679,0,0,0,0,4.689,74.84,3.9370408084,3.937008,38,Tripod,
17600,2022-08-13 23:02:11,0,0,3.937008,,,3.9370408084,4.593176,0,0,0,0,0,7.367,3.9370408084,3.937008,0,0,0,0,0,26.4, 0.6, 0.5,0,0,1024,1024,1024,1024,0,0,0,0,30.1,0,0,45,3.689,3.679,0,0,0,0,4.689,74.84,3.9370408084,3.937008,38,Tripod,
17700,2022-08-13 23:02:11,0,0,3.937008,,,3.9370408084,4.593176,0,0,0,0,0,7.367,3.9370408084,3.937008,0,0,0,0,0,26.4, 0.6, 0.2,0,0,1024,1024,1024,1024,0,0,0,0,30.1,0,0,45,3.689,3.679,0,0,0,0,4.689,74.84,3.9370408084,3.937008,38,Tripod,
17800,2022-08-13 23:02:11,0,0,3.937008,,,3.9370408084,4.593176,0,0,0,0,0,7.367,3.9370408084,3.937008,0,0,0,0,0,26.3, 0.5, 0.1,0,0,1024,1024,1024,1024,0,0,0,0,30.1,0,0,45,3.689,3.679,0,0,0,0,4.689,74.84,3.9370408084,3.937008,38,Tripod,
17900,2022-08-13 23:02:11,0,0,3.937008,,,3.9370408084,4.593176,0,0,0,0,0,7.367,3.9370408084,3.937008,0,0,0,0,0,26.3, 0.5, 0.1,0,0,1024,1024,1024,1024,0,0,0,0,30.1,0,0,45,3.689,3.679,0,0,0,0,4.689,74.84,3.9370408084,3.937008,38,Tripod,
18000,2022-08-13 23:02:11,0,0,3.937008,,,3.9370408084,4.593176,0,0,0,0,0,7.368,3.9370408084,3.937008,0,0,0,0,0,26.4, 0.5, 0.2,0,0,1024,1024,1024,1024,0,0,0,0,30.1,0,0,45,3.689,3.679,0,0,0,0,4.644,74.84,3.9370408084,3.937008,38,Tripod,
18100,2022-08-13 23:02:11,0,0,3.937008,,,3.9370408084,4.593176,0,0,0,0,0,7.368,3.9370408084,3.937008,0,0,0,0,0,26.3, 0.5, 0,0,0,1024,1024,1024,1024,0,0,0,0,30.1,0,0,45,3.689,3.679,0,0,0,0,4.644,74.84,3.9370408084,3.937008,38,Tripod,
18200,2022-08-13 23:02:11,0,0,3.937008,,,3.9370408084,4.593176,0,0,0,0,0,7.368,3.9370408084,3.937008,0,0,0,0,0,26.3, 0.6, 0,0,0,1024,1024,1024,1024,0,0,0,0,30.1,0,0,45,3.689,3.679,0,0,0,0,4.644,74.84,3.9370408084,3.937008,38,Tripod,
18300,2022-08-13 23:02:11,0,0,3.937008,,,3.9370408084,4.593176,0,0,0,0,0,7.368,3.9370408084,3.937008,0,0,0,0,0,26.3, 0.6, -0.1,0,0,1024,1024,1024,1024,0,0,0,0,30.1,0,0,45,3.689,3.679,0,0,0,0,4.644,74.84,3.9370408084,3.937008,38,Tripod,
18400,2022-08-13 23:02:11,0,0,3.937008,,,3.9370408084,4.593176,0,0,0,0,0,7.368,3.9370408084,3.937008,0,0,0,0,0,26.4, 0.5, 0,0,0,1024,1024,1024,1024,0,0,0,0,30.1,0,0,45,3.689,3.679,0,0,0,0,4.644,74.84,3.9370408084,3.937008,38,Tripod,
18500,2022-08-13 23:02:12,0,0,3.937008,,,3.9370408084,4.593176,0,0,0,0,0,7.368,3.9370408084,3.937008,0,0,0,0,0,26.4, 0.5, 0,0,0,1024,1024,1024,1024,0,0,0,0,30.1,0,0,45,3.689,3.679,0,0,0,0,4.644,74.84,3.9370408084,3.937008,38,Tripod,
18600,2022-08-13 23:02:12,0,0,3.937008,,,3.9370408084,4.593176,0,0,0,0,0,7.368,3.9370408084,3.937008,0,0,0,0,0,26.4, 0.7, -0.1,0,0,1024,1024,1024,1024,0,0,0,0,30.1,0,0,45,3.689,3.679,0,0,0,0,4.644,74.84,3.9370408084,3.937008,38,Tripod,
18700,2022-08-13 23:02:12,0,0,3.937008,,,3.9370408084,4.593176,0,0,0,0,0,7.368,3.9370408084,3.937008,0,0,0,0,0,26.4, 0.7, -0.1,0,0,1024,1024,1024,1024,0,0,0,0,30.1,0,0,45,3.689,3.679,0,0,0,0,4.644,74.84,3.9370408084,3.937008,38,Tripod,
18800,2022-08-13 23:02:12,0,0,3.937008,,,3.9370408084,4.593176,0,0,0,0,0,7.368,3.9370408084,3.937008,0,0,0,0,0,26.3, 0.7, -0.1,0,0,1024,1024,1024,1024,0,0,0,0,30.1,0,0,45,3.689,3.679,0,0,0,0,4.644,74.84,3.9370408084,3.937008,38,Tripod,
18900,2022-08-13 23:02:12,0,0,3.937008,,,3.9370408084,4.593176,0,0,0,0,0,7.368,3.9370408084,3.937008,0,0,0,0,0,26.3, 0.8, 0,0,0,1024,1024,1024,1024,0,0,0,0,30.1,0,0,45,3.689,3.679,0,0,0,0,4.644,74.84,3.9370408084,3.937008,38,Tripod,
19000,2022-08-13 23:02:12,0,0,3.937008,,,3.9370408084,4.593176,0,0,0,0,0,7.362,3.9370408084,3.937008,0,0,0,0,0,26.4, 0.8, 0,0,0,1024,1024,1024,1024,0,0,0,0,30.1,0,0,45,3.686,3.676,0,0,0,0,4.672,75.02,3.9370408084,3.937008,38,Tripod,
19100,2022-08-13 23:02:12,0,0,3.937008,,,3.9370408084,4.593176,0,0,0,0,0,7.362,3.9370408084,3.937008,0,0,0,0,0,26.5, 0.7, 0,0,0,1024,1024,1024,1024,0,0,0,0,30.1,0,0,45,3.686,3.676,0,0,0,0,4.672,75.02,3.9370408084,3.937008,38,Tripod,
19200,2022-08-13 23:02:12,0,0,3.937008,,,3.9370408084,4.593176,0,0,0,0,0,7.362,3.9370408084,3.937008,0,0,0,0,0,26.4, 0.6, -0.1,0,0,1024,1024,1024,1024,0,0,0,0,30.1,0,0,45,3.686,3.676,0,0,0,0,4.672,75.02,3.9370408084,3.937008,38,Tripod,
19300,2022-08-13 23:02:12,0,0,3.937008,,,3.9370408084,4.593176,0,0,0,0,0,7.362,3.9370408084,3.937008,0,0,0,0,0,26.4, 0.4, -0.2,0,0,1024,1024,1024,1024,0,0,0,0,30.1,0,0,45,3.686,3.676,0,0,0,0,4.672,75.02,3.9370408084,3.937008,38,Tripod,
19400,2022-08-13 23:02:13,0,0,3.937008,,,3.9370408084,4.593176,0,0,0,0,0,7.362,3.9370408084,3.937008,0,0,0,0,0,26.4, 0.7, -0.1,0,0,1024,1024,1024,1024,0,0,0,0,30.1,0,0,45,3.686,3.676,0,0,0,0,4.672,75.02,3.9370408084,3.937008,38,Tripod,
19500,2022-08-13 23:02:13,0,0,3.937008,,,3.9370408084,4.593176,0,0,0,0,0,7.362,3.9370408084,3.937008,0,0,0,0,0,26.5, 0.5, 0,0,0,1024,1024,1024,1024,0,0,0,0,30.1,0,0,45,3.686,3.676,0,0,0,0,4.672,75.02,3.9370408084,3.937008,38,Tripod,
19600,2022-08-13 23:02:13,0,0,3.937008,,,3.9370408084,4.593176,0,0,0,0,0,7.362,3.9370408084,3.937008,0,0,0,0,0,26.4, 0.4, -0.1,0,0,1024,1024,1024,1024,0,0,0,0,30.1,0,0,45,3.686,3.676,0,0,0,0,4.672,75.02,3.9370408084,3.937008,38,Tripod,
19700,2022-08-13 23:02:13,0,0,3.937008,,,3.9370408084,4.593176,0,0,0,0,0,7.362,3.9370408084,3.937008,0,0,0,0,0,26.4, 0.5, -0.1,0,0,1024,1024,1024,1024,0,0,0,0,30.1,0,0,45,3.686,3.676,0,0,0,0,4.672,75.02,3.9370408084,3.937008,38,Tripod,
19800,2022-08-13 23:02:13,0,0,3.937008,,,3.9370408084,4.593176,0,0,0,0,0,7.362,3.9370408084,3.937008,0,0,0,0,0,26.3, 0.4, -0.2,0,0,1024,1024,1024,1024,0,0,0,0,30.1,0,0,45,3.686,3.676,0,0,0,0,4.672,75.02,3.9370408084,3.937008,38,Tripod,
19900,2022-08-13 23:02:13,0,0,3.937008,,,3.9370408084,4.593176,0,0,0,0,0,7.362,3.9370408084,3.937008,0,0,0,0,0,26.4, 0.3, -0.1,0,0,1024,1024,1024,1024,0,0,0,0,30.1,0,0,45,3.686,3.676,0,0,0,0,4.672,75.02,3.9370408084,3.937008,38,Tripod,
20000,2022-08-13 23:02:13,0,0,3.937008,,,3.9370408084,4.593176,0,0,0,0,0,7.362,3.9370408084,3.937008,0,0,0,0,0,26.4, 0.3, -0.1,0,0,1024,1024,1024,1024,0,0,0,0,30.1,0,0,45,3.686,3.676,0,0,0,0,4.672,75.02,3.9370408084,3.937008,38,Tripod,
20100,2022-08-13 23:02:13,0,0,3.937008,,,3.9370408084,4.593176,0,0,0,0,0,7.36,3.9370408084,3.937008,0,0,0,0,0,26.3, 0.3, -0.2,0,0,1024,1024,1024,1024,0,0,0,0,30.1,0,0,45,3.685,3.673,0,0,0,0,4.673,75.02,3.9370408084,3.937008,38,Tripod,
20200,2022-08-13 23:02:13,0,0,3.937008,,,3.9370408084,4.265092,0,0,0,0,0,7.36,3.9370408084,3.937008,0,0,0,0,0,26.3, 0.4, -0.2,0,0,1024,1024,1024,1024,0,0,0,0,30.1,0,0,45,3.685,3.673,0,0,0,0,4.673,75.02,3.9370408084,3.937008,38,Tripod,
20300,2022-08-13 23:02:13,0,0,3.937008,,,3.9370408084,4.265092,0,0,0,0,0,7.36,3.9370408084,3.937008,0,0,0,0,0,26.4, 0.5, 0,0,0,1024,1024,1024,1024,0,0,0,0,30.1,0,0,45,3.685,3.673,0,0,0,0,4.673,75.02,3.9370408084,3.937008,38,Tripod,
20400,2022-08-13 23:02:14,0,0,3.937008,,,3.9370408084,4.265092,0,0,0,0,0,7.36,3.9370408084,3.937008,0,0,0,0,0,26.3, 0.4, 0.1,0,0,1024,1024,1024,1024,0,0,0,0,30.1,0,0,45,3.685,3.673,0,0,0,0,4.673,75.02,3.9370408084,3.937008,38,Tripod,
20500,2022-08-13 23:02:14,0,0,3.937008,,,3.9370408084,4.265092,0,0,0,0,0,7.36,3.9370408084,3.937008,0,0,0,0,0,26.3, 0.4, 0,0,0,1024,1024,1024,1024,0,0,0,0,30.1,0,0,45,3.685,3.673,0,0,0,0,4.673,75.02,3.9370408084,3.937008,38,Tripod,
20600,2022-08-13 23:02:14,0,0,3.937008,,,3.9370408084,4.265092,0,0,0,0,0,7.36,3.9370408084,3.937008,0,0,0,0,0,26.2, 0.3, 0,0,0,1024,1024,1024,1024,0,0,0,0,30.1,0,0,45,3.685,3.673,0,0,0,0,4.673,75.02,3.9370408084,3.937008,38,Tripod,
20700,2022-08-13 23:02:14,0,0,3.937008,,,3.9370408084,2.952756,0,0,0,0,0,7.36,3.9370408084,3.937008,0,0,0,0,0,26.3, 0.4, 0.1,0,0,1024,1024,1024,1024,0,0,0,0,30.1,0,0,45,3.685,3.673,0,0,0,0,4.673,75.02,3.9370408084,3.937008,38,Tripod,
20800,2022-08-13 23:02:14,0,0,3.937008,,,3.9370408084,3.28084,0,0,0,0,0,7.36,3.9370408084,3.937008,0,0,0,0,0,26.3, 0.3, 0.1,0,0,1024,1024,1024,1024,0,0,0,0,30.1,0,0,45,3.685,3.673,0,0,0,0,4.673,75.02,3.9370408084,3.937008,38,Tripod,
20900,2022-08-13 23:02:14,0,0,3.937008,,,3.9370408084,3.28084,0,0,0,0,0,7.36,3.9370408084,3.937008,0,0,0,0,0,26.3, 0.2, 0,0,0,1024,1024,1024,1024,0,0,0,0,30.1,0,0,45,3.685,3.673,0,0,0,0,4.673,75.02,3.9370408084,3.937008,38,Tripod,
21000,2022-08-13 23:02:14,0,0,3.937008,,,3.9370408084,3.28084,0,0,0,0,0,7.36,3.9370408084,3.937008,0,0,0,0,0,26.4, 0.2, 0,0,0,1024,1024,1024,1024,0,0,0,0,30.1,0,0,45,3.685,3.673,0,0,0,0,4.673,75.02,3.9370408084,3.937008,38,Tripod,
21100,2022-08-13 23:02:14,0,0,3.937008,,,3.9370408084,3.28084,0,0,0,0,0,7.358,3.9370408084,3.937008,0,0,0,0,0,26.3, 0.1, 0,0,0,1024,1024,1024,1024,0,0,0,0,30.1,0,0,45,3.684,3.673,0,0,0,0,4.672,75.02,3.9370408084,3.937008,38,Tripod,
21200,2022-08-13 23:02:14,0,0,3.937008,,,3.9370408084,3.28084,0,0,0,0,0,7.358,3.9370408084,3.937008,0,0,0,0,0,26.3, 0, 0,0,0,1024,1024,1024,1024,0,0,0,0,30.1,0,0,45,3.684,3.673,0,0,0,0,4.672,75.02,3.9370408084,3.937008,38,Tripod,
21300,2022-08-13 23:02:14,0,0,3.937008,,,3.9370408084,4.593176,0,0,0,0,0,7.358,3.9370408084,3.937008,0,0,0,0,0,26.4, 0.1, 0.1,0,0,1024,1024,1024,1024,0,0,0,0,30.1,0,0,45,3.684,3.673,0,0,0,0,4.672,75.02,3.9370408084,3.937008,38,Tripod,
21400,2022-08-13 23:02:14,0,0,3.937008,,,3.9370408084,4.593176,0,0,0,0,0,7.358,3.9370408084,3.937008,0,0,0,0,0,26.4, 0.2, 0.2,0,0,1024,1024,1024,1024,0,0,0,0,30.1,0,0,45,3.684,3.673,0,0,0,0,4.672,75.02,3.9370408084,3.937008,38,Tripod,
21500,2022-08-13 23:02:15,0,0,3.937008,,,3.9370408084,4.593176,0,0,0,0,0,7.358,3.9370408084,3.937008,0,0,0,0,0,26.4, 0.3, 0.3,0,0,1024,1024,1024,1024,0,0,0,0,30.1,0,0,45,3.684,3.673,0,0,0,0,4.672,75.02,3.9370408084,3.937008,38,Tripod,
21600,2022-08-13 23:02:15,0,0,3.937008,,,3.9370408084,4.593176,0,0,0,0,0,7.358,3.9370408084,3.937008,0,0,0,0,0,26.4, 0.3, 0.1,0,0,1024,1024,1024,1024,0,0,0,0,30.1,0,0,45,3.684,3.673,0,0,0,0,4.672,75.02,3.9370408084,3.937008,38,Tripod,
21700,2022-08-13 23:02:15,0,0,3.937008,,,3.9370408084,4.593176,0,0,0,0,0,7.358,3.9370408084,3.937008,0,0,0,0,0,26.4, 0.3, 0,0,0,1024,1024,1024,1024,0,0,0,0,30.1,0,0,45,3.684,3.673,0,0,0,0,4.672,75.02,3.9370408084,3.937008,38,Tripod,
21800,2022-08-13 23:02:15,0,0,3.937008,,,3.9370408084,4.593176,0,0,0,0,0,7.358,3.9370408084,3.937008,0,0,0,0,0,26.4, 0.3, 0,0,0,1024,1024,1024,1024,0,0,0,0,30.1,0,0,45,3.684,3.673,0,0,0,0,4.672,75.02,3.9370408084,3.937008,38,Tripod,
21900,2022-08-13 23:02:15,0,0,3.937008,,,3.9370408084,4.593176,0,0,0,0,0,7.358,3.9370408084,3.937008,0,0,0,0,0,26.4, 0.2, 0,0,0,1024,1024,1024,1024,0,0,0,0,30.1,0,0,45,3.684,3.673,0,0,0,0,4.672,75.02,3.9370408084,3.937008,38,Tripod,
22000,2022-08-13 23:02:15,0,0,3.937008,,,3.9370408084,4.593176,0,0,0,0,0,7.358,3.9370408084,3.937008,0,0,0,0,0,26.4, 0.3, 0,0,0,1024,1024,1024,1024,0,0,0,0,30.1,0,0,45,3.684,3.673,0,0,0,0,4.672,75.02,3.9370408084,3.937008,38,Tripod,
22100,2022-08-13 23:02:15,0,0,3.937008,,,3.9370408084,4.593176,0,0,0,0,0,7.354,3.9370408084,3.937008,0,0,0,0,0,26.3, 0.2, 0,0,0,1024,1024,1024,1024,0,0,0,0,30.1,0,0,44,3.681,3.671,0,0,0,0,4.666,75.2,3.9370408084,3.937008,38,Tripod,
22200,2022-08-13 23:02:15,0,0,3.937008,,,3.9370408084,4.593176,0,0,0,0,0,7.354,3.9370408084,3.937008,0,0,0,0,0,26.4, 0.2, -0.1,0,0,1024,1024,1024,1024,0,0,0,0,30.1,0,0,44,3.681,3.671,0,0,0,0,4.666,75.2,3.9370408084,3.937008,38,Tripod,
22300,2022-08-13 23:02:15,0,0,3.937008,,,3.9370408084,4.593176,0,0,0,0,0,7.354,3.9370408084,3.937008,0,0,0,0,0,26.4, 0.3, -0.1,0,0,1024,1024,1024,1024,0,0,0,0,30.1,0,0,44,3.681,3.671,0,0,0,0,4.666,75.2,3.9370408084,3.937008,38,Tripod,
22400,2022-08-13 23:02:15,0,0,3.937008,,,3.9370408084,4.593176,0,0,0,0,0,7.354,3.9370408084,3.937008,0,0,0,0,0,26.4, 0.3, 0,0,0,1024,1024,1024,1024,0,0,0,0,30.1,0,0,44,3.681,3.671,0,0,0,0,4.666,75.2,3.9370408084,3.937008,38,Tripod,
22500,2022-08-13 23:02:16,0,0,3.937008,,,3.9370408084,4.593176,0,0,0,0,0,7.354,3.9370408084,3.937008,0,0,0,0,0,26.4, 0.1, 0,0,0,1024,1024,1024,1024,0,0,0,0,30.1,0,0,44,3.681,3.671,0,0,0,0,4.666,75.2,3.9370408084,3.937008,38,Tripod,
22600,2022-08-13 23:02:16,0,0,3.937008,,,3.9370408084,4.593176,0,0,0,0,0,7.354,3.9370408084,3.937008,0,0,0,0,0,26.4, 0.2, 0,0,0,1024,1024,1024,1024,0,0,0,0,30.1,0,0,44,3.681,3.671,0,0,0,0,4.666,75.2,3.9370408084,3.937008,38,Tripod,
22700,2022-08-13 23:02:16,0,0,3.937008,,,3.9370408084,4.593176,0,0,0,0,0,7.354,3.9370408084,3.937008,0,0,0,0,0,26.4, 0.2, 0.1,0,0,1024,1024,1024,1024,0,0,0,0,30.1,0,0,44,3.681,3.671,0,0,0,0,4.666,75.2,3.9370408084,3.937008,38,Tripod,
22800,2022-08-13 23:02:16,0,0,3.937008,,,3.9370408084,4.593176,0,0,0,0,0,7.354,3.9370408084,3.937008,0,0,0,0,0,26.4, 0.3, 0,0,0,1024,1024,1024,1024,0,0,0,0,30.1,0,0,44,3.681,3.671,0,0,0,0,4.666,75.2,3.9370408084,3.937008,38,Tripod,
22900,2022-08-13 23:02:16,0,0,3.937008,,,3.9370408084,4.593176,0,0,0,0,0,7.354,3.9370408084,3.937008,0,0,0,0,0,26.4, 0.5, 0,0,0,1024,1024,1024,1024,0,0,0,0,30.1,0,0,44,3.681,3.671,0,0,0,0,4.666,75.2,3.9370408084,3.937008,38,Tripod,
23000,2022-08-13 23:02:16,0,0,3.937008,,,3.9370408084,4.593176,0,0,0,0,0,7.354,3.9370408084,3.937008,0,0,0,0,0,26.4, 1, 0,0,0,1024,1024,1024,1024,0,0,0,0,30.1,0,0,44,3.681,3.671,0,0,0,0,4.666,75.2,3.9370408084,3.937008,38,Tripod,
23100,2022-08-13 23:02:16,0,0,3.937008,,,3.9370408084,4.593176,0,0,0,0,0,7.349,3.9370408084,3.937008,0,0,0,0,0,26.4, 1, 0,0,0,1024,1024,1024,1024,0,0,0,0,30.1,0,0,44,3.68,3.669,0,0,0,0,4.694,75.2,3.9370408084,3.937008,38,Tripod,
23200,2022-08-13 23:02:16,0,0,3.937008,,,3.9370408084,4.593176,0,0,0,0,0,7.349,3.9370408084,3.937008,0,0,0,0,0,26.4, 1.7, -0.2,0,0,1024,1024,1024,1024,0,0,0,0,30.1,0,0,44,3.68,3.669,0,0,0,0,4.694,75.2,3.9370408084,3.937008,38,Tripod,
23300,2022-08-13 23:02:16,0,0,3.937008,,,3.9370408084,4.593176,0,0,0,0,0,7.349,3.9370408084,3.937008,0,0,0,0,0,26.4, 1.3, -0.4,0,0,1024,1024,1024,1024,0,0,0,0,30.1,0,0,44,3.68,3.669,0,0,0,0,4.694,75.2,3.9370408084,3.937008,38,Tripod,
23400,2022-08-13 23:02:16,0,0,3.937008,,,3.9370408084,4.593176,0,0,0,0,0,7.349,3.9370408084,3.937008,0,0,0,0,0,26.4, 1.1, -0.4,0,0,1024,1024,1024,1024,0,0,0,0,30.1,0,0,44,3.68,3.669,0,0,0,0,4.694,75.2,3.9370408084,3.937008,38,Tripod,
23500,2022-08-13 23:02:17,0,0,3.937008,,,3.9370408084,4.593176,0,0,0,0,0,7.349,3.9370408084,3.937008,0,0,0,0,0,26.4, 1, -0.3,0,0,1024,1024,1024,1024,0,0,0,0,30.1,0,0,44,3.68,3.669,0,0,0,0,4.694,75.2,3.9370408084,3.937008,38,Tripod,
23600,2022-08-13 23:02:17,0,0,3.937008,,,3.9370408084,4.593176,0,0,0,0,0,7.349,3.9370408084,3.937008,0,0,0,0,0,26.4, 0.8, -0.2,0,0,1024,1024,1024,1024,0,0,0,0,30.1,0,0,44,3.68,3.669,0,0,0,0,4.694,75.2,3.9370408084,3.937008,38,Tripod,
23700,2022-08-13 23:02:17,0,0,3.937008,,,3.9370408084,4.593176,0,0,0,0,0,7.349,3.9370408084,3.937008,0,0,0,0,0,26.4, 0.7, -0.2,0,0,1024,1024,1024,1024,0,0,0,0,30.1,0,0,44,3.68,3.669,0,0,0,0,4.694,75.2,3.9370408084,3.937008,38,Tripod,
23800,2022-08-13 23:02:17,0,0,3.937008,,,3.9370408084,4.593176,0,0,0,0,0,7.349,3.9370408084,3.937008,0,0,0,0,0,26.4, 0.7, -0.2,0,0,1024,1024,1024,1024,0,0,0,0,30.1,0,0,44,3.68,3.669,0,0,0,0,4.694,75.2,3.9370408084,3.937008,38,Tripod,
23900,2022-08-13 23:02:17,0,0,3.937008,,,3.9370408084,4.593176,0,0,0,0,0,7.349,3.9370408084,3.937008,0,0,0,0,0,26.4, 0.5, -0.4,0,0,1024,1024,1024,1024,0,0,0,0,30.1,0,0,44,3.68,3.669,0,0,0,0,4.694,75.2,3.9370408084,3.937008,38,Tripod,
24000,2022-08-13 23:02:17,0,0,3.937008,,,3.9370408084,4.593176,0,0,0,0,0,7.349,3.9370408084,3.937008,0,0,0,0,0,26.4, 0.6, -0.3,0,0,1024,1024,1024,1024,0,0,0,0,30.1,0,0,44,3.68,3.669,0,0,0,0,4.694,75.2,3.9370408084,3.937008,38,Tripod,
24100,2022-08-13 23:02:17,0,0,3.937008,,,3.9370408084,4.593176,0,0,0,0,0,7.349,3.9370408084,3.937008,0,0,0,0,0,26.4, 0.6, -0.2,0,0,1024,1024,1024,1024,0,0,0,0,30.1,0,0,44,3.678,3.668,0,0,0,0,4.694,75.2,3.9370408084,3.937008,38,Tripod,
24200,2022-08-13 23:02:17,0,0,3.937008,,,3.9370408084,4.593176,0,0,0,0,0,7.349,3.9370408084,3.937008,0,0,0,0,0,26.5, 0.5, -0.1,0,0,1024,1024,454,1024,0,0,-86,0,30.1,0,0,44,3.678,3.668,0,0,0,0,4.694,75.2,3.9370408084,3.937008,38,Tripod,
24300,2022-08-13 23:02:17,0,0,3.937008,,,3.9370408084,4.593176,0,0,0,0,0,7.349,3.9370408084,3.937008,0,0,0,0,0,26.4, 0.2, -0.3,0,0,1024,1024,364,1024,0,0,-100,0,30.1,0,0,44,3.678,3.668,0,0,0,0,4.694,75.2,3.9370408084,3.937008,38,Tripod,
24400,2022-08-13 23:02:17,0,0,3.937008,,,3.9370408084,4.593176,0,0,0,0,0,7.349,3.9370408084,3.937008,0,0,0,0,0.223694,26.4, 0.2, -0.3,0,0,1024,1024,1024,1024,0,0,0,0,30.1,0,0,44,3.678,3.668,0,0,0,0,4.694,75.2,3.9370408084,3.937008,38,Tripod,
24500,2022-08-13 23:02:18,0,0,3.937008,,,3.9370408084,4.265092,0,0,0,0,0,7.349,3.9370408084,3.937008,0,0,0,0,0.447388,26.4, 0.2, -0.2,0,0,1024,1024,1024,1024,0,0,0,0,30.1,0,0,44,3.678,3.668,0,0,0,0,4.694,75.2,3.9370408084,3.937008,38,Tripod,
24600,2022-08-13 23:02:18,0,0,3.937008,,,3.9370408084,4.265092,0,0,0,0,0,7.349,3.9370408084,3.937008,0,0,0,0,0.447388,26.4, 0.1, -0.1,0,0,1024,1024,1024,1024,0,0,0,0,30.1,0,0,44,3.678,3.668,0,0,0,0,4.694,75.2,3.9370408084,3.937008,38,Tripod,
24700,2022-08-13 23:02:18,0,0,3.608924,,,3.6089568084,4.265092,0,0,0,0,0,7.349,3.9370408084,3.937008,0,0,0,0,0.223694,26.4, 0.3, -0.2,0,0,1024,1024,1024,1024,0,0,0,0,30.1,0,0,44,3.678,3.668,0,0,0,0,4.694,75.2,3.6089568084,3.608924,38,Tripod,
24800,2022-08-13 23:02:18,0,0,3.608924,,,3.6089568084,4.265092,0,0,0,0,0,7.349,3.9370408084,3.937008,0,0,0,0,0.223694,26.4, 0.3, -0.1,0,0,1024,1024,1024,1024,0,0,0,0,30.1,0,0,44,3.678,3.668,0,0,0,0,4.694,75.2,3.6089568084,3.608924,38,Tripod,
24900,2022-08-13 23:02:18,0,0,3.608924,,,3.6089568084,4.265092,0,0,0,0,0,7.349,3.9370408084,3.937008,0,0,0,0,0,26.4, 0.2, 0,0,0,1024,1024,1024,1024,0,0,0,0,30.1,0,0,44,3.678,3.668,0,0,0,0,4.694,75.2,3.6089568084,3.608924,38,Tripod,
25000,2022-08-13 23:02:18,0,0,3.608924,,,3.6089568084,4.265092,0,0,0,0,0,7.349,3.9370408084,3.937008,0,0,0,0,0,26.5, 0.1, 0,0,0,825,1024,1024,1024,-30,0,0,0,30.1,0,0,44,3.678,3.668,0,0,0,0,4.694,75.2,3.6089568084,3.608924,38,Tripod,
