time(millisecond),datetime(utc),latitude,longitude,height_above_takeoff(feet),height_above_ground_at_drone_location(feet),ground_elevation_at_drone_location(feet),altitude_above_seaLevel(feet),height_sonar(feet),speed(mph),distance(feet),mileage(feet),satellites,gpslevel,voltage(v),max_altitude(feet),max_ascent(feet),max_speed(mph),max_distance(feet), xSpeed(mph), ySpeed(mph), zSpeed(mph), compass_heading(degrees), pitch(degrees), roll(degrees),isPhoto,isVideo,rc_elevator,rc_aileron,rc_throttle,rc_rudder,rc_elevator(percent),rc_aileron(percent),rc_throttle(percent),rc_rudder(percent),gimbal_heading(degrees),gimbal_pitch(degrees),gimbal_roll(degrees),battery_percent,voltageCell1,voltageCell2,voltageCell3,voltageCell4,voltageCell5,voltageCell6,current(A),battery_temperature(f),altitude(feet),ascent(feet),flycStateRaw,flycState,message
165100,2022-12-18 05:35:46,-34.906552694171,-56.1632511432737,0,0,116.90524455462,117.49579575462,0,0,0,0,18,5,0,117.49579575462,0,0,0,0,0,0,144.9, -15.9, 8.4,0,0,364,364,364,1684,-100,-100,-100,100,156.6,0,0,85,4.197,4.192,0,0,0,0,0,84.92,117.49579575462,0,6,P-GPS,"Aeronave en Zona de altitud restringida (150). Vuela con precauci贸n (Code: 190001). Error de calibraci贸n del estabilizador. Reinicia la aeronave o contacta con la Asistencia DJI (Code: 40011)"
165200,2022-12-18 05:35:47,-34.9065526806551,-56.1632512757817,0,0,116.90524455462,117.49579575462,0,0,0.039953085268,0.039953085268,18,5,0,117.49579575462,0,0,0.039953085268,0,0,0,146.7, -16.4, 8,0,0,364,364,364,1684,-100,-100,-100,100,157.7,0,0,85,4.197,4.192,0,0,0,0,0,84.92,117.49579575462,0,41,Motors_Started,
165300,2022-12-18 05:35:47,-34.9065526733824,-56.1632513771483,0,0,116.90524455462,117.49579575462,0.328084,0,0.07038714136,0.0703986243,18,5,0,117.49579575462,0,0,0.07038714136,0,0,0,147.4, -16.7, 8.1,0,0,364,364,364,1684,-100,-100,-100,100,159.1,0,0,85,4.197,4.192,0,0,0,0,0,84.92,117.49579575462,0,41,Motors_Started,
165400,2022-12-18 05:35:47,-34.9065526590053,-56.1632514391996,0,0,116.90524455462,117.49579575462,0.328084,0,0.089468178716,0.08969160392,18,5,0,117.49579575462,0,0,0.089468178716,0,0,0,147.2, -16.9, 8.2,0,0,364,364,364,1684,-100,-100,-100,100,159.7,0,0,85,4.197,4.192,0,0,0,0,0,84.92,117.49579575462,0,41,Motors_Started,
165500,2022-12-18 05:35:47,-34.9065527672981,-56.163251485705,0,0,116.90524455462,117.49579575462,0.328084,0,0.105875003388,0.131580712872,18,5,0,117.49579575462,0,0,0.105875003388,0,0,0,147, -17.7, 8.1,0,0,364,845,364,1684,-100,-27,-100,100,159.9,0,0,85,4.197,4.192,0,0,0,0,0,84.92,117.49579575462,0,41,Motors_Started,
165600,2022-12-18 05:35:47,-34.906552796549,-56.1632514801371,0,0,116.90524455462,117.49579575462,0.328084,0,0.107490817088,0.142382222404,18,5,0,117.49579575462,0,0,0.107490817088,0,0,0,146, -17.7, 8.2,0,0,364,1024,364,1684,-100,0,-100,100,159.6,0,0,85,4.197,4.192,0,0,0,0,0,84.92,117.49579575462,0,41,Motors_Started,
165700,2022-12-18 05:35:47,-34.9065528339134,-56.1632514085809,0,0,116.90524455462,117.49579575462,0.328084,0.223694,0.094345147376,0.16776411298,18,5,0,117.49579575462,0,0.223694,0.107490817088,0,0.223694,0,145, -18.1, 8.1,0,0,478,1024,364,1684,-83,0,-100,100,158.6,0,0,85,4.197,4.192,0,0,0,0,0,84.92,117.49579575462,0,41,Motors_Started,
165800,2022-12-18 05:35:47,-34.9065528818758,-56.1632513072959,0,0,116.90524455462,117.49579575462,0.328084,0,0.084252955452,0.202758536672,18,5,0,117.49579575462,0,0.223694,0.107490817088,0,0,0,145.1, -18.2, 7.5,0,0,478,1024,364,1684,-83,0,-100,100,158,0,0,85,4.197,4.192,0,0,0,0,0,84.92,117.49579575462,0,41,Motors_Started,"Setting new Return-To-Home altitude to 100m (328 ft). Data Recorder File Index is 83. Setting new Maximum Flight Altitude to 120m (394 ft)"
165900,2022-12-18 05:35:47,-34.9065529424706,-56.1632512425514,0,0,116.90524455462,117.49579575462,0.328084,0,4.6674542176,0.232153222652,18,5,0,117.49579575462,0,0.223694,4.6674542176,0,0,0,145.8, -17, 7.6,0,0,1024,1024,643,1115,0,0,-58,14,158,0,0,85,4.197,4.192,0,0,0,0,0,84.92,117.49579575462,0,41,Motors_Started,
166000,2022-12-18 05:35:47,-34.9065528895213,-56.1632512301424,0,0,116.90524455462,117.49579575462,0.328084,0,4.6585303328,0.251825467376,18,5,0,117.49579575462,0,0.223694,4.6674542176,0,0,0,146.5, -16.2, 7.6,0,0,1024,1024,1024,1024,0,0,0,0,158.4,0,0,85,4.197,4.192,0,0,0,0,0,84.92,117.49579575462,0,41,Motors_Started,
166100,2022-12-18 05:35:47,-34.906552891721,-56.1632512240867,0,0,116.90524455462,117.49579575462,0.328084,0,4.6570211464,0.253807094736,18,5,0,117.49579575462,0,0.223694,4.6674542176,0,0,0,147.2, -16.2, 8.1,0,0,1024,1024,1024,1024,0,0,0,0,159.2,0,0,85,4.197,4.192,0,0,0,0,0,84.92,117.49579575462,0,41,Motors_Started,
166200,2022-12-18 05:35:48,-34.9065529455838,-56.1632512212567,-0.328084,-0.328084,116.90524455462,117.16771175462,0.328084,0,4.6616799392,0.273477042872,18,5,8.39,117.49579575462,0,0.223694,4.6674542176,0,0,0.223694,145.7, -16.9, 9.1,0,0,1024,1024,1438,1024,0,0,63,0,159.3,0,0,85,4.181,4.176,0,0,0,0,0.705,84.92,117.16771175462,-0.328084,41,Motors_Started,
166300,2022-12-18 05:35:48,-34.90655296236,-56.1632514403458,-0.328084,-0.328084,116.90524455462,117.16771175462,0.328084,0,4.7263124872,0.33931431532,18,5,8.39,117.49579575462,0,0.223694,4.7263124872,0,0,0.223694,145, -19.1, 6.5,0,0,1024,1024,1627,1024,0,0,91,0,158.1,0,0,85,4.181,4.176,0,0,0,0,0.705,84.92,117.16771175462,-0.328084,10,Assisted_Takeoff,
166400,2022-12-18 05:35:48,-34.9065529191688,-56.1632515014833,-0.328084,-0.29527560000001,116.87243615462,117.16771175462,0.328084,0,4.7395670808,0.36346129772,18,5,8.39,117.49579575462,0,0.223694,4.7395670808,0,0,0,144.9, -16.4, 4.2,0,0,1024,1024,1612,1024,0,0,89,0,157.1,0,0,85,4.181,4.176,0,0,0,0,0.705,84.92,117.16771175462,-0.328084,10,Assisted_Takeoff,
166500,2022-12-18 05:35:48,-34.9065528686508,-56.1632515699706,-0.328084,-0.29527560000001,116.87243615462,117.16771175462,0.328084,0,4.7542980524,0.39102035372,18,5,8.39,117.49579575462,0,0.223694,4.7542980524,0,0,0,145, -7.9, 3.2,0,0,1024,1024,1198,1024,0,0,26,0,156.3,0,0,85,4.181,4.176,0,0,0,0,0.705,84.92,117.16771175462,-0.328084,6,P-GPS,"Error de calibraci贸n del estabilizador. Reinicia la aeronave o contacta con la Asistencia DJI (Code: 40011)"
166600,2022-12-18 05:35:48,-34.9065528360323,-56.1632516689313,-0.328084,-0.29527560000001,116.87243615462,117.16771175462,0.328084,0,4.7796589456,0.4229330844,18,5,8.39,117.49579575462,0,0.223694,4.7796589456,0,0,0,145.6, -4.3, 2.8,0,0,1024,1024,1024,1024,0,0,0,0,156.3,0,0,85,4.181,4.176,0,0,0,0,0.705,84.92,117.16771175462,-0.328084,6,P-GPS,
166700,2022-12-18 05:35:48,-34.9065528047352,-56.1632517023741,-0.328084,-0.29527560000001,116.87243615462,117.16771175462,0.328084,0,4.7862862424,0.43811681192,17,5,8.39,117.49579575462,0,0.223694,4.7862862424,0,0,0,145, -1.4, 1.2,0,0,1024,1024,1024,1024,0,0,0,0,156.3,0,0,85,4.181,4.176,0,0,0,0,0.705,84.92,117.16771175462,-0.328084,6,P-GPS,
166800,2022-12-18 05:35:48,-34.9065528448169,-56.1632516779978,-0.328084,-0.29527560000001,116.87243615462,117.16771175462,0.328084,0,4.783136636,0.45445867596,17,5,8.39,117.49579575462,0,0.223694,4.7862862424,0,0,0,145, -0.3, -0.1,0,0,1024,1024,1024,1024,0,0,0,0,156.3,0,0,85,4.181,4.176,0,0,0,0,0.705,84.92,117.16771175462,-0.328084,6,P-GPS,
166900,2022-12-18 05:35:48,-34.9065528044447,-56.1632517287839,-0.328084,-0.29527560000001,116.87243615462,117.16771175462,0.328084,0,4.7938977912,0.47562009396,17,5,8.39,117.49579575462,0,0.223694,4.7938977912,0,0,0,145.1, -0.4, -0.5,0,0,1024,1024,1024,1024,0,0,0,0,156.3,0,0,85,4.181,4.176,0,0,0,0,0.705,84.92,117.16771175462,-0.328084,6,P-GPS,"Error de calibraci贸n del estabilizador. Reinicia la aeronave o contacta con la Asistencia DJI (Code: 40011)"
167000,2022-12-18 05:35:48,-34.9065527187521,-56.1632517759628,-0.328084,-0.29527560000001,116.87243615462,117.16771175462,0.328084,0,4.7994752192,0.509924557,17,5,8.39,117.49579575462,0,0.223694,4.7994752192,0,0,0,145.5, -0.9, 0.1,0,0,1024,1024,1024,813,0,0,0,-32,156.3,0,0,85,4.181,4.176,0,0,0,0,0.705,84.92,117.16771175462,-0.328084,6,P-GPS,
167100,2022-12-18 05:35:49,-34.9065526500963,-56.1632518261636,-0.328084,-0.29527560000001,116.87243615462,117.16771175462,0.328084,0,4.8076773192,0.53913059468,17,5,8.39,117.49579575462,0,0.223694,4.8076773192,0,0,-0.223694,145.6, -0.9, 0.1,0,0,1024,1024,1346,675,0,0,49,-53,156.2,0,0,85,4.181,4.176,0,0,0,0,0.705,84.92,117.16771175462,-0.328084,6,P-GPS,
167200,2022-12-18 05:35:49,-34.9065526198209,-56.1632519039452,0,0.032808399999993,116.87243615462,117.49579575462,0.328084,0,4.8274935928,0.56489175036,16,5,8.346,117.49579575462,0,0.223694,4.8274935928,0,0,-0.671082,145.2, -0.6, -0.4,0,0,1024,1024,1404,1022,0,0,58,-0,155.3,0,0,85,4.152,4.144,0,0,0,0,1.51,84.92,117.49579575462,0,6,P-GPS,
167300,2022-12-18 05:35:49,-34.9065526312361,-56.1632519468897,0,0.032808399999993,116.87243615462,117.49579575462,0.656168,0,4.8409778452,0.57840224948,16,5,8.346,117.49579575462,0,0.223694,4.8409778452,0,0,-1.11847,143.9, -0.6, -0.6,0,0,1024,1024,1024,1024,0,0,0,0,153.9,0,0,85,4.152,4.144,0,0,0,0,1.51,84.92,117.49579575462,0,6,P-GPS,
167400,2022-12-18 05:35:49,-34.9065526886807,-56.1632519759033,0,0.032808399999993,116.87243615462,117.49579575462,0.984252,0,4.8545933312,0.60108597724,18,5,8.346,117.49579575462,0,0.223694,4.8545933312,0,0,-1.565858,142.8, -0.6, -0.6,0,0,1024,1024,1024,1024,0,0,0,0,153,0,0,85,4.152,4.144,0,0,0,0,1.51,84.92,117.49579575462,0,6,P-GPS,
167500,2022-12-18 05:35:49,-34.9065527351815,-56.1632519730237,0.328084,0.36089239999999,116.87243615462,117.82387975462,1.312336,0,4.8580054048,0.61807416676,18,5,8.346,117.82387975462,0.328084,0.223694,4.8580054048,0,0,-1.789552,142.4, -0.9, -0.6,0,0,1024,1024,1024,1024,0,0,0,0,152.7,0,0,85,4.152,4.144,0,0,0,0,1.51,84.92,117.82387975462,0.328084,6,P-GPS,
167600,2022-12-18 05:35:49,-34.9065529952153,-56.1632518148436,0.328084,0.36089239999999,116.87243615462,117.82387975462,1.64042,0,4.8373361128,0.7240977922,19,5,8.346,117.82387975462,0.328084,0.223694,4.8580054048,0,0,-1.342164,142.3, -0.9, -0.4,0,0,1024,1024,1024,1024,0,0,0,0,152.7,0,0,85,4.152,4.144,0,0,0,0,1.51,84.92,117.82387975462,0.328084,6,P-GPS,
167700,2022-12-18 05:35:49,-34.9065530772665,-56.1632517091117,0.656168,0.68897639999999,116.87243615462,118.15196375462,1.968504,0,4.8152560596,0.7676509432,19,5,8.346,118.15196375462,0.656168,0.223694,4.8580054048,0,0,-1.11847,142.2, -0.6, -0.4,0,0,1024,1024,1024,1024,0,0,0,0,152.7,0,0,85,4.152,4.144,0,0,0,0,1.51,84.92,118.15196375462,0.656168,6,P-GPS,
167800,2022-12-18 05:35:49,-34.9065532087507,-56.1632515230157,0.656168,0.68897639999999,116.87243615462,118.15196375462,2.296588,0,4.7756891292,0.84114832088,20,5,8.346,118.15196375462,0.656168,0.223694,4.8580054048,0,0,-0.671082,142.3, -0.5, -0.2,0,0,1024,1024,1024,1024,0,0,0,0,152.7,0,0,85,4.152,4.144,0,0,0,0,1.51,84.92,118.15196375462,0.656168,6,P-GPS,
167900,2022-12-18 05:35:49,-34.906553290946,-56.1632513273102,0.656168,0.656168,116.90524455462,118.15196375462,2.624672,0,4.7287403088,0.90693572456,20,5,8.346,118.15196375462,0.656168,0.223694,4.8580054048,0,0,-0.223694,142.2, -0.2, -0.1,0,0,1024,1024,1024,1024,0,0,0,0,152.7,0,0,85,4.152,4.144,0,0,0,0,1.51,84.92,118.15196375462,0.656168,6,P-GPS,
168000,2022-12-18 05:35:49,-34.9065534958794,-56.163250574704,0.984252,0.984252,116.90524455462,118.48004775462,2.624672,0,4.5389109064,1.14421263504,19,5,8.346,118.48004775462,0.984252,0.223694,4.8580054048,0,0,0,142.2, -0.3, -0.3,0,0,1024,1024,1024,1024,0,0,0,0,152.7,0,0,85,4.152,4.144,0,0,0,0,1.51,84.92,118.48004775462,0.984252,6,P-GPS,
168100,2022-12-18 05:35:49,-34.9065535046392,-56.1632504622912,0.984252,0.984252,116.90524455462,118.48004775462,2.624672,0,4.5082678608,1.17799872536,19,5,8.346,118.48004775462,0.984252,0.223694,4.8580054048,0,0,0,142.1, 0, -0.4,0,0,1024,1024,1024,1024,0,0,0,0,152.7,0,0,85,4.152,4.144,0,0,0,0,1.51,84.92,118.48004775462,0.984252,6,P-GPS,
168200,2022-12-18 05:35:50,-34.9065534875098,-56.1632504344777,0.984252,0.95144359999998,116.93805295462,118.48004775462,2.624672,0,4.4983269156,1.18840554984,18,5,8.205,118.48004775462,0.984252,0.223694,4.8580054048,0,0,0,142.1, -0.2, -0.6,0,0,1024,1024,1024,1024,0,0,0,0,152.7,0,0,85,4.125,4.118,0,0,0,0,3.88,84.92,118.48004775462,0.984252,6,P-GPS,
168300,2022-12-18 05:35:50,-34.9065534565413,-56.1632504722503,0.984252,0.95144359999998,116.93805295462,118.48004775462,2.624672,0,4.505249488,1.20438652148,18,5,8.205,118.48004775462,0.984252,0.223694,4.8580054048,0,0,0,142.1, -0.8, -0.9,0,0,1024,1024,1024,1024,0,0,0,0,152.7,0,0,85,4.125,4.118,0,0,0,0,3.88,84.92,118.48004775462,0.984252,6,P-GPS,
168400,2022-12-18 05:35:50,-34.9065534157595,-56.1632505588924,0.984252,0.984252,116.90524455462,118.48004775462,2.624672,0,4.5248361028,1.23427825472,18,5,8.205,118.48004775462,0.984252,0.223694,4.8580054048,0,0,0,142.2, -0.9, -0.6,0,0,1024,1024,1024,1024,0,0,0,0,152.7,0,0,85,4.125,4.118,0,0,0,0,3.88,84.92,118.48004775462,0.984252,6,P-GPS,
168500,2022-12-18 05:35:50,-34.9065532330528,-56.1632509158239,0.984252,0.984252,116.90524455462,118.48004775462,2.624672,0,4.6050526408,1.3601706472,18,5,8.205,118.48004775462,0.984252,0.223694,4.8580054048,0,0,0,142.2, -1.2, -0.1,0,0,1024,1024,1024,1024,0,0,0,0,152.7,0,0,85,4.125,4.118,0,0,0,0,3.88,84.92,118.48004775462,0.984252,6,P-GPS,
168600,2022-12-18 05:35:50,-34.9065531974212,-56.1632508474363,0.984252,0.984252,116.90524455462,118.48004775462,2.624672,0,4.5815946348,1.38441277396,18,5,8.205,118.48004775462,0.984252,0.223694,4.8580054048,0,0,0,142.2, -1, 0.1,0,0,1024,1024,1024,1024,0,0,0,0,152.7,0,0,85,4.125,4.118,0,0,0,0,3.88,84.92,118.48004775462,0.984252,6,P-GPS,
168700,2022-12-18 05:35:50,-34.9065531760756,-56.1632507958363,0.984252,0.984252,116.90524455462,118.48004775462,2.624672,0,4.5645014584,1.4017060816,18,5,8.205,118.48004775462,0.984252,0.223694,4.8580054048,0,0,0,142.3, -1.1, 0.2,0,0,1024,1024,1024,1024,0,0,0,0,152.7,0,0,85,4.125,4.118,0,0,0,0,3.88,84.92,118.48004775462,0.984252,6,P-GPS,
168800,2022-12-18 05:35:50,-34.9065531691966,-56.1632507582589,0.984252,0.984252,116.90524455462,118.48004775462,2.624672,0,4.5530513268,1.41322511084,18,5,8.205,118.48004775462,0.984252,0.223694,4.8580054048,0,0,0,142.2, -1, 0.2,0,0,1024,1024,1024,1024,0,0,0,0,152.7,0,0,85,4.125,4.118,0,0,0,0,3.88,84.92,118.48004775462,0.984252,6,P-GPS,
168900,2022-12-18 05:35:50,-34.9065531450106,-56.1632506963967,0.984252,0.984252,116.90524455462,118.48004775462,2.624672,0,4.5327101188,1.43373036084,18,5,8.205,118.48004775462,0.984252,0.223694,4.8580054048,0,0,0,142.2, -1.1, 0.2,0,0,1024,1024,1024,1024,0,0,0,0,152.7,0,0,85,4.125,4.118,0,0,0,0,3.88,84.92,118.48004775462,0.984252,6,P-GPS,
169000,2022-12-18 05:35:50,-34.9065531761094,-56.163250634489,0.984252,0.984252,116.90524455462,118.48004775462,2.624672,0,4.5185696984,1.45545280248,18,5,8.205,118.48004775462,0.984252,0.223694,4.8580054048,0,0,0,142.3, -1.1, 0.2,0,0,1024,1024,1024,1024,0,0,0,0,152.7,0,0,85,4.125,4.118,0,0,0,0,3.88,84.92,118.48004775462,0.984252,6,P-GPS,
169100,2022-12-18 05:35:50,-34.9065532191404,-56.1632505540025,0.984252,0.984252,116.90524455462,118.48004775462,2.624672,0,4.5005250784,1.48419952256,18,5,8.205,118.48004775462,0.984252,0.223694,4.8580054048,0,0,0,142.3, -0.9, 0,0,0,1024,1024,1024,1024,0,0,0,0,152.7,0.2,0,85,4.125,4.118,0,0,0,0,3.88,84.92,118.48004775462,0.984252,6,P-GPS,
169200,2022-12-18 05:35:51,-34.9065532735341,-56.1632504505639,0.984252,0.95144359999998,116.93805295462,118.48004775462,2.624672,0,4.4774279648,1.52096789644,18,5,8.236,118.48004775462,0.984252,0.223694,4.8580054048,0,0,0,142.3, -0.8, -0.1,0,0,1024,1024,1024,1024,0,0,0,0,152.7,0.7,0,85,4.115,4.106,0,0,0,0,3.875,84.92,118.48004775462,0.984252,6,P-GPS,
169300,2022-12-18 05:35:51,-34.90655338369,-56.1632503544505,0.984252,0.95144359999998,116.93805295462,118.48004775462,2.624672,0,4.4631891192,1.57038718936,18,5,8.236,118.48004775462,0.984252,0.223694,4.8580054048,0,0,0,142.2, -1.1, 0,0,0,1024,1024,1024,1024,0,0,0,0,152.7,1.1,0,85,4.115,4.106,0,0,0,0,3.875,84.92,118.48004775462,0.984252,6,P-GPS,
169400,2022-12-18 05:35:51,-34.9065534378009,-56.1632503409909,0.984252,0.95144359999998,116.93805295462,118.48004775462,2.624672,0,4.4659122164,1.5905348278,19,5,8.236,118.48004775462,0.984252,0.223694,4.8580054048,0,0,0,142.2, -0.9, -0.1,0,0,1024,1024,1024,1024,0,0,0,0,152.7,1.4,0,85,4.115,4.106,0,0,0,0,3.875,84.92,118.48004775462,0.984252,6,P-GPS,
169500,2022-12-18 05:35:51,-34.9065534828366,-56.1632502927054,0.984252,0.95144359999998,116.93805295462,118.48004775462,2.624672,0,4.4578085416,1.61241474976,19,5,8.236,118.48004775462,0.984252,0.223694,4.8580054048,0,0,0,142.2, -0.2, -0.3,0,0,1024,1024,1024,1024,0,0,0,0,152.7,1.6,0,85,4.115,4.106,0,0,0,0,3.875,84.92,118.48004775462,0.984252,6,P-GPS,
169600,2022-12-18 05:35:51,-34.9065535177875,-56.1632502086364,0.984252,0.984252,116.90524455462,118.48004775462,2.624672,0,4.438484394,1.6406168504,19,5,8.236,118.48004775462,0.984252,0.223694,4.8580054048,0,0,0,142.3, -0.3, -0.3,0,0,1024,1024,1024,1024,0,0,0,0,152.7,1.7,0,85,4.115,4.106,0,0,0,0,3.875,84.92,118.48004775462,0.984252,6,P-GPS,
169700,2022-12-18 05:35:51,-34.9065535438788,-56.1632499519429,0.984252,0.984252,116.90524455462,118.48004775462,2.624672,0,4.3696523708,1.71800858516,19,5,8.236,118.48004775462,0.984252,0.223694,4.8580054048,0,0,0,142.3, -0.8, -0.2,0,0,1024,1024,1139,1024,0,0,17,0,152.7,1.7,0,85,4.115,4.106,0,0,0,0,3.875,84.92,118.48004775462,0.984252,6,P-GPS,
169800,2022-12-18 05:35:51,-34.9065535957704,-56.1632498379593,0.984252,0.984252,116.90524455462,118.48004775462,2.296588,0,4.3443899028,1.75701777276,19,5,8.236,118.48004775462,0.984252,0.223694,4.8580054048,0,0,0,142.3, -0.5, -0.1,0,0,1024,1024,1139,1024,0,0,17,0,152.7,1.7,0,85,4.115,4.106,0,0,0,0,3.875,84.92,118.48004775462,0.984252,6,P-GPS,
169900,2022-12-18 05:35:51,-34.9065536443481,-56.1632497553185,0.984252,0.984252,116.90524455462,118.48004775462,2.296588,0,4.3276576188,1.78743772124,19,5,8.236,118.48004775462,0.984252,0.223694,4.8580054048,0,0,0,142.2, -0.6, 0,0,0,1024,1024,1358,1024,0,0,51,0,152.7,1.7,0,85,4.115,4.106,0,0,0,0,3.875,84.92,118.48004775462,0.984252,6,P-GPS,
170000,2022-12-18 05:35:51,-34.9065536966812,-56.1632496996826,0.984252,0.984252,116.90524455462,118.48004775462,2.296588,0,4.3190946264,1.81276908688,19,5,8.236,118.48004775462,0.984252,0.223694,4.8580054048,0,0,-0.223694,142.1, -0.5, 0,0,0,1024,1024,1347,1024,0,0,49,0,152.7,1.7,0,85,4.115,4.106,0,0,0,0,3.875,84.92,118.48004775462,0.984252,6,P-GPS,
170100,2022-12-18 05:35:51,-34.9065537477871,-56.1632496361985,1.312336,1.312336,116.90524455462,118.80813175462,2.624672,0,4.3083006628,1.8393865418,19,5,8.236,118.80813175462,1.312336,0.223694,4.8580054048,0,0,-0.894776,142.1, -0.6, -0.2,0,0,1024,1024,1024,1024,0,0,0,0,152.7,1.7,0,85,4.115,4.106,0,0,0,0,3.875,84.92,118.80813175462,1.312336,6,P-GPS,
170200,2022-12-18 05:35:52,-34.9065538361328,-56.1632495534185,1.312336,1.312336,116.90524455462,118.80813175462,2.952756,0,4.2974410824,1.88003943024,19,5,8.218,118.80813175462,1.312336,0.223694,4.8580054048,0,0,-1.11847,142.2, -0.5, -0.4,0,0,1024,1024,1024,1024,0,0,0,0,152.7,1.7,0,85,4.113,4.102,0,0,0,0,4.125,84.92,118.80813175462,1.312336,6,P-GPS,
170300,2022-12-18 05:35:52,-34.9065538852835,-56.163249494444,1.64042,1.6076116,116.93805295462,119.13621575462,2.952756,0,4.2879594548,1.90519691136,19,5,8.218,119.13621575462,1.64042,0.223694,4.8580054048,0,0,-0.671082,142.2, -0.2, -0.4,0,0,1024,788,1024,1024,0,-36,0,0,152.7,1.7,0,85,4.113,4.102,0,0,0,0,4.125,84.92,119.13621575462,1.64042,6,P-GPS,
170400,2022-12-18 05:35:52,-34.9065539304808,-56.1632494518374,1.64042,1.6076116,116.93805295462,119.13621575462,3.28084,0,4.2825788772,1.92604008788,18,5,8.218,119.13621575462,1.64042,0.223694,4.8580054048,0,0,-0.447388,142.2, -0.2, -0.4,0,0,1024,364,1024,1024,0,-100,0,0,152.7,1.7,0,85,4.113,4.102,0,0,0,0,4.125,84.92,119.13621575462,1.64042,6,P-GPS,
170500,2022-12-18 05:35:52,-34.9065539937274,-56.1632494172439,1.64042,1.6076116,116.93805295462,119.13621575462,3.28084,0,4.2821195596,1.9513288026,18,5,8.218,119.13621575462,1.64042,0.223694,4.8580054048,0,0,-0.223694,142.2, -0.4, -3.4,0,0,1024,442,1024,1024,0,-88,0,0,152.7,1.7,0,85,4.113,4.102,0,0,0,0,4.125,84.92,119.13621575462,1.64042,6,P-GPS,
170600,2022-12-18 05:35:52,-34.9065541356942,-56.1632494113035,1.968504,1.9356956,116.93805295462,119.46429975462,3.28084,0,4.3011484316,2.00315623208,18,5,8.218,119.46429975462,1.968504,0.223694,4.8580054048,0,0,0,141.8, -0.5, -12,0,0,1024,442,1024,1024,0,-88,0,0,152.7,1.7,0,85,4.113,4.102,0,0,0,0,4.125,84.92,119.46429975462,1.968504,6,P-GPS,
170700,2022-12-18 05:35:52,-34.9065540955203,-56.1632491856708,1.968504,1.9356956,116.93805295462,119.46429975462,3.608924,0.4921268,4.2335303192,2.07224087996,18,5,8.218,119.46429975462,1.968504,0.4921268,4.8580054048,0.223694,0.447388,0,141.8, -0.4, -16.8,0,0,1024,1024,1024,1024,0,0,0,0,152.7,1.7,0,85,4.113,4.102,0,0,0,0,4.125,84.92,119.46429975462,1.968504,6,P-GPS,
170800,2022-12-18 05:35:52,-34.9065538938396,-56.1632487091673,1.968504,1.9356956,116.93805295462,119.46429975462,3.608924,0.4921268,4.073326902,2.23268379848,19,5,8.218,119.46429975462,1.968504,0.4921268,4.8580054048,0.447388,0.894776,0,142.3, -0.4, -7.3,0,0,1024,1024,1024,1024,0,0,0,0,152.7,1.7,0,85,4.113,4.102,0,0,0,0,4.125,84.92,119.46429975462,1.968504,6,P-GPS,
170900,2022-12-18 05:35:52,-34.9065536146571,-56.1632482024037,1.968504,1.9028872,116.97086135462,119.46429975462,3.608924,1.11847,3.8935696784,2.41534784632,19,5,8.218,119.46429975462,1.968504,1.11847,4.8580054048,0.671082,0.894776,0,142.8, -0.4, 3.7,0,0,1024,1024,1024,1024,0,0,0,0,152.7,1.7,0,85,4.113,4.102,0,0,0,0,4.125,84.92,119.46429975462,1.968504,6,P-GPS,"Punto de origen actualizado. Altitud de RPO establecida en 100m (Code: 3000001)"
171000,2022-12-18 05:35:52,-34.9065532854512,-56.1632478459524,1.968504,1.8700788,117.00366975462,119.46429975462,3.608924,0.8052984,3.748523742,2.57597777272,19,5,8.218,119.46429975462,1.968504,1.11847,4.8580054048,0.447388,0.671082,0,142.4, -0.4, 5.3,0,0,1024,1024,1024,1024,0,0,0,0,152.7,1.7,0,85,4.113,4.102,0,0,0,0,4.125,84.92,119.46429975462,1.968504,6,P-GPS,
171100,2022-12-18 05:35:52,-34.9065530776001,-56.1632475172997,1.968504,1.8700788,117.00366975462,119.46429975462,3.608924,0.6263432,3.6288386988,2.70015756672,19,5,8.218,119.46429975462,1.968504,1.11847,4.8580054048,0.447388,0.447388,0,142.2, -0.3, 4.8,0,0,1024,1024,1459,1024,0,0,66,0,152.7,1.7,0,85,4.113,4.102,0,0,0,0,4.125,84.92,119.46429975462,1.968504,6,P-GPS,
171200,2022-12-18 05:35:53,-34.9065528910138,-56.1632472091304,1.968504,1.8372704,117.03647815462,119.46429975462,3.608924,0.4921268,3.5180119236,2.81477043128,19,5,8.145,119.46429975462,1.968504,1.11847,4.8580054048,0.223694,0.447388,0,142.1, -0.4, 4,0,0,1024,1024,1575,1024,0,0,83,0,152.7,1.7,0,85,4.109,4.097,0,0,0,0,4.407,84.92,119.46429975462,1.968504,6,P-GPS,
171300,2022-12-18 05:35:53,-34.9065527466698,-56.1632469274146,1.968504,1.8372704,117.03647815462,119.46429975462,3.608924,0.223694,3.4203413168,2.91416019824,19,5,8.145,119.46429975462,1.968504,1.11847,4.8580054048,0,0.223694,-0.223694,142, -0.5, 2.9,0,0,1024,1024,1024,1024,0,0,0,0,152.7,1.7,0,85,4.109,4.097,0,0,0,0,4.407,84.92,119.46429975462,1.968504,6,P-GPS,
171400,2022-12-18 05:35:53,-34.9065525250487,-56.1632464692243,2.296588,2.132546,117.06928655462,119.79238375462,3.937008,0,3.26342858212,3.07332358916,19,5,8.145,119.79238375462,2.296588,1.11847,4.8580054048,0,0,-1.11847,141.9, -0.4, 1.6,0,0,1024,1024,1024,1024,0,0,0,0,152.7,1.7,0,85,4.109,4.097,0,0,0,0,4.407,84.92,119.79238375462,2.296588,6,P-GPS,
171500,2022-12-18 05:35:53,-34.9065524770233,-56.1632462970179,2.296588,2.0997376,117.10209495462,119.79238375462,3.937008,0,3.20903553576,3.12774944392,19,5,8.145,119.79238375462,2.296588,1.11847,4.8580054048,0,0,-1.11847,142, -0.1, 0.4,0,0,1024,879,1024,1024,0,-22,0,0,152.7,1.7,0,85,4.109,4.097,0,0,0,0,4.407,84.92,119.79238375462,2.296588,6,P-GPS,
171600,2022-12-18 05:35:53,-34.9065524648113,-56.1632461944309,2.624672,2.4278216,117.10209495462,120.12046775462,4.265092,0,3.1787566634,3.15876322444,18,5,8.145,120.12046775462,2.624672,1.11847,4.8580054048,0,0,-0.671082,142.1, 0.2, 0.1,0,0,1024,364,1024,1024,0,-100,0,0,152.7,1.7,0,85,4.109,4.097,0,0,0,0,4.407,84.92,120.12046775462,2.624672,6,P-GPS,
171700,2022-12-18 05:35:53,-34.906552468099,-56.1632461796356,2.624672,2.4278216,117.10209495462,120.12046775462,4.265092,0,3.17504603336,3.16334983876,18,5,8.145,120.12046775462,2.624672,1.11847,4.8580054048,0,0,-0.447388,141.9, 0.1, -7.3,0,0,1024,364,1024,1024,0,-100,0,0,152.7,1.7,0,85,4.109,4.097,0,0,0,0,4.407,84.92,120.12046775462,2.624672,6,P-GPS,
171800,2022-12-18 05:35:53,-34.9065524375669,-56.1632461705439,2.624672,2.4278216,117.10209495462,120.12046775462,4.265092,0.3131716,3.16854997016,3.1748196554,18,5,8.145,120.12046775462,2.624672,1.11847,4.8580054048,0.223694,0.223694,-0.223694,141.7, 0, -15.1,0,0,1024,364,1024,1024,0,-100,0,0,152.7,1.7,0,85,4.109,4.097,0,0,0,0,4.407,84.92,120.12046775462,2.624672,6,P-GPS,
171900,2022-12-18 05:35:53,-34.9065524313004,-56.1632463426216,2.624672,2.4278216,117.10209495462,120.12046775462,4.265092,0.8052984,3.21596466984,3.22635509012,18,5,8.145,120.12046775462,2.624672,1.11847,4.8580054048,0.447388,0.671082,0,141.9, -0.2, -17.9,0,0,1024,364,1024,1024,0,-100,0,0,152.7,1.7,0,85,4.109,4.097,0,0,0,0,4.407,84.92,120.12046775462,2.624672,6,P-GPS,
172000,2022-12-18 05:35:53,-34.9065521396263,-56.1632459178971,2.624672,2.4278216,117.10209495462,120.12046775462,4.265092,1.4316416,3.06031505856,3.3920932844,18,5,8.145,120.12046775462,2.624672,1.4316416,4.8580054048,0.894776,1.11847,0,142.1, -0.4, -17.9,0,0,1024,364,1024,1024,0,-100,0,0,152.7,1.7,0,85,4.109,4.097,0,0,0,0,4.407,84.92,120.12046775462,2.624672,6,P-GPS,
172100,2022-12-18 05:35:53,-34.9065517034464,-56.1632452207492,2.624672,2.3950132,117.13490335462,120.12046775462,4.265092,2.23694,2.81201452568,3.6544620592,18,5,8.138,120.12046775462,2.624672,2.23694,4.8580054048,1.342164,1.789552,0,142.2, -0.4, -17.2,0,0,1024,364,1024,1024,0,-100,0,0,152.7,1.7,0,85,4.101,4.093,0,0,0,0,4.416,84.92,120.12046775462,2.624672,6,P-GPS,
172200,2022-12-18 05:35:54,-34.9065510822887,-56.1632441916317,2.624672,2.3293964,117.20052015462,120.12046775462,4.265092,2.8632832,2.45293971104,4.0368111528,17,5,8.138,120.12046775462,2.624672,2.8632832,4.8580054048,1.789552,2.23694,0,142.2, -0.2, -17,0,0,1024,364,1024,1024,0,-100,0,0,152.7,1.7,0,85,4.101,4.093,0,0,0,0,4.416,84.92,120.12046775462,2.624672,6,P-GPS,
172300,2022-12-18 05:35:54,-34.9065503390607,-56.1632430315111,2.624672,2.2637796,117.26613695462,120.12046775462,4.265092,3.35541,2.05545938336,4.4772967312,17,5,8.138,120.12046775462,2.624672,3.35541,4.8580054048,2.013246,2.684328,0,142.2, -0.4, -16.4,0,0,1024,364,1024,1024,0,-100,0,0,152.7,1.7,0,85,4.101,4.093,0,0,0,0,4.416,84.92,120.12046775462,2.624672,6,P-GPS,
172400,2022-12-18 05:35:54,-34.9065492980372,-56.163241454763,2.624672,2.1653544,117.36456215462,120.12046775462,4.265092,3.9817532,1.55302826492,5.0829397952,18,5,8.138,120.12046775462,2.624672,3.9817532,4.8580054048,2.460634,3.131716,0,142.3, -0.6, -16.2,0,0,1024,364,1024,1024,0,-100,0,0,152.7,1.7,0,85,4.101,4.093,0,0,0,0,4.416,84.92,120.12046775462,2.624672,6,P-GPS,
172500,2022-12-18 05:35:54,-34.9065481706243,-56.1632397099767,2.624672,2.0997376,117.43017895462,120.12046775462,4.265092,4.2949248,1.11931762112,5.7475723624,18,5,8.138,120.12046775462,2.624672,4.2949248,4.8580054048,2.684328,3.35541,0,142.4, -0.8, -16,0,0,1024,364,1024,1024,0,-100,0,0,152.7,1.7,0,85,4.101,4.093,0,0,0,0,4.416,84.92,120.12046775462,2.624672,6,P-GPS,
172600,2022-12-18 05:35:54,-34.9065468577475,-56.1632376435334,2.624672,2.0013124,117.52860415462,120.12046775462,4.265092,4.921268,1.00397641008,6.5297246184,18,5,8.138,120.12046775462,2.624672,4.921268,4.8580054048,3.131716,3.802798,0,142.2, -0.9, -16.3,0,0,1024,364,1024,1024,0,-100,0,0,152.7,1.7,0,85,4.101,4.093,0,0,0,0,4.416,84.92,120.12046775462,2.624672,6,P-GPS,
172700,2022-12-18 05:35:54,-34.9065449813582,-56.1632348881259,2.624672,1.8372704,117.69264615462,120.12046775462,4.265092,5.4133948,1.6521161946,7.6013453876,18,5,8.138,120.12046775462,2.624672,5.4133948,4.8580054048,3.35541,4.250186,0,142.4, -1, -16.1,0,0,1024,1024,1024,1024,0,0,0,0,152.7,1.7,0,85,4.101,4.093,0,0,0,0,4.416,84.92,120.12046775462,2.624672,6,P-GPS,
172800,2022-12-18 05:35:54,-34.9065433435556,-56.1632324279977,2.624672,1.6732284,117.85668815462,120.12046775462,4.265092,5.7265664,2.47930454128,8.5494425308,19,5,8.138,120.12046775462,2.624672,5.7265664,4.8580054048,3.579104,4.47388,0,142.4, -1.2, -10.1,0,0,1024,1024,1024,1024,0,0,0,0,152.7,1.7,0,85,4.101,4.093,0,0,0,0,4.416,84.92,120.12046775462,2.624672,6,P-GPS,
172900,2022-12-18 05:35:54,-34.9065417550011,-56.1632300514798,2.624672,1.5748032,117.95511335462,120.12046775462,4.265092,5.7265664,3.3419292408,9.4667982032,19,5,8.138,120.12046775462,2.624672,5.7265664,4.8580054048,3.579104,4.47388,0,143.1, -1.4, 14.5,0,0,1024,1024,1024,1024,0,0,0,0,152.7,1.7,0,85,4.101,4.093,0,0,0,0,4.416,84.92,120.12046775462,2.624672,6,P-GPS,
173000,2022-12-18 05:35:54,-34.9065402182515,-56.1632277869486,2.952756,1.7716536,118.08634695462,120.44855175462,4.265092,4.921268,4.1922901604,10.3462601736,19,5,8.138,120.44855175462,2.952756,5.7265664,4.8580054048,3.131716,3.802798,0,142.9, -0.2, 18.7,0,0,1024,1024,1024,1024,0,0,0,0,152.7,1.7,0,85,4.101,4.093,0,0,0,0,4.416,84.92,120.44855175462,2.952756,6,P-GPS,
173100,2022-12-18 05:35:54,-34.9065387847551,-56.1632259989221,2.952756,1.6732284,118.18477215462,120.44855175462,4.265092,3.9593838,4.9336287668,11.0944229272,19,5,8.185,120.44855175462,2.952756,5.7265664,4.9336287668,2.684328,2.908022,0,142.2, -1.1, 20.3,0,0,1024,1024,1024,1024,0,0,0,0,152.7,1.7,0,85,4.097,4.087,0,0,0,0,4.262,84.92,120.44855175462,2.952756,6,P-GPS,
173200,2022-12-18 05:35:55,-34.9065376380862,-56.1632244752064,3.28084,1.9028872,118.28319735462,120.77663575462,4.593176,2.8409138,5.5457022772,11.7132221596,18,5,8.185,120.77663575462,3.28084,5.7265664,5.5457022772,2.013246,2.013246,0,142, -2.2, 19.8,0,0,1024,1024,1024,1024,0,0,0,0,152.7,1.7,0,85,4.097,4.087,0,0,0,0,4.262,84.92,120.77663575462,3.28084,6,P-GPS,
173300,2022-12-18 05:35:55,-34.9065367838452,-56.1632233888749,3.28084,1.8372704,118.34881415462,120.77663575462,4.593176,2.0579848,5.9931760448,12.1635174496,18,5,8.185,120.77663575462,3.28084,5.7265664,5.9931760448,1.565858,1.342164,0,141.6, -3.4, 14.7,0,0,1024,1024,1024,1024,0,0,0,0,152.7,1.7,0,85,4.097,4.087,0,0,0,0,4.262,84.92,120.77663575462,3.28084,6,P-GPS,
173400,2022-12-18 05:35:55,-34.9065361172107,-56.1632225323851,3.28084,1.804462,118.38162255462,120.77663575462,4.92126,1.4316416,6.3443571584,12.5168311092,18,5,8.185,120.77663575462,3.28084,5.7265664,6.3443571584,1.11847,0.894776,0,142.1, -2.8, 10.8,0,0,1024,1024,1024,1024,0,0,0,0,152.7,1.7,0,85,4.097,4.087,0,0,0,0,4.262,84.92,120.77663575462,3.28084,6,P-GPS,
173500,2022-12-18 05:35:55,-34.9065357379559,-56.1632220368628,3.28084,1.7716536,118.41443095462,120.77663575462,4.92126,0.9395148,6.5458335428,12.719652638,18,5,8.185,120.77663575462,3.28084,5.7265664,6.5458335428,0.671082,0.671082,0,142.3, -2.1, 7.8,0,0,1024,1024,1024,1024,0,0,0,0,152.7,1.7,0,85,4.097,4.087,0,0,0,0,4.262,84.92,120.77663575462,3.28084,6,P-GPS,
173600,2022-12-18 05:35:55,-34.9065359807993,-56.1632224390074,3.28084,1.7716536,118.41443095462,120.77663575462,4.92126,0.9395148,6.4003610972,12.8690620916,18,5,8.185,120.77663575462,3.28084,5.7265664,6.5458335428,0.671082,0.671082,0,141.9, -1.8, 6.2,0,0,1024,1024,1024,1024,0,0,0,0,152.7,1.7,0,85,4.097,4.087,0,0,0,0,4.262,84.92,120.77663575462,3.28084,6,P-GPS,
173700,2022-12-18 05:35:55,-34.9065358858186,-56.1632223349482,3.28084,1.7716536,118.41443095462,120.77663575462,4.92126,0.6263432,6.4469490252,12.9156500196,18,5,8.185,120.77663575462,3.28084,5.7265664,6.5458335428,0.447388,0.447388,0,141.8, -1.4, 5.2,0,0,1024,1024,1024,1024,0,0,0,0,152.7,1.7,0,85,4.097,4.087,0,0,0,0,4.262,84.92,120.77663575462,3.28084,6,P-GPS,
173800,2022-12-18 05:35:55,-34.9065358473466,-56.1632223311405,2.952756,1.4435696,118.41443095462,120.44855175462,4.92126,0.3131716,6.4583991568,12.9297248232,18,5,8.185,120.77663575462,3.28084,5.7265664,6.5458335428,0.223694,0.223694,0,141.8, -1.1, 3.9,0,0,1024,1024,1024,1024,0,0,0,0,152.7,1.7,0,85,4.097,4.087,0,0,0,0,4.262,84.92,120.44855175462,2.952756,6,P-GPS,
173900,2022-12-18 05:35:55,-34.9065358725484,-56.1632224033434,2.952756,1.4435696,118.41443095462,120.44855175462,4.92126,0.3131716,6.4374345892,12.9532156376,18,5,8.185,120.77663575462,3.28084,5.7265664,6.5458335428,0.223694,0.223694,0,141.8, -0.9, 2.7,0,0,1024,1024,1024,1024,0,0,0,0,152.7,1.7,0,85,4.097,4.087,0,0,0,0,4.262,84.92,120.44855175462,2.952756,6,P-GPS,
174000,2022-12-18 05:35:55,-34.9065363193006,-56.1632232549861,2.952756,1.476378,118.38162255462,120.44855175462,4.92126,0.223694,6.1492456036,13.2557090856,18,5,8.185,120.77663575462,3.28084,5.7265664,6.5458335428,0,0.223694,0,142, -0.6, 2,0,0,1024,1024,1024,1024,0,0,0,0,152.7,1.7,0,85,4.097,4.087,0,0,0,0,4.262,84.92,120.44855175462,2.952756,6,P-GPS,
174100,2022-12-18 05:35:55,-34.9065363988029,-56.1632233316026,2.952756,1.476378,118.38162255462,120.44855175462,4.92126,0,6.1122705368,13.2926841524,18,5,8.183,120.77663575462,3.28084,5.7265664,6.5458335428,0,0,0,142, -0.4, 1.6,0,0,1024,1024,1024,1024,0,0,0,0,152.7,1.7,0,85,4.102,4.093,0,0,0,0,4.419,84.92,120.44855175462,2.952756,6,P-GPS,
174200,2022-12-18 05:35:56,-34.9065364682039,-56.163223338176,2.952756,1.476378,118.38162255462,120.44855175462,4.92126,0,6.0914700112,13.318077854,18,5,8.183,120.77663575462,3.28084,5.7265664,6.5458335428,0,0,0,142, -0.6, 1.1,0,0,1024,1024,1024,1024,0,0,0,0,152.7,1.7,0,85,4.102,4.093,0,0,0,0,4.419,84.92,120.44855175462,2.952756,6,P-GPS,
174300,2022-12-18 05:35:56,-34.9065365047869,-56.1632233548484,2.624672,1.1811024,118.34881415462,120.12046775462,4.92126,0,6.0779857588,13.3323166996,18,5,8.183,120.77663575462,3.28084,5.7265664,6.5458335428,0,0,0,141.9, -0.9, 0.5,0,0,1024,1024,1024,1024,0,0,0,0,152.7,1.7,0,85,4.102,4.093,0,0,0,0,4.419,84.92,120.12046775462,2.624672,6,P-GPS,
174400,2022-12-18 05:35:56,-34.9065362807782,-56.1632231804092,2.624672,1.148294,118.38162255462,120.12046775462,4.92126,0,6.1742784128,13.42929833,18,5,8.183,120.77663575462,3.28084,5.7265664,6.5458335428,0,0,0,141.9, -1.1, 0.3,0,0,1024,1024,1024,1024,0,0,0,0,152.7,1.7,0,85,4.102,4.093,0,0,0,0,4.419,84.92,120.12046775462,2.624672,6,P-GPS,
174500,2022-12-18 05:35:56,-34.9065362540228,-56.1632231960344,2.624672,1.148294,118.38162255462,120.12046775462,4.92126,0,6.1788715888,13.440125102,18,5,8.183,120.77663575462,3.28084,5.7265664,6.5458335428,0,0,0,141.9, -1, 0.4,0,0,1024,1024,1024,1024,0,0,0,0,152.7,1.7,0,85,4.102,4.093,0,0,0,0,4.419,84.92,120.12046775462,2.624672,6,P-GPS,
174600,2022-12-18 05:35:56,-34.9065362032528,-56.1632232044725,2.624672,1.148294,118.38162255462,120.12046775462,4.92126,0,6.191601248,13.45882589,19,5,8.183,120.77663575462,3.28084,5.7265664,6.5458335428,0,0,0,141.9, -1, 0.2,0,0,1024,1024,1024,1024,0,0,0,0,152.7,1.7,0,85,4.102,4.093,0,0,0,0,4.419,84.92,120.12046775462,2.624672,6,P-GPS,
174700,2022-12-18 05:35:56,-34.9065361746574,-56.1632232221191,2.624672,1.148294,118.38162255462,120.12046775462,4.92126,0,6.1963912744,13.4705056804,19,5,8.183,120.77663575462,3.28084,5.7265664,6.5458335428,0,0,0,141.9, -0.9, 0.1,0,0,1024,1024,1024,1024,0,0,0,0,152.7,1.7,0,85,4.102,4.093,0,0,0,0,4.419,84.92,120.12046775462,2.624672,6,P-GPS,
174800,2022-12-18 05:35:56,-34.9065358415347,-56.1632230598813,2.624672,1.148294,118.38162255462,120.12046775462,4.92126,0,6.3214897036,13.601378388,19,5,8.183,120.77663575462,3.28084,5.7265664,6.5458335428,0,0,0,142, -0.7, 0,0,0,1024,1024,1024,1024,0,0,0,0,152.7,1.7,0,85,4.102,4.093,0,0,0,0,4.419,84.92,120.12046775462,2.624672,6,P-GPS,
174900,2022-12-18 05:35:56,-34.9065358653817,-56.1632230510462,2.624672,1.148294,118.38162255462,120.12046775462,4.92126,0,6.3163387848,13.6104663148,19,5,8.183,120.77663575462,3.28084,5.7265664,6.5458335428,0,0,0,142, -0.3, 0,0,0,1024,1024,1024,1024,0,0,0,0,152.7,1.7,0,85,4.102,4.093,0,0,0,0,4.419,84.92,120.12046775462,2.624672,6,P-GPS,
175000,2022-12-18 05:35:56,-34.9065359103153,-56.1632230041811,2.624672,1.148294,118.38162255462,120.12046775462,4.92126,0,6.3123689684,13.632054242,19,5,8.183,120.77663575462,3.28084,5.7265664,6.5458335428,0,0,0,142, -0.2, 0,0,0,1024,1024,1024,1024,0,0,0,0,152.7,1.7,0,85,4.102,4.093,0,0,0,0,4.419,84.92,120.12046775462,2.624672,6,P-GPS,
175100,2022-12-18 05:35:56,-34.9065359705075,-56.1632229712096,2.624672,1.148294,118.38162255462,120.12046775462,4.92126,0,6.3015421964,13.6561356076,19,5,8.183,120.77663575462,3.28084,5.7265664,6.5458335428,0,0,0,142.1, 0, 0,0,0,1024,1024,1024,1024,0,0,0,0,152.7,1.7,0,85,4.097,4.087,0,0,0,0,4.118,84.92,120.12046775462,2.624672,6,P-GPS,
175200,2022-12-18 05:35:57,-34.9065360507409,-56.163222964046,2.624672,1.148294,118.38162255462,120.12046775462,4.92126,0,6.2802167364,13.6854663172,19,5,8.183,120.77663575462,3.28084,5.7265664,6.5458335428,0,0,0,142.1, -0.1, 0,0,0,1024,1024,1024,1024,0,0,0,0,152.7,1.7,0,85,4.097,4.087,0,0,0,0,4.118,84.92,120.12046775462,2.624672,6,P-GPS,
175300,2022-12-18 05:35:57,-34.9065360850555,-56.16322279091,2.624672,1.148294,118.38162255462,120.12046775462,4.92126,0,6.3035435088,13.7387799672,19,5,8.183,120.77663575462,3.28084,5.7265664,6.5458335428,0,0,0,142.1, -0.3, -0.4,0,0,1024,1024,1024,1024,0,0,0,0,152.7,1.7,0,85,4.097,4.087,0,0,0,0,4.118,84.92,120.12046775462,2.624672,6,P-GPS,
175400,2022-12-18 05:35:57,-34.9065360950199,-56.1632228169659,2.624672,1.148294,118.38162255462,120.12046775462,4.92126,0,6.295767918,13.747375768,19,5,8.183,120.77663575462,3.28084,5.7265664,6.5458335428,0,0,0,142.1, -0.2, -0.6,0,0,1024,1024,1024,1024,0,0,0,0,152.7,1.7,0,85,4.097,4.087,0,0,0,0,4.118,84.92,120.12046775462,2.624672,6,P-GPS,
175500,2022-12-18 05:35:57,-34.9065361104511,-56.1632228639669,2.624672,1.148294,118.38162255462,120.12046775462,4.92126,0,6.2824477076,13.7625332488,19,5,8.183,120.77663575462,3.28084,5.7265664,6.5458335428,0,0,0,142.2, -0.1, -0.6,0,0,1024,1024,1024,1024,0,0,0,0,152.7,1.7,0,85,4.097,4.087,0,0,0,0,4.118,84.92,120.12046775462,2.624672,6,P-GPS,
175600,2022-12-18 05:35:57,-34.9065361335017,-56.1632229346394,2.624672,1.148294,118.38162255462,120.12046775462,4.92126,0,6.2625002004,13.78526947,19,5,8.183,120.77663575462,3.28084,5.7265664,6.5458335428,0,0,0,142.2, -0.1, -0.5,0,0,1024,1024,1024,1024,0,0,0,0,152.7,1.7,0,85,4.097,4.087,0,0,0,0,4.118,84.92,120.12046775462,2.624672,6,P-GPS,
175700,2022-12-18 05:35:57,-34.9065360395617,-56.1632230064349,2.624672,1.148294,118.38162255462,120.12046775462,4.92126,0,6.2753282848,13.8257222272,19,5,8.183,120.77663575462,3.28084,5.7265664,6.5458335428,0,0,0,142.3, -0.3, -0.3,0,0,1024,1024,1024,1024,0,0,0,0,152.7,1.7,0,85,4.097,4.087,0,0,0,0,4.118,84.92,120.12046775462,2.624672,6,P-GPS,
175800,2022-12-18 05:35:57,-34.906536018457,-56.16322307085,2.624672,1.148294,118.38162255462,120.12046775462,4.92126,0,6.2691603056,13.8464899444,19,5,8.183,120.77663575462,3.28084,5.7265664,6.5458335428,0,0,0,142.3, -0.4, -0.2,0,0,1024,1024,1024,1024,0,0,0,0,152.7,1.7,0,85,4.097,4.087,0,0,0,0,4.118,84.92,120.12046775462,2.624672,6,P-GPS,
175900,2022-12-18 05:35:57,-34.9065360209876,-56.1632231254455,2.624672,1.148294,118.38162255462,120.12046775462,4.92126,0,6.2581694916,13.862861336,19,5,8.183,120.77663575462,3.28084,5.7265664,6.5458335428,0,0,0,142.2, -0.5, -0.3,0,0,1024,1024,1024,1024,0,0,0,0,152.7,1.7,0,85,4.097,4.087,0,0,0,0,4.118,84.92,120.12046775462,2.624672,6,P-GPS,
176000,2022-12-18 05:35:57,-34.906536051889,-56.1632231737549,2.624672,1.148294,118.38162255462,120.12046775462,4.92126,0,6.240321722,13.8811684232,19,5,8.183,120.77663575462,3.28084,5.7265664,6.5458335428,0,0,0,142.2, -0.5, -0.3,0,0,1024,1024,1024,1024,0,0,0,0,152.7,1.7,0,85,4.097,4.087,0,0,0,0,4.118,84.92,120.12046775462,2.624672,6,P-GPS,
176100,2022-12-18 05:35:57,-34.9065360129936,-56.1632231653586,2.624672,1.148294,118.38162255462,120.12046775462,4.92126,0,6.252952956,13.8956041192,19,5,8.179,120.77663575462,3.28084,5.7265664,6.5458335428,0,0,0,142.2, -0.4, -0.5,0,0,1024,1024,1024,1024,0,0,0,0,152.7,1.7,0,85,4.094,4.084,0,0,0,0,4.108,85.1,120.12046775462,2.624672,6,P-GPS,
176200,2022-12-18 05:35:58,-34.9065360268761,-56.1632231554371,2.624672,1.148294,118.38162255462,120.12046775462,4.92126,0,6.2508532184,13.9014440144,19,5,8.179,120.77663575462,3.28084,5.7265664,6.5458335428,0,0,0,142.2, -0.4, -0.4,0,0,1024,1024,1024,1024,0,0,0,0,152.7,1.7,0,85,4.094,4.084,0,0,0,0,4.108,85.1,120.12046775462,2.624672,6,P-GPS,
176300,2022-12-18 05:35:58,-34.9065360404378,-56.1632231591534,2.624672,1.148294,118.38162255462,120.12046775462,4.92126,0,6.2462928508,13.9065293164,19,5,8.179,120.77663575462,3.28084,5.7265664,6.5458335428,0,0,0,142.2, -0.3, -0.4,0,0,1024,1024,1024,1024,0,0,0,0,152.7,1.7,0,85,4.094,4.084,0,0,0,0,4.108,85.1,120.12046775462,2.624672,6,P-GPS,
176400,2022-12-18 05:35:58,-34.9065360556865,-56.1632231785315,2.624672,1.148294,118.38162255462,120.12046775462,4.92126,0,6.238353218,13.9145673744,19,5,8.179,120.77663575462,3.28084,5.7265664,6.5458335428,0,0,0,142.2, -0.2, -0.5,0,0,1024,1024,1024,1024,0,0,0,0,152.7,1.7,0,85,4.094,4.084,0,0,0,0,4.108,85.1,120.12046775462,2.624672,6,P-GPS,
176500,2022-12-18 05:35:58,-34.9065360179359,-56.1632231639509,2.624672,1.148294,118.38162255462,120.12046775462,4.92126,0,6.251804662,13.9290030704,19,5,8.179,120.77663575462,3.28084,5.7265664,6.5458335428,0,0,0,142.2, -0.2, -0.6,0,0,1024,1024,1024,1024,0,0,0,0,152.7,1.7,0,85,4.094,4.084,0,0,0,0,4.108,85.1,120.12046775462,2.624672,6,P-GPS,
176600,2022-12-18 05:35:58,-34.9065360306117,-56.1632231484223,2.624672,1.148294,118.38162255462,120.12046775462,4.92126,0,6.2511156856,13.9355647504,19,5,8.179,120.77663575462,3.28084,5.7265664,6.5458335428,0,0,0,142.2, -0.4, -0.6,0,0,1024,1024,1024,1024,0,0,0,0,152.7,1.7,0,85,4.094,4.084,0,0,0,0,4.108,85.1,120.12046775462,2.624672,6,P-GPS,
176700,2022-12-18 05:35:58,-34.9065360422763,-56.163223097773,2.624672,1.148294,118.38162255462,120.12046775462,4.92126,0,6.2573492816,13.9513127824,19,5,8.179,120.77663575462,3.28084,5.7265664,6.5458335428,0,0,0,142.1, -0.4, -0.5,0,0,1024,1024,1024,1024,0,0,0,0,152.7,1.7,0,85,4.094,4.084,0,0,0,0,4.108,85.1,120.12046775462,2.624672,6,P-GPS,
176800,2022-12-18 05:35:58,-34.9065360544717,-56.1632230129352,2.624672,1.148294,118.38162255462,120.12046775462,4.92126,0,6.2699148988,13.9770673764,18,5,8.179,120.77663575462,3.28084,5.7265664,6.5458335428,0,0,0,142.1, -0.3, -0.6,0,0,1024,1024,1024,1024,0,0,0,0,152.7,1.7,0,85,4.094,4.084,0,0,0,0,4.108,85.1,120.12046775462,2.624672,6,P-GPS,
176900,2022-12-18 05:35:58,-34.9065360865064,-56.1632229013389,2.624672,1.148294,118.38162255462,120.12046775462,4.92126,0,6.2820540068,14.01246764,18,5,8.179,120.77663575462,3.28084,5.7265664,6.5458335428,0,0,0,142.1, -0.3, -0.7,0,0,1024,1024,1024,1024,0,0,0,0,152.7,1.7,0,85,4.094,4.084,0,0,0,0,4.108,85.1,120.12046775462,2.624672,6,P-GPS,
177000,2022-12-18 05:35:58,-34.9065361581238,-56.1632224588582,2.624672,1.1154856,118.41443095462,120.12046775462,4.92126,0,6.347277106,14.1474085892,18,5,8.179,120.77663575462,3.28084,5.7265664,6.5458335428,0,0,0,142.1, -0.3, -0.5,0,0,1024,1024,1024,1024,0,0,0,0,152.7,1.7,0,85,4.094,4.084,0,0,0,0,4.108,85.1,120.12046775462,2.624672,6,P-GPS,
177100,2022-12-18 05:35:58,-34.9065362174757,-56.163222271152,2.624672,1.1154856,118.41443095462,120.12046775462,4.92126,0,6.3676511224,14.2076120032,18,5,8.179,120.77663575462,3.28084,5.7265664,6.5458335428,0,0,0,142.1, -0.3, -0.3,0,0,1024,1024,1024,1024,0,0,0,0,152.7,1.7,0,85,4.094,4.084,0,0,0,0,4.108,85.1,120.12046775462,2.624672,6,P-GPS,
177200,2022-12-18 05:35:59,-34.9065362843754,-56.1632220527753,2.624672,1.1154856,118.41443095462,120.12046775462,4.92126,0,6.392552698,14.2773626616,18,5,8.174,120.77663575462,3.28084,5.7265664,6.5458335428,0,0,0,142.1, -0.5, -0.5,0,0,1024,1024,1024,1024,0,0,0,0,152.7,1.7,0,85,4.091,4.081,0,0,0,0,4.153,85.1,120.12046775462,2.624672,6,P-GPS,
177300,2022-12-18 05:35:59,-34.9065363471829,-56.1632218101577,2.624672,1.1154856,118.41443095462,120.12046775462,4.92126,0,6.4241143788,14.3534781496,18,5,8.174,120.77663575462,3.28084,5.7265664,6.5458335428,0,0,0,142.1, -0.6, -0.4,0,0,1024,1024,1024,1024,0,0,0,0,152.7,1.7,0,85,4.091,4.081,0,0,0,0,4.153,85.1,120.12046775462,2.624672,6,P-GPS,
177400,2022-12-18 05:35:59,-34.9065364901505,-56.1632211690282,2.624672,1.0826772,118.44723935462,120.12046775462,4.92126,0,6.5170933844,14.5522642452,18,5,8.174,120.77663575462,3.28084,5.7265664,6.5458335428,0,0,0,142.1, -0.8, -0.3,0,0,1024,1024,1024,1024,0,0,0,0,152.7,1.7,0,85,4.091,4.081,0,0,0,0,4.153,85.1,120.12046775462,2.624672,6,P-GPS,
177500,2022-12-18 05:35:59,-34.9065365242143,-56.1632209223705,2.624672,1.1154856,118.41443095462,120.12046775462,4.92126,0,6.5595802624,14.6271002056,18,5,8.174,120.77663575462,3.28084,5.7265664,6.5595802624,0,0,0,142.1, -0.5, -0.1,0,0,1024,1024,1024,1024,0,0,0,0,152.7,1.7,0,85,4.091,4.081,0,0,0,0,4.153,85.1,120.12046775462,2.624672,6,P-GPS,
177600,2022-12-18 05:35:59,-34.9065365350027,-56.1632206921292,2.624672,1.1154856,118.41443095462,120.12046775462,4.92126,0,6.6051839384,14.6961290792,18,5,8.174,120.77663575462,3.28084,5.7265664,6.6051839384,0,0,0,142.1, -0.6, 0,0,0,1024,1024,1024,1024,0,0,0,0,152.7,1.7,0,85,4.091,4.081,0,0,0,0,4.153,85.1,120.12046775462,2.624672,6,P-GPS,
177700,2022-12-18 05:35:59,-34.9065365620919,-56.1632204677693,2.624672,1.0826772,118.44723935462,120.12046775462,4.92126,0,6.6457351208,14.7639768504,18,5,8.174,120.77663575462,3.28084,5.7265664,6.6457351208,0,0,0,142.1, -0.5, 0,0,0,1024,1024,1024,1024,0,0,0,0,152.7,1.7,0,85,4.091,4.081,0,0,0,0,4.153,85.1,120.12046775462,2.624672,6,P-GPS,
177800,2022-12-18 05:35:59,-34.9065365334345,-56.1632201658109,2.624672,1.0826772,118.44723935462,120.12046775462,4.92126,0,6.7175855168,14.8549217352,19,5,8.174,120.77663575462,3.28084,5.7265664,6.7175855168,0,0,0,142.2, -0.7, 0.1,0,0,1024,938,1024,1024,0,-13,0,0,152.7,1.7,0,85,4.091,4.081,0,0,0,0,4.153,85.1,120.12046775462,2.624672,6,P-GPS,
177900,2022-12-18 05:35:59,-34.9065365576967,-56.1632199731193,2.624672,1.0826772,118.44723935462,120.12046775462,4.92126,0,6.7529201636,14.9132550704,19,5,8.174,120.77663575462,3.28084,5.7265664,6.7529201636,0,0,0,142.2, -0.7, 0.3,0,0,1024,923,1024,1024,0,-15,0,0,152.7,1.7,0,85,4.091,4.081,0,0,0,0,4.153,85.1,120.12046775462,2.624672,6,P-GPS,
178000,2022-12-18 05:35:59,-34.9065365673192,-56.1632198103722,2.624672,1.0826772,118.44723935462,120.12046775462,4.92126,0,6.7857285636,14.9620739696,19,5,8.174,120.77663575462,3.28084,5.7265664,6.7857285636,0,0,0,142.3, -0.6, -0.1,0,0,1024,923,1024,1024,0,-15,0,0,152.7,1.7,0,85,4.091,4.081,0,0,0,0,4.153,85.1,120.12046775462,2.624672,6,P-GPS,
178100,2022-12-18 05:35:59,-34.9065365421695,-56.1632196976738,2.624672,1.0826772,118.44723935462,120.12046775462,4.92126,0,6.8165356512,14.9970149156,19,5,8.174,120.77663575462,3.28084,5.7265664,6.8165356512,0,0,0,142.3, -1, -0.6,0,0,1024,956,1024,1024,0,-10,0,0,152.7,1.7,0,85,4.091,4.081,0,0,0,0,4.153,85.1,120.12046775462,2.624672,6,P-GPS,
178200,2022-12-18 05:36:00,-34.9065363099794,-56.1632198579843,2.624672,1.0498688,118.48004775462,120.12046775462,4.92126,0,6.8404529748,15.0943574384,19,5,8.174,120.77663575462,3.28084,5.7265664,6.8404529748,0,0,0,142.3, -1.2, -0.7,0,0,1024,1024,1024,1024,0,0,0,0,152.7,1.7,0,85,4.091,4.079,0,0,0,0,4.153,85.1,120.12046775462,2.624672,6,P-GPS,
178300,2022-12-18 05:36:00,-34.9065362170946,-56.1632198046215,2.624672,1.0498688,118.48004775462,120.12046775462,4.92126,0,6.8755251544,15.1318246312,19,5,8.174,120.77663575462,3.28084,5.7265664,6.8755251544,0,0,0,142.3, -1.2, 0.2,0,0,1024,1024,1024,1024,0,0,0,0,152.7,1.7,0,85,4.091,4.079,0,0,0,0,4.153,85.1,120.12046775462,2.624672,6,P-GPS,
178400,2022-12-18 05:36:00,-34.9065360918689,-56.1632197798713,2.624672,1.0498688,118.48004775462,120.12046775462,4.92126,0,6.9127626884,15.1781172836,19,5,8.174,120.77663575462,3.28084,5.7265664,6.9127626884,0,0,0,142.2, -1.1, 0.3,0,0,1024,1024,1024,1024,0,0,0,0,152.7,1.7,0,85,4.091,4.079,0,0,0,0,4.153,85.1,120.12046775462,2.624672,6,P-GPS,
178500,2022-12-18 05:36:00,-34.9065359663517,-56.1632197938956,2.624672,1.0498688,118.48004775462,120.12046775462,4.92126,0,6.9419621644,15.2241146604,19,5,8.174,120.77663575462,3.28084,5.7265664,6.9419621644,0,0,0,142.1, -1.2, 0.2,0,0,1024,764,1024,1024,0,-39,0,0,152.7,1.7,0,85,4.091,4.079,0,0,0,0,4.153,85.1,120.12046775462,2.624672,6,P-GPS,
178600,2022-12-18 05:36:00,-34.906535835288,-56.1632198328111,2.952756,1.3779528,118.48004775462,120.44855175462,4.92126,0,6.9674870996,15.2733272604,19,5,8.174,120.77663575462,3.28084,5.7265664,6.9674870996,0,0,0,142.1, -1, -0.3,0,0,1024,476,1024,1024,0,-83,0,0,152.7,1.7,0,85,4.091,4.079,0,0,0,0,4.153,85.1,120.44855175462,2.952756,6,P-GPS,
178700,2022-12-18 05:36:00,-34.9065353965689,-56.1632203186313,2.952756,1.3451444,118.51285615462,120.44855175462,4.92126,0,6.9816931368,15.4895346164,19,5,8.174,120.77663575462,3.28084,5.7265664,6.9816931368,0,0,0,142.1, -1, -5.3,0,0,1024,364,1024,1024,0,-100,0,0,152.7,1.7,0,85,4.091,4.079,0,0,0,0,4.153,85.1,120.44855175462,2.952756,6,P-GPS,
178800,2022-12-18 05:36:00,-34.9065352793893,-56.1632202871824,2.952756,1.3451444,118.51285615462,120.44855175462,4.92126,0.3131716,7.01935718,15.533301022,19,5,8.174,120.77663575462,3.28084,5.7265664,7.01935718,0.223694,0.223694,0,142, -1.1, -10.7,0,0,1024,375,1024,1024,0,-98,0,0,152.7,1.7,0,84,4.091,4.079,0,0,0,0,4.153,85.1,120.44855175462,2.952756,6,P-GPS,
178900,2022-12-18 05:36:00,-34.9065350934341,-56.1632201159241,2.952756,1.3451444,118.51285615462,120.44855175462,4.92126,0.6263432,7.1039372352,15.6183403948,19,5,8.174,120.77663575462,3.28084,5.7265664,7.1039372352,0.447388,0.447388,0,142.1, -1.2, -15.3,0,0,1024,375,1024,1024,0,-98,0,0,152.7,1.7,0,84,4.091,4.079,0,0,0,0,4.153,85.1,120.44855175462,2.952756,6,P-GPS,
179000,2022-12-18 05:36:00,-34.9065347780387,-56.1632197204052,2.952756,1.3451444,118.51285615462,120.44855175462,4.92126,1.2750558,7.2687994452,15.7833994552,19,5,8.174,120.77663575462,3.28084,5.7265664,7.2687994452,0.894776,0.894776,0,142.3, -1.1, -15.9,0,0,1024,961,1024,1024,0,-10,0,0,152.7,1.7,0,84,4.091,4.079,0,0,0,0,4.153,85.1,120.44855175462,2.952756,6,P-GPS,
179100,2022-12-18 05:36:00,-34.9065343652362,-56.1632193897271,2.952756,1.2795276,118.57847295462,120.44855175462,4.92126,1.7448132,7.446522548,15.9636159964,19,5,8.174,120.77663575462,3.28084,5.7265664,7.446522548,1.11847,1.342164,0,142.6, -0.9, -8.1,0,0,1024,997,1024,1024,0,-4,0,0,152.7,1.7,0,84,4.091,4.079,0,0,0,0,4.153,85.1,120.44855175462,2.952756,6,P-GPS,
179200,2022-12-18 05:36:01,-34.9065337817908,-56.1632186277223,2.952756,1.2795276,118.57847295462,120.44855175462,4.92126,2.0579848,7.7576117968,16.2755254552,19,5,8.168,120.77663575462,3.28084,5.7265664,7.7576117968,1.342164,1.565858,0,142.7, -1.2, -0.9,0,0,1024,992,1024,1024,0,-5,0,0,152.7,1.7,0,84,4.091,4.08,0,0,0,0,4.199,85.1,120.44855175462,2.952756,6,P-GPS,
179300,2022-12-18 05:36:01,-34.9065332490942,-56.1632178981328,2.952756,1.2139108,118.64408975462,120.44855175462,4.92126,2.0579848,8.0486223048,16.5678154908,19,5,8.168,120.77663575462,3.28084,5.7265664,8.0486223048,1.342164,1.565858,0,142.6, -1.4, 0.9,0,0,1024,1024,1024,1024,0,0,0,0,152.7,1.7,0,84,4.091,4.08,0,0,0,0,4.199,85.1,120.44855175462,2.952756,6,P-GPS,
179400,2022-12-18 05:36:01,-34.9065326532433,-56.1632170463621,2.624672,0.8530184,118.67689815462,120.12046775462,4.92126,2.0579848,8.3815291396,16.9027892548,19,5,8.168,120.77663575462,3.28084,5.7265664,8.3815291396,1.342164,1.565858,0,142.1, -1.2, 1.3,0,0,1024,1024,1024,1024,0,0,0,0,152.7,1.7,0,84,4.091,4.08,0,0,0,0,4.199,85.1,120.12046775462,2.624672,6,P-GPS,
179500,2022-12-18 05:36:01,-34.9065319883447,-56.1632158561464,2.624672,0.78740159999999,118.74251495462,120.12046775462,4.92126,1.7448132,8.8028546124,17.3336947804,19,5,8.168,120.77663575462,3.28084,5.7265664,8.8028546124,1.11847,1.342164,0,142.2, -0.9, 6.6,0,0,923,1024,1024,1024,-15,0,0,0,152.7,1.7,0,84,4.091,4.08,0,0,0,0,4.199,85.1,120.12046775462,2.624672,6,P-GPS,
179600,2022-12-18 05:36:01,-34.9065314734324,-56.1632149809628,2.624672,0.68897639999999,118.84094015462,120.12046775462,4.92126,1.2750558,9.1200134152,17.6559716936,19,5,8.168,120.77663575462,3.28084,5.7265664,9.1200134152,0.894776,0.894776,0,142.6, -0.8, 7.7,0,0,411,1024,1024,1024,-93,0,0,0,152.7,1.7,0,84,4.091,4.08,0,0,0,0,4.199,85.1,120.12046775462,2.624672,6,P-GPS,
179700,2022-12-18 05:36:01,-34.9065311009551,-56.1632143166214,2.624672,0.68897639999999,118.84094015462,120.12046775462,5.249344,0.9395148,9.3562010868,17.8967525412,19,5,8.168,120.77663575462,3.28084,5.7265664,9.3562010868,0.671082,0.671082,0,142.5, -0.3, 5.3,0,0,370,1024,1024,1024,-99,0,0,0,152.7,1.7,0,84,4.091,4.08,0,0,0,0,4.199,85.1,120.12046775462,2.624672,6,P-GPS,
179800,2022-12-18 05:36:01,-34.9065308085403,-56.1632137972526,2.624672,0.68897639999999,118.84094015462,120.12046775462,5.249344,0.8052984,9.541338888,18.0852696076,18,5,8.168,120.77663575462,3.28084,5.7265664,9.541338888,0.671082,0.447388,0,142.8, 7.8, 3,0,0,370,1024,1024,1024,-99,0,0,0,152.7,1.7,0,84,4.091,4.08,0,0,0,0,4.199,85.1,120.12046775462,2.624672,6,P-GPS,
179900,2022-12-18 05:36:01,-34.9065307295152,-56.1632137769553,2.624672,0.68897639999999,118.84094015462,120.12046775462,5.249344,0.894776,9.5660764216,18.1147315508,18,5,8.168,120.77663575462,3.28084,5.7265664,9.5660764216,0.894776,0,0,142.7, 14.5, 1.6,0,0,785,1024,1024,1024,-36,0,0,0,152.7,1.7,0,84,4.091,4.08,0,0,0,0,4.199,85.1,120.12046775462,2.624672,6,P-GPS,
180000,2022-12-18 05:36:01,-34.9065303412958,-56.1632137351775,2.624672,0.6233596,118.90655695462,120.12046775462,5.249344,1.11847,9.6759845616,18.2569231564,19,5,8.168,120.77663575462,3.28084,5.7265664,9.6759845616,1.11847,0,0,142.7, 9.1, 0.7,0,0,531,1024,1024,1024,-75,0,0,0,152.7,1.7,0,84,4.091,4.08,0,0,0,0,4.199,85.1,120.12046775462,2.624672,6,P-GPS,
180100,2022-12-18 05:36:01,-34.9065298623981,-56.1632138328383,2.624672,0.6233596,118.90655695462,120.12046775462,5.249344,1.3645334,9.7820213104,18.434055708,19,5,8.168,120.77663575462,3.28084,5.7265664,9.7820213104,1.342164,-0.223694,0,142.8, 6.3, 0.8,0,0,757,1024,1024,1024,-40,0,0,0,152.7,1.7,0,84,4.091,4.08,0,0,0,0,4.199,85.1,120.12046775462,2.624672,6,P-GPS,
180200,2022-12-18 05:36:02,-34.9065292681007,-56.1632140274077,2.624672,0.59055119999999,118.93936535462,120.12046775462,5.249344,1.6329662,9.9016407368,18.6585635892,19,5,8.17,120.77663575462,3.28084,5.7265664,9.9016407368,1.565858,-0.447388,0,142.5, 8.6, 0.4,0,0,1024,1024,1024,1024,0,0,0,0,152.7,1.7,0,84,4.082,4.07,0,0,0,0,4.075,85.1,120.12046775462,2.624672,6,P-GPS,
180300,2022-12-18 05:36:02,-34.9065286105936,-56.1632143543878,2.624672,0.59055119999999,118.93936535462,120.12046775462,5.249344,1.901399,10.0163060948,18.917651524,19,5,8.17,120.77663575462,3.28084,5.7265664,10.0163060948,1.789552,-0.671082,0,142.4, 4.4, 0.2,0,0,1024,1024,1024,1024,0,0,0,0,152.7,1.7,0,84,4.082,4.07,0,0,0,0,4.075,85.1,120.12046775462,2.624672,6,P-GPS,
180400,2022-12-18 05:36:02,-34.9065278975762,-56.1632150614836,2.624672,0.59055119999999,118.93936535462,120.12046775462,5.249344,1.901399,10.0799215824,19.252953372,19,5,8.17,120.77663575462,3.28084,5.7265664,10.0799215824,1.789552,-0.671082,0,142.4, -6.7, 1.6,0,0,1024,1024,1024,1024,0,0,0,0,152.7,1.7,0,84,4.082,4.07,0,0,0,0,4.075,85.1,120.12046775462,2.624672,6,P-GPS,
180500,2022-12-18 05:36:02,-34.9065271536052,-56.1632154701572,2.624672,0.55774279999999,118.97217375462,120.12046775462,5.249344,1.6329662,10.2173231616,19.5506567936,19,5,8.17,120.77663575462,3.28084,5.7265664,10.2173231616,1.565858,-0.447388,0,142.3, -8.8, 2.5,0,0,1024,1024,1024,1024,0,0,0,0,152.7,1.7,0,84,4.082,4.07,0,0,0,0,4.075,85.1,120.12046775462,2.624672,6,P-GPS,
180600,2022-12-18 05:36:02,-34.9065264141125,-56.163215848881,2.624672,0.5249344,119.00498215462,120.12046775462,5.249344,1.4092722,10.3654530876,19.8433077216,18,5,8.17,120.77663575462,3.28084,5.7265664,10.3654530876,1.342164,-0.447388,0,142.2, -8.3, 2.2,0,0,1024,1024,1024,1024,0,0,0,0,152.7,1.7,0,84,4.082,4.07,0,0,0,0,4.075,85.1,120.12046775462,2.624672,6,P-GPS,
180700,2022-12-18 05:36:02,-34.9065258588196,-56.1632161364338,2.624672,0.5249344,119.00498215462,120.12046775462,5.249344,0.9171454,10.4801184456,20.0634192772,18,5,8.17,120.77663575462,3.28084,5.7265664,10.4801184456,0.894776,-0.223694,0,142.2, -7.1, 2,0,0,1024,1024,1024,1024,0,0,0,0,152.7,1.7,0,84,4.082,4.07,0,0,0,0,4.075,85.1,120.12046775462,2.624672,6,P-GPS,
180800,2022-12-18 05:36:02,-34.906525090725,-56.1632165589227,2.624672,0.5249344,119.00498215462,120.12046775462,5.249344,0.7158208,10.6401250124,20.3708339852,16,5,8.17,120.77663575462,3.28084,5.7265664,10.6401250124,0.671082,-0.223694,0,142.3, -5.8, 1.8,0,0,1024,1024,1024,1024,0,0,0,0,152.7,1.7,0,84,4.082,4.07,0,0,0,0,4.075,85.1,120.12046775462,2.624672,6,P-GPS,
180900,2022-12-18 05:36:02,-34.9065247913453,-56.1632166502294,2.624672,0.5249344,119.00498215462,120.12046775462,5.249344,0.7158208,10.716207692,20.483432414,16,5,8.17,120.77663575462,3.28084,5.7265664,10.716207692,0.447388,0,0,142.3, -4.6, 1.6,0,0,1024,1024,1024,1024,0,0,0,0,152.7,1.7,0,84,4.082,4.07,0,0,0,0,4.075,85.1,120.12046775462,2.624672,6,P-GPS,
181000,2022-12-18 05:36:02,-34.9065245827351,-56.1632166296762,2.624672,0.5249344,119.00498215462,120.12046775462,5.249344,0.223694,10.7833336784,20.5598103692,18,5,8.17,120.77663575462,3.28084,5.7265664,10.7833336784,0.223694,0,0,142.3, -3.5, 1.4,0,0,1024,1024,1024,1024,0,0,0,0,152.7,1.7,0,84,4.082,4.07,0,0,0,0,4.075,85.1,120.12046775462,2.624672,6,P-GPS,
181100,2022-12-18 05:36:02,-34.9065244920861,-56.1632166310838,2.624672,0.49212599999998,119.03779055462,120.12046775462,5.249344,0,10.810859926,20.5928812364,18,5,8.17,120.77663575462,3.28084,5.7265664,10.810859926,0,0,0,142.3, -2.7, 1.1,0,0,1024,1024,1024,1024,0,0,0,0,152.7,1.7,0,84,4.082,4.07,0,0,0,0,4.075,85.1,120.12046775462,2.624672,6,P-GPS,
181200,2022-12-18 05:36:03,-34.9065247372191,-56.1632163532409,2.952756,0.82020999999998,119.03779055462,120.44855175462,5.249344,0,10.7815948332,20.7149941012,18,5,8.163,120.77663575462,3.28084,5.7265664,10.810859926,0,0,0,142.4, -2.2, 0.7,0,0,1024,1024,1024,1024,0,0,0,0,152.7,1.7,0,84,4.082,4.071,0,0,0,0,4.186,85.1,120.44855175462,2.952756,6,P-GPS,
181300,2022-12-18 05:36:03,-34.9065247926155,-56.1632163069634,2.952756,0.82020999999998,119.03779055462,120.44855175462,5.249344,0,10.7724412896,20.7394691676,18,5,8.163,120.77663575462,3.28084,5.7265664,10.810859926,0,0,0,142.4, -1.8, 0.5,0,0,1024,1024,1024,1024,0,0,0,0,152.7,1.7,0,84,4.082,4.071,0,0,0,0,4.186,85.1,120.44855175462,2.952756,6,P-GPS,
181400,2022-12-18 05:36:03,-34.9065248922925,-56.1632161855684,2.952756,0.82020999999998,119.03779055462,120.44855175462,5.249344,0,10.7624019192,20.7908799304,18,5,8.163,120.77663575462,3.28084,5.7265664,10.810859926,0,0,0,142.3, -1.5, 0.4,0,0,1024,1024,1024,1024,0,0,0,0,152.7,1.7,0,84,4.082,4.071,0,0,0,0,4.186,85.1,120.44855175462,2.952756,6,P-GPS,
181500,2022-12-18 05:36:03,-34.9065249955717,-56.163216053915,2.952756,0.82020999999998,119.03779055462,120.44855175462,5.249344,0,10.753281184,20.8454074912,18,5,8.163,120.77663575462,3.28084,5.7265664,10.810859926,0,0,0,142.2, -1.4, 0.3,0,0,1024,1024,1024,1024,0,0,0,0,152.7,1.7,0,84,4.082,4.071,0,0,0,0,4.186,85.1,120.44855175462,2.952756,6,P-GPS,
181600,2022-12-18 05:36:03,-34.9065253396066,-56.1632154638215,2.952756,0.78740159999999,119.07059895462,120.44855175462,5.249344,0,10.7509517876,21.0620413564,18,5,8.163,120.77663575462,3.28084,5.7265664,10.810859926,0,0,0,142.2, -1.1, 0,0,0,1024,1024,1024,1024,0,0,0,0,152.7,1.7,0,84,4.082,4.071,0,0,0,0,4.186,85.1,120.44855175462,2.952756,6,P-GPS,
