time(millisecond),datetime(utc),latitude,longitude,height_above_takeoff(feet),height_above_ground_at_drone_location(feet),ground_elevation_at_drone_location(feet),altitude_above_seaLevel(feet),height_sonar(feet),speed(mph),distance(feet),mileage(feet),satellites,gpslevel,voltage(v),max_altitude(feet),max_ascent(feet),max_speed(mph),max_distance(feet), xSpeed(mph), ySpeed(mph), zSpeed(mph), compass_heading(degrees), pitch(degrees), roll(degrees),isPhoto,isVideo,rc_elevator,rc_aileron,rc_throttle,rc_rudder,rc_elevator(percent),rc_aileron(percent),rc_throttle(percent),rc_rudder(percent),gimbal_heading(degrees),gimbal_pitch(degrees),gimbal_roll(degrees),battery_percent,voltageCell1,voltageCell2,voltageCell3,voltageCell4,voltageCell5,voltageCell6,current(A),battery_temperature(f),altitude(feet),ascent(feet),flycStateRaw,flycState,message
0,2023-04-27 17:15:15,-34.9286354261009,-56.1634796837913,0,0,1.628376692528,1.628376692528,0.328084,0,0,0,22,5,0,1.628376692528,0,0,0,0,0,0,228.8, -1.1, 2.6,0,0,364,364,364,1684,-100,-100,-100,100,239.2,-0.1,0,99,4.319,4.316,0,0,0,0,0,78.08,1.628376692528,0,6,P-GPS,"Aeronave en Zona de altitud restringida (150). Vuela con precaución (Code: 190001). Error de calibración del estabilizador. Reinicia la aeronave o contacta con la Asistencia DJI (Code: 40011)"
100,2023-04-27 17:15:15,-34.9286354256979,-56.1634796928142,0,0,1.628376692528,1.628376692528,0.328084,0,0.00270300861668,0.00270300861668,22,5,0,1.628376692528,0,0,0.00270300861668,0,0,0,228.8, -1.1, 2.6,0,0,364,364,364,1684,-100,-100,-100,100,239.2,-0.1,0,99,4.319,4.316,0,0,0,0,0,78.08,1.628376692528,0,41,Motors_Started,
200,2023-04-27 17:15:16,-34.9286353826491,-56.1634796636922,0,0,1.628376692528,1.628376692528,0.328084,0,0.0169550858444,0.0206633208712,22,5,0,1.628376692528,0,0,0.0169550858444,0,0,0,228.8, -1.1, 2.6,0,0,364,364,364,1684,-100,-100,-100,100,239.2,-0.1,0,99,4.319,4.316,0,0,0,0,0,78.08,1.628376692528,0,41,Motors_Started,
300,2023-04-27 17:15:16,-34.9286353314093,-56.1634796599552,0,0,1.628376692528,1.628376692528,0.328084,0,0.035276247848,0.03939140546,22,5,0,1.628376692528,0,0,0.035276247848,0,0,0,228.7, -1.2, 2.5,0,0,364,364,364,1684,-100,-100,-100,100,239.2,-0.1,0,99,4.319,4.316,0,0,0,0,0,78.08,1.628376692528,0,41,Motors_Started,
400,2023-04-27 17:15:16,-34.9286353495925,-56.1634796529686,0,0,1.628376692528,1.628376692528,0.328084,0,0.0293972778436,0.046347114344,22,5,0,1.628376692528,0,0,0.035276247848,0,0,0,228.8, -1.2, 2.6,0,0,364,364,364,1684,-100,-100,-100,100,239.2,-0.1,0,99,4.319,4.316,0,0,0,0,0,78.08,1.628376692528,0,41,Motors_Started,
500,2023-04-27 17:15:16,-34.9286353834585,-56.1634796457926,0,0,1.628376692528,1.628376692528,0.328084,0,0.0192678483856,0.058888125244,22,5,0,1.628376692528,0,0,0.035276247848,0,0,0,228.8, -1.2, 2.6,0,0,364,364,364,1684,-100,-100,-100,100,239.2,-0.1,0,99,4.319,4.316,0,0,0,0,0,78.08,1.628376692528,0,41,Motors_Started,
600,2023-04-27 17:15:16,-34.9286354015326,-56.1634796400285,0,0,1.628376692528,1.628376692528,0.328084,0,0.015865486072,0.065704070344,22,5,0,1.628376692528,0,0,0.035276247848,0,0,0,228.8, -1.1, 2.6,0,0,364,364,364,1684,-100,-100,-100,100,239.2,-0.1,0,99,4.319,4.316,0,0,0,0,0,78.08,1.628376692528,0,41,Motors_Started,"Setting new Return-To-Home altitude to 60m (197 ft). Data Recorder File Index is 5. Setting new Maximum Flight Altitude to 120m (394 ft)"
700,2023-04-27 17:15:16,-34.9286355417595,-56.1634796020324,0,0,1.628376692528,1.628376692528,0.328084,0,0.048772639356,0.118113192756,22,5,0,1.628376692528,0,0,0.048772639356,0,0,0,228.8, -1.1, 2.6,0,0,364,364,364,1684,-100,-100,-100,100,239.2,-0.1,0,99,4.319,4.316,0,0,0,0,0,78.08,1.628376692528,0,41,Motors_Started,
800,2023-04-27 17:15:16,-34.9286355436851,-56.1634795969463,0,0,1.628376692528,1.628376692528,0.328084,0,0.050152888744,0.119788717744,22,5,0,1.628376692528,0,0,0.050152888744,0,0,0,228.8, -1.1, 2.6,0,0,364,364,364,1684,-100,-100,-100,100,239.2,-0.1,0,99,4.319,4.316,0,0,0,0,0,78.08,1.628376692528,0,41,Motors_Started,
900,2023-04-27 17:15:16,-34.928635541468,-56.1634795914408,0,0,1.628376692528,1.628376692528,0.328084,0,0.050347114472,0.121623691556,22,5,0,1.628376692528,0,0,0.050347114472,0,0,0,228.7, -1.1, 2.6,0,0,364,364,364,1684,-100,-100,-100,100,239.2,-0.1,0,99,4.319,4.316,0,0,0,0,0,78.08,1.628376692528,0,41,Motors_Started,
1000,2023-04-27 17:15:16,-34.9286354938328,-56.1634795877,0,0,1.628376692528,1.628376692528,0.328084,0,0.037906169192,0.139039374528,22,5,0,1.628376692528,0,0,0.050347114472,0,0,0,228.8, -1, 2.7,0,0,364,364,364,1684,-100,-100,-100,100,239.2,-0.1,0,99,4.319,4.316,0,0,0,0,0,78.08,1.628376692528,0,41,Motors_Started,
1100,2023-04-27 17:15:16,-34.9286353659331,-56.1634795792165,0,0,1.628376692528,1.628376692528,0.328084,0,0.03821522432,0.185772315656,22,5,0,1.628376692528,0,0,0.050347114472,0,0,0,228.7, -1.1, 2.6,0,0,1024,1024,1024,1024,0,0,0,0,239.3,-0.1,0,99,4.319,4.316,0,0,0,0,0,78.08,1.628376692528,0,41,Motors_Started,
1200,2023-04-27 17:15:17,-34.9286353348974,-56.1634795751478,0,0,1.628376692528,1.628376692528,0.328084,0,0.04651246868,0.197161095548,22,5,8.647,1.628376692528,0,0,0.050347114472,0,0,0,228.7, -1.1, 2.7,0,0,1024,1024,1024,1024,0,0,0,0,239.2,-0.1,0,99,4.319,4.316,0,0,0,0,1.05,78.08,1.628376692528,0,10,Assisted_Takeoff,
1300,2023-04-27 17:15:17,-34.9286353086445,-56.163479570784,0,0,1.628376692528,1.628376692528,0.328084,0,0.054581366576,0.206827762524,22,5,8.647,1.628376692528,0,0,0.054581366576,0,0,0,228.8, -1.1, 2.7,0,0,1024,1024,1024,1024,0,0,0,0,239.3,-0.1,0,99,4.319,4.316,0,0,0,0,1.05,78.08,1.628376692528,0,10,Assisted_Takeoff,
1400,2023-04-27 17:15:17,-34.9286352977982,-56.1634795678895,0,0,1.628376692528,1.628376692528,0.328084,0,0.058251642284,0.210878615672,22,5,8.647,1.628376692528,0,0,0.058251642284,0,0,0,228.7, -1.1, 2.6,0,0,1024,1024,1024,1024,0,0,0,0,239.2,-0.1,0,99,4.319,4.316,0,0,0,0,1.05,78.08,1.628376692528,0,10,Assisted_Takeoff,
1500,2023-04-27 17:15:17,-34.9286353378327,-56.1634795868836,0,0,1.628376692528,1.628376692528,0.328084,0,0.043329397712,0.226551516436,22,5,8.647,1.628376692528,0,0,0.058251642284,0,0,0,228.7, -1.1, 2.6,0,0,1024,1024,1024,1024,0,0,0,0,239.2,-0.1,0,99,4.319,4.316,0,0,0,0,1.05,78.08,1.628376692528,0,10,Assisted_Takeoff,
1600,2023-04-27 17:15:17,-34.9286353390101,-56.1634796281791,0,0,1.628376692528,1.628376692528,0.328084,0,0.03586614288,0.238911424968,22,5,8.647,1.628376692528,0,0,0.058251642284,0,0,0,228.7, -1.1, 2.7,0,0,1024,1024,1024,1024,0,0,0,0,239.2,-0.1,0,99,4.319,4.316,0,0,0,0,1.05,78.08,1.628376692528,0,10,Assisted_Takeoff,
1700,2023-04-27 17:15:17,-34.9286353398903,-56.1634796791414,0,0,1.628376692528,1.628376692528,0.328084,0,0.0314846466768,0.254159128868,22,5,8.647,1.628376692528,0,0,0.058251642284,0,0,0,228.7, -1.1, 2.6,0,0,1024,1024,1024,1024,0,0,0,0,239.2,-0.1,0,99,4.319,4.316,0,0,0,0,1.05,78.08,1.628376692528,0,10,Assisted_Takeoff,
1800,2023-04-27 17:15:17,-34.9286353422067,-56.1634796598651,0,0,1.628376692528,1.628376692528,0.328084,0,0.0314343185912,0.25998688496,22,5,8.647,1.628376692528,0,0,0.058251642284,0,0,0,228.7, -1.2, 2.6,0,0,1024,1024,1024,1024,0,0,0,0,239.2,-0.1,0,99,4.319,4.316,0,0,0,0,1.05,78.08,1.628376692528,0,10,Assisted_Takeoff,
1900,2023-04-27 17:15:17,-34.9286354028858,-56.1634796279884,0,0,1.628376692528,1.628376692528,0.328084,0,0.018718176452,0.284091544524,22,5,8.647,1.628376692528,0,0,0.058251642284,0,0,0,228.7, -1.1, 2.6,0,0,1024,1024,1024,1024,0,0,0,0,239.2,-0.1,0,99,4.319,4.316,0,0,0,0,1.05,78.08,1.628376692528,0,10,Assisted_Takeoff,
2000,2023-04-27 17:15:17,-34.9286354451154,-56.1634796481998,0,0,1.628376692528,1.628376692528,0.328084,0,0.0127072182544,0.300642726156,22,5,8.647,1.628376692528,0,0,0.058251642284,0,0,0,228.7, -1.1, 2.7,0,0,1024,1024,1024,1024,0,0,0,0,239.2,-0.1,0,99,4.319,4.316,0,0,0,0,1.05,78.08,1.628376692528,0,10,Assisted_Takeoff,
2100,2023-04-27 17:15:17,-34.9286354964081,-56.163479682779,0,0,1.628376692528,1.628376692528,0.328084,0,0.0256533472776,0.322025272772,22,5,8.647,1.628376692528,0,0,0.058251642284,0,0,0,228.7, -1.1, 2.7,0,0,1024,1024,1024,1024,0,0,0,0,239.2,-0.1,0,99,4.319,4.316,0,0,0,0,1.05,78.08,1.628376692528,0,10,Assisted_Takeoff,
2200,2023-04-27 17:15:18,-34.9286355173198,-56.1634796986423,0,0,1.628376692528,1.628376692528,0.328084,0,0.033576444644,0.33101050928,22,5,8.655,1.628376692528,0,0,0.058251642284,0,0,0,228.7, -1.1, 2.6,0,0,1024,1024,1024,1024,0,0,0,0,239.2,-0.1,0,99,4.329,4.327,0,0,0,0,1.378,78.26,1.628376692528,0,10,Assisted_Takeoff,
2300,2023-04-27 17:15:18,-34.9286355296732,-56.1634797099026,0,0,1.628376692528,1.628376692528,0.328084,0,0.038586943492,0.33663714988,22,5,8.655,1.628376692528,0,0,0.058251642284,0,0,0,228.7, -1.1, 2.7,0,0,1024,1024,1024,1024,0,0,0,0,239.2,-0.1,0,99,4.329,4.327,0,0,0,0,1.378,78.26,1.628376692528,0,10,Assisted_Takeoff,
2400,2023-04-27 17:15:18,-34.9286355622616,-56.1634797257568,0,0,1.628376692528,1.628376692528,0.328084,0,0.051239502952,0.34943898756,22,5,8.655,1.628376692528,0,0,0.058251642284,0,0,0,228.7, -1, 2.7,0,0,1024,1024,1024,1024,0,0,0,0,239.2,-0.1,0,99,4.329,4.327,0,0,0,0,1.378,78.26,1.628376692528,0,10,Assisted_Takeoff,
2500,2023-04-27 17:15:18,-34.928635598501,-56.1634797432096,0,0,1.628376692528,1.628376692528,0.328084,0,0.065362862984,0.36365158644,22,5,8.655,1.628376692528,0,0,0.065362862984,0,0,0,228.7, -1.1, 2.7,0,0,1024,1024,1024,1024,0,0,0,0,239.2,-0.1,0,99,4.329,4.327,0,0,0,0,1.378,78.26,1.628376692528,0,10,Assisted_Takeoff,
2600,2023-04-27 17:15:18,-34.9286355958865,-56.1634797419257,0,0,1.628376692528,1.628376692528,0.328084,0,0.064340881324,0.3646817702,22,5,8.655,1.628376692528,0,0,0.065362862984,0,0,0,228.7, -1, 2.7,0,0,1024,1024,1024,1024,0,0,0,0,239.2,-0.1,0,99,4.329,4.327,0,0,0,0,1.378,78.26,1.628376692528,0,10,Assisted_Takeoff,
2700,2023-04-27 17:15:18,-34.9286355828753,-56.16347973592,0,0,1.628376692528,1.628376692528,0.328084,0,0.05928641922,0.36975722968,22,5,8.655,1.628376692528,0,0,0.065362862984,0,0,0,228.7, -1, 2.7,0,0,1024,1024,1024,1024,0,0,0,0,239.2,-0.1,0,99,4.329,4.327,0,0,0,0,1.378,78.26,1.628376692528,0,10,Assisted_Takeoff,
2800,2023-04-27 17:15:18,-34.9286355446671,-56.1634797132595,0,0,1.628376692528,1.628376692528,0.328084,0,0.044147639208,0.38525919868,22,5,8.655,1.628376692528,0,0,0.065362862984,0,0,0,228.7, -1.1, 2.7,0,0,1024,1024,1024,1024,0,0,0,0,239.2,-0.1,0,99,4.329,4.327,0,0,0,0,1.378,78.26,1.628376692528,0,10,Assisted_Takeoff,
2900,2023-04-27 17:15:18,-34.9286355329293,-56.1634797086762,0,0,1.628376692528,1.628376692528,0.328084,0,0.039680775548,0.38975394948,22,5,8.655,1.628376692528,0,0,0.065362862984,0,0,0,228.7, -1.1, 2.7,0,0,1024,1024,1024,1024,0,0,0,0,239.2,-0.1,0,99,4.329,4.327,0,0,0,0,1.378,78.26,1.628376692528,0,10,Assisted_Takeoff,
3000,2023-04-27 17:15:18,-34.9286355235706,-56.1634797053285,0,0,1.628376692528,1.628376692528,0.328084,0,0.036140749188,0.39331366088,22,5,8.655,1.628376692528,0,0,0.065362862984,0,0,0,228.7, -1, 2.7,0,0,1024,1024,1024,1024,0,0,0,0,239.2,-0.1,0,99,4.329,4.327,0,0,0,0,1.378,78.26,1.628376692528,0,10,Assisted_Takeoff,
3100,2023-04-27 17:15:18,-34.9286355126967,-56.1634797017496,0,0,1.628376692528,1.628376692528,0.328084,0,0.0320478356712,0.39742127256,23,5,8.655,1.628376692528,0,0,0.065362862984,0,0,0,228.7, -1.1, 2.7,0,0,1024,1024,1024,1024,0,0,0,0,239.2,-0.1,0,99,4.329,4.327,0,0,0,0,1.378,78.26,1.628376692528,0,10,Assisted_Takeoff,
3200,2023-04-27 17:15:18,-34.9286355171667,-56.1634796919521,0,0,1.628376692528,1.628376692528,0.328084,0,0.033314961696,0.40077429104,23,5,8.655,1.628376692528,0,0,0.065362862984,0,0,0,228.7, -1.1, 2.7,0,0,1024,1024,1024,1024,0,0,0,0,239.2,-0.1,0,99,4.328,4.326,0,0,0,0,1.137,78.26,1.628376692528,0,10,Assisted_Takeoff,
3300,2023-04-27 17:15:19,-34.9286355106033,-56.1634796879971,0,0,1.628376692528,1.628376692528,0.328084,0,0.0308563002,0.40344817564,23,5,8.655,1.628376692528,0,0,0.065362862984,0,0,0,228.7, -1.1, 2.7,0,0,1024,1024,1024,1024,0,0,0,0,239.2,-0.1,0,99,4.328,4.326,0,0,0,0,1.137,78.26,1.628376692528,0,10,Assisted_Takeoff,
3400,2023-04-27 17:15:19,-34.928635544444,-56.1634797238641,0,0,1.628376692528,1.628376692528,0.328084,0,0.044810368888,0.41980316304,23,5,8.655,1.628376692528,0,0,0.065362862984,0,0,0,228.7, -1.1, 2.7,0,0,1024,1024,1024,1024,0,0,0,0,239.2,-0.1,0,99,4.328,4.326,0,0,0,0,1.137,78.26,1.628376692528,0,10,Assisted_Takeoff,
3500,2023-04-27 17:15:19,-34.9286355901951,-56.1634797728228,0,0,1.628376692528,1.628376692528,0.328084,0,0.065525920732,0.442011169,23,5,8.655,1.628376692528,0,0,0.065525920732,0,0,0,228.7, -1.1, 2.7,0,0,1024,1024,1024,1024,0,0,0,0,239.2,-0.1,0,99,4.328,4.326,0,0,0,0,1.137,78.26,1.628376692528,0,10,Assisted_Takeoff,
3600,2023-04-27 17:15:19,-34.9286355989195,-56.1634800007274,0,0,1.628376692528,1.628376692528,0.328084,0,0.113857287108,0.51025592184,23,5,8.655,1.628376692528,0,0,0.113857287108,0,0,0,228.7, -1.2, 2.7,0,0,1024,1024,1024,1024,0,0,0,0,239.2,-0.1,0,99,4.328,4.326,0,0,0,0,1.137,78.26,1.628376692528,0,10,Assisted_Takeoff,
3700,2023-04-27 17:15:19,-34.9286355621834,-56.163480069844,0,0,1.628376692528,1.628376692528,0.328084,0,0.125700135256,0.53489503024,23,5,8.655,1.628376692528,0,0,0.125700135256,0,0,0,228.7, -1.2, 2.6,0,0,1024,1024,1024,1024,0,0,0,0,239.2,-0.1,0,99,4.328,4.326,0,0,0,0,1.137,78.26,1.628376692528,0,10,Assisted_Takeoff,
3800,2023-04-27 17:15:19,-34.9286355790818,-56.1634801374167,0,0,1.628376692528,1.628376692528,0.328084,0,0.146722773724,0.55602692068,23,5,8.655,1.628376692528,0,0,0.146722773724,0,0,0,228.7, -1.1, 2.7,0,0,1024,1024,1024,1024,0,0,0,0,239.2,-0.1,0,99,4.328,4.326,0,0,0,0,1.137,78.26,1.628376692528,0,10,Assisted_Takeoff,
3900,2023-04-27 17:15:19,-34.9286356109537,-56.1634802068049,0,0,1.628376692528,1.628376692528,0.328084,0,0.1703658191,0.57981957236,23,5,8.655,1.628376692528,0,0,0.1703658191,0,0,0,228.7, -1.1, 2.7,0,0,1024,1024,1024,1024,0,0,0,0,239.2,-0.1,0,99,4.328,4.326,0,0,0,0,1.137,78.26,1.628376692528,0,10,Assisted_Takeoff,
4000,2023-04-27 17:15:19,-34.9286356256227,-56.1634802705623,0,0,1.628376692528,1.628376692528,0.328084,0,0.19001641028,0.59962600344,23,5,8.655,1.628376692528,0,0,0.19001641028,0,0,0,228.7, -1.1, 2.7,0,0,1024,1024,1024,1024,0,0,0,0,239.2,-0.1,0,99,4.328,4.326,0,0,0,0,1.137,78.26,1.628376692528,0,10,Assisted_Takeoff,
4100,2023-04-27 17:15:19,-34.9286356994344,-56.1634804081593,0,0,1.628376692528,1.628376692528,0.328084,0,0.238526254352,0.64881235672,23,5,8.655,1.628376692528,0,0,0.238526254352,0,0,0,228.7, -1.1, 2.7,0,0,1024,1024,1024,1024,0,0,0,0,239.2,-0.1,0,99,4.328,4.326,0,0,0,0,1.137,78.26,1.628376692528,0,10,Assisted_Takeoff,
4200,2023-04-27 17:15:20,-34.9286356969185,-56.1634804643932,0,0,1.628376692528,1.628376692528,0.328084,0,0.25354495562,0.66565947012,23,5,8.655,1.628376692528,0,0,0.25354495562,0,0,0,228.7, -1.1, 2.7,0,0,1024,1024,1024,1024,0,0,0,0,239.2,-0.1,0,99,4.328,4.326,0,0,0,0,1.137,78.26,1.628376692528,0,10,Assisted_Takeoff,
4300,2023-04-27 17:15:20,-34.9286356907589,-56.1634805218353,0,0,1.628376692528,1.628376692528,0.328084,0,0.268636163452,0.682988867,23,5,8.654,1.628376692528,0,0,0.268636163452,0,0,0,228.7, -1.1, 2.8,0,0,1024,1024,1024,1024,0,0,0,0,239.2,-0.1,0,99,4.328,4.326,0,0,0,0,1.141,78.26,1.628376692528,0,10,Assisted_Takeoff,
4400,2023-04-27 17:15:20,-34.9286356819034,-56.163480572667,0,0,1.628376692528,1.628376692528,0.328084,0,0.2817913476,0.69853348692,23,5,8.654,1.628376692528,0,0,0.2817913476,0,0,0,228.7, -1, 2.7,0,0,1024,1024,1024,1024,0,0,0,0,239.2,-0.1,0,99,4.328,4.326,0,0,0,0,1.141,78.26,1.628376692528,0,10,Assisted_Takeoff,
4500,2023-04-27 17:15:20,-34.9286356356833,-56.1634806181213,0,0,1.628376692528,1.628376692528,0.328084,0,0.2897555867,0.72019687344,23,5,8.654,1.628376692528,0,0,0.2897555867,0,0,0,228.7, -1.1, 2.7,0,0,1024,1024,1024,1024,0,0,0,0,239.2,-0.1,0,99,4.328,4.326,0,0,0,0,1.141,78.26,1.628376692528,0,10,Assisted_Takeoff,
4600,2023-04-27 17:15:20,-34.9286356236173,-56.1634806653714,0,0,1.628376692528,1.628376692528,0.328084,0,0.302331702588,0.73500002352,23,5,8.654,1.628376692528,0,0,0.302331702588,0,0,0,228.7, -1, 2.7,0,0,1024,1024,1024,1024,0,0,0,0,239.2,-0.1,0,99,4.328,4.326,0,0,0,0,1.141,78.26,1.628376692528,0,10,Assisted_Takeoff,
4700,2023-04-27 17:15:20,-34.928635610054,-56.1634807142792,0,0,1.628376692528,1.628376692528,0.328084,0,0.3154691702,0.7504429374,23,5,8.654,1.628376692528,0,0,0.3154691702,0,0,0,228.7, -1.1, 2.7,0,0,1024,1024,1024,1024,0,0,0,0,239.2,-0.1,0,99,4.328,4.326,0,0,0,0,1.141,78.26,1.628376692528,0,10,Assisted_Takeoff,
4800,2023-04-27 17:15:20,-34.9286356004307,-56.1634807604374,0,0,1.628376692528,1.628376692528,0.328084,0,0.32827428872,0.76468834468,23,5,8.654,1.628376692528,0,0,0.32827428872,0,0,0,228.7, -1, 2.7,0,0,1024,1024,1024,1024,0,0,0,0,239.2,-0.1,0,99,4.328,4.326,0,0,0,0,1.141,78.26,1.628376692528,0,10,Assisted_Takeoff,
4900,2023-04-27 17:15:20,-34.9286355991434,-56.1634807984505,0,0,1.628376692528,1.628376692528,0.328084,0,0.33935040456,0.77606957864,23,5,8.654,1.628376692528,0,0,0.33935040456,0,0,0,228.7, -1, 2.7,0,0,1024,1024,1024,1024,0,0,0,0,239.2,-0.1,0,99,4.328,4.326,0,0,0,0,1.141,78.26,1.628376692528,0,10,Assisted_Takeoff,
5000,2023-04-27 17:15:20,-34.9286355493301,-56.1634808432098,0,0,1.628376692528,1.628376692528,0.328084,0,0.34971457812,0.79864503868,23,5,8.654,1.628376692528,0,0,0.34971457812,0,0,0,228.7, -1, 2.8,0,0,1024,1024,1024,1024,0,0,0,0,239.2,-0.1,0,99,4.328,4.326,0,0,0,0,1.141,78.26,1.628376692528,0,10,Assisted_Takeoff,
5100,2023-04-27 17:15:20,-34.9286354871618,-56.1634808903869,0,0,1.628376692528,1.628376692528,0.328084,0,0.3616141848,0.82535763796,23,5,8.654,1.628376692528,0,0,0.3616141848,0,0,0,228.7, -1, 2.8,0,0,1024,1024,1024,1024,0,0,0,0,239.2,-0.1,0,99,4.328,4.326,0,0,0,0,1.141,78.26,1.628376692528,0,10,Assisted_Takeoff,
5200,2023-04-27 17:15:21,-34.9286354971515,-56.1634809354179,0,0,1.628376692528,1.628376692528,0.328084,0,0.37529200676,0.83931105048,23,5,8.654,1.628376692528,0,0,0.37529200676,0,0,0,228.7, -1, 2.8,0,0,1024,1024,1024,1024,0,0,0,0,239.2,-0.1,0,99,4.328,4.326,0,0,0,0,1.141,78.26,1.628376692528,0,10,Assisted_Takeoff,
5300,2023-04-27 17:15:21,-34.9286355642581,-56.1634809858538,0,0,1.628376692528,1.628376692528,0.328084,0,0.39272967136,0.86807089392,23,5,8.653,1.628376692528,0,0,0.39272967136,0,0,0,228.7, -1, 2.8,0,0,1024,1024,1024,1024,0,0,0,0,239.2,-0.1,0,99,4.328,4.327,0,0,0,0,1.137,78.26,1.628376692528,0,10,Assisted_Takeoff,
5400,2023-04-27 17:15:21,-34.9286355400032,-56.1634810331902,0,0,1.628376692528,1.628376692528,0.328084,0,0.40577757204,0.88476708868,23,5,8.653,1.628376692528,0,0,0.40577757204,0,0,0,228.7, -1.1, 2.7,0,0,1024,1024,1024,1024,0,0,0,0,239.2,-0.1,0,99,4.328,4.327,0,0,0,0,1.137,78.26,1.628376692528,0,10,Assisted_Takeoff,
5500,2023-04-27 17:15:21,-34.9286354977019,-56.1634810830161,0,0,1.628376692528,1.628376692528,0.328084,0,0.41936024964,0.90622378228,23,5,8.653,1.628376692528,0,0,0.41936024964,0,0,0,228.7, -1.1, 2.7,0,0,1024,1024,1024,1024,0,0,0,0,239.2,-0.1,0,99,4.328,4.327,0,0,0,0,1.137,78.26,1.628376692528,0,10,Assisted_Takeoff,
5600,2023-04-27 17:15:21,-34.928635475871,-56.1634810894241,0,0,1.628376692528,1.628376692528,0.328084,0,0.42085631268,0.91441603976,23,5,8.653,1.628376692528,0,0,0.42085631268,0,0,0,228.7, -1.1, 2.7,0,0,1024,1024,1024,1024,0,0,0,0,239.2,-0.1,0,99,4.328,4.327,0,0,0,0,1.137,78.26,1.628376692528,0,10,Assisted_Takeoff,
5700,2023-04-27 17:15:21,-34.9286354565569,-56.1634810875838,0,0,1.628376692528,1.628376692528,0.328084,0,0.42005906856,0.92148296912,23,5,8.653,1.628376692528,0,0,0.42085631268,0,0,0,228.7, -1.1, 2.7,0,0,1024,1024,1024,1024,0,0,0,0,239.2,-0.1,0,99,4.328,4.327,0,0,0,0,1.137,78.26,1.628376692528,0,10,Assisted_Takeoff,
5800,2023-04-27 17:15:21,-34.9286354344915,-56.1634810512478,0,0,1.628376692528,1.628376692528,0.328084,0,0.4090551312,0.93500987244,23,5,8.653,1.628376692528,0,0,0.42085631268,0,0,0,228.7, -1.1, 2.7,0,0,1024,1024,1024,1024,0,0,0,0,239.2,-0.1,0,99,4.328,4.327,0,0,0,0,1.137,78.26,1.628376692528,0,10,Assisted_Takeoff,
5900,2023-04-27 17:15:21,-34.9286354289352,-56.1634810850211,0,0,1.628376692528,1.628376692528,0.328084,0,0.41914699504,0.94531499088,23,5,8.653,1.628376692528,0,0,0.42085631268,0,0,0,228.7, -1.2, 2.6,0,0,1024,1024,1024,1024,0,0,0,0,239.2,-0.1,0,99,4.328,4.327,0,0,0,0,1.137,78.26,1.628376692528,0,10,Assisted_Takeoff,
6000,2023-04-27 17:15:21,-34.9286354266139,-56.163481130171,0,0,1.628376692528,1.628376692528,0.328084,0,0.43265093248,0.95884517504,23,5,8.653,1.628376692528,0,0,0.43265093248,0,0,0,228.7, -1.2, 2.6,0,0,1024,1024,1024,1024,0,0,0,0,239.2,-0.1,0,99,4.328,4.327,0,0,0,0,1.137,78.26,1.628376692528,0,10,Assisted_Takeoff,
6100,2023-04-27 17:15:21,-34.928635424575,-56.1634811808289,0,0,1.628376692528,1.628376692528,0.328084,0,0.44780513244,0.9740157792,23,5,8.653,1.628376692528,0,0,0.44780513244,0,0,0,228.7, -1.2, 2.6,0,0,1024,1024,1024,1024,0,0,0,0,239.2,-0.1,0,99,4.328,4.327,0,0,0,0,1.137,78.26,1.628376692528,0,10,Assisted_Takeoff,
6200,2023-04-27 17:15:22,-34.9286353965308,-56.1634812896017,0,0,1.628376692528,1.628376692528,0.328084,0,0.4804626138,1.00812667268,23,5,8.653,1.628376692528,0,0,0.4804626138,0,0,0,228.7, -1.2, 2.6,0,0,1024,1024,1024,1024,0,0,0,0,239.2,-0.1,0,99,4.328,4.327,0,0,0,0,1.137,78.26,1.628376692528,0,10,Assisted_Takeoff,
6300,2023-04-27 17:15:22,-34.9286353425666,-56.1634813440475,0,0,1.628376692528,1.628376692528,0.328084,0,0.49756235188,1.0336778546,23,5,8.653,1.628376692528,0,0,0.49756235188,0,0,0,228.7, -1.2, 2.6,0,0,1024,1024,1024,1024,0,0,0,0,239.2,-0.1,0,99,4.328,4.326,0,0,0,0,1.126,78.26,1.628376692528,0,10,Assisted_Takeoff,
6400,2023-04-27 17:15:22,-34.9286353168054,-56.1634813965876,0,0,1.628376692528,1.628376692528,0.328084,0,0.5138943734,1.05198822264,23,5,8.653,1.628376692528,0,0,0.5138943734,0,0,0,228.7, -1.2, 2.7,0,0,1024,1024,1024,1024,0,0,0,0,239.2,-0.1,0,99,4.328,4.326,0,0,0,0,1.126,78.26,1.628376692528,0,10,Assisted_Takeoff,
6500,2023-04-27 17:15:22,-34.9286352963676,-56.1634814509159,0,0,1.628376692528,1.628376692528,0.328084,0,0.53071195924,1.06986880064,23,5,8.653,1.628376692528,0,0,0.53071195924,0,0,0,228.7, -1.2, 2.6,0,0,1024,1024,1024,1024,0,0,0,0,239.2,-0.1,0,99,4.328,4.326,0,0,0,0,1.126,78.26,1.628376692528,0,10,Assisted_Takeoff,
6600,2023-04-27 17:15:22,-34.9286353510866,-56.1634815477295,0,0,1.628376692528,1.628376692528,0.328084,0,0.55822508348,1.10504268628,23,5,8.653,1.628376692528,0,0,0.55822508348,0,0,0,228.7, -1.1, 2.7,0,0,1024,1024,1024,1024,0,0,0,0,239.2,-0.1,0,99,4.328,4.326,0,0,0,0,1.126,78.26,1.628376692528,0,10,Assisted_Takeoff,
6700,2023-04-27 17:15:22,-34.9286353486244,-56.1634816045394,0,0,1.628376692528,1.628376692528,0.328084,0,0.57524280056,1.12206040336,23,5,8.653,1.628376692528,0,0,0.57524280056,0,0,0,228.7, -1.1, 2.7,0,0,1024,1024,1024,1024,0,0,0,0,239.2,-0.1,0,99,4.328,4.326,0,0,0,0,1.126,78.26,1.628376692528,0,10,Assisted_Takeoff,
6800,2023-04-27 17:15:22,-34.928635311158,-56.1634816553123,0,0,1.628376692528,1.628376692528,0.328084,0,0.59122705304,1.14249347488,23,5,8.653,1.628376692528,0,0,0.59122705304,0,0,0,228.7, -1.2, 2.7,0,0,1024,1024,1024,1024,0,0,0,0,239.2,-0.1,0,99,4.328,4.326,0,0,0,0,1.126,78.26,1.628376692528,0,10,Assisted_Takeoff,
6900,2023-04-27 17:15:22,-34.9286352620889,-56.1634817081202,0,0,1.628376692528,1.628376692528,0.328084,0,0.6084809906,1.16636814756,23,5,8.653,1.628376692528,0,0,0.6084809906,0,0,0,228.7, -1.2, 2.7,0,0,1024,1024,1024,1024,0,0,0,0,239.2,-0.1,0,99,4.328,4.326,0,0,0,0,1.126,78.26,1.628376692528,0,10,Assisted_Takeoff,
7000,2023-04-27 17:15:22,-34.9286352208518,-56.1634817571167,0,0,1.628376692528,1.628376692528,0.328084,0,0.62469490188,1.18737208524,23,5,8.653,1.628376692528,0,0,0.62469490188,0,0,0,228.7, -1.1, 2.7,0,0,1024,1024,1024,1024,0,0,0,0,239.2,-0.1,0,99,4.328,4.326,0,0,0,0,1.126,78.26,1.628376692528,0,10,Assisted_Takeoff,
7100,2023-04-27 17:15:22,-34.9286352057985,-56.1634818096177,0,0,1.628376692528,1.628376692528,0.328084,0,0.64095146408,1.20400922488,23,5,8.653,1.628376692528,0,0,0.64095146408,0,0,0,228.7, -1.2, 2.7,0,0,1024,1024,1024,1024,0,0,0,0,239.2,-0.1,0,99,4.328,4.326,0,0,0,0,1.126,78.26,1.628376692528,0,10,Assisted_Takeoff,
7200,2023-04-27 17:15:23,-34.9286352048092,-56.1634818187111,0,0,1.628376692528,1.628376692528,0.328084,0,0.64369752716,1.20675528796,23,5,8.653,1.628376692528,0,0,0.64369752716,0,0,0,228.7, -1.1, 2.7,0,0,1024,1024,1024,1024,0,0,0,0,239.2,-0.1,0,99,4.328,4.326,0,0,0,0,1.126,78.26,1.628376692528,0,10,Assisted_Takeoff,
7300,2023-04-27 17:15:23,-34.928635206493,-56.1634818168499,0,0,1.628376692528,1.628376692528,0.328084,0,0.64306760588,1.20758205964,23,5,8.652,1.628376692528,0,0,0.64369752716,0,0,0,228.7, -1.1, 2.7,0,0,1024,1024,1024,1024,0,0,0,0,239.2,-0.1,0,99,4.327,4.326,0,0,0,0,1.125,78.26,1.628376692528,0,10,Assisted_Takeoff,
7400,2023-04-27 17:15:23,-34.9286351719236,-56.1634818406964,0,0,1.628376692528,1.628376692528,0.328084,0,0.651820887,1.22207352992,23,5,8.652,1.628376692528,0,0,0.651820887,0,0,0,228.7, -1.1, 2.7,0,0,1024,1024,1024,1024,0,0,0,0,239.2,-0.1,0,99,4.327,4.326,0,0,0,0,1.125,78.26,1.628376692528,0,10,Assisted_Takeoff,
7500,2023-04-27 17:15:23,-34.928635120722,-56.1634817965927,0,0,1.628376692528,1.628376692528,0.328084,0,0.64174214652,1.24494426556,23,5,8.652,1.628376692528,0,0,0.651820887,0,0,0,228.7, -1.1, 2.7,0,0,1024,1024,1024,1024,0,0,0,0,239.2,-0.1,0,99,4.327,4.326,0,0,0,0,1.125,78.26,1.628376692528,0,10,Assisted_Takeoff,
7600,2023-04-27 17:15:23,-34.9286350995515,-56.1634818425811,0,0,1.628376692528,1.628376692528,0.328084,0,0.65665356432,1.26071854428,23,5,8.652,1.628376692528,0,0,0.65665356432,0,0,0,228.7, -1.1, 2.7,0,0,1024,1024,1024,1024,0,0,0,0,239.2,-0.1,0,99,4.327,4.326,0,0,0,0,1.125,78.26,1.628376692528,0,10,Assisted_Takeoff,
7700,2023-04-27 17:15:23,-34.9286350834641,-56.1634818940215,0,0,1.628376692528,1.628376692528,0.328084,0,0.67285435224,1.27718836108,23,5,8.652,1.628376692528,0,0,0.67285435224,0,0,0,228.7, -1.1, 2.7,0,0,1024,1024,1024,1024,0,0,0,0,239.2,-0.1,0,99,4.327,4.326,0,0,0,0,1.125,78.26,1.628376692528,0,10,Assisted_Takeoff,
7800,2023-04-27 17:15:23,-34.9286350798351,-56.1634819474067,0,0,1.628376692528,1.628376692528,0.328084,0,0.6887959538,1.29321198364,23,5,8.652,1.628376692528,0,0,0.6887959538,0,0,0,228.7, -1.1, 2.7,0,0,1024,1024,1024,1024,0,0,0,0,239.2,-0.1,0,99,4.327,4.326,0,0,0,0,1.125,78.26,1.628376692528,0,10,Assisted_Takeoff,
7900,2023-04-27 17:15:23,-34.9286351363388,-56.1634820524412,0,0,1.628376692528,1.628376692528,0.328084,0,0.716371414,1.330790725,23,5,8.652,1.628376692528,0,0,0.716371414,0,0,0,228.7, -1.1, 2.7,0,0,1024,1024,1024,1024,0,0,0,0,239.2,-0.1,0,99,4.327,4.326,0,0,0,0,1.125,78.26,1.628376692528,0,10,Assisted_Takeoff,
8000,2023-04-27 17:15:23,-34.9286351382987,-56.1634820666953,0,0,1.628376692528,1.628376692528,0.328084,0,0.72048558736,1.33511487212,23,5,8.652,1.628376692528,0,0,0.72048558736,0,0,0,228.7, -1.2, 2.7,0,0,1024,1024,1024,1024,0,0,0,0,239.2,-0.1,0,99,4.327,4.326,0,0,0,0,1.125,78.26,1.628376692528,0,10,Assisted_Takeoff,
8100,2023-04-27 17:15:23,-34.928635139621,-56.1634820701749,0,0,1.628376692528,1.628376692528,0.328084,0,0.72144359264,1.33625988528,23,5,8.652,1.628376692528,0,0,0.72144359264,0,0,0,228.7, -1.2, 2.7,0,0,1024,1024,1024,1024,0,0,0,0,239.2,-0.1,0,99,4.327,4.326,0,0,0,0,1.125,78.26,1.628376692528,0,10,Assisted_Takeoff,
8200,2023-04-27 17:15:24,-34.9286351022742,-56.1634820969054,0,0,1.628376692528,1.628376692528,0.328084,0,0.73143375044,1.35206041072,23,5,8.652,1.628376692528,0,0,0.73143375044,0,0,0,228.7, -1.2, 2.6,0,0,1024,1024,1024,1024,0,0,0,0,239.2,-0.1,0,99,4.327,4.326,0,0,0,0,1.125,78.26,1.628376692528,0,10,Assisted_Takeoff,
8300,2023-04-27 17:15:24,-34.9286350372822,-56.1634820884114,0,0,1.628376692528,1.628376692528,0.328084,0,0.73314306808,1.37590883668,23,5,8.65,1.628376692528,0,0,0.73314306808,0,0,0,228.7, -1.2, 2.6,0,0,1024,1024,1024,1024,0,0,0,0,239.2,-0.1,0,99,4.327,4.325,0,0,0,0,1.128,78.26,1.628376692528,0,10,Assisted_Takeoff,
8400,2023-04-27 17:15:24,-34.9286350114877,-56.1634821348205,0,0,1.628376692528,1.628376692528,0.328084,0,0.74861222868,1.39268049076,23,5,8.65,1.628376692528,0,0,0.74861222868,0,0,0,228.7, -1.2, 2.6,0,0,1024,1024,1024,1024,0,0,0,0,239.2,-0.1,0,99,4.327,4.325,0,0,0,0,1.128,78.26,1.628376692528,0,10,Assisted_Takeoff,
8500,2023-04-27 17:15:24,-34.9286349920343,-56.1634821866331,0,0,1.628376692528,1.628376692528,0.328084,0,0.76523624496,1.40972445456,23,5,8.65,1.628376692528,0,0,0.76523624496,0,0,0,228.7, -1.2, 2.6,0,0,1024,1024,1024,1024,0,0,0,0,239.2,-0.1,0,99,4.327,4.325,0,0,0,0,1.128,78.26,1.628376692528,0,10,Assisted_Takeoff,
8600,2023-04-27 17:15:24,-34.9286349864593,-56.1634822396069,0,0,1.628376692528,1.628376692528,0.328084,0,0.78116144232,1.42570214536,23,5,8.65,1.628376692528,0,0,0.78116144232,0,0,0,228.7, -1.2, 2.6,0,0,1024,1024,1024,1024,0,0,0,0,239.2,-0.1,0,99,4.327,4.325,0,0,0,0,1.128,78.26,1.628376692528,0,10,Assisted_Takeoff,
8700,2023-04-27 17:15:24,-34.9286350479347,-56.1634823608847,0,0,1.628376692528,1.628376692528,0.328084,0,0.81259188952,1.46835306536,23,5,8.65,1.628376692528,0,0,0.81259188952,0,0,0,228.7, -1.1, 2.7,0,0,1024,1024,1024,1024,0,0,0,0,239.2,-0.1,0,99,4.327,4.325,0,0,0,0,1.128,78.26,1.628376692528,0,10,Assisted_Takeoff,
8800,2023-04-27 17:15:24,-34.9286350496283,-56.163482376091,0,0,1.628376692528,1.628376692528,0.328084,0,0.81697181092,1.47294296052,23,5,8.65,1.628376692528,0,0,0.81697181092,0,0,0,228.7, -1.1, 2.7,0,0,1024,1024,1024,1024,0,0,0,0,239.2,-0.1,0,99,4.327,4.325,0,0,0,0,1.128,78.26,1.628376692528,0,10,Assisted_Takeoff,
8900,2023-04-27 17:15:24,-34.9286350510181,-56.1634823800931,0,0,1.628376692528,1.628376692528,0.328084,0,0.81806433064,1.47424217316,23,5,8.65,1.628376692528,0,0,0.81806433064,0,0,0,228.7, -1.1, 2.7,0,0,1024,1024,1024,1024,0,0,0,0,239.2,-0.1,0,99,4.327,4.325,0,0,0,0,1.128,78.26,1.628376692528,0,10,Assisted_Takeoff,
9000,2023-04-27 17:15:24,-34.9286350144702,-56.1634824075968,0,0,1.628376692528,1.628376692528,0.328084,0,0.82849084016,1.489911465,23,5,8.65,1.628376692528,0,0,0.82849084016,0,0,0,228.7, -1.1, 2.7,0,0,1024,1024,1024,1024,0,0,0,0,239.2,-0.1,0,99,4.327,4.325,0,0,0,0,1.128,78.26,1.628376692528,0,10,Assisted_Takeoff,
9100,2023-04-27 17:15:24,-34.9286349645364,-56.1634824449751,0,0,1.628376692528,1.628376692528,0.328084,0,0.84293965952,1.5112861376,23,5,8.65,1.628376692528,0,0,0.84293965952,0,0,0,228.7, -1.2, 2.7,0,0,1024,1024,1024,1024,0,0,0,0,239.2,-0.1,0,99,4.327,4.325,0,0,0,0,1.128,78.26,1.628376692528,0,10,Assisted_Takeoff,
9200,2023-04-27 17:15:25,-34.9286349252672,-56.1634824402194,0,0,1.628376692528,1.628376692528,0.328084,0,0.84452758608,1.52568574436,23,5,8.65,1.628376692528,0,0,0.84452758608,0,0,0,228.7, -1.2, 2.7,0,0,1024,1024,1024,1024,0,0,0,0,239.2,-0.1,0,99,4.327,4.325,0,0,0,0,1.128,78.26,1.628376692528,0,10,Assisted_Takeoff,
9300,2023-04-27 17:15:25,-34.9286349068707,-56.1634824928013,0,0,1.628376692528,1.628376692528,0.328084,0,0.86134189108,1.54278548244,23,5,8.65,1.628376692528,0,0,0.86134189108,0,0,0,228.7, -1.1, 2.7,0,0,1024,1024,1024,1024,0,0,0,0,239.2,-0.1,0,99,4.327,4.325,0,0,0,0,1.128,78.26,1.628376692528,0,10,Assisted_Takeoff,
9400,2023-04-27 17:15:25,-34.9286348635427,-56.163482548804,0,0,1.628376692528,1.628376692528,0.328084,0,0.88124018568,1.56582026008,23,5,8.649,1.628376692528,0,0,0.88124018568,0,0,0,228.7, -1.2, 2.7,0,0,1024,1024,1024,1024,0,0,0,0,239.2,-0.1,0,99,4.326,4.325,0,0,0,0,1.135,78.26,1.628376692528,0,10,Assisted_Takeoff,
9500,2023-04-27 17:15:25,-34.928634808608,-56.1634826079363,0,0,1.628376692528,1.628376692528,0.328084,0,0.90324149872,1.5925525444,23,5,8.649,1.628376692528,0,0,0.90324149872,0,0,0,228.7, -1.2, 2.7,0,0,1024,1024,1024,1024,0,0,0,0,239.2,-0.1,0,99,4.326,4.325,0,0,0,0,1.135,78.26,1.628376692528,0,10,Assisted_Takeoff,
9600,2023-04-27 17:15:25,-34.9286348001189,-56.163482737187,0,0,1.628376692528,1.628376692528,0.328084,0,0.94147640808,1.63133863488,23,5,8.649,1.628376692528,0,0,0.94147640808,0,0,0,228.7, -1.2, 2.7,0,0,1024,1024,1024,1024,0,0,0,0,239.2,-0.1,0,99,4.326,4.325,0,0,0,0,1.135,78.26,1.628376692528,0,10,Assisted_Takeoff,
9700,2023-04-27 17:15:25,-34.9286347851527,-56.1634827958843,0,0,1.628376692528,1.628376692528,0.328084,0,0.95983598872,1.64972446224,23,5,8.649,1.628376692528,0,0,0.95983598872,0,0,0,228.7, -1.2, 2.7,0,0,1024,1024,1024,1024,0,0,0,0,239.2,-0.1,0,99,4.326,4.325,0,0,0,0,1.135,78.26,1.628376692528,0,10,Assisted_Takeoff,
9800,2023-04-27 17:15:25,-34.9286347853741,-56.1634828113688,0,0,1.628376692528,1.628376692528,0.328084,0,0.96430777364,1.65435700832,23,5,8.649,1.628376692528,0,0,0.96430777364,0,0,0,228.7, -1.2, 2.7,0,0,1024,1024,1024,1024,0,0,0,0,239.2,-0.1,0,99,4.326,4.325,0,0,0,0,1.135,78.26,1.628376692528,0,10,Assisted_Takeoff,
9900,2023-04-27 17:15:25,-34.9286347877875,-56.1634828161663,0,0,1.628376692528,1.628376692528,0.328084,0,0.96548887604,1.65604007924,23,5,8.649,1.628376692528,0,0,0.96548887604,0,0,0,228.7, -1.2, 2.7,0,0,1024,1024,1024,1024,0,0,0,0,239.2,-0.1,0,99,4.326,4.325,0,0,0,0,1.135,78.26,1.628376692528,0,10,Assisted_Takeoff,
10000,2023-04-27 17:15:25,-34.9286348885988,-56.1634827843288,0,0,1.628376692528,1.628376692528,0.328084,0,0.94796262876,1.69403548728,23,5,8.649,1.628376692528,0,0,0.96548887604,0,0,0,228.7, -1.2, 2.7,0,0,1024,1024,1024,1024,0,0,0,0,239.2,-0.1,0,99,4.326,4.325,0,0,0,0,1.135,78.26,1.628376692528,0,10,Assisted_Takeoff,
10100,2023-04-27 17:15:25,-34.9286348950572,-56.1634828252232,0,0,1.628376692528,1.628376692528,0.328084,0,0.95945541128,1.70649283676,23,5,8.649,1.628376692528,0,0,0.96548887604,0,0,0,228.7, -1.3, 2.6,0,0,1024,1024,1024,1024,0,0,0,0,239.2,-0.1,0,99,4.326,4.325,0,0,0,0,1.135,78.26,1.628376692528,0,10,Assisted_Takeoff,
10200,2023-04-27 17:15:25,-34.9286349011174,-56.1634828771599,0,0,1.628376692528,1.628376692528,0.328084,0,0.97423887632,1.72218509448,23,5,8.649,1.628376692528,0,0,0.97423887632,0,0,0,228.7, -1.3, 2.6,0,0,1024,1024,1024,1024,0,0,0,0,239.2,-0.1,0,99,4.326,4.325,0,0,0,0,1.135,78.26,1.628376692528,0,10,Assisted_Takeoff,
10300,2023-04-27 17:15:26,-34.9286349049084,-56.1634829343695,0,0,1.628376692528,1.628376692528,0.328084,0,0.99075790572,1.7393537302,23,5,8.649,1.628376692528,0,0,0.99075790572,0,0,0,228.6, -1.2, 2.6,0,0,1024,1024,1024,1024,0,0,0,0,239.2,-0.1,0,99,4.326,4.325,0,0,0,0,1.135,78.26,1.628376692528,0,10,Assisted_Takeoff,
10400,2023-04-27 17:15:26,-34.9286349478676,-56.163483026605,0,0,1.628376692528,1.628376692528,0.328084,0,1.01503612172,1.77108601468,23,5,8.648,1.628376692528,0,0,1.01503612172,0,0,0,228.7, -1.2, 2.7,0,0,1024,1024,1024,1024,0,0,0,0,239.2,-0.1,0,99,4.326,4.324,0,0,0,0,1.131,78.26,1.628376692528,0,10,Assisted_Takeoff,
10500,2023-04-27 17:15:26,-34.9286349512637,-56.1634830863342,0,0,1.628376692528,1.628376692528,0.328084,0,1.03243441624,1.78899612024,23,5,8.648,1.628376692528,0,0,1.03243441624,0,0,0,228.7, -1.3, 2.6,0,0,1024,1024,1024,1024,0,0,0,0,239.2,-0.1,0,99,4.326,4.324,0,0,0,0,1.131,78.26,1.628376692528,0,10,Assisted_Takeoff,
10600,2023-04-27 17:15:26,-34.9286349526927,-56.1634831432226,0,0,1.628376692528,1.628376692528,0.328084,0,1.04912733016,1.806020399,23,5,8.648,1.628376692528,0,0,1.04912733016,0,0,0,228.6, -1.2, 2.6,0,0,1024,1024,1024,1024,0,0,0,0,239.2,-0.1,0,99,4.326,4.324,0,0,0,0,1.131,78.26,1.628376692528,0,10,Assisted_Takeoff,
10700,2023-04-27 17:15:26,-34.9286349532187,-56.1634832031477,0,0,1.628376692528,1.628376692528,0.328084,0,1.0667815302,1.82394690876,23,5,8.648,1.628376692528,0,0,1.0667815302,0,0,0,228.7, -1.3, 2.6,0,0,1024,1024,1024,1024,0,0,0,0,239.2,-0.1,0,99,4.326,4.324,0,0,0,0,1.131,78.26,1.628376692528,0,10,Assisted_Takeoff,
10900,2023-04-27 17:15:26,-34.9286349548333,-56.1634833304914,0,0,1.628376692528,1.628376692528,0.328084,0,1.1042979356,1.862040742,23,5,8.648,1.628376692528,0,0,1.1042979356,0,0,0,228.6, -1.2, 2.6,0,0,1024,1024,1024,1024,0,0,0,0,239.2,-0.1,0,99,4.326,4.324,0,0,0,0,1.131,78.26,1.628376692528,0,10,Assisted_Takeoff,
11000,2023-04-27 17:15:26,-34.928634912041,-56.1634833828225,0,0,1.628376692528,1.628376692528,0.328084,0,1.12226381544,1.88415032276,23,5,8.648,1.628376692528,0,0,1.12226381544,0,0,0,228.7, -1, 2.8,0,0,1024,1024,1024,1024,0,0,0,0,239.2,-0.1,0,99,4.326,4.324,0,0,0,0,1.131,78.26,1.628376692528,0,10,Assisted_Takeoff,
11100,2023-04-27 17:15:26,-34.9286348556765,-56.163483437109,0,0,1.628376692528,1.628376692528,0.328084,0,1.1418471494,1.91035439184,23,5,8.648,1.628376692528,0,0,1.1418471494,0,0,0,228.7, -1.1, 2.8,0,0,1024,1024,1024,1024,0,0,0,0,239.2,-0.1,0,99,4.326,4.324,0,0,0,0,1.131,78.26,1.628376692528,0,10,Assisted_Takeoff,
11200,2023-04-27 17:15:27,-34.928634827962,-56.1634834490499,0,0,1.628376692528,1.628376692528,0.328084,0,1.14724085036,1.92107617696,23,5,8.648,1.628376692528,0,0,1.14724085036,0,0,0,228.7, -1.2, 2.7,0,0,1024,1024,1024,1024,0,0,0,0,239.2,-0.1,0,99,4.326,4.324,0,0,0,0,1.131,78.26,1.628376692528,0,10,Assisted_Takeoff,
11300,2023-04-27 17:15:27,-34.9286347307325,-56.1634833537005,0,0,1.628376692528,1.628376692528,0.328084,0,1.1267060728,1.96659455112,23,5,8.648,1.628376692528,0,0,1.14724085036,0,0,0,228.6, -1.3, 2.6,0,0,1024,1024,1024,1024,0,0,0,0,239.2,-0.1,0,99,4.326,4.324,0,0,0,0,1.131,78.26,1.628376692528,0,10,Assisted_Takeoff,
11400,2023-04-27 17:15:27,-34.9286347250069,-56.1634833784874,0,0,1.628376692528,1.628376692528,0.328084,0,1.1343996426,1.97429796344,23,5,8.648,1.628376692528,0,0,1.14724085036,0,0,0,228.7, -1.2, 2.7,0,0,1024,1024,1024,1024,0,0,0,0,239.2,-0.1,0,99,4.325,4.323,0,0,0,0,1.126,78.44,1.628376692528,0,10,Assisted_Takeoff,
11500,2023-04-27 17:15:27,-34.9286347217256,-56.1634834137745,0,0,1.628376692528,1.628376692528,0.328084,0,1.14495410488,1.98492132336,23,5,8.648,1.628376692528,0,0,1.14724085036,0,0,0,228.7, -1.2, 2.6,0,0,1024,1024,1024,1024,0,0,0,0,239.2,-0.1,0,99,4.325,4.323,0,0,0,0,1.126,78.44,1.628376692528,0,10,Assisted_Takeoff,
11600,2023-04-27 17:15:27,-34.9286347248164,-56.1634834597146,0,0,1.628376692528,1.628376692528,0.328084,0,1.15810043076,1.99871069388,23,5,8.648,1.628376692528,0,0,1.15810043076,0,0,0,228.6, -1.2, 2.6,0,0,1024,1024,1024,1024,0,0,0,0,239.2,-0.1,0,99,4.325,4.323,0,0,0,0,1.126,78.44,1.628376692528,0,10,Assisted_Takeoff,
11700,2023-04-27 17:15:27,-34.9286347871312,-56.1634835208636,0,0,1.628376692528,1.628376692528,0.328084,0,1.1712106674,2.02789048484,23,5,8.648,1.628376692528,0,0,1.1712106674,0,0,0,228.7, -1.2, 2.6,0,0,1024,1024,1024,1024,0,0,0,0,239.2,-0.1,0,99,4.325,4.323,0,0,0,0,1.126,78.44,1.628376692528,0,10,Assisted_Takeoff,
11800,2023-04-27 17:15:27,-34.9286347505205,-56.1634835328163,0,0,1.628376692528,1.628376692528,0.328084,0,1.17743770172,2.04171922544,23,5,8.648,1.628376692528,0,0,1.17743770172,0,0,0,228.6, -1.3, 2.6,0,0,1024,1024,1056,1024,0,0,5,0,239.2,-0.1,0,99,4.325,4.323,0,0,0,0,1.126,78.44,1.628376692528,0,10,Assisted_Takeoff,
11900,2023-04-27 17:15:27,-34.9286347000779,-56.1634835353371,0,0,1.628376692528,1.628376692528,0.328084,0,1.18216211132,2.0601378612,23,5,8.648,1.628376692528,0,0,1.18216211132,0,0,0,228.6, -1.3, 2.6,0,0,1024,1024,1056,1024,0,0,5,0,239.2,-0.1,0,99,4.325,4.323,0,0,0,0,1.126,78.44,1.628376692528,0,10,Assisted_Takeoff,
12000,2023-04-27 17:15:27,-34.9286346759557,-56.163483563908,0,0,1.628376692528,1.628376692528,0.328084,0,1.19248363396,2.07240492196,23,5,8.648,1.628376692528,0,0,1.19248363396,0,0,0,228.6, -1.3, 2.6,0,0,1024,1024,1092,1024,0,0,10,0,239.2,-0.1,0,99,4.325,4.323,0,0,0,0,1.126,78.44,1.628376692528,0,10,Assisted_Takeoff,
12100,2023-04-27 17:15:27,-34.9286346307412,-56.1634835765725,0,0,1.628376692528,1.628376692528,0.328084,0,1.20005253184,2.08933077552,23,5,8.648,1.628376692528,0,0,1.20005253184,0,0,0,228.6, -1.2, 2.7,0,0,1024,1024,1131,1024,0,0,16,0,239.2,-0.1,0,99,4.325,4.323,0,0,0,0,1.126,78.44,1.628376692528,0,10,Assisted_Takeoff,
12200,2023-04-27 17:15:28,-34.9286346257972,-56.1634836292132,0,0,1.628376692528,1.628376692528,0.328084,0,1.21576775544,2.10518051356,23,5,8.648,1.628376692528,0,0,1.21576775544,0,0,0,228.7, -1, 2.9,0,0,1024,1024,1192,1024,0,0,25,0,239.2,-0.1,0,99,4.325,4.323,0,0,0,0,1.126,78.44,1.628376692528,0,10,Assisted_Takeoff,
12300,2023-04-27 17:15:28,-34.9286346204413,-56.1634836869061,0,0,1.628376692528,1.628376692528,0.328084,0,1.23299216544,2.12254928052,23,5,8.648,1.628376692528,0,0,1.23299216544,0,0,0,228.7, -0.8, 2.8,0,0,1024,1024,1111,1024,0,0,13,0,239.2,-0.1,0,99,4.325,4.323,0,0,0,0,1.126,78.44,1.628376692528,0,10,Assisted_Takeoff,
12400,2023-04-27 17:15:28,-34.9286345825132,-56.1634837019373,0,0,1.628376692528,1.628376692528,0.328084,0,1.24071854364,2.13709980592,23,5,8.647,1.628376692528,0,0,1.24071854364,0,0,0,228.7, -0.1, 3.2,0,0,1024,1024,1024,1024,0,0,0,0,239.2,-0.1,0,99,4.315,4.308,0,0,0,0,1.127,78.44,1.628376692528,0,10,Assisted_Takeoff,
12500,2023-04-27 17:15:28,-34.928634524565,-56.1634837076753,0,0,1.628376692528,1.628376692528,0.328084,0,1.24778875384,2.15831043652,23,5,8.647,1.628376692528,0,0,1.24778875384,0,0,0,228.7, 0.5, 3,0,0,1024,1024,1024,1024,0,0,0,0,239.2,-0.1,0,99,4.315,4.308,0,0,0,0,1.127,78.44,1.628376692528,0,10,Assisted_Takeoff,
12600,2023-04-27 17:15:28,-34.9286345033252,-56.1634837383791,0,0,1.628376692528,1.628376692528,0.328084,0,1.25870082768,2.17032815344,23,5,8.647,1.628376692528,0,0,1.25870082768,0,0,0,228.7, 0.1, 2.3,0,0,1024,1024,1024,1024,0,0,0,0,239.2,-0.1,0,99,4.315,4.308,0,0,0,0,1.127,78.44,1.628376692528,0,10,Assisted_Takeoff,
12700,2023-04-27 17:15:28,-34.9286344872923,-56.1634837858357,0,0,1.628376692528,1.628376692528,0.328084,0,1.27394361032,2.1856792038,23,5,8.647,1.628376692528,0,0,1.27394361032,0,0,0,228.6, 0, 3.8,0,0,1024,1024,1024,1024,0,0,0,0,239.2,-0.1,0,99,4.315,4.308,0,0,0,0,1.127,78.44,1.628376692528,0,10,Assisted_Takeoff,
12800,2023-04-27 17:15:28,-34.9286344441777,-56.1634838403259,0,0,1.628376692528,1.628376692528,0.328084,0,1.29391736424,2.208333404,23,5,8.647,1.628376692528,0,0,1.29391736424,0,0,0,228.5, -0.3, 3.6,0,0,1024,1024,1024,1024,0,0,0,0,239.2,-0.1,0,99,4.315,4.308,0,0,0,0,1.127,78.44,1.628376692528,0,10,Assisted_Takeoff,
12900,2023-04-27 17:15:28,-34.9286344008635,-56.1634838965964,0,0,1.628376692528,1.628376692528,0.328084,0,1.31451119692,2.23142067508,23,5,8.647,1.628376692528,0,0,1.31451119692,0,0,0,228.4, -0.7, 3.2,0,0,1024,1024,1024,1024,0,0,0,0,239.2,-0.1,0,99,4.315,4.308,0,0,0,0,1.127,78.44,1.628376692528,0,10,Assisted_Takeoff,
13000,2023-04-27 17:15:28,-34.9286344002707,-56.1634838991656,0,0,1.628376692528,1.628376692528,0.328084,0,1.31530844104,2.2322179192,23,5,8.647,1.628376692528,0,0,1.31530844104,0,0,0,228.5, -0.6, 3.3,0,0,1024,1024,1024,1024,0,0,0,0,239.2,-0.1,0,99,4.315,4.308,0,0,0,0,1.127,78.44,1.628376692528,0,10,Assisted_Takeoff,
13100,2023-04-27 17:15:28,-34.92863439675,-56.1634839101438,0,0,1.628376692528,1.628376692528,0.328084,0,1.31882222068,2.2357448222,23,5,8.647,1.628376692528,0,0,1.31882222068,0,0,0,228.4, -0.8, 3.2,0,0,1024,1024,1024,1024,0,0,0,0,239.2,-0.1,0,99,4.315,4.308,0,0,0,0,1.127,78.44,1.628376692528,0,10,Assisted_Takeoff,
13200,2023-04-27 17:15:29,-34.9286344060118,-56.1634839458058,0,0,1.628376692528,1.628376692528,0.328084,0,1.3281004362,2.24693576744,23,5,8.647,1.628376692528,0,0,1.3281004362,0,0,0,228.4, -0.8, 3.1,0,0,1024,1024,1024,1024,0,0,0,0,239.2,-0.1,0,99,4.315,4.308,0,0,0,0,1.127,78.44,1.628376692528,0,10,Assisted_Takeoff,
13300,2023-04-27 17:15:29,-34.9286344166171,-56.1634839913449,0,0,1.628376692528,1.628376692528,0.328084,0,1.34011487228,2.26109587288,23,5,8.647,1.628376692528,0,0,1.34011487228,0,0,0,228.4, -0.9, 3,0,0,1024,1024,1024,1024,0,0,0,0,239.2,-0.1,0,99,4.315,4.308,0,0,0,0,1.127,78.44,1.628376692528,0,10,Assisted_Takeoff,
13400,2023-04-27 17:15:29,-34.9286343874248,-56.163483972791,0,0,1.628376692528,1.628376692528,0.328084,0,1.33775594832,2.27310702812,23,5,8.647,1.628376692528,0,0,1.34011487228,0,0,0,228.4, -0.8, 3.1,0,0,1024,1024,1024,1024,0,0,0,0,239.2,-0.1,0,99,4.315,4.308,0,0,0,0,1.127,78.44,1.628376692528,0,10,Assisted_Takeoff,
13500,2023-04-27 17:15:29,-34.9286343425554,-56.1634839767813,0,0,1.628376692528,1.628376692528,0.328084,0,1.34362537108,2.28952107064,23,5,8.587,1.628376692528,0,0,1.34362537108,0,0,0,228.4, -1, 2.9,0,0,1024,1024,1024,1024,0,0,0,0,239.2,-0.1,0,99,4.316,4.314,0,0,0,0,1.973,78.44,1.628376692528,0,10,Assisted_Takeoff,
13600,2023-04-27 17:15:29,-34.9286343237453,-56.1634840066596,0,0,1.628376692528,1.628376692528,0.328084,0,1.35419295672,2.3007874752,23,5,8.587,1.628376692528,0,0,1.35419295672,0,0,0,228.4, -0.9, 3,0,0,1024,1024,1024,1024,0,0,0,0,239.2,-0.1,0,99,4.316,4.314,0,0,0,0,1.973,78.44,1.628376692528,0,10,Assisted_Takeoff,
13700,2023-04-27 17:15:29,-34.9286343128437,-56.1634840458861,0,0,1.628376692528,1.628376692528,0.328084,0,1.36657812772,2.31317920788,23,5,8.587,1.628376692528,0,0,1.36657812772,0,0,0,228.4, -1.1, 2.8,0,0,1024,1024,1024,1024,0,0,0,0,239.2,-0.1,0,99,4.316,4.314,0,0,0,0,1.973,78.44,1.628376692528,0,10,Assisted_Takeoff,
13800,2023-04-27 17:15:29,-34.92863425275,-56.1634841523012,0,0,1.628376692528,1.628376692528,0.328084,0,1.40353679032,2.35183078392,23,5,8.587,1.628376692528,0,0,1.40353679032,0,0,0,228.4, -1, 2.8,0,0,1024,1024,1024,1024,0,0,0,0,239.2,-0.1,0,99,4.316,4.314,0,0,0,0,1.973,78.44,1.628376692528,0,10,Assisted_Takeoff,
13900,2023-04-27 17:15:29,-34.9286342011251,-56.1634842068946,0,0,1.628376692528,1.628376692528,0.328084,0,1.42489177788,2.37675860624,23,5,8.587,1.628376692528,0,0,1.42489177788,0,0,0,228.4, -1.1, 2.8,0,0,1024,1024,1024,1024,0,0,0,0,239.2,-0.1,0,99,4.316,4.314,0,0,0,0,1.973,78.44,1.628376692528,0,10,Assisted_Takeoff,
14000,2023-04-27 17:15:29,-34.9286341423268,-56.1634842236879,0,0,1.628376692528,1.628376692528,0.328084,0,1.43651251316,2.39879272768,23,5,8.587,1.628376692528,0,0,1.43651251316,0,0,0,228.4, -1.2, 2.7,0,0,1024,1024,1024,1024,0,0,0,0,239.2,-0.1,0,99,4.316,4.314,0,0,0,0,1.973,78.44,1.628376692528,0,10,Assisted_Takeoff,
14100,2023-04-27 17:15:29,-34.9286340771695,-56.163484229981,0,0,1.628376692528,1.628376692528,0.328084,0,1.4462106762,2.4226378728,23,5,8.587,1.628376692528,0,0,1.4462106762,0,0,0,228.4, -1.2, 2.7,0,0,1024,1024,1024,1024,0,0,0,0,239.2,-0.1,0,99,4.316,4.314,0,0,0,0,1.973,78.44,1.628376692528,0,10,Assisted_Takeoff,
14200,2023-04-27 17:15:30,-34.9286340537932,-56.163484221696,0,0,1.628376692528,1.628376692528,0.328084,0,1.44680778908,2.43151910668,23,5,8.587,1.628376692528,0,0,1.44680778908,0,0,0,228.4, -1.1, 2.8,0,0,1024,1024,1024,1024,0,0,0,0,239.2,-0.1,0,99,4.316,4.314,0,0,0,0,1.973,78.44,1.628376692528,0,10,Assisted_Takeoff,
14300,2023-04-27 17:15:30,-34.9286340565095,-56.1634841243991,0,0,1.628376692528,1.628376692528,0.328084,0,1.41918967796,2.46063984252,23,5,8.587,1.628376692528,0,0,1.44680778908,0,0,0,228.4, -1.1, 2.8,0,0,1024,1024,1024,1024,0,0,0,0,239.2,-0.1,0,99,4.316,4.314,0,0,0,0,1.973,78.44,1.628376692528,0,10,Assisted_Takeoff,
14400,2023-04-27 17:15:30,-34.9286340244088,-56.1634841520962,0,0,1.628376692528,1.628376692528,0.328084,0,1.43108928464,2.47498695584,23,5,8.587,1.628376692528,0,0,1.44680778908,0,0,0,228.4, -1.1, 2.8,0,0,1024,1024,1024,1024,0,0,0,0,239.2,-0.1,0,99,4.316,4.314,0,0,0,0,1.973,78.44,1.628376692528,0,10,Assisted_Takeoff,
14500,2023-04-27 17:15:30,-34.9286339826587,-56.1634841929789,0,0,1.628376692528,1.628376692528,0.328084,0,1.44798889148,2.4945210772,23,5,8.64,1.628376692528,0,0,1.44798889148,0,0,0,228.4, -1.1, 2.8,0,0,1024,1024,1024,1024,0,0,0,0,239.2,-0.1,0,99,4.322,4.32,0,0,0,0,1.236,78.44,1.628376692528,0,10,Assisted_Takeoff,
14600,2023-04-27 17:15:30,-34.9286339699593,-56.1634842082635,0,0,1.628376692528,1.628376692528,0.328084,0,1.45393377356,2.50103026376,23,5,8.64,1.628376692528,0,0,1.45393377356,0,0,0,228.4, -0.9, 3,0,0,1024,1024,1024,1024,0,0,0,0,239.2,-0.1,0,99,4.322,4.32,0,0,0,0,1.236,78.44,1.628376692528,0,10,Assisted_Takeoff,
14700,2023-04-27 17:15:30,-34.9286339961194,-56.163484220032,0,0,1.628376692528,1.628376692528,0.328084,0,1.45375988904,2.5112041486,23,5,8.64,1.628376692528,0,0,1.45393377356,0,0,0,228.4, -1, 2.8,0,0,1024,1024,1024,1024,0,0,0,0,239.2,-0.1,0,99,4.322,4.32,0,0,0,0,1.236,78.44,1.628376692528,0,10,Assisted_Takeoff,
14800,2023-04-27 17:15:30,-34.9286339645415,-56.1634842558454,0,0,1.628376692528,1.628376692528,0.328084,0,1.46791015196,2.5269357764,23,5,8.64,1.628376692528,0,0,1.46791015196,0,0,0,228.4, -1.1, 2.8,0,0,1024,1024,1024,1024,0,0,0,0,239.2,-0.1,0,99,4.322,4.32,0,0,0,0,1.236,78.44,1.628376692528,0,10,Assisted_Takeoff,
14900,2023-04-27 17:15:30,-34.9286339215049,-56.163484302376,0,0,1.628376692528,1.628376692528,0.328084,0,1.48661093996,2.54792002904,23,5,8.64,1.628376692528,0,0,1.48661093996,0,0,0,228.4, -1, 2.9,0,0,1024,1024,1024,1024,0,0,0,0,239.2,-0.1,0,99,4.322,4.32,0,0,0,0,1.236,78.44,1.628376692528,0,10,Assisted_Takeoff,
15000,2023-04-27 17:15:30,-34.9286339066519,-56.1634843195415,0,0,1.628376692528,1.628376692528,0.328084,0,1.4933891554,2.55538394004,23,5,8.64,1.628376692528,0,0,1.4933891554,0,0,0,228.4, -1.2, 2.8,0,0,1024,1024,1024,1024,0,0,0,0,239.2,-0.1,0,99,4.322,4.32,0,0,0,0,1.236,78.44,1.628376692528,0,10,Assisted_Takeoff,
15100,2023-04-27 17:15:30,-34.9286339159495,-56.1634843532886,0,0,1.628376692528,1.628376692528,0.328084,0,1.50151907692,2.56603354668,23,5,8.64,1.628376692528,0,0,1.50151907692,0,0,0,228.4, -1, 2.9,0,0,1024,1024,1024,1024,0,0,0,0,239.2,-0.1,0,99,4.322,4.32,0,0,0,0,1.236,78.44,1.628376692528,0,10,Assisted_Takeoff,
15200,2023-04-27 17:15:31,-34.9286339248058,-56.1634843923009,0,0,1.628376692528,1.628376692528,0.328084,0,1.51120739744,2.57814312712,23,5,8.64,1.628376692528,0,0,1.51120739744,0,0,0,228.4, -1, 2.9,0,0,1024,1024,1024,1024,0,0,0,0,239.2,-0.1,0,99,4.322,4.32,0,0,0,0,1.236,78.44,1.628376692528,0,10,Assisted_Takeoff,
15300,2023-04-27 17:15:31,-34.9286339374645,-56.1634844421151,0,0,1.628376692528,1.628376692528,0.328084,0,1.52345149232,2.59374352132,23,5,8.64,1.628376692528,0,0,1.52345149232,0,0,0,228.4, -1.2, 2.7,0,0,1024,1024,1024,1024,0,0,0,0,239.2,-0.1,0,99,4.322,4.32,0,0,0,0,1.236,78.44,1.628376692528,0,10,Assisted_Takeoff,
15400,2023-04-27 17:15:31,-34.9286339113402,-56.1634844997662,0,0,1.628376692528,1.628376692528,0.328084,0,1.5429626478,2.61344496552,23,5,8.64,1.628376692528,0,0,1.5429626478,0,0,0,228.3, -1.2, 2.7,0,0,1024,1024,1024,1024,0,0,0,0,239.2,-0.1,0,99,4.322,4.32,0,0,0,0,1.236,78.44,1.628376692528,0,10,Assisted_Takeoff,
15500,2023-04-27 17:15:31,-34.9286338505365,-56.1634846238588,0,0,1.628376692528,1.628376692528,0.328084,0,1.58558404024,2.65668971756,23,5,8.643,1.628376692528,0,0,1.58558404024,0,0,0,228.3, -1.3, 2.6,0,0,1024,1024,1024,1024,0,0,0,0,239.2,-0.1,0,99,4.322,4.32,0,0,0,0,1.132,78.44,1.628376692528,0,10,Assisted_Takeoff,
15600,2023-04-27 17:15:31,-34.9286338328753,-56.1634846438064,0,0,1.628376692528,1.628376692528,0.328084,0,1.59348430296,2.66547252624,23,5,8.643,1.628376692528,0,0,1.59348430296,0,0,0,228.3, -1.2, 2.7,0,0,1024,1024,1024,1024,0,0,0,0,239.2,-0.1,0,99,4.322,4.32,0,0,0,0,1.132,78.44,1.628376692528,0,10,Assisted_Takeoff,
15700,2023-04-27 17:15:31,-34.9286338209599,-56.1634846527014,0,0,1.628376692528,1.628376692528,0.328084,0,1.59754926372,2.67056767076,23,5,8.643,1.628376692528,0,0,1.59754926372,0,0,0,228.3, -1.2, 2.7,0,0,1024,1024,1024,1024,0,0,0,0,239.2,-0.1,0,99,4.322,4.32,0,0,0,0,1.132,78.44,1.628376692528,0,10,Assisted_Takeoff,
15800,2023-04-27 17:15:31,-34.9286337816754,-56.1634846843156,0,0,1.628376692528,1.628376692528,0.328084,0,1.61163390984,2.68773958732,23,5,8.643,1.628376692528,0,0,1.61163390984,0,0,0,228.3, -1.2, 2.7,0,0,1024,1024,1024,1024,0,0,0,0,239.2,-0.1,0,99,4.322,4.32,0,0,0,0,1.132,78.44,1.628376692528,0,10,Assisted_Takeoff,
15900,2023-04-27 17:15:31,-34.9286337306236,-56.1634847256854,0,0,1.628376692528,1.628376692528,0.328084,0,1.6301017582,2.71010179276,23,5,8.643,1.628376692528,0,0,1.6301017582,0,0,0,228.4, -1.2, 2.8,0,0,1024,1024,1024,1024,0,0,0,0,239.2,-0.1,0,99,4.322,4.32,0,0,0,0,1.132,78.44,1.628376692528,0,10,Assisted_Takeoff,
16000,2023-04-27 17:15:31,-34.9286337112329,-56.1634847804957,0,0,1.628376692528,1.628376692528,0.328084,0,1.64795608948,2.72795940488,23,5,8.643,1.628376692528,0,0,1.64795608948,0,0,0,228.3, -1.2, 2.8,0,0,1024,1024,1024,1024,0,0,0,0,239.2,-0.1,0,99,4.322,4.32,0,0,0,0,1.132,78.44,1.628376692528,0,10,Assisted_Takeoff,
16100,2023-04-27 17:15:31,-34.9286336976208,-56.1634848402157,0,0,1.628376692528,1.628376692528,0.328084,0,1.66636816356,2.74649943172,23,5,8.643,1.628376692528,0,0,1.66636816356,0,0,0,228.3, -1.2, 2.8,0,0,1024,1024,1024,1024,0,0,0,0,239.1,-0.1,0,99,4.322,4.32,0,0,0,0,1.132,78.44,1.628376692528,0,10,Assisted_Takeoff,
16200,2023-04-27 17:15:32,-34.928633656343,-56.1634848572389,0,0,1.628376692528,1.628376692528,0.328084,0,1.67682420064,2.76239838236,23,5,8.643,1.628376692528,0,0,1.67682420064,0,0,0,228.4, -1.1, 2.8,0,0,1024,1024,1024,1024,0,0,0,0,239.1,-0.1,0,99,4.322,4.32,0,0,0,0,1.132,78.44,1.628376692528,0,10,Assisted_Takeoff,
16300,2023-04-27 17:15:32,-34.9286336066828,-56.1634848662344,0,0,1.628376692528,1.628376692528,0.328084,0,1.68635832168,2.78071531208,23,5,8.643,1.628376692528,0,0,1.68635832168,0,0,0,228.4, -1.1, 2.8,0,0,1024,1024,1024,1024,0,0,0,0,239.1,-0.1,0,99,4.322,4.32,0,0,0,0,1.132,78.44,1.628376692528,0,10,Assisted_Takeoff,
16400,2023-04-27 17:15:32,-34.9286335982344,-56.1634848545155,0,0,1.628376692528,1.628376692528,0.328084,0,1.68435372844,2.7853839474,23,5,8.643,1.628376692528,0,0,1.68635832168,0,0,0,228.3, -1.1, 2.8,0,0,1024,1024,1024,1024,0,0,0,0,239.1,-0.1,0,99,4.322,4.32,0,0,0,0,1.132,78.44,1.628376692528,0,10,Assisted_Takeoff,
16500,2023-04-27 17:15:32,-34.9286335885541,-56.1634848948117,0,0,1.628376692528,1.628376692528,0.328084,0,1.69682092044,2.79794300292,23,5,8.642,1.628376692528,0,0,1.69682092044,0,0,0,228.4, -1.1, 2.8,0,0,1024,1024,1024,1024,0,0,0,0,239.1,-0.1,0,99,4.322,4.32,0,0,0,0,1.127,78.62,1.628376692528,0,10,Assisted_Takeoff,
16600,2023-04-27 17:15:32,-34.9286335933051,-56.1634849038974,0,0,1.628376692528,1.628376692528,0.328084,0,1.69863522496,2.80116806864,23,5,8.642,1.628376692528,0,0,1.69863522496,0,0,0,228.4, -1.1, 2.9,0,0,1024,1024,1024,1024,0,0,0,0,239.1,-0.1,0,99,4.322,4.32,0,0,0,0,1.127,78.62,1.628376692528,0,10,Assisted_Takeoff,
16700,2023-04-27 17:15:32,-34.9286335981155,-56.163484907394,0,0,1.628376692528,1.628376692528,0.328084,0,1.69890753468,2.80320875112,23,5,8.642,1.628376692528,0,0,1.69890753468,0,0,0,228.3, -1.1, 2.8,0,0,1024,1024,1024,1024,0,0,0,0,239.1,-0.1,0,99,4.322,4.32,0,0,0,0,1.127,78.62,1.628376692528,0,10,Assisted_Takeoff,
16800,2023-04-27 17:15:32,-34.9286335803109,-56.1634849262144,0,0,1.628376692528,1.628376692528,0.328084,0,1.70664047456,2.81180783276,23,5,8.642,1.628376692528,0,0,1.70664047456,0,0,0,228.4, -1, 2.9,0,0,1024,1024,1024,1024,0,0,0,0,239.1,-0.1,0,99,4.322,4.32,0,0,0,0,1.127,78.62,1.628376692528,0,10,Assisted_Takeoff,
16900,2023-04-27 17:15:32,-34.9286335367606,-56.1634849693018,0,0,1.628376692528,1.628376692528,0.328084,0,1.72478023892,2.832267151,23,5,8.642,1.628376692528,0,0,1.72478023892,0,0,0,228.4, -1.1, 2.8,0,0,1024,1024,1024,1024,0,0,0,0,239.1,-0.1,0,99,4.322,4.32,0,0,0,0,1.127,78.62,1.628376692528,0,10,Assisted_Takeoff,
17000,2023-04-27 17:15:32,-34.928633519184,-56.1634849840627,0,0,1.628376692528,1.628376692528,0.328084,0,1.73139441236,2.84005258432,23,5,8.642,1.628376692528,0,0,1.73139441236,0,0,0,228.3, -1.2, 2.7,0,0,1024,1024,1024,1024,0,0,0,0,239.1,-0.1,0,99,4.322,4.32,0,0,0,0,1.127,78.62,1.628376692528,0,10,Assisted_Takeoff,
17100,2023-04-27 17:15:32,-34.9286335079339,-56.1634849919049,0,0,1.628376692528,1.628376692528,0.328084,0,1.73519362508,2.84478027476,23,5,8.642,1.628376692528,0,0,1.73519362508,0,0,0,228.3, -1.2, 2.8,0,0,1024,1024,1024,1024,0,0,0,0,239.1,-0.1,0,99,4.322,4.32,0,0,0,0,1.127,78.62,1.628376692528,0,10,Assisted_Takeoff,
17200,2023-04-27 17:15:33,-34.9286334600886,-56.1634850186484,0,0,1.628376692528,1.628376692528,0.328084,0,1.74959979352,2.86397975044,23,5,8.642,1.628376692528,0,0,1.74959979352,0,0,0,228.3, -1.2, 2.7,0,0,1024,1024,1024,1024,0,0,0,0,239.1,-0.1,0,99,4.322,4.32,0,0,0,0,1.127,78.62,1.628376692528,0,10,Assisted_Takeoff,
17300,2023-04-27 17:15:33,-34.9286334125527,-56.1634850607576,0,0,1.628376692528,1.628376692528,0.328084,0,1.76823168388,2.885416759,23,5,8.642,1.628376692528,0,0,1.76823168388,0,0,0,228.3, -1.2, 2.7,0,0,1024,1024,1024,1024,0,0,0,0,239.1,-0.1,0,99,4.322,4.32,0,0,0,0,1.127,78.62,1.628376692528,0,10,Assisted_Takeoff,
17400,2023-04-27 17:15:33,-34.9286333956307,-56.1634850729362,0,0,1.628376692528,1.628376692528,0.328084,0,1.77411751084,2.8925853944,23,5,8.642,1.628376692528,0,0,1.77411751084,0,0,0,228.3, -1.1, 2.8,0,0,1024,1024,1024,1024,0,0,0,0,239.1,-0.1,0,99,4.322,4.32,0,0,0,0,1.127,78.62,1.628376692528,0,10,Assisted_Takeoff,
17500,2023-04-27 17:15:33,-34.928633386255,-56.1634850773719,0,0,1.628376692528,1.628376692528,0.328084,0,1.77675202536,2.89625337352,23,5,8.642,1.628376692528,0,0,1.77675202536,0,0,0,228.3, -1.2, 2.8,0,0,1024,1024,1024,1024,0,0,0,0,239.1,-0.1,0,99,4.322,4.32,0,0,0,0,1.124,78.62,1.628376692528,0,10,Assisted_Takeoff,
17600,2023-04-27 17:15:33,-34.9286333890933,-56.1634850703461,0,0,1.628376692528,1.628376692528,0.328084,0,1.7744095056,2.89859589328,23,5,8.642,1.628376692528,0,0,1.77675202536,0,0,0,228.3, -1.1, 2.8,0,0,1024,1024,1024,1024,0,0,0,0,239.1,-0.1,0,99,4.322,4.32,0,0,0,0,1.124,78.62,1.628376692528,0,10,Assisted_Takeoff,
17700,2023-04-27 17:15:33,-34.9286334764968,-56.1634850001376,0,0,1.628376692528,1.628376692528,0.328084,0,1.74209979328,2.93678159004,23,5,8.642,1.628376692528,0,0,1.77675202536,0,0,0,228.3, -1.2, 2.8,0,0,1024,1024,1024,1024,0,0,0,0,239.1,-0.1,0,99,4.322,4.32,0,0,0,0,1.124,78.62,1.628376692528,0,10,Assisted_Takeoff,
17800,2023-04-27 17:15:33,-34.9286334473346,-56.1634850316734,0,0,1.628376692528,1.628376692528,0.328084,0,1.75506567296,2.9510007506,23,5,8.642,1.628376692528,0,0,1.77675202536,0,0,0,228.3, -1.1, 2.9,0,0,1024,1024,1024,1024,0,0,0,0,239.1,-0.1,0,99,4.322,4.32,0,0,0,0,1.124,78.62,1.628376692528,0,10,Assisted_Takeoff,
17900,2023-04-27 17:15:33,-34.9286334064713,-56.1634850749594,0,0,1.628376692528,1.628376692528,0.328084,0,1.77301842944,2.97074484572,23,5,8.642,1.628376692528,0,0,1.77675202536,0,0,0,228.3, -1.1, 2.8,0,0,1024,1024,1024,1024,0,0,0,0,239.1,-0.1,0,99,4.322,4.32,0,0,0,0,1.124,78.62,1.628376692528,0,10,Assisted_Takeoff,
18000,2023-04-27 17:15:33,-34.9286333923502,-56.1634851325335,0,0,1.628376692528,1.628376692528,0.328084,0,1.79082682896,2.98872384892,23,5,8.642,1.628376692528,0,0,1.79082682896,0,0,0,228.3, -1.1, 2.8,0,0,1024,1024,1024,1024,0,0,0,0,239.1,-0.1,0,99,4.322,4.32,0,0,0,0,1.124,78.62,1.628376692528,0,10,Assisted_Takeoff,
18100,2023-04-27 17:15:33,-34.9286333457059,-56.1634852989652,0,0,1.628376692528,1.628376692528,0.328084,0,1.8431923162,3.04133539916,23,5,8.642,1.628376692528,0,0,1.8431923162,0,0,0,228.3, -1.2, 2.7,0,0,1024,1024,1024,1024,0,0,0,0,239.1,-0.1,0,99,4.322,4.32,0,0,0,0,1.124,78.62,1.628376692528,0,10,Assisted_Takeoff,
18200,2023-04-27 17:15:34,-34.9286333482145,-56.1634853192994,0,0,1.628376692528,1.628376692528,0.328084,0,1.84836292004,3.04748697416,23,5,8.642,1.628376692528,0,0,1.84836292004,0,0,0,228.3, -1.3, 2.7,0,0,1024,1024,1024,1024,0,0,0,0,239.1,-0.1,0,99,4.322,4.32,0,0,0,0,1.124,78.62,1.628376692528,0,10,Assisted_Takeoff,
18300,2023-04-27 17:15:34,-34.9286333533783,-56.1634853317157,0,0,1.628376692528,1.628376692528,0.328084,0,1.85098103036,3.05165036012,23,5,8.642,1.628376692528,0,0,1.85098103036,0,0,0,228.3, -1.2, 2.7,0,0,1024,1024,1024,1024,0,0,0,0,239.1,-0.1,0,99,4.322,4.32,0,0,0,0,1.124,78.62,1.628376692528,0,10,Assisted_Takeoff,
18400,2023-04-27 17:15:34,-34.9286333613381,-56.1634853266217,0,0,1.628376692528,1.628376692528,0.328084,0,1.84840229012,3.05493120012,23,5,8.642,1.628376692528,0,0,1.85098103036,0,0,0,228.3, -1.2, 2.7,0,0,1024,1024,1024,1024,0,0,0,0,239.1,-0.1,0,99,4.322,4.32,0,0,0,0,1.124,78.62,1.628376692528,0,10,Assisted_Takeoff,
