time(millisecond),datetime(utc),latitude,longitude,height_above_takeoff(feet),height_above_ground_at_drone_location(feet),ground_elevation_at_drone_location(feet),altitude_above_seaLevel(feet),height_sonar(feet),speed(mph),distance(feet),mileage(feet),satellites,gpslevel,voltage(v),max_altitude(feet),max_ascent(feet),max_speed(mph),max_distance(feet), xSpeed(mph), ySpeed(mph), zSpeed(mph), compass_heading(degrees), pitch(degrees), roll(degrees),isPhoto,isVideo,rc_elevator,rc_aileron,rc_throttle,rc_rudder,rc_elevator(percent),rc_aileron(percent),rc_throttle(percent),rc_rudder(percent),gimbal_heading(degrees),gimbal_pitch(degrees),gimbal_roll(degrees),battery_percent,voltageCell1,voltageCell2,voltageCell3,voltageCell4,voltageCell5,voltageCell6,current(A),battery_temperature(f),altitude(feet),ascent(feet),flycStateRaw,flycState,message
0,2022-08-12 04:41:40,0,0,0,,,3.28084E-5,0.328084,0,0,0,0,0,0,3.28084E-5,0,0,0,0,0,0,216.4, 3.2, 0,0,0,364,364,364,1684,-100,-100,-100,100,216.4,0,0,97,4.32,4.313,0,0,0,0,0,75.74,3.28084E-5,0,41,Motors_Started,"Baja velocidad de la tarjeta SD. Puede afectar a su uso normal. Sustituye la tarjeta SD (Code: 10028). Sin señal GPS. La aeronave no puede hacer vuelo estacionario. Vuela con cuidado (Code: 30008). Baja velocidad de la tarjeta SD. Puede afectar a su "
100,2022-08-12 04:41:40,0,0,0,,,3.28084E-5,0.328084,0,0,0,0,0,0,3.28084E-5,0,0,0,0,0,0,216.4, 3.2, 0,0,0,364,364,364,1684,-100,-100,-100,100,216.4,0,0,97,4.32,4.313,0,0,0,0,0,75.74,3.28084E-5,0,41,Motors_Started,
200,2022-08-12 04:41:40,0,0,0,,,3.28084E-5,0.328084,0,0,0,0,0,0,3.28084E-5,0,0,0,0,0,0,216.4, 3.2, 0,0,0,364,364,364,1684,-100,-100,-100,100,216.4,0,0,97,4.32,4.313,0,0,0,0,0,75.74,3.28084E-5,0,41,Motors_Started,
300,2022-08-12 04:41:41,0,0,0,,,3.28084E-5,0.328084,0,0,0,0,0,0,3.28084E-5,0,0,0,0,0,0,216.4, 3.2, 0,0,0,364,364,364,1684,-100,-100,-100,100,216.4,0,0,97,4.32,4.313,0,0,0,0,0,75.74,3.28084E-5,0,41,Motors_Started,
400,2022-08-12 04:41:41,0,0,0,,,3.28084E-5,0.328084,0,0,0,0,0,0,3.28084E-5,0,0,0,0,0,0,216.4, 3.2, 0,0,0,475,411,748,1454,-83,-93,-42,65,216.4,0,0,97,4.32,4.313,0,0,0,0,0,75.74,3.28084E-5,0,41,Motors_Started,
500,2022-08-12 04:41:41,0,0,0,,,3.28084E-5,0.328084,0,0,0,0,0,0,3.28084E-5,0,0,0,0,0,0,216.4, 3.2, 0,0,0,475,411,748,1454,-83,-93,-42,65,216.4,0,0,97,4.32,4.313,0,0,0,0,0,75.74,3.28084E-5,0,41,Motors_Started,
600,2022-08-12 04:41:41,0,0,0,,,3.28084E-5,0.328084,0,0,0,0,0,0,3.28084E-5,0,0,0,0,0,0,216.4, 3.3, 0,0,0,1024,1024,1024,1024,0,0,0,0,216.4,0,0,97,4.32,4.313,0,0,0,0,0,75.74,3.28084E-5,0,41,Motors_Started,
700,2022-08-12 04:41:41,0,0,0,,,3.28084E-5,0.328084,0,0,0,0,0,0,3.28084E-5,0,0,0,0,0,0,216.4, 3.3, 0,0,0,1024,1024,1024,1024,0,0,0,0,216.4,0,0,97,4.32,4.313,0,0,0,0,0,75.74,3.28084E-5,0,41,Motors_Started,
800,2022-08-12 04:41:41,0,0,0,,,3.28084E-5,0.328084,0,0,0,0,0,0,3.28084E-5,0,0,0,0,0,0,216.4, 3.2, 0,0,0,1024,1024,1024,1024,0,0,0,0,216.4,0,0,97,4.32,4.313,0,0,0,0,0,75.74,3.28084E-5,0,41,Motors_Started,
900,2022-08-12 04:41:41,0,0,0,,,3.28084E-5,0.328084,0,0,0,0,0,0,3.28084E-5,0,0,0,0,0,0,216.4, 3.3, 0,0,0,1024,1024,1024,1024,0,0,0,0,216.4,0,0,97,4.32,4.313,0,0,0,0,0,75.74,3.28084E-5,0,41,Motors_Started,"Setting new Return-To-Home altitude to 40m (131 ft). Data Recorder File Index is 39. Setting new Maximum Flight Altitude to 30m (98 ft)"
1000,2022-08-12 04:41:41,0,0,0,,,3.28084E-5,0.328084,0,0,0,0,0,0,3.28084E-5,0,0,0,0,0,0,216.4, 3.2, 0,0,0,1024,1024,1024,1024,0,0,0,0,216.4,0,0,97,4.32,4.313,0,0,0,0,0,75.74,3.28084E-5,0,41,Motors_Started,
1100,2022-08-12 04:41:41,0,0,0,,,3.28084E-5,0.328084,0,0,0,0,0,0,3.28084E-5,0,0,0,0,0,0,216.4, 3.3, 0,0,0,1024,1024,1071,1051,0,0,7,4,216.4,0,0,97,4.32,4.313,0,0,0,0,0,75.74,3.28084E-5,0,10,Assisted_Takeoff,"Vuela con cuidado (sin GPS)"
1200,2022-08-12 04:41:41,0,0,0,,,3.28084E-5,0.328084,0,0,0,0,0,0,3.28084E-5,0,0,0,0,0,0,216.4, 3.3, 0,0,0,1024,1024,1684,1090,0,0,100,10,216.4,0,0,97,4.32,4.313,0,0,0,0,0,75.74,3.28084E-5,0,10,Assisted_Takeoff,
1300,2022-08-12 04:41:42,0,0,0,,,3.28084E-5,0.328084,0,0,0,0,0,8.666,3.28084E-5,0,0,0,0,0,0,216.4, 3.3, -0.1,0,0,1024,1024,1684,1024,0,0,100,0,216.4,0,0,97,4.32,4.313,0,0,0,0,0.534,75.74,3.28084E-5,0,10,Assisted_Takeoff,
1400,2022-08-12 04:41:42,0,0,0,,,3.28084E-5,0.328084,0,0,0,0,0,8.666,3.28084E-5,0,0,0,0,0,0,216.5, 3.2, -0.1,0,0,1024,1024,1024,1024,0,0,0,0,216.4,0,0,97,4.32,4.313,0,0,0,0,0.534,75.74,3.28084E-5,0,10,Assisted_Takeoff,
1500,2022-08-12 04:41:42,0,0,0,,,3.28084E-5,0.328084,0,0,0,0,0,8.666,3.28084E-5,0,0,0,0,0,0,216.3, 3.2, 0,0,0,1024,1024,1024,1024,0,0,0,0,216.4,0,0,97,4.32,4.313,0,0,0,0,0.534,75.74,3.28084E-5,0,10,Assisted_Takeoff,
1600,2022-08-12 04:41:42,0,0,0,,,3.28084E-5,0.328084,0,0,0,0,0,8.666,3.28084E-5,0,0,0,0,0,0,216.3, 3.3, 0,0,0,1024,1024,1024,1024,0,0,0,0,216.4,0,0,97,4.32,4.313,0,0,0,0,0.534,75.74,3.28084E-5,0,10,Assisted_Takeoff,
1700,2022-08-12 04:41:42,0,0,0,,,3.28084E-5,0.328084,0,0,0,0,0,8.666,3.28084E-5,0,0,0,0,0,0,216.1, 3.3, -0.1,0,0,1024,1024,1024,1024,0,0,0,0,216.3,0,0,97,4.32,4.313,0,0,0,0,0.534,75.74,3.28084E-5,0,10,Assisted_Takeoff,
1800,2022-08-12 04:41:42,0,0,0,,,3.28084E-5,0.328084,0,0,0,0,0,8.666,3.28084E-5,0,0,0,0,0,0,216.1, 3.3, -0.1,0,0,1024,1024,1024,1024,0,0,0,0,216.3,0,0,97,4.32,4.313,0,0,0,0,0.534,75.74,3.28084E-5,0,10,Assisted_Takeoff,
1900,2022-08-12 04:41:42,0,0,0,,,3.28084E-5,0.328084,0,0,0,0,0,8.666,3.28084E-5,0,0,0,0,0,0,216.1, 3.2, 0,0,0,1024,1024,1477,1028,0,0,69,1,216.2,0,0,97,4.32,4.313,0,0,0,0,0.534,75.74,3.28084E-5,0,10,Assisted_Takeoff,
2000,2022-08-12 04:41:42,0,0,0,,,3.28084E-5,0.328084,0,0,0,0,0,8.666,3.28084E-5,0,0,0,0,0,0,216.1, 3.2, -0.1,0,0,1024,1024,1684,1024,0,0,100,0,216.2,0,0,97,4.32,4.313,0,0,0,0,0.534,75.74,3.28084E-5,0,10,Assisted_Takeoff,
2100,2022-08-12 04:41:42,0,0,0,,,3.28084E-5,0.328084,0,0,0,0,0,8.666,3.28084E-5,0,0,0,0,0,0,216.2, 3.2, -0.1,0,0,1024,1024,1684,1024,0,0,100,0,216.2,0,0,97,4.32,4.313,0,0,0,0,0.534,75.74,3.28084E-5,0,10,Assisted_Takeoff,
2200,2022-08-12 04:41:42,0,0,0,,,3.28084E-5,0.328084,0,0,0,0,0,8.666,3.28084E-5,0,0,0,0,0,0,216.1, 3.1, -0.1,0,0,1024,1024,1684,1024,0,0,100,0,216.2,0,0,97,4.32,4.313,0,0,0,0,0.534,75.74,3.28084E-5,0,10,Assisted_Takeoff,
2300,2022-08-12 04:41:43,0,0,0,,,3.28084E-5,0.328084,0,0,0,0,0,8.619,3.28084E-5,0,0,0,0,0,0,216.4, 0.7, 0,0,0,1024,1024,1636,1024,0,0,93,0,216.2,0,0,97,4.319,4.312,0,0,0,0,1.372,75.74,3.28084E-5,0,10,Assisted_Takeoff,
2400,2022-08-12 04:41:43,0,0,0,,,3.28084E-5,0.328084,0,0,0,0,0,8.619,3.28084E-5,0,0,0,0,0,-0.223694,216.9, -0.9, -0.5,0,0,1024,1024,1061,1024,0,0,6,0,216.4,0,0,97,4.319,4.312,0,0,0,0,1.372,75.74,3.28084E-5,0,10,Assisted_Takeoff,"Baja velocidad de la tarjeta SD. Puede afectar a su uso normal. Sustituye la tarjeta SD (Code: 10028). Señal débil del GPS. Vuelo estacionario inestable. Vuela con cuidado (Code: 30002)"
2500,2022-08-12 04:41:43,0,0,0,,,3.28084E-5,0.328084,0,0,0,0,0,8.619,3.28084E-5,0,0,0,0,0,-0.671082,216.9, -0.4, -0.1,0,0,1024,1024,1061,1024,0,0,6,0,216.5,0,0,97,4.319,4.312,0,0,0,0,1.372,75.74,3.28084E-5,0,38,Tripod,
2600,2022-08-12 04:41:43,0,0,0,,,3.28084E-5,0.656168,0,0,0,0,0,8.619,3.28084E-5,0,0,0,0,0,-0.894776,216.7, -0.5, -0.3,0,0,1024,1024,1024,1024,0,0,0,0,216.5,0,0,97,4.319,4.312,0,0,0,0,1.372,75.74,3.28084E-5,0,38,Tripod,
2700,2022-08-12 04:41:43,0,0,0,,,3.28084E-5,0.656168,0,0,0,0,0,8.619,3.28084E-5,0,0,0,0,0,-0.894776,216.7, -0.1, 0.6,0,0,1024,1024,1024,1024,0,0,0,0,216.5,0,0,97,4.319,4.312,0,0,0,0,1.372,75.74,3.28084E-5,0,38,Tripod,
2800,2022-08-12 04:41:43,0,0,0.328084,,,0.3281168084,0.656168,0,0,0,0,0,8.619,0.3281168084,0.328084,0,0,0,0,-0.894776,216.6, -0.2, 0.5,0,0,1024,1024,1024,1024,0,0,0,0,216.5,0,0,97,4.319,4.312,0,0,0,0,1.372,75.74,0.3281168084,0.328084,38,Tripod,
2900,2022-08-12 04:41:43,0,0,0.328084,,,0.3281168084,0.656168,0,0,0,0,0,8.619,0.3281168084,0.328084,0,0,0,0,-0.894776,216.6, -0.1, 0.4,0,0,1024,1024,1024,1024,0,0,0,0,216.5,0,0,97,4.319,4.312,0,0,0,0,1.372,75.74,0.3281168084,0.328084,38,Tripod,
3000,2022-08-12 04:41:43,0,0,0.328084,,,0.3281168084,0.984252,0,0,0,0,0,8.619,0.3281168084,0.328084,0,0,0,0,-0.894776,216.6, 0, 0.2,0,0,1024,1024,1024,1024,0,0,0,0,216.5,0,0,97,4.319,4.312,0,0,0,0,1.372,75.74,0.3281168084,0.328084,38,Tripod,
3100,2022-08-12 04:41:43,0,0,0.656168,,,0.6562008084,0.984252,0,0,0,0,0,8.619,0.6562008084,0.656168,0,0,0,0,-0.894776,216.5, -0.1, 0.2,0,0,1024,1024,1024,1024,0,0,0,0,216.5,0,0,97,4.319,4.312,0,0,0,0,1.372,75.74,0.6562008084,0.656168,38,Tripod,
3200,2022-08-12 04:41:43,0,0,0.656168,,,0.6562008084,1.312336,0,0,0,0,0,8.619,0.6562008084,0.656168,0,0,0,0,-0.894776,216.5, -0.3, 0.2,0,0,1024,1024,1024,1024,0,0,0,0,216.5,0,0,97,4.319,4.312,0,0,0,0,1.372,75.74,0.6562008084,0.656168,38,Tripod,
3300,2022-08-12 04:41:44,0,0,0.984252,,,0.9842848084,1.312336,0,0,0,0,0,8.599,0.9842848084,0.984252,0,0,0,0,-0.671082,216.5, -0.4, 0.1,0,0,1024,1024,1024,1024,0,0,0,0,216.5,0,0,97,4.279,4.27,0,0,0,0,1.687,75.92,0.9842848084,0.984252,38,Tripod,"Baja velocidad de la tarjeta SD. Puede afectar a su uso normal. Sustituye la tarjeta SD (Code: 10028)"
3400,2022-08-12 04:41:44,0,0,0.984252,,,0.9842848084,1.312336,0,0,0,0,0,8.599,0.9842848084,0.984252,0,0,0,0,-0.671082,216.5, -0.3, 0,0,0,1024,1024,1024,1024,0,0,0,0,216.5,0,0,97,4.279,4.27,0,0,0,0,1.687,75.92,0.9842848084,0.984252,38,Tripod,
3500,2022-08-12 04:41:44,0,0,0.984252,,,0.9842848084,1.312336,0,0,0,0,0,8.599,0.9842848084,0.984252,0,0,0,0,-0.447388,216.5, -0.2, 0,0,0,1024,1024,1024,1024,0,0,0,0,216.5,0,0,97,4.279,4.27,0,0,0,0,1.687,75.92,0.9842848084,0.984252,38,Tripod,
3600,2022-08-12 04:41:44,0,0,0.984252,,,0.9842848084,1.64042,0,0,0,0,0,8.599,0.9842848084,0.984252,0,0,0,0,-0.223694,216.5, -0.2, 0,0,0,1024,1024,1024,1024,0,0,0,0,216.5,0,0,97,4.279,4.27,0,0,0,0,1.687,75.92,0.9842848084,0.984252,38,Tripod,
3700,2022-08-12 04:41:44,0,0,1.312336,,,1.3123688084,1.64042,0,0,0,0,0,8.599,1.3123688084,1.312336,0,0,0,0,-0.223694,216.5, -0.2, 0,0,0,1024,1024,1024,1024,0,0,0,0,216.5,0,0,97,4.279,4.27,0,0,0,0,1.687,75.92,1.3123688084,1.312336,38,Tripod,
3800,2022-08-12 04:41:44,0,0,1.312336,,,1.3123688084,1.64042,0,0,0,0,0,8.599,1.3123688084,1.312336,0,0,0,0,0,216.5, 0, -0.3,0,0,1024,1024,1024,1024,0,0,0,0,216.5,0,0,97,4.279,4.27,0,0,0,0,1.687,75.92,1.3123688084,1.312336,38,Tripod,
3900,2022-08-12 04:41:44,0,0,1.312336,,,1.3123688084,1.64042,0,0,0,0,0,8.599,1.3123688084,1.312336,0,0,0,0,0,216.5, 0, -0.2,0,0,1024,1024,1118,1024,0,0,14,0,216.5,0,0,97,4.279,4.27,0,0,0,0,1.687,75.92,1.3123688084,1.312336,38,Tripod,
4000,2022-08-12 04:41:44,0,0,1.312336,,,1.3123688084,1.64042,0,0,0,0,0,8.599,1.3123688084,1.312336,0,0,0,0,0,216.5, 0, -0.1,0,0,1024,1024,1495,1024,0,0,71,0,216.5,0,0,97,4.279,4.27,0,0,0,0,1.687,75.92,1.3123688084,1.312336,38,Tripod,
4100,2022-08-12 04:41:44,0,0,1.312336,,,1.3123688084,1.64042,0,0,0,0,0,8.599,1.3123688084,1.312336,0,0,0,0,0,216.5, 0, 0,0,0,1024,1024,1684,1024,0,0,100,0,216.5,0,0,97,4.279,4.27,0,0,0,0,1.687,75.92,1.3123688084,1.312336,38,Tripod,"Se detectó tarjeta SD de baja velocidad"
4200,2022-08-12 04:41:44,0,0,1.312336,,,1.3123688084,1.64042,0,0,0,0,0,8.599,1.3123688084,1.312336,0,0,0,0,-0.447388,216.5, 0.1, -0.1,0,0,1024,1024,1684,1024,0,0,100,0,216.5,0,0,97,4.279,4.27,0,0,0,0,1.687,75.92,1.3123688084,1.312336,38,Tripod,
4300,2022-08-12 04:41:45,0,0,1.64042,,,1.6404528084,1.968504,0,0,0,0,0,8.484,1.6404528084,1.64042,0,0,0,0,-1.11847,216.5, 0.1, -0.1,0,0,1024,1024,1024,1024,0,0,0,0,216.5,0,0,97,4.246,4.243,0,0,0,0,3.553,75.92,1.6404528084,1.64042,38,Tripod,
4400,2022-08-12 04:41:45,0,0,1.968504,,,1.9685368084,1.968504,0,0,0,0,0,8.484,1.9685368084,1.968504,0,0,0,0,-1.789552,216.4, 0, 0,0,0,1024,1024,1024,1024,0,0,0,0,216.5,0,0,97,4.246,4.243,0,0,0,0,3.553,75.92,1.9685368084,1.968504,38,Tripod,
4500,2022-08-12 04:41:45,0,0,2.296588,,,2.2966208084,2.296588,0,0,0,0,0,8.484,2.2966208084,2.296588,0,0,0,0,-2.013246,216.4, 0.1, 0,0,0,1024,1024,1024,1024,0,0,0,0,216.5,0,0,97,4.246,4.243,0,0,0,0,3.553,75.92,2.2966208084,2.296588,38,Tripod,
4600,2022-08-12 04:41:45,0,0,2.624672,,,2.6247048084,2.624672,0,0,0,0,0,8.484,2.6247048084,2.624672,0,0,0,0,-1.565858,216.4, 0.3, 0,0,0,1024,1024,1024,1024,0,0,0,0,216.5,0,0,97,4.246,4.243,0,0,0,0,3.553,75.92,2.6247048084,2.624672,38,Tripod,
4700,2022-08-12 04:41:45,0,0,2.624672,,,2.6247048084,2.952756,0,0,0,0,0,8.484,2.6247048084,2.624672,0,0,0,0,-1.11847,216.4, 0.2, 0,0,0,1024,1024,1024,1024,0,0,0,0,216.5,0,0,97,4.246,4.243,0,0,0,0,3.553,75.92,2.6247048084,2.624672,38,Tripod,
4800,2022-08-12 04:41:45,0,0,2.952756,,,2.9527888084,2.952756,0,0,0,0,0,8.484,2.9527888084,2.952756,0,0,0,0,-0.671082,216.3, 0.1, 0.1,0,0,1024,1024,1024,1024,0,0,0,0,216.5,0,0,97,4.246,4.243,0,0,0,0,3.553,75.92,2.9527888084,2.952756,38,Tripod,
4900,2022-08-12 04:41:45,0,0,2.952756,,,2.9527888084,2.952756,0,0,0,0,0,8.484,2.9527888084,2.952756,0,0,0,0,-0.223694,216.3, 0, 0,0,0,1024,1024,1024,1024,0,0,0,0,216.5,0,0,97,4.246,4.243,0,0,0,0,3.553,75.92,2.9527888084,2.952756,38,Tripod,
5000,2022-08-12 04:41:45,0,0,2.952756,,,2.9527888084,2.952756,0,0,0,0,0,8.484,2.9527888084,2.952756,0,0,0,0,0,216.2, 0.1, 0,0,0,1024,1024,1024,1024,0,0,0,0,216.5,0,0,97,4.246,4.243,0,0,0,0,3.553,75.92,2.9527888084,2.952756,38,Tripod,
5100,2022-08-12 04:41:45,0,0,2.952756,,,2.9527888084,3.28084,0,0,0,0,0,8.484,2.9527888084,2.952756,0,0,0,0,0,216.1, 0.2, 0,0,0,1024,1024,1024,1024,0,0,0,0,216.5,0,0,97,4.246,4.243,0,0,0,0,3.553,75.92,2.9527888084,2.952756,38,Tripod,
5200,2022-08-12 04:41:45,0,0,2.952756,,,2.9527888084,3.28084,0,0,0,0,0,8.484,2.9527888084,2.952756,0,0,0,0,0,215.9, 0.2, 0,0,0,1024,1024,1024,1024,0,0,0,0,216.5,0,0,97,4.246,4.243,0,0,0,0,3.553,75.92,2.9527888084,2.952756,38,Tripod,
5300,2022-08-12 04:41:46,0,0,2.952756,,,2.9527888084,3.28084,0,0,0,0,0,8.485,2.9527888084,2.952756,0,0,0,0,0,215.8, 0.1, 0,0,0,1024,1024,1024,1024,0,0,0,0,216.5,0,0,97,4.205,4.196,0,0,0,0,3.879,75.92,2.9527888084,2.952756,38,Tripod,
5400,2022-08-12 04:41:46,0,0,2.952756,,,2.9527888084,3.28084,0,0,0,0,0,8.485,2.9527888084,2.952756,0,0,0,0,0,215.7, 0.1, 0,0,0,1024,1024,1024,1024,0,0,0,0,216.5,0,0,97,4.205,4.196,0,0,0,0,3.879,75.92,2.9527888084,2.952756,38,Tripod,
5500,2022-08-12 04:41:46,0,0,2.952756,,,2.9527888084,3.28084,0,0,0,0,0,8.485,2.9527888084,2.952756,0,0,0,0,0,215.5, 0.2, 0.1,0,0,1024,1024,1024,1024,0,0,0,0,216.5,0,0,97,4.205,4.196,0,0,0,0,3.879,75.92,2.9527888084,2.952756,38,Tripod,
5600,2022-08-12 04:41:46,0,0,2.952756,,,2.9527888084,3.28084,0,0,0,0,0,8.485,2.9527888084,2.952756,0,0,0,0,0,215.4, 0.2, 0.2,0,0,1024,1024,1024,1024,0,0,0,0,216.5,0,0,97,4.205,4.196,0,0,0,0,3.879,75.92,2.9527888084,2.952756,38,Tripod,
5700,2022-08-12 04:41:46,0,0,2.952756,,,2.9527888084,3.28084,0,0,0,0,0,8.485,2.9527888084,2.952756,0,0,0,0,0,215.3, 0.1, 0.1,0,0,1024,1024,1024,1024,0,0,0,0,216.5,0,0,97,4.205,4.196,0,0,0,0,3.879,75.92,2.9527888084,2.952756,38,Tripod,
5800,2022-08-12 04:41:46,0,0,2.952756,,,2.9527888084,3.28084,0,0,0,0,0,8.485,2.9527888084,2.952756,0,0,0,0,0,215.3, 0, 0.2,0,0,1024,1024,1024,1024,0,0,0,0,216.5,0,0,97,4.205,4.196,0,0,0,0,3.879,75.92,2.9527888084,2.952756,38,Tripod,
5900,2022-08-12 04:41:46,0,0,2.952756,,,2.9527888084,3.28084,0,0,0,0,0,8.485,2.9527888084,2.952756,0,0,0,0,0,215.2, 0.1, 0.4,0,0,1024,1024,1024,1024,0,0,0,0,216.5,0,0,97,4.205,4.196,0,0,0,0,3.879,75.92,2.9527888084,2.952756,38,Tripod,
6000,2022-08-12 04:41:46,0,0,3.28084,,,3.2808728084,3.28084,0,0,0,0,0,8.485,3.2808728084,3.28084,0,0,0,0,0,215.1, 0, 0.3,0,0,1024,1024,1024,1024,0,0,0,0,216.5,0,0,97,4.205,4.196,0,0,0,0,3.879,75.92,3.2808728084,3.28084,38,Tripod,
6100,2022-08-12 04:41:46,0,0,3.28084,,,3.2808728084,3.28084,0,0,0,0,0,8.485,3.2808728084,3.28084,0,0,0,0,0,215, 0, 0.1,0,0,1024,1024,1293,1024,0,0,41,0,216.5,0,0,97,4.205,4.196,0,0,0,0,3.879,75.92,3.2808728084,3.28084,38,Tripod,
6200,2022-08-12 04:41:46,0,0,3.28084,,,3.2808728084,3.28084,0,0,0,0,0,8.485,3.2808728084,3.28084,0,0,0,0,0,214.9, 0, 0.2,0,0,1024,1024,1684,1024,0,0,100,0,216.5,0,0,97,4.205,4.196,0,0,0,0,3.879,75.92,3.2808728084,3.28084,38,Tripod,
6300,2022-08-12 04:41:47,0,0,3.28084,,,3.2808728084,3.28084,0,0,0,0,0,8.495,3.2808728084,3.28084,0,0,0,0,-0.223694,214.9, -0.1, 0.6,0,0,1024,1024,1684,1024,0,0,100,0,216.5,0,0,97,4.237,4.232,0,0,0,0,3.906,75.92,3.2808728084,3.28084,38,Tripod,
6400,2022-08-12 04:41:47,0,0,3.28084,,,3.2808728084,3.28084,0,0,0,0,0,8.495,3.2808728084,3.28084,0,0,0,0,-0.894776,214.8, -0.2, 0.3,0,0,1024,1024,1024,1024,0,0,0,0,216.5,0,0,97,4.237,4.232,0,0,0,0,3.906,75.92,3.2808728084,3.28084,38,Tripod,
6500,2022-08-12 04:41:47,0,0,3.608924,,,3.6089568084,3.608924,0,0,0,0,0,8.495,3.6089568084,3.608924,0,0,0,0,-1.565858,214.7, -0.4, 0,0,0,1024,1024,1024,1024,0,0,0,0,216.5,0,0,97,4.237,4.232,0,0,0,0,3.906,75.92,3.6089568084,3.608924,38,Tripod,
6600,2022-08-12 04:41:47,0,0,3.937008,,,3.9370408084,3.608924,0,0,0,0,0,8.495,3.9370408084,3.937008,0,0,0,0,-1.342164,214.7, 0, -0.1,0,0,1024,1024,1024,1024,0,0,0,0,216.5,0,0,97,4.237,4.232,0,0,0,0,3.906,75.92,3.9370408084,3.937008,38,Tripod,
6700,2022-08-12 04:41:47,0,0,3.937008,,,3.9370408084,3.937008,0,0,0,0,0,8.495,3.9370408084,3.937008,0,0,0,0,-0.894776,214.6, 0.1, 0,0,0,1024,1024,1024,1024,0,0,0,0,216.5,0,0,97,4.237,4.232,0,0,0,0,3.906,75.92,3.9370408084,3.937008,38,Tripod,
6800,2022-08-12 04:41:47,0,0,3.937008,,,3.9370408084,3.937008,0,0,0,0,0,8.495,3.9370408084,3.937008,0,0,0,0,-0.671082,214.6, 0.1, 0,0,0,1024,1024,1024,1024,0,0,0,0,216.5,0,0,97,4.237,4.232,0,0,0,0,3.906,75.92,3.9370408084,3.937008,38,Tripod,
6900,2022-08-12 04:41:47,0,0,4.265092,,,4.2651248084,4.265092,0,0,0,0,0,8.495,4.2651248084,4.265092,0,0,0,0,-0.223694,214.5, 0, 0,0,0,1024,1024,1024,1024,0,0,0,0,216.5,0,0,97,4.237,4.232,0,0,0,0,3.906,75.92,4.2651248084,4.265092,38,Tripod,
7000,2022-08-12 04:41:47,0,0,4.265092,,,4.2651248084,4.265092,0,0,0,0,0,8.495,4.2651248084,4.265092,0,0,0,0,0,214.5, 0, 0.1,0,0,1504,1024,1024,1024,73,0,0,0,216.5,0,0,97,4.237,4.232,0,0,0,0,3.906,75.92,4.2651248084,4.265092,38,Tripod,
7100,2022-08-12 04:41:47,0,0,4.265092,,,4.2651248084,4.265092,0,0,0,0,0,8.495,4.2651248084,4.265092,0,0,0,0,0,214.5, -1.8, 0.1,0,0,1684,1024,1024,1024,100,0,0,0,216.5,0,0,97,4.237,4.232,0,0,0,0,3.906,75.92,4.2651248084,4.265092,38,Tripod,
7200,2022-08-12 04:41:47,0,0,4.265092,,,4.2651248084,4.265092,0,0,0,0,0,8.495,4.2651248084,4.265092,0,0,0,0,0,214.5, -8.8, 0,0,0,1596,1024,1024,1024,87,0,0,0,216.5,0,0,97,4.237,4.232,0,0,0,0,3.906,75.92,4.2651248084,4.265092,38,Tripod,
7300,2022-08-12 04:41:48,0,0,4.265092,,,4.2651248084,4.265092,0.3131716,0,0,0,0,8.459,4.2651248084,4.265092,0,0,-0.223694,-0.223694,0,214.4, -11.9, 0.1,0,0,1024,1024,1024,1024,0,0,0,0,216.5,0,0,97,4.188,4.187,0,0,0,0,4.155,75.92,4.2651248084,4.265092,38,Tripod,
7400,2022-08-12 04:41:48,0,0,4.265092,,,4.2651248084,4.265092,0.8052984,0,0,0,0,8.459,4.2651248084,4.265092,0,0,-0.671082,-0.447388,0,214.4, -8.5, 0,0,0,1024,1024,1024,1024,0,0,0,0,216.5,0,0,97,4.188,4.187,0,0,0,0,4.155,75.92,4.2651248084,4.265092,38,Tripod,
7500,2022-08-12 04:41:48,0,0,4.265092,,,4.2651248084,4.265092,0.8052984,0,0,0,0,8.459,4.2651248084,4.265092,0,0,-0.671082,-0.447388,0,214.3, 2.7, 0.1,0,0,1024,1024,1024,1024,0,0,0,0,216.5,0,0,97,4.188,4.187,0,0,0,0,4.155,75.92,4.2651248084,4.265092,38,Tripod,
7600,2022-08-12 04:41:48,0,0,4.265092,,,4.2651248084,4.265092,0.8052984,0,0,0,0,8.459,4.2651248084,4.265092,0,0,-0.671082,-0.447388,0,214.3, 4.3, 0,0,0,1024,1024,1024,1024,0,0,0,0,216.5,0,0,97,4.188,4.187,0,0,0,0,4.155,75.92,4.2651248084,4.265092,38,Tripod,
7700,2022-08-12 04:41:48,0,0,4.265092,,,4.2651248084,4.265092,0.4921268,0,0,0,0,8.459,4.2651248084,4.265092,0,0,-0.447388,-0.223694,0,214.3, 4, -0.1,0,0,1024,1024,1024,1024,0,0,0,0,216.5,0,0,97,4.188,4.187,0,0,0,0,4.155,75.92,4.2651248084,4.265092,38,Tripod,
7800,2022-08-12 04:41:48,0,0,4.265092,,,4.2651248084,4.265092,0.4921268,0,0,0,0,8.459,4.2651248084,4.265092,0,0,-0.447388,-0.223694,0,214.3, 3.3, -0.2,0,0,1296,1024,1024,1024,41,0,0,0,216.5,0,0,97,4.188,4.187,0,0,0,0,4.155,75.92,4.2651248084,4.265092,38,Tripod,
7900,2022-08-12 04:41:48,0,0,4.265092,,,4.2651248084,4.265092,0.3131716,0,0,0,0,8.459,4.2651248084,4.265092,0,0,-0.223694,-0.223694,0,214.3, 1.2, -0.2,0,0,1684,1024,1024,1024,100,0,0,0,216.5,0,0,97,4.188,4.187,0,0,0,0,4.155,75.92,4.2651248084,4.265092,38,Tripod,
8000,2022-08-12 04:41:48,0,0,4.265092,,,4.2651248084,4.265092,0.3131716,0,0,0,0,8.459,4.2651248084,4.265092,0,0,-0.223694,-0.223694,0,214.3, -6.8, -0.2,0,0,1684,1024,1024,1024,100,0,0,0,216.5,0,0,97,4.188,4.187,0,0,0,0,4.155,75.92,4.2651248084,4.265092,38,Tripod,
8100,2022-08-12 04:41:48,0,0,4.265092,,,4.2651248084,4.265092,0.4921268,0,0,0,0,8.459,4.2651248084,4.265092,0,0,-0.447388,-0.223694,0,214.3, -10.6, -0.1,0,0,1024,1024,1024,1024,0,0,0,0,216.5,0,0,97,4.188,4.187,0,0,0,0,4.155,75.92,4.2651248084,4.265092,38,Tripod,
8200,2022-08-12 04:41:48,0,0,4.265092,,,4.2651248084,4.265092,1.006623,0,0,0,0,8.459,4.2651248084,4.265092,0,0,-0.894776,-0.447388,0,214.2, -9, -0.1,0,0,1024,1024,1024,1024,0,0,0,0,216.5,0,0,97,4.188,4.187,0,0,0,0,4.155,75.92,4.2651248084,4.265092,38,Tripod,
8300,2022-08-12 04:41:49,0,0,4.265092,,,4.2651248084,4.265092,1.11847,0,0,0,0,8.466,4.2651248084,4.265092,0,0,-0.894776,-0.671082,0,214.1, 3, 0,0,0,1024,1024,1024,1024,0,0,0,0,216.5,0,0,97,4.229,4.223,0,0,0,0,4.13,75.92,4.2651248084,4.265092,38,Tripod,
8400,2022-08-12 04:41:49,0,0,4.265092,,,4.2651248084,4.265092,1.11847,0,0,0,0,8.466,4.2651248084,4.265092,0,0,-0.894776,-0.671082,0,214.1, 5.5, -0.2,0,0,1024,1024,1024,1024,0,0,0,0,216.5,0,0,97,4.229,4.223,0,0,0,0,4.13,75.92,4.2651248084,4.265092,38,Tripod,
8500,2022-08-12 04:41:49,0,0,4.265092,,,4.2651248084,4.265092,0.8052984,0,0,0,0,8.466,4.2651248084,4.265092,0,0,-0.671082,-0.447388,0,214.1, 5.2, -0.2,0,0,1024,1024,1024,1024,0,0,0,0,216.5,0,0,97,4.229,4.223,0,0,0,0,4.13,75.92,4.2651248084,4.265092,38,Tripod,
8600,2022-08-12 04:41:49,0,0,4.265092,,,4.2651248084,4.265092,0.4921268,0,0,0,0,8.466,4.2651248084,4.265092,0,0,-0.447388,-0.223694,0,214.2, 4.5, -0.2,0,0,1684,1024,1024,1024,100,0,0,0,216.5,0,0,97,4.229,4.223,0,0,0,0,4.13,75.92,4.2651248084,4.265092,38,Tripod,
8700,2022-08-12 04:41:49,0,0,4.265092,,,4.2651248084,4.265092,0.4921268,0,0,0,0,8.466,4.2651248084,4.265092,0,0,-0.447388,-0.223694,0,214.2, 3.3, -0.2,0,0,1684,1024,1024,1024,100,0,0,0,216.5,0,0,97,4.229,4.223,0,0,0,0,4.13,75.92,4.2651248084,4.265092,38,Tripod,
8800,2022-08-12 04:41:49,0,0,4.265092,,,4.2651248084,4.265092,0.4921268,0,0,0,0,8.466,4.2651248084,4.265092,0,0,-0.447388,-0.223694,0,214.2, -4.7, 0,0,0,1684,1024,1024,1024,100,0,0,0,216.5,0,0,97,4.229,4.223,0,0,0,0,4.13,75.92,4.2651248084,4.265092,38,Tripod,
8900,2022-08-12 04:41:49,0,0,4.265092,,,4.2651248084,4.265092,0.4921268,0,0,0,0,8.466,4.2651248084,4.265092,0,0,-0.447388,-0.223694,0,214.2, -9.8, 0.1,0,0,1453,1024,1024,1024,65,0,0,0,216.5,0,0,97,4.229,4.223,0,0,0,0,4.13,75.92,4.2651248084,4.265092,38,Tripod,
9000,2022-08-12 04:41:49,0,0,4.265092,,,4.2651248084,4.265092,1.006623,0,0,0,0,8.466,4.2651248084,4.265092,0,0,-0.894776,-0.447388,0,214.3, -10.2, 0.2,0,0,1133,1024,1024,1024,17,0,0,0,216.5,0,0,97,4.229,4.223,0,0,0,0,4.13,75.92,4.2651248084,4.265092,38,Tripod,
9100,2022-08-12 04:41:49,0,0,4.265092,,,4.2651248084,4.265092,1.2974252,0,0,0,0,8.466,4.2651248084,4.265092,0,0,-1.11847,-0.671082,0,214.2, -5.5, 0.2,0,0,1082,1024,1024,1024,9,0,0,0,216.5,0,0,97,4.229,4.223,0,0,0,0,4.13,75.92,4.2651248084,4.265092,38,Tripod,
9200,2022-08-12 04:41:49,0,0,4.265092,,,4.2651248084,4.265092,1.4316416,0,0,0,0,8.466,4.2651248084,4.265092,0,0,-1.11847,-0.894776,0,214.1, -0.9, 0,0,0,1579,1024,1024,1024,84,0,0,0,216.5,0,0,97,4.229,4.223,0,0,0,0,4.13,75.92,4.2651248084,4.265092,38,Tripod,
9300,2022-08-12 04:41:50,0,0,4.265092,,,4.2651248084,4.265092,1.4316416,0,0,0,0,8.442,4.2651248084,4.265092,0,0,-1.11847,-0.894776,0,214.1, 0.2, -0.3,0,0,1536,1024,1024,1024,78,0,0,0,216.5,0,0,97,4.216,4.221,0,0,0,0,4.168,75.92,4.2651248084,4.265092,38,Tripod,
9400,2022-08-12 04:41:50,0,0,4.265092,,,4.2651248084,4.265092,1.4316416,0,0,0,0,8.442,4.2651248084,4.265092,0,0,-1.11847,-0.894776,0,214, -5.8, -0.2,0,0,1024,1024,1024,1024,0,0,0,0,216.5,0,0,97,4.216,4.221,0,0,0,0,4.168,75.92,4.2651248084,4.265092,38,Tripod,
9500,2022-08-12 04:41:50,0,0,4.265092,,,4.2651248084,4.265092,1.6105968,0,0,0,0,8.442,4.2651248084,4.265092,0,0,-1.342164,-0.894776,0,214, -7.8, -0.4,0,0,1024,1024,1024,1024,0,0,0,0,216.5,0,0,97,4.216,4.221,0,0,0,0,4.168,75.92,4.2651248084,4.265092,38,Tripod,
9600,2022-08-12 04:41:50,0,0,4.265092,,,4.2651248084,4.265092,1.6105968,0,0,0,0,8.442,4.2651248084,4.265092,0,0,-1.565858,-1.11847,0,213.9, 2.1, -0.5,0,0,1024,1024,1024,1024,0,0,0,0,216.5,0,0,97,4.216,4.221,0,0,0,0,4.168,75.92,4.2651248084,4.265092,38,Tripod,
9700,2022-08-12 04:41:50,0,0,4.265092,,,4.2651248084,4.265092,1.6105968,0,0,0,0,8.442,4.2651248084,4.265092,0,0,-1.342164,-0.894776,0,213.9, 7.2, -0.5,0,0,1024,1024,1024,1024,0,0,0,0,216.5,0,0,97,4.216,4.221,0,0,0,0,4.168,75.92,4.2651248084,4.265092,38,Tripod,
9800,2022-08-12 04:41:50,0,0,4.265092,,,4.2651248084,4.265092,1.2974252,0,0,0,0,8.442,4.2651248084,4.265092,0,0,-1.11847,-0.671082,0,213.9, 7.7, -0.4,0,0,1024,1024,1024,1024,0,0,0,0,216.5,0,0,97,4.216,4.221,0,0,0,0,4.168,75.92,4.2651248084,4.265092,38,Tripod,
9900,2022-08-12 04:41:50,0,0,4.265092,,,4.2651248084,4.265092,1.006623,0,0,0,0,8.442,4.2651248084,4.265092,0,0,-0.894776,-0.447388,0,213.9, 6.8, -0.3,0,0,1024,1024,1024,1024,0,0,0,0,216.5,0,0,97,4.216,4.221,0,0,0,0,4.168,75.92,4.2651248084,4.265092,38,Tripod,
10000,2022-08-12 04:41:50,0,0,4.265092,,,4.2651248084,4.265092,0.8052984,0,0,0,0,8.442,4.2651248084,4.265092,0,0,-0.671082,-0.447388,0,213.9, 5.5, -0.2,0,0,1024,1024,1024,1024,0,0,0,0,216.5,0,0,97,4.216,4.221,0,0,0,0,4.168,75.92,4.2651248084,4.265092,38,Tripod,
10100,2022-08-12 04:41:50,0,0,4.265092,,,4.2651248084,4.265092,0.4921268,0,0,0,0,8.442,4.2651248084,4.265092,0,0,-0.447388,-0.223694,0,214, 4.3, -0.1,0,0,1024,1024,1024,1024,0,0,0,0,216.5,0,0,97,4.216,4.221,0,0,0,0,4.168,75.92,4.2651248084,4.265092,38,Tripod,
10200,2022-08-12 04:41:50,0,0,4.265092,,,4.2651248084,4.265092,0.223694,0,0,0,0,8.442,4.2651248084,4.265092,0,0,-0.223694,0,0,213.9, 3.2, 0,0,0,1024,1024,1024,1465,0,0,0,67,216.5,0,0,97,4.216,4.221,0,0,0,0,4.168,75.92,4.2651248084,4.265092,38,Tripod,
10300,2022-08-12 04:41:51,0,0,4.265092,,,4.2651248084,4.265092,0,0,0,0,0,8.439,4.2651248084,4.265092,0,0,0,0,0,214, 2.4, 0,0,0,1024,1024,1024,1684,0,0,0,100,216.5,0,0,97,4.222,4.218,0,0,0,0,4.082,75.92,4.2651248084,4.265092,38,Tripod,
10400,2022-08-12 04:41:51,0,0,4.265092,,,4.2651248084,4.265092,0,0,0,0,0,8.439,4.2651248084,4.265092,0,0,0,0,0,214.1, 1.6, 0,0,0,1024,1024,1024,1024,0,0,0,0,217,0,0,97,4.222,4.218,0,0,0,0,4.082,75.92,4.2651248084,4.265092,38,Tripod,
10500,2022-08-12 04:41:51,0,0,4.265092,,,4.2651248084,4.265092,0,0,0,0,0,8.439,4.2651248084,4.265092,0,0,0,0,0,215, 1.2, 0,0,0,1024,1024,1024,1024,0,0,0,0,218.4,0,0,97,4.222,4.218,0,0,0,0,4.082,75.92,4.2651248084,4.265092,38,Tripod,
10600,2022-08-12 04:41:51,0,0,4.265092,,,4.2651248084,3.937008,0,0,0,0,0,8.439,4.2651248084,4.265092,0,0,0,0,0,216.5, 1, 0,0,0,1024,1024,1024,1024,0,0,0,0,220,0,0,97,4.222,4.218,0,0,0,0,4.082,75.92,4.2651248084,4.265092,38,Tripod,
10700,2022-08-12 04:41:51,0,0,4.265092,,,4.2651248084,3.937008,0,0,0,0,0,8.439,4.2651248084,4.265092,0,0,0,0,0,217.8, 0.9, -0.1,0,0,1024,1024,1024,1024,0,0,0,0,221.1,0,0,97,4.222,4.218,0,0,0,0,4.082,75.92,4.2651248084,4.265092,38,Tripod,
10800,2022-08-12 04:41:51,0,0,4.265092,,,4.2651248084,3.937008,0,0,0,0,0,8.439,4.2651248084,4.265092,0,0,0,0,0,218.7, 0.8, 0,0,0,1024,1024,1024,1304,0,0,0,42,221.8,0,0,97,4.222,4.218,0,0,0,0,4.082,75.92,4.2651248084,4.265092,38,Tripod,
10900,2022-08-12 04:41:51,0,0,4.265092,,,4.2651248084,3.937008,0,0,0,0,0,8.439,4.2651248084,4.265092,0,0,0,0,0,219.4, 0.7, 0,0,0,1024,1024,1024,1024,0,0,0,0,222.4,0,0,97,4.222,4.218,0,0,0,0,4.082,75.92,4.2651248084,4.265092,38,Tripod,
11000,2022-08-12 04:41:51,0,0,4.265092,,,4.2651248084,3.937008,0,0,0,0,0,8.439,4.2651248084,4.265092,0,0,0,0,0,219.9, 1.1, -0.1,0,0,1440,1024,1024,1024,63,0,0,0,222.8,0,0,97,4.222,4.218,0,0,0,0,4.082,75.92,4.2651248084,4.265092,38,Tripod,
11100,2022-08-12 04:41:51,0,0,4.265092,,,4.2651248084,3.937008,0,0,0,0,0,8.439,4.2651248084,4.265092,0,0,0,0,0,220.3, 0.8, 0,0,0,1684,1024,1024,1024,100,0,0,0,223.2,0,0,97,4.222,4.218,0,0,0,0,4.082,75.92,4.2651248084,4.265092,38,Tripod,
11200,2022-08-12 04:41:51,0,0,4.265092,,,4.2651248084,3.937008,0,0,0,0,0,8.439,4.2651248084,4.265092,0,0,0,0,0,220.6, -6, 0.2,0,0,1590,1024,1024,1024,86,0,0,0,223.4,0,0,97,4.222,4.218,0,0,0,0,4.082,75.92,4.2651248084,4.265092,38,Tripod,
11300,2022-08-12 04:41:52,0,0,4.265092,,,4.2651248084,3.937008,0.3131716,0,0,0,0,8.438,4.2651248084,4.265092,0,0,-0.223694,-0.223694,0,220.8, -10.6, 0.1,0,0,1024,1024,1024,1024,0,0,0,0,223.5,0,0,97,4.22,4.216,0,0,0,0,4.039,75.92,4.2651248084,4.265092,38,Tripod,
11400,2022-08-12 04:41:52,0,0,4.265092,,,4.2651248084,3.937008,0.6263432,0,0,0,0,8.438,4.2651248084,4.265092,0,0,-0.447388,-0.447388,0,220.9, -10.8, 0,0,0,1024,1024,1024,1024,0,0,0,0,223.5,0,0,97,4.22,4.216,0,0,0,0,4.039,75.92,4.2651248084,4.265092,38,Tripod,
11500,2022-08-12 04:41:52,0,0,4.265092,,,4.2651248084,3.937008,0.9395148,0,0,0,0,8.438,4.2651248084,4.265092,0,0,-0.671082,-0.671082,0,220.8, 1, 0,0,0,1024,1024,1024,1024,0,0,0,0,223.5,0,0,97,4.22,4.216,0,0,0,0,4.039,75.92,4.2651248084,4.265092,38,Tripod,
11600,2022-08-12 04:41:52,0,0,4.265092,,,4.2651248084,3.937008,0.8052984,0,0,0,0,8.438,4.2651248084,4.265092,0,0,-0.671082,-0.447388,0,220.8, 4.2, 0,0,0,1282,849,1024,1024,39,-27,0,0,223.5,0,0,97,4.22,4.216,0,0,0,0,4.039,75.92,4.2651248084,4.265092,38,Tripod,
11700,2022-08-12 04:41:52,0,0,4.265092,,,4.2651248084,3.937008,0.6263432,0,0,0,0,8.438,4.2651248084,4.265092,0,0,-0.447388,-0.447388,0,220.8, 2.5, -0.6,0,0,1641,877,1024,1024,93,-22,0,0,223.5,0,0,97,4.22,4.216,0,0,0,0,4.039,75.92,4.2651248084,4.265092,38,Tripod,
11800,2022-08-12 04:41:52,0,0,4.265092,,,4.2651248084,3.937008,0.6263432,0,0,0,0,8.438,4.2651248084,4.265092,0,0,-0.447388,-0.447388,0,221, -4.7, -1.5,0,0,1024,1024,1024,1024,0,0,0,0,223.5,0,0,97,4.22,4.216,0,0,0,0,4.039,75.92,4.2651248084,4.265092,38,Tripod,
11900,2022-08-12 04:41:52,0,0,4.265092,,,4.2651248084,3.937008,0.8052984,0,0,0,0,8.438,4.2651248084,4.265092,0,0,-0.671082,-0.447388,0,221, -7.3, -0.8,0,0,1024,1024,1024,1024,0,0,0,0,223.5,0,0,97,4.22,4.216,0,0,0,0,4.039,75.92,4.2651248084,4.265092,38,Tripod,
12000,2022-08-12 04:41:52,0,0,4.265092,,,4.2651248084,3.937008,0.8052984,0,0,0,0,8.438,4.2651248084,4.265092,0,0,-0.671082,-0.447388,0,220.9, 2.9, 0.2,0,0,1024,1024,1024,1024,0,0,0,0,223.5,0,0,97,4.22,4.216,0,0,0,0,4.039,75.92,4.2651248084,4.265092,38,Tripod,
12100,2022-08-12 04:41:52,0,0,4.265092,,,4.2651248084,3.937008,0.8052984,0,0,0,0,8.438,4.2651248084,4.265092,0,0,-0.671082,-0.447388,0,220.9, 4.6, 0.5,0,0,1144,1024,1024,1024,18,0,0,0,223.5,0,0,97,4.22,4.216,0,0,0,0,4.039,75.92,4.2651248084,4.265092,38,Tripod,
12200,2022-08-12 04:41:52,0,0,4.265092,,,4.2651248084,3.937008,0.6263432,0,0,0,0,8.438,4.2651248084,4.265092,0,0,-0.447388,-0.447388,0,221, 4.3, 0.4,0,0,1684,1024,1024,1024,100,0,0,0,223.5,0,0,97,4.22,4.216,0,0,0,0,4.039,75.92,4.2651248084,4.265092,38,Tripod,
12300,2022-08-12 04:41:53,0,0,4.265092,,,4.2651248084,3.937008,0.4921268,0,0,0,0,8.431,4.2651248084,4.265092,0,0,-0.447388,-0.223694,0,220.9, 2.4, 0.3,0,0,1684,1024,1024,1024,100,0,0,0,223.5,0,0,97,4.215,4.21,0,0,0,0,4.081,76.1,4.2651248084,4.265092,38,Tripod,
12400,2022-08-12 04:41:53,0,0,4.265092,,,4.2651248084,3.937008,0.4921268,0,0,0,0,8.431,4.2651248084,4.265092,0,0,-0.447388,-0.223694,0,220.9, -6.2, 0.1,0,0,1684,1024,1024,1024,100,0,0,0,223.5,0,0,97,4.215,4.21,0,0,0,0,4.081,76.1,4.2651248084,4.265092,38,Tripod,
12500,2022-08-12 04:41:53,0,0,4.265092,,,4.2651248084,3.937008,0.6263432,0,0,0,0,8.431,4.2651248084,4.265092,0,0,-0.447388,-0.447388,0,220.9, -10.3, 0,0,0,1203,1024,1024,1024,27,0,0,0,223.5,0,0,97,4.215,4.21,0,0,0,0,4.081,76.1,4.2651248084,4.265092,38,Tripod,
12600,2022-08-12 04:41:53,0,0,4.265092,,,4.2651248084,3.937008,0.9395148,0,0,0,0,8.431,4.2651248084,4.265092,0,0,-0.671082,-0.671082,0,220.9, -8.5, 0,0,0,1024,1024,1024,1024,0,0,0,0,223.5,0,0,97,4.215,4.21,0,0,0,0,4.081,76.1,4.2651248084,4.265092,38,Tripod,
12700,2022-08-12 04:41:53,0,0,4.265092,,,4.2651248084,3.937008,1.2750558,0,0,0,0,8.431,4.2651248084,4.265092,0,0,-0.894776,-0.894776,0,220.8, 2, -0.3,0,0,1451,985,1024,1024,65,-6,0,0,223.5,0,0,97,4.215,4.21,0,0,0,0,4.081,76.1,4.2651248084,4.265092,38,Tripod,
12800,2022-08-12 04:41:53,0,0,4.265092,,,4.2651248084,3.937008,1.2750558,0,0,0,0,8.431,4.2651248084,4.265092,0,0,-0.894776,-0.894776,0,220.8, 2.9, -0.5,0,0,1682,1014,1024,1024,100,-2,0,0,223.5,0,0,97,4.215,4.21,0,0,0,0,4.081,76.1,4.2651248084,4.265092,38,Tripod,
12900,2022-08-12 04:41:53,0,0,4.265092,,,4.2651248084,3.937008,1.11847,0,0,0,0,8.431,4.2651248084,4.265092,0,0,-0.894776,-0.671082,0,220.9, -3.7, -0.7,0,0,1267,1024,1024,1024,37,0,0,0,223.5,0,0,97,4.215,4.21,0,0,0,0,4.081,76.1,4.2651248084,4.265092,38,Tripod,
13000,2022-08-12 04:41:53,0,0,4.265092,,,4.2651248084,3.937008,1.2750558,0,0,0,0,8.431,4.2651248084,4.265092,0,0,-0.894776,-0.894776,0,221, -8.7, -0.5,0,0,1024,1024,1024,1024,0,0,0,0,223.5,0,0,97,4.215,4.21,0,0,0,0,4.081,76.1,4.2651248084,4.265092,38,Tripod,
13100,2022-08-12 04:41:53,0,0,4.265092,,,4.2651248084,3.937008,1.5882274,0,0,0,0,8.431,4.2651248084,4.265092,0,0,-1.11847,-1.11847,0,220.9, -6.5, -0.5,0,0,1024,1024,1024,1024,0,0,0,0,223.5,0,0,97,4.215,4.21,0,0,0,0,4.081,76.1,4.2651248084,4.265092,38,Tripod,
13200,2022-08-12 04:41:53,0,0,4.265092,,,4.2651248084,3.937008,1.5882274,0,0,0,0,8.431,4.2651248084,4.265092,0,0,-1.11847,-1.11847,0,220.8, 4.5, -0.4,0,0,1024,1024,1024,1024,0,0,0,0,223.5,0,0,97,4.215,4.21,0,0,0,0,4.081,76.1,4.2651248084,4.265092,38,Tripod,
13300,2022-08-12 04:41:54,0,0,4.265092,,,4.2651248084,3.937008,1.4316416,0,0,0,0,8.428,4.2651248084,4.265092,0,0,-1.11847,-0.894776,0,220.8, 7.6, -0.2,0,0,1024,1024,1024,1024,0,0,0,0,223.5,0,0,97,4.217,4.212,0,0,0,0,4.153,76.1,4.2651248084,4.265092,38,Tripod,
13400,2022-08-12 04:41:54,0,0,4.265092,,,4.2651248084,3.937008,1.11847,0,0,0,0,8.428,4.2651248084,4.265092,0,0,-0.894776,-0.671082,0,220.9, 7.4, 0,0,0,1024,1024,1024,1024,0,0,0,0,223.5,0,0,97,4.217,4.212,0,0,0,0,4.153,76.1,4.2651248084,4.265092,38,Tripod,
13500,2022-08-12 04:41:54,0,0,4.265092,,,4.2651248084,3.937008,0.6263432,0,0,0,0,8.428,4.2651248084,4.265092,0,0,-0.447388,-0.447388,0,220.9, 6.3, 0,0,0,1024,1024,1024,1024,0,0,0,0,223.5,0,0,97,4.217,4.212,0,0,0,0,4.153,76.1,4.2651248084,4.265092,38,Tripod,
13600,2022-08-12 04:41:54,0,0,4.265092,,,4.2651248084,3.937008,0.4921268,0,0,0,0,8.428,4.2651248084,4.265092,0,0,-0.447388,-0.223694,0,220.9, 5, 0,0,0,1024,1024,1024,1024,0,0,0,0,223.5,0,0,97,4.217,4.212,0,0,0,0,4.153,76.1,4.2651248084,4.265092,38,Tripod,
13700,2022-08-12 04:41:54,0,0,4.265092,,,4.2651248084,3.937008,0.3131716,0,0,0,0,8.428,4.2651248084,4.265092,0,0,-0.223694,-0.223694,0,220.9, 3.7, 0,0,0,1024,1024,1024,1024,0,0,0,0,223.5,0,0,97,4.217,4.212,0,0,0,0,4.153,76.1,4.2651248084,4.265092,38,Tripod,
13800,2022-08-12 04:41:54,0,0,4.265092,,,4.2651248084,3.937008,0,0,0,0,0,8.428,4.2651248084,4.265092,0,0,0,0,0,220.8, 2.7, 0.1,0,0,1024,1024,1030,957,0,0,1,-10,223.5,0,0,97,4.217,4.212,0,0,0,0,4.153,76.1,4.2651248084,4.265092,38,Tripod,
13900,2022-08-12 04:41:54,0,0,4.265092,,,4.2651248084,3.937008,0,0,0,0,0,8.428,4.2651248084,4.265092,0,0,0,0,0,220.8, 2, 0.1,0,0,1024,1024,1024,1024,0,0,0,0,223.5,0,0,97,4.217,4.212,0,0,0,0,4.153,76.1,4.2651248084,4.265092,38,Tripod,
14000,2022-08-12 04:41:54,0,0,4.593176,,,4.5932088084,3.937008,0,0,0,0,0,8.428,4.5932088084,4.593176,0,0,0,0,0,220.8, 1.5, 0.1,0,0,1024,1024,1024,1024,0,0,0,0,223.4,0,0,97,4.217,4.212,0,0,0,0,4.153,76.1,4.5932088084,4.593176,38,Tripod,
14100,2022-08-12 04:41:54,0,0,4.593176,,,4.5932088084,3.937008,0,0,0,0,0,8.428,4.5932088084,4.593176,0,0,0,0,0,220.8, 1.2, 0.1,0,0,1024,1024,1024,1024,0,0,0,0,223.4,0,0,97,4.217,4.212,0,0,0,0,4.153,76.1,4.5932088084,4.593176,38,Tripod,
14200,2022-08-12 04:41:54,0,0,4.593176,,,4.5932088084,3.937008,0,0,0,0,0,8.428,4.5932088084,4.593176,0,0,0,0,0,220.8, 1.1, -0.1,0,0,1024,1024,1024,1024,0,0,0,0,223.4,0,0,97,4.217,4.212,0,0,0,0,4.153,76.1,4.5932088084,4.593176,38,Tripod,
14300,2022-08-12 04:41:55,0,0,4.593176,,,4.5932088084,3.937008,0,0,0,0,0,8.418,4.5932088084,4.593176,0,0,0,0,0,220.8, 0.7, 0,0,0,1024,1024,1024,392,0,0,0,-96,223.4,0,0,97,4.211,4.208,0,0,0,0,4.094,76.1,4.5932088084,4.593176,38,Tripod,
14400,2022-08-12 04:41:55,0,0,4.593176,,,4.5932088084,4.265092,0,0,0,0,0,8.418,4.5932088084,4.593176,0,0,0,0,0,220.7, 0.4, 0,0,0,1024,1024,1024,1024,0,0,0,0,223,0,0,97,4.211,4.208,0,0,0,0,4.094,76.1,4.5932088084,4.593176,38,Tripod,
14500,2022-08-12 04:41:55,0,0,4.593176,,,4.5932088084,4.265092,0,0,0,0,0,8.418,4.5932088084,4.593176,0,0,0,0,0,220.1, 0.1, 0.1,0,0,1024,1024,1024,1024,0,0,0,0,222.3,0,0,97,4.211,4.208,0,0,0,0,4.094,76.1,4.5932088084,4.593176,38,Tripod,
14600,2022-08-12 04:41:55,0,0,4.593176,,,4.5932088084,4.265092,0,0,0,0,0,8.418,4.5932088084,4.593176,0,0,0,0,0,219.5, 0, 0.1,0,0,1024,1024,1024,1024,0,0,0,0,221.8,0,0,97,4.211,4.208,0,0,0,0,4.094,76.1,4.5932088084,4.593176,38,Tripod,
14700,2022-08-12 04:41:55,0,0,4.593176,,,4.5932088084,4.265092,0,0,0,0,0,8.418,4.5932088084,4.593176,0,0,0,0,0,219, -0.2, 0.1,0,0,1024,1024,1024,1024,0,0,0,0,221.5,0,0,97,4.211,4.208,0,0,0,0,4.094,76.1,4.5932088084,4.593176,38,Tripod,
14800,2022-08-12 04:41:55,0,0,4.593176,,,4.5932088084,4.265092,0,0,0,0,0,8.418,4.5932088084,4.593176,0,0,0,0,0,218.8, -0.1, 0.1,0,0,1684,1024,1024,1024,100,0,0,0,221.3,0,0,97,4.211,4.208,0,0,0,0,4.094,76.1,4.5932088084,4.593176,38,Tripod,
14900,2022-08-12 04:41:55,0,0,4.593176,,,4.5932088084,4.265092,0,0,0,0,0,8.418,4.5932088084,4.593176,0,0,0,0,0,218.7, -0.3, 0,0,0,1684,1024,1024,1024,100,0,0,0,221.3,0,0,97,4.211,4.208,0,0,0,0,4.094,76.1,4.5932088084,4.593176,38,Tripod,
15000,2022-08-12 04:41:55,0,0,4.593176,,,4.5932088084,3.937008,0,0,0,0,0,8.418,4.5932088084,4.593176,0,0,0,0,0,218.7, -7.7, 0.3,0,0,1587,1024,1024,1024,85,0,0,0,221.3,0,0,97,4.211,4.208,0,0,0,0,4.094,76.1,4.5932088084,4.593176,38,Tripod,
15100,2022-08-12 04:41:55,0,0,4.593176,,,4.5932088084,3.937008,0.223694,0,0,0,0,8.418,4.5932088084,4.593176,0,0,-0.223694,0,0,218.7, -11.4, 0.2,0,0,1024,1024,1024,1024,0,0,0,0,221.3,0,0,97,4.211,4.208,0,0,0,0,4.094,76.1,4.5932088084,4.593176,38,Tripod,
15200,2022-08-12 04:41:55,0,0,4.593176,,,4.5932088084,3.937008,0.6263432,0,0,0,0,8.418,4.5932088084,4.593176,0,0,-0.447388,-0.447388,0,218.7, -11.3, 0,0,0,1024,1024,1024,1024,0,0,0,0,221.3,0,0,97,4.211,4.208,0,0,0,0,4.094,76.1,4.5932088084,4.593176,38,Tripod,
15300,2022-08-12 04:41:56,0,0,4.593176,,,4.5932088084,3.937008,0.9395148,0,0,0,0,8.419,4.5932088084,4.593176,0,0,-0.671082,-0.671082,0,218.6, -3.7, 0,0,0,1024,1024,1024,1024,0,0,0,0,221.3,0,0,97,4.213,4.206,0,0,0,0,4.034,76.1,4.5932088084,4.593176,38,Tripod,
15400,2022-08-12 04:41:56,0,0,4.593176,,,4.5932088084,3.937008,1.11847,0,0,0,0,8.419,4.5932088084,4.593176,0,0,-0.894776,-0.671082,0,218.6, 4.4, 0.1,0,0,1024,1024,1024,1024,0,0,0,0,221.3,0,0,97,4.213,4.206,0,0,0,0,4.034,76.1,4.5932088084,4.593176,38,Tripod,
15500,2022-08-12 04:41:56,0,0,4.593176,,,4.5932088084,3.937008,0.8052984,0,0,0,0,8.419,4.5932088084,4.593176,0,0,-0.671082,-0.447388,0,218.6, 5.7, 0,0,0,1504,959,1024,1024,73,-10,0,0,221.3,0,0,97,4.213,4.206,0,0,0,0,4.034,76.1,4.5932088084,4.593176,38,Tripod,
15600,2022-08-12 04:41:56,0,0,4.593176,,,4.5932088084,3.937008,0.6263432,0,0,0,0,8.419,4.5932088084,4.593176,0,0,-0.447388,-0.447388,0,218.6, 3.9, -0.1,0,0,1684,962,1024,1024,100,-9,0,0,221.3,0,0,97,4.213,4.206,0,0,0,0,4.034,76.1,4.5932088084,4.593176,38,Tripod,
15700,2022-08-12 04:41:56,0,0,4.593176,,,4.5932088084,3.937008,0.4921268,0,0,0,0,8.419,4.5932088084,4.593176,0,0,-0.447388,-0.223694,0,218.7, -4.9, -0.6,0,0,1596,1024,1024,1024,87,0,0,0,221.3,0,0,97,4.213,4.206,0,0,0,0,4.034,76.1,4.5932088084,4.593176,38,Tripod,
15800,2022-08-12 04:41:56,0,0,4.593176,,,4.5932088084,3.937008,0.8052984,0,0,0,0,8.419,4.5932088084,4.593176,0,0,-0.671082,-0.447388,0,218.8, -9.9, -0.2,0,0,1024,1024,1024,1024,0,0,0,0,221.3,0,0,97,4.213,4.206,0,0,0,0,4.034,76.1,4.5932088084,4.593176,38,Tripod,
15900,2022-08-12 04:41:56,0,0,4.593176,,,4.5932088084,4.265092,1.11847,0,0,0,0,8.419,4.5932088084,4.593176,0,0,-0.894776,-0.671082,0,218.7, -9.6, 0.5,0,0,1024,1024,1024,1024,0,0,0,0,221.3,0,0,97,4.213,4.206,0,0,0,0,4.034,76.1,4.5932088084,4.593176,38,Tripod,
16000,2022-08-12 04:41:56,0,0,4.593176,,,4.5932088084,4.265092,1.2974252,0,0,0,0,8.419,4.5932088084,4.593176,0,0,-1.11847,-0.671082,0,218.6, 1.7, 0.4,0,0,1024,1024,1024,1024,0,0,0,0,221.3,0,0,97,4.213,4.206,0,0,0,0,4.034,76.1,4.5932088084,4.593176,38,Tripod,
16100,2022-08-12 04:41:56,0,0,4.593176,,,4.5932088084,4.265092,1.2974252,0,0,0,0,8.419,4.5932088084,4.593176,0,0,-1.11847,-0.671082,0,218.5, 6.1, 0,0,0,1024,1024,1024,1024,0,0,0,0,221.3,0,0,97,4.213,4.206,0,0,0,0,4.034,76.1,4.5932088084,4.593176,38,Tripod,
16200,2022-08-12 04:41:56,0,0,4.593176,,,4.5932088084,4.265092,1.006623,0,0,0,0,8.419,4.5932088084,4.593176,0,0,-0.894776,-0.447388,0,218.7, 6.6, -0.3,0,0,1024,1024,1024,1024,0,0,0,0,221.3,0,0,97,4.213,4.206,0,0,0,0,4.034,76.1,4.5932088084,4.593176,38,Tripod,
16300,2022-08-12 04:41:57,0,0,4.593176,,,4.5932088084,4.265092,0.8052984,0,0,0,0,8.407,4.5932088084,4.593176,0,0,-0.671082,-0.447388,0,218.8, 5.7, 0,0,0,1041,1024,1024,1024,3,0,0,0,221.3,0,0,97,4.207,4.203,0,0,0,0,4.124,76.28,4.5932088084,4.593176,38,Tripod,
16400,2022-08-12 04:41:57,0,0,4.593176,,,4.5932088084,4.265092,0.4921268,0,0,0,0,8.407,4.5932088084,4.593176,0,0,-0.447388,-0.223694,0,218.7, 4.8, 0.5,0,0,1063,1024,1024,1024,6,0,0,0,221.3,0,0,97,4.207,4.203,0,0,0,0,4.124,76.28,4.5932088084,4.593176,38,Tripod,
16500,2022-08-12 04:41:57,0,0,4.593176,,,4.5932088084,3.937008,0.223694,0,0,0,0,8.407,4.5932088084,4.593176,0,0,-0.223694,0,0,218.7, 3.1, 0.7,0,0,1024,1024,1024,1024,0,0,0,0,221.3,0,0,97,4.207,4.203,0,0,0,0,4.124,76.28,4.5932088084,4.593176,38,Tripod,
16600,2022-08-12 04:41:57,0,0,4.593176,,,4.5932088084,3.937008,0.223694,0,0,0,0,8.407,4.5932088084,4.593176,0,0,-0.223694,0,0,218.8, 2.6, 0.5,0,0,1024,1024,1024,622,0,0,0,-61,221.3,0,0,97,4.207,4.203,0,0,0,0,4.124,76.28,4.5932088084,4.593176,38,Tripod,
16700,2022-08-12 04:41:57,0,0,4.593176,,,4.5932088084,3.937008,0,0,0,0,0,8.407,4.5932088084,4.593176,0,0,0,0,0,218.8, 2.2, 0.6,0,0,1024,1024,1024,663,0,0,0,-55,221.3,0,0,97,4.207,4.203,0,0,0,0,4.124,76.28,4.5932088084,4.593176,38,Tripod,
16800,2022-08-12 04:41:57,0,0,4.593176,,,4.5932088084,3.937008,0,0,0,0,0,8.407,4.5932088084,4.593176,0,0,0,0,0,218.5, 1.7, 1,0,0,1024,1024,1024,1024,0,0,0,0,220.8,0,0,97,4.207,4.203,0,0,0,0,4.124,76.28,4.5932088084,4.593176,38,Tripod,
16900,2022-08-12 04:41:57,0,0,4.593176,,,4.5932088084,3.937008,0,0,0,0,0,8.407,4.5932088084,4.593176,0,0,0,0,0,217.8, 1.2, 0.9,0,0,1024,1024,1024,1024,0,0,0,0,220,0,0,97,4.207,4.203,0,0,0,0,4.124,76.28,4.5932088084,4.593176,38,Tripod,
17000,2022-08-12 04:41:57,0,0,4.593176,,,4.5932088084,3.937008,0,0,0,0,0,8.407,4.5932088084,4.593176,0,0,0,0,0,217.2, 0.7, 0.9,0,0,1024,1024,1024,1024,0,0,0,0,219.4,0,0,97,4.207,4.203,0,0,0,0,4.124,76.28,4.5932088084,4.593176,38,Tripod,
17100,2022-08-12 04:41:57,0,0,4.593176,,,4.5932088084,3.937008,0,0,0,0,0,8.407,4.5932088084,4.593176,0,0,0,0,0,216.7, 0.7, 0.3,0,0,1024,1024,1024,1024,0,0,0,0,219,0,0,97,4.207,4.203,0,0,0,0,4.124,76.28,4.5932088084,4.593176,38,Tripod,
17200,2022-08-12 04:41:57,0,0,4.593176,,,4.5932088084,3.937008,0,0,0,0,0,8.407,4.5932088084,4.593176,0,0,0,0,0,216.3, -0.1, 0,0,0,1024,1024,1024,1024,0,0,0,0,218.9,0,0,97,4.207,4.203,0,0,0,0,4.124,76.28,4.5932088084,4.593176,38,Tripod,
17300,2022-08-12 04:41:58,0,0,4.593176,,,4.5932088084,3.937008,0,0,0,0,0,8.407,4.5932088084,4.593176,0,0,0,0,0,216.1, -0.1, -0.3,0,0,1024,1024,1024,1003,0,0,0,-3,218.8,0,0,97,4.208,4.202,0,0,0,0,4.109,76.28,4.5932088084,4.593176,38,Tripod,
17400,2022-08-12 04:41:58,0,0,4.593176,,,4.5932088084,3.937008,0,0,0,0,0,8.407,4.5932088084,4.593176,0,0,0,0,0,216.1, -0.3, -0.1,0,0,1024,1024,1024,502,0,0,0,-79,218.8,0,0,97,4.208,4.202,0,0,0,0,4.109,76.28,4.5932088084,4.593176,38,Tripod,
17500,2022-08-12 04:41:58,0,0,4.593176,,,4.5932088084,3.937008,0,0,0,0,0,8.407,4.5932088084,4.593176,0,0,0,0,0,216.1, -0.3, 0,0,0,1024,1024,1024,1024,0,0,0,0,218.5,0,0,97,4.208,4.202,0,0,0,0,4.109,76.28,4.5932088084,4.593176,38,Tripod,
17600,2022-08-12 04:41:58,0,0,4.593176,,,4.5932088084,3.937008,0,0,0,0,0,8.407,4.5932088084,4.593176,0,0,0,0,0,215.5, -0.2, -0.3,0,0,1024,1024,1024,1024,0,0,0,0,217.7,0,0,97,4.208,4.202,0,0,0,0,4.109,76.28,4.5932088084,4.593176,38,Tripod,
17700,2022-08-12 04:41:58,0,0,4.593176,,,4.5932088084,3.937008,0,0,0,0,0,8.407,4.5932088084,4.593176,0,0,0,0,0,214.8, -0.4, -0.2,0,0,1024,1024,1024,1024,0,0,0,0,217,0,0,97,4.208,4.202,0,0,0,0,4.109,76.28,4.5932088084,4.593176,38,Tripod,
17800,2022-08-12 04:41:58,0,0,4.593176,,,4.5932088084,3.937008,0,0,0,0,0,8.407,4.5932088084,4.593176,0,0,0,0,0,214.2, -0.2, 0.1,0,0,1122,1007,1024,1024,15,-3,0,0,216.5,0,0,97,4.208,4.202,0,0,0,0,4.109,76.28,4.5932088084,4.593176,38,Tripod,
17900,2022-08-12 04:41:58,0,0,4.593176,,,4.5932088084,3.937008,0,0,0,0,0,8.407,4.5932088084,4.593176,0,0,0,0,0,213.8, -0.3, 0,0,0,1684,1024,1024,1024,100,0,0,0,216.2,0,0,97,4.208,4.202,0,0,0,0,4.109,76.28,4.5932088084,4.593176,38,Tripod,
18000,2022-08-12 04:41:58,0,0,4.593176,,,4.5932088084,3.937008,0,0,0,0,0,8.407,4.5932088084,4.593176,0,0,0,0,0,213.5, -0.9, 0.1,0,0,1684,1024,1024,1024,100,0,0,0,216.2,0,0,97,4.208,4.202,0,0,0,0,4.109,76.28,4.5932088084,4.593176,38,Tripod,
18100,2022-08-12 04:41:58,0,0,4.593176,,,4.5932088084,3.937008,0,0,0,0,0,8.407,4.5932088084,4.593176,0,0,0,0,0,213.4, -7.6, 0,0,0,1684,1024,1024,1024,100,0,0,0,216.2,0,0,97,4.208,4.202,0,0,0,0,4.109,76.28,4.5932088084,4.593176,38,Tripod,
18200,2022-08-12 04:41:58,0,0,4.593176,,,4.5932088084,3.937008,0.3131716,0,0,0,0,8.407,4.5932088084,4.593176,0,0,-0.223694,-0.223694,0,213.4, -11.3, 0,0,0,1684,1024,1024,1024,100,0,0,0,216.2,0,0,97,4.208,4.202,0,0,0,0,4.109,76.28,4.5932088084,4.593176,38,Tripod,
18300,2022-08-12 04:41:59,0,0,4.593176,,,4.5932088084,3.937008,0.8052984,0,0,0,0,8.407,4.5932088084,4.593176,0,0,-0.671082,-0.447388,0,213.3, -12.1, -0.2,0,0,1684,1024,1024,1024,100,0,0,0,216.2,0,0,97,4.204,4.199,0,0,0,0,3.999,76.46,4.5932088084,4.593176,38,Tripod,
18400,2022-08-12 04:41:59,0,0,4.593176,,,4.5932088084,3.937008,1.11847,0,0,0,0,8.407,4.5932088084,4.593176,0,0,-0.894776,-0.671082,0,213.5, -12.2, -0.1,0,0,1684,1024,1024,1024,100,0,0,0,216.2,0,0,97,4.204,4.199,0,0,0,0,3.999,76.46,4.5932088084,4.593176,38,Tripod,
18500,2022-08-12 04:41:59,0,0,4.593176,,,4.5932088084,3.937008,1.6105968,0,0,0,0,8.407,4.5932088084,4.593176,0,0,-1.342164,-0.894776,0,213.6, -12.2, 0.3,0,0,1684,1024,1024,1024,100,0,0,0,216.2,0,0,97,4.204,4.199,0,0,0,0,3.999,76.46,4.5932088084,4.593176,38,Tripod,
18600,2022-08-12 04:41:59,0,0,4.593176,,,4.5932088084,3.937008,2.1027236,0,0,0,0,8.407,4.5932088084,4.593176,0,0,-1.789552,-1.11847,0,213.7, -12.2, 0.8,0,0,1218,1024,1024,1024,29,0,0,0,216.2,0,0,97,4.204,4.199,0,0,0,0,3.999,76.46,4.5932088084,4.593176,38,Tripod,
18700,2022-08-12 04:41:59,0,0,4.593176,,,4.5932088084,3.937008,2.4158952,0,0,0,0,8.407,4.5932088084,4.593176,0,0,-2.013246,-1.342164,0,213.7, -11.8, 0.3,0,0,1024,1024,1024,1024,0,0,0,0,216.2,0,0,97,4.204,4.199,0,0,0,0,3.999,76.46,4.5932088084,4.593176,38,Tripod,
18800,2022-08-12 04:41:59,0,0,4.593176,,,4.5932088084,3.937008,2.908022,0,0,0,0,8.407,4.5932088084,4.593176,0,0,-2.460634,-1.565858,0,213.7, -3.8, 0,0,0,1024,1024,1024,1024,0,0,0,0,216.2,0,0,97,4.204,4.199,0,0,0,0,3.999,76.46,4.5932088084,4.593176,38,Tripod,
18900,2022-08-12 04:41:59,0,0,4.593176,,,4.5932088084,3.937008,2.7290668,0,0,0,0,8.407,4.5932088084,4.593176,0,0,-2.23694,-1.565858,0,213.6, 10.5, 0,0,0,1024,1024,1024,1024,0,0,0,0,216.2,0,0,97,4.204,4.199,0,0,0,0,3.999,76.46,4.5932088084,4.593176,38,Tripod,
19000,2022-08-12 04:41:59,0,0,4.593176,,,4.5932088084,3.937008,2.23694,0,0,0,0,8.407,4.5932088084,4.593176,0,0,-1.789552,-1.342164,0,213.6, 12.7, -0.1,0,0,1024,1024,1024,1024,0,0,0,0,216.2,0,0,97,4.204,4.199,0,0,0,0,3.999,76.46,4.5932088084,4.593176,38,Tripod,
19100,2022-08-12 04:41:59,0,0,4.593176,,,4.5932088084,3.937008,1.6105968,0,0,0,0,8.407,4.5932088084,4.593176,0,0,-1.342164,-0.894776,0,213.5, 11.3, -0.3,0,0,1024,1024,1024,1024,0,0,0,0,216.2,0,0,97,4.204,4.199,0,0,0,0,3.999,76.46,4.5932088084,4.593176,38,Tripod,
19200,2022-08-12 04:41:59,0,0,4.593176,,,4.5932088084,3.937008,1.11847,0,0,0,0,8.407,4.5932088084,4.593176,0,0,-0.894776,-0.671082,0,213.6, 9.2, -0.5,0,0,1024,1024,1024,1024,0,0,0,0,216.2,0,0,97,4.204,4.199,0,0,0,0,3.999,76.46,4.5932088084,4.593176,38,Tripod,
19300,2022-08-12 04:42:00,0,0,4.593176,,,4.5932088084,3.937008,0.8052984,0,0,0,0,8.395,4.5932088084,4.593176,0,0,-0.671082,-0.447388,0,213.6, 7.1, -0.3,0,0,1024,1024,1024,1024,0,0,0,0,216.2,0,0,96,4.201,4.197,0,0,0,0,4.118,76.46,4.5932088084,4.593176,38,Tripod,
19400,2022-08-12 04:42:00,0,0,4.593176,,,4.5932088084,3.937008,0.4921268,0,0,0,0,8.395,4.5932088084,4.593176,0,0,-0.447388,-0.223694,0,213.6, 5.3, -0.1,0,0,1024,1024,1024,1024,0,0,0,0,216.2,0,0,96,4.201,4.197,0,0,0,0,4.118,76.46,4.5932088084,4.593176,38,Tripod,
19500,2022-08-12 04:42:00,0,0,4.593176,,,4.5932088084,3.937008,0.4921268,0,0,0,0,8.395,4.5932088084,4.593176,0,0,-0.223694,-0.223694,0,213.5, 4, 0,0,0,1024,1024,1024,376,0,0,0,-98,216.2,0,0,96,4.201,4.197,0,0,0,0,4.118,76.46,4.5932088084,4.593176,38,Tripod,
19600,2022-08-12 04:42:00,0,0,4.593176,,,4.5932088084,3.937008,0,0,0,0,0,8.395,4.5932088084,4.593176,0,0,0,0,0,213.5, 3, 0,0,0,1024,1024,1024,364,0,0,0,-100,216.1,0,0,96,4.201,4.197,0,0,0,0,4.118,76.46,4.5932088084,4.593176,38,Tripod,
19700,2022-08-12 04:42:00,0,0,4.593176,,,4.5932088084,3.937008,0,0,0,0,0,8.395,4.5932088084,4.593176,0,0,0,0,0,213.1, 2.1, 0,0,0,1024,1024,1024,1024,0,0,0,0,215.1,0,0,96,4.201,4.197,0,0,0,0,4.118,76.46,4.5932088084,4.593176,38,Tripod,
19800,2022-08-12 04:42:00,0,0,4.593176,,,4.5932088084,3.937008,0,0,0,0,0,8.395,4.5932088084,4.593176,0,0,0,0,0,211.7, 1.5, -0.1,0,0,1024,1024,1024,1024,0,0,0,0,213.5,0,0,96,4.201,4.197,0,0,0,0,4.118,76.46,4.5932088084,4.593176,38,Tripod,
19900,2022-08-12 04:42:00,0,0,4.593176,,,4.5932088084,3.937008,0,0,0,0,0,8.395,4.5932088084,4.593176,0,0,0,0,0,210.4, 1, -0.3,0,0,1024,1024,1024,1024,0,0,0,0,212.3,0,0,96,4.201,4.197,0,0,0,0,4.118,76.46,4.5932088084,4.593176,38,Tripod,
20000,2022-08-12 04:42:00,0,0,4.593176,,,4.5932088084,3.937008,0,0,0,0,0,8.395,4.5932088084,4.593176,0,0,0,0,0,209.3, 0.9, -0.5,0,0,1024,1024,1024,1024,0,0,0,0,211.4,0,0,96,4.201,4.197,0,0,0,0,4.118,76.46,4.5932088084,4.593176,38,Tripod,
20100,2022-08-12 04:42:00,0,0,4.593176,,,4.5932088084,3.937008,0,0,0,0,0,8.395,4.5932088084,4.593176,0,0,0,0,0,208.6, 0.4, -0.5,0,0,1024,1024,1024,1024,0,0,0,0,210.9,0,0,96,4.201,4.197,0,0,0,0,4.118,76.46,4.5932088084,4.593176,38,Tripod,
20200,2022-08-12 04:42:00,0,0,4.593176,,,4.5932088084,3.937008,0,0,0,0,0,8.395,4.5932088084,4.593176,0,0,0,0,0,208.3, 0.1, -0.5,0,0,1024,1024,1024,1024,0,0,0,0,210.8,0,0,96,4.201,4.197,0,0,0,0,4.118,76.46,4.5932088084,4.593176,38,Tripod,
20300,2022-08-12 04:42:01,0,0,4.265092,,,4.2651248084,3.937008,0,0,0,0,0,8.394,4.5932088084,4.593176,0,0,0,0,0,208.2, 0.1, -0.3,0,0,1024,895,1024,1024,0,-20,0,0,210.8,0,0,96,4.201,4.195,0,0,0,0,4.174,76.46,4.2651248084,4.265092,38,Tripod,
20400,2022-08-12 04:42:01,0,0,4.265092,,,4.2651248084,3.937008,0,0,0,0,0,8.394,4.5932088084,4.593176,0,0,0,0,0,208.2, 0.2, -0.4,0,0,1024,364,1024,1024,0,-100,0,0,210.8,0,0,96,4.201,4.195,0,0,0,0,4.174,76.46,4.2651248084,4.265092,38,Tripod,
20500,2022-08-12 04:42:01,0,0,4.265092,,,4.2651248084,3.937008,0,0,0,0,0,8.394,4.5932088084,4.593176,0,0,0,0,0,208, 0.2, -7.3,0,0,1024,533,1024,1024,0,-74,0,0,210.8,0,0,96,4.201,4.195,0,0,0,0,4.174,76.46,4.2651248084,4.265092,38,Tripod,
20600,2022-08-12 04:42:01,0,0,4.265092,,,4.2651248084,3.937008,0.223694,0,0,0,0,8.394,4.5932088084,4.593176,0,0,0,0.223694,0,208, 0.2, -11.4,0,0,1024,1024,1024,1024,0,0,0,0,210.8,0,0,96,4.201,4.195,0,0,0,0,4.174,76.46,4.2651248084,4.265092,38,Tripod,
20700,2022-08-12 04:42:01,0,0,4.265092,,,4.2651248084,3.937008,0.7158208,0,0,0,0,8.394,4.5932088084,4.593176,0,0,-0.223694,0.671082,0,208.1, 0.3, -5.4,0,0,1024,1024,1024,1024,0,0,0,0,210.8,0,0,96,4.201,4.195,0,0,0,0,4.174,76.46,4.2651248084,4.265092,38,Tripod,
20800,2022-08-12 04:42:01,0,0,4.265092,,,4.2651248084,3.937008,0.7158208,0,0,0,0,8.394,4.5932088084,4.593176,0,0,-0.223694,0.671082,0,208.6, 0.1, 2.7,0,0,1024,1024,1024,1024,0,0,0,0,210.8,0,0,96,4.201,4.195,0,0,0,0,4.174,76.46,4.2651248084,4.265092,38,Tripod,
20900,2022-08-12 04:42:01,0,0,4.265092,,,4.2651248084,3.937008,0.7158208,0,0,0,0,8.394,4.5932088084,4.593176,0,0,-0.223694,0.671082,0,208.4, 0, 3.5,0,0,1024,1024,1024,1024,0,0,0,0,210.8,0,0,96,4.201,4.195,0,0,0,0,4.174,76.46,4.2651248084,4.265092,38,Tripod,
21000,2022-08-12 04:42:01,0,0,4.265092,,,4.2651248084,3.937008,0.447388,0,0,0,0,8.394,4.5932088084,4.593176,0,0,0,0.447388,0,208.2, -0.1, 3.2,0,0,1024,1024,1024,1024,0,0,0,0,210.8,0,0,96,4.201,4.195,0,0,0,0,4.174,76.46,4.2651248084,4.265092,38,Tripod,
21100,2022-08-12 04:42:01,0,0,4.265092,,,4.2651248084,3.937008,0.447388,0,0,0,0,8.394,4.5932088084,4.593176,0,0,0,0.447388,0,208.2, 0.1, 2.8,0,0,1024,1024,1024,1320,0,0,0,45,210.8,0,0,96,4.201,4.195,0,0,0,0,4.174,76.46,4.2651248084,4.265092,38,Tripod,
21200,2022-08-12 04:42:01,0,0,4.265092,,,4.2651248084,3.937008,0.223694,0,0,0,0,8.394,4.5932088084,4.593176,0,0,0,0.223694,0,208.2, 0.3, 2.4,0,0,1024,1024,1024,1320,0,0,0,45,210.8,0,0,96,4.201,4.195,0,0,0,0,4.174,76.46,4.2651248084,4.265092,38,Tripod,
21300,2022-08-12 04:42:02,0,0,4.265092,,,4.2651248084,3.937008,0,0,0,0,0,8.394,4.5932088084,4.593176,0,0,0,0,0,208.2, 0.4, 1.7,0,0,1024,1024,1024,1024,0,0,0,0,210.9,0,0,96,4.196,4.19,0,0,0,0,4.104,76.46,4.2651248084,4.265092,38,Tripod,
21400,2022-08-12 04:42:02,0,0,4.265092,,,4.2651248084,3.937008,0,0,0,0,0,8.394,4.5932088084,4.593176,0,0,0,0,0,208.4, 0.3, 0.9,0,0,1024,1024,1024,1024,0,0,0,0,211.2,0,0,96,4.196,4.19,0,0,0,0,4.104,76.46,4.2651248084,4.265092,38,Tripod,
21500,2022-08-12 04:42:02,0,0,4.265092,,,4.2651248084,3.937008,0,0,0,0,0,8.394,4.5932088084,4.593176,0,0,0,0,0,208.8, 0.2, 0.6,0,0,1024,1024,1024,1024,0,0,0,0,211.5,0,0,96,4.196,4.19,0,0,0,0,4.104,76.46,4.2651248084,4.265092,38,Tripod,
21600,2022-08-12 04:42:02,0,0,4.265092,,,4.2651248084,3.937008,0,0,0,0,0,8.394,4.5932088084,4.593176,0,0,0,0,0,209, 0.1, 0.6,0,0,1024,1024,1024,1024,0,0,0,0,211.7,0,0,96,4.196,4.19,0,0,0,0,4.104,76.46,4.2651248084,4.265092,38,Tripod,
21700,2022-08-12 04:42:02,0,0,4.265092,,,4.2651248084,3.937008,0,0,0,0,0,8.394,4.5932088084,4.593176,0,0,0,0,0,209.1, 0, 0.4,0,0,1024,1024,1024,1024,0,0,0,0,211.8,0,0,96,4.196,4.19,0,0,0,0,4.104,76.46,4.2651248084,4.265092,38,Tripod,
21800,2022-08-12 04:42:02,0,0,4.265092,,,4.2651248084,3.937008,0,0,0,0,0,8.394,4.5932088084,4.593176,0,0,0,0,0,209.3, -0.1, 0.7,0,0,1359,1024,1024,1024,51,0,0,0,211.9,0,0,96,4.196,4.19,0,0,0,0,4.104,76.46,4.2651248084,4.265092,38,Tripod,
21900,2022-08-12 04:42:02,0,0,4.265092,,,4.2651248084,3.937008,0,0,0,0,0,8.394,4.5932088084,4.593176,0,0,0,0,0,209.2, -0.1, 0.9,0,0,1684,1024,1024,1024,100,0,0,0,211.9,0,0,96,4.196,4.19,0,0,0,0,4.104,76.46,4.2651248084,4.265092,38,Tripod,
22000,2022-08-12 04:42:02,0,0,4.265092,,,4.2651248084,3.937008,0,0,0,0,0,8.394,4.5932088084,4.593176,0,0,0,0,0,209.2, -3.8, 1.1,0,0,1024,1024,1024,1024,0,0,0,0,211.9,0,0,96,4.196,4.19,0,0,0,0,4.104,76.46,4.2651248084,4.265092,38,Tripod,
22100,2022-08-12 04:42:02,0,0,4.265092,,,4.2651248084,3.937008,0,0,0,0,0,8.394,4.5932088084,4.593176,0,0,0,0,0,209.1, -10, 0.7,0,0,1024,1024,1024,1024,0,0,0,0,211.9,0,0,96,4.196,4.19,0,0,0,0,4.104,76.46,4.2651248084,4.265092,38,Tripod,
22200,2022-08-12 04:42:02,0,0,4.265092,,,4.2651248084,3.937008,0.3131716,0,0,0,0,8.394,4.5932088084,4.593176,0,0,-0.223694,-0.223694,0,209.1, -7.9, 0.2,0,0,1024,1024,1024,1024,0,0,0,0,211.9,0,0,96,4.196,4.19,0,0,0,0,4.104,76.46,4.2651248084,4.265092,38,Tripod,
22300,2022-08-12 04:42:03,0,0,4.265092,,,4.2651248084,3.937008,0.4921268,0,0,0,0,8.391,4.5932088084,4.593176,0,0,-0.447388,-0.223694,0,209.2, 2.3, 0,0,0,1024,1024,1024,1024,0,0,0,0,211.9,0,0,96,4.197,4.191,0,0,0,0,4.14,76.64,4.2651248084,4.265092,38,Tripod,
22400,2022-08-12 04:42:03,0,0,4.265092,,,4.2651248084,3.937008,0.3131716,0,0,0,0,8.391,4.5932088084,4.593176,0,0,-0.223694,-0.223694,0,209.4, 3.8, -0.1,0,0,1024,1024,1024,1024,0,0,0,0,211.9,0,0,96,4.197,4.191,0,0,0,0,4.14,76.64,4.2651248084,4.265092,38,Tripod,
22500,2022-08-12 04:42:03,0,0,4.265092,,,4.2651248084,3.937008,0.3131716,0,0,0,0,8.391,4.5932088084,4.593176,0,0,-0.223694,-0.223694,0,209.4, 3.5, -0.2,0,0,1684,1024,1024,1024,100,0,0,0,211.9,0,0,96,4.197,4.191,0,0,0,0,4.14,76.64,4.2651248084,4.265092,38,Tripod,
22600,2022-08-12 04:42:03,0,0,4.265092,,,4.2651248084,3.937008,0,0,0,0,0,8.391,4.5932088084,4.593176,0,0,0,0,0,209.4, -0.6, -0.1,0,0,1684,1024,1024,1024,100,0,0,0,211.9,0,0,96,4.197,4.191,0,0,0,0,4.14,76.64,4.2651248084,4.265092,38,Tripod,
22700,2022-08-12 04:42:03,0,0,4.265092,,,4.2651248084,3.937008,0.3131716,0,0,0,0,8.391,4.5932088084,4.593176,0,0,-0.223694,-0.223694,0,209.4, -8.6, 0,0,0,1541,1024,1024,1024,78,0,0,0,211.9,0,0,96,4.197,4.191,0,0,0,0,4.14,76.64,4.2651248084,4.265092,38,Tripod,
22800,2022-08-12 04:42:03,0,0,4.265092,,,4.2651248084,3.937008,0.4921268,0,0,0,0,8.391,4.5932088084,4.593176,0,0,-0.447388,-0.223694,0,209.5, -11.7, -0.1,0,0,1024,1024,1024,1024,0,0,0,0,211.9,0,0,96,4.197,4.191,0,0,0,0,4.14,76.64,4.2651248084,4.265092,38,Tripod,
22900,2022-08-12 04:42:03,0,0,4.265092,,,4.2651248084,3.937008,1.006623,0,0,0,0,8.391,4.5932088084,4.593176,0,0,-0.894776,-0.447388,0,209.5, -8.8, 0.1,0,0,1024,1024,1024,1024,0,0,0,0,211.9,0,0,96,4.197,4.191,0,0,0,0,4.14,76.64,4.2651248084,4.265092,38,Tripod,
23000,2022-08-12 04:42:03,0,0,4.265092,,,4.2651248084,3.937008,1.11847,0,0,0,0,8.391,4.5932088084,4.593176,0,0,-0.894776,-0.671082,0,209.4, 4.4, 0,0,0,1024,1024,1024,1024,0,0,0,0,211.9,0,0,96,4.197,4.191,0,0,0,0,4.14,76.64,4.2651248084,4.265092,38,Tripod,
23100,2022-08-12 04:42:03,0,0,4.265092,,,4.2651248084,3.937008,1.006623,0,0,0,0,8.391,4.5932088084,4.593176,0,0,-0.894776,-0.447388,0,209.3, 6, 0.1,0,0,1024,1024,1024,1024,0,0,0,0,211.9,0,0,96,4.197,4.191,0,0,0,0,4.14,76.64,4.2651248084,4.265092,38,Tripod,
23200,2022-08-12 04:42:03,0,0,4.265092,,,4.2651248084,3.937008,0.8052984,0,0,0,0,8.391,4.5932088084,4.593176,0,0,-0.671082,-0.447388,0,209.3, 5.4, 0,0,0,1024,1024,1024,1024,0,0,0,0,211.9,0,0,96,4.197,4.191,0,0,0,0,4.14,76.64,4.2651248084,4.265092,38,Tripod,
23300,2022-08-12 04:42:04,0,0,4.265092,,,4.2651248084,3.937008,0.4921268,0,0,0,0,8.383,4.5932088084,4.593176,0,0,-0.447388,-0.223694,0,209.3, 4.6, -0.2,0,0,1684,1024,1024,1024,100,0,0,0,211.9,0,0,96,4.196,4.188,0,0,0,0,4.155,76.64,4.2651248084,4.265092,38,Tripod,
23400,2022-08-12 04:42:04,0,0,4.265092,,,4.2651248084,3.937008,0.3131716,0,0,0,0,8.383,4.5932088084,4.593176,0,0,-0.223694,-0.223694,0,209.3, -0.1, -0.3,0,0,1684,1024,1024,1024,100,0,0,0,211.9,0,0,96,4.196,4.188,0,0,0,0,4.155,76.64,4.2651248084,4.265092,38,Tripod,
23500,2022-08-12 04:42:04,0,0,4.265092,,,4.2651248084,3.937008,0.4921268,0,0,0,0,8.383,4.5932088084,4.593176,0,0,-0.447388,-0.223694,0,209.3, -7.9, -0.2,0,0,1432,1024,1024,1024,62,0,0,0,211.9,0,0,96,4.196,4.188,0,0,0,0,4.155,76.64,4.2651248084,4.265092,38,Tripod,
23600,2022-08-12 04:42:04,0,0,4.265092,,,4.2651248084,3.937008,0.8052984,0,0,0,0,8.383,4.5932088084,4.593176,0,0,-0.671082,-0.447388,0,209.3, -10.7, -0.4,0,0,1024,1024,1024,1024,0,0,0,0,211.9,0,0,96,4.196,4.188,0,0,0,0,4.155,76.64,4.2651248084,4.265092,38,Tripod,
23700,2022-08-12 04:42:04,0,0,4.265092,,,4.2651248084,3.937008,1.006623,0,0,0,0,8.383,4.5932088084,4.593176,0,0,-0.894776,-0.447388,0,209.1, -4.1, -0.6,0,0,1024,1024,1024,1024,0,0,0,0,211.9,0,0,96,4.196,4.188,0,0,0,0,4.155,76.64,4.2651248084,4.265092,38,Tripod,
