time(millisecond),datetime(utc),latitude,longitude,height_above_takeoff(feet),height_above_ground_at_drone_location(feet),ground_elevation_at_drone_location(feet),altitude_above_seaLevel(feet),height_sonar(feet),speed(mph),distance(feet),mileage(feet),satellites,gpslevel,voltage(v),max_altitude(feet),max_ascent(feet),max_speed(mph),max_distance(feet), xSpeed(mph), ySpeed(mph), zSpeed(mph), compass_heading(degrees), pitch(degrees), roll(degrees),isPhoto,isVideo,rc_elevator,rc_aileron,rc_throttle,rc_rudder,rc_elevator(percent),rc_aileron(percent),rc_throttle(percent),rc_rudder(percent),gimbal_heading(degrees),gimbal_pitch(degrees),gimbal_roll(degrees),battery_percent,voltageCell1,voltageCell2,voltageCell3,voltageCell4,voltageCell5,voltageCell6,current(A),battery_temperature(f),altitude(feet),ascent(feet),flycStateRaw,flycState,message
83900,2022-08-16 04:21:39,0,0,0,,,3.28084E-5,0.328084,0,0,0,0,0,0,3.28084E-5,0,0,0,0,0,0,29.2, 3, -0.2,0,0,364,364,364,1684,-100,-100,-100,100,34.2,0,0,89,4.244,4.236,0,0,0,0,0,96.08,3.28084E-5,0,41,Motors_Started,"Vuela con cuidado (sin GPS) Sin señal GPS. La aeronave no puede hacer vuelo estacionario. Vuela con cuidado (Code: 30008). Señal débil del GPS. Vuelo estacionario inestable. Vuela con cuidado (Code: 30002)"
84000,2022-08-16 04:21:40,0,0,0,,,3.28084E-5,0.328084,0,0,0,0,0,0,3.28084E-5,0,0,0,0,0,0,29.2, 3, -0.2,0,0,364,364,364,1684,-100,-100,-100,100,34.2,0,0,89,4.244,4.236,0,0,0,0,0,96.08,3.28084E-5,0,41,Motors_Started,
84100,2022-08-16 04:21:40,0,0,0,,,3.28084E-5,0.328084,0,0,0,0,0,8.479,3.28084E-5,0,0,0,0,0,0,29.2, 3, -0.2,0,0,364,364,364,1684,-100,-100,-100,100,34.2,0,0,89,4.244,4.236,0,0,0,0,0.633,96.08,3.28084E-5,0,41,Motors_Started,
84200,2022-08-16 04:21:40,0,0,0,,,3.28084E-5,0.328084,0,0,0,0,0,8.479,3.28084E-5,0,0,0,0,0,0,29.2, 3, -0.2,0,0,683,824,688,1053,-52,-30,-51,4,34.2,0,0,89,4.244,4.236,0,0,0,0,0.633,96.08,3.28084E-5,0,41,Motors_Started,
84300,2022-08-16 04:21:40,0,0,0,,,3.28084E-5,0.328084,0,0,0,0,0,8.479,3.28084E-5,0,0,0,0,0,0,29.2, 3, -0.2,0,0,911,1024,1024,1024,-17,0,0,0,34.2,0,0,89,4.244,4.236,0,0,0,0,0.633,96.08,3.28084E-5,0,41,Motors_Started,
84400,2022-08-16 04:21:40,0,0,0,,,3.28084E-5,0.328084,0,0,0,0,0,8.479,3.28084E-5,0,0,0,0,0,0,29.2, 3, -0.2,0,0,1024,1024,1024,1024,0,0,0,0,34.2,0,0,89,4.244,4.236,0,0,0,0,0.633,96.08,3.28084E-5,0,41,Motors_Started,
84500,2022-08-16 04:21:40,0,0,0,,,3.28084E-5,0.328084,0,0,0,0,0,8.479,3.28084E-5,0,0,0,0,0,0,29.2, 3, -0.2,0,0,1024,1024,1024,1024,0,0,0,0,34.2,0,0,89,4.244,4.236,0,0,0,0,0.633,96.08,3.28084E-5,0,41,Motors_Started,
84600,2022-08-16 04:21:40,0,0,0,,,3.28084E-5,0.328084,0,0,0,0,0,8.479,3.28084E-5,0,0,0,0,0,0,29.2, 3, -0.2,0,0,1024,1024,1101,1024,0,0,12,0,34.2,0,0,89,4.244,4.236,0,0,0,0,0.633,96.08,3.28084E-5,0,41,Motors_Started,"Setting new Return-To-Home altitude to 15m (49 ft). Data Recorder File Index is 78. Setting new Maximum Flight Altitude to 30m (98 ft)"
84700,2022-08-16 04:21:40,0,0,0,,,3.28084E-5,0.328084,0,0,0,0,0,8.479,3.28084E-5,0,0,0,0,0,0,29.2, 3, -0.2,0,0,1024,1024,1101,1024,0,0,12,0,34.2,0,0,89,4.244,4.236,0,0,0,0,0.633,96.08,3.28084E-5,0,41,Motors_Started,
84800,2022-08-16 04:21:40,0,0,0,,,3.28084E-5,0.328084,0,0,0,0,0,8.479,3.28084E-5,0,0,0,0,0,0,29.2, 3, -0.2,0,0,1024,1024,1565,1024,0,0,82,0,34.2,0,0,89,4.244,4.236,0,0,0,0,0.633,96.08,3.28084E-5,0,41,Motors_Started,
84900,2022-08-16 04:21:40,0,0,0,,,3.28084E-5,0.328084,0,0,0,0,0,8.479,3.28084E-5,0,0,0,0,0,0,29.2, 3, -0.3,0,0,1024,1024,1611,1024,0,0,89,0,34.2,0,0,89,4.244,4.236,0,0,0,0,0.633,96.08,3.28084E-5,0,41,Motors_Started,
85000,2022-08-16 04:21:41,0,0,0,,,3.28084E-5,0.328084,0,0,0,0,0,8.456,3.28084E-5,0,0,0,0,0,0,29.2, 3.1, -0.2,0,0,1024,1024,1286,1024,0,0,40,0,34.2,0,0,89,4.231,4.222,0,0,0,0,1.143,96.08,3.28084E-5,0,10,Assisted_Takeoff,
85100,2022-08-16 04:21:41,0,0,0,,,3.28084E-5,0.328084,0,0,0,0,0,8.456,3.28084E-5,0,0,0,0,0,0,29.3, 3, -0.2,0,0,1024,1024,1024,1024,0,0,0,0,34.2,0,0,89,4.231,4.222,0,0,0,0,1.143,96.08,3.28084E-5,0,10,Assisted_Takeoff,
85200,2022-08-16 04:21:41,0,0,0,,,3.28084E-5,0.328084,0,0,0,0,0,8.456,3.28084E-5,0,0,0,0,0,0,29.4, 3, -0.2,0,0,1024,1024,1024,1024,0,0,0,0,34.3,0,0,89,4.231,4.222,0,0,0,0,1.143,96.08,3.28084E-5,0,10,Assisted_Takeoff,
85300,2022-08-16 04:21:41,0,0,0,,,3.28084E-5,0.328084,0,0,0,0,0,8.456,3.28084E-5,0,0,0,0,0,0,29.4, 3, -0.2,0,0,1024,1024,1024,1024,0,0,0,0,34.3,0,0,89,4.231,4.222,0,0,0,0,1.143,96.08,3.28084E-5,0,10,Assisted_Takeoff,
85400,2022-08-16 04:21:41,0,0,0,,,3.28084E-5,0.328084,0,0,0,0,0,8.456,3.28084E-5,0,0,0,0,0,0,29.5, 3, -0.2,0,0,1024,1024,1454,1024,0,0,65,0,34.3,0,0,89,4.231,4.222,0,0,0,0,1.143,96.08,3.28084E-5,0,10,Assisted_Takeoff,
85500,2022-08-16 04:21:41,0,0,0,,,3.28084E-5,0.328084,0,0,0,0,0,8.456,3.28084E-5,0,0,0,0,0,0,29.5, 3, -0.2,0,0,1024,1024,1684,1024,0,0,100,0,34.4,0,0,89,4.231,4.222,0,0,0,0,1.143,96.08,3.28084E-5,0,10,Assisted_Takeoff,
85600,2022-08-16 04:21:41,0,0,0,,,3.28084E-5,0.328084,0,0,0,0,0,8.456,3.28084E-5,0,0,0,0,0,0,29.6, 3, -0.2,0,0,1024,1024,1684,1024,0,0,100,0,34.4,0,0,89,4.231,4.222,0,0,0,0,1.143,96.08,3.28084E-5,0,10,Assisted_Takeoff,
85700,2022-08-16 04:21:41,0,0,0,,,3.28084E-5,0.328084,0,0,0,0,0,8.456,3.28084E-5,0,0,0,0,0,0,29.5, 3, -0.2,0,0,1024,1024,1684,1024,0,0,100,0,34.5,0,0,89,4.231,4.222,0,0,0,0,1.143,96.08,3.28084E-5,0,10,Assisted_Takeoff,
85800,2022-08-16 04:21:41,0,0,0,,,3.28084E-5,0.328084,0,0,0,0,0,8.456,3.28084E-5,0,0,0,0,0,0,29.7, 2.9, -0.2,0,0,1024,1024,1684,1024,0,0,100,0,34.5,0,0,89,4.231,4.222,0,0,0,0,1.143,96.08,3.28084E-5,0,10,Assisted_Takeoff,
85900,2022-08-16 04:21:41,0,0,0,,,3.28084E-5,0.328084,0,0,0,0,0,8.456,3.28084E-5,0,0,0,0,0,0,30.3, -0.1, 0.1,0,0,1024,1024,1588,1024,0,0,85,0,34.7,0,0,89,4.231,4.222,0,0,0,0,1.143,96.08,3.28084E-5,0,10,Assisted_Takeoff,
86000,2022-08-16 04:21:42,0,0,0,,,3.28084E-5,0.328084,0,0,0,0,0,8.456,3.28084E-5,0,0,0,0,0,-0.223694,31.3, -1.3, 0.4,0,0,1024,1024,1227,1024,0,0,31,0,35.6,0,0,89,4.231,4.222,0,0,0,0,1.143,96.08,3.28084E-5,0,10,Assisted_Takeoff,"Señal débil del GPS. Vuelo estacionario inestable. Vuela con cuidado (Code: 30002)"
86100,2022-08-16 04:21:42,0,0,0,,,3.28084E-5,0.328084,0,0,0,0,0,8.447,3.28084E-5,0,0,0,0,0,-0.671082,31, -0.7, 0.2,0,0,1024,1024,1024,1024,0,0,0,0,35.6,0,0,89,4.229,4.218,0,0,0,0,1.609,96.08,3.28084E-5,0,6,P-GPS,
86200,2022-08-16 04:21:42,0,0,0,,,3.28084E-5,0.656168,0,0,0,0,0,8.447,3.28084E-5,0,0,0,0,0,-0.671082,30.7, -0.3, 0.1,0,0,1024,1024,1024,1024,0,0,0,0,35.6,0,0,89,4.229,4.218,0,0,0,0,1.609,96.08,3.28084E-5,0,6,P-GPS,
86300,2022-08-16 04:21:42,0,0,0.328084,,,0.3281168084,0.656168,0,0,0,0,0,8.447,0.3281168084,0.328084,0,0,0,0,-0.894776,30.7, -0.2, 0,0,0,1024,1024,1024,1024,0,0,0,0,35.6,0,0,89,4.229,4.218,0,0,0,0,1.609,96.08,0.3281168084,0.328084,6,P-GPS,
86400,2022-08-16 04:21:42,0,0,0.328084,,,0.3281168084,0.656168,0,0,0,0,0,8.447,0.3281168084,0.328084,0,0,0,0,-0.894776,30.6, 0, 0.2,0,0,1024,1024,1024,1024,0,0,0,0,35.6,0,0,89,4.229,4.218,0,0,0,0,1.609,96.08,0.3281168084,0.328084,6,P-GPS,
86500,2022-08-16 04:21:42,0,0,0.328084,,,0.3281168084,0.656168,0,0,0,0,0,8.447,0.3281168084,0.328084,0,0,0,0,-0.894776,30.7, 0.1, 0.1,0,0,1024,1024,1024,1024,0,0,0,0,35.6,0,0,89,4.229,4.218,0,0,0,0,1.609,96.08,0.3281168084,0.328084,6,P-GPS,
86600,2022-08-16 04:21:42,0,0,0.656168,,,0.6562008084,0.984252,0,0,0,0,0,8.447,0.6562008084,0.656168,0,0,0,0,-0.894776,30.7, 0.3, 0,0,0,1024,1024,1024,1024,0,0,0,0,35.6,0,0,89,4.229,4.218,0,0,0,0,1.609,96.08,0.6562008084,0.656168,6,P-GPS,
86700,2022-08-16 04:21:42,0,0,0.656168,,,0.6562008084,0.984252,0,0,0,0,0,8.447,0.6562008084,0.656168,0,0,0,0,-0.894776,30.7, 0.2, -0.1,0,0,1024,1024,1024,1024,0,0,0,0,35.6,0,0,89,4.229,4.218,0,0,0,0,1.609,96.08,0.6562008084,0.656168,6,P-GPS,
86800,2022-08-16 04:21:42,0,0,0.656168,,,0.6562008084,1.312336,0,0,0,0,0,8.447,0.6562008084,0.656168,0,0,0,0,-0.894776,30.6, 0.2, 0,0,0,1024,1024,1024,1024,0,0,0,0,35.6,0,0,89,4.229,4.218,0,0,0,0,1.609,96.08,0.6562008084,0.656168,6,P-GPS,
86900,2022-08-16 04:21:42,0,0,0.984252,,,0.9842848084,1.312336,0,0,0,0,0,8.447,0.9842848084,0.984252,0,0,0,0,-0.671082,30.7, 0.2, 0,0,0,1024,1024,1024,1024,0,0,0,0,35.6,0,0,89,4.229,4.218,0,0,0,0,1.609,96.08,0.9842848084,0.984252,6,P-GPS,
87000,2022-08-16 04:21:43,0,0,0.984252,,,0.9842848084,1.312336,0,0,0,0,0,8.447,0.9842848084,0.984252,0,0,0,0,-0.671082,30.7, 0.2, 0,0,0,1024,1024,1024,1024,0,0,0,0,35.6,0,0,89,4.229,4.218,0,0,0,0,1.609,96.08,0.9842848084,0.984252,6,P-GPS,
87100,2022-08-16 04:21:43,0,0,0.984252,,,0.9842848084,1.312336,0,0,0,0,0,8.367,0.9842848084,0.984252,0,0,0,0,-0.447388,30.6, 0.2, 0,0,0,1024,1024,1024,1024,0,0,0,0,35.6,0,0,89,4.19,4.177,0,0,0,0,3.615,96.08,0.9842848084,0.984252,6,P-GPS,
87200,2022-08-16 04:21:43,0,0,1.312336,,,1.3123688084,1.64042,0,0,0,0,0,8.367,1.3123688084,1.312336,0,0,0,0,-0.223694,30.6, 0.4, -0.1,0,0,1024,1024,1024,1024,0,0,0,0,35.6,0,0,89,4.19,4.177,0,0,0,0,3.615,96.08,1.3123688084,1.312336,6,P-GPS,
87300,2022-08-16 04:21:43,0,0,1.312336,,,1.3123688084,1.64042,0,0,0,0,0,8.367,1.3123688084,1.312336,0,0,0,0,-0.223694,30.7, 0.4, -0.1,0,0,1024,1024,1024,1024,0,0,0,0,35.6,0,0,89,4.19,4.177,0,0,0,0,3.615,96.08,1.3123688084,1.312336,6,P-GPS,
87400,2022-08-16 04:21:43,0,0,1.312336,,,1.3123688084,1.64042,0,0,0,0,0,8.367,1.3123688084,1.312336,0,0,0,0,0,30.6, 0.5, -0.3,0,0,1024,1024,1024,1024,0,0,0,0,35.6,0,0,89,4.19,4.177,0,0,0,0,3.615,96.08,1.3123688084,1.312336,6,P-GPS,
87500,2022-08-16 04:21:43,0,0,1.312336,,,1.3123688084,1.64042,0,0,0,0,0,8.367,1.3123688084,1.312336,0,0,0,0,0,30.7, 0.5, -0.1,0,0,1024,1024,1024,1024,0,0,0,0,35.6,0,0,89,4.19,4.177,0,0,0,0,3.615,96.08,1.3123688084,1.312336,6,P-GPS,
87600,2022-08-16 04:21:43,0,0,1.312336,,,1.3123688084,1.64042,0,0,0,0,0,8.367,1.3123688084,1.312336,0,0,0,0,0,30.6, 0.4, -0.1,0,0,1024,1024,1024,1024,0,0,0,0,35.6,0,0,89,4.19,4.177,0,0,0,0,3.615,96.08,1.3123688084,1.312336,6,P-GPS,
87700,2022-08-16 04:21:43,0,0,1.312336,,,1.3123688084,1.64042,0,0,0,0,0,8.367,1.3123688084,1.312336,0,0,0,0,0,30.6, 0.4, 0,0,0,1024,1024,1045,1024,0,0,3,0,35.6,0,0,89,4.19,4.177,0,0,0,0,3.615,96.08,1.3123688084,1.312336,6,P-GPS,
87800,2022-08-16 04:21:43,0,0,1.312336,,,1.3123688084,1.64042,0,0,0,0,0,8.367,1.3123688084,1.312336,0,0,0,0,0,30.6, 0.5, 0,0,0,1024,1024,1045,1024,0,0,3,0,35.6,0,0,89,4.19,4.177,0,0,0,0,3.615,96.08,1.3123688084,1.312336,6,P-GPS,
87900,2022-08-16 04:21:43,0,0,1.312336,,,1.3123688084,1.64042,0,0,0,0,0,8.367,1.3123688084,1.312336,0,0,0,0,0,30.6, 0.5, 0,0,0,1024,1024,1180,1024,0,0,24,0,35.6,0,0,89,4.19,4.177,0,0,0,0,3.615,96.08,1.3123688084,1.312336,6,P-GPS,
88000,2022-08-16 04:21:44,0,0,1.312336,,,1.3123688084,1.64042,0,0,0,0,0,8.367,1.3123688084,1.312336,0,0,0,0,0,30.7, 0.6, 0.2,0,0,1024,1024,1089,1024,0,0,10,0,35.6,0,0,89,4.19,4.177,0,0,0,0,3.615,96.08,1.3123688084,1.312336,6,P-GPS,
88100,2022-08-16 04:21:44,0,0,1.312336,,,1.3123688084,1.64042,0,0,0,0,0,8.367,1.3123688084,1.312336,0,0,0,0,-0.223694,30.7, 0.5, 0.2,0,0,1024,1024,1024,1024,0,0,0,0,35.6,0,0,89,4.189,4.175,0,0,0,0,3.945,96.08,1.3123688084,1.312336,6,P-GPS,
88200,2022-08-16 04:21:44,0,0,1.64042,,,1.6404528084,1.64042,0,0,0,0,0,8.367,1.6404528084,1.64042,0,0,0,0,-0.223694,30.6, 0.6, 0,0,0,1024,1024,1024,1024,0,0,0,0,35.6,0,0,89,4.189,4.175,0,0,0,0,3.945,96.08,1.6404528084,1.64042,6,P-GPS,
88300,2022-08-16 04:21:44,0,0,1.64042,,,1.6404528084,1.64042,0,0,0,0,0,8.367,1.6404528084,1.64042,0,0,0,0,0,30.7, 0.5, -0.1,0,0,1024,1024,1024,1024,0,0,0,0,35.6,0,0,89,4.189,4.175,0,0,0,0,3.945,96.08,1.6404528084,1.64042,6,P-GPS,
88400,2022-08-16 04:21:44,0,0,1.64042,,,1.6404528084,1.64042,0,0,0,0,0,8.367,1.6404528084,1.64042,0,0,0,0,0,30.6, 0.4, 0,0,0,1024,1024,1024,1024,0,0,0,0,35.6,0,0,89,4.189,4.175,0,0,0,0,3.945,96.08,1.6404528084,1.64042,6,P-GPS,
88500,2022-08-16 04:21:44,0,0,1.64042,,,1.6404528084,1.968504,0,0,0,0,0,8.367,1.6404528084,1.64042,0,0,0,0,0,30.6, 0.4, -0.4,0,0,1024,1024,1024,1024,0,0,0,0,35.6,0,0,89,4.189,4.175,0,0,0,0,3.945,96.08,1.6404528084,1.64042,6,P-GPS,
88600,2022-08-16 04:21:44,0,0,1.64042,,,1.6404528084,1.968504,0,0,0,0,0,8.367,1.6404528084,1.64042,0,0,0,0,0,30.6, 0.4, -0.4,0,0,1024,1024,1024,1024,0,0,0,0,35.6,0,0,89,4.189,4.175,0,0,0,0,3.945,96.08,1.6404528084,1.64042,6,P-GPS,
88700,2022-08-16 04:21:44,0,0,1.64042,,,1.6404528084,1.968504,0,0,0,0,0,8.367,1.6404528084,1.64042,0,0,0,0,0,30.6, 0.5, -0.2,0,0,1024,1024,1024,1024,0,0,0,0,35.6,0,0,89,4.189,4.175,0,0,0,0,3.945,96.08,1.6404528084,1.64042,6,P-GPS,
88800,2022-08-16 04:21:44,0,0,1.64042,,,1.6404528084,1.968504,0,0,0,0,0,8.367,1.6404528084,1.64042,0,0,0,0,0,30.7, 0.5, 0,0,0,1024,1024,1024,1024,0,0,0,0,35.6,0,0,89,4.189,4.175,0,0,0,0,3.945,96.08,1.6404528084,1.64042,6,P-GPS,
88900,2022-08-16 04:21:44,0,0,1.64042,,,1.6404528084,1.968504,0,0,0,0,0,8.367,1.6404528084,1.64042,0,0,0,0,0,30.7, 0.5, 0,0,0,1024,1024,1024,1024,0,0,0,0,35.6,0,0,89,4.189,4.175,0,0,0,0,3.945,96.08,1.6404528084,1.64042,6,P-GPS,
89000,2022-08-16 04:21:45,0,0,1.64042,,,1.6404528084,1.968504,0,0,0,0,0,8.367,1.6404528084,1.64042,0,0,0,0,0,30.7, 0.5, 0.1,0,0,1024,1024,1024,1024,0,0,0,0,35.6,0,0,89,4.189,4.175,0,0,0,0,3.945,96.08,1.6404528084,1.64042,6,P-GPS,
89100,2022-08-16 04:21:45,0,0,1.64042,,,1.6404528084,1.968504,0,0,0,0,0,8.356,1.6404528084,1.64042,0,0,0,0,0,30.7, 0.4, 0.1,0,0,1024,1024,1024,1024,0,0,0,0,35.6,0,0,89,4.185,4.17,0,0,0,0,4.133,96.08,1.6404528084,1.64042,6,P-GPS,
89200,2022-08-16 04:21:45,0,0,1.64042,,,1.6404528084,1.968504,0,0,0,0,0,8.356,1.6404528084,1.64042,0,0,0,0,0,30.7, 0.3, 0.2,0,0,1024,1024,1181,1024,0,0,24,0,35.6,0,0,89,4.185,4.17,0,0,0,0,4.133,96.08,1.6404528084,1.64042,6,P-GPS,
89300,2022-08-16 04:21:45,0,0,1.64042,,,1.6404528084,1.968504,0,0,0,0,0,8.356,1.6404528084,1.64042,0,0,0,0,0,30.7, 0.5, 0,0,0,1024,1024,1349,1024,0,0,49,0,35.6,0,0,89,4.185,4.17,0,0,0,0,4.133,96.08,1.6404528084,1.64042,6,P-GPS,
89400,2022-08-16 04:21:45,0,0,1.64042,,,1.6404528084,1.968504,0,0,0,0,0,8.356,1.6404528084,1.64042,0,0,0,0,-0.223694,30.7, 0.4, 0.3,0,0,1024,1024,1261,1024,0,0,36,0,35.6,0,0,89,4.185,4.17,0,0,0,0,4.133,96.08,1.6404528084,1.64042,6,P-GPS,
89500,2022-08-16 04:21:45,0,0,1.968504,,,1.9685368084,1.968504,0,0,0,0,0,8.356,1.9685368084,1.968504,0,0,0,0,-0.894776,30.6, 0.4, 0.1,0,0,1024,1024,1054,1024,0,0,5,0,35.6,0,0,89,4.185,4.17,0,0,0,0,4.133,96.08,1.9685368084,1.968504,6,P-GPS,
89600,2022-08-16 04:21:45,0,0,1.968504,,,1.9685368084,1.968504,0,0,0,0,0,8.356,1.9685368084,1.968504,0,0,0,0,-1.11847,30.5, 0.7, -0.4,0,0,1024,1024,1024,1024,0,0,0,0,35.6,0,0,89,4.185,4.17,0,0,0,0,4.133,96.08,1.9685368084,1.968504,6,P-GPS,
89700,2022-08-16 04:21:45,0,0,2.296588,,,2.2966208084,2.296588,0,0,0,0,0,8.356,2.2966208084,2.296588,0,0,0,0,-0.894776,30.6, 0.9, -0.5,0,0,1024,1024,1024,1024,0,0,0,0,35.6,0,0,89,4.185,4.17,0,0,0,0,4.133,96.08,2.2966208084,2.296588,6,P-GPS,
89800,2022-08-16 04:21:45,0,0,2.296588,,,2.2966208084,2.296588,0,0,0,0,0,8.356,2.2966208084,2.296588,0,0,0,0,-0.447388,30.6, 0.7, -0.3,0,0,1024,1024,1024,1024,0,0,0,0,35.6,0,0,89,4.185,4.17,0,0,0,0,4.133,96.08,2.2966208084,2.296588,6,P-GPS,
89900,2022-08-16 04:21:45,0,0,2.296588,,,2.2966208084,2.296588,0,0,0,0,0,8.356,2.2966208084,2.296588,0,0,0,0,-0.223694,30.7, 0.6, -0.4,0,0,1024,1024,1024,1024,0,0,0,0,35.6,0,0,89,4.185,4.17,0,0,0,0,4.133,96.08,2.2966208084,2.296588,6,P-GPS,"En vuelo"
90000,2022-08-16 04:21:46,0,0,2.296588,,,2.2966208084,2.296588,0,0,0,0,0,8.356,2.2966208084,2.296588,0,0,0,0,0,30.8, 0.2, 0.1,0,0,1024,1024,1024,1024,0,0,0,0,35.6,0,0,89,4.185,4.17,0,0,0,0,4.133,96.08,2.2966208084,2.296588,6,P-GPS,
90100,2022-08-16 04:21:46,0,0,2.296588,,,2.2966208084,2.296588,0,0,0,0,0,8.356,2.2966208084,2.296588,0,0,0,0,0,30.8, 0, 0.1,0,0,1024,1024,1024,1024,0,0,0,0,35.6,0,0,89,4.184,4.178,0,0,0,0,4.133,96.08,2.2966208084,2.296588,6,P-GPS,
90200,2022-08-16 04:21:46,0,0,2.296588,,,2.2966208084,2.296588,0,0,0,0,0,8.356,2.2966208084,2.296588,0,0,0,0,0,30.8, 0, -0.3,0,0,1024,1024,1024,1024,0,0,0,0,35.6,0,0,89,4.184,4.178,0,0,0,0,4.133,96.08,2.2966208084,2.296588,6,P-GPS,
90300,2022-08-16 04:21:46,0,0,2.296588,,,2.2966208084,2.296588,0,0,0,0,0,8.356,2.2966208084,2.296588,0,0,0,0,0,30.7, 0.2, -0.5,0,0,1024,1024,1024,1024,0,0,0,0,35.6,0,0,89,4.184,4.178,0,0,0,0,4.133,96.08,2.2966208084,2.296588,6,P-GPS,
90400,2022-08-16 04:21:46,0,0,2.296588,,,2.2966208084,2.296588,0,0,0,0,0,8.356,2.2966208084,2.296588,0,0,0,0,0,30.7, 0.3, -0.2,0,0,1024,1024,1024,1024,0,0,0,0,35.6,0,0,89,4.184,4.178,0,0,0,0,4.133,96.08,2.2966208084,2.296588,6,P-GPS,
90500,2022-08-16 04:21:46,0,0,2.296588,,,2.2966208084,2.296588,0,0,0,0,0,8.356,2.2966208084,2.296588,0,0,0,0,0,30.8, 0.3, 0.1,0,0,1024,1024,1024,1024,0,0,0,0,35.6,0,0,89,4.184,4.178,0,0,0,0,4.133,96.08,2.2966208084,2.296588,6,P-GPS,
90600,2022-08-16 04:21:46,0,0,2.296588,,,2.2966208084,2.296588,0,0,0,0,0,8.356,2.2966208084,2.296588,0,0,0,0,0,30.8, 0.3, 0.3,0,0,1024,1024,1024,1024,0,0,0,0,35.6,0,0,89,4.184,4.178,0,0,0,0,4.133,96.08,2.2966208084,2.296588,6,P-GPS,
90700,2022-08-16 04:21:46,0,0,2.296588,,,2.2966208084,2.296588,0,0,0,0,0,8.356,2.2966208084,2.296588,0,0,0,0,0,30.7, 0.2, 0.2,0,0,1024,1024,1024,1024,0,0,0,0,35.6,0,0,89,4.184,4.178,0,0,0,0,4.133,96.08,2.2966208084,2.296588,6,P-GPS,
90800,2022-08-16 04:21:46,0,0,2.296588,,,2.2966208084,2.296588,0,0,0,0,0,8.356,2.2966208084,2.296588,0,0,0,0,0,30.6, 0.2, 0,0,0,1024,1024,1024,1024,0,0,0,0,35.6,0,0,89,4.184,4.178,0,0,0,0,4.133,96.08,2.2966208084,2.296588,6,P-GPS,
90900,2022-08-16 04:21:46,0,0,2.296588,,,2.2966208084,2.296588,0,0,0,0,0,8.356,2.2966208084,2.296588,0,0,0,0,0,30.6, 0, 0,0,0,1024,1024,1024,1024,0,0,0,0,35.6,0,0,89,4.184,4.178,0,0,0,0,4.133,96.08,2.2966208084,2.296588,6,P-GPS,
91000,2022-08-16 04:21:47,0,0,2.296588,,,2.2966208084,2.296588,0,0,0,0,0,8.356,2.2966208084,2.296588,0,0,0,0,0,30.7, 0.1, 0,0,0,1024,1024,1024,1024,0,0,0,0,35.6,0,0,89,4.184,4.178,0,0,0,0,4.133,96.08,2.2966208084,2.296588,6,P-GPS,
91100,2022-08-16 04:21:47,0,0,2.296588,,,2.2966208084,2.296588,0,0,0,0,0,8.315,2.2966208084,2.296588,0,0,0,0,0,30.7, 0.2, 0,0,0,1024,1024,1123,1024,0,0,15,0,35.6,0,0,89,4.178,4.163,0,0,0,0,4.489,96.26,2.2966208084,2.296588,6,P-GPS,
91200,2022-08-16 04:21:47,0,0,2.296588,,,2.2966208084,2.296588,0,0,0,0,0,8.315,2.2966208084,2.296588,0,0,0,0,0,30.6, 0.1, 0,0,0,1024,1024,1283,1024,0,0,39,0,35.6,0,0,89,4.178,4.163,0,0,0,0,4.489,96.26,2.2966208084,2.296588,6,P-GPS,
91300,2022-08-16 04:21:47,0,0,2.624672,,,2.6247048084,2.296588,0,0,0,0,0,8.315,2.6247048084,2.624672,0,0,0,0,-0.223694,30.6, 0, 0.3,0,0,1024,1024,1133,1024,0,0,17,0,35.6,0,0,89,4.178,4.163,0,0,0,0,4.489,96.26,2.6247048084,2.624672,6,P-GPS,
91400,2022-08-16 04:21:47,0,0,2.624672,,,2.6247048084,2.624672,0,0,0,0,0,8.315,2.6247048084,2.624672,0,0,0,0,-0.671082,30.6, 0, 0.1,0,0,1024,1024,1024,1024,0,0,0,0,35.6,0,0,89,4.178,4.163,0,0,0,0,4.489,96.26,2.6247048084,2.624672,6,P-GPS,
91500,2022-08-16 04:21:47,0,0,2.624672,,,2.6247048084,2.624672,0,0,0,0,0,8.315,2.6247048084,2.624672,0,0,0,0,-0.447388,30.6, 0.4, 0.3,0,0,1024,1024,1024,1024,0,0,0,0,35.6,0,0,89,4.178,4.163,0,0,0,0,4.489,96.26,2.6247048084,2.624672,6,P-GPS,
91600,2022-08-16 04:21:47,0,0,2.624672,,,2.6247048084,2.624672,0,0,0,0,0,8.315,2.6247048084,2.624672,0,0,0,0,-0.223694,30.6, 0.5, 0.2,0,0,1024,1024,1030,1024,0,0,1,0,35.6,0,0,89,4.178,4.163,0,0,0,0,4.489,96.26,2.6247048084,2.624672,6,P-GPS,
91700,2022-08-16 04:21:47,0,0,2.624672,,,2.6247048084,2.624672,0,0,0,0,0,8.315,2.6247048084,2.624672,0,0,0,0,-0.223694,30.6, 0.4, 0,0,0,1024,1024,1135,1024,0,0,17,0,35.6,0,0,89,4.178,4.163,0,0,0,0,4.489,96.26,2.6247048084,2.624672,6,P-GPS,
91800,2022-08-16 04:21:47,0,0,2.952756,,,2.9527888084,2.624672,0,0,0,0,0,8.315,2.9527888084,2.952756,0,0,0,0,0,30.7, 0.3, 0,0,0,1024,1024,1135,1024,0,0,17,0,35.6,0,0,89,4.178,4.163,0,0,0,0,4.489,96.26,2.9527888084,2.952756,6,P-GPS,
91900,2022-08-16 04:21:47,0,0,2.952756,,,2.9527888084,2.624672,0,0,0,0,0,8.315,2.9527888084,2.952756,0,0,0,0,0,30.7, 0, 0.1,0,0,1024,1024,1119,1024,0,0,14,0,35.6,0,0,89,4.178,4.163,0,0,0,0,4.489,96.26,2.9527888084,2.952756,6,P-GPS,
92000,2022-08-16 04:21:48,0,0,2.952756,,,2.9527888084,2.624672,0,0,0,0,0,8.315,2.9527888084,2.952756,0,0,0,0,-0.223694,30.6, -0.2, -0.4,0,0,1024,1024,1101,1024,0,0,12,0,35.6,0,0,89,4.178,4.163,0,0,0,0,4.489,96.26,2.9527888084,2.952756,6,P-GPS,
92100,2022-08-16 04:21:48,0,0,2.952756,,,2.9527888084,2.952756,0,0,0,0,0,8.343,2.9527888084,2.952756,0,0,0,0,-0.223694,30.5, -0.1, -0.8,0,0,1024,1024,1088,1024,0,0,10,0,35.6,0,0,89,4.171,4.162,0,0,0,0,3.876,96.26,2.9527888084,2.952756,6,P-GPS,
92200,2022-08-16 04:21:48,0,0,2.952756,,,2.9527888084,2.952756,0,0,0,0,0,8.343,2.9527888084,2.952756,0,0,0,0,-0.223694,30.5, -0.1, -0.3,0,0,1024,1024,1044,1024,0,0,3,0,35.6,0,0,89,4.171,4.162,0,0,0,0,3.876,96.26,2.9527888084,2.952756,6,P-GPS,
92300,2022-08-16 04:21:48,0,0,2.952756,,,2.9527888084,2.952756,0,0,0,0,0,8.343,2.9527888084,2.952756,0,0,0,0,0,30.5, 0.2, 0.3,0,0,1024,1024,1024,1024,0,0,0,0,35.6,0,0,89,4.171,4.162,0,0,0,0,3.876,96.26,2.9527888084,2.952756,6,P-GPS,
92400,2022-08-16 04:21:48,0,0,2.952756,,,2.9527888084,2.952756,0,0,0,0,0,8.343,2.9527888084,2.952756,0,0,0,0,0,30.5, 0.3, 0.8,0,0,1024,1024,1024,1024,0,0,0,0,35.6,0,0,89,4.171,4.162,0,0,0,0,3.876,96.26,2.9527888084,2.952756,6,P-GPS,
92500,2022-08-16 04:21:48,0,0,2.952756,,,2.9527888084,2.952756,0,0,0,0,0,8.343,2.9527888084,2.952756,0,0,0,0,0,30.4, 0.3, 0.6,0,0,1024,1024,1024,1024,0,0,0,0,35.6,0,0,89,4.171,4.162,0,0,0,0,3.876,96.26,2.9527888084,2.952756,6,P-GPS,
92600,2022-08-16 04:21:48,0,0,2.952756,,,2.9527888084,2.952756,0,0,0,0,0,8.343,2.9527888084,2.952756,0,0,0,0,0,30.4, 0.2, 0.6,0,0,1024,1024,1024,1024,0,0,0,0,35.6,0,0,89,4.171,4.162,0,0,0,0,3.876,96.26,2.9527888084,2.952756,6,P-GPS,
92700,2022-08-16 04:21:48,0,0,2.952756,,,2.9527888084,2.952756,0,0,0,0,0,8.343,2.9527888084,2.952756,0,0,0,0,0,30.4, 0.2, 1,0,0,1024,1024,1024,1024,0,0,0,0,35.6,0,0,89,4.171,4.162,0,0,0,0,3.876,96.26,2.9527888084,2.952756,6,P-GPS,
92800,2022-08-16 04:21:48,0,0,2.952756,,,2.9527888084,2.952756,0,0,0,0,0,8.343,2.9527888084,2.952756,0,0,0,0,0,30.4, 0.4, 0.8,0,0,1024,1024,1024,1024,0,0,0,0,35.6,0,0,89,4.171,4.162,0,0,0,0,3.876,96.26,2.9527888084,2.952756,6,P-GPS,
92900,2022-08-16 04:21:48,0,0,2.952756,,,2.9527888084,2.952756,0,0,0,0,0,8.343,2.9527888084,2.952756,0,0,0,0,0,30.5, 0.5, 0.6,0,0,1024,1024,1024,1024,0,0,0,0,35.6,0,0,89,4.171,4.162,0,0,0,0,3.876,96.26,2.9527888084,2.952756,6,P-GPS,
93000,2022-08-16 04:21:49,0,0,2.952756,,,2.9527888084,2.952756,0,0,0,0,0,8.343,2.9527888084,2.952756,0,0,0,0,0,30.6, 0.6, 1.1,0,0,1024,1024,1024,850,0,0,0,-26,35.6,0,0,89,4.171,4.162,0,0,0,0,3.876,96.26,2.9527888084,2.952756,6,P-GPS,
93100,2022-08-16 04:21:49,0,0,2.952756,,,2.9527888084,2.952756,0,0,0,0,0,8.313,2.9527888084,2.952756,0,0,0,0,0,30.6, 0.6, 1.3,0,0,1024,1024,1024,364,0,0,0,-100,35.6,0,0,89,4.174,4.158,0,0,0,0,4.264,96.26,2.9527888084,2.952756,6,P-GPS,
93200,2022-08-16 04:21:49,0,0,2.952756,,,2.9527888084,2.952756,0,0,0,0,0,8.313,2.9527888084,2.952756,0,0,0,0,0,30.3, 0.4, 1.2,0,0,1024,1024,1024,364,0,0,0,-100,34.3,0,0,89,4.174,4.158,0,0,0,0,4.264,96.26,2.9527888084,2.952756,6,P-GPS,
93300,2022-08-16 04:21:49,0,0,2.952756,,,2.9527888084,2.952756,0,0,0,0,0,8.313,2.9527888084,2.952756,0,0,0,0,0,27.9, 0.2, 0.9,0,0,1024,1024,1024,364,0,0,0,-100,30.3,0,0,89,4.174,4.158,0,0,0,0,4.264,96.26,2.9527888084,2.952756,6,P-GPS,
93400,2022-08-16 04:21:49,0,0,2.952756,,,2.9527888084,2.952756,0,0,0,0,0,8.313,2.9527888084,2.952756,0,0,0,0,0,23.6, 0, 0.5,0,0,1024,1024,1024,364,0,0,0,-100,25.6,0,0,89,4.174,4.158,0,0,0,0,4.264,96.26,2.9527888084,2.952756,6,P-GPS,
93500,2022-08-16 04:21:49,0,0,2.952756,,,2.9527888084,2.952756,0,0,0,0,0,8.313,2.9527888084,2.952756,0,0,0,0,0,19, -0.1, 0.2,0,0,1024,1024,1024,364,0,0,0,-100,20.8,0,0,89,4.174,4.158,0,0,0,0,4.264,96.26,2.9527888084,2.952756,6,P-GPS,
93600,2022-08-16 04:21:49,0,0,2.952756,,,2.9527888084,2.952756,0,0,0,0,0,8.313,2.9527888084,2.952756,0,0,0,0,0,14.3, 0, 0,0,0,1024,1024,1024,364,0,0,0,-100,16,0,0,89,4.174,4.158,0,0,0,0,4.264,96.26,2.9527888084,2.952756,6,P-GPS,
93700,2022-08-16 04:21:49,0,0,2.952756,,,2.9527888084,2.952756,0,0,0,0,0,8.313,2.9527888084,2.952756,0,0,0,0,0,9.6, 0, -0.2,0,0,1024,1024,1024,364,0,0,0,-100,11.2,0,0,89,4.174,4.158,0,0,0,0,4.264,96.26,2.9527888084,2.952756,6,P-GPS,
93800,2022-08-16 04:21:49,0,0,2.952756,,,2.9527888084,2.952756,0,0,0,0,0,8.313,2.9527888084,2.952756,0,0,0,0,0,4.8, 0, -0.4,0,0,1024,1024,1024,364,0,0,0,-100,6.4,0,0,89,4.174,4.158,0,0,0,0,4.264,96.26,2.9527888084,2.952756,6,P-GPS,
93900,2022-08-16 04:21:49,0,0,2.952756,,,2.9527888084,2.952756,0,0,0,0,0,8.313,2.9527888084,2.952756,0,0,0,0,0,0, 0.1, -0.3,0,0,1024,1024,1024,364,0,0,0,-100,1.6,0,0,89,4.174,4.158,0,0,0,0,4.264,96.26,2.9527888084,2.952756,6,P-GPS,
94000,2022-08-16 04:21:50,0,0,2.952756,,,2.9527888084,2.952756,0,0,0,0,0,8.313,2.9527888084,2.952756,0,0,0,0,0,355.3, 0.1, -0.2,0,0,1024,1024,1024,364,0,0,0,-100,356.9,0,0,89,4.174,4.158,0,0,0,0,4.264,96.26,2.9527888084,2.952756,6,P-GPS,
94100,2022-08-16 04:21:50,0,0,2.952756,,,2.9527888084,2.952756,0,0,0,0,0,8.331,2.9527888084,2.952756,0,0,0,0,0,350.5, 0, -0.2,0,0,1024,1024,1024,364,0,0,0,-100,352.1,0,0,89,4.17,4.154,0,0,0,0,4.142,96.26,2.9527888084,2.952756,6,P-GPS,
94200,2022-08-16 04:21:50,0,0,2.952756,,,2.9527888084,2.952756,0,0,0,0,0,8.331,2.9527888084,2.952756,0,0,0,0,0,345.6, -0.1, -0.4,0,0,1024,1024,1024,364,0,0,0,-100,347.3,0,0,89,4.17,4.154,0,0,0,0,4.142,96.26,2.9527888084,2.952756,6,P-GPS,
94300,2022-08-16 04:21:50,0,0,2.952756,,,2.9527888084,2.952756,0,0,0,0,0,8.331,2.9527888084,2.952756,0,0,0,0,0,340.8, 0.1, -0.3,0,0,1024,1024,1024,364,0,0,0,-100,342.5,0,0,89,4.17,4.154,0,0,0,0,4.142,96.26,2.9527888084,2.952756,6,P-GPS,
94400,2022-08-16 04:21:50,0,0,2.952756,,,2.9527888084,2.952756,0,0,0,0,0,8.331,2.9527888084,2.952756,0,0,0,0,0,336.1, 0, -0.2,0,0,1024,1024,1024,364,0,0,0,-100,337.7,0,0,89,4.17,4.154,0,0,0,0,4.142,96.26,2.9527888084,2.952756,6,P-GPS,
94500,2022-08-16 04:21:50,0,0,2.952756,,,2.9527888084,2.952756,0,0,0,0,0,8.331,2.9527888084,2.952756,0,0,0,0,0,331.3, 0, -0.1,0,0,1024,1024,1024,364,0,0,0,-100,332.9,0,0,89,4.17,4.154,0,0,0,0,4.142,96.26,2.9527888084,2.952756,6,P-GPS,
94600,2022-08-16 04:21:50,0,0,3.28084,,,3.2808728084,2.952756,0,0,0,0,0,8.331,3.2808728084,3.28084,0,0,0,0,0,326.5, 0, 0.1,0,0,1024,1024,1024,364,0,0,0,-100,328.1,0,0,89,4.17,4.154,0,0,0,0,4.142,96.26,3.2808728084,3.28084,6,P-GPS,
94700,2022-08-16 04:21:50,0,0,3.28084,,,3.2808728084,2.952756,0,0,0,0,0,8.331,3.2808728084,3.28084,0,0,0,0,0,321.7, 0, 0,0,0,1024,1024,1024,364,0,0,0,-100,323.3,0,0,89,4.17,4.154,0,0,0,0,4.142,96.26,3.2808728084,3.28084,6,P-GPS,
94800,2022-08-16 04:21:50,0,0,3.28084,,,3.2808728084,2.952756,0,0,0,0,0,8.331,3.2808728084,3.28084,0,0,0,0,0,316.9, 0, -0.1,0,0,1024,1024,1024,364,0,0,0,-100,318.5,0,0,89,4.17,4.154,0,0,0,0,4.142,96.26,3.2808728084,3.28084,6,P-GPS,
94900,2022-08-16 04:21:50,0,0,3.28084,,,3.2808728084,2.952756,0,0,0,0,0,8.331,3.2808728084,3.28084,0,0,0,0,0,312.2, -0.2, -0.3,0,0,1024,1024,1024,364,0,0,0,-100,313.7,0,0,89,4.17,4.154,0,0,0,0,4.142,96.26,3.2808728084,3.28084,6,P-GPS,
95000,2022-08-16 04:21:51,0,0,3.28084,,,3.2808728084,2.952756,0,0,0,0,0,8.331,3.2808728084,3.28084,0,0,0,0,0,307.3, -0.2, -0.1,0,0,1024,1024,1024,364,0,0,0,-100,308.9,0,0,89,4.17,4.154,0,0,0,0,4.142,96.26,3.2808728084,3.28084,6,P-GPS,
95100,2022-08-16 04:21:51,0,0,3.28084,,,3.2808728084,2.952756,0,0,0,0,0,8.325,3.2808728084,3.28084,0,0,0,0,0,302.6, -0.1, -0.2,0,0,1024,1024,1024,364,0,0,0,-100,304.1,0,0,89,4.166,4.15,0,0,0,0,4.172,96.26,3.2808728084,3.28084,6,P-GPS,
95200,2022-08-16 04:21:51,0,0,3.28084,,,3.2808728084,2.952756,0,0,0,0,0,8.325,3.2808728084,3.28084,0,0,0,0,0,297.8, -0.1, 0,0,0,1024,1024,1024,364,0,0,0,-100,299.3,0,0,89,4.166,4.15,0,0,0,0,4.172,96.26,3.2808728084,3.28084,6,P-GPS,
95300,2022-08-16 04:21:51,0,0,3.28084,,,3.2808728084,2.952756,0,0,0,0,0,8.325,3.2808728084,3.28084,0,0,0,0,0,292.9, 0.2, -0.1,0,0,1024,1024,1024,403,0,0,0,-94,294.5,0,0,89,4.166,4.15,0,0,0,0,4.172,96.26,3.2808728084,3.28084,6,P-GPS,
95400,2022-08-16 04:21:51,0,0,3.28084,,,3.2808728084,2.952756,0,0,0,0,0,8.325,3.2808728084,3.28084,0,0,0,0,0,288, 0.1, -0.2,0,0,1024,1024,1024,1024,0,0,0,0,289.8,0,0,89,4.166,4.15,0,0,0,0,4.172,96.26,3.2808728084,3.28084,6,P-GPS,
95500,2022-08-16 04:21:51,0,0,3.28084,,,3.2808728084,2.952756,0,0,0,0,0,8.325,3.2808728084,3.28084,0,0,0,0,0,283.7, 0.1, -0.4,0,0,1024,1024,1024,1024,0,0,0,0,286.7,0,0,89,4.166,4.15,0,0,0,0,4.172,96.26,3.2808728084,3.28084,6,P-GPS,
95600,2022-08-16 04:21:51,0,0,3.28084,,,3.2808728084,2.952756,0,0,0,0,0,8.325,3.2808728084,3.28084,0,0,0,0,0,281.5, 0.2, -0.1,0,0,1024,1024,1024,989,0,0,0,-5,285.2,0,0,89,4.166,4.15,0,0,0,0,4.172,96.26,3.2808728084,3.28084,6,P-GPS,
95700,2022-08-16 04:21:51,0,0,3.28084,,,3.2808728084,2.952756,0,0,0,0,0,8.325,3.2808728084,3.28084,0,0,0,0,0,280.4, 0.1, 0,0,0,1024,1024,1024,782,0,0,0,-37,285,0,0,89,4.166,4.15,0,0,0,0,4.172,96.26,3.2808728084,3.28084,6,P-GPS,
95800,2022-08-16 04:21:51,0,0,3.28084,,,3.2808728084,2.952756,0,0,0,0,0,8.325,3.2808728084,3.28084,0,0,0,0,0,280.1, 0, 0,0,0,1024,1024,1024,746,0,0,0,-42,284.9,0,0,89,4.166,4.15,0,0,0,0,4.172,96.26,3.2808728084,3.28084,6,P-GPS,
95900,2022-08-16 04:21:51,0,0,3.28084,,,3.2808728084,2.952756,0,0,0,0,0,8.325,3.2808728084,3.28084,0,0,0,0,0,279.9, 0.1, 0.2,0,0,1024,1024,1024,746,0,0,0,-42,284.5,0,0,89,4.166,4.15,0,0,0,0,4.172,96.26,3.2808728084,3.28084,6,P-GPS,
96000,2022-08-16 04:21:52,0,0,3.28084,,,3.2808728084,2.952756,0,0,0,0,0,8.325,3.2808728084,3.28084,0,0,0,0,0,279.3, 0.1, 0.3,0,0,1024,1024,1024,757,0,0,0,-40,283.7,0,0,89,4.166,4.15,0,0,0,0,4.172,96.26,3.2808728084,3.28084,6,P-GPS,
96100,2022-08-16 04:21:52,0,0,3.28084,,,3.2808728084,2.952756,0,0,0,0,0,8.32,3.2808728084,3.28084,0,0,0,0,0,278.3, 0.5, 0,0,0,1024,1024,1024,693,0,0,0,-50,282.7,0,0,89,4.165,4.15,0,0,0,0,4.176,96.26,3.2808728084,3.28084,6,P-GPS,
96200,2022-08-16 04:21:52,0,0,3.28084,,,3.2808728084,2.952756,0,0,0,0,0,8.32,3.2808728084,3.28084,0,0,0,0,0,277.4, 0.6, 0,0,0,1024,1024,1024,590,0,0,0,-66,281.7,0,0,89,4.165,4.15,0,0,0,0,4.176,96.26,3.2808728084,3.28084,6,P-GPS,
96300,2022-08-16 04:21:52,0,0,3.28084,,,3.2808728084,2.952756,0,0,0,0,0,8.32,3.2808728084,3.28084,0,0,0,0,0,276.2, 0.8, -0.1,0,0,1024,1024,1024,569,0,0,0,-69,280.2,0,0,89,4.165,4.15,0,0,0,0,4.176,96.26,3.2808728084,3.28084,6,P-GPS,
96400,2022-08-16 04:21:52,0,0,3.28084,,,3.2808728084,2.952756,0,0,0,0,0,8.32,3.2808728084,3.28084,0,0,0,0,0,274.4, 0.6, -0.2,0,0,1024,1024,1024,569,0,0,0,-69,278.1,0,0,89,4.165,4.15,0,0,0,0,4.176,96.26,3.2808728084,3.28084,6,P-GPS,
96500,2022-08-16 04:21:52,0,0,3.28084,,,3.2808728084,2.952756,0,0,0,0,0,8.32,3.2808728084,3.28084,0,0,0,0,0,272.2, 0.3, -0.4,0,0,1024,1024,1024,569,0,0,0,-69,275.6,0,0,89,4.165,4.15,0,0,0,0,4.176,96.26,3.2808728084,3.28084,6,P-GPS,
96600,2022-08-16 04:21:52,0,0,3.28084,,,3.2808728084,2.952756,0,0,0,0,0,8.32,3.2808728084,3.28084,0,0,0,0,0,269.8, 0.3, -0.4,0,0,1024,1024,1024,561,0,0,0,-70,273.2,0,0,89,4.165,4.15,0,0,0,0,4.176,96.26,3.2808728084,3.28084,6,P-GPS,
96700,2022-08-16 04:21:52,0,0,3.28084,,,3.2808728084,2.952756,0,0,0,0,0,8.32,3.2808728084,3.28084,0,0,0,0,0,267.3, 0.2, -0.4,0,0,1024,1024,1024,544,0,0,0,-73,270.7,0,0,89,4.165,4.15,0,0,0,0,4.176,96.26,3.2808728084,3.28084,6,P-GPS,
96800,2022-08-16 04:21:52,0,0,3.28084,,,3.2808728084,2.952756,0,0,0,0,0,8.32,3.2808728084,3.28084,0,0,0,0,0,264.9, 0.2, -0.2,0,0,1024,1024,1024,544,0,0,0,-73,268.2,0,0,89,4.165,4.15,0,0,0,0,4.176,96.26,3.2808728084,3.28084,6,P-GPS,
96900,2022-08-16 04:21:52,0,0,3.28084,,,3.2808728084,2.952756,0,0,0,0,0,8.32,3.2808728084,3.28084,0,0,0,0,0,262.3, 0.1, -0.2,0,0,1024,1024,1024,546,0,0,0,-72,265.6,0,0,89,4.165,4.15,0,0,0,0,4.176,96.26,3.2808728084,3.28084,6,P-GPS,
97000,2022-08-16 04:21:53,0,0,3.28084,,,3.2808728084,2.952756,0,0,0,0,0,8.32,3.2808728084,3.28084,0,0,0,0,0,259.7, 0.1, -0.2,0,0,1024,1024,1024,572,0,0,0,-68,262.8,0,0,89,4.165,4.15,0,0,0,0,4.176,96.26,3.2808728084,3.28084,6,P-GPS,
97100,2022-08-16 04:21:53,0,0,3.28084,,,3.2808728084,2.952756,0,0,0,0,0,8.316,3.2808728084,3.28084,0,0,0,0,0,257, 0.1, -0.1,0,0,1024,1024,1024,577,0,0,0,-68,260.2,0,0,89,4.163,4.149,0,0,0,0,4.226,96.26,3.2808728084,3.28084,6,P-GPS,
97200,2022-08-16 04:21:53,0,0,3.608924,,,3.6089568084,2.952756,0,0,0,0,0,8.316,3.6089568084,3.608924,0,0,0,0,0,254.6, 0.2, -0.1,0,0,1024,1024,1024,577,0,0,0,-68,257.8,0,0,89,4.163,4.149,0,0,0,0,4.226,96.26,3.6089568084,3.608924,6,P-GPS,
97300,2022-08-16 04:21:53,0,0,3.608924,,,3.6089568084,2.952756,0,0,0,0,0,8.316,3.6089568084,3.608924,0,0,0,0,0,252.2, 0.2, 0.1,0,0,1024,1024,1024,577,0,0,0,-68,255.4,0,0,89,4.163,4.149,0,0,0,0,4.226,96.26,3.6089568084,3.608924,6,P-GPS,
97400,2022-08-16 04:21:53,0,0,3.608924,,,3.6089568084,2.952756,0,0,0,0,0,8.316,3.6089568084,3.608924,0,0,0,0,0,249.9, 0.1, 0.3,0,0,1024,1024,1024,578,0,0,0,-68,253,0,0,89,4.163,4.149,0,0,0,0,4.226,96.26,3.6089568084,3.608924,6,P-GPS,
97500,2022-08-16 04:21:53,0,0,3.608924,,,3.6089568084,2.952756,0,0,0,0,0,8.316,3.6089568084,3.608924,0,0,0,0,0,247.5, 0.1, 0.2,0,0,1024,1024,1024,578,0,0,0,-68,250.7,0,0,89,4.163,4.149,0,0,0,0,4.226,96.26,3.6089568084,3.608924,6,P-GPS,
97600,2022-08-16 04:21:53,0,0,3.608924,,,3.6089568084,2.952756,0,0,0,0,0,8.316,3.6089568084,3.608924,0,0,0,0,0,245.1, 0.5, 0.1,0,0,1024,1024,1024,576,0,0,0,-68,248.3,0,0,89,4.163,4.149,0,0,0,0,4.226,96.26,3.6089568084,3.608924,6,P-GPS,
97700,2022-08-16 04:21:53,0,0,3.608924,,,3.6089568084,2.952756,0,0,0,0,0,8.316,3.6089568084,3.608924,0,0,0,0,0,242.7, 0.4, 0.2,0,0,1024,1024,1024,576,0,0,0,-68,245.9,0,0,89,4.163,4.149,0,0,0,0,4.226,96.26,3.6089568084,3.608924,6,P-GPS,
97800,2022-08-16 04:21:53,0,0,3.608924,,,3.6089568084,2.952756,0,0,0,0,0,8.316,3.6089568084,3.608924,0,0,0,0,0,240.3, 0.2, 0.3,0,0,1024,1024,1024,617,0,0,0,-62,243.6,0,0,89,4.163,4.149,0,0,0,0,4.226,96.26,3.6089568084,3.608924,6,P-GPS,
97900,2022-08-16 04:21:53,0,0,3.608924,,,3.6089568084,2.952756,0,0,0,0,0,8.316,3.6089568084,3.608924,0,0,0,0,0,238, 0.2, 0.1,0,0,1024,1024,1096,677,0,0,11,-53,241.3,0,0,89,4.163,4.149,0,0,0,0,4.226,96.26,3.6089568084,3.608924,6,P-GPS,
98000,2022-08-16 04:21:54,0,0,3.608924,,,3.6089568084,2.952756,0,0,0,0,0,8.316,3.6089568084,3.608924,0,0,0,0,0,235.9, 0.3, 0.4,0,0,1024,1024,1136,729,0,0,17,-45,239.4,0,0,89,4.163,4.149,0,0,0,0,4.226,96.26,3.6089568084,3.608924,6,P-GPS,
98100,2022-08-16 04:21:54,0,0,3.608924,,,3.6089568084,2.952756,0,0,0,0,0,8.312,3.6089568084,3.608924,0,0,0,0,0,234.3, 0.2, 0.7,0,0,1024,1024,1145,754,0,0,18,-41,238,0,0,89,4.162,4.146,0,0,0,0,4.193,96.26,3.6089568084,3.608924,6,P-GPS,
98200,2022-08-16 04:21:54,0,0,3.608924,,,3.6089568084,2.952756,0,0,0,0,0,8.312,3.6089568084,3.608924,0,0,0,0,-0.223694,232.9, 0.3, 0.5,0,0,1024,1024,1198,836,0,0,26,-28,236.8,0,0,89,4.162,4.146,0,0,0,0,4.193,96.26,3.6089568084,3.608924,6,P-GPS,
98300,2022-08-16 04:21:54,0,0,3.608924,,,3.6089568084,2.952756,0,0,0,0,0,8.312,3.6089568084,3.608924,0,0,0,0,-0.223694,231.8, 0, 0.2,0,0,1024,1024,1123,886,0,0,15,-21,235.8,0,0,89,4.162,4.146,0,0,0,0,4.193,96.26,3.6089568084,3.608924,6,P-GPS,
98400,2022-08-16 04:21:54,0,0,3.937008,,,3.9370408084,2.952756,0,0,0,0,0,8.312,3.9370408084,3.937008,0,0,0,0,-0.447388,230.9, -0.2, 0.5,0,0,1024,1024,1024,1024,0,0,0,0,235.2,0,0,89,4.162,4.146,0,0,0,0,4.193,96.26,3.9370408084,3.937008,6,P-GPS,
98500,2022-08-16 04:21:54,0,0,3.937008,,,3.9370408084,2.952756,0,0,0,0,0,8.312,3.9370408084,3.937008,0,0,0,0,-0.447388,230.2, -0.1, 0.2,0,0,1024,1024,1024,1024,0,0,0,0,234.8,0,0,89,4.162,4.146,0,0,0,0,4.193,96.26,3.9370408084,3.937008,6,P-GPS,
98600,2022-08-16 04:21:54,0,0,3.937008,,,3.9370408084,3.28084,0,0,0,0,0,8.312,3.9370408084,3.937008,0,0,0,0,-0.223694,229.8, 0.1, 0,0,0,1024,1024,1024,1024,0,0,0,0,234.6,0,0,89,4.162,4.146,0,0,0,0,4.193,96.26,3.9370408084,3.937008,6,P-GPS,
98700,2022-08-16 04:21:54,0,0,3.937008,,,3.9370408084,3.28084,0,0,0,0,0,8.312,3.9370408084,3.937008,0,0,0,0,-0.223694,229.6, 0.1, -0.4,0,0,1024,1024,1024,1024,0,0,0,0,234.6,0,0,89,4.162,4.146,0,0,0,0,4.193,96.26,3.9370408084,3.937008,6,P-GPS,
98800,2022-08-16 04:21:54,0,0,3.937008,,,3.9370408084,3.28084,0,0,0,0,0,8.312,3.9370408084,3.937008,0,0,0,0,0,229.5, 0.1, -0.4,0,0,1024,1024,1024,1024,0,0,0,0,234.6,0,0,89,4.162,4.146,0,0,0,0,4.193,96.26,3.9370408084,3.937008,6,P-GPS,
98900,2022-08-16 04:21:54,0,0,3.937008,,,3.9370408084,3.28084,0,0,0,0,0,8.312,3.9370408084,3.937008,0,0,0,0,0,229.6, 0.1, -0.3,0,0,1024,1024,1024,1024,0,0,0,0,234.6,0,0,89,4.162,4.146,0,0,0,0,4.193,96.26,3.9370408084,3.937008,6,P-GPS,
99000,2022-08-16 04:21:55,0,0,3.937008,,,3.9370408084,3.28084,0,0,0,0,0,8.312,3.9370408084,3.937008,0,0,0,0,0,229.5, 0.2, -0.4,0,0,1024,1024,1024,1024,0,0,0,0,234.6,0,0,89,4.162,4.146,0,0,0,0,4.193,96.26,3.9370408084,3.937008,6,P-GPS,
99100,2022-08-16 04:21:55,0,0,4.265092,,,4.2651248084,3.28084,0,0,0,0,0,8.312,4.2651248084,4.265092,0,0,0,0,0,229.5, 0, 0,0,0,1024,1024,1042,1024,0,0,3,0,234.6,0,0,89,4.162,4.146,0,0,0,0,4.193,96.26,4.2651248084,4.265092,6,P-GPS,
99200,2022-08-16 04:21:55,0,0,4.265092,,,4.2651248084,3.28084,0,0,0,0,0,8.312,4.2651248084,4.265092,0,0,0,0,0,229.6, 0, 0.1,0,0,1024,1024,1189,1024,0,0,25,0,234.6,0,0,89,4.162,4.146,0,0,0,0,4.193,96.26,4.2651248084,4.265092,6,P-GPS,
99300,2022-08-16 04:21:55,0,0,4.265092,,,4.2651248084,3.28084,0,0,0,0,0,8.292,4.2651248084,4.265092,0,0,0,0,0,229.6, 0.1, 0.2,0,0,1024,1024,1169,1024,0,0,22,0,234.6,0,0,89,4.16,4.145,0,0,0,0,4.28,96.44,4.2651248084,4.265092,6,P-GPS,
99400,2022-08-16 04:21:55,0,0,4.265092,,,4.2651248084,3.28084,0,0,0,0,0,8.292,4.2651248084,4.265092,0,0,0,0,-0.223694,229.6, 0.2, -0.1,0,0,1024,1024,1062,1024,0,0,6,0,234.6,0,0,89,4.16,4.145,0,0,0,0,4.28,96.44,4.2651248084,4.265092,6,P-GPS,
99500,2022-08-16 04:21:55,0,0,4.265092,,,4.2651248084,3.28084,0,0,0,0,0,8.292,4.2651248084,4.265092,0,0,0,0,-0.447388,229.5, 0.2, -0.2,0,0,1024,1024,1024,1024,0,0,0,0,234.6,0,0,89,4.16,4.145,0,0,0,0,4.28,96.44,4.2651248084,4.265092,6,P-GPS,
99600,2022-08-16 04:21:55,0,0,4.265092,,,4.2651248084,3.28084,0,0,0,0,0,8.292,4.2651248084,4.265092,0,0,0,0,-0.223694,229.5, 0.4, -0.2,0,0,1024,1024,1024,1024,0,0,0,0,234.6,0,0,89,4.16,4.145,0,0,0,0,4.28,96.44,4.2651248084,4.265092,6,P-GPS,
99700,2022-08-16 04:21:55,0,0,4.265092,,,4.2651248084,3.28084,0,0,0,0,0,8.292,4.2651248084,4.265092,0,0,0,0,0,229.6, 0.5, 0.2,0,0,1024,1024,1024,1024,0,0,0,0,234.6,0,0,89,4.16,4.145,0,0,0,0,4.28,96.44,4.2651248084,4.265092,6,P-GPS,
99800,2022-08-16 04:21:55,0,0,4.265092,,,4.2651248084,3.28084,0,0,0,0,0,8.292,4.2651248084,4.265092,0,0,0,0,0,229.6, 0.4, 0,0,0,1024,1024,1024,1024,0,0,0,0,234.6,0,0,89,4.16,4.145,0,0,0,0,4.28,96.44,4.2651248084,4.265092,6,P-GPS,
99900,2022-08-16 04:21:55,0,0,4.265092,,,4.2651248084,3.28084,0,0,0,0,0,8.292,4.2651248084,4.265092,0,0,0,0,0,229.6, 0.4, 0,0,0,1024,1024,1024,1024,0,0,0,0,234.6,0,0,89,4.16,4.145,0,0,0,0,4.28,96.44,4.2651248084,4.265092,6,P-GPS,
100000,2022-08-16 04:21:56,0,0,4.265092,,,4.2651248084,3.28084,0,0,0,0,0,8.292,4.2651248084,4.265092,0,0,0,0,0,229.6, 0.3, -0.1,0,0,1024,1024,1024,1024,0,0,0,0,234.6,0,0,89,4.16,4.145,0,0,0,0,4.28,96.44,4.2651248084,4.265092,6,P-GPS,
100100,2022-08-16 04:21:56,0,0,4.265092,,,4.2651248084,3.28084,0,0,0,0,0,8.292,4.2651248084,4.265092,0,0,0,0,0,229.6, 0.3, -0.1,0,0,1024,1024,1024,1002,0,0,0,-3,234.6,0,0,89,4.16,4.145,0,0,0,0,4.28,96.44,4.2651248084,4.265092,6,P-GPS,
100200,2022-08-16 04:21:56,0,0,4.265092,,,4.2651248084,3.28084,0,0,0,0,0,8.292,4.2651248084,4.265092,0,0,0,0,0,229.6, 0.2, -0.3,0,0,1024,1024,1024,836,0,0,0,-28,234.6,0,0,89,4.16,4.145,0,0,0,0,4.28,96.44,4.2651248084,4.265092,6,P-GPS,
100300,2022-08-16 04:21:56,0,0,4.265092,,,4.2651248084,3.28084,0,0,0,0,0,8.288,4.2651248084,4.265092,0,0,0,0,0,229.6, 0.2, -0.4,0,0,1024,1024,1024,641,0,0,0,-58,234.5,0,0,88,4.159,4.144,0,0,0,0,4.214,96.44,4.2651248084,4.265092,6,P-GPS,
100400,2022-08-16 04:21:56,0,0,4.265092,,,4.2651248084,3.28084,0,0,0,0,0,8.288,4.2651248084,4.265092,0,0,0,0,0,229.5, 0.4, -0.4,0,0,1024,1024,1024,652,0,0,0,-56,234.1,0,0,88,4.159,4.144,0,0,0,0,4.214,96.44,4.2651248084,4.265092,6,P-GPS,
100500,2022-08-16 04:21:56,0,0,4.265092,,,4.2651248084,3.28084,0,0,0,0,0,8.288,4.2651248084,4.265092,0,0,0,0,0,228.7, 0.3, -0.6,0,0,1024,1024,1024,652,0,0,0,-56,232.8,0,0,88,4.159,4.144,0,0,0,0,4.214,96.44,4.2651248084,4.265092,6,P-GPS,
100600,2022-08-16 04:21:56,0,0,4.265092,,,4.2651248084,3.28084,0,0,0,0,0,8.288,4.2651248084,4.265092,0,0,0,0,0,227, 0.4, -0.6,0,0,1024,1024,1024,722,0,0,0,-46,231.1,0,0,88,4.159,4.144,0,0,0,0,4.214,96.44,4.2651248084,4.265092,6,P-GPS,
100700,2022-08-16 04:21:56,0,0,4.265092,,,4.2651248084,3.28084,0,0,0,0,0,8.288,4.2651248084,4.265092,0,0,0,0,0,225.4, 0.4, -0.6,0,0,1024,1024,1024,687,0,0,0,-51,229.6,0,0,88,4.159,4.144,0,0,0,0,4.214,96.44,4.2651248084,4.265092,6,P-GPS,
100800,2022-08-16 04:21:56,0,0,4.265092,,,4.2651248084,3.28084,0,0,0,0,0,8.288,4.2651248084,4.265092,0,0,0,0,0,224.1, 0.2, -0.7,0,0,1024,1024,1024,647,0,0,0,-57,228.4,0,0,88,4.159,4.144,0,0,0,0,4.214,96.44,4.2651248084,4.265092,6,P-GPS,
100900,2022-08-16 04:21:56,0,0,4.265092,,,4.2651248084,3.28084,0,0,0,0,0,8.288,4.2651248084,4.265092,0,0,0,0,0,222.9, 0.2, -0.5,0,0,1024,1024,1024,634,0,0,0,-59,226.9,0,0,88,4.159,4.144,0,0,0,0,4.214,96.44,4.2651248084,4.265092,6,P-GPS,
101000,2022-08-16 04:21:57,0,0,4.265092,,,4.2651248084,3.28084,0,0,0,0,0,8.288,4.2651248084,4.265092,0,0,0,0,0,221.4, 0.4, -0.2,0,0,1024,1024,1024,636,0,0,0,-59,225.2,0,0,88,4.159,4.144,0,0,0,0,4.214,96.44,4.2651248084,4.265092,6,P-GPS,
101100,2022-08-16 04:21:57,0,0,4.265092,,,4.2651248084,3.28084,0,0,0,0,0,8.288,4.2651248084,4.265092,0,0,0,0,0,219.6, 0.4, -0.1,0,0,1024,1024,1024,635,0,0,0,-59,223.3,0,0,88,4.159,4.144,0,0,0,0,4.214,96.44,4.2651248084,4.265092,6,P-GPS,
101200,2022-08-16 04:21:57,0,0,4.265092,,,4.2651248084,3.28084,0,0,0,0,0,8.288,4.2651248084,4.265092,0,0,0,0,0,217.8, 0.2, 0.1,0,0,1024,1024,1024,629,0,0,0,-60,221.5,0,0,88,4.159,4.144,0,0,0,0,4.214,96.44,4.2651248084,4.265092,6,P-GPS,
101300,2022-08-16 04:21:57,0,0,4.265092,,,4.2651248084,3.28084,0,0,0,0,0,8.3,4.2651248084,4.265092,0,0,0,0,0,215.8, 0.3, 0,0,0,1024,1024,1024,630,0,0,0,-60,219.6,0,0,88,4.156,4.141,0,0,0,0,4.126,96.44,4.2651248084,4.265092,6,P-GPS,
101400,2022-08-16 04:21:57,0,0,4.265092,,,4.2651248084,3.28084,0,0,0,0,0,8.3,4.2651248084,4.265092,0,0,0,0,0,213.9, 0.5, 0.1,0,0,1024,1024,1024,630,0,0,0,-60,217.7,0,0,88,4.156,4.141,0,0,0,0,4.126,96.44,4.2651248084,4.265092,6,P-GPS,
101500,2022-08-16 04:21:57,0,0,4.265092,,,4.2651248084,3.28084,0,0,0,0,0,8.3,4.2651248084,4.265092,0,0,0,0,0,212, 0.4, -0.1,0,0,1024,1024,1024,730,0,0,0,-45,215.8,0,0,88,4.156,4.141,0,0,0,0,4.126,96.44,4.2651248084,4.265092,6,P-GPS,
101600,2022-08-16 04:21:57,0,0,4.265092,,,4.2651248084,3.28084,0,0,0,0,0,8.3,4.2651248084,4.265092,0,0,0,0,0,210.1, 0.4, -0.2,0,0,1024,1024,1024,772,0,0,0,-38,214.2,0,0,88,4.156,4.141,0,0,0,0,4.126,96.44,4.2651248084,4.265092,6,P-GPS,
101700,2022-08-16 04:21:57,0,0,4.265092,,,4.2651248084,3.28084,0,0,0,0,0,8.3,4.2651248084,4.265092,0,0,0,0,0,208.7, 0.2, -0.2,0,0,1024,1024,1024,599,0,0,0,-64,213.1,0,0,88,4.156,4.141,0,0,0,0,4.126,96.44,4.2651248084,4.265092,6,P-GPS,
101800,2022-08-16 04:21:57,0,0,4.265092,,,4.2651248084,3.28084,0,0,0,0,0,8.3,4.2651248084,4.265092,0,0,0,0,0,207.7, 0.3, -0.1,0,0,1024,1024,1024,511,0,0,0,-78,211.9,0,0,88,4.156,4.141,0,0,0,0,4.126,96.44,4.2651248084,4.265092,6,P-GPS,
101900,2022-08-16 04:21:57,0,0,4.265092,,,4.2651248084,3.28084,0,0,0,0,0,8.3,4.2651248084,4.265092,0,0,0,0,0,206.2, 0.1, 0,0,0,1024,1024,1024,549,0,0,0,-72,209.8,0,0,88,4.156,4.141,0,0,0,0,4.126,96.44,4.2651248084,4.265092,6,P-GPS,
102000,2022-08-16 04:21:58,0,0,4.265092,,,4.2651248084,3.28084,0,0,0,0,0,8.3,4.2651248084,4.265092,0,0,0,0,0,203.7, 0.3, 0.2,0,0,1024,1024,1024,662,0,0,0,-55,206.9,0,0,88,4.156,4.141,0,0,0,0,4.126,96.44,4.2651248084,4.265092,6,P-GPS,
102100,2022-08-16 04:21:58,0,0,4.265092,,,4.2651248084,3.28084,0,0,0,0,0,8.3,4.2651248084,4.265092,0,0,0,0,0,200.9, 0.4, 0.2,0,0,1024,1024,1024,675,0,0,0,-53,204.2,0,0,88,4.156,4.141,0,0,0,0,4.126,96.44,4.2651248084,4.265092,6,P-GPS,
102200,2022-08-16 04:21:58,0,0,4.265092,,,4.2651248084,3.28084,0,0,0,0,0,8.3,4.2651248084,4.265092,0,0,0,0,0,198.4, 0.3, 0,0,0,1024,1024,1024,675,0,0,0,-53,202.2,0,0,88,4.156,4.141,0,0,0,0,4.126,96.44,4.2651248084,4.265092,6,P-GPS,
102300,2022-08-16 04:21:58,0,0,4.265092,,,4.2651248084,3.28084,0,0,0,0,0,8.297,4.2651248084,4.265092,0,0,0,0,0,196.6, 0.2, -0.2,0,0,1024,1024,1024,611,0,0,0,-63,200.6,0,0,88,4.155,4.141,0,0,0,0,4.184,96.62,4.2651248084,4.265092,6,P-GPS,
102400,2022-08-16 04:21:58,0,0,4.265092,,,4.2651248084,3.28084,0,0,0,0,0,8.297,4.2651248084,4.265092,0,0,0,0,0,194.9, 0.3, 0,0,0,1024,1024,1024,638,0,0,0,-58,198.8,0,0,88,4.155,4.141,0,0,0,0,4.184,96.62,4.2651248084,4.265092,6,P-GPS,
102500,2022-08-16 04:21:58,0,0,4.265092,,,4.2651248084,3.28084,0,0,0,0,0,8.297,4.2651248084,4.265092,0,0,0,0,0,193, 0.4, 0,0,0,1024,1024,1024,1024,0,0,0,0,196.8,0,0,88,4.155,4.141,0,0,0,0,4.184,96.62,4.2651248084,4.265092,6,P-GPS,
102600,2022-08-16 04:21:58,0,0,4.265092,,,4.2651248084,3.28084,0,0,0,0,0,8.297,4.2651248084,4.265092,0,0,0,0,0,191.2, 0.5, -0.2,0,0,1024,1024,1024,1024,0,0,0,0,195.5,0,0,88,4.155,4.141,0,0,0,0,4.184,96.62,4.2651248084,4.265092,6,P-GPS,
102700,2022-08-16 04:21:58,0,0,4.265092,,,4.2651248084,3.28084,0,0,0,0,0,8.297,4.2651248084,4.265092,0,0,0,0,0,190.4, 0.3, -0.1,0,0,1024,1024,1024,1024,0,0,0,0,195,0,0,88,4.155,4.141,0,0,0,0,4.184,96.62,4.2651248084,4.265092,6,P-GPS,
102800,2022-08-16 04:21:58,0,0,4.265092,,,4.2651248084,3.28084,0,0,0,0,0,8.297,4.2651248084,4.265092,0,0,0,0,0,190, 0, -0.5,0,0,1026,1024,1024,1024,0,0,0,0,194.9,0,0,88,4.155,4.141,0,0,0,0,4.184,96.62,4.2651248084,4.265092,6,P-GPS,
102900,2022-08-16 04:21:58,0,0,4.265092,,,4.2651248084,3.28084,0,0,0,0,0,8.297,4.2651248084,4.265092,0,0,0,0,0,190, 0, -0.7,0,0,1058,1024,1024,1024,5,0,0,0,194.9,0,0,88,4.155,4.141,0,0,0,0,4.184,96.62,4.2651248084,4.265092,6,P-GPS,
103000,2022-08-16 04:21:59,0,0,4.265092,,,4.2651248084,3.28084,0,0,0,0,0,8.297,4.2651248084,4.265092,0,0,0,0,0,190, 0, -0.5,0,0,1087,1024,1024,1024,10,0,0,0,194.9,0,0,88,4.155,4.141,0,0,0,0,4.184,96.62,4.2651248084,4.265092,6,P-GPS,
103100,2022-08-16 04:21:59,0,0,4.265092,,,4.2651248084,3.28084,0,0,0,0,0,8.297,4.2651248084,4.265092,0,0,0,0,0,189.9, -0.1, -0.4,0,0,1087,1024,1024,1024,10,0,0,0,194.9,0,0,88,4.155,4.141,0,0,0,0,4.184,96.62,4.2651248084,4.265092,6,P-GPS,
103200,2022-08-16 04:21:59,0,0,4.265092,,,4.2651248084,3.28084,0,0,0,0,0,8.297,4.2651248084,4.265092,0,0,0,0,0,189.9, -0.5, -0.5,0,0,1090,1024,1024,1024,10,0,0,0,194.9,0,0,88,4.155,4.141,0,0,0,0,4.184,96.62,4.2651248084,4.265092,6,P-GPS,
103300,2022-08-16 04:21:59,0,0,4.265092,,,4.2651248084,3.28084,0,0,0,0,0,8.295,4.2651248084,4.265092,0,0,0,0,0,189.9, -0.7, -0.8,0,0,1090,1024,1024,1024,10,0,0,0,194.9,0,0,88,4.155,4.14,0,0,0,0,4.142,96.62,4.2651248084,4.265092,6,P-GPS,
103400,2022-08-16 04:21:59,0,0,4.265092,,,4.2651248084,3.28084,0,0,0,0,0,8.295,4.2651248084,4.265092,0,0,0,0,0,189.9, -0.6, -0.6,0,0,1137,1024,1024,1024,17,0,0,0,194.9,0,0,88,4.155,4.14,0,0,0,0,4.142,96.62,4.2651248084,4.265092,6,P-GPS,
103500,2022-08-16 04:21:59,0,0,4.265092,,,4.2651248084,3.28084,0,0,0,0,0,8.295,4.2651248084,4.265092,0,0,0,0,0,189.9, -0.7, -0.5,0,0,1159,1024,1024,1024,20,0,0,0,194.9,0,0,88,4.155,4.14,0,0,0,0,4.142,96.62,4.2651248084,4.265092,6,P-GPS,
103600,2022-08-16 04:21:59,0,0,4.265092,,,4.2651248084,3.28084,0,0,0,0,0,8.295,4.2651248084,4.265092,0,0,0,0,0,189.9, -1.4, -0.2,0,0,1162,1024,1024,1024,21,0,0,0,194.9,0,0,88,4.155,4.14,0,0,0,0,4.142,96.62,4.2651248084,4.265092,6,P-GPS,
103700,2022-08-16 04:21:59,0,0,4.265092,,,4.2651248084,3.28084,0,0,0,0,0,8.295,4.2651248084,4.265092,0,0,0,0,0,189.9, -1.8, -0.1,0,0,1160,1024,1024,1024,21,0,0,0,194.9,0,0,88,4.155,4.14,0,0,0,0,4.142,96.62,4.2651248084,4.265092,6,P-GPS,
103800,2022-08-16 04:21:59,0,0,4.265092,,,4.2651248084,3.28084,0.223694,0,0,0,0,8.295,4.2651248084,4.265092,0,0,-0.223694,0,0,189.8, -1.8, 0,0,0,1145,1024,1024,1024,18,0,0,0,194.9,0,0,88,4.155,4.14,0,0,0,0,4.142,96.62,4.2651248084,4.265092,6,P-GPS,
103900,2022-08-16 04:21:59,0,0,4.265092,,,4.2651248084,3.28084,0.223694,0,0,0,0,8.295,4.2651248084,4.265092,0,0,-0.223694,0,0,189.8, -1.9, 0,0,0,1094,1024,1024,1024,11,0,0,0,194.9,0,0,88,4.155,4.14,0,0,0,0,4.142,96.62,4.2651248084,4.265092,6,P-GPS,
104000,2022-08-16 04:22:00,0,0,4.265092,,,4.2651248084,3.28084,0.223694,0,0,0,0,8.295,4.2651248084,4.265092,0,0,-0.223694,0,0,189.8, -1.6, 0,0,0,1094,1024,1024,1024,11,0,0,0,194.9,0,0,88,4.155,4.14,0,0,0,0,4.142,96.62,4.2651248084,4.265092,6,P-GPS,
104100,2022-08-16 04:22:00,0,0,4.265092,,,4.2651248084,3.28084,0.447388,0,0,0,0,8.295,4.2651248084,4.265092,0,0,-0.447388,0,0,189.8, -0.9, -0.1,0,0,1087,1024,1024,1124,10,0,0,15,194.9,0,0,88,4.155,4.14,0,0,0,0,4.142,96.62,4.2651248084,4.265092,6,P-GPS,
104200,2022-08-16 04:22:00,0,0,4.265092,,,4.2651248084,3.28084,0.447388,0,0,0,0,8.295,4.2651248084,4.265092,0,0,-0.447388,0,0,189.8, -0.3, -0.1,0,0,1086,1024,1024,1151,9,0,0,19,194.9,0,0,88,4.155,4.14,0,0,0,0,4.142,96.62,4.2651248084,4.265092,6,P-GPS,
104300,2022-08-16 04:22:00,0,0,4.265092,,,4.2651248084,3.28084,0.447388,0,0,0,0,8.295,4.2651248084,4.265092,0,0,-0.447388,0,0,189.9, 0.1, -0.3,0,0,1085,1024,1024,1289,9,0,0,40,195.1,0,0,88,4.155,4.14,0,0,0,0,4.142,96.62,4.2651248084,4.265092,6,P-GPS,
104400,2022-08-16 04:22:00,0,0,4.265092,,,4.2651248084,3.28084,0.447388,0,0,0,0,8.292,4.2651248084,4.265092,0,0,-0.447388,0,0,190.2, 0, -0.3,0,0,1084,1024,1024,1327,9,0,0,46,195.4,0,0,88,4.152,4.137,0,0,0,0,4.139,96.62,4.2651248084,4.265092,6,P-GPS,
104500,2022-08-16 04:22:00,0,0,4.265092,,,4.2651248084,3.28084,0.447388,0,0,0,0,8.292,4.2651248084,4.265092,0,0,-0.447388,0,0,190.8, -0.2, -0.2,0,0,1085,1024,1024,1218,9,0,0,29,196.2,0,0,88,4.152,4.137,0,0,0,0,4.139,96.62,4.2651248084,4.265092,6,P-GPS,
104600,2022-08-16 04:22:00,0,0,4.265092,,,4.2651248084,3.28084,0.447388,0,0,0,0,8.292,4.2651248084,4.265092,0,0,-0.447388,0,0,191.8, -0.1, 0,0,0,1085,1024,1024,1024,9,0,0,0,197.3,0,0,88,4.152,4.137,0,0,0,0,4.139,96.62,4.2651248084,4.265092,6,P-GPS,
104700,2022-08-16 04:22:00,0,0,4.265092,,,4.2651248084,3.28084,0.447388,0,0,0,0,8.292,4.2651248084,4.265092,0,0,-0.447388,0,0,192.7, 0, 0.2,0,0,1082,1024,1024,1024,9,0,0,0,198.1,0,0,88,4.152,4.137,0,0,0,0,4.139,96.62,4.2651248084,4.265092,6,P-GPS,
104800,2022-08-16 04:22:00,0,0,4.265092,,,4.2651248084,3.28084,0.447388,0,0,0,0,8.292,4.2651248084,4.265092,0,0,-0.447388,0,0,193.3, 0.1, 0.4,0,0,1082,1024,1024,1024,9,0,0,0,198.4,0,0,88,4.152,4.137,0,0,0,0,4.139,96.62,4.2651248084,4.265092,6,P-GPS,
104900,2022-08-16 04:22:00,0,0,4.265092,,,4.2651248084,3.28084,0.447388,0,0,0,0,8.292,4.2651248084,4.265092,0,0,-0.447388,0,0,193.5, -0.1, 0.3,0,0,1073,1024,1024,1036,7,0,0,2,198.5,0,0,88,4.152,4.137,0,0,0,0,4.139,96.62,4.2651248084,4.265092,6,P-GPS,
105000,2022-08-16 04:22:01,0,0,4.265092,,,4.2651248084,3.28084,0.447388,0,0,0,0,8.292,4.2651248084,4.265092,0,0,-0.447388,0,0,193.5, -0.3, 0.2,0,0,1072,1024,1024,1175,7,0,0,23,198.5,0,0,88,4.152,4.137,0,0,0,0,4.139,96.62,4.2651248084,4.265092,6,P-GPS,
105100,2022-08-16 04:22:01,0,0,4.265092,,,4.2651248084,3.28084,0.447388,0,0,0,0,8.292,4.2651248084,4.265092,0,0,-0.447388,0,0,193.4, -0.4, -0.2,0,0,1072,1024,1024,1307,7,0,0,43,198.5,0,0,88,4.152,4.137,0,0,0,0,4.139,96.62,4.2651248084,4.265092,6,P-GPS,
105200,2022-08-16 04:22:01,0,0,4.265092,,,4.2651248084,3.28084,0.447388,0,0,0,0,8.292,4.2651248084,4.265092,0,0,-0.447388,0,0,193.5, -0.1, -0.4,0,0,1072,1024,1024,1151,7,0,0,19,199,0,0,88,4.152,4.137,0,0,0,0,4.139,96.62,4.2651248084,4.265092,6,P-GPS,
105300,2022-08-16 04:22:01,0,0,4.265092,,,4.2651248084,3.28084,0.447388,0,0,0,0,8.292,4.2651248084,4.265092,0,0,-0.447388,0,0,194.4, -0.1, -0.2,0,0,1072,1024,1024,1024,7,0,0,0,199.9,0,0,88,4.152,4.137,0,0,0,0,4.139,96.62,4.2651248084,4.265092,6,P-GPS,
105400,2022-08-16 04:22:01,0,0,4.265092,,,4.2651248084,3.28084,0.447388,0,0,0,0,8.288,4.2651248084,4.265092,0,0,-0.447388,0,0,195.3, -0.1, -0.3,0,0,1071,1024,1024,1024,7,0,0,0,200.5,0,0,88,4.152,4.136,0,0,0,0,4.161,96.8,4.2651248084,4.265092,6,P-GPS,
105500,2022-08-16 04:22:01,0,0,4.265092,,,4.2651248084,3.28084,0.447388,0,0,0,0,8.288,4.2651248084,4.265092,0,0,-0.447388,0,0,195.8, 0, -0.4,0,0,1070,1024,1024,1360,7,0,0,51,200.8,0,0,88,4.152,4.136,0,0,0,0,4.161,96.8,4.2651248084,4.265092,6,P-GPS,
105600,2022-08-16 04:22:01,0,0,4.265092,,,4.2651248084,3.28084,0.447388,0,0,0,0,8.288,4.2651248084,4.265092,0,0,-0.447388,0,0,195.9, -0.2, -0.2,0,0,1069,1024,1024,1360,7,0,0,51,200.8,0,0,88,4.152,4.136,0,0,0,0,4.161,96.8,4.2651248084,4.265092,6,P-GPS,
105700,2022-08-16 04:22:01,0,0,4.265092,,,4.2651248084,3.28084,0.447388,0,0,0,0,8.288,4.2651248084,4.265092,0,0,-0.447388,0,0,195.8, -0.4, -0.7,0,0,1069,1024,1024,1360,7,0,0,51,201.4,0,0,88,4.152,4.136,0,0,0,0,4.161,96.8,4.2651248084,4.265092,6,P-GPS,
105800,2022-08-16 04:22:01,0,0,4.265092,,,4.2651248084,3.28084,0.447388,0,0,0,0,8.288,4.2651248084,4.265092,0,0,-0.447388,0,0,196.9, -0.1, -1.1,0,0,1071,1024,1024,1024,7,0,0,0,202.9,0,0,88,4.152,4.136,0,0,0,0,4.161,96.8,4.2651248084,4.265092,6,P-GPS,
105900,2022-08-16 04:22:02,0,0,4.265092,,,4.2651248084,3.28084,0.447388,0,0,0,0,8.288,4.2651248084,4.265092,0,0,-0.447388,0,0,198.2, 0.1, -0.9,0,0,1071,1024,1024,1024,7,0,0,0,203.7,0,0,88,4.152,4.136,0,0,0,0,4.161,96.8,4.2651248084,4.265092,6,P-GPS,
106000,2022-08-16 04:22:02,0,0,4.265092,,,4.2651248084,3.28084,0.447388,0,0,0,0,8.288,4.2651248084,4.265092,0,0,-0.447388,0,0,198.7, 0.3, -0.6,0,0,1070,1024,1024,1024,7,0,0,0,204.1,0,0,88,4.152,4.136,0,0,0,0,4.161,96.8,4.2651248084,4.265092,6,P-GPS,
106100,2022-08-16 04:22:02,0,0,4.265092,,,4.2651248084,3.28084,0.447388,0,0,0,0,8.288,4.2651248084,4.265092,0,0,-0.447388,0,0,198.9, 0.1, -0.8,0,0,1068,1024,1024,1138,7,0,0,17,204.1,0,0,88,4.152,4.136,0,0,0,0,4.161,96.8,4.2651248084,4.265092,6,P-GPS,
106200,2022-08-16 04:22:02,0,0,4.265092,,,4.2651248084,3.28084,0.447388,0,0,0,0,8.288,4.2651248084,4.265092,0,0,-0.447388,0,0,199, 0.3, -0.8,0,0,1069,1024,1024,1389,7,0,0,55,204.1,0,0,88,4.152,4.136,0,0,0,0,4.161,96.8,4.2651248084,4.265092,6,P-GPS,
106300,2022-08-16 04:22:02,0,0,4.265092,,,4.2651248084,3.28084,0.447388,0,0,0,0,8.288,4.2651248084,4.265092,0,0,-0.447388,0,0,199.1, 0.2, -0.9,0,0,1068,1024,1024,1273,7,0,0,38,204.4,0,0,88,4.152,4.136,0,0,0,0,4.161,96.8,4.2651248084,4.265092,6,P-GPS,
106400,2022-08-16 04:22:02,0,0,4.265092,,,4.2651248084,3.28084,0.447388,0,0,0,0,8.286,4.2651248084,4.265092,0,0,-0.447388,0,0,199.7, 0.1, -0.5,0,0,1068,1024,1024,1024,7,0,0,0,205.6,0,0,88,4.15,4.134,0,0,0,0,4.147,96.8,4.2651248084,4.265092,6,P-GPS,
106500,2022-08-16 04:22:02,0,0,4.265092,,,4.2651248084,3.28084,0.447388,0,0,0,0,8.286,4.2651248084,4.265092,0,0,-0.447388,0,0,201, -0.1, -0.4,0,0,1068,1024,1024,1024,7,0,0,0,206.8,0,0,88,4.15,4.134,0,0,0,0,4.147,96.8,4.2651248084,4.265092,6,P-GPS,
106600,2022-08-16 04:22:02,0,0,4.265092,,,4.2651248084,3.28084,0.447388,0,0,0,0,8.286,4.2651248084,4.265092,0,0,-0.447388,0,0,201.6, -0.2, -0.1,0,0,1068,1024,1024,1024,7,0,0,0,207.2,0,0,88,4.15,4.134,0,0,0,0,4.147,96.8,4.2651248084,4.265092,6,P-GPS,
106700,2022-08-16 04:22:02,0,0,4.265092,,,4.2651248084,3.28084,0.447388,0,0,0,0,8.286,4.2651248084,4.265092,0,0,-0.447388,0,0,201.9, -0.3, -0.6,0,0,1068,1024,1024,1124,7,0,0,15,207.4,0,0,88,4.15,4.134,0,0,0,0,4.147,96.8,4.2651248084,4.265092,6,P-GPS,
106800,2022-08-16 04:22:02,0,0,4.265092,,,4.2651248084,3.28084,0.447388,0,0,0,0,8.286,4.2651248084,4.265092,0,0,-0.447388,0,0,202, -0.2, -1,0,0,1068,1024,1024,1402,7,0,0,57,207.4,0,0,88,4.15,4.134,0,0,0,0,4.147,96.8,4.2651248084,4.265092,6,P-GPS,
106900,2022-08-16 04:22:02,0,0,4.265092,,,4.2651248084,3.28084,0.447388,0,0,0,0,8.286,4.2651248084,4.265092,0,0,-0.447388,0,0,202.4, 0.1, -0.7,0,0,1068,1024,1024,1355,7,0,0,50,208.1,0,0,88,4.15,4.134,0,0,0,0,4.147,96.8,4.2651248084,4.265092,6,P-GPS,
107000,2022-08-16 04:22:03,0,0,4.265092,,,4.2651248084,3.28084,0.447388,0,0,0,0,8.286,4.2651248084,4.265092,0,0,-0.447388,0,0,203.5, 0.2, -0.2,0,0,1068,1024,1024,1156,7,0,0,20,209.7,0,0,88,4.15,4.134,0,0,0,0,4.147,96.8,4.2651248084,4.265092,6,P-GPS,
107100,2022-08-16 04:22:03,0,0,4.265092,,,4.2651248084,3.28084,0.447388,0,0,0,0,8.286,4.2651248084,4.265092,0,0,-0.447388,0,0,205.1, 0.1, 0.2,0,0,1067,1024,1024,1258,7,0,0,35,211,0,0,88,4.15,4.134,0,0,0,0,4.147,96.8,4.2651248084,4.265092,6,P-GPS,
107200,2022-08-16 04:22:03,0,0,4.265092,,,4.2651248084,3.28084,0.447388,0,0,0,0,8.286,4.2651248084,4.265092,0,0,-0.447388,0,0,206.1, 0, 0,0,0,1067,1024,1024,1332,7,0,0,47,211.6,0,0,88,4.15,4.134,0,0,0,0,4.147,96.8,4.2651248084,4.265092,6,P-GPS,
107300,2022-08-16 04:22:03,0,0,4.265092,,,4.2651248084,3.28084,0.447388,0,0,0,0,8.286,4.2651248084,4.265092,0,0,-0.447388,0,0,206.6, -0.2, -0.6,0,0,1067,1024,1024,1024,7,0,0,0,212.1,0,0,88,4.15,4.134,0,0,0,0,4.147,96.8,4.2651248084,4.265092,6,P-GPS,
107400,2022-08-16 04:22:03,0,0,4.265092,,,4.2651248084,3.28084,0.447388,0,0,0,0,8.286,4.2651248084,4.265092,0,0,-0.447388,0,0,207.4, 0, -1.1,0,0,1067,1024,1024,1024,7,0,0,0,213.2,0,0,88,4.149,4.133,0,0,0,0,4.173,96.8,4.2651248084,4.265092,6,P-GPS,
107500,2022-08-16 04:22:03,0,0,4.265092,,,4.2651248084,3.28084,0.447388,0,0,0,0,8.286,4.2651248084,4.265092,0,0,-0.447388,0,0,208.4, 0.2, -0.9,0,0,1068,1024,1024,1024,7,0,0,0,213.8,0,0,88,4.149,4.133,0,0,0,0,4.173,96.8,4.2651248084,4.265092,6,P-GPS,
107600,2022-08-16 04:22:03,0,0,4.265092,,,4.2651248084,3.28084,0.447388,0,0,0,0,8.286,4.2651248084,4.265092,0,0,-0.447388,0,0,208.8, 0.1, -0.5,0,0,1067,1024,1024,1306,7,0,0,43,214.1,0,0,88,4.149,4.133,0,0,0,0,4.173,96.8,4.2651248084,4.265092,6,P-GPS,
107700,2022-08-16 04:22:03,0,0,4.265092,,,4.2651248084,3.28084,0.447388,0,0,0,0,8.286,4.2651248084,4.265092,0,0,-0.447388,0,0,208.9, 0, -0.3,0,0,1067,1024,1024,1370,7,0,0,52,214.2,0,0,88,4.149,4.133,0,0,0,0,4.173,96.8,4.2651248084,4.265092,6,P-GPS,
107800,2022-08-16 04:22:03,0,0,4.265092,,,4.2651248084,3.28084,0.447388,0,0,0,0,8.286,4.2651248084,4.265092,0,0,-0.447388,0,0,209.3, 0, -0.1,0,0,1062,1024,1024,1024,6,0,0,0,215.1,0,0,88,4.149,4.133,0,0,0,0,4.173,96.8,4.2651248084,4.265092,6,P-GPS,
107900,2022-08-16 04:22:03,0,0,4.265092,,,4.2651248084,3.28084,0.447388,0,0,0,0,8.286,4.2651248084,4.265092,0,0,-0.447388,0,0,210.6, 0, 0,0,0,1047,1024,1024,1024,3,0,0,0,216.3,0,0,88,4.149,4.133,0,0,0,0,4.173,96.8,4.2651248084,4.265092,6,P-GPS,
108000,2022-08-16 04:22:04,0,0,4.265092,,,4.2651248084,3.28084,0.447388,0,0,0,0,8.286,4.2651248084,4.265092,0,0,-0.447388,0,0,211.6, -0.1, 0.4,0,0,1024,1024,1024,1024,0,0,0,0,216.9,0,0,88,4.149,4.133,0,0,0,0,4.173,96.8,4.2651248084,4.265092,6,P-GPS,
108100,2022-08-16 04:22:04,0,0,4.265092,,,4.2651248084,3.28084,0.447388,0,0,0,0,8.286,4.2651248084,4.265092,0,0,-0.447388,0,0,212, 0.5, 0.3,0,0,1024,1024,1024,1024,0,0,0,0,217.1,0,0,88,4.149,4.133,0,0,0,0,4.173,96.8,4.2651248084,4.265092,6,P-GPS,
108200,2022-08-16 04:22:04,0,0,4.265092,,,4.2651248084,3.28084,0.223694,0,0,0,0,8.286,4.2651248084,4.265092,0,0,-0.223694,0,0,212, 1.7, 0.5,0,0,1024,1024,1024,1024,0,0,0,0,217.1,0,0,88,4.149,4.133,0,0,0,0,4.173,96.8,4.2651248084,4.265092,6,P-GPS,
108300,2022-08-16 04:22:04,0,0,4.265092,,,4.2651248084,3.28084,0.223694,0,0,0,0,8.286,4.2651248084,4.265092,0,0,-0.223694,0,0,212, 1.9, 0.4,0,0,1024,1024,1024,1024,0,0,0,0,217.1,0,0,88,4.149,4.133,0,0,0,0,4.173,96.8,4.2651248084,4.265092,6,P-GPS,
108400,2022-08-16 04:22:04,0,0,4.265092,,,4.2651248084,3.28084,0.223694,0,0,0,0,8.283,4.2651248084,4.265092,0,0,-0.223694,0,0,212.1, 1.6, 0.4,0,0,1024,1024,1024,1024,0,0,0,0,217.1,0,0,88,4.148,4.133,0,0,0,0,4.129,96.8,4.2651248084,4.265092,6,P-GPS,
108500,2022-08-16 04:22:04,0,0,4.265092,,,4.2651248084,3.28084,0.223694,0,0,0,0,8.283,4.2651248084,4.265092,0,0,-0.223694,0,0,212.1, 1.3, 0.2,0,0,1024,1024,1024,1024,0,0,0,0,217.1,0,0,88,4.148,4.133,0,0,0,0,4.129,96.8,4.2651248084,4.265092,6,P-GPS,
108600,2022-08-16 04:22:04,0,0,4.265092,,,4.2651248084,3.28084,0,0,0,0,0,8.283,4.2651248084,4.265092,0,0,0,0,0,212, 1.4, 0,0,0,1024,1024,1024,1024,0,0,0,0,217.1,0,0,88,4.148,4.133,0,0,0,0,4.129,96.8,4.2651248084,4.265092,6,P-GPS,
