time(millisecond),datetime(utc),latitude,longitude,height_above_takeoff(feet),height_above_ground_at_drone_location(feet),ground_elevation_at_drone_location(feet),altitude_above_seaLevel(feet),height_sonar(feet),speed(mph),distance(feet),mileage(feet),satellites,gpslevel,voltage(v),max_altitude(feet),max_ascent(feet),max_speed(mph),max_distance(feet), xSpeed(mph), ySpeed(mph), zSpeed(mph), compass_heading(degrees), pitch(degrees), roll(degrees),isPhoto,isVideo,rc_elevator,rc_aileron,rc_throttle,rc_rudder,rc_elevator(percent),rc_aileron(percent),rc_throttle(percent),rc_rudder(percent),gimbal_heading(degrees),gimbal_pitch(degrees),gimbal_roll(degrees),battery_percent,voltageCell1,voltageCell2,voltageCell3,voltageCell4,voltageCell5,voltageCell6,current(A),battery_temperature(f),altitude(feet),ascent(feet),flycStateRaw,flycState,message
0,2022-08-15 23:32:07,0,0,0,,,3.28084E-5,0.328084,0,0,0,0,0,0,3.28084E-5,0,0,0,0,0,0,69, 3.5, -0.1,0,0,364,364,364,1684,-100,-100,-100,100,69,0,0,90,4.251,4.243,0,0,0,0,0,84.38,3.28084E-5,0,41,Motors_Started,"Sin señal GPS. La aeronave no puede hacer vuelo estacionario. Vuela con cuidado (Code: 30008). Señal débil del GPS. Vuelo estacionario inestable. Vuela con cuidado (Code: 30002)"
100,2022-08-15 23:32:07,0,0,0,,,3.28084E-5,0.328084,0,0,0,0,0,0,3.28084E-5,0,0,0,0,0,0,69, 3.5, -0.1,0,0,364,364,364,1684,-100,-100,-100,100,69,0,0,90,4.251,4.243,0,0,0,0,0,84.38,3.28084E-5,0,41,Motors_Started,
200,2022-08-15 23:32:07,0,0,0,,,3.28084E-5,0.328084,0,0,0,0,0,0,3.28084E-5,0,0,0,0,0,0,69, 3.5, -0.1,0,0,364,364,364,1684,-100,-100,-100,100,69,0,0,90,4.251,4.243,0,0,0,0,0,84.38,3.28084E-5,0,41,Motors_Started,"Setting new Return-To-Home altitude to 15m (49 ft). Data Recorder File Index is 73. Setting new Maximum Flight Altitude to 30m (98 ft)"
300,2022-08-15 23:32:08,0,0,0,,,3.28084E-5,0.328084,0,0,0,0,0,0,3.28084E-5,0,0,0,0,0,0,69, 3.5, -0.1,0,0,364,364,364,1684,-100,-100,-100,100,69,0,0,90,4.251,4.243,0,0,0,0,0,84.38,3.28084E-5,0,41,Motors_Started,
400,2022-08-15 23:32:08,0,0,0,,,3.28084E-5,0.328084,0,0,0,0,0,0,3.28084E-5,0,0,0,0,0,0,69, 3.5, -0.1,0,0,364,364,364,1684,-100,-100,-100,100,69,0,0,90,4.251,4.243,0,0,0,0,0,84.38,3.28084E-5,0,41,Motors_Started,
500,2022-08-15 23:32:08,0,0,0,,,3.28084E-5,0.328084,0,0,0,0,0,0,3.28084E-5,0,0,0,0,0,0,69, 3.5, -0.1,0,0,364,364,364,1684,-100,-100,-100,100,69,0,0,90,4.251,4.243,0,0,0,0,0,84.38,3.28084E-5,0,41,Motors_Started,
600,2022-08-15 23:32:08,0,0,0,,,3.28084E-5,0.328084,0,0,0,0,0,0,3.28084E-5,0,0,0,0,0,0,69, 3.5, -0.1,0,0,364,364,364,1684,-100,-100,-100,100,69,0,0,90,4.251,4.243,0,0,0,0,0,84.38,3.28084E-5,0,41,Motors_Started,
700,2022-08-15 23:32:08,0,0,0,,,3.28084E-5,0.328084,0,0,0,0,0,0,3.28084E-5,0,0,0,0,0,0,69, 3.5, -0.1,0,0,364,364,364,1684,-100,-100,-100,100,69,0,0,90,4.251,4.243,0,0,0,0,0,84.38,3.28084E-5,0,41,Motors_Started,
800,2022-08-15 23:32:08,0,0,0,,,3.28084E-5,0.328084,0,0,0,0,0,0,3.28084E-5,0,0,0,0,0,0,69, 3.5, -0.1,0,0,364,364,364,1684,-100,-100,-100,100,69,0,0,90,4.251,4.243,0,0,0,0,0,84.38,3.28084E-5,0,41,Motors_Started,
900,2022-08-15 23:32:08,0,0,0,,,3.28084E-5,0.328084,0,0,0,0,0,0,3.28084E-5,0,0,0,0,0,0,69, 3.5, -0.2,0,0,364,364,364,1684,-100,-100,-100,100,69,0,0,90,4.251,4.243,0,0,0,0,0,84.38,3.28084E-5,0,41,Motors_Started,
1000,2022-08-15 23:32:08,0,0,0,,,3.28084E-5,0.328084,0,0,0,0,0,0,3.28084E-5,0,0,0,0,0,0,69, 3.5, -0.1,0,0,364,364,364,1684,-100,-100,-100,100,69,0,0,90,4.251,4.243,0,0,0,0,0,84.38,3.28084E-5,0,41,Motors_Started,
1100,2022-08-15 23:32:08,0,0,0,,,3.28084E-5,0.328084,0,0,0,0,0,0,3.28084E-5,0,0,0,0,0,0,69, 3.5, -0.2,0,0,511,471,364,1684,-78,-84,-100,100,69,0,0,90,4.251,4.243,0,0,0,0,0,84.38,3.28084E-5,0,10,Assisted_Takeoff,
1200,2022-08-15 23:32:08,0,0,0,,,3.28084E-5,0.328084,0,0,0,0,0,0,3.28084E-5,0,0,0,0,0,0,69, 3.5, -0.2,0,0,873,745,995,1151,-23,-42,-4,19,69,0,0,90,4.251,4.243,0,0,0,0,0,84.38,3.28084E-5,0,10,Assisted_Takeoff,
1300,2022-08-15 23:32:09,0,0,0,,,3.28084E-5,0.328084,0,0,0,0,0,0,3.28084E-5,0,0,0,0,0,0,69, 3.6, -0.2,0,0,1024,1024,1024,1024,0,0,0,0,69,0,0,90,4.251,4.243,0,0,0,0,0,84.38,3.28084E-5,0,10,Assisted_Takeoff,
1400,2022-08-15 23:32:09,0,0,0,,,3.28084E-5,0.328084,0,0,0,0,0,0,3.28084E-5,0,0,0,0,0,0,69, 3.5, -0.1,0,0,1024,1024,1024,1024,0,0,0,0,69,0,0,90,4.251,4.243,0,0,0,0,0,84.38,3.28084E-5,0,10,Assisted_Takeoff,
1500,2022-08-15 23:32:09,0,0,0,,,3.28084E-5,0.328084,0,0,0,0,0,0,3.28084E-5,0,0,0,0,0,0,69, 3.5, -0.1,0,0,1024,1024,1024,1024,0,0,0,0,69,0,0,90,4.251,4.243,0,0,0,0,0,84.38,3.28084E-5,0,10,Assisted_Takeoff,
1600,2022-08-15 23:32:09,0,0,0,,,3.28084E-5,0.328084,0,0,0,0,0,0,3.28084E-5,0,0,0,0,0,0,68.9, 3.6, -0.2,0,0,1024,1024,1024,1024,0,0,0,0,69,0,0,90,4.251,4.243,0,0,0,0,0,84.38,3.28084E-5,0,10,Assisted_Takeoff,"Vuela con cuidado (sin GPS)"
1700,2022-08-15 23:32:09,0,0,0,,,3.28084E-5,0.328084,0,0,0,0,0,0,3.28084E-5,0,0,0,0,0,0,69, 3.5, -0.2,0,0,1024,1024,1024,1024,0,0,0,0,69,0,0,90,4.251,4.243,0,0,0,0,0,84.38,3.28084E-5,0,10,Assisted_Takeoff,
1800,2022-08-15 23:32:09,0,0,0,,,3.28084E-5,0.328084,0,0,0,0,0,8.479,3.28084E-5,0,0,0,0,0,0,69, 3.5, -0.1,0,0,1024,1024,1024,1024,0,0,0,0,69,0,0,90,4.251,4.243,0,0,0,0,1.433,84.38,3.28084E-5,0,10,Assisted_Takeoff,
1900,2022-08-15 23:32:09,0,0,0,,,3.28084E-5,0.328084,0,0,0,0,0,8.479,3.28084E-5,0,0,0,0,0,0,69, 3.5, -0.1,0,0,1024,1024,1024,1024,0,0,0,0,69,0,0,90,4.251,4.243,0,0,0,0,1.433,84.38,3.28084E-5,0,10,Assisted_Takeoff,
2000,2022-08-15 23:32:09,0,0,0,,,3.28084E-5,0.328084,0,0,0,0,0,8.479,3.28084E-5,0,0,0,0,0,0,68.9, 3.6, -0.2,0,0,1024,1024,1357,1024,0,0,50,0,69,0,0,90,4.251,4.243,0,0,0,0,1.433,84.38,3.28084E-5,0,10,Assisted_Takeoff,
2100,2022-08-15 23:32:09,0,0,0,,,3.28084E-5,0.328084,0,0,0,0,0,8.479,3.28084E-5,0,0,0,0,0,0,69, 3.5, -0.1,0,0,1024,1024,1684,1024,0,0,100,0,69,0,0,90,4.251,4.243,0,0,0,0,1.433,84.38,3.28084E-5,0,10,Assisted_Takeoff,
2200,2022-08-15 23:32:10,0,0,0,,,3.28084E-5,0.328084,0,0,0,0,0,8.479,3.28084E-5,0,0,0,0,0,0,68.9, 3.5, -0.2,0,0,1024,1024,1654,1024,0,0,95,0,69,0,0,90,4.251,4.243,0,0,0,0,1.433,84.38,3.28084E-5,0,10,Assisted_Takeoff,
2300,2022-08-15 23:32:10,0,0,0,,,3.28084E-5,0.328084,0,0,0,0,0,8.479,3.28084E-5,0,0,0,0,0,0,68.9, 3.5, -0.2,0,0,1024,1024,1361,1024,0,0,51,0,69,0,0,90,4.251,4.243,0,0,0,0,1.433,84.38,3.28084E-5,0,10,Assisted_Takeoff,
2400,2022-08-15 23:32:10,0,0,0,,,3.28084E-5,0.328084,0,0,0,0,0,8.479,3.28084E-5,0,0,0,0,0,0,69.2, 3.2, -0.2,0,0,1024,1024,1193,1024,0,0,26,0,69,0,0,90,4.251,4.243,0,0,0,0,1.433,84.38,3.28084E-5,0,10,Assisted_Takeoff,
2500,2022-08-15 23:32:10,0,0,0,,,3.28084E-5,0.328084,0,0,0,0,0,8.479,3.28084E-5,0,0,0,0,0,0,69.8, -0.3, 0.1,0,0,1024,1024,1222,1024,0,0,30,0,69.3,0,0,90,4.251,4.243,0,0,0,0,1.433,84.38,3.28084E-5,0,10,Assisted_Takeoff,
2600,2022-08-15 23:32:10,0,0,0,,,3.28084E-5,0.328084,0,0,0,0,0,8.479,3.28084E-5,0,0,0,0,0,-0.223694,70.6, -1.1, 0.4,0,0,1024,1024,1169,1024,0,0,22,0,70,0,0,90,4.251,4.243,0,0,0,0,1.433,84.38,3.28084E-5,0,10,Assisted_Takeoff,"Señal débil del GPS. Vuelo estacionario inestable. Vuela con cuidado (Code: 30002)"
2700,2022-08-15 23:32:10,0,0,0,,,3.28084E-5,0.328084,0,0,0,0,0,8.479,3.28084E-5,0,0,0,0,0,-0.447388,70.4, -0.8, 0.1,0,0,1024,1024,1169,1024,0,0,22,0,70.1,0,0,90,4.251,4.243,0,0,0,0,1.433,84.38,3.28084E-5,0,6,P-GPS,
2800,2022-08-15 23:32:10,0,0,0,,,3.28084E-5,0.328084,0,0,0,0,0,8.497,3.28084E-5,0,0,0,0,0,-0.671082,70.1, -0.3, -0.5,0,0,1024,1024,1024,1024,0,0,0,0,70.1,0,0,90,4.233,4.222,0,0,0,0,1.208,84.38,3.28084E-5,0,6,P-GPS,
2900,2022-08-15 23:32:10,0,0,0.328084,,,0.3281168084,0.656168,0,0,0,0,0,8.497,0.3281168084,0.328084,0,0,0,0,-0.894776,70.1, -0.2, 0.2,0,0,1024,1024,1024,1024,0,0,0,0,70.1,0,0,90,4.233,4.222,0,0,0,0,1.208,84.38,0.3281168084,0.328084,6,P-GPS,
3000,2022-08-15 23:32:10,0,0,0.328084,,,0.3281168084,0.656168,0,0,0,0,0,8.497,0.3281168084,0.328084,0,0,0,0,-0.894776,70.2, 0.2, 0.5,0,0,1024,1024,1024,1024,0,0,0,0,70.1,0,0,90,4.233,4.222,0,0,0,0,1.208,84.38,0.3281168084,0.328084,6,P-GPS,
3100,2022-08-15 23:32:10,0,0,0.656168,,,0.6562008084,0.656168,0,0,0,0,0,8.497,0.6562008084,0.656168,0,0,0,0,-0.894776,70.2, 0.4, 0.4,0,0,1024,1024,1024,1024,0,0,0,0,70.1,0,0,90,4.233,4.222,0,0,0,0,1.208,84.38,0.6562008084,0.656168,6,P-GPS,
3200,2022-08-15 23:32:11,0,0,0.656168,,,0.6562008084,0.984252,0,0,0,0,0,8.497,0.6562008084,0.656168,0,0,0,0,-0.894776,70.2, 0.3, 0.2,0,0,1024,1024,1024,1024,0,0,0,0,70.1,0,0,90,4.233,4.222,0,0,0,0,1.208,84.38,0.6562008084,0.656168,6,P-GPS,
3300,2022-08-15 23:32:11,0,0,0.984252,,,0.9842848084,0.984252,0,0,0,0,0,8.497,0.9842848084,0.984252,0,0,0,0,-0.894776,70.2, 0.3, 0.2,0,0,1024,1024,1024,1024,0,0,0,0,70.1,0,0,90,4.233,4.222,0,0,0,0,1.208,84.38,0.9842848084,0.984252,6,P-GPS,
3400,2022-08-15 23:32:11,0,0,1.312336,,,1.3123688084,1.312336,0,0,0,0,0,8.497,1.3123688084,1.312336,0,0,0,0,-0.894776,70.1, 0.3, 0.2,0,0,1024,1024,1024,1024,0,0,0,0,70.1,0,0,90,4.233,4.222,0,0,0,0,1.208,84.38,1.3123688084,1.312336,6,P-GPS,
3500,2022-08-15 23:32:11,0,0,1.312336,,,1.3123688084,1.312336,0,0,0,0,0,8.497,1.3123688084,1.312336,0,0,0,0,-0.671082,70.1, 0, 0,0,0,1024,1024,1024,1024,0,0,0,0,70.1,0,0,90,4.233,4.222,0,0,0,0,1.208,84.38,1.3123688084,1.312336,1,Atti,"Señal del GPS demasiado débil. Se ha pasado al modo Atti. La aeronave no puede hacer vuelo estacionario. Vuela con precaución (Code: 30022). Señal débil del GPS. Vuelo estacionario inestable. Vuela con cuidado (Code: 30002). Aeronave en modo Atti. No"
3600,2022-08-15 23:32:11,0,0,1.64042,,,1.6404528084,1.312336,0,0,0,0,0,8.497,1.6404528084,1.64042,0,0,0,0,-0.671082,70.2, 0, 0,0,0,1024,1024,1024,950,0,0,0,-11,70.1,0,0,90,4.233,4.222,0,0,0,0,1.208,84.38,1.6404528084,1.64042,1,Atti,"Vuela con cuidado (modo Atti) La brújula no funciona bien el GPS no tiene buena señal. Cambia a modo Atti (Code: 30020). Aeronave en modo Atti. No se puede hacer vuelo estacionario. Vuela con cuidado (Code: 30004)"
3700,2022-08-15 23:32:11,0,0,1.64042,,,1.6404528084,1.64042,0,0,0,0,0,8.497,1.6404528084,1.64042,0,0,0,0,-0.447388,70.2, 0, 0,0,0,1024,1024,1024,950,0,0,0,-11,70.1,0,0,90,4.233,4.222,0,0,0,0,1.208,84.38,1.6404528084,1.64042,1,Atti,
3800,2022-08-15 23:32:11,0,0,1.64042,,,1.6404528084,1.64042,0,0,0,0,0,8.37,1.6404528084,1.64042,0,0,0,0,-0.223694,70.1, 0, 0,0,0,1024,1024,1024,606,0,0,0,-63,70.1,0,0,90,4.196,4.184,0,0,0,0,3.864,84.38,1.6404528084,1.64042,1,Atti,
3900,2022-08-15 23:32:11,0,0,1.968504,,,1.9685368084,1.64042,0,0,0,0,0,8.37,1.9685368084,1.968504,0,0,0,0,-0.223694,68.4, 0.1, 0.2,0,0,1024,1024,1024,364,0,0,0,-100,70.1,0,0,90,4.196,4.184,0,0,0,0,3.864,84.38,1.9685368084,1.968504,6,P-GPS,"Señal débil del GPS. Vuelo estacionario inestable. Vuela con cuidado (Code: 30002)"
4000,2022-08-15 23:32:11,0,0,1.968504,,,1.9685368084,1.64042,0,0,0,0,0,8.37,1.9685368084,1.968504,0,0,0,0,0,68.7, 0.2, -0.2,0,0,1024,1024,1024,364,0,0,0,-100,67.8,0,0,90,4.196,4.184,0,0,0,0,3.864,84.38,1.9685368084,1.968504,6,P-GPS,
4100,2022-08-15 23:32:11,0,0,1.968504,,,1.9685368084,1.64042,0,0,0,0,0,8.37,1.9685368084,1.968504,0,0,0,0,0,65.9, 0.5, 0.2,0,0,1024,1024,1024,364,0,0,0,-100,63.3,0,0,90,4.196,4.184,0,0,0,0,3.864,84.38,1.9685368084,1.968504,6,P-GPS,
4200,2022-08-15 23:32:12,0,0,1.968504,,,1.9685368084,1.64042,0,0,0,0,0,8.37,1.9685368084,1.968504,0,0,0,0,0,61.5, 0.4, 0,0,0,1024,1024,1024,364,0,0,0,-100,58.6,0,0,90,4.196,4.184,0,0,0,0,3.864,84.38,1.9685368084,1.968504,6,P-GPS,
4300,2022-08-15 23:32:12,0,0,1.968504,,,1.9685368084,1.64042,0,0,0,0,0,8.37,1.9685368084,1.968504,0,0,0,0,0,56.9, 0.4, 0,0,0,1024,1024,1024,364,0,0,0,-100,53.8,0,0,90,4.196,4.184,0,0,0,0,3.864,84.38,1.9685368084,1.968504,6,P-GPS,
4400,2022-08-15 23:32:12,0,0,2.296588,,,2.2966208084,1.64042,0,0,0,0,0,8.37,2.2966208084,2.296588,0,0,0,0,0,52.2, 0.4, 0,0,0,1024,1024,1024,364,0,0,0,-100,49,0,0,90,4.196,4.184,0,0,0,0,3.864,84.38,2.2966208084,2.296588,6,P-GPS,
4500,2022-08-15 23:32:12,0,0,2.296588,,,2.2966208084,1.64042,0,0,0,0,0,8.37,2.2966208084,2.296588,0,0,0,0,0,47.4, 0.3, -0.1,0,0,1024,1024,1024,364,0,0,0,-100,44.2,0,0,90,4.196,4.184,0,0,0,0,3.864,84.38,2.2966208084,2.296588,6,P-GPS,
4600,2022-08-15 23:32:12,0,0,2.296588,,,2.2966208084,1.64042,0,0,0,0,0,8.37,2.2966208084,2.296588,0,0,0,0,0,42.7, 0.3, 0,0,0,1024,1024,1024,364,0,0,0,-100,39.4,0,0,90,4.196,4.184,0,0,0,0,3.864,84.38,2.2966208084,2.296588,6,P-GPS,
4700,2022-08-15 23:32:12,0,0,2.296588,,,2.2966208084,1.64042,0,0,0,0,0,8.37,2.2966208084,2.296588,0,0,0,0,0,37.9, 0.3, 0,0,0,1024,1024,1024,364,0,0,0,-100,34.6,0,0,90,4.196,4.184,0,0,0,0,3.864,84.38,2.2966208084,2.296588,6,P-GPS,
4800,2022-08-15 23:32:12,0,0,2.296588,,,2.2966208084,1.64042,0,0,0,0,0,8.37,2.2966208084,2.296588,0,0,0,0,0,33.1, 0.3, -0.1,0,0,1024,1024,1024,364,0,0,0,-100,29.8,0,0,90,4.196,4.184,0,0,0,0,3.864,84.38,2.2966208084,2.296588,6,P-GPS,
4900,2022-08-15 23:32:12,0,0,2.296588,,,2.2966208084,1.64042,0,0,0,0,0,8.368,2.2966208084,2.296588,0,0,0,0,0,28.3, 0.3, -0.1,0,0,1024,1024,1024,364,0,0,0,-100,25,0,0,90,4.186,4.175,0,0,0,0,3.946,84.38,2.2966208084,2.296588,6,P-GPS,
5000,2022-08-15 23:32:12,0,0,2.296588,,,2.2966208084,1.64042,0,0,0,0,0,8.368,2.2966208084,2.296588,0,0,0,0,0,23.5, 0.4, -0.2,0,0,1024,1024,1024,364,0,0,0,-100,20.2,0,0,90,4.186,4.175,0,0,0,0,3.946,84.38,2.2966208084,2.296588,6,P-GPS,
5100,2022-08-15 23:32:12,0,0,2.296588,,,2.2966208084,1.64042,0,0,0,0,0,8.368,2.2966208084,2.296588,0,0,0,0,0,18.7, 0.4, -0.2,0,0,1024,1024,1024,364,0,0,0,-100,15.4,0,0,90,4.186,4.175,0,0,0,0,3.946,84.38,2.2966208084,2.296588,6,P-GPS,
5200,2022-08-15 23:32:12,0,0,2.296588,,,2.2966208084,1.64042,0,0,0,0,0,8.368,2.2966208084,2.296588,0,0,0,0,0,13.9, 0.3, -0.1,0,0,1024,1024,1024,364,0,0,0,-100,10.6,0,0,90,4.186,4.175,0,0,0,0,3.946,84.38,2.2966208084,2.296588,6,P-GPS,
5300,2022-08-15 23:32:13,0,0,2.296588,,,2.2966208084,1.64042,0,0,0,0,0,8.368,2.2966208084,2.296588,0,0,0,0,0,9.1, 0.2, -0.2,0,0,1024,1024,1024,364,0,0,0,-100,5.8,0,0,90,4.186,4.175,0,0,0,0,3.946,84.38,2.2966208084,2.296588,6,P-GPS,
5400,2022-08-15 23:32:13,0,0,2.296588,,,2.2966208084,1.64042,0,0,0,0,0,8.368,2.2966208084,2.296588,0,0,0,0,0,4.4, 0.2, -0.2,0,0,1024,1024,1024,364,0,0,0,-100,1,0,0,90,4.186,4.175,0,0,0,0,3.946,84.38,2.2966208084,2.296588,6,P-GPS,
5500,2022-08-15 23:32:13,0,0,2.296588,,,2.2966208084,1.64042,0,0,0,0,0,8.368,2.2966208084,2.296588,0,0,0,0,0,359.6, 0.2, -0.1,0,0,1024,1024,1024,364,0,0,0,-100,356.2,0,0,90,4.186,4.175,0,0,0,0,3.946,84.38,2.2966208084,2.296588,6,P-GPS,
5600,2022-08-15 23:32:13,0,0,2.296588,,,2.2966208084,1.64042,0,0,0,0,0,8.368,2.2966208084,2.296588,0,0,0,0,0,354.9, 0.2, -0.2,0,0,1024,1024,1024,364,0,0,0,-100,351.5,0,0,90,4.186,4.175,0,0,0,0,3.946,84.38,2.2966208084,2.296588,6,P-GPS,
5700,2022-08-15 23:32:13,0,0,2.296588,,,2.2966208084,1.64042,0,0,0,0,0,8.368,2.2966208084,2.296588,0,0,0,0,0,350.1, 0.2, -0.2,0,0,1024,1024,1024,364,0,0,0,-100,346.7,0,0,90,4.186,4.175,0,0,0,0,3.946,84.38,2.2966208084,2.296588,6,P-GPS,
5800,2022-08-15 23:32:13,0,0,2.296588,,,2.2966208084,1.64042,0,0,0,0,0,8.368,2.2966208084,2.296588,0,0,0,0,0,345.3, 0.2, -0.2,0,0,1024,1024,1024,364,0,0,0,-100,341.8,0,0,90,4.186,4.175,0,0,0,0,3.946,84.38,2.2966208084,2.296588,6,P-GPS,
5900,2022-08-15 23:32:13,0,0,2.296588,,,2.2966208084,1.64042,0,0,0,0,0,8.357,2.2966208084,2.296588,0,0,0,0,0,340.5, 0.2, -0.2,0,0,1024,1024,1024,364,0,0,0,-100,337,0,0,90,4.182,4.17,0,0,0,0,4.087,84.38,2.2966208084,2.296588,6,P-GPS,
6000,2022-08-15 23:32:13,0,0,2.296588,,,2.2966208084,1.64042,0,0,0,0,0,8.357,2.2966208084,2.296588,0,0,0,0,0,335.7, 0.2, -0.2,0,0,1024,1024,1024,364,0,0,0,-100,332.2,0,0,90,4.182,4.17,0,0,0,0,4.087,84.38,2.2966208084,2.296588,6,P-GPS,
6100,2022-08-15 23:32:13,0,0,2.296588,,,2.2966208084,1.64042,0,0,0,0,0,8.357,2.2966208084,2.296588,0,0,0,0,0,330.9, 0.1, -0.1,0,0,1024,1024,1024,364,0,0,0,-100,327.4,0,0,90,4.182,4.17,0,0,0,0,4.087,84.38,2.2966208084,2.296588,6,P-GPS,
6200,2022-08-15 23:32:13,0,0,2.296588,,,2.2966208084,1.64042,0,0,0,0,0,8.357,2.2966208084,2.296588,0,0,0,0,0,326.2, 0.1, -0.1,0,0,1024,1024,1024,364,0,0,0,-100,322.6,0,0,90,4.182,4.17,0,0,0,0,4.087,84.38,2.2966208084,2.296588,6,P-GPS,
6300,2022-08-15 23:32:14,0,0,2.296588,,,2.2966208084,1.64042,0,0,0,0,0,8.357,2.2966208084,2.296588,0,0,0,0,0,321.3, 0, -0.2,0,0,1024,1024,1024,364,0,0,0,-100,317.8,0,0,90,4.182,4.17,0,0,0,0,4.087,84.38,2.2966208084,2.296588,6,P-GPS,
6400,2022-08-15 23:32:14,0,0,2.296588,,,2.2966208084,1.64042,0,0,0,0,0,8.357,2.2966208084,2.296588,0,0,0,0,0,316.5, 0.1, -0.2,0,0,1024,1024,1024,364,0,0,0,-100,313,0,0,90,4.182,4.17,0,0,0,0,4.087,84.38,2.2966208084,2.296588,6,P-GPS,
6500,2022-08-15 23:32:14,0,0,2.296588,,,2.2966208084,1.64042,0,0,0,0,0,8.357,2.2966208084,2.296588,0,0,0,0,0,311.7, 0.2, -0.1,0,0,1024,1024,1024,364,0,0,0,-100,308.2,0,0,90,4.182,4.17,0,0,0,0,4.087,84.38,2.2966208084,2.296588,6,P-GPS,"En vuelo"
6600,2022-08-15 23:32:14,0,0,2.296588,,,2.2966208084,1.64042,0,0,0,0,0,8.357,2.2966208084,2.296588,0,0,0,0,0,306.9, 0.1, -0.2,0,0,1024,1024,1024,364,0,0,0,-100,303.4,0,0,90,4.182,4.17,0,0,0,0,4.087,84.38,2.2966208084,2.296588,6,P-GPS,
6700,2022-08-15 23:32:14,0,0,2.296588,,,2.2966208084,1.64042,0,0,0,0,0,8.357,2.2966208084,2.296588,0,0,0,0,0,302.1, 0, -0.2,0,0,1024,1024,1024,364,0,0,0,-100,298.6,0,0,90,4.182,4.17,0,0,0,0,4.087,84.38,2.2966208084,2.296588,6,P-GPS,
6800,2022-08-15 23:32:14,0,0,2.296588,,,2.2966208084,1.64042,0,0,0,0,0,8.357,2.2966208084,2.296588,0,0,0,0,0,297.3, 0, -0.1,0,0,1024,1024,1024,364,0,0,0,-100,293.8,0,0,90,4.182,4.17,0,0,0,0,4.087,84.38,2.2966208084,2.296588,6,P-GPS,
6900,2022-08-15 23:32:14,0,0,2.296588,,,2.2966208084,1.64042,0,0,0,0,0,8.349,2.2966208084,2.296588,0,0,0,0,0,292.5, -0.1, -0.1,0,0,1024,1024,1024,364,0,0,0,-100,289,0,0,90,4.179,4.167,0,0,0,0,4.123,84.38,2.2966208084,2.296588,6,P-GPS,
7000,2022-08-15 23:32:14,0,0,2.296588,,,2.2966208084,1.64042,0,0,0,0,0,8.349,2.2966208084,2.296588,0,0,0,0,0,287.7, -0.2, 0,0,0,1024,1024,1024,364,0,0,0,-100,284.2,0,0,90,4.179,4.167,0,0,0,0,4.123,84.38,2.2966208084,2.296588,6,P-GPS,
7100,2022-08-15 23:32:14,0,0,2.296588,,,2.2966208084,1.64042,0,0,0,0,0,8.349,2.2966208084,2.296588,0,0,0,0,0,282.9, 0, -0.1,0,0,1024,1024,1024,364,0,0,0,-100,279.4,0,0,90,4.179,4.167,0,0,0,0,4.123,84.38,2.2966208084,2.296588,6,P-GPS,
7200,2022-08-15 23:32:14,0,0,2.296588,,,2.2966208084,1.64042,0,0,0,0,0,8.349,2.2966208084,2.296588,0,0,0,0,0,278.1, 0.1, -0.1,0,0,1024,1024,1024,649,0,0,0,-57,274.7,0,0,90,4.179,4.167,0,0,0,0,4.123,84.38,2.2966208084,2.296588,6,P-GPS,
7300,2022-08-15 23:32:15,0,0,2.296588,,,2.2966208084,1.64042,0,0,0,0,0,8.349,2.2966208084,2.296588,0,0,0,0,0,273.6, 0, -0.1,0,0,1024,1024,1024,1024,0,0,0,0,271.3,0,0,90,4.179,4.167,0,0,0,0,4.123,84.38,2.2966208084,2.296588,6,P-GPS,
7400,2022-08-15 23:32:15,0,0,2.296588,,,2.2966208084,1.64042,0,0,0,0,0,8.349,2.2966208084,2.296588,0,0,0,0,0,271.1, 0, -0.1,0,0,1024,1024,1024,1024,0,0,0,0,269.9,0,0,90,4.179,4.167,0,0,0,0,4.123,84.38,2.2966208084,2.296588,6,P-GPS,
7500,2022-08-15 23:32:15,0,0,2.296588,,,2.2966208084,1.64042,0,0,0,0,0,8.349,2.2966208084,2.296588,0,0,0,0,0,270, 0, 0,0,0,1024,1024,1024,1024,0,0,0,0,269.3,0,0,90,4.179,4.167,0,0,0,0,4.123,84.38,2.2966208084,2.296588,6,P-GPS,
7600,2022-08-15 23:32:15,0,0,2.296588,,,2.2966208084,1.64042,0,0,0,0,0,8.349,2.2966208084,2.296588,0,0,0,0,0,269.5, 0.1, 0,0,0,1024,1024,1024,1024,0,0,0,0,269.2,0,0,90,4.179,4.167,0,0,0,0,4.123,84.38,2.2966208084,2.296588,6,P-GPS,
7700,2022-08-15 23:32:15,0,0,2.296588,,,2.2966208084,1.64042,0,0,0,0,0,8.349,2.2966208084,2.296588,0,0,0,0,0,269.5, 0, 0,0,0,1024,1024,1024,1024,0,0,0,0,269.2,0,0,90,4.179,4.167,0,0,0,0,4.123,84.38,2.2966208084,2.296588,6,P-GPS,
7800,2022-08-15 23:32:15,0,0,2.296588,,,2.2966208084,1.64042,0,0,0,0,0,8.349,2.2966208084,2.296588,0,0,0,0,0,269.4, 0, 0,0,0,1024,1024,1024,1024,0,0,0,0,269.2,0,0,90,4.179,4.167,0,0,0,0,4.123,84.38,2.2966208084,2.296588,6,P-GPS,
7900,2022-08-15 23:32:15,0,0,2.296588,,,2.2966208084,1.64042,0,0,0,0,0,8.349,2.2966208084,2.296588,0,0,0,0,0,269.3, 0.1, 0,0,0,1024,1024,1024,1024,0,0,0,0,269.2,0,0,90,4.179,4.167,0,0,0,0,4.123,84.38,2.2966208084,2.296588,6,P-GPS,
8000,2022-08-15 23:32:15,0,0,2.296588,,,2.2966208084,1.64042,0,0,0,0,0,8.343,2.2966208084,2.296588,0,0,0,0,0,269.3, 0.2, 0,0,0,1024,1024,1024,1024,0,0,0,0,269.2,0,0,90,4.175,4.164,0,0,0,0,4.126,84.56,2.2966208084,2.296588,6,P-GPS,
8100,2022-08-15 23:32:15,0,0,2.296588,,,2.2966208084,1.64042,0,0,0,0,0,8.343,2.2966208084,2.296588,0,0,0,0,0,269.3, 0.2, 0,0,0,1024,1024,1024,1024,0,0,0,0,269.2,0,0,90,4.175,4.164,0,0,0,0,4.126,84.56,2.2966208084,2.296588,6,P-GPS,
8200,2022-08-15 23:32:16,0,0,2.296588,,,2.2966208084,1.64042,0,0,0,0,0,8.343,2.2966208084,2.296588,0,0,0,0,0,269.3, 0, -0.1,0,0,1024,1024,1024,1024,0,0,0,0,269.2,0,0,90,4.175,4.164,0,0,0,0,4.126,84.56,2.2966208084,2.296588,6,P-GPS,
8300,2022-08-15 23:32:16,0,0,2.296588,,,2.2966208084,1.64042,0,0,0,0,0,8.343,2.2966208084,2.296588,0,0,0,0,0,269.3, 0.1, -0.3,0,0,1024,1024,1024,1024,0,0,0,0,269.2,0,0,90,4.175,4.164,0,0,0,0,4.126,84.56,2.2966208084,2.296588,6,P-GPS,
8400,2022-08-15 23:32:16,0,0,1.968504,,,1.9685368084,1.64042,0,0,0,0,0,8.343,2.2966208084,2.296588,0,0,0,0,0,269.3, 0.2, -0.2,0,0,1024,1024,1024,1024,0,0,0,0,269.2,0,0,90,4.175,4.164,0,0,0,0,4.126,84.56,1.9685368084,1.968504,6,P-GPS,
8500,2022-08-15 23:32:16,0,0,1.968504,,,1.9685368084,1.64042,0,0,0,0,0,8.343,2.2966208084,2.296588,0,0,0,0,0,269.3, 0.3, -0.3,0,0,1024,1024,1024,1024,0,0,0,0,269.2,0,0,90,4.175,4.164,0,0,0,0,4.126,84.56,1.9685368084,1.968504,6,P-GPS,
8600,2022-08-15 23:32:16,0,0,1.968504,,,1.9685368084,1.64042,0,0,0,0,0,8.343,2.2966208084,2.296588,0,0,0,0,0,269.3, 0.3, -0.2,0,0,1024,1024,1024,1024,0,0,0,0,269.2,0,0,90,4.175,4.164,0,0,0,0,4.126,84.56,1.9685368084,1.968504,6,P-GPS,
8700,2022-08-15 23:32:16,0,0,1.968504,,,1.9685368084,1.64042,0,0,0,0,0,8.343,2.2966208084,2.296588,0,0,0,0,0,269.3, 0.1, -0.2,0,0,1024,1024,1024,1024,0,0,0,0,269.2,0,0,90,4.175,4.164,0,0,0,0,4.126,84.56,1.9685368084,1.968504,6,P-GPS,
8800,2022-08-15 23:32:16,0,0,1.968504,,,1.9685368084,1.64042,0,0,0,0,0,8.343,2.2966208084,2.296588,0,0,0,0,0,269.2, 0.3, -0.1,0,0,1024,1024,1024,1024,0,0,0,0,269.2,0,0,90,4.175,4.164,0,0,0,0,4.126,84.56,1.9685368084,1.968504,6,P-GPS,
8900,2022-08-15 23:32:16,0,0,1.968504,,,1.9685368084,1.64042,0,0,0,0,0,8.343,2.2966208084,2.296588,0,0,0,0,0,269.1, 0.1, -0.3,0,0,1024,1024,1024,1024,0,0,0,0,269.2,0,0,90,4.175,4.164,0,0,0,0,4.126,84.56,1.9685368084,1.968504,6,P-GPS,
9000,2022-08-15 23:32:16,0,0,1.968504,,,1.9685368084,1.64042,0,0,0,0,0,8.337,2.2966208084,2.296588,0,0,0,0,0,269.1, 0, -0.3,0,0,1024,1024,1024,1024,0,0,0,0,269.2,0,0,90,4.172,4.161,0,0,0,0,4.127,84.56,1.9685368084,1.968504,6,P-GPS,
9100,2022-08-15 23:32:16,0,0,1.968504,,,1.9685368084,1.64042,0,0,0,0,0,8.337,2.2966208084,2.296588,0,0,0,0,0,269.1, 0, -0.2,0,0,1024,1024,1024,1024,0,0,0,0,269.2,0,0,90,4.172,4.161,0,0,0,0,4.127,84.56,1.9685368084,1.968504,6,P-GPS,
9200,2022-08-15 23:32:17,0,0,1.968504,,,1.9685368084,1.64042,0,0,0,0,0,8.337,2.2966208084,2.296588,0,0,0,0,0,269.1, 0.1, -0.5,0,0,1024,1024,1024,1024,0,0,0,0,269.2,0,0,90,4.172,4.161,0,0,0,0,4.127,84.56,1.9685368084,1.968504,6,P-GPS,
9300,2022-08-15 23:32:17,0,0,1.968504,,,1.9685368084,1.64042,0,0,0,0,0,8.337,2.2966208084,2.296588,0,0,0,0,0,269.1, 0.1, -0.2,0,0,1024,1024,1024,1024,0,0,0,0,269.2,0,0,90,4.172,4.161,0,0,0,0,4.127,84.56,1.9685368084,1.968504,6,P-GPS,
9400,2022-08-15 23:32:17,0,0,1.968504,,,1.9685368084,1.64042,0,0,0,0,0,8.337,2.2966208084,2.296588,0,0,0,0,0,269.1, 0.3, -0.1,0,0,1024,1024,1024,1024,0,0,0,0,269.2,0,0,90,4.172,4.161,0,0,0,0,4.127,84.56,1.9685368084,1.968504,38,Tripod,
9500,2022-08-15 23:32:17,0,0,1.968504,,,1.9685368084,1.64042,0,0,0,0,0,8.337,2.2966208084,2.296588,0,0,0,0,0,269.1, 0.2, -0.2,0,0,1024,1024,1024,1024,0,0,0,0,269.2,0,0,90,4.172,4.161,0,0,0,0,4.127,84.56,1.9685368084,1.968504,38,Tripod,
9600,2022-08-15 23:32:17,0,0,1.64042,,,1.6404528084,1.64042,0,0,0,0,0,8.337,2.2966208084,2.296588,0,0,0,0,0,269.2, 0.2, -0.1,0,0,1024,1024,1024,1024,0,0,0,0,269.2,0,0,90,4.172,4.161,0,0,0,0,4.127,84.56,1.6404528084,1.64042,38,Tripod,
9700,2022-08-15 23:32:17,0,0,1.64042,,,1.6404528084,1.64042,0,0,0,0,0,8.337,2.2966208084,2.296588,0,0,0,0,0,269.2, 0.2, 0,0,0,1024,1024,1024,1024,0,0,0,0,269.2,0,0,90,4.172,4.161,0,0,0,0,4.127,84.56,1.6404528084,1.64042,38,Tripod,
9800,2022-08-15 23:32:17,0,0,1.64042,,,1.6404528084,1.64042,0,0,0,0,0,8.337,2.2966208084,2.296588,0,0,0,0,0,269.1, 0.2, -0.1,0,0,1024,1024,1024,1024,0,0,0,0,269.2,0,0,90,4.172,4.161,0,0,0,0,4.127,84.56,1.6404528084,1.64042,38,Tripod,
9900,2022-08-15 23:32:17,0,0,1.64042,,,1.6404528084,1.64042,0,0,0,0,0,8.337,2.2966208084,2.296588,0,0,0,0,0,269.1, 0, -0.3,0,0,1024,1024,1024,1024,0,0,0,0,269.2,0,0,90,4.172,4.161,0,0,0,0,4.127,84.56,1.6404528084,1.64042,38,Tripod,
10000,2022-08-15 23:32:17,0,0,1.64042,,,1.6404528084,1.64042,0,0,0,0,0,8.332,2.2966208084,2.296588,0,0,0,0,0,269.1, 0, -0.1,0,0,1024,1024,1024,1024,0,0,0,0,269.2,0,0,90,4.171,4.159,0,0,0,0,4.152,84.56,1.6404528084,1.64042,38,Tripod,
10100,2022-08-15 23:32:17,0,0,1.64042,,,1.6404528084,1.64042,0,0,0,0,0,8.332,2.2966208084,2.296588,0,0,0,0,0,269.1, 0.2, -0.1,0,0,1024,1024,1024,1024,0,0,0,0,269.2,0,0,90,4.171,4.159,0,0,0,0,4.152,84.56,1.6404528084,1.64042,38,Tripod,
10200,2022-08-15 23:32:18,0,0,1.64042,,,1.6404528084,1.64042,0,0,0,0,0,8.332,2.2966208084,2.296588,0,0,0,0,0,269.1, 0.3, -0.3,0,0,1024,1024,1024,364,0,0,0,-100,269.2,0,0,90,4.171,4.159,0,0,0,0,4.152,84.56,1.6404528084,1.64042,38,Tripod,
10300,2022-08-15 23:32:18,0,0,1.64042,,,1.6404528084,1.64042,0,0,0,0,0,8.332,2.2966208084,2.296588,0,0,0,0,0,269.1, 0.2, -0.4,0,0,1024,1024,1006,364,0,0,-3,-100,269.2,0,0,90,4.171,4.159,0,0,0,0,4.152,84.56,1.6404528084,1.64042,38,Tripod,
10400,2022-08-15 23:32:18,0,0,1.64042,,,1.6404528084,1.64042,0,0,0,0,0,8.332,2.2966208084,2.296588,0,0,0,0,0,269.2, 0.4, -0.3,0,0,1024,1024,1006,364,0,0,-3,-100,269.2,0,0,90,4.171,4.159,0,0,0,0,4.152,84.56,1.6404528084,1.64042,38,Tripod,
10500,2022-08-15 23:32:18,0,0,1.64042,,,1.6404528084,1.64042,0,0,0,0,0,8.332,2.2966208084,2.296588,0,0,0,0,0,269.2, 0.4, -0.2,0,0,1024,1024,1005,364,0,0,-3,-100,269.2,0,0,90,4.171,4.159,0,0,0,0,4.152,84.56,1.6404528084,1.64042,38,Tripod,
10600,2022-08-15 23:32:18,0,0,1.64042,,,1.6404528084,1.64042,0,0,0,0,0,8.332,2.2966208084,2.296588,0,0,0,0,0,269.2, 0.4, -0.2,0,0,1024,1024,1003,364,0,0,-3,-100,269.1,0,0,90,4.171,4.159,0,0,0,0,4.152,84.56,1.6404528084,1.64042,38,Tripod,
10700,2022-08-15 23:32:18,0,0,1.64042,,,1.6404528084,1.64042,0,0,0,0,0,8.332,2.2966208084,2.296588,0,0,0,0,0,269.1, 0.2, -0.2,0,0,1024,1024,992,364,0,0,-5,-100,268.9,0,0,90,4.171,4.159,0,0,0,0,4.152,84.56,1.6404528084,1.64042,38,Tripod,
10800,2022-08-15 23:32:18,0,0,1.64042,,,1.6404528084,1.64042,0,0,0,0,0,8.332,2.2966208084,2.296588,0,0,0,0,0,268.9, 0.1, 0,0,0,1024,1024,977,364,0,0,-7,-100,268.7,0,0,90,4.171,4.159,0,0,0,0,4.152,84.56,1.6404528084,1.64042,38,Tripod,
10900,2022-08-15 23:32:18,0,0,1.64042,,,1.6404528084,1.64042,0,0,0,0,0,8.332,2.2966208084,2.296588,0,0,0,0,0,268.7, 0.2, 0,0,0,1024,1024,946,364,0,0,-12,-100,268.5,0,0,90,4.171,4.159,0,0,0,0,4.152,84.56,1.6404528084,1.64042,38,Tripod,
11000,2022-08-15 23:32:18,0,0,1.312336,,,1.3123688084,1.64042,0,0,0,0,0,8.327,2.2966208084,2.296588,0,0,0,0,0,268.4, 0.3, 0.1,0,0,1024,1024,944,364,0,0,-12,-100,268.2,0,0,90,4.169,4.156,0,0,0,0,4.134,84.56,1.3123688084,1.312336,38,Tripod,
11100,2022-08-15 23:32:18,0,0,1.312336,,,1.3123688084,1.64042,0,0,0,0,0,8.327,2.2966208084,2.296588,0,0,0,0,0,268.1, 0.1, -0.2,0,0,1024,1024,936,364,0,0,-13,-100,267.9,0,0,90,4.169,4.156,0,0,0,0,4.134,84.56,1.3123688084,1.312336,38,Tripod,
11200,2022-08-15 23:32:18,0,0,1.312336,,,1.3123688084,1.64042,0,0,0,0,0,8.327,2.2966208084,2.296588,0,0,0,0,0,267.7, 0.1, -0.3,0,0,1024,1024,936,364,0,0,-13,-100,267.5,0,0,90,4.169,4.156,0,0,0,0,4.134,84.56,1.3123688084,1.312336,38,Tripod,
11300,2022-08-15 23:32:19,0,0,1.312336,,,1.3123688084,1.64042,0,0,0,0,0,8.327,2.2966208084,2.296588,0,0,0,0,0,267.4, 0, -0.4,0,0,1024,1024,935,364,0,0,-13,-100,267.2,0,0,90,4.169,4.156,0,0,0,0,4.134,84.56,1.3123688084,1.312336,38,Tripod,
11400,2022-08-15 23:32:19,0,0,1.312336,,,1.3123688084,1.64042,0,0,0,0,0,8.327,2.2966208084,2.296588,0,0,0,0,0,267.1, 0, -0.2,0,0,1024,1024,922,364,0,0,-15,-100,266.8,0,0,90,4.169,4.156,0,0,0,0,4.134,84.56,1.3123688084,1.312336,38,Tripod,
11500,2022-08-15 23:32:19,0,0,1.312336,,,1.3123688084,1.64042,0,0,0,0,0,8.327,2.2966208084,2.296588,0,0,0,0,0,266.7, 0, -0.1,0,0,1024,1024,918,364,0,0,-16,-100,266.5,0,0,90,4.169,4.156,0,0,0,0,4.134,84.56,1.3123688084,1.312336,38,Tripod,
11600,2022-08-15 23:32:19,0,0,1.312336,,,1.3123688084,1.64042,0,0,0,0,0,8.327,2.2966208084,2.296588,0,0,0,0,0,266.2, -0.1, -0.1,0,0,1024,1024,912,364,0,0,-17,-100,266.1,0,0,90,4.169,4.156,0,0,0,0,4.134,84.56,1.3123688084,1.312336,38,Tripod,
11700,2022-08-15 23:32:19,0,0,1.312336,,,1.3123688084,1.64042,0,0,0,0,0,8.327,2.2966208084,2.296588,0,0,0,0,0,265.9, -0.1, -0.1,0,0,1024,1024,897,364,0,0,-19,-100,265.7,0,0,90,4.169,4.156,0,0,0,0,4.134,84.56,1.3123688084,1.312336,38,Tripod,
11800,2022-08-15 23:32:19,0,0,1.312336,,,1.3123688084,1.64042,0,0,0,0,0,8.327,2.2966208084,2.296588,0,0,0,0,0,265.4, 0, 0,0,0,1024,1024,893,364,0,0,-20,-100,265.3,0,0,90,4.169,4.156,0,0,0,0,4.134,84.56,1.3123688084,1.312336,38,Tripod,
11900,2022-08-15 23:32:19,0,0,1.312336,,,1.3123688084,1.64042,0,0,0,0,0,8.327,2.2966208084,2.296588,0,0,0,0,0,265.1, 0, 0,0,0,1024,1024,864,364,0,0,-24,-100,264.9,0,0,90,4.169,4.156,0,0,0,0,4.134,84.56,1.3123688084,1.312336,38,Tripod,
12000,2022-08-15 23:32:19,0,0,1.312336,,,1.3123688084,1.64042,0,0,0,0,0,8.327,2.2966208084,2.296588,0,0,0,0,0,264.7, -0.1, -0.1,0,0,1024,1024,864,364,0,0,-24,-100,264.5,0,0,90,4.169,4.156,0,0,0,0,4.134,84.56,1.3123688084,1.312336,38,Tripod,
12100,2022-08-15 23:32:19,0,0,1.312336,,,1.3123688084,1.64042,0,0,0,0,0,8.327,2.2966208084,2.296588,0,0,0,0,0,264.3, -0.1, -0.2,0,0,1024,1024,849,364,0,0,-27,-100,264.1,0,0,90,4.169,4.156,0,0,0,0,4.134,84.56,1.3123688084,1.312336,38,Tripod,
12200,2022-08-15 23:32:19,0,0,1.312336,,,1.3123688084,1.64042,0,0,0,0,0,8.327,2.2966208084,2.296588,0,0,0,0,0,263.9, 0, -0.3,0,0,1024,1024,849,364,0,0,-27,-100,263.7,0,0,90,4.169,4.156,0,0,0,0,4.134,84.56,1.3123688084,1.312336,38,Tripod,
12300,2022-08-15 23:32:20,0,0,1.312336,,,1.3123688084,1.64042,0,0,0,0,0,8.32,2.2966208084,2.296588,0,0,0,0,0,263.5, 0.1, -0.2,0,0,1024,1024,878,364,0,0,-22,-100,263.3,0,0,90,4.166,4.153,0,0,0,0,4.143,84.56,1.3123688084,1.312336,38,Tripod,
12400,2022-08-15 23:32:20,0,0,1.312336,,,1.3123688084,1.64042,0,0,0,0,0,8.32,2.2966208084,2.296588,0,0,0,0,0,263.1, 0, -0.3,0,0,1024,1024,1024,1024,0,0,0,0,262.9,0,0,90,4.166,4.153,0,0,0,0,4.143,84.56,1.3123688084,1.312336,38,Tripod,
12500,2022-08-15 23:32:20,0,0,1.312336,,,1.3123688084,1.64042,0,0,0,0,0,8.32,2.2966208084,2.296588,0,0,0,0,0,262.7, -0.1, -0.2,0,0,1024,1024,1024,1024,0,0,0,0,262.5,0,0,90,4.166,4.153,0,0,0,0,4.143,84.56,1.3123688084,1.312336,38,Tripod,
12600,2022-08-15 23:32:20,0,0,1.312336,,,1.3123688084,1.64042,0,0,0,0,0,8.32,2.2966208084,2.296588,0,0,0,0,0,262.3, 0, 0,0,0,1024,1024,1024,1024,0,0,0,0,262.1,0,0,90,4.166,4.153,0,0,0,0,4.143,84.56,1.3123688084,1.312336,38,Tripod,
12700,2022-08-15 23:32:20,0,0,1.312336,,,1.3123688084,1.64042,0,0,0,0,0,8.32,2.2966208084,2.296588,0,0,0,0,0,262, -0.1, 0,0,0,1024,1024,1024,1024,0,0,0,0,261.8,0,0,90,4.166,4.153,0,0,0,0,4.143,84.56,1.3123688084,1.312336,38,Tripod,
12800,2022-08-15 23:32:20,0,0,1.312336,,,1.3123688084,1.64042,0,0,0,0,0,8.32,2.2966208084,2.296588,0,0,0,0,0,261.7, -0.2, -0.3,0,0,1024,1024,1024,1024,0,0,0,0,261.4,0,0,90,4.166,4.153,0,0,0,0,4.143,84.56,1.3123688084,1.312336,38,Tripod,
12900,2022-08-15 23:32:20,0,0,1.312336,,,1.3123688084,1.64042,0,0,0,0,0,8.32,2.2966208084,2.296588,0,0,0,0,0,261.4, 0, 0,0,0,1024,1024,1024,1024,0,0,0,0,261.1,0,0,90,4.166,4.153,0,0,0,0,4.143,84.56,1.3123688084,1.312336,38,Tripod,
13000,2022-08-15 23:32:20,0,0,1.312336,,,1.3123688084,1.64042,0,0,0,0,0,8.32,2.2966208084,2.296588,0,0,0,0,0,261.1, 0.1, 0,0,0,1024,1024,1024,1024,0,0,0,0,260.9,0,0,90,4.166,4.153,0,0,0,0,4.143,84.56,1.3123688084,1.312336,38,Tripod,
13100,2022-08-15 23:32:20,0,0,1.312336,,,1.3123688084,1.64042,0,0,0,0,0,8.32,2.2966208084,2.296588,0,0,0,0,0,260.9, 0.1, -0.3,0,0,1024,1024,1024,1024,0,0,0,0,260.6,0,0,90,4.166,4.153,0,0,0,0,4.143,84.56,1.3123688084,1.312336,38,Tripod,
13200,2022-08-15 23:32:20,0,0,1.312336,,,1.3123688084,1.64042,0,0,0,0,0,8.32,2.2966208084,2.296588,0,0,0,0,0,260.7, 0.1, 0,0,0,1024,1024,1024,1024,0,0,0,0,260.4,0,0,90,4.166,4.153,0,0,0,0,4.143,84.56,1.3123688084,1.312336,38,Tripod,
13300,2022-08-15 23:32:21,0,0,0.984252,,,0.9842848084,1.64042,0,0,0,0,0,8.318,2.2966208084,2.296588,0,0,0,0,0,260.4, 0, 0.3,0,0,1024,1024,1024,1024,0,0,0,0,260.2,0,0,90,4.164,4.151,0,0,0,0,4.115,84.56,0.9842848084,0.984252,38,Tripod,
13400,2022-08-15 23:32:21,0,0,0.984252,,,0.9842848084,1.64042,0,0,0,0,0,8.318,2.2966208084,2.296588,0,0,0,0,0,260.1, 0.1, 0.1,0,0,1024,1024,1024,1024,0,0,0,0,260,0,0,90,4.164,4.151,0,0,0,0,4.115,84.56,0.9842848084,0.984252,38,Tripod,
13500,2022-08-15 23:32:21,0,0,0.984252,,,0.9842848084,1.64042,0,0,0,0,0,8.318,2.2966208084,2.296588,0,0,0,0,0,260, 0.2, 0,0,0,1024,1024,1024,1024,0,0,0,0,259.9,0,0,90,4.164,4.151,0,0,0,0,4.115,84.56,0.9842848084,0.984252,38,Tripod,
13600,2022-08-15 23:32:21,0,0,0.984252,,,0.9842848084,1.64042,0,0,0,0,0,8.318,2.2966208084,2.296588,0,0,0,0,0,259.9, 0, 0.1,0,0,1024,1024,1024,1024,0,0,0,0,259.8,0,0,90,4.164,4.151,0,0,0,0,4.115,84.56,0.9842848084,0.984252,38,Tripod,
13700,2022-08-15 23:32:21,0,0,0.984252,,,0.9842848084,1.64042,0,0,0,0,0,8.318,2.2966208084,2.296588,0,0,0,0,0,259.8, 0.2, 0,0,0,1024,1024,1024,1024,0,0,0,0,259.7,0,0,90,4.164,4.151,0,0,0,0,4.115,84.56,0.9842848084,0.984252,38,Tripod,
13800,2022-08-15 23:32:21,0,0,0.984252,,,0.9842848084,1.64042,0,0,0,0,0,8.318,2.2966208084,2.296588,0,0,0,0,0,259.7, 0.1, -0.2,0,0,1024,1024,1024,1024,0,0,0,0,259.6,0,0,90,4.164,4.151,0,0,0,0,4.115,84.56,0.9842848084,0.984252,38,Tripod,
13900,2022-08-15 23:32:21,0,0,0.984252,,,0.9842848084,1.64042,0,0,0,0,0,8.318,2.2966208084,2.296588,0,0,0,0,0,259.7, 0.1, -0.1,0,0,1024,1024,1024,1024,0,0,0,0,259.6,0,0,90,4.164,4.151,0,0,0,0,4.115,84.56,0.9842848084,0.984252,38,Tripod,
14000,2022-08-15 23:32:21,0,0,0.984252,,,0.9842848084,1.64042,0,0,0,0,0,8.318,2.2966208084,2.296588,0,0,0,0,0,259.7, 0, 0,0,0,1024,1024,1024,1024,0,0,0,0,259.5,0,0,90,4.164,4.151,0,0,0,0,4.115,84.56,0.9842848084,0.984252,38,Tripod,
14100,2022-08-15 23:32:21,0,0,0.984252,,,0.9842848084,1.64042,0,0,0,0,0,8.318,2.2966208084,2.296588,0,0,0,0,0,259.7, 0, 0,0,0,1024,1024,1024,1024,0,0,0,0,259.5,0,0,90,4.164,4.151,0,0,0,0,4.115,84.56,0.9842848084,0.984252,38,Tripod,
14200,2022-08-15 23:32:22,0,0,0.984252,,,0.9842848084,1.64042,0,0,0,0,0,8.318,2.2966208084,2.296588,0,0,0,0,0,259.6, 0, 0,0,0,1024,1024,1024,1024,0,0,0,0,259.5,0,0,90,4.164,4.151,0,0,0,0,4.115,84.56,0.9842848084,0.984252,38,Tripod,
14300,2022-08-15 23:32:22,0,0,0.984252,,,0.9842848084,1.64042,0,0,0,0,0,8.31,2.2966208084,2.296588,0,0,0,0,0,259.6, 0, 0,0,0,1024,1024,1024,1024,0,0,0,0,259.5,0,0,90,4.162,4.15,0,0,0,0,4.153,84.74,0.9842848084,0.984252,38,Tripod,
14400,2022-08-15 23:32:22,0,0,0.984252,,,0.9842848084,1.64042,0,0,0,0,0,8.31,2.2966208084,2.296588,0,0,0,0,0,259.6, 0, 0.1,0,0,1024,1024,1024,1024,0,0,0,0,259.5,0,0,90,4.162,4.15,0,0,0,0,4.153,84.74,0.9842848084,0.984252,38,Tripod,
14500,2022-08-15 23:32:22,0,0,0.984252,,,0.9842848084,1.64042,0,0,0,0,0,8.31,2.2966208084,2.296588,0,0,0,0,0,259.5, -0.1, 0.1,0,0,1024,1024,1024,1024,0,0,0,0,259.5,0,0,90,4.162,4.15,0,0,0,0,4.153,84.74,0.9842848084,0.984252,38,Tripod,
14600,2022-08-15 23:32:22,0,0,0.984252,,,0.9842848084,1.64042,0,0,0,0,0,8.31,2.2966208084,2.296588,0,0,0,0,0,259.6, -0.1, 0.1,0,0,1024,1024,1024,1024,0,0,0,0,259.5,0,0,90,4.162,4.15,0,0,0,0,4.153,84.74,0.9842848084,0.984252,38,Tripod,
14700,2022-08-15 23:32:22,0,0,0.984252,,,0.9842848084,1.64042,0,0,0,0,0,8.31,2.2966208084,2.296588,0,0,0,0,0,259.6, -0.1, 0.2,0,0,1024,1024,1024,1024,0,0,0,0,259.5,0,0,90,4.162,4.15,0,0,0,0,4.153,84.74,0.9842848084,0.984252,38,Tripod,
14800,2022-08-15 23:32:22,0,0,0.984252,,,0.9842848084,1.64042,0,0,0,0,0,8.31,2.2966208084,2.296588,0,0,0,0,0,259.6, 0.1, 0.3,0,0,1024,1024,1024,1024,0,0,0,0,259.5,0,0,90,4.162,4.15,0,0,0,0,4.153,84.74,0.9842848084,0.984252,38,Tripod,
14900,2022-08-15 23:32:22,0,0,0.984252,,,0.9842848084,1.64042,0,0,0,0,0,8.31,2.2966208084,2.296588,0,0,0,0,0,259.6, 0.2, 0.1,0,0,1024,1024,1024,1024,0,0,0,0,259.5,0,0,90,4.162,4.15,0,0,0,0,4.153,84.74,0.9842848084,0.984252,38,Tripod,
15000,2022-08-15 23:32:22,0,0,0.984252,,,0.9842848084,1.64042,0,0,0,0,0,8.31,2.2966208084,2.296588,0,0,0,0,0,259.5, 0.3, 0,0,0,1024,1024,1024,1024,0,0,0,0,259.5,0,0,90,4.162,4.15,0,0,0,0,4.153,84.74,0.9842848084,0.984252,38,Tripod,
15100,2022-08-15 23:32:22,0,0,0.984252,,,0.9842848084,1.64042,0,0,0,0,0,8.31,2.2966208084,2.296588,0,0,0,0,0,259.6, 0.5, -0.1,0,0,1024,1024,1024,1024,0,0,0,0,259.5,0,0,90,4.162,4.15,0,0,0,0,4.153,84.74,0.9842848084,0.984252,38,Tripod,
15200,2022-08-15 23:32:23,0,0,0.984252,,,0.9842848084,1.64042,0,0,0,0,0,8.31,2.2966208084,2.296588,0,0,0,0,0,259.6, 0.5, -0.1,0,0,1024,1024,1024,1024,0,0,0,0,259.5,0,0,90,4.162,4.15,0,0,0,0,4.153,84.74,0.9842848084,0.984252,38,Tripod,
15300,2022-08-15 23:32:23,0,0,0.984252,,,0.9842848084,1.64042,0,0,0,0,0,8.305,2.2966208084,2.296588,0,0,0,0,0,259.6, 0.4, -0.1,0,0,1024,1024,1024,1024,0,0,0,0,259.5,0,0,89,4.16,4.147,0,0,0,0,4.182,84.74,0.9842848084,0.984252,38,Tripod,
15400,2022-08-15 23:32:23,0,0,0.984252,,,0.9842848084,1.64042,0,0,0,0,0,8.305,2.2966208084,2.296588,0,0,0,0,0,259.5, 0.6, 0,0,0,1024,1024,1024,1024,0,0,0,0,259.5,0,0,89,4.16,4.147,0,0,0,0,4.182,84.74,0.9842848084,0.984252,38,Tripod,
15500,2022-08-15 23:32:23,0,0,0.984252,,,0.9842848084,1.64042,0,0,0,0,0,8.305,2.2966208084,2.296588,0,0,0,0,0,259.5, 0.7, 0,0,0,1024,1024,1024,1024,0,0,0,0,259.5,0,0,89,4.16,4.147,0,0,0,0,4.182,84.74,0.9842848084,0.984252,38,Tripod,
15600,2022-08-15 23:32:23,0,0,0.984252,,,0.9842848084,1.64042,0,0,0,0,0,8.305,2.2966208084,2.296588,0,0,0,0,0,259.5, 0.5, 0,0,0,1024,1024,1024,1024,0,0,0,0,259.5,0,0,89,4.16,4.147,0,0,0,0,4.182,84.74,0.9842848084,0.984252,38,Tripod,
15700,2022-08-15 23:32:23,0,0,0.984252,,,0.9842848084,1.64042,0,0,0,0,0,8.305,2.2966208084,2.296588,0,0,0,0,0,259.5, 0.5, 0,0,0,1024,1024,1024,1024,0,0,0,0,259.5,0,0,89,4.16,4.147,0,0,0,0,4.182,84.74,0.9842848084,0.984252,38,Tripod,
15800,2022-08-15 23:32:23,0,0,0.656168,,,0.6562008084,1.64042,0,0,0,0,0,8.305,2.2966208084,2.296588,0,0,0,0,0,259.5, 0.3, 0,0,0,1024,1024,1024,1024,0,0,0,0,259.5,0,0,89,4.16,4.147,0,0,0,0,4.182,84.74,0.6562008084,0.656168,38,Tripod,
15900,2022-08-15 23:32:23,0,0,0.656168,,,0.6562008084,1.64042,0,0,0,0,0,8.305,2.2966208084,2.296588,0,0,0,0,0,259.6, 0.3, 0,0,0,1024,1024,1024,1024,0,0,0,0,259.5,0,0,89,4.16,4.147,0,0,0,0,4.182,84.74,0.6562008084,0.656168,38,Tripod,
16000,2022-08-15 23:32:23,0,0,0.656168,,,0.6562008084,1.64042,0,0,0,0,0,8.305,2.2966208084,2.296588,0,0,0,0,0,259.6, 0.2, 0,0,0,1024,1024,1024,1024,0,0,0,0,259.5,0,0,89,4.16,4.147,0,0,0,0,4.182,84.74,0.6562008084,0.656168,38,Tripod,
16100,2022-08-15 23:32:23,0,0,0.656168,,,0.6562008084,1.64042,0,0,0,0,0,8.305,2.2966208084,2.296588,0,0,0,0,0,259.6, 0.2, 0.2,0,0,1024,1024,1024,1024,0,0,0,0,259.5,0,0,89,4.16,4.147,0,0,0,0,4.182,84.74,0.6562008084,0.656168,38,Tripod,
16200,2022-08-15 23:32:24,0,0,0.656168,,,0.6562008084,1.64042,0,0,0,0,0,8.305,2.2966208084,2.296588,0,0,0,0,0,259.6, 0.3, 0.4,0,0,1024,1024,1024,1024,0,0,0,0,259.5,0,0,89,4.16,4.147,0,0,0,0,4.182,84.74,0.6562008084,0.656168,38,Tripod,
16300,2022-08-15 23:32:24,0,0,0.656168,,,0.6562008084,1.64042,0,0,0,0,0,8.305,2.2966208084,2.296588,0,0,0,0,0,259.6, 0.2, 0.2,0,0,1024,1024,1024,1024,0,0,0,0,259.5,0,0,89,4.16,4.147,0,0,0,0,4.182,84.74,0.6562008084,0.656168,38,Tripod,
16400,2022-08-15 23:32:24,0,0,0.656168,,,0.6562008084,1.64042,0,0,0,0,0,8.304,2.2966208084,2.296588,0,0,0,0,0,259.6, 0.2, -0.1,0,0,1024,1024,1024,1024,0,0,0,0,259.5,0,0,89,4.159,4.147,0,0,0,0,4.15,84.74,0.6562008084,0.656168,38,Tripod,
16500,2022-08-15 23:32:24,0,0,0.656168,,,0.6562008084,1.64042,0,0,0,0,0,8.304,2.2966208084,2.296588,0,0,0,0,0,259.6, 0.1, -0.2,0,0,1024,1024,1024,1024,0,0,0,0,259.5,0,0,89,4.159,4.147,0,0,0,0,4.15,84.74,0.6562008084,0.656168,38,Tripod,
16600,2022-08-15 23:32:24,0,0,0.656168,,,0.6562008084,1.64042,0,0,0,0,0,8.304,2.2966208084,2.296588,0,0,0,0,0,259.7, 0.1, 0,0,0,1024,1024,1024,1024,0,0,0,0,259.5,0,0,89,4.159,4.147,0,0,0,0,4.15,84.74,0.6562008084,0.656168,38,Tripod,
16700,2022-08-15 23:32:24,0,0,0.656168,,,0.6562008084,1.64042,0,0,0,0,0,8.304,2.2966208084,2.296588,0,0,0,0,0,259.7, 0.3, 0.1,0,0,1024,1024,1024,1024,0,0,0,0,259.5,0,0,89,4.159,4.147,0,0,0,0,4.15,84.74,0.6562008084,0.656168,38,Tripod,
16800,2022-08-15 23:32:24,0,0,0.656168,,,0.6562008084,1.64042,0,0,0,0,0,8.304,2.2966208084,2.296588,0,0,0,0,0,259.7, 0.4, 0.1,0,0,1024,1024,1024,1024,0,0,0,0,259.5,0,0,89,4.159,4.147,0,0,0,0,4.15,84.74,0.6562008084,0.656168,38,Tripod,
16900,2022-08-15 23:32:24,0,0,0.656168,,,0.6562008084,1.64042,0,0,0,0,0,8.304,2.2966208084,2.296588,0,0,0,0,0,259.7, 0.5, 0.1,0,0,1024,1024,1024,1024,0,0,0,0,259.5,0,0,89,4.159,4.147,0,0,0,0,4.15,84.74,0.6562008084,0.656168,38,Tripod,
17000,2022-08-15 23:32:24,0,0,0.656168,,,0.6562008084,1.64042,0,0,0,0,0,8.304,2.2966208084,2.296588,0,0,0,0,0,259.6, 0.3, 0.1,0,0,1024,1024,1024,1024,0,0,0,0,259.5,0,0,89,4.159,4.147,0,0,0,0,4.15,84.74,0.6562008084,0.656168,38,Tripod,
17100,2022-08-15 23:32:24,0,0,0.656168,,,0.6562008084,1.64042,0,0,0,0,0,8.304,2.2966208084,2.296588,0,0,0,0,0,259.6, 0.1, -0.2,0,0,1024,1024,1024,1024,0,0,0,0,259.5,0,0,89,4.159,4.147,0,0,0,0,4.15,84.74,0.6562008084,0.656168,38,Tripod,
17200,2022-08-15 23:32:24,0,0,0.656168,,,0.6562008084,1.64042,0,0,0,0,0,8.304,2.2966208084,2.296588,0,0,0,0,0,259.6, 0, -0.5,0,0,1024,1024,1024,1024,0,0,0,0,259.5,0,0,89,4.159,4.147,0,0,0,0,4.15,84.74,0.6562008084,0.656168,38,Tripod,
17300,2022-08-15 23:32:25,0,0,0.656168,,,0.6562008084,1.64042,0,0,0,0,0,8.304,2.2966208084,2.296588,0,0,0,0,0,259.6, 0.1, -0.3,0,0,1024,1024,1024,1024,0,0,0,0,259.5,0,0,89,4.159,4.147,0,0,0,0,4.15,84.74,0.6562008084,0.656168,38,Tripod,
17400,2022-08-15 23:32:25,0,0,0.656168,,,0.6562008084,1.64042,0,0,0,0,0,8.297,2.2966208084,2.296588,0,0,0,0,0,259.6, 0, -0.3,0,0,1024,1024,1024,1024,0,0,0,0,259.5,0,0,89,4.154,4.142,0,0,0,0,4.168,84.92,0.6562008084,0.656168,38,Tripod,
17500,2022-08-15 23:32:25,0,0,0.656168,,,0.6562008084,1.64042,0,0,0,0,0,8.297,2.2966208084,2.296588,0,0,0,0,0,259.5, 0, 0,0,0,1024,1024,1024,1024,0,0,0,0,259.5,0,0,89,4.154,4.142,0,0,0,0,4.168,84.92,0.6562008084,0.656168,38,Tripod,
17600,2022-08-15 23:32:25,0,0,0.656168,,,0.6562008084,1.64042,0,0,0,0,0,8.297,2.2966208084,2.296588,0,0,0,0,0,259.5, 0.2, 0.2,0,0,1024,1024,1024,1024,0,0,0,0,259.5,0,0,89,4.154,4.142,0,0,0,0,4.168,84.92,0.6562008084,0.656168,38,Tripod,
17700,2022-08-15 23:32:25,0,0,0.656168,,,0.6562008084,1.64042,0,0,0,0,0,8.297,2.2966208084,2.296588,0,0,0,0,0,259.5, 0.3, 0.3,0,0,1024,1024,1024,1024,0,0,0,0,259.5,0,0,89,4.154,4.142,0,0,0,0,4.168,84.92,0.6562008084,0.656168,38,Tripod,
17800,2022-08-15 23:32:25,0,0,0.656168,,,0.6562008084,1.64042,0,0,0,0,0,8.297,2.2966208084,2.296588,0,0,0,0,0,259.4, 0.2, 0,0,0,1024,1024,1024,1024,0,0,0,0,259.5,0,0,89,4.154,4.142,0,0,0,0,4.168,84.92,0.6562008084,0.656168,38,Tripod,
17900,2022-08-15 23:32:25,0,0,0.984252,,,0.9842848084,1.64042,0,0,0,0,0,8.297,2.2966208084,2.296588,0,0,0,0,0,259.4, 0.1, -0.2,0,0,1024,1024,1024,1024,0,0,0,0,259.5,0,0,89,4.154,4.142,0,0,0,0,4.168,84.92,0.9842848084,0.984252,38,Tripod,
18000,2022-08-15 23:32:25,0,0,0.984252,,,0.9842848084,1.64042,0,0,0,0,0,8.297,2.2966208084,2.296588,0,0,0,0,0,259.4, 0.2, -0.2,0,0,1024,1024,1024,1024,0,0,0,0,259.5,0,0,89,4.154,4.142,0,0,0,0,4.168,84.92,0.9842848084,0.984252,38,Tripod,
18100,2022-08-15 23:32:25,0,0,0.984252,,,0.9842848084,1.64042,0,0,0,0,0,8.297,2.2966208084,2.296588,0,0,0,0,0,259.4, 0.2, 0.1,0,0,1024,1024,1024,1024,0,0,0,0,259.5,0,0,89,4.154,4.142,0,0,0,0,4.168,84.92,0.9842848084,0.984252,38,Tripod,
18200,2022-08-15 23:32:25,0,0,0.984252,,,0.9842848084,1.64042,0,0,0,0,0,8.297,2.2966208084,2.296588,0,0,0,0,0,259.5, 0.2, 0.4,0,0,1024,1024,1024,1024,0,0,0,0,259.5,0,0,89,4.154,4.142,0,0,0,0,4.168,84.92,0.9842848084,0.984252,38,Tripod,
18300,2022-08-15 23:32:26,0,0,0.984252,,,0.9842848084,1.64042,0,0,0,0,0,8.297,2.2966208084,2.296588,0,0,0,0,0,259.4, 0.4, 0.6,0,0,1024,1024,1024,1024,0,0,0,0,259.5,0,0,89,4.154,4.142,0,0,0,0,4.168,84.92,0.9842848084,0.984252,38,Tripod,
18400,2022-08-15 23:32:26,0,0,0.984252,,,0.9842848084,1.64042,0,0,0,0,0,8.296,2.2966208084,2.296588,0,0,0,0,0,259.5, 0.6, 0.5,0,0,1024,1024,1024,1024,0,0,0,0,259.5,0,0,89,4.155,4.143,0,0,0,0,4.162,84.92,0.9842848084,0.984252,38,Tripod,
18500,2022-08-15 23:32:26,0,0,0.984252,,,0.9842848084,1.64042,0,0,0,0,0,8.296,2.2966208084,2.296588,0,0,0,0,0,259.4, 0.3, 0.4,0,0,1024,1024,1024,1024,0,0,0,0,259.5,0,0,89,4.155,4.143,0,0,0,0,4.162,84.92,0.9842848084,0.984252,38,Tripod,
18600,2022-08-15 23:32:26,0,0,0.984252,,,0.9842848084,1.64042,0,0,0,0,0,8.296,2.2966208084,2.296588,0,0,0,0,0,259.4, 0.2, 0.3,0,0,1024,1024,1024,1024,0,0,0,0,259.5,0,0,89,4.155,4.143,0,0,0,0,4.162,84.92,0.9842848084,0.984252,38,Tripod,
18700,2022-08-15 23:32:26,0,0,0.984252,,,0.9842848084,1.64042,0,0,0,0,0,8.296,2.2966208084,2.296588,0,0,0,0,0,259.5, 0.4, 0.3,0,0,1024,1024,1024,1024,0,0,0,0,259.5,0,0,89,4.155,4.143,0,0,0,0,4.162,84.92,0.9842848084,0.984252,38,Tripod,
18800,2022-08-15 23:32:26,0,0,0.656168,,,0.6562008084,1.64042,0,0,0,0,0,8.296,2.2966208084,2.296588,0,0,0,0,0,259.5, 0.4, 0.3,0,0,1024,1024,1024,1024,0,0,0,0,259.5,0,0,89,4.155,4.143,0,0,0,0,4.162,84.92,0.6562008084,0.656168,38,Tripod,
18900,2022-08-15 23:32:26,0,0,0.656168,,,0.6562008084,1.64042,0,0,0,0,0,8.296,2.2966208084,2.296588,0,0,0,0,0,259.4, 0.4, 0.1,0,0,1024,1024,1024,1024,0,0,0,0,259.5,0,0,89,4.155,4.143,0,0,0,0,4.162,84.92,0.6562008084,0.656168,38,Tripod,
19000,2022-08-15 23:32:26,0,0,0.656168,,,0.6562008084,1.64042,0,0,0,0,0,8.296,2.2966208084,2.296588,0,0,0,0,0,259.5, 0.5, 0.1,0,0,1024,1024,1024,1024,0,0,0,0,259.5,0,0,89,4.155,4.143,0,0,0,0,4.162,84.92,0.6562008084,0.656168,38,Tripod,
19100,2022-08-15 23:32:26,0,0,0.656168,,,0.6562008084,1.64042,0,0,0,0,0,8.296,2.2966208084,2.296588,0,0,0,0,0,259.5, 0.5, 0.3,0,0,1024,1024,1024,1024,0,0,0,0,259.5,0,0,89,4.155,4.143,0,0,0,0,4.162,84.92,0.6562008084,0.656168,38,Tripod,
19200,2022-08-15 23:32:26,0,0,0.656168,,,0.6562008084,1.64042,0,0,0,0,0,8.296,2.2966208084,2.296588,0,0,0,0,0,259.5, 0.5, 0.3,0,0,1024,1024,1024,1024,0,0,0,0,259.5,0,0,89,4.155,4.143,0,0,0,0,4.162,84.92,0.6562008084,0.656168,38,Tripod,
19300,2022-08-15 23:32:27,0,0,0.656168,,,0.6562008084,1.64042,0,0,0,0,0,8.296,2.2966208084,2.296588,0,0,0,0,0,259.4, 0.4, 0.1,0,0,1024,1024,1024,1024,0,0,0,0,259.5,0,0,89,4.155,4.143,0,0,0,0,4.162,84.92,0.6562008084,0.656168,38,Tripod,
19400,2022-08-15 23:32:27,0,0,0.656168,,,0.6562008084,1.64042,0,0,0,0,0,8.292,2.2966208084,2.296588,0,0,0,0,0,259.5, 0.2, -0.2,0,0,1024,1024,1024,1024,0,0,0,0,259.5,0,0,89,4.152,4.141,0,0,0,0,4.181,84.92,0.6562008084,0.656168,38,Tripod,
19500,2022-08-15 23:32:27,0,0,0.656168,,,0.6562008084,1.64042,0,0,0,0,0,8.292,2.2966208084,2.296588,0,0,0,0,0,259.5, 0.2, -0.5,0,0,1024,1024,1024,1024,0,0,0,0,259.5,0,0,89,4.152,4.141,0,0,0,0,4.181,84.92,0.6562008084,0.656168,38,Tripod,
19600,2022-08-15 23:32:27,0,0,0.656168,,,0.6562008084,1.64042,0,0,0,0,0,8.292,2.2966208084,2.296588,0,0,0,0,0,259.5, 0.2, -0.5,0,0,1024,1024,1024,1024,0,0,0,0,259.5,0,0,89,4.152,4.141,0,0,0,0,4.181,84.92,0.6562008084,0.656168,38,Tripod,
19700,2022-08-15 23:32:27,0,0,0.656168,,,0.6562008084,1.64042,0,0,0,0,0,8.292,2.2966208084,2.296588,0,0,0,0,0,259.5, 0.2, 0,0,0,1024,1024,1024,1024,0,0,0,0,259.5,0,0,89,4.152,4.141,0,0,0,0,4.181,84.92,0.6562008084,0.656168,38,Tripod,
19800,2022-08-15 23:32:27,0,0,0.656168,,,0.6562008084,1.64042,0,0,0,0,0,8.292,2.2966208084,2.296588,0,0,0,0,0,259.4, 0.3, 0,0,0,1024,1024,1024,1024,0,0,0,0,259.5,0,0,89,4.152,4.141,0,0,0,0,4.181,84.92,0.6562008084,0.656168,38,Tripod,
19900,2022-08-15 23:32:27,0,0,0.656168,,,0.6562008084,1.64042,0,0,0,0,0,8.292,2.2966208084,2.296588,0,0,0,0,0,259.4, 0.2, 0,0,0,1024,1024,1024,1024,0,0,0,0,259.5,0,0,89,4.152,4.141,0,0,0,0,4.181,84.92,0.6562008084,0.656168,38,Tripod,
20000,2022-08-15 23:32:27,0,0,0.656168,,,0.6562008084,1.64042,0,0,0,0,0,8.292,2.2966208084,2.296588,0,0,0,0,0,259.4, 0, -0.1,0,0,1024,1024,1024,1024,0,0,0,0,259.5,0,0,89,4.152,4.141,0,0,0,0,4.181,84.92,0.6562008084,0.656168,38,Tripod,
20100,2022-08-15 23:32:27,0,0,0.656168,,,0.6562008084,1.64042,0,0,0,0,0,8.292,2.2966208084,2.296588,0,0,0,0,0,259.5, 0.2, 0.1,0,0,1024,1024,1024,1024,0,0,0,0,259.5,0,0,89,4.152,4.141,0,0,0,0,4.181,84.92,0.6562008084,0.656168,38,Tripod,
20200,2022-08-15 23:32:28,0,0,0.656168,,,0.6562008084,1.64042,0,0,0,0,0,8.292,2.2966208084,2.296588,0,0,0,0,0,259.5, 0.1, 0,0,0,1024,1024,1024,1024,0,0,0,0,259.5,0,0,89,4.152,4.141,0,0,0,0,4.181,84.92,0.6562008084,0.656168,38,Tripod,
20300,2022-08-15 23:32:28,0,0,0.656168,,,0.6562008084,1.64042,0,0,0,0,0,8.292,2.2966208084,2.296588,0,0,0,0,0,259.5, 0.1, -0.1,0,0,1024,1024,1024,1024,0,0,0,0,259.5,0,0,89,4.152,4.141,0,0,0,0,4.181,84.92,0.6562008084,0.656168,38,Tripod,
20400,2022-08-15 23:32:28,0,0,0.656168,,,0.6562008084,1.64042,0,0,0,0,0,8.289,2.2966208084,2.296588,0,0,0,0,0,259.5, 0.1, 0,0,0,1024,1024,1024,1024,0,0,0,0,259.5,0,0,89,4.152,4.139,0,0,0,0,4.173,84.92,0.6562008084,0.656168,38,Tripod,
20500,2022-08-15 23:32:28,0,0,0.656168,,,0.6562008084,1.64042,0,0,0,0,0,8.289,2.2966208084,2.296588,0,0,0,0,0,259.6, 0.3, 0,0,0,1024,1024,1024,1024,0,0,0,0,259.5,0,0,89,4.152,4.139,0,0,0,0,4.173,84.92,0.6562008084,0.656168,38,Tripod,
20600,2022-08-15 23:32:28,0,0,0.656168,,,0.6562008084,1.64042,0,0,0,0,0,8.289,2.2966208084,2.296588,0,0,0,0,0,259.6, 0, -0.3,0,0,1024,1024,1024,1024,0,0,0,0,259.5,0,0,89,4.152,4.139,0,0,0,0,4.173,84.92,0.6562008084,0.656168,38,Tripod,
20700,2022-08-15 23:32:28,0,0,0.656168,,,0.6562008084,1.64042,0,0,0,0,0,8.289,2.2966208084,2.296588,0,0,0,0,0,259.5, 0, -0.3,0,0,1024,1024,1024,1024,0,0,0,0,259.5,0,0,89,4.152,4.139,0,0,0,0,4.173,84.92,0.6562008084,0.656168,38,Tripod,
20800,2022-08-15 23:32:28,0,0,0.656168,,,0.6562008084,1.64042,0,0,0,0,0,8.289,2.2966208084,2.296588,0,0,0,0,0,259.5, 0, -0.1,0,0,1024,1024,1024,1024,0,0,0,0,259.5,0,0,89,4.152,4.139,0,0,0,0,4.173,84.92,0.6562008084,0.656168,38,Tripod,
20900,2022-08-15 23:32:28,0,0,0.656168,,,0.6562008084,1.64042,0,0,0,0,0,8.289,2.2966208084,2.296588,0,0,0,0,0,259.6, 0, 0,0,0,1024,1024,1024,1024,0,0,0,0,259.5,0,0,89,4.152,4.139,0,0,0,0,4.173,84.92,0.6562008084,0.656168,38,Tripod,
21000,2022-08-15 23:32:28,0,0,0.656168,,,0.6562008084,1.64042,0,0,0,0,0,8.289,2.2966208084,2.296588,0,0,0,0,0,259.6, 0, 0,0,0,1024,1024,1024,1024,0,0,0,0,259.5,0,0,89,4.152,4.139,0,0,0,0,4.173,84.92,0.6562008084,0.656168,38,Tripod,
21100,2022-08-15 23:32:28,0,0,0.656168,,,0.6562008084,1.64042,0,0,0,0,0,8.289,2.2966208084,2.296588,0,0,0,0,0,259.6, 0.1, 0,0,0,1024,1024,1024,1024,0,0,0,0,259.5,0,0,89,4.152,4.139,0,0,0,0,4.173,84.92,0.6562008084,0.656168,38,Tripod,
21200,2022-08-15 23:32:29,0,0,0.656168,,,0.6562008084,1.64042,0,0,0,0,0,8.289,2.2966208084,2.296588,0,0,0,0,0,259.6, 0.1, -0.5,0,0,1024,1024,1024,1024,0,0,0,0,259.5,0,0,89,4.152,4.139,0,0,0,0,4.173,84.92,0.6562008084,0.656168,38,Tripod,
21300,2022-08-15 23:32:29,0,0,0.656168,,,0.6562008084,1.64042,0,0,0,0,0,8.289,2.2966208084,2.296588,0,0,0,0,0,259.6, 0.1, -0.5,0,0,1024,1024,1024,1024,0,0,0,0,259.5,0,0,89,4.152,4.139,0,0,0,0,4.173,84.92,0.6562008084,0.656168,38,Tripod,
21400,2022-08-15 23:32:29,0,0,0.656168,,,0.6562008084,1.64042,0,0,0,0,0,8.289,2.2966208084,2.296588,0,0,0,0,0,259.6, 0.3, -0.3,0,0,1024,1024,1024,1024,0,0,0,0,259.5,0,0,89,4.152,4.139,0,0,0,0,4.173,84.92,0.6562008084,0.656168,38,Tripod,
21500,2022-08-15 23:32:29,0,0,0.656168,,,0.6562008084,1.64042,0,0,0,0,0,8.288,2.2966208084,2.296588,0,0,0,0,0,259.6, 0.4, -0.1,0,0,1024,1024,1024,1024,0,0,0,0,259.5,0,0,89,4.149,4.135,0,0,0,0,4.145,85.1,0.6562008084,0.656168,38,Tripod,
21600,2022-08-15 23:32:29,0,0,0.656168,,,0.6562008084,1.64042,0,0,0,0,0,8.288,2.2966208084,2.296588,0,0,0,0,0,259.5, 0.4, -0.2,0,0,1024,1024,1024,1024,0,0,0,0,259.5,0,0,89,4.149,4.135,0,0,0,0,4.145,85.1,0.6562008084,0.656168,38,Tripod,
21700,2022-08-15 23:32:29,0,0,0.656168,,,0.6562008084,1.64042,0,0,0,0,0,8.288,2.2966208084,2.296588,0,0,0,0,0,259.6, 0.3, 0,0,0,1024,1024,1024,1024,0,0,0,0,259.5,0,0,89,4.149,4.135,0,0,0,0,4.145,85.1,0.6562008084,0.656168,38,Tripod,
21800,2022-08-15 23:32:29,0,0,0.656168,,,0.6562008084,1.64042,0,0,0,0,0,8.288,2.2966208084,2.296588,0,0,0,0,0,259.5, 0.3, 0.4,0,0,1024,1024,1024,1024,0,0,0,0,259.5,0,0,89,4.149,4.135,0,0,0,0,4.145,85.1,0.6562008084,0.656168,38,Tripod,
21900,2022-08-15 23:32:29,0,0,0.656168,,,0.6562008084,1.64042,0,0,0,0,0,8.288,2.2966208084,2.296588,0,0,0,0,0,259.6, 0.2, 0.5,0,0,1024,1024,1024,1024,0,0,0,0,259.5,0,0,89,4.149,4.135,0,0,0,0,4.145,85.1,0.6562008084,0.656168,38,Tripod,
22000,2022-08-15 23:32:29,0,0,0.656168,,,0.6562008084,1.64042,0,0,0,0,0,8.288,2.2966208084,2.296588,0,0,0,0,0,259.6, 0.1, 0.2,0,0,1024,1024,1024,1024,0,0,0,0,259.5,0,0,89,4.149,4.135,0,0,0,0,4.145,85.1,0.6562008084,0.656168,38,Tripod,
22100,2022-08-15 23:32:29,0,0,0.656168,,,0.6562008084,1.64042,0,0,0,0,0,8.288,2.2966208084,2.296588,0,0,0,0,0,259.5, 0.1, 0.1,0,0,1024,1024,1024,1024,0,0,0,0,259.5,0,0,89,4.149,4.135,0,0,0,0,4.145,85.1,0.6562008084,0.656168,38,Tripod,
22200,2022-08-15 23:32:30,0,0,0.656168,,,0.6562008084,1.64042,0,0,0,0,0,8.288,2.2966208084,2.296588,0,0,0,0,0,259.6, 0.2, 0,0,0,1024,1024,1024,1024,0,0,0,0,259.5,0,0,89,4.149,4.135,0,0,0,0,4.145,85.1,0.6562008084,0.656168,38,Tripod,
22300,2022-08-15 23:32:30,0,0,0.656168,,,0.6562008084,1.64042,0,0,0,0,0,8.288,2.2966208084,2.296588,0,0,0,0,0,259.6, 0.3, 0.1,0,0,1024,1024,1024,1024,0,0,0,0,259.5,0,0,89,4.149,4.135,0,0,0,0,4.145,85.1,0.6562008084,0.656168,38,Tripod,
22400,2022-08-15 23:32:30,0,0,0.656168,,,0.6562008084,1.64042,0,0,0,0,0,8.288,2.2966208084,2.296588,0,0,0,0,0,259.6, 0.3, 0.2,0,0,1024,1024,1024,1024,0,0,0,0,259.5,0,0,89,4.149,4.135,0,0,0,0,4.145,85.1,0.6562008084,0.656168,38,Tripod,
22500,2022-08-15 23:32:30,0,0,0.656168,,,0.6562008084,1.64042,0,0,0,0,0,8.285,2.2966208084,2.296588,0,0,0,0,0,259.6, 0.2, 0.1,0,0,1024,1024,1024,1024,0,0,0,0,259.5,0,0,89,4.148,4.134,0,0,0,0,4.182,85.1,0.6562008084,0.656168,38,Tripod,
22600,2022-08-15 23:32:30,0,0,0.656168,,,0.6562008084,1.64042,0,0,0,0,0,8.285,2.2966208084,2.296588,0,0,0,0,0,259.6, 0.3, 0,0,0,1024,1024,1024,1024,0,0,0,0,259.5,0,0,89,4.148,4.134,0,0,0,0,4.182,85.1,0.6562008084,0.656168,38,Tripod,
22700,2022-08-15 23:32:30,0,0,0.656168,,,0.6562008084,1.64042,0,0,0,0,0,8.285,2.2966208084,2.296588,0,0,0,0,0,259.6, 0.3, 0.1,0,0,1024,1024,1024,1024,0,0,0,0,259.5,0,0,89,4.148,4.134,0,0,0,0,4.182,85.1,0.6562008084,0.656168,38,Tripod,
22800,2022-08-15 23:32:30,0,0,0.656168,,,0.6562008084,1.64042,0,0,0,0,0,8.285,2.2966208084,2.296588,0,0,0,0,0,259.5, 0.2, 0,0,0,1024,1024,1024,1024,0,0,0,0,259.5,0,0,89,4.148,4.134,0,0,0,0,4.182,85.1,0.6562008084,0.656168,38,Tripod,
22900,2022-08-15 23:32:30,0,0,0.656168,,,0.6562008084,1.64042,0,0,0,0,0,8.285,2.2966208084,2.296588,0,0,0,0,0,259.6, 0.2, 0,0,0,1024,1024,1024,1024,0,0,0,0,259.5,0,0,89,4.148,4.134,0,0,0,0,4.182,85.1,0.6562008084,0.656168,38,Tripod,
23000,2022-08-15 23:32:30,0,0,0.984252,,,0.9842848084,1.64042,0,0,0,0,0,8.285,2.2966208084,2.296588,0,0,0,0,0,259.5, 0.1, 0,0,0,1024,1024,1024,1024,0,0,0,0,259.5,0,0,89,4.148,4.134,0,0,0,0,4.182,85.1,0.9842848084,0.984252,38,Tripod,
23100,2022-08-15 23:32:30,0,0,0.984252,,,0.9842848084,1.64042,0,0,0,0,0,8.285,2.2966208084,2.296588,0,0,0,0,0,259.5, 0, 0,0,0,1024,1024,1024,1024,0,0,0,0,259.5,0,0,89,4.148,4.134,0,0,0,0,4.182,85.1,0.9842848084,0.984252,38,Tripod,
23200,2022-08-15 23:32:30,0,0,0.984252,,,0.9842848084,1.64042,0,0,0,0,0,8.285,2.2966208084,2.296588,0,0,0,0,0,259.4, 0, 0,0,0,1024,1024,1024,1024,0,0,0,0,259.5,0,0,89,4.148,4.134,0,0,0,0,4.182,85.1,0.9842848084,0.984252,38,Tripod,
23300,2022-08-15 23:32:31,0,0,0.984252,,,0.9842848084,1.64042,0,0,0,0,0,8.285,2.2966208084,2.296588,0,0,0,0,0,259.4, 0.2, -0.3,0,0,1024,1024,1024,1024,0,0,0,0,259.5,0,0,89,4.148,4.134,0,0,0,0,4.182,85.1,0.9842848084,0.984252,38,Tripod,
23400,2022-08-15 23:32:31,0,0,0.984252,,,0.9842848084,1.64042,0,0,0,0,0,8.285,2.2966208084,2.296588,0,0,0,0,0,259.4, 0.3, -0.3,0,0,1024,1024,1024,1024,0,0,0,0,259.5,0,0,89,4.148,4.134,0,0,0,0,4.182,85.1,0.9842848084,0.984252,38,Tripod,
23500,2022-08-15 23:32:31,0,0,0.984252,,,0.9842848084,1.64042,0,0,0,0,0,8.282,2.2966208084,2.296588,0,0,0,0,0,259.5, 0.2, -0.4,0,0,1024,1024,1024,1024,0,0,0,0,259.5,0,0,89,4.146,4.133,0,0,0,0,4.159,85.1,0.9842848084,0.984252,38,Tripod,
23600,2022-08-15 23:32:31,0,0,0.984252,,,0.9842848084,1.64042,0,0,0,0,0,8.282,2.2966208084,2.296588,0,0,0,0,0,259.5, 0.2, -0.6,0,0,1024,1024,1024,1024,0,0,0,0,259.5,0,0,89,4.146,4.133,0,0,0,0,4.159,85.1,0.9842848084,0.984252,38,Tripod,
23700,2022-08-15 23:32:31,0,0,0.984252,,,0.9842848084,1.64042,0,0,0,0,0,8.282,2.2966208084,2.296588,0,0,0,0,0,259.6, 0.3, -0.4,0,0,1024,1024,1024,1024,0,0,0,0,259.5,0,0,89,4.146,4.133,0,0,0,0,4.159,85.1,0.9842848084,0.984252,38,Tripod,
23800,2022-08-15 23:32:31,0,0,0.984252,,,0.9842848084,1.64042,0,0,0,0,0,8.282,2.2966208084,2.296588,0,0,0,0,0,259.6, 0.3, 0,0,0,1024,1024,1024,1024,0,0,0,0,259.5,0,0,89,4.146,4.133,0,0,0,0,4.159,85.1,0.9842848084,0.984252,38,Tripod,
23900,2022-08-15 23:32:31,0,0,0.984252,,,0.9842848084,1.64042,0,0,0,0,0,8.282,2.2966208084,2.296588,0,0,0,0,0,259.6, 0.5, 0.3,0,0,1024,1024,1024,1024,0,0,0,0,259.5,0,0,89,4.146,4.133,0,0,0,0,4.159,85.1,0.9842848084,0.984252,38,Tripod,
24000,2022-08-15 23:32:31,0,0,0.984252,,,0.9842848084,1.64042,0,0,0,0,0,8.282,2.2966208084,2.296588,0,0,0,0,0,259.5, 0.3, 0.3,0,0,1024,1024,1024,1024,0,0,0,0,259.5,0,0,89,4.146,4.133,0,0,0,0,4.159,85.1,0.9842848084,0.984252,38,Tripod,
24100,2022-08-15 23:32:31,0,0,0.984252,,,0.9842848084,1.64042,0,0,0,0,0,8.282,2.2966208084,2.296588,0,0,0,0,0,259.5, 0.3, 0.1,0,0,1024,1024,1024,1024,0,0,0,0,259.5,0,0,89,4.146,4.133,0,0,0,0,4.159,85.1,0.9842848084,0.984252,38,Tripod,
24200,2022-08-15 23:32:31,0,0,0.984252,,,0.9842848084,1.64042,0,0,0,0,0,8.282,2.2966208084,2.296588,0,0,0,0,0,259.5, 0.3, 0,0,0,1024,1024,1024,1024,0,0,0,0,259.5,0,0,89,4.146,4.133,0,0,0,0,4.159,85.1,0.9842848084,0.984252,38,Tripod,
24300,2022-08-15 23:32:32,0,0,0.984252,,,0.9842848084,1.64042,0,0,0,0,0,8.282,2.2966208084,2.296588,0,0,0,0,0,259.5, 0.2, -0.1,0,0,1024,1024,1024,1024,0,0,0,0,259.5,0,0,89,4.146,4.133,0,0,0,0,4.159,85.1,0.9842848084,0.984252,38,Tripod,
24400,2022-08-15 23:32:32,0,0,0.984252,,,0.9842848084,1.64042,0,0,0,0,0,8.282,2.2966208084,2.296588,0,0,0,0,0,259.6, 0.3, 0,0,0,1024,1024,1024,1024,0,0,0,0,259.5,0,0,89,4.146,4.133,0,0,0,0,4.159,85.1,0.9842848084,0.984252,38,Tripod,
24500,2022-08-15 23:32:32,0,0,1.312336,,,1.3123688084,1.64042,0,0,0,0,0,8.279,2.2966208084,2.296588,0,0,0,0,0,259.6, 0.1, 0.4,0,0,1024,1024,1024,1024,0,0,0,0,259.5,0,0,89,4.145,4.133,0,0,0,0,4.183,85.1,1.3123688084,1.312336,38,Tripod,
24600,2022-08-15 23:32:32,0,0,1.312336,,,1.3123688084,1.64042,0,0,0,0,0,8.279,2.2966208084,2.296588,0,0,0,0,0,259.5, 0.1, 0.3,0,0,1024,1024,1024,1024,0,0,0,0,259.5,0,0,89,4.145,4.133,0,0,0,0,4.183,85.1,1.3123688084,1.312336,38,Tripod,
24700,2022-08-15 23:32:32,0,0,1.312336,,,1.3123688084,1.64042,0,0,0,0,0,8.279,2.2966208084,2.296588,0,0,0,0,0,259.5, 0.1, 0,0,0,1024,1024,1024,1024,0,0,0,0,259.5,0,0,89,4.145,4.133,0,0,0,0,4.183,85.1,1.3123688084,1.312336,38,Tripod,
24800,2022-08-15 23:32:32,0,0,1.312336,,,1.3123688084,1.64042,0,0,0,0,0,8.279,2.2966208084,2.296588,0,0,0,0,0,259.5, 0.2, 0,0,0,1024,1024,1024,1024,0,0,0,0,259.5,0,0,89,4.145,4.133,0,0,0,0,4.183,85.1,1.3123688084,1.312336,38,Tripod,
24900,2022-08-15 23:32:32,0,0,1.312336,,,1.3123688084,1.64042,0,0,0,0,0,8.279,2.2966208084,2.296588,0,0,0,0,0,259.5, 0.2, 0,0,0,1024,1024,1024,1024,0,0,0,0,259.5,0,0,89,4.145,4.133,0,0,0,0,4.183,85.1,1.3123688084,1.312336,38,Tripod,
