time(millisecond),datetime(utc),latitude,longitude,height_above_takeoff(feet),height_above_ground_at_drone_location(feet),ground_elevation_at_drone_location(feet),altitude_above_seaLevel(feet),height_sonar(feet),speed(mph),distance(feet),mileage(feet),satellites,gpslevel,voltage(v),max_altitude(feet),max_ascent(feet),max_speed(mph),max_distance(feet), xSpeed(mph), ySpeed(mph), zSpeed(mph), compass_heading(degrees), pitch(degrees), roll(degrees),isPhoto,isVideo,rc_elevator,rc_aileron,rc_throttle,rc_rudder,rc_elevator(percent),rc_aileron(percent),rc_throttle(percent),rc_rudder(percent),gimbal_heading(degrees),gimbal_pitch(degrees),gimbal_roll(degrees),battery_percent,voltageCell1,voltageCell2,voltageCell3,voltageCell4,voltageCell5,voltageCell6,current(A),battery_temperature(f),altitude(feet),ascent(feet),flycStateRaw,flycState,message
0,2022-08-13 20:09:29,-34.9272889697942,-56.1654534446458,0,0,5.223429629092,5.223429629092,0.328084,0,0,0,20,5,0,5.223429629092,0,0,0,0,0,0,259.7, -9.1, -9.4,0,0,364,364,364,1684,-100,-100,-100,100,269.1,0,0,99,4.263,4.299,0,0,0,0,0,73.22,5.223429629092,0,41,Motors_Started,"Aeronave en Zona de altitud restringida (150). Vuela con precaución (Code: 190001)"
100,2022-08-13 20:09:29,-34.9272888822458,-56.1654533879857,0,0,5.223429629092,5.223429629092,0.328084,0,0.036160106144,0.036160106144,20,5,0,5.223429629092,0,0,0.036160106144,0,0,0,258.3, -9.5, -8.6,0,0,364,364,364,1684,-100,-100,-100,100,268.4,0,0,99,4.263,4.299,0,0,0,0,0,73.22,5.223429629092,0,41,Motors_Started,
200,2022-08-13 20:09:29,-34.9272888210391,-56.1654533619701,0,0,5.223429629092,5.223429629092,0.328084,0,0.05964239036,0.059808400864,20,5,0,5.223429629092,0,0,0.05964239036,0,0,0,259, -8.9, -9.7,0,0,364,364,364,1684,-100,-100,-100,100,267.7,0,0,99,4.263,4.299,0,0,0,0,0,73.22,5.223429629092,0,41,Motors_Started,"Setting new Return-To-Home altitude to 40m (131 ft). Data Recorder File Index is 44. Setting new Maximum Flight Altitude to 120m (394 ft)"
300,2022-08-13 20:09:29,-34.9272887518889,-56.165453336477,0,0,5.223429629092,5.223429629092,0.328084,0,0.0858349765,0.086165357088,20,5,0,5.223429629092,0,0,0.0858349765,0,0,0,258.3, -9.3, -9.1,0,0,364,364,364,1684,-100,-100,-100,100,267.6,0,0,99,4.263,4.299,0,0,0,0,0,73.22,5.223429629092,0,41,Motors_Started,
400,2022-08-13 20:09:29,-34.9272889269987,-56.165453310814,0,0,5.223429629092,5.223429629092,0.328084,0,0.042970473816,0.15051345626,20,5,0,5.223429629092,0,0,0.0858349765,0,0,0,258.4, -9, -9.1,0,0,1024,1024,503,1191,0,0,-79,25,267.3,0,0,99,4.263,4.299,0,0,0,0,0,73.22,5.223429629092,0,41,Motors_Started,
500,2022-08-13 20:09:29,-34.9272888702572,-56.1654533318715,0,0,5.223429629092,5.223429629092,0.328084,0,0.04956693072,0.172152564564,20,5,0,5.223429629092,0,0,0.0858349765,0,0,0,258.3, -9.2, -8.9,0,0,1024,1024,1024,1024,0,0,0,0,267.3,0,0,99,4.263,4.299,0,0,0,0,0,73.22,5.223429629092,0,41,Motors_Started,"En vuelo"
600,2022-08-13 20:09:30,-34.9272888210326,-56.1654532996361,0,0,5.223429629092,5.223429629092,0.328084,0,0.069479661016,0.192537079652,20,5,0,5.223429629092,0,0,0.0858349765,0,0,0,258.4, -9.3, -9.3,0,0,1024,1024,1024,1024,0,0,0,0,267.3,0,0,99,4.263,4.299,0,0,0,0,0,73.22,5.223429629092,0,41,Motors_Started,
700,2022-08-13 20:09:30,-34.9272887710654,-56.1654532530986,0,0,5.223429629092,5.223429629092,0.328084,0,0.0924130607,0.215475072512,20,5,0,5.223429629092,0,0,0.0924130607,0,0,0,257.8, -9.4, -9,0,0,1024,1024,1024,1024,0,0,0,0,267.1,0,0,99,4.263,4.299,0,0,0,0,0,73.22,5.223429629092,0,41,Motors_Started,
800,2022-08-13 20:09:30,-34.9272886617675,-56.1654531842914,0,0,5.223429629092,5.223429629092,0.328084,0,0.136730975504,0.260350730116,20,5,0,5.223429629092,0,0,0.136730975504,0,0,0,257.5, -9, -8.9,0,0,1024,1024,1024,1024,0,0,0,0,266.8,0,0,99,4.263,4.299,0,0,0,0,0,73.22,5.223429629092,0,41,Motors_Started,
900,2022-08-13 20:09:30,-34.9272885656112,-56.1654529792231,0,0,5.223429629092,5.223429629092,0.328084,0.223694,0.20280348418,0.33101707096,20,5,0,5.223429629092,0,0.223694,0.20280348418,0,0.223694,0,257.6, -7.9, -10.2,0,0,1024,1024,1024,1024,0,0,0,0,266.6,0,0,99,4.263,4.299,0,0,0,0,0,73.22,5.223429629092,0,41,Motors_Started,
1000,2022-08-13 20:09:30,-34.9272884086455,-56.1654528410863,-0.328084,-0.328084,5.223429629092,4.895345629092,0.328084,0.223694,0.272969825008,0.40163715196,20,5,0,5.223429629092,0,0.223694,0.272969825008,0,0.223694,0.223694,255.9, -8.6, -10.5,0,0,1024,1024,1024,1024,0,0,0,0,265.8,0,0,99,4.263,4.299,0,0,0,0,0,73.22,4.895345629092,-0.328084,41,Motors_Started,
1100,2022-08-13 20:09:30,-34.92728824556,-56.1654527281762,-0.328084,-0.328084,5.223429629092,4.895345629092,0.328084,0.223694,0.34022638884,0.47005578932,20,5,0,5.223429629092,0,0.223694,0.34022638884,0,0.223694,0.223694,254.1, -9.3, -10,0,0,1024,1024,1024,1024,0,0,0,0,263.9,0,0,99,4.263,4.299,0,0,0,0,0,73.22,4.895345629092,-0.328084,10,Assisted_Takeoff,
1200,2022-08-13 20:09:30,-34.9272881490357,-56.1654525827146,-0.328084,-0.328084,5.223429629092,4.895345629092,0.328084,0,0.39515749296,0.5260334814,20,5,0,5.223429629092,0,0.223694,0.39515749296,0,0,0.223694,253.5, -10.2, -12.9,0,0,1024,1024,1024,1024,0,0,0,0,262.4,0,0,99,4.263,4.299,0,0,0,0,0,73.22,4.895345629092,-0.328084,10,Assisted_Takeoff,
1300,2022-08-13 20:09:30,-34.9272880935611,-56.1654524519914,-0.328084,-0.328084,5.223429629092,4.895345629092,0.328084,0,0.4363189116,0.57006563504,20,5,0,5.223429629092,0,0.223694,0.4363189116,0,0,0.223694,252.1, -10.9, -14.6,0,0,1024,1024,1024,1024,0,0,0,0,260.7,0,0,99,4.263,4.299,0,0,0,0,0,73.22,4.895345629092,-0.328084,10,Assisted_Takeoff,
1400,2022-08-13 20:09:30,-34.9272881740583,-56.1654525691543,-0.328084,-0.328084,5.223429629092,4.895345629092,0.328084,0.8052984,0.39099082616,0.61579070212,20,5,0,5.223429629092,0,0.8052984,0.4363189116,-0.447388,-0.671082,-0.223694,251.7, -10.3, -15.6,0,0,1024,1024,1024,1024,0,0,0,0,260,0,0,99,4.263,4.299,0,0,0,0,0,73.22,4.895345629092,-0.328084,6,P-GPS,
1500,2022-08-13 20:09:31,-34.9272890071149,-56.1654534398889,0,0,5.223429629092,5.223429629092,0.656168,4.1159696,0.0136905844276,1.01606958632,20,5,0,5.223429629092,0,4.1159696,0.4363189116,-3.131716,-2.684328,-4.026492,254.7, -0.8, -19.8,0,0,1024,1024,1024,1024,0,0,0,0,260,0,0,99,4.263,4.299,0,0,0,0,0,73.22,5.223429629092,0,6,P-GPS,
1600,2022-08-13 20:09:31,-34.9272902257642,-56.1654550283861,0.656168,0.656168,5.223429629092,5.879597629092,1.312336,4.585727,0.65910763264,1.66682091948,20,5,0,5.879597629092,0.656168,4.585727,0.65910763264,-3.131716,-3.35541,-4.697574,262.4, 12.7, 0.2,0,0,1024,1024,1024,1024,0,0,0,0,260,0,0,99,4.263,4.299,0,0,0,0,0,73.22,5.879597629092,0.656168,6,P-GPS,
1700,2022-08-13 20:09:31,-34.9272916337853,-56.1654566153317,1.312336,1.3451444,5.190621229092,6.535765629092,1.64042,4.2725554,1.3580381012,2.36628288412,20,5,0,6.535765629092,1.312336,4.585727,1.3580381012,-2.908022,-3.131716,-3.35541,264.5, 14.5, 12.9,0,0,1024,1024,1024,1024,0,0,0,0,260,0,0,99,4.263,4.299,0,0,0,0,0,73.22,6.535765629092,1.312336,6,P-GPS,
1800,2022-08-13 20:09:31,-34.9272927549234,-56.1654581615598,1.64042,1.6732284,5.190621229092,6.863849629092,2.296588,3.802798,1.9743438952,2.98374025296,20,5,8.632,6.863849629092,1.64042,4.585727,1.9743438952,-2.460634,-2.908022,-2.23694,262, 15, 14.2,0,0,1024,1024,1024,1024,0,0,0,0,260,0,0,99,4.263,4.299,0,0,0,0,1.428,73.22,6.863849629092,1.64042,6,P-GPS,
1900,2022-08-13 20:09:31,-34.9272937419266,-56.1654596575201,1.968504,2.0341208,5.157812829092,7.191933629092,2.296588,3.802798,2.54664050144,3.5581365968,20,5,8.632,7.191933629092,1.968504,4.585727,2.54664050144,-2.460634,-2.908022,-1.11847,255.9, 17.8, 9.1,0,0,1024,1024,1024,1024,0,0,0,0,260,0,0,99,4.263,4.299,0,0,0,0,1.428,73.22,7.191933629092,1.968504,6,P-GPS,
2000,2022-08-13 20:09:31,-34.9272952144992,-56.1654615336177,1.968504,2.0341208,5.157812829092,7.191933629092,3.28084,3.1764548,3.3235237284,4.3350395088,20,5,8.632,7.191933629092,1.968504,4.585727,3.3235237284,-2.013246,-2.460634,0.223694,252.7, 18.5, 8,0,0,1024,1024,1024,1024,0,0,0,0,260,0,0,99,4.263,4.299,0,0,0,0,1.428,73.22,7.191933629092,1.968504,6,P-GPS,
2100,2022-08-13 20:09:31,-34.9272981845661,-56.1654643144277,1.968504,2.0669292,5.125004429092,7.191933629092,3.28084,2.5501116,4.6770998872,5.7011484764,21,5,8.632,7.191933629092,1.968504,4.585727,4.6770998872,-1.565858,-2.013246,0.894776,250.3, 19.1, 7.1,0,0,1024,1024,1024,1024,0,0,0,0,260,0,0,99,4.263,4.299,0,0,0,0,1.428,73.22,7.191933629092,1.968504,6,P-GPS,
2200,2022-08-13 20:09:31,-34.9272990094283,-56.1654656111136,1.64042,1.7716536,5.092196029092,6.863849629092,2.952756,1.9237684,5.163550034,6.1920605656,21,5,8.632,7.191933629092,1.968504,4.585727,5.163550034,-1.11847,-1.565858,1.11847,248.7, 17.9, 6.1,0,0,1024,1024,1024,1024,0,0,0,0,260,0,0,99,4.263,4.299,0,0,0,0,1.428,73.22,6.863849629092,1.64042,6,P-GPS,
2300,2022-08-13 20:09:31,-34.9272996256576,-56.1654666892062,1.64042,1.7716536,5.092196029092,6.863849629092,2.952756,1.2974252,5.5507875792,6.5852036228,21,5,8.632,7.191933629092,1.968504,4.585727,5.5507875792,-0.671082,-1.11847,1.11847,247.3, 12.6, 3.5,0,0,1024,1024,1024,1024,0,0,0,0,260,0,0,99,4.263,4.299,0,0,0,0,1.428,73.22,6.863849629092,1.64042,6,P-GPS,
2400,2022-08-13 20:09:31,-34.9272998188399,-56.1654670968207,1.64042,1.7716536,5.092196029092,6.863849629092,2.952756,0.7158208,5.6873033316,6.726050084,21,5,8.632,7.191933629092,1.968504,4.585727,5.6873033316,-0.223694,-0.671082,0.894776,246.9, 8.5, 1.2,0,0,1024,1024,1024,1024,0,0,0,0,260,0,0,99,4.263,4.299,0,0,0,0,1.428,73.22,6.863849629092,1.64042,6,P-GPS,
2500,2022-08-13 20:09:32,-34.9272999051149,-56.1654673691471,1.64042,1.7716536,5.092196029092,6.863849629092,2.624672,0.671082,5.7678151452,6.8133860448,21,5,8.632,7.191933629092,1.968504,4.585727,5.7678151452,0,-0.671082,0.447388,247, 5.9, -0.3,0,0,1024,1024,1024,1024,0,0,0,0,260,0,0,99,4.263,4.299,0,0,0,0,1.428,73.22,6.863849629092,1.64042,6,P-GPS,
2600,2022-08-13 20:09:32,-34.927299054178,-56.1654670401123,1.64042,1.7716536,5.092196029092,6.863849629092,2.624672,0.4921268,5.4841865272,7.1390750316,21,5,8.632,7.191933629092,1.968504,4.585727,5.7678151452,0.223694,-0.447388,0,247.3, 4.7, -1.4,0,0,1024,1024,1024,1024,0,0,0,0,260,0,0,99,4.263,4.299,0,0,0,0,1.428,73.22,6.863849629092,1.64042,6,P-GPS,
2700,2022-08-13 20:09:32,-34.9272989837412,-56.1654672516643,1.64042,1.7716536,5.092196029092,6.863849629092,2.952756,0.4921268,5.5142062132,7.207349312,21,5,8.632,7.191933629092,1.968504,4.585727,5.7678151452,0.223694,-0.447388,-0.223694,247.5, 3.7, -2.3,0,0,1024,1024,1024,1024,0,0,0,0,260,0,0,99,4.263,4.299,0,0,0,0,1.428,73.22,6.863849629092,1.64042,6,P-GPS,
2800,2022-08-13 20:09:32,-34.9272987221317,-56.1654672592555,1.64042,1.7716536,5.092196029092,6.863849629092,2.952756,0.4921268,5.4531825892,7.3028545644,21,5,8.589,7.191933629092,1.968504,4.585727,5.7678151452,0.223694,-0.447388,-0.223694,247.7, 3.3, -2.8,0,0,1024,1024,1024,1024,0,0,0,0,260,0,0,99,4.224,4.218,0,0,0,0,2.383,73.22,6.863849629092,1.64042,6,P-GPS,
2900,2022-08-13 20:09:32,-34.9272984292007,-56.1654672094408,1.64042,1.7388452,5.125004429092,6.863849629092,2.952756,0.3131716,5.3726051588,7.410761392,21,5,8.589,7.191933629092,1.968504,4.585727,5.7678151452,0.223694,-0.223694,-0.447388,248, 3.1, -2.6,0,0,1024,1024,1024,1024,0,0,0,0,260,0,0,99,4.224,4.218,0,0,0,0,2.383,73.22,6.863849629092,1.64042,6,P-GPS,
3000,2022-08-13 20:09:32,-34.9272973054799,-56.1654667839976,1.64042,1.7388452,5.125004429092,6.863849629092,2.952756,0.3131716,5.0170933364,7.8400264976,21,5,8.589,7.191933629092,1.968504,4.585727,5.7678151452,0.223694,-0.223694,-0.223694,248.2, 2.8, -2.6,0,0,1024,1024,1024,1024,0,0,0,0,260,0,0,99,4.224,4.218,0,0,0,0,2.383,73.22,6.863849629092,1.64042,6,P-GPS,
3100,2022-08-13 20:09:32,-34.9272970581095,-56.1654668284218,1.64042,1.7388452,5.125004429092,6.863849629092,2.952756,0.3131716,4.973589398,7.931266658,21,5,8.589,7.191933629092,1.968504,4.585727,5.7678151452,0.223694,-0.223694,-0.223694,248.4, 2.7, -2.5,0,0,1024,1024,1024,1024,0,0,0,0,260,0,0,99,4.224,4.218,0,0,0,0,2.383,73.22,6.863849629092,1.64042,6,P-GPS,
3200,2022-08-13 20:09:32,-34.9272969904509,-56.1654670055833,1.64042,1.7388452,5.125004429092,6.863849629092,3.28084,0.3131716,5.0018702388,7.9897312268,21,5,8.589,7.191933629092,1.968504,4.585727,5.7678151452,0.223694,-0.223694,-0.223694,248.6, 2.8, -2.9,0,0,1024,1024,1024,1024,0,0,0,0,260,0,0,99,4.224,4.218,0,0,0,0,2.383,73.22,6.863849629092,1.64042,6,P-GPS,
3300,2022-08-13 20:09:32,-34.9272969457143,-56.165467176137,1.64042,1.7388452,5.125004429092,6.863849629092,3.28084,0.3131716,5.0338912372,8.0432745356,21,5,8.589,7.191933629092,1.968504,4.585727,5.7678151452,0.223694,-0.223694,0,248.8, 2.6, -3,0,0,1024,1024,1024,1024,0,0,0,0,260,0,0,99,4.224,4.218,0,0,0,0,2.383,73.22,6.863849629092,1.64042,6,P-GPS,
3400,2022-08-13 20:09:32,-34.9272972882868,-56.165467997757,1.64042,1.7388452,5.125004429092,6.863849629092,3.28084,0.223694,5.3068243168,8.3190291376,21,5,8.589,7.191933629092,1.968504,4.585727,5.7678151452,0.223694,0,0,249, 2.5, -2.8,0,0,1024,1024,1024,1024,0,0,0,0,260,0,0,99,4.224,4.218,0,0,0,0,2.383,73.22,6.863849629092,1.64042,6,P-GPS,
3500,2022-08-13 20:09:33,-34.9272973735586,-56.1654682269183,1.64042,1.7388452,5.125004429092,6.863849629092,3.28084,0,5.3808728756,8.3942916072,21,5,8.589,7.191933629092,1.968504,4.585727,5.7678151452,0,0,0,249.2, 2.5, -2.6,0,0,1024,1024,1024,1024,0,0,0,0,260,0,0,99,4.224,4.218,0,0,0,0,2.383,73.22,6.863849629092,1.64042,6,P-GPS,
3600,2022-08-13 20:09:33,-34.9272974277793,-56.1654683706192,1.64042,1.7388452,5.125004429092,6.863849629092,2.952756,0,5.427493612,8.44160132,21,5,8.589,7.191933629092,1.968504,4.585727,5.7678151452,0,0,0,249.4, 2.2, -2.7,0,0,1502,1024,1024,1024,72,0,0,0,260,0,0,99,4.224,4.218,0,0,0,0,2.383,73.22,6.863849629092,1.64042,6,P-GPS,
3700,2022-08-13 20:09:33,-34.9272974867192,-56.1654684893299,1.64042,1.7388452,5.125004429092,6.863849629092,2.952756,0,5.4689306212,8.4831367544,21,5,8.589,7.191933629092,1.968504,4.585727,5.7678151452,0,0,0,249.6, 1.7, -2.6,0,0,1024,1024,1024,1024,0,0,0,0,260,0,0,99,4.224,4.218,0,0,0,0,2.383,73.22,6.863849629092,1.64042,6,P-GPS,
3800,2022-08-13 20:09:33,-34.9272975399009,-56.1654686494802,1.312336,1.4107612,5.125004429092,6.535765629092,2.952756,0,5.5193899404,8.5348099844,21,5,8.589,7.191933629092,1.968504,4.585727,5.7678151452,0,0,0,250, -3.7, -1.9,0,0,1024,1024,1024,1024,0,0,0,0,260,0,0,99,4.224,4.218,0,0,0,0,2.383,73.22,6.535765629092,1.312336,6,P-GPS,
3900,2022-08-13 20:09:33,-34.9272975875883,-56.1654687770517,1.312336,1.4107612,5.125004429092,6.535765629092,2.952756,0.223694,5.560695716,8.576771928,21,5,8.589,7.191933629092,1.968504,4.585727,5.7678151452,0,-0.223694,0,249.9, 1.8, -2,0,0,1024,1024,1024,1024,0,0,0,0,260,0,0,99,4.224,4.218,0,0,0,0,2.383,73.22,6.535765629092,1.312336,6,P-GPS,
4000,2022-08-13 20:09:33,-34.9272975556056,-56.1654689468074,1.312336,1.4107612,5.125004429092,6.535765629092,2.952756,0.223694,5.5960959796,8.6288716672,21,5,8.589,7.191933629092,1.968504,4.585727,5.7678151452,0,-0.223694,0,250, 2.5, -1.5,0,0,1024,1024,1024,1024,0,0,0,0,260,0,0,99,4.224,4.218,0,0,0,0,2.383,73.22,6.535765629092,1.312336,6,P-GPS,
4100,2022-08-13 20:09:33,-34.9272975147349,-56.1654691189572,1.312336,1.4107612,5.125004429092,6.535765629092,2.952756,0.223694,5.630577608,8.6824805928,21,5,8.481,7.191933629092,1.968504,4.585727,5.7678151452,0,-0.223694,0,250.2, 2.6, -1.5,0,0,1024,1024,1024,1024,0,0,0,0,260,0,0,99,4.237,4.234,0,0,0,0,4.157,73.4,6.535765629092,1.312336,6,P-GPS,
4200,2022-08-13 20:09:33,-34.9272975146698,-56.1654692259309,1.64042,1.7388452,5.125004429092,6.863849629092,2.952756,0.223694,5.6572508372,8.7144687828,21,5,8.481,7.191933629092,1.968504,4.585727,5.7678151452,0,-0.223694,0,250.2, 2.5, -1.6,0,0,1024,1024,1024,1024,0,0,0,0,260,0,0,99,4.237,4.234,0,0,0,0,4.157,73.4,6.863849629092,1.64042,6,P-GPS,
4300,2022-08-13 20:09:33,-34.9272973199763,-56.165469336729,1.64042,1.7388452,5.125004429092,6.863849629092,3.28084,0.223694,5.6462928316,8.7928480504,21,5,8.481,7.191933629092,1.968504,4.585727,5.7678151452,0,-0.223694,0,250.4, 2.6, -1.6,0,0,1024,1024,1024,1024,0,0,0,0,260,0,0,99,4.237,4.234,0,0,0,0,4.157,73.4,6.863849629092,1.64042,6,P-GPS,
4400,2022-08-13 20:09:33,-34.9272973110752,-56.1654694746163,1.64042,1.7388452,5.125004429092,6.863849629092,3.28084,0,5.679298082,8.8342194428,21,5,8.481,7.191933629092,1.968504,4.585727,5.7678151452,0,0,0,250.5, 2.5, -1.5,0,0,1024,1024,1024,1024,0,0,0,0,260,0,0,99,4.237,4.234,0,0,0,0,4.157,73.4,6.863849629092,1.64042,6,P-GPS,
4500,2022-08-13 20:09:34,-34.927297294641,-56.1654696143871,1.64042,1.7388452,5.125004429092,6.863849629092,3.28084,0,5.711450314,8.876476662,21,5,8.481,7.191933629092,1.968504,4.585727,5.7678151452,0,0,0,250.7, 2.6, -2.1,0,0,1024,1024,1024,1024,0,0,0,0,260,0,0,99,4.237,4.234,0,0,0,0,4.157,73.4,6.863849629092,1.64042,6,P-GPS,
4600,2022-08-13 20:09:34,-34.9272972643096,-56.1654696684781,1.64042,1.7388452,5.125004429092,6.863849629092,3.28084,0,5.71932433,8.8960632768,21,5,8.481,7.191933629092,1.968504,4.585727,5.7678151452,0,0,0,250.8, 2.3, -2.6,0,0,1024,1024,1024,1024,0,0,0,0,260,0,0,99,4.237,4.234,0,0,0,0,4.157,73.4,6.863849629092,1.64042,6,P-GPS,
4700,2022-08-13 20:09:34,-34.9272971905052,-56.1654696879447,1.64042,1.7388452,5.125004429092,6.863849629092,3.28084,0,5.7100723612,8.9236223328,21,5,8.481,7.191933629092,1.968504,4.585727,5.7678151452,0,0,0,250.7, 2.2, -2.8,0,0,1024,1024,1024,1024,0,0,0,0,260,0,0,99,4.237,4.234,0,0,0,0,4.157,73.4,6.863849629092,1.64042,6,P-GPS,
4800,2022-08-13 20:09:34,-34.9272971465893,-56.1654697647545,1.64042,1.7388452,5.125004429092,6.863849629092,3.28084,0,5.7212600256,8.9516407064,21,5,8.481,7.191933629092,1.968504,4.585727,5.7678151452,0,0,0,250.7, 2.6, -2.2,0,0,1024,1024,1024,1024,0,0,0,0,260,0,0,99,4.237,4.234,0,0,0,0,4.157,73.4,6.863849629092,1.64042,6,P-GPS,
4900,2022-08-13 20:09:34,-34.9272971116885,-56.1654698389377,1.64042,1.7388452,5.125004429092,6.863849629092,3.28084,0,5.733595984,8.9772312584,21,5,8.481,7.191933629092,1.968504,4.585727,5.7678151452,0,0,0,250.8, 2.7, -2.2,0,0,1024,1024,1024,1024,0,0,0,0,260,0,0,99,4.237,4.234,0,0,0,0,4.157,73.4,6.863849629092,1.64042,6,P-GPS,
5000,2022-08-13 20:09:34,-34.9272970432418,-56.1654698397528,1.64042,1.7388452,5.125004429092,6.863849629092,3.28084,0,5.7208991332,9.0021984508,21,5,8.481,7.191933629092,1.968504,4.585727,5.7678151452,0,0,0,250.9, 2.5, -2,0,0,1024,1024,1024,1024,0,0,0,0,260,0,0,99,4.237,4.234,0,0,0,0,4.157,73.4,6.863849629092,1.64042,6,P-GPS,
5100,2022-08-13 20:09:34,-34.9272967673768,-56.1654697943137,1.64042,1.7388452,5.125004429092,6.863849629092,3.28084,0,5.657972622,9.1037404488,21,5,8.467,7.191933629092,1.968504,4.585727,5.7678151452,0,0,0,250.9, 2.5, -1.8,0,0,1024,1024,1024,1024,0,0,0,0,260,0,0,99,4.238,4.234,0,0,0,0,4.045,73.4,6.863849629092,1.64042,6,P-GPS,
5200,2022-08-13 20:09:34,-34.9272967432205,-56.1654698203423,1.64042,1.7388452,5.125004429092,6.863849629092,3.28084,0,5.6603020184,9.1155186644,21,5,8.467,7.191933629092,1.968504,4.585727,5.7678151452,0,0,0,251, 2.5, -1.9,0,0,1024,1024,1024,1024,0,0,0,0,260,0,0,99,4.238,4.234,0,0,0,0,4.045,73.4,6.863849629092,1.64042,6,P-GPS,"Punto de origen actualizado. Altitud de RPO establecida en 40m (Code: 3000001)"
5300,2022-08-13 20:09:34,-34.9272967276721,-56.1654698425231,1.64042,1.7388452,5.125004429092,6.863849629092,3.28084,0,5.6631891576,9.1242456988,21,5,8.467,7.191933629092,1.968504,4.585727,5.7678151452,0,0,0,250.9, 2.4, -1.8,0,0,1024,1024,1024,1024,0,0,0,0,260,0,0,99,4.238,4.234,0,0,0,0,4.045,73.4,6.863849629092,1.64042,6,P-GPS,
5400,2022-08-13 20:09:34,-34.9272967538314,-56.1654698430051,1.64042,1.7388452,5.125004429092,6.863849629092,3.28084,0,5.6681104176,9.1337929432,21,5,8.467,7.191933629092,1.968504,4.585727,5.7678151452,0,0,0,251, 2.4, -2,0,0,1024,1024,1024,1024,0,0,0,0,260,0,0,99,4.238,4.234,0,0,0,0,4.045,73.4,6.863849629092,1.64042,6,P-GPS,
5500,2022-08-13 20:09:34,-34.9272968091301,-56.1654698646843,1.64042,1.7388452,5.125004429092,6.863849629092,3.28084,0,5.6838584496,9.1549871696,21,5,8.467,7.191933629092,1.968504,4.585727,5.7678151452,0,0,0,251, 2.7, -1.8,0,0,1024,1024,1024,1024,0,0,0,0,260,0,0,99,4.238,4.234,0,0,0,0,4.045,73.4,6.863849629092,1.64042,6,P-GPS,
5600,2022-08-13 20:09:35,-34.9272968446661,-56.1654698626872,1.64042,1.7388452,5.125004429092,6.863849629092,3.28084,0,5.6898623868,9.1679464876,21,5,8.467,7.191933629092,1.968504,4.585727,5.7678151452,0,0,0,251.1, 2.7, -1.7,0,0,1024,1024,1164,1024,0,0,21,0,260,0,0,99,4.238,4.234,0,0,0,0,4.045,73.4,6.863849629092,1.64042,6,P-GPS,
5700,2022-08-13 20:09:35,-34.9272968810846,-56.1654698468333,1.64042,1.7388452,5.125004429092,6.863849629092,3.28084,0,5.6924870588,9.1820540996,21,5,8.467,7.191933629092,1.968504,4.585727,5.7678151452,0,0,0,251.3, 2.5, -1.7,0,0,1024,1024,1491,1024,0,0,71,0,260,0,0,99,4.238,4.234,0,0,0,0,4.045,73.4,6.863849629092,1.64042,6,P-GPS,
5800,2022-08-13 20:09:35,-34.9272968573386,-56.1654697936423,1.64042,1.7388452,5.125004429092,6.863849629092,3.28084,0,5.674376822,9.2001971448,21,5,8.467,7.191933629092,1.968504,4.585727,5.7678151452,0,0,-0.223694,251.4, 2.1, -1.2,0,0,1024,1024,1684,1024,0,0,100,0,260,0,0,99,4.238,4.234,0,0,0,0,4.045,73.4,6.863849629092,1.64042,6,P-GPS,
5900,2022-08-13 20:09:35,-34.927296829248,-56.1654697251917,1.64042,1.7388452,5.125004429092,6.863849629092,3.608924,0,5.6515421756,9.223097408,21,5,8.467,7.191933629092,1.968504,4.585727,5.7678151452,0,0,-0.894776,251.4, 1.9, -0.9,0,0,1024,1024,1684,1024,0,0,100,0,260,0,0,99,4.238,4.234,0,0,0,0,4.045,73.4,6.863849629092,1.64042,6,P-GPS,
6000,2022-08-13 20:09:35,-34.9272967435951,-56.1654695360765,1.968504,2.0669292,5.125004429092,7.191933629092,3.608924,0,5.586942436,9.2876971476,21,5,8.467,7.191933629092,1.968504,4.585727,5.7678151452,0,0,-1.565858,251.5, 1.7, -0.9,0,0,1024,1024,1381,1024,0,0,54,0,260,0,0,99,4.238,4.234,0,0,0,0,4.045,73.4,7.191933629092,1.968504,6,P-GPS,
6100,2022-08-13 20:09:35,-34.927296732577,-56.1654694140235,2.296588,2.3950132,5.125004429092,7.520017629092,3.937008,0,5.553477868,9.3244425556,21,5,8.464,7.520017629092,2.296588,4.585727,5.7678151452,0,0,-2.460634,251.6, 1.9, -1.6,0,0,1024,1024,1381,1024,0,0,54,0,260,0,0,99,4.231,4.214,0,0,0,0,3.916,73.4,7.520017629092,2.296588,6,P-GPS,
6200,2022-08-13 20:09:35,-34.927296739563,-56.1654693433159,2.624672,2.7230972,5.125004429092,7.848101629092,4.593176,0,5.536581542,9.3457352072,21,5,8.464,7.848101629092,2.624672,4.585727,5.7678151452,0,0,-2.908022,251.4, 1.6, -1.4,0,0,1024,1024,1024,1024,0,0,0,0,260,0,0,99,4.231,4.214,0,0,0,0,3.916,73.4,7.848101629092,2.624672,6,P-GPS,
6300,2022-08-13 20:09:35,-34.9272967553622,-56.1654692787275,2.952756,3.0511812,5.125004429092,8.176185629092,4.92126,0,5.522966056,9.3659123732,21,5,8.464,8.176185629092,2.952756,4.585727,5.7678151452,0,0,-2.460634,251.3, 1.8, -1.8,0,0,1024,1024,1024,1024,0,0,0,0,260,0,0,99,4.231,4.214,0,0,0,0,3.916,73.4,8.176185629092,2.952756,6,P-GPS,
6400,2022-08-13 20:09:35,-34.9272966495426,-56.1654691781121,3.28084,3.3792652,5.125004429092,8.504269629092,5.249344,0,5.4773295716,9.414862506,21,5,8.464,8.504269629092,3.28084,4.585727,5.7678151452,0,0,-1.789552,251.3, 1.9, -2.1,0,0,1024,1024,1024,1024,0,0,0,0,260,0,0,99,4.231,4.214,0,0,0,0,3.916,73.4,8.504269629092,3.28084,6,P-GPS,
6500,2022-08-13 20:09:36,-34.927296621224,-56.1654690954089,3.28084,3.3792652,5.125004429092,8.504269629092,5.249344,0,5.450787576,9.4416669688,21,5,8.464,8.504269629092,3.28084,4.585727,5.7678151452,0,0,-1.11847,251.4, 2, -1.6,0,0,1024,1024,1024,1024,0,0,0,0,260,0,0,99,4.231,4.214,0,0,0,0,3.916,73.4,8.504269629092,3.28084,6,P-GPS,
6600,2022-08-13 20:09:36,-34.9272965756732,-56.1654689753268,3.608924,3.7073492,5.125004429092,8.832353629092,5.577428,0,5.411417496,9.4812338992,21,5,8.464,8.832353629092,3.608924,4.585727,5.7678151452,0,0,-0.671082,251.5, 1.7, -1.3,0,0,1024,1024,1024,1024,0,0,0,0,260,0,0,99,4.231,4.214,0,0,0,0,3.916,73.4,8.832353629092,3.608924,6,P-GPS,
6700,2022-08-13 20:09:36,-34.9272965218433,-56.1654688615273,3.608924,3.7073492,5.125004429092,8.832353629092,5.577428,0,5.3721130328,9.5205383624,21,5,8.464,8.832353629092,3.608924,4.585727,5.7678151452,0,0,-0.223694,251.5, 1.6, -1.6,0,0,1024,1024,1024,1024,0,0,0,0,260,0,0,99,4.231,4.214,0,0,0,0,3.916,73.4,8.832353629092,3.608924,6,P-GPS,
6800,2022-08-13 20:09:36,-34.9272964413428,-56.1654688073096,3.608924,3.7073492,5.125004429092,8.832353629092,5.577428,0,5.343176024,9.5541013556,21,5,8.464,8.832353629092,3.608924,4.585727,5.7678151452,0,0,0,251.5, 2, -2.1,0,0,1024,1024,1024,1024,0,0,0,0,260,0,0,99,4.231,4.214,0,0,0,0,3.916,73.4,8.832353629092,3.608924,6,P-GPS,
6900,2022-08-13 20:09:36,-34.9272964230652,-56.1654688197571,3.608924,3.7073492,5.125004429092,8.832353629092,5.577428,0,5.3429791736,9.5617457128,21,5,8.464,8.832353629092,3.608924,4.585727,5.7678151452,0,0,0,251.5, 2.1, -2.7,0,0,1024,1024,1024,1024,0,0,0,0,260,0,0,99,4.231,4.214,0,0,0,0,3.916,73.4,8.832353629092,3.608924,6,P-GPS,
7000,2022-08-13 20:09:36,-34.9272964255795,-56.1654688055281,3.608924,3.7073492,5.125004429092,8.832353629092,5.577428,0,5.3397639504,9.56610923,21,5,8.464,8.832353629092,3.608924,4.585727,5.7678151452,0,0,0,251.5, 2.4, -3,0,0,1024,1024,1024,1024,0,0,0,0,260,0,0,99,4.231,4.214,0,0,0,0,3.916,73.4,8.832353629092,3.608924,6,P-GPS,
7100,2022-08-13 20:09:36,-34.9272964447267,-56.1654687839507,3.608924,3.7073492,5.125004429092,8.832353629092,5.577428,0,5.3377954464,9.5755908576,21,5,8.501,8.832353629092,3.608924,4.585727,5.7678151452,0,0,0,251.6, 2.4, -2.8,0,0,1024,1024,1024,1024,0,0,0,0,260,0,0,99,4.243,4.236,0,0,0,0,4.444,73.58,8.832353629092,3.608924,6,P-GPS,
7200,2022-08-13 20:09:36,-34.9272964038104,-56.165468887313,3.608924,3.7073492,5.125004429092,8.832353629092,5.577428,0,5.3568243184,9.6099412524,21,5,8.501,8.832353629092,3.608924,4.585727,5.7678151452,0,0,0,251.6, 2.7, -2.5,0,0,1024,1024,1024,1024,0,0,0,0,260,0,0,99,4.243,4.236,0,0,0,0,4.444,73.58,8.832353629092,3.608924,6,P-GPS,
7300,2022-08-13 20:09:36,-34.927296403944,-56.165468917038,3.608924,3.7073492,5.125004429092,8.832353629092,5.577428,0,5.364501484,9.6188323288,21,5,8.501,8.832353629092,3.608924,4.585727,5.7678151452,0,0,0,251.6, 2.9, -2.4,0,0,1024,1024,1024,1024,0,0,0,0,260,0,0,99,4.243,4.236,0,0,0,0,4.444,73.58,8.832353629092,3.608924,6,P-GPS,
7400,2022-08-13 20:09:36,-34.9272964485373,-56.1654689754026,3.608924,3.7073492,5.125004429092,8.832353629092,5.577428,0,5.387795448,9.6426840356,21,5,8.501,8.832353629092,3.608924,4.585727,5.7678151452,0,0,0,251.6, 3, -2.2,0,0,1024,1024,1024,1024,0,0,0,0,260,0,0,99,4.243,4.236,0,0,0,0,4.444,73.58,8.832353629092,3.608924,6,P-GPS,
7500,2022-08-13 20:09:37,-34.9272965035168,-56.1654690276976,3.608924,3.7073492,5.125004429092,8.832353629092,5.577428,0,5.4114503044,9.668143354,21,5,8.501,8.832353629092,3.608924,4.585727,5.7678151452,0,0,0,251.6, 3.1, -1.9,0,0,1024,1024,1024,1024,0,0,0,0,260,0,0,99,4.243,4.236,0,0,0,0,4.444,73.58,8.832353629092,3.608924,6,P-GPS,
7600,2022-08-13 20:09:37,-34.9272965577635,-56.1654690188433,3.608924,3.7073492,5.125004429092,8.832353629092,5.577428,0,5.4192587036,9.6880908612,21,5,8.501,8.832353629092,3.608924,4.585727,5.7678151452,0,0,0,251.6, 2.9, -1.5,0,0,1024,1024,1024,1024,0,0,0,0,260,0,0,99,4.243,4.236,0,0,0,0,4.444,73.58,8.832353629092,3.608924,6,P-GPS,
7700,2022-08-13 20:09:37,-34.927296656698,-56.1654690952692,3.608924,3.7073492,5.125004429092,8.832353629092,5.577428,0,5.4573820644,9.7308402064,21,5,8.501,8.832353629092,3.608924,4.585727,5.7678151452,0,0,0,251.7, 2.5, -1.4,0,0,1024,1024,1024,1024,0,0,0,0,260,0,0,99,4.243,4.236,0,0,0,0,4.444,73.58,8.832353629092,3.608924,6,P-GPS,
7800,2022-08-13 20:09:37,-34.9272966708785,-56.165469009575,3.937008,4.0354332,5.125004429092,9.160437629092,5.577428,0,5.4380907252,9.7569885012,21,5,8.501,9.160437629092,3.937008,4.585727,5.7678151452,0,0,0,251.7, 2.3, -1.6,0,0,1024,1024,1024,1024,0,0,0,0,260,0,0,99,4.243,4.236,0,0,0,0,4.444,73.58,9.160437629092,3.937008,6,P-GPS,
7900,2022-08-13 20:09:37,-34.9272966797731,-56.1654689152891,3.937008,4.0354332,5.125004429092,9.160437629092,5.577428,0,5.4156497796,9.7853677672,21,5,8.501,9.160437629092,3.937008,4.585727,5.7678151452,0,0,0,251.7, 2.2, -1.7,0,0,1024,1024,1024,1024,0,0,0,0,260,0,0,99,4.243,4.236,0,0,0,0,4.444,73.58,9.160437629092,3.937008,6,P-GPS,
8000,2022-08-13 20:09:37,-34.927296662023,-56.1654688643106,3.937008,4.0354332,5.125004429092,9.160437629092,5.577428,0,5.3992455796,9.8019360092,21,5,8.501,9.160437629092,3.937008,4.585727,5.7678151452,0,0,0,251.7, 2.1, -1.6,0,0,1024,1024,1024,1024,0,0,0,0,260,0,0,99,4.243,4.236,0,0,0,0,4.444,73.58,9.160437629092,3.937008,6,P-GPS,
8100,2022-08-13 20:09:37,-34.9272965349979,-56.1654687121198,3.937008,4.0354332,5.125004429092,9.160437629092,5.577428,0,5.33628626,9.8668966412,21,5,8.455,9.160437629092,3.937008,4.585727,5.7678151452,0,0,0,251.7, 2, -1.5,0,0,1024,1024,1024,1024,0,0,0,0,260,0,0,99,4.227,4.223,0,0,0,0,3.754,73.58,9.160437629092,3.937008,6,P-GPS,
8200,2022-08-13 20:09:37,-34.9272964970649,-56.1654686669341,3.937008,4.0354332,5.125004429092,9.160437629092,5.577428,0,5.3175526636,9.8862535972,21,5,8.455,9.160437629092,3.937008,4.585727,5.7678151452,0,0,0,251.8, 2, -1.7,0,0,1024,1024,1024,1024,0,0,0,0,260,0,0,99,4.227,4.223,0,0,0,0,3.754,73.58,9.160437629092,3.937008,6,P-GPS,
8300,2022-08-13 20:09:37,-34.9272964521068,-56.1654686248714,3.937008,4.0354332,5.125004429092,9.160437629092,5.577428,0,5.2983269412,9.9069228892,21,5,8.455,9.160437629092,3.937008,4.585727,5.7678151452,0,0,0,251.8, 1.8, -1.8,0,0,1024,1024,1024,1024,0,0,0,0,260,0,0,99,4.227,4.223,0,0,0,0,3.754,73.58,9.160437629092,3.937008,6,P-GPS,
8400,2022-08-13 20:09:37,-34.9272964170627,-56.1654685448406,3.937008,4.0354332,5.125004429092,9.160437629092,5.577428,0,5.2712272028,9.934055436,21,5,8.455,9.160437629092,3.937008,4.585727,5.7678151452,0,0,0,252, 1.8, -2.5,0,0,1024,1024,1024,1024,0,0,0,0,260,0,0,99,4.227,4.223,0,0,0,0,3.754,73.58,9.160437629092,3.937008,6,P-GPS,
8500,2022-08-13 20:09:38,-34.9272963294003,-56.1654683673709,3.937008,4.0354332,5.125004429092,9.160437629092,5.577428,0,5.2092521352,9.9960305036,21,5,8.455,9.160437629092,3.937008,4.585727,5.7678151452,0,0,0,252, 2.1, -2.7,0,0,1024,1024,1024,1024,0,0,0,0,260,0,0,99,4.227,4.223,0,0,0,0,3.754,73.58,9.160437629092,3.937008,6,P-GPS,
8600,2022-08-13 20:09:38,-34.9272963391026,-56.1654683513942,3.937008,4.0354332,5.125004429092,9.160437629092,5.577428,0,5.2069555472,10.001968824,21,5,8.455,9.160437629092,3.937008,4.585727,5.7678151452,0,0,0,251.9, 2.8, -2.7,0,0,1024,1024,1024,1024,0,0,0,0,260,0,0,99,4.227,4.223,0,0,0,0,3.754,73.58,9.160437629092,3.937008,6,P-GPS,
8700,2022-08-13 20:09:38,-34.9272963697532,-56.1654683461083,3.937008,4.0354332,5.125004429092,9.160437629092,5.577428,0,5.2114174896,10.013287722,21,5,8.455,9.160437629092,3.937008,4.585727,5.7678151452,0,0,0,251.8, 3.2, -1.9,0,0,1024,1024,1024,1024,0,0,0,0,260,0,0,99,4.227,4.223,0,0,0,0,3.754,73.58,9.160437629092,3.937008,6,P-GPS,
8800,2022-08-13 20:09:38,-34.9272963774655,-56.1654683501756,3.937008,4.0354332,5.125004429092,9.160437629092,5.577428,0,5.213910928,10.0163389032,21,5,8.455,9.160437629092,3.937008,4.585727,5.7678151452,0,0,0,251.8, 3.4, -1.5,0,0,1024,1024,1024,1024,0,0,0,0,260,0,0,99,4.227,4.223,0,0,0,0,3.754,73.58,9.160437629092,3.937008,6,P-GPS,
8900,2022-08-13 20:09:38,-34.9272963578395,-56.1654683584918,3.937008,4.0354332,5.125004429092,9.160437629092,5.577428,0,5.2123361248,10.0239176436,21,5,8.455,9.160437629092,3.937008,4.585727,5.7678151452,0,0,0,251.9, 3.6, -1.3,0,0,1024,1024,1024,1024,0,0,0,0,260,0,0,99,4.227,4.223,0,0,0,0,3.754,73.58,9.160437629092,3.937008,6,P-GPS,
9000,2022-08-13 20:09:38,-34.9272964052142,-56.1654683508365,3.937008,4.0354332,5.125004429092,9.160437629092,5.577428,0,5.219324314,10.0413717124,21,5,8.455,9.160437629092,3.937008,4.585727,5.7678151452,0,0,0,251.9, 3.7, -1.3,0,0,1024,1024,1024,1024,0,0,0,0,260,0,0,99,4.227,4.223,0,0,0,0,3.754,73.58,9.160437629092,3.937008,6,P-GPS,
9100,2022-08-13 20:09:38,-34.9272964577966,-56.1654683430585,3.937008,4.0354332,5.125004429092,9.160437629092,5.577428,0,5.2273295636,10.06069586,21,5,8.455,9.160437629092,3.937008,4.585727,5.7678151452,0,0,0,251.8, 3.9, -1.2,0,0,1024,1024,1024,1024,0,0,0,0,260,0,0,99,4.227,4.223,0,0,0,0,3.754,73.58,9.160437629092,3.937008,6,P-GPS,
9200,2022-08-13 20:09:38,-34.9272964939122,-56.1654682984762,3.937008,4.0354332,5.125004429092,9.160437629092,5.577428,0,5.2229004296,10.0794294564,21,5,8.451,9.160437629092,3.937008,4.585727,5.7678151452,0,0,0,251.8, 3.9, -1,0,0,1024,1024,1024,1024,0,0,0,0,260,0,0,99,4.228,4.222,0,0,0,0,3.901,73.58,9.160437629092,3.937008,6,P-GPS,
9300,2022-08-13 20:09:38,-34.9272965250155,-56.1654682510505,3.937008,4.0354332,5.125004429092,9.160437629092,5.577428,0,5.2167980672,10.09760531,21,5,8.451,9.160437629092,3.937008,4.585727,5.7678151452,0,0,0,251.8, 4.2, -1.2,0,0,1024,1024,1024,1024,0,0,0,0,260,0,0,99,4.228,4.222,0,0,0,0,3.901,73.58,9.160437629092,3.937008,6,P-GPS,
9400,2022-08-13 20:09:38,-34.9272965978135,-56.1654681645034,3.937008,4.0354332,5.125004429092,9.160437629092,5.577428,0,5.208989668,10.134678802,21,5,8.451,9.160437629092,3.937008,4.585727,5.7678151452,0,0,0,251.8, 4.3, -0.8,0,0,1024,1024,1024,1024,0,0,0,0,260,0,0,99,4.228,4.222,0,0,0,0,3.901,73.58,9.160437629092,3.937008,6,P-GPS,
9500,2022-08-13 20:09:39,-34.9272966239402,-56.1654681505643,4.265092,4.3635172,5.125004429092,9.488521629092,5.577428,0,5.2105644712,10.1450790648,21,5,8.451,9.488521629092,4.265092,4.585727,5.7678151452,0,0,0,251.9, 4.3, -1.2,0,0,1024,1024,1024,1024,0,0,0,0,260,0,0,99,4.228,4.222,0,0,0,0,3.901,73.58,9.488521629092,4.265092,6,P-GPS,
9600,2022-08-13 20:09:39,-34.9272966473182,-56.165468102398,4.265092,4.3635172,5.125004429092,9.488521629092,5.577428,0,5.2029857308,10.1618441572,21,5,8.451,9.488521629092,4.265092,4.585727,5.7678151452,0,0,0,251.9, 4.4, -1.5,0,0,1024,1024,1024,1024,0,0,0,0,260,0,0,99,4.228,4.222,0,0,0,0,3.901,73.58,9.488521629092,4.265092,6,P-GPS,
9700,2022-08-13 20:09:39,-34.92729666982,-56.1654680511714,4.265092,4.3635172,5.125004429092,9.488521629092,5.577428,0,5.1945211636,10.1792326092,21,5,8.451,9.488521629092,4.265092,4.585727,5.7678151452,0,0,0,251.9, 4.3, -1.6,0,0,1024,1024,1024,1024,0,0,0,0,260,0,0,99,4.228,4.222,0,0,0,0,3.901,73.58,9.488521629092,4.265092,6,P-GPS,
9800,2022-08-13 20:09:39,-34.9272966156938,-56.1654680245902,4.265092,4.3635172,5.125004429092,9.488521629092,5.577428,0,5.17716552,10.2005252608,21,5,8.451,9.488521629092,4.265092,4.585727,5.7678151452,0,0,0,251.8, 3.8, -2,0,0,1024,1024,1024,1024,0,0,0,0,260,0,0,99,4.228,4.222,0,0,0,0,3.901,73.58,9.488521629092,4.265092,6,P-GPS,
9900,2022-08-13 20:09:39,-34.9272966019888,-56.165468012502,4.265092,4.3635172,5.125004429092,9.488521629092,5.577428,0,5.17142405,10.20669324,21,5,8.451,9.488521629092,4.265092,4.585727,5.7678151452,0,0,0,251.8, 3.7, -1.5,0,0,1024,1024,1024,1024,0,0,0,0,260,0,0,99,4.228,4.222,0,0,0,0,3.901,73.58,9.488521629092,4.265092,6,P-GPS,
10000,2022-08-13 20:09:39,-34.9272966386972,-56.1654679695393,4.265092,4.3635172,5.125004429092,9.488521629092,5.577428,0,5.1678479344,10.225229986,21,5,8.451,9.488521629092,4.265092,4.585727,5.7678151452,0,0,0,251.8, 3.9, -1.1,0,0,1024,1024,1024,1024,0,0,0,0,260,0,0,99,4.228,4.222,0,0,0,0,3.901,73.58,9.488521629092,4.265092,6,P-GPS,
10100,2022-08-13 20:09:39,-34.927296672989,-56.1654679203751,4.265092,4.3635172,5.125004429092,9.488521629092,5.577428,0,5.1623033148,10.2445541336,21,5,8.451,9.488521629092,4.265092,4.585727,5.7678151452,0,0,0,251.8, 4, -1.4,0,0,1024,1024,1024,1024,0,0,0,0,260,0,0,99,4.228,4.222,0,0,0,0,3.901,73.58,9.488521629092,4.265092,6,P-GPS,
10200,2022-08-13 20:09:39,-34.9272967241612,-56.1654679013538,4.265092,4.3635172,5.125004429092,9.488521629092,5.577428,0,5.1677167008,10.2640751316,21,5,8.439,9.488521629092,4.265092,4.585727,5.7678151452,0,0,0,251.8, 3.6, -1.8,0,0,1024,1024,1024,1024,0,0,0,0,260,0,0,99,4.217,4.212,0,0,0,0,3.959,73.58,9.488521629092,4.265092,6,P-GPS,
10300,2022-08-13 20:09:39,-34.9272967331176,-56.1654678776031,4.265092,4.3635172,5.125004429092,9.488521629092,5.577428,0,5.163550034,10.2718835308,21,5,8.439,9.488521629092,4.265092,4.585727,5.7678151452,0,0,0,252, 3.8, -1.2,0,0,1024,1024,1024,1024,0,0,0,0,260,0,0,99,4.217,4.212,0,0,0,0,3.959,73.58,9.488521629092,4.265092,6,P-GPS,
10400,2022-08-13 20:09:39,-34.9272967232656,-56.165467872167,4.265092,4.3635172,5.125004429092,9.488521629092,5.577428,0,5.1602363856,10.2758205388,21,5,8.439,9.488521629092,4.265092,4.585727,5.7678151452,0,0,0,251.9, 3.8, -1.2,0,0,1024,1024,1024,1024,0,0,0,0,260,0,0,99,4.217,4.212,0,0,0,0,3.959,73.58,9.488521629092,4.265092,6,P-GPS,
10500,2022-08-13 20:09:40,-34.9272967084532,-56.1654678624558,4.265092,4.3635172,5.125004429092,9.488521629092,5.577428,0,5.154855808,10.2819557096,21,5,8.439,9.488521629092,4.265092,4.585727,5.7678151452,0,0,0,251.9, 3.4, -1.7,0,0,1024,1024,1024,1024,0,0,0,0,260,0,0,99,4.217,4.212,0,0,0,0,3.959,73.58,9.488521629092,4.265092,6,P-GPS,
10600,2022-08-13 20:09:40,-34.9272967433768,-56.1654678137057,4.265092,4.3635172,5.125004429092,9.488521629092,5.577428,0,5.1496392724,10.301345474,21,5,8.439,9.488521629092,4.265092,4.585727,5.7678151452,0,0,0,252, 3.4, -1.8,0,0,1024,1024,1024,1024,0,0,0,0,260,0,0,99,4.217,4.212,0,0,0,0,3.959,73.58,9.488521629092,4.265092,6,P-GPS,
10700,2022-08-13 20:09:40,-34.9272967647941,-56.1654677504875,4.265092,4.3635172,5.125004429092,9.488521629092,5.577428,0,5.1381891408,10.3217851072,21,5,8.439,9.488521629092,4.265092,4.585727,5.7678151452,0,0,0,252, 3.4, -2.2,0,0,1024,1024,1024,1024,0,0,0,0,260,0,0,99,4.217,4.212,0,0,0,0,3.959,73.58,9.488521629092,4.265092,6,P-GPS,
10800,2022-08-13 20:09:40,-34.9272967754116,-56.1654677292706,4.265092,4.3635172,5.125004429092,9.488521629092,5.577428,0,5.1350723428,10.329232614,21,5,8.439,9.488521629092,4.265092,4.585727,5.7678151452,0,0,0,251.9, 3.5, -2,0,0,1024,1024,1024,1024,0,0,0,0,260,0,0,99,4.217,4.212,0,0,0,0,3.959,73.58,9.488521629092,4.265092,6,P-GPS,
10900,2022-08-13 20:09:40,-34.9272967991413,-56.1654677110043,4.265092,4.3635172,5.125004429092,9.488521629092,5.577428,0,5.13533481,10.3394688348,21,5,8.439,9.488521629092,4.265092,4.585727,5.7678151452,0,0,0,251.9, 3.4, -1.4,0,0,1024,1024,1024,1024,0,0,0,0,260,0,0,99,4.217,4.212,0,0,0,0,3.959,73.58,9.488521629092,4.265092,6,P-GPS,
11000,2022-08-13 20:09:40,-34.9272968258575,-56.1654676690199,4.265092,4.3635172,5.125004429092,9.488521629092,5.577428,0,5.1303479332,10.3553809088,21,5,8.439,9.488521629092,4.265092,4.585727,5.7678151452,0,0,0,251.9, 3.5, -1.4,0,0,1024,1024,1024,1024,0,0,0,0,260,0,0,99,4.217,4.212,0,0,0,0,3.959,73.58,9.488521629092,4.265092,6,P-GPS,
11100,2022-08-13 20:09:40,-34.9272968402562,-56.1654676467974,4.265092,4.3635172,5.125004429092,9.488521629092,5.577428,0,5.1277560696,10.363845476,21,5,8.439,9.488521629092,4.265092,4.585727,5.7678151452,0,0,0,252, 3.6, -1.3,0,0,1024,1024,1024,1024,0,0,0,0,260,0,0,99,4.217,4.212,0,0,0,0,3.959,73.58,9.488521629092,4.265092,6,P-GPS,
11200,2022-08-13 20:09:40,-34.9272968795734,-56.1654676130129,4.265092,4.3635172,5.125004429092,9.488521629092,5.577428,0,5.127460794,10.38139797,21,5,8.443,9.488521629092,4.265092,4.585727,5.7678151452,0,0,0,251.9, 3.9, -1.3,0,0,1024,1024,1024,1024,0,0,0,0,260,0,0,99,4.221,4.215,0,0,0,0,3.891,73.58,9.488521629092,4.265092,6,P-GPS,
11300,2022-08-13 20:09:40,-34.9272969216198,-56.1654675825199,4.265092,4.3635172,5.125004429092,9.488521629092,5.577428,0,5.1285762796,10.3992457396,21,5,8.443,9.488521629092,4.265092,4.585727,5.7678151452,0,0,0,251.9, 4.2, -1.2,0,0,1024,1024,1024,1024,0,0,0,0,260,0,0,99,4.221,4.215,0,0,0,0,3.891,73.58,9.488521629092,4.265092,6,P-GPS,
11400,2022-08-13 20:09:40,-34.927296942656,-56.1654675516651,4.265092,4.3635172,5.125004429092,9.488521629092,5.577428,0,5.125328248,10.411253614,21,5,8.443,9.488521629092,4.265092,4.585727,5.7678151452,0,0,0,252, 4, -1.2,0,0,1024,1024,1024,1024,0,0,0,0,260,0,0,99,4.221,4.215,0,0,0,0,3.891,73.58,9.488521629092,4.265092,6,P-GPS,
11500,2022-08-13 20:09:40,-34.9272969227565,-56.165467477201,4.265092,4.3635172,5.125004429092,9.488521629092,5.577428,0,5.102854494,10.4346788116,21,5,8.443,9.488521629092,4.265092,4.585727,5.7678151452,0,0,0,251.9, 4, -1.4,0,0,1024,1024,1024,1024,0,0,0,0,260,0,0,99,4.221,4.215,0,0,0,0,3.891,73.58,9.488521629092,4.265092,6,P-GPS,
11600,2022-08-13 20:09:41,-34.9272969039935,-56.1654674383057,4.265092,4.3635172,5.125004429092,9.488521629092,5.577428,0,5.08940305,10.448163064,21,5,8.443,9.488521629092,4.265092,4.585727,5.7678151452,0,0,0,251.9, 4.1, -1.7,0,0,1024,1024,1024,1024,0,0,0,0,260,0,0,99,4.221,4.215,0,0,0,0,3.891,73.58,9.488521629092,4.265092,6,P-GPS,
11700,2022-08-13 20:09:41,-34.9272968807263,-56.1654673950112,4.265092,4.3635172,5.125004429092,9.488521629092,5.577428,0,5.0739174852,10.4636486288,21,5,8.443,9.488521629092,4.265092,4.585727,5.7678151452,0,0,0,251.8, 4, -1.7,0,0,1024,1024,1024,1024,0,0,0,0,260,0,0,99,4.221,4.215,0,0,0,0,3.891,73.58,9.488521629092,4.265092,6,P-GPS,
11800,2022-08-13 20:09:41,-34.9272968930276,-56.1654673819303,4.265092,4.3635172,5.125004429092,9.488521629092,5.577428,0,5.0732613172,10.4696197576,21,5,8.443,9.488521629092,4.265092,4.585727,5.7678151452,0,0,0,251.8, 4, -1.5,0,0,1024,1024,1024,1024,0,0,0,0,260,0,0,99,4.221,4.215,0,0,0,0,3.891,73.58,9.488521629092,4.265092,6,P-GPS,
11900,2022-08-13 20:09:41,-34.9272968789871,-56.1654673862013,4.265092,4.3635172,5.125004429092,9.488521629092,5.577428,0,5.0713912384,10.4748691016,21,5,8.443,9.488521629092,4.265092,4.585727,5.7678151452,0,0,0,251.9, 3.7, -1.9,0,0,1024,1024,1024,1024,0,0,0,0,260,0,0,99,4.221,4.215,0,0,0,0,3.891,73.58,9.488521629092,4.265092,6,P-GPS,
12000,2022-08-13 20:09:41,-34.9272968684055,-56.1654673350022,4.265092,4.3635172,5.125004429092,9.488521629092,5.577428,0,5.05659465,10.4906827504,21,5,8.443,9.488521629092,4.265092,4.585727,5.7678151452,0,0,0,251.9, 3.4, -2.1,0,0,1024,1024,1024,1024,0,0,0,0,260,0,0,99,4.221,4.215,0,0,0,0,3.891,73.58,9.488521629092,4.265092,6,P-GPS,
12100,2022-08-13 20:09:41,-34.9272968632564,-56.1654672817367,4.265092,4.3635172,5.125004429092,9.488521629092,5.577428,0,5.0424542296,10.506726058,21,5,8.443,9.488521629092,4.265092,4.585727,5.7678151452,0,0,0,251.9, 3.3, -1.7,0,0,1024,1024,1024,1024,0,0,0,0,260,0,0,99,4.221,4.215,0,0,0,0,3.891,73.58,9.488521629092,4.265092,6,P-GPS,
12200,2022-08-13 20:09:41,-34.9272968643214,-56.1654672732259,4.265092,4.3635172,5.125004429092,9.488521629092,5.577428,0,5.0405841508,10.5092851132,21,5,8.433,9.488521629092,4.265092,4.585727,5.7678151452,0,0,0,251.9, 3.7, -1.4,0,0,1024,1024,1024,1024,0,0,0,0,260,0,0,99,4.218,4.215,0,0,0,0,3.907,73.76,9.488521629092,4.265092,6,P-GPS,
12300,2022-08-13 20:09:41,-34.9272968328761,-56.1654672800505,3.937008,4.0354332,5.125004429092,9.160437629092,5.577428,0,5.0357285076,10.5209649036,21,5,8.433,9.488521629092,4.265092,4.585727,5.7678151452,0,0,0,251.9, 3.9, -1.7,0,0,1024,1024,1024,1024,0,0,0,0,260,0,0,99,4.218,4.215,0,0,0,0,3.907,73.76,9.160437629092,3.937008,6,P-GPS,
12400,2022-08-13 20:09:41,-34.9272968321303,-56.1654672495117,3.937008,4.0354332,5.125004429092,9.160437629092,5.577428,0,5.028051342,10.5300856388,21,5,8.433,9.488521629092,4.265092,4.585727,5.7678151452,0,0,0,251.9, 3.6, -2.2,0,0,1024,1024,1024,1024,0,0,0,0,260,0,0,99,4.218,4.215,0,0,0,0,3.907,73.76,9.160437629092,3.937008,6,P-GPS,
12500,2022-08-13 20:09:42,-34.9272968387548,-56.1654672083019,3.937008,4.0354332,5.125004429092,9.160437629092,5.577428,0,5.0193243076,10.542651256,21,5,8.433,9.488521629092,4.265092,4.585727,5.7678151452,0,0,0,252, 3.2, -2.2,0,0,1024,364,1024,1024,0,-100,0,0,260,0,0,99,4.218,4.215,0,0,0,0,3.907,73.76,9.160437629092,3.937008,6,P-GPS,
12600,2022-08-13 20:09:42,-34.9272968099281,-56.1654671570126,3.937008,4.0354332,5.125004429092,9.160437629092,5.577428,0,5.0007219448,10.5612536188,21,5,8.433,9.488521629092,4.265092,4.585727,5.7678151452,0,0,0,251.9, 3.4, -3.1,0,0,1024,364,1024,1024,0,-100,0,0,260,0,0,99,4.218,4.215,0,0,0,0,3.907,73.76,9.160437629092,3.937008,6,P-GPS,
12700,2022-08-13 20:09:42,-34.927296807417,-56.1654670966078,3.937008,4.0354332,5.125004429092,9.160437629092,5.577428,0,4.9853676136,10.5793310472,21,5,8.433,9.488521629092,4.265092,4.585727,5.7678151452,0,0,0,251.4, 3.4, -12.8,0,0,1024,364,1024,1024,0,-100,0,0,260,0,0,99,4.218,4.215,0,0,0,0,3.907,73.76,9.160437629092,3.937008,6,P-GPS,
12800,2022-08-13 20:09:42,-34.927297007885,-56.1654670175579,3.937008,4.0354332,5.125004429092,9.160437629092,5.577428,0.447388,5.0084975356,10.6562011284,21,5,8.433,9.488521629092,4.265092,4.585727,5.7678151452,-0.447388,0,0,251.2, 3.5, -18.2,0,0,1024,364,1024,1024,0,-100,0,0,260,0,0,99,4.218,4.215,0,0,0,0,3.907,73.76,9.160437629092,3.937008,6,P-GPS,
12900,2022-08-13 20:09:42,-34.9272974384163,-56.165466858907,3.937008,4.0354332,5.125004429092,9.160437629092,5.577428,1.1408394,5.0643702408,10.8203087452,21,5,8.433,9.488521629092,4.265092,4.585727,5.7678151452,-1.11847,0.223694,0,251.3, 3.5, -18.8,0,0,1024,364,1024,1024,0,-100,0,0,260,0,0,99,4.218,4.215,0,0,0,0,3.907,73.76,9.160437629092,3.937008,6,P-GPS,
13000,2022-08-13 20:09:42,-34.9272980327853,-56.1654665777302,3.937008,4.0354332,5.125004429092,9.160437629092,5.577428,1.8342908,5.1349083008,11.0528874928,21,5,8.433,9.488521629092,4.265092,4.585727,5.7678151452,-1.789552,0.447388,0,251.4, 3.5, -18.8,0,0,1024,1024,1024,1024,0,0,0,0,260,0,0,99,4.218,4.215,0,0,0,0,3.907,73.76,9.160437629092,3.937008,6,P-GPS,
13100,2022-08-13 20:09:42,-34.9272988767981,-56.1654661928973,3.937008,4.0682416,5.092196029092,9.160437629092,5.577428,2.3264176,5.25426526,11.3816604692,21,5,8.433,9.488521629092,4.265092,4.585727,5.7678151452,-2.23694,0.671082,0,252.2, 3.6, -3.5,0,0,1024,1024,1024,1024,0,0,0,0,260,0,0,99,4.218,4.215,0,0,0,0,3.907,73.76,9.160437629092,3.937008,6,P-GPS,
13200,2022-08-13 20:09:42,-34.927299758607,-56.1654656314318,3.937008,4.0682416,5.092196029092,9.160437629092,5.577428,2.3264176,5.3650592268,11.74458699,21,5,8.433,9.488521629092,4.265092,4.585727,5.7678151452,-2.23694,0.671082,0,252.5, 2.8, 7,0,0,1024,1024,1024,1024,0,0,0,0,260,0,0,99,4.218,4.215,0,0,0,0,3.907,73.76,9.160437629092,3.937008,6,P-GPS,
13300,2022-08-13 20:09:42,-34.927300601812,-56.1654652152373,4.265092,4.3963256,5.092196029092,9.488521629092,5.577428,1.8342908,5.5143702552,12.076443956,21,5,8.432,9.488521629092,4.265092,4.585727,5.7678151452,-1.789552,0.447388,0,252.4, 2.7, 8.6,0,0,1024,1024,1024,1024,0,0,0,0,260,0,0,99,4.208,4.202,0,0,0,0,3.951,73.76,9.488521629092,4.265092,6,P-GPS,
13400,2022-08-13 20:09:42,-34.9273012791014,-56.1654648643547,4.265092,4.3963256,5.092196029092,9.488521629092,5.577428,1.6329662,5.642552674,12.3449479016,21,5,8.432,9.488521629092,4.265092,4.585727,5.7678151452,-1.565858,0.447388,0,252.3, 3.1, 7.8,0,0,1024,1024,1024,1024,0,0,0,0,260,0,0,99,4.208,4.202,0,0,0,0,3.951,73.76,9.488521629092,4.265092,6,P-GPS,
13500,2022-08-13 20:09:43,-34.9273018437839,-56.1654645662008,4.265092,4.429134,5.059387629092,9.488521629092,5.577428,1.1408394,5.7558728876,12.5694229744,21,5,8.432,9.488521629092,4.265092,4.585727,5.7678151452,-1.11847,0.223694,0,252.1, 3.4, 6.3,0,0,1024,1024,1024,1024,0,0,0,0,260,0,0,99,4.208,4.202,0,0,0,0,3.951,73.76,9.488521629092,4.265092,6,P-GPS,
13600,2022-08-13 20:09:43,-34.9273024151268,-56.1654638526595,4.265092,4.429134,5.059387629092,9.488521629092,5.577428,0.9171454,5.8101051728,12.867782564,21,5,8.432,9.488521629092,4.265092,4.585727,5.8101051728,-0.894776,0.223694,0,252, 3.5, 4.7,0,0,1024,1024,1024,1024,0,0,0,0,260,0,0,99,4.208,4.202,0,0,0,0,3.951,73.76,9.488521629092,4.265092,6,P-GPS,
13700,2022-08-13 20:09:43,-34.9273027536282,-56.1654635270715,4.265092,4.429134,5.059387629092,9.488521629092,5.577428,0.447388,5.8640749908,13.0250660336,21,5,8.432,9.488521629092,4.265092,4.585727,5.8640749908,-0.447388,0,0,251.9, 3.4, 3.4,0,0,1024,1024,1024,1024,0,0,0,0,260,0,0,99,4.208,4.202,0,0,0,0,3.951,73.76,9.488521629092,4.265092,6,P-GPS,
13800,2022-08-13 20:09:43,-34.9273028448503,-56.1654632196493,4.265092,4.429134,5.059387629092,9.488521629092,5.577428,0.223694,5.8460959876,13.122867874,21,5,8.432,9.488521629092,4.265092,4.585727,5.8640749908,-0.223694,0,0,252, 3.3, 2.1,0,0,1024,1024,1024,1024,0,0,0,0,260,0,0,99,4.208,4.202,0,0,0,0,3.951,73.76,9.488521629092,4.265092,6,P-GPS,
13900,2022-08-13 20:09:43,-34.9273028702052,-56.1654629219473,4.265092,4.429134,5.059387629092,9.488521629092,5.577428,0,5.8101379812,13.2124019976,21,5,8.432,9.488521629092,4.265092,4.585727,5.8640749908,0,0,0,252, 3.1, 1,0,0,1024,1024,1024,568,0,0,0,-69,260,0,0,99,4.208,4.202,0,0,0,0,3.951,73.76,9.488521629092,4.265092,6,P-GPS,
14000,2022-08-13 20:09:43,-34.9273023573561,-56.1654626910253,4.265092,4.429134,5.059387629092,9.488521629092,5.577428,0,5.613189156,13.4118442612,21,5,8.432,9.488521629092,4.265092,4.585727,5.8640749908,0,0,0,251.9, 3, 0.2,0,0,1024,1024,1024,568,0,0,0,-69,260,0,0,99,4.208,4.202,0,0,0,0,3.951,73.76,9.488521629092,4.265092,6,P-GPS,
14100,2022-08-13 20:09:43,-34.9273022596169,-56.1654625708087,4.265092,4.429134,5.059387629092,9.488521629092,5.577428,0,5.564468682,13.4625004308,21,5,8.432,9.488521629092,4.265092,4.585727,5.8640749908,0,0,0,251.8, 2.9, -0.3,0,0,1024,1024,1024,364,0,0,0,-100,259.2,0,0,99,4.208,4.202,0,0,0,0,3.951,73.76,9.488521629092,4.265092,6,P-GPS,
14200,2022-08-13 20:09:43,-34.9273021606791,-56.1654625551168,4.593176,4.757218,5.059387629092,9.816605629092,5.577428,0,5.5307088384,13.4988849464,21,5,8.432,9.816605629092,4.593176,4.585727,5.8640749908,0,0,0,249.9, 2.8, -0.5,0,0,1024,1024,1024,364,0,0,0,-100,255.7,0,0,99,4.208,4.202,0,0,0,0,3.951,73.76,9.816605629092,4.593176,6,P-GPS,
14300,2022-08-13 20:09:43,-34.9273020432944,-56.1654625614437,4.593176,4.757218,5.059387629092,9.816605629092,5.577428,0,5.494422748,13.5417655252,21,5,8.419,9.816605629092,4.593176,4.585727,5.8640749908,0,0,0,245.9, 3.1, -1,0,0,1024,1024,1024,364,0,0,0,-100,251.1,0,0,99,4.214,4.21,0,0,0,0,4.103,73.76,9.816605629092,4.593176,6,P-GPS,
14400,2022-08-13 20:09:43,-34.9273020017398,-56.1654626024302,4.593176,4.757218,5.059387629092,9.816605629092,5.577428,0,5.4874017504,13.5612537148,21,5,8.419,9.816605629092,4.593176,4.585727,5.8640749908,0,0,0,241.3, 3.5, -1.7,0,0,1024,1024,1024,364,0,0,0,-100,246.3,0,0,99,4.214,4.21,0,0,0,0,4.103,73.76,9.816605629092,4.593176,6,P-GPS,
14500,2022-08-13 20:09:44,-34.9273019524272,-56.1654629845529,4.593176,4.757218,5.059387629092,9.816605629092,5.577428,0,5.5299214368,13.6769689416,21,5,8.419,9.816605629092,4.593176,4.585727,5.8640749908,0,0,0,236.6, 3.6, -1.9,0,0,1024,1024,1024,364,0,0,0,-100,241.5,0,0,99,4.214,4.21,0,0,0,0,4.103,73.76,9.816605629092,4.593176,6,P-GPS,
14600,2022-08-13 20:09:44,-34.9273019358106,-56.165463044831,4.593176,4.757218,5.059387629092,9.816605629092,5.577428,0,5.5340552952,13.6959978136,21,5,8.419,9.816605629092,4.593176,4.585727,5.8640749908,0,0,0,231.8, 3.5, -2.5,0,0,1024,1024,1024,364,0,0,0,-100,236.7,0,0,99,4.214,4.21,0,0,0,0,4.103,73.76,9.816605629092,4.593176,6,P-GPS,
14700,2022-08-13 20:09:44,-34.9273019099574,-56.1654631007701,4.593176,4.757218,5.059387629092,9.816605629092,5.577428,0,5.5347114632,13.715223536,21,5,8.419,9.816605629092,4.593176,4.585727,5.8640749908,0,0,0,226.9, 3.6, -2.9,0,0,1024,1024,1024,561,0,0,0,-70,231.9,0,0,99,4.214,4.21,0,0,0,0,4.103,73.76,9.816605629092,4.593176,6,P-GPS,
14800,2022-08-13 20:09:44,-34.9273019222065,-56.1654631665732,4.265092,4.429134,5.059387629092,9.488521629092,5.577428,0,5.5488190752,13.735400702,21,5,8.419,9.816605629092,4.593176,4.585727,5.8640749908,0,0,0,222.1, 3.3, -3.2,0,0,1024,1024,1024,364,0,0,0,-100,227.2,0,0,99,4.214,4.21,0,0,0,0,4.103,73.76,9.488521629092,4.265092,6,P-GPS,
14900,2022-08-13 20:09:44,-34.9273021736969,-56.1654634086234,4.265092,4.429134,5.059387629092,9.488521629092,5.577428,0,5.6649280028,13.8522642228,21,5,8.419,9.816605629092,4.593176,4.585727,5.8640749908,0,0,0,217.9, 3.2, -3.2,0,0,1024,1024,1024,364,0,0,0,-100,223.4,0,0,99,4.214,4.21,0,0,0,0,4.103,73.76,9.488521629092,4.265092,6,P-GPS,
15000,2022-08-13 20:09:44,-34.9273021671766,-56.1654634741339,4.265092,4.429134,5.059387629092,9.488521629092,5.577428,0,5.673228528,13.8720148796,21,5,8.419,9.816605629092,4.593176,4.585727,5.8640749908,0,0,0,213.9, 2.9, -3.2,0,0,1024,1024,1024,364,0,0,0,-100,219.1,0,0,99,4.214,4.21,0,0,0,0,4.103,73.76,9.488521629092,4.265092,6,P-GPS,
15100,2022-08-13 20:09:44,-34.9273021517227,-56.1654635394119,4.265092,4.429134,5.059387629092,9.488521629092,5.577428,0,5.678805956,13.8923560876,21,5,8.419,9.816605629092,4.593176,4.585727,5.8640749908,0,0,0,209.2, 2.7, -3.5,0,0,1024,1024,1024,364,0,0,0,-100,214.3,0,0,99,4.214,4.21,0,0,0,0,4.103,73.76,9.488521629092,4.265092,6,P-GPS,
15200,2022-08-13 20:09:44,-34.9273020817322,-56.1654635915841,4.265092,4.429134,5.059387629092,9.488521629092,5.577428,0,5.6655513624,13.9222773484,21,5,8.419,9.816605629092,4.593176,4.585727,5.8640749908,0,0,0,204.4, 2.3, -3.8,0,0,1024,1024,1024,364,0,0,0,-100,209.5,0,0,99,4.214,4.21,0,0,0,0,4.103,73.76,9.488521629092,4.265092,6,P-GPS,
15300,2022-08-13 20:09:44,-34.9273020050325,-56.1654637537224,4.265092,4.429134,5.059387629092,9.488521629092,5.577428,0,5.6681760344,13.9782484788,21,5,8.422,9.816605629092,4.593176,4.585727,5.8640749908,0,0,0,199.5, 1.9, -3.7,0,0,1024,1024,1024,947,0,0,0,-12,204.8,0,0,99,4.21,4.206,0,0,0,0,3.907,73.76,9.488521629092,4.265092,6,P-GPS,
15400,2022-08-13 20:09:44,-34.9273019575177,-56.1654637896882,4.265092,4.429134,5.059387629092,9.488521629092,5.577428,0,5.6595146168,13.9986553036,21,5,8.422,9.816605629092,4.593176,4.585727,5.8640749908,0,0,0,195.2, 1.3, -3.7,0,0,1024,1024,1024,1024,0,0,0,0,201.5,0,0,99,4.21,4.206,0,0,0,0,3.907,73.76,9.488521629092,4.265092,6,P-GPS,
15500,2022-08-13 20:09:45,-34.9273019057658,-56.1654638214716,4.265092,4.429134,5.059387629092,9.488521629092,5.577428,0,5.648950312,14.0198167216,21,5,8.422,9.816605629092,4.593176,4.585727,5.8640749908,0,0,0,193.3, 1, -3.9,0,0,1024,1024,1024,426,0,0,0,-91,200.7,0,0,99,4.21,4.206,0,0,0,0,3.907,73.76,9.488521629092,4.265092,6,P-GPS,
15600,2022-08-13 20:09:45,-34.9273018299096,-56.1654638074908,4.265092,4.429134,5.059387629092,9.488521629092,5.577428,0,5.623523802,14.0478022868,21,5,8.422,9.816605629092,4.593176,4.585727,5.8640749908,0,0,0,192.6, 0.7, -3.8,0,0,1024,1024,1024,364,0,0,0,-100,199.9,0,0,99,4.21,4.206,0,0,0,0,3.907,73.76,9.488521629092,4.265092,6,P-GPS,
15700,2022-08-13 20:09:45,-34.9273017539003,-56.1654637859187,4.265092,4.429134,5.059387629092,9.488521629092,5.577428,0,5.5968505728,14.076279978,21,5,8.422,9.816605629092,4.593176,4.585727,5.8640749908,0,0,0,190.8, 0.6, -3.6,0,0,1024,1024,1024,385,0,0,0,-97,196.7,0,0,99,4.21,4.206,0,0,0,0,3.907,73.76,9.488521629092,4.265092,6,P-GPS,
15800,2022-08-13 20:09:45,-34.9273016815746,-56.1654638215735,4.265092,4.429134,5.059387629092,9.488521629092,5.577428,0,5.5808072652,14.1047248608,21,5,8.422,9.816605629092,4.593176,4.585727,5.8640749908,0,0,0,186.8, 0.1, -3.7,0,0,1024,1024,1024,1024,0,0,0,0,192.2,0,0,99,4.21,4.206,0,0,0,0,3.907,73.76,9.488521629092,4.265092,6,P-GPS,
15900,2022-08-13 20:09:45,-34.9273016111282,-56.1654638628526,4.265092,4.429134,5.059387629092,9.488521629092,5.577428,0,5.5663715692,14.1332353604,21,5,8.422,9.816605629092,4.593176,4.585727,5.8640749908,0,0,0,182.5, 0, -3.5,0,0,1024,1024,1024,364,0,0,0,-100,188.2,0,0,99,4.21,4.206,0,0,0,0,3.907,73.76,9.488521629092,4.265092,6,P-GPS,
16000,2022-08-13 20:09:45,-34.9273015689221,-56.165463840489,4.265092,4.429134,5.059387629092,9.488521629092,5.577428,0,5.549868944,14.1500332612,21,5,8.422,9.816605629092,4.593176,4.585727,5.8640749908,0,0,0,179.5, 0.2, -3.8,0,0,1024,1024,1024,364,0,0,0,-100,186.4,0,0,99,4.21,4.206,0,0,0,0,3.907,73.76,9.488521629092,4.265092,6,P-GPS,
16100,2022-08-13 20:09:45,-34.9273015255436,-56.165463814732,4.265092,4.429134,5.059387629092,9.488521629092,5.577428,0,5.5324148752,14.167651372,21,5,8.422,9.816605629092,4.593176,4.585727,5.8640749908,0,0,0,178, 0, -3.7,0,0,1024,1024,1024,364,0,0,0,-100,184.7,0,0,99,4.21,4.206,0,0,0,0,3.907,73.76,9.488521629092,4.265092,6,P-GPS,
16200,2022-08-13 20:09:45,-34.9273015204727,-56.1654637807281,4.265092,4.429134,5.059387629092,9.488521629092,5.577428,0,5.5251970272,14.177986018,21,5,8.422,9.816605629092,4.593176,4.585727,5.8640749908,0,0,0,175.2, -0.3, -3.4,0,0,1024,1024,1024,364,0,0,0,-100,180.6,0,0,99,4.21,4.206,0,0,0,0,3.907,73.76,9.488521629092,4.265092,6,P-GPS,
16300,2022-08-13 20:09:45,-34.9273014801589,-56.165463803656,4.265092,4.3963256,5.092196029092,9.488521629092,5.577428,0,5.5168636936,14.1941933676,21,5,8.406,9.816605629092,4.593176,4.585727,5.8640749908,0,0,0,170.9, -0.4, -3.8,0,0,1024,1024,1024,364,0,0,0,-100,175.8,0,0,99,4.206,4.201,0,0,0,0,4.108,73.76,9.488521629092,4.265092,6,P-GPS,
16400,2022-08-13 20:09:45,-34.927301393783,-56.1654638536757,4.265092,4.3963256,5.092196029092,9.488521629092,5.577428,0,5.4992783912,14.2291015052,21,5,8.406,9.816605629092,4.593176,4.585727,5.8640749908,0,0,0,166.3, -0.8, -4,0,0,1024,1024,1024,872,0,0,0,-23,171,0,0,99,4.206,4.201,0,0,0,0,4.108,73.76,9.488521629092,4.265092,6,P-GPS,
16500,2022-08-13 20:09:45,-34.9273012973693,-56.1654639071697,4.265092,4.3963256,5.092196029092,9.488521629092,5.577428,0,5.4794293092,14.2677498004,21,5,8.406,9.816605629092,4.593176,4.585727,5.8640749908,0,0,0,161.7, -1, -3.8,0,0,1024,1024,1024,1024,0,0,0,0,167.4,0,0,99,4.206,4.201,0,0,0,0,4.108,73.76,9.488521629092,4.265092,6,P-GPS,
16600,2022-08-13 20:09:46,-34.927301259837,-56.165463872006,4.265092,4.3963256,5.092196029092,9.488521629092,5.577428,0,5.4622048992,14.2850070188,21,5,8.406,9.816605629092,4.593176,4.585727,5.8640749908,0,0,0,159.1, -1.3, -3.6,0,0,1024,1024,1024,1024,0,0,0,0,166.1,0,0,99,4.206,4.201,0,0,0,0,4.108,73.76,9.488521629092,4.265092,6,P-GPS,
16700,2022-08-13 20:09:46,-34.9273012072447,-56.1654638759244,4.265092,4.3963256,5.092196029092,9.488521629092,5.577428,0,5.4471130352,14.3042327412,21,5,8.406,9.816605629092,4.593176,4.585727,5.8640749908,0,0,0,158.2, -1.8, -3.5,0,0,1024,1024,1024,1024,0,0,0,0,165.6,0,0,99,4.206,4.201,0,0,0,0,4.108,73.76,9.488521629092,4.265092,6,P-GPS,
16800,2022-08-13 20:09:46,-34.9273011365409,-56.1654638976898,4.265092,4.3963256,5.092196029092,9.488521629092,5.577428,0,5.4297573916,14.3308403536,21,5,8.406,9.816605629092,4.593176,4.585727,5.8640749908,0,0,0,157.8, -2.4, -3.5,0,0,1024,1024,1024,1024,0,0,0,0,165.5,0,0,99,4.206,4.201,0,0,0,0,4.108,73.76,9.488521629092,4.265092,6,P-GPS,
16900,2022-08-13 20:09:46,-34.9273010607108,-56.1654639241416,4.265092,4.3963256,5.092196029092,9.488521629092,5.577428,0,5.41174558,14.3596133204,21,5,8.406,9.816605629092,4.593176,4.585727,5.8640749908,0,0,0,157.8, -2.8, -3.4,0,0,1024,1024,1024,1024,0,0,0,0,165.5,0,0,99,4.206,4.201,0,0,0,0,4.108,73.76,9.488521629092,4.265092,6,P-GPS,
17000,2022-08-13 20:09:46,-34.9273010217845,-56.1654640381019,4.265092,4.3963256,5.092196029092,9.488521629092,5.577428,0,5.4200132968,14.3965227704,21,5,8.406,9.816605629092,4.593176,4.585727,5.8640749908,0,0,0,157.8, -3, -3.3,0,0,1024,1024,1024,1024,0,0,0,0,165.5,0,0,99,4.206,4.201,0,0,0,0,4.108,73.76,9.488521629092,4.265092,6,P-GPS,
17100,2022-08-13 20:09:46,-34.9273009589428,-56.1654641163237,4.265092,4.3963256,5.092196029092,9.488521629092,5.577428,0,5.415190462,14.429298362,21,5,8.406,9.816605629092,4.593176,4.585727,5.8640749908,0,0,0,157.8, -3.1, -3.3,0,0,1024,1024,1024,1024,0,0,0,0,165.5,0,0,99,4.206,4.201,0,0,0,0,4.108,73.76,9.488521629092,4.265092,6,P-GPS,
17200,2022-08-13 20:09:46,-34.9273009257161,-56.1654641023663,3.937008,4.0682416,5.092196029092,9.160437629092,5.577428,0,5.4029529288,14.4421264464,21,5,8.406,9.816605629092,4.593176,4.585727,5.8640749908,0,0,0,157.7, -2.7, -3.4,0,0,1024,1024,1024,1024,0,0,0,0,165.5,0,0,99,4.206,4.201,0,0,0,0,4.108,73.76,9.160437629092,3.937008,6,P-GPS,
