time(millisecond),datetime(utc),latitude,longitude,height_above_takeoff(feet),height_above_ground_at_drone_location(feet),ground_elevation_at_drone_location(feet),altitude_above_seaLevel(feet),height_sonar(feet),speed(mph),distance(feet),mileage(feet),satellites,gpslevel,voltage(v),max_altitude(feet),max_ascent(feet),max_speed(mph),max_distance(feet), xSpeed(mph), ySpeed(mph), zSpeed(mph), compass_heading(degrees), pitch(degrees), roll(degrees),isPhoto,isVideo,rc_elevator,rc_aileron,rc_throttle,rc_rudder,rc_elevator(percent),rc_aileron(percent),rc_throttle(percent),rc_rudder(percent),gimbal_heading(degrees),gimbal_pitch(degrees),gimbal_roll(degrees),battery_percent,voltageCell1,voltageCell2,voltageCell3,voltageCell4,voltageCell5,voltageCell6,current(A),battery_temperature(f),altitude(feet),ascent(feet),flycStateRaw,flycState,message
12300,2022-08-13 00:31:07,0,0,0,,,3.28084E-5,0,0,0,0,0,0,0,3.28084E-5,0,0,0,0,0,0,205.6, 3.5, 0.6,0,0,364,364,364,1684,-100,-100,-100,100,205.6,0,0,97,4.301,4.3,0,0,0,0,0,74.3,3.28084E-5,0,41,Motors_Started,"Baja velocidad de la tarjeta SD. Puede afectar a su uso normal. Sustituye la tarjeta SD (Code: 10028). Sin señal GPS. La aeronave no puede hacer vuelo estacionario. Vuela con cuidado (Code: 30008). Baja velocidad de la tarjeta SD. Puede afectar a su "
12400,2022-08-13 00:31:08,0,0,0,,,3.28084E-5,0,0,0,0,0,0,0,3.28084E-5,0,0,0,0,0,0,205.6, 3.5, 0.6,0,0,364,364,364,1684,-100,-100,-100,100,205.6,0,0,97,4.301,4.3,0,0,0,0,0,74.3,3.28084E-5,0,41,Motors_Started,
12500,2022-08-13 00:31:08,0,0,0,,,3.28084E-5,0.328084,0,0,0,0,0,0,3.28084E-5,0,0,0,0,0,0,205.6, 3.5, 0.6,0,0,1024,1024,1024,1024,0,0,0,0,205.6,0,0,97,4.301,4.3,0,0,0,0,0,74.3,3.28084E-5,0,41,Motors_Started,
12600,2022-08-13 00:31:08,0,0,0,,,3.28084E-5,0.328084,0,0,0,0,0,0,3.28084E-5,0,0,0,0,0,0,205.6, 3.5, 0.6,0,0,1024,1024,1024,1024,0,0,0,0,205.6,0,0,97,4.301,4.3,0,0,0,0,0,74.3,3.28084E-5,0,41,Motors_Started,
12700,2022-08-13 00:31:08,0,0,0,,,3.28084E-5,0.328084,0,0,0,0,0,0,3.28084E-5,0,0,0,0,0,0,205.6, 3.5, 0.6,0,0,1024,1024,1024,1024,0,0,0,0,205.6,0,0,97,4.301,4.3,0,0,0,0,0,74.3,3.28084E-5,0,41,Motors_Started,
12800,2022-08-13 00:31:08,0,0,0,,,3.28084E-5,0.328084,0,0,0,0,0,0,3.28084E-5,0,0,0,0,0,0,205.6, 3.5, 0.6,0,0,1024,1024,1024,1024,0,0,0,0,205.6,0,0,97,4.301,4.3,0,0,0,0,0,74.3,3.28084E-5,0,41,Motors_Started,
12900,2022-08-13 00:31:08,0,0,0,,,3.28084E-5,0.328084,0,0,0,0,0,0,3.28084E-5,0,0,0,0,0,0,205.6, 3.5, 0.6,0,0,1024,1024,1024,1024,0,0,0,0,205.6,0,0,97,4.301,4.3,0,0,0,0,0,74.3,3.28084E-5,0,41,Motors_Started,
13000,2022-08-13 00:31:08,0,0,0,,,3.28084E-5,0.328084,0,0,0,0,0,0,3.28084E-5,0,0,0,0,0,0,205.6, 3.5, 0.6,0,0,1024,1024,1024,1024,0,0,0,0,205.6,0,0,97,4.301,4.3,0,0,0,0,0,74.3,3.28084E-5,0,41,Motors_Started,"Vuela con cuidado (sin GPS)"
13100,2022-08-13 00:31:08,0,0,0,,,3.28084E-5,0.328084,0,0,0,0,0,0,3.28084E-5,0,0,0,0,0,0,205.6, 3.5, 0.6,0,0,1024,1024,1024,1024,0,0,0,0,205.6,0,0,97,4.301,4.3,0,0,0,0,0,74.3,3.28084E-5,0,41,Motors_Started,"Setting new Return-To-Home altitude to 40m (131 ft). Data Recorder File Index is 41. Setting new Maximum Flight Altitude to 30m (98 ft)"
13200,2022-08-13 00:31:08,0,0,0,,,3.28084E-5,0.328084,0,0,0,0,0,0,3.28084E-5,0,0,0,0,0,0,205.7, 3.5, 0.6,0,0,1024,1024,1024,1024,0,0,0,0,205.6,0,0,97,4.301,4.3,0,0,0,0,0,74.3,3.28084E-5,0,41,Motors_Started,
13300,2022-08-13 00:31:08,0,0,0,,,3.28084E-5,0.328084,0,0,0,0,0,8.575,3.28084E-5,0,0,0,0,0,0,205.7, 3.5, 0.6,0,0,1024,1024,1024,1024,0,0,0,0,205.6,0,0,97,4.28,4.278,0,0,0,0,0.731,74.3,3.28084E-5,0,41,Motors_Started,
13400,2022-08-13 00:31:09,0,0,0,,,3.28084E-5,0.328084,0,0,0,0,0,8.575,3.28084E-5,0,0,0,0,0,0,205.7, 3.5, 0.6,0,0,1024,1024,1024,1024,0,0,0,0,205.6,0,0,97,4.28,4.278,0,0,0,0,0.731,74.3,3.28084E-5,0,10,Assisted_Takeoff,
13500,2022-08-13 00:31:09,0,0,0,,,3.28084E-5,0.328084,0,0,0,0,0,8.575,3.28084E-5,0,0,0,0,0,0,205.8, 3.5, 0.6,0,0,1024,1024,1024,1024,0,0,0,0,205.6,0,0,97,4.28,4.278,0,0,0,0,0.731,74.3,3.28084E-5,0,10,Assisted_Takeoff,
13600,2022-08-13 00:31:09,0,0,0,,,3.28084E-5,0.328084,0,0,0,0,0,8.575,3.28084E-5,0,0,0,0,0,0,206.1, 3.5, 0.6,0,0,1024,1024,1024,1024,0,0,0,0,205.7,0,0,97,4.28,4.278,0,0,0,0,0.731,74.3,3.28084E-5,0,10,Assisted_Takeoff,
13700,2022-08-13 00:31:09,0,0,0,,,3.28084E-5,0.328084,0,0,0,0,0,8.575,3.28084E-5,0,0,0,0,0,0,206.5, 3.5, 0.6,0,0,1024,1024,1024,1024,0,0,0,0,206.1,0,0,97,4.28,4.278,0,0,0,0,0.731,74.3,3.28084E-5,0,10,Assisted_Takeoff,
13800,2022-08-13 00:31:09,0,0,0,,,3.28084E-5,0.328084,0,0,0,0,0,8.575,3.28084E-5,0,0,0,0,0,0,206.5, 3.5, 0.6,0,0,1024,1024,1024,1024,0,0,0,0,206.3,0,0,97,4.28,4.278,0,0,0,0,0.731,74.3,3.28084E-5,0,10,Assisted_Takeoff,
13900,2022-08-13 00:31:09,0,0,0,,,3.28084E-5,0.328084,0,0,0,0,0,8.575,3.28084E-5,0,0,0,0,0,0,206.5, 3.5, 0.6,0,0,1024,1024,1024,1024,0,0,0,0,206.3,0,0,97,4.28,4.278,0,0,0,0,0.731,74.3,3.28084E-5,0,10,Assisted_Takeoff,
14000,2022-08-13 00:31:09,0,0,0,,,3.28084E-5,0.328084,0,0,0,0,0,8.575,3.28084E-5,0,0,0,0,0,0,206.5, 3.5, 0.6,0,0,1024,1024,1024,1024,0,0,0,0,206.4,0,0,97,4.28,4.278,0,0,0,0,0.731,74.3,3.28084E-5,0,10,Assisted_Takeoff,
14100,2022-08-13 00:31:09,0,0,0,,,3.28084E-5,0.328084,0,0,0,0,0,8.575,3.28084E-5,0,0,0,0,0,0,206.5, 3.5, 0.6,0,0,1024,1024,1024,1024,0,0,0,0,206.4,0,0,97,4.28,4.278,0,0,0,0,0.731,74.3,3.28084E-5,0,10,Assisted_Takeoff,
14200,2022-08-13 00:31:09,0,0,0,,,3.28084E-5,0.328084,0,0,0,0,0,8.575,3.28084E-5,0,0,0,0,0,0,206.5, 3.5, 0.6,0,0,1024,1024,1024,1024,0,0,0,0,206.4,0,0,97,4.28,4.278,0,0,0,0,0.731,74.3,3.28084E-5,0,10,Assisted_Takeoff,
14300,2022-08-13 00:31:09,0,0,0,,,3.28084E-5,0.328084,0,0,0,0,0,8.55,3.28084E-5,0,0,0,0,0,0,206.6, 3.4, 0.6,0,0,1024,1024,1024,1024,0,0,0,0,206.4,0,0,97,4.281,4.281,0,0,0,0,1.426,74.48,3.28084E-5,0,10,Assisted_Takeoff,
14400,2022-08-13 00:31:10,0,0,0,,,3.28084E-5,0.328084,0,0,0,0,0,8.55,3.28084E-5,0,0,0,0,0,0,206.5, 3.5, 0.6,0,0,1024,1024,1024,1024,0,0,0,0,206.4,0,0,97,4.281,4.281,0,0,0,0,1.426,74.48,3.28084E-5,0,10,Assisted_Takeoff,
14500,2022-08-13 00:31:10,0,0,0,,,3.28084E-5,0.328084,0,0,0,0,0,8.55,3.28084E-5,0,0,0,0,0,0,206.5, 3.5, 0.6,0,0,1024,1024,1024,1024,0,0,0,0,206.4,0,0,97,4.281,4.281,0,0,0,0,1.426,74.48,3.28084E-5,0,10,Assisted_Takeoff,
14600,2022-08-13 00:31:10,0,0,0,,,3.28084E-5,0.328084,0,0,0,0,0,8.55,3.28084E-5,0,0,0,0,0,0,206.5, 3.5, 0.6,0,0,1024,1024,1024,1024,0,0,0,0,206.4,0,0,97,4.281,4.281,0,0,0,0,1.426,74.48,3.28084E-5,0,10,Assisted_Takeoff,
14700,2022-08-13 00:31:10,0,0,0,,,3.28084E-5,0.328084,0,0,0,0,0,8.55,3.28084E-5,0,0,0,0,0,0,206.5, 3.5, 0.6,0,0,1024,1024,1024,1024,0,0,0,0,206.4,0,0,97,4.281,4.281,0,0,0,0,1.426,74.48,3.28084E-5,0,10,Assisted_Takeoff,
14800,2022-08-13 00:31:10,0,0,0,,,3.28084E-5,0.328084,0,0,0,0,0,8.55,3.28084E-5,0,0,0,0,0,0,206.6, 3.5, 0.6,0,0,1024,1024,1024,1024,0,0,0,0,206.4,0,0,97,4.281,4.281,0,0,0,0,1.426,74.48,3.28084E-5,0,10,Assisted_Takeoff,
14900,2022-08-13 00:31:10,0,0,0,,,3.28084E-5,0.328084,0,0,0,0,0,8.55,3.28084E-5,0,0,0,0,0,0,206.5, 3.5, 0.6,0,0,1024,1024,1024,1024,0,0,0,0,206.4,0,0,97,4.281,4.281,0,0,0,0,1.426,74.48,3.28084E-5,0,10,Assisted_Takeoff,
15000,2022-08-13 00:31:10,0,0,0,,,3.28084E-5,0.328084,0,0,0,0,0,8.55,3.28084E-5,0,0,0,0,0,0,206.5, 3.5, 0.6,0,0,1024,1024,1024,1024,0,0,0,0,206.4,0,0,97,4.281,4.281,0,0,0,0,1.426,74.48,3.28084E-5,0,10,Assisted_Takeoff,
15100,2022-08-13 00:31:10,0,0,0,,,3.28084E-5,0.328084,0,0,0,0,0,8.55,3.28084E-5,0,0,0,0,0,0,206.5, 3.5, 0.6,0,0,1024,1024,1024,1024,0,0,0,0,206.4,0,0,97,4.281,4.281,0,0,0,0,1.426,74.48,3.28084E-5,0,10,Assisted_Takeoff,
15200,2022-08-13 00:31:10,0,0,0,,,3.28084E-5,0.328084,0,0,0,0,0,8.55,3.28084E-5,0,0,0,0,0,0,206.5, 3.5, 0.5,0,0,1024,1024,1024,1024,0,0,0,0,206.4,0,0,97,4.281,4.281,0,0,0,0,1.426,74.48,3.28084E-5,0,10,Assisted_Takeoff,
15300,2022-08-13 00:31:10,0,0,0,,,3.28084E-5,0.328084,0,0,0,0,0,8.569,3.28084E-5,0,0,0,0,0,0,206.5, 3.5, 0.5,0,0,1024,1024,1024,1024,0,0,0,0,206.4,0,0,97,4.284,4.284,0,0,0,0,1.077,74.48,3.28084E-5,0,10,Assisted_Takeoff,
15400,2022-08-13 00:31:11,0,0,0,,,3.28084E-5,0.328084,0,0,0,0,0,8.569,3.28084E-5,0,0,0,0,0,0,206.6, 3.5, 0.6,0,0,1024,1024,1024,1024,0,0,0,0,206.4,0,0,97,4.284,4.284,0,0,0,0,1.077,74.48,3.28084E-5,0,10,Assisted_Takeoff,
15500,2022-08-13 00:31:11,0,0,0,,,3.28084E-5,0.328084,0,0,0,0,0,8.569,3.28084E-5,0,0,0,0,0,0,206.5, 3.5, 0.6,0,0,1024,1024,1024,1024,0,0,0,0,206.4,0,0,97,4.284,4.284,0,0,0,0,1.077,74.48,3.28084E-5,0,10,Assisted_Takeoff,
15600,2022-08-13 00:31:11,0,0,0,,,3.28084E-5,0.328084,0,0,0,0,0,8.569,3.28084E-5,0,0,0,0,0,0,206.5, 3.4, 0.5,0,0,1024,1024,1024,1024,0,0,0,0,206.4,0,0,97,4.284,4.284,0,0,0,0,1.077,74.48,3.28084E-5,0,10,Assisted_Takeoff,
15700,2022-08-13 00:31:11,0,0,0,,,3.28084E-5,0.328084,0,0,0,0,0,8.569,3.28084E-5,0,0,0,0,0,0,206.5, 3.5, 0.5,0,0,1024,1024,1024,1024,0,0,0,0,206.4,0,0,97,4.284,4.284,0,0,0,0,1.077,74.48,3.28084E-5,0,10,Assisted_Takeoff,
15800,2022-08-13 00:31:11,0,0,0,,,3.28084E-5,0.328084,0,0,0,0,0,8.569,3.28084E-5,0,0,0,0,0,0,206.5, 3.5, 0.5,0,0,1024,1024,1024,1024,0,0,0,0,206.4,0,0,97,4.284,4.284,0,0,0,0,1.077,74.48,3.28084E-5,0,10,Assisted_Takeoff,
15900,2022-08-13 00:31:11,0,0,0,,,3.28084E-5,0.328084,0,0,0,0,0,8.569,3.28084E-5,0,0,0,0,0,0,206.5, 3.5, 0.5,0,0,1024,1024,1024,1024,0,0,0,0,206.4,0,0,97,4.284,4.284,0,0,0,0,1.077,74.48,3.28084E-5,0,10,Assisted_Takeoff,
16000,2022-08-13 00:31:11,0,0,0,,,3.28084E-5,0.328084,0,0,0,0,0,8.569,3.28084E-5,0,0,0,0,0,0,206.5, 3.5, 0.6,0,0,1024,1024,1024,1024,0,0,0,0,206.5,0,0,97,4.284,4.284,0,0,0,0,1.077,74.48,3.28084E-5,0,10,Assisted_Takeoff,
16100,2022-08-13 00:31:11,0,0,0,,,3.28084E-5,0.328084,0,0,0,0,0,8.569,3.28084E-5,0,0,0,0,0,0,206.5, 3.4, 0.6,0,0,1024,1024,1024,1024,0,0,0,0,206.5,0,0,97,4.284,4.284,0,0,0,0,1.077,74.48,3.28084E-5,0,10,Assisted_Takeoff,
16200,2022-08-13 00:31:11,0,0,0,,,3.28084E-5,0.328084,0,0,0,0,0,8.569,3.28084E-5,0,0,0,0,0,0,206.5, 3.4, 0.6,0,0,1024,1024,1024,1024,0,0,0,0,206.5,0,0,97,4.284,4.284,0,0,0,0,1.077,74.48,3.28084E-5,0,10,Assisted_Takeoff,
16300,2022-08-13 00:31:11,0,0,0,,,3.28084E-5,0.328084,0,0,0,0,0,8.569,3.28084E-5,0,0,0,0,0,0,206.5, 3.5, 0.5,0,0,1024,1024,1024,1024,0,0,0,0,206.5,0,0,97,4.284,4.284,0,0,0,0,1.077,74.48,3.28084E-5,0,10,Assisted_Takeoff,
16400,2022-08-13 00:31:11,0,0,0,,,3.28084E-5,0.328084,0,0,0,0,0,8.569,3.28084E-5,0,0,0,0,0,0,206.5, 3.5, 0.5,0,0,1024,1024,1024,1024,0,0,0,0,206.5,0,0,97,4.284,4.284,0,0,0,0,1.077,74.48,3.28084E-5,0,10,Assisted_Takeoff,
16500,2022-08-13 00:31:12,0,0,0,,,3.28084E-5,0.328084,0,0,0,0,0,8.569,3.28084E-5,0,0,0,0,0,0,206.5, 3.5, 0.5,0,0,1024,1024,1024,1024,0,0,0,0,206.5,0,0,97,4.284,4.284,0,0,0,0,1.077,74.48,3.28084E-5,0,10,Assisted_Takeoff,
16600,2022-08-13 00:31:12,0,0,0,,,3.28084E-5,0.328084,0,0,0,0,0,8.569,3.28084E-5,0,0,0,0,0,0,206.5, 3.5, 0.6,0,0,1024,1024,1024,1024,0,0,0,0,206.5,0,0,97,4.284,4.284,0,0,0,0,1.077,74.48,3.28084E-5,0,10,Assisted_Takeoff,
16700,2022-08-13 00:31:12,0,0,0,,,3.28084E-5,0.328084,0,0,0,0,0,8.569,3.28084E-5,0,0,0,0,0,0,206.5, 3.4, 0.6,0,0,1024,1024,1024,1024,0,0,0,0,206.5,0,0,97,4.284,4.284,0,0,0,0,1.077,74.48,3.28084E-5,0,10,Assisted_Takeoff,
16800,2022-08-13 00:31:12,0,0,0,,,3.28084E-5,0.328084,0,0,0,0,0,8.569,3.28084E-5,0,0,0,0,0,0,206.5, 3.4, 0.6,0,0,1024,1024,1024,1024,0,0,0,0,206.5,0,0,97,4.284,4.284,0,0,0,0,1.077,74.48,3.28084E-5,0,10,Assisted_Takeoff,
16900,2022-08-13 00:31:12,0,0,0,,,3.28084E-5,0.328084,0,0,0,0,0,8.569,3.28084E-5,0,0,0,0,0,0,206.5, 3.5, 0.5,0,0,1024,1024,1024,1024,0,0,0,0,206.5,0,0,97,4.284,4.284,0,0,0,0,1.077,74.48,3.28084E-5,0,10,Assisted_Takeoff,
17000,2022-08-13 00:31:12,0,0,0,,,3.28084E-5,0.328084,0,0,0,0,0,8.569,3.28084E-5,0,0,0,0,0,0,206.5, 3.5, 0.5,0,0,1024,1024,1137,1024,0,0,17,0,206.5,0,0,97,4.284,4.284,0,0,0,0,1.077,74.48,3.28084E-5,0,10,Assisted_Takeoff,
17100,2022-08-13 00:31:12,0,0,0,,,3.28084E-5,0.328084,0,0,0,0,0,8.568,3.28084E-5,0,0,0,0,0,0,206.5, 3.5, 0.5,0,0,1024,1024,1561,1024,0,0,81,0,206.5,0,0,97,4.285,4.284,0,0,0,0,1.059,74.48,3.28084E-5,0,10,Assisted_Takeoff,
17200,2022-08-13 00:31:12,0,0,0,,,3.28084E-5,0.328084,0,0,0,0,0,8.568,3.28084E-5,0,0,0,0,0,0,206.4, 3.4, 0.5,0,0,1024,1024,1543,1024,0,0,79,0,206.5,0,0,97,4.285,4.284,0,0,0,0,1.059,74.48,3.28084E-5,0,10,Assisted_Takeoff,
17300,2022-08-13 00:31:12,0,0,0,,,3.28084E-5,0.328084,0,0,0,0,0,8.568,3.28084E-5,0,0,0,0,0,0,206.5, 3.5, 0.5,0,0,1024,1024,1024,1024,0,0,0,0,206.4,0,0,97,4.285,4.284,0,0,0,0,1.059,74.48,3.28084E-5,0,10,Assisted_Takeoff,
17400,2022-08-13 00:31:13,0,0,0,,,3.28084E-5,0.328084,0,0,0,0,0,8.568,3.28084E-5,0,0,0,0,0,0,206.4, 3.4, 0.5,0,0,1024,1024,1024,1024,0,0,0,0,206.4,0,0,97,4.285,4.284,0,0,0,0,1.059,74.48,3.28084E-5,0,10,Assisted_Takeoff,
17500,2022-08-13 00:31:13,0,0,0,,,3.28084E-5,0.328084,0,0,0,0,0,8.568,3.28084E-5,0,0,0,0,0,0,206.5, 3.4, 0.5,0,0,1024,1024,1024,1024,0,0,0,0,206.5,0,0,97,4.285,4.284,0,0,0,0,1.059,74.48,3.28084E-5,0,10,Assisted_Takeoff,
17600,2022-08-13 00:31:13,0,0,0,,,3.28084E-5,0.328084,0,0,0,0,0,8.568,3.28084E-5,0,0,0,0,0,0,206.4, 3.4, 0.5,0,0,1024,1024,1043,1024,0,0,3,0,206.5,0,0,97,4.285,4.284,0,0,0,0,1.059,74.48,3.28084E-5,0,10,Assisted_Takeoff,
17700,2022-08-13 00:31:13,0,0,0,,,3.28084E-5,0.328084,0,0,0,0,0,8.568,3.28084E-5,0,0,0,0,0,0,206.5, 3.4, 0.5,0,0,1024,1024,1316,1024,0,0,44,0,206.5,0,0,97,4.285,4.284,0,0,0,0,1.059,74.48,3.28084E-5,0,10,Assisted_Takeoff,
17800,2022-08-13 00:31:13,0,0,0,,,3.28084E-5,0.328084,0,0,0,0,0,8.568,3.28084E-5,0,0,0,0,0,0,206.5, 3.4, 0.5,0,0,1024,1024,1504,1024,0,0,73,0,206.5,0,0,97,4.285,4.284,0,0,0,0,1.059,74.48,3.28084E-5,0,10,Assisted_Takeoff,
17900,2022-08-13 00:31:13,0,0,0,,,3.28084E-5,0.328084,0,0,0,0,0,8.568,3.28084E-5,0,0,0,0,0,0,206.5, 3.4, 0.5,0,0,1024,1024,1024,1024,0,0,0,0,206.4,0,0,97,4.285,4.284,0,0,0,0,1.059,74.48,3.28084E-5,0,10,Assisted_Takeoff,
18000,2022-08-13 00:31:13,0,0,0,,,3.28084E-5,0.328084,0,0,0,0,0,8.568,3.28084E-5,0,0,0,0,0,0,206.9, 3, 0.4,0,0,1024,1024,1024,1024,0,0,0,0,206.5,0,0,97,4.285,4.284,0,0,0,0,1.059,74.48,3.28084E-5,0,10,Assisted_Takeoff,
18100,2022-08-13 00:31:13,0,0,0,,,3.28084E-5,0.328084,0,0,0,0,0,8.511,3.28084E-5,0,0,0,0,0,0,207.5, 0.1, 0.3,0,0,1024,1024,1024,1024,0,0,0,0,206.5,0,0,97,4.267,4.265,0,0,0,0,1.456,74.48,3.28084E-5,0,10,Assisted_Takeoff,
18200,2022-08-13 00:31:13,0,0,0,,,3.28084E-5,0.328084,0,0,0,0,0,8.511,3.28084E-5,0,0,0,0,0,0,208, 0.9, 0.4,0,0,1024,1024,1028,1024,0,0,1,0,206.5,0,0,97,4.267,4.265,0,0,0,0,1.456,74.48,3.28084E-5,0,10,Assisted_Takeoff,
18300,2022-08-13 00:31:13,0,0,0,,,3.28084E-5,0.328084,0,0,0,0,0,8.511,3.28084E-5,0,0,0,0,0,0,208.3, 2.8, 0.4,0,0,1024,1024,1299,1024,0,0,42,0,206.6,0,0,97,4.267,4.265,0,0,0,0,1.456,74.48,3.28084E-5,0,10,Assisted_Takeoff,
18400,2022-08-13 00:31:14,0,0,0,,,3.28084E-5,0.328084,0,0,0,0,0,8.511,3.28084E-5,0,0,0,0,0,0,208, 3.3, 0.4,0,0,1024,1024,1299,1024,0,0,42,0,206.7,0,0,97,4.267,4.265,0,0,0,0,1.456,74.48,3.28084E-5,0,6,P-GPS,"Baja velocidad de la tarjeta SD. Puede afectar a su uso normal. Sustituye la tarjeta SD (Code: 10028). Señal débil del GPS. Vuelo estacionario inestable. Vuela con cuidado (Code: 30002)"
18500,2022-08-13 00:31:14,0,0,0,,,3.28084E-5,0.328084,0,0,0,0,0,8.511,3.28084E-5,0,0,0,0,0,0,208.1, 2.9, 0.5,0,0,1024,1024,1647,1024,0,0,94,0,206.7,0,0,97,4.267,4.265,0,0,0,0,1.456,74.48,3.28084E-5,0,6,P-GPS,
18600,2022-08-13 00:31:14,0,0,0,,,3.28084E-5,0.328084,0,0,0,0,0,8.511,3.28084E-5,0,0,0,0,0,0,208.2, 0.5, 0.5,0,0,1024,1024,1178,1024,0,0,23,0,206.8,0,0,97,4.267,4.265,0,0,0,0,1.456,74.48,3.28084E-5,0,6,P-GPS,
18700,2022-08-13 00:31:14,0,0,0,,,3.28084E-5,0.328084,0,0,0,0,0,8.511,3.28084E-5,0,0,0,0,0,0,208.5, -1.2, 0.7,0,0,1024,1024,1024,1024,0,0,0,0,206.8,0,0,97,4.267,4.265,0,0,0,0,1.456,74.48,3.28084E-5,0,6,P-GPS,
18800,2022-08-13 00:31:14,0,0,0,,,3.28084E-5,0.328084,0,0,0,0,0,8.511,3.28084E-5,0,0,0,0,0,0,208.5, -0.9, 0.4,0,0,1024,1024,1024,1024,0,0,0,0,206.9,0,0,97,4.267,4.265,0,0,0,0,1.456,74.48,3.28084E-5,0,6,P-GPS,
18900,2022-08-13 00:31:14,0,0,0,,,3.28084E-5,0.328084,0,0,0,0,0,8.511,3.28084E-5,0,0,0,0,0,-0.223694,208.4, -0.2, 0.3,0,0,1024,1024,1024,1024,0,0,0,0,207,0,0,97,4.267,4.265,0,0,0,0,1.456,74.48,3.28084E-5,0,6,P-GPS,
19000,2022-08-13 00:31:14,0,0,0,,,3.28084E-5,0.328084,0,0,0,0,0,8.511,3.28084E-5,0,0,0,0,0,-0.447388,208.4, 0.3, 0.1,0,0,1024,1024,1024,1024,0,0,0,0,207,0,0,97,4.267,4.265,0,0,0,0,1.456,74.48,3.28084E-5,0,6,P-GPS,
19100,2022-08-13 00:31:14,0,0,0,,,3.28084E-5,0.328084,0,0,0,0,0,8.511,3.28084E-5,0,0,0,0,0,-0.671082,208.4, 0.6, 0.2,0,0,1024,1024,1024,1024,0,0,0,0,207.1,0,0,97,4.234,4.225,0,0,0,0,2.353,74.48,3.28084E-5,0,6,P-GPS,
19200,2022-08-13 00:31:14,0,0,0,,,3.28084E-5,0.656168,0,0,0,0,0,8.511,3.28084E-5,0,0,0,0,0,-0.671082,208.6, 0.3, 0,0,0,1024,1024,1024,1024,0,0,0,0,207.1,0,0,97,4.234,4.225,0,0,0,0,2.353,74.48,3.28084E-5,0,6,P-GPS,
19300,2022-08-13 00:31:14,0,0,0,,,3.28084E-5,0.656168,0,0,0,0,0,8.511,3.28084E-5,0,0,0,0,0,-0.894776,208.6, 0.4, 0.1,0,0,1024,1024,1024,1024,0,0,0,0,207.2,0,0,97,4.234,4.225,0,0,0,0,2.353,74.48,3.28084E-5,0,6,P-GPS,
19400,2022-08-13 00:31:15,0,0,0.328084,,,0.3281168084,0.656168,0,0,0,0,0,8.511,0.3281168084,0.328084,0,0,0,0,-0.894776,208.6, 0.5, 0.1,0,0,1024,1024,1024,1024,0,0,0,0,207.2,0,0,97,4.234,4.225,0,0,0,0,2.353,74.48,0.3281168084,0.328084,6,P-GPS,
19500,2022-08-13 00:31:15,0,0,0.328084,,,0.3281168084,0.984252,0,0,0,0,0,8.511,0.3281168084,0.328084,0,0,0,0,-0.894776,208.5, 0.4, 0.1,0,0,1024,1024,1024,1024,0,0,0,0,207.3,0,0,97,4.234,4.225,0,0,0,0,2.353,74.48,0.3281168084,0.328084,6,P-GPS,
19600,2022-08-13 00:31:15,0,0,0.656168,,,0.6562008084,0.984252,0,0,0,0,0,8.511,0.6562008084,0.656168,0,0,0,0,-0.894776,208.5, 0.3, 0,0,0,1024,1024,1024,1024,0,0,0,0,207.3,0,0,97,4.234,4.225,0,0,0,0,2.353,74.48,0.6562008084,0.656168,6,P-GPS,
19700,2022-08-13 00:31:15,0,0,0.656168,,,0.6562008084,1.312336,0,0,0,0,0,8.511,0.6562008084,0.656168,0,0,0,0,-0.894776,208.4, 0.2, 0.1,0,0,1024,1024,1024,1024,0,0,0,0,207.4,0,0,97,4.234,4.225,0,0,0,0,2.353,74.48,0.6562008084,0.656168,6,P-GPS,
19800,2022-08-13 00:31:15,0,0,0.984252,,,0.9842848084,1.312336,0,0,0,0,0,8.511,0.9842848084,0.984252,0,0,0,0,-0.671082,208.4, 0, 0.1,0,0,1024,1024,1024,1024,0,0,0,0,207.4,0,0,97,4.234,4.225,0,0,0,0,2.353,74.48,0.9842848084,0.984252,6,P-GPS,
19900,2022-08-13 00:31:15,0,0,0.984252,,,0.9842848084,1.312336,0,0,0,0,0,8.511,0.9842848084,0.984252,0,0,0,0,-0.671082,208.4, 0, 0,0,0,1024,1024,1024,1024,0,0,0,0,207.4,0,0,97,4.234,4.225,0,0,0,0,2.353,74.48,0.9842848084,0.984252,1,Atti,"Vuela con cuidado (modo Atti) Señal del GPS demasiado débil. Se ha pasado al modo Atti. La aeronave no puede hacer vuelo estacionario. Vuela con precaución (Code: 30022). Baja velocidad de la tarjeta SD. Puede afectar a su uso normal. Sustituye la tarjeta SD (Code: 10028). Señal "
20000,2022-08-13 00:31:15,0,0,1.312336,,,1.3123688084,1.64042,0,0,0,0,0,8.511,1.3123688084,1.312336,0,0,0,0,-0.447388,208.2, 0, 0,0,0,1024,1024,1024,1024,0,0,0,0,207.4,0,0,97,4.234,4.225,0,0,0,0,2.353,74.48,1.3123688084,1.312336,6,P-GPS,"La brújula no funciona bien el GPS no tiene buena señal. Cambia a modo Atti (Code: 30020). Aeronave en modo Atti. No se puede hacer vuelo estacionario. Vuela con cuidado (Code: 30004). Baja velocidad de la tarjeta SD. Puede afectar a su uso normal. S"
20100,2022-08-13 00:31:15,0,0,1.312336,,,1.3123688084,1.64042,0,0,0,0,0,8.379,1.3123688084,1.312336,0,0,0,0,-0.223694,207.7, 0, -0.1,0,0,1024,1024,1024,1024,0,0,0,0,207.4,0,0,97,4.199,4.195,0,0,0,0,4.003,74.48,1.3123688084,1.312336,6,P-GPS,
20200,2022-08-13 00:31:15,0,0,1.312336,,,1.3123688084,1.64042,0,0,0,0,0,8.379,1.3123688084,1.312336,0,0,0,0,0,207.5, 0, -0.1,0,0,1024,1024,1024,1024,0,0,0,0,207.4,0,0,97,4.199,4.195,0,0,0,0,4.003,74.48,1.3123688084,1.312336,6,P-GPS,
20300,2022-08-13 00:31:15,0,0,1.312336,,,1.3123688084,1.64042,0,0,0,0,0,8.379,1.3123688084,1.312336,0,0,0,0,0,207.5, 0, -0.2,0,0,1024,1024,1024,1024,0,0,0,0,207.4,0,0,97,4.199,4.195,0,0,0,0,4.003,74.48,1.3123688084,1.312336,6,P-GPS,
20400,2022-08-13 00:31:16,0,0,1.312336,,,1.3123688084,1.64042,0,0,0,0,0,8.379,1.3123688084,1.312336,0,0,0,0,0,207.5, 0.1, -0.2,0,0,1024,1024,1024,1024,0,0,0,0,207.4,0,0,97,4.199,4.195,0,0,0,0,4.003,74.48,1.3123688084,1.312336,6,P-GPS,
20500,2022-08-13 00:31:16,0,0,1.64042,,,1.6404528084,1.64042,0,0,0,0,0,8.379,1.6404528084,1.64042,0,0,0,0,0,207.5, 0.1, -0.3,0,0,1024,1024,1024,1024,0,0,0,0,207.4,0,0,97,4.199,4.195,0,0,0,0,4.003,74.48,1.6404528084,1.64042,6,P-GPS,
20600,2022-08-13 00:31:16,0,0,1.64042,,,1.6404528084,1.64042,0,0,0,0,0,8.379,1.6404528084,1.64042,0,0,0,0,0,207.4, 0.2, -0.1,0,0,1024,1024,1024,1024,0,0,0,0,207.4,0,0,97,4.199,4.195,0,0,0,0,4.003,74.48,1.6404528084,1.64042,6,P-GPS,
20700,2022-08-13 00:31:16,0,0,1.64042,,,1.6404528084,1.64042,0,0,0,0,0,8.379,1.6404528084,1.64042,0,0,0,0,0,207.4, 0.3, -0.1,0,0,1024,1024,1024,1024,0,0,0,0,207.4,0,0,97,4.199,4.195,0,0,0,0,4.003,74.48,1.6404528084,1.64042,6,P-GPS,
20800,2022-08-13 00:31:16,0,0,1.64042,,,1.6404528084,1.64042,0,0,0,0,0,8.379,1.6404528084,1.64042,0,0,0,0,0,207.4, 0.4, 0,0,0,1024,1024,1024,1024,0,0,0,0,207.4,0,0,97,4.199,4.195,0,0,0,0,4.003,74.48,1.6404528084,1.64042,6,P-GPS,
20900,2022-08-13 00:31:16,0,0,1.64042,,,1.6404528084,1.64042,0,0,0,0,0,8.379,1.6404528084,1.64042,0,0,0,0,0,207.4, 0.4, 0,0,0,1024,1024,1024,1024,0,0,0,0,207.4,0,0,97,4.199,4.195,0,0,0,0,4.003,74.48,1.6404528084,1.64042,6,P-GPS,
21000,2022-08-13 00:31:16,0,0,1.64042,,,1.6404528084,1.64042,0,0,0,0,0,8.379,1.6404528084,1.64042,0,0,0,0,0,207.4, 0.4, 0,0,0,1024,1024,1024,1024,0,0,0,0,207.4,0,0,97,4.199,4.195,0,0,0,0,4.003,74.48,1.6404528084,1.64042,6,P-GPS,
21100,2022-08-13 00:31:16,0,0,1.64042,,,1.6404528084,1.64042,0,0,0,0,0,8.388,1.6404528084,1.64042,0,0,0,0,0,207.4, 0.4, 0,0,0,1024,1024,1024,1024,0,0,0,0,207.4,0,0,96,4.195,4.189,0,0,0,0,3.878,74.48,1.6404528084,1.64042,6,P-GPS,
21200,2022-08-13 00:31:16,0,0,1.64042,,,1.6404528084,1.64042,0,0,0,0,0,8.388,1.6404528084,1.64042,0,0,0,0,0,207.3, 0.4, 0,0,0,1024,1024,1024,1024,0,0,0,0,207.4,0,0,96,4.195,4.189,0,0,0,0,3.878,74.48,1.6404528084,1.64042,6,P-GPS,
21300,2022-08-13 00:31:16,0,0,1.64042,,,1.6404528084,1.64042,0,0,0,0,0,8.388,1.6404528084,1.64042,0,0,0,0,0,207.3, 0.4, 0,0,0,1024,1024,1024,1024,0,0,0,0,207.4,0,0,96,4.195,4.189,0,0,0,0,3.878,74.48,1.6404528084,1.64042,6,P-GPS,
21400,2022-08-13 00:31:17,0,0,1.64042,,,1.6404528084,1.64042,0,0,0,0,0,8.388,1.6404528084,1.64042,0,0,0,0,0,207.3, 0.4, 0,0,0,1024,1024,1024,1024,0,0,0,0,207.4,0,0,96,4.195,4.189,0,0,0,0,3.878,74.48,1.6404528084,1.64042,6,P-GPS,
21500,2022-08-13 00:31:17,0,0,1.64042,,,1.6404528084,1.64042,0,0,0,0,0,8.388,1.6404528084,1.64042,0,0,0,0,0,207.3, 0.5, 0,0,0,1024,1024,1024,1024,0,0,0,0,207.4,0,0,96,4.195,4.189,0,0,0,0,3.878,74.48,1.6404528084,1.64042,6,P-GPS,
21600,2022-08-13 00:31:17,0,0,1.64042,,,1.6404528084,1.64042,0,0,0,0,0,8.388,1.6404528084,1.64042,0,0,0,0,0,207.3, 0.6, 0,0,0,1024,1024,1024,1024,0,0,0,0,207.4,0,0,96,4.195,4.189,0,0,0,0,3.878,74.48,1.6404528084,1.64042,6,P-GPS,
21700,2022-08-13 00:31:17,0,0,1.64042,,,1.6404528084,1.64042,0,0,0,0,0,8.388,1.6404528084,1.64042,0,0,0,0,0,207.3, 0.5, 0,0,0,1024,1024,1024,1024,0,0,0,0,207.4,0,0,96,4.195,4.189,0,0,0,0,3.878,74.48,1.6404528084,1.64042,6,P-GPS,
21800,2022-08-13 00:31:17,0,0,1.64042,,,1.6404528084,1.64042,0,0,0,0,0,8.388,1.6404528084,1.64042,0,0,0,0,0,207.3, 0.5, 0,0,0,1024,1024,1024,1024,0,0,0,0,207.4,0,0,96,4.195,4.189,0,0,0,0,3.878,74.48,1.6404528084,1.64042,6,P-GPS,
21900,2022-08-13 00:31:17,0,0,1.64042,,,1.6404528084,1.64042,0,0,0,0,0,8.388,1.6404528084,1.64042,0,0,0,0,0,207.3, 0.5, 0,0,0,1024,1024,1025,1024,0,0,0,0,207.4,0,0,96,4.195,4.189,0,0,0,0,3.878,74.48,1.6404528084,1.64042,6,P-GPS,
22000,2022-08-13 00:31:17,0,0,1.64042,,,1.6404528084,1.64042,0,0,0,0,0,8.388,1.6404528084,1.64042,0,0,0,0,0,207.3, 0.5, 0,0,0,1024,1024,1071,1024,0,0,7,0,207.4,0,0,96,4.195,4.189,0,0,0,0,3.878,74.48,1.6404528084,1.64042,6,P-GPS,
22100,2022-08-13 00:31:17,0,0,1.64042,,,1.6404528084,1.64042,0,0,0,0,0,8.388,1.6404528084,1.64042,0,0,0,0,0,207.3, 0.5, 0,0,0,1024,1024,1045,1024,0,0,3,0,207.4,0,0,96,4.195,4.189,0,0,0,0,3.878,74.48,1.6404528084,1.64042,6,P-GPS,
22200,2022-08-13 00:31:17,0,0,1.64042,,,1.6404528084,1.64042,0,0,0,0,0,8.377,1.6404528084,1.64042,0,0,0,0,0,207.3, 0.5, 0,0,0,1024,1024,1084,1024,0,0,9,0,207.4,0,0,96,4.191,4.185,0,0,0,0,4.035,74.66,1.6404528084,1.64042,6,P-GPS,
22300,2022-08-13 00:31:17,0,0,1.64042,,,1.6404528084,1.64042,0,0,0,0,0,8.377,1.6404528084,1.64042,0,0,0,0,0,207.3, 0.6, -0.1,0,0,1024,1024,1168,1024,0,0,22,0,207.4,0,0,96,4.191,4.185,0,0,0,0,4.035,74.66,1.6404528084,1.64042,6,P-GPS,
22400,2022-08-13 00:31:17,0,0,1.64042,,,1.6404528084,1.64042,0,0,0,0,0,8.377,1.6404528084,1.64042,0,0,0,0,0,207.3, 0.7, 0,0,0,1024,1024,1163,1024,0,0,21,0,207.4,0,0,96,4.191,4.185,0,0,0,0,4.035,74.66,1.6404528084,1.64042,6,P-GPS,
22500,2022-08-13 00:31:18,0,0,1.64042,,,1.6404528084,1.64042,0,0,0,0,0,8.377,1.6404528084,1.64042,0,0,0,0,-0.223694,207.3, 0.6, 0.1,0,0,1024,1024,1111,1024,0,0,13,0,207.4,0,0,96,4.191,4.185,0,0,0,0,4.035,74.66,1.6404528084,1.64042,6,P-GPS,
22600,2022-08-13 00:31:18,0,0,1.64042,,,1.6404528084,1.64042,0,0,0,0,0,8.377,1.6404528084,1.64042,0,0,0,0,-0.223694,207.3, 0.4, 0,0,0,1024,1024,1111,1024,0,0,13,0,207.4,0,0,96,4.191,4.185,0,0,0,0,4.035,74.66,1.6404528084,1.64042,6,P-GPS,
22700,2022-08-13 00:31:18,0,0,1.64042,,,1.6404528084,1.968504,0,0,0,0,0,8.377,1.6404528084,1.64042,0,0,0,0,-0.223694,207.3, 0.4, 0,0,0,1024,1024,1024,1024,0,0,0,0,207.4,0,0,96,4.191,4.185,0,0,0,0,4.035,74.66,1.6404528084,1.64042,6,P-GPS,
22800,2022-08-13 00:31:18,0,0,1.968504,,,1.9685368084,1.968504,0,0,0,0,0,8.377,1.9685368084,1.968504,0,0,0,0,-0.223694,207.3, 0.6, 0,0,0,1024,1024,1027,1024,0,0,0,0,207.4,0,0,96,4.191,4.185,0,0,0,0,4.035,74.66,1.9685368084,1.968504,6,P-GPS,
22900,2022-08-13 00:31:18,0,0,1.968504,,,1.9685368084,1.968504,0,0,0,0,0,8.377,1.9685368084,1.968504,0,0,0,0,0,207.3, 0.5, -0.1,0,0,1024,1024,1122,1024,0,0,15,0,207.4,0,0,96,4.191,4.185,0,0,0,0,4.035,74.66,1.9685368084,1.968504,6,P-GPS,"Se detectó tarjeta SD de baja velocidad"
23000,2022-08-13 00:31:18,0,0,1.968504,,,1.9685368084,1.968504,0,0,0,0,0,8.377,1.9685368084,1.968504,0,0,0,0,0,207.3, 0.5, 0,0,0,1024,1024,1168,1024,0,0,22,0,207.4,0,0,96,4.191,4.185,0,0,0,0,4.035,74.66,1.9685368084,1.968504,6,P-GPS,
23100,2022-08-13 00:31:18,0,0,1.968504,,,1.9685368084,1.968504,0,0,0,0,0,8.377,1.9685368084,1.968504,0,0,0,0,-0.223694,207.3, 0.4, 0,0,0,1024,1024,1171,1024,0,0,22,0,207.4,0,0,96,4.191,4.185,0,0,0,0,4.035,74.66,1.9685368084,1.968504,6,P-GPS,
23200,2022-08-13 00:31:18,0,0,1.968504,,,1.9685368084,1.968504,0,0,0,0,0,8.348,1.9685368084,1.968504,0,0,0,0,-0.223694,207.3, 0.5, -0.1,0,0,1024,1024,1147,1024,0,0,19,0,207.4,0,0,96,4.188,4.188,0,0,0,0,4.181,74.66,1.9685368084,1.968504,6,P-GPS,
23300,2022-08-13 00:31:18,0,0,1.968504,,,1.9685368084,1.968504,0,0,0,0,0,8.348,1.9685368084,1.968504,0,0,0,0,-0.447388,207.3, 0.6, -0.1,0,0,1024,1024,1140,1024,0,0,18,0,207.4,0,0,96,4.188,4.188,0,0,0,0,4.181,74.66,1.9685368084,1.968504,6,P-GPS,
23400,2022-08-13 00:31:19,0,0,1.968504,,,1.9685368084,1.968504,0,0,0,0,0,8.348,1.9685368084,1.968504,0,0,0,0,-0.447388,207.3, 0.6, 0,0,0,1024,1024,1115,1024,0,0,14,0,207.4,0,0,96,4.188,4.188,0,0,0,0,4.181,74.66,1.9685368084,1.968504,6,P-GPS,
23500,2022-08-13 00:31:19,0,0,2.296588,,,2.2966208084,2.296588,0,0,0,0,0,8.348,2.2966208084,2.296588,0,0,0,0,-0.447388,207.3, 0.5, 0,0,0,1024,1024,1115,1024,0,0,14,0,207.4,0,0,96,4.188,4.188,0,0,0,0,4.181,74.66,2.2966208084,2.296588,6,P-GPS,
23600,2022-08-13 00:31:19,0,0,2.296588,,,2.2966208084,2.296588,0,0,0,0,0,8.348,2.2966208084,2.296588,0,0,0,0,-0.447388,207.4, 0.5, 0,0,0,1024,1024,1114,1024,0,0,14,0,207.4,0,0,96,4.188,4.188,0,0,0,0,4.181,74.66,2.2966208084,2.296588,6,P-GPS,
23700,2022-08-13 00:31:19,0,0,2.296588,,,2.2966208084,2.296588,0,0,0,0,0,8.348,2.2966208084,2.296588,0,0,0,0,-0.223694,207.3, 0.5, 0,0,0,1024,1024,1125,1024,0,0,15,0,207.4,0,0,96,4.188,4.188,0,0,0,0,4.181,74.66,2.2966208084,2.296588,6,P-GPS,
23800,2022-08-13 00:31:19,0,0,2.296588,,,2.2966208084,2.296588,0,0,0,0,0,8.348,2.2966208084,2.296588,0,0,0,0,-0.223694,207.3, 0.5, 0,0,0,1024,1024,1108,1024,0,0,13,0,207.4,0,0,96,4.188,4.188,0,0,0,0,4.181,74.66,2.2966208084,2.296588,6,P-GPS,
23900,2022-08-13 00:31:19,0,0,2.296588,,,2.2966208084,2.296588,0,0,0,0,0,8.348,2.2966208084,2.296588,0,0,0,0,-0.223694,207.3, 0.5, 0,0,0,1024,1024,1096,1024,0,0,11,0,207.4,0,0,96,4.188,4.188,0,0,0,0,4.181,74.66,2.2966208084,2.296588,6,P-GPS,
24000,2022-08-13 00:31:19,0,0,2.296588,,,2.2966208084,2.296588,0,0,0,0,0,8.348,2.2966208084,2.296588,0,0,0,0,-0.223694,207.3, 0.4, -0.1,0,0,1024,1024,1081,1024,0,0,9,0,207.4,0,0,96,4.188,4.188,0,0,0,0,4.181,74.66,2.2966208084,2.296588,6,P-GPS,
24100,2022-08-13 00:31:19,0,0,2.296588,,,2.2966208084,2.296588,0,0,0,0,0,8.348,2.2966208084,2.296588,0,0,0,0,-0.223694,207.3, 0.5, -0.2,0,0,1024,1024,1059,926,0,0,5,-15,207.4,0,0,96,4.188,4.188,0,0,0,0,4.181,74.66,2.2966208084,2.296588,6,P-GPS,
24200,2022-08-13 00:31:19,0,0,2.296588,,,2.2966208084,2.296588,0,0,0,0,0,8.357,2.2966208084,2.296588,0,0,0,0,0,207.3, 0.4, -0.2,0,0,1024,1024,1060,850,0,0,5,-26,207.4,0,0,96,4.185,4.177,0,0,0,0,4.081,74.66,2.2966208084,2.296588,6,P-GPS,
24300,2022-08-13 00:31:19,0,0,2.296588,,,2.2966208084,2.624672,0,0,0,0,0,8.357,2.2966208084,2.296588,0,0,0,0,0,207.3, 0.4, -0.1,0,0,1024,1024,1060,850,0,0,5,-26,207.3,0,0,96,4.185,4.177,0,0,0,0,4.081,74.66,2.2966208084,2.296588,6,P-GPS,
24400,2022-08-13 00:31:20,0,0,2.296588,,,2.2966208084,2.624672,0,0,0,0,0,8.357,2.2966208084,2.296588,0,0,0,0,0,207.2, 0.4, -0.2,0,0,1024,1024,1060,846,0,0,5,-27,207,0,0,96,4.185,4.177,0,0,0,0,4.081,74.66,2.2966208084,2.296588,6,P-GPS,
24500,2022-08-13 00:31:20,0,0,2.296588,,,2.2966208084,2.624672,0,0,0,0,0,8.357,2.2966208084,2.296588,0,0,0,0,0,206.8, 0.5, -0.1,0,0,1024,1024,1047,825,0,0,3,-30,206.6,0,0,96,4.185,4.177,0,0,0,0,4.081,74.66,2.2966208084,2.296588,6,P-GPS,
24600,2022-08-13 00:31:20,0,0,2.296588,,,2.2966208084,2.624672,0,0,0,0,0,8.357,2.2966208084,2.296588,0,0,0,0,0,206.4, 0.4, 0,0,0,1024,1024,1044,749,0,0,3,-42,206.1,0,0,96,4.185,4.177,0,0,0,0,4.081,74.66,2.2966208084,2.296588,6,P-GPS,
24700,2022-08-13 00:31:20,0,0,2.296588,,,2.2966208084,2.624672,0,0,0,0,0,8.357,2.2966208084,2.296588,0,0,0,0,0,205.9, 0.4, 0.1,0,0,1024,1024,1046,655,0,0,3,-56,205.5,0,0,96,4.185,4.177,0,0,0,0,4.081,74.66,2.2966208084,2.296588,6,P-GPS,
24800,2022-08-13 00:31:20,0,0,2.296588,,,2.2966208084,2.296588,0,0,0,0,0,8.357,2.2966208084,2.296588,0,0,0,0,0,205.1, 0.4, 0.2,0,0,1024,1024,1024,673,0,0,0,-53,204.5,0,0,96,4.185,4.177,0,0,0,0,4.081,74.66,2.2966208084,2.296588,6,P-GPS,
24900,2022-08-13 00:31:20,0,0,2.296588,,,2.2966208084,2.296588,0,0,0,0,0,8.357,2.2966208084,2.296588,0,0,0,0,0,203.8, 0.3, 0.2,0,0,1024,1024,1024,654,0,0,0,-56,202.9,0,0,96,4.185,4.177,0,0,0,0,4.081,74.66,2.2966208084,2.296588,6,P-GPS,
25000,2022-08-13 00:31:20,0,0,2.296588,,,2.2966208084,2.296588,0,0,0,0,0,8.357,2.2966208084,2.296588,0,0,0,0,0,202.2, 0.4, 0.1,0,0,1024,1024,1025,653,0,0,0,-56,201.2,0,0,96,4.185,4.177,0,0,0,0,4.081,74.66,2.2966208084,2.296588,6,P-GPS,
25100,2022-08-13 00:31:20,0,0,2.296588,,,2.2966208084,2.296588,0,0,0,0,0,8.357,2.2966208084,2.296588,0,0,0,0,0,200.6, 0.3, 0.2,0,0,1024,1024,1025,662,0,0,0,-55,199.7,0,0,96,4.185,4.177,0,0,0,0,4.081,74.66,2.2966208084,2.296588,6,P-GPS,
25200,2022-08-13 00:31:20,0,0,2.296588,,,2.2966208084,2.296588,0,0,0,0,0,8.362,2.2966208084,2.296588,0,0,0,0,0,199, 0.3, 0.2,0,0,1024,1024,1025,662,0,0,0,-55,198,0,0,96,4.182,4.175,0,0,0,0,4.034,74.66,2.2966208084,2.296588,6,P-GPS,
25300,2022-08-13 00:31:20,0,0,2.296588,,,2.2966208084,2.296588,0,0,0,0,0,8.362,2.2966208084,2.296588,0,0,0,0,0,197.4, 0.4, 0.1,0,0,1024,1024,1025,662,0,0,0,-55,196.3,0,0,96,4.182,4.175,0,0,0,0,4.034,74.66,2.2966208084,2.296588,6,P-GPS,
25400,2022-08-13 00:31:21,0,0,2.296588,,,2.2966208084,2.296588,0,0,0,0,0,8.362,2.2966208084,2.296588,0,0,0,0,0,195.7, 0.4, 0,0,0,1024,1024,1024,678,0,0,0,-52,194.7,0,0,96,4.182,4.175,0,0,0,0,4.034,74.66,2.2966208084,2.296588,6,P-GPS,
25500,2022-08-13 00:31:21,0,0,2.296588,,,2.2966208084,2.296588,0,0,0,0,0,8.362,2.2966208084,2.296588,0,0,0,0,0,194.1, 0.4, 0.1,0,0,1024,1024,1024,695,0,0,0,-50,193.1,0,0,96,4.182,4.175,0,0,0,0,4.034,74.66,2.2966208084,2.296588,6,P-GPS,
25600,2022-08-13 00:31:21,0,0,2.296588,,,2.2966208084,2.296588,0,0,0,0,0,8.362,2.2966208084,2.296588,0,0,0,0,0,192.6, 0.4, 0.1,0,0,1024,1024,1024,697,0,0,0,-50,191.6,0,0,96,4.182,4.175,0,0,0,0,4.034,74.66,2.2966208084,2.296588,6,P-GPS,
25700,2022-08-13 00:31:21,0,0,2.296588,,,2.2966208084,2.296588,0,0,0,0,0,8.362,2.2966208084,2.296588,0,0,0,0,0,191.1, 0.3, 0.1,0,0,1024,1024,1024,706,0,0,0,-48,190.2,0,0,96,4.182,4.175,0,0,0,0,4.034,74.66,2.2966208084,2.296588,6,P-GPS,
25800,2022-08-13 00:31:21,0,0,2.296588,,,2.2966208084,2.296588,0,0,0,0,0,8.362,2.2966208084,2.296588,0,0,0,0,0,189.7, 0.3, 0,0,0,1024,1024,1024,709,0,0,0,-48,188.8,0,0,96,4.182,4.175,0,0,0,0,4.034,74.66,2.2966208084,2.296588,6,P-GPS,
25900,2022-08-13 00:31:21,0,0,2.296588,,,2.2966208084,2.296588,0,0,0,0,0,8.362,2.2966208084,2.296588,0,0,0,0,0,188.4, 0.3, 0,0,0,1024,1024,1024,738,0,0,0,-43,187.5,0,0,96,4.182,4.175,0,0,0,0,4.034,74.66,2.2966208084,2.296588,6,P-GPS,
26000,2022-08-13 00:31:21,0,0,2.296588,,,2.2966208084,2.296588,0,0,0,0,0,8.362,2.2966208084,2.296588,0,0,0,0,0,187.1, 0.3, 0,0,0,1024,1024,1024,755,0,0,0,-41,186.2,0,0,96,4.182,4.175,0,0,0,0,4.034,74.66,2.2966208084,2.296588,6,P-GPS,
26100,2022-08-13 00:31:21,0,0,2.296588,,,2.2966208084,2.296588,0,0,0,0,0,8.362,2.2966208084,2.296588,0,0,0,0,0,185.9, 0.3, 0,0,0,1024,1024,1024,755,0,0,0,-41,185.1,0,0,96,4.182,4.175,0,0,0,0,4.034,74.66,2.2966208084,2.296588,6,P-GPS,
26200,2022-08-13 00:31:21,0,0,2.296588,,,2.2966208084,2.296588,0,0,0,0,0,8.353,2.2966208084,2.296588,0,0,0,0,0,184.8, 0.4, 0,0,0,1024,1024,1024,765,0,0,0,-39,184,0,0,96,4.179,4.173,0,0,0,0,4.097,74.66,2.2966208084,2.296588,6,P-GPS,
26300,2022-08-13 00:31:21,0,0,2.296588,,,2.2966208084,2.296588,0,0,0,0,0,8.353,2.2966208084,2.296588,0,0,0,0,0,183.8, 0.4, 0,0,0,1024,1024,1024,764,0,0,0,-39,183.1,0,0,96,4.179,4.173,0,0,0,0,4.097,74.66,2.2966208084,2.296588,6,P-GPS,
26400,2022-08-13 00:31:22,0,0,2.296588,,,2.2966208084,2.296588,0,0,0,0,0,8.353,2.2966208084,2.296588,0,0,0,0,0,182.8, 0.4, 0.1,0,0,1024,1024,1024,763,0,0,0,-40,182.2,0,0,96,4.179,4.173,0,0,0,0,4.097,74.66,2.2966208084,2.296588,6,P-GPS,
26500,2022-08-13 00:31:22,0,0,2.296588,,,2.2966208084,2.296588,0,0,0,0,0,8.353,2.2966208084,2.296588,0,0,0,0,0,182, 0.4, 0.1,0,0,1024,1024,1024,763,0,0,0,-40,181.3,0,0,96,4.179,4.173,0,0,0,0,4.097,74.66,2.2966208084,2.296588,6,P-GPS,
26600,2022-08-13 00:31:22,0,0,2.296588,,,2.2966208084,2.296588,0,0,0,0,0,8.353,2.2966208084,2.296588,0,0,0,0,0,181, 0.3, 0,0,0,1024,1024,1024,763,0,0,0,-40,180.4,0,0,96,4.179,4.173,0,0,0,0,4.097,74.66,2.2966208084,2.296588,6,P-GPS,"Baja velocidad de la tarjeta SD. Puede afectar a su uso normal. Sustituye la tarjeta SD (Code: 10028)"
26700,2022-08-13 00:31:22,0,0,2.296588,,,2.2966208084,2.296588,0,0,0,0,0,8.353,2.2966208084,2.296588,0,0,0,0,0,180.2, 0.3, 0.1,0,0,1024,1024,1024,766,0,0,0,-39,179.4,0,0,96,4.179,4.173,0,0,0,0,4.097,74.66,2.2966208084,2.296588,6,P-GPS,
26800,2022-08-13 00:31:22,0,0,2.296588,,,2.2966208084,2.296588,0,0,0,0,0,8.353,2.2966208084,2.296588,0,0,0,0,0,179.1, 0.3, 0.1,0,0,1024,1024,1024,767,0,0,0,-39,178.5,0,0,96,4.179,4.173,0,0,0,0,4.097,74.66,2.2966208084,2.296588,6,P-GPS,
26900,2022-08-13 00:31:22,0,0,2.296588,,,2.2966208084,2.296588,0,0,0,0,0,8.353,2.2966208084,2.296588,0,0,0,0,0,178.2, 0.3, 0.1,0,0,1024,1024,1024,767,0,0,0,-39,177.6,0,0,96,4.179,4.173,0,0,0,0,4.097,74.66,2.2966208084,2.296588,6,P-GPS,
27000,2022-08-13 00:31:22,0,0,2.296588,,,2.2966208084,2.296588,0,0,0,0,0,8.353,2.2966208084,2.296588,0,0,0,0,0,177.4, 0.3, 0.2,0,0,1024,1024,1024,767,0,0,0,-39,176.7,0,0,96,4.179,4.173,0,0,0,0,4.097,74.66,2.2966208084,2.296588,6,P-GPS,
27100,2022-08-13 00:31:22,0,0,2.296588,,,2.2966208084,2.296588,0,0,0,0,0,8.353,2.2966208084,2.296588,0,0,0,0,0,176.5, 0.3, 0.2,0,0,1024,1024,1024,752,0,0,0,-41,175.9,0,0,96,4.179,4.173,0,0,0,0,4.097,74.66,2.2966208084,2.296588,6,P-GPS,
27200,2022-08-13 00:31:22,0,0,2.296588,,,2.2966208084,2.296588,0,0,0,0,0,8.353,2.2966208084,2.296588,0,0,0,0,0,175.6, 0.3, 0.2,0,0,1024,1024,1024,714,0,0,0,-47,175,0,0,96,4.179,4.173,0,0,0,0,4.097,74.66,2.2966208084,2.296588,6,P-GPS,
27300,2022-08-13 00:31:22,0,0,2.296588,,,2.2966208084,2.296588,0,0,0,0,0,8.349,2.2966208084,2.296588,0,0,0,0,0,174.7, 0.3, 0.3,0,0,1024,1024,1024,713,0,0,0,-47,173.9,0,0,96,4.177,4.171,0,0,0,0,4.106,74.84,2.2966208084,2.296588,6,P-GPS,
27400,2022-08-13 00:31:23,0,0,2.296588,,,2.2966208084,2.296588,0,0,0,0,0,8.349,2.2966208084,2.296588,0,0,0,0,0,173.5, 0.3, 0.2,0,0,1024,1024,1024,713,0,0,0,-47,172.7,0,0,96,4.177,4.171,0,0,0,0,4.106,74.84,2.2966208084,2.296588,6,P-GPS,
27500,2022-08-13 00:31:23,0,0,2.296588,,,2.2966208084,2.296588,0,0,0,0,0,8.349,2.2966208084,2.296588,0,0,0,0,0,172.3, 0.3, 0.2,0,0,1024,1024,1024,703,0,0,0,-49,171.1,0,0,96,4.177,4.171,0,0,0,0,4.106,74.84,2.2966208084,2.296588,31,Sport,"Baja velocidad de la tarjeta SD. Puede afectar a su uso normal. Sustituye la tarjeta SD (Code: 10028)"
27600,2022-08-13 00:31:23,0,0,2.296588,,,2.2966208084,2.296588,0,0,0,0,0,8.349,2.2966208084,2.296588,0,0,0,0,0,170.1, 0.3, 0.2,0,0,1024,1024,1024,706,0,0,0,-48,168.4,0,0,96,4.177,4.171,0,0,0,0,4.106,74.84,2.2966208084,2.296588,31,Sport,
27700,2022-08-13 00:31:23,0,0,2.296588,,,2.2966208084,2.296588,0,0,0,0,0,8.349,2.2966208084,2.296588,0,0,0,0,0,167.4, 0.2, 0,0,0,1024,1024,1024,706,0,0,0,-48,165.6,0,0,96,4.177,4.171,0,0,0,0,4.106,74.84,2.2966208084,2.296588,31,Sport,
27800,2022-08-13 00:31:23,0,0,2.296588,,,2.2966208084,2.296588,0,0,0,0,0,8.349,2.2966208084,2.296588,0,0,0,0,0,164.6, 0.3, 0,0,0,1024,1024,1024,706,0,0,0,-48,162.8,0,0,96,4.177,4.171,0,0,0,0,4.106,74.84,2.2966208084,2.296588,31,Sport,
27900,2022-08-13 00:31:23,0,0,2.296588,,,2.2966208084,2.296588,0,0,0,0,0,8.349,2.2966208084,2.296588,0,0,0,0,0,161.9, 0.2, 0,0,0,1024,1024,1024,694,0,0,0,-50,160,0,0,96,4.177,4.171,0,0,0,0,4.106,74.84,2.2966208084,2.296588,31,Sport,
28000,2022-08-13 00:31:23,0,0,2.296588,,,2.2966208084,2.296588,0,0,0,0,0,8.349,2.2966208084,2.296588,0,0,0,0,0,159.1, 0.2, 0,0,0,1024,1024,1024,691,0,0,0,-50,157.1,0,0,96,4.177,4.171,0,0,0,0,4.106,74.84,2.2966208084,2.296588,31,Sport,
28100,2022-08-13 00:31:23,0,0,2.296588,,,2.2966208084,2.296588,0,0,0,0,0,8.349,2.2966208084,2.296588,0,0,0,0,0,156.2, 0.3, 0,0,0,1024,1024,1024,655,0,0,0,-56,154.1,0,0,96,4.177,4.171,0,0,0,0,4.106,74.84,2.2966208084,2.296588,31,Sport,
28200,2022-08-13 00:31:23,0,0,2.296588,,,2.2966208084,2.296588,0,0,0,0,0,8.349,2.2966208084,2.296588,0,0,0,0,0,153.2, 0.3, 0.1,0,0,1024,1024,1024,635,0,0,0,-59,150.9,0,0,96,4.177,4.171,0,0,0,0,4.106,74.84,2.2966208084,2.296588,31,Sport,
28300,2022-08-13 00:31:23,0,0,2.296588,,,2.2966208084,2.296588,0,0,0,0,0,8.344,2.2966208084,2.296588,0,0,0,0,0,149.7, 0.4, 0.2,0,0,1024,1024,1024,584,0,0,0,-67,147.1,0,0,96,4.175,4.169,0,0,0,0,4.115,74.84,2.2966208084,2.296588,31,Sport,
28400,2022-08-13 00:31:24,0,0,2.296588,,,2.2966208084,2.296588,0,0,0,0,0,8.344,2.2966208084,2.296588,0,0,0,0,0,145.8, 0.4, 0.3,0,0,1024,1024,1024,565,0,0,0,-70,142.9,0,0,96,4.175,4.169,0,0,0,0,4.115,74.84,2.2966208084,2.296588,31,Sport,
28500,2022-08-13 00:31:24,0,0,2.296588,,,2.2966208084,2.296588,0,0,0,0,0,8.344,2.2966208084,2.296588,0,0,0,0,0,141.4, 0.4, 0.3,0,0,1024,1024,1024,564,0,0,0,-70,138,0,0,96,4.175,4.169,0,0,0,0,4.115,74.84,2.2966208084,2.296588,31,Sport,
28600,2022-08-13 00:31:24,0,0,2.296588,,,2.2966208084,2.296588,0,0,0,0,0,8.344,2.2966208084,2.296588,0,0,0,0,0,136.2, 0.3, 0.4,0,0,1024,1024,1024,564,0,0,0,-70,132.6,0,0,96,4.175,4.169,0,0,0,0,4.115,74.84,2.2966208084,2.296588,31,Sport,
28700,2022-08-13 00:31:24,0,0,2.296588,,,2.2966208084,2.296588,0,0,0,0,0,8.344,2.2966208084,2.296588,0,0,0,0,0,130.8, 0.3, 0.3,0,0,1024,1024,1024,562,0,0,0,-70,127.1,0,0,96,4.175,4.169,0,0,0,0,4.115,74.84,2.2966208084,2.296588,31,Sport,
28800,2022-08-13 00:31:24,0,0,2.296588,,,2.2966208084,2.296588,0,0,0,0,0,8.344,2.2966208084,2.296588,0,0,0,0,0,125.4, 0.3, 0.2,0,0,1024,1024,1024,511,0,0,0,-78,121.6,0,0,96,4.175,4.169,0,0,0,0,4.115,74.84,2.2966208084,2.296588,31,Sport,
28900,2022-08-13 00:31:24,0,0,2.296588,,,2.2966208084,2.296588,0,0,0,0,0,8.344,2.2966208084,2.296588,0,0,0,0,0,119.9, 0.3, 0.1,0,0,1024,1024,1024,484,0,0,0,-82,115.9,0,0,96,4.175,4.169,0,0,0,0,4.115,74.84,2.2966208084,2.296588,31,Sport,
29000,2022-08-13 00:31:24,0,0,2.296588,,,2.2966208084,2.296588,0,0,0,0,0,8.344,2.2966208084,2.296588,0,0,0,0,0,113.6, 0.4, 0.1,0,0,1024,1024,1024,450,0,0,0,-87,109.2,0,0,96,4.175,4.169,0,0,0,0,4.115,74.84,2.2966208084,2.296588,31,Sport,
29100,2022-08-13 00:31:24,0,0,2.296588,,,2.2966208084,2.296588,0,0,0,0,0,8.344,2.2966208084,2.296588,0,0,0,0,0,106.5, 0.3, 0.1,0,0,1024,1024,1024,364,0,0,0,-100,101.5,0,0,96,4.175,4.169,0,0,0,0,4.115,74.84,2.2966208084,2.296588,31,Sport,
29200,2022-08-13 00:31:24,0,0,2.296588,,,2.2966208084,2.296588,0,0,0,0,0,8.339,2.2966208084,2.296588,0,0,0,0,0,98.5, 0.4, 0.1,0,0,1024,1024,1024,364,0,0,0,-100,92.6,0,0,96,4.173,4.166,0,0,0,0,4.135,74.84,2.2966208084,2.296588,31,Sport,
29400,2022-08-13 00:31:25,0,0,2.296588,,,2.2966208084,2.296588,0,0,0,0,0,8.339,2.2966208084,2.296588,0,0,0,0,0,78.6, 0.3, 0,0,0,1024,1024,1024,364,0,0,0,-100,71.9,0,0,96,4.173,4.166,0,0,0,0,4.135,74.84,2.2966208084,2.296588,31,Sport,
29500,2022-08-13 00:31:25,0,0,2.296588,,,2.2966208084,2.296588,0,0,0,0,0,8.339,2.2966208084,2.296588,0,0,0,0,0,68.2, 0.3, 0,0,0,1024,1024,1024,364,0,0,0,-100,61.5,0,0,96,4.173,4.166,0,0,0,0,4.135,74.84,2.2966208084,2.296588,31,Sport,
29600,2022-08-13 00:31:25,0,0,2.296588,,,2.2966208084,2.296588,0,0,0,0,0,8.339,2.2966208084,2.296588,0,0,0,0,0,57.9, 0.4, 0,0,0,1024,1024,1024,364,0,0,0,-100,51.1,0,0,96,4.173,4.166,0,0,0,0,4.135,74.84,2.2966208084,2.296588,31,Sport,"Baja velocidad de la tarjeta SD. Puede afectar a su uso normal. Sustituye la tarjeta SD (Code: 10028)"
29700,2022-08-13 00:31:25,0,0,2.296588,,,2.2966208084,2.296588,0,0,0,0,0,8.339,2.2966208084,2.296588,0,0,0,0,0,47.6, 0.4, 0,0,0,1024,1024,1024,364,0,0,0,-100,40.7,0,0,96,4.173,4.166,0,0,0,0,4.135,74.84,2.2966208084,2.296588,31,Sport,
29800,2022-08-13 00:31:25,0,0,2.296588,,,2.2966208084,2.296588,0,0,0,0,0,8.339,2.2966208084,2.296588,0,0,0,0,0,37.2, 0.5, -0.1,0,0,1024,1024,1024,364,0,0,0,-100,30.3,0,0,96,4.173,4.166,0,0,0,0,4.135,74.84,2.2966208084,2.296588,31,Sport,
29900,2022-08-13 00:31:25,0,0,2.296588,,,2.2966208084,2.296588,0,0,0,0,0,8.339,2.2966208084,2.296588,0,0,0,0,0,26.8, 0.5, 0,0,0,1024,1024,1024,364,0,0,0,-100,19.9,0,0,96,4.173,4.166,0,0,0,0,4.135,74.84,2.2966208084,2.296588,31,Sport,
30000,2022-08-13 00:31:25,0,0,2.296588,,,2.2966208084,2.296588,0,0,0,0,0,8.339,2.2966208084,2.296588,0,0,0,0,0,16.4, 0.5, -0.1,0,0,1024,1024,1024,364,0,0,0,-100,9.5,0,0,96,4.173,4.166,0,0,0,0,4.135,74.84,2.2966208084,2.296588,31,Sport,
30100,2022-08-13 00:31:25,0,0,2.296588,,,2.2966208084,2.296588,0,0,0,0,0,8.339,2.2966208084,2.296588,0,0,0,0,0,6.1, 0.5, 0,0,0,1024,1024,1024,364,0,0,0,-100,359.2,0,0,96,4.173,4.166,0,0,0,0,4.135,74.84,2.2966208084,2.296588,31,Sport,
30200,2022-08-13 00:31:25,0,0,2.296588,,,2.2966208084,2.296588,0,0,0,0,0,8.339,2.2966208084,2.296588,0,0,0,0,0,355.8, 0.5, 0,0,0,1024,1024,1024,364,0,0,0,-100,348.8,0,0,96,4.173,4.166,0,0,0,0,4.135,74.84,2.2966208084,2.296588,31,Sport,
30300,2022-08-13 00:31:25,0,0,2.296588,,,2.2966208084,2.296588,0,0,0,0,0,8.338,2.2966208084,2.296588,0,0,0,0,0,345.4, 0.5, 0,0,0,1024,1024,1024,364,0,0,0,-100,338.4,0,0,96,4.171,4.164,0,0,0,0,4.113,75.02,2.2966208084,2.296588,31,Sport,
30400,2022-08-13 00:31:26,0,0,2.296588,,,2.2966208084,2.296588,0,0,0,0,0,8.338,2.2966208084,2.296588,0,0,0,0,0,335, 0.6, -0.1,0,0,1024,1024,1024,364,0,0,0,-100,328,0,0,96,4.171,4.164,0,0,0,0,4.113,75.02,2.2966208084,2.296588,31,Sport,
30500,2022-08-13 00:31:26,0,0,2.296588,,,2.2966208084,2.296588,0,0,0,0,0,8.338,2.2966208084,2.296588,0,0,0,0,0,324.6, 0.6, -0.3,0,0,1024,1024,1024,364,0,0,0,-100,317.6,0,0,96,4.171,4.164,0,0,0,0,4.113,75.02,2.2966208084,2.296588,31,Sport,"Baja velocidad de la tarjeta SD. Puede afectar a su uso normal. Sustituye la tarjeta SD (Code: 10028)"
30600,2022-08-13 00:31:26,0,0,2.296588,,,2.2966208084,2.296588,0,0,0,0,0,8.338,2.2966208084,2.296588,0,0,0,0,0,314.3, 0.5, -0.4,0,0,1024,1024,1024,364,0,0,0,-100,307.2,0,0,96,4.171,4.164,0,0,0,0,4.113,75.02,2.2966208084,2.296588,31,Sport,
30700,2022-08-13 00:31:26,0,0,2.296588,,,2.2966208084,2.296588,0,0,0,0,0,8.338,2.2966208084,2.296588,0,0,0,0,0,303.8, 0.5, -0.3,0,0,1024,1024,1024,364,0,0,0,-100,296.8,0,0,96,4.171,4.164,0,0,0,0,4.113,75.02,2.2966208084,2.296588,31,Sport,
30800,2022-08-13 00:31:26,0,0,2.296588,,,2.2966208084,2.296588,0,0,0,0,0,8.338,2.2966208084,2.296588,0,0,0,0,0,293.4, 0.5, -0.2,0,0,1024,1024,1024,364,0,0,0,-100,286.4,0,0,96,4.171,4.164,0,0,0,0,4.113,75.02,2.2966208084,2.296588,31,Sport,
30900,2022-08-13 00:31:26,0,0,2.296588,,,2.2966208084,2.296588,0,0,0,0,0,8.338,2.2966208084,2.296588,0,0,0,0,0,283, 0.5, -0.4,0,0,1024,1024,1024,364,0,0,0,-100,276,0,0,96,4.171,4.164,0,0,0,0,4.113,75.02,2.2966208084,2.296588,31,Sport,
31000,2022-08-13 00:31:26,0,0,2.296588,,,2.2966208084,2.296588,0,0,0,0,0,8.338,2.2966208084,2.296588,0,0,0,0,0,272.7, 0.4, -0.3,0,0,1024,1024,1024,364,0,0,0,-100,265.6,0,0,96,4.171,4.164,0,0,0,0,4.113,75.02,2.2966208084,2.296588,31,Sport,
31100,2022-08-13 00:31:26,0,0,2.296588,,,2.2966208084,2.296588,0,0,0,0,0,8.338,2.2966208084,2.296588,0,0,0,0,0,262.2, 0.3, -0.4,0,0,1024,1024,1024,364,0,0,0,-100,255.2,0,0,96,4.171,4.164,0,0,0,0,4.113,75.02,2.2966208084,2.296588,31,Sport,
31200,2022-08-13 00:31:26,0,0,2.296588,,,2.2966208084,2.296588,0,0,0,0,0,8.338,2.2966208084,2.296588,0,0,0,0,0,251.8, 0.2, -0.3,0,0,1024,1024,1024,364,0,0,0,-100,244.8,0,0,96,4.171,4.164,0,0,0,0,4.113,75.02,2.2966208084,2.296588,31,Sport,
31300,2022-08-13 00:31:26,0,0,2.296588,,,2.2966208084,2.296588,0,0,0,0,0,8.333,2.2966208084,2.296588,0,0,0,0,0,241.6, 0.1, -0.6,0,0,1024,1024,1024,364,0,0,0,-100,236,0,0,96,4.169,4.163,0,0,0,0,4.128,75.02,2.2966208084,2.296588,6,P-GPS,"Baja velocidad de la tarjeta SD. Puede afectar a su uso normal. Sustituye la tarjeta SD (Code: 10028)"
31400,2022-08-13 00:31:27,0,0,2.296588,,,2.2966208084,2.296588,0,0,0,0,0,8.333,2.2966208084,2.296588,0,0,0,0,0,234.6, 0.1, -0.6,0,0,1024,1024,1024,364,0,0,0,-100,230.1,0,0,96,4.169,4.163,0,0,0,0,4.128,75.02,2.2966208084,2.296588,6,P-GPS,
31500,2022-08-13 00:31:27,0,0,2.296588,,,2.2966208084,2.296588,0,0,0,0,0,8.333,2.2966208084,2.296588,0,0,0,0,0,228.9, 0.3, -0.1,0,0,1024,1024,1024,364,0,0,0,-100,225.1,0,0,96,4.169,4.163,0,0,0,0,4.128,75.02,2.2966208084,2.296588,6,P-GPS,
31600,2022-08-13 00:31:27,0,0,2.296588,,,2.2966208084,2.296588,0,0,0,0,0,8.333,2.2966208084,2.296588,0,0,0,0,0,223.8, 0.4, -0.1,0,0,1024,1024,1024,364,0,0,0,-100,220.3,0,0,96,4.169,4.163,0,0,0,0,4.128,75.02,2.2966208084,2.296588,6,P-GPS,
31700,2022-08-13 00:31:27,0,0,2.296588,,,2.2966208084,2.296588,0,0,0,0,0,8.333,2.2966208084,2.296588,0,0,0,0,0,218.9, 0.4, -0.2,0,0,1024,1024,1024,364,0,0,0,-100,215.5,0,0,96,4.169,4.163,0,0,0,0,4.128,75.02,2.2966208084,2.296588,6,P-GPS,
31800,2022-08-13 00:31:27,0,0,2.296588,,,2.2966208084,2.296588,0,0,0,0,0,8.333,2.2966208084,2.296588,0,0,0,0,0,214, 0.3, -0.1,0,0,1024,1024,1024,364,0,0,0,-100,210.7,0,0,96,4.169,4.163,0,0,0,0,4.128,75.02,2.2966208084,2.296588,6,P-GPS,
31900,2022-08-13 00:31:27,0,0,2.296588,,,2.2966208084,2.296588,0,0,0,0,0,8.333,2.2966208084,2.296588,0,0,0,0,0,209.4, 0.4, -0.2,0,0,1024,1024,1024,364,0,0,0,-100,207.2,0,0,96,4.169,4.163,0,0,0,0,4.128,75.02,2.2966208084,2.296588,38,Tripod,"Baja velocidad de la tarjeta SD. Puede afectar a su uso normal. Sustituye la tarjeta SD (Code: 10028)"
32000,2022-08-13 00:31:27,0,0,2.296588,,,2.2966208084,2.296588,0,0,0,0,0,8.333,2.2966208084,2.296588,0,0,0,0,0,206.5, 0.4, -0.2,0,0,1024,1024,1024,364,0,0,0,-100,204.2,0,0,96,4.169,4.163,0,0,0,0,4.128,75.02,2.2966208084,2.296588,38,Tripod,
32100,2022-08-13 00:31:27,0,0,2.296588,,,2.2966208084,2.296588,0,0,0,0,0,8.333,2.2966208084,2.296588,0,0,0,0,0,203.5, 0.4, -0.1,0,0,1024,1024,1024,364,0,0,0,-100,201.3,0,0,96,4.169,4.163,0,0,0,0,4.128,75.02,2.2966208084,2.296588,38,Tripod,
32200,2022-08-13 00:31:27,0,0,2.296588,,,2.2966208084,2.296588,0,0,0,0,0,8.333,2.2966208084,2.296588,0,0,0,0,0,200.7, 0.3, -0.1,0,0,1024,1024,1024,364,0,0,0,-100,198.8,0,0,96,4.169,4.163,0,0,0,0,4.128,75.02,2.2966208084,2.296588,38,Tripod,
32300,2022-08-13 00:31:27,0,0,2.296588,,,2.2966208084,2.296588,0,0,0,0,0,8.33,2.2966208084,2.296588,0,0,0,0,0,198.1, 0.3, 0,0,0,1024,1024,1024,498,0,0,0,-80,196.3,0,0,96,4.167,4.161,0,0,0,0,4.127,75.02,2.2966208084,2.296588,38,Tripod,
32400,2022-08-13 00:31:28,0,0,2.296588,,,2.2966208084,2.296588,0,0,0,0,0,8.33,2.2966208084,2.296588,0,0,0,0,0,195.6, 0.3, 0,0,0,1024,1024,1024,1024,0,0,0,0,193.9,0,0,96,4.167,4.161,0,0,0,0,4.127,75.02,2.2966208084,2.296588,38,Tripod,
32500,2022-08-13 00:31:28,0,0,2.296588,,,2.2966208084,2.296588,0,0,0,0,0,8.33,2.2966208084,2.296588,0,0,0,0,0,193.4, 0.3, 0,0,0,1024,1024,1024,1024,0,0,0,0,192,0,0,96,4.167,4.161,0,0,0,0,4.127,75.02,2.2966208084,2.296588,38,Tripod,
32600,2022-08-13 00:31:28,0,0,2.296588,,,2.2966208084,2.296588,0,0,0,0,0,8.33,2.2966208084,2.296588,0,0,0,0,0,191.7, 0.3, -0.1,0,0,1024,1024,1024,1024,0,0,0,0,190.6,0,0,96,4.167,4.161,0,0,0,0,4.127,75.02,2.2966208084,2.296588,38,Tripod,
32700,2022-08-13 00:31:28,0,0,2.296588,,,2.2966208084,2.296588,0,0,0,0,0,8.33,2.2966208084,2.296588,0,0,0,0,0,190.5, 0.3, 0,0,0,1024,1024,1024,1024,0,0,0,0,189.6,0,0,96,4.167,4.161,0,0,0,0,4.127,75.02,2.2966208084,2.296588,38,Tripod,
32800,2022-08-13 00:31:28,0,0,2.296588,,,2.2966208084,2.296588,0,0,0,0,0,8.33,2.2966208084,2.296588,0,0,0,0,0,189.7, 0.5, 0,0,0,1024,1024,1024,1024,0,0,0,0,189.1,0,0,96,4.167,4.161,0,0,0,0,4.127,75.02,2.2966208084,2.296588,38,Tripod,
32900,2022-08-13 00:31:28,0,0,2.296588,,,2.2966208084,2.296588,0,0,0,0,0,8.33,2.2966208084,2.296588,0,0,0,0,0,189.3, 0.5, 0.1,0,0,1024,1024,1024,1337,0,0,0,47,189,0,0,96,4.167,4.161,0,0,0,0,4.127,75.02,2.2966208084,2.296588,38,Tripod,
33000,2022-08-13 00:31:28,0,0,2.296588,,,2.2966208084,2.296588,0,0,0,0,0,8.33,2.2966208084,2.296588,0,0,0,0,0,189.2, 0.5, 0,0,0,1024,1024,1024,1337,0,0,0,47,189,0,0,96,4.167,4.161,0,0,0,0,4.127,75.02,2.2966208084,2.296588,38,Tripod,
33100,2022-08-13 00:31:28,0,0,2.296588,,,2.2966208084,2.296588,0,0,0,0,0,8.33,2.2966208084,2.296588,0,0,0,0,0,189.2, 0.6, 0,0,0,1024,1024,1024,1570,0,0,0,83,189.1,0,0,96,4.167,4.161,0,0,0,0,4.127,75.02,2.2966208084,2.296588,38,Tripod,
33200,2022-08-13 00:31:28,0,0,2.296588,,,2.2966208084,2.296588,0,0,0,0,0,8.33,2.2966208084,2.296588,0,0,0,0,0,189.4, 0.5, 0,0,0,1024,1024,1024,1024,0,0,0,0,189.8,0,0,96,4.167,4.161,0,0,0,0,4.127,75.02,2.2966208084,2.296588,38,Tripod,
33300,2022-08-13 00:31:28,0,0,2.296588,,,2.2966208084,2.296588,0,0,0,0,0,8.325,2.2966208084,2.296588,0,0,0,0,0,190.3, 0.6, 0,0,0,1024,1024,1024,1024,0,0,0,0,190.8,0,0,96,4.166,4.159,0,0,0,0,4.141,75.02,2.2966208084,2.296588,38,Tripod,
33400,2022-08-13 00:31:29,0,0,2.296588,,,2.2966208084,2.296588,0,0,0,0,0,8.325,2.2966208084,2.296588,0,0,0,0,0,191.1, 0.6, 0,0,0,1024,1024,1024,1024,0,0,0,0,191.5,0,0,96,4.166,4.159,0,0,0,0,4.141,75.02,2.2966208084,2.296588,38,Tripod,
33500,2022-08-13 00:31:29,0,0,2.296588,,,2.2966208084,2.296588,0,0,0,0,0,8.325,2.2966208084,2.296588,0,0,0,0,0,191.7, 0.6, 0,0,0,1024,1024,1024,1179,0,0,0,23,192,0,0,96,4.166,4.159,0,0,0,0,4.141,75.02,2.2966208084,2.296588,38,Tripod,
33600,2022-08-13 00:31:29,0,0,2.296588,,,2.2966208084,2.296588,0,0,0,0,0,8.325,2.2966208084,2.296588,0,0,0,0,0,192.1, 0.6, 0,0,0,1024,1024,1024,1611,0,0,0,89,192.3,0,0,96,4.166,4.159,0,0,0,0,4.141,75.02,2.2966208084,2.296588,38,Tripod,
33700,2022-08-13 00:31:29,0,0,2.296588,,,2.2966208084,2.296588,0,0,0,0,0,8.325,2.2966208084,2.296588,0,0,0,0,0,192.4, 0.5, 0,0,0,1024,1024,1024,1128,0,0,0,16,192.5,0,0,96,4.166,4.159,0,0,0,0,4.141,75.02,2.2966208084,2.296588,38,Tripod,
33800,2022-08-13 00:31:29,0,0,2.296588,,,2.2966208084,2.296588,0,0,0,0,0,8.325,2.2966208084,2.296588,0,0,0,0,0,192.8, 0.5, 0,0,0,1024,1024,1024,1024,0,0,0,0,193.3,0,0,96,4.166,4.159,0,0,0,0,4.141,75.02,2.2966208084,2.296588,38,Tripod,
33900,2022-08-13 00:31:29,0,0,2.296588,,,2.2966208084,2.296588,0,0,0,0,0,8.325,2.2966208084,2.296588,0,0,0,0,0,193.8, 0.5, 0,0,0,1024,1024,1024,1024,0,0,0,0,194.5,0,0,96,4.166,4.159,0,0,0,0,4.141,75.02,2.2966208084,2.296588,38,Tripod,
34000,2022-08-13 00:31:29,0,0,2.296588,,,2.2966208084,2.296588,0,0,0,0,0,8.325,2.2966208084,2.296588,0,0,0,0,0,194.9, 0.5, 0.1,0,0,1024,1024,1024,1024,0,0,0,0,195.5,0,0,96,4.166,4.159,0,0,0,0,4.141,75.02,2.2966208084,2.296588,38,Tripod,
34100,2022-08-13 00:31:29,0,0,2.296588,,,2.2966208084,2.296588,0,0,0,0,0,8.325,2.2966208084,2.296588,0,0,0,0,0,195.6, 0.5, 0.1,0,0,1024,1024,1024,1024,0,0,0,0,196.1,0,0,96,4.166,4.159,0,0,0,0,4.141,75.02,2.2966208084,2.296588,38,Tripod,
34200,2022-08-13 00:31:29,0,0,2.296588,,,2.2966208084,2.296588,0,0,0,0,0,8.325,2.2966208084,2.296588,0,0,0,0,0,196.2, 0.5, 0.2,0,0,1024,1024,1024,1024,0,0,0,0,196.5,0,0,96,4.166,4.159,0,0,0,0,4.141,75.02,2.2966208084,2.296588,38,Tripod,
34300,2022-08-13 00:31:29,0,0,2.296588,,,2.2966208084,2.296588,0,0,0,0,0,8.325,2.2966208084,2.296588,0,0,0,0,0,196.5, 0.5, 0.1,0,0,1024,1024,1024,1024,0,0,0,0,196.5,0,0,96,4.166,4.159,0,0,0,0,4.141,75.02,2.2966208084,2.296588,38,Tripod,"Baja velocidad de la tarjeta SD. Puede afectar a su uso normal. Sustituye la tarjeta SD (Code: 10028)"
34400,2022-08-13 00:31:30,0,0,2.296588,,,2.2966208084,2.296588,0,0,0,0,0,8.323,2.2966208084,2.296588,0,0,0,0,0,196.5, 0.4, 0.2,0,0,1024,1024,1024,1024,0,0,0,0,196.5,0,0,96,4.166,4.159,0,0,0,0,4.13,75.2,2.2966208084,2.296588,38,Tripod,
34500,2022-08-13 00:31:30,0,0,2.296588,,,2.2966208084,2.296588,0,0,0,0,0,8.323,2.2966208084,2.296588,0,0,0,0,0,196.5, 0.4, 0.2,0,0,1024,1024,1024,1024,0,0,0,0,196.5,0,0,96,4.166,4.159,0,0,0,0,4.13,75.2,2.2966208084,2.296588,38,Tripod,
34600,2022-08-13 00:31:30,0,0,2.296588,,,2.2966208084,2.296588,0,0,0,0,0,8.323,2.2966208084,2.296588,0,0,0,0,0,196.5, 0.4, 0.2,0,0,1024,1024,1024,1024,0,0,0,0,196.5,0,0,96,4.166,4.159,0,0,0,0,4.13,75.2,2.2966208084,2.296588,38,Tripod,
34700,2022-08-13 00:31:30,0,0,2.296588,,,2.2966208084,2.296588,0,0,0,0,0,8.323,2.2966208084,2.296588,0,0,0,0,0,196.5, 0.4, 0.2,0,0,1024,1024,1024,1024,0,0,0,0,196.5,0,0,96,4.166,4.159,0,0,0,0,4.13,75.2,2.2966208084,2.296588,38,Tripod,
34800,2022-08-13 00:31:30,0,0,2.296588,,,2.2966208084,2.296588,0,0,0,0,0,8.323,2.2966208084,2.296588,0,0,0,0,0,196.5, 0.4, 0.2,0,0,1024,1024,1024,1024,0,0,0,0,196.5,0,0,96,4.166,4.159,0,0,0,0,4.13,75.2,2.2966208084,2.296588,38,Tripod,
34900,2022-08-13 00:31:30,0,0,2.296588,,,2.2966208084,2.296588,0,0,0,0,0,8.323,2.2966208084,2.296588,0,0,0,0,0,196.5, 0.4, 0.3,0,0,1024,1024,1024,1024,0,0,0,0,196.5,0,0,96,4.166,4.159,0,0,0,0,4.13,75.2,2.2966208084,2.296588,38,Tripod,"Baja velocidad de la tarjeta SD. Puede afectar a su uso normal. Sustituye la tarjeta SD (Code: 10028)"
35000,2022-08-13 00:31:30,0,0,2.296588,,,2.2966208084,2.296588,0,0,0,0,0,8.323,2.2966208084,2.296588,0,0,0,0,0,196.5, 0.3, 0.2,0,0,1024,1024,1024,1024,0,0,0,0,196.5,0,0,96,4.166,4.159,0,0,0,0,4.13,75.2,2.2966208084,2.296588,38,Tripod,
35100,2022-08-13 00:31:30,0,0,2.296588,,,2.2966208084,2.296588,0,0,0,0,0,8.323,2.2966208084,2.296588,0,0,0,0,0,196.5, 0.2, 0.3,0,0,1024,1024,1061,1024,0,0,6,0,196.5,0,0,96,4.166,4.159,0,0,0,0,4.13,75.2,2.2966208084,2.296588,38,Tripod,
35200,2022-08-13 00:31:30,0,0,2.296588,,,2.2966208084,2.296588,0,0,0,0,0,8.323,2.2966208084,2.296588,0,0,0,0,0,196.5, 0.1, 0.3,0,0,1024,1024,1080,1024,0,0,8,0,196.5,0,0,96,4.166,4.159,0,0,0,0,4.13,75.2,2.2966208084,2.296588,38,Tripod,
35300,2022-08-13 00:31:30,0,0,2.296588,,,2.2966208084,2.296588,0,0,0,0,0,8.323,2.2966208084,2.296588,0,0,0,0,0,196.5, 0.1, 0.2,0,0,1024,1024,1100,1024,0,0,12,0,196.5,0,0,96,4.163,4.158,0,0,0,0,4.13,75.2,2.2966208084,2.296588,38,Tripod,
35400,2022-08-13 00:31:31,0,0,2.296588,,,2.2966208084,2.296588,0,0,0,0,0,8.323,2.2966208084,2.296588,0,0,0,0,0,196.5, 0.1, 0.2,0,0,1024,1024,1104,1024,0,0,12,0,196.5,0,0,96,4.163,4.158,0,0,0,0,4.13,75.2,2.2966208084,2.296588,38,Tripod,
35500,2022-08-13 00:31:31,0,0,2.296588,,,2.2966208084,2.296588,0,0,0,0,0,8.323,2.2966208084,2.296588,0,0,0,0,0,196.4, 0.2, 0.2,0,0,1024,1024,1098,1024,0,0,11,0,196.5,0,0,96,4.163,4.158,0,0,0,0,4.13,75.2,2.2966208084,2.296588,38,Tripod,
35600,2022-08-13 00:31:31,0,0,2.296588,,,2.2966208084,2.296588,0,0,0,0,0,8.323,2.2966208084,2.296588,0,0,0,0,0,196.4, 0.1, 0.1,0,0,974,1024,1080,1024,-8,0,8,0,196.5,0,0,96,4.163,4.158,0,0,0,0,4.13,75.2,2.2966208084,2.296588,38,Tripod,
35700,2022-08-13 00:31:31,0,0,2.296588,,,2.2966208084,2.624672,0,0,0,0,0,8.323,2.2966208084,2.296588,0,0,0,0,0,196.4, 0, 0,0,0,963,1024,1079,1024,-9,0,8,0,196.5,0,0,96,4.163,4.158,0,0,0,0,4.13,75.2,2.2966208084,2.296588,38,Tripod,
35800,2022-08-13 00:31:31,0,0,2.296588,,,2.2966208084,2.624672,0,0,0,0,0,8.323,2.2966208084,2.296588,0,0,0,0,0,196.4, 0.1, 0,0,0,963,1024,1079,1024,-9,0,8,0,196.5,0,0,96,4.163,4.158,0,0,0,0,4.13,75.2,2.2966208084,2.296588,38,Tripod,
35900,2022-08-13 00:31:31,0,0,2.296588,,,2.2966208084,2.624672,0,0,0,0,0,8.323,2.2966208084,2.296588,0,0,0,0,0,196.4, 0.4, -0.1,0,0,963,1024,1079,1024,-9,0,8,0,196.5,0,0,96,4.163,4.158,0,0,0,0,4.13,75.2,2.2966208084,2.296588,38,Tripod,
36000,2022-08-13 00:31:31,0,0,2.296588,,,2.2966208084,2.624672,0,0,0,0,0,8.323,2.2966208084,2.296588,0,0,0,0,0,196.4, 0.4, 0,0,0,963,1024,1101,1024,-9,0,12,0,196.5,0,0,96,4.163,4.158,0,0,0,0,4.13,75.2,2.2966208084,2.296588,38,Tripod,
36100,2022-08-13 00:31:31,0,0,2.296588,,,2.2966208084,2.624672,0,0,0,0,0,8.323,2.2966208084,2.296588,0,0,0,0,0,196.4, 0.3, 0.2,0,0,963,1024,1101,1024,-9,0,12,0,196.5,0,0,96,4.163,4.158,0,0,0,0,4.13,75.2,2.2966208084,2.296588,38,Tripod,
36200,2022-08-13 00:31:31,0,0,2.296588,,,2.2966208084,2.624672,0,0,0,0,0,8.323,2.2966208084,2.296588,0,0,0,0,0,196.4, 0.2, 0.2,0,0,963,1024,1101,1024,-9,0,12,0,196.5,0,0,96,4.163,4.158,0,0,0,0,4.13,75.2,2.2966208084,2.296588,38,Tripod,
36300,2022-08-13 00:31:31,0,0,2.296588,,,2.2966208084,2.624672,0,0,0,0,0,8.323,2.2966208084,2.296588,0,0,0,0,0,196.4, 0.3, 0.2,0,0,963,1024,1102,1024,-9,0,12,0,196.5,0,0,96,4.162,4.156,0,0,0,0,4.118,75.2,2.2966208084,2.296588,38,Tripod,
36400,2022-08-13 00:31:32,0,0,2.296588,,,2.2966208084,2.624672,0,0,0,0,0,8.323,2.2966208084,2.296588,0,0,0,0,0,196.5, 0.3, 0.3,0,0,963,1024,1097,1024,-9,0,11,0,196.5,0,0,96,4.162,4.156,0,0,0,0,4.118,75.2,2.2966208084,2.296588,38,Tripod,
36500,2022-08-13 00:31:32,0,0,2.296588,,,2.2966208084,2.624672,0,0,0,0,0,8.323,2.2966208084,2.296588,0,0,0,0,0,196.5, 0.3, 0.4,0,0,962,1024,1092,1024,-9,0,10,0,196.5,0,0,96,4.162,4.156,0,0,0,0,4.118,75.2,2.2966208084,2.296588,38,Tripod,
36600,2022-08-13 00:31:32,0,0,2.296588,,,2.2966208084,2.624672,0,0,0,0,0,8.323,2.2966208084,2.296588,0,0,0,0,0,196.5, 0.5, 0.4,0,0,951,1024,1095,1024,-11,0,11,0,196.5,0,0,96,4.162,4.156,0,0,0,0,4.118,75.2,2.2966208084,2.296588,38,Tripod,
36700,2022-08-13 00:31:32,0,0,2.296588,,,2.2966208084,2.624672,0,0,0,0,0,8.323,2.2966208084,2.296588,0,0,0,0,0,196.4, 0.4, 0.2,0,0,951,1024,1095,1024,-11,0,11,0,196.5,0,0,96,4.162,4.156,0,0,0,0,4.118,75.2,2.2966208084,2.296588,38,Tripod,
36800,2022-08-13 00:31:32,0,0,2.296588,,,2.2966208084,2.624672,0,0,0,0,0,8.323,2.2966208084,2.296588,0,0,0,0,0,196.5, 0.4, 0.1,0,0,950,1024,1094,1024,-11,0,11,0,196.5,0,0,96,4.162,4.156,0,0,0,0,4.118,75.2,2.2966208084,2.296588,38,Tripod,
36900,2022-08-13 00:31:32,0,0,2.624672,,,2.6247048084,2.624672,0,0,0,0,0,8.323,2.6247048084,2.624672,0,0,0,0,0,196.4, 0.5, 0,0,0,951,1024,1094,1024,-11,0,11,0,196.5,0,0,96,4.162,4.156,0,0,0,0,4.118,75.2,2.6247048084,2.624672,38,Tripod,
37000,2022-08-13 00:31:32,0,0,2.624672,,,2.6247048084,2.624672,0,0,0,0,0,8.323,2.6247048084,2.624672,0,0,0,0,0,196.4, 0.5, 0,0,0,950,1024,1092,1024,-11,0,10,0,196.5,0,0,96,4.162,4.156,0,0,0,0,4.118,75.2,2.6247048084,2.624672,38,Tripod,
37100,2022-08-13 00:31:32,0,0,2.624672,,,2.6247048084,2.624672,0,0,0,0,0,8.323,2.6247048084,2.624672,0,0,0,0,0,196.4, 0.5, 0,0,0,950,1024,1088,1024,-11,0,10,0,196.5,0,0,96,4.162,4.156,0,0,0,0,4.118,75.2,2.6247048084,2.624672,38,Tripod,
