time(millisecond),datetime(utc),latitude,longitude,height_above_takeoff(feet),height_above_ground_at_drone_location(feet),ground_elevation_at_drone_location(feet),altitude_above_seaLevel(feet),height_sonar(feet),speed(mph),distance(feet),mileage(feet),satellites,gpslevel,voltage(v),max_altitude(feet),max_ascent(feet),max_speed(mph),max_distance(feet), xSpeed(mph), ySpeed(mph), zSpeed(mph), compass_heading(degrees), pitch(degrees), roll(degrees),isPhoto,isVideo,rc_elevator,rc_aileron,rc_throttle,rc_rudder,rc_elevator(percent),rc_aileron(percent),rc_throttle(percent),rc_rudder(percent),gimbal_heading(degrees),gimbal_pitch(degrees),gimbal_roll(degrees),battery_percent,voltageCell1,voltageCell2,voltageCell3,voltageCell4,voltageCell5,voltageCell6,current(A),battery_temperature(f),altitude(feet),ascent(feet),flycStateRaw,flycState,message
0,2022-08-12 02:07:03,0,0,0,,,125.97896695784,0.328084,0,0,0,12,2,0,125.97896695784,0,0,0,0,0,0,321.9, 2.9, 0,0,0,364,364,364,1684,-100,-100,-100,100,332.5,0,0,98,4.326,4.322,0,0,0,0,0,73.76,125.97896695784,0,41,Motors_Started,"Vuela con cuidado (sin GPS) Aeronave en Zona de altitud restringida (150). Vuela con precaución (Code: 190001). Baja velocidad de la tarjeta SD. Puede afectar a su uso normal. Sustituye la tarjeta SD (Code: 10028). Sin señal GPS. La aeronave no puede hacer vuelo estacionario. V"
100,2022-08-12 02:07:03,0,0,0,,,125.97896695784,0.328084,0,0,0,13,2,0,125.97896695784,0,0,0,0,0,0,322, 2.9, 0,0,0,364,364,364,1684,-100,-100,-100,100,332.5,0,0,98,4.326,4.322,0,0,0,0,0,73.76,125.97896695784,0,41,Motors_Started,
200,2022-08-12 02:07:03,0,0,0,,,125.97896695784,0.328084,0,0,0,13,2,0,125.97896695784,0,0,0,0,0,0,322, 3, 0,0,0,364,364,364,1684,-100,-100,-100,100,332.5,0,0,98,4.326,4.322,0,0,0,0,0,73.76,125.97896695784,0,41,Motors_Started,
300,2022-08-12 02:07:03,-34.9058016468037,-56.163204532591,0,0,125.97896695784,125.97896695784,0.328084,0,0,0,13,2,0,125.97896695784,0,0,0,0,0,0,322, 2.9, 0,0,0,364,364,364,1684,-100,-100,-100,100,332.5,0,0,98,4.326,4.322,0,0,0,0,0,73.76,125.97896695784,0,41,Motors_Started,
400,2022-08-12 02:07:03,-34.9058001848519,-56.1632050031699,0,0.032808399999993,125.94615855784,125.97896695784,0.328084,0,0.55166340348,0.55166340348,13,2,0,125.97896695784,0,0,0.55166340348,0,0,0,322, 2.9, 0,0,0,364,364,364,1684,-100,-100,-100,100,332.5,0,0,98,4.326,4.322,0,0,0,0,0,73.76,125.97896695784,0,41,Motors_Started,
500,2022-08-12 02:07:03,-34.9058949896305,-56.1631813067705,0,-1.4107612,127.38972815784,125.97896695784,0.328084,0,34.757875128,35.860237368,13,2,0,125.97896695784,0,0,34.757875128,0,0,0,322, 2.9, 0,0,0,364,364,364,1684,-100,-100,-100,100,332.5,0,0,98,4.326,4.322,0,0,0,0,0,73.76,125.97896695784,0,41,Motors_Started,
600,2022-08-12 02:07:03,-34.9062234660655,-56.1630989736809,0,-4.4947508,130.47371775784,125.97896695784,0.328084,0,157.10794466,158.210634984,13,2,0,125.97896695784,0,0,157.10794466,0,0,0,322, 2.9, 0,0,0,364,364,364,1684,-100,-100,-100,100,332.5,0,0,98,4.326,4.322,0,0,0,0,0,73.76,125.97896695784,0,41,Motors_Started,"Setting new Return-To-Home altitude to 40m (131 ft). Data Recorder File Index is 35. Setting new Maximum Flight Altitude to 120m (394 ft)"
700,2022-08-12 02:07:03,-34.9064466996018,-56.163043106408,0,0.2296588,125.74930815784,125.97896695784,0.328084,0,240.252304276,241.354666516,13,2,0,125.97896695784,0,0,240.252304276,0,0,0,322, 2.9, 0,0,0,364,364,364,1684,-100,-100,-100,100,332.5,0,0,98,4.326,4.322,0,0,0,0,0,73.76,125.97896695784,0,41,Motors_Started,
800,2022-08-12 02:07:03,-34.9064461764812,-56.1630435508253,0,0.2296588,125.74930815784,125.97896695784,0.328084,0,240.038721592,241.587278072,13,2,0,125.97896695784,0,0,240.252304276,0,0,0,322, 2.9, -0.1,0,0,364,364,364,1684,-100,-100,-100,100,332.5,0,0,98,4.326,4.322,0,0,0,0,0,73.76,125.97896695784,0,41,Motors_Started,
900,2022-08-12 02:07:04,-34.9064458039808,-56.1630439426846,0,0.2296588,125.74930815784,125.97896695784,0.328084,0,239.88189744,241.767068104,13,2,0,125.97896695784,0,0,240.252304276,0,0,0,322, 2.9, 0,0,0,364,364,364,1684,-100,-100,-100,100,332.5,0,0,98,4.326,4.322,0,0,0,0,0,73.76,125.97896695784,0,41,Motors_Started,
1000,2022-08-12 02:07:04,-34.9064429861156,-56.1630455038967,0,0.1312336,125.84773335784,125.97896695784,0.328084,0,238.78117562,242.896333232,13,2,0,125.97896695784,0,0,240.252304276,0,0,0,322.1, 2.9, 0,0,0,364,364,364,1684,-100,-100,-100,100,332.5,0,0,98,4.326,4.322,0,0,0,0,0,73.76,125.97896695784,0,41,Motors_Started,
1100,2022-08-12 02:07:04,-34.906442994393,-56.1630457796769,0,0.1312336,125.84773335784,125.97896695784,0.328084,0,238.767724176,242.978682316,13,2,0,125.97896695784,0,0,240.252304276,0,0,0,322.1, 2.9, 0,0,0,364,364,364,1684,-100,-100,-100,100,332.5,0,0,98,4.326,4.322,0,0,0,0,0,73.76,125.97896695784,0,10,Assisted_Takeoff,
1200,2022-08-12 02:07:04,-34.9064430311005,-56.1630460495977,0,0.1312336,125.84773335784,125.97896695784,0.328084,0,238.76477142,243.060703316,13,2,0,125.97896695784,0,0,240.252304276,0,0,0,322.1, 2.9, 0,0,0,364,364,364,1684,-100,-100,-100,100,332.6,0,0,98,4.326,4.322,0,0,0,0,0,73.76,125.97896695784,0,10,Assisted_Takeoff,
1300,2022-08-12 02:07:04,-34.906443067719,-56.1630463262213,0,0.1312336,125.84773335784,125.97896695784,0.328084,0,238.76149058,243.144364736,12,2,0,125.97896695784,0,0,240.252304276,0,0,0,322.2, 2.9, 0,0,0,364,364,364,1684,-100,-100,-100,100,332.6,0,0,98,4.326,4.322,0,0,0,0,0,73.76,125.97896695784,0,10,Assisted_Takeoff,
1400,2022-08-12 02:07:04,-34.9064431160853,-56.163046651574,0,0.16404199999999,125.81492495784,125.97896695784,0.328084,0,238.759522076,243.243446104,12,2,0,125.97896695784,0,0,240.252304276,0,0,0,322.4, 2.7, 0.1,0,0,364,364,364,1684,-100,-100,-100,100,332.7,0,0,98,4.326,4.322,0,0,0,0,0,73.76,125.97896695784,0,10,Assisted_Takeoff,
1500,2022-08-12 02:07:04,-34.9064430900056,-56.1630470672342,0,0.16404199999999,125.81492495784,125.97896695784,0.328084,0,238.725729424,243.368118024,12,2,0,125.97896695784,0,0,240.252304276,0,0,0,322.6, 2.7, 0.2,0,0,364,364,364,1684,-100,-100,-100,100,332.9,0,0,98,4.326,4.322,0,0,0,0,0,73.76,125.97896695784,0,10,Assisted_Takeoff,
1600,2022-08-12 02:07:04,-34.9064431384152,-56.1630471414007,0,0.16404199999999,125.81492495784,125.97896695784,0.328084,0,238.7385247,243.396333248,12,4,0,125.97896695784,0,0,240.252304276,0,0,0,322.6, 2.7, 0.2,0,0,364,364,364,1684,-100,-100,-100,100,333,0,0,98,4.326,4.322,0,0,0,0,0,73.76,125.97896695784,0,10,Assisted_Takeoff,
1700,2022-08-12 02:07:04,-34.9064431852593,-56.1630471637159,0,0.16404199999999,125.81492495784,125.97896695784,0.328084,0,238.753944648,243.414705952,12,4,0,125.97896695784,0,0,240.252304276,0,0,0,322.6, 2.7, 0.2,0,0,364,364,364,1684,-100,-100,-100,100,333,0,0,98,4.326,4.322,0,0,0,0,0,73.76,125.97896695784,0,10,Assisted_Takeoff,"Baja velocidad de la tarjeta SD. Puede afectar a su uso normal. Sustituye la tarjeta SD (Code: 10028)"
1800,2022-08-12 02:07:04,-34.9064432344305,-56.1630470964577,0,0.16404199999999,125.81492495784,125.97896695784,0.328084,0,238.775598192,243.441936924,12,4,8.674,125.97896695784,0,0,240.252304276,0,0,0,322.6, 2.7, 0.2,0,0,364,364,364,1684,-100,-100,-100,100,333.1,0,0,98,4.326,4.322,0,0,0,0,0.708,73.76,125.97896695784,0,10,Assisted_Takeoff,
1900,2022-08-12 02:07:05,-34.9064432813557,-56.1630463515463,0,0.1312336,125.84773335784,125.97896695784,0.328084,0,238.836621816,243.665362128,12,4,8.674,125.97896695784,0,0,240.252304276,0,0,0,322.6, 2.7, 0.2,0,0,364,364,364,1684,-100,-100,-100,100,333.1,0,0,98,4.326,4.322,0,0,0,0,0.708,73.76,125.97896695784,0,10,Assisted_Takeoff,
2000,2022-08-12 02:07:05,-34.9064433335137,-56.1630463178475,0,0.1312336,125.84773335784,125.97896695784,0.328084,0,238.856963024,243.687015672,12,4,8.674,125.97896695784,0,0,240.252304276,0,0,0,322.6, 2.7, 0.2,0,0,364,364,364,1684,-100,-100,-100,100,333.1,0,0,98,4.326,4.322,0,0,0,0,0.708,73.76,125.97896695784,0,10,Assisted_Takeoff,
2100,2022-08-12 02:07:05,-34.9064433844378,-56.1630462575029,0,0.1312336,125.84773335784,125.97896695784,0.328084,0,238.878944652,243.712934308,12,4,8.674,125.97896695784,0,0,240.252304276,0,0,0,322.7, 2.7, 0.2,0,0,364,364,364,1684,-100,-100,-100,100,333.1,0,0,98,4.326,4.322,0,0,0,0,0.708,73.76,125.97896695784,0,10,Assisted_Takeoff,
2200,2022-08-12 02:07:05,-34.9064434383731,-56.1630461651999,0,0.1312336,125.84773335784,125.97896695784,0.328084,0,238.903550952,243.74672696,12,4,8.674,125.97896695784,0,0,240.252304276,0,0,0,322.7, 2.7, 0.2,0,0,364,364,364,1684,-100,-100,-100,100,333.1,0,0,98,4.326,4.322,0,0,0,0,0.708,73.76,125.97896695784,0,10,Assisted_Takeoff,
2300,2022-08-12 02:07:05,-34.90644350124,-56.1630454661806,0,0.16404199999999,125.81492495784,125.97896695784,0.328084,0,238.967855416,243.957028804,12,4,8.674,125.97896695784,0,0,240.252304276,0,0,0,322.7, 2.7, 0.2,0,0,379,364,364,1684,-98,-100,-100,100,333.1,0,0,98,4.326,4.322,0,0,0,0,0.708,73.76,125.97896695784,0,10,Assisted_Takeoff,
2400,2022-08-12 02:07:05,-34.9064435579935,-56.1630453590001,0,0.16404199999999,125.81492495784,125.97896695784,0.328084,0,238.99443022,243.995414632,12,4,8.674,125.97896695784,0,0,240.252304276,0,0,0,322.7, 2.7, 0.2,0,0,782,879,785,1247,-37,-22,-36,34,333.1,0,0,98,4.326,4.322,0,0,0,0,0.708,73.76,125.97896695784,0,10,Assisted_Takeoff,
2500,2022-08-12 02:07:05,-34.9064435969017,-56.1630452607178,0,0.16404199999999,125.81492495784,125.97896695784,0.328084,0,239.01411526,244.027894948,13,4,8.674,125.97896695784,0,0,240.252304276,0,0,0,322.7, 2.7, 0.2,0,0,1024,1024,1024,1024,0,0,0,0,333.1,0,0,98,4.326,4.322,0,0,0,0,0.708,73.76,125.97896695784,0,10,Assisted_Takeoff,
2600,2022-08-12 02:07:05,-34.9064436019172,-56.1630451736688,0,0.16404199999999,125.81492495784,125.97896695784,0.328084,0,239.021333108,244.054141668,13,4,8.674,125.97896695784,0,0,240.252304276,0,0,0,322.6, 2.7, 0.2,0,0,1024,1024,1024,1024,0,0,0,0,333.1,0,0,98,4.326,4.322,0,0,0,0,0.708,73.76,125.97896695784,0,10,Assisted_Takeoff,
2700,2022-08-12 02:07:05,-34.9064435256401,-56.1630451883845,0,0.16404199999999,125.81492495784,125.97896695784,0.328084,0,238.993117884,244.082356892,13,4,8.674,125.97896695784,0,0,240.252304276,0,0,0,322.7, 2.7, 0.2,0,0,1024,1024,1024,1024,0,0,0,0,333.2,0,0,98,4.326,4.322,0,0,0,0,0.708,73.76,125.97896695784,0,10,Assisted_Takeoff,
2800,2022-08-12 02:07:06,-34.906443565968,-56.1630452225695,0,0.16404199999999,125.81492495784,125.97896695784,0.328084,0,239.005256992,244.100073428,13,4,8.63,125.97896695784,0,0,240.252304276,0,0,0,322.7, 2.8, 0.2,0,0,1024,1024,1024,1024,0,0,0,0,333.2,0,0,98,4.326,4.323,0,0,0,0,1.415,73.76,125.97896695784,0,10,Assisted_Takeoff,
2900,2022-08-12 02:07:06,-34.9064436101246,-56.1630452703417,0,0.16404199999999,125.81492495784,125.97896695784,0.328084,0,239.018380352,244.121726972,13,4,8.63,125.97896695784,0,0,240.252304276,0,0,0,322.7, 2.7, 0.2,0,0,1024,1024,1024,1024,0,0,0,0,333.2,0,0,98,4.326,4.323,0,0,0,0,1.415,73.76,125.97896695784,0,10,Assisted_Takeoff,
3000,2022-08-12 02:07:06,-34.9064436680719,-56.1630453492324,0,0.16404199999999,125.81492495784,125.97896695784,0.328084,0,239.034456468,244.153223036,13,4,8.63,125.97896695784,0,0,240.252304276,0,0,0,322.6, 2.7, 0.2,0,0,1024,1024,1024,1024,0,0,0,0,333.2,0,0,98,4.326,4.323,0,0,0,0,1.415,73.76,125.97896695784,0,10,Assisted_Takeoff,"Se detectó tarjeta SD de baja velocidad"
3100,2022-08-12 02:07:06,-34.9064437252413,-56.1630454135512,0,0.16404199999999,125.81492495784,125.97896695784,0.328084,0,239.050860668,244.181766344,13,4,8.63,125.97896695784,0,0,240.252304276,0,0,0,322.7, 2.8, 0.2,0,0,1024,1024,1024,1024,0,0,0,0,333.2,0,0,98,4.326,4.323,0,0,0,0,1.415,73.76,125.97896695784,0,10,Assisted_Takeoff,
3200,2022-08-12 02:07:06,-34.9064438269597,-56.1630456124077,0,0.19685040000001,125.78211655784,125.97896695784,0.328084,0,239.075466968,244.25197632,13,4,8.63,125.97896695784,0,0,240.252304276,0,0,0,322.7, 2.7, 0.3,0,0,1024,1024,1024,1024,0,0,0,0,333.2,0,0,98,4.326,4.323,0,0,0,0,1.415,73.76,125.97896695784,0,10,Assisted_Takeoff,
3300,2022-08-12 02:07:06,-34.9064438697415,-56.1630456458582,0,0.19685040000001,125.78211655784,125.97896695784,0.328084,0,239.088918412,244.270349024,13,4,8.63,125.97896695784,0,0,240.252304276,0,0,0,322.7, 2.7, 0.3,0,0,1024,1024,1024,1024,0,0,0,0,333.2,0,0,98,4.326,4.323,0,0,0,0,1.415,73.76,125.97896695784,0,10,Assisted_Takeoff,
3400,2022-08-12 02:07:06,-34.9064438774209,-56.1630456971043,0,0.19685040000001,125.78211655784,125.97896695784,0.328084,0,239.088590328,244.286097056,13,4,8.63,125.97896695784,0,0,240.252304276,0,0,0,322.7, 2.7, 0.3,0,0,1024,1024,1024,1024,0,0,0,0,333.2,0,0,98,4.326,4.323,0,0,0,0,1.415,73.76,125.97896695784,0,10,Assisted_Takeoff,
3500,2022-08-12 02:07:06,-34.9064438938285,-56.1630457328052,0,0.19685040000001,125.78211655784,125.97896695784,0.328084,0,239.092199252,244.298236164,13,4,8.63,125.97896695784,0,0,240.252304276,0,0,0,322.7, 2.7, 0.3,0,0,1024,1024,1024,1024,0,0,0,0,333.2,0,0,98,4.326,4.323,0,0,0,0,1.415,73.76,125.97896695784,0,10,Assisted_Takeoff,
3600,2022-08-12 02:07:06,-34.9064438662288,-56.1630457812719,0,0.19685040000001,125.78211655784,125.97896695784,0.328084,0,239.079403976,244.3159527,13,4,8.63,125.97896695784,0,0,240.252304276,0,0,0,322.7, 2.7, 0.3,0,0,1024,1024,1024,1024,0,0,0,0,333.2,0,0,98,4.326,4.323,0,0,0,0,1.415,73.76,125.97896695784,0,10,Assisted_Takeoff,
3700,2022-08-12 02:07:06,-34.9064439099179,-56.1630457836875,0,0.19685040000001,125.78211655784,125.97896695784,0.328084,0,239.094823924,244.331700732,13,4,8.63,125.97896695784,0,0,240.252304276,0,0,0,322.7, 2.7, 0.3,0,0,1024,1024,1024,1024,0,0,0,0,333.2,0,0,98,4.326,4.323,0,0,0,0,1.415,73.76,125.97896695784,0,10,Assisted_Takeoff,
3800,2022-08-12 02:07:07,-34.9064439663354,-56.1630457744222,0,0.19685040000001,125.78211655784,125.97896695784,0.328084,0,239.1158213,244.352698108,13,4,8.649,125.97896695784,0,0,240.252304276,0,0,0,322.7, 2.7, 0.3,0,0,1024,1024,1024,1024,0,0,0,0,333.2,0,0,98,4.325,4.322,0,0,0,0,1.123,73.76,125.97896695784,0,10,Assisted_Takeoff,
3900,2022-08-12 02:07:07,-34.9064440365931,-56.1630457796932,0,0.19685040000001,125.78211655784,125.97896695784,0.328084,0,239.1404276,244.37828866,13,4,8.649,125.97896695784,0,0,240.252304276,0,0,0,322.7, 2.7, 0.3,0,0,1024,1024,1024,1024,0,0,0,0,333.2,0,0,98,4.325,4.322,0,0,0,0,1.123,73.76,125.97896695784,0,10,Assisted_Takeoff,
4000,2022-08-12 02:07:07,-34.9064442648799,-56.1630458322407,0,0.19685040000001,125.78211655784,125.97896695784,0.328084,0,239.21916776,244.462934332,13,4,8.649,125.97896695784,0,0,240.252304276,0,0,0,322.7, 2.7, 0.3,0,0,1024,1024,1024,1024,0,0,0,0,333.2,0,0,98,4.325,4.322,0,0,0,0,1.123,73.76,125.97896695784,0,10,Assisted_Takeoff,
4100,2022-08-12 02:07:07,-34.9064443445192,-56.1630458632882,0,0.19685040000001,125.78211655784,125.97896695784,0.328084,0,239.245742564,244.493446144,13,4,8.649,125.97896695784,0,0,240.252304276,0,0,0,322.7, 2.7, 0.3,0,0,1024,1024,1024,1024,0,0,0,0,333.2,0,0,98,4.325,4.322,0,0,0,0,1.123,73.76,125.97896695784,0,10,Assisted_Takeoff,
4200,2022-08-12 02:07:07,-34.906444364056,-56.1630458731144,0,0.19685040000001,125.78211655784,125.97896695784,0.328084,0,239.25197616,244.50132016,13,4,8.649,125.97896695784,0,0,240.252304276,0,0,0,322.7, 2.6, 0.3,0,0,1024,1024,1024,1024,0,0,0,0,333.2,0,0,98,4.325,4.322,0,0,0,0,1.123,73.76,125.97896695784,0,10,Assisted_Takeoff,
4300,2022-08-12 02:07:07,-34.9064443861074,-56.1630458776163,0,0.19685040000001,125.78211655784,125.97896695784,0.328084,0,239.259522092,244.50952226,13,4,8.649,125.97896695784,0,0,240.252304276,0,0,0,322.6, 2.7, 0.2,0,0,1024,1024,1024,1024,0,0,0,0,333.2,0,0,98,4.325,4.322,0,0,0,0,1.123,73.76,125.97896695784,0,10,Assisted_Takeoff,
4400,2022-08-12 02:07:07,-34.9064443300378,-56.1630458181823,0,0.19685040000001,125.78211655784,125.97896695784,0.328084,0,239.243117892,244.536425148,13,4,8.649,125.97896695784,0,0,240.252304276,0,0,0,322.7, 2.7, 0.2,0,0,1024,1024,1024,1024,0,0,0,0,333.2,0,0,98,4.325,4.322,0,0,0,0,1.123,73.76,125.97896695784,0,10,Assisted_Takeoff,
4500,2022-08-12 02:07:07,-34.9064443657207,-56.16304582572,0,0.19685040000001,125.78211655784,125.97896695784,0.328084,0,239.255585084,244.549876592,13,4,8.649,125.97896695784,0,0,240.252304276,0,0,0,322.7, 2.7, 0.3,0,0,1024,1024,1024,1024,0,0,0,0,333.2,0,0,98,4.325,4.322,0,0,0,0,1.123,73.76,125.97896695784,0,10,Assisted_Takeoff,
4600,2022-08-12 02:07:07,-34.9064444110965,-56.1630458673801,0,0.19685040000001,125.78211655784,125.97896695784,0.328084,0,239.269364612,244.570545884,13,4,8.649,125.97896695784,0,0,240.252304276,0,0,0,322.7, 2.6, 0.3,0,0,1024,1024,1024,1024,0,0,0,0,333.2,0,0,98,4.325,4.322,0,0,0,0,1.123,73.76,125.97896695784,0,10,Assisted_Takeoff,
4700,2022-08-12 02:07:07,-34.906444456149,-56.1630458977179,0,0.19685040000001,125.78211655784,125.97896695784,0.328084,0,239.283472224,244.589246672,13,4,8.649,125.97896695784,0,0,240.252304276,0,0,0,322.6, 2.6, 0.3,0,0,1024,1024,1024,1024,0,0,0,0,333.2,0,0,98,4.325,4.322,0,0,0,0,1.123,73.76,125.97896695784,0,10,Assisted_Takeoff,
4800,2022-08-12 02:07:07,-34.9064445071641,-56.1630459068177,0,0.2296588,125.74930815784,125.97896695784,0.328084,0,239.30118876,244.60794746,13,4,8.649,125.97896695784,0,0,240.252304276,0,0,0,322.7, 2.7, 0.2,0,0,1024,1024,1024,1024,0,0,0,0,333.2,0,0,98,4.325,4.321,0,0,0,0,1.094,73.76,125.97896695784,0,10,Assisted_Takeoff,
4900,2022-08-12 02:07:08,-34.906444566816,-56.1630459713634,0,0.2296588,125.74930815784,125.97896695784,0.328084,0,239.318577212,244.637146936,13,5,8.649,125.97896695784,0,0,240.252304276,0,0,0,322.7, 2.7, 0.2,0,0,1024,1024,1024,1024,0,0,0,0,333.2,0,0,98,4.325,4.321,0,0,0,0,1.094,73.76,125.97896695784,0,10,Assisted_Takeoff,
5000,2022-08-12 02:07:08,-34.9064446188373,-56.1630459702611,0,0.2296588,125.74930815784,125.97896695784,0.328084,0,239.337278,244.656175808,13,5,8.649,125.97896695784,0,0,240.252304276,0,0,0,322.7, 2.7, 0.2,0,0,1024,1024,1024,1024,0,0,0,0,333.2,0,0,98,4.325,4.321,0,0,0,0,1.094,73.76,125.97896695784,0,10,Assisted_Takeoff,
5100,2022-08-12 02:07:08,-34.9064446690005,-56.1630459515642,0,0.2296588,125.74930815784,125.97896695784,0.328084,0,239.356306872,244.67520468,13,5,8.649,125.97896695784,0,0,240.252304276,0,0,0,322.7, 2.6, 0.2,0,0,1024,1024,1024,1024,0,0,0,0,333.2,0,0,98,4.325,4.321,0,0,0,0,1.094,73.76,125.97896695784,0,10,Assisted_Takeoff,
5200,2022-08-12 02:07:08,-34.9064447223208,-56.1630458948801,0,0.2296588,125.74930815784,125.97896695784,0.328084,0,239.378944668,244.701123316,13,5,8.649,125.97896695784,0,0,240.252304276,0,0,0,322.6, 2.7, 0.2,0,0,1024,1024,1024,1024,0,0,0,0,333.2,0,0,98,4.325,4.321,0,0,0,0,1.094,73.76,125.97896695784,0,10,Assisted_Takeoff,"Punto de origen actualizado. Altitud de RPO establecida en 40m (Code: 3000001)"
5300,2022-08-12 02:07:08,-34.906444781104,-56.1630457014319,0,0.2296588,125.74930815784,125.97896695784,0.328084,0,239.411424984,244.762803108,13,5,8.649,125.97896695784,0,0,240.252304276,0,0,0,322.7, 2.7, 0.2,0,0,1024,1024,1024,1024,0,0,0,0,333.2,0,0,98,4.325,4.321,0,0,0,0,1.094,73.76,125.97896695784,0,10,Assisted_Takeoff,
5400,2022-08-12 02:07:08,-34.9064448337418,-56.163045680261,0,0.2296588,125.74930815784,125.97896695784,0.328084,0,239.431438108,244.783144316,13,5,8.649,125.97896695784,0,0,240.252304276,0,0,0,322.7, 2.7, 0.2,0,0,1024,1024,1024,1024,0,0,0,0,333.2,0,0,98,4.325,4.321,0,0,0,0,1.094,73.76,125.97896695784,0,10,Assisted_Takeoff,
5500,2022-08-12 02:07:08,-34.9064448999071,-56.1630456823586,0,0.2296588,125.74930815784,125.97896695784,0.328084,0,239.455060156,244.807094448,13,5,8.649,125.97896695784,0,0,240.252304276,0,0,0,322.7, 2.6, 0.2,0,0,1024,1024,1024,1024,0,0,0,0,333.2,0,0,98,4.325,4.321,0,0,0,0,1.094,73.76,125.97896695784,0,10,Assisted_Takeoff,
5600,2022-08-12 02:07:08,-34.9064450051805,-56.1630457330698,0,0.2296588,125.74930815784,125.97896695784,0.328084,0,239.489508976,244.848433032,13,5,8.649,125.97896695784,0,0,240.252304276,0,0,0,322.6, 2.6, 0.3,0,0,1024,1024,1024,1024,0,0,0,0,333.2,0,0,98,4.325,4.321,0,0,0,0,1.094,73.76,125.97896695784,0,10,Assisted_Takeoff,
5700,2022-08-12 02:07:08,-34.9064451675223,-56.1630458770205,0,0.2296588,125.74930815784,125.97896695784,0.328084,0,239.53904966,244.921595764,13,5,8.649,125.97896695784,0,0,240.252304276,0,0,0,322.6, 2.7, 0.2,0,0,1024,1024,1024,1024,0,0,0,0,333.2,0,0,98,4.325,4.321,0,0,0,0,1.094,73.76,125.97896695784,0,10,Assisted_Takeoff,
5800,2022-08-12 02:07:08,-34.9064452347468,-56.1630458980497,0,0.2296588,125.74930815784,125.97896695784,0.328084,0,239.56201554,244.947186316,13,5,8.648,125.97896695784,0,0,240.252304276,0,0,0,322.7, 2.7, 0.2,0,0,1024,1024,1024,1024,0,0,0,0,333.2,0,0,98,4.326,4.322,0,0,0,0,1.088,73.76,125.97896695784,0,10,Assisted_Takeoff,
5900,2022-08-12 02:07:09,-34.9064453103135,-56.1630459297431,0,0.2296588,125.74930815784,125.97896695784,0.328084,0,239.586949924,244.976057708,14,5,8.648,125.97896695784,0,0,240.252304276,0,0,0,322.7, 2.6, 0.2,0,0,1024,1024,1024,1024,0,0,0,0,333.2,0,0,98,4.326,4.322,0,0,0,0,1.088,73.76,125.97896695784,0,10,Assisted_Takeoff,
6000,2022-08-12 02:07:09,-34.9064454124898,-56.1630459878865,0,0.2296588,125.74930815784,125.97896695784,0.328084,0,239.620086408,245.017396292,14,5,8.648,125.97896695784,0,0,240.252304276,0,0,0,322.7, 2.6, 0.2,0,0,1024,1024,1024,1024,0,0,0,0,333.2,0,0,98,4.326,4.322,0,0,0,0,1.088,73.76,125.97896695784,0,10,Assisted_Takeoff,
6100,2022-08-12 02:07:09,-34.906445532144,-56.1630461946874,0,0.29527559999999,125.68369135784,125.97896695784,0.328084,0,239.65059822,245.093183696,14,5,8.648,125.97896695784,0,0,240.252304276,0,0,0,322.7, 2.6, 0.2,0,0,1024,1024,1024,1024,0,0,0,0,333.2,0,0,98,4.326,4.322,0,0,0,0,1.088,73.76,125.97896695784,0,10,Assisted_Takeoff,
6200,2022-08-12 02:07:09,-34.906445594675,-56.1630462672145,0,0.29527559999999,125.68369135784,125.97896695784,0.328084,0,239.66864284,245.12467976,14,5,8.648,125.97896695784,0,0,240.252304276,0,0,0,322.7, 2.7, 0.2,0,0,1024,1024,1024,1024,0,0,0,0,333.2,0,0,98,4.326,4.322,0,0,0,0,1.088,73.76,125.97896695784,0,10,Assisted_Takeoff,
6300,2022-08-12 02:07:09,-34.9064456492672,-56.1630463229225,0,0.29527559999999,125.68369135784,125.97896695784,0.328084,0,239.68504704,245.150598396,14,5,8.648,125.97896695784,0,0,240.252304276,0,0,0,322.7, 2.6, 0.2,0,0,1024,1024,1024,1024,0,0,0,0,333.2,0,0,98,4.326,4.322,0,0,0,0,1.088,73.76,125.97896695784,0,10,Assisted_Takeoff,
6400,2022-08-12 02:07:09,-34.9064456987937,-56.1630463422102,0,0.29527559999999,125.68369135784,125.97896695784,0.328084,0,239.701779324,245.169627268,14,5,8.648,125.97896695784,0,0,240.252304276,0,0,0,322.7, 2.6, 0.2,0,0,1024,1024,1024,1024,0,0,0,0,333.2,0,0,98,4.326,4.322,0,0,0,0,1.088,73.76,125.97896695784,0,10,Assisted_Takeoff,
6500,2022-08-12 02:07:09,-34.906445743615,-56.1630463683565,0,0.29527559999999,125.68369135784,125.97896695784,0.328084,0,239.71621502,245.187671888,14,5,8.648,125.97896695784,0,0,240.252304276,0,0,0,322.6, 2.6, 0.2,0,0,1024,1024,1024,1024,0,0,0,0,333.2,0,0,98,4.326,4.322,0,0,0,0,1.088,73.76,125.97896695784,0,10,Assisted_Takeoff,
6600,2022-08-12 02:07:09,-34.9064457061162,-56.1630463543962,0,0.29527559999999,125.68369135784,125.97896695784,0.328084,0,239.703419744,245.2017795,14,5,8.648,125.97896695784,0,0,240.252304276,0,0,0,322.6, 2.7, 0.2,0,0,1024,1024,1024,1024,0,0,0,0,333.2,0,0,98,4.326,4.322,0,0,0,0,1.088,73.76,125.97896695784,0,10,Assisted_Takeoff,
6700,2022-08-12 02:07:09,-34.9064457633265,-56.1630464184447,0,0.29527559999999,125.68369135784,125.97896695784,0.328084,0,239.720152028,245.230322808,14,5,8.648,125.97896695784,0,0,240.252304276,0,0,0,322.7, 2.7, 0.2,0,0,1024,1024,1024,1024,0,0,0,0,333.2,0,0,98,4.326,4.322,0,0,0,0,1.088,73.76,125.97896695784,0,10,Assisted_Takeoff,
6800,2022-08-12 02:07:09,-34.9064458605281,-56.1630465294481,0,0.328084,125.65088295784,125.97896695784,0.328084,0,239.748367252,245.27887924,14,5,8.646,125.97896695784,0,0,240.252304276,0,0,0,322.7, 2.7, 0.3,0,0,1024,1024,1024,1024,0,0,0,0,333.2,0,0,98,4.325,4.321,0,0,0,0,1.104,73.76,125.97896695784,0,10,Assisted_Takeoff,
6900,2022-08-12 02:07:10,-34.9064459442855,-56.1630466259918,0,0.328084,125.65088295784,125.97896695784,0.328084,0,239.772645468,245.320873992,16,5,8.646,125.97896695784,0,0,240.252304276,0,0,0,322.7, 2.6, 0.3,0,0,1024,1024,1024,1024,0,0,0,0,333.2,0,0,98,4.325,4.321,0,0,0,0,1.104,73.76,125.97896695784,0,10,Assisted_Takeoff,
7000,2022-08-12 02:07:10,-34.9064460433254,-56.1630467943443,0,0.328084,125.65088295784,125.97896695784,0.328084,0,239.79823602,245.382881868,16,5,8.646,125.97896695784,0,0,240.252304276,0,0,0,322.6, 2.7, 0.2,0,0,1024,1024,1024,1024,0,0,0,0,333.2,0,0,98,4.325,4.321,0,0,0,0,1.104,73.76,125.97896695784,0,10,Assisted_Takeoff,
7100,2022-08-12 02:07:10,-34.9064460979088,-56.1630468889694,0,0.328084,125.65088295784,125.97896695784,0.328084,0,239.812015548,245.417658772,15,5,8.646,125.97896695784,0,0,240.252304276,0,0,0,322.7, 2.7, 0.3,0,0,1024,1024,1024,1024,0,0,0,0,333.2,0,0,98,4.325,4.321,0,0,0,0,1.104,73.76,125.97896695784,0,10,Assisted_Takeoff,
7200,2022-08-12 02:07:10,-34.9064461401482,-56.1630470955636,0,0.328084,125.65088295784,125.97896695784,0.328084,0,239.814968304,245.481307068,15,5,8.646,125.97896695784,0,0,240.252304276,0,0,0,322.7, 2.6, 0.3,0,0,1024,1024,1024,1024,0,0,0,0,333.2,0,0,98,4.325,4.321,0,0,0,0,1.104,73.76,125.97896695784,0,10,Assisted_Takeoff,
7300,2022-08-12 02:07:10,-34.906446179022,-56.1630472744555,0,0.328084,125.65088295784,125.97896695784,0.328084,0,239.818577228,245.53642518,15,5,8.646,125.97896695784,0,0,240.252304276,0,0,0,322.7, 2.6, 0.3,0,0,1024,1024,1024,1024,0,0,0,0,333.2,0,0,98,4.325,4.321,0,0,0,0,1.104,73.76,125.97896695784,0,10,Assisted_Takeoff,
7400,2022-08-12 02:07:10,-34.9064461729756,-56.1630475483875,0,0.3608924,125.61807455784,125.97896695784,0.328084,0,239.800204524,245.61844618,15,5,8.646,125.97896695784,0,0,240.252304276,0,0,0,322.6, 2.7, 0.3,0,0,1024,1024,1024,1024,0,0,0,0,333.2,0,0,98,4.325,4.321,0,0,0,0,1.104,73.76,125.97896695784,0,10,Assisted_Takeoff,
7500,2022-08-12 02:07:10,-34.9064462042401,-56.1630476111324,0,0.3608924,125.61807455784,125.97896695784,0.328084,0,239.807750456,245.640427808,15,5,8.646,125.97896695784,0,0,240.252304276,0,0,0,322.7, 2.7, 0.3,0,0,1024,1024,1039,1024,0,0,2,0,333.2,0,0,98,4.325,4.321,0,0,0,0,1.104,73.76,125.97896695784,0,10,Assisted_Takeoff,
7600,2022-08-12 02:07:10,-34.9064461978505,-56.1630475958458,0,0.3608924,125.61807455784,125.97896695784,0.328084,0,239.80643812,245.645677152,15,5,8.646,125.97896695784,0,0,240.252304276,0,0,0,322.7, 2.7, 0.3,0,0,1024,1024,1140,1024,0,0,18,0,333.2,0,0,98,4.325,4.321,0,0,0,0,1.104,73.76,125.97896695784,0,10,Assisted_Takeoff,
7700,2022-08-12 02:07:10,-34.9064462007927,-56.1630475693312,0,0.3608924,125.61807455784,125.97896695784,0.328084,0,239.809062792,245.653551168,15,5,8.646,125.97896695784,0,0,240.252304276,0,0,0,322.6, 2.7, 0.3,0,0,1024,1024,1140,1024,0,0,18,0,333.2,0,0,98,4.325,4.321,0,0,0,0,1.104,73.76,125.97896695784,0,10,Assisted_Takeoff,
7800,2022-08-12 02:07:10,-34.9064461452326,-56.1630472009527,0,0.328084,125.65088295784,125.97896695784,0.328084,0,239.810703212,245.765755896,15,5,8.645,125.97896695784,0,0,240.252304276,0,0,0,322.6, 2.7, 0.3,0,0,1024,1024,1204,1024,0,0,27,0,333.2,0,0,98,4.324,4.32,0,0,0,0,1.084,73.76,125.97896695784,0,10,Assisted_Takeoff,
7900,2022-08-12 02:07:11,-34.9064461828993,-56.1630471718112,0,0.328084,125.65088295784,125.97896695784,0.328084,0,239.825795076,245.782160096,15,5,8.645,125.97896695784,0,0,240.252304276,0,0,0,322.7, 2.6, 0.2,0,0,1024,1024,1277,1024,0,0,38,0,333.2,0,0,98,4.324,4.32,0,0,0,0,1.084,73.76,125.97896695784,0,10,Assisted_Takeoff,
8000,2022-08-12 02:07:11,-34.9064462369702,-56.1630471874373,0,0.328084,125.65088295784,125.97896695784,0.328084,0,239.84416778,245.80217322,15,5,8.645,125.97896695784,0,0,240.252304276,0,0,0,322.7, 2.6, 0.3,0,0,1024,1024,1279,1024,0,0,39,0,333.2,0,0,98,4.324,4.32,0,0,0,0,1.084,73.76,125.97896695784,0,10,Assisted_Takeoff,
8100,2022-08-12 02:07:11,-34.9064463074533,-56.1630472110067,0,0.328084,125.65088295784,125.97896695784,0.328084,0,239.868117912,245.829076108,15,5,8.645,125.97896695784,0,0,240.252304276,0,0,0,322.6, 2.6, 0.3,0,0,1024,1024,1277,1024,0,0,38,0,333.2,0,0,98,4.324,4.32,0,0,0,0,1.084,73.76,125.97896695784,0,10,Assisted_Takeoff,
8200,2022-08-12 02:07:11,-34.9064464218495,-56.1630472576414,0,0.328084,125.65088295784,125.97896695784,0.328084,0,239.90650374,245.873039364,15,5,8.645,125.97896695784,0,0,240.252304276,0,0,0,322.2, 0.8, 0.3,0,0,1024,1024,1269,1024,0,0,37,0,333.2,0,0,98,4.324,4.32,0,0,0,0,1.084,73.76,125.97896695784,0,10,Assisted_Takeoff,
8300,2022-08-12 02:07:11,-34.9064466482105,-56.1630473538501,0,0.3608924,125.61807455784,125.97896695784,0.328084,0,239.981634976,245.960309708,16,5,8.645,125.97896695784,0,0,240.252304276,0,0,0,322.3, -1.5, -0.5,0,0,1024,1024,1267,1024,0,0,37,0,333.2,0,0,98,4.324,4.32,0,0,0,0,1.084,73.76,125.97896695784,0,10,Assisted_Takeoff,
8400,2022-08-12 02:07:11,-34.9064467189228,-56.1630474632219,0,0.3608924,125.61807455784,125.97896695784,0.328084,0,240.000663848,246.001976376,16,5,8.645,125.97896695784,0,0,240.252304276,0,0,-0.447388,322.5, -0.9, 0,0,0,1024,1024,1261,1024,0,0,36,0,333.2,0,0,98,4.324,4.32,0,0,0,0,1.084,73.76,125.97896695784,0,6,P-GPS,"Baja velocidad de la tarjeta SD. Puede afectar a su uso normal. Sustituye la tarjeta SD (Code: 10028)"
8500,2022-08-12 02:07:11,-34.9064467738352,-56.1630475580311,0,0.39370079999999,125.58526615784,125.97896695784,0.328084,0,240.01477146,246.03675328,16,5,8.645,125.97896695784,0,0,240.252304276,0,0,-0.671082,322.7, 0, 0.6,0,0,1024,1024,1261,1024,0,0,36,0,333.2,0,0,98,4.324,4.32,0,0,0,0,1.084,73.76,125.97896695784,0,6,P-GPS,
8600,2022-08-12 02:07:11,-34.9064468126434,-56.1630475886407,0,0.39370079999999,125.58526615784,125.97896695784,0.656168,0,240.026910568,246.053813648,16,5,8.645,125.97896695784,0,0,240.252304276,0,0,-0.894776,322.8, 0.2, 0.5,0,0,1024,1024,1238,1024,0,0,32,0,333.2,0,0,98,4.324,4.32,0,0,0,0,1.084,73.76,125.97896695784,0,6,P-GPS,"Baja velocidad de la tarjeta SD. Puede afectar a su uso normal. Sustituye la tarjeta SD (Code: 10028)"
8700,2022-08-12 02:07:11,-34.9064468448614,-56.1630475216473,0.328084,0.72178479999999,125.58526615784,126.30705095784,0.656168,0,240.042330516,246.076779528,16,5,8.645,126.30705095784,0.328084,0,240.252304276,0,0,-0.894776,322.9, 0.9, 0.7,0,0,1024,1024,1207,1024,0,0,28,0,333.2,0,0,98,4.324,4.32,0,0,0,0,1.084,73.76,126.30705095784,0.328084,6,P-GPS,
8800,2022-08-12 02:07:12,-34.9064469261545,-56.1630475996747,0.328084,0.72178479999999,125.58526615784,126.30705095784,0.656168,0,240.066608732,246.114837272,16,5,8.645,126.30705095784,0.328084,0,240.252304276,0,0,-0.894776,323, 0.4, 0.8,0,0,1024,1024,1196,1024,0,0,26,0,333.2,0,0,98,4.243,4.238,0,0,0,0,1.076,73.76,126.30705095784,0.328084,6,P-GPS,
8900,2022-08-12 02:07:12,-34.9064469986024,-56.1630476912886,0.656168,1.0498688,125.58526615784,126.63513495784,0.984252,0,240.087278024,246.152895016,16,5,8.645,126.63513495784,0.656168,0,240.252304276,0,0,-0.894776,323, 0.5, 0.7,0,0,1024,1024,1157,1024,0,0,20,0,333.2,0,0,98,4.243,4.238,0,0,0,0,1.076,73.76,126.63513495784,0.656168,6,P-GPS,
9000,2022-08-12 02:07:12,-34.9064470517365,-56.163047837263,0.984252,1.3779528,125.58526615784,126.96321895784,0.984252,0,240.097776712,246.200467196,16,5,8.645,126.96321895784,0.984252,0,240.252304276,0,0,-1.11847,322.7, 0.3, 0,0,0,1024,1024,1110,1024,0,0,13,0,333.2,0,0,98,4.243,4.238,0,0,0,0,1.076,73.76,126.96321895784,0.984252,6,P-GPS,
9100,2022-08-12 02:07:12,-34.9064473082877,-56.163047970263,0.984252,1.3779528,125.58526615784,126.96321895784,0.984252,0,240.181766216,246.302173236,16,5,8.645,126.96321895784,0.984252,0,240.252304276,0,0,-0.894776,322.6, 0, 0.1,0,0,1024,1024,1041,1024,0,0,3,0,333.2,0,0,98,4.243,4.238,0,0,0,0,1.076,73.76,126.96321895784,0.984252,6,P-GPS,
9200,2022-08-12 02:07:12,-34.9064474566792,-56.1630479673974,1.312336,1.7060368,125.58526615784,127.29130295784,1.312336,0,240.234915824,246.356307096,16,5,8.645,127.29130295784,1.312336,0,240.252304276,0,0,-0.894776,322.6, -0.5, 0.4,0,0,1024,1024,1024,1024,0,0,0,0,333.2,0,0,98,4.243,4.238,0,0,0,0,1.076,73.76,127.29130295784,1.312336,6,P-GPS,
9300,2022-08-12 02:07:12,-34.9064475724502,-56.1630480459367,1.64042,2.0997376,125.51964935784,127.61938695784,1.312336,0,240.271989316,246.404863528,16,5,8.645,127.61938695784,1.64042,0,240.271989316,0,0,-0.671082,322.7, 0.2, 0.7,0,0,1024,1024,1024,1024,0,0,0,0,333.2,0,0,98,4.243,4.238,0,0,0,0,1.076,73.76,127.61938695784,1.64042,6,P-GPS,
9400,2022-08-12 02:07:12,-34.906447634513,-56.1630483050096,1.64042,2.0997376,125.51964935784,127.61938695784,1.312336,0,240.279207164,246.485572192,16,5,8.645,127.61938695784,1.64042,0,240.279207164,0,0,-0.447388,322.6, 0.5, 0.5,0,0,1024,1024,1024,1024,0,0,0,0,333.2,0,0,98,4.243,4.238,0,0,0,0,1.076,73.76,127.61938695784,1.64042,6,P-GPS,
9500,2022-08-12 02:07:12,-34.9064475007127,-56.1630492657573,1.968504,2.46063,125.48684095784,127.94747095784,1.64042,0,240.17553262,246.777238868,16,5,8.645,127.94747095784,1.968504,0,240.279207164,0,0,-0.223694,322.6, 0.7, 0.5,0,0,1024,1024,1024,1024,0,0,0,0,333.2,0,0,98,4.243,4.238,0,0,0,0,1.076,73.76,127.94747095784,1.968504,6,P-GPS,
9600,2022-08-12 02:07:12,-34.9064474775062,-56.1630496284327,1.968504,2.4278216,125.51964935784,127.94747095784,1.64042,0,240.14600506,246.885834672,16,5,8.645,127.94747095784,1.968504,0,240.279207164,0,0,-0.223694,322.6, 1.4, 0.1,0,0,1024,1024,1024,1024,0,0,0,0,333.2,0,0,98,4.243,4.238,0,0,0,0,1.076,73.76,127.94747095784,1.968504,6,P-GPS,
9700,2022-08-12 02:07:12,-34.9064474921602,-56.1630499320181,2.296588,2.7559056,125.51964935784,128.27555495784,1.64042,0,240.133865952,246.977042024,16,5,8.645,128.27555495784,2.296588,0,240.279207164,0,0,0,322.5, 0.9, -0.2,0,0,1024,1024,1024,1024,0,0,0,0,333.2,0,0,98,4.243,4.238,0,0,0,0,1.076,73.76,128.27555495784,2.296588,6,P-GPS,
9800,2022-08-12 02:07:13,-34.9064475843627,-56.1630501474613,2.296588,2.8215224,125.45403255784,128.27555495784,1.64042,0,240.154535244,247.049548588,16,5,8.645,128.27555495784,2.296588,0,240.279207164,0,0,0,322.6, 0.9, 0,0,0,1024,1024,1024,1024,0,0,0,0,333.2,0,0,98,4.243,4.238,0,0,0,0,1.076,73.76,128.27555495784,2.296588,6,P-GPS,
9900,2022-08-12 02:07:13,-34.9064476523502,-56.1630502833957,2.296588,2.8215224,125.45403255784,128.27555495784,1.64042,0,240.170939444,247.097120768,16,5,8.645,128.27555495784,2.296588,0,240.279207164,0,0,0,322.6, 0.7, 0.5,0,0,1024,1024,1024,1024,0,0,0,0,333.2,0,0,98,4.243,4.238,0,0,0,0,1.076,73.76,128.27555495784,2.296588,6,P-GPS,
10000,2022-08-12 02:07:13,-34.906447564091,-56.1630499622637,2.296588,2.8215224,125.45403255784,128.27555495784,1.64042,0,240.157816084,247.198498724,16,5,8.484,128.27555495784,2.296588,0,240.279207164,0,0,0,322.6, 0.8, 0.8,0,0,1024,1024,1024,1024,0,0,0,0,333.2,0,0,98,4.242,4.239,0,0,0,0,4.16,73.76,128.27555495784,2.296588,6,P-GPS,
10100,2022-08-12 02:07:13,-34.906447570095,-56.1630499271905,2.296588,2.8215224,125.45403255784,128.27555495784,1.64042,0,240.162081176,247.209325496,16,5,8.484,128.27555495784,2.296588,0,240.279207164,0,0,0,322.6, 0.8, 0.7,0,0,1024,1024,1024,1024,0,0,0,0,333.2,0,0,98,4.242,4.239,0,0,0,0,4.16,73.76,128.27555495784,2.296588,6,P-GPS,
10200,2022-08-12 02:07:13,-34.9064475836201,-56.1630498677277,2.624672,3.1496064,125.45403255784,128.60363895784,1.64042,0,240.170283276,247.2276982,16,5,8.484,128.60363895784,2.624672,0,240.279207164,0,0,0,322.6, 1, 0.6,0,0,1024,1024,1024,1024,0,0,0,0,333.2,0,0,98,4.242,4.239,0,0,0,0,4.16,73.76,128.60363895784,2.624672,6,P-GPS,
10300,2022-08-12 02:07:13,-34.9064476077581,-56.1630498181145,2.624672,3.1496064,125.45403255784,128.60363895784,1.64042,0,240.181766216,247.245086652,16,5,8.484,128.60363895784,2.624672,0,240.279207164,0,0,0,322.5, 1, 0.3,0,0,1024,1024,1024,1024,0,0,0,0,333.2,0,0,98,4.242,4.239,0,0,0,0,4.16,73.76,128.60363895784,2.624672,6,P-GPS,
10400,2022-08-12 02:07:13,-34.9064476131584,-56.1630495791779,2.624672,3.1496064,125.45403255784,128.60363895784,1.64042,0,240.197514248,247.316608964,16,5,8.484,128.60363895784,2.624672,0,240.279207164,0,0,0,322.5, 1.2, 0.4,0,0,1024,1024,1024,1024,0,0,0,0,333.2,0,0,98,4.242,4.239,0,0,0,0,4.16,73.76,128.60363895784,2.624672,6,P-GPS,
10500,2022-08-12 02:07:13,-34.9064476743521,-56.1630496132822,2.624672,3.1496064,125.45403255784,128.60363895784,1.64042,0,240.217527372,247.341215264,16,5,8.484,128.60363895784,2.624672,0,240.279207164,0,0,0,322.6, 1.2, 0.5,0,0,1024,1024,1024,1024,0,0,0,0,333.2,0,0,98,4.242,4.239,0,0,0,0,4.16,73.76,128.60363895784,2.624672,6,P-GPS,
10600,2022-08-12 02:07:13,-34.9064477437132,-56.1630497115273,2.624672,3.1496064,125.45403255784,128.60363895784,1.64042,0,240.236556244,247.379929176,16,5,8.484,128.60363895784,2.624672,0,240.279207164,0,0,0,322.7, 1, 1,0,0,1024,1024,1024,1024,0,0,0,0,333.2,0,0,98,4.242,4.239,0,0,0,0,4.16,73.76,128.60363895784,2.624672,6,P-GPS,
10700,2022-08-12 02:07:13,-34.9064478234944,-56.1630497943385,2.624672,3.1496064,125.45403255784,128.60363895784,1.64042,0,240.260506376,247.41798692,16,5,8.484,128.60363895784,2.624672,0,240.279207164,0,0,0,322.8, 1.2, 0.8,0,0,1024,1024,1024,1024,0,0,0,0,333.2,0,0,98,4.242,4.239,0,0,0,0,4.16,73.76,128.60363895784,2.624672,6,P-GPS,
10800,2022-08-12 02:07:13,-34.9064480274887,-56.1630500990344,2.952756,3.4776904,125.45403255784,128.93172295784,1.64042,0,240.315952572,247.535769076,16,5,8.484,128.93172295784,2.952756,0,240.315952572,0,0,0,322.8, 1.4, 0.3,0,0,1024,1024,1024,1024,0,0,0,0,333.2,0,0,98,4.242,4.239,0,0,0,0,4.16,73.76,128.93172295784,2.952756,6,P-GPS,
10900,2022-08-12 02:07:14,-34.906448122484,-56.1630501705289,2.952756,3.4776904,125.45403255784,128.93172295784,1.64042,0,240.345808216,247.576451492,16,5,8.484,128.93172295784,2.952756,0,240.345808216,0,0,0,322.7, 1.6, 0.1,0,0,1024,1024,1024,1024,0,0,0,0,333.2,0,0,98,4.242,4.239,0,0,0,0,4.16,73.76,128.93172295784,2.952756,6,P-GPS,
11000,2022-08-12 02:07:14,-34.9064481966975,-56.1630502689836,2.952756,3.4776904,125.45403255784,128.93172295784,1.64042,0,240.366805592,247.61647774,16,5,8.47,128.93172295784,2.952756,0,240.366805592,0,0,0,322.8, 1.4, -0.1,0,0,1024,1024,1024,1024,0,0,0,0,333.2,0,0,98,4.232,4.229,0,0,0,0,4.059,73.76,128.93172295784,2.952756,6,P-GPS,
11100,2022-08-12 02:07:14,-34.9064482640731,-56.163050345493,2.952756,3.4776904,125.45403255784,128.93172295784,1.64042,0,240.386490632,247.650270392,16,5,8.47,128.93172295784,2.952756,0,240.386490632,0,0,0,322.8, 1.1, -0.2,0,0,1024,1024,1027,1024,0,0,0,0,333.2,0,0,98,4.232,4.229,0,0,0,0,4.059,73.76,128.93172295784,2.952756,6,P-GPS,
11200,2022-08-12 02:07:14,-34.9064482564744,-56.1630506026167,2.952756,3.5104988,125.42122415784,128.93172295784,1.64042,0,240.36910218,247.727042048,16,5,8.47,128.93172295784,2.952756,0,240.386490632,0,0,0,322.7, 1.1, -0.8,0,0,1024,1024,1028,1024,0,0,1,0,333.2,0,0,98,4.232,4.229,0,0,0,0,4.059,73.76,128.93172295784,2.952756,6,P-GPS,
11300,2022-08-12 02:07:14,-34.9064482865603,-56.1630506719443,2.952756,3.5104988,125.42122415784,128.93172295784,1.64042,0,240.37566386,247.750664096,16,5,8.47,128.93172295784,2.952756,0,240.386490632,0,0,0,322.7, 1.3, -1.1,0,0,1024,1024,1030,1024,0,0,1,0,333.2,0,0,98,4.232,4.229,0,0,0,0,4.059,73.76,128.93172295784,2.952756,6,P-GPS,
11400,2022-08-12 02:07:14,-34.906448255054,-56.1630508009122,2.952756,3.5104988,125.42122415784,128.93172295784,1.64042,0,240.356963072,247.791018428,16,5,8.47,128.93172295784,2.952756,0,240.386490632,0,0,0,322.8, 1.3, -0.6,0,0,1024,1024,1032,1024,0,0,1,0,333.2,0,0,98,4.232,4.229,0,0,0,0,4.059,73.76,128.93172295784,2.952756,6,P-GPS,
11500,2022-08-12 02:07:14,-34.906448248988,-56.1630509296034,2.952756,3.5104988,125.42122415784,128.93172295784,1.64042,0,240.347448636,247.829404256,16,5,8.47,128.93172295784,2.952756,0,240.386490632,0,0,0,322.8, 1.3, -0.1,0,0,1024,1024,1032,1024,0,0,1,0,333.2,0,0,98,4.232,4.229,0,0,0,0,4.059,73.76,128.93172295784,2.952756,6,P-GPS,
11600,2022-08-12 02:07:14,-34.9064483072961,-56.1630510536608,2.952756,3.5104988,125.42122415784,128.93172295784,1.64042,0,240.361228164,247.87238326,16,5,8.47,128.93172295784,2.952756,0,240.386490632,0,0,0,322.8, 1.3, 0,0,0,1024,1024,1029,1024,0,0,1,0,333.2,0,0,98,4.232,4.229,0,0,0,0,4.059,73.76,128.93172295784,2.952756,6,P-GPS,
11700,2022-08-12 02:07:14,-34.9064481529518,-56.1630513875799,2.952756,3.5104988,125.42122415784,128.93172295784,1.64042,0,240.28708118,247.986884576,16,5,8.47,128.93172295784,2.952756,0,240.386490632,0,0,0,322.8, 1, -0.3,0,0,1024,1024,1024,1024,0,0,0,0,333.2,0,0,98,4.232,4.229,0,0,0,0,4.059,73.76,128.93172295784,2.952756,6,P-GPS,
11800,2022-08-12 02:07:14,-34.9064481920475,-56.1630515128159,2.952756,3.5433072,125.38841575784,128.93172295784,1.64042,0,240.293970944,248.026910824,16,5,8.47,128.93172295784,2.952756,0,240.386490632,0,0,0,322.8, 1.1, -0.4,0,0,1024,1024,1024,1024,0,0,0,0,333.2,0,0,98,4.232,4.229,0,0,0,0,4.059,73.76,128.93172295784,2.952756,6,P-GPS,
11900,2022-08-12 02:07:15,-34.9064482249966,-56.1630516418753,2.952756,3.5433072,125.38841575784,128.93172295784,1.64042,0,240.298236036,248.06759324,16,5,8.47,128.93172295784,2.952756,0,240.386490632,0,0,0,322.8, 1.1, -0.3,0,0,1024,1024,1024,1024,0,0,0,0,333.2,0,0,98,4.232,4.229,0,0,0,0,4.059,73.76,128.93172295784,2.952756,6,P-GPS,
12000,2022-08-12 02:07:15,-34.9064482464741,-56.1630518034217,2.952756,3.5433072,125.38841575784,128.93172295784,1.64042,0,240.2969237,248.116477756,16,5,8.457,128.93172295784,2.952756,0,240.386490632,0,0,0,322.7, 1, -0.3,0,0,1024,1024,1024,1024,0,0,0,0,333.2,0,0,98,4.229,4.227,0,0,0,0,4.174,73.76,128.93172295784,2.952756,6,P-GPS,
12100,2022-08-12 02:07:15,-34.9064481565755,-56.1630521208798,3.28084,3.8713912,125.38841575784,129.25980695784,1.64042,0,240.246398764,248.21687146,16,5,8.457,129.25980695784,3.28084,0,240.386490632,0,0,0,322.7, 1.5, -0.3,0,0,1024,1024,1024,1024,0,0,0,0,333.2,0,0,98,4.229,4.227,0,0,0,0,4.174,73.76,129.25980695784,3.28084,6,P-GPS,
12200,2022-08-12 02:07:15,-34.9064482142826,-56.1630523390176,3.28084,3.8713912,125.38841575784,129.25980695784,1.64042,0,240.254928948,248.285441016,16,5,8.457,129.25980695784,3.28084,0,240.386490632,0,0,0,322.8, 1.4, -0.3,0,0,1024,1024,1024,1024,0,0,0,0,333.2,0,0,98,4.229,4.227,0,0,0,0,4.174,73.76,129.25980695784,3.28084,6,P-GPS,
12300,2022-08-12 02:07:15,-34.9064482588222,-56.1630525412331,3.28084,3.9041996,125.35560735784,129.25980695784,1.64042,0,240.25919404,248.34810506,16,5,8.457,129.25980695784,3.28084,0,240.386490632,0,0,0,322.6, 1.4, -0.3,0,0,1024,1024,1024,1024,0,0,0,0,333.2,0,0,98,4.229,4.227,0,0,0,0,4.174,73.76,129.25980695784,3.28084,6,P-GPS,
12400,2022-08-12 02:07:15,-34.9064482737652,-56.1630527320385,3.28084,3.9041996,125.35560735784,129.25980695784,1.64042,0,240.253944696,248.40551976,16,5,8.457,129.25980695784,3.28084,0,240.386490632,0,0,0,322.7, 1.5, -0.1,0,0,1024,1024,1024,1024,0,0,0,0,333.2,0,0,98,4.229,4.227,0,0,0,0,4.174,73.76,129.25980695784,3.28084,6,P-GPS,
12500,2022-08-12 02:07:15,-34.9064482437094,-56.163053280872,3.28084,3.9041996,125.35560735784,129.25980695784,1.64042,0,240.212278028,248.570217928,16,5,8.457,129.25980695784,3.28084,0,240.386490632,0,0,0,322.6, 1.5, 0.1,0,0,1024,1024,1024,1024,0,0,0,0,333.2,0,0,98,4.229,4.227,0,0,0,0,4.174,73.76,129.25980695784,3.28084,6,P-GPS,
12600,2022-08-12 02:07:15,-34.9064482904613,-56.163053561064,3.28084,3.937008,125.32279895784,129.25980695784,1.64042,0,240.212934196,248.655519768,16,5,8.457,129.25980695784,3.28084,0,240.386490632,0,0,0,322.7, 1.7, 0.4,0,0,1024,1024,1024,1024,0,0,0,0,333.2,0,0,98,4.229,4.227,0,0,0,0,4.174,73.76,129.25980695784,3.28084,6,P-GPS,
12700,2022-08-12 02:07:15,-34.9064483187091,-56.1630538295521,3.28084,3.937008,125.32279895784,129.25980695784,1.64042,0,240.208012936,248.736556516,16,5,8.457,129.25980695784,3.28084,0,240.386490632,0,0,0,322.6, 2, 0.4,0,0,1024,1024,1024,1024,0,0,0,0,333.2,0,0,98,4.229,4.227,0,0,0,0,4.174,73.76,129.25980695784,3.28084,6,P-GPS,
12800,2022-08-12 02:07:15,-34.9064483147015,-56.1630541089475,3.28084,3.937008,125.32279895784,129.25980695784,1.64042,0,240.190952568,248.820217936,16,5,8.457,129.25980695784,3.28084,0,240.386490632,0,0,0,322.7, 1.8, 0.6,0,0,1024,1024,1024,1024,0,0,0,0,333.2,0,0,98,4.229,4.227,0,0,0,0,4.174,73.76,129.25980695784,3.28084,6,P-GPS,
12900,2022-08-12 02:07:16,-34.9064482676911,-56.1630546428348,3.28084,3.9698164,125.28999055784,129.25980695784,1.64042,0,240.14436464,248.980979096,16,5,8.457,129.25980695784,3.28084,0,240.386490632,0,0,0,322.8, 2, 0.3,0,0,1024,1024,1024,1024,0,0,0,0,333.2,0,0,98,4.229,4.227,0,0,0,0,4.174,73.76,129.25980695784,3.28084,6,P-GPS,
13000,2022-08-12 02:07:16,-34.9064482941941,-56.1630549229536,3.28084,3.9698164,125.28999055784,129.25980695784,1.64042,0,240.138131044,249.065296684,16,5,8.457,129.25980695784,3.28084,0,240.386490632,0,0,0,322.6, 2.1, 0,0,0,1024,1024,1024,1024,0,0,0,0,333.2,0,0,98,4.229,4.227,0,0,0,0,4.174,73.76,129.25980695784,3.28084,6,P-GPS,
13100,2022-08-12 02:07:16,-34.9064483129623,-56.1630551994711,3.28084,3.9698164,125.28999055784,129.25980695784,1.64042,0,240.12960086,249.148301936,16,5,8.455,129.25980695784,3.28084,0,240.386490632,0,0,0,322.7, 1.6, -0.1,0,0,1024,1024,1024,1024,0,0,0,0,333.2,0,0,98,4.23,4.226,0,0,0,0,4.124,73.76,129.25980695784,3.28084,6,P-GPS,
13200,2022-08-12 02:07:16,-34.9064483062576,-56.1630555481288,3.28084,4.0026248,125.25718215784,129.25980695784,1.64042,0,240.107619232,249.252632648,16,5,8.455,129.25980695784,3.28084,0,240.386490632,0,0,0,322.8, 1.7, -0.1,0,0,1024,1024,1024,1024,0,0,0,0,333.2,0,0,98,4.23,4.226,0,0,0,0,4.124,73.76,129.25980695784,3.28084,6,P-GPS,
13300,2022-08-12 02:07:16,-34.9064483127139,-56.163055875464,3.28084,4.0026248,125.25718215784,129.25980695784,1.64042,0,240.0918712,249.350729764,16,5,8.455,129.25980695784,3.28084,0,240.386490632,0,0,0,322.7, 1.6, -0.4,0,0,1024,1024,1024,1024,0,0,0,0,333.2,0,0,98,4.23,4.226,0,0,0,0,4.124,73.76,129.25980695784,3.28084,6,P-GPS,
13400,2022-08-12 02:07:16,-34.9064483593888,-56.1630566008867,3.28084,4.0354332,125.22437375784,129.25980695784,1.64042,0,240.068577236,249.568249456,16,5,8.455,129.25980695784,3.28084,0,240.386490632,0,0,0,322.7, 1.4, -0.8,0,0,1024,1024,1024,1024,0,0,0,0,333.2,0,0,98,4.23,4.226,0,0,0,0,4.124,73.76,129.25980695784,3.28084,6,P-GPS,
13500,2022-08-12 02:07:16,-34.9064484104511,-56.1630569411885,3.28084,4.0354332,125.22437375784,129.25980695784,1.64042,0,240.067921068,249.671924,15,5,8.455,129.25980695784,3.28084,0,240.386490632,0,0,0,322.7, 1, -1,0,0,1024,1024,1024,1024,0,0,0,0,333.2,0,0,98,4.23,4.226,0,0,0,0,4.124,73.76,129.25980695784,3.28084,6,P-GPS,
13600,2022-08-12 02:07:16,-34.9064484768407,-56.1630573720815,3.28084,4.0354332,125.22437375784,129.25980695784,1.64042,0,240.068249152,249.8031576,15,5,8.455,129.25980695784,3.28084,0,240.386490632,0,0,0,322.7, 1.1, -1.4,0,0,1024,1024,1024,1024,0,0,0,0,333.2,0,0,98,4.23,4.226,0,0,0,0,4.124,73.76,129.25980695784,3.28084,6,P-GPS,
13700,2022-08-12 02:07:16,-34.906448527145,-56.1630577316243,3.28084,4.10105,125.15875695784,129.25980695784,1.64042,0,240.066608732,249.912081488,16,5,8.455,129.25980695784,3.28084,0,240.386490632,0,0,0,322.7, 1.1, -1.4,0,0,1024,1024,1024,1024,0,0,0,0,333.2,0,0,98,4.23,4.226,0,0,0,0,4.124,73.76,129.25980695784,3.28084,6,P-GPS,
13800,2022-08-12 02:07:17,-34.9064485671986,-56.163058119217,3.28084,4.10105,125.15875695784,129.25980695784,1.64042,0,240.059718968,250.028879392,16,5,8.455,129.25980695784,3.28084,0,240.386490632,0,0,0,322.7, 1.2, -1.2,0,0,1024,1024,1024,1024,0,0,0,0,333.2,0,0,98,4.23,4.226,0,0,0,0,4.124,73.76,129.25980695784,3.28084,6,P-GPS,
13900,2022-08-12 02:07:17,-34.906448589571,-56.1630583208612,3.28084,4.10105,125.15875695784,129.25980695784,1.64042,0,240.056766212,250.089903016,16,5,8.455,129.25980695784,3.28084,0,240.386490632,0,0,0,322.8, 1.5, -0.7,0,0,1024,1024,1024,1024,0,0,0,0,333.2,0,0,98,4.23,4.226,0,0,0,0,4.124,73.76,129.25980695784,3.28084,6,P-GPS,
14000,2022-08-12 02:07:17,-34.9064486007661,-56.1630584425291,3.28084,4.10105,125.15875695784,129.25980695784,1.64042,0,240.05414154,250.126648424,16,5,8.455,129.25980695784,3.28084,0,240.386490632,0,0,0,322.7, 1.2, -0.9,0,0,1024,1024,1024,1024,0,0,0,0,333.2,0,0,98,4.23,4.226,0,0,0,0,4.124,73.76,129.25980695784,3.28084,6,P-GPS,
14100,2022-08-12 02:07:17,-34.9064486106207,-56.1630585653056,3.28084,4.1338584,125.12594855784,129.25980695784,1.64042,0,240.0508607,250.163393832,16,5,8.45,129.25980695784,3.28084,0,240.386490632,0,0,0,322.8, 1, -0.3,0,0,1024,1024,1024,1024,0,0,0,0,333.2,0,0,98,4.225,4.221,0,0,0,0,4.061,73.76,129.25980695784,3.28084,6,P-GPS,
14200,2022-08-12 02:07:17,-34.9064485118116,-56.1630583549452,3.28084,4.10105,125.15875695784,129.25980695784,1.64042,0,240.026910568,250.235900396,16,5,8.45,129.25980695784,3.28084,0,240.386490632,0,0,0,322.8, 0.8, -0.5,0,0,1024,1024,1024,1024,0,0,0,0,333.2,0,0,98,4.225,4.221,0,0,0,0,4.061,73.76,129.25980695784,3.28084,6,P-GPS,
14300,2022-08-12 02:07:17,-34.9064485285618,-56.1630585131285,3.28084,4.1338584,125.12594855784,129.25980695784,1.64042,0,240.024285896,250.28380066,16,5,8.45,129.25980695784,3.28084,0,240.386490632,0,0,0,322.7, 1.1, -0.5,0,0,1024,1024,1024,1024,0,0,0,0,333.2,0,0,98,4.225,4.221,0,0,0,0,4.061,73.76,129.25980695784,3.28084,6,P-GPS,
14400,2022-08-12 02:07:17,-34.906448580637,-56.1630586973024,3.28084,4.1338584,125.12594855784,129.25980695784,1.64042,0,240.03281608,250.341871528,16,5,8.45,129.25980695784,3.28084,0,240.386490632,0,0,0,322.7, 0.8, -0.4,0,0,1024,1024,1024,1024,0,0,0,0,333.2,0,0,98,4.225,4.221,0,0,0,0,4.061,73.76,129.25980695784,3.28084,6,P-GPS,
14500,2022-08-12 02:07:17,-34.9064486280556,-56.1630588742892,3.28084,4.1338584,125.12594855784,129.25980695784,1.64042,0,240.040362012,250.397645808,16,5,8.45,129.25980695784,3.28084,0,240.386490632,0,0,0,322.7, 0.8, -0.4,0,0,1024,1024,1024,1024,0,0,0,0,333.2,0,0,98,4.225,4.221,0,0,0,0,4.061,73.76,129.25980695784,3.28084,6,P-GPS,
14600,2022-08-12 02:07:17,-34.9064487530041,-56.1630590199342,3.28084,4.1338584,125.12594855784,129.25980695784,1.64042,0,240.077435504,250.460637936,16,5,8.45,129.25980695784,3.28084,0,240.386490632,0,0,0,322.6, 0.7, -1,0,0,1024,1024,1024,1024,0,0,0,0,333.2,0,0,98,4.225,4.221,0,0,0,0,4.061,73.76,129.25980695784,3.28084,6,P-GPS,
14700,2022-08-12 02:07:17,-34.9064487843553,-56.1630592119233,3.28084,4.1338584,125.12594855784,129.25980695784,1.64042,0,240.078091672,250.519364972,16,5,8.45,129.25980695784,3.28084,0,240.386490632,0,0,0,322.6, 0.9, -1.1,0,0,1024,1024,1024,1024,0,0,0,0,333.2,0,0,98,4.225,4.221,0,0,0,0,4.061,73.76,129.25980695784,3.28084,6,P-GPS,
14800,2022-08-12 02:07:18,-34.9064487811843,-56.163059429984,2.952756,3.8057744,125.12594855784,128.93172295784,1.64042,0,240.065296396,250.584653688,16,5,8.45,129.25980695784,3.28084,0,240.386490632,0,0,0,322.5, 1.1, -0.8,0,0,1024,1024,1024,1024,0,0,0,0,333.2,0,0,98,4.225,4.221,0,0,0,0,4.061,73.76,128.93172295784,2.952756,6,P-GPS,
14900,2022-08-12 02:07:18,-34.9064488059912,-56.1630596302649,2.952756,3.8385828,125.09314015784,128.93172295784,1.64042,0,240.063327892,250.645349228,16,5,8.45,129.25980695784,3.28084,0,240.386490632,0,0,0,322.8, 1, -0.2,0,0,1024,1024,1024,1024,0,0,0,0,333.2,0,0,98,4.225,4.221,0,0,0,0,4.061,73.76,128.93172295784,2.952756,6,P-GPS,
15000,2022-08-12 02:07:18,-34.9064488965726,-56.1630598022374,2.952756,3.8385828,125.09314015784,128.93172295784,1.64042,0,240.086621856,250.706372852,16,5,8.45,129.25980695784,3.28084,0,240.386490632,0,0,0,322.7, 1.5, -0.2,0,0,1024,1024,1024,1024,0,0,0,0,333.2,0,0,98,4.225,4.221,0,0,0,0,4.061,73.76,128.93172295784,2.952756,6,P-GPS,
15100,2022-08-12 02:07:18,-34.9064490191851,-56.1630598831422,2.952756,3.8385828,125.09314015784,128.93172295784,1.64042,0,240.125991936,250.757225872,16,5,8.442,129.25980695784,3.28084,0,240.386490632,0,0,0,322.7, 1, -0.4,0,0,1024,1024,1095,1024,0,0,11,0,333.2,0,0,98,4.222,4.217,0,0,0,0,4.069,73.76,128.93172295784,2.952756,6,P-GPS,
15200,2022-08-12 02:07:18,-34.9064490821244,-56.1630600263649,3.28084,4.1666668,125.09314015784,129.25980695784,1.64042,0,240.1410838,250.805782304,16,5,8.442,129.25980695784,3.28084,0,240.386490632,0,0,0,322.8, 0.9, -0.3,0,0,1024,1024,1151,1024,0,0,19,0,333.2,0,0,98,4.222,4.217,0,0,0,0,4.069,73.76,129.25980695784,3.28084,6,P-GPS,
15300,2022-08-12 02:07:18,-34.9064491379858,-56.1630601539585,3.28084,4.1666668,125.09314015784,129.25980695784,1.64042,0,240.15420716,250.849089392,16,5,8.442,129.25980695784,3.28084,0,240.386490632,0,0,0,322.8, 0.9, -1.3,0,0,1024,1024,1194,1024,0,0,26,0,333.2,0,0,98,4.222,4.217,0,0,0,0,4.069,73.76,129.25980695784,3.28084,6,P-GPS,
15400,2022-08-12 02:07:18,-34.9064492179489,-56.1630602794668,3.28084,4.1666668,125.09314015784,129.25980695784,1.64042,0,240.176188788,250.896661572,16,5,8.442,129.25980695784,3.28084,0,240.386490632,0,0,-0.223694,322.6, 1.5, -1,0,0,1024,1024,1202,1024,0,0,27,0,333.2,0,0,98,4.222,4.217,0,0,0,0,4.069,73.76,129.25980695784,3.28084,6,P-GPS,
15500,2022-08-12 02:07:18,-34.9064494223935,-56.1630602652962,3.28084,4.1666668,125.09314015784,129.25980695784,1.64042,0,240.250335772,250.971464724,16,5,8.442,129.25980695784,3.28084,0,240.386490632,0,0,-0.447388,322.5, 1.4, -1.1,0,0,1024,1024,1192,1024,0,0,25,0,333.2,0,0,98,4.222,4.217,0,0,0,0,4.069,73.76,129.25980695784,3.28084,6,P-GPS,
15600,2022-08-12 02:07:18,-34.9064495029396,-56.1630603912223,3.28084,4.1994752,125.06033175784,129.25980695784,1.968504,0,240.2723174,251.019036904,16,5,8.442,129.25980695784,3.28084,0,240.386490632,0,0,-0.671082,322.4, 1.5, -1.4,0,0,1024,1024,1179,1024,0,0,23,0,333.2,0,0,98,4.222,4.217,0,0,0,0,4.069,73.76,129.25980695784,3.28084,6,P-GPS,
15700,2022-08-12 02:07:18,-34.906449588805,-56.1630604933672,3.28084,4.1994752,125.06033175784,129.25980695784,1.968504,0,240.297579868,251.06300016,16,5,8.442,129.25980695784,3.28084,0,240.386490632,0,0,-0.671082,322.1, 1, -1.5,0,0,1024,1024,1154,1024,0,0,20,0,333.2,0,0,98,4.222,4.217,0,0,0,0,4.069,73.76,129.25980695784,3.28084,6,P-GPS,
15800,2022-08-12 02:07:18,-34.9064496990751,-56.1630605649329,3.608924,4.5603676,125.02752335784,129.58789095784,1.968504,0,240.333341024,251.108603836,16,5,8.442,129.58789095784,3.608924,0,240.386490632,0,0,-0.671082,322.2, 1.5, -1.6,0,0,1024,1024,1154,1024,0,0,20,0,333.2,0,0,98,4.222,4.217,0,0,0,0,4.069,73.76,129.58789095784,3.608924,6,P-GPS,
15900,2022-08-12 02:07:19,-34.9064498521545,-56.1630605625876,3.608924,4.5603676,125.02752335784,129.58789095784,2.296588,0,240.388459136,251.164378116,16,5,8.442,129.58789095784,3.608924,0,240.388459136,0,0,-0.447388,322.3, 1.5, -1.3,0,0,1024,1024,1130,1024,0,0,16,0,333.2,0,0,98,4.222,4.217,0,0,0,0,4.069,73.76,129.58789095784,3.608924,6,P-GPS,
16000,2022-08-12 02:07:19,-34.906450117643,-56.1630603938104,3.608924,4.5275592,125.06033175784,129.58789095784,2.296588,0.223694,240.492789848,251.273630088,16,5,8.442,129.58789095784,3.608924,0.223694,240.492789848,0,0.223694,-0.447388,322.4, 0.2, -1.6,0,0,1024,1024,1092,1024,0,0,10,0,333.2,0,0,98,4.222,4.217,0,0,0,0,4.069,73.76,129.58789095784,3.608924,6,P-GPS,
16100,2022-08-12 02:07:19,-34.9064503679617,-56.1630603062592,3.608924,4.5275592,125.06033175784,129.58789095784,2.296588,0.223694,240.58727804,251.368446364,16,5,8.42,129.58789095784,3.608924,0.223694,240.58727804,0,0.223694,-0.223694,322.4, -0.6, -1.9,0,0,1024,1024,1071,1024,0,0,7,0,333.2,0,0,98,4.219,4.218,0,0,0,0,4.188,73.76,129.58789095784,3.608924,6,P-GPS,
16200,2022-08-12 02:07:19,-34.9064505621773,-56.1630604794604,3.608924,4.593176,124.99471495784,129.58789095784,2.296588,0.223694,240.64797358,251.456372876,16,5,8.42,129.58789095784,3.608924,0.223694,240.64797358,0,0.223694,-0.223694,322.4, -1.3, -2.3,0,0,1024,1024,1030,1024,0,0,1,0,333.2,0,0,98,4.219,4.218,0,0,0,0,4.188,73.76,129.58789095784,3.608924,6,P-GPS,
16300,2022-08-12 02:07:19,-34.9064510469675,-56.1630613964831,3.937008,4.9540684,124.96190655784,129.91597495784,2.296588,0.223694,240.772973584,251.782816456,16,5,8.42,129.91597495784,3.937008,0.223694,240.772973584,0,0.223694,0,322.4, -2.2, -2,0,0,1024,1024,1024,1024,0,0,0,0,333.2,0,0,98,4.219,4.218,0,0,0,0,4.188,73.76,129.91597495784,3.937008,6,P-GPS,
16400,2022-08-12 02:07:19,-34.9064513573269,-56.1630617680719,3.937008,4.9868768,124.92909815784,129.91597495784,2.296588,0,240.86450902,251.941609112,16,5,8.42,129.91597495784,3.937008,0.223694,240.86450902,0,0,0,322.3, -1.8, -1.5,0,0,1024,1024,1024,1024,0,0,0,0,333.2,0,0,98,4.219,4.218,0,0,0,0,4.188,73.76,129.91597495784,3.937008,6,P-GPS,
16500,2022-08-12 02:07:19,-34.9064516848526,-56.1630621103429,3.937008,5.0196852,124.89628975784,129.91597495784,2.296588,0,240.963918472,252.099089432,16,5,8.42,129.91597495784,3.937008,0.223694,240.963918472,0,0,0,322, -1.8, -2.1,0,0,1024,1024,1024,1024,0,0,0,0,333.2,0,0,98,4.219,4.218,0,0,0,0,4.188,73.76,129.91597495784,3.937008,6,P-GPS,
16600,2022-08-12 02:07:19,-34.9064521096583,-56.1630623980197,3.937008,5.0196852,124.89628975784,129.91597495784,2.296588,0,241.101385668,252.276254792,16,5,8.42,129.91597495784,3.937008,0.223694,241.101385668,0,0,0,321.8, -1.2, -2.3,0,0,1024,1024,1024,1024,0,0,0,0,333.2,0,0,98,4.219,4.218,0,0,0,0,4.188,73.76,129.91597495784,3.937008,6,P-GPS,
16700,2022-08-12 02:07:19,-34.9064525158517,-56.1630626959575,3.608924,4.7900264,124.79786455784,129.58789095784,2.296588,0,241.231635016,252.44915506,16,5,8.42,129.91597495784,3.937008,0.223694,241.231635016,0,0,0,321.6, -0.8, -2.3,0,0,1024,1024,1024,1024,0,0,0,0,333.2,0,0,98,4.219,4.218,0,0,0,0,4.188,73.76,129.58789095784,3.608924,6,P-GPS,
16800,2022-08-12 02:07:19,-34.9064536836015,-56.1630631816627,3.608924,4.8228348,124.76505615784,129.58789095784,2.296588,0,241.6256639,252.899286308,16,5,8.42,129.91597495784,3.937008,0.223694,241.6256639,0,0,0,321.3, -0.6, -2.3,0,0,1024,1024,1024,1024,0,0,0,0,333.2,0,0,98,4.219,4.218,0,0,0,0,4.188,73.76,129.58789095784,3.608924,6,P-GPS,
16900,2022-08-12 02:07:20,-34.9064541108238,-56.163063515954,3.937008,5.1837272,124.73224775784,129.91597495784,2.296588,0,241.761490676,253.084653768,16,5,8.42,129.91597495784,3.937008,0.223694,241.761490676,0,0,0,321.1, -0.4, -2.3,0,0,1024,1024,1027,1024,0,0,0,0,333.2,0,0,98,4.219,4.218,0,0,0,0,4.188,73.76,129.91597495784,3.937008,6,P-GPS,
17000,2022-08-12 02:07:20,-34.9064544844621,-56.1630638623957,3.937008,5.1837272,124.73224775784,129.91597495784,2.296588,0,241.877632412,253.255913616,16,5,8.42,129.91597495784,3.937008,0.223694,241.877632412,0,0,0,320.9, 0, -1.6,0,0,1024,1024,1065,1024,0,0,6,0,333.2,0,0,98,4.219,4.218,0,0,0,0,4.188,73.76,129.91597495784,3.937008,6,P-GPS,
17100,2022-08-12 02:07:20,-34.9064548050254,-56.1630641943705,3.937008,5.249344,124.66663095784,129.91597495784,2.296588,0,241.975729528,253.409128844,16,5,8.439,129.91597495784,3.937008,0.223694,241.975729528,0,0,0,320.9, 0.2, -1.6,0,0,1024,1024,1097,1024,0,0,11,0,333.2,0,0,98,4.222,4.218,0,0,0,0,3.953,73.76,129.91597495784,3.937008,6,P-GPS,
17200,2022-08-12 02:07:20,-34.9064550199646,-56.1630645034259,3.937008,5.2821524,124.63382255784,129.91597495784,2.624672,0,242.036753152,253.530519924,16,5,8.439,129.91597495784,3.937008,0.223694,242.036753152,0,0,0,320.9, 0.6, -0.8,0,0,1024,1024,1105,1024,0,0,12,0,333.2,0,0,98,4.222,4.218,0,0,0,0,3.953,73.76,129.91597495784,3.937008,6,P-GPS,
17300,2022-08-12 02:07:20,-34.9064552244198,-56.1630648142493,3.937008,5.2821524,124.63382255784,129.91597495784,2.624672,0,242.094167852,253.649614416,16,5,8.439,129.91597495784,3.937008,0.223694,242.094167852,0,0,0,320.7, 0.3, -1.4,0,0,1024,1024,1105,1024,0,0,12,0,333.2,0,0,98,4.222,4.218,0,0,0,0,3.953,73.76,129.91597495784,3.937008,6,P-GPS,
17400,2022-08-12 02:07:20,-34.9064553819717,-56.1630651330224,3.937008,5.2821524,124.63382255784,129.91597495784,2.624672,0,242.134522184,253.761162976,16,5,8.439,129.91597495784,3.937008,0.223694,242.134522184,0,0,0,320.4, -0.3, -2.2,0,0,1024,1024,1098,1024,0,0,11,0,333.2,0,0,98,4.222,4.218,0,0,0,0,3.953,73.76,129.91597495784,3.937008,6,P-GPS,
