time(millisecond),datetime(utc),latitude,longitude,height_above_takeoff(feet),height_above_ground_at_drone_location(feet),ground_elevation_at_drone_location(feet),altitude_above_seaLevel(feet),height_sonar(feet),speed(mph),distance(feet),mileage(feet),satellites,gpslevel,voltage(v),max_altitude(feet),max_ascent(feet),max_speed(mph),max_distance(feet), xSpeed(mph), ySpeed(mph), zSpeed(mph), compass_heading(degrees), pitch(degrees), roll(degrees),isPhoto,isVideo,rc_elevator,rc_aileron,rc_throttle,rc_rudder,rc_elevator(percent),rc_aileron(percent),rc_throttle(percent),rc_rudder(percent),gimbal_heading(degrees),gimbal_pitch(degrees),gimbal_roll(degrees),battery_percent,voltageCell1,voltageCell2,voltageCell3,voltageCell4,voltageCell5,voltageCell6,current(A),battery_temperature(f),altitude(feet),ascent(feet),flycStateRaw,flycState,message
106600,2022-08-23 22:09:13,-34.9051276650884,-56.1628740441896,0,0,133.19424671628,132.70212071628,0,0,0,0,15,5,0,132.70212071628,0,0,0,0,0,0,121.7, 4.1, 2.6,0,0,364,364,364,1684,-100,-100,-100,100,131.4,0,0,33,3.74,3.734,0,0,0,0,0,89.78,132.70212071628,0,41,Motors_Started,"En vuelo Aeronave en Zona de altitud restringida (150). Vuela con precaución (Code: 190001)"
106700,2022-08-23 22:09:14,-34.9051278821225,-56.1628739777922,0,0,133.19424671628,132.70212071628,0,0,0.081639110224,0.081639110224,15,5,0,132.70212071628,0,0,0.081639110224,0,0,0,121.8, 4.1, 2.7,0,0,364,364,364,1684,-100,-100,-100,100,131.4,0,0,33,3.74,3.734,0,0,0,0,0,89.78,132.70212071628,0,41,Motors_Started,
106800,2022-08-23 22:09:14,-34.9051280941263,-56.1628739235985,0,0,133.19424671628,132.70212071628,0.328084,0,0.160639112752,0.160669952648,16,5,0,132.70212071628,0,0,0.160639112752,0,0,0,121.8, 4.1, 2.7,0,0,364,364,364,1684,-100,-100,-100,100,131.4,0,0,33,3.74,3.734,0,0,0,0,0,89.78,132.70212071628,0,41,Motors_Started,
106900,2022-08-23 22:09:14,-34.9051283595171,-56.1628739103684,0,0,133.19424671628,132.70212071628,0.328084,0,0.256506569888,0.257578420316,16,5,0,132.70212071628,0,0,0.256506569888,0,0,0,121.7, 4.1, 2.6,0,0,364,364,364,1684,-100,-100,-100,100,131.4,0,0,33,3.74,3.734,0,0,0,0,0,89.78,132.70212071628,0,41,Motors_Started,
107000,2022-08-23 22:09:14,-34.9051287806279,-56.1628743154609,0,0,133.19424671628,132.70212071628,0.328084,0,0.41501969832,0.45327757356,15,5,0,132.70212071628,0,0,0.41501969832,0,0,0,121.7, 4.1, 2.6,0,0,364,364,364,1684,-100,-100,-100,100,131.4,0,0,33,3.74,3.734,0,0,0,0,0,89.78,132.70212071628,0,41,Motors_Started,
107100,2022-08-23 22:09:14,-34.9051289536321,-56.1628742546835,0,0,133.19424671628,132.70212071628,0.328084,0,0.47432416216,0.5189632712,15,5,0,132.70212071628,0,0,0.47432416216,0,0,0,121.8, 4, 2.6,0,0,805,629,1024,1024,-33,-60,0,0,131.4,0,0,33,3.74,3.734,0,0,0,0,0,89.78,132.70212071628,0,41,Motors_Started,
107200,2022-08-23 22:09:14,-34.9051291179405,-56.1628741935745,0,0,133.19424671628,132.70212071628,0.328084,0,0.53195211676,0.58163715772,15,5,0,132.70212071628,0,0,0.53195211676,0,0,0,121.8, 4, 2.6,0,0,1024,1024,1024,1024,0,0,0,0,131.4,0,0,33,3.74,3.734,0,0,0,0,0,89.78,132.70212071628,0,41,Motors_Started,
107300,2022-08-23 22:09:14,-34.9051293045537,-56.1628740983715,0,0,133.19424671628,132.70212071628,0.328084,0,0.5983760034,0.65544293436,15,5,0,132.70212071628,0,0,0.5983760034,0,0,0,121.8, 4.1, 2.6,0,0,1024,1024,1024,1024,0,0,0,0,131.4,0,0,33,3.74,3.734,0,0,0,0,0,89.78,132.70212071628,0,41,Motors_Started,
107400,2022-08-23 22:09:14,-34.9051294697609,-56.1628739963133,0,0,133.19424671628,132.70212071628,0.328084,0,0.65858925992,0.72301183416,15,5,0,132.70212071628,0,0,0.65858925992,0,0,0,121.8, 4.1, 2.6,0,0,1024,1024,1024,1024,0,0,0,0,131.4,0,0,33,3.74,3.734,0,0,0,0,0,89.78,132.70212071628,0,41,Motors_Started,"Setting new Return-To-Home altitude to 100m (328 ft). Data Recorder File Index is 99. Setting new Maximum Flight Altitude to 120m (394 ft)"
107500,2022-08-23 22:09:14,-34.9051295423537,-56.1628737969499,0,0,133.19424671628,132.70212071628,0.328084,0,27.6189969468,0.78828086512,15,5,0,132.70212071628,0,0,27.6189969468,0,0,0,121.8, 4.1, 2.7,0,0,1024,1024,1024,1024,0,0,0,0,131.4,0,0,33,3.74,3.734,0,0,0,0,0,89.78,132.70212071628,0,41,Motors_Started,
107600,2022-08-23 22:09:14,-34.9051296111994,-56.1628736138433,0,0,133.19424671628,132.70212071628,0.328084,0,27.6785770012,0.84855317676,15,5,0,132.70212071628,0,0,27.6785770012,0,0,0,121.8, 4, 2.6,0,0,1024,1024,1024,1024,0,0,0,0,131.4,0,0,33,3.74,3.734,0,0,0,0,0,89.78,132.70212071628,0,41,Motors_Started,
107700,2022-08-23 22:09:15,-34.9051297426214,-56.1628735321657,0,0,133.19424671628,132.70212071628,0.328084,0,27.7151911756,0.90236879528,15,5,0,132.70212071628,0,0,27.7151911756,0,0,0,121.8, 4.1, 2.6,0,0,1024,1024,1306,1024,0,0,43,0,131.4,0,0,33,3.74,3.734,0,0,0,0,0,89.78,132.70212071628,0,10,Assisted_Takeoff,
107800,2022-08-23 22:09:15,-34.9051298705291,-56.1628734518551,0,0,133.19424671628,132.70212071628,0.328084,0,27.7511163736,0.95485895444,15,5,0,132.70212071628,0,0,27.7511163736,0,0,0,121.8, 4.1, 2.6,0,0,1024,1024,1306,1024,0,0,43,0,131.4,0,0,33,3.74,3.734,0,0,0,0,0,89.78,132.70212071628,0,10,Assisted_Takeoff,
107900,2022-08-23 22:09:15,-34.9051300288318,-56.1628734653713,0,0,133.19424671628,132.70212071628,0.328084,0,27.7631898648,1.01275921876,15,5,0,132.70212071628,0,0,27.7631898648,0,0,0,121.8, 4.1, 2.7,0,0,1024,1024,1440,1024,0,0,63,0,131.4,0,0,33,3.74,3.734,0,0,0,0,0,89.78,132.70212071628,0,10,Assisted_Takeoff,
108000,2022-08-23 22:09:15,-34.90513020316,-56.1628733790346,0,0,133.19424671628,132.70212071628,0.328084,0,27.8057095512,1.08140751492,15,5,0,132.70212071628,0,0,27.8057095512,0,0,0,121.7, 4.1, 2.7,0,0,1024,1024,1500,1024,0,0,72,0,131.4,0,0,33,3.74,3.734,0,0,0,0,0,89.78,132.70212071628,0,10,Assisted_Takeoff,
108100,2022-08-23 22:09:15,-34.905130355115,-56.1628733320083,0,0,133.19424671628,132.70212071628,0.328084,0,27.8347449852,1.13860567948,15,5,0,132.70212071628,0,0,27.8347449852,0,0,0,121.6, 4.2, 2.7,0,0,1024,1024,1500,1024,0,0,72,0,131.4,0,0,33,3.74,3.734,0,0,0,0,0,89.78,132.70212071628,0,10,Assisted_Takeoff,
108200,2022-08-23 22:09:15,-34.9051305061076,-56.1628733012586,0,0,133.19424671628,132.70212071628,0.328084,0,27.859088818,1.19445869964,15,5,0,132.70212071628,0,0,27.859088818,0,0,0,121.3, 4.2, 2.6,0,0,1024,1024,1424,1024,0,0,61,0,131.2,0,0,33,3.74,3.734,0,0,0,0,0,89.78,132.70212071628,0,10,Assisted_Takeoff,
108300,2022-08-23 22:09:15,-34.9051307585311,-56.1628734667515,0,0,133.19424671628,132.70212071628,0.328084,0,27.8377961664,1.29902235128,15,5,0,132.70212071628,0,0,27.859088818,0,0,0,121.2, 4.2, 2.6,0,0,1024,1024,1291,1024,0,0,40,0,131.1,0,0,33,3.74,3.734,0,0,0,0,0,89.78,132.70212071628,0,10,Assisted_Takeoff,
108400,2022-08-23 22:09:15,-34.9051309545534,-56.1628735005306,0,0,133.19424671628,132.70212071628,0.328084,0.223694,27.8486885552,1.37125332472,15,5,7.49,132.70212071628,0,0.223694,27.859088818,0,-0.223694,0,121.2, 4, 2.5,0,0,1024,1024,1069,1024,0,0,7,0,131,0,0,33,3.734,3.724,0,0,0,0,0.828,89.78,132.70212071628,0,10,Assisted_Takeoff,
108500,2022-08-23 22:09:15,-34.9051311382467,-56.1628735947437,0,0,133.19424671628,132.70212071628,0.328084,0.223694,27.8411426232,1.44396001996,15,5,7.49,132.70212071628,0,0.223694,27.859088818,0,-0.223694,0,121.7, 1.3, 1.9,0,0,1024,1024,1081,1024,0,0,9,0,131,0,0,33,3.734,3.724,0,0,0,0,0.828,89.78,132.70212071628,0,10,Assisted_Takeoff,
108600,2022-08-23 22:09:15,-34.9051313353992,-56.1628737313489,0,0,133.19424671628,132.70212071628,0.328084,0.223694,27.8230980032,1.52669296224,15,5,7.49,132.70212071628,0,0.223694,27.859088818,0,-0.223694,-0.223694,122.2, -0.1, 0,0,0,1024,1024,1081,1024,0,0,9,0,131.5,0,0,33,3.734,3.724,0,0,0,0,0.828,89.78,132.70212071628,0,10,Assisted_Takeoff,
108700,2022-08-23 22:09:16,-34.9051316403416,-56.1628740373617,0,0.032808399999993,133.16143831628,132.70212071628,0.328084,0.223694,27.7686032508,1.6707841742,15,5,7.49,132.70212071628,0,0.223694,27.859088818,0,-0.223694,-0.223694,122.3, -0.3, -1.2,0,0,1024,1024,1392,1024,0,0,56,0,131.8,0,0,33,3.734,3.724,0,0,0,0,0.828,89.78,132.70212071628,0,6,P-GPS,
108800,2022-08-23 22:09:16,-34.9051318842923,-56.1628742293567,0,0.032808399999993,133.16143831628,132.70212071628,0.328084,0.223694,27.7405192604,1.77671921696,15,5,7.49,132.70212071628,0,0.223694,27.859088818,0,-0.223694,0,122.1, -1.5, -1.3,0,0,1024,1024,1275,1024,0,0,38,0,131.8,0,0,33,3.734,3.724,0,0,0,0,0.828,89.78,132.70212071628,0,6,P-GPS,
108900,2022-08-23 22:09:16,-34.9051320910265,-56.1628744356198,0,0.032808399999993,133.16143831628,132.70212071628,0.328084,0.223694,27.7046268708,1.87417656916,15,5,7.49,132.70212071628,0,0.223694,27.859088818,0,-0.223694,0,122, -1.5, -1.7,0,0,1024,1024,1024,1024,0,0,0,0,131.8,0,0,33,3.734,3.724,0,0,0,0,0.828,89.78,132.70212071628,0,6,P-GPS,
109000,2022-08-23 22:09:16,-34.9051322768564,-56.1628745983654,0,0.032808399999993,133.16143831628,132.70212071628,0.328084,0,27.6790363188,1.95765426212,15,5,7.49,132.70212071628,0,0.223694,27.859088818,0,0,-0.223694,122, -1.1, -1.1,0,0,1024,1024,1187,1024,0,0,25,0,131.8,0,0,33,3.734,3.724,0,0,0,0,0.828,89.78,132.70212071628,0,6,P-GPS,
109100,2022-08-23 22:09:16,-34.9051324192296,-56.1628748101024,0,0.032808399999993,133.16143831628,132.70212071628,0.328084,0,27.634843404,2.03958011776,15,5,7.49,132.70212071628,0,0.223694,27.859088818,0,0,-0.447388,122, -1.1, -1,0,0,1024,1024,1504,1024,0,0,73,0,131.8,0,0,33,3.734,3.724,0,0,0,0,0.828,89.78,132.70212071628,0,6,P-GPS,
109200,2022-08-23 22:09:16,-34.9051325887849,-56.1628748528196,0,0.032808399999993,133.16143831628,132.70212071628,0.328084,0,27.6419628268,2.10274941112,14,5,7.49,132.70212071628,0,0.223694,27.859088818,0,0,-0.447388,122.1, -0.6, -0.9,0,0,1024,1024,1417,1024,0,0,60,0,131.8,0,0,33,3.734,3.724,0,0,0,0,0.828,89.78,132.70212071628,0,6,P-GPS,
109300,2022-08-23 22:09:16,-34.9051326030777,-56.1628747369253,0,0.032808399999993,133.16143831628,132.70212071628,0.656168,0,27.676510072,2.13781502904,14,5,7.49,132.70212071628,0,0.223694,27.859088818,0,0,-0.894776,122, 0.4, -0.7,0,0,1024,1024,1105,1024,0,0,12,0,131.8,0,0,33,3.734,3.724,0,0,0,0,0.828,89.78,132.70212071628,0,6,P-GPS,
109400,2022-08-23 22:09:16,-34.9051325878664,-56.1628745958857,0,0.032808399999993,133.16143831628,132.70212071628,0.656168,0,27.7148959,2.1803806472,15,5,7.471,132.70212071628,0,0.223694,27.859088818,0,0,-1.342164,122, 0.8, -0.3,0,0,1024,1024,1105,1024,0,0,12,0,131.8,0,0,33,3.69,3.681,0,0,0,0,1.59,89.78,132.70212071628,0,6,P-GPS,
109500,2022-08-23 22:09:16,-34.9051324378476,-56.162874387374,0.328084,0.36089239999999,133.16143831628,133.03020471628,0.984252,0,27.757218736,2.26337605668,15,5,7.471,133.03020471628,0.328084,0.223694,27.859088818,0,0,-1.565858,122.1, 1.9, -0.6,0,0,1024,1024,1024,1024,0,0,0,0,131.8,0,0,33,3.69,3.681,0,0,0,0,1.59,89.78,133.03020471628,0.328084,6,P-GPS,
109600,2022-08-23 22:09:16,-34.9051316352592,-56.1628737702702,0.656168,0.68897639999999,133.16143831628,133.35828871628,0.984252,0,27.844325038,2.60955388928,15,5,7.471,133.35828871628,0.656168,0.223694,27.859088818,0,0,-1.565858,122.1, 1.9, -0.8,0,0,1024,1024,1024,1024,0,0,0,0,131.8,0,0,33,3.69,3.681,0,0,0,0,1.59,89.78,133.35828871628,0.656168,6,P-GPS,
109700,2022-08-23 22:09:17,-34.9051316015733,-56.162873652685,0.656168,0.68897639999999,133.16143831628,133.35828871628,1.312336,0,27.8742791072,2.64682095084,15,5,7.471,133.35828871628,0.656168,0.223694,27.8742791072,0,0,-1.342164,122.1, 2.6, -0.9,0,0,1024,1024,1024,1024,0,0,0,0,131.8,0,0,33,3.69,3.681,0,0,0,0,1.59,89.78,133.35828871628,0.656168,6,P-GPS,
109800,2022-08-23 22:09:17,-34.9051315483785,-56.162873550709,0.984252,1.0170604,133.16143831628,133.68637271628,1.64042,0,27.897638688,2.68298565016,15,5,7.471,133.68637271628,0.984252,0.223694,27.897638688,0,0,-1.11847,122.1, 2.2, -0.8,0,0,1024,1024,1024,1024,0,0,0,0,131.8,0,0,33,3.69,3.681,0,0,0,0,1.59,89.78,133.68637271628,0.984252,6,P-GPS,
109900,2022-08-23 22:09:17,-34.9051314593238,-56.1628734247851,0.984252,0.984252,133.19424671628,133.68637271628,1.64042,0,27.92404945,2.73273630792,15,5,7.471,133.68637271628,0.984252,0.223694,27.92404945,0,0,-0.671082,122, 2.9, -1,0,0,1024,1174,1024,1024,0,23,0,0,131.8,0,0,33,3.69,3.681,0,0,0,0,1.59,89.78,133.68637271628,0.984252,6,P-GPS,
110000,2022-08-23 22:09:17,-34.9051312670762,-56.1628731830531,1.312336,1.312336,133.19424671628,134.01445671628,1.64042,0,27.9726714988,2.83349090432,15,5,7.471,134.01445671628,1.312336,0.223694,27.9726714988,0,0,-0.447388,122, 2.5, -0.9,0,0,1024,1653,1024,1024,0,95,0,0,131.8,0,0,33,3.69,3.681,0,0,0,0,1.59,89.78,134.01445671628,1.312336,6,P-GPS,
110100,2022-08-23 22:09:17,-34.9051311036553,-56.1628733195917,1.312336,1.312336,133.19424671628,134.01445671628,1.968504,0.223694,27.9162410508,2.90576780952,15,5,7.471,134.01445671628,1.312336,0.223694,27.9726714988,0,-0.223694,-0.223694,122.1, 1.3, 1.7,0,0,1024,1674,1024,1024,0,98,0,0,131.8,0,0,33,3.69,3.681,0,0,0,0,1.59,89.78,134.01445671628,1.312336,6,P-GPS,
110200,2022-08-23 22:09:17,-34.9051309863292,-56.1628734907817,1.312336,1.312336,133.19424671628,134.01445671628,1.968504,0.223694,27.854823726,2.972523061,15,5,7.471,134.01445671628,1.312336,0.223694,27.9726714988,0,-0.223694,0,122.3, 0.6, 10.7,0,0,1024,1097,1024,1024,0,11,0,0,131.8,0,0,33,3.69,3.681,0,0,0,0,1.59,89.78,134.01445671628,1.312336,6,P-GPS,
110300,2022-08-23 22:09:17,-34.9051311857191,-56.1628737453403,1.312336,1.312336,133.19424671628,134.01445671628,2.296588,0.4921268,27.8030848792,3.07784786752,15,5,7.471,134.01445671628,1.312336,0.4921268,27.9726714988,-0.223694,-0.447388,0,122.4, 0.3, 15.7,0,0,1024,1024,1024,1024,0,0,0,0,131.8,0,0,33,3.69,3.681,0,0,0,0,1.59,89.78,134.01445671628,1.312336,6,P-GPS,
110400,2022-08-23 22:09:17,-34.9051317362814,-56.1628745561522,1.312336,1.3451444,133.16143831628,134.01445671628,2.296588,0.9395148,27.6310048212,3.3928150692,17,5,7.415,134.01445671628,1.312336,0.9395148,27.9726714988,-0.671082,-0.671082,0,122, 0.3, 8.3,0,0,1024,1024,1024,1024,0,0,0,0,131.8,0,0,33,3.698,3.689,0,0,0,0,3.083,89.78,134.01445671628,1.312336,6,P-GPS,
110500,2022-08-23 22:09:17,-34.9051321635444,-56.1628751478077,1.312336,1.3451444,133.16143831628,134.01445671628,2.624672,1.2750558,27.5099090168,3.6287074652,17,5,7.415,134.01445671628,1.312336,1.2750558,27.9726714988,-0.894776,-0.894776,0,121.5, -0.6, -4.3,0,0,1024,1024,1024,1024,0,0,0,0,131.8,0,0,33,3.698,3.689,0,0,0,0,3.083,89.78,134.01445671628,1.312336,6,P-GPS,
110600,2022-08-23 22:09:17,-34.9051325583932,-56.1628756749356,1.312336,1.3451444,133.16143831628,134.01445671628,2.624672,0.9395148,27.4048893284,3.8423229576,16,5,7.415,134.01445671628,1.312336,1.2750558,27.9726714988,-0.671082,-0.671082,0,121.8, -0.9, -6.4,0,0,1024,1024,1024,1024,0,0,0,0,131.8,0,0,33,3.698,3.689,0,0,0,0,3.083,89.78,134.01445671628,1.312336,6,P-GPS,
110700,2022-08-23 22:09:18,-34.9051329245928,-56.1628759672795,1.312336,1.3451444,133.16143831628,134.01445671628,2.952756,0.8052984,27.364338146,4.0020014404,16,5,7.415,134.01445671628,1.312336,1.2750558,27.9726714988,-0.671082,-0.447388,0,122, -0.7, -5.8,0,0,1024,1024,1024,1024,0,0,0,0,131.8,0,0,33,3.698,3.689,0,0,0,0,3.083,89.78,134.01445671628,1.312336,6,P-GPS,
110800,2022-08-23 22:09:18,-34.9051332450071,-56.1628761999481,1.312336,1.3451444,133.16143831628,134.01445671628,2.952756,0.4921268,27.336122922,4.1380578752,16,5,7.415,134.01445671628,1.312336,1.2750558,27.9726714988,-0.447388,-0.223694,0,122, -0.4, -4.8,0,0,1024,1467,1024,1024,0,67,0,0,131.8,0,0,33,3.698,3.689,0,0,0,0,3.083,89.78,134.01445671628,1.312336,6,P-GPS,
110900,2022-08-23 22:09:18,-34.9051338266808,-56.1628767103163,1.312336,1.3779528,133.12862991628,134.01445671628,3.28084,0.3131716,27.2617134708,4.3995408232,16,5,7.415,134.01445671628,1.312336,1.2750558,27.9726714988,-0.223694,-0.223694,0,122, -0.1, -3.4,0,0,1024,1684,1024,1024,0,100,0,0,131.8,0,0,33,3.698,3.689,0,0,0,0,3.083,89.78,134.01445671628,1.312336,6,P-GPS,
111000,2022-08-23 22:09:18,-34.905134331715,-56.1628771566101,1.312336,1.3779528,133.12862991628,134.01445671628,3.28084,0.3131716,27.1981307916,4.6270998856,16,5,7.415,134.01445671628,1.312336,1.2750558,27.9726714988,-0.223694,-0.223694,0,122.2, 0.2, 6.6,0,0,1024,1684,1024,1024,0,100,0,0,131.8,0,0,33,3.698,3.689,0,0,0,0,3.083,89.78,134.01445671628,1.312336,6,P-GPS,
111100,2022-08-23 22:09:18,-34.9051345919729,-56.162877483941,1.312336,1.3779528,133.12862991628,134.01445671628,3.28084,0.4921268,27.1386819708,4.7635172128,16,5,7.415,134.01445671628,1.312336,1.2750558,27.9726714988,-0.447388,-0.223694,0,122.4, 0.3, 14.1,0,0,1024,1684,1024,1024,0,100,0,0,131.8,0,0,33,3.698,3.689,0,0,0,0,3.083,89.78,134.01445671628,1.312336,6,P-GPS,
111200,2022-08-23 22:09:18,-34.9051349936091,-56.1628779036191,1.312336,1.3779528,133.12862991628,134.01445671628,3.28084,1.11847,27.0719824936,4.9564962216,16,5,7.415,134.01445671628,1.312336,1.2750558,27.9726714988,-0.894776,-0.671082,0,122.3, 0.5, 16.2,0,0,1024,1357,1024,1024,0,50,0,0,131.8,0,0,33,3.698,3.689,0,0,0,0,3.083,89.78,134.01445671628,1.312336,6,P-GPS,
111300,2022-08-23 22:09:18,-34.9051356118519,-56.1628784846795,1.312336,1.3779528,133.12862991628,134.01445671628,3.28084,1.8119214,26.9898630684,5.2412731336,16,5,7.415,134.01445671628,1.312336,1.8119214,27.9726714988,-1.565858,-0.894776,0,122.1, 0.3, 16.3,0,0,1024,1024,1024,1024,0,0,0,0,131.8,0,0,33,3.698,3.689,0,0,0,0,3.083,89.78,134.01445671628,1.312336,6,P-GPS,
111400,2022-08-23 22:09:18,-34.9051364305432,-56.162879139293,1.312336,1.4107612,133.09582151628,134.01445671628,3.28084,2.4158952,26.9172252708,5.5984581844,16,5,7.379,134.01445671628,1.312336,2.4158952,27.9726714988,-2.013246,-1.342164,0,121.8, 0.2, 11,0,0,1024,1024,1024,1024,0,0,0,0,131.8,0,0,33,3.687,3.676,0,0,0,0,4.776,89.96,134.01445671628,1.312336,6,P-GPS,
111500,2022-08-23 22:09:18,-34.905137297898,-56.1628799538114,1.312336,1.4107612,133.09582151628,134.01445671628,3.28084,2.6172198,26.81184469,5.9979004544,16,5,7.379,134.01445671628,1.312336,2.6172198,27.9726714988,-2.23694,-1.342164,0,121.5, 0, -0.9,0,0,1024,1024,1024,1024,0,0,0,0,131.8,0,0,33,3.687,3.676,0,0,0,0,4.776,89.96,134.01445671628,1.312336,6,P-GPS,
111600,2022-08-23 22:09:18,-34.9051381330276,-56.1628807318261,1.312336,1.4107612,133.09582151628,134.01445671628,3.28084,2.4158952,26.7173236896,6.3813322252,17,5,7.379,134.01445671628,1.312336,2.6172198,27.9726714988,-2.013246,-1.342164,0,121.3, -0.1, -10.4,0,0,1024,1024,1024,1024,0,0,0,0,131.8,0,0,33,3.687,3.676,0,0,0,0,4.776,89.96,134.01445671628,1.312336,6,P-GPS,
111700,2022-08-23 22:09:18,-34.9051388342869,-56.1628818461293,1.312336,1.4435696,133.06301311628,134.01445671628,3.28084,1.8119214,26.5162081976,6.8016078292,17,5,7.379,134.01445671628,1.312336,2.6172198,27.9726714988,-1.565858,-0.894776,0,121.6, 0, -11.1,0,0,1024,1024,1024,1024,0,0,0,0,131.8,0,0,33,3.687,3.676,0,0,0,0,4.776,89.96,134.01445671628,1.312336,6,P-GPS,
111800,2022-08-23 22:09:19,-34.9051395235071,-56.1628825745571,1.312336,1.4435696,133.06301311628,134.01445671628,3.28084,1.4987498,26.4229667248,7.1343834304,15,5,7.379,134.01445671628,1.312336,2.6172198,27.9726714988,-1.342164,-0.671082,0,121.8, 0, -9.7,0,0,1024,1024,1024,1024,0,0,0,0,131.8,0,0,33,3.687,3.676,0,0,0,0,4.776,89.96,134.01445671628,1.312336,6,P-GPS,
111900,2022-08-23 22:09:19,-34.9051402435676,-56.1628833461461,0.984252,1.1154856,133.06301311628,133.68637271628,3.28084,1.006623,26.3268709212,7.4841209744,15,5,7.379,134.01445671628,1.312336,2.6172198,27.9726714988,-0.894776,-0.447388,0,121.9, 0.1, -8.1,0,0,1024,1024,1024,1024,0,0,0,0,131.8,0,0,33,3.687,3.676,0,0,0,0,4.776,89.96,133.68637271628,0.984252,6,P-GPS,
112000,2022-08-23 22:09:19,-34.9051408249677,-56.1628839905491,0.984252,1.148294,133.03020471628,133.68637271628,3.28084,0.7158208,26.2466871916,7.7708007736,12,4,7.379,134.01445671628,1.312336,2.6172198,27.9726714988,-0.671082,-0.223694,0,121.9, 0.3, -6.7,0,0,1024,1024,1024,1024,0,0,0,0,131.8,0,0,33,3.687,3.676,0,0,0,0,4.776,89.96,133.68637271628,0.984252,6,P-GPS,
112100,2022-08-23 22:09:19,-34.9051414934814,-56.1628842741978,0.984252,1.148294,133.03020471628,133.68637271628,3.28084,0.4921268,26.280020526,8.02903569,12,4,7.379,134.01445671628,1.312336,2.6172198,27.9726714988,-0.447388,-0.223694,0,122, 0.3, -5.3,0,0,1024,1024,1024,1024,0,0,0,0,131.8,0,0,33,3.687,3.676,0,0,0,0,4.776,89.96,133.68637271628,0.984252,6,P-GPS,
112200,2022-08-23 22:09:19,-34.905141791218,-56.1628844469737,0.984252,1.148294,133.03020471628,133.68637271628,3.28084,0.223694,26.2833341744,8.1493440928,13,4,7.379,134.01445671628,1.312336,2.6172198,27.9726714988,-0.223694,0,0,122, 0.3, -4.1,0,0,1024,1024,1024,1024,0,0,0,0,131.8,0,0,33,3.687,3.676,0,0,0,0,4.776,89.96,133.68637271628,0.984252,6,P-GPS,
112300,2022-08-23 22:09:19,-34.9051418964024,-56.1628846314408,0.984252,1.148294,133.03020471628,133.68637271628,3.28084,0.223694,26.2517724936,8.2165685044,13,4,7.379,134.01445671628,1.312336,2.6172198,27.9726714988,-0.223694,0,0,122.1, 0.3, -2.8,0,0,1024,1024,1024,1024,0,0,0,0,131.8,0,0,33,3.687,3.676,0,0,0,0,4.776,89.96,133.68637271628,0.984252,6,P-GPS,
112400,2022-08-23 22:09:19,-34.9051419458465,-56.1628847721116,0.984252,1.148294,133.03020471628,133.68637271628,3.28084,0.223694,26.2226714428,8.2623690308,15,4,7.379,134.01445671628,1.312336,2.6172198,27.9726714988,-0.223694,0,0,122.1, 0.6, -1.6,0,0,1024,1024,1024,1651,0,0,0,95,131.8,0,0,33,3.687,3.676,0,0,0,0,4.776,89.96,133.68637271628,0.984252,6,P-GPS,"Punto de origen actualizado. Altitud de RPO establecida en 100m (Code: 3000001)"
112500,2022-08-23 22:09:19,-34.9051414927128,-56.1628846409769,0.984252,1.148294,133.03020471628,133.68637271628,3.28084,0.223694,26.182087452,8.4322837344,15,4,7.379,134.01445671628,1.312336,2.6172198,27.9726714988,-0.223694,0,0,122.1, 0.7, -1.4,0,0,1024,1024,1024,1651,0,0,0,95,131.8,0,0,33,3.687,3.676,0,0,0,0,4.776,89.96,133.68637271628,0.984252,6,P-GPS,
112600,2022-08-23 22:09:19,-34.905141466801,-56.1628847462865,0.984252,1.148294,133.03020471628,133.68637271628,3.28084,0,26.1497055612,8.4651905596,14,4,7.367,134.01445671628,1.312336,2.6172198,27.9726714988,0,0,0,122.3, 0.6, -1.4,0,0,1024,1024,1024,1684,0,0,0,100,133,0,0,33,3.689,3.679,0,0,0,0,4.652,89.96,133.68637271628,0.984252,6,P-GPS,
112700,2022-08-23 22:09:20,-34.9051413807735,-56.1628848089312,0.984252,1.148294,133.03020471628,133.68637271628,3.28084,0,26.11876724,8.5017391172,14,4,7.367,134.01445671628,1.312336,2.6172198,27.9726714988,0,0,0,124.9, 0.6, -1.9,0,0,1024,1024,1024,1684,0,0,0,100,136.8,0,0,33,3.689,3.679,0,0,0,0,4.652,89.96,133.68637271628,0.984252,6,P-GPS,
112800,2022-08-23 22:09:20,-34.9051412724682,-56.1628848564644,0.984252,1.148294,133.03020471628,133.68637271628,3.28084,0,26.0881898112,8.5437338692,15,4,7.367,134.01445671628,1.312336,2.6172198,27.9726714988,0,0,0,129.2, 0.7, -1.9,0,0,1024,1024,1024,1024,0,0,0,0,141.5,0,0,33,3.689,3.679,0,0,0,0,4.652,89.96,133.68637271628,0.984252,6,P-GPS,
112900,2022-08-23 22:09:20,-34.9051411849092,-56.1628849479325,0.984252,1.148294,133.03020471628,133.68637271628,3.28084,0,26.0493118572,8.585794238,15,4,7.367,134.01445671628,1.312336,2.6172198,27.9726714988,0,0,0,133.5, 0.6, -1.6,0,0,1024,1024,1014,762,0,0,-2,-40,145,0,0,33,3.689,3.679,0,0,0,0,4.652,89.96,133.68637271628,0.984252,6,P-GPS,
113000,2022-08-23 22:09:20,-34.9051408411292,-56.1628848933699,0.984252,1.148294,133.03020471628,133.68637271628,3.28084,0,26.0074811472,8.71227062,16,4,7.367,134.01445671628,1.312336,2.6172198,27.9726714988,0,0,0,135.6, 0.6, -1.4,0,0,1024,1024,1024,364,0,0,0,-100,146.3,0,0,33,3.689,3.679,0,0,0,0,4.652,89.96,133.68637271628,0.984252,6,P-GPS,
113100,2022-08-23 22:09:20,-34.9051407122932,-56.1628849761063,0.984252,1.148294,133.03020471628,133.68637271628,3.28084,0,25.9643052928,8.765420228,16,4,7.367,134.01445671628,1.312336,2.6172198,27.9726714988,0,0,0,136.3, 0.5, -1.2,0,0,1024,1024,1024,364,0,0,0,-100,145.4,0,0,33,3.689,3.679,0,0,0,0,4.652,89.96,133.68637271628,0.984252,6,P-GPS,
113200,2022-08-23 22:09:20,-34.9051405845328,-56.1628850542038,0.984252,1.148294,133.03020471628,133.68637271628,3.28084,0,25.9226058164,8.8175527756,17,4,7.367,134.01445671628,1.312336,2.6172198,27.9726714988,0,0,0,133.8, 0.4, -1,0,0,1024,1024,1024,364,0,0,0,-100,141.5,0,0,33,3.689,3.679,0,0,0,0,4.652,89.96,133.68637271628,0.984252,6,P-GPS,
113300,2022-08-23 22:09:20,-34.9051405295044,-56.1628852503061,0.984252,1.148294,133.03020471628,133.68637271628,3.28084,0,25.8611228748,8.8795606516,17,4,7.367,134.01445671628,1.312336,2.6172198,27.9726714988,0,0,0,129.5, 0.4, -1.3,0,0,1024,1024,1024,364,0,0,0,-100,136.8,0,0,33,3.689,3.679,0,0,0,0,4.652,89.96,133.68637271628,0.984252,6,P-GPS,
113400,2022-08-23 22:09:20,-34.9051405584745,-56.162885682867,0.984252,1.148294,133.03020471628,133.68637271628,3.28084,0,25.7500992492,9.0094162988,18,4,7.367,134.01445671628,1.312336,2.6172198,27.9726714988,0,0,0,124.9, 0.3, -1.1,0,0,1024,1024,1024,364,0,0,0,-100,132,0,0,33,3.689,3.679,0,0,0,0,4.652,89.96,133.68637271628,0.984252,6,P-GPS,
113500,2022-08-23 22:09:20,-34.9051406115007,-56.1628859757267,0.984252,1.148294,133.03020471628,133.68637271628,3.28084,0,25.6804798244,9.0991472728,18,4,7.367,134.01445671628,1.312336,2.6172198,27.9726714988,0,0,0,120.2, 0.3, -0.7,0,0,1024,1024,1024,364,0,0,0,-100,127.2,0,0,33,3.689,3.679,0,0,0,0,4.652,89.96,133.68637271628,0.984252,6,P-GPS,
113600,2022-08-23 22:09:20,-34.9051406612724,-56.1628862512081,0.984252,1.148294,133.03020471628,133.68637271628,3.28084,0,25.6151254916,9.183563286,17,4,7.361,134.01445671628,1.312336,2.6172198,27.9726714988,0,0,0,115.4, 0.4, -0.5,0,0,1024,1024,1024,364,0,0,0,-100,122.4,0,0,33,3.686,3.675,0,0,0,0,4.652,89.96,133.68637271628,0.984252,6,P-GPS,
113700,2022-08-23 22:09:21,-34.9051407378606,-56.1628865399462,0.984252,1.148294,133.03020471628,133.68637271628,3.28084,0,25.5507882192,9.2743769372,17,4,7.361,134.01445671628,1.312336,2.6172198,27.9726714988,0,0,0,110.7, 0.4, -0.5,0,0,1024,1024,1024,364,0,0,0,-100,117.6,0,0,33,3.686,3.675,0,0,0,0,4.652,89.96,133.68637271628,0.984252,6,P-GPS,
113800,2022-08-23 22:09:21,-34.9051412604584,-56.1628873041434,0.984252,1.148294,133.03020471628,133.68637271628,3.28084,0,25.4351714176,9.5720803588,17,4,7.361,134.01445671628,1.312336,2.6172198,27.9726714988,0,0,0,105.9, 0.6, -0.4,0,0,1024,1024,1024,364,0,0,0,-100,112.8,0,0,33,3.686,3.675,0,0,0,0,4.652,89.96,133.68637271628,0.984252,6,P-GPS,
113900,2022-08-23 22:09:21,-34.9051413047293,-56.1628875571002,0.984252,1.148294,133.03020471628,133.68637271628,3.28084,0,25.37565698,9.6494753744,17,4,7.361,134.01445671628,1.312336,2.6172198,27.9726714988,0,0,0,101.1, 0.6, -0.7,0,0,1024,1024,1024,364,0,0,0,-100,108,0,0,33,3.686,3.675,0,0,0,0,4.652,89.96,133.68637271628,0.984252,6,P-GPS,
114000,2022-08-23 22:09:21,-34.9051413505757,-56.1628877995063,0.984252,1.148294,133.03020471628,133.68637271628,3.28084,0,25.3192921488,9.723917634,17,4,7.361,134.01445671628,1.312336,2.6172198,27.9726714988,0,0,0,96.4, 0.5, -0.8,0,0,1024,1024,1024,364,0,0,0,-100,103.2,0,0,33,3.686,3.675,0,0,0,0,4.652,89.96,133.68637271628,0.984252,6,P-GPS,
114100,2022-08-23 22:09:21,-34.9051413887659,-56.1628879463482,0.984252,1.148294,133.03020471628,133.68637271628,3.28084,0,25.2870086832,9.770013436,17,4,7.361,134.01445671628,1.312336,2.6172198,27.9726714988,0,0,0,91.6, 0.6, -1.1,0,0,1024,1024,1024,681,0,0,0,-52,98.4,0,0,33,3.686,3.675,0,0,0,0,4.652,89.96,133.68637271628,0.984252,6,P-GPS,
114200,2022-08-23 22:09:21,-34.9051415184161,-56.1628879929435,0.984252,1.1811024,132.99739631628,133.68637271628,3.28084,0,25.2968840116,9.8193244612,16,4,7.361,134.01445671628,1.312336,2.6172198,27.9726714988,0,0,0,86.7, 0.7, -1.1,0,0,1024,1024,1024,1024,0,0,0,0,93.8,0,0,33,3.686,3.675,0,0,0,0,4.652,89.96,133.68637271628,0.984252,6,P-GPS,
114300,2022-08-23 22:09:21,-34.9051414921192,-56.1628880631496,0.984252,1.148294,133.03020471628,133.68637271628,3.28084,0,25.2738197064,9.8424215748,16,4,7.361,134.01445671628,1.312336,2.6172198,27.9726714988,0,0,0,82.7, 0.7, -1,0,0,1024,1024,1024,1024,0,0,0,0,91.1,0,0,33,3.686,3.675,0,0,0,0,4.652,89.96,133.68637271628,0.984252,6,P-GPS,
114400,2022-08-23 22:09:21,-34.9051414577289,-56.1628881384024,0.984252,1.148294,133.03020471628,133.68637271628,3.28084,0,25.2480651124,9.8682089772,15,4,7.361,134.01445671628,1.312336,2.6172198,27.9726714988,0,0,0,81, 0.3, -1,0,0,1024,1024,1024,1024,0,0,0,0,90.2,0,0,33,3.686,3.675,0,0,0,0,4.652,89.96,133.68637271628,0.984252,6,P-GPS,
114500,2022-08-23 22:09:21,-34.9051413445097,-56.1628882521266,0.984252,1.148294,133.03020471628,133.68637271628,3.28084,0,25.1986228536,9.9217194776,15,4,7.361,134.01445671628,1.312336,2.6172198,27.9726714988,0,0,0,80.3, 0.1, -0.4,0,0,1024,1024,1024,1024,0,0,0,0,89.8,0,0,33,3.686,3.675,0,0,0,0,4.652,89.96,133.68637271628,0.984252,6,P-GPS,
114600,2022-08-23 22:09:21,-34.9051412420944,-56.1628883528562,0.984252,1.148294,133.03020471628,133.68637271628,3.28084,0,25.1544627472,9.9697181668,15,4,7.359,134.01445671628,1.312336,2.6172198,27.9726714988,0,0,0,80.1, 0.1, -0.2,0,0,1024,1024,1024,1024,0,0,0,0,89.8,0,0,33,3.686,3.675,0,0,0,0,4.601,89.96,133.68637271628,0.984252,6,P-GPS,
114700,2022-08-23 22:09:22,-34.9051410127664,-56.1628878016341,0.984252,1.148294,133.03020471628,133.68637271628,3.28084,0,25.2613853228,10.1546591176,15,4,7.359,134.01445671628,1.312336,2.6172198,27.9726714988,0,0,0,80, 0, -0.3,0,0,1024,1024,1024,1024,0,0,0,0,89.8,0,0,33,3.686,3.675,0,0,0,0,4.601,89.96,133.68637271628,0.984252,6,P-GPS,
114800,2022-08-23 22:09:22,-34.9051410008917,-56.1628878462443,0.984252,1.148294,133.03020471628,133.68637271628,3.28084,0,25.247540178,10.1687011128,16,4,7.359,134.01445671628,1.312336,2.6172198,27.9726714988,0,0,0,80.1, -0.2, -0.5,0,0,1024,1024,1024,1024,0,0,0,0,89.8,0,0,33,3.686,3.675,0,0,0,0,4.601,89.96,133.68637271628,0.984252,6,P-GPS,
114900,2022-08-23 22:09:22,-34.9051409834959,-56.1628879935327,0.984252,1.148294,133.03020471628,133.68637271628,3.28084,0,25.2055782344,10.2132221116,16,4,7.359,134.01445671628,1.312336,2.6172198,27.9726714988,0,0,0,80.2, -0.3, -0.6,0,0,1024,1024,1024,364,0,0,0,-100,89.8,0,0,33,3.686,3.675,0,0,0,0,4.601,89.96,133.68637271628,0.984252,6,P-GPS,
115000,2022-08-23 22:09:22,-34.9051409690247,-56.1628881166437,0.984252,1.148294,133.03020471628,133.68637271628,3.28084,0,25.1704732464,10.2504268372,16,4,7.359,134.01445671628,1.312336,2.6172198,27.9726714988,0,0,0,80.2, 0, -0.4,0,0,1024,1024,1024,364,0,0,0,-100,88.9,0,0,33,3.686,3.675,0,0,0,0,4.601,89.96,133.68637271628,0.984252,6,P-GPS,
115100,2022-08-23 22:09:22,-34.9051409409243,-56.1628879598057,0.984252,1.148294,133.03020471628,133.68637271628,3.28084,0,25.2072842712,10.2984583348,16,4,7.359,134.01445671628,1.312336,2.6172198,27.9726714988,0,0,0,78, 0, -0.3,0,0,1024,1024,1024,613,0,0,0,-62,85.3,0,0,33,3.686,3.675,0,0,0,0,4.601,89.96,133.68637271628,0.984252,6,P-GPS,
115200,2022-08-23 22:09:22,-34.9051409316625,-56.1628879665929,0.984252,1.148294,133.03020471628,133.68637271628,3.28084,0,25.2039378144,10.3024281512,16,4,7.359,134.01445671628,1.312336,2.6172198,27.9726714988,0,0,0,73.6, 0, -0.4,0,0,1024,1024,1024,1024,0,0,0,0,80.7,0,0,33,3.686,3.675,0,0,0,0,4.601,89.96,133.68637271628,0.984252,6,P-GPS,
115300,2022-08-23 22:09:22,-34.9051408656576,-56.162888009773,0.984252,1.148294,133.03020471628,133.68637271628,3.28084,0,25.1813328268,10.3297575484,16,4,7.359,134.01445671628,1.312336,2.6172198,27.9726714988,0,0,0,69.4, -0.2, -0.7,0,0,1024,1024,1024,1024,0,0,0,0,77.4,0,0,33,3.686,3.675,0,0,0,0,4.601,89.96,133.68637271628,0.984252,6,P-GPS,
115400,2022-08-23 22:09:22,-34.9051408039998,-56.1628880428704,0.984252,1.148294,133.03020471628,133.68637271628,3.28084,0,25.1621399128,10.35433104,16,4,7.359,134.01445671628,1.312336,2.6172198,27.9726714988,0,0,0,67.4, 0, -1,0,0,1024,1024,1024,1024,0,0,0,0,76.2,0,0,33,3.686,3.675,0,0,0,0,4.601,89.96,133.68637271628,0.984252,6,P-GPS,
115500,2022-08-23 22:09:22,-34.9051405944777,-56.1628879488425,0.984252,1.148294,133.03020471628,133.68637271628,3.28084,0,25.1518708836,10.4357942972,16,4,7.359,134.01445671628,1.312336,2.6172198,27.9726714988,0,0,0,66.4, 0, -1.1,0,0,1024,1024,1024,1024,0,0,0,0,75.8,0,0,33,3.686,3.675,0,0,0,0,4.601,89.96,133.68637271628,0.984252,6,P-GPS,
115600,2022-08-23 22:09:22,-34.9051405468238,-56.1628879538688,0.984252,1.148294,133.03020471628,133.68637271628,3.28084,0,25.142553298,10.4532155576,15,4,7.354,134.01445671628,1.312336,2.6172198,27.9726714988,0,0,0,66.2, 0, -1.3,0,0,1024,1024,1024,1024,0,0,0,0,75.7,0,0,33,3.683,3.674,0,0,0,0,4.647,89.96,133.68637271628,0.984252,6,P-GPS,
115700,2022-08-23 22:09:23,-34.9051405040282,-56.1628879169176,0.984252,1.148294,133.03020471628,133.68637271628,3.28084,0,25.1452435868,10.4723756632,15,4,7.354,134.01445671628,1.312336,2.6172198,27.9726714988,0,0,0,66.1, 0.1, -1.3,0,0,1024,1024,1024,1024,0,0,0,0,75.7,0,0,33,3.683,3.674,0,0,0,0,4.647,89.96,133.68637271628,0.984252,6,P-GPS,
115800,2022-08-23 22:09:23,-34.9051404571877,-56.1628878864693,0.984252,1.148294,133.03020471628,133.68637271628,3.28084,0,25.145506054,10.4917326192,16,4,7.354,134.01445671628,1.312336,2.6172198,27.9726714988,0,0,0,65.9, 0.3, -1.2,0,0,1024,1024,1024,1024,0,0,0,0,75.7,0,0,33,3.683,3.674,0,0,0,0,4.647,89.96,133.68637271628,0.984252,6,P-GPS,
115900,2022-08-23 22:09:23,-34.9051402484806,-56.162887812965,0.984252,1.148294,133.03020471628,133.68637271628,3.28084,0,25.1303485732,10.5709977136,16,4,7.354,134.01445671628,1.312336,2.6172198,27.9726714988,0,0,0,65.8, 0.3, -1.2,0,0,1024,1024,1024,1024,0,0,0,0,75.7,0,0,33,3.683,3.674,0,0,0,0,4.647,89.96,133.68637271628,0.984252,6,P-GPS,
116000,2022-08-23 22:09:23,-34.9051401494761,-56.1628878368052,0.984252,1.148294,133.03020471628,133.68637271628,3.28084,0,25.1075795436,10.6078087384,16,4,7.354,134.01445671628,1.312336,2.6172198,27.9726714988,0,0,0,65.8, 0, -1.1,0,0,1024,1024,1024,1024,0,0,0,0,75.7,0,0,33,3.683,3.674,0,0,0,0,4.647,89.96,133.68637271628,0.984252,6,P-GPS,
116100,2022-08-23 22:09:23,-34.9051400699144,-56.1628877656632,0.984252,1.148294,133.03020471628,133.68637271628,3.28084,0,25.1133866304,10.6437995532,16,4,7.354,134.01445671628,1.312336,2.6172198,27.9726714988,0,0,0,65.8, 0.2, -1.1,0,0,1024,1024,1024,1024,0,0,0,0,75.7,0,0,33,3.683,3.674,0,0,0,0,4.647,89.96,133.68637271628,0.984252,6,P-GPS,
116200,2022-08-23 22:09:23,-34.9051399988483,-56.1628877069174,0.984252,1.148294,133.03020471628,133.68637271628,3.28084,0,25.1173564468,10.6751315752,16,4,7.354,134.01445671628,1.312336,2.6172198,27.9726714988,0,0,0,65.8, 0.5, -0.8,0,0,1024,1024,1024,1024,0,0,0,0,75.7,0,0,33,3.683,3.674,0,0,0,0,4.647,89.96,133.68637271628,0.984252,6,P-GPS,
116300,2022-08-23 22:09:23,-34.9051399993791,-56.1628876183369,0.984252,1.148294,133.03020471628,133.68637271628,3.28084,0,25.1411097284,10.7016407624,16,4,7.354,134.01445671628,1.312336,2.6172198,27.9726714988,0,0,0,65.8, 0.2, -0.6,0,0,1024,1024,1024,1024,0,0,0,0,75.7,0,0,33,3.683,3.674,0,0,0,0,4.647,89.96,133.68637271628,0.984252,6,P-GPS,
116400,2022-08-23 22:09:23,-34.9051400862648,-56.1628871945319,0.984252,1.148294,133.03020471628,133.68637271628,3.28084,0,25.2686031708,10.832349428,16,4,7.354,134.01445671628,1.312336,2.6172198,27.9726714988,0,0,0,65.9, 0.1, -0.3,0,0,1024,1141,1024,1024,0,18,0,0,75.7,0,0,33,3.683,3.674,0,0,0,0,4.647,89.96,133.68637271628,0.984252,6,P-GPS,
116500,2022-08-23 22:09:23,-34.9051401334986,-56.1628871554324,0.984252,1.148294,133.03020471628,133.68637271628,3.28084,0,25.2867790244,10.853182762,16,4,7.354,134.01445671628,1.312336,2.6172198,27.9726714988,0,0,0,65.9, -0.1, -0.6,0,0,1024,1141,1024,1024,0,18,0,0,75.7,0,0,33,3.683,3.674,0,0,0,0,4.647,89.96,133.68637271628,0.984252,6,P-GPS,
116600,2022-08-23 22:09:23,-34.9051401921657,-56.1628871160342,0.984252,1.148294,133.03020471628,133.68637271628,3.28084,0,25.3069561904,10.87762502,16,4,7.354,134.01445671628,1.312336,2.6172198,27.9726714988,0,0,0,65.9, -0.3, 0,0,0,1024,1327,1024,1024,0,46,0,0,75.7,0,0,33,3.682,3.673,0,0,0,0,4.556,89.96,133.68637271628,0.984252,6,P-GPS,
116700,2022-08-23 22:09:24,-34.9051402676946,-56.1628870790105,0.984252,1.148294,133.03020471628,133.68637271628,3.28084,0,25.3292659024,10.907316622,16,4,7.354,134.01445671628,1.312336,2.6172198,27.9726714988,0,0,0,65.9, -0.4, 1.7,0,0,1024,1432,1024,1024,0,62,0,0,75.7,0,0,33,3.682,3.673,0,0,0,0,4.556,89.96,133.68637271628,0.984252,6,P-GPS,
116800,2022-08-23 22:09:24,-34.9051405375962,-56.1628869494924,0.984252,1.148294,133.03020471628,133.68637271628,3.28084,0.223694,25.4084325716,11.013123712,16,4,7.354,134.01445671628,1.312336,2.6172198,27.9726714988,-0.223694,0,0,65.9, -0.5, 5.3,0,0,1024,1385,1024,1024,0,55,0,0,75.7,0,0,33,3.682,3.673,0,0,0,0,4.556,89.96,133.68637271628,0.984252,6,P-GPS,
116900,2022-08-23 22:09:24,-34.9051407644995,-56.1628869350417,0.984252,1.148294,133.03020471628,133.68637271628,3.28084,0.447388,25.449968006,11.0960305388,16,4,7.354,134.01445671628,1.312336,2.6172198,27.9726714988,-0.447388,0,0,65.9, -0.5, 7.2,0,0,1024,1027,1024,1024,0,0,0,0,75.7,0,0,33,3.682,3.673,0,0,0,0,4.556,89.96,133.68637271628,0.984252,6,P-GPS,
117000,2022-08-23 22:09:24,-34.9051410811195,-56.1628868678888,0.984252,1.148294,133.03020471628,133.68637271628,3.28084,0.7158208,25.5207357248,11.2132877604,16,4,7.354,134.01445671628,1.312336,2.6172198,27.9726714988,-0.671082,0.223694,0,65.9, -0.5, 5.7,0,0,1024,767,1024,1024,0,-39,0,0,75.7,0,0,33,3.682,3.673,0,0,0,0,4.556,89.96,133.68637271628,0.984252,6,P-GPS,
117100,2022-08-23 22:09:24,-34.9051415440584,-56.1628867572529,0.984252,1.148294,133.03020471628,133.68637271628,3.28084,0.7158208,25.6281504264,11.3854006268,16,4,7.354,134.01445671628,1.312336,2.6172198,27.9726714988,-0.671082,0.223694,0,65.8, -0.7, -2,0,0,1024,424,1024,1024,0,-91,0,0,75.7,0,0,33,3.682,3.673,0,0,0,0,4.556,89.96,133.68637271628,0.984252,6,P-GPS,
117200,2022-08-23 22:09:24,-34.9051421902356,-56.162886873394,0.984252,1.148294,133.03020471628,133.68637271628,3.28084,0.7158208,25.70784203,11.6237208444,16,4,7.354,134.01445671628,1.312336,2.6172198,27.9726714988,-0.671082,0.223694,0,65.7, -0.4, -6,0,0,1024,364,1024,1024,0,-100,0,0,75.7,0,0,33,3.682,3.673,0,0,0,0,4.556,89.96,133.68637271628,0.984252,6,P-GPS,
117300,2022-08-23 22:09:24,-34.9051425555994,-56.1628867474567,0.984252,1.1811024,132.99739631628,133.68637271628,3.28084,0.447388,25.8042003008,11.7622379092,16,4,7.354,134.01445671628,1.312336,2.6172198,27.9726714988,-0.447388,0,0,65.6, -0.2, -13.4,0,0,1024,364,1024,1024,0,-100,0,0,75.7,0,0,33,3.682,3.673,0,0,0,0,4.556,89.96,133.68637271628,0.984252,6,P-GPS,
117400,2022-08-23 22:09:24,-34.9051427509052,-56.1628867038672,0.984252,1.1811024,132.99739631628,133.68637271628,3.28084,0,25.8496071264,11.8346788564,15,5,7.354,134.01445671628,1.312336,2.6172198,27.9726714988,0,0,0,65.6, -0.4, -18.4,0,0,1024,364,1024,1024,0,-100,0,0,75.7,0,0,33,3.682,3.673,0,0,0,0,4.556,89.96,133.68637271628,0.984252,6,P-GPS,
117500,2022-08-23 22:09:24,-34.9051426173516,-56.1628866954427,0.984252,1.1811024,132.99739631628,133.68637271628,3.28084,0.4921268,25.8286097504,11.8834649472,15,5,7.354,134.01445671628,1.312336,2.6172198,27.9726714988,0.447388,-0.223694,0,65.8, -0.5, -18.6,0,0,1024,364,1024,1024,0,-100,0,0,75.7,0,0,33,3.682,3.673,0,0,0,0,4.556,89.96,133.68637271628,0.984252,6,P-GPS,
117600,2022-08-23 22:09:24,-34.9051422346473,-56.1628868257684,1.312336,1.476378,133.03020471628,134.01445671628,3.28084,1.2079476,25.7280520044,12.0284452668,16,5,7.354,134.01445671628,1.312336,2.6172198,27.9726714988,1.11847,-0.447388,0,65.9, -0.4, -18.1,0,0,1024,384,1024,1024,0,-97,0,0,75.7,0,0,33,3.682,3.673,0,0,0,0,4.556,89.96,134.01445671628,1.312336,6,P-GPS,
117700,2022-08-23 22:09:24,-34.9051414383203,-56.1628872717422,1.312336,1.476378,133.03020471628,134.01445671628,3.28084,1.901399,25.473918138,12.3481631248,16,5,7.348,134.01445671628,1.312336,2.6172198,27.9726714988,1.789552,-0.671082,0,66, -0.4, -17.5,0,0,1024,968,1024,1024,0,-8,0,0,75.7,0,0,33,3.68,3.669,0,0,0,0,4.607,89.96,134.01445671628,1.312336,6,P-GPS,
117800,2022-08-23 22:09:25,-34.9051404814067,-56.1628878202579,1.312336,1.476378,133.03020471628,134.01445671628,3.28084,2.4158952,25.167159598,12.733924292,16,5,7.348,134.01445671628,1.312336,2.6172198,27.9726714988,2.23694,-0.894776,0,65.9, -0.1, -12.7,0,0,1024,1024,1024,1024,0,0,0,0,75.7,0,0,33,3.68,3.669,0,0,0,0,4.607,89.96,134.01445671628,1.312336,6,P-GPS,
117900,2022-08-23 22:09:25,-34.9051394033385,-56.1628886573016,1.312336,1.476378,133.03020471628,134.01445671628,3.28084,2.908022,24.7656175904,13.2002300812,16,5,7.348,134.01445671628,1.312336,2.908022,27.9726714988,2.684328,-1.11847,0,66.2, -0.8, 2.4,0,0,1024,1024,1024,1024,0,0,0,0,75.7,0,0,33,3.68,3.669,0,0,0,0,4.607,89.96,134.01445671628,1.312336,6,P-GPS,
118000,2022-08-23 22:09:25,-34.9051383888098,-56.1628894509858,1.312336,1.476378,133.03020471628,134.01445671628,3.28084,2.4158952,24.3882225652,13.6400266832,16,5,7.348,134.01445671628,1.312336,2.908022,27.9726714988,2.23694,-0.894776,0,66.3, -0.7, 10.6,0,0,1024,620,1024,1024,0,-61,0,0,75.7,0,0,33,3.68,3.669,0,0,0,0,4.607,89.96,134.01445671628,1.312336,6,P-GPS,
118100,2022-08-23 22:09:25,-34.905137043483,-56.1628907195933,1.312336,1.476378,133.03020471628,134.01445671628,3.28084,1.901399,23.8327107364,14.260499144,16,5,7.348,134.01445671628,1.312336,2.908022,27.9726714988,1.789552,-0.671082,0,66.1, -0.6, 8.3,0,0,1024,1024,1024,1024,0,0,0,0,75.7,0,0,33,3.68,3.669,0,0,0,0,4.607,89.96,134.01445671628,1.312336,6,P-GPS,
118200,2022-08-23 22:09:25,-34.9051362400282,-56.1628912996101,1.312336,1.476378,133.03020471628,134.01445671628,3.28084,1.7000744,23.5506241132,14.6011815696,14,4,7.348,134.01445671628,1.312336,2.908022,27.9726714988,1.565858,-0.671082,0,65.9, -1, -2.1,0,0,1024,681,1024,1024,0,-52,0,0,75.7,0,0,33,3.68,3.669,0,0,0,0,4.607,89.96,134.01445671628,1.312336,6,P-GPS,
118300,2022-08-23 22:09:25,-34.905135406427,-56.1628917163006,1.312336,1.476378,133.03020471628,134.01445671628,3.28084,1.7000744,23.310040116,14.9298889292,14,4,7.348,134.01445671628,1.312336,2.908022,27.9726714988,1.565858,-0.671082,0,65.9, -0.7, 0.1,0,0,1024,681,1024,1024,0,-52,0,0,75.7,0,0,33,3.68,3.669,0,0,0,0,4.607,89.96,134.01445671628,1.312336,6,P-GPS,
118400,2022-08-23 22:09:25,-34.9051346172561,-56.1628920697851,1.312336,1.476378,133.03020471628,134.01445671628,3.28084,1.4092722,23.0954403716,15.2366146608,15,4,7.348,134.01445671628,1.312336,2.908022,27.9726714988,1.342164,-0.447388,0,66.1, -0.8, 1.4,0,0,1024,725,1024,1024,0,-45,0,0,75.7,0,0,33,3.68,3.669,0,0,0,0,4.607,89.96,134.01445671628,1.312336,6,P-GPS,
118500,2022-08-23 22:09:25,-34.9051337592469,-56.1628917715232,1.64042,1.804462,133.03020471628,134.34254071628,3.28084,1.6329662,23.0521989004,15.5621396056,15,4,7.348,134.34254071628,1.64042,2.908022,27.9726714988,1.565858,-0.447388,0,65.8, 0.1, -4,0,0,1024,917,1024,1024,0,-16,0,0,75.7,0,0,33,3.68,3.669,0,0,0,0,4.607,89.96,134.34254071628,1.64042,6,P-GPS,
118600,2022-08-23 22:09:25,-34.905133108164,-56.1628919524427,1.312336,1.4435696,133.06301311628,134.01445671628,3.28084,1.6329662,22.9098760612,15.805774784,15,4,7.348,134.34254071628,1.64042,2.908022,27.9726714988,1.565858,-0.447388,0,65.7, 0.3, -2.5,0,0,1024,1024,1024,1024,0,0,0,0,75.7,0,0,33,3.68,3.669,0,0,0,0,4.607,89.96,134.01445671628,1.312336,6,P-GPS,
118700,2022-08-23 22:09:26,-34.9051327317232,-56.162892376541,1.312336,1.4435696,133.06301311628,134.01445671628,3.28084,1.6329662,22.739994166,15.9927498556,15,4,7.344,134.34254071628,1.64042,2.908022,27.9726714988,1.565858,-0.447388,0,65.8, 0.1, 1.1,0,0,1024,1024,1024,1024,0,0,0,0,75.7,0,0,32,3.68,3.666,0,0,0,0,4.892,89.96,134.01445671628,1.312336,6,P-GPS,
118800,2022-08-23 22:09:26,-34.9051323916894,-56.1628927895609,1.64042,1.7716536,133.06301311628,134.34254071628,3.28084,1.6329662,22.5785112212,16.1678810948,15,4,7.344,134.34254071628,1.64042,2.908022,27.9726714988,1.565858,-0.447388,0,66, 0.2, 6,0,0,1024,866,1024,1024,0,-24,0,0,75.7,0,0,32,3.68,3.666,0,0,0,0,4.892,89.96,134.34254071628,1.64042,6,P-GPS,
118900,2022-08-23 22:09:26,-34.9051325388144,-56.1628943002475,1.312336,1.476378,133.03020471628,134.01445671628,3.28084,1.4092722,22.1817264316,16.6230648364,15,4,7.344,134.34254071628,1.64042,2.908022,27.9726714988,1.342164,-0.447388,0,65.9, 0.5, 4.9,0,0,1024,1024,1024,1024,0,0,0,0,75.7,0,0,32,3.68,3.666,0,0,0,0,4.892,89.96,134.01445671628,1.312336,6,P-GPS,
119000,2022-08-23 22:09:26,-34.9051322184116,-56.1628949892422,1.312336,1.476378,133.03020471628,134.01445671628,3.28084,1.1408394,21.94635897,16.860072718,16,4,7.344,134.34254071628,1.64042,2.908022,27.9726714988,1.11847,-0.223694,0,65.8, 0.8, 1.8,0,0,1024,1024,1024,1024,0,0,0,0,75.7,0,0,32,3.68,3.666,0,0,0,0,4.892,89.96,134.01445671628,1.312336,6,P-GPS,
119100,2022-08-23 22:09:26,-34.9051321576299,-56.162895557677,1.312336,1.476378,133.03020471628,134.01445671628,3.28084,1.1408394,21.781004634,17.0315950332,16,4,7.344,134.34254071628,1.64042,2.908022,27.9726714988,1.11847,-0.223694,0,65.9, 0.9, 4.6,0,0,1024,1024,1024,1024,0,0,0,0,75.7,0,0,32,3.68,3.666,0,0,0,0,4.892,89.96,134.01445671628,1.312336,6,P-GPS,
119200,2022-08-23 22:09:26,-34.9051321444411,-56.1628960852299,1.312336,1.476378,133.03020471628,134.01445671628,3.28084,0.9171454,21.6337933432,17.1895018624,16,4,7.344,134.34254071628,1.64042,2.908022,27.9726714988,0.894776,-0.223694,0,66, 0.5, 5.1,0,0,1024,1024,1024,1024,0,0,0,0,75.7,0,0,32,3.68,3.666,0,0,0,0,4.892,89.96,134.01445671628,1.312336,6,P-GPS,
119300,2022-08-23 22:09:26,-34.9051319022182,-56.1628970667872,1.312336,1.476378,133.03020471628,134.01445671628,3.28084,0.7158208,21.3290033072,17.496227594,16,4,7.344,134.34254071628,1.64042,2.908022,27.9726714988,0.671082,-0.223694,0,65.9, -0.3, 4.3,0,0,1024,1024,1024,1024,0,0,0,0,75.7,0,0,32,3.68,3.666,0,0,0,0,4.892,89.96,134.01445671628,1.312336,6,P-GPS,
119400,2022-08-23 22:09:26,-34.905131661526,-56.1628975315773,1.312336,1.476378,133.03020471628,134.01445671628,3.28084,0.447388,21.1666017272,17.6606961032,15,4,7.344,134.34254071628,1.64042,2.908022,27.9726714988,0.447388,0,0,65.9, -0.2, 3.6,0,0,1024,1024,1024,1024,0,0,0,0,75.7,0,0,32,3.68,3.666,0,0,0,0,4.892,89.96,134.01445671628,1.312336,6,P-GPS,
119500,2022-08-23 22:09:26,-34.9051314466496,-56.1628975768747,1.312336,1.476378,133.03020471628,134.01445671628,3.28084,0.223694,21.123524298,17.7402564732,15,4,7.344,134.34254071628,1.64042,2.908022,27.9726714988,0.223694,0,0,65.9, -0.2, 2.6,0,0,1024,1024,1024,1024,0,0,0,0,75.7,0,0,32,3.68,3.666,0,0,0,0,4.892,89.96,134.01445671628,1.312336,6,P-GPS,
119600,2022-08-23 22:09:26,-34.9051312933691,-56.1628976267776,1.312336,1.476378,133.03020471628,134.01445671628,3.28084,0.223694,21.0880584176,17.7981304908,16,4,7.344,134.34254071628,1.64042,2.908022,27.9726714988,0.223694,0,0,65.9, 0, 1.8,0,0,1024,1024,1024,1024,0,0,0,0,75.7,0,0,32,3.68,3.666,0,0,0,0,4.892,89.96,134.01445671628,1.312336,6,P-GPS,
119700,2022-08-23 22:09:27,-34.9051312932306,-56.1628980653934,1.312336,1.476378,133.03020471628,134.01445671628,3.28084,0,20.9670938468,17.9293640908,16,4,7.347,134.34254071628,1.64042,2.908022,27.9726714988,0,0,0,66, 0, 1.2,0,0,1024,1024,1024,1024,0,0,0,0,75.7,0,0,32,3.676,3.665,0,0,0,0,4.659,90.14,134.01445671628,1.312336,6,P-GPS,
119800,2022-08-23 22:09:27,-34.9051310528202,-56.162898242934,1.312336,1.476378,133.03020471628,134.01445671628,3.28084,0,20.8840885948,18.0319231492,15,4,7.347,134.34254071628,1.64042,2.908022,27.9726714988,0,0,0,66, -0.2, 0.6,0,0,1024,1024,1024,1024,0,0,0,0,75.7,0,0,32,3.676,3.665,0,0,0,0,4.659,90.14,134.01445671628,1.312336,6,P-GPS,
119900,2022-08-23 22:09:27,-34.9051311665572,-56.1628985272141,1.312336,1.476378,133.03020471628,134.01445671628,3.28084,0,20.8218182516,18.1265753832,15,4,7.347,134.34254071628,1.64042,2.908022,27.9726714988,0,0,0,66, 0, 0.1,0,0,1024,1024,1024,1024,0,0,0,0,75.7,0,0,32,3.676,3.665,0,0,0,0,4.659,90.14,134.01445671628,1.312336,6,P-GPS,
120000,2022-08-23 22:09:27,-34.9051312828135,-56.1628987720663,1.312336,1.476378,133.03020471628,134.01445671628,3.28084,0,20.77099804,18.2112210552,15,4,7.347,134.34254071628,1.64042,2.908022,27.9726714988,0,0,0,66.1, 0.1, -0.6,0,0,1024,1024,1024,1024,0,0,0,0,75.7,0,0,32,3.676,3.665,0,0,0,0,4.659,90.14,134.01445671628,1.312336,6,P-GPS,
120100,2022-08-23 22:09:27,-34.9051313426295,-56.1628986826773,1.312336,1.476378,133.03020471628,134.01445671628,3.28084,0,20.8041673324,18.245735492,15,4,7.347,134.34254071628,1.64042,2.908022,27.9726714988,0,0,0,66.1, 0.2, -0.6,0,0,1024,1024,1024,1024,0,0,0,0,75.7,0,0,32,3.676,3.665,0,0,0,0,4.659,90.14,134.01445671628,1.312336,6,P-GPS,
120200,2022-08-23 22:09:27,-34.9051314621231,-56.1628980547128,1.312336,1.476378,133.03020471628,134.01445671628,3.28084,0,20.99409516,18.4386160756,14,4,7.347,134.34254071628,1.64042,2.908022,27.9726714988,0,0,0,66.1, 0.3, -1,0,0,1024,1024,1024,1024,0,0,0,0,75.7,0,0,32,3.676,3.665,0,0,0,0,4.659,90.14,134.01445671628,1.312336,6,P-GPS,
120300,2022-08-23 22:09:27,-34.9051315569995,-56.1628977088052,1.312336,1.476378,133.03020471628,134.01445671628,3.28084,0,21.1028878144,18.5477696224,14,4,7.347,134.34254071628,1.64042,2.908022,27.9726714988,0,0,0,66.1, 0.4, -1.3,0,0,1024,1024,1024,1024,0,0,0,0,75.7,0,0,32,3.676,3.665,0,0,0,0,4.659,90.14,134.01445671628,1.312336,6,P-GPS,
120400,2022-08-23 22:09:27,-34.9051316368209,-56.1628973697758,1.312336,1.476378,133.03020471628,134.01445671628,3.28084,0,21.2076450356,18.6533142452,13,4,7.347,134.34254071628,1.64042,2.908022,27.9726714988,0,0,0,66, 0.4, -1.2,0,0,1024,1024,1024,1024,0,0,0,0,75.7,0,0,32,3.676,3.665,0,0,0,0,4.659,90.14,134.01445671628,1.312336,6,P-GPS,
120500,2022-08-23 22:09:27,-34.9051316416688,-56.1628971803285,1.312336,1.476378,133.03020471628,134.01445671628,3.28084,0,21.260499368,18.7100071604,13,4,7.347,134.34254071628,1.64042,2.908022,27.9726714988,0,0,0,66, 0.3, -1.6,0,0,1024,1024,1024,1024,0,0,0,0,75.7,0,0,32,3.676,3.665,0,0,0,0,4.659,90.14,134.01445671628,1.312336,6,P-GPS,
120600,2022-08-23 22:09:27,-34.9051315612644,-56.1628960066267,1.312336,1.476378,133.03020471628,134.01445671628,3.28084,0,21.5730978032,19.0624349932,12,4,7.347,134.34254071628,1.64042,2.908022,27.9726714988,0,0,0,65.9, 0.4, -2,0,0,1024,1024,1024,1024,0,0,0,0,75.7,0,0,32,3.676,3.665,0,0,0,0,4.659,90.14,134.01445671628,1.312336,6,P-GPS,
120700,2022-08-23 22:09:28,-34.9051315478769,-56.1628958976302,1.312336,1.476378,133.03020471628,134.01445671628,3.28084,0,21.6013458356,19.0954074352,12,4,7.345,134.34254071628,1.64042,2.908022,27.9726714988,0,0,0,66.1, 0.5, -1.2,0,0,1024,1024,1024,1024,0,0,0,0,75.7,0,0,32,3.677,3.669,0,0,0,0,4.653,90.14,134.01445671628,1.312336,6,P-GPS,
120800,2022-08-23 22:09:28,-34.9051315188353,-56.1628958115423,1.312336,1.476378,133.03020471628,134.01445671628,3.28084,0,21.6211293008,19.1232617668,13,4,7.345,134.34254071628,1.64042,2.908022,27.9726714988,0,0,0,66.2, 0.7, -0.9,0,0,1024,1024,1024,1024,0,0,0,0,75.7,0,0,32,3.677,3.669,0,0,0,0,4.653,90.14,134.01445671628,1.312336,6,P-GPS,
120900,2022-08-23 22:09:28,-34.9051314107603,-56.1628958074572,1.312336,1.476378,133.03020471628,134.01445671628,3.28084,0,21.6072513476,19.1626974636,13,4,7.345,134.34254071628,1.64042,2.908022,27.9726714988,0,0,0,66.1, 1, -1.1,0,0,1024,1024,1024,1024,0,0,0,0,75.7,0,0,32,3.677,3.669,0,0,0,0,4.653,90.14,134.01445671628,1.312336,6,P-GPS,
121000,2022-08-23 22:09:28,-34.9051310871738,-56.1628957990852,1.312336,1.476378,133.03020471628,134.01445671628,3.28084,0,21.5649941284,19.2807748952,15,4,7.345,134.34254071628,1.64042,2.908022,27.9726714988,0,0,0,66, 1.3, -1.1,0,0,1024,1024,1024,1024,0,0,0,0,75.7,0,0,32,3.677,3.669,0,0,0,0,4.653,90.14,134.01445671628,1.312336,6,P-GPS,
121100,2022-08-23 22:09:28,-34.9051306617168,-56.1628963626358,1.312336,1.476378,133.03020471628,134.01445671628,3.28084,0,21.3506240428,19.5099743776,15,4,7.345,134.34254071628,1.64042,2.908022,27.9726714988,0,0,0,65.8, 1.1, -1.4,0,0,1024,1024,1024,1024,0,0,0,0,75.7,0,0,32,3.677,3.669,0,0,0,0,4.653,90.14,134.01445671628,1.312336,6,P-GPS,
121200,2022-08-23 22:09:28,-34.9051302240057,-56.1628969721882,1.312336,1.476378,133.03020471628,134.01445671628,3.28084,0,21.1221135368,19.7523956452,15,4,7.345,134.34254071628,1.64042,2.908022,27.9726714988,0,0,0,65.8, 0.4, -1.5,0,0,1024,1024,1024,1024,0,0,0,0,75.7,0,0,32,3.677,3.669,0,0,0,0,4.653,90.14,134.01445671628,1.312336,6,P-GPS,
121300,2022-08-23 22:09:28,-34.9051297249821,-56.1628977553509,1.312336,1.476378,133.03020471628,134.01445671628,3.28084,0,20.8374022416,20.0491476232,15,4,7.345,134.34254071628,1.64042,2.908022,27.9726714988,0,0,0,65.7, 0.3, -1.4,0,0,1024,1024,1024,1024,0,0,0,0,75.7,0,0,32,3.677,3.669,0,0,0,0,4.653,90.14,134.01445671628,1.312336,6,P-GPS,
121400,2022-08-23 22:09:28,-34.9051292473204,-56.1628985025271,1.312336,1.476378,133.03020471628,134.01445671628,3.28084,0,20.5658799232,20.3326121992,15,4,7.345,134.34254071628,1.64042,2.908022,27.9726714988,0,0,0,65.7, 0.2, -1.4,0,0,1024,1024,1024,1024,0,0,0,0,75.7,0,0,32,3.677,3.669,0,0,0,0,4.653,90.14,134.01445671628,1.312336,6,P-GPS,
121500,2022-08-23 22:09:28,-34.9051275992846,-56.162901126058,1.312336,1.476378,133.03020471628,134.01445671628,3.28084,0,19.6188326488,21.3214245668,15,4,7.345,134.34254071628,1.64042,2.908022,27.9726714988,0,0,0,65.8, 0.7, -1.2,0,0,1024,1024,1024,1024,0,0,0,0,75.7,0,0,32,3.677,3.669,0,0,0,0,4.653,90.14,134.01445671628,1.312336,6,P-GPS,
121600,2022-08-23 22:09:28,-34.9051271883874,-56.1629017799782,1.312336,1.476378,133.03020471628,134.01445671628,3.28084,0,19.3834323788,21.567914076,15,4,7.345,134.34254071628,1.64042,2.908022,27.9726714988,0,0,0,65.8, 0.5, -0.8,0,0,1024,1024,1024,1024,0,0,0,0,75.7,0,0,32,3.677,3.669,0,0,0,0,4.653,90.14,134.01445671628,1.312336,6,P-GPS,
121700,2022-08-23 22:09:29,-34.9051268145862,-56.1629024436891,1.312336,1.476378,133.03020471628,134.01445671628,3.28084,0,19.1501646548,21.8088261572,15,4,7.342,134.34254071628,1.64042,2.908022,27.9726714988,0,0,0,65.9, 0.6, -0.6,0,0,1024,1024,1024,1024,0,0,0,0,75.7,0,0,32,3.676,3.666,0,0,0,0,4.59,90.14,134.01445671628,1.312336,6,P-GPS,
121800,2022-08-23 22:09:29,-34.9051264654788,-56.1629030811094,1.312336,1.476378,133.03020471628,134.01445671628,3.28084,0,18.927494044,22.0381896816,17,4,7.342,134.34254071628,1.64042,2.908022,27.9726714988,0,0,0,65.8, 0.4, -0.3,0,0,1024,1024,1024,1024,0,0,0,0,75.7,0,0,32,3.676,3.666,0,0,0,0,4.59,90.14,134.01445671628,1.312336,6,P-GPS,
121900,2022-08-23 22:09:29,-34.9051261668889,-56.1629034643289,1.312336,1.476378,133.03020471628,134.01445671628,3.28084,0,18.7828746168,22.196358978,17,4,7.342,134.34254071628,1.64042,2.908022,27.9726714988,0,0,0,65.8, 0.2, -0.3,0,0,1024,1024,1024,1024,0,0,0,0,75.7,0,0,32,3.676,3.666,0,0,0,0,4.59,90.14,134.01445671628,1.312336,6,P-GPS,
122000,2022-08-23 22:09:29,-34.9051258801672,-56.1629038953568,0.984252,1.148294,133.03020471628,133.68637271628,3.28084,0,18.6263785488,22.3624022904,17,4,7.342,134.34254071628,1.64042,2.908022,27.9726714988,0,0,0,65.7, 0, -0.3,0,0,1024,1024,1024,1024,0,0,0,0,75.7,0,0,32,3.676,3.666,0,0,0,0,4.59,90.14,133.68637271628,0.984252,6,P-GPS,
122100,2022-08-23 22:09:29,-34.905125710555,-56.1629042079977,0.984252,1.148294,133.03020471628,133.68637271628,3.28084,0,18.5176187028,22.47457421,17,4,7.342,134.34254071628,1.64042,2.908022,27.9726714988,0,0,0,65.8, -0.2, -0.1,0,0,1024,1024,1024,1024,0,0,0,0,75.7,0,0,32,3.676,3.666,0,0,0,0,4.59,90.14,133.68637271628,0.984252,6,P-GPS,
122200,2022-08-23 22:09:29,-34.9051255585707,-56.1629044958785,0.984252,1.148294,133.03020471628,133.68637271628,3.28084,0,18.4180124004,22.5770020348,17,4,7.342,134.34254071628,1.64042,2.908022,27.9726714988,0,0,0,65.9, -0.4, 0,0,0,1024,1024,1024,1024,0,0,0,0,75.7,0,0,32,3.676,3.666,0,0,0,0,4.59,90.14,133.68637271628,0.984252,6,P-GPS,
122300,2022-08-23 22:09:29,-34.9051257506798,-56.1629041430197,0.984252,1.148294,133.03020471628,133.68637271628,3.28084,0,18.5408142416,22.703740884,17,4,7.342,134.34254071628,1.64042,2.908022,27.9726714988,0,0,0,66, -0.5, 0.1,0,0,1024,1024,1024,1024,0,0,0,0,75.7,0,0,32,3.676,3.666,0,0,0,0,4.59,90.14,133.68637271628,0.984252,6,P-GPS,
122400,2022-08-23 22:09:29,-34.9051255991205,-56.1629044109612,0.984252,1.148294,133.03020471628,133.68637271628,3.28084,0,18.446850984,22.8011490236,17,4,7.342,134.34254071628,1.64042,2.908022,27.9726714988,0,0,0,66, -0.4, 0,0,0,1024,1024,1024,1024,0,0,0,0,75.7,0,0,32,3.676,3.666,0,0,0,0,4.59,90.14,133.68637271628,0.984252,6,P-GPS,
122500,2022-08-23 22:09:29,-34.9051253173183,-56.1629048398907,0.984252,1.148294,133.03020471628,133.68637271628,3.28084,0,18.2918641024,22.9655847244,17,4,7.342,134.34254071628,1.64042,2.908022,27.9726714988,0,0,0,66, -0.4, -0.1,0,0,1024,1024,1024,1024,0,0,0,0,75.7,0,0,32,3.676,3.666,0,0,0,0,4.59,90.14,133.68637271628,0.984252,6,P-GPS,
122600,2022-08-23 22:09:29,-34.9051250647092,-56.1629052246275,0.984252,1.148294,133.03020471628,133.68637271628,3.28084,0,18.1530189536,23.1130584824,15,4,7.342,134.34254071628,1.64042,2.908022,27.9726714988,0,0,0,66.1, -0.5, -0.3,0,0,1024,1024,1024,1024,0,0,0,0,75.7,0,0,32,3.676,3.666,0,0,0,0,4.59,90.14,133.68637271628,0.984252,6,P-GPS,
122700,2022-08-23 22:09:30,-34.9051250597066,-56.1629050257002,0.984252,1.148294,133.03020471628,133.68637271628,3.28084,0,18.2087276168,23.1726057284,15,4,7.342,134.34254071628,1.64042,2.908022,27.9726714988,0,0,0,66, -0.7, -0.5,0,0,1024,1024,1024,1024,0,0,0,0,75.7,0,0,32,3.676,3.666,0,0,0,0,4.59,90.14,133.68637271628,0.984252,6,P-GPS,
122800,2022-08-23 22:09:30,-34.9051249964285,-56.1629051042427,0.984252,1.148294,133.03020471628,133.68637271628,3.28084,0,18.1790360148,23.205545362,17,4,7.342,134.34254071628,1.64042,2.908022,27.9726714988,0,0,0,66, -0.5, -0.6,0,0,1024,1024,1024,1024,0,0,0,0,75.7,0,0,32,3.675,3.664,0,0,0,0,4.599,90.14,133.68637271628,0.984252,6,P-GPS,
122900,2022-08-23 22:09:30,-34.9051250324302,-56.1629050527716,0.984252,1.148294,133.03020471628,133.68637271628,3.28084,0,18.1978680364,23.2257881448,17,4,7.342,134.34254071628,1.64042,2.908022,27.9726714988,0,0,0,66, -0.3, -0.8,0,0,1024,1024,1024,1024,0,0,0,0,75.7,0,0,32,3.675,3.664,0,0,0,0,4.599,90.14,133.68637271628,0.984252,6,P-GPS,
123000,2022-08-23 22:09:30,-34.9051250728335,-56.1629049908216,0.984252,1.148294,133.03020471628,133.68637271628,3.28084,0,18.22014494,23.2494758096,16,4,7.342,134.34254071628,1.64042,2.908022,27.9726714988,0,0,0,65.9, -0.2, -1,0,0,1024,1024,1024,1024,0,0,0,0,75.7,0,0,32,3.675,3.664,0,0,0,0,4.599,90.14,133.68637271628,0.984252,6,P-GPS,
123100,2022-08-23 22:09:30,-34.9051250569822,-56.1629049909457,0.984252,1.148294,133.03020471628,133.68637271628,3.28084,0,18.2182420528,23.255250088,16,4,7.342,134.34254071628,1.64042,2.908022,27.9726714988,0,0,0,66, -0.1, -0.8,0,0,1024,1024,1024,1024,0,0,0,0,75.7,0,0,32,3.675,3.664,0,0,0,0,4.599,90.14,133.68637271628,0.984252,6,P-GPS,
123200,2022-08-23 22:09:30,-34.905125434778,-56.1629043343173,0.984252,1.148294,133.03020471628,133.68637271628,3.28084,0,18.4488522964,23.495243534,16,4,7.342,134.34254071628,1.64042,2.908022,27.9726714988,0,0,0,66.1, -0.1, -0.5,0,0,1024,1024,1024,1024,0,0,0,0,75.7,0,0,32,3.675,3.664,0,0,0,0,4.599,90.14,133.68637271628,0.984252,6,P-GPS,
123300,2022-08-23 22:09:30,-34.9051255239092,-56.1629042564434,0.984252,1.148294,133.03020471628,133.68637271628,3.28084,0,18.4814966544,23.535269782,16,4,7.342,134.34254071628,1.64042,2.908022,27.9726714988,0,0,0,66, -0.3, -0.6,0,0,1024,1024,1024,1024,0,0,0,0,75.7,0,0,32,3.675,3.664,0,0,0,0,4.599,90.14,133.68637271628,0.984252,6,P-GPS,
123400,2022-08-23 22:09:30,-34.905125617035,-56.1629041722665,0.984252,1.148294,133.03020471628,133.68637271628,3.28084,0,18.5164704088,23.5775598096,16,4,7.342,134.34254071628,1.64042,2.908022,27.9726714988,0,0,0,66, -0.3, -0.9,0,0,1024,1024,1024,1024,0,0,0,0,75.7,0,0,32,3.675,3.664,0,0,0,0,4.599,90.14,133.68637271628,0.984252,6,P-GPS,
123500,2022-08-23 22:09:30,-34.9051256789729,-56.1629040954489,0.984252,1.148294,133.03020471628,133.68637271628,3.28084,0,18.545604268,23.6097776584,16,4,7.342,134.34254071628,1.64042,2.908022,27.9726714988,0,0,0,66, -0.2, -0.9,0,0,1024,1024,1024,1024,0,0,0,0,75.7,0,0,32,3.675,3.664,0,0,0,0,4.599,90.14,133.68637271628,0.984252,6,P-GPS,
