time(millisecond),datetime(utc),latitude,longitude,height_above_takeoff(feet),height_above_ground_at_drone_location(feet),ground_elevation_at_drone_location(feet),altitude_above_seaLevel(feet),height_sonar(feet),speed(mph),distance(feet),mileage(feet),satellites,gpslevel,voltage(v),max_altitude(feet),max_ascent(feet),max_speed(mph),max_distance(feet), xSpeed(mph), ySpeed(mph), zSpeed(mph), compass_heading(degrees), pitch(degrees), roll(degrees),isPhoto,isVideo,rc_elevator,rc_aileron,rc_throttle,rc_rudder,rc_elevator(percent),rc_aileron(percent),rc_throttle(percent),rc_rudder(percent),gimbal_heading(degrees),gimbal_pitch(degrees),gimbal_roll(degrees),battery_percent,voltageCell1,voltageCell2,voltageCell3,voltageCell4,voltageCell5,voltageCell6,current(A),battery_temperature(f),altitude(feet),ascent(feet),flycStateRaw,flycState,message
0,2022-08-15 21:03:31,0,0,0,,,3.28084E-5,0.328084,0,0,0,0,0,0,3.28084E-5,0,0,0,0,0,0,32.2, 3.1, -0.1,0,0,364,364,364,1684,-100,-100,-100,100,32.2,0,0,85,4.205,4.197,0,0,0,0,0,102.02,3.28084E-5,0,41,Motors_Started,"Vuela con cuidado (sin GPS) Sin señal GPS. La aeronave no puede hacer vuelo estacionario. Vuela con cuidado (Code: 30008). Señal débil del GPS. Vuelo estacionario inestable. Vuela con cuidado (Code: 30002)"
100,2022-08-15 21:03:31,0,0,0,,,3.28084E-5,0.328084,0,0,0,0,0,0,3.28084E-5,0,0,0,0,0,0,32.2, 3.1, -0.1,0,0,364,364,364,1684,-100,-100,-100,100,32.2,0,0,85,4.205,4.197,0,0,0,0,0,102.02,3.28084E-5,0,41,Motors_Started,
200,2022-08-15 21:03:31,0,0,0,,,3.28084E-5,0.328084,0,0,0,0,0,0,3.28084E-5,0,0,0,0,0,0,32.2, 3.1, -0.1,0,0,364,364,402,1542,-100,-100,-94,78,32.2,0,0,85,4.205,4.197,0,0,0,0,0,102.02,3.28084E-5,0,41,Motors_Started,
300,2022-08-15 21:03:31,0,0,0,,,3.28084E-5,0.328084,0,0,0,0,0,0,3.28084E-5,0,0,0,0,0,0,32.2, 3.1, -0.1,0,0,411,364,535,1347,-93,-100,-74,49,32.2,0,0,85,4.205,4.197,0,0,0,0,0,102.02,3.28084E-5,0,41,Motors_Started,"Setting new Return-To-Home altitude to 15m (49 ft). Data Recorder File Index is 71. Setting new Maximum Flight Altitude to 30m (98 ft)"
400,2022-08-15 21:03:31,0,0,0,,,3.28084E-5,0.328084,0,0,0,0,0,0,3.28084E-5,0,0,0,0,0,0,32.2, 3.1, -0.1,0,0,411,364,535,1347,-93,-100,-74,49,32.2,0,0,85,4.205,4.197,0,0,0,0,0,102.02,3.28084E-5,0,41,Motors_Started,
500,2022-08-15 21:03:31,0,0,0,,,3.28084E-5,0.328084,0,0,0,0,0,0,3.28084E-5,0,0,0,0,0,0,32.2, 3.1, -0.1,0,0,1024,1024,1024,1024,0,0,0,0,32.2,0,0,85,4.205,4.197,0,0,0,0,0,102.02,3.28084E-5,0,41,Motors_Started,
600,2022-08-15 21:03:31,0,0,0,,,3.28084E-5,0.328084,0,0,0,0,0,0,3.28084E-5,0,0,0,0,0,0,32.2, 3.1, -0.1,0,0,1024,1024,1024,1024,0,0,0,0,32.2,0,0,85,4.205,4.197,0,0,0,0,0,102.02,3.28084E-5,0,41,Motors_Started,
700,2022-08-15 21:03:31,0,0,0,,,3.28084E-5,0.328084,0,0,0,0,0,0,3.28084E-5,0,0,0,0,0,0,32.2, 3.1, -0.1,0,0,1024,1024,1024,1024,0,0,0,0,32.2,0,0,85,4.205,4.197,0,0,0,0,0,102.02,3.28084E-5,0,41,Motors_Started,
800,2022-08-15 21:03:31,0,0,0,,,3.28084E-5,0.328084,0,0,0,0,0,0,3.28084E-5,0,0,0,0,0,0,32.2, 3.1, -0.1,0,0,1024,1024,1024,1024,0,0,0,0,32.2,0,0,85,4.205,4.197,0,0,0,0,0,102.02,3.28084E-5,0,41,Motors_Started,
900,2022-08-15 21:03:32,0,0,0,,,3.28084E-5,0.328084,0,0,0,0,0,0,3.28084E-5,0,0,0,0,0,0,32.2, 3.1, -0.1,0,0,1024,1024,1024,1024,0,0,0,0,32.2,0,0,85,4.205,4.197,0,0,0,0,0,102.02,3.28084E-5,0,41,Motors_Started,
1000,2022-08-15 21:03:32,0,0,0,,,3.28084E-5,0.328084,0,0,0,0,0,8.41,3.28084E-5,0,0,0,0,0,0,32.2, 3.1, -0.1,0,0,1024,1024,1438,1024,0,0,63,0,32.2,0,0,85,4.205,4.197,0,0,0,0,0.845,102.02,3.28084E-5,0,41,Motors_Started,
1100,2022-08-15 21:03:32,0,0,0,,,3.28084E-5,0.328084,0,0,0,0,0,8.41,3.28084E-5,0,0,0,0,0,0,32.2, 3.1, -0.1,0,0,1024,1024,1481,1024,0,0,69,0,32.2,0,0,85,4.205,4.197,0,0,0,0,0.845,102.02,3.28084E-5,0,10,Assisted_Takeoff,
1200,2022-08-15 21:03:32,0,0,0,,,3.28084E-5,0.328084,0,0,0,0,0,8.41,3.28084E-5,0,0,0,0,0,0,32.2, 3.1, -0.1,0,0,1024,1024,1171,1024,0,0,22,0,32.2,0,0,85,4.205,4.197,0,0,0,0,0.845,102.02,3.28084E-5,0,10,Assisted_Takeoff,
1300,2022-08-15 21:03:32,0,0,0,,,3.28084E-5,0.328084,0,0,0,0,0,8.41,3.28084E-5,0,0,0,0,0,0,32.3, 3.1, -0.1,0,0,1024,1024,1171,1024,0,0,22,0,32.2,0,0,85,4.205,4.197,0,0,0,0,0.845,102.02,3.28084E-5,0,10,Assisted_Takeoff,
1400,2022-08-15 21:03:32,0,0,0,,,3.28084E-5,0.328084,0,0,0,0,0,8.41,3.28084E-5,0,0,0,0,0,0,32.3, 3.1, -0.1,0,0,1024,1024,1053,1024,0,0,4,0,32.2,0,0,85,4.205,4.197,0,0,0,0,0.845,102.02,3.28084E-5,0,10,Assisted_Takeoff,
1500,2022-08-15 21:03:32,0,0,0,,,3.28084E-5,0.328084,0,0,0,0,0,8.41,3.28084E-5,0,0,0,0,0,0,32.4, 3.1, -0.1,0,0,1024,1024,1164,1024,0,0,21,0,32.2,0,0,85,4.205,4.197,0,0,0,0,0.845,102.02,3.28084E-5,0,10,Assisted_Takeoff,
1600,2022-08-15 21:03:32,0,0,0,,,3.28084E-5,0.328084,0,0,0,0,0,8.41,3.28084E-5,0,0,0,0,0,0,32.6, 3, -0.1,0,0,1024,1024,1581,1024,0,0,84,0,32.3,0,0,85,4.205,4.197,0,0,0,0,0.845,102.02,3.28084E-5,0,10,Assisted_Takeoff,
1700,2022-08-15 21:03:32,0,0,0,,,3.28084E-5,0.328084,0,0,0,0,0,8.41,3.28084E-5,0,0,0,0,0,0,33.4, 1.6, -0.2,0,0,1024,1024,1495,1024,0,0,71,0,32.8,0,0,85,4.205,4.197,0,0,0,0,0.845,102.02,3.28084E-5,0,10,Assisted_Takeoff,
1800,2022-08-15 21:03:32,0,0,0,,,3.28084E-5,0.328084,0,0,0,0,0,8.41,3.28084E-5,0,0,0,0,0,0,34.2, -1.4, 0.7,0,0,1024,1024,1024,1024,0,0,0,0,33.5,0,0,85,4.205,4.197,0,0,0,0,0.845,102.02,3.28084E-5,0,10,Assisted_Takeoff,
1900,2022-08-15 21:03:33,0,0,0,,,3.28084E-5,0.328084,0,0,0,0,0,8.41,3.28084E-5,0,0,0,0,0,-0.447388,34.5, -1.3, 1,0,0,1024,1024,1024,1024,0,0,0,0,34.1,0,0,85,4.205,4.197,0,0,0,0,0.845,102.02,3.28084E-5,0,6,P-GPS,"Señal débil del GPS. Vuelo estacionario inestable. Vuela con cuidado (Code: 30002)"
2000,2022-08-15 21:03:33,0,0,0,,,3.28084E-5,0.328084,0,0,0,0,0,8.403,3.28084E-5,0,0,0,0,0,-0.671082,34.4, -0.5, -0.1,0,0,1024,1024,1024,1024,0,0,0,0,34.1,0,0,85,4.19,4.177,0,0,0,0,1.627,102.02,3.28084E-5,0,6,P-GPS,
2100,2022-08-15 21:03:33,0,0,0,,,3.28084E-5,0.656168,0,0,0,0,0,8.403,3.28084E-5,0,0,0,0,0,-0.894776,34.2, 0, -0.3,0,0,1024,1024,1024,1024,0,0,0,0,34.1,0,0,85,4.19,4.177,0,0,0,0,1.627,102.02,3.28084E-5,0,6,P-GPS,
2200,2022-08-15 21:03:33,0,0,0.328084,,,0.3281168084,0.656168,0,0,0,0,0,8.403,0.3281168084,0.328084,0,0,0,0,-0.894776,34.1, 0, -0.7,0,0,1024,1024,1024,1024,0,0,0,0,34.1,0,0,85,4.19,4.177,0,0,0,0,1.627,102.02,0.3281168084,0.328084,6,P-GPS,
2300,2022-08-15 21:03:33,0,0,0.328084,,,0.3281168084,0.656168,0,0,0,0,0,8.403,0.3281168084,0.328084,0,0,0,0,-0.894776,34.1, 0.3, -0.1,0,0,1024,1024,1024,1024,0,0,0,0,34.1,0,0,85,4.19,4.177,0,0,0,0,1.627,102.02,0.3281168084,0.328084,6,P-GPS,
2400,2022-08-15 21:03:33,0,0,0.328084,,,0.3281168084,0.984252,0,0,0,0,0,8.403,0.3281168084,0.328084,0,0,0,0,-0.894776,34.1, 0.1, 0,0,0,1024,1024,1024,1024,0,0,0,0,34.1,0,0,85,4.19,4.177,0,0,0,0,1.627,102.02,0.3281168084,0.328084,6,P-GPS,
2500,2022-08-15 21:03:33,0,0,0.656168,,,0.6562008084,0.984252,0,0,0,0,0,8.403,0.6562008084,0.656168,0,0,0,0,-0.894776,34.1, 0.2, 0,0,0,1024,1024,1024,1024,0,0,0,0,34.1,0,0,85,4.19,4.177,0,0,0,0,1.627,102.02,0.6562008084,0.656168,6,P-GPS,
2600,2022-08-15 21:03:33,0,0,0.656168,,,0.6562008084,1.312336,0,0,0,0,0,8.403,0.6562008084,0.656168,0,0,0,0,-0.894776,34.1, 0.2, 0,0,0,1024,1024,1024,1024,0,0,0,0,34.1,0,0,85,4.19,4.177,0,0,0,0,1.627,102.02,0.6562008084,0.656168,6,P-GPS,
2700,2022-08-15 21:03:33,0,0,0.984252,,,0.9842848084,1.312336,0,0,0,0,0,8.403,0.9842848084,0.984252,0,0,0,0,-0.671082,34.1, 0.2, 0,0,0,1024,1024,1024,907,0,0,0,-18,34.1,0,0,85,4.19,4.177,0,0,0,0,1.627,102.02,0.9842848084,0.984252,6,P-GPS,
2800,2022-08-15 21:03:33,0,0,0.984252,,,0.9842848084,1.312336,0,0,0,0,0,8.403,0.9842848084,0.984252,0,0,0,0,-0.671082,34.1, 0.1, 0,0,0,1024,1024,1024,641,0,0,0,-58,34.1,0,0,85,4.19,4.177,0,0,0,0,1.627,102.02,0.9842848084,0.984252,6,P-GPS,
2900,2022-08-15 21:03:34,0,0,0.984252,,,0.9842848084,1.312336,0,0,0,0,0,8.403,0.9842848084,0.984252,0,0,0,0,-0.447388,34, 0.1, 0,0,0,1024,1024,1024,400,0,0,0,-95,33.7,0,0,85,4.19,4.177,0,0,0,0,1.627,102.02,0.9842848084,0.984252,6,P-GPS,
3000,2022-08-15 21:03:34,0,0,1.312336,,,1.3123688084,1.64042,0,0,0,0,0,8.328,1.3123688084,1.312336,0,0,0,0,-0.447388,33.2, 0.2, 0,0,0,1024,1024,1024,364,0,0,0,-100,32.2,0,0,85,4.171,4.159,0,0,0,0,3.679,102.02,1.3123688084,1.312336,6,P-GPS,
3100,2022-08-15 21:03:34,0,0,1.312336,,,1.3123688084,1.64042,0,0,0,0,0,8.328,1.3123688084,1.312336,0,0,0,0,-0.223694,31.1, 0.2, 0,0,0,1024,1024,1024,364,0,0,0,-100,28.9,0,0,85,4.171,4.159,0,0,0,0,3.679,102.02,1.3123688084,1.312336,6,P-GPS,
3200,2022-08-15 21:03:34,0,0,1.312336,,,1.3123688084,1.64042,0,0,0,0,0,8.328,1.3123688084,1.312336,0,0,0,0,0,27.1, 0.2, 0,0,0,1024,1024,1024,364,0,0,0,-100,24.3,0,0,85,4.171,4.159,0,0,0,0,3.679,102.02,1.3123688084,1.312336,6,P-GPS,
3300,2022-08-15 21:03:34,0,0,1.312336,,,1.3123688084,1.64042,0,0,0,0,0,8.328,1.3123688084,1.312336,0,0,0,0,0,22.6, 0.2, -0.2,0,0,1024,1024,1024,364,0,0,0,-100,19.5,0,0,85,4.171,4.159,0,0,0,0,3.679,102.02,1.3123688084,1.312336,6,P-GPS,
3400,2022-08-15 21:03:34,0,0,1.312336,,,1.3123688084,1.64042,0,0,0,0,0,8.328,1.3123688084,1.312336,0,0,0,0,0,17.9, 0.4, -0.2,0,0,1024,1024,1024,364,0,0,0,-100,14.7,0,0,85,4.171,4.159,0,0,0,0,3.679,102.02,1.3123688084,1.312336,6,P-GPS,
3500,2022-08-15 21:03:34,0,0,1.312336,,,1.3123688084,1.64042,0,0,0,0,0,8.328,1.3123688084,1.312336,0,0,0,0,0,13.1, 0.4, -0.2,0,0,1024,1024,1024,364,0,0,0,-100,9.9,0,0,85,4.171,4.159,0,0,0,0,3.679,102.02,1.3123688084,1.312336,6,P-GPS,
3600,2022-08-15 21:03:34,0,0,1.64042,,,1.6404528084,1.64042,0,0,0,0,0,8.328,1.6404528084,1.64042,0,0,0,0,0,8.4, 0.4, -0.2,0,0,1024,1024,1024,364,0,0,0,-100,5.1,0,0,85,4.171,4.159,0,0,0,0,3.679,102.02,1.6404528084,1.64042,6,P-GPS,
3700,2022-08-15 21:03:34,0,0,1.64042,,,1.6404528084,1.64042,0,0,0,0,0,8.328,1.6404528084,1.64042,0,0,0,0,0,3.6, 0.3, -0.1,0,0,1024,1024,1024,364,0,0,0,-100,0.3,0,0,85,4.171,4.159,0,0,0,0,3.679,102.02,1.6404528084,1.64042,6,P-GPS,
3800,2022-08-15 21:03:35,0,0,1.64042,,,1.6404528084,1.64042,0,0,0,0,0,8.328,1.6404528084,1.64042,0,0,0,0,0,358.9, 0.3, 0,0,0,1024,1024,1024,364,0,0,0,-100,355.6,0,0,85,4.171,4.159,0,0,0,0,3.679,102.02,1.6404528084,1.64042,6,P-GPS,
3900,2022-08-15 21:03:35,0,0,1.64042,,,1.6404528084,1.64042,0,0,0,0,0,8.328,1.6404528084,1.64042,0,0,0,0,0,354.1, 0.2, 0,0,0,1024,1024,1024,364,0,0,0,-100,350.8,0,0,85,4.171,4.159,0,0,0,0,3.679,102.02,1.6404528084,1.64042,6,P-GPS,
4000,2022-08-15 21:03:35,0,0,1.64042,,,1.6404528084,1.64042,0,0,0,0,0,8.326,1.6404528084,1.64042,0,0,0,0,0,349.4, 0.3, 0,0,0,1024,1024,1024,364,0,0,0,-100,346,0,0,85,4.166,4.153,0,0,0,0,3.98,102.02,1.6404528084,1.64042,6,P-GPS,
4100,2022-08-15 21:03:35,0,0,1.64042,,,1.6404528084,1.64042,0,0,0,0,0,8.326,1.6404528084,1.64042,0,0,0,0,0,344.6, 0.3, 0,0,0,1024,1024,1024,364,0,0,0,-100,341.2,0,0,85,4.166,4.153,0,0,0,0,3.98,102.02,1.6404528084,1.64042,6,P-GPS,
4200,2022-08-15 21:03:35,0,0,1.64042,,,1.6404528084,1.64042,0,0,0,0,0,8.326,1.6404528084,1.64042,0,0,0,0,0,339.8, 0.3, 0.1,0,0,1024,1024,1024,364,0,0,0,-100,336.4,0,0,85,4.166,4.153,0,0,0,0,3.98,102.02,1.6404528084,1.64042,6,P-GPS,
4300,2022-08-15 21:03:35,0,0,1.64042,,,1.6404528084,1.64042,0,0,0,0,0,8.326,1.6404528084,1.64042,0,0,0,0,0,335, 0.2, 0.1,0,0,1024,1024,1024,364,0,0,0,-100,331.6,0,0,85,4.166,4.153,0,0,0,0,3.98,102.02,1.6404528084,1.64042,6,P-GPS,
4400,2022-08-15 21:03:35,0,0,1.64042,,,1.6404528084,1.64042,0,0,0,0,0,8.326,1.6404528084,1.64042,0,0,0,0,0,330.2, 0.1, 0,0,0,1024,1024,1024,364,0,0,0,-100,326.9,0,0,85,4.166,4.153,0,0,0,0,3.98,102.02,1.6404528084,1.64042,6,P-GPS,
4500,2022-08-15 21:03:35,0,0,1.64042,,,1.6404528084,1.64042,0,0,0,0,0,8.326,1.6404528084,1.64042,0,0,0,0,0,325.4, 0.1, 0,0,0,1024,1024,1024,364,0,0,0,-100,322.1,0,0,85,4.166,4.153,0,0,0,0,3.98,102.02,1.6404528084,1.64042,6,P-GPS,
4600,2022-08-15 21:03:35,0,0,1.64042,,,1.6404528084,1.64042,0,0,0,0,0,8.326,1.6404528084,1.64042,0,0,0,0,0,320.6, 0.1, 0,0,0,1024,1024,1024,966,0,0,0,-9,317.3,0,0,85,4.166,4.153,0,0,0,0,3.98,102.02,1.6404528084,1.64042,6,P-GPS,
4700,2022-08-15 21:03:35,0,0,1.64042,,,1.6404528084,1.64042,0,0,0,0,0,8.326,1.6404528084,1.64042,0,0,0,0,0,316.1, 0.1, 0,0,0,1024,1024,1024,1024,0,0,0,0,314.1,0,0,85,4.166,4.153,0,0,0,0,3.98,102.02,1.6404528084,1.64042,6,P-GPS,"Entorno demasiado oscuro. El posicionamiento visual no será preciso. Vuela con precaución (Code: 180032)"
4800,2022-08-15 21:03:35,0,0,1.64042,,,1.6404528084,1.64042,0,0,0,0,0,8.326,1.6404528084,1.64042,0,0,0,0,0,313.9, 0.1, 0,0,0,1024,1024,1024,1024,0,0,0,0,312.7,0,0,85,4.166,4.153,0,0,0,0,3.98,102.02,1.6404528084,1.64042,6,P-GPS,
4900,2022-08-15 21:03:36,0,0,1.64042,,,1.6404528084,1.64042,0,0,0,0,0,8.326,1.6404528084,1.64042,0,0,0,0,0,312.8, 0.3, 0.1,0,0,1024,1024,1024,1024,0,0,0,0,312.3,0,0,85,4.166,4.153,0,0,0,0,3.98,102.02,1.6404528084,1.64042,6,P-GPS,
5000,2022-08-15 21:03:36,0,0,1.64042,,,1.6404528084,1.64042,0,0,0,0,0,8.326,1.6404528084,1.64042,0,0,0,0,0,312.6, 0.2, 0,0,0,1024,1024,1024,1029,0,0,0,1,312.3,0,0,85,4.166,4.153,0,0,0,0,3.98,102.02,1.6404528084,1.64042,6,P-GPS,
5100,2022-08-15 21:03:36,0,0,1.64042,,,1.6404528084,1.64042,0,0,0,0,0,8.315,1.6404528084,1.64042,0,0,0,0,0,312.5, 0.3, 0,0,0,1024,1024,1024,1380,0,0,0,54,312.3,0,0,85,4.162,4.149,0,0,0,0,4.135,102.02,1.6404528084,1.64042,6,P-GPS,
5200,2022-08-15 21:03:36,0,0,1.968504,,,1.9685368084,1.64042,0,0,0,0,0,8.315,1.9685368084,1.968504,0,0,0,0,0,312.5, 0.3, 0,0,0,1024,1024,1024,1684,0,0,0,100,312.3,0,0,85,4.162,4.149,0,0,0,0,4.135,102.02,1.9685368084,1.968504,6,P-GPS,
5300,2022-08-15 21:03:36,0,0,1.968504,,,1.9685368084,1.64042,0,0,0,0,0,8.315,1.9685368084,1.968504,0,0,0,0,0,312.7, 0.3, 0,0,0,1024,1024,1024,1684,0,0,0,100,313.3,0,0,85,4.162,4.149,0,0,0,0,4.135,102.02,1.9685368084,1.968504,6,P-GPS,
5400,2022-08-15 21:03:36,0,0,1.968504,,,1.9685368084,1.64042,0,0,0,0,0,8.315,1.9685368084,1.968504,0,0,0,0,0,314.6, 0.4, -0.1,0,0,1024,1024,1024,1684,0,0,0,100,316.5,0,0,85,4.162,4.149,0,0,0,0,4.135,102.02,1.9685368084,1.968504,6,P-GPS,
5500,2022-08-15 21:03:36,0,0,1.968504,,,1.9685368084,1.64042,0,0,0,0,0,8.315,1.9685368084,1.968504,0,0,0,0,0,318.6, 0.1, -0.1,0,0,1024,1024,1024,1684,0,0,0,100,321.1,0,0,85,4.162,4.149,0,0,0,0,4.135,102.02,1.9685368084,1.968504,6,P-GPS,
5600,2022-08-15 21:03:36,0,0,1.64042,,,1.6404528084,1.64042,0,0,0,0,0,8.315,1.9685368084,1.968504,0,0,0,0,0,323.1, 0, 0.4,0,0,1024,1024,1024,1684,0,0,0,100,325.9,0,0,85,4.162,4.149,0,0,0,0,4.135,102.02,1.6404528084,1.64042,6,P-GPS,
5700,2022-08-15 21:03:36,0,0,1.64042,,,1.6404528084,1.64042,0,0,0,0,0,8.315,1.9685368084,1.968504,0,0,0,0,0,327.7, 0, 0.5,0,0,1024,1024,1024,1684,0,0,0,100,330.7,0,0,85,4.162,4.149,0,0,0,0,4.135,102.02,1.6404528084,1.64042,6,P-GPS,
5800,2022-08-15 21:03:36,0,0,1.64042,,,1.6404528084,1.64042,0,0,0,0,0,8.315,1.9685368084,1.968504,0,0,0,0,0,332.5, 0, 0.3,0,0,1024,1024,1024,1684,0,0,0,100,335.5,0,0,85,4.162,4.149,0,0,0,0,4.135,102.02,1.6404528084,1.64042,6,P-GPS,
5900,2022-08-15 21:03:37,0,0,1.64042,,,1.6404528084,1.64042,0,0,0,0,0,8.315,1.9685368084,1.968504,0,0,0,0,0,337.2, 0, 0,0,0,1024,1024,1024,1684,0,0,0,100,340.3,0,0,85,4.162,4.149,0,0,0,0,4.135,102.02,1.6404528084,1.64042,6,P-GPS,
6000,2022-08-15 21:03:37,0,0,1.64042,,,1.6404528084,1.64042,0,0,0,0,0,8.315,1.9685368084,1.968504,0,0,0,0,0,342, 0, -0.2,0,0,1024,1024,1024,1684,0,0,0,100,345.1,0,0,85,4.162,4.149,0,0,0,0,4.135,102.02,1.6404528084,1.64042,6,P-GPS,"En vuelo"
6100,2022-08-15 21:03:37,0,0,1.64042,,,1.6404528084,1.64042,0,0,0,0,0,8.308,1.9685368084,1.968504,0,0,0,0,0,346.8, 0.1, -0.2,0,0,1024,1024,1024,1684,0,0,0,100,349.9,0,0,85,4.158,4.146,0,0,0,0,4.172,102.02,1.6404528084,1.64042,6,P-GPS,
6200,2022-08-15 21:03:37,0,0,1.64042,,,1.6404528084,1.64042,0,0,0,0,0,8.308,1.9685368084,1.968504,0,0,0,0,0,351.5, 0.1, 0,0,0,1024,1024,1024,1684,0,0,0,100,354.7,0,0,85,4.158,4.146,0,0,0,0,4.172,102.02,1.6404528084,1.64042,6,P-GPS,
6300,2022-08-15 21:03:37,0,0,1.64042,,,1.6404528084,1.64042,0,0,0,0,0,8.308,1.9685368084,1.968504,0,0,0,0,0,356.3, 0.2, 0.2,0,0,1024,1024,1024,1684,0,0,0,100,359.5,0,0,85,4.158,4.146,0,0,0,0,4.172,102.02,1.6404528084,1.64042,6,P-GPS,
6400,2022-08-15 21:03:37,0,0,1.968504,,,1.9685368084,1.64042,0,0,0,0,0,8.308,1.9685368084,1.968504,0,0,0,0,0,1, 0.2, 0.2,0,0,1024,1024,1024,1684,0,0,0,100,4.2,0,0,85,4.158,4.146,0,0,0,0,4.172,102.02,1.9685368084,1.968504,6,P-GPS,
6500,2022-08-15 21:03:37,0,0,1.968504,,,1.9685368084,1.64042,0,0,0,0,0,8.308,1.9685368084,1.968504,0,0,0,0,0,5.8, 0.1, 0,0,0,1024,1024,1024,1684,0,0,0,100,9,0,0,85,4.158,4.146,0,0,0,0,4.172,102.02,1.9685368084,1.968504,6,P-GPS,
6600,2022-08-15 21:03:37,0,0,1.968504,,,1.9685368084,1.64042,0,0,0,0,0,8.308,1.9685368084,1.968504,0,0,0,0,0,10.6, 0.2, 0,0,0,1024,1024,1024,1684,0,0,0,100,13.8,0,0,85,4.158,4.146,0,0,0,0,4.172,102.02,1.9685368084,1.968504,6,P-GPS,
6700,2022-08-15 21:03:37,0,0,1.968504,,,1.9685368084,1.64042,0,0,0,0,0,8.308,1.9685368084,1.968504,0,0,0,0,0,15.4, 0.3, 0.2,0,0,1024,1024,1024,1684,0,0,0,100,18.6,0,0,85,4.158,4.146,0,0,0,0,4.172,102.02,1.9685368084,1.968504,6,P-GPS,
6800,2022-08-15 21:03:37,0,0,1.968504,,,1.9685368084,1.64042,0,0,0,0,0,8.308,1.9685368084,1.968504,0,0,0,0,0,20.1, 0.1, 0.4,0,0,1024,1024,1024,1684,0,0,0,100,23.4,0,0,85,4.158,4.146,0,0,0,0,4.172,102.02,1.9685368084,1.968504,6,P-GPS,
6900,2022-08-15 21:03:38,0,0,1.968504,,,1.9685368084,1.64042,0,0,0,0,0,8.308,1.9685368084,1.968504,0,0,0,0,0,24.9, 0.1, 0.4,0,0,1024,1024,1024,1684,0,0,0,100,28.2,0,0,85,4.158,4.146,0,0,0,0,4.172,102.02,1.9685368084,1.968504,6,P-GPS,
7000,2022-08-15 21:03:38,0,0,1.968504,,,1.9685368084,1.64042,0,0,0,0,0,8.308,1.9685368084,1.968504,0,0,0,0,0,29.7, 0, 0,0,0,1024,1024,1024,1684,0,0,0,100,33,0,0,85,4.158,4.146,0,0,0,0,4.172,102.02,1.9685368084,1.968504,6,P-GPS,
7100,2022-08-15 21:03:38,0,0,1.968504,,,1.9685368084,1.64042,0,0,0,0,0,8.302,1.9685368084,1.968504,0,0,0,0,0,34.5, 0, 0,0,0,1024,1024,1024,1684,0,0,0,100,37.8,0,0,85,4.156,4.143,0,0,0,0,4.179,102.02,1.9685368084,1.968504,6,P-GPS,
7200,2022-08-15 21:03:38,0,0,1.968504,,,1.9685368084,1.64042,0,0,0,0,0,8.302,1.9685368084,1.968504,0,0,0,0,0,39.3, 0.3, 0,0,0,1024,1024,1024,1684,0,0,0,100,42.6,0,0,85,4.156,4.143,0,0,0,0,4.179,102.02,1.9685368084,1.968504,6,P-GPS,
7300,2022-08-15 21:03:38,0,0,1.968504,,,1.9685368084,1.64042,0,0,0,0,0,8.302,1.9685368084,1.968504,0,0,0,0,0,44.2, 0.3, 0.1,0,0,1024,1024,1024,1684,0,0,0,100,47.4,0,0,85,4.156,4.143,0,0,0,0,4.179,102.02,1.9685368084,1.968504,6,P-GPS,
7400,2022-08-15 21:03:38,0,0,1.968504,,,1.9685368084,1.64042,0,0,0,0,0,8.302,1.9685368084,1.968504,0,0,0,0,0,48.9, 0.6, 0.1,0,0,1024,1024,1024,1684,0,0,0,100,52.2,0,0,85,4.156,4.143,0,0,0,0,4.179,102.02,1.9685368084,1.968504,6,P-GPS,
7500,2022-08-15 21:03:38,0,0,1.968504,,,1.9685368084,1.64042,0,0,0,0,0,8.302,1.9685368084,1.968504,0,0,0,0,0,53.7, 0.2, 0.3,0,0,1024,1024,1024,1684,0,0,0,100,57,0,0,85,4.156,4.143,0,0,0,0,4.179,102.02,1.9685368084,1.968504,6,P-GPS,
7600,2022-08-15 21:03:38,0,0,1.968504,,,1.9685368084,1.64042,0,0,0,0,0,8.302,1.9685368084,1.968504,0,0,0,0,0,58.4, 0.2, 0.2,0,0,1024,1024,1024,1684,0,0,0,100,61.8,0,0,85,4.156,4.143,0,0,0,0,4.179,102.02,1.9685368084,1.968504,6,P-GPS,
7700,2022-08-15 21:03:38,0,0,1.968504,,,1.9685368084,1.64042,0,0,0,0,0,8.302,1.9685368084,1.968504,0,0,0,0,0,63.2, 0.2, 0.3,0,0,1024,1024,1024,1684,0,0,0,100,66.6,0,0,85,4.156,4.143,0,0,0,0,4.179,102.02,1.9685368084,1.968504,6,P-GPS,
7800,2022-08-15 21:03:38,0,0,1.968504,,,1.9685368084,1.64042,0,0,0,0,0,8.302,1.9685368084,1.968504,0,0,0,0,0,68, 0.1, 0.3,0,0,1024,1024,1024,1095,0,0,0,11,71.4,0,0,85,4.156,4.143,0,0,0,0,4.179,102.02,1.9685368084,1.968504,6,P-GPS,
7900,2022-08-15 21:03:39,0,0,1.968504,,,1.9685368084,1.64042,0,0,0,0,0,8.302,1.9685368084,1.968504,0,0,0,0,0,72.4, 0, 0.5,0,0,1024,1024,1024,1024,0,0,0,0,74.7,0,0,85,4.156,4.143,0,0,0,0,4.179,102.02,1.9685368084,1.968504,6,P-GPS,
8000,2022-08-15 21:03:39,0,0,1.968504,,,1.9685368084,1.64042,0,0,0,0,0,8.302,1.9685368084,1.968504,0,0,0,0,0,74.7, 0.1, 0.6,0,0,1024,1024,1024,1024,0,0,0,0,76.1,0,0,85,4.156,4.143,0,0,0,0,4.179,102.02,1.9685368084,1.968504,6,P-GPS,
8100,2022-08-15 21:03:39,0,0,1.968504,,,1.9685368084,1.64042,0,0,0,0,0,8.294,1.9685368084,1.968504,0,0,0,0,0,75.8, 0.3, 0,0,0,1024,1024,1024,998,0,0,0,-4,76.5,0,0,85,4.153,4.14,0,0,0,0,4.21,102.02,1.9685368084,1.968504,6,P-GPS,
8200,2022-08-15 21:03:39,0,0,1.968504,,,1.9685368084,1.64042,0,0,0,0,0,8.294,1.9685368084,1.968504,0,0,0,0,0,75.9, 0.2, -0.3,0,0,1024,1024,1024,1002,0,0,0,-3,76.5,0,0,85,4.153,4.14,0,0,0,0,4.21,102.02,1.9685368084,1.968504,6,P-GPS,
8300,2022-08-15 21:03:39,0,0,1.968504,,,1.9685368084,1.64042,0,0,0,0,0,8.294,1.9685368084,1.968504,0,0,0,0,0,76.1, 0.3, -0.2,0,0,1024,1024,1024,1002,0,0,0,-3,76.4,0,0,85,4.153,4.14,0,0,0,0,4.21,102.02,1.9685368084,1.968504,6,P-GPS,
8400,2022-08-15 21:03:39,0,0,1.968504,,,1.9685368084,1.64042,0,0,0,0,0,8.294,1.9685368084,1.968504,0,0,0,0,0,76.2, 0.4, -0.1,0,0,1024,1024,1024,972,0,0,0,-8,76.4,0,0,85,4.153,4.14,0,0,0,0,4.21,102.02,1.9685368084,1.968504,6,P-GPS,
8500,2022-08-15 21:03:39,0,0,1.968504,,,1.9685368084,1.64042,0,0,0,0,0,8.294,1.9685368084,1.968504,0,0,0,0,0,76.3, 0.6, 0,0,0,1024,1024,1024,972,0,0,0,-8,76.4,0,0,85,4.153,4.14,0,0,0,0,4.21,102.02,1.9685368084,1.968504,6,P-GPS,
8600,2022-08-15 21:03:39,0,0,1.968504,,,1.9685368084,1.64042,0,0,0,0,0,8.294,1.9685368084,1.968504,0,0,0,0,0,76.3, 0.5, 0.1,0,0,1024,1024,1024,913,0,0,0,-17,76.4,0,0,85,4.153,4.14,0,0,0,0,4.21,102.02,1.9685368084,1.968504,6,P-GPS,
8700,2022-08-15 21:03:39,0,0,1.968504,,,1.9685368084,1.64042,0,0,0,0,0,8.294,1.9685368084,1.968504,0,0,0,0,0,76.2, 0.3, 0.2,0,0,1024,1024,1024,882,0,0,0,-22,76.3,0,0,85,4.153,4.14,0,0,0,0,4.21,102.02,1.9685368084,1.968504,6,P-GPS,
8800,2022-08-15 21:03:39,0,0,1.968504,,,1.9685368084,1.64042,0,0,0,0,0,8.294,1.9685368084,1.968504,0,0,0,0,0,76, 0.3, 0.1,0,0,1024,1024,1024,870,0,0,0,-23,76.1,0,0,85,4.153,4.14,0,0,0,0,4.21,102.02,1.9685368084,1.968504,6,P-GPS,
8900,2022-08-15 21:03:40,0,0,1.968504,,,1.9685368084,1.64042,0,0,0,0,0,8.294,1.9685368084,1.968504,0,0,0,0,0,75.8, 0.3, 0,0,0,1024,1024,1024,861,0,0,0,-25,75.8,0,0,85,4.153,4.14,0,0,0,0,4.21,102.02,1.9685368084,1.968504,6,P-GPS,
9000,2022-08-15 21:03:40,0,0,1.968504,,,1.9685368084,1.64042,0,0,0,0,0,8.294,1.9685368084,1.968504,0,0,0,0,0,75.6, 0.5, -0.1,0,0,1024,1024,1024,853,0,0,0,-26,75.5,0,0,85,4.153,4.14,0,0,0,0,4.21,102.02,1.9685368084,1.968504,6,P-GPS,
9100,2022-08-15 21:03:40,0,0,1.968504,,,1.9685368084,1.64042,0,0,0,0,0,8.294,1.9685368084,1.968504,0,0,0,0,0,75.2, 0.7, -0.1,0,0,1024,1024,1024,844,0,0,0,-27,75.1,0,0,85,4.153,4.14,0,0,0,0,4.21,102.02,1.9685368084,1.968504,6,P-GPS,
9200,2022-08-15 21:03:40,0,0,1.968504,,,1.9685368084,1.64042,0,0,0,0,0,8.291,1.9685368084,1.968504,0,0,0,0,0,74.8, 0.6, -0.3,0,0,1024,1024,1024,845,0,0,0,-27,74.7,0,0,85,4.151,4.138,0,0,0,0,4.18,102.02,1.9685368084,1.968504,6,P-GPS,
9300,2022-08-15 21:03:40,0,0,1.968504,,,1.9685368084,1.64042,0,0,0,0,0,8.291,1.9685368084,1.968504,0,0,0,0,0,74.4, 0.6, -0.3,0,0,1024,1024,1024,845,0,0,0,-27,74.2,0,0,85,4.151,4.138,0,0,0,0,4.18,102.02,1.9685368084,1.968504,6,P-GPS,
9400,2022-08-15 21:03:40,0,0,1.968504,,,1.9685368084,1.64042,0,0,0,0,0,8.291,1.9685368084,1.968504,0,0,0,0,0,74, 0.3, -0.3,0,0,1024,1024,1024,842,0,0,0,-28,73.8,0,0,85,4.151,4.138,0,0,0,0,4.18,102.02,1.9685368084,1.968504,6,P-GPS,
9500,2022-08-15 21:03:40,0,0,1.968504,,,1.9685368084,1.64042,0,0,0,0,0,8.291,1.9685368084,1.968504,0,0,0,0,0,73.6, 0.4, -0.2,0,0,1024,1024,1024,841,0,0,0,-28,73.3,0,0,85,4.151,4.138,0,0,0,0,4.18,102.02,1.9685368084,1.968504,6,P-GPS,
9600,2022-08-15 21:03:40,0,0,1.968504,,,1.9685368084,1.64042,0,0,0,0,0,8.291,1.9685368084,1.968504,0,0,0,0,0,73.2, 0.4, -0.4,0,0,1024,1024,1024,839,0,0,0,-28,72.8,0,0,85,4.151,4.138,0,0,0,0,4.18,102.02,1.9685368084,1.968504,6,P-GPS,
9700,2022-08-15 21:03:40,0,0,1.968504,,,1.9685368084,1.64042,0,0,0,0,0,8.291,1.9685368084,1.968504,0,0,0,0,0,72.7, 0.3, -0.3,0,0,1024,1024,1024,837,0,0,0,-28,72.3,0,0,85,4.151,4.138,0,0,0,0,4.18,102.02,1.9685368084,1.968504,6,P-GPS,
9800,2022-08-15 21:03:41,0,0,1.968504,,,1.9685368084,1.64042,0,0,0,0,0,8.291,1.9685368084,1.968504,0,0,0,0,0,72.2, 0.4, -0.2,0,0,1024,1024,1024,835,0,0,0,-29,71.9,0,0,85,4.151,4.138,0,0,0,0,4.18,102.02,1.9685368084,1.968504,6,P-GPS,
9900,2022-08-15 21:03:41,0,0,1.968504,,,1.9685368084,1.64042,0,0,0,0,0,8.291,1.9685368084,1.968504,0,0,0,0,0,71.8, 0.3, 0,0,0,1024,1024,1024,836,0,0,0,-28,71.4,0,0,85,4.151,4.138,0,0,0,0,4.18,102.02,1.9685368084,1.968504,6,P-GPS,
10000,2022-08-15 21:03:41,0,0,1.968504,,,1.9685368084,1.64042,0,0,0,0,0,8.291,1.9685368084,1.968504,0,0,0,0,0,71.3, 0.1, 0.2,0,0,1024,1024,1024,835,0,0,0,-29,70.9,0,0,85,4.151,4.138,0,0,0,0,4.18,102.02,1.9685368084,1.968504,6,P-GPS,
10100,2022-08-15 21:03:41,0,0,1.968504,,,1.9685368084,1.64042,0,0,0,0,0,8.291,1.9685368084,1.968504,0,0,0,0,0,70.8, 0.2, 0.2,0,0,1024,1024,1024,822,0,0,0,-31,70.3,0,0,85,4.151,4.138,0,0,0,0,4.18,102.02,1.9685368084,1.968504,6,P-GPS,
10200,2022-08-15 21:03:41,0,0,1.968504,,,1.9685368084,1.64042,0,0,0,0,0,8.287,1.9685368084,1.968504,0,0,0,0,0,70.3, 0.4, 0.2,0,0,1024,1024,1024,822,0,0,0,-31,69.8,0,0,85,4.149,4.137,0,0,0,0,4.186,102.02,1.9685368084,1.968504,6,P-GPS,
10300,2022-08-15 21:03:41,0,0,1.968504,,,1.9685368084,1.64042,0,0,0,0,0,8.287,1.9685368084,1.968504,0,0,0,0,0,69.8, 0.2, 0,0,0,1024,1024,1024,814,0,0,0,-32,69.3,0,0,85,4.149,4.137,0,0,0,0,4.186,102.02,1.9685368084,1.968504,6,P-GPS,
10400,2022-08-15 21:03:41,0,0,1.968504,,,1.9685368084,1.64042,0,0,0,0,0,8.287,1.9685368084,1.968504,0,0,0,0,0,69.2, 0, -0.2,0,0,1024,1024,1024,790,0,0,0,-35,68.7,0,0,85,4.149,4.137,0,0,0,0,4.186,102.02,1.9685368084,1.968504,6,P-GPS,
10500,2022-08-15 21:03:41,0,0,1.968504,,,1.9685368084,1.64042,0,0,0,0,0,8.287,1.9685368084,1.968504,0,0,0,0,0,68.5, 0, -0.2,0,0,1024,1024,1024,768,0,0,0,-39,68.1,0,0,85,4.149,4.137,0,0,0,0,4.186,102.02,1.9685368084,1.968504,6,P-GPS,
10600,2022-08-15 21:03:41,0,0,1.968504,,,1.9685368084,1.64042,0,0,0,0,0,8.287,1.9685368084,1.968504,0,0,0,0,0,67.8, 0.1, -0.1,0,0,1024,1024,1024,762,0,0,0,-40,67.3,0,0,85,4.149,4.137,0,0,0,0,4.186,102.02,1.9685368084,1.968504,6,P-GPS,
10700,2022-08-15 21:03:41,0,0,1.968504,,,1.9685368084,1.64042,0,0,0,0,0,8.287,1.9685368084,1.968504,0,0,0,0,0,67, 0.1, 0,0,0,1024,1024,1024,751,0,0,0,-41,66.5,0,0,85,4.149,4.137,0,0,0,0,4.186,102.02,1.9685368084,1.968504,6,P-GPS,
10800,2022-08-15 21:03:41,0,0,1.968504,,,1.9685368084,1.64042,0,0,0,0,0,8.287,1.9685368084,1.968504,0,0,0,0,0,66.1, 0.1, 0,0,0,1024,1024,1024,746,0,0,0,-42,65.6,0,0,85,4.149,4.137,0,0,0,0,4.186,102.02,1.9685368084,1.968504,6,P-GPS,
10900,2022-08-15 21:03:42,0,0,1.968504,,,1.9685368084,1.64042,0,0,0,0,0,8.287,1.9685368084,1.968504,0,0,0,0,0,65.3, 0.1, 0.1,0,0,1024,1024,1024,746,0,0,0,-42,64.6,0,0,85,4.149,4.137,0,0,0,0,4.186,102.02,1.9685368084,1.968504,6,P-GPS,
11000,2022-08-15 21:03:42,0,0,1.968504,,,1.9685368084,1.64042,0,0,0,0,0,8.287,1.9685368084,1.968504,0,0,0,0,0,64.3, 0.1, 0,0,0,1024,1024,1024,746,0,0,0,-42,63.6,0,0,85,4.149,4.137,0,0,0,0,4.186,102.02,1.9685368084,1.968504,6,P-GPS,
11100,2022-08-15 21:03:42,0,0,1.968504,,,1.9685368084,1.64042,0,0,0,0,0,8.287,1.9685368084,1.968504,0,0,0,0,0,63.3, 0, -0.2,0,0,1024,1024,1024,746,0,0,0,-42,62.6,0,0,85,4.149,4.137,0,0,0,0,4.186,102.02,1.9685368084,1.968504,6,P-GPS,
11200,2022-08-15 21:03:42,0,0,1.968504,,,1.9685368084,1.64042,0,0,0,0,0,8.28,1.9685368084,1.968504,0,0,0,0,0,62.2, 0.1, -0.1,0,0,1024,1024,1024,734,0,0,0,-44,61.6,0,0,85,4.147,4.134,0,0,0,0,4.216,102.2,1.9685368084,1.968504,6,P-GPS,
11300,2022-08-15 21:03:42,0,0,1.968504,,,1.9685368084,1.64042,0,0,0,0,0,8.28,1.9685368084,1.968504,0,0,0,0,0,61.2, 0, -0.2,0,0,1024,1024,1024,724,0,0,0,-45,60.5,0,0,85,4.147,4.134,0,0,0,0,4.216,102.2,1.9685368084,1.968504,6,P-GPS,
11400,2022-08-15 21:03:42,0,0,1.968504,,,1.9685368084,1.64042,0,0,0,0,0,8.28,1.9685368084,1.968504,0,0,0,0,0,60.2, 0, -0.3,0,0,1024,1024,1024,723,0,0,0,-46,59.4,0,0,85,4.147,4.134,0,0,0,0,4.216,102.2,1.9685368084,1.968504,6,P-GPS,
11500,2022-08-15 21:03:42,0,0,1.968504,,,1.9685368084,1.64042,0,0,0,0,0,8.28,1.9685368084,1.968504,0,0,0,0,0,59, 0.1, 0,0,0,1024,1024,1024,720,0,0,0,-46,58.2,0,0,85,4.147,4.134,0,0,0,0,4.216,102.2,1.9685368084,1.968504,6,P-GPS,
11600,2022-08-15 21:03:42,0,0,1.64042,,,1.6404528084,1.64042,0,0,0,0,0,8.28,1.9685368084,1.968504,0,0,0,0,0,57.9, 0.1, 0.3,0,0,1024,1024,1024,718,0,0,0,-46,57.1,0,0,85,4.147,4.134,0,0,0,0,4.216,102.2,1.6404528084,1.64042,6,P-GPS,
11700,2022-08-15 21:03:42,0,0,1.64042,,,1.6404528084,1.64042,0,0,0,0,0,8.28,1.9685368084,1.968504,0,0,0,0,0,56.7, 0, 0.4,0,0,1024,1024,1024,711,0,0,0,-47,55.9,0,0,85,4.147,4.134,0,0,0,0,4.216,102.2,1.6404528084,1.64042,6,P-GPS,
11800,2022-08-15 21:03:42,0,0,1.64042,,,1.6404528084,1.64042,0,0,0,0,0,8.28,1.9685368084,1.968504,0,0,0,0,0,55.4, 0.1, 0.3,0,0,1024,1024,1024,685,0,0,0,-51,54.7,0,0,85,4.147,4.134,0,0,0,0,4.216,102.2,1.6404528084,1.64042,6,P-GPS,
11900,2022-08-15 21:03:43,0,0,1.64042,,,1.6404528084,1.64042,0,0,0,0,0,8.28,1.9685368084,1.968504,0,0,0,0,0,54.3, 0.1, 0.2,0,0,1024,1024,1024,666,0,0,0,-54,53.4,0,0,85,4.147,4.134,0,0,0,0,4.216,102.2,1.6404528084,1.64042,6,P-GPS,
12000,2022-08-15 21:03:43,0,0,1.64042,,,1.6404528084,1.64042,0,0,0,0,0,8.28,1.9685368084,1.968504,0,0,0,0,0,53, -0.2, 0.3,0,0,1024,1024,1024,666,0,0,0,-54,52,0,0,85,4.147,4.134,0,0,0,0,4.216,102.2,1.6404528084,1.64042,6,P-GPS,
12100,2022-08-15 21:03:43,0,0,1.64042,,,1.6404528084,1.64042,0,0,0,0,0,8.28,1.9685368084,1.968504,0,0,0,0,0,51.5, -0.6, -0.1,0,0,1024,1024,1024,653,0,0,0,-56,50.5,0,0,85,4.147,4.134,0,0,0,0,4.216,102.2,1.6404528084,1.64042,6,P-GPS,
12200,2022-08-15 21:03:43,0,0,1.64042,,,1.6404528084,1.64042,0,0,0,0,0,8.278,1.9685368084,1.968504,0,0,0,0,0,49.9, -0.5, -0.3,0,0,1024,1024,1024,645,0,0,0,-57,48.9,0,0,85,4.144,4.131,0,0,0,0,4.169,102.2,1.6404528084,1.64042,6,P-GPS,
12300,2022-08-15 21:03:43,0,0,1.64042,,,1.6404528084,1.64042,0,0,0,0,0,8.278,1.9685368084,1.968504,0,0,0,0,0,48.3, -0.3, -0.2,0,0,1024,1024,1024,616,0,0,0,-62,47.2,0,0,85,4.144,4.131,0,0,0,0,4.169,102.2,1.6404528084,1.64042,6,P-GPS,
12400,2022-08-15 21:03:43,0,0,1.64042,,,1.6404528084,1.64042,0,0,0,0,0,8.278,1.9685368084,1.968504,0,0,0,0,0,46.5, -0.1, 0.1,0,0,1024,1024,1024,549,0,0,0,-72,45.4,0,0,85,4.144,4.131,0,0,0,0,4.169,102.2,1.6404528084,1.64042,6,P-GPS,
12500,2022-08-15 21:03:43,0,0,1.64042,,,1.6404528084,1.64042,0,0,0,0,0,8.278,1.9685368084,1.968504,0,0,0,0,0,44.7, 0, 0.5,0,0,1024,1024,1024,505,0,0,0,-79,43.3,0,0,85,4.144,4.131,0,0,0,0,4.169,102.2,1.6404528084,1.64042,6,P-GPS,
12600,2022-08-15 21:03:43,0,0,1.64042,,,1.6404528084,1.64042,0,0,0,0,0,8.278,1.9685368084,1.968504,0,0,0,0,0,42.5, 0.1, 0.7,0,0,1024,1024,1024,476,0,0,0,-83,40.8,0,0,85,4.144,4.131,0,0,0,0,4.169,102.2,1.6404528084,1.64042,6,P-GPS,
12700,2022-08-15 21:03:43,0,0,1.64042,,,1.6404528084,1.64042,0,0,0,0,0,8.278,1.9685368084,1.968504,0,0,0,0,0,39.9, 0.4, 0.7,0,0,1024,1024,1024,439,0,0,0,-89,37.8,0,0,85,4.144,4.131,0,0,0,0,4.169,102.2,1.6404528084,1.64042,6,P-GPS,
12800,2022-08-15 21:03:43,0,0,1.64042,,,1.6404528084,1.64042,0,0,0,0,0,8.278,1.9685368084,1.968504,0,0,0,0,0,36.7, 0.2, 0.3,0,0,1024,1024,1024,393,0,0,0,-96,34.5,0,0,85,4.144,4.131,0,0,0,0,4.169,102.2,1.6404528084,1.64042,6,P-GPS,
12900,2022-08-15 21:03:44,0,0,1.64042,,,1.6404528084,1.64042,0,0,0,0,0,8.278,1.9685368084,1.968504,0,0,0,0,0,33.3, 0.1, 0.2,0,0,1024,1024,1024,393,0,0,0,-96,30.8,0,0,85,4.144,4.131,0,0,0,0,4.169,102.2,1.6404528084,1.64042,6,P-GPS,
13000,2022-08-15 21:03:44,0,0,1.64042,,,1.6404528084,1.64042,0,0,0,0,0,8.278,1.9685368084,1.968504,0,0,0,0,0,29.4, 0, -0.1,0,0,1024,1024,1024,364,0,0,0,-100,26.7,0,0,85,4.144,4.131,0,0,0,0,4.169,102.2,1.6404528084,1.64042,6,P-GPS,
13100,2022-08-15 21:03:44,0,0,1.64042,,,1.6404528084,1.64042,0,0,0,0,0,8.278,1.9685368084,1.968504,0,0,0,0,0,25.1, 0, -0.1,0,0,1024,1024,1024,364,0,0,0,-100,22,0,0,85,4.144,4.131,0,0,0,0,4.169,102.2,1.6404528084,1.64042,6,P-GPS,
13200,2022-08-15 21:03:44,0,0,1.64042,,,1.6404528084,1.64042,0,0,0,0,0,8.274,1.9685368084,1.968504,0,0,0,0,0,20.5, 0, 0,0,0,1024,1024,1024,364,0,0,0,-100,17.3,0,0,85,4.144,4.13,0,0,0,0,4.208,102.2,1.6404528084,1.64042,6,P-GPS,
13300,2022-08-15 21:03:44,0,0,1.64042,,,1.6404528084,1.64042,0,0,0,0,0,8.274,1.9685368084,1.968504,0,0,0,0,0,15.7, 0, 0.2,0,0,1024,1024,1024,364,0,0,0,-100,12.5,0,0,85,4.144,4.13,0,0,0,0,4.208,102.2,1.6404528084,1.64042,6,P-GPS,
13400,2022-08-15 21:03:44,0,0,1.64042,,,1.6404528084,1.64042,0,0,0,0,0,8.274,1.9685368084,1.968504,0,0,0,0,0,10.9, 0.1, 0.5,0,0,1024,1024,1024,364,0,0,0,-100,7.7,0,0,85,4.144,4.13,0,0,0,0,4.208,102.2,1.6404528084,1.64042,6,P-GPS,
13500,2022-08-15 21:03:44,0,0,1.64042,,,1.6404528084,1.64042,0,0,0,0,0,8.274,1.9685368084,1.968504,0,0,0,0,0,6.2, 0, 0.4,0,0,1024,1024,1024,364,0,0,0,-100,2.9,0,0,85,4.144,4.13,0,0,0,0,4.208,102.2,1.6404528084,1.64042,6,P-GPS,
13600,2022-08-15 21:03:44,0,0,1.64042,,,1.6404528084,1.64042,0,0,0,0,0,8.274,1.9685368084,1.968504,0,0,0,0,0,1.4, 0, 0.3,0,0,1024,1024,1024,364,0,0,0,-100,358.2,0,0,85,4.144,4.13,0,0,0,0,4.208,102.2,1.6404528084,1.64042,6,P-GPS,
13700,2022-08-15 21:03:44,0,0,1.64042,,,1.6404528084,1.64042,0,0,0,0,0,8.274,1.9685368084,1.968504,0,0,0,0,0,356.7, 0.2, 0.4,0,0,1024,1024,1024,364,0,0,0,-100,353.4,0,0,85,4.144,4.13,0,0,0,0,4.208,102.2,1.6404528084,1.64042,6,P-GPS,
13800,2022-08-15 21:03:44,0,0,1.64042,,,1.6404528084,1.64042,0,0,0,0,0,8.274,1.9685368084,1.968504,0,0,0,0,0,351.9, 0.4, 0.4,0,0,1024,1024,1024,480,0,0,0,-82,348.7,0,0,85,4.144,4.13,0,0,0,0,4.208,102.2,1.6404528084,1.64042,6,P-GPS,
13900,2022-08-15 21:03:45,0,0,1.64042,,,1.6404528084,1.64042,0,0,0,0,0,8.274,1.9685368084,1.968504,0,0,0,0,0,347.1, 0.3, 0.3,0,0,1024,1024,1024,480,0,0,0,-82,343.9,0,0,85,4.144,4.13,0,0,0,0,4.208,102.2,1.6404528084,1.64042,6,P-GPS,
14000,2022-08-15 21:03:45,0,0,1.64042,,,1.6404528084,1.64042,0,0,0,0,0,8.274,1.9685368084,1.968504,0,0,0,0,0,342.4, 0.1, 0.2,0,0,1024,1024,1024,993,0,0,0,-5,339.8,0,0,85,4.144,4.13,0,0,0,0,4.208,102.2,1.6404528084,1.64042,6,P-GPS,
14100,2022-08-15 21:03:45,0,0,1.64042,,,1.6404528084,1.64042,0,0,0,0,0,8.274,1.9685368084,1.968504,0,0,0,0,0,339.3, 0.2, 0.4,0,0,1024,1024,1024,1024,0,0,0,0,338.3,0,0,85,4.144,4.13,0,0,0,0,4.208,102.2,1.6404528084,1.64042,6,P-GPS,
14200,2022-08-15 21:03:45,0,0,1.64042,,,1.6404528084,1.64042,0,0,0,0,0,8.274,1.9685368084,1.968504,0,0,0,0,0,338.3, 0.4, 0.7,0,0,1024,1024,1024,1024,0,0,0,0,337.7,0,0,85,4.144,4.13,0,0,0,0,4.208,102.2,1.6404528084,1.64042,6,P-GPS,
14300,2022-08-15 21:03:45,0,0,1.64042,,,1.6404528084,1.64042,0,0,0,0,0,8.274,1.9685368084,1.968504,0,0,0,0,0,337.9, 0.6, 0.7,0,0,1024,1024,1024,1024,0,0,0,0,337.6,0,0,85,4.144,4.13,0,0,0,0,4.208,102.2,1.6404528084,1.64042,6,P-GPS,
14400,2022-08-15 21:03:45,0,0,1.64042,,,1.6404528084,1.64042,0,0,0,0,0,8.274,1.9685368084,1.968504,0,0,0,0,0,337.7, 0.5, 0.7,0,0,1024,1024,1024,1024,0,0,0,0,337.6,0,0,85,4.144,4.13,0,0,0,0,4.208,102.2,1.6404528084,1.64042,6,P-GPS,
14500,2022-08-15 21:03:45,0,0,1.64042,,,1.6404528084,1.64042,0,0,0,0,0,8.27,1.9685368084,1.968504,0,0,0,0,0,337.6, 0.4, 0.7,0,0,1024,1024,1024,946,0,0,0,-12,337.6,0,0,85,4.141,4.129,0,0,0,0,4.163,102.2,1.6404528084,1.64042,6,P-GPS,
14600,2022-08-15 21:03:45,0,0,1.64042,,,1.6404528084,1.64042,0,0,0,0,0,8.27,1.9685368084,1.968504,0,0,0,0,0,337.6, 0.5, 0.6,0,0,1024,1024,1024,793,0,0,0,-35,337.6,0,0,85,4.141,4.129,0,0,0,0,4.163,102.2,1.6404528084,1.64042,6,P-GPS,
14700,2022-08-15 21:03:45,0,0,1.64042,,,1.6404528084,1.64042,0,0,0,0,0,8.27,1.9685368084,1.968504,0,0,0,0,0,337.5, 0.5, 0.5,0,0,1024,1024,1024,778,0,0,0,-37,337.5,0,0,85,4.141,4.129,0,0,0,0,4.163,102.2,1.6404528084,1.64042,6,P-GPS,
14800,2022-08-15 21:03:46,0,0,1.968504,,,1.9685368084,1.64042,0,0,0,0,0,8.27,1.9685368084,1.968504,0,0,0,0,0,337.3, 0.4, 0.5,0,0,1024,1024,1024,778,0,0,0,-37,337.1,0,0,85,4.141,4.129,0,0,0,0,4.163,102.2,1.9685368084,1.968504,6,P-GPS,
14900,2022-08-15 21:03:46,0,0,1.968504,,,1.9685368084,1.64042,0,0,0,0,0,8.27,1.9685368084,1.968504,0,0,0,0,0,336.7, 0.4, 0.4,0,0,1024,1024,1024,767,0,0,0,-39,336.4,0,0,85,4.141,4.129,0,0,0,0,4.163,102.2,1.9685368084,1.968504,6,P-GPS,
15000,2022-08-15 21:03:46,0,0,1.968504,,,1.9685368084,1.64042,0,0,0,0,0,8.27,1.9685368084,1.968504,0,0,0,0,0,336, 0.2, 0.3,0,0,1024,1024,1024,766,0,0,0,-39,335.6,0,0,85,4.141,4.129,0,0,0,0,4.163,102.2,1.9685368084,1.968504,6,P-GPS,
15100,2022-08-15 21:03:46,0,0,1.968504,,,1.9685368084,1.64042,0,0,0,0,0,8.27,1.9685368084,1.968504,0,0,0,0,0,335.2, 0.1, 0.3,0,0,1024,1024,1024,763,0,0,0,-40,334.7,0,0,85,4.141,4.129,0,0,0,0,4.163,102.2,1.9685368084,1.968504,6,P-GPS,
15200,2022-08-15 21:03:46,0,0,1.968504,,,1.9685368084,1.64042,0,0,0,0,0,8.27,1.9685368084,1.968504,0,0,0,0,0,334.4, 0, 0.1,0,0,1024,1024,1024,763,0,0,0,-40,333.8,0,0,85,4.141,4.129,0,0,0,0,4.163,102.2,1.9685368084,1.968504,6,P-GPS,
15300,2022-08-15 21:03:46,0,0,1.968504,,,1.9685368084,1.64042,0,0,0,0,0,8.27,1.9685368084,1.968504,0,0,0,0,0,333.5, 0.1, 0.1,0,0,1024,1024,1024,748,0,0,0,-42,332.9,0,0,85,4.141,4.129,0,0,0,0,4.163,102.2,1.9685368084,1.968504,6,P-GPS,
15400,2022-08-15 21:03:46,0,0,1.968504,,,1.9685368084,1.64042,0,0,0,0,0,8.27,1.9685368084,1.968504,0,0,0,0,0,332.6, 0.3, 0.2,0,0,1024,1024,1024,748,0,0,0,-42,332,0,0,85,4.141,4.129,0,0,0,0,4.163,102.2,1.9685368084,1.968504,6,P-GPS,
15500,2022-08-15 21:03:46,0,0,1.968504,,,1.9685368084,1.64042,0,0,0,0,0,8.266,1.9685368084,1.968504,0,0,0,0,0,331.7, 0.2, 0.1,0,0,1024,1024,1024,748,0,0,0,-42,331,0,0,85,4.139,4.127,0,0,0,0,4.178,102.2,1.9685368084,1.968504,6,P-GPS,
15600,2022-08-15 21:03:46,0,0,1.968504,,,1.9685368084,1.64042,0,0,0,0,0,8.266,1.9685368084,1.968504,0,0,0,0,0,330.7, 0.3, 0,0,0,1024,1024,1024,748,0,0,0,-42,330,0,0,85,4.139,4.127,0,0,0,0,4.178,102.2,1.9685368084,1.968504,6,P-GPS,
15700,2022-08-15 21:03:46,0,0,1.968504,,,1.9685368084,1.64042,0,0,0,0,0,8.266,1.9685368084,1.968504,0,0,0,0,0,329.7, 0.2, 0,0,0,1024,1024,1024,748,0,0,0,-42,329,0,0,85,4.139,4.127,0,0,0,0,4.178,102.2,1.9685368084,1.968504,6,P-GPS,
15800,2022-08-15 21:03:47,0,0,1.968504,,,1.9685368084,1.64042,0,0,0,0,0,8.266,1.9685368084,1.968504,0,0,0,0,0,328.8, 0.4, 0.1,0,0,1024,1024,1024,746,0,0,0,-42,328,0,0,85,4.139,4.127,0,0,0,0,4.178,102.2,1.9685368084,1.968504,6,P-GPS,
15900,2022-08-15 21:03:47,0,0,1.968504,,,1.9685368084,1.64042,0,0,0,0,0,8.266,1.9685368084,1.968504,0,0,0,0,0,327.8, 0.2, 0.3,0,0,1024,1024,1024,746,0,0,0,-42,327,0,0,85,4.139,4.127,0,0,0,0,4.178,102.2,1.9685368084,1.968504,6,P-GPS,
16000,2022-08-15 21:03:47,0,0,1.968504,,,1.9685368084,1.64042,0,0,0,0,0,8.266,1.9685368084,1.968504,0,0,0,0,0,326.7, 0.3, 0.2,0,0,1024,1024,1024,746,0,0,0,-42,326,0,0,85,4.139,4.127,0,0,0,0,4.178,102.2,1.9685368084,1.968504,6,P-GPS,
16100,2022-08-15 21:03:47,0,0,1.968504,,,1.9685368084,1.64042,0,0,0,0,0,8.266,1.9685368084,1.968504,0,0,0,0,0,325.7, 0.4, 0,0,0,1024,1024,1024,746,0,0,0,-42,325,0,0,85,4.139,4.127,0,0,0,0,4.178,102.2,1.9685368084,1.968504,6,P-GPS,
16200,2022-08-15 21:03:47,0,0,1.968504,,,1.9685368084,1.64042,0,0,0,0,0,8.266,1.9685368084,1.968504,0,0,0,0,0,324.8, 0.5, 0,0,0,1024,1024,1024,746,0,0,0,-42,324,0,0,85,4.139,4.127,0,0,0,0,4.178,102.2,1.9685368084,1.968504,6,P-GPS,
16300,2022-08-15 21:03:47,0,0,1.968504,,,1.9685368084,1.64042,0,0,0,0,0,8.266,1.9685368084,1.968504,0,0,0,0,0,323.7, 0.3, -0.2,0,0,1024,1024,1024,746,0,0,0,-42,322.9,0,0,85,4.139,4.127,0,0,0,0,4.178,102.2,1.9685368084,1.968504,6,P-GPS,
16400,2022-08-15 21:03:47,0,0,1.968504,,,1.9685368084,1.64042,0,0,0,0,0,8.266,1.9685368084,1.968504,0,0,0,0,0,322.6, 0.4, -0.3,0,0,1024,1024,1024,746,0,0,0,-42,321.9,0,0,85,4.139,4.127,0,0,0,0,4.178,102.2,1.9685368084,1.968504,6,P-GPS,
16500,2022-08-15 21:03:47,0,0,1.968504,,,1.9685368084,1.64042,0,0,0,0,0,8.263,1.9685368084,1.968504,0,0,0,0,0,321.6, 0.4, -0.1,0,0,1024,1024,1024,746,0,0,0,-42,320.9,0,0,84,4.137,4.124,0,0,0,0,4.166,102.2,1.9685368084,1.968504,6,P-GPS,
16600,2022-08-15 21:03:47,0,0,1.968504,,,1.9685368084,1.64042,0,0,0,0,0,8.263,1.9685368084,1.968504,0,0,0,0,0,320.6, 0.2, -0.2,0,0,1024,1024,1024,746,0,0,0,-42,319.9,0,0,84,4.137,4.124,0,0,0,0,4.166,102.2,1.9685368084,1.968504,6,P-GPS,
16700,2022-08-15 21:03:47,0,0,1.968504,,,1.9685368084,1.64042,0,0,0,0,0,8.263,1.9685368084,1.968504,0,0,0,0,0,319.6, 0.1, -0.1,0,0,1024,1024,1024,746,0,0,0,-42,318.9,0,0,84,4.137,4.124,0,0,0,0,4.166,102.2,1.9685368084,1.968504,6,P-GPS,
16800,2022-08-15 21:03:47,0,0,1.968504,,,1.9685368084,1.64042,0,0,0,0,0,8.263,1.9685368084,1.968504,0,0,0,0,0,318.5, 0.1, 0.1,0,0,1024,1024,1024,746,0,0,0,-42,317.8,0,0,84,4.137,4.124,0,0,0,0,4.166,102.2,1.9685368084,1.968504,6,P-GPS,
16900,2022-08-15 21:03:48,0,0,1.968504,,,1.9685368084,1.64042,0,0,0,0,0,8.263,1.9685368084,1.968504,0,0,0,0,0,317.5, 0.1, 0.2,0,0,1024,1024,1024,746,0,0,0,-42,316.8,0,0,84,4.137,4.124,0,0,0,0,4.166,102.2,1.9685368084,1.968504,6,P-GPS,
17000,2022-08-15 21:03:48,0,0,1.968504,,,1.9685368084,1.64042,0,0,0,0,0,8.263,1.9685368084,1.968504,0,0,0,0,0,316.4, 0.2, 0.1,0,0,1024,1024,1024,746,0,0,0,-42,315.8,0,0,84,4.137,4.124,0,0,0,0,4.166,102.2,1.9685368084,1.968504,6,P-GPS,
17100,2022-08-15 21:03:48,0,0,1.968504,,,1.9685368084,1.64042,0,0,0,0,0,8.263,1.9685368084,1.968504,0,0,0,0,0,315.4, 0.3, 0.2,0,0,1024,1024,1024,746,0,0,0,-42,314.8,0,0,84,4.137,4.124,0,0,0,0,4.166,102.2,1.9685368084,1.968504,6,P-GPS,
17200,2022-08-15 21:03:48,0,0,1.968504,,,1.9685368084,1.64042,0,0,0,0,0,8.263,1.9685368084,1.968504,0,0,0,0,0,314.4, 0.4, 0.1,0,0,1024,1024,1024,746,0,0,0,-42,313.8,0,0,84,4.137,4.124,0,0,0,0,4.166,102.2,1.9685368084,1.968504,6,P-GPS,
17300,2022-08-15 21:03:48,0,0,1.968504,,,1.9685368084,1.64042,0,0,0,0,0,8.263,1.9685368084,1.968504,0,0,0,0,0,313.4, 0.3, 0.1,0,0,1024,1024,1024,746,0,0,0,-42,312.8,0,0,84,4.137,4.124,0,0,0,0,4.166,102.2,1.9685368084,1.968504,6,P-GPS,
17400,2022-08-15 21:03:48,0,0,1.968504,,,1.9685368084,1.64042,0,0,0,0,0,8.263,1.9685368084,1.968504,0,0,0,0,0,312.4, 0.1, 0.3,0,0,1024,1024,1024,746,0,0,0,-42,311.7,0,0,84,4.137,4.124,0,0,0,0,4.166,102.2,1.9685368084,1.968504,6,P-GPS,
17500,2022-08-15 21:03:48,0,0,1.968504,,,1.9685368084,1.64042,0,0,0,0,0,8.259,1.9685368084,1.968504,0,0,0,0,0,311.4, 0.2, 0.2,0,0,1024,1024,1024,746,0,0,0,-42,310.7,0,0,84,4.137,4.124,0,0,0,0,4.22,102.2,1.9685368084,1.968504,6,P-GPS,
17600,2022-08-15 21:03:48,0,0,1.968504,,,1.9685368084,1.64042,0,0,0,0,0,8.259,1.9685368084,1.968504,0,0,0,0,0,310.4, 0.2, 0.3,0,0,1024,1024,1024,746,0,0,0,-42,309.7,0,0,84,4.137,4.124,0,0,0,0,4.22,102.2,1.9685368084,1.968504,6,P-GPS,
17700,2022-08-15 21:03:48,0,0,1.968504,,,1.9685368084,1.64042,0,0,0,0,0,8.259,1.9685368084,1.968504,0,0,0,0,0,309.3, 0.3, 0.4,0,0,1024,1024,1024,746,0,0,0,-42,308.7,0,0,84,4.137,4.124,0,0,0,0,4.22,102.2,1.9685368084,1.968504,6,P-GPS,
17800,2022-08-15 21:03:48,0,0,1.968504,,,1.9685368084,1.64042,0,0,0,0,0,8.259,1.9685368084,1.968504,0,0,0,0,0,308.3, 0.3, 0.3,0,0,1024,1024,1024,746,0,0,0,-42,307.7,0,0,84,4.137,4.124,0,0,0,0,4.22,102.2,1.9685368084,1.968504,6,P-GPS,
17900,2022-08-15 21:03:49,0,0,1.968504,,,1.9685368084,1.64042,0,0,0,0,0,8.259,1.9685368084,1.968504,0,0,0,0,0,307.3, 0.2, 0.4,0,0,1024,1024,1024,746,0,0,0,-42,306.6,0,0,84,4.137,4.124,0,0,0,0,4.22,102.2,1.9685368084,1.968504,6,P-GPS,
18000,2022-08-15 21:03:49,0,0,1.968504,,,1.9685368084,1.64042,0,0,0,0,0,8.259,1.9685368084,1.968504,0,0,0,0,0,306.3, 0.2, 0,0,0,1024,1024,1024,746,0,0,0,-42,305.6,0,0,84,4.137,4.124,0,0,0,0,4.22,102.2,1.9685368084,1.968504,6,P-GPS,
18100,2022-08-15 21:03:49,0,0,1.968504,,,1.9685368084,1.64042,0,0,0,0,0,8.259,1.9685368084,1.968504,0,0,0,0,0,305.3, 0.4, -0.4,0,0,1024,1024,1024,735,0,0,0,-44,304.6,0,0,84,4.137,4.124,0,0,0,0,4.22,102.2,1.9685368084,1.968504,6,P-GPS,
18200,2022-08-15 21:03:49,0,0,1.968504,,,1.9685368084,1.64042,0,0,0,0,0,8.259,1.9685368084,1.968504,0,0,0,0,0,304.3, 0.3, -0.2,0,0,1024,1024,1024,722,0,0,0,-46,303.6,0,0,84,4.137,4.124,0,0,0,0,4.22,102.2,1.9685368084,1.968504,6,P-GPS,
18300,2022-08-15 21:03:49,0,0,1.968504,,,1.9685368084,1.64042,0,0,0,0,0,8.259,1.9685368084,1.968504,0,0,0,0,0,303.2, 0.2, 0,0,0,1024,1024,1024,721,0,0,0,-46,302.5,0,0,84,4.137,4.124,0,0,0,0,4.22,102.2,1.9685368084,1.968504,6,P-GPS,
18400,2022-08-15 21:03:49,0,0,1.968504,,,1.9685368084,1.64042,0,0,0,0,0,8.259,1.9685368084,1.968504,0,0,0,0,0,302, 0.3, 0.7,0,0,1024,1024,1024,721,0,0,0,-46,301.3,0,0,84,4.137,4.124,0,0,0,0,4.22,102.2,1.9685368084,1.968504,6,P-GPS,
18500,2022-08-15 21:03:49,0,0,1.968504,,,1.9685368084,1.64042,0,0,0,0,0,8.256,1.9685368084,1.968504,0,0,0,0,0,300.8, 0.5, 0.8,0,0,1024,1024,1024,722,0,0,0,-46,300.1,0,0,84,4.135,4.121,0,0,0,0,4.202,102.2,1.9685368084,1.968504,6,P-GPS,
18600,2022-08-15 21:03:49,0,0,1.968504,,,1.9685368084,1.64042,0,0,0,0,0,8.256,1.9685368084,1.968504,0,0,0,0,0,299.6, 0.3, 0.4,0,0,1024,1024,1024,722,0,0,0,-46,298.9,0,0,84,4.135,4.121,0,0,0,0,4.202,102.2,1.9685368084,1.968504,6,P-GPS,
18700,2022-08-15 21:03:49,0,0,1.968504,,,1.9685368084,1.64042,0,0,0,0,0,8.256,1.9685368084,1.968504,0,0,0,0,0,298.4, 0.5, 0.4,0,0,1024,1024,1024,721,0,0,0,-46,297.7,0,0,84,4.135,4.121,0,0,0,0,4.202,102.2,1.9685368084,1.968504,6,P-GPS,
18800,2022-08-15 21:03:49,0,0,1.968504,,,1.9685368084,1.64042,0,0,0,0,0,8.256,1.9685368084,1.968504,0,0,0,0,0,297.3, 0.5, 0.2,0,0,1024,1024,1024,721,0,0,0,-46,296.6,0,0,84,4.135,4.121,0,0,0,0,4.202,102.2,1.9685368084,1.968504,6,P-GPS,
18900,2022-08-15 21:03:50,0,0,1.968504,,,1.9685368084,1.64042,0,0,0,0,0,8.256,1.9685368084,1.968504,0,0,0,0,0,296.1, 0.5, -0.3,0,0,1024,1024,1024,754,0,0,0,-41,295.4,0,0,84,4.135,4.121,0,0,0,0,4.202,102.2,1.9685368084,1.968504,6,P-GPS,
19000,2022-08-15 21:03:50,0,0,1.968504,,,1.9685368084,1.64042,0,0,0,0,0,8.256,1.9685368084,1.968504,0,0,0,0,0,295, 0.7, -0.4,0,0,1024,1024,1024,754,0,0,0,-41,294.2,0,0,84,4.135,4.121,0,0,0,0,4.202,102.2,1.9685368084,1.968504,6,P-GPS,
19100,2022-08-15 21:03:50,0,0,1.968504,,,1.9685368084,1.64042,0,0,0,0,0,8.256,1.9685368084,1.968504,0,0,0,0,0,293.8, 0.7, -0.3,0,0,1024,1024,1024,1024,0,0,0,0,293.1,0,0,84,4.135,4.121,0,0,0,0,4.202,102.2,1.9685368084,1.968504,6,P-GPS,
19200,2022-08-15 21:03:50,0,0,1.968504,,,1.9685368084,1.64042,0,0,0,0,0,8.256,1.9685368084,1.968504,0,0,0,0,0,292.9, 0.6, -0.5,0,0,1024,1024,1024,1024,0,0,0,0,292.4,0,0,84,4.135,4.121,0,0,0,0,4.202,102.2,1.9685368084,1.968504,6,P-GPS,
19300,2022-08-15 21:03:50,0,0,1.968504,,,1.9685368084,1.64042,0,0,0,0,0,8.256,1.9685368084,1.968504,0,0,0,0,0,292.5, 0.6, -0.2,0,0,1024,1024,1024,1024,0,0,0,0,292.1,0,0,84,4.135,4.121,0,0,0,0,4.202,102.2,1.9685368084,1.968504,6,P-GPS,
19400,2022-08-15 21:03:50,0,0,1.968504,,,1.9685368084,1.64042,0,0,0,0,0,8.256,1.9685368084,1.968504,0,0,0,0,0,292.2, 0.6, -0.1,0,0,1024,1024,1024,1024,0,0,0,0,292.1,0,0,84,4.135,4.121,0,0,0,0,4.202,102.2,1.9685368084,1.968504,6,P-GPS,
19500,2022-08-15 21:03:50,0,0,1.968504,,,1.9685368084,1.64042,0,0,0,0,0,8.256,1.9685368084,1.968504,0,0,0,0,0,292.2, 0.8, 0.3,0,0,1024,1024,1024,1024,0,0,0,0,292.1,0,0,84,4.135,4.121,0,0,0,0,4.202,102.2,1.9685368084,1.968504,6,P-GPS,
19600,2022-08-15 21:03:50,0,0,1.968504,,,1.9685368084,1.64042,0,0,0,0,0,8.254,1.9685368084,1.968504,0,0,0,0,0,292.1, 0.6, 0.1,0,0,1024,1024,1024,1024,0,0,0,0,292.1,0,0,84,4.132,4.119,0,0,0,0,4.201,102.38,1.9685368084,1.968504,6,P-GPS,
19700,2022-08-15 21:03:50,0,0,1.968504,,,1.9685368084,1.64042,0,0,0,0,0,8.254,1.9685368084,1.968504,0,0,0,0,0,292.1, 0.3, 0.1,0,0,1024,1024,1024,1024,0,0,0,0,292.1,0,0,84,4.132,4.119,0,0,0,0,4.201,102.38,1.9685368084,1.968504,6,P-GPS,
19800,2022-08-15 21:03:50,0,0,1.968504,,,1.9685368084,1.64042,0,0,0,0,0,8.254,1.9685368084,1.968504,0,0,0,0,0,292.2, 0.3, 0.2,0,0,1024,1024,1024,1024,0,0,0,0,292.1,0,0,84,4.132,4.119,0,0,0,0,4.201,102.38,1.9685368084,1.968504,6,P-GPS,
19900,2022-08-15 21:03:51,0,0,1.968504,,,1.9685368084,1.64042,0,0,0,0,0,8.254,1.9685368084,1.968504,0,0,0,0,0,292.1, 0.4, 0.2,0,0,1024,1024,1024,1024,0,0,0,0,292.1,0,0,84,4.132,4.119,0,0,0,0,4.201,102.38,1.9685368084,1.968504,6,P-GPS,
20000,2022-08-15 21:03:51,0,0,1.968504,,,1.9685368084,1.64042,0,0,0,0,0,8.254,1.9685368084,1.968504,0,0,0,0,0,292.1, 0.5, 0,0,0,1024,1024,1024,1024,0,0,0,0,292.1,0,0,84,4.132,4.119,0,0,0,0,4.201,102.38,1.9685368084,1.968504,6,P-GPS,
20100,2022-08-15 21:03:51,0,0,1.968504,,,1.9685368084,1.64042,0,0,0,0,0,8.254,1.9685368084,1.968504,0,0,0,0,0,292.2, 0.5, 0.4,0,0,1024,1024,1024,1024,0,0,0,0,292.1,0,0,84,4.132,4.119,0,0,0,0,4.201,102.38,1.9685368084,1.968504,6,P-GPS,
20200,2022-08-15 21:03:51,0,0,1.968504,,,1.9685368084,1.64042,0,0,0,0,0,8.254,1.9685368084,1.968504,0,0,0,0,0,292.1, 0.5, 0.5,0,0,1024,1024,1024,1024,0,0,0,0,292.1,0,0,84,4.132,4.119,0,0,0,0,4.201,102.38,1.9685368084,1.968504,6,P-GPS,
20300,2022-08-15 21:03:51,0,0,1.968504,,,1.9685368084,1.64042,0,0,0,0,0,8.254,1.9685368084,1.968504,0,0,0,0,0,292.2, 0.5, 0.4,0,0,1024,1024,1024,1024,0,0,0,0,292.1,0,0,84,4.132,4.119,0,0,0,0,4.201,102.38,1.9685368084,1.968504,6,P-GPS,
20400,2022-08-15 21:03:51,0,0,1.968504,,,1.9685368084,1.64042,0,0,0,0,0,8.254,1.9685368084,1.968504,0,0,0,0,0,292.2, 0.6, 0.1,0,0,1024,1024,1024,1024,0,0,0,0,292.1,0,0,84,4.132,4.119,0,0,0,0,4.201,102.38,1.9685368084,1.968504,6,P-GPS,
20500,2022-08-15 21:03:51,0,0,1.968504,,,1.9685368084,1.64042,0,0,0,0,0,8.254,1.9685368084,1.968504,0,0,0,0,0,292.2, 0.7, 0.1,0,0,1024,1024,1024,1024,0,0,0,0,292.1,0,0,84,4.132,4.119,0,0,0,0,4.201,102.38,1.9685368084,1.968504,6,P-GPS,
20600,2022-08-15 21:03:51,0,0,1.968504,,,1.9685368084,1.64042,0,0,0,0,0,8.252,1.9685368084,1.968504,0,0,0,0,0,292.2, 0.7, 0,0,0,1024,1024,1024,1024,0,0,0,0,292.1,0,0,84,4.131,4.118,0,0,0,0,4.22,102.2,1.9685368084,1.968504,6,P-GPS,
20700,2022-08-15 21:03:51,0,0,1.968504,,,1.9685368084,1.64042,0,0,0,0,0,8.252,1.9685368084,1.968504,0,0,0,0,0,292.1, 0.6, 0,0,0,1024,1024,1024,1024,0,0,0,0,292.1,0,0,84,4.131,4.118,0,0,0,0,4.22,102.2,1.9685368084,1.968504,6,P-GPS,
20800,2022-08-15 21:03:52,0,0,1.968504,,,1.9685368084,1.64042,0,0,0,0,0,8.252,1.9685368084,1.968504,0,0,0,0,0,292.1, 0.6, 0.1,0,0,1024,1024,1024,1024,0,0,0,0,292.1,0,0,84,4.131,4.118,0,0,0,0,4.22,102.2,1.9685368084,1.968504,6,P-GPS,
20900,2022-08-15 21:03:52,0,0,1.968504,,,1.9685368084,1.64042,0,0,0,0,0,8.252,1.9685368084,1.968504,0,0,0,0,0,292.1, 0.3, -0.1,0,0,1024,1024,1024,1024,0,0,0,0,292.1,0,0,84,4.131,4.118,0,0,0,0,4.22,102.2,1.9685368084,1.968504,6,P-GPS,
21000,2022-08-15 21:03:52,0,0,1.968504,,,1.9685368084,1.64042,0,0,0,0,0,8.252,1.9685368084,1.968504,0,0,0,0,0,292.1, 0.3, -0.3,0,0,1024,1024,1024,1024,0,0,0,0,292.1,0,0,84,4.131,4.118,0,0,0,0,4.22,102.2,1.9685368084,1.968504,6,P-GPS,
21100,2022-08-15 21:03:52,0,0,1.968504,,,1.9685368084,1.64042,0,0,0,0,0,8.252,1.9685368084,1.968504,0,0,0,0,0,292.1, 0.5, 0,0,0,1024,1024,1024,1024,0,0,0,0,292.1,0,0,84,4.131,4.118,0,0,0,0,4.22,102.2,1.9685368084,1.968504,6,P-GPS,
21200,2022-08-15 21:03:52,0,0,1.968504,,,1.9685368084,1.64042,0,0,0,0,0,8.252,1.9685368084,1.968504,0,0,0,0,0,292.1, 0.6, 0.1,0,0,1024,1024,1024,1024,0,0,0,0,292.1,0,0,84,4.131,4.118,0,0,0,0,4.22,102.2,1.9685368084,1.968504,6,P-GPS,
21300,2022-08-15 21:03:52,0,0,1.968504,,,1.9685368084,1.64042,0,0,0,0,0,8.252,1.9685368084,1.968504,0,0,0,0,0,292, 0.7, -0.1,0,0,1024,1024,1024,1024,0,0,0,0,292.1,0,0,84,4.131,4.118,0,0,0,0,4.22,102.2,1.9685368084,1.968504,6,P-GPS,
21400,2022-08-15 21:03:52,0,0,1.968504,,,1.9685368084,1.64042,0,0,0,0,0,8.252,1.9685368084,1.968504,0,0,0,0,0,292, 0.6, -0.1,0,0,1024,1024,1024,1024,0,0,0,0,292.1,0,0,84,4.131,4.118,0,0,0,0,4.22,102.2,1.9685368084,1.968504,6,P-GPS,
21500,2022-08-15 21:03:52,0,0,1.64042,,,1.6404528084,1.64042,0,0,0,0,0,8.252,1.9685368084,1.968504,0,0,0,0,0,292.1, 0.6, 0.1,0,0,1024,1024,1024,1024,0,0,0,0,292.1,0,0,84,4.131,4.118,0,0,0,0,4.22,102.2,1.6404528084,1.64042,6,P-GPS,
21600,2022-08-15 21:03:52,0,0,1.64042,,,1.6404528084,1.64042,0,0,0,0,0,8.249,1.9685368084,1.968504,0,0,0,0,0,292, 0.6, 0.2,0,0,1024,1024,1024,1024,0,0,0,0,292.1,0,0,84,4.13,4.117,0,0,0,0,4.235,102.38,1.6404528084,1.64042,6,P-GPS,
21700,2022-08-15 21:03:52,0,0,1.64042,,,1.6404528084,1.64042,0,0,0,0,0,8.249,1.9685368084,1.968504,0,0,0,0,0,292, 0.4, 0,0,0,1024,1024,1024,1024,0,0,0,0,292.1,0,0,84,4.13,4.117,0,0,0,0,4.235,102.38,1.6404528084,1.64042,6,P-GPS,
21800,2022-08-15 21:03:52,0,0,1.64042,,,1.6404528084,1.64042,0,0,0,0,0,8.249,1.9685368084,1.968504,0,0,0,0,0,292, 0.3, -0.1,0,0,1024,1024,1024,1024,0,0,0,0,292.1,0,0,84,4.13,4.117,0,0,0,0,4.235,102.38,1.6404528084,1.64042,6,P-GPS,
21900,2022-08-15 21:03:53,0,0,1.64042,,,1.6404528084,1.64042,0,0,0,0,0,8.249,1.9685368084,1.968504,0,0,0,0,0,292, 0.4, -0.3,0,0,1024,1024,1024,1024,0,0,0,0,292.1,0,0,84,4.13,4.117,0,0,0,0,4.235,102.38,1.6404528084,1.64042,6,P-GPS,
22000,2022-08-15 21:03:53,0,0,1.64042,,,1.6404528084,1.64042,0,0,0,0,0,8.249,1.9685368084,1.968504,0,0,0,0,0,292, 0.4, 0.1,0,0,1024,1024,1024,1024,0,0,0,0,292.1,0,0,84,4.13,4.117,0,0,0,0,4.235,102.38,1.6404528084,1.64042,6,P-GPS,
22100,2022-08-15 21:03:53,0,0,1.64042,,,1.6404528084,1.64042,0,0,0,0,0,8.249,1.9685368084,1.968504,0,0,0,0,0,292.1, 0.4, 0.2,0,0,1024,1024,1024,1024,0,0,0,0,292.1,0,0,84,4.13,4.117,0,0,0,0,4.235,102.38,1.6404528084,1.64042,6,P-GPS,
22200,2022-08-15 21:03:53,0,0,1.64042,,,1.6404528084,1.64042,0,0,0,0,0,8.249,1.9685368084,1.968504,0,0,0,0,0,292, 0.2, 0.1,0,0,1024,1024,1024,1024,0,0,0,0,292.1,0,0,84,4.13,4.117,0,0,0,0,4.235,102.38,1.6404528084,1.64042,6,P-GPS,
22300,2022-08-15 21:03:53,0,0,1.64042,,,1.6404528084,1.64042,0,0,0,0,0,8.249,1.9685368084,1.968504,0,0,0,0,0,292, 0.1, -0.2,0,0,1024,1024,1024,1024,0,0,0,0,292.1,0,0,84,4.13,4.117,0,0,0,0,4.235,102.38,1.6404528084,1.64042,6,P-GPS,
22400,2022-08-15 21:03:53,0,0,1.64042,,,1.6404528084,1.64042,0,0,0,0,0,8.249,1.9685368084,1.968504,0,0,0,0,0,292, 0.1, -0.2,0,0,1024,1024,1024,1024,0,0,0,0,292.1,0,0,84,4.13,4.117,0,0,0,0,4.235,102.38,1.6404528084,1.64042,6,P-GPS,
22500,2022-08-15 21:03:53,0,0,1.64042,,,1.6404528084,1.64042,0,0,0,0,0,8.249,1.9685368084,1.968504,0,0,0,0,0,292.1, 0.3, 0,0,0,1024,1024,1024,1024,0,0,0,0,292.1,0,0,84,4.13,4.117,0,0,0,0,4.235,102.38,1.6404528084,1.64042,6,P-GPS,
22600,2022-08-15 21:03:53,0,0,1.64042,,,1.6404528084,1.64042,0,0,0,0,0,8.245,1.9685368084,1.968504,0,0,0,0,0,292, 0.3, 0,0,0,1024,1024,1024,1024,0,0,0,0,292.1,0,0,84,4.129,4.116,0,0,0,0,4.245,102.38,1.6404528084,1.64042,6,P-GPS,
22700,2022-08-15 21:03:53,0,0,1.64042,,,1.6404528084,1.64042,0,0,0,0,0,8.245,1.9685368084,1.968504,0,0,0,0,0,292, 0.3, 0,0,0,1024,1024,1024,1024,0,0,0,0,292.1,0,0,84,4.129,4.116,0,0,0,0,4.245,102.38,1.6404528084,1.64042,6,P-GPS,
22800,2022-08-15 21:03:53,0,0,1.64042,,,1.6404528084,1.64042,0,0,0,0,0,8.245,1.9685368084,1.968504,0,0,0,0,0,292, 0.3, 0,0,0,1024,1024,1024,1024,0,0,0,0,292.1,0,0,84,4.129,4.116,0,0,0,0,4.245,102.38,1.6404528084,1.64042,6,P-GPS,
22900,2022-08-15 21:03:54,0,0,1.312336,,,1.3123688084,1.64042,0,0,0,0,0,8.245,1.9685368084,1.968504,0,0,0,0,0,292, 0.2, 0.1,0,0,1024,1024,1024,1024,0,0,0,0,292.1,0,0,84,4.129,4.116,0,0,0,0,4.245,102.38,1.3123688084,1.312336,6,P-GPS,
23000,2022-08-15 21:03:54,0,0,1.312336,,,1.3123688084,1.64042,0,0,0,0,0,8.245,1.9685368084,1.968504,0,0,0,0,0,292, 0.1, 0,0,0,1024,1024,1024,1024,0,0,0,0,292.1,0,0,84,4.129,4.116,0,0,0,0,4.245,102.38,1.3123688084,1.312336,6,P-GPS,
23100,2022-08-15 21:03:54,0,0,1.312336,,,1.3123688084,1.64042,0,0,0,0,0,8.245,1.9685368084,1.968504,0,0,0,0,0,292, 0.3, 0,0,0,1024,1024,1024,1024,0,0,0,0,292.1,0,0,84,4.129,4.116,0,0,0,0,4.245,102.38,1.3123688084,1.312336,6,P-GPS,
23200,2022-08-15 21:03:54,0,0,1.312336,,,1.3123688084,1.64042,0,0,0,0,0,8.245,1.9685368084,1.968504,0,0,0,0,0,292.1, 0.4, 0,0,0,1024,1024,1024,1024,0,0,0,0,292.1,0,0,84,4.129,4.116,0,0,0,0,4.245,102.38,1.3123688084,1.312336,6,P-GPS,
23300,2022-08-15 21:03:54,0,0,1.312336,,,1.3123688084,1.64042,0,0,0,0,0,8.245,1.9685368084,1.968504,0,0,0,0,0,292.1, 0.3, 0,0,0,1024,1024,1024,1024,0,0,0,0,292.1,0,0,84,4.129,4.116,0,0,0,0,4.245,102.38,1.3123688084,1.312336,6,P-GPS,
23400,2022-08-15 21:03:54,0,0,1.312336,,,1.3123688084,1.64042,0,0,0,0,0,8.245,1.9685368084,1.968504,0,0,0,0,0,292, 0.1, 0,0,0,1024,1024,1024,1024,0,0,0,0,292.1,0,0,84,4.129,4.116,0,0,0,0,4.245,102.38,1.3123688084,1.312336,6,P-GPS,
23500,2022-08-15 21:03:54,0,0,1.312336,,,1.3123688084,1.64042,0,0,0,0,0,8.245,1.9685368084,1.968504,0,0,0,0,0,292, 0, -0.2,0,0,1024,1024,1024,1024,0,0,0,0,292.1,0,0,84,4.129,4.116,0,0,0,0,4.245,102.38,1.3123688084,1.312336,6,P-GPS,
23600,2022-08-15 21:03:54,0,0,1.312336,,,1.3123688084,1.64042,0,0,0,0,0,8.245,1.9685368084,1.968504,0,0,0,0,0,292.1, 0.2, 0,0,0,1024,1024,1024,1024,0,0,0,0,292.1,0,0,84,4.129,4.116,0,0,0,0,4.245,102.38,1.3123688084,1.312336,6,P-GPS,
23700,2022-08-15 21:03:54,0,0,1.312336,,,1.3123688084,1.64042,0,0,0,0,0,8.242,1.9685368084,1.968504,0,0,0,0,0,292, 0.3, 0.1,0,0,1024,1024,1024,1024,0,0,0,0,292.1,0,0,84,4.127,4.114,0,0,0,0,4.237,102.38,1.3123688084,1.312336,6,P-GPS,
23800,2022-08-15 21:03:54,0,0,1.312336,,,1.3123688084,1.64042,0,0,0,0,0,8.242,1.9685368084,1.968504,0,0,0,0,0,292, 0.4, 0.2,0,0,1024,1024,1024,1024,0,0,0,0,292.1,0,0,84,4.127,4.114,0,0,0,0,4.237,102.38,1.3123688084,1.312336,6,P-GPS,
23900,2022-08-15 21:03:55,0,0,1.312336,,,1.3123688084,1.64042,0,0,0,0,0,8.242,1.9685368084,1.968504,0,0,0,0,0,292, 0.4, 0.5,0,0,1024,1024,1024,1024,0,0,0,0,292.1,0,0,84,4.127,4.114,0,0,0,0,4.237,102.38,1.3123688084,1.312336,6,P-GPS,
24000,2022-08-15 21:03:55,0,0,0.984252,,,0.9842848084,1.64042,0,0,0,0,0,8.242,1.9685368084,1.968504,0,0,0,0,0,292, 0.2, 0.3,0,0,1024,1024,1024,1024,0,0,0,0,292.1,0,0,84,4.127,4.114,0,0,0,0,4.237,102.38,0.9842848084,0.984252,6,P-GPS,
24100,2022-08-15 21:03:55,0,0,0.984252,,,0.9842848084,1.64042,0,0,0,0,0,8.242,1.9685368084,1.968504,0,0,0,0,0,292, 0.3, 0.1,0,0,1024,1024,1024,1024,0,0,0,0,292.1,0,0,84,4.127,4.114,0,0,0,0,4.237,102.38,0.9842848084,0.984252,6,P-GPS,
24200,2022-08-15 21:03:55,0,0,0.984252,,,0.9842848084,1.64042,0,0,0,0,0,8.242,1.9685368084,1.968504,0,0,0,0,0,292, 0.3, 0,0,0,1024,1024,1024,1024,0,0,0,0,292.1,0,0,84,4.127,4.114,0,0,0,0,4.237,102.38,0.9842848084,0.984252,6,P-GPS,
24300,2022-08-15 21:03:55,0,0,0.984252,,,0.9842848084,1.64042,0,0,0,0,0,8.242,1.9685368084,1.968504,0,0,0,0,0,292, 0.3, 0.1,0,0,1024,1024,1024,1024,0,0,0,0,292.1,0,0,84,4.127,4.114,0,0,0,0,4.237,102.38,0.9842848084,0.984252,6,P-GPS,
24400,2022-08-15 21:03:55,0,0,0.984252,,,0.9842848084,1.64042,0,0,0,0,0,8.242,1.9685368084,1.968504,0,0,0,0,0,292, 0.3, 0.2,0,0,1024,1024,1024,1024,0,0,0,0,292.1,0,0,84,4.127,4.114,0,0,0,0,4.237,102.38,0.9842848084,0.984252,6,P-GPS,
24500,2022-08-15 21:03:55,0,0,0.984252,,,0.9842848084,1.64042,0,0,0,0,0,8.242,1.9685368084,1.968504,0,0,0,0,0,292, 0.4, 0.2,0,0,1024,1024,1024,1024,0,0,0,0,292.1,0,0,84,4.127,4.114,0,0,0,0,4.237,102.38,0.9842848084,0.984252,6,P-GPS,
24600,2022-08-15 21:03:55,0,0,0.984252,,,0.9842848084,1.64042,0,0,0,0,0,8.242,1.9685368084,1.968504,0,0,0,0,0,292.1, 0.6, 0.4,0,0,1024,1024,1024,1024,0,0,0,0,292.1,0,0,84,4.127,4.114,0,0,0,0,4.237,102.38,0.9842848084,0.984252,6,P-GPS,
24700,2022-08-15 21:03:55,0,0,0.984252,,,0.9842848084,1.64042,0,0,0,0,0,8.242,1.9685368084,1.968504,0,0,0,0,0,292.1, 0.4, 0.1,0,0,1024,1024,1024,1024,0,0,0,0,292.1,0,0,84,4.127,4.114,0,0,0,0,4.201,102.38,0.9842848084,0.984252,6,P-GPS,
24800,2022-08-15 21:03:55,0,0,0.984252,,,0.9842848084,1.64042,0,0,0,0,0,8.242,1.9685368084,1.968504,0,0,0,0,0,292.1, 0.1, 0.2,0,0,1024,1024,1024,1024,0,0,0,0,292.1,0,0,84,4.127,4.114,0,0,0,0,4.201,102.38,0.9842848084,0.984252,6,P-GPS,
24900,2022-08-15 21:03:56,0,0,0.984252,,,0.9842848084,1.64042,0,0,0,0,0,8.242,1.9685368084,1.968504,0,0,0,0,0,292, 0.3, 0,0,0,1024,1024,1024,1024,0,0,0,0,292.1,0,0,84,4.127,4.114,0,0,0,0,4.201,102.38,0.9842848084,0.984252,6,P-GPS,
25000,2022-08-15 21:03:56,0,0,0.984252,,,0.9842848084,1.64042,0,0,0,0,0,8.242,1.9685368084,1.968504,0,0,0,0,0,292.1, 0.1, 0.4,0,0,1024,1024,1024,1024,0,0,0,0,292.1,0,0,84,4.127,4.114,0,0,0,0,4.201,102.38,0.9842848084,0.984252,6,P-GPS,
25100,2022-08-15 21:03:56,0,0,0.656168,,,0.6562008084,1.64042,0,0,0,0,0,8.242,1.9685368084,1.968504,0,0,0,0,0,292.1, 0.3, 0.3,0,0,1024,1024,1024,1024,0,0,0,0,292.1,0,0,84,4.127,4.114,0,0,0,0,4.201,102.38,0.6562008084,0.656168,6,P-GPS,
25200,2022-08-15 21:03:56,0,0,0.656168,,,0.6562008084,1.64042,0,0,0,0,0,8.242,1.9685368084,1.968504,0,0,0,0,0,292, 0.3, 0.4,0,0,1024,1024,1024,1024,0,0,0,0,292.1,0,0,84,4.127,4.114,0,0,0,0,4.201,102.38,0.6562008084,0.656168,6,P-GPS,
