time(millisecond),datetime(utc),latitude,longitude,height_above_takeoff(feet),height_above_ground_at_drone_location(feet),ground_elevation_at_drone_location(feet),altitude_above_seaLevel(feet),height_sonar(feet),speed(mph),distance(feet),mileage(feet),satellites,gpslevel,voltage(v),max_altitude(feet),max_ascent(feet),max_speed(mph),max_distance(feet), xSpeed(mph), ySpeed(mph), zSpeed(mph), compass_heading(degrees), pitch(degrees), roll(degrees),isPhoto,isVideo,rc_elevator,rc_aileron,rc_throttle,rc_rudder,rc_elevator(percent),rc_aileron(percent),rc_throttle(percent),rc_rudder(percent),gimbal_heading(degrees),gimbal_pitch(degrees),gimbal_roll(degrees),battery_percent,voltageCell1,voltageCell2,voltageCell3,voltageCell4,voltageCell5,voltageCell6,current(A),battery_temperature(f),altitude(feet),ascent(feet),flycStateRaw,flycState,message
90600,2022-08-11 15:37:23,0,0,0,,,3.28084E-5,0.328084,0,0,0,0,0,0,3.28084E-5,0,0,0,0,0,0,225.6, 3.2, 0.2,0,0,1024,1024,1024,1024,0,0,0,0,233.3,0,0,56,3.903,3.897,0,0,0,0,0,87.26,3.28084E-5,0,41,Motors_Started,"Sin tarjeta SD. Inserta una tarjeta (Code: 10022)"
90700,2022-08-11 15:37:24,0,0,0,,,3.28084E-5,0.328084,0,0,0,0,0,0,3.28084E-5,0,0,0,0,0,0,225.6, 3.2, 0.1,0,0,364,364,364,1684,-100,-100,-100,100,233.3,0,0,56,3.903,3.897,0,0,0,0,0,87.26,3.28084E-5,0,41,Motors_Started,
90800,2022-08-11 15:37:24,0,0,0,,,3.28084E-5,0.328084,0,0,0,0,0,0,3.28084E-5,0,0,0,0,0,0,225.6, 3.2, 0.2,0,0,364,364,364,1684,-100,-100,-100,100,233.3,0,0,56,3.903,3.897,0,0,0,0,0,87.26,3.28084E-5,0,41,Motors_Started,
90900,2022-08-11 15:37:24,0,0,0,,,3.28084E-5,0.328084,0,0,0,0,0,0,3.28084E-5,0,0,0,0,0,0,225.6, 3.2, 0.2,0,0,364,364,364,1684,-100,-100,-100,100,233.3,0,0,56,3.903,3.897,0,0,0,0,0,87.26,3.28084E-5,0,41,Motors_Started,
91000,2022-08-11 15:37:24,0,0,0,,,3.28084E-5,0.328084,0,0,0,0,0,0,3.28084E-5,0,0,0,0,0,0,225.6, 3.2, 0.2,0,0,1024,1024,1024,1024,0,0,0,0,233.3,0,0,56,3.903,3.897,0,0,0,0,0,87.26,3.28084E-5,0,41,Motors_Started,
91100,2022-08-11 15:37:24,0,0,0,,,3.28084E-5,0.328084,0,0,0,0,0,0,3.28084E-5,0,0,0,0,0,0,225.6, 3.2, 0.2,0,0,1024,1024,1024,1024,0,0,0,0,233.3,0,0,56,3.903,3.897,0,0,0,0,0,87.26,3.28084E-5,0,41,Motors_Started,"Setting new Return-To-Home altitude to 100m (328 ft). Data Recorder File Index is 4. Setting new Maximum Flight Altitude to 30m (98 ft)"
91200,2022-08-11 15:37:24,0,0,0,,,3.28084E-5,0.328084,0,0,0,0,0,7.829,3.28084E-5,0,0,0,0,0,0,225.6, 3.2, 0.2,0,0,1024,1024,1024,1024,0,0,0,0,233.3,0,0,56,3.903,3.897,0,0,0,0,0.651,87.26,3.28084E-5,0,41,Motors_Started,
91300,2022-08-11 15:37:24,0,0,0,,,3.28084E-5,0.328084,0,0,0,0,0,7.829,3.28084E-5,0,0,0,0,0,0,225.6, 3.2, 0.2,0,0,1024,1024,1024,1024,0,0,0,0,233.3,0,0,56,3.903,3.897,0,0,0,0,0.651,87.26,3.28084E-5,0,41,Motors_Started,
91400,2022-08-11 15:37:24,0,0,0,,,3.28084E-5,0.328084,0,0,0,0,0,7.829,3.28084E-5,0,0,0,0,0,0,225.6, 3.2, 0.2,0,0,1024,1024,1024,1024,0,0,0,0,233.3,0,0,56,3.903,3.897,0,0,0,0,0.651,87.26,3.28084E-5,0,41,Motors_Started,
91500,2022-08-11 15:37:24,0,0,0,,,3.28084E-5,0.328084,0,0,0,0,0,7.829,3.28084E-5,0,0,0,0,0,0,225.6, 3.2, 0.2,0,0,1024,1024,1024,1024,0,0,0,0,233.3,0,0,56,3.903,3.897,0,0,0,0,0.651,87.26,3.28084E-5,0,41,Motors_Started,
91600,2022-08-11 15:37:24,0,0,0,,,3.28084E-5,0.328084,0,0,0,0,0,7.829,3.28084E-5,0,0,0,0,0,0,225.5, 3.2, 0.2,0,0,1024,1024,1024,1024,0,0,0,0,233.3,0,0,56,3.903,3.897,0,0,0,0,0.651,87.26,3.28084E-5,0,41,Motors_Started,
91700,2022-08-11 15:37:25,0,0,0,,,3.28084E-5,0.328084,0,0,0,0,0,7.829,3.28084E-5,0,0,0,0,0,0,225.5, 3.2, 0.2,0,0,1024,1024,1024,1024,0,0,0,0,233.3,0,0,56,3.903,3.897,0,0,0,0,0.651,87.26,3.28084E-5,0,10,Assisted_Takeoff,
91800,2022-08-11 15:37:25,0,0,0,,,3.28084E-5,0.328084,0,0,0,0,0,7.829,3.28084E-5,0,0,0,0,0,0,225.4, 3.2, 0.2,0,0,1024,1024,1024,1024,0,0,0,0,233.3,0,0,56,3.903,3.897,0,0,0,0,0.651,87.26,3.28084E-5,0,10,Assisted_Takeoff,
91900,2022-08-11 15:37:25,0,0,0,,,3.28084E-5,0.328084,0,0,0,0,0,7.829,3.28084E-5,0,0,0,0,0,0,225.3, 3.2, 0.1,0,0,1024,1024,1024,1024,0,0,0,0,233.2,0,0,56,3.903,3.897,0,0,0,0,0.651,87.26,3.28084E-5,0,10,Assisted_Takeoff,
92000,2022-08-11 15:37:25,0,0,0,,,3.28084E-5,0.328084,0,0,0,0,0,7.829,3.28084E-5,0,0,0,0,0,0,225.2, 3.2, 0.1,0,0,1024,1024,1024,1024,0,0,0,0,233.2,0,0,56,3.903,3.897,0,0,0,0,0.651,87.26,3.28084E-5,0,10,Assisted_Takeoff,
92100,2022-08-11 15:37:25,0,0,0,,,3.28084E-5,0.328084,0,0,0,0,0,7.829,3.28084E-5,0,0,0,0,0,0,225, 3.2, 0.2,0,0,1024,1024,1024,1024,0,0,0,0,233,0,0,56,3.903,3.897,0,0,0,0,0.651,87.26,3.28084E-5,0,10,Assisted_Takeoff,
92200,2022-08-11 15:37:25,0,0,0,,,3.28084E-5,0.328084,0,0,0,0,0,7.829,3.28084E-5,0,0,0,0,0,0,224.9, 3.2, 0.2,0,0,1024,1024,1024,1024,0,0,0,0,233,0,0,56,3.903,3.897,0,0,0,0,0.651,87.26,3.28084E-5,0,10,Assisted_Takeoff,
92300,2022-08-11 15:37:25,0,0,0,,,3.28084E-5,0.328084,0,0,0,0,0,7.782,3.28084E-5,0,0,0,0,0,0,224.7, 3.2, 0.2,0,0,1024,1024,1024,1024,0,0,0,0,232.9,0,0,56,3.901,3.897,0,0,0,0,1.569,87.26,3.28084E-5,0,10,Assisted_Takeoff,
92400,2022-08-11 15:37:25,0,0,0,,,3.28084E-5,0.328084,0,0,0,0,0,7.782,3.28084E-5,0,0,0,0,0,0,224.7, 3.2, 0.2,0,0,1024,1024,1024,1024,0,0,0,0,232.6,0,0,56,3.901,3.897,0,0,0,0,1.569,87.26,3.28084E-5,0,10,Assisted_Takeoff,
92500,2022-08-11 15:37:25,0,0,0,,,3.28084E-5,0.328084,0,0,0,0,0,7.782,3.28084E-5,0,0,0,0,0,0,224.6, 3.2, 0.1,0,0,1024,1024,1024,1024,0,0,0,0,232.5,0,0,56,3.901,3.897,0,0,0,0,1.569,87.26,3.28084E-5,0,10,Assisted_Takeoff,
92600,2022-08-11 15:37:25,0,0,0,,,3.28084E-5,0.328084,0,0,0,0,0,7.782,3.28084E-5,0,0,0,0,0,0,224.4, 3.2, 0.2,0,0,1024,1024,1024,1024,0,0,0,0,232.4,0,0,56,3.901,3.897,0,0,0,0,1.569,87.26,3.28084E-5,0,10,Assisted_Takeoff,
92700,2022-08-11 15:37:26,0,0,0,,,3.28084E-5,0.328084,0,0,0,0,0,7.782,3.28084E-5,0,0,0,0,0,0,224.2, 3.2, 0.2,0,0,1024,1024,1024,1024,0,0,0,0,232.3,0,0,56,3.901,3.897,0,0,0,0,1.569,87.26,3.28084E-5,0,10,Assisted_Takeoff,
92800,2022-08-11 15:37:26,0,0,0,,,3.28084E-5,0.328084,0,0,0,0,0,7.782,3.28084E-5,0,0,0,0,0,0,224, 3.2, 0.2,0,0,1024,1024,1024,1024,0,0,0,0,232.1,0,0,56,3.901,3.897,0,0,0,0,1.569,87.26,3.28084E-5,0,10,Assisted_Takeoff,
92900,2022-08-11 15:37:26,0,0,0,,,3.28084E-5,0.328084,0,0,0,0,0,7.782,3.28084E-5,0,0,0,0,0,0,223.8, 3.2, 0.2,0,0,1024,1024,1024,1024,0,0,0,0,231.9,0,0,56,3.901,3.897,0,0,0,0,1.569,87.26,3.28084E-5,0,10,Assisted_Takeoff,
93000,2022-08-11 15:37:26,0,0,0,,,3.28084E-5,0.328084,0,0,0,0,0,7.782,3.28084E-5,0,0,0,0,0,0,223.7, 3.2, 0.2,0,0,1024,1024,1024,1024,0,0,0,0,231.7,0,0,56,3.901,3.897,0,0,0,0,1.569,87.26,3.28084E-5,0,10,Assisted_Takeoff,
93100,2022-08-11 15:37:26,0,0,0,,,3.28084E-5,0.328084,0,0,0,0,0,7.782,3.28084E-5,0,0,0,0,0,0,223.5, 3.2, 0.1,0,0,1024,1024,1024,1024,0,0,0,0,231.6,0,0,56,3.901,3.897,0,0,0,0,1.569,87.26,3.28084E-5,0,10,Assisted_Takeoff,
93200,2022-08-11 15:37:26,0,0,0,,,3.28084E-5,0.328084,0,0,0,0,0,7.782,3.28084E-5,0,0,0,0,0,0,223.4, 3.2, 0.2,0,0,1024,1024,1024,1024,0,0,0,0,231.6,0,0,56,3.901,3.897,0,0,0,0,1.569,87.26,3.28084E-5,0,10,Assisted_Takeoff,
93300,2022-08-11 15:37:26,0,0,0,,,3.28084E-5,0.328084,0,0,0,0,0,7.806,3.28084E-5,0,0,0,0,0,0,223.3, 3.2, 0.2,0,0,1024,1024,1024,1024,0,0,0,0,231.5,0,0,56,3.906,3.902,0,0,0,0,1.098,87.26,3.28084E-5,0,10,Assisted_Takeoff,
93400,2022-08-11 15:37:26,0,0,0,,,3.28084E-5,0.328084,0,0,0,0,0,7.806,3.28084E-5,0,0,0,0,0,0,223.2, 3.2, 0.2,0,0,1024,1024,1024,1024,0,0,0,0,231.2,0,0,56,3.906,3.902,0,0,0,0,1.098,87.26,3.28084E-5,0,10,Assisted_Takeoff,
93500,2022-08-11 15:37:26,0,0,0,,,3.28084E-5,0.328084,0,0,0,0,0,7.806,3.28084E-5,0,0,0,0,0,0,222.9, 3.2, 0.2,0,0,1024,1024,1024,1024,0,0,0,0,231.1,0,0,56,3.906,3.902,0,0,0,0,1.098,87.26,3.28084E-5,0,10,Assisted_Takeoff,
93600,2022-08-11 15:37:27,0,0,0,,,3.28084E-5,0.328084,0,0,0,0,0,7.806,3.28084E-5,0,0,0,0,0,0,222.9, 3.2, 0.2,0,0,1024,1024,1105,1024,0,0,12,0,230.9,0,0,56,3.906,3.902,0,0,0,0,1.098,87.26,3.28084E-5,0,10,Assisted_Takeoff,
93700,2022-08-11 15:37:27,0,0,0,,,3.28084E-5,0.328084,0,0,0,0,0,7.806,3.28084E-5,0,0,0,0,0,0,222.8, 3.2, 0.2,0,0,1024,1024,1302,1024,0,0,42,0,230.9,0,0,56,3.906,3.902,0,0,0,0,1.098,87.26,3.28084E-5,0,10,Assisted_Takeoff,
93800,2022-08-11 15:37:27,0,0,0,,,3.28084E-5,0.328084,0,0,0,0,0,7.806,3.28084E-5,0,0,0,0,0,0,222.8, 3.2, 0.2,0,0,1024,1024,1302,1024,0,0,42,0,230.8,0,0,56,3.906,3.902,0,0,0,0,1.098,87.26,3.28084E-5,0,10,Assisted_Takeoff,
93900,2022-08-11 15:37:27,0,0,0,,,3.28084E-5,0.328084,0,0,0,0,0,7.806,3.28084E-5,0,0,0,0,0,0,222.6, 3.2, 0.2,0,0,1024,1024,1155,1024,0,0,20,0,230.7,0,0,56,3.906,3.902,0,0,0,0,1.098,87.26,3.28084E-5,0,10,Assisted_Takeoff,
94000,2022-08-11 15:37:27,0,0,0,,,3.28084E-5,0.328084,0,0,0,0,0,7.806,3.28084E-5,0,0,0,0,0,0,222.5, 3.2, 0.1,0,0,1024,1024,1024,1024,0,0,0,0,230.6,0,0,56,3.906,3.902,0,0,0,0,1.098,87.26,3.28084E-5,0,10,Assisted_Takeoff,
94100,2022-08-11 15:37:27,0,0,0,,,3.28084E-5,0.328084,0,0,0,0,0,7.806,3.28084E-5,0,0,0,0,0,0,222.4, 3.2, 0.1,0,0,1024,1024,1024,1024,0,0,0,0,230.5,0,0,56,3.906,3.902,0,0,0,0,1.098,87.26,3.28084E-5,0,10,Assisted_Takeoff,
94200,2022-08-11 15:37:27,0,0,0,,,3.28084E-5,0.328084,0,0,0,0,0,7.806,3.28084E-5,0,0,0,0,0,0,222.4, 3.3, 0.2,0,0,1024,1024,1024,1024,0,0,0,0,230.5,0,0,56,3.906,3.902,0,0,0,0,1.098,87.26,3.28084E-5,0,10,Assisted_Takeoff,
94300,2022-08-11 15:37:27,0,0,0,,,3.28084E-5,0.328084,0,0,0,0,0,7.806,3.28084E-5,0,0,0,0,0,0,222.4, 3.2, 0.2,0,0,1024,1024,1031,1024,0,0,1,0,230.4,0,0,56,3.906,3.902,0,0,0,0,1.098,87.26,3.28084E-5,0,10,Assisted_Takeoff,
94400,2022-08-11 15:37:27,0,0,0,,,3.28084E-5,0.328084,0,0,0,0,0,7.806,3.28084E-5,0,0,0,0,0,0,222.3, 3.2, 0.2,0,0,1024,1024,1304,1024,0,0,42,0,230.4,0,0,56,3.906,3.902,0,0,0,0,1.098,87.26,3.28084E-5,0,10,Assisted_Takeoff,
94500,2022-08-11 15:37:27,0,0,0,,,3.28084E-5,0.328084,0,0,0,0,0,7.806,3.28084E-5,0,0,0,0,0,0,222.2, 3.2, 0.2,0,0,1024,1024,1242,1024,0,0,33,0,230.3,0,0,56,3.906,3.902,0,0,0,0,1.098,87.26,3.28084E-5,0,10,Assisted_Takeoff,
94600,2022-08-11 15:37:28,0,0,0,,,3.28084E-5,0.328084,0,0,0,0,0,7.806,3.28084E-5,0,0,0,0,0,0,222.2, 3.2, 0.2,0,0,1024,1024,1024,1024,0,0,0,0,230.2,0,0,56,3.906,3.902,0,0,0,0,1.098,87.26,3.28084E-5,0,10,Assisted_Takeoff,
94700,2022-08-11 15:37:28,0,0,0,,,3.28084E-5,0.328084,0,0,0,0,0,7.806,3.28084E-5,0,0,0,0,0,0,222.2, 3.2, 0.2,0,0,1024,1024,1024,1024,0,0,0,0,230.2,0,0,56,3.906,3.902,0,0,0,0,1.098,87.26,3.28084E-5,0,10,Assisted_Takeoff,
94800,2022-08-11 15:37:28,0,0,0,,,3.28084E-5,0.328084,0,0,0,0,0,7.806,3.28084E-5,0,0,0,0,0,0,222, 3.2, 0.2,0,0,1024,1024,1024,1024,0,0,0,0,230.2,0,0,56,3.906,3.902,0,0,0,0,1.098,87.26,3.28084E-5,0,10,Assisted_Takeoff,
94900,2022-08-11 15:37:28,0,0,0,,,3.28084E-5,0.328084,0,0,0,0,0,7.806,3.28084E-5,0,0,0,0,0,0,222, 3.2, 0.1,0,0,1024,1024,1112,1024,0,0,13,0,230.1,0,0,56,3.906,3.902,0,0,0,0,1.098,87.26,3.28084E-5,0,10,Assisted_Takeoff,
95000,2022-08-11 15:37:28,0,0,0,,,3.28084E-5,0.328084,0,0,0,0,0,7.806,3.28084E-5,0,0,0,0,0,0,221.9, 3.3, 0.2,0,0,1024,1024,1140,1024,0,0,18,0,230.1,0,0,56,3.906,3.902,0,0,0,0,1.098,87.26,3.28084E-5,0,10,Assisted_Takeoff,
95100,2022-08-11 15:37:28,0,0,0,,,3.28084E-5,0.328084,0,0,0,0,0,7.806,3.28084E-5,0,0,0,0,0,0,221.9, 3.2, 0.2,0,0,1024,1024,1147,1024,0,0,19,0,230.1,0,0,56,3.906,3.902,0,0,0,0,1.098,87.26,3.28084E-5,0,10,Assisted_Takeoff,
95200,2022-08-11 15:37:28,0,0,0,,,3.28084E-5,0.328084,0,0,0,0,0,7.806,3.28084E-5,0,0,0,0,0,0,221.6, 3.2, 0.1,0,0,1024,1024,1136,1024,0,0,17,0,230,0,0,56,3.906,3.902,0,0,0,0,1.098,87.26,3.28084E-5,0,10,Assisted_Takeoff,
95300,2022-08-11 15:37:28,0,0,0,,,3.28084E-5,0.328084,0,0,0,0,0,7.793,3.28084E-5,0,0,0,0,0,0,221.8, 2.7, 0.2,0,0,1024,1024,1093,1024,0,0,10,0,230,0,0,56,3.884,3.882,0,0,0,0,1.6,87.26,3.28084E-5,0,10,Assisted_Takeoff,
95400,2022-08-11 15:37:28,0,0,0,,,3.28084E-5,0.328084,0,0,0,0,0,7.793,3.28084E-5,0,0,0,0,0,0,222.6, 0, 0.1,0,0,1024,1024,1024,1024,0,0,0,0,230,0,0,56,3.884,3.882,0,0,0,0,1.6,87.26,3.28084E-5,0,10,Assisted_Takeoff,
95500,2022-08-11 15:37:28,0,0,0,,,3.28084E-5,0.328084,0,0,0,0,0,7.793,3.28084E-5,0,0,0,0,0,-0.223694,223.5, -1.6, 0,0,0,1024,1024,1024,1024,0,0,0,0,230,0,0,56,3.884,3.882,0,0,0,0,1.6,87.26,3.28084E-5,0,10,Assisted_Takeoff,
95600,2022-08-11 15:37:28,0,0,0,,,3.28084E-5,0.328084,0,0,0,0,0,7.793,3.28084E-5,0,0,0,0,0,-0.223694,224, -1.4, -0.1,0,0,1024,1024,1024,1024,0,0,0,0,230.2,0,0,56,3.884,3.882,0,0,0,0,1.6,87.26,3.28084E-5,0,10,Assisted_Takeoff,
95700,2022-08-11 15:37:29,0,0,0,,,3.28084E-5,0.328084,0,0,0,0,0,7.793,3.28084E-5,0,0,0,0,0,0,224.1, -0.7, -0.3,0,0,1024,1024,1024,1024,0,0,0,0,230.3,0,0,56,3.884,3.882,0,0,0,0,1.6,87.26,3.28084E-5,0,6,P-GPS,"Sin tarjeta SD. Inserta una tarjeta (Code: 10022)"
95800,2022-08-11 15:37:29,0,0,0,,,3.28084E-5,0.328084,0,0,0,0,0,7.793,3.28084E-5,0,0,0,0,0,0.223694,224.2, -0.4, 0.2,0,0,1024,1024,1024,1024,0,0,0,0,230.4,0,0,56,3.884,3.882,0,0,0,0,1.6,87.26,3.28084E-5,0,6,P-GPS,
95900,2022-08-11 15:37:29,0,0,0,,,3.28084E-5,0.328084,0,0,0,0,0,7.793,3.28084E-5,0,0,0,0,0,0,224.2, -0.3, 0.2,0,0,1024,1024,1024,1024,0,0,0,0,230.5,0,0,56,3.884,3.882,0,0,0,0,1.6,87.26,3.28084E-5,0,6,P-GPS,
96000,2022-08-11 15:37:29,0,0,0,,,3.28084E-5,0.328084,0,0,0,0,0,7.793,3.28084E-5,0,0,0,0,0,-0.223694,224.3, -0.4, 0.3,0,0,1024,1024,1132,1024,0,0,16,0,230.6,0,0,56,3.884,3.882,0,0,0,0,1.6,87.26,3.28084E-5,0,6,P-GPS,
96100,2022-08-11 15:37:29,0,0,0,,,3.28084E-5,0.328084,0,0,0,0,0,7.793,3.28084E-5,0,0,0,0,0,-0.447388,224.2, 0, 0.1,0,0,1024,1024,1241,1024,0,0,33,0,230.6,0,0,56,3.884,3.882,0,0,0,0,1.6,87.26,3.28084E-5,0,6,P-GPS,
96200,2022-08-11 15:37:29,0,0,0,,,3.28084E-5,0.328084,0,0,0,0,0,7.793,3.28084E-5,0,0,0,0,0,-0.447388,224, 0.5, -0.2,0,0,1024,1024,1024,1024,0,0,0,0,230.7,0,0,56,3.884,3.882,0,0,0,0,1.6,87.26,3.28084E-5,0,6,P-GPS,
96300,2022-08-11 15:37:29,0,0,0,,,3.28084E-5,0.328084,0,0,0,0,0,7.698,3.28084E-5,0,0,0,0,0,-0.671082,224.1, 0.2, 0.1,0,0,1024,1024,1024,1024,0,0,0,0,230.7,0,0,56,3.856,3.84,0,0,0,0,2.639,87.44,3.28084E-5,0,6,P-GPS,
96400,2022-08-11 15:37:29,0,0,0.328084,,,0.3281168084,0.656168,0,0,0,0,0,7.698,0.3281168084,0.328084,0,0,0,0,-0.671082,224.1, 0.3, 0.3,0,0,1024,1024,1024,1024,0,0,0,0,230.7,0,0,56,3.856,3.84,0,0,0,0,2.639,87.44,0.3281168084,0.328084,6,P-GPS,
96500,2022-08-11 15:37:29,0,0,0.328084,,,0.3281168084,0.656168,0,0,0,0,0,7.698,0.3281168084,0.328084,0,0,0,0,-0.894776,224.1, 0.2, 0.2,0,0,1024,1024,1024,1024,0,0,0,0,230.8,0,0,56,3.856,3.84,0,0,0,0,2.639,87.44,0.3281168084,0.328084,6,P-GPS,
96600,2022-08-11 15:37:29,0,0,0.656168,,,0.6562008084,0.984252,0,0,0,0,0,7.698,0.6562008084,0.656168,0,0,0,0,-0.894776,224.1, 0.2, 0.1,0,0,1024,1024,1024,1024,0,0,0,0,230.8,0,0,56,3.856,3.84,0,0,0,0,2.639,87.44,0.6562008084,0.656168,6,P-GPS,
96700,2022-08-11 15:37:30,0,0,0.656168,,,0.6562008084,0.984252,0,0,0,0,0,7.698,0.6562008084,0.656168,0,0,0,0,-0.894776,224.1, 0, 0.2,0,0,1024,1024,1024,1024,0,0,0,0,230.8,0,0,56,3.856,3.84,0,0,0,0,2.639,87.44,0.6562008084,0.656168,6,P-GPS,
96800,2022-08-11 15:37:30,0,0,0.984252,,,0.9842848084,0.984252,0,0,0,0,0,7.698,0.9842848084,0.984252,0,0,0,0,-0.894776,224.1, 0, 0.1,0,0,1024,1024,1024,1024,0,0,0,0,230.9,0,0,56,3.856,3.84,0,0,0,0,2.639,87.44,0.9842848084,0.984252,6,P-GPS,
96900,2022-08-11 15:37:30,0,0,0.984252,,,0.9842848084,1.312336,0,0,0,0,0,7.698,0.9842848084,0.984252,0,0,0,0,-0.894776,224.1, 0, 0.2,0,0,1024,1024,1024,1024,0,0,0,0,230.9,0,0,56,3.856,3.84,0,0,0,0,2.639,87.44,0.9842848084,0.984252,6,P-GPS,
97000,2022-08-11 15:37:30,0,0,0.984252,,,0.9842848084,1.312336,0,0,0,0,0,7.698,0.9842848084,0.984252,0,0,0,0,-0.671082,223.6, 0.2, 0.1,0,0,1024,1024,1024,1024,0,0,0,0,230.9,0,0,56,3.856,3.84,0,0,0,0,2.639,87.44,0.9842848084,0.984252,1,Atti,"Vuela con cuidado (modo Atti) Señal del GPS demasiado débil. Se ha pasado al modo Atti. La aeronave no puede hacer vuelo estacionario. Vuela con precaución (Code: 30022). Sin tarjeta SD. Inserta una tarjeta (Code: 10022). Aeronave en modo Atti. No se puede hacer vuelo estacionari"
97100,2022-08-11 15:37:30,0,0,1.312336,,,1.3123688084,1.312336,0,0,0,0,0,7.698,1.3123688084,1.312336,0,0,0,0,-0.447388,223.6, 0.1, 0,0,0,1024,1024,1024,1024,0,0,0,0,230.9,0,0,56,3.856,3.84,0,0,0,0,2.639,87.44,1.3123688084,1.312336,6,P-GPS,"La brújula no funciona bien el GPS no tiene buena señal. Cambia a modo Atti (Code: 30020). Aeronave en modo Atti. No se puede hacer vuelo estacionario. Vuela con cuidado (Code: 30004). Sin tarjeta SD. Inserta una tarjeta (Code: 10022). Sin tarjeta SD"
97200,2022-08-11 15:37:30,0,0,1.312336,,,1.3123688084,1.64042,0,0,0,0,0,7.698,1.3123688084,1.312336,0,0,0,0,-0.447388,223.4, 0.1, 0,0,0,1024,1024,1024,1024,0,0,0,0,230.9,0,0,56,3.856,3.84,0,0,0,0,2.639,87.44,1.3123688084,1.312336,6,P-GPS,
97300,2022-08-11 15:37:30,0,0,1.312336,,,1.3123688084,1.64042,0,0,0,0,0,7.648,1.3123688084,1.312336,0,0,0,0,-0.223694,223.2, 0.2, 0.1,0,0,1024,1024,1024,1024,0,0,0,0,230.9,0,0,56,3.832,3.823,0,0,0,0,4.381,87.26,1.3123688084,1.312336,6,P-GPS,
97400,2022-08-11 15:37:30,0,0,1.312336,,,1.3123688084,1.64042,0,0,0,0,0,7.648,1.3123688084,1.312336,0,0,0,0,0,223.2, 0.2, 0.1,0,0,1024,1024,1024,1024,0,0,0,0,230.9,0,0,56,3.832,3.823,0,0,0,0,4.381,87.26,1.3123688084,1.312336,6,P-GPS,
97500,2022-08-11 15:37:30,0,0,1.64042,,,1.6404528084,1.64042,0,0,0,0,0,7.648,1.6404528084,1.64042,0,0,0,0,0,223.1, 0.2, 0.1,0,0,1024,1024,1024,1024,0,0,0,0,230.9,0,0,56,3.832,3.823,0,0,0,0,4.381,87.26,1.6404528084,1.64042,6,P-GPS,
97600,2022-08-11 15:37:30,0,0,1.64042,,,1.6404528084,1.64042,0,0,0,0,0,7.648,1.6404528084,1.64042,0,0,0,0,0,223.1, 0.2, 0.1,0,0,1024,1024,1024,1024,0,0,0,0,230.9,0,0,56,3.832,3.823,0,0,0,0,4.381,87.26,1.6404528084,1.64042,6,P-GPS,
97700,2022-08-11 15:37:31,0,0,1.64042,,,1.6404528084,1.64042,0,0,0,0,0,7.648,1.6404528084,1.64042,0,0,0,0,0,223.1, 0.2, 0.2,0,0,1024,1024,1024,1024,0,0,0,0,230.9,0,0,56,3.832,3.823,0,0,0,0,4.381,87.26,1.6404528084,1.64042,6,P-GPS,
97800,2022-08-11 15:37:31,0,0,1.64042,,,1.6404528084,1.64042,0,0,0,0,0,7.648,1.6404528084,1.64042,0,0,0,0,0,223.1, 0.1, 0.1,0,0,1024,1024,1024,1024,0,0,0,0,230.9,0,0,56,3.832,3.823,0,0,0,0,4.381,87.26,1.6404528084,1.64042,6,P-GPS,
97900,2022-08-11 15:37:31,0,0,1.64042,,,1.6404528084,1.64042,0,0,0,0,0,7.648,1.6404528084,1.64042,0,0,0,0,0,223.1, 0.1, 0.2,0,0,1024,1024,1024,1024,0,0,0,0,230.9,0,0,56,3.832,3.823,0,0,0,0,4.381,87.26,1.6404528084,1.64042,6,P-GPS,
98000,2022-08-11 15:37:31,0,0,1.64042,,,1.6404528084,1.64042,0,0,0,0,0,7.648,1.6404528084,1.64042,0,0,0,0,0,223.1, 0.1, 0.2,0,0,1024,1024,1024,1024,0,0,0,0,230.9,0,0,56,3.832,3.823,0,0,0,0,4.381,87.26,1.6404528084,1.64042,6,P-GPS,
98100,2022-08-11 15:37:31,0,0,1.64042,,,1.6404528084,1.64042,0,0,0,0,0,7.648,1.6404528084,1.64042,0,0,0,0,0,223.1, 0.1, 0.2,0,0,1024,1024,1024,1024,0,0,0,0,230.9,0,0,56,3.832,3.823,0,0,0,0,4.381,87.26,1.6404528084,1.64042,6,P-GPS,
98200,2022-08-11 15:37:31,0,0,1.64042,,,1.6404528084,1.64042,0,0,0,0,0,7.648,1.6404528084,1.64042,0,0,0,0,0,223.1, 0.1, 0.2,0,0,1024,1024,1024,1024,0,0,0,0,230.9,0,0,56,3.832,3.823,0,0,0,0,4.381,87.26,1.6404528084,1.64042,6,P-GPS,
98300,2022-08-11 15:37:31,0,0,1.64042,,,1.6404528084,1.64042,0,0,0,0,0,7.655,1.6404528084,1.64042,0,0,0,0,0,223.1, 0.1, 0.2,0,0,1024,1024,1024,1024,0,0,0,0,230.9,0,0,56,3.827,3.817,0,0,0,0,4.286,87.44,1.6404528084,1.64042,6,P-GPS,
98400,2022-08-11 15:37:31,0,0,1.64042,,,1.6404528084,1.64042,0,0,0,0,0,7.655,1.6404528084,1.64042,0,0,0,0,0,223.1, 0.1, 0.2,0,0,1024,1024,1024,1024,0,0,0,0,230.9,0,0,56,3.827,3.817,0,0,0,0,4.286,87.44,1.6404528084,1.64042,6,P-GPS,
98500,2022-08-11 15:37:31,0,0,1.64042,,,1.6404528084,1.64042,0,0,0,0,0,7.655,1.6404528084,1.64042,0,0,0,0,0,223.1, 0.2, 0.1,0,0,1024,1024,1024,1024,0,0,0,0,230.9,0,0,56,3.827,3.817,0,0,0,0,4.286,87.44,1.6404528084,1.64042,6,P-GPS,
98600,2022-08-11 15:37:31,0,0,1.64042,,,1.6404528084,1.64042,0,0,0,0,0,7.655,1.6404528084,1.64042,0,0,0,0,0,223.1, 0.1, 0.1,0,0,1024,1024,1024,1024,0,0,0,0,230.9,0,0,56,3.827,3.817,0,0,0,0,4.286,87.44,1.6404528084,1.64042,6,P-GPS,
98700,2022-08-11 15:37:32,0,0,1.64042,,,1.6404528084,1.64042,0,0,0,0,0,7.655,1.6404528084,1.64042,0,0,0,0,0,223.1, 0.1, 0.1,0,0,1024,1024,1024,1024,0,0,0,0,230.9,0,0,56,3.827,3.817,0,0,0,0,4.286,87.44,1.6404528084,1.64042,6,P-GPS,
98800,2022-08-11 15:37:32,0,0,1.64042,,,1.6404528084,1.64042,0,0,0,0,0,7.655,1.6404528084,1.64042,0,0,0,0,0,223.1, 0.1, 0.1,0,0,1024,1024,1024,1024,0,0,0,0,230.9,0,0,56,3.827,3.817,0,0,0,0,4.286,87.44,1.6404528084,1.64042,6,P-GPS,
98900,2022-08-11 15:37:32,0,0,1.64042,,,1.6404528084,1.64042,0,0,0,0,0,7.655,1.6404528084,1.64042,0,0,0,0,0,223.1, 0.2, 0.1,0,0,1024,1024,1024,1024,0,0,0,0,230.9,0,0,56,3.827,3.817,0,0,0,0,4.286,87.44,1.6404528084,1.64042,6,P-GPS,
99000,2022-08-11 15:37:32,0,0,1.64042,,,1.6404528084,1.64042,0,0,0,0,0,7.655,1.6404528084,1.64042,0,0,0,0,0,223.1, 0.2, 0.1,0,0,1024,1024,1024,1024,0,0,0,0,230.9,0,0,56,3.827,3.817,0,0,0,0,4.286,87.44,1.6404528084,1.64042,6,P-GPS,
99100,2022-08-11 15:37:32,0,0,1.64042,,,1.6404528084,1.64042,0,0,0,0,0,7.655,1.6404528084,1.64042,0,0,0,0,0,223.1, 0.2, 0,0,0,1024,1024,1024,1024,0,0,0,0,230.9,0,0,56,3.827,3.817,0,0,0,0,4.286,87.44,1.6404528084,1.64042,6,P-GPS,
99200,2022-08-11 15:37:32,0,0,1.64042,,,1.6404528084,1.64042,0,0,0,0,0,7.655,1.6404528084,1.64042,0,0,0,0,0,223.1, 0.2, 0,0,0,1024,1024,1024,1024,0,0,0,0,230.9,0,0,56,3.827,3.817,0,0,0,0,4.286,87.44,1.6404528084,1.64042,6,P-GPS,
99300,2022-08-11 15:37:32,0,0,1.64042,,,1.6404528084,1.64042,0,0,0,0,0,7.642,1.6404528084,1.64042,0,0,0,0,0,223.1, 0.3, 0,0,0,1024,1024,1024,1024,0,0,0,0,230.9,0,0,56,3.824,3.815,0,0,0,0,4.493,87.44,1.6404528084,1.64042,6,P-GPS,
99400,2022-08-11 15:37:32,0,0,1.64042,,,1.6404528084,1.64042,0,0,0,0,0,7.642,1.6404528084,1.64042,0,0,0,0,0,223.2, 0.3, 0,0,0,1024,1024,1024,1024,0,0,0,0,230.9,0,0,56,3.824,3.815,0,0,0,0,4.493,87.44,1.6404528084,1.64042,6,P-GPS,
99500,2022-08-11 15:37:32,0,0,1.64042,,,1.6404528084,1.64042,0,0,0,0,0,7.642,1.6404528084,1.64042,0,0,0,0,0,223.1, 0.2, 0,0,0,1024,1024,1024,1024,0,0,0,0,230.9,0,0,56,3.824,3.815,0,0,0,0,4.493,87.44,1.6404528084,1.64042,6,P-GPS,
99600,2022-08-11 15:37:33,0,0,1.64042,,,1.6404528084,1.64042,0,0,0,0,0,7.642,1.6404528084,1.64042,0,0,0,0,0,223.2, 0.1, 0,0,0,1024,1024,1024,1024,0,0,0,0,230.9,0,0,56,3.824,3.815,0,0,0,0,4.493,87.44,1.6404528084,1.64042,6,P-GPS,
99700,2022-08-11 15:37:33,0,0,1.64042,,,1.6404528084,1.64042,0,0,0,0,0,7.642,1.6404528084,1.64042,0,0,0,0,0,223.2, 0.2, 0,0,0,1024,1024,1024,1024,0,0,0,0,230.9,0,0,56,3.824,3.815,0,0,0,0,4.493,87.44,1.6404528084,1.64042,6,P-GPS,
99800,2022-08-11 15:37:33,0,0,1.312336,,,1.3123688084,1.64042,0,0,0,0,0,7.642,1.6404528084,1.64042,0,0,0,0,0,223.2, 0.1, 0,0,0,1024,1024,1024,1024,0,0,0,0,230.9,0,0,56,3.824,3.815,0,0,0,0,4.493,87.44,1.3123688084,1.312336,6,P-GPS,
99900,2022-08-11 15:37:33,0,0,1.312336,,,1.3123688084,1.64042,0,0,0,0,0,7.642,1.6404528084,1.64042,0,0,0,0,0,223.1, 0.1, 0.1,0,0,1024,1024,1024,1024,0,0,0,0,230.9,0,0,56,3.824,3.815,0,0,0,0,4.493,87.44,1.3123688084,1.312336,6,P-GPS,
100000,2022-08-11 15:37:33,0,0,1.312336,,,1.3123688084,1.64042,0,0,0,0,0,7.642,1.6404528084,1.64042,0,0,0,0,0,223.1, 0.1, 0.1,0,0,1024,1024,1024,1024,0,0,0,0,230.9,0,0,56,3.824,3.815,0,0,0,0,4.493,87.44,1.3123688084,1.312336,6,P-GPS,"Sin tarjeta SD"
100100,2022-08-11 15:37:33,0,0,1.312336,,,1.3123688084,1.64042,0,0,0,0,0,7.642,1.6404528084,1.64042,0,0,0,0,0,223.1, 0.2, 0,0,0,1024,1024,1024,1024,0,0,0,0,230.9,0,0,56,3.824,3.815,0,0,0,0,4.493,87.44,1.3123688084,1.312336,6,P-GPS,
100200,2022-08-11 15:37:33,0,0,1.312336,,,1.3123688084,1.64042,0,0,0,0,0,7.642,1.6404528084,1.64042,0,0,0,0,0,223.1, 0.3, 0,0,0,1024,1024,1024,1024,0,0,0,0,230.9,0,0,56,3.824,3.815,0,0,0,0,4.493,87.44,1.3123688084,1.312336,6,P-GPS,
100300,2022-08-11 15:37:33,0,0,1.312336,,,1.3123688084,1.64042,0,0,0,0,0,7.642,1.6404528084,1.64042,0,0,0,0,0,223.2, 0.3, 0.1,0,0,1024,1024,1024,1024,0,0,0,0,230.9,0,0,56,3.824,3.815,0,0,0,0,4.493,87.44,1.3123688084,1.312336,6,P-GPS,
100400,2022-08-11 15:37:33,0,0,1.312336,,,1.3123688084,1.64042,0,0,0,0,0,7.635,1.6404528084,1.64042,0,0,0,0,0,223.2, 0.2, 0.1,0,0,1024,1024,1024,1024,0,0,0,0,230.9,0,0,56,3.821,3.812,0,0,0,0,4.491,87.44,1.3123688084,1.312336,6,P-GPS,
100500,2022-08-11 15:37:33,0,0,1.312336,,,1.3123688084,1.64042,0,0,0,0,0,7.635,1.6404528084,1.64042,0,0,0,0,0,223.2, 0.2, 0.2,0,0,1024,1024,1024,1024,0,0,0,0,230.9,0,0,56,3.821,3.812,0,0,0,0,4.491,87.44,1.3123688084,1.312336,6,P-GPS,
100600,2022-08-11 15:37:34,0,0,1.312336,,,1.3123688084,1.64042,0,0,0,0,0,7.635,1.6404528084,1.64042,0,0,0,0,0,223.2, 0.3, 0.1,0,0,1024,1024,1024,1024,0,0,0,0,230.9,0,0,56,3.821,3.812,0,0,0,0,4.491,87.44,1.3123688084,1.312336,6,P-GPS,
100700,2022-08-11 15:37:34,0,0,1.312336,,,1.3123688084,1.64042,0,0,0,0,0,7.635,1.6404528084,1.64042,0,0,0,0,0,223.2, 0.2, 0.1,0,0,1024,1024,1024,1024,0,0,0,0,230.9,0,0,56,3.821,3.812,0,0,0,0,4.491,87.44,1.3123688084,1.312336,6,P-GPS,
100800,2022-08-11 15:37:34,0,0,1.312336,,,1.3123688084,1.64042,0,0,0,0,0,7.635,1.6404528084,1.64042,0,0,0,0,0,223.2, 0.2, 0.1,0,0,1024,1024,1024,1024,0,0,0,0,230.9,0,0,56,3.821,3.812,0,0,0,0,4.491,87.44,1.3123688084,1.312336,6,P-GPS,
100900,2022-08-11 15:37:34,0,0,1.312336,,,1.3123688084,1.64042,0,0,0,0,0,7.635,1.6404528084,1.64042,0,0,0,0,0,223.1, 0.1, 0.1,0,0,1024,1024,1024,1024,0,0,0,0,230.9,0,0,56,3.821,3.812,0,0,0,0,4.491,87.44,1.3123688084,1.312336,6,P-GPS,
101000,2022-08-11 15:37:34,0,0,1.312336,,,1.3123688084,1.64042,0,0,0,0,0,7.635,1.6404528084,1.64042,0,0,0,0,0,223.2, 0, 0.1,0,0,1024,1024,1024,1024,0,0,0,0,230.9,0,0,56,3.821,3.812,0,0,0,0,4.491,87.44,1.3123688084,1.312336,6,P-GPS,
101100,2022-08-11 15:37:34,0,0,1.312336,,,1.3123688084,1.64042,0,0,0,0,0,7.635,1.6404528084,1.64042,0,0,0,0,0,223.1, 0, 0.1,0,0,1024,1024,1024,1024,0,0,0,0,230.9,0,0,56,3.821,3.812,0,0,0,0,4.491,87.44,1.3123688084,1.312336,6,P-GPS,
101200,2022-08-11 15:37:34,0,0,1.312336,,,1.3123688084,1.64042,0,0,0,0,0,7.635,1.6404528084,1.64042,0,0,0,0,0,223.1, 0, 0,0,0,1024,1024,1024,1024,0,0,0,0,230.9,0,0,56,3.821,3.812,0,0,0,0,4.491,87.44,1.3123688084,1.312336,6,P-GPS,
101300,2022-08-11 15:37:34,0,0,1.312336,,,1.3123688084,1.64042,0,0,0,0,0,7.635,1.6404528084,1.64042,0,0,0,0,0,223.2, 0.1, 0,0,0,1024,1024,1024,1024,0,0,0,0,230.9,0,0,56,3.821,3.812,0,0,0,0,4.491,87.44,1.3123688084,1.312336,6,P-GPS,
101400,2022-08-11 15:37:34,0,0,1.312336,,,1.3123688084,1.64042,0,0,0,0,0,7.629,1.6404528084,1.64042,0,0,0,0,0,223.2, 0.1, 0.1,0,0,1024,1024,1024,1024,0,0,0,0,230.9,0,0,55,3.818,3.809,0,0,0,0,4.502,87.44,1.3123688084,1.312336,6,P-GPS,
101500,2022-08-11 15:37:34,0,0,1.312336,,,1.3123688084,1.64042,0,0,0,0,0,7.629,1.6404528084,1.64042,0,0,0,0,0,223.2, 0, 0,0,0,1024,1024,1024,1024,0,0,0,0,230.9,0,0,55,3.818,3.809,0,0,0,0,4.502,87.44,1.3123688084,1.312336,6,P-GPS,
101600,2022-08-11 15:37:34,0,0,1.312336,,,1.3123688084,1.64042,0,0,0,0,0,7.629,1.6404528084,1.64042,0,0,0,0,0,223.1, 0, 0.1,0,0,1024,1024,1024,1024,0,0,0,0,230.9,0,0,55,3.818,3.809,0,0,0,0,4.502,87.44,1.3123688084,1.312336,6,P-GPS,
101700,2022-08-11 15:37:35,0,0,1.312336,,,1.3123688084,1.64042,0,0,0,0,0,7.629,1.6404528084,1.64042,0,0,0,0,0,223.1, 0.1, 0.2,0,0,1024,1024,1024,1024,0,0,0,0,230.9,0,0,55,3.818,3.809,0,0,0,0,4.502,87.44,1.3123688084,1.312336,6,P-GPS,
101800,2022-08-11 15:37:35,0,0,1.312336,,,1.3123688084,1.64042,0,0,0,0,0,7.629,1.6404528084,1.64042,0,0,0,0,0,223.1, 0.1, 0.2,0,0,1024,1024,1024,1024,0,0,0,0,230.9,0,0,55,3.818,3.809,0,0,0,0,4.502,87.44,1.3123688084,1.312336,6,P-GPS,
101900,2022-08-11 15:37:35,0,0,1.312336,,,1.3123688084,1.64042,0,0,0,0,0,7.629,1.6404528084,1.64042,0,0,0,0,0,223.1, 0, 0.2,0,0,1024,1024,1024,1024,0,0,0,0,230.9,0,0,55,3.818,3.809,0,0,0,0,4.502,87.44,1.3123688084,1.312336,6,P-GPS,
102000,2022-08-11 15:37:35,0,0,1.312336,,,1.3123688084,1.64042,0,0,0,0,0,7.629,1.6404528084,1.64042,0,0,0,0,0,223.1, 0, 0.2,0,0,1024,1024,1024,1024,0,0,0,0,230.9,0,0,55,3.818,3.809,0,0,0,0,4.502,87.44,1.3123688084,1.312336,6,P-GPS,
102100,2022-08-11 15:37:35,0,0,1.312336,,,1.3123688084,1.64042,0,0,0,0,0,7.629,1.6404528084,1.64042,0,0,0,0,0,223.1, 0, 0.1,0,0,1024,1024,1024,1024,0,0,0,0,230.9,0,0,55,3.818,3.809,0,0,0,0,4.502,87.44,1.3123688084,1.312336,6,P-GPS,
102200,2022-08-11 15:37:35,0,0,1.312336,,,1.3123688084,1.64042,0,0,0,0,0,7.629,1.6404528084,1.64042,0,0,0,0,0,223.1, 0, 0.1,0,0,1024,1024,1024,1024,0,0,0,0,230.9,0,0,55,3.818,3.809,0,0,0,0,4.502,87.44,1.3123688084,1.312336,6,P-GPS,
102300,2022-08-11 15:37:35,0,0,1.312336,,,1.3123688084,1.64042,0,0,0,0,0,7.629,1.6404528084,1.64042,0,0,0,0,0,223.1, 0.1, 0.2,0,0,1024,1024,1024,1024,0,0,0,0,230.9,0,0,55,3.818,3.809,0,0,0,0,4.502,87.44,1.3123688084,1.312336,6,P-GPS,
102400,2022-08-11 15:37:35,0,0,1.312336,,,1.3123688084,1.64042,0,0,0,0,0,7.625,1.6404528084,1.64042,0,0,0,0,0,223.1, 0.1, 0.2,0,0,1024,1024,1024,1024,0,0,0,0,230.9,0,0,55,3.816,3.807,0,0,0,0,4.509,87.44,1.3123688084,1.312336,6,P-GPS,
102500,2022-08-11 15:37:35,0,0,1.312336,,,1.3123688084,1.64042,0,0,0,0,0,7.625,1.6404528084,1.64042,0,0,0,0,0,223.1, 0.1, 0.2,0,0,1024,1024,1024,1024,0,0,0,0,230.9,0,0,55,3.816,3.807,0,0,0,0,4.509,87.44,1.3123688084,1.312336,6,P-GPS,
102600,2022-08-11 15:37:35,0,0,1.312336,,,1.3123688084,1.64042,0,0,0,0,0,7.625,1.6404528084,1.64042,0,0,0,0,0,223.1, 0.1, 0.2,0,0,1024,1024,1024,1024,0,0,0,0,230.9,0,0,55,3.816,3.807,0,0,0,0,4.509,87.44,1.3123688084,1.312336,6,P-GPS,
102700,2022-08-11 15:37:36,0,0,1.312336,,,1.3123688084,1.64042,0,0,0,0,0,7.625,1.6404528084,1.64042,0,0,0,0,0,223.1, 0.2, 0.1,0,0,1024,1024,1024,1024,0,0,0,0,230.9,0,0,55,3.816,3.807,0,0,0,0,4.509,87.44,1.3123688084,1.312336,6,P-GPS,
102800,2022-08-11 15:37:36,0,0,1.312336,,,1.3123688084,1.64042,0,0,0,0,0,7.625,1.6404528084,1.64042,0,0,0,0,0,223.1, 0.1, 0.1,0,0,1024,1024,1024,1024,0,0,0,0,230.9,0,0,55,3.816,3.807,0,0,0,0,4.509,87.44,1.3123688084,1.312336,6,P-GPS,
102900,2022-08-11 15:37:36,0,0,1.312336,,,1.3123688084,1.64042,0,0,0,0,0,7.625,1.6404528084,1.64042,0,0,0,0,0,223.1, 0.1, 0.2,0,0,1024,1024,1024,1024,0,0,0,0,230.9,0,0,55,3.816,3.807,0,0,0,0,4.509,87.44,1.3123688084,1.312336,6,P-GPS,
103000,2022-08-11 15:37:36,0,0,1.312336,,,1.3123688084,1.64042,0,0,0,0,0,7.625,1.6404528084,1.64042,0,0,0,0,0,223.1, 0, 0.2,0,0,1024,1024,1024,1024,0,0,0,0,230.9,0,0,55,3.816,3.807,0,0,0,0,4.509,87.44,1.3123688084,1.312336,6,P-GPS,
103100,2022-08-11 15:37:36,0,0,1.312336,,,1.3123688084,1.64042,0,0,0,0,0,7.625,1.6404528084,1.64042,0,0,0,0,0,223.1, 0.1, 0.2,0,0,1024,1024,1024,1024,0,0,0,0,230.9,0,0,55,3.816,3.807,0,0,0,0,4.509,87.44,1.3123688084,1.312336,6,P-GPS,
103200,2022-08-11 15:37:36,0,0,1.312336,,,1.3123688084,1.64042,0,0,0,0,0,7.625,1.6404528084,1.64042,0,0,0,0,0,223.1, 0, 0.3,0,0,1024,1024,1024,1024,0,0,0,0,230.9,0,0,55,3.816,3.807,0,0,0,0,4.509,87.44,1.3123688084,1.312336,6,P-GPS,
103300,2022-08-11 15:37:36,0,0,1.64042,,,1.6404528084,1.64042,0,0,0,0,0,7.625,1.6404528084,1.64042,0,0,0,0,0,223.1, 0, 0.2,0,0,1024,1024,1024,1024,0,0,0,0,230.9,0,0,55,3.816,3.807,0,0,0,0,4.509,87.44,1.6404528084,1.64042,6,P-GPS,
103400,2022-08-11 15:37:36,0,0,1.64042,,,1.6404528084,1.64042,0,0,0,0,0,7.62,1.6404528084,1.64042,0,0,0,0,0,223.1, 0, 0.3,0,0,1024,1024,1024,1024,0,0,0,0,230.9,0,0,55,3.813,3.804,0,0,0,0,4.505,87.44,1.6404528084,1.64042,6,P-GPS,
103500,2022-08-11 15:37:36,0,0,1.64042,,,1.6404528084,1.64042,0,0,0,0,0,7.62,1.6404528084,1.64042,0,0,0,0,0,223.1, 0, 0.4,0,0,1024,1024,1024,1024,0,0,0,0,230.9,0,0,55,3.813,3.804,0,0,0,0,4.505,87.44,1.6404528084,1.64042,6,P-GPS,
103600,2022-08-11 15:37:36,0,0,1.64042,,,1.6404528084,1.64042,0,0,0,0,0,7.62,1.6404528084,1.64042,0,0,0,0,0,223.1, 0, 0.3,0,0,1024,1024,1024,1024,0,0,0,0,230.9,0,0,55,3.813,3.804,0,0,0,0,4.505,87.44,1.6404528084,1.64042,6,P-GPS,
103700,2022-08-11 15:37:37,0,0,1.64042,,,1.6404528084,1.64042,0,0,0,0,0,7.62,1.6404528084,1.64042,0,0,0,0,0,223.1, 0, 0.3,0,0,1024,1024,1024,1024,0,0,0,0,230.9,0,0,55,3.813,3.804,0,0,0,0,4.505,87.44,1.6404528084,1.64042,6,P-GPS,
103800,2022-08-11 15:37:37,0,0,1.64042,,,1.6404528084,1.64042,0,0,0,0,0,7.62,1.6404528084,1.64042,0,0,0,0,0,223.2, 0, 0.3,0,0,1024,1024,1024,1024,0,0,0,0,230.9,0,0,55,3.813,3.804,0,0,0,0,4.505,87.44,1.6404528084,1.64042,6,P-GPS,
103900,2022-08-11 15:37:37,0,0,1.64042,,,1.6404528084,1.64042,0,0,0,0,0,7.62,1.6404528084,1.64042,0,0,0,0,0,223.2, 0.1, 0.4,0,0,1024,1024,1024,1024,0,0,0,0,230.9,0,0,55,3.813,3.804,0,0,0,0,4.505,87.44,1.6404528084,1.64042,6,P-GPS,
104000,2022-08-11 15:37:37,0,0,1.64042,,,1.6404528084,1.64042,0,0,0,0,0,7.62,1.6404528084,1.64042,0,0,0,0,0,223.1, 0.2, 0.4,0,0,1024,1024,1024,1024,0,0,0,0,230.9,0,0,55,3.813,3.804,0,0,0,0,4.505,87.44,1.6404528084,1.64042,6,P-GPS,
104100,2022-08-11 15:37:37,0,0,1.64042,,,1.6404528084,1.64042,0,0,0,0,0,7.62,1.6404528084,1.64042,0,0,0,0,0,223.2, 0.4, 0.5,0,0,1024,1024,1024,1024,0,0,0,0,230.9,0,0,55,3.813,3.804,0,0,0,0,4.505,87.44,1.6404528084,1.64042,6,P-GPS,
104200,2022-08-11 15:37:37,0,0,1.64042,,,1.6404528084,1.64042,0,0,0,0,0,7.62,1.6404528084,1.64042,0,0,0,0,0,223.1, 0.4, 0.6,0,0,1024,1024,1024,1024,0,0,0,0,230.9,0,0,55,3.813,3.804,0,0,0,0,4.505,87.44,1.6404528084,1.64042,6,P-GPS,
104300,2022-08-11 15:37:37,0,0,1.64042,,,1.6404528084,1.64042,0,0,0,0,0,7.62,1.6404528084,1.64042,0,0,0,0,0,223.1, 0.2, 0.4,0,0,1024,1024,1024,1024,0,0,0,0,230.9,0,0,55,3.813,3.804,0,0,0,0,4.505,87.44,1.6404528084,1.64042,6,P-GPS,
104400,2022-08-11 15:37:37,0,0,1.64042,,,1.6404528084,1.64042,0,0,0,0,0,7.615,1.6404528084,1.64042,0,0,0,0,0,223.1, 0.3, 0.1,0,0,1024,1024,1024,1024,0,0,0,0,230.9,0,0,55,3.811,3.801,0,0,0,0,4.51,87.62,1.6404528084,1.64042,6,P-GPS,
104500,2022-08-11 15:37:37,0,0,1.64042,,,1.6404528084,1.64042,0,0,0,0,0,7.615,1.6404528084,1.64042,0,0,0,0,0,223.1, 0.3, 0.1,0,0,1024,1024,1024,1024,0,0,0,0,230.9,0,0,55,3.811,3.801,0,0,0,0,4.51,87.62,1.6404528084,1.64042,6,P-GPS,
104600,2022-08-11 15:37:37,0,0,1.64042,,,1.6404528084,1.64042,0,0,0,0,0,7.615,1.6404528084,1.64042,0,0,0,0,0,223, 0.2, 0.1,0,0,1024,1024,1024,1024,0,0,0,0,230.9,0,0,55,3.811,3.801,0,0,0,0,4.51,87.62,1.6404528084,1.64042,6,P-GPS,
104700,2022-08-11 15:37:38,0,0,1.64042,,,1.6404528084,1.64042,0,0,0,0,0,7.615,1.6404528084,1.64042,0,0,0,0,0,223, 0.1, 0.1,0,0,1024,1024,1024,1024,0,0,0,0,230.9,0,0,55,3.811,3.801,0,0,0,0,4.51,87.62,1.6404528084,1.64042,6,P-GPS,
104800,2022-08-11 15:37:38,0,0,1.64042,,,1.6404528084,1.64042,0,0,0,0,0,7.615,1.6404528084,1.64042,0,0,0,0,0,223, 0.1, 0.3,0,0,1024,1024,1024,1024,0,0,0,0,230.9,0,0,55,3.811,3.801,0,0,0,0,4.51,87.62,1.6404528084,1.64042,6,P-GPS,
104900,2022-08-11 15:37:38,0,0,1.64042,,,1.6404528084,1.64042,0,0,0,0,0,7.615,1.6404528084,1.64042,0,0,0,0,0,223, 0, 0.1,0,0,1024,1024,1024,1024,0,0,0,0,230.9,0,0,55,3.811,3.801,0,0,0,0,4.51,87.62,1.6404528084,1.64042,6,P-GPS,
105000,2022-08-11 15:37:38,0,0,1.64042,,,1.6404528084,1.64042,0,0,0,0,0,7.615,1.6404528084,1.64042,0,0,0,0,0,223.1, 0.1, 0,0,0,1024,1024,1024,1024,0,0,0,0,230.9,0,0,55,3.811,3.801,0,0,0,0,4.51,87.62,1.6404528084,1.64042,6,P-GPS,
105100,2022-08-11 15:37:38,0,0,1.64042,,,1.6404528084,1.64042,0,0,0,0,0,7.615,1.6404528084,1.64042,0,0,0,0,0,223.1, 0.1, 0.1,0,0,1024,1024,1024,1024,0,0,0,0,230.9,0,0,55,3.811,3.801,0,0,0,0,4.51,87.62,1.6404528084,1.64042,6,P-GPS,
105200,2022-08-11 15:37:38,0,0,1.64042,,,1.6404528084,1.64042,0,0,0,0,0,7.615,1.6404528084,1.64042,0,0,0,0,0,223.1, 0.2, 0.2,0,0,1024,1024,1024,1024,0,0,0,0,230.9,0,0,55,3.811,3.801,0,0,0,0,4.51,87.62,1.6404528084,1.64042,6,P-GPS,
105300,2022-08-11 15:37:38,0,0,1.64042,,,1.6404528084,1.64042,0,0,0,0,0,7.615,1.6404528084,1.64042,0,0,0,0,0,223.1, 0.2, 0.2,0,0,1024,1024,1024,1024,0,0,0,0,230.9,0,0,55,3.811,3.801,0,0,0,0,4.51,87.62,1.6404528084,1.64042,6,P-GPS,
105400,2022-08-11 15:37:38,0,0,1.64042,,,1.6404528084,1.64042,0,0,0,0,0,7.612,1.6404528084,1.64042,0,0,0,0,0,223.1, 0.3, 0.2,0,0,1024,1024,1024,1024,0,0,0,0,230.9,0,0,55,3.809,3.8,0,0,0,0,4.503,87.62,1.6404528084,1.64042,6,P-GPS,
105500,2022-08-11 15:37:38,0,0,1.64042,,,1.6404528084,1.64042,0,0,0,0,0,7.612,1.6404528084,1.64042,0,0,0,0,0,223.1, 0.4, 0.1,0,0,1024,1024,1024,1024,0,0,0,0,230.9,0,0,55,3.809,3.8,0,0,0,0,4.503,87.62,1.6404528084,1.64042,6,P-GPS,
105600,2022-08-11 15:37:39,0,0,1.64042,,,1.6404528084,1.64042,0,0,0,0,0,7.612,1.6404528084,1.64042,0,0,0,0,0,223.1, 0.4, 0,0,0,1024,1024,1024,1024,0,0,0,0,230.9,0,0,55,3.809,3.8,0,0,0,0,4.503,87.62,1.6404528084,1.64042,6,P-GPS,
105700,2022-08-11 15:37:39,0,0,1.64042,,,1.6404528084,1.64042,0,0,0,0,0,7.612,1.6404528084,1.64042,0,0,0,0,0,223.1, 0.4, 0.2,0,0,1024,1024,1024,1024,0,0,0,0,230.9,0,0,55,3.809,3.8,0,0,0,0,4.503,87.62,1.6404528084,1.64042,6,P-GPS,
105800,2022-08-11 15:37:39,0,0,1.968504,,,1.9685368084,1.64042,0,0,0,0,0,7.612,1.9685368084,1.968504,0,0,0,0,0,223.1, 0.3, 0.3,0,0,1024,1024,1024,1024,0,0,0,0,230.9,0,0,55,3.809,3.8,0,0,0,0,4.503,87.62,1.9685368084,1.968504,6,P-GPS,
105900,2022-08-11 15:37:39,0,0,1.968504,,,1.9685368084,1.64042,0,0,0,0,0,7.612,1.9685368084,1.968504,0,0,0,0,0,223.1, 0.2, 0.1,0,0,1024,1024,1024,1024,0,0,0,0,230.9,0,0,55,3.809,3.8,0,0,0,0,4.503,87.62,1.9685368084,1.968504,6,P-GPS,
106000,2022-08-11 15:37:39,0,0,1.968504,,,1.9685368084,1.64042,0,0,0,0,0,7.612,1.9685368084,1.968504,0,0,0,0,0,223.1, 0.2, 0,0,0,1024,1024,1024,1024,0,0,0,0,230.9,0,0,55,3.809,3.8,0,0,0,0,4.503,87.62,1.9685368084,1.968504,6,P-GPS,
106100,2022-08-11 15:37:39,0,0,1.968504,,,1.9685368084,1.64042,0,0,0,0,0,7.612,1.9685368084,1.968504,0,0,0,0,0,223.1, 0.4, 0.1,0,0,1024,1024,1024,1024,0,0,0,0,230.9,0,0,55,3.809,3.8,0,0,0,0,4.503,87.62,1.9685368084,1.968504,6,P-GPS,
106200,2022-08-11 15:37:39,0,0,1.968504,,,1.9685368084,1.64042,0,0,0,0,0,7.612,1.9685368084,1.968504,0,0,0,0,0,223.1, 0.2, 0,0,0,1024,1024,1024,1024,0,0,0,0,230.9,0,0,55,3.809,3.8,0,0,0,0,4.503,87.62,1.9685368084,1.968504,6,P-GPS,
106300,2022-08-11 15:37:39,0,0,1.968504,,,1.9685368084,1.64042,0,0,0,0,0,7.612,1.9685368084,1.968504,0,0,0,0,0,223.1, 0.1, 0.1,0,0,1024,1024,1024,1024,0,0,0,0,230.9,0,0,55,3.809,3.8,0,0,0,0,4.503,87.62,1.9685368084,1.968504,6,P-GPS,
106400,2022-08-11 15:37:39,0,0,1.968504,,,1.9685368084,1.64042,0,0,0,0,0,7.607,1.9685368084,1.968504,0,0,0,0,0,223.1, 0.2, 0.5,0,0,1024,1024,1024,1024,0,0,0,0,230.9,0,0,55,3.808,3.798,0,0,0,0,4.502,87.62,1.9685368084,1.968504,6,P-GPS,
106500,2022-08-11 15:37:39,0,0,1.968504,,,1.9685368084,1.64042,0,0,0,0,0,7.607,1.9685368084,1.968504,0,0,0,0,0,223.1, 0.2, 0.5,0,0,1024,1024,1024,1024,0,0,0,0,230.9,0,0,55,3.808,3.798,0,0,0,0,4.502,87.62,1.9685368084,1.968504,6,P-GPS,
106600,2022-08-11 15:37:40,0,0,1.968504,,,1.9685368084,1.64042,0,0,0,0,0,7.607,1.9685368084,1.968504,0,0,0,0,0,223.1, 0.1, 0.3,0,0,1024,1024,1024,1024,0,0,0,0,230.9,0,0,55,3.808,3.798,0,0,0,0,4.502,87.62,1.9685368084,1.968504,6,P-GPS,
106700,2022-08-11 15:37:40,0,0,1.968504,,,1.9685368084,1.64042,0,0,0,0,0,7.607,1.9685368084,1.968504,0,0,0,0,0,223.1, 0, 0.3,0,0,1024,1024,1024,1024,0,0,0,0,230.9,0,0,55,3.808,3.798,0,0,0,0,4.502,87.62,1.9685368084,1.968504,6,P-GPS,
106800,2022-08-11 15:37:40,0,0,1.968504,,,1.9685368084,1.64042,0,0,0,0,0,7.607,1.9685368084,1.968504,0,0,0,0,0,223.1, 0, 0.4,0,0,1024,1024,1024,1024,0,0,0,0,230.9,0,0,55,3.808,3.798,0,0,0,0,4.502,87.62,1.9685368084,1.968504,6,P-GPS,
106900,2022-08-11 15:37:40,0,0,1.968504,,,1.9685368084,1.64042,0,0,0,0,0,7.607,1.9685368084,1.968504,0,0,0,0,0,223.1, 0, 0.4,0,0,1024,1024,1024,1024,0,0,0,0,230.9,0,0,55,3.808,3.798,0,0,0,0,4.502,87.62,1.9685368084,1.968504,6,P-GPS,
107000,2022-08-11 15:37:40,0,0,1.968504,,,1.9685368084,1.64042,0,0,0,0,0,7.607,1.9685368084,1.968504,0,0,0,0,0,223.1, 0, 0.4,0,0,1024,1024,1024,1024,0,0,0,0,230.9,0,0,55,3.808,3.798,0,0,0,0,4.502,87.62,1.9685368084,1.968504,6,P-GPS,
107100,2022-08-11 15:37:40,0,0,1.968504,,,1.9685368084,1.64042,0,0,0,0,0,7.607,1.9685368084,1.968504,0,0,0,0,0,223.2, 0.1, 0.3,0,0,1024,1024,1024,1024,0,0,0,0,230.9,0,0,55,3.808,3.798,0,0,0,0,4.502,87.62,1.9685368084,1.968504,6,P-GPS,
107200,2022-08-11 15:37:40,0,0,1.968504,,,1.9685368084,1.64042,0,0,0,0,0,7.607,1.9685368084,1.968504,0,0,0,0,0,223.2, 0.2, 0.1,0,0,1024,1024,1024,1024,0,0,0,0,230.9,0,0,55,3.808,3.798,0,0,0,0,4.502,87.62,1.9685368084,1.968504,6,P-GPS,
107300,2022-08-11 15:37:40,0,0,1.968504,,,1.9685368084,1.64042,0,0,0,0,0,7.607,1.9685368084,1.968504,0,0,0,0,0,223.2, 0.3, 0.1,0,0,1024,1024,1024,1024,0,0,0,0,230.9,0,0,55,3.808,3.798,0,0,0,0,4.502,87.62,1.9685368084,1.968504,6,P-GPS,
107400,2022-08-11 15:37:40,0,0,1.968504,,,1.9685368084,1.64042,0,0,0,0,0,7.607,1.9685368084,1.968504,0,0,0,0,0,223.2, 0.3, 0.1,0,0,1024,1024,1024,1024,0,0,0,0,230.9,0,0,55,3.808,3.798,0,0,0,0,4.502,87.62,1.9685368084,1.968504,6,P-GPS,
107500,2022-08-11 15:37:40,0,0,1.968504,,,1.9685368084,1.64042,0,0,0,0,0,7.604,1.9685368084,1.968504,0,0,0,0,0,223.2, 0.2, 0.3,0,0,1024,1024,1024,1024,0,0,0,0,230.9,0,0,55,3.807,3.797,0,0,0,0,4.518,87.62,1.9685368084,1.968504,6,P-GPS,
107600,2022-08-11 15:37:40,0,0,1.968504,,,1.9685368084,1.64042,0,0,0,0,0,7.604,1.9685368084,1.968504,0,0,0,0,0,223.2, 0.1, 0.3,0,0,1024,1024,1024,1024,0,0,0,0,230.9,0,0,55,3.807,3.797,0,0,0,0,4.518,87.62,1.9685368084,1.968504,6,P-GPS,
107700,2022-08-11 15:37:41,0,0,1.968504,,,1.9685368084,1.64042,0,0,0,0,0,7.604,1.9685368084,1.968504,0,0,0,0,0,223.2, 0.1, 0.2,0,0,1024,1024,1024,1024,0,0,0,0,230.9,0,0,55,3.807,3.797,0,0,0,0,4.518,87.62,1.9685368084,1.968504,6,P-GPS,
107800,2022-08-11 15:37:41,0,0,1.968504,,,1.9685368084,1.64042,0,0,0,0,0,7.604,1.9685368084,1.968504,0,0,0,0,0,223.2, 0.1, 0.2,0,0,1024,1024,1024,1024,0,0,0,0,230.9,0,0,55,3.807,3.797,0,0,0,0,4.518,87.62,1.9685368084,1.968504,6,P-GPS,
107900,2022-08-11 15:37:41,0,0,1.968504,,,1.9685368084,1.64042,0,0,0,0,0,7.604,1.9685368084,1.968504,0,0,0,0,0,223.2, 0.1, 0.3,0,0,1024,1024,1024,1024,0,0,0,0,230.9,0,0,55,3.807,3.797,0,0,0,0,4.518,87.62,1.9685368084,1.968504,6,P-GPS,
108000,2022-08-11 15:37:41,0,0,1.968504,,,1.9685368084,1.64042,0,0,0,0,0,7.604,1.9685368084,1.968504,0,0,0,0,0,223.2, 0.2, 0.4,0,0,1024,1024,1024,1024,0,0,0,0,230.9,0,0,55,3.807,3.797,0,0,0,0,4.518,87.62,1.9685368084,1.968504,6,P-GPS,
108100,2022-08-11 15:37:41,0,0,1.968504,,,1.9685368084,1.64042,0,0,0,0,0,7.604,1.9685368084,1.968504,0,0,0,0,0,223.1, 0.2, 0.4,0,0,1024,1024,1024,1024,0,0,0,0,230.9,0,0,55,3.807,3.797,0,0,0,0,4.518,87.62,1.9685368084,1.968504,6,P-GPS,
108200,2022-08-11 15:37:41,0,0,1.968504,,,1.9685368084,1.64042,0,0,0,0,0,7.604,1.9685368084,1.968504,0,0,0,0,0,223.1, 0.2, 0.4,0,0,1024,1024,1024,1024,0,0,0,0,230.9,0,0,55,3.807,3.797,0,0,0,0,4.518,87.62,1.9685368084,1.968504,6,P-GPS,
108300,2022-08-11 15:37:41,0,0,1.968504,,,1.9685368084,1.64042,0,0,0,0,0,7.604,1.9685368084,1.968504,0,0,0,0,0,223.1, 0.1, 0.5,0,0,1024,1024,1024,1024,0,0,0,0,230.9,0,0,55,3.807,3.797,0,0,0,0,4.518,87.62,1.9685368084,1.968504,6,P-GPS,
108400,2022-08-11 15:37:41,0,0,1.968504,,,1.9685368084,1.64042,0,0,0,0,0,7.604,1.9685368084,1.968504,0,0,0,0,0,223.1, 0, 0.4,0,0,1024,1024,1024,1024,0,0,0,0,230.9,0,0,55,3.807,3.797,0,0,0,0,4.518,87.62,1.9685368084,1.968504,6,P-GPS,
108500,2022-08-11 15:37:41,0,0,1.968504,,,1.9685368084,1.64042,0,0,0,0,0,7.602,1.9685368084,1.968504,0,0,0,0,0,223.1, 0, 0.4,0,0,1024,1024,1024,1024,0,0,0,0,230.9,0,0,55,3.805,3.795,0,0,0,0,4.511,87.8,1.9685368084,1.968504,6,P-GPS,
108600,2022-08-11 15:37:41,0,0,1.968504,,,1.9685368084,1.64042,0,0,0,0,0,7.602,1.9685368084,1.968504,0,0,0,0,0,223.1, 0, 0.4,0,0,1024,1024,1024,1024,0,0,0,0,230.9,0,0,55,3.805,3.795,0,0,0,0,4.511,87.8,1.9685368084,1.968504,6,P-GPS,
108700,2022-08-11 15:37:42,0,0,1.968504,,,1.9685368084,1.64042,0,0,0,0,0,7.602,1.9685368084,1.968504,0,0,0,0,0,223.1, 0, 0.3,0,0,1024,1024,1024,1024,0,0,0,0,230.9,0,0,55,3.805,3.795,0,0,0,0,4.511,87.8,1.9685368084,1.968504,6,P-GPS,
108800,2022-08-11 15:37:42,0,0,1.968504,,,1.9685368084,1.64042,0,0,0,0,0,7.602,1.9685368084,1.968504,0,0,0,0,0,223, 0, 0.3,0,0,1024,1024,1024,1024,0,0,0,0,230.9,0,0,55,3.805,3.795,0,0,0,0,4.511,87.8,1.9685368084,1.968504,6,P-GPS,
108900,2022-08-11 15:37:42,0,0,1.968504,,,1.9685368084,1.64042,0,0,0,0,0,7.602,1.9685368084,1.968504,0,0,0,0,0,223, 0, 0.2,0,0,1024,1024,1024,1024,0,0,0,0,230.9,0,0,55,3.805,3.795,0,0,0,0,4.511,87.8,1.9685368084,1.968504,6,P-GPS,
109000,2022-08-11 15:37:42,0,0,1.968504,,,1.9685368084,1.64042,0,0,0,0,0,7.602,1.9685368084,1.968504,0,0,0,0,0,223, 0, 0.2,0,0,1024,1024,1024,1024,0,0,0,0,230.9,0,0,55,3.805,3.795,0,0,0,0,4.511,87.8,1.9685368084,1.968504,6,P-GPS,
109100,2022-08-11 15:37:42,0,0,1.968504,,,1.9685368084,1.64042,0,0,0,0,0,7.602,1.9685368084,1.968504,0,0,0,0,0,223, 0.1, 0.4,0,0,1024,1024,1024,1024,0,0,0,0,230.9,0,0,55,3.805,3.795,0,0,0,0,4.511,87.8,1.9685368084,1.968504,6,P-GPS,
109200,2022-08-11 15:37:42,0,0,1.968504,,,1.9685368084,1.64042,0,0,0,0,0,7.602,1.9685368084,1.968504,0,0,0,0,0,223, 0.2, 0.3,0,0,1024,1024,1024,1024,0,0,0,0,230.9,0,0,55,3.805,3.795,0,0,0,0,4.511,87.8,1.9685368084,1.968504,6,P-GPS,
109300,2022-08-11 15:37:42,0,0,1.968504,,,1.9685368084,1.64042,0,0,0,0,0,7.602,1.9685368084,1.968504,0,0,0,0,0,223, 0.1, 0.4,0,0,1024,1024,1024,1024,0,0,0,0,230.9,0,0,55,3.805,3.795,0,0,0,0,4.511,87.8,1.9685368084,1.968504,6,P-GPS,
109400,2022-08-11 15:37:42,0,0,1.968504,,,1.9685368084,1.64042,0,0,0,0,0,7.602,1.9685368084,1.968504,0,0,0,0,0,223, 0, 0.3,0,0,1024,1024,1024,1024,0,0,0,0,230.9,0,0,55,3.805,3.795,0,0,0,0,4.511,87.8,1.9685368084,1.968504,6,P-GPS,
109500,2022-08-11 15:37:42,0,0,1.968504,,,1.9685368084,1.64042,0,0,0,0,0,7.597,1.9685368084,1.968504,0,0,0,0,0,223.1, 0, 0.4,0,0,1024,1024,1024,1024,0,0,0,0,230.9,0,0,55,3.802,3.793,0,0,0,0,4.525,87.8,1.9685368084,1.968504,6,P-GPS,
109600,2022-08-11 15:37:42,0,0,1.968504,,,1.9685368084,1.64042,0,0,0,0,0,7.597,1.9685368084,1.968504,0,0,0,0,0,223.1, 0.1, 0.4,0,0,1024,1024,1024,1024,0,0,0,0,230.9,0,0,55,3.802,3.793,0,0,0,0,4.525,87.8,1.9685368084,1.968504,6,P-GPS,
109700,2022-08-11 15:37:43,0,0,1.968504,,,1.9685368084,1.64042,0,0,0,0,0,7.597,1.9685368084,1.968504,0,0,0,0,0,223.1, 0.1, 0.3,0,0,1024,1024,1024,1024,0,0,0,0,230.9,0,0,55,3.802,3.793,0,0,0,0,4.525,87.8,1.9685368084,1.968504,6,P-GPS,
109800,2022-08-11 15:37:43,0,0,1.968504,,,1.9685368084,1.64042,0,0,0,0,0,7.597,1.9685368084,1.968504,0,0,0,0,0,223.2, 0.1, 0.3,0,0,1024,1024,1024,1024,0,0,0,0,230.9,0,0,55,3.802,3.793,0,0,0,0,4.525,87.8,1.9685368084,1.968504,6,P-GPS,
109900,2022-08-11 15:37:43,0,0,1.968504,,,1.9685368084,1.64042,0,0,0,0,0,7.597,1.9685368084,1.968504,0,0,0,0,0,223.2, 0, 0,0,0,1024,1024,1024,1024,0,0,0,0,230.9,0,0,55,3.802,3.793,0,0,0,0,4.525,87.8,1.9685368084,1.968504,6,P-GPS,
110000,2022-08-11 15:37:43,0,0,1.968504,,,1.9685368084,1.64042,0,0,0,0,0,7.597,1.9685368084,1.968504,0,0,0,0,0,223.2, 0, 0,0,0,1024,1024,1024,1024,0,0,0,0,230.9,0,0,55,3.802,3.793,0,0,0,0,4.525,87.8,1.9685368084,1.968504,6,P-GPS,
110100,2022-08-11 15:37:43,0,0,1.968504,,,1.9685368084,1.64042,0,0,0,0,0,7.597,1.9685368084,1.968504,0,0,0,0,0,223.2, 0, 0.2,0,0,1024,1024,1024,1024,0,0,0,0,230.9,0,0,55,3.802,3.793,0,0,0,0,4.525,87.8,1.9685368084,1.968504,6,P-GPS,
110200,2022-08-11 15:37:43,0,0,1.968504,,,1.9685368084,1.64042,0,0,0,0,0,7.597,1.9685368084,1.968504,0,0,0,0,0,223.2, 0.1, 0.3,0,0,1024,1024,1024,1024,0,0,0,0,230.9,0,0,55,3.802,3.793,0,0,0,0,4.525,87.8,1.9685368084,1.968504,6,P-GPS,
110300,2022-08-11 15:37:43,0,0,1.968504,,,1.9685368084,1.64042,0,0,0,0,0,7.597,1.9685368084,1.968504,0,0,0,0,0,223.2, 0.4, 0.3,0,0,1024,1024,1024,1024,0,0,0,0,230.9,0,0,55,3.802,3.793,0,0,0,0,4.525,87.8,1.9685368084,1.968504,6,P-GPS,
110400,2022-08-11 15:37:43,0,0,1.968504,,,1.9685368084,1.64042,0,0,0,0,0,7.597,1.9685368084,1.968504,0,0,0,0,0,223.2, 0.3, 0.3,0,0,1024,1024,1024,1024,0,0,0,0,230.9,0,0,55,3.802,3.793,0,0,0,0,4.525,87.8,1.9685368084,1.968504,6,P-GPS,
110500,2022-08-11 15:37:43,0,0,1.968504,,,1.9685368084,1.64042,0,0,0,0,0,7.597,1.9685368084,1.968504,0,0,0,0,0,223.2, 0.3, 0.4,0,0,1024,1024,1024,1024,0,0,0,0,230.9,0,0,55,3.801,3.791,0,0,0,0,4.525,87.8,1.9685368084,1.968504,6,P-GPS,
110600,2022-08-11 15:37:43,0,0,1.968504,,,1.9685368084,1.64042,0,0,0,0,0,7.597,1.9685368084,1.968504,0,0,0,0,0,223.2, 0.3, 0.2,0,0,1024,1024,1024,1024,0,0,0,0,230.9,0,0,55,3.801,3.791,0,0,0,0,4.525,87.8,1.9685368084,1.968504,6,P-GPS,
110700,2022-08-11 15:37:44,0,0,1.968504,,,1.9685368084,1.64042,0,0,0,0,0,7.597,1.9685368084,1.968504,0,0,0,0,0,223.2, 0.2, -0.1,0,0,1024,1024,1024,1024,0,0,0,0,230.9,0,0,55,3.801,3.791,0,0,0,0,4.525,87.8,1.9685368084,1.968504,6,P-GPS,
110800,2022-08-11 15:37:44,0,0,1.968504,,,1.9685368084,1.64042,0,0,0,0,0,7.597,1.9685368084,1.968504,0,0,0,0,0,223.1, 0.1, -0.2,0,0,1024,1024,1024,1024,0,0,0,0,230.9,0,0,55,3.801,3.791,0,0,0,0,4.525,87.8,1.9685368084,1.968504,6,P-GPS,
110900,2022-08-11 15:37:44,0,0,1.968504,,,1.9685368084,1.64042,0,0,0,0,0,7.597,1.9685368084,1.968504,0,0,0,0,0,223.2, 0.2, -0.2,0,0,1024,1024,1024,1024,0,0,0,0,230.9,0,0,55,3.801,3.791,0,0,0,0,4.525,87.8,1.9685368084,1.968504,6,P-GPS,
111000,2022-08-11 15:37:44,0,0,1.968504,,,1.9685368084,1.64042,0,0,0,0,0,7.597,1.9685368084,1.968504,0,0,0,0,0,223.1, 0.2, -0.2,0,0,1024,1024,1024,1024,0,0,0,0,230.9,0,0,55,3.801,3.791,0,0,0,0,4.525,87.8,1.9685368084,1.968504,6,P-GPS,
111100,2022-08-11 15:37:44,0,0,1.968504,,,1.9685368084,1.64042,0,0,0,0,0,7.597,1.9685368084,1.968504,0,0,0,0,0,223.1, 0.2, -0.2,0,0,1024,1024,1024,1024,0,0,0,0,230.9,0,0,55,3.801,3.791,0,0,0,0,4.525,87.8,1.9685368084,1.968504,6,P-GPS,
111200,2022-08-11 15:37:44,0,0,1.968504,,,1.9685368084,1.64042,0,0,0,0,0,7.597,1.9685368084,1.968504,0,0,0,0,0,223.1, 0.4, 0.3,0,0,1024,1024,1024,1024,0,0,0,0,230.9,0,0,55,3.801,3.791,0,0,0,0,4.525,87.8,1.9685368084,1.968504,6,P-GPS,
111300,2022-08-11 15:37:44,0,0,1.968504,,,1.9685368084,1.64042,0,0,0,0,0,7.597,1.9685368084,1.968504,0,0,0,0,0,223.1, 0.4, 0.4,0,0,1024,1024,1024,1024,0,0,0,0,230.9,0,0,55,3.801,3.791,0,0,0,0,4.525,87.8,1.9685368084,1.968504,6,P-GPS,
111400,2022-08-11 15:37:44,0,0,1.968504,,,1.9685368084,1.64042,0,0,0,0,0,7.597,1.9685368084,1.968504,0,0,0,0,0,223.1, 0.4, 0.4,0,0,1024,1024,1024,1024,0,0,0,0,230.9,0,0,55,3.801,3.791,0,0,0,0,4.525,87.8,1.9685368084,1.968504,6,P-GPS,
111500,2022-08-11 15:37:44,0,0,1.968504,,,1.9685368084,1.64042,0,0,0,0,0,7.593,1.9685368084,1.968504,0,0,0,0,0,223.1, 0.3, 0.3,0,0,1024,1024,1024,1024,0,0,0,0,230.9,0,0,55,3.8,3.79,0,0,0,0,4.533,87.8,1.9685368084,1.968504,6,P-GPS,
111600,2022-08-11 15:37:45,0,0,1.968504,,,1.9685368084,1.64042,0,0,0,0,0,7.593,1.9685368084,1.968504,0,0,0,0,0,223.1, 0.2, 0.1,0,0,1024,1024,1024,1024,0,0,0,0,230.9,0,0,55,3.8,3.79,0,0,0,0,4.533,87.8,1.9685368084,1.968504,6,P-GPS,
111700,2022-08-11 15:37:45,0,0,1.968504,,,1.9685368084,1.64042,0,0,0,0,0,7.593,1.9685368084,1.968504,0,0,0,0,0,223.1, 0.1, 0,0,0,1024,1024,1024,1024,0,0,0,0,230.9,0,0,55,3.8,3.79,0,0,0,0,4.533,87.8,1.9685368084,1.968504,6,P-GPS,
111800,2022-08-11 15:37:45,0,0,1.968504,,,1.9685368084,1.64042,0,0,0,0,0,7.593,1.9685368084,1.968504,0,0,0,0,0,223.1, 0.1, 0,0,0,1024,1024,1024,1024,0,0,0,0,230.9,0,0,55,3.8,3.79,0,0,0,0,4.533,87.8,1.9685368084,1.968504,6,P-GPS,
111900,2022-08-11 15:37:45,0,0,1.968504,,,1.9685368084,1.64042,0,0,0,0,0,7.593,1.9685368084,1.968504,0,0,0,0,0,223, 0.1, 0,0,0,1024,1024,1024,1024,0,0,0,0,230.9,0,0,55,3.8,3.79,0,0,0,0,4.533,87.8,1.9685368084,1.968504,6,P-GPS,
112000,2022-08-11 15:37:45,0,0,1.968504,,,1.9685368084,1.64042,0,0,0,0,0,7.593,1.9685368084,1.968504,0,0,0,0,0,223, 0, -0.1,0,0,1024,1024,1024,1024,0,0,0,0,230.9,0,0,55,3.8,3.79,0,0,0,0,4.533,87.8,1.9685368084,1.968504,6,P-GPS,
112100,2022-08-11 15:37:45,0,0,1.968504,,,1.9685368084,1.64042,0,0,0,0,0,7.593,1.9685368084,1.968504,0,0,0,0,0,223.1, 0, -0.3,0,0,1024,1024,1024,1024,0,0,0,0,230.9,0,0,55,3.8,3.79,0,0,0,0,4.533,87.8,1.9685368084,1.968504,6,P-GPS,
112200,2022-08-11 15:37:45,0,0,1.968504,,,1.9685368084,1.64042,0,0,0,0,0,7.593,1.9685368084,1.968504,0,0,0,0,0,223.2, 0, 0,0,0,1024,1024,1024,1024,0,0,0,0,230.9,0,0,55,3.8,3.79,0,0,0,0,4.533,87.8,1.9685368084,1.968504,6,P-GPS,
112300,2022-08-11 15:37:45,0,0,1.968504,,,1.9685368084,1.64042,0,0,0,0,0,7.593,1.9685368084,1.968504,0,0,0,0,0,223.2, 0, 0,0,0,1024,1024,1024,1024,0,0,0,0,230.9,0,0,55,3.8,3.79,0,0,0,0,4.533,87.8,1.9685368084,1.968504,6,P-GPS,
112400,2022-08-11 15:37:45,0,0,1.968504,,,1.9685368084,1.64042,0,0,0,0,0,7.593,1.9685368084,1.968504,0,0,0,0,0,223.1, 0, -0.1,0,0,1024,1024,1024,1024,0,0,0,0,230.9,0,0,55,3.8,3.79,0,0,0,0,4.533,87.8,1.9685368084,1.968504,6,P-GPS,
112500,2022-08-11 15:37:45,0,0,1.968504,,,1.9685368084,1.64042,0,0,0,0,0,7.591,1.9685368084,1.968504,0,0,0,0,0,223.2, 0.1, 0,0,0,1024,1024,1024,1024,0,0,0,0,230.9,0,0,55,3.8,3.79,0,0,0,0,4.5,87.8,1.9685368084,1.968504,6,P-GPS,
112600,2022-08-11 15:37:46,0,0,1.968504,,,1.9685368084,1.64042,0,0,0,0,0,7.591,1.9685368084,1.968504,0,0,0,0,0,223.1, 0, 0.2,0,0,1024,1024,1024,1024,0,0,0,0,230.9,0,0,55,3.8,3.79,0,0,0,0,4.5,87.8,1.9685368084,1.968504,6,P-GPS,
112700,2022-08-11 15:37:46,0,0,1.968504,,,1.9685368084,1.64042,0,0,0,0,0,7.591,1.9685368084,1.968504,0,0,0,0,0,223.1, 0, 0.2,0,0,1024,1024,1024,1024,0,0,0,0,230.9,0,0,55,3.8,3.79,0,0,0,0,4.5,87.8,1.9685368084,1.968504,6,P-GPS,
112800,2022-08-11 15:37:46,0,0,1.968504,,,1.9685368084,1.64042,0,0,0,0,0,7.591,1.9685368084,1.968504,0,0,0,0,0,223.1, 0, 0.1,0,0,1024,1024,1024,1024,0,0,0,0,230.9,0,0,55,3.8,3.79,0,0,0,0,4.5,87.8,1.9685368084,1.968504,6,P-GPS,
112900,2022-08-11 15:37:46,0,0,1.968504,,,1.9685368084,1.64042,0,0,0,0,0,7.591,1.9685368084,1.968504,0,0,0,0,0,223, 0, 0.1,0,0,1024,1024,1024,1024,0,0,0,0,230.9,0,0,55,3.8,3.79,0,0,0,0,4.5,87.8,1.9685368084,1.968504,6,P-GPS,
113000,2022-08-11 15:37:46,0,0,1.968504,,,1.9685368084,1.64042,0,0,0,0,0,7.591,1.9685368084,1.968504,0,0,0,0,0,223, 0, 0,0,0,1024,1024,1024,1024,0,0,0,0,230.9,0,0,55,3.8,3.79,0,0,0,0,4.5,87.8,1.9685368084,1.968504,6,P-GPS,
113100,2022-08-11 15:37:46,0,0,1.968504,,,1.9685368084,1.64042,0,0,0,0,0,7.591,1.9685368084,1.968504,0,0,0,0,0,223.1, 0, 0,0,0,1024,1024,1024,1024,0,0,0,0,230.9,0,0,55,3.8,3.79,0,0,0,0,4.5,87.8,1.9685368084,1.968504,6,P-GPS,
113200,2022-08-11 15:37:46,0,0,1.64042,,,1.6404528084,1.64042,0,0,0,0,0,7.591,1.9685368084,1.968504,0,0,0,0,0,223.1, 0, 0.1,0,0,1024,1024,1024,1024,0,0,0,0,230.9,0,0,55,3.8,3.79,0,0,0,0,4.5,87.8,1.6404528084,1.64042,6,P-GPS,
113300,2022-08-11 15:37:46,0,0,1.64042,,,1.6404528084,1.64042,0,0,0,0,0,7.591,1.9685368084,1.968504,0,0,0,0,0,223.1, 0, 0,0,0,1024,1024,1024,1024,0,0,0,0,230.9,0,0,55,3.8,3.79,0,0,0,0,4.5,87.8,1.6404528084,1.64042,6,P-GPS,
113400,2022-08-11 15:37:46,0,0,1.64042,,,1.6404528084,1.64042,0,0,0,0,0,7.591,1.9685368084,1.968504,0,0,0,0,0,223.1, 0, 0.1,0,0,1024,1024,1024,1024,0,0,0,0,230.9,0,0,55,3.8,3.79,0,0,0,0,4.5,87.8,1.6404528084,1.64042,6,P-GPS,
113500,2022-08-11 15:37:46,0,0,1.64042,,,1.6404528084,1.64042,0,0,0,0,0,7.591,1.9685368084,1.968504,0,0,0,0,0,223.1, 0, 0.3,0,0,1024,1024,1024,1024,0,0,0,0,230.9,0,0,55,3.797,3.788,0,0,0,0,4.5,87.8,1.6404528084,1.64042,6,P-GPS,
113600,2022-08-11 15:37:46,0,0,1.64042,,,1.6404528084,1.64042,0,0,0,0,0,7.591,1.9685368084,1.968504,0,0,0,0,0,223.1, 0, 0.3,0,0,1024,1024,1024,1024,0,0,0,0,230.9,0,0,55,3.797,3.788,0,0,0,0,4.5,87.8,1.6404528084,1.64042,6,P-GPS,
113700,2022-08-11 15:37:47,0,0,1.64042,,,1.6404528084,1.64042,0,0,0,0,0,7.591,1.9685368084,1.968504,0,0,0,0,0,223, -0.1, 0.3,0,0,1024,1024,1024,1024,0,0,0,0,230.9,0,0,55,3.797,3.788,0,0,0,0,4.5,87.8,1.6404528084,1.64042,6,P-GPS,
113800,2022-08-11 15:37:47,0,0,1.64042,,,1.6404528084,1.64042,0,0,0,0,0,7.591,1.9685368084,1.968504,0,0,0,0,0,223, -0.1, 0.4,0,0,1024,1024,1024,1024,0,0,0,0,230.9,0,0,55,3.797,3.788,0,0,0,0,4.5,87.8,1.6404528084,1.64042,6,P-GPS,
113900,2022-08-11 15:37:47,0,0,1.64042,,,1.6404528084,1.64042,0,0,0,0,0,7.591,1.9685368084,1.968504,0,0,0,0,0,223, 0, 0.3,0,0,1024,1024,1024,1024,0,0,0,0,230.9,0,0,55,3.797,3.788,0,0,0,0,4.5,87.8,1.6404528084,1.64042,6,P-GPS,
114000,2022-08-11 15:37:47,0,0,1.64042,,,1.6404528084,1.64042,0,0,0,0,0,7.591,1.9685368084,1.968504,0,0,0,0,0,222.9, 0.1, 0,0,0,1024,1024,1024,1024,0,0,0,0,230.9,0,0,55,3.797,3.788,0,0,0,0,4.5,87.8,1.6404528084,1.64042,6,P-GPS,
114100,2022-08-11 15:37:47,0,0,1.64042,,,1.6404528084,1.64042,0,0,0,0,0,7.591,1.9685368084,1.968504,0,0,0,0,0,222.9, 0.2, 0,0,0,1024,1024,1024,1024,0,0,0,0,230.9,0,0,55,3.797,3.788,0,0,0,0,4.5,87.8,1.6404528084,1.64042,6,P-GPS,
114200,2022-08-11 15:37:47,0,0,1.64042,,,1.6404528084,1.64042,0,0,0,0,0,7.591,1.9685368084,1.968504,0,0,0,0,0,222.9, 0.3, 0,0,0,1024,1024,1024,1024,0,0,0,0,230.9,0,0,55,3.797,3.788,0,0,0,0,4.5,87.8,1.6404528084,1.64042,6,P-GPS,
114300,2022-08-11 15:37:47,0,0,1.64042,,,1.6404528084,1.64042,0,0,0,0,0,7.591,1.9685368084,1.968504,0,0,0,0,0,223, 0.4, 0.2,0,0,1024,1024,1024,1024,0,0,0,0,230.9,0,0,55,3.797,3.788,0,0,0,0,4.5,87.8,1.6404528084,1.64042,6,P-GPS,
114400,2022-08-11 15:37:47,0,0,1.64042,,,1.6404528084,1.64042,0,0,0,0,0,7.591,1.9685368084,1.968504,0,0,0,0,0,223, 0.3, 0.4,0,0,1024,1024,1024,1024,0,0,0,0,230.9,0,0,55,3.797,3.788,0,0,0,0,4.5,87.8,1.6404528084,1.64042,6,P-GPS,
114500,2022-08-11 15:37:47,0,0,1.64042,,,1.6404528084,1.64042,0,0,0,0,0,7.587,1.9685368084,1.968504,0,0,0,0,0,223.1, 0.4, 0.5,0,0,1024,1024,1024,1024,0,0,0,0,230.9,0,0,55,3.796,3.786,0,0,0,0,4.508,87.8,1.6404528084,1.64042,6,P-GPS,
114600,2022-08-11 15:37:47,0,0,1.64042,,,1.6404528084,1.64042,0,0,0,0,0,7.587,1.9685368084,1.968504,0,0,0,0,0,223.1, 0.4, 0.7,0,0,1024,1024,1024,1024,0,0,0,0,230.9,0,0,55,3.796,3.786,0,0,0,0,4.508,87.8,1.6404528084,1.64042,6,P-GPS,
114700,2022-08-11 15:37:48,0,0,1.64042,,,1.6404528084,1.64042,0,0,0,0,0,7.587,1.9685368084,1.968504,0,0,0,0,0,223.1, 0.5, 0.6,0,0,1024,1024,1024,1024,0,0,0,0,230.9,0,0,55,3.796,3.786,0,0,0,0,4.508,87.8,1.6404528084,1.64042,6,P-GPS,
114800,2022-08-11 15:37:48,0,0,1.64042,,,1.6404528084,1.64042,0,0,0,0,0,7.587,1.9685368084,1.968504,0,0,0,0,0,223.1, 0.4, 0.6,0,0,1024,1024,1024,1024,0,0,0,0,230.9,0,0,55,3.796,3.786,0,0,0,0,4.508,87.8,1.6404528084,1.64042,6,P-GPS,
114900,2022-08-11 15:37:48,0,0,1.64042,,,1.6404528084,1.64042,0,0,0,0,0,7.587,1.9685368084,1.968504,0,0,0,0,0,223.2, 0.2, 0.5,0,0,1024,1024,1024,1024,0,0,0,0,230.9,0,0,55,3.796,3.786,0,0,0,0,4.508,87.8,1.6404528084,1.64042,6,P-GPS,
115000,2022-08-11 15:37:48,0,0,1.64042,,,1.6404528084,1.64042,0,0,0,0,0,7.587,1.9685368084,1.968504,0,0,0,0,0,223.2, 0.2, 0.6,0,0,1024,1024,1024,1024,0,0,0,0,230.9,0,0,55,3.796,3.786,0,0,0,0,4.508,87.8,1.6404528084,1.64042,6,P-GPS,
115100,2022-08-11 15:37:48,0,0,1.64042,,,1.6404528084,1.64042,0,0,0,0,0,7.587,1.9685368084,1.968504,0,0,0,0,0,223.1, 0.2, 0.6,0,0,1024,1024,1024,1024,0,0,0,0,230.9,0,0,55,3.796,3.786,0,0,0,0,4.508,87.8,1.6404528084,1.64042,6,P-GPS,
115200,2022-08-11 15:37:48,0,0,1.64042,,,1.6404528084,1.64042,0,0,0,0,0,7.587,1.9685368084,1.968504,0,0,0,0,0,223.1, 0.1, 0.6,0,0,1024,1024,1024,1024,0,0,0,0,230.9,0,0,55,3.796,3.786,0,0,0,0,4.508,87.8,1.6404528084,1.64042,6,P-GPS,
115300,2022-08-11 15:37:48,0,0,1.64042,,,1.6404528084,1.64042,0,0,0,0,0,7.587,1.9685368084,1.968504,0,0,0,0,0,223.1, 0.1, 0.6,0,0,1024,1024,1024,1024,0,0,0,0,230.9,0,0,55,3.796,3.786,0,0,0,0,4.508,87.8,1.6404528084,1.64042,6,P-GPS,
115400,2022-08-11 15:37:48,0,0,1.64042,,,1.6404528084,1.64042,0,0,0,0,0,7.587,1.9685368084,1.968504,0,0,0,0,0,223.2, 0.1, 0.7,0,0,1024,1024,1024,1024,0,0,0,0,230.9,0,0,55,3.796,3.786,0,0,0,0,4.508,87.8,1.6404528084,1.64042,6,P-GPS,
115500,2022-08-11 15:37:48,0,0,1.64042,,,1.6404528084,1.64042,0,0,0,0,0,7.584,1.9685368084,1.968504,0,0,0,0,0,223.1, 0.3, 0.7,0,0,1024,1024,1024,1024,0,0,0,0,230.9,0,0,55,3.794,3.785,0,0,0,0,4.526,87.98,1.6404528084,1.64042,6,P-GPS,
115600,2022-08-11 15:37:48,0,0,1.64042,,,1.6404528084,1.64042,0,0,0,0,0,7.584,1.9685368084,1.968504,0,0,0,0,0,223.1, 0.2, 0.6,0,0,1024,1024,1024,1024,0,0,0,0,230.9,0,0,55,3.794,3.785,0,0,0,0,4.526,87.98,1.6404528084,1.64042,6,P-GPS,
115700,2022-08-11 15:37:49,0,0,1.64042,,,1.6404528084,1.64042,0,0,0,0,0,7.584,1.9685368084,1.968504,0,0,0,0,0,223.1, 0.3, 0.4,0,0,1024,1024,1024,1024,0,0,0,0,230.9,0,0,55,3.794,3.785,0,0,0,0,4.526,87.98,1.6404528084,1.64042,6,P-GPS,
115800,2022-08-11 15:37:49,0,0,1.64042,,,1.6404528084,1.64042,0,0,0,0,0,7.584,1.9685368084,1.968504,0,0,0,0,0,223.1, 0.4, 0.2,0,0,1024,1024,1024,1024,0,0,0,0,230.9,0,0,55,3.794,3.785,0,0,0,0,4.526,87.98,1.6404528084,1.64042,6,P-GPS,
115900,2022-08-11 15:37:49,0,0,1.64042,,,1.6404528084,1.64042,0,0,0,0,0,7.584,1.9685368084,1.968504,0,0,0,0,0,223.1, 0.5, 0.1,0,0,1024,1024,1024,1024,0,0,0,0,230.9,0,0,55,3.794,3.785,0,0,0,0,4.526,87.98,1.6404528084,1.64042,6,P-GPS,
116000,2022-08-11 15:37:49,0,0,1.64042,,,1.6404528084,1.64042,0,0,0,0,0,7.584,1.9685368084,1.968504,0,0,0,0,0,223.2, 0.6, 0.4,0,0,1024,1024,1024,1024,0,0,0,0,230.9,0,0,55,3.794,3.785,0,0,0,0,4.526,87.98,1.6404528084,1.64042,6,P-GPS,
