time(millisecond),datetime(utc),latitude,longitude,height_above_takeoff(feet),height_above_ground_at_drone_location(feet),ground_elevation_at_drone_location(feet),altitude_above_seaLevel(feet),height_sonar(feet),speed(mph),distance(feet),mileage(feet),satellites,gpslevel,voltage(v),max_altitude(feet),max_ascent(feet),max_speed(mph),max_distance(feet), xSpeed(mph), ySpeed(mph), zSpeed(mph), compass_heading(degrees), pitch(degrees), roll(degrees),isPhoto,isVideo,rc_elevator,rc_aileron,rc_throttle,rc_rudder,rc_elevator(percent),rc_aileron(percent),rc_throttle(percent),rc_rudder(percent),gimbal_heading(degrees),gimbal_pitch(degrees),gimbal_roll(degrees),battery_percent,voltageCell1,voltageCell2,voltageCell3,voltageCell4,voltageCell5,voltageCell6,current(A),battery_temperature(f),altitude(feet),ascent(feet),flycStateRaw,flycState,message
216300,2022-08-12 04:48:18,0,0,0,,,3.28084E-5,0.656168,0,0,0,0,0,0,3.28084E-5,0,0,0,0,0,0,26.1, 2.8, -0.2,0,0,364,364,364,1684,-100,-100,-100,100,28.9,0,0,84,4.17,4.162,0,0,0,0,0,92.48,3.28084E-5,0,41,Motors_Started,"Baja velocidad de la tarjeta SD. Puede afectar a su uso normal. Sustituye la tarjeta SD (Code: 10028). Sin señal GPS. La aeronave no puede hacer vuelo estacionario. Vuela con cuidado (Code: 30008). Baja velocidad de la tarjeta SD. Puede afectar a su "
216400,2022-08-12 04:48:18,0,0,0,,,3.28084E-5,0.656168,0,0,0,0,0,0,3.28084E-5,0,0,0,0,0,0,26.1, 2.8, -0.2,0,0,364,364,364,1684,-100,-100,-100,100,28.9,0,0,84,4.17,4.162,0,0,0,0,0,92.48,3.28084E-5,0,41,Motors_Started,
216500,2022-08-12 04:48:18,0,0,0,,,3.28084E-5,0.328084,0,0,0,0,0,0,3.28084E-5,0,0,0,0,0,0,26.1, 2.8, -0.2,0,0,364,364,364,1684,-100,-100,-100,100,28.9,0,0,84,4.17,4.162,0,0,0,0,0,92.48,3.28084E-5,0,41,Motors_Started,
216600,2022-08-12 04:48:19,0,0,0,,,3.28084E-5,0.328084,0,0,0,0,0,0,3.28084E-5,0,0,0,0,0,0,26.1, 2.8, -0.1,0,0,364,364,364,1600,-100,-100,-100,87,28.9,0,0,84,4.17,4.162,0,0,0,0,0,92.48,3.28084E-5,0,41,Motors_Started,"Vuela con cuidado (sin GPS)"
216700,2022-08-12 04:48:19,0,0,0,,,3.28084E-5,0.328084,0,0,0,0,0,0,3.28084E-5,0,0,0,0,0,0,26.1, 2.8, -0.2,0,0,985,1024,1024,1024,-6,0,0,0,29,0,0,84,4.17,4.162,0,0,0,0,0,92.48,3.28084E-5,0,41,Motors_Started,
216800,2022-08-12 04:48:19,0,0,0,,,3.28084E-5,0.328084,0,0,0,0,0,0,3.28084E-5,0,0,0,0,0,0,26.1, 2.8, -0.1,0,0,1024,1024,1024,1024,0,0,0,0,29,0,0,84,4.17,4.162,0,0,0,0,0,92.48,3.28084E-5,0,41,Motors_Started,"Setting new Return-To-Home altitude to 40m (131 ft). Data Recorder File Index is 39. Setting new Maximum Flight Altitude to 30m (98 ft)"
216900,2022-08-12 04:48:19,0,0,0,,,3.28084E-5,0.328084,0,0,0,0,0,0,3.28084E-5,0,0,0,0,0,0,26.1, 2.8, -0.1,0,0,1024,1024,1024,1024,0,0,0,0,29,0,0,84,4.17,4.162,0,0,0,0,0,92.48,3.28084E-5,0,41,Motors_Started,
217000,2022-08-12 04:48:19,0,0,0,,,3.28084E-5,0.328084,0,0,0,0,0,0,3.28084E-5,0,0,0,0,0,0,26.1, 2.8, -0.1,0,0,1024,1024,1024,1024,0,0,0,0,29,0,0,84,4.17,4.162,0,0,0,0,0,92.48,3.28084E-5,0,41,Motors_Started,
217100,2022-08-12 04:48:19,0,0,0,,,3.28084E-5,0.328084,0,0,0,0,0,0,3.28084E-5,0,0,0,0,0,0,26.2, 2.9, -0.2,0,0,1024,1024,1491,1024,0,0,71,0,29,0,0,84,4.17,4.162,0,0,0,0,0,92.48,3.28084E-5,0,41,Motors_Started,
217200,2022-08-12 04:48:19,0,0,0,,,3.28084E-5,0.328084,0.223694,0,0,0,0,0,3.28084E-5,0,0,0,0.223694,0,0,26.2, 2.9, -0.2,0,0,1024,1024,1535,1024,0,0,77,0,29,0,0,84,4.17,4.162,0,0,0,0,0,92.48,3.28084E-5,0,41,Motors_Started,
217300,2022-08-12 04:48:19,0,0,0,,,3.28084E-5,0.328084,0.223694,0,0,0,0,0,3.28084E-5,0,0,0,0.223694,0,0,26.2, 2.8, -0.1,0,0,1024,1024,1024,1024,0,0,0,0,29,0,0,84,4.17,4.162,0,0,0,0,0,92.48,3.28084E-5,0,41,Motors_Started,
217400,2022-08-12 04:48:19,0,0,0,,,3.28084E-5,0.328084,0.223694,0,0,0,0,0,3.28084E-5,0,0,0,0.223694,0,0,26.2, 2.8, -0.1,0,0,1024,1024,1024,1024,0,0,0,0,29,0,0,84,4.17,4.162,0,0,0,0,0,92.48,3.28084E-5,0,10,Assisted_Takeoff,
217500,2022-08-12 04:48:19,0,0,0,,,3.28084E-5,0.328084,0.223694,0,0,0,0,8.332,3.28084E-5,0,0,0,0.223694,0,0,26.2, 2.9, -0.1,0,0,1024,1024,1113,1096,0,0,13,11,29,0,0,84,4.158,4.15,0,0,0,0,0.665,92.48,3.28084E-5,0,10,Assisted_Takeoff,
217600,2022-08-12 04:48:20,0,0,0,,,3.28084E-5,0.328084,0.223694,0,0,0,0,8.332,3.28084E-5,0,0,0,0.223694,0,0,26.3, 2.8, -0.1,0,0,1024,1024,1489,1073,0,0,70,7,29,0,0,84,4.158,4.15,0,0,0,0,0.665,92.48,3.28084E-5,0,10,Assisted_Takeoff,
217700,2022-08-12 04:48:20,0,0,0,,,3.28084E-5,0.328084,0.223694,0,0,0,0,8.332,3.28084E-5,0,0,0,0.223694,0,0,26.3, 2.9, -0.1,0,0,1024,1024,1024,1024,0,0,0,0,29,0,0,84,4.158,4.15,0,0,0,0,0.665,92.48,3.28084E-5,0,10,Assisted_Takeoff,
217800,2022-08-12 04:48:20,0,0,0,,,3.28084E-5,0.328084,0.223694,0,0,0,0,8.332,3.28084E-5,0,0,0,0.223694,0,0,26.4, 2.8, -0.1,0,0,1024,1024,1316,1024,0,0,44,0,29,0,0,84,4.158,4.15,0,0,0,0,0.665,92.48,3.28084E-5,0,10,Assisted_Takeoff,
217900,2022-08-12 04:48:20,0,0,0,,,3.28084E-5,0.328084,0.223694,0,0,0,0,8.332,3.28084E-5,0,0,0,0.223694,0,0,26.3, 2.9, -0.1,0,0,1024,1024,1306,1024,0,0,43,0,29,0,0,84,4.158,4.15,0,0,0,0,0.665,92.48,3.28084E-5,0,10,Assisted_Takeoff,
218000,2022-08-12 04:48:20,0,0,0,,,3.28084E-5,0.328084,0.223694,0,0,0,0,8.332,3.28084E-5,0,0,0,0.223694,0,0,26.1, 2.8, -0.1,0,0,1024,1024,1024,1024,0,0,0,0,29,0,0,84,4.158,4.15,0,0,0,0,0.665,92.48,3.28084E-5,0,10,Assisted_Takeoff,
218100,2022-08-12 04:48:20,0,0,0,,,3.28084E-5,0.328084,0.223694,0,0,0,0,8.332,3.28084E-5,0,0,0,0.223694,0,0,26.4, 1.9, -0.1,0,0,1024,1024,1024,1024,0,0,0,0,29,0,0,84,4.158,4.15,0,0,0,0,0.665,92.48,3.28084E-5,0,10,Assisted_Takeoff,
218200,2022-08-12 04:48:20,0,0,0,,,3.28084E-5,0.328084,0,0,0,0,0,8.332,3.28084E-5,0,0,0,0,0,0,27.1, -0.2, -0.1,0,0,1024,1024,1024,1024,0,0,0,0,29.3,0,0,84,4.158,4.15,0,0,0,0,0.665,92.48,3.28084E-5,0,10,Assisted_Takeoff,
218300,2022-08-12 04:48:20,0,0,0,,,3.28084E-5,0.328084,0,0,0,0,0,8.332,3.28084E-5,0,0,0,0,0,0,27.3, 2.9, 0,0,0,1024,1024,1024,1024,0,0,0,0,29.6,0,0,84,4.158,4.15,0,0,0,0,0.665,92.48,3.28084E-5,0,10,Assisted_Takeoff,
218400,2022-08-12 04:48:20,0,0,0,,,3.28084E-5,0.328084,0,0,0,0,0,8.332,3.28084E-5,0,0,0,0,0,0,27.5, 2.9, -0.1,0,0,1024,1024,1244,1024,0,0,33,0,29.9,0,0,84,4.158,4.15,0,0,0,0,0.665,92.48,3.28084E-5,0,10,Assisted_Takeoff,
218500,2022-08-12 04:48:21,0,0,0,,,3.28084E-5,0.328084,0,0,0,0,0,8.3,3.28084E-5,0,0,0,0,0,0,27.4, 2.9, -0.1,0,0,1024,1024,1684,1024,0,0,100,0,30,0,0,84,4.152,4.141,0,0,0,0,1.47,92.48,3.28084E-5,0,10,Assisted_Takeoff,
218600,2022-08-12 04:48:21,0,0,0,,,3.28084E-5,0.328084,0,0,0,0,0,8.3,3.28084E-5,0,0,0,0,0,0,27.4, 2.9, -0.1,0,0,1024,1024,1684,1024,0,0,100,0,30,0,0,84,4.152,4.141,0,0,0,0,1.47,92.48,3.28084E-5,0,10,Assisted_Takeoff,
218700,2022-08-12 04:48:21,0,0,0,,,3.28084E-5,0.328084,0,0,0,0,0,8.3,3.28084E-5,0,0,0,0,0,0,27.5, 2.6, 0,0,0,1024,1024,1684,1024,0,0,100,0,30,0,0,84,4.152,4.141,0,0,0,0,1.47,92.48,3.28084E-5,0,10,Assisted_Takeoff,
218800,2022-08-12 04:48:21,0,0,0,,,3.28084E-5,0.328084,0,0,0,0,0,8.3,3.28084E-5,0,0,0,0,0,0,28.2, -0.4, -0.1,0,0,1024,1024,1134,1024,0,0,17,0,30.3,0,0,84,4.152,4.141,0,0,0,0,1.47,92.48,3.28084E-5,0,10,Assisted_Takeoff,
218900,2022-08-12 04:48:21,0,0,0,,,3.28084E-5,0.328084,0,0,0,0,0,8.3,3.28084E-5,0,0,0,0,0,-0.223694,29, -1.7, 0,0,0,1024,1024,1024,1024,0,0,0,0,31,0,0,84,4.152,4.141,0,0,0,0,1.47,92.48,3.28084E-5,0,10,Assisted_Takeoff,"Baja velocidad de la tarjeta SD. Puede afectar a su uso normal. Sustituye la tarjeta SD (Code: 10028). Señal débil del GPS. Vuelo estacionario inestable. Vuela con cuidado (Code: 30002)"
219000,2022-08-12 04:48:21,0,0,0,,,3.28084E-5,0.328084,0,0,0,0,0,8.3,3.28084E-5,0,0,0,0,0,-0.671082,28.8, -0.4, 0.3,0,0,1024,1024,1024,1024,0,0,0,0,31,0,0,84,4.152,4.141,0,0,0,0,1.47,92.48,3.28084E-5,0,38,Tripod,
219100,2022-08-12 04:48:21,0,0,0,,,3.28084E-5,0.656168,0,0,0,0,0,8.3,3.28084E-5,0,0,0,0,0,-0.671082,28.4, 0.1, -0.5,0,0,1024,1024,1024,1024,0,0,0,0,31,0,0,84,4.152,4.141,0,0,0,0,1.47,92.48,3.28084E-5,0,38,Tripod,
219200,2022-08-12 04:48:21,0,0,0,,,3.28084E-5,0.656168,0,0,0,0,0,8.3,3.28084E-5,0,0,0,0,0,-0.894776,28.2, 0.7, -0.4,0,0,1024,1024,1024,1024,0,0,0,0,31,0,0,84,4.152,4.141,0,0,0,0,1.47,92.48,3.28084E-5,0,38,Tripod,
219300,2022-08-12 04:48:21,0,0,0.328084,,,0.3281168084,0.656168,0,0,0,0,0,8.3,0.3281168084,0.328084,0,0,0,0,-0.894776,28.2, 1.1, 0.2,0,0,1024,1024,1024,1024,0,0,0,0,31,0,0,84,4.152,4.141,0,0,0,0,1.47,92.48,0.3281168084,0.328084,38,Tripod,
219400,2022-08-12 04:48:21,0,0,0.328084,,,0.3281168084,0.984252,0,0,0,0,0,8.3,0.3281168084,0.328084,0,0,0,0,-0.894776,28.3, 0.8, 0.2,0,0,1024,1024,1024,1024,0,0,0,0,31,0,0,84,4.152,4.141,0,0,0,0,1.47,92.48,0.3281168084,0.328084,38,Tripod,
219500,2022-08-12 04:48:22,0,0,0.656168,,,0.6562008084,0.984252,0,0,0,0,0,8.273,0.6562008084,0.656168,0,0,0,0,-0.894776,28.4, 0.6, 0.3,0,0,1024,1024,1024,1024,0,0,0,0,31,0,0,84,4.137,4.125,0,0,0,0,2.125,92.48,0.6562008084,0.656168,38,Tripod,
219600,2022-08-12 04:48:22,0,0,0.656168,,,0.6562008084,0.984252,0,0,0,0,0,8.273,0.6562008084,0.656168,0,0,0,0,-0.894776,28.4, 0.4, 0.5,0,0,1024,1024,1024,1024,0,0,0,0,31,0,0,84,4.137,4.125,0,0,0,0,2.125,92.48,0.6562008084,0.656168,38,Tripod,
219700,2022-08-12 04:48:22,0,0,0.984252,,,0.9842848084,1.312336,0,0,0,0,0,8.273,0.9842848084,0.984252,0,0,0,0,-0.894776,28.4, 0.4, 0.6,0,0,1024,1024,1024,1024,0,0,0,0,31,0,0,84,4.137,4.125,0,0,0,0,2.125,92.48,0.9842848084,0.984252,38,Tripod,
219800,2022-08-12 04:48:22,0,0,0.984252,,,0.9842848084,1.312336,0,0,0,0,0,8.273,0.9842848084,0.984252,0,0,0,0,-0.671082,28.4, 0.6, 0.3,0,0,1024,1024,1024,1024,0,0,0,0,31,0,0,84,4.137,4.125,0,0,0,0,2.125,92.48,0.9842848084,0.984252,38,Tripod,
219900,2022-08-12 04:48:22,0,0,0.984252,,,0.9842848084,1.312336,0,0,0,0,0,8.273,0.9842848084,0.984252,0,0,0,0,-0.447388,28.3, 0.7, 0.1,0,0,1024,1024,1024,1024,0,0,0,0,31,0,0,84,4.137,4.125,0,0,0,0,2.125,92.48,0.9842848084,0.984252,38,Tripod,
220000,2022-08-12 04:48:22,0,0,1.312336,,,1.3123688084,1.64042,0,0,0,0,0,8.273,1.3123688084,1.312336,0,0,0,0,-0.447388,28.3, 0.7, 0,0,0,1024,1024,1024,1024,0,0,0,0,31,0,0,84,4.137,4.125,0,0,0,0,2.125,92.48,1.3123688084,1.312336,38,Tripod,
220100,2022-08-12 04:48:22,0,0,1.312336,,,1.3123688084,1.64042,0,0,0,0,0,8.273,1.3123688084,1.312336,0,0,0,0,-0.223694,28.3, 0.7, 0,0,0,1024,1024,1027,1024,0,0,0,0,31,0,0,84,4.137,4.125,0,0,0,0,2.125,92.48,1.3123688084,1.312336,38,Tripod,
220200,2022-08-12 04:48:22,0,0,1.312336,,,1.3123688084,1.64042,0,0,0,0,0,8.273,1.3123688084,1.312336,0,0,0,0,0,28.4, 0.1, -0.3,0,0,1024,1024,1308,1024,0,0,43,0,31,0,0,84,4.137,4.125,0,0,0,0,2.125,92.48,1.3123688084,1.312336,38,Tripod,"Baja velocidad de la tarjeta SD. Puede afectar a su uso normal. Sustituye la tarjeta SD (Code: 10028)"
220300,2022-08-12 04:48:22,0,0,1.312336,,,1.3123688084,1.64042,0,0,0,0,0,8.273,1.3123688084,1.312336,0,0,0,0,0,28.4, 0.1, -0.2,0,0,1024,1024,1493,1024,0,0,71,0,31,0,0,84,4.137,4.125,0,0,0,0,2.125,92.48,1.3123688084,1.312336,38,Tripod,
220400,2022-08-12 04:48:22,0,0,1.312336,,,1.3123688084,1.64042,0,0,0,0,0,8.273,1.3123688084,1.312336,0,0,0,0,-0.223694,28.5, 0.5, 0,0,0,1024,1024,1493,1024,0,0,71,0,31,0,0,84,4.137,4.125,0,0,0,0,2.125,92.48,1.3123688084,1.312336,38,Tripod,
220500,2022-08-12 04:48:23,0,0,1.64042,,,1.6404528084,1.64042,0,0,0,0,0,8.211,1.6404528084,1.64042,0,0,0,0,-0.671082,28.5, 0.3, 0.4,0,0,1024,1024,1024,1024,0,0,0,0,31,0,0,83,4.114,4.101,0,0,0,0,3.608,92.48,1.6404528084,1.64042,38,Tripod,
220600,2022-08-12 04:48:23,0,0,1.64042,,,1.6404528084,1.968504,0,0,0,0,0,8.211,1.6404528084,1.64042,0,0,0,0,-0.894776,28.4, 0.1, 0.7,0,0,1024,1024,1024,1024,0,0,0,0,31,0,0,83,4.114,4.101,0,0,0,0,3.608,92.48,1.6404528084,1.64042,38,Tripod,
220700,2022-08-12 04:48:23,0,0,1.968504,,,1.9685368084,1.968504,0,0,0,0,0,8.211,1.9685368084,1.968504,0,0,0,0,-0.671082,28.3, 0.2, 0.8,0,0,1524,1024,1024,1024,76,0,0,0,31,0,0,83,4.114,4.101,0,0,0,0,3.608,92.48,1.9685368084,1.968504,38,Tripod,
220800,2022-08-12 04:48:23,0,0,1.968504,,,1.9685368084,1.968504,0,0,0,0,0,8.211,1.9685368084,1.968504,0,0,0,0,-0.447388,28.4, -0.2, 0.9,0,0,1684,1024,1024,1024,100,0,0,0,31,0,0,83,4.114,4.101,0,0,0,0,3.608,92.48,1.9685368084,1.968504,38,Tripod,
220900,2022-08-12 04:48:23,0,0,1.968504,,,1.9685368084,1.968504,0,0,0,0,0,8.211,1.9685368084,1.968504,0,0,0,0,-0.223694,28.4, -7.9, 0.5,0,0,1574,1024,1024,1024,83,0,0,0,31,0,0,83,4.114,4.101,0,0,0,0,3.608,92.48,1.9685368084,1.968504,38,Tripod,
221000,2022-08-12 04:48:23,0,0,1.968504,,,1.9685368084,1.968504,0.223694,0,0,0,0,8.211,1.9685368084,1.968504,0,0,0.223694,0,0,28.4, -11.5, 0.7,0,0,1024,1024,1024,1024,0,0,0,0,31,0,0,83,4.114,4.101,0,0,0,0,3.608,92.48,1.9685368084,1.968504,38,Tripod,
221100,2022-08-12 04:48:23,0,0,1.968504,,,1.9685368084,1.968504,0.4921268,0,0,0,0,8.211,1.9685368084,1.968504,0,0,0.447388,0.223694,0,28.4, -8.5, 0.6,0,0,1024,1024,1024,1024,0,0,0,0,31,0,0,83,4.114,4.101,0,0,0,0,3.608,92.48,1.9685368084,1.968504,38,Tripod,
221200,2022-08-12 04:48:23,0,0,1.968504,,,1.9685368084,1.968504,0.8052984,0,0,0,0,8.211,1.9685368084,1.968504,0,0,0.671082,0.447388,0,28.4, 2.5, 0.1,0,0,1024,1024,1024,1024,0,0,0,0,31,0,0,83,4.114,4.101,0,0,0,0,3.608,92.48,1.9685368084,1.968504,38,Tripod,
221300,2022-08-12 04:48:23,0,0,1.968504,,,1.9685368084,1.968504,0.4921268,0,0,0,0,8.211,1.9685368084,1.968504,0,0,0.447388,0.223694,0,28.3, 4, -0.2,0,0,1024,1024,1383,1024,0,0,54,0,31,0,0,83,4.114,4.101,0,0,0,0,3.608,92.48,1.9685368084,1.968504,38,Tripod,
221400,2022-08-12 04:48:23,0,0,1.968504,,,1.9685368084,1.968504,0.4921268,0,0,0,0,8.211,1.9685368084,1.968504,0,0,0.447388,0.223694,0,28.4, 3.5, 0.1,0,0,1024,1024,1383,1024,0,0,54,0,31,0,0,83,4.114,4.101,0,0,0,0,3.608,92.48,1.9685368084,1.968504,38,Tripod,
221500,2022-08-12 04:48:23,0,0,1.968504,,,1.9685368084,2.296588,0.3131716,0,0,0,0,8.211,1.9685368084,1.968504,0,0,0.223694,0.223694,0,28.5, 2.9, 0.7,0,0,1024,1024,1432,1024,0,0,62,0,31,0,0,83,4.114,4.101,0,0,0,0,3.608,92.48,1.9685368084,1.968504,38,Tripod,
221600,2022-08-12 04:48:24,0,0,2.296588,,,2.2966208084,2.296588,0.223694,0,0,0,0,8.213,2.2966208084,2.296588,0,0,0.223694,0,-0.447388,28.4, 2.2, 0.4,0,0,1024,1024,1024,1024,0,0,0,0,31,0,0,83,4.109,4.096,0,0,0,0,4.122,92.48,2.2966208084,2.296588,38,Tripod,
221700,2022-08-12 04:48:24,0,0,2.296588,,,2.2966208084,2.296588,0,0,0,0,0,8.213,2.2966208084,2.296588,0,0,0,0,-0.671082,28.3, 1.5, 0.3,0,0,1024,1024,1024,1024,0,0,0,0,31,0,0,83,4.109,4.096,0,0,0,0,4.122,92.48,2.2966208084,2.296588,38,Tripod,
221800,2022-08-12 04:48:24,0,0,2.296588,,,2.2966208084,2.296588,0,0,0,0,0,8.213,2.2966208084,2.296588,0,0,0,0,-0.447388,28.3, 1.6, 0.2,0,0,1024,1024,1300,1024,0,0,42,0,31,0,0,83,4.109,4.096,0,0,0,0,4.122,92.48,2.2966208084,2.296588,38,Tripod,
221900,2022-08-12 04:48:24,0,0,2.624672,,,2.6247048084,2.624672,0,0,0,0,0,8.213,2.6247048084,2.624672,0,0,0,0,-0.447388,28.3, 1.4, 0.3,0,0,1024,1024,1024,1024,0,0,0,0,31,0,0,83,4.109,4.096,0,0,0,0,4.122,92.48,2.6247048084,2.624672,38,Tripod,
222000,2022-08-12 04:48:24,0,0,2.624672,,,2.6247048084,2.624672,0,0,0,0,0,8.213,2.6247048084,2.624672,0,0,0,0,-0.671082,28.3, 1, 0.7,0,0,1024,1024,1171,1024,0,0,22,0,31,0,0,83,4.109,4.096,0,0,0,0,4.122,92.48,2.6247048084,2.624672,38,Tripod,
222100,2022-08-12 04:48:24,0,0,2.624672,,,2.6247048084,2.624672,0,0,0,0,0,8.213,2.6247048084,2.624672,0,0,0,0,-0.223694,28.3, 0.6, 0.8,0,0,1024,1024,1450,1024,0,0,65,0,31,0,0,83,4.109,4.096,0,0,0,0,4.122,92.48,2.6247048084,2.624672,38,Tripod,
222200,2022-08-12 04:48:24,0,0,2.624672,,,2.6247048084,2.624672,0,0,0,0,0,8.213,2.6247048084,2.624672,0,0,0,0,-0.223694,28.3, 0.1, 0.2,0,0,1024,1024,1024,1024,0,0,0,0,31,0,0,83,4.109,4.096,0,0,0,0,4.122,92.48,2.6247048084,2.624672,38,Tripod,
222300,2022-08-12 04:48:24,0,0,2.952756,,,2.9527888084,2.952756,0,0,0,0,0,8.213,2.9527888084,2.952756,0,0,0,0,-0.671082,28.3, -0.5, 0.3,0,0,1024,1024,1024,1024,0,0,0,0,31,0,0,83,4.109,4.096,0,0,0,0,4.122,92.48,2.9527888084,2.952756,38,Tripod,
222400,2022-08-12 04:48:24,0,0,2.952756,,,2.9527888084,2.952756,0,0,0,0,0,8.213,2.9527888084,2.952756,0,0,0,0,-0.447388,28.3, 0, 0.1,0,0,1024,1024,1024,1024,0,0,0,0,31,0,0,83,4.109,4.096,0,0,0,0,4.122,92.48,2.9527888084,2.952756,38,Tripod,
222500,2022-08-12 04:48:24,0,0,2.952756,,,2.9527888084,2.952756,0,0,0,0,0,8.213,2.9527888084,2.952756,0,0,0,0,-0.223694,28.3, 0.1, 0,0,0,1024,1024,1590,1024,0,0,86,0,31,0,0,83,4.109,4.096,0,0,0,0,4.122,92.48,2.9527888084,2.952756,38,Tripod,
222600,2022-08-12 04:48:25,0,0,2.952756,,,2.9527888084,2.952756,0,0,0,0,0,8.198,2.9527888084,2.952756,0,0,0,0,-0.447388,28.3, 0.2, -0.2,0,0,1156,1024,1024,1024,20,0,0,0,31,0,0,83,4.116,4.091,0,0,0,0,4.2,92.48,2.9527888084,2.952756,38,Tripod,"Se detectó tarjeta SD de baja velocidad"
222700,2022-08-12 04:48:25,0,0,3.28084,,,3.2808728084,3.28084,0,0,0,0,0,8.198,3.2808728084,3.28084,0,0,0,0,-0.894776,28.3, 0, -0.1,0,0,1684,1024,1024,1024,100,0,0,0,31,0,0,83,4.116,4.091,0,0,0,0,4.2,92.48,3.2808728084,3.28084,38,Tripod,
222800,2022-08-12 04:48:25,0,0,3.28084,,,3.2808728084,3.28084,0,0,0,0,0,8.198,3.2808728084,3.28084,0,0,0,0,-0.894776,28.4, -4, 0.3,0,0,1684,1024,1024,1024,100,0,0,0,31,0,0,83,4.116,4.091,0,0,0,0,4.2,92.48,3.2808728084,3.28084,38,Tripod,
222900,2022-08-12 04:48:25,0,0,3.608924,,,3.6089568084,3.28084,0.223694,0,0,0,0,8.198,3.6089568084,3.608924,0,0,0.223694,0,-0.447388,28.4, -10.3, 0.3,0,0,1219,1024,1024,1024,30,0,0,0,31,0,0,83,4.116,4.091,0,0,0,0,4.2,92.48,3.6089568084,3.608924,38,Tripod,
223000,2022-08-12 04:48:25,0,0,3.608924,,,3.6089568084,3.608924,0.4921268,0,0,0,0,8.198,3.6089568084,3.608924,0,0,0.447388,0.223694,-0.223694,28.4, -11.9, 0.3,0,0,1052,1024,1024,1024,4,0,0,0,31,0,0,83,4.116,4.091,0,0,0,0,4.2,92.48,3.6089568084,3.608924,38,Tripod,
223100,2022-08-12 04:48:25,0,0,3.608924,,,3.6089568084,3.608924,0.7158208,0,0,0,0,8.198,3.6089568084,3.608924,0,0,0.671082,0.223694,-0.223694,28.4, -6.1, 0.2,0,0,1028,1024,1024,1024,1,0,0,0,31,0,0,83,4.116,4.091,0,0,0,0,4.2,92.48,3.6089568084,3.608924,38,Tripod,
223200,2022-08-12 04:48:25,0,0,3.608924,,,3.6089568084,3.608924,1.006623,0,0,0,0,8.198,3.6089568084,3.608924,0,0,0.894776,0.447388,0,28.4, -0.4, 0.2,0,0,1028,1024,1024,1024,1,0,0,0,31,0,0,83,4.116,4.091,0,0,0,0,4.2,92.48,3.6089568084,3.608924,38,Tripod,
223300,2022-08-12 04:48:25,0,0,3.608924,,,3.6089568084,3.608924,0.9171454,0,0,0,0,8.198,3.6089568084,3.608924,0,0,0.894776,0.223694,0,28.4, 3.9, 0.6,0,0,1278,1024,1024,1024,38,0,0,0,31,0,0,83,4.116,4.091,0,0,0,0,4.2,92.48,3.6089568084,3.608924,38,Tripod,
223400,2022-08-12 04:48:25,0,0,3.608924,,,3.6089568084,3.608924,0.7158208,0,0,0,0,8.198,3.6089568084,3.608924,0,0,0.671082,0.223694,0,28.4, 2.7, 1,0,0,1684,1024,1024,1024,100,0,0,0,31,0,0,83,4.116,4.091,0,0,0,0,4.2,92.48,3.6089568084,3.608924,38,Tripod,
223500,2022-08-12 04:48:25,0,0,3.608924,,,3.6089568084,3.608924,0.7158208,0,0,0,0,8.145,3.6089568084,3.608924,0,0,0.671082,0.223694,0,28.4, -5.9, 0.2,0,0,1465,1024,1024,1024,67,0,0,0,31,0,0,83,4.093,4.114,0,0,0,0,4.45,92.66,3.6089568084,3.608924,38,Tripod,
223600,2022-08-12 04:48:26,0,0,3.608924,,,3.6089568084,3.608924,1.006623,0,0,0,0,8.145,3.6089568084,3.608924,0,0,0.894776,0.447388,0,28.3, -9.5, 0.2,0,0,1024,1024,1024,1024,0,0,0,0,31,0,0,83,4.093,4.114,0,0,0,0,4.45,92.66,3.6089568084,3.608924,38,Tripod,
223700,2022-08-12 04:48:26,0,0,3.608924,,,3.6089568084,3.608924,1.2079476,0,0,0,0,8.145,3.6089568084,3.608924,0,0,1.11847,0.447388,0,28.3, -3.7, 0.8,0,0,1024,1024,1024,1024,0,0,0,0,31,0,0,83,4.093,4.114,0,0,0,0,4.45,92.66,3.6089568084,3.608924,38,Tripod,
223800,2022-08-12 04:48:26,0,0,3.608924,,,3.6089568084,3.608924,1.2079476,0,0,0,0,8.145,3.6089568084,3.608924,0,0,1.11847,0.447388,0,28.6, 4.8, 1.1,0,0,1513,1024,1024,1024,74,0,0,0,31,0,0,83,4.093,4.114,0,0,0,0,4.45,92.66,3.6089568084,3.608924,38,Tripod,
223900,2022-08-12 04:48:26,0,0,3.608924,,,3.6089568084,3.608924,1.006623,0,0,0,0,8.145,3.6089568084,3.608924,0,0,0.894776,0.447388,0,28.6, 5.8, 0.6,0,0,1651,1024,1024,1024,95,0,0,0,31,0,0,83,4.093,4.114,0,0,0,0,4.45,92.66,3.6089568084,3.608924,38,Tripod,
224000,2022-08-12 04:48:26,0,0,3.608924,,,3.6089568084,3.608924,0.7158208,0,0,0,0,8.145,3.6089568084,3.608924,0,0,0.671082,0.223694,0,28.5, -1.3, 0.4,0,0,1176,1024,1024,1024,23,0,0,0,31,0,0,83,4.093,4.114,0,0,0,0,4.45,92.66,3.6089568084,3.608924,38,Tripod,
224100,2022-08-12 04:48:26,0,0,3.608924,,,3.6089568084,3.608924,0.8052984,0,0,0,0,8.145,3.6089568084,3.608924,0,0,0.671082,0.447388,0,28.5, -7.3, 0.7,0,0,1176,1024,1024,1024,23,0,0,0,31,0,0,83,4.093,4.114,0,0,0,0,4.45,92.66,3.6089568084,3.608924,38,Tripod,
224200,2022-08-12 04:48:26,0,0,3.608924,,,3.6089568084,3.608924,1.006623,0,0,0,0,8.145,3.6089568084,3.608924,0,0,0.894776,0.447388,0,28.5, -4.9, 0.9,0,0,1024,1024,1024,1024,0,0,0,0,31,0,0,83,4.093,4.114,0,0,0,0,4.45,92.66,3.6089568084,3.608924,38,Tripod,
224300,2022-08-12 04:48:26,0,0,3.608924,,,3.6089568084,3.608924,1.006623,0,0,0,0,8.145,3.6089568084,3.608924,0,0,0.894776,0.447388,0,28.6, 4.5, 0.6,0,0,1024,1024,1024,1024,0,0,0,0,31,0,0,83,4.093,4.114,0,0,0,0,4.45,92.66,3.6089568084,3.608924,38,Tripod,
224400,2022-08-12 04:48:26,0,0,3.608924,,,3.6089568084,3.608924,1.006623,0,0,0,0,8.145,3.6089568084,3.608924,0,0,0.894776,0.447388,0,28.6, 6, 0.5,0,0,1024,1024,1024,1024,0,0,0,0,31,0,0,83,4.093,4.114,0,0,0,0,4.45,92.66,3.6089568084,3.608924,38,Tripod,
224500,2022-08-12 04:48:27,0,0,3.608924,,,3.6089568084,3.608924,0.7158208,0,0,0,0,8.193,3.6089568084,3.608924,0,0,0.671082,0.223694,0,28.5, 5.5, 0.4,0,0,1024,1024,1024,1024,0,0,0,0,31,0,0,83,4.099,4.084,0,0,0,0,4.278,92.66,3.6089568084,3.608924,38,Tripod,
224600,2022-08-12 04:48:27,0,0,3.937008,,,3.9370408084,3.608924,0.4921268,0,0,0,0,8.193,3.9370408084,3.937008,0,0,0.447388,0.223694,0,28.5, 4.7, 0.4,0,0,1060,1024,1024,1024,5,0,0,0,31,0,0,83,4.099,4.084,0,0,0,0,4.278,92.66,3.9370408084,3.937008,38,Tripod,
224700,2022-08-12 04:48:27,0,0,3.937008,,,3.9370408084,3.608924,0.223694,0,0,0,0,8.193,3.9370408084,3.937008,0,0,0.223694,0,0,28.5, 3.6, 0.4,0,0,1024,1024,1024,1024,0,0,0,0,31,0,0,83,4.099,4.084,0,0,0,0,4.278,92.66,3.9370408084,3.937008,38,Tripod,
224800,2022-08-12 04:48:27,0,0,3.608924,,,3.6089568084,3.608924,0,0,0,0,0,8.193,3.9370408084,3.937008,0,0,0,0,0,28.5, 2.2, 0.3,0,0,1024,1024,1024,1024,0,0,0,0,31,0,0,83,4.099,4.084,0,0,0,0,4.278,92.66,3.6089568084,3.608924,38,Tripod,
224900,2022-08-12 04:48:27,0,0,3.608924,,,3.6089568084,3.608924,0,0,0,0,0,8.193,3.9370408084,3.937008,0,0,0,0,0,28.4, 1.9, 0.3,0,0,1024,1024,1024,1024,0,0,0,0,31,0,0,83,4.099,4.084,0,0,0,0,4.278,92.66,3.6089568084,3.608924,38,Tripod,
225000,2022-08-12 04:48:27,0,0,3.608924,,,3.6089568084,3.608924,0,0,0,0,0,8.193,3.9370408084,3.937008,0,0,0,0,0,28.4, 1.5, 0.1,0,0,1024,1024,1024,1024,0,0,0,0,31,0,0,83,4.099,4.084,0,0,0,0,4.278,92.66,3.6089568084,3.608924,38,Tripod,
225100,2022-08-12 04:48:27,0,0,3.608924,,,3.6089568084,3.608924,0,0,0,0,0,8.193,3.9370408084,3.937008,0,0,0,0,0,28.4, 1.1, 0.1,0,0,1024,1024,1024,1024,0,0,0,0,31,0,0,83,4.099,4.084,0,0,0,0,4.278,92.66,3.6089568084,3.608924,38,Tripod,
225200,2022-08-12 04:48:27,0,0,3.608924,,,3.6089568084,3.608924,0,0,0,0,0,8.193,3.9370408084,3.937008,0,0,0,0,0,28.4, 0.8, 0.2,0,0,1024,1024,1024,1024,0,0,0,0,31,0,0,83,4.099,4.084,0,0,0,0,4.278,92.66,3.6089568084,3.608924,38,Tripod,
225300,2022-08-12 04:48:27,0,0,3.608924,,,3.6089568084,3.608924,0,0,0,0,0,8.193,3.9370408084,3.937008,0,0,0,0,0,28.4, 0.8, 0.2,0,0,1024,1024,1024,1024,0,0,0,0,31,0,0,83,4.099,4.084,0,0,0,0,4.278,92.66,3.6089568084,3.608924,38,Tripod,
225400,2022-08-12 04:48:27,0,0,3.608924,,,3.6089568084,3.608924,0,0,0,0,0,8.193,3.9370408084,3.937008,0,0,0,0,0,28.4, 0.5, 0.1,0,0,1024,1024,1024,1024,0,0,0,0,31,0,0,83,4.099,4.084,0,0,0,0,4.278,92.66,3.6089568084,3.608924,38,Tripod,
225500,2022-08-12 04:48:28,0,0,3.608924,,,3.6089568084,3.608924,0,0,0,0,0,8.181,3.9370408084,3.937008,0,0,0,0,0,28.4, 0.3, 0.2,0,0,1024,1024,1024,1024,0,0,0,0,31,0,0,83,4.096,4.084,0,0,0,0,4.275,92.66,3.6089568084,3.608924,38,Tripod,
225600,2022-08-12 04:48:28,0,0,3.608924,,,3.6089568084,3.608924,0,0,0,0,0,8.181,3.9370408084,3.937008,0,0,0,0,0,28.3, 0.2, 0,0,0,1024,1024,1024,1024,0,0,0,0,31,0,0,83,4.096,4.084,0,0,0,0,4.275,92.66,3.6089568084,3.608924,38,Tripod,
225700,2022-08-12 04:48:28,0,0,3.608924,,,3.6089568084,3.608924,0,0,0,0,0,8.181,3.9370408084,3.937008,0,0,0,0,0,28.4, 0, 0,0,0,1024,1024,1024,1024,0,0,0,0,31,0,0,83,4.096,4.084,0,0,0,0,4.275,92.66,3.6089568084,3.608924,38,Tripod,
225800,2022-08-12 04:48:28,0,0,3.608924,,,3.6089568084,3.608924,0,0,0,0,0,8.181,3.9370408084,3.937008,0,0,0,0,0,28.4, 0, 0,0,0,1024,1024,1024,1024,0,0,0,0,31,0,0,83,4.096,4.084,0,0,0,0,4.275,92.66,3.6089568084,3.608924,38,Tripod,
225900,2022-08-12 04:48:28,0,0,3.608924,,,3.6089568084,3.608924,0,0,0,0,0,8.181,3.9370408084,3.937008,0,0,0,0,0,28.4, 0, 0,0,0,1024,1024,1024,1024,0,0,0,0,31,0,0,83,4.096,4.084,0,0,0,0,4.275,92.66,3.6089568084,3.608924,38,Tripod,
226000,2022-08-12 04:48:28,0,0,3.608924,,,3.6089568084,3.608924,0,0,0,0,0,8.181,3.9370408084,3.937008,0,0,0,0,0,28.4, -0.3, 0,0,0,1024,1024,1024,1024,0,0,0,0,31,0,0,83,4.096,4.084,0,0,0,0,4.275,92.66,3.6089568084,3.608924,38,Tripod,
226100,2022-08-12 04:48:28,0,0,3.608924,,,3.6089568084,3.608924,0,0,0,0,0,8.181,3.9370408084,3.937008,0,0,0,0,0,28.4, -0.2, 0,0,0,1024,1024,1024,1024,0,0,0,0,31,0,0,83,4.096,4.084,0,0,0,0,4.275,92.66,3.6089568084,3.608924,38,Tripod,
226200,2022-08-12 04:48:28,0,0,3.608924,,,3.6089568084,3.608924,0,0,0,0,0,8.181,3.9370408084,3.937008,0,0,0,0,0,28.4, -0.2, 0.2,0,0,1024,1024,1024,1024,0,0,0,0,31,0,0,83,4.096,4.084,0,0,0,0,4.275,92.66,3.6089568084,3.608924,38,Tripod,
226300,2022-08-12 04:48:28,0,0,3.608924,,,3.6089568084,3.608924,0,0,0,0,0,8.181,3.9370408084,3.937008,0,0,0,0,0,28.4, -0.2, 0.3,0,0,1024,1024,1024,1024,0,0,0,0,31,0,0,83,4.096,4.084,0,0,0,0,4.275,92.66,3.6089568084,3.608924,38,Tripod,
226400,2022-08-12 04:48:28,0,0,3.608924,,,3.6089568084,3.608924,0,0,0,0,0,8.181,3.9370408084,3.937008,0,0,0,0,0,28.4, -0.3, 0.2,0,0,1024,1024,1024,1024,0,0,0,0,31,0,0,83,4.096,4.084,0,0,0,0,4.275,92.66,3.6089568084,3.608924,38,Tripod,
226500,2022-08-12 04:48:29,0,0,3.608924,,,3.6089568084,3.608924,0,0,0,0,0,8.177,3.9370408084,3.937008,0,0,0,0,0,28.4, -0.2, 0.3,0,0,1024,1024,1024,1024,0,0,0,0,31,0,0,83,4.093,4.081,0,0,0,0,4.234,92.66,3.6089568084,3.608924,38,Tripod,
226600,2022-08-12 04:48:29,0,0,3.608924,,,3.6089568084,3.608924,0,0,0,0,0,8.177,3.9370408084,3.937008,0,0,0,0,0,28.4, -0.2, 0.3,0,0,1024,1024,1024,1024,0,0,0,0,31,0,0,83,4.093,4.081,0,0,0,0,4.234,92.66,3.6089568084,3.608924,38,Tripod,
226700,2022-08-12 04:48:29,0,0,3.608924,,,3.6089568084,3.608924,0,0,0,0,0,8.177,3.9370408084,3.937008,0,0,0,0,0,28.4, -0.1, 0.2,0,0,1024,1024,1024,1024,0,0,0,0,31,0,0,83,4.093,4.081,0,0,0,0,4.234,92.66,3.6089568084,3.608924,38,Tripod,
226800,2022-08-12 04:48:29,0,0,3.608924,,,3.6089568084,3.608924,0,0,0,0,0,8.177,3.9370408084,3.937008,0,0,0,0,0,28.4, -0.3, 0.2,0,0,1024,1024,1024,1024,0,0,0,0,31,0,0,83,4.093,4.081,0,0,0,0,4.234,92.66,3.6089568084,3.608924,38,Tripod,
226900,2022-08-12 04:48:29,0,0,3.608924,,,3.6089568084,3.608924,0,0,0,0,0,8.177,3.9370408084,3.937008,0,0,0,0,0,28.4, -0.3, 0.1,0,0,1024,1024,1024,1024,0,0,0,0,31,0,0,83,4.093,4.081,0,0,0,0,4.234,92.66,3.6089568084,3.608924,38,Tripod,
227000,2022-08-12 04:48:29,0,0,3.608924,,,3.6089568084,3.608924,0,0,0,0,0,8.177,3.9370408084,3.937008,0,0,0,0,0,28.4, -0.3, 0.2,0,0,1024,1024,1024,1024,0,0,0,0,31,0,0,83,4.093,4.081,0,0,0,0,4.234,92.66,3.6089568084,3.608924,38,Tripod,
227100,2022-08-12 04:48:29,0,0,3.608924,,,3.6089568084,3.608924,0,0,0,0,0,8.177,3.9370408084,3.937008,0,0,0,0,0,28.4, -0.2, 0.3,0,0,1024,1024,1024,1024,0,0,0,0,31,0,0,83,4.093,4.081,0,0,0,0,4.234,92.66,3.6089568084,3.608924,38,Tripod,
227200,2022-08-12 04:48:29,0,0,3.608924,,,3.6089568084,3.608924,0,0,0,0,0,8.177,3.9370408084,3.937008,0,0,0,0,0,28.4, -0.2, 0.4,0,0,1024,1024,1024,1024,0,0,0,0,31,0,0,83,4.093,4.081,0,0,0,0,4.234,92.66,3.6089568084,3.608924,38,Tripod,
227300,2022-08-12 04:48:29,0,0,3.608924,,,3.6089568084,3.608924,0,0,0,0,0,8.177,3.9370408084,3.937008,0,0,0,0,0,28.4, -0.4, 0.3,0,0,1024,1024,1024,1024,0,0,0,0,31,0,0,83,4.093,4.081,0,0,0,0,4.234,92.66,3.6089568084,3.608924,38,Tripod,
227400,2022-08-12 04:48:29,0,0,3.608924,,,3.6089568084,3.608924,0,0,0,0,0,8.177,3.9370408084,3.937008,0,0,0,0,0,28.4, -0.4, 0.3,0,0,1024,1024,1024,1024,0,0,0,0,31,0,0,83,4.093,4.081,0,0,0,0,4.234,92.66,3.6089568084,3.608924,38,Tripod,
227500,2022-08-12 04:48:29,0,0,3.608924,,,3.6089568084,3.608924,0,0,0,0,0,8.177,3.9370408084,3.937008,0,0,0,0,0,28.4, -0.3, 0.3,0,0,1024,1024,1024,1024,0,0,0,0,31,0,0,83,4.093,4.081,0,0,0,0,4.234,92.66,3.6089568084,3.608924,38,Tripod,
227600,2022-08-12 04:48:30,0,0,3.608924,,,3.6089568084,3.608924,0,0,0,0,0,8.177,3.9370408084,3.937008,0,0,0,0,0,28.3, -0.2, 0.3,0,0,1024,1024,1024,1024,0,0,0,0,31,0,0,83,4.093,4.081,0,0,0,0,4.234,92.66,3.6089568084,3.608924,38,Tripod,
227700,2022-08-12 04:48:30,0,0,3.608924,,,3.6089568084,3.608924,0,0,0,0,0,8.177,3.9370408084,3.937008,0,0,0,0,0,28.4, -0.5, 0.1,0,0,1024,1024,1024,1024,0,0,0,0,31,0,0,83,4.093,4.081,0,0,0,0,4.234,92.66,3.6089568084,3.608924,38,Tripod,
227800,2022-08-12 04:48:30,0,0,3.608924,,,3.6089568084,3.608924,0,0,0,0,0,8.177,3.9370408084,3.937008,0,0,0,0,0,28.4, -0.3, 0.2,0,0,1024,1024,1024,1024,0,0,0,0,31,0,0,83,4.093,4.081,0,0,0,0,4.234,92.66,3.6089568084,3.608924,38,Tripod,
227900,2022-08-12 04:48:30,0,0,3.608924,,,3.6089568084,3.608924,0,0,0,0,0,8.177,3.9370408084,3.937008,0,0,0,0,0,28.4, -0.2, 0.2,0,0,1024,1024,1024,1024,0,0,0,0,31,0,0,83,4.093,4.081,0,0,0,0,4.234,92.66,3.6089568084,3.608924,38,Tripod,
228000,2022-08-12 04:48:30,0,0,3.608924,,,3.6089568084,3.608924,0,0,0,0,0,8.177,3.9370408084,3.937008,0,0,0,0,0,28.4, -0.1, 0.3,0,0,1359,1024,1024,1024,51,0,0,0,31,0,0,83,4.093,4.081,0,0,0,0,4.234,92.66,3.6089568084,3.608924,38,Tripod,
228100,2022-08-12 04:48:30,0,0,3.608924,,,3.6089568084,3.608924,0,0,0,0,0,8.177,3.9370408084,3.937008,0,0,0,0,0,28.3, -0.6, 0.2,0,0,1576,1024,1024,1024,84,0,0,0,31,0,0,83,4.093,4.081,0,0,0,0,4.234,92.66,3.6089568084,3.608924,38,Tripod,
228200,2022-08-12 04:48:30,0,0,3.608924,,,3.6089568084,3.608924,0,0,0,0,0,8.171,3.9370408084,3.937008,0,0,0,0,0,28.4, -4.8, 0.5,0,0,1200,1024,1024,1024,27,0,0,0,31,0,0,83,4.091,4.078,0,0,0,0,4.209,92.66,3.6089568084,3.608924,38,Tripod,
228300,2022-08-12 04:48:30,0,0,3.608924,,,3.6089568084,3.608924,0.223694,0,0,0,0,8.171,3.9370408084,3.937008,0,0,0.223694,0,0,28.3, -8.1, 0.5,0,0,1024,1024,1024,1024,0,0,0,0,31,0,0,83,4.091,4.078,0,0,0,0,4.209,92.66,3.6089568084,3.608924,38,Tripod,
228400,2022-08-12 04:48:30,0,0,3.608924,,,3.6089568084,3.608924,0.4921268,0,0,0,0,8.171,3.9370408084,3.937008,0,0,0.447388,0.223694,0,28.3, -5.1, 0.4,0,0,1024,1024,1024,1024,0,0,0,0,31,0,0,83,4.091,4.078,0,0,0,0,4.209,92.66,3.6089568084,3.608924,38,Tripod,
228500,2022-08-12 04:48:30,0,0,3.608924,,,3.6089568084,3.608924,0.4921268,0,0,0,0,8.171,3.9370408084,3.937008,0,0,0.447388,0.223694,0,28.4, 2.1, 0.6,0,0,1024,1024,1024,1024,0,0,0,0,31,0,0,83,4.091,4.078,0,0,0,0,4.209,92.66,3.6089568084,3.608924,38,Tripod,
228600,2022-08-12 04:48:31,0,0,3.608924,,,3.6089568084,3.608924,0.4921268,0,0,0,0,8.171,3.9370408084,3.937008,0,0,0.447388,0.223694,0,28.4, 3.6, 0.6,0,0,1024,1024,1024,1024,0,0,0,0,31,0,0,83,4.091,4.078,0,0,0,0,4.209,92.66,3.6089568084,3.608924,38,Tripod,
228700,2022-08-12 04:48:31,0,0,3.608924,,,3.6089568084,3.608924,0.3131716,0,0,0,0,8.171,3.9370408084,3.937008,0,0,0.223694,0.223694,0,28.4, 3.4, 0.6,0,0,1024,1024,1024,1024,0,0,0,0,31,0,0,83,4.091,4.078,0,0,0,0,4.209,92.66,3.6089568084,3.608924,38,Tripod,
228800,2022-08-12 04:48:31,0,0,3.608924,,,3.6089568084,3.608924,0.223694,0,0,0,0,8.171,3.9370408084,3.937008,0,0,0.223694,0,0,28.4, 2.9, 0.4,0,0,1024,1024,1024,1024,0,0,0,0,31,0,0,83,4.091,4.078,0,0,0,0,4.209,92.66,3.6089568084,3.608924,38,Tripod,
228900,2022-08-12 04:48:31,0,0,3.608924,,,3.6089568084,3.608924,0,0,0,0,0,8.171,3.9370408084,3.937008,0,0,0,0,0,28.4, 2.3, 0.5,0,0,1024,1024,1024,1024,0,0,0,0,31,0,0,83,4.091,4.078,0,0,0,0,4.209,92.66,3.6089568084,3.608924,38,Tripod,
229000,2022-08-12 04:48:31,0,0,3.608924,,,3.6089568084,3.608924,0,0,0,0,0,8.171,3.9370408084,3.937008,0,0,0,0,0,28.4, 1.6, 0.5,0,0,1024,1024,1024,1024,0,0,0,0,31,0,0,83,4.091,4.078,0,0,0,0,4.209,92.66,3.6089568084,3.608924,38,Tripod,
229100,2022-08-12 04:48:31,0,0,3.937008,,,3.9370408084,3.608924,0,0,0,0,0,8.171,3.9370408084,3.937008,0,0,0,0,0,28.4, 1.2, 0.5,0,0,1024,1024,1024,1024,0,0,0,0,31,0,0,83,4.091,4.078,0,0,0,0,4.209,92.66,3.9370408084,3.937008,38,Tripod,
229200,2022-08-12 04:48:31,0,0,3.937008,,,3.9370408084,3.608924,0,0,0,0,0,8.166,3.9370408084,3.937008,0,0,0,0,0,28.4, 1.2, 0.4,0,0,1024,1024,1024,1024,0,0,0,0,31,0,0,83,4.089,4.077,0,0,0,0,4.261,92.84,3.9370408084,3.937008,38,Tripod,
229300,2022-08-12 04:48:31,0,0,3.937008,,,3.9370408084,3.608924,0,0,0,0,0,8.166,3.9370408084,3.937008,0,0,0,0,0,28.4, 0.5, 0.2,0,0,1024,1024,1077,445,0,0,8,-88,31,0,0,83,4.089,4.077,0,0,0,0,4.261,92.84,3.9370408084,3.937008,38,Tripod,
229400,2022-08-12 04:48:31,0,0,3.937008,,,3.9370408084,3.608924,0,0,0,0,0,8.166,3.9370408084,3.937008,0,0,0,0,0,28.4, -0.3, 0.1,0,0,1024,1024,1024,461,0,0,0,-85,31,0,0,83,4.089,4.077,0,0,0,0,4.261,92.84,3.9370408084,3.937008,38,Tripod,
229500,2022-08-12 04:48:32,0,0,3.937008,,,3.9370408084,3.608924,0,0,0,0,0,8.166,3.9370408084,3.937008,0,0,0,0,0,28.2, -0.3, 0.3,0,0,1024,1024,1024,461,0,0,0,-85,30.3,0,0,83,4.089,4.077,0,0,0,0,4.261,92.84,3.9370408084,3.937008,38,Tripod,
229600,2022-08-12 04:48:32,0,0,3.937008,,,3.9370408084,3.608924,0,0,0,0,0,8.166,3.9370408084,3.937008,0,0,0,0,0,27.1, -0.4, 0,0,0,1024,1024,1024,886,0,0,0,-21,28.9,0,0,83,4.089,4.077,0,0,0,0,4.261,92.84,3.9370408084,3.937008,38,Tripod,
229700,2022-08-12 04:48:32,0,0,3.937008,,,3.9370408084,3.608924,0,0,0,0,0,8.166,3.9370408084,3.937008,0,0,0,0,0,25.7, -0.4, -0.1,0,0,1024,1024,1024,1024,0,0,0,0,27.4,0,0,83,4.089,4.077,0,0,0,0,4.261,92.84,3.9370408084,3.937008,38,Tripod,
229800,2022-08-12 04:48:32,0,0,3.937008,,,3.9370408084,3.608924,0,0,0,0,0,8.166,3.9370408084,3.937008,0,0,0,0,0,24.4, -0.3, -0.4,0,0,1024,1024,1024,1024,0,0,0,0,26.4,0,0,83,4.089,4.077,0,0,0,0,4.261,92.84,3.9370408084,3.937008,38,Tripod,
229900,2022-08-12 04:48:32,0,0,3.937008,,,3.9370408084,3.608924,0,0,0,0,0,8.166,3.9370408084,3.937008,0,0,0,0,0,23.6, -0.2, -0.3,0,0,1024,1024,1024,440,0,0,0,-88,25.6,0,0,83,4.089,4.077,0,0,0,0,4.261,92.84,3.9370408084,3.937008,38,Tripod,
230000,2022-08-12 04:48:32,0,0,3.937008,,,3.9370408084,3.608924,0,0,0,0,0,8.166,3.9370408084,3.937008,0,0,0,0,0,22.9, -0.1, -0.1,0,0,1024,1024,1024,367,0,0,0,-100,25.1,0,0,83,4.089,4.077,0,0,0,0,4.261,92.84,3.9370408084,3.937008,38,Tripod,
230100,2022-08-12 04:48:32,0,0,3.937008,,,3.9370408084,3.608924,0,0,0,0,0,8.166,3.9370408084,3.937008,0,0,0,0,0,22.3, -0.2, 0,0,0,1024,1024,1024,1024,0,0,0,0,24.2,0,0,83,4.089,4.077,0,0,0,0,4.261,92.84,3.9370408084,3.937008,38,Tripod,
230200,2022-08-12 04:48:32,0,0,3.937008,,,3.9370408084,3.608924,0,0,0,0,0,8.165,3.9370408084,3.937008,0,0,0,0,0,21, -0.4, 0,0,0,1631,1024,1024,1024,92,0,0,0,22.6,0,0,83,4.088,4.075,0,0,0,0,4.245,92.84,3.9370408084,3.937008,38,Tripod,
230300,2022-08-12 04:48:32,0,0,3.937008,,,3.9370408084,3.608924,0,0,0,0,0,8.165,3.9370408084,3.937008,0,0,0,0,0,19.5, -0.4, -0.2,0,0,1631,1024,1024,1024,92,0,0,0,21.3,0,0,83,4.088,4.075,0,0,0,0,4.245,92.84,3.9370408084,3.937008,38,Tripod,
230400,2022-08-12 04:48:32,0,0,3.937008,,,3.9370408084,3.608924,0,0,0,0,0,8.165,3.9370408084,3.937008,0,0,0,0,0,18.4, -3.1, 0.2,0,0,1684,1024,1024,1024,100,0,0,0,20.3,0,0,83,4.088,4.075,0,0,0,0,4.245,92.84,3.9370408084,3.937008,38,Tripod,
230500,2022-08-12 04:48:33,0,0,3.937008,,,3.9370408084,3.608924,0.223694,0,0,0,0,8.165,3.9370408084,3.937008,0,0,0.223694,0,0,17.6, -9.8, 0.3,0,0,1538,1024,1024,1024,78,0,0,0,19.8,0,0,83,4.088,4.075,0,0,0,0,4.245,92.84,3.9370408084,3.937008,38,Tripod,
230600,2022-08-12 04:48:33,0,0,3.937008,,,3.9370408084,3.608924,0.447388,0,0,0,0,8.165,3.9370408084,3.937008,0,0,0.447388,0,0,17.2, -11.7, 0.2,0,0,1266,1024,1024,1024,37,0,0,0,19.6,0,0,83,4.088,4.075,0,0,0,0,4.245,92.84,3.9370408084,3.937008,38,Tripod,
230700,2022-08-12 04:48:33,0,0,3.937008,,,3.9370408084,3.608924,0.9171454,0,0,0,0,8.165,3.9370408084,3.937008,0,0,0.894776,0.223694,0,17.2, -8.2, 0.1,0,0,1273,1024,1024,1024,38,0,0,0,19.6,0,0,83,4.088,4.075,0,0,0,0,4.245,92.84,3.9370408084,3.937008,38,Tripod,
230800,2022-08-12 04:48:33,0,0,3.937008,,,3.9370408084,3.608924,1.1408394,0,0,0,0,8.165,3.9370408084,3.937008,0,0,1.11847,0.223694,0,17.1, -3.8, 0.2,0,0,1683,1024,1024,1024,100,0,0,0,19.6,0,0,83,4.088,4.075,0,0,0,0,4.245,92.84,3.9370408084,3.937008,38,Tripod,
230900,2022-08-12 04:48:33,0,0,3.937008,,,3.9370408084,3.608924,1.1408394,0,0,0,0,8.165,3.9370408084,3.937008,0,0,1.11847,0.223694,0,17.1, -3, 0.1,0,0,1631,1024,1024,1024,92,0,0,0,19.6,0,0,83,4.088,4.075,0,0,0,0,4.245,92.84,3.9370408084,3.937008,38,Tripod,
231000,2022-08-12 04:48:33,0,0,3.937008,,,3.9370408084,3.608924,1.4092722,0,0,0,0,8.165,3.9370408084,3.937008,0,0,1.342164,0.447388,0,17.1, -8, 0,0,0,1631,1024,1024,1024,92,0,0,0,19.6,0,0,83,4.088,4.075,0,0,0,0,4.245,92.84,3.9370408084,3.937008,38,Tripod,
231100,2022-08-12 04:48:33,0,0,3.937008,,,3.9370408084,3.608924,1.6329662,0,0,0,0,8.165,3.9370408084,3.937008,0,0,1.565858,0.447388,0,17.1, -10.8, 0,0,0,1221,1024,1024,1024,30,0,0,0,19.6,0,0,83,4.088,4.075,0,0,0,0,4.245,92.84,3.9370408084,3.937008,38,Tripod,
231200,2022-08-12 04:48:33,0,0,3.937008,,,3.9370408084,3.608924,2.0579848,0,0,0,0,8.155,3.9370408084,3.937008,0,0,2.013246,0.447388,0,17.1, -6.9, 0,0,0,1125,1024,1024,1024,15,0,0,0,19.6,0,0,83,4.085,4.072,0,0,0,0,4.277,92.84,3.9370408084,3.937008,38,Tripod,
231300,2022-08-12 04:48:33,0,0,3.937008,,,3.9370408084,3.608924,2.0579848,0,0,0,0,8.155,3.9370408084,3.937008,0,0,2.013246,0.447388,0,17.1, -1.8, 0.2,0,0,1111,1024,1024,1024,13,0,0,0,19.6,0,0,83,4.085,4.072,0,0,0,0,4.277,92.84,3.9370408084,3.937008,38,Tripod,
231400,2022-08-12 04:48:33,0,0,3.937008,,,3.9370408084,3.608924,2.0579848,0,0,0,0,8.155,3.9370408084,3.937008,0,0,2.013246,0.447388,0,17.2, -0.1, 0.5,0,0,1035,1024,1024,1024,2,0,0,0,19.6,0,0,83,4.085,4.072,0,0,0,0,4.277,92.84,3.9370408084,3.937008,38,Tripod,
231500,2022-08-12 04:48:34,0,0,3.937008,,,3.9370408084,3.608924,2.0579848,0,0,0,0,8.155,3.9370408084,3.937008,0,0,2.013246,0.447388,0,17.2, 0.2, 0.6,0,0,1024,1024,1024,1024,0,0,0,0,19.6,0,0,83,4.085,4.072,0,0,0,0,4.277,92.84,3.9370408084,3.937008,38,Tripod,
231600,2022-08-12 04:48:34,0,0,3.937008,,,3.9370408084,3.608924,1.8342908,0,0,0,0,8.155,3.9370408084,3.937008,0,0,1.789552,0.447388,0,17.1, 5, 0.4,0,0,1024,1024,1024,1024,0,0,0,0,19.6,0,0,83,4.085,4.072,0,0,0,0,4.277,92.84,3.9370408084,3.937008,38,Tripod,
231700,2022-08-12 04:48:34,0,0,3.937008,,,3.9370408084,3.608924,1.6329662,0,0,0,0,8.155,3.9370408084,3.937008,0,0,1.565858,0.447388,0,17.1, 8.1, 0.3,0,0,1024,1024,1024,1024,0,0,0,0,19.6,0,0,83,4.085,4.072,0,0,0,0,4.277,92.84,3.9370408084,3.937008,38,Tripod,
231800,2022-08-12 04:48:34,0,0,3.937008,,,3.9370408084,3.608924,1.1408394,0,0,0,0,8.155,3.9370408084,3.937008,0,0,1.11847,0.223694,0,17.1, 8.1, 0.2,0,0,1024,1024,1024,1024,0,0,0,0,19.6,0,0,83,4.085,4.072,0,0,0,0,4.277,92.84,3.9370408084,3.937008,38,Tripod,
231900,2022-08-12 04:48:34,0,0,3.937008,,,3.9370408084,3.608924,0.9171454,0,0,0,0,8.155,3.9370408084,3.937008,0,0,0.894776,0.223694,0,17.1, 6.8, 0,0,0,1024,1024,1024,1024,0,0,0,0,19.6,0,0,83,4.085,4.072,0,0,0,0,4.277,92.84,3.9370408084,3.937008,38,Tripod,
232000,2022-08-12 04:48:34,0,0,3.937008,,,3.9370408084,3.608924,0.447388,0,0,0,0,8.155,3.9370408084,3.937008,0,0,0.447388,0,0,17.1, 5.4, 0.1,0,0,1024,1024,1024,1024,0,0,0,0,19.6,0,0,83,4.085,4.072,0,0,0,0,4.277,92.84,3.9370408084,3.937008,38,Tripod,
232100,2022-08-12 04:48:34,0,0,3.937008,,,3.9370408084,3.608924,0.223694,0,0,0,0,8.155,3.9370408084,3.937008,0,0,0.223694,0,0,17.1, 4.1, 0.1,0,0,1024,1024,1024,1024,0,0,0,0,19.6,0,0,83,4.085,4.072,0,0,0,0,4.277,92.84,3.9370408084,3.937008,38,Tripod,
232200,2022-08-12 04:48:34,0,0,3.937008,,,3.9370408084,3.608924,0.223694,0,0,0,0,8.159,3.9370408084,3.937008,0,0,0.223694,0,0,17.2, 3.1, 0.3,0,0,1024,1024,1024,1024,0,0,0,0,19.6,0,0,83,4.084,4.072,0,0,0,0,4.224,92.84,3.9370408084,3.937008,38,Tripod,
232300,2022-08-12 04:48:34,0,0,3.937008,,,3.9370408084,3.608924,0,0,0,0,0,8.159,3.9370408084,3.937008,0,0,0,0,0,17.2, 2.3, 0.4,0,0,1024,1024,1024,1024,0,0,0,0,19.6,0,0,83,4.084,4.072,0,0,0,0,4.224,92.84,3.9370408084,3.937008,38,Tripod,
232400,2022-08-12 04:48:34,0,0,3.937008,,,3.9370408084,3.608924,0,0,0,0,0,8.159,3.9370408084,3.937008,0,0,0,0,0,17.2, 1.7, 0.4,0,0,1024,1024,1024,1024,0,0,0,0,19.6,0,0,83,4.084,4.072,0,0,0,0,4.224,92.84,3.9370408084,3.937008,38,Tripod,
232500,2022-08-12 04:48:35,0,0,3.937008,,,3.9370408084,3.608924,0,0,0,0,0,8.159,3.9370408084,3.937008,0,0,0,0,0,17.1, 1.4, 0.4,0,0,1024,1024,1024,1024,0,0,0,0,19.6,0,0,83,4.084,4.072,0,0,0,0,4.224,92.84,3.9370408084,3.937008,38,Tripod,
232600,2022-08-12 04:48:35,0,0,3.937008,,,3.9370408084,3.608924,0,0,0,0,0,8.159,3.9370408084,3.937008,0,0,0,0,0,17.1, 1.2, 0.4,0,0,1024,1024,1024,1024,0,0,0,0,19.6,0,0,83,4.084,4.072,0,0,0,0,4.224,92.84,3.9370408084,3.937008,38,Tripod,
232700,2022-08-12 04:48:35,0,0,3.937008,,,3.9370408084,3.608924,0,0,0,0,0,8.159,3.9370408084,3.937008,0,0,0,0,0,17.1, 1.2, 0,0,0,1024,1024,1024,1024,0,0,0,0,19.6,0,0,83,4.084,4.072,0,0,0,0,4.224,92.84,3.9370408084,3.937008,38,Tripod,
232800,2022-08-12 04:48:35,0,0,3.937008,,,3.9370408084,3.608924,0,0,0,0,0,8.159,3.9370408084,3.937008,0,0,0,0,0,17, 1.2, 0,0,0,1024,1024,1024,1024,0,0,0,0,19.6,0,0,83,4.084,4.072,0,0,0,0,4.224,92.84,3.9370408084,3.937008,38,Tripod,
232900,2022-08-12 04:48:35,0,0,3.937008,,,3.9370408084,3.608924,0,0,0,0,0,8.159,3.9370408084,3.937008,0,0,0,0,0,17, 1, 0,0,0,1024,1024,1024,1024,0,0,0,0,19.6,0,0,83,4.084,4.072,0,0,0,0,4.224,92.84,3.9370408084,3.937008,38,Tripod,
233000,2022-08-12 04:48:35,0,0,3.937008,,,3.9370408084,3.608924,0,0,0,0,0,8.159,3.9370408084,3.937008,0,0,0,0,0,17, 0.8, 0.1,0,0,1024,1024,1024,1024,0,0,0,0,19.6,0,0,83,4.084,4.072,0,0,0,0,4.224,92.84,3.9370408084,3.937008,38,Tripod,
233100,2022-08-12 04:48:35,0,0,3.937008,,,3.9370408084,3.608924,0,0,0,0,0,8.159,3.9370408084,3.937008,0,0,0,0,0,17, 0.6, 0.1,0,0,1024,1024,1024,1024,0,0,0,0,19.6,0,0,83,4.084,4.072,0,0,0,0,4.224,92.84,3.9370408084,3.937008,38,Tripod,
233200,2022-08-12 04:48:35,0,0,3.937008,,,3.9370408084,3.608924,0,0,0,0,0,8.159,3.9370408084,3.937008,0,0,0,0,0,17, 0.6, 0,0,0,1024,1024,1024,1024,0,0,0,0,19.6,0,0,83,4.084,4.072,0,0,0,0,4.224,92.84,3.9370408084,3.937008,38,Tripod,
233300,2022-08-12 04:48:35,0,0,3.937008,,,3.9370408084,3.608924,0,0,0,0,0,8.153,3.9370408084,3.937008,0,0,0,0,0,17, 0.5, 0.1,0,0,1024,1024,1024,1024,0,0,0,0,19.6,0,0,83,4.083,4.071,0,0,0,0,4.222,92.84,3.9370408084,3.937008,38,Tripod,
233400,2022-08-12 04:48:35,0,0,3.937008,,,3.9370408084,3.608924,0,0,0,0,0,8.153,3.9370408084,3.937008,0,0,0,0,0,17, 0.4, 0.1,0,0,1024,1024,1024,1024,0,0,0,0,19.6,0,0,83,4.083,4.071,0,0,0,0,4.222,92.84,3.9370408084,3.937008,38,Tripod,
233500,2022-08-12 04:48:36,0,0,3.937008,,,3.9370408084,3.608924,0,0,0,0,0,8.153,3.9370408084,3.937008,0,0,0,0,0,17, 0.3, 0.2,0,0,1024,1024,1024,1024,0,0,0,0,19.6,0,0,83,4.083,4.071,0,0,0,0,4.222,92.84,3.9370408084,3.937008,38,Tripod,
233600,2022-08-12 04:48:36,0,0,3.937008,,,3.9370408084,3.608924,0,0,0,0,0,8.153,3.9370408084,3.937008,0,0,0,0,0,17, 0.1, 0.2,0,0,1024,1024,1024,1024,0,0,0,0,19.6,0,0,83,4.083,4.071,0,0,0,0,4.222,92.84,3.9370408084,3.937008,38,Tripod,
233700,2022-08-12 04:48:36,0,0,3.937008,,,3.9370408084,3.608924,0,0,0,0,0,8.153,3.9370408084,3.937008,0,0,0,0,0,17, 0, 0.2,0,0,1024,1024,1024,1024,0,0,0,0,19.6,0,0,83,4.083,4.071,0,0,0,0,4.222,92.84,3.9370408084,3.937008,38,Tripod,
233800,2022-08-12 04:48:36,0,0,3.937008,,,3.9370408084,3.608924,0,0,0,0,0,8.153,3.9370408084,3.937008,0,0,0,0,0,17, 0, 0.2,0,0,1024,1024,1024,1024,0,0,0,0,19.6,0,0,83,4.083,4.071,0,0,0,0,4.222,92.84,3.9370408084,3.937008,38,Tripod,
233900,2022-08-12 04:48:36,0,0,3.937008,,,3.9370408084,3.608924,0,0,0,0,0,8.153,3.9370408084,3.937008,0,0,0,0,0,17, 0, 0.1,0,0,1024,1024,1024,1024,0,0,0,0,19.6,0,0,83,4.083,4.071,0,0,0,0,4.222,92.84,3.9370408084,3.937008,38,Tripod,
234000,2022-08-12 04:48:36,0,0,3.937008,,,3.9370408084,3.608924,0,0,0,0,0,8.153,3.9370408084,3.937008,0,0,0,0,0,17, 0, 0.1,0,0,1024,1024,1024,1024,0,0,0,0,19.6,0,0,83,4.083,4.071,0,0,0,0,4.222,92.84,3.9370408084,3.937008,38,Tripod,
234100,2022-08-12 04:48:36,0,0,3.937008,,,3.9370408084,3.608924,0,0,0,0,0,8.153,3.9370408084,3.937008,0,0,0,0,0,17, -0.2, 0,0,0,1024,1024,1024,1024,0,0,0,0,19.6,0,0,83,4.083,4.071,0,0,0,0,4.222,92.84,3.9370408084,3.937008,38,Tripod,
234200,2022-08-12 04:48:36,0,0,3.937008,,,3.9370408084,3.608924,0,0,0,0,0,8.153,3.9370408084,3.937008,0,0,0,0,0,17.1, -0.2, 0,0,0,1024,1024,1024,1024,0,0,0,0,19.6,0,0,83,4.083,4.071,0,0,0,0,4.222,92.84,3.9370408084,3.937008,38,Tripod,
234300,2022-08-12 04:48:36,0,0,3.937008,,,3.9370408084,3.608924,0,0,0,0,0,8.15,3.9370408084,3.937008,0,0,0,0,0,17.1, -0.2, 0.1,0,0,1024,1024,1024,1024,0,0,0,0,19.6,0,0,83,4.082,4.069,0,0,0,0,4.215,92.84,3.9370408084,3.937008,38,Tripod,
234400,2022-08-12 04:48:36,0,0,3.608924,,,3.6089568084,3.608924,0,0,0,0,0,8.15,3.9370408084,3.937008,0,0,0,0,0,17, -0.3, 0,0,0,1024,1024,1024,1024,0,0,0,0,19.6,0,0,83,4.082,4.069,0,0,0,0,4.215,92.84,3.6089568084,3.608924,38,Tripod,
234500,2022-08-12 04:48:36,0,0,3.608924,,,3.6089568084,3.608924,0,0,0,0,0,8.15,3.9370408084,3.937008,0,0,0,0,0,17, -0.7, 0,0,0,1029,1024,1024,1024,1,0,0,0,19.6,0,0,83,4.082,4.069,0,0,0,0,4.215,92.84,3.6089568084,3.608924,38,Tripod,
234600,2022-08-12 04:48:37,0,0,3.608924,,,3.6089568084,3.608924,0,0,0,0,0,8.15,3.9370408084,3.937008,0,0,0,0,0,17, -0.6, -0.2,0,0,1077,1024,1024,1024,8,0,0,0,19.6,0,0,83,4.082,4.069,0,0,0,0,4.215,92.84,3.6089568084,3.608924,38,Tripod,
234700,2022-08-12 04:48:37,0,0,3.608924,,,3.6089568084,3.608924,0,0,0,0,0,8.15,3.9370408084,3.937008,0,0,0,0,0,17.1, -0.5, -0.2,0,0,1160,1024,1024,1024,21,0,0,0,19.6,0,0,83,4.082,4.069,0,0,0,0,4.215,92.84,3.6089568084,3.608924,38,Tripod,
234800,2022-08-12 04:48:37,0,0,3.608924,,,3.6089568084,3.608924,0,0,0,0,0,8.15,3.9370408084,3.937008,0,0,0,0,0,17.1, -0.5, 0,0,0,1219,1024,1024,1024,30,0,0,0,19.6,0,0,83,4.082,4.069,0,0,0,0,4.215,92.84,3.6089568084,3.608924,38,Tripod,
234900,2022-08-12 04:48:37,0,0,3.608924,,,3.6089568084,3.608924,0,0,0,0,0,8.15,3.9370408084,3.937008,0,0,0,0,0,17.1, -1.1, 0,0,0,1230,1024,1024,1024,31,0,0,0,19.6,0,0,83,4.082,4.069,0,0,0,0,4.215,92.84,3.6089568084,3.608924,38,Tripod,
235000,2022-08-12 04:48:37,0,0,3.608924,,,3.6089568084,3.608924,0,0,0,0,0,8.15,3.9370408084,3.937008,0,0,0,0,0,17, -1.9, 0,0,0,1220,1024,1024,1024,30,0,0,0,19.6,0,0,83,4.082,4.069,0,0,0,0,4.215,92.84,3.6089568084,3.608924,38,Tripod,
235100,2022-08-12 04:48:37,0,0,3.608924,,,3.6089568084,3.608924,0,0,0,0,0,8.15,3.9370408084,3.937008,0,0,0,0,0,17, -2.2, 0,0,0,1220,1024,1024,1024,30,0,0,0,19.6,0,0,83,4.082,4.069,0,0,0,0,4.215,92.84,3.6089568084,3.608924,38,Tripod,
235200,2022-08-12 04:48:37,0,0,3.608924,,,3.6089568084,3.608924,0,0,0,0,0,8.15,3.9370408084,3.937008,0,0,0,0,0,17, -2, 0,0,0,1211,1024,1024,1024,28,0,0,0,19.6,0,0,83,4.082,4.069,0,0,0,0,4.215,92.84,3.6089568084,3.608924,38,Tripod,
235300,2022-08-12 04:48:37,0,0,3.608924,,,3.6089568084,3.608924,0.223694,0,0,0,0,8.147,3.9370408084,3.937008,0,0,0.223694,0,0,17, -1.7, 0.1,0,0,1211,1024,1024,1024,28,0,0,0,19.6,0,0,83,4.08,4.068,0,0,0,0,4.21,93.02,3.6089568084,3.608924,38,Tripod,
235400,2022-08-12 04:48:37,0,0,3.608924,,,3.6089568084,3.608924,0.223694,0,0,0,0,8.147,3.9370408084,3.937008,0,0,0.223694,0,0,17, -1.6, 0.2,0,0,1207,1024,1024,1024,28,0,0,0,19.6,0,0,83,4.08,4.068,0,0,0,0,4.21,93.02,3.6089568084,3.608924,38,Tripod,
235500,2022-08-12 04:48:37,0,0,3.608924,,,3.6089568084,3.608924,0.223694,0,0,0,0,8.147,3.9370408084,3.937008,0,0,0.223694,0,0,17, -1.5, 0.2,0,0,1184,1024,1024,1024,24,0,0,0,19.6,0,0,83,4.08,4.068,0,0,0,0,4.21,93.02,3.6089568084,3.608924,38,Tripod,
235600,2022-08-12 04:48:38,0,0,3.608924,,,3.6089568084,3.608924,0.223694,0,0,0,0,8.147,3.9370408084,3.937008,0,0,0.223694,0,0,17, -1.5, 0.1,0,0,1093,1024,1024,1024,10,0,0,0,19.6,0,0,83,4.08,4.068,0,0,0,0,4.21,93.02,3.6089568084,3.608924,38,Tripod,
235700,2022-08-12 04:48:38,0,0,3.608924,,,3.6089568084,3.608924,0.447388,0,0,0,0,8.147,3.9370408084,3.937008,0,0,0.447388,0,0,17, -1.2, 0.2,0,0,1077,1024,1024,1024,8,0,0,0,19.6,0,0,83,4.08,4.068,0,0,0,0,4.21,93.02,3.6089568084,3.608924,38,Tripod,
235800,2022-08-12 04:48:38,0,0,3.608924,,,3.6089568084,3.608924,0.447388,0,0,0,0,8.147,3.9370408084,3.937008,0,0,0.447388,0,0,17.1, -0.5, 0.3,0,0,1072,1024,1024,1024,7,0,0,0,19.6,0,0,83,4.08,4.068,0,0,0,0,4.21,93.02,3.6089568084,3.608924,38,Tripod,
235900,2022-08-12 04:48:38,0,0,3.608924,,,3.6089568084,3.608924,0.447388,0,0,0,0,8.147,3.9370408084,3.937008,0,0,0.447388,0,0,17.1, -0.1, 0.4,0,0,1067,1024,1024,1024,7,0,0,0,19.6,0,0,83,4.08,4.068,0,0,0,0,4.21,93.02,3.6089568084,3.608924,38,Tripod,
236000,2022-08-12 04:48:38,0,0,3.608924,,,3.6089568084,3.608924,0.447388,0,0,0,0,8.147,3.9370408084,3.937008,0,0,0.447388,0,0,17, 0, 0.3,0,0,1067,1024,1024,1024,7,0,0,0,19.6,0,0,83,4.08,4.068,0,0,0,0,4.21,93.02,3.6089568084,3.608924,38,Tripod,
236100,2022-08-12 04:48:38,0,0,3.608924,,,3.6089568084,3.608924,0.447388,0,0,0,0,8.147,3.9370408084,3.937008,0,0,0.447388,0,0,17, 0, 0.2,0,0,1068,1024,1024,1024,7,0,0,0,19.6,0,0,83,4.08,4.068,0,0,0,0,4.21,93.02,3.6089568084,3.608924,38,Tripod,
236200,2022-08-12 04:48:38,0,0,3.608924,,,3.6089568084,3.608924,0.447388,0,0,0,0,8.147,3.9370408084,3.937008,0,0,0.447388,0,0,17, 0, 0.2,0,0,1068,1024,1024,1024,7,0,0,0,19.6,0,0,83,4.08,4.068,0,0,0,0,4.21,93.02,3.6089568084,3.608924,38,Tripod,
236300,2022-08-12 04:48:38,0,0,3.608924,,,3.6089568084,3.608924,0.447388,0,0,0,0,8.146,3.9370408084,3.937008,0,0,0.447388,0,0,17, 0.1, 0.1,0,0,1068,1024,1024,1024,7,0,0,0,19.6,0,0,83,4.08,4.067,0,0,0,0,4.226,93.02,3.6089568084,3.608924,38,Tripod,
236400,2022-08-12 04:48:38,0,0,3.608924,,,3.6089568084,3.608924,0.447388,0,0,0,0,8.146,3.9370408084,3.937008,0,0,0.447388,0,0,17, 0.1, 0.1,0,0,1068,1024,1024,1024,7,0,0,0,19.6,0,0,83,4.08,4.067,0,0,0,0,4.226,93.02,3.6089568084,3.608924,38,Tripod,
236500,2022-08-12 04:48:39,0,0,3.608924,,,3.6089568084,3.608924,0.223694,0,0,0,0,8.146,3.9370408084,3.937008,0,0,0.223694,0,0,16.9, 0.2, 0.1,0,0,1057,1024,1024,1024,5,0,0,0,19.6,0,0,83,4.08,4.067,0,0,0,0,4.226,93.02,3.6089568084,3.608924,38,Tripod,
236600,2022-08-12 04:48:39,0,0,3.608924,,,3.6089568084,3.608924,0.223694,0,0,0,0,8.146,3.9370408084,3.937008,0,0,0.223694,0,0,17, 0.2, 0.1,0,0,1027,1024,1024,1024,0,0,0,0,19.6,0,0,83,4.08,4.067,0,0,0,0,4.226,93.02,3.6089568084,3.608924,38,Tripod,
236700,2022-08-12 04:48:39,0,0,3.608924,,,3.6089568084,3.608924,0.223694,0,0,0,0,8.146,3.9370408084,3.937008,0,0,0.223694,0,0,16.9, 0.4, 0.1,0,0,1024,1024,1024,1024,0,0,0,0,19.6,0,0,83,4.08,4.067,0,0,0,0,4.226,93.02,3.6089568084,3.608924,38,Tripod,
236800,2022-08-12 04:48:39,0,0,3.608924,,,3.6089568084,3.608924,0.223694,0,0,0,0,8.146,3.9370408084,3.937008,0,0,0.223694,0,0,16.9, 2, 0.1,0,0,1024,1024,1024,1024,0,0,0,0,19.6,0,0,83,4.08,4.067,0,0,0,0,4.226,93.02,3.6089568084,3.608924,38,Tripod,
236900,2022-08-12 04:48:39,0,0,3.608924,,,3.6089568084,3.608924,0.223694,0,0,0,0,8.146,3.9370408084,3.937008,0,0,0.223694,0,0,16.9, 2.3, 0.1,0,0,1024,1024,1024,1024,0,0,0,0,19.6,0,0,83,4.08,4.067,0,0,0,0,4.226,93.02,3.6089568084,3.608924,38,Tripod,
237000,2022-08-12 04:48:39,0,0,3.608924,,,3.6089568084,3.608924,0.223694,0,0,0,0,8.146,3.9370408084,3.937008,0,0,0.223694,0,0,16.9, 2.1, 0.1,0,0,1024,1024,1024,1024,0,0,0,0,19.6,0,0,83,4.08,4.067,0,0,0,0,4.226,93.02,3.6089568084,3.608924,38,Tripod,
237100,2022-08-12 04:48:39,0,0,3.608924,,,3.6089568084,3.608924,0,0,0,0,0,8.146,3.9370408084,3.937008,0,0,0,0,0,17, 1.8, 0.1,0,0,1024,1024,1024,1024,0,0,0,0,19.6,0,0,83,4.08,4.067,0,0,0,0,4.226,93.02,3.6089568084,3.608924,38,Tripod,
237200,2022-08-12 04:48:39,0,0,3.608924,,,3.6089568084,3.608924,0,0,0,0,0,8.146,3.9370408084,3.937008,0,0,0,0,0,17, 1.6, 0.1,0,0,1024,1024,1024,1024,0,0,0,0,19.6,0,0,83,4.08,4.067,0,0,0,0,4.226,93.02,3.6089568084,3.608924,38,Tripod,
237300,2022-08-12 04:48:39,0,0,3.608924,,,3.6089568084,3.608924,0,0,0,0,0,8.145,3.9370408084,3.937008,0,0,0,0,0,17, 1.7, -0.1,0,0,1024,1024,1024,1024,0,0,0,0,19.6,0,0,83,4.079,4.065,0,0,0,0,4.195,93.02,3.6089568084,3.608924,38,Tripod,
237400,2022-08-12 04:48:39,0,0,3.608924,,,3.6089568084,3.608924,0,0,0,0,0,8.145,3.9370408084,3.937008,0,0,0,0,0,17, 1.2, -0.2,0,0,1028,1024,1024,1024,1,0,0,0,19.6,0,0,83,4.079,4.065,0,0,0,0,4.195,93.02,3.6089568084,3.608924,38,Tripod,
237500,2022-08-12 04:48:40,0,0,3.608924,,,3.6089568084,3.608924,0,0,0,0,0,8.145,3.9370408084,3.937008,0,0,0,0,0,17, 0.9, -0.1,0,0,1033,1024,1024,1024,1,0,0,0,19.6,0,0,83,4.079,4.065,0,0,0,0,4.195,93.02,3.6089568084,3.608924,38,Tripod,
237600,2022-08-12 04:48:40,0,0,3.608924,,,3.6089568084,3.608924,0,0,0,0,0,8.145,3.9370408084,3.937008,0,0,0,0,0,17, 0.7, 0,0,0,1034,1024,1024,1024,2,0,0,0,19.6,0,0,83,4.079,4.065,0,0,0,0,4.195,93.02,3.6089568084,3.608924,38,Tripod,
237700,2022-08-12 04:48:40,0,0,3.608924,,,3.6089568084,3.608924,0,0,0,0,0,8.145,3.9370408084,3.937008,0,0,0,0,0,17.1, 0.6, 0.3,0,0,1042,1024,1024,1024,3,0,0,0,19.6,0,0,83,4.079,4.065,0,0,0,0,4.195,93.02,3.6089568084,3.608924,38,Tripod,
237800,2022-08-12 04:48:40,0,0,3.608924,,,3.6089568084,3.608924,0,0,0,0,0,8.145,3.9370408084,3.937008,0,0,0,0,0,17, 0.4, 0.2,0,0,1043,1024,1024,1024,3,0,0,0,19.6,0,0,83,4.079,4.065,0,0,0,0,4.195,93.02,3.6089568084,3.608924,38,Tripod,
237900,2022-08-12 04:48:40,0,0,3.608924,,,3.6089568084,3.608924,0,0,0,0,0,8.145,3.9370408084,3.937008,0,0,0,0,0,17, 0.6, 0.2,0,0,1043,1024,1024,1024,3,0,0,0,19.6,0,0,83,4.079,4.065,0,0,0,0,4.195,93.02,3.6089568084,3.608924,38,Tripod,
238000,2022-08-12 04:48:40,0,0,3.608924,,,3.6089568084,3.608924,0,0,0,0,0,8.145,3.9370408084,3.937008,0,0,0,0,0,17, 0.5, 0.2,0,0,1041,1024,1024,1024,3,0,0,0,19.6,0,0,83,4.079,4.065,0,0,0,0,4.195,93.02,3.6089568084,3.608924,38,Tripod,
238100,2022-08-12 04:48:40,0,0,3.608924,,,3.6089568084,3.608924,0,0,0,0,0,8.145,3.9370408084,3.937008,0,0,0,0,0,17, 0.4, 0.1,0,0,1040,1024,1024,1024,2,0,0,0,19.6,0,0,83,4.079,4.065,0,0,0,0,4.195,93.02,3.6089568084,3.608924,38,Tripod,
238200,2022-08-12 04:48:40,0,0,3.608924,,,3.6089568084,3.608924,0,0,0,0,0,8.145,3.9370408084,3.937008,0,0,0,0,0,17, 0.2, 0,0,0,1039,1024,1024,1024,2,0,0,0,19.6,0,0,83,4.079,4.065,0,0,0,0,4.195,93.02,3.6089568084,3.608924,38,Tripod,
238300,2022-08-12 04:48:40,0,0,3.608924,,,3.6089568084,3.608924,0,0,0,0,0,8.145,3.9370408084,3.937008,0,0,0,0,0,16.9, 0.4, 0,0,0,1038,1024,1024,1024,2,0,0,0,19.6,0,0,83,4.079,4.065,0,0,0,0,4.195,93.02,3.6089568084,3.608924,38,Tripod,
238400,2022-08-12 04:48:40,0,0,3.608924,,,3.6089568084,3.608924,0,0,0,0,0,8.143,3.9370408084,3.937008,0,0,0,0,0,16.9, 0.3, 0,0,0,1038,1024,1024,1024,2,0,0,0,19.6,0,0,82,4.077,4.063,0,0,0,0,4.185,93.02,3.6089568084,3.608924,38,Tripod,
238500,2022-08-12 04:48:41,0,0,3.608924,,,3.6089568084,3.608924,0,0,0,0,0,8.143,3.9370408084,3.937008,0,0,0,0,0,16.9, 0.3, 0,0,0,1038,1024,1024,1024,2,0,0,0,19.6,0,0,82,4.077,4.063,0,0,0,0,4.185,93.02,3.6089568084,3.608924,38,Tripod,
238600,2022-08-12 04:48:41,0,0,3.608924,,,3.6089568084,3.608924,0,0,0,0,0,8.143,3.9370408084,3.937008,0,0,0,0,0,17, 0.1, 0.1,0,0,1039,1024,1024,1024,2,0,0,0,19.6,0,0,82,4.077,4.063,0,0,0,0,4.185,93.02,3.6089568084,3.608924,38,Tripod,
238700,2022-08-12 04:48:41,0,0,3.608924,,,3.6089568084,3.608924,0,0,0,0,0,8.143,3.9370408084,3.937008,0,0,0,0,0,17, 0, 0.1,0,0,1038,1024,1024,1024,2,0,0,0,19.6,0,0,82,4.077,4.063,0,0,0,0,4.185,93.02,3.6089568084,3.608924,38,Tripod,
238800,2022-08-12 04:48:41,0,0,3.608924,,,3.6089568084,3.608924,0,0,0,0,0,8.143,3.9370408084,3.937008,0,0,0,0,0,17, 0, 0.2,0,0,1039,1024,1024,1024,2,0,0,0,19.6,0,0,82,4.077,4.063,0,0,0,0,4.185,93.02,3.6089568084,3.608924,38,Tripod,
238900,2022-08-12 04:48:41,0,0,3.608924,,,3.6089568084,3.608924,0,0,0,0,0,8.143,3.9370408084,3.937008,0,0,0,0,0,17, 0, 0.2,0,0,1039,1024,1024,1024,2,0,0,0,19.6,0,0,82,4.077,4.063,0,0,0,0,4.185,93.02,3.6089568084,3.608924,38,Tripod,
239000,2022-08-12 04:48:41,0,0,3.608924,,,3.6089568084,3.608924,0,0,0,0,0,8.143,3.9370408084,3.937008,0,0,0,0,0,17, 0, 0.2,0,0,1049,1024,1024,1024,4,0,0,0,19.6,0,0,82,4.077,4.063,0,0,0,0,4.185,93.02,3.6089568084,3.608924,38,Tripod,
239100,2022-08-12 04:48:41,0,0,3.608924,,,3.6089568084,3.608924,0,0,0,0,0,8.143,3.9370408084,3.937008,0,0,0,0,0,16.9, 0, 0,0,0,1061,1024,1024,1024,6,0,0,0,19.6,0,0,82,4.077,4.063,0,0,0,0,4.185,93.02,3.6089568084,3.608924,38,Tripod,
239200,2022-08-12 04:48:41,0,0,3.608924,,,3.6089568084,3.608924,0,0,0,0,0,8.143,3.9370408084,3.937008,0,0,0,0,0,16.9, 0, 0,0,0,1083,1024,1024,1024,9,0,0,0,19.6,0,0,82,4.077,4.063,0,0,0,0,4.185,93.02,3.6089568084,3.608924,38,Tripod,
239300,2022-08-12 04:48:41,0,0,3.608924,,,3.6089568084,3.608924,0,0,0,0,0,8.143,3.9370408084,3.937008,0,0,0,0,0,16.9, 0, 0,0,0,1083,1024,1024,1024,9,0,0,0,19.6,0,0,82,4.077,4.063,0,0,0,0,4.185,93.02,3.6089568084,3.608924,38,Tripod,
239400,2022-08-12 04:48:41,0,0,3.608924,,,3.6089568084,3.608924,0,0,0,0,0,8.139,3.9370408084,3.937008,0,0,0,0,0,17, -0.1, 0,0,0,1082,1024,1024,1024,9,0,0,0,19.6,0,0,82,4.075,4.064,0,0,0,0,4.217,93.02,3.6089568084,3.608924,38,Tripod,
239500,2022-08-12 04:48:41,0,0,3.608924,,,3.6089568084,3.608924,0,0,0,0,0,8.139,3.9370408084,3.937008,0,0,0,0,0,16.9, -0.2, 0.1,0,0,1082,1024,1024,1024,9,0,0,0,19.6,0,0,82,4.075,4.064,0,0,0,0,4.217,93.02,3.6089568084,3.608924,38,Tripod,
239600,2022-08-12 04:48:42,0,0,3.608924,,,3.6089568084,3.608924,0,0,0,0,0,8.139,3.9370408084,3.937008,0,0,0,0,0,16.9, -0.2, 0.2,0,0,1082,1024,1024,1024,9,0,0,0,19.6,0,0,82,4.075,4.064,0,0,0,0,4.217,93.02,3.6089568084,3.608924,38,Tripod,
239700,2022-08-12 04:48:42,0,0,3.608924,,,3.6089568084,3.608924,0,0,0,0,0,8.139,3.9370408084,3.937008,0,0,0,0,0,17, -0.3, 0.2,0,0,1099,1024,1024,1024,11,0,0,0,19.6,0,0,82,4.075,4.064,0,0,0,0,4.217,93.02,3.6089568084,3.608924,38,Tripod,
239800,2022-08-12 04:48:42,0,0,3.608924,,,3.6089568084,3.608924,0,0,0,0,0,8.139,3.9370408084,3.937008,0,0,0,0,0,17, -0.3, 0.1,0,0,1099,1024,1024,1024,11,0,0,0,19.6,0,0,82,4.075,4.064,0,0,0,0,4.217,93.02,3.6089568084,3.608924,38,Tripod,
239900,2022-08-12 04:48:42,0,0,3.608924,,,3.6089568084,3.608924,0,0,0,0,0,8.139,3.9370408084,3.937008,0,0,0,0,0,17, -0.2, 0.1,0,0,1162,1024,1024,1024,21,0,0,0,19.6,0,0,82,4.075,4.064,0,0,0,0,4.217,93.02,3.6089568084,3.608924,38,Tripod,
240000,2022-08-12 04:48:42,0,0,3.608924,,,3.6089568084,3.608924,0,0,0,0,0,8.139,3.9370408084,3.937008,0,0,0,0,0,17, -0.6, 0,0,0,1187,1024,1024,1024,25,0,0,0,19.6,0,0,82,4.075,4.064,0,0,0,0,4.217,93.02,3.6089568084,3.608924,38,Tripod,
240100,2022-08-12 04:48:42,0,0,3.608924,,,3.6089568084,3.608924,0,0,0,0,0,8.139,3.9370408084,3.937008,0,0,0,0,0,17, -1.3, 0,0,0,1186,1024,1024,1024,25,0,0,0,19.6,0,0,82,4.075,4.064,0,0,0,0,4.217,93.02,3.6089568084,3.608924,38,Tripod,
240200,2022-08-12 04:48:42,0,0,3.608924,,,3.6089568084,3.608924,0,0,0,0,0,8.139,3.9370408084,3.937008,0,0,0,0,0,17, -1.5, 0.1,0,0,1185,1024,1024,1024,24,0,0,0,19.6,0,0,82,4.075,4.064,0,0,0,0,4.217,93.02,3.6089568084,3.608924,38,Tripod,
240300,2022-08-12 04:48:42,0,0,3.608924,,,3.6089568084,3.608924,0,0,0,0,0,8.139,3.9370408084,3.937008,0,0,0,0,0,17, -1.6, 0.2,0,0,1185,1024,1024,1024,24,0,0,0,19.6,0,0,82,4.075,4.064,0,0,0,0,4.217,93.02,3.6089568084,3.608924,38,Tripod,
240400,2022-08-12 04:48:42,0,0,3.608924,,,3.6089568084,3.608924,0,0,0,0,0,8.137,3.9370408084,3.937008,0,0,0,0,0,17, -1.5, 0.2,0,0,1186,1024,1024,1024,25,0,0,0,19.6,0,0,82,4.074,4.061,0,0,0,0,4.219,93.2,3.6089568084,3.608924,38,Tripod,
240500,2022-08-12 04:48:42,0,0,3.608924,,,3.6089568084,3.608924,0.223694,0,0,0,0,8.137,3.9370408084,3.937008,0,0,0.223694,0,0,17, -1.4, 0.1,0,0,1186,1024,1024,1024,25,0,0,0,19.6,0,0,82,4.074,4.061,0,0,0,0,4.219,93.2,3.6089568084,3.608924,38,Tripod,
240600,2022-08-12 04:48:43,0,0,3.608924,,,3.6089568084,3.608924,0.223694,0,0,0,0,8.137,3.9370408084,3.937008,0,0,0.223694,0,0,17, -1.4, 0.2,0,0,1186,1024,1024,1024,25,0,0,0,19.6,0,0,82,4.074,4.061,0,0,0,0,4.219,93.2,3.6089568084,3.608924,38,Tripod,
