time(millisecond),datetime(utc),latitude,longitude,height_above_takeoff(feet),height_above_ground_at_drone_location(feet),ground_elevation_at_drone_location(feet),altitude_above_seaLevel(feet),height_sonar(feet),speed(mph),distance(feet),mileage(feet),satellites,gpslevel,voltage(v),max_altitude(feet),max_ascent(feet),max_speed(mph),max_distance(feet), xSpeed(mph), ySpeed(mph), zSpeed(mph), compass_heading(degrees), pitch(degrees), roll(degrees),isPhoto,isVideo,rc_elevator,rc_aileron,rc_throttle,rc_rudder,rc_elevator(percent),rc_aileron(percent),rc_throttle(percent),rc_rudder(percent),gimbal_heading(degrees),gimbal_pitch(degrees),gimbal_roll(degrees),battery_percent,voltageCell1,voltageCell2,voltageCell3,voltageCell4,voltageCell5,voltageCell6,current(A),battery_temperature(f),altitude(feet),ascent(feet),flycStateRaw,flycState,message
2300,2022-08-11 21:01:28,-34.9222725028146,-56.1537711916299,0,0,79.78517807806,79.78517807806,0.328084,0,0,0,14,4,0,79.78517807806,0,0,0,0,0,0,254.9, 3.3, -1.7,0,0,364,364,364,1684,-100,-100,-100,100,265.6,0,0,27,3.764,3.76,0,0,0,0,0,81.5,79.78517807806,0,41,Motors_Started,"Aeronave en Zona de altitud restringida (150). Vuela con precaución (Code: 190001). El motor no puede girar. Comprueba su estado (Code: 30142). Baja velocidad de la tarjeta SD. Puede afectar a su uso normal. Sustituye la tarjeta SD (Code: 10028)"
2400,2022-08-11 21:01:28,-34.9222722104372,-56.153771029699,0,0.032808400000005,79.75236967806,79.78517807806,0.328084,0,0.117157484064,0.117157484064,14,4,0,79.78517807806,0,0,0.117157484064,0,0,0,254.9, 3.2, -1.7,0,0,364,364,364,1684,-100,-100,-100,100,265.6,0,0,27,3.764,3.76,0,0,0,0,0,81.5,79.78517807806,0,41,Motors_Started,"Setting new Return-To-Home altitude to 40m (131 ft). Data Recorder File Index is 22. Setting new Maximum Flight Altitude to 120m (394 ft)"
2500,2022-08-11 21:01:28,-34.9222719304979,-56.1537708744289,0,0.032808400000005,79.75236967806,79.78517807806,0.328084,0,0.229359259308,0.229359259308,15,4,0,79.78517807806,0,0,0.229359259308,0,0,0,254.9, 3.2, -1.7,0,0,364,364,364,1684,-100,-100,-100,100,265.6,0,0,27,3.764,3.76,0,0,0,0,0,81.5,79.78517807806,0,41,Motors_Started,
2600,2022-08-11 21:01:28,-34.9222716290306,-56.153770704663,0,0.032808400000005,79.75236967806,79.78517807806,0.328084,0,0.35050526056,0.3505085414,15,4,0,79.78517807806,0,0,0.35050526056,0,0,0,254.9, 3.3, -1.6,0,0,802,908,1024,1100,-34,-18,0,12,265.6,0,0,27,3.764,3.76,0,0,0,0,0,81.5,79.78517807806,0,41,Motors_Started,
2700,2022-08-11 21:01:28,-34.9222712512479,-56.1537689076261,0,0.098425200000004,79.68675287806,79.78517807806,0.328084,0,0.82180448824,0.90548231244,15,4,0,79.78517807806,0,0,0.82180448824,0,0,0,254.9, 3.3, -1.6,0,0,1024,1024,1024,1024,0,0,0,0,265.6,0,0,27,3.764,3.76,0,0,0,0,0,81.5,79.78517807806,0,41,Motors_Started,
2800,2022-08-11 21:01:28,-34.9222709320826,-56.1537688787466,0,0.098425200000004,79.68675287806,79.78517807806,0.328084,0,0.89841538308,1.02224740804,15,4,7.549,79.78517807806,0,0,0.89841538308,0,0,0,254.9, 3.3, -1.7,0,0,1024,1024,1024,1024,0,0,0,0,265.6,0,0,27,3.764,3.76,0,0,0,0,0.618,81.5,79.78517807806,0,41,Motors_Started,
2900,2022-08-11 21:01:28,-34.9222706536806,-56.1537688691981,0,0.098425200000004,79.68675287806,79.78517807806,0.328084,0,0.96842522784,1.12386486536,15,4,7.549,79.78517807806,0,0,0.96842522784,0,0,0,254.9, 3.3, -1.6,0,0,1024,1024,1024,1024,0,0,0,0,265.6,0,0,27,3.764,3.76,0,0,0,0,0.618,81.5,79.78517807806,0,41,Motors_Started,
3000,2022-08-11 21:01:28,-34.9222704377978,-56.1537689283296,0,0.1312336,79.65394447806,79.78517807806,0.328084,0,1.01294622664,1.20458993356,15,4,7.549,79.78517807806,0,0,1.01294622664,0,0,0,254.9, 3.3, -1.6,0,0,1024,1024,1024,1024,0,0,0,0,265.6,0,0,27,3.764,3.76,0,0,0,0,0.618,81.5,79.78517807806,0,41,Motors_Started,
3100,2022-08-11 21:01:28,-34.9222702443256,-56.1537689835182,0,0.1312336,79.65394447806,79.78517807806,0.328084,0,1.05608927264,1.2770833742,15,4,7.549,79.78517807806,0,0,1.05608927264,0,0,0,254.8, 3.3, -1.6,0,0,1024,1024,1024,1024,0,0,0,0,265.6,0,0,27,3.764,3.76,0,0,0,0,0.618,81.5,79.78517807806,0,41,Motors_Started,
3200,2022-08-11 21:01:28,-34.9222703686573,-56.1537690649166,0,0.1312336,79.65394447806,79.78517807806,0.328084,0,1.00550856236,1.32856959632,15,4,7.549,79.78517807806,0,0,1.05608927264,0,0,0,254.8, 3.4, -1.6,0,0,1024,1024,1024,1024,0,0,0,0,265.6,0,0,27,3.764,3.76,0,0,0,0,0.618,81.5,79.78517807806,0,41,Motors_Started,
3300,2022-08-11 21:01:29,-34.9222701644146,-56.1537691167956,0,0.1312336,79.65394447806,79.78517807806,0.328084,0,1.05505580804,1.40468508432,16,4,7.549,79.78517807806,0,0,1.05608927264,0,0,0,254.9, 3.3, -1.7,0,0,1024,1024,1024,1024,0,0,0,0,265.6,0,0,27,3.764,3.76,0,0,0,0,0.618,81.5,79.78517807806,0,41,Motors_Started,
3400,2022-08-11 21:01:29,-34.9222698326191,-56.1537691683782,0,0.1312336,79.65394447806,79.78517807806,0.328084,0,1.14692588972,1.52671920896,16,4,7.549,79.78517807806,0,0,1.14692588972,0,0,0,254.9, 3.3, -1.6,0,0,1024,1024,1669,1024,0,0,98,0,265.6,0,0,27,3.764,3.76,0,0,0,0,0.618,81.5,79.78517807806,0,10,Assisted_Takeoff,
3500,2022-08-11 21:01:29,-34.9222695245468,-56.153769204497,0,0.1312336,79.65394447806,79.78517807806,0.328084,0,1.23859255932,1.63963916008,15,4,7.549,79.78517807806,0,0,1.23859255932,0,0,0,254.9, 3.3, -1.6,0,0,1024,1024,1684,1085,0,0,100,9,265.6,0,0,27,3.764,3.76,0,0,0,0,0.618,81.5,79.78517807806,0,10,Assisted_Takeoff,
3600,2022-08-11 21:01:29,-34.9222690839843,-56.1537690808465,0,0.164042,79.62113607806,79.78517807806,0.328084,0,1.39807747256,1.80458011024,15,4,7.549,79.78517807806,0,0,1.39807747256,0,0,0,254.9, 3.2, -1.6,0,0,1024,1024,1684,1148,0,0,100,19,265.6,0,0,27,3.764,3.76,0,0,0,0,0.618,81.5,79.78517807806,0,10,Assisted_Takeoff,
3700,2022-08-11 21:01:29,-34.9222687777489,-56.1537690302866,0,0.164042,79.62113607806,79.78517807806,0.328084,0,1.50504926076,1.91732617684,15,4,7.549,79.78517807806,0,0,1.50504926076,0,0,0,254.9, 3.3, -1.6,0,0,1024,1024,1684,1127,0,0,100,16,265.6,0,0,27,3.764,3.76,0,0,0,0,0.618,81.5,79.78517807806,0,10,Assisted_Takeoff,
3800,2022-08-11 21:01:29,-34.9222683593821,-56.1537688522455,0,0.19685040000001,79.58832767806,79.78517807806,0.328084,0,1.66585963336,2.07899284868,15,4,7.501,79.78517807806,0,0,1.66585963336,0,0,0,254.9, 3.2, -1.5,0,0,1024,1024,1684,1060,0,0,100,5,265.6,0,0,27,3.757,3.757,0,0,0,0,1.623,81.5,79.78517807806,0,10,Assisted_Takeoff,
3900,2022-08-11 21:01:29,-34.9222679592148,-56.1537687172559,0,0.19685040000001,79.58832767806,79.78517807806,0.328084,0,1.81548234156,2.23047579316,16,4,7.501,79.78517807806,0,0,1.81548234156,0,0,0,254.9, 2.9, -1.4,0,0,1024,1024,1684,1060,0,0,100,5,265.6,0,0,27,3.757,3.757,0,0,0,0,1.623,81.5,79.78517807806,0,10,Assisted_Takeoff,
4000,2022-08-11 21:01:29,-34.9222672288805,-56.1537684506239,0,0.2296588,79.55551927806,79.78517807806,0.328084,0,2.09162080184,2.50862212752,16,4,7.501,79.78517807806,0,0,2.09162080184,0,0,0,254.9, 2, -1.3,0,0,1024,1024,1684,1040,0,0,100,2,265.5,0,0,27,3.757,3.757,0,0,0,0,1.623,81.5,79.78517807806,0,10,Assisted_Takeoff,
4100,2022-08-11 21:01:29,-34.9222668912422,-56.1537684103805,0,0.2296588,79.55551927806,79.78517807806,0.328084,0,2.20998038568,2.63239509736,16,4,7.501,79.78517807806,0,0,2.20998038568,0,0,0,255, 0.4, -0.3,0,0,1024,1024,1684,1034,0,0,100,2,265.5,0,0,27,3.757,3.757,0,0,0,0,1.623,81.5,79.78517807806,0,10,Assisted_Takeoff,
4200,2022-08-11 21:01:29,-34.922266683951,-56.153768264326,0,0.2296588,79.55551927806,79.78517807806,0.328084,0,2.29652566404,2.71973761984,16,4,7.501,79.78517807806,0,0,2.29652566404,0,0,-0.223694,255.5, 0.4, 0,0,0,1024,1024,1684,1035,0,0,100,2,265.6,0,0,27,3.757,3.757,0,0,0,0,1.623,81.5,79.78517807806,0,6,P-GPS,"Baja velocidad de la tarjeta SD. Puede afectar a su uso normal. Sustituye la tarjeta SD (Code: 10028)"
4300,2022-08-11 21:01:30,-34.9222665231812,-56.153768109564,0,0.2296588,79.55551927806,79.78517807806,0.328084,0,2.36849088944,2.79446531252,16,4,7.501,79.78517807806,0,0,2.36849088944,0,0,-0.671082,255.6, -0.3, 0.4,0,0,1024,1024,1334,1024,0,0,47,0,265.6,0,0,27,3.757,3.757,0,0,0,0,1.623,81.5,79.78517807806,0,6,P-GPS,
4400,2022-08-11 21:01:30,-34.922266788191,-56.1537676997195,0.328084,0.5577428,79.55551927806,80.11326207806,0.656168,0,2.33202435284,2.9506070498,16,4,7.501,80.11326207806,0.328084,0,2.36849088944,0,0,-1.11847,255.3, 0, 0,0,0,1024,1024,1024,1024,0,0,0,0,265.6,0,0,27,3.757,3.757,0,0,0,0,1.623,81.5,80.11326207806,0.328084,6,P-GPS,"Baja velocidad de la tarjeta SD. Puede afectar a su uso normal. Sustituye la tarjeta SD (Code: 10028)"
4500,2022-08-11 21:01:30,-34.9222666588762,-56.1537675456444,0.328084,0.5577428,79.55551927806,80.11326207806,0.656168,0,2.39493774068,3.01656505716,16,4,7.501,80.11326207806,0.328084,0,2.39493774068,0,0,-1.11847,255.2, -0.4, 0,0,0,1024,1024,1024,1024,0,0,0,0,265.6,0,0,27,3.757,3.757,0,0,0,0,1.623,81.5,80.11326207806,0.328084,6,P-GPS,
4600,2022-08-11 21:01:30,-34.9222664687586,-56.1537673878393,0.656168,0.9514436,79.48990247806,80.44134607806,0.984252,0,2.47821202156,3.10046925932,16,4,7.501,80.44134607806,0.656168,0,2.47821202156,0,0,-1.342164,255.2, -0.5, 0.4,0,0,1024,1024,1024,1024,0,0,0,0,265.6,0,0,27,3.757,3.757,0,0,0,0,1.623,81.5,80.44134607806,0.656168,6,P-GPS,
4700,2022-08-11 21:01:30,-34.9222663557739,-56.1537672616524,0.656168,0.9514436,79.48990247806,80.44134607806,0.984252,0,2.53220480544,3.1563649304,17,4,7.501,80.44134607806,0.656168,0,2.53220480544,0,0,-1.342164,255.1, -0.4, 1.1,0,0,1024,1024,1024,1024,0,0,0,0,265.6,0,0,27,3.757,3.757,0,0,0,0,1.623,81.5,80.44134607806,0.656168,6,P-GPS,
4800,2022-08-11 21:01:30,-34.9222663922999,-56.1537672130738,0.984252,1.2795276,79.48990247806,80.76943007806,0.984252,0,2.52722120948,3.1760827788,17,4,7.501,80.76943007806,0.984252,0,2.53220480544,0,0,-1.11847,255.1, -0.1, 2,0,0,1024,1024,1024,1024,0,0,0,0,265.6,0,0,27,3.757,3.757,0,0,0,0,1.623,81.5,80.76943007806,0.984252,6,P-GPS,
4900,2022-08-11 21:01:30,-34.9222668136435,-56.1537672681762,0.984252,1.2467192,79.52271087806,80.76943007806,1.312336,0.223694,2.3845473204,3.3306759596,16,4,7.41,80.76943007806,0.984252,0.223694,2.53220480544,-0.223694,0,-0.894776,255.1, 0.5, 2.2,0,0,1024,1024,1024,1024,0,0,0,0,265.6,0,0,27,3.681,3.672,0,0,0,0,3.016,81.5,80.76943007806,0.984252,6,P-GPS,
5000,2022-08-11 21:01:30,-34.9222671933739,-56.1537671800882,0.984252,1.2467192,79.52271087806,80.76943007806,1.312336,0.223694,2.27874351124,3.4717192712,16,4,7.41,80.76943007806,0.984252,0.223694,2.53220480544,-0.223694,0,-0.894776,255.1, 0.3, 1.8,0,0,1024,1024,1024,1024,0,0,0,0,265.6,0,0,27,3.681,3.672,0,0,0,0,3.016,81.5,80.76943007806,0.984252,6,P-GPS,
5100,2022-08-11 21:01:30,-34.9222675115588,-56.1537670869235,1.312336,1.5419948,79.55551927806,81.09751407806,1.312336,0.223694,2.19637146136,3.5911090388,17,4,7.41,81.09751407806,1.312336,0.223694,2.53220480544,-0.223694,0,-0.671082,255, 0.2, 2,0,0,1024,1024,1024,1024,0,0,0,0,265.6,0,0,27,3.681,3.672,0,0,0,0,3.016,81.5,81.09751407806,1.312336,6,P-GPS,
5200,2022-08-11 21:01:30,-34.9222676743934,-56.1537669746396,1.312336,1.5419948,79.55551927806,81.09751407806,1.64042,0,2.16675203784,3.6593505108,17,4,7.41,81.09751407806,1.312336,0.223694,2.53220480544,0,0,-0.447388,255, 0.1, 1.9,0,0,1024,1024,1024,1024,0,0,0,0,265.6,0,0,27,3.681,3.672,0,0,0,0,3.016,81.5,81.09751407806,1.312336,6,P-GPS,
5300,2022-08-11 21:01:31,-34.9222686608853,-56.1537670207458,1.312336,1.5091864,79.58832767806,81.09751407806,1.64042,0,1.87660439076,4.0195539344,17,4,7.41,81.09751407806,1.312336,0.223694,2.53220480544,0,0,-0.223694,255.1, 0.1, 1.8,0,0,1024,1024,1024,1024,0,0,0,0,265.6,0,0,27,3.681,3.672,0,0,0,0,3.016,81.5,81.09751407806,1.312336,6,P-GPS,
5400,2022-08-11 21:01:31,-34.9222687750946,-56.1537674701089,1.312336,1.5091864,79.58832767806,81.09751407806,1.64042,0,1.75760832396,4.160269162,17,4,7.41,81.09751407806,1.312336,0.223694,2.53220480544,0,0,0,255.1, 0.1, 2.1,0,0,1024,1024,1024,1024,0,0,0,0,265.6,0,0,27,3.681,3.672,0,0,0,0,3.016,81.5,81.09751407806,1.312336,6,P-GPS,
5500,2022-08-11 21:01:31,-34.9222688693489,-56.1537678914388,1.312336,1.476378,79.62113607806,81.09751407806,1.64042,0,1.65289703452,4.2909122108,16,4,7.41,81.09751407806,1.312336,0.223694,2.53220480544,0,0,0,255.3, 0.3, 2.6,0,0,1024,1024,1024,1024,0,0,0,0,265.6,0,0,27,3.681,3.672,0,0,0,0,3.016,81.5,81.09751407806,1.312336,6,P-GPS,
5600,2022-08-11 21:01:31,-34.9222689156912,-56.1537682493651,1.64042,1.804462,79.62113607806,81.42559807806,1.64042,0,1.57720477488,4.3993111644,16,4,7.41,81.42559807806,1.64042,0.223694,2.53220480544,0,0,0,255.3, 0, 2.9,0,0,1024,1024,1024,1024,0,0,0,0,265.6,0,0,27,3.681,3.672,0,0,0,0,3.016,81.5,81.42559807806,1.64042,6,P-GPS,
5700,2022-08-11 21:01:31,-34.9222689408571,-56.1537697436512,1.64042,1.7716536,79.65394447806,81.42559807806,1.64042,0,1.3698655294,4.8464240396,15,4,7.41,81.42559807806,1.64042,0.223694,2.53220480544,0,0,0,255.2, -0.4, 3.1,0,0,1024,1024,1024,1024,0,0,0,0,265.6,0,0,27,3.681,3.672,0,0,0,0,3.016,81.5,81.42559807806,1.64042,6,P-GPS,
5800,2022-08-11 21:01:31,-34.9222691737279,-56.1537696040028,1.64042,1.7716536,79.65394447806,81.42559807806,1.64042,0,1.30416998924,4.941109082,15,4,7.41,81.42559807806,1.64042,0.223694,2.53220480544,0,0,0,255.2, -0.4, 3.4,0,0,1024,1024,1024,1024,0,0,0,0,265.6,0,0,27,3.681,3.672,0,0,0,0,3.016,81.5,81.42559807806,1.64042,6,P-GPS,
5900,2022-08-11 21:01:31,-34.9222694862556,-56.1537694059086,1.64042,1.804462,79.62113607806,81.42559807806,1.64042,0,1.22338258508,5.0696195848,13,4,7.386,81.42559807806,1.64042,0.223694,2.53220480544,0,0,0,255.2, 0, 3.6,0,0,1024,1024,1024,1024,0,0,0,0,265.6,0,0,27,3.694,3.689,0,0,0,0,4.531,81.5,81.42559807806,1.64042,6,P-GPS,
6000,2022-08-11 21:01:31,-34.9222700744658,-56.1537690341917,1.64042,1.7716536,79.65394447806,81.42559807806,1.64042,0,1.09613192484,5.3113190676,13,4,7.386,81.42559807806,1.64042,0.223694,2.53220480544,0,0,0,255.1, -0.2, 3.3,0,0,1024,1024,1024,1024,0,0,0,0,265.6,0,0,27,3.694,3.689,0,0,0,0,4.531,81.5,81.42559807806,1.64042,6,P-GPS,
6100,2022-08-11 21:01:31,-34.9222715042527,-56.1537671080385,1.64042,1.7388452,79.68675287806,81.42559807806,1.64042,0,1.27478022452,6.088582872,13,4,7.386,81.42559807806,1.64042,0.223694,2.53220480544,0,0,0,255.2, 0, 3.3,0,0,1024,1024,1024,1024,0,0,0,0,265.6,0,0,27,3.694,3.689,0,0,0,0,4.531,81.5,81.42559807806,1.64042,6,P-GPS,
6200,2022-08-11 21:01:31,-34.9222717610518,-56.15376671549,1.64042,1.7388452,79.68675287806,81.42559807806,1.64042,0,1.36611552928,6.2388125356,13,4,7.386,81.42559807806,1.64042,0.223694,2.53220480544,0,0,0,255.2, 0, 3.4,0,0,1024,1024,1024,1024,0,0,0,0,265.6,0,0,27,3.694,3.689,0,0,0,0,4.531,81.5,81.42559807806,1.64042,6,P-GPS,
6300,2022-08-11 21:01:32,-34.9222719404119,-56.1537663951362,1.64042,1.7388452,79.68675287806,81.42559807806,1.64042,0,1.44947183116,6.3548558464,13,4,7.386,81.42559807806,1.64042,0.223694,2.53220480544,0,0,0,255.2, 0, 3.7,0,0,1024,1024,1024,1024,0,0,0,0,265.6,0,0,27,3.694,3.689,0,0,0,0,4.531,81.5,81.42559807806,1.64042,6,P-GPS,
6400,2022-08-11 21:01:32,-34.922271985725,-56.1537662466877,1.64042,1.7388452,79.68675287806,81.42559807806,1.64042,0,1.49126645192,6.4022639844,13,4,7.386,81.42559807806,1.64042,0.223694,2.53220480544,0,0,0,255.2, -0.4, 3.6,0,0,1024,1024,1112,1024,0,0,13,0,265.6,0,0,27,3.694,3.689,0,0,0,0,4.531,81.5,81.42559807806,1.64042,6,P-GPS,
6500,2022-08-11 21:01:32,-34.9222719660957,-56.1537661912131,1.64042,1.7388452,79.68675287806,81.42559807806,1.64042,0,1.50864178056,6.4203414128,13,5,7.386,81.42559807806,1.64042,0.223694,2.53220480544,0,0,0,255.2, -0.1, 3.5,0,0,1024,1024,1499,1024,0,0,72,0,265.6,0,0,27,3.694,3.689,0,0,0,0,4.531,81.5,81.42559807806,1.64042,6,P-GPS,
6600,2022-08-11 21:01:32,-34.9222711491607,-56.153766843828,1.968504,2.0997376,79.65394447806,81.75368207806,1.64042,0,1.39125988704,6.7766406368,13,5,7.386,81.75368207806,1.968504,0.223694,2.53220480544,0,0,0,255.2, -0.2, 3.7,0,0,1024,1024,1684,1024,0,0,100,0,265.6,0,0,27,3.694,3.689,0,0,0,0,4.531,81.5,81.75368207806,1.968504,6,P-GPS,
6700,2022-08-11 21:01:32,-34.9222710152929,-56.153766997297,1.968504,2.0997376,79.65394447806,81.75368207806,1.64042,0,1.36708337708,6.843668198,13,5,7.386,81.75368207806,1.968504,0.223694,2.53220480544,0,0,-0.447388,255.7, 0, 4.6,0,0,1024,1024,1684,1035,0,0,100,2,265.6,0,0,27,3.694,3.689,0,0,0,0,4.531,81.5,81.75368207806,1.968504,6,P-GPS,
6800,2022-08-11 21:01:32,-34.9222708116364,-56.1537673159803,2.296588,2.4278216,79.65394447806,82.08176607806,1.968504,0,1.3133694646,6.9645343436,13,5,7.386,82.08176607806,2.296588,0.223694,2.53220480544,0,0,-1.11847,255.6, -0.6, 3.8,0,0,1024,1024,1684,1038,0,0,100,2,265.6,0,0,27,3.694,3.689,0,0,0,0,4.531,81.5,82.08176607806,2.296588,6,P-GPS,
6900,2022-08-11 21:01:32,-34.9222706020882,-56.1537676434978,2.296588,2.3950132,79.68675287806,82.08176607806,2.296588,0.223694,1.26788717968,7.0888125628,13,5,7.361,82.08176607806,2.296588,0.223694,2.53220480544,0.223694,0,-1.789552,255.6, 0.1, 0.7,0,0,1024,1024,1684,1038,0,0,100,2,265.6,0,0,26,3.683,3.677,0,0,0,0,4.558,81.5,82.08176607806,2.296588,6,P-GPS,
7000,2022-08-11 21:01:32,-34.9222702937098,-56.1537687745001,2.624672,2.7559056,79.65394447806,82.40985007806,2.624672,0,1.0828084336,7.445374254,13,5,7.361,82.40985007806,2.624672,0.223694,2.53220480544,0,0,-2.684328,255.9, -0.5, 1.2,0,0,1024,1024,1684,1038,0,0,100,2,265.6,0,0,26,3.683,3.677,0,0,0,0,4.558,81.5,82.40985007806,2.624672,6,P-GPS,
7100,2022-08-11 21:01:32,-34.9222702016408,-56.1537689860389,3.28084,3.4120736,79.65394447806,83.06601807806,2.952756,0.223694,1.06781827564,7.5170277996,12,4,7.361,83.06601807806,3.28084,0.223694,2.53220480544,0.223694,0,-3.35541,255.1, -0.4, 2.4,0,0,1024,1024,1291,1024,0,0,40,0,265.6,0,0,26,3.683,3.677,0,0,0,0,4.558,81.5,83.06601807806,3.28084,6,P-GPS,
7200,2022-08-11 21:01:32,-34.9222700631775,-56.1537691552262,3.937008,4.0682416,79.65394447806,83.72218607806,3.608924,0.223694,1.07860567756,7.5885173032,12,4,7.361,83.72218607806,3.937008,0.223694,2.53220480544,0.223694,0,-4.026492,255.1, -2.2, 1.3,0,0,1024,1024,1024,1024,0,0,0,0,265.6,0,0,26,3.683,3.677,0,0,0,0,4.558,81.5,83.72218607806,3.937008,6,P-GPS,
7300,2022-08-11 21:01:33,-34.9222700653238,-56.1537693543548,4.265092,4.3963256,79.65394447806,84.05027007806,4.265092,0.223694,1.04545278936,7.6480973576,14,4,7.361,84.05027007806,4.265092,0.223694,2.53220480544,0.223694,0,-4.026492,254.9, -1.4, 0.2,0,0,1024,1024,1024,1024,0,0,0,0,265.6,0,0,26,3.683,3.677,0,0,0,0,4.558,81.5,84.05027007806,4.265092,6,P-GPS,"Punto de origen actualizado. Altitud de RPO establecida en 40m (Code: 3000001)"
7400,2022-08-11 21:01:33,-34.9222712301986,-56.1537699861564,4.92126,5.0196852,79.68675287806,84.70643807806,4.593176,0.223694,0.58790356212,8.1132220444,14,4,7.361,84.70643807806,4.92126,0.223694,2.53220480544,0.223694,0,-3.35541,254.9, -2.4, -0.3,0,0,1024,1024,1024,1024,0,0,0,0,265.6,0,0,26,3.683,3.677,0,0,0,0,4.558,81.5,84.70643807806,4.92126,6,P-GPS,
7500,2022-08-11 21:01:33,-34.9222715758228,-56.1537703138124,5.249344,5.3149608,79.71956127806,85.03452207806,5.249344,0.223694,0.42818899008,8.272966144,14,4,7.361,85.03452207806,5.249344,0.223694,2.53220480544,0.223694,0,-2.908022,254.9, -2.4, 0,0,0,1024,1024,673,1024,0,0,-53,0,265.6,0,0,26,3.683,3.677,0,0,0,0,4.558,81.5,85.03452207806,5.249344,6,P-GPS,
7600,2022-08-11 21:01:33,-34.922271910924,-56.1537708567267,5.577428,5.6102364,79.75236967806,85.36260607806,5.577428,0,0.238059062736,8.4762469904,14,4,7.361,85.36260607806,5.577428,0.223694,2.53220480544,0,0,-2.23694,254.9, -2.2, 0.5,0,0,1024,1024,364,918,0,0,-100,-16,265.6,0,0,26,3.683,3.677,0,0,0,0,4.558,81.5,85.36260607806,5.577428,6,P-GPS,
7700,2022-08-11 21:01:33,-34.9222722543531,-56.1537714161599,5.577428,5.6102364,79.75236967806,85.36260607806,5.577428,0,0.112823822508,8.6853021152,14,4,7.361,85.36260607806,5.577428,0.223694,2.53220480544,0,0,-1.342164,254.8, -1.8, 0.7,0,0,1024,1024,899,1024,0,0,-19,0,265.6,0,0,26,3.683,3.677,0,0,0,0,4.558,81.5,85.36260607806,5.577428,6,P-GPS,
7800,2022-08-11 21:01:33,-34.9222730987599,-56.1537729652003,5.905512,5.905512,79.78517807806,85.69069007806,5.905512,0,0.57338912596,9.2417653876,14,4,7.361,85.69069007806,5.905512,0.223694,2.53220480544,0,0,-0.447388,254.9, -1.6, 1,0,0,1024,1024,1024,1024,0,0,0,0,265.5,0,0,26,3.683,3.677,0,0,0,0,4.558,81.5,85.69069007806,5.905512,6,P-GPS,
7900,2022-08-11 21:01:33,-34.9222734859681,-56.1537736222603,5.905512,5.8727036,79.81798647806,85.69069007806,5.905512,0,0.81078742752,9.4838257628,16,4,7.239,85.69069007806,5.905512,0.223694,2.53220480544,0,0,0.223694,254.9, -0.8, 1.4,0,0,1024,1024,1024,1024,0,0,0,0,265.5,0,0,26,3.682,3.679,0,0,0,0,6.044,81.5,85.69069007806,5.905512,6,P-GPS,
8000,2022-08-11 21:01:33,-34.9222740293212,-56.1537744617269,5.905512,5.8398952,79.85079487806,85.69069007806,5.577428,0,1.12568573156,9.8037732796,16,4,7.239,85.69069007806,5.905512,0.223694,2.53220480544,0,0,0.447388,254.9, -0.6, 0.9,0,0,1024,1024,1024,1024,0,0,0,0,265.5,0,0,26,3.682,3.679,0,0,0,0,6.044,81.5,85.69069007806,5.905512,6,P-GPS,
8100,2022-08-11 21:01:33,-34.9222745196034,-56.1537751261054,5.905512,5.8070868,79.88360327806,85.69069007806,5.577428,0,1.38808075308,10.0711617396,15,4,7.239,85.69069007806,5.905512,0.223694,2.53220480544,0,0,0.223694,254.8, -0.8, 1.7,0,0,1024,1024,1024,1024,0,0,0,0,265.4,0,0,26,3.682,3.679,0,0,0,0,6.044,81.5,85.69069007806,5.905512,6,P-GPS,
8200,2022-08-11 21:01:33,-34.9222749187024,-56.1537754485684,5.577428,5.4790028,79.88360327806,85.36260607806,5.577428,0,1.54875661124,10.2458336612,15,4,7.239,85.69069007806,5.905512,0.223694,2.53220480544,0,0,0.223694,254.8, -0.7, 2.3,0,0,1024,1024,1024,1024,0,0,0,0,265.4,0,0,26,3.682,3.679,0,0,0,0,6.044,81.5,85.36260607806,5.577428,6,P-GPS,
8300,2022-08-11 21:01:34,-34.9222755335801,-56.1537759139136,5.577428,5.413386,79.94922007806,85.36260607806,5.577428,0,1.79398627788,10.509842856,17,4,7.239,85.69069007806,5.905512,0.223694,2.53220480544,0,0,0,254.8, -0.8, 3,0,0,1024,1024,1024,1024,0,0,0,0,265.4,0,0,26,3.682,3.679,0,0,0,0,6.044,81.5,85.36260607806,5.577428,6,P-GPS,
8400,2022-08-11 21:01:34,-34.9222754739432,-56.1537758773259,5.577428,5.4461944,79.91641167806,85.36260607806,5.577428,0,1.77198496484,10.5342194972,17,4,7.239,85.69069007806,5.905512,0.223694,2.53220480544,0,0,0,254.8, -1.1, 3.1,0,0,1024,1024,1024,1024,0,0,0,0,265.4,0,0,26,3.682,3.679,0,0,0,0,6.044,81.5,85.36260607806,5.577428,6,P-GPS,
8500,2022-08-11 21:01:34,-34.9222754214226,-56.1537758541108,5.905512,5.7742784,79.91641167806,85.69069007806,5.577428,0,1.75480320576,10.5545935136,17,4,7.239,85.69069007806,5.905512,0.223694,2.53220480544,0,0,0,254.8, -1.1, 2.8,0,0,1024,1024,1024,1024,0,0,0,0,265.4,0,0,26,3.682,3.679,0,0,0,0,6.044,81.5,85.69069007806,5.905512,6,P-GPS,
8600,2022-08-11 21:01:34,-34.9222754634821,-56.1537759082016,5.905512,5.7742784,79.91641167806,85.69069007806,5.577428,0,1.77697840332,10.5769032256,17,4,7.239,85.69069007806,5.905512,0.223694,2.53220480544,0,0,0,254.7, -0.7, 2.5,0,0,1024,1024,1024,1024,0,0,0,0,265.4,0,0,26,3.682,3.679,0,0,0,0,6.044,81.5,85.69069007806,5.905512,6,P-GPS,
8700,2022-08-11 21:01:34,-34.9222746077283,-56.1537747932265,5.905512,5.8070868,79.88360327806,85.69069007806,5.577428,0,1.32311027856,11.0337601956,16,4,7.239,85.69069007806,5.905512,0.223694,2.53220480544,0,0,0,254.8, -0.9, 2.6,0,0,1024,1024,1024,1024,0,0,0,0,265.4,0,0,26,3.682,3.679,0,0,0,0,6.044,81.5,85.69069007806,5.905512,6,P-GPS,
8800,2022-08-11 21:01:34,-34.9222747516241,-56.1537748580152,5.905512,5.8070868,79.88360327806,85.69069007806,5.577428,0,1.36972773412,11.089731326,16,4,7.239,85.69069007806,5.905512,0.223694,2.53220480544,0,0,0,254.8, -1, 1.9,0,0,1225,1024,1024,1024,30,0,0,0,265.4,0,0,26,3.682,3.679,0,0,0,0,6.044,81.5,85.69069007806,5.905512,6,P-GPS,
8900,2022-08-11 21:01:34,-34.9222748960801,-56.1537749053185,5.905512,5.8070868,79.88360327806,85.69069007806,5.577428,0,1.41303154128,11.1442916952,17,4,7.349,85.69069007806,5.905512,0.223694,2.53220480544,0,0,0,254.9, -0.3, 2,0,0,1440,1024,1024,1024,63,0,0,0,265.4,0,0,26,3.675,3.667,0,0,0,0,3.879,81.5,85.69069007806,5.905512,6,P-GPS,
9000,2022-08-11 21:01:34,-34.9222750633148,-56.1537749033385,5.905512,5.8070868,79.88360327806,85.69069007806,5.577428,0,1.45107616192,11.2053153192,17,4,7.349,85.69069007806,5.905512,0.223694,2.53220480544,0,0,0,254.8, -1.6, 2.4,0,0,1440,1024,1024,1024,63,0,0,0,265.4,0,0,26,3.675,3.667,0,0,0,0,3.879,81.5,85.69069007806,5.905512,6,P-GPS,
9100,2022-08-11 21:01:34,-34.9222753494063,-56.1537743969134,5.905512,5.8070868,79.88360327806,85.69069007806,5.577428,0.223694,1.41352694812,11.3893048264,16,4,7.349,85.69069007806,5.905512,0.223694,2.53220480544,0,-0.223694,0,254.7, -8.1, 2,0,0,1684,1024,1024,1024,100,0,0,0,265.5,0,0,26,3.675,3.667,0,0,0,0,3.879,81.5,85.69069007806,5.905512,6,P-GPS,
9200,2022-08-11 21:01:34,-34.922275780475,-56.1537746658466,5.905512,5.7742784,79.91641167806,85.69069007806,5.577428,0.447388,1.58437341028,11.565945252,16,4,7.349,85.69069007806,5.905512,0.447388,2.53220480544,0,-0.447388,0,254.7, -13.9, 1.9,0,0,1684,1024,1024,1024,100,0,0,0,265.4,0,0,26,3.675,3.667,0,0,0,0,3.879,81.5,85.69069007806,5.905512,6,P-GPS,
9300,2022-08-11 21:01:35,-34.9222762429629,-56.1537751717075,5.905512,5.7742784,79.91641167806,85.69069007806,5.577428,1.1408394,1.81100399496,11.7926184876,18,4,7.349,85.69069007806,5.905512,1.1408394,2.53220480544,-0.223694,-1.11847,0,254.6, -20.1, 1.9,0,0,1684,1024,1024,1024,100,0,0,0,265.4,0,0,26,3.675,3.667,0,0,0,0,3.879,81.5,85.69069007806,5.905512,6,P-GPS,
9400,2022-08-11 21:01:35,-34.9222767900842,-56.1537761491226,5.905512,5.7086616,79.98202847806,85.69069007806,5.577428,1.8342908,2.15549219496,12.146653932,18,4,7.349,85.69069007806,5.905512,1.8342908,2.53220480544,-0.447388,-1.789552,0,254.7, -20.9, 2.1,0,0,1684,1024,1024,1024,100,0,0,0,265.4,0,0,26,3.675,3.667,0,0,0,0,3.879,81.5,85.69069007806,5.905512,6,P-GPS,
9500,2022-08-11 21:01:35,-34.9222781850615,-56.1537774714163,5.905512,5.6758532,80.01483687806,85.69069007806,5.905512,2.5053728,2.79770678244,12.7912405668,17,4,7.349,85.69069007806,5.905512,2.5053728,2.79770678244,-0.447388,-2.460634,0,254.7, -20.9, 1.7,0,0,1684,1024,1024,1024,100,0,0,0,265.4,0,0,26,3.675,3.667,0,0,0,0,3.879,81.5,85.69069007806,5.905512,6,P-GPS,
9600,2022-08-11 21:01:35,-34.9222789175323,-56.1537789960537,5.905512,5.6102364,80.08045367806,85.69069007806,5.905512,3.4225182,3.3058071924,13.3198495076,17,4,7.349,85.69069007806,5.905512,3.4225182,3.3058071924,-0.671082,-3.35541,0,254.6, -20.6, 2.4,0,0,1684,1024,1024,1024,100,0,0,0,265.5,0,0,26,3.675,3.667,0,0,0,0,3.879,81.5,85.69069007806,5.905512,6,P-GPS,
9700,2022-08-11 21:01:35,-34.9222796991398,-56.1537806505127,5.905512,5.577428,80.11326207806,85.69069007806,5.905512,4.1159696,3.8601051104,13.89107656,17,4,7.349,85.69069007806,5.905512,4.1159696,3.8601051104,-0.894776,-4.026492,0,254.8, -20.8, 2.2,0,0,1684,1024,1024,1024,100,0,0,0,265.5,0,0,26,3.675,3.667,0,0,0,0,3.879,81.5,85.69069007806,5.905512,6,P-GPS,
9800,2022-08-11 21:01:35,-34.9222805913773,-56.1537824723657,5.905512,5.5118112,80.17887887806,85.69069007806,5.905512,5.0554844,4.4830053928,14.5258862916,17,4,7.349,85.69069007806,5.905512,5.0554844,4.4830053928,-1.11847,-4.921268,0,254.9, -19.9, 3.2,0,0,1684,1024,1024,1024,100,0,0,0,265.4,0,0,26,3.675,3.667,0,0,0,0,3.879,81.5,85.69069007806,5.905512,6,P-GPS,
9900,2022-08-11 21:01:35,-34.9222813680474,-56.1537846005395,5.905512,5.4790028,80.21168727806,85.69069007806,5.905512,5.480503,5.152887304,15.222769516,15,4,7.336,85.69069007806,5.905512,5.480503,5.152887304,-1.11847,-5.368656,0,254.8, -19.5, 1.7,0,0,1684,1024,1152,1024,100,0,19,0,265.4,0,0,26,3.661,3.656,0,0,0,0,4.769,81.5,85.69069007806,5.905512,6,P-GPS,
10000,2022-08-11 21:01:35,-34.922281550837,-56.1537871746354,5.905512,5.413386,80.27730407806,85.69069007806,5.905512,6.1963238,5.8102364064,15.9956698032,15,4,7.336,85.69069007806,5.905512,6.1963238,5.8102364064,-1.342164,-6.039738,0,254.8, -19.6, 1.9,0,0,1684,1024,1152,1024,100,0,19,0,265.4,0,0,26,3.661,3.656,0,0,0,0,4.769,81.5,85.69069007806,5.905512,6,P-GPS,
10100,2022-08-11 21:01:35,-34.9222821210073,-56.1537902332172,5.905512,5.3805776,80.31011247806,85.69069007806,5.905512,6.6660812,6.69045297,16.9340228516,16,4,7.336,85.69069007806,5.905512,6.6660812,6.69045297,-1.565858,-6.487126,0,254.7, -20.4, 0.1,0,0,1474,1024,1409,1024,68,0,58,0,265.4,0,0,26,3.661,3.656,0,0,0,0,4.769,81.5,85.69069007806,5.905512,6,P-GPS,
10200,2022-08-11 21:01:35,-34.9222828628613,-56.1537939530671,5.905512,5.2821524,80.40853767806,85.69069007806,5.905512,7.381902,7.78789395,18.0792656704,16,4,7.336,85.69069007806,5.905512,7.381902,7.78789395,-1.789552,-7.158208,-0.447388,254.8, -17.6, 0.3,0,0,1024,1024,1641,1024,0,0,93,0,265.4,0,0,26,3.661,3.656,0,0,0,0,4.769,81.5,85.69069007806,5.905512,6,P-GPS,
10300,2022-08-11 21:01:36,-34.9222836184072,-56.1537977978742,5.905512,5.1837272,80.50696287806,85.69069007806,5.905512,7.8069206,8.9329399184,19.2620084904,16,4,7.336,85.69069007806,5.905512,7.8069206,8.9329399184,-1.789552,-7.605596,-1.11847,254.7, -3, 0.9,0,0,1024,1024,1436,1024,0,0,62,0,265.4,0,0,26,3.661,3.656,0,0,0,0,4.769,81.5,85.69069007806,5.905512,6,P-GPS,
10400,2022-08-11 21:01:36,-34.9222837305809,-56.1538031657111,6.233596,5.4461944,80.57257967806,86.01877407806,6.233596,7.158208,10.405348102,20.8683077544,16,4,7.336,86.01877407806,6.233596,7.8069206,10.405348102,-1.789552,-6.934514,-2.013246,255.1, 19.7, 0.6,0,0,1024,1024,1024,1024,0,0,0,0,265.4,0,0,26,3.661,3.656,0,0,0,0,4.769,81.5,86.01877407806,6.233596,6,P-GPS,
10500,2022-08-11 21:01:36,-34.9222843536041,-56.1538065572866,6.233596,5.3805776,80.63819647806,86.01877407806,6.56168,6.0173686,11.4291014156,21.9080715672,16,4,7.336,86.01877407806,6.233596,7.8069206,11.4291014156,-1.565858,-5.816044,-2.23694,255.2, 20, 0.8,0,0,1024,1024,1024,1024,0,0,0,0,265.4,0,0,26,3.661,3.656,0,0,0,0,4.769,81.5,86.01877407806,6.233596,6,P-GPS,
10600,2022-08-11 21:01:36,-34.9222850125572,-56.1538094781399,6.56168,5.6430448,80.70381327806,86.34685807806,6.889764,5.1002232,12.3293639116,22.814305192,16,4,7.336,86.34685807806,6.56168,7.8069206,12.3293639116,-1.342164,-4.921268,-2.013246,255.3, 19.2, 1.5,0,0,1024,1024,1024,1024,0,0,0,0,265.4,0,0,26,3.661,3.656,0,0,0,0,4.769,81.5,86.34685807806,6.56168,6,P-GPS,
10700,2022-08-11 21:01:36,-34.9222855609194,-56.1538119155814,6.889764,5.905512,80.76943007806,86.67494207806,7.217848,4.3844024,13.081037164,23.5704075784,19,4,7.336,86.67494207806,6.889764,7.8069206,13.081037164,-1.11847,-4.250186,-1.342164,255.3, 18.9, 2,0,0,1465,1024,1024,1024,67,0,0,0,265.4,0,0,26,3.661,3.656,0,0,0,0,4.769,81.5,86.67494207806,6.889764,6,P-GPS,
10800,2022-08-11 21:01:36,-34.9222857917937,-56.1538142664081,6.889764,5.8727036,80.80223847806,86.67494207806,7.217848,3.467257,13.7678154012,24.278708126,19,4,7.336,86.67494207806,6.889764,7.8069206,13.7678154012,-0.894776,-3.35541,-0.671082,255.4, 21.4, 2.8,0,0,1684,1024,1024,1024,100,0,0,0,265.4,0,0,26,3.661,3.656,0,0,0,0,4.769,81.5,86.67494207806,6.889764,6,P-GPS,
10900,2022-08-11 21:01:36,-34.9222860664731,-56.1538159787031,6.889764,5.8398952,80.83504687806,86.67494207806,7.217848,2.5501116,14.282808856,24.8006569616,17,4,7.261,86.67494207806,6.889764,7.8069206,14.282808856,-0.671082,-2.460634,-0.223694,255, 10.5, 2.9,0,0,1684,1024,1024,1024,100,0,0,0,265.5,0,0,26,3.678,3.673,0,0,0,0,5.724,81.68,86.67494207806,6.889764,6,P-GPS,
11000,2022-08-11 21:01:36,-34.9222860499933,-56.1538173588819,6.889764,5.8398952,80.83504687806,86.67494207806,7.217848,2.3264176,14.6687668736,25.213583484,17,4,7.261,86.67494207806,6.889764,7.8069206,14.6687668736,-0.671082,-2.23694,0,254.4, -7.2, 2.1,0,0,1684,1024,1347,1024,100,0,49,0,265.4,0,0,26,3.678,3.673,0,0,0,0,5.724,81.68,86.67494207806,6.889764,6,P-GPS,
11100,2022-08-11 21:01:36,-34.9222861142712,-56.1538185487533,6.889764,5.8070868,80.86785527806,86.67494207806,7.217848,2.5501116,15.012139588,25.5702764088,18,4,7.261,86.67494207806,6.889764,7.8069206,15.012139588,-0.671082,-2.460634,0,256.6, -15.6, 1.6,0,0,1544,1024,1405,1024,79,0,58,0,265.4,0,0,26,3.678,3.673,0,0,0,0,5.724,81.68,86.67494207806,6.889764,6,P-GPS,
11200,2022-08-11 21:01:36,-34.9222863947283,-56.1538183530465,7.217848,6.1351708,80.86785527806,87.00302607806,7.217848,3.1988242,14.9911750204,25.6881897984,18,4,7.261,87.00302607806,7.217848,7.8069206,15.012139588,-0.671082,-3.131716,-0.447388,256.7, -16.9, 1.5,0,0,1105,1024,1168,1024,12,0,22,0,265.4,0,0,26,3.678,3.673,0,0,0,0,5.724,81.68,87.00302607806,7.217848,6,P-GPS,
11300,2022-08-11 21:01:37,-34.9222869627101,-56.1538197609242,7.217848,6.1023624,80.90066367806,87.00302607806,7.545932,3.914645,15.4577104684,26.1575795772,18,4,7.261,87.00302607806,7.217848,7.8069206,15.4577104684,-0.894776,-3.802798,-0.894776,256.8, -8.8, 1.7,0,0,1024,1024,1486,1024,0,0,70,0,265.4,0,0,26,3.678,3.673,0,0,0,0,5.724,81.68,87.00302607806,7.217848,6,P-GPS,
11400,2022-08-11 21:01:37,-34.9222877702489,-56.1538215715988,7.545932,6.3648296,80.96628047806,87.33111007806,7.545932,4.1159696,16.0676514328,26.7741806468,18,4,7.261,87.33111007806,7.545932,7.8069206,16.0676514328,-0.894776,-4.026492,-0.894776,257, 7.5, 1.5,0,0,1024,1024,1481,1024,0,0,69,0,265.4,0,0,26,3.678,3.673,0,0,0,0,5.724,81.68,87.33111007806,7.545932,6,P-GPS,
11500,2022-08-11 21:01:37,-34.9222885426329,-56.1538231800287,7.545932,6.2992128,81.03189727806,87.33111007806,7.874016,3.467257,16.616962474,27.3317922132,18,4,7.261,87.33111007806,7.545932,7.8069206,16.616962474,-0.894776,-3.35541,-1.342164,257.3, 16.1, 1.8,0,0,1119,1024,1232,1024,14,0,32,0,265.4,0,0,26,3.678,3.673,0,0,0,0,5.724,81.68,87.33111007806,7.545932,6,P-GPS,
11600,2022-08-11 21:01:37,-34.9222893269567,-56.1538246089651,7.874016,6.5944884,81.06470567806,87.65919407806,8.2021,2.7738056,17.1182092092,27.8461951168,18,4,7.261,87.65919407806,7.874016,7.8069206,17.1182092092,-0.671082,-2.684328,-2.013246,257.1, 13.7, 2,0,0,1569,1024,1137,1024,83,0,17,0,265.4,0,0,26,3.678,3.673,0,0,0,0,5.724,81.68,87.65919407806,7.874016,6,P-GPS,
11700,2022-08-11 21:01:37,-34.9222911296507,-56.1538257698107,8.2021,6.8569556,81.13032247806,87.98727807806,8.530184,2.125093,17.6850071276,28.5899615448,16,4,7.261,87.98727807806,8.2021,7.8069206,17.6850071276,-0.671082,-2.013246,-1.789552,257, 8.4, 2,0,0,1569,1024,1137,1024,83,0,17,0,265.4,0,0,26,3.678,3.673,0,0,0,0,5.724,81.68,87.98727807806,8.2021,6,P-GPS,
11800,2022-08-11 21:01:37,-34.9222919911627,-56.1538272270023,8.530184,7.1522312,81.16313087806,88.31536207806,8.530184,2.125093,18.208662,29.1273959452,16,4,7.261,88.31536207806,8.530184,7.8069206,18.208662,-0.447388,-2.013246,-1.342164,256.8, -2.5, 2.1,0,0,1684,1024,1024,1024,100,0,0,0,265.4,0,0,26,3.678,3.673,0,0,0,0,5.724,81.68,88.31536207806,8.530184,6,P-GPS,
11900,2022-08-11 21:01:37,-34.9222927015291,-56.1538285592386,8.530184,7.0866144,81.22874767806,88.31536207806,8.858268,2.0579848,18.6769691016,29.6027896612,17,4,7.261,88.31536207806,8.530184,7.8069206,18.6769691016,-0.447388,-2.013246,-0.894776,256.6, -14.7, 2.2,0,0,1684,1024,1024,1024,100,0,0,0,265.4,0,0,26,3.678,3.673,0,0,0,0,5.724,81.68,88.31536207806,8.530184,6,P-GPS,
12000,2022-08-11 21:01:37,-34.9222931098386,-56.1538298856238,8.858268,7.38189,81.26155607806,88.64344607806,8.858268,2.3264176,19.1003286952,30.0266085724,17,4,7.24,88.64344607806,8.858268,7.8069206,19.1003286952,-0.671082,-2.23694,-0.447388,256.6, -19.6, 2.3,0,0,1684,1024,1024,1024,100,0,0,0,265.4,0,0,26,3.669,3.671,0,0,0,0,4.975,81.68,88.64344607806,8.858268,6,P-GPS,
12100,2022-08-11 21:01:37,-34.9222936335202,-56.1538320992732,8.858268,7.3162732,81.32717287806,88.64344607806,8.858268,2.9751302,19.7844822604,30.7158474396,19,4,7.24,88.64344607806,8.858268,7.8069206,19.7844822604,-0.671082,-2.908022,-0.223694,256.6, -20.9, 2.2,0,0,1684,1024,1024,1024,100,0,0,0,265.4,0,0,26,3.669,3.671,0,0,0,0,4.975,81.68,88.64344607806,8.858268,6,P-GPS,
12200,2022-08-11 21:01:37,-34.9222939262102,-56.1538335622505,8.858268,7.2834648,81.35998127806,88.64344607806,8.858268,3.690951,20.2292657392,31.16633958,19,4,7.24,88.64344607806,8.858268,7.8069206,20.2292657392,-0.894776,-3.579104,0,256.5, -20.7, 2.1,0,0,1684,1024,1024,1024,100,0,0,0,265.4,0,0,26,3.669,3.671,0,0,0,0,4.975,81.68,88.64344607806,8.858268,6,P-GPS,
12300,2022-08-11 21:01:37,-34.9222941467015,-56.1538353841991,8.858268,7.2834648,81.35998127806,88.64344607806,8.858268,4.6080964,20.7635177248,31.7172910412,19,5,7.24,88.64344607806,8.858268,7.8069206,20.7635177248,-1.11847,-4.47388,0,256.6, -20.2, 1.9,0,0,1684,1024,1024,1024,100,0,0,0,265.4,0,0,26,3.669,3.671,0,0,0,0,4.975,81.68,88.64344607806,8.858268,6,P-GPS,
12400,2022-08-11 21:01:38,-34.9222941619567,-56.1538380429146,8.858268,7.2506564,81.39278967806,88.64344607806,8.858268,5.256809,21.503281528,32.5126650824,19,5,7.24,88.64344607806,8.858268,7.8069206,21.503281528,-1.11847,-5.144962,0,256.6, -19.8, 1.9,0,0,1684,1024,1024,1024,100,0,0,0,265.4,0,0,26,3.669,3.671,0,0,0,0,4.975,81.68,88.64344607806,8.858268,6,P-GPS,
12500,2022-08-11 21:01:38,-34.9222929269448,-56.153840997498,8.858268,7.217848,81.42559807806,88.64344607806,8.858268,5.9726298,22.1721791872,33.504594248,19,5,7.24,88.64344607806,8.858268,7.8069206,22.1721791872,-1.342164,-5.816044,0,256.7, -19.5, 2.2,0,0,1684,1024,1024,1024,100,0,0,0,265.4,0,0,26,3.669,3.671,0,0,0,0,4.975,81.68,88.64344607806,8.858268,6,P-GPS,
12600,2022-08-11 21:01:38,-34.9222936905157,-56.15384453957,8.858268,7.1194228,81.52402327806,88.64344607806,8.858268,6.6660812,23.2639771224,34.600394808,19,5,7.24,88.64344607806,8.858268,7.8069206,23.2639771224,-1.565858,-6.487126,0,256.7, -18.7, 2.4,0,0,1684,1024,1024,1024,100,0,0,0,265.4,0,0,26,3.669,3.671,0,0,0,0,4.975,81.68,88.64344607806,8.858268,6,P-GPS,
12700,2022-08-11 21:01:38,-34.9222944518979,-56.1538480784552,8.858268,7.0866144,81.55683167806,88.64344607806,8.858268,7.1134692,24.3549548476,35.694883032,18,5,7.24,88.64344607806,8.858268,7.8069206,24.3549548476,-1.565858,-6.934514,0,256.6, -18.7, 2.4,0,0,1684,1024,1024,1024,100,0,0,0,265.4,0,0,26,3.669,3.671,0,0,0,0,4.975,81.68,88.64344607806,8.858268,6,P-GPS,
12800,2022-08-11 21:01:38,-34.9222952632474,-56.1538517525691,8.858268,6.9881892,81.65525687806,88.64344607806,8.858268,7.605596,25.4904207632,36.833006428,18,5,7.24,88.64344607806,8.858268,7.8069206,25.4904207632,-1.789552,-7.381902,0,256.6, -19.1, 2.6,0,0,1684,1024,1024,1024,100,0,0,0,265.4,0,0,26,3.669,3.671,0,0,0,0,4.975,81.68,88.64344607806,8.858268,6,P-GPS,
12900,2022-08-11 21:01:38,-34.9222968071621,-56.1538556493702,8.858268,6.8569556,81.78649047806,88.64344607806,8.858268,8.0306146,26.7765100432,38.127953976,19,5,7.24,88.64344607806,8.858268,8.0306146,26.7765100432,-1.789552,-7.82929,0,256.6, -19.3, 2.2,0,0,1684,1024,1024,1024,100,0,0,0,265.4,0,0,26,3.669,3.671,0,0,0,0,4.975,81.68,88.64344607806,8.858268,6,P-GPS,
13000,2022-08-11 21:01:38,-34.9222978148432,-56.1538596453059,8.858268,6.7585304,81.88491567806,88.64344607806,8.858268,8.5227414,28.026247616,39.378610184,19,5,7.319,88.64344607806,8.858268,8.5227414,28.026247616,-2.013246,-8.276678,0,256.6, -19.6, 2.4,0,0,1600,1024,1025,1024,87,0,0,0,265.4,0,0,26,3.653,3.65,0,0,0,0,4.982,81.68,88.64344607806,8.858268,6,P-GPS,
13100,2022-08-11 21:01:38,-34.9222987947431,-56.153863669118,8.858268,6.6929136,81.95053247806,88.64344607806,8.858268,8.94776,29.2806111732,40.634187652,19,5,7.319,88.64344607806,8.858268,8.94776,29.2806111732,-2.013246,-8.724066,0,256.6, -19.5, 2.6,0,0,1323,1024,1261,1024,45,0,36,0,265.4,0,0,26,3.653,3.65,0,0,0,0,4.982,81.68,88.64344607806,8.858268,6,P-GPS,
13200,2022-08-11 21:01:38,-34.9222997832347,-56.1538681542958,8.858268,6.5944884,82.04895767806,88.64344607806,8.858268,9.4398868,30.6666020312,42.023623392,19,5,7.319,88.64344607806,8.858268,9.4398868,30.6666020312,-2.23694,-9.171454,0,256.7, -13.8, 2.2,0,0,1025,1024,1684,1024,0,0,100,0,265.4,0,0,26,3.653,3.65,0,0,0,0,4.982,81.68,88.64344607806,8.858268,6,P-GPS,
13300,2022-08-11 21:01:39,-34.9223007996704,-56.1538725242588,8.858268,6.4632548,82.18019127806,88.64344607806,9.186352,9.4398868,32.0235574552,43.38254732,19,5,7.319,88.64344607806,8.858268,9.4398868,32.0235574552,-2.23694,-9.171454,-0.447388,256.9, -3.8, 2,0,0,1024,1024,1684,1024,0,0,100,0,265.4,0,0,26,3.653,3.65,0,0,0,0,4.982,81.68,88.64344607806,8.858268,6,P-GPS,
13400,2022-08-11 21:01:39,-34.9223023821075,-56.1538765184601,8.858268,6.3648296,82.27861647806,88.64344607806,9.186352,9.171454,33.341208416,44.709319016,19,5,7.319,88.64344607806,8.858268,9.4398868,33.341208416,-2.013246,-8.94776,-1.342164,257.3, 16.9, 1.8,0,0,1024,1024,1237,1024,0,0,32,0,265.4,0,0,26,3.653,3.65,0,0,0,0,4.982,81.68,88.64344607806,8.858268,6,P-GPS,
13500,2022-08-11 21:01:39,-34.9223035236012,-56.1538803594248,9.186352,6.5944884,82.37704167806,88.97153007806,9.514436,7.605596,34.563321316,45.93176,18,5,7.319,88.97153007806,9.186352,9.4398868,34.563321316,-1.789552,-7.381902,-2.013246,257.7, 22.6, 2.9,0,0,1024,1024,1024,1024,0,0,0,0,265.4,0,0,26,3.653,3.65,0,0,0,0,4.982,81.68,88.97153007806,9.186352,6,P-GPS,
13600,2022-08-11 21:01:39,-34.922304710066,-56.1538838393966,9.186352,6.4960632,82.47546687806,88.97153007806,9.84252,6.6660812,35.688649436,47.059056624,18,5,7.319,88.97153007806,9.186352,9.4398868,35.688649436,-1.565858,-6.487126,-2.013246,257.5, 19.6, 2.2,0,0,1024,1024,1024,1024,0,0,0,0,265.4,0,0,26,3.653,3.65,0,0,0,0,4.982,81.68,88.97153007806,9.186352,6,P-GPS,
13700,2022-08-11 21:01:39,-34.9223056983295,-56.1538866766129,9.514436,6.725722,82.57389207806,89.29961407806,10.170604,5.816044,36.608925056,47.981300748,17,5,7.319,89.29961407806,9.514436,9.4398868,36.608925056,-1.565858,-5.59235,-1.565858,257.4, 18, 1.8,0,0,1024,1024,1024,1024,0,0,0,0,265.4,0,0,26,3.653,3.65,0,0,0,0,4.982,81.68,89.29961407806,9.514436,6,P-GPS,
13800,2022-08-11 21:01:39,-34.9223071163395,-56.1538886299974,9.84252,6.9881892,82.63950887806,89.62769807806,10.170604,5.1673314,37.33267836,48.761812584,17,5,7.319,89.62769807806,9.84252,9.4398868,37.33267836,-1.565858,-4.921268,-0.894776,257.4, 18.2, 2,0,0,1024,1024,1024,1024,0,0,0,0,265.4,0,0,26,3.653,3.65,0,0,0,0,4.982,81.68,89.62769807806,9.84252,6,P-GPS,
13900,2022-08-11 21:01:39,-34.9223078107275,-56.1538905813757,9.84252,6.9881892,82.63950887806,89.62769807806,10.498688,4.250186,37.967848984,49.39796746,17,5,7.319,89.62769807806,9.84252,9.4398868,37.967848984,-1.342164,-4.026492,-0.447388,257.4, 18, 2.4,0,0,1024,1024,1024,1024,0,0,0,0,265.4,0,0,26,3.653,3.65,0,0,0,0,4.982,81.68,89.62769807806,9.84252,6,P-GPS,
14000,2022-08-11 21:01:39,-34.9223084759143,-56.1538922225613,9.84252,6.9881892,82.63950887806,89.62769807806,10.498688,3.5343652,38.511812256,49.94586774,17,5,7.306,89.62769807806,9.84252,9.4398868,38.511812256,-1.11847,-3.35541,0,257.5, 18.2, 2.8,0,0,1024,1024,1024,1024,0,0,0,0,265.4,0,0,26,3.677,3.669,0,0,0,0,5.26,81.68,89.62769807806,9.84252,6,P-GPS,
14100,2022-08-11 21:01:39,-34.9223090487749,-56.1538933896708,9.84252,6.9881892,82.63950887806,89.62769807806,10.498688,2.908022,38.911418568,50.3526919,17,5,7.306,89.62769807806,9.84252,9.4398868,38.911418568,-1.11847,-2.684328,0,257.5, 17.8, 3.2,0,0,1024,1024,1024,1024,0,0,0,0,265.4,0,0,26,3.677,3.669,0,0,0,0,5.26,81.68,89.62769807806,9.84252,6,P-GPS,
14200,2022-08-11 21:01:39,-34.9223095796867,-56.1538928455066,10.170604,7.2834648,82.67231727806,89.95578207806,10.498688,2.125093,38.825788644,50.605644664,17,5,7.306,89.95578207806,10.170604,9.4398868,38.911418568,-0.671082,-2.013246,0,257.4, 16.5, 3.7,0,0,1024,1024,1024,1024,0,0,0,0,265.4,0,0,26,3.677,3.669,0,0,0,0,5.26,81.68,89.95578207806,10.170604,6,P-GPS,
14300,2022-08-11 21:01:40,-34.9223100095438,-56.1538932073981,10.170604,7.2834648,82.67231727806,89.95578207806,10.498688,1.6329662,38.981956628,50.796261468,18,5,7.306,89.95578207806,10.170604,9.4398868,38.981956628,-0.447388,-1.565858,0,257.3, 12, 3.2,0,0,1024,1024,1024,1024,0,0,0,0,265.4,0,0,26,3.677,3.669,0,0,0,0,5.26,81.68,89.95578207806,10.170604,6,P-GPS,
14400,2022-08-11 21:01:40,-34.9223102464303,-56.1538935509317,10.170604,7.2834648,82.67231727806,89.95578207806,10.498688,1.1408394,39.108597052,50.930447824,18,5,7.306,89.95578207806,10.170604,9.4398868,39.108597052,-0.223694,-1.11847,0,257.2, 8.7, 3,0,0,1024,1024,1024,1024,0,0,0,0,265.4,0,0,26,3.677,3.669,0,0,0,0,5.26,81.68,89.95578207806,10.170604,6,P-GPS,
14500,2022-08-11 21:01:40,-34.9223103576205,-56.1538937365375,10.170604,7.2834648,82.67231727806,89.95578207806,10.498688,0.894776,39.17487002,50.999345464,18,5,7.306,89.95578207806,10.170604,9.4398868,39.17487002,0,-0.894776,0,257, 6.3, 2.8,0,0,1024,1024,1024,1024,0,0,0,0,265.4,0,0,26,3.677,3.669,0,0,0,0,5.26,81.68,89.95578207806,10.170604,6,P-GPS,
14600,2022-08-11 21:01:40,-34.9223095275049,-56.1538940619222,10.498688,7.6115488,82.67231727806,90.28386607806,10.498688,0.671082,39.160434324,51.317586944,18,5,7.306,90.28386607806,10.498688,9.4398868,39.17487002,0,-0.671082,0,256.9, 4.4, 2.1,0,0,1024,1024,1024,1024,0,0,0,0,265.4,0,0,26,3.677,3.669,0,0,0,0,5.26,81.68,90.28386607806,10.498688,6,P-GPS,
14700,2022-08-11 21:01:40,-34.9223094149533,-56.153894116442,10.498688,7.6443572,82.63950887806,90.28386607806,10.498688,0.447388,39.161418576,51.3615502,18,5,7.306,90.28386607806,10.498688,9.4398868,39.17487002,0,-0.447388,0,256.8, 3.3, 1.3,0,0,1024,1024,1024,1024,0,0,0,0,265.4,0,0,26,3.677,3.669,0,0,0,0,5.26,81.68,90.28386607806,10.498688,6,P-GPS,
14800,2022-08-11 21:01:40,-34.9223093492684,-56.1538940851699,10.498688,7.6443572,82.63950887806,90.28386607806,10.498688,0.3131716,39.144686292,51.387468836,18,5,7.306,90.28386607806,10.498688,9.4398868,39.17487002,0.223694,-0.223694,0,256.8, 2.5, 0.7,0,0,1024,1024,1024,1024,0,0,0,0,265.4,0,0,26,3.677,3.669,0,0,0,0,5.26,81.68,90.28386607806,10.498688,6,P-GPS,
14900,2022-08-11 21:01:40,-34.9223091737026,-56.1538939661833,10.498688,7.6443572,82.63950887806,90.28386607806,10.498688,0.3131716,39.089240096,51.460631568,18,5,7.306,90.28386607806,10.498688,9.4398868,39.17487002,0.223694,-0.223694,0,256.8, 1.9, 0.6,0,0,1024,1024,1024,1024,0,0,0,0,265.4,0,0,26,3.677,3.669,0,0,0,0,5.26,81.68,90.28386607806,10.498688,6,P-GPS,
15000,2022-08-11 21:01:40,-34.9223086761674,-56.1538936810041,10.498688,7.6443572,82.63950887806,90.28386607806,10.498688,0.3131716,38.947179724,51.661090892,18,5,7.317,90.28386607806,10.498688,9.4398868,39.17487002,0.223694,-0.223694,0,256.8, 1.1, 0.6,0,0,1024,1024,1024,973,0,0,0,-8,265.4,0,0,26,3.658,3.652,0,0,0,0,4.622,81.68,90.28386607806,10.498688,6,P-GPS,
15100,2022-08-11 21:01:40,-34.922307180181,-56.153893411414,10.498688,7.709974,82.57389207806,90.28386607806,10.498688,0.223694,38.6893057,52.21292818,18,5,7.317,90.28386607806,10.498688,9.4398868,39.17487002,0.223694,0,0,256.9, 1.2, 0.6,0,0,1024,1024,1024,480,0,0,0,-82,265.4,0,0,26,3.658,3.652,0,0,0,0,4.622,81.68,90.28386607806,10.498688,6,P-GPS,
15200,2022-08-11 21:01:40,-34.9223066327177,-56.1538931556993,10.498688,7.709974,82.57389207806,90.28386607806,10.498688,0,38.552166588,52.426838948,18,5,7.317,90.28386607806,10.498688,9.4398868,39.17487002,0,0,0,256.8, 1.4, 0.3,0,0,1024,1024,1024,374,0,0,0,-98,264.4,0,0,26,3.658,3.652,0,0,0,0,4.622,81.68,90.28386607806,10.498688,6,P-GPS,
15300,2022-08-11 21:01:41,-34.9223061454807,-56.1538929255415,10.498688,7.7427824,82.54108367806,90.28386607806,10.498688,0,38.429791256,52.617455752,17,5,7.317,90.28386607806,10.498688,9.4398868,39.17487002,0,0,0,254.7, 1.3, 0.4,0,0,1024,1024,1024,998,0,0,0,-4,261,0,0,26,3.658,3.652,0,0,0,0,4.622,81.68,90.28386607806,10.498688,6,P-GPS,
15400,2022-08-11 21:01:41,-34.9223057581781,-56.1538927748648,10.498688,7.7427824,82.54108367806,90.28386607806,10.498688,0,38.342192828,52.76574972,17,5,7.317,90.28386607806,10.498688,9.4398868,39.17487002,0,0,0,250.9, 0.7, 0.3,0,0,1024,1024,1024,1024,0,0,0,0,257.3,0,0,26,3.658,3.652,0,0,0,0,4.622,81.68,90.28386607806,10.498688,6,P-GPS,
15500,2022-08-11 21:01:41,-34.922304592831,-56.1538928271278,10.498688,7.7755908,82.50827527806,90.28386607806,10.498688,0,38.224410672,53.191274668,16,5,7.317,90.28386607806,10.498688,9.4398868,39.17487002,0,0,0,248.4, 0.3, 0.4,0,0,1024,1024,1024,1024,0,0,0,0,255.8,0,0,26,3.658,3.652,0,0,0,0,4.622,81.68,90.28386607806,10.498688,6,P-GPS,
15600,2022-08-11 21:01:41,-34.9223041534964,-56.1538924715054,10.498688,7.8083992,82.47546687806,90.28386607806,10.498688,0,38.074476284,53.383531892,16,5,7.317,90.28386607806,10.498688,9.4398868,39.17487002,0,0,0,247.4, 0.5, 0.8,0,0,1085,1024,1024,1024,9,0,0,0,255.3,0,0,26,3.658,3.652,0,0,0,0,4.622,81.68,90.28386607806,10.498688,6,P-GPS,
15700,2022-08-11 21:01:41,-34.9223037034075,-56.1538921393815,10.498688,7.8083992,82.47546687806,90.28386607806,10.498688,0,37.930119324,53.575461032,18,5,7.317,90.28386607806,10.498688,9.4398868,39.17487002,0,0,0,247, 0.5, 0.4,0,0,1085,1024,1024,1024,9,0,0,0,255.3,0,0,26,3.658,3.652,0,0,0,0,4.622,81.68,90.28386607806,10.498688,6,P-GPS,
15800,2022-08-11 21:01:41,-34.9223031453593,-56.1538918166716,10.498688,7.8412076,82.44265847806,90.28386607806,10.498688,0,37.77723218,53.80085474,18,5,7.317,90.28386607806,10.498688,9.4398868,39.17487002,0,0,0,246.9, 0.2, 0.2,0,0,1684,1024,1024,1024,100,0,0,0,255.3,0,0,26,3.658,3.652,0,0,0,0,4.622,81.68,90.28386607806,10.498688,6,P-GPS,
15900,2022-08-11 21:01:41,-34.9223020267746,-56.1538915432259,10.498688,7.874016,82.40985007806,90.28386607806,10.498688,0,37.580053696,54.217193336,18,5,7.317,90.28386607806,10.498688,9.4398868,39.17487002,0,0,0,246.8, -8.1, 0.6,0,0,1684,1024,1024,1024,100,0,0,0,255.3,0,0,26,3.658,3.652,0,0,0,0,4.622,81.68,90.28386607806,10.498688,6,P-GPS,
16000,2022-08-11 21:01:41,-34.9223016259298,-56.1538914362759,10.498688,7.874016,82.40985007806,90.28386607806,10.498688,0.447388,37.507875216,54.36679964,18,5,7.308,90.28386607806,10.498688,9.4398868,39.17487002,0,-0.447388,0,246.8, -18.3, 0.5,0,0,1684,1024,1024,1024,100,0,0,0,255.3,0,0,26,3.656,3.65,0,0,0,0,4.62,81.68,90.28386607806,10.498688,6,P-GPS,
16100,2022-08-11 21:01:41,-34.9223013158024,-56.1538915720845,10.498688,7.9068244,82.37704167806,90.28386607806,10.498688,1.2079476,37.51476498,54.487206468,18,5,7.308,90.28386607806,10.498688,9.4398868,39.17487002,-0.447388,-1.11847,0,246.7, -20.8, 0.4,0,0,1684,1024,1024,1024,100,0,0,0,255.3,0,0,26,3.656,3.65,0,0,0,0,4.62,81.68,90.28386607806,10.498688,6,P-GPS,
16200,2022-08-11 21:01:41,-34.9223010509783,-56.1538920021728,10.498688,7.9068244,82.37704167806,90.28386607806,10.498688,1.901399,37.61154976,54.647967628,18,5,7.308,90.28386607806,10.498688,9.4398868,39.17487002,-0.671082,-1.789552,0,246.7, -20.8, 0.5,0,0,1684,1024,1024,1024,100,0,0,0,255.3,0,0,26,3.656,3.65,0,0,0,0,4.62,81.68,90.28386607806,10.498688,6,P-GPS,
16300,2022-08-11 21:01:42,-34.9223004870547,-56.1538926704433,10.498688,7.9396328,82.34423327806,90.28386607806,10.498688,2.7066974,37.747376536,54.934713044,17,5,7.308,90.28386607806,10.498688,9.4398868,39.17487002,-1.11847,-2.460634,0,246.7, -20, 0.5,0,0,1573,1024,1024,1024,83,0,0,0,255.3,0,0,26,3.656,3.65,0,0,0,0,4.62,81.68,90.28386607806,10.498688,6,P-GPS,
16400,2022-08-11 21:01:42,-34.9223004540494,-56.1538937688231,10.498688,7.9724412,82.31142487806,90.28386607806,10.498688,3.4001488,38.060696756,55.263781296,17,5,7.308,90.28386607806,10.498688,9.4398868,39.17487002,-1.342164,-3.131716,0,246.8, -19.7, 1,0,0,1174,1024,1024,1024,23,0,0,0,255.3,0,0,26,3.656,3.65,0,0,0,0,4.62,81.68,90.28386607806,10.498688,6,P-GPS,
16500,2022-08-11 21:01:42,-34.9223005663404,-56.1538951743237,10.498688,7.9396328,82.34423327806,90.28386607806,10.498688,4.4067718,38.476707268,55.686025404,16,5,7.308,90.28386607806,10.498688,9.4398868,39.17487002,-1.789552,-4.026492,0,246.9, -16, 1.4,0,0,1024,1024,1024,1024,0,0,0,0,255.3,0,0,26,3.656,3.65,0,0,0,0,4.62,81.68,90.28386607806,10.498688,6,P-GPS,
16600,2022-08-11 21:01:42,-34.9223008833919,-56.1538971039171,10.498688,7.9724412,82.31142487806,90.28386607806,10.498688,4.809421,39.063977628,56.274936184,16,5,7.308,90.28386607806,10.498688,9.4398868,39.17487002,-1.789552,-4.47388,0,246.9, -5.2, 1.5,0,0,1024,1024,1024,1024,0,0,0,0,255.3,0,0,26,3.656,3.65,0,0,0,0,4.62,81.68,90.28386607806,10.498688,6,P-GPS,
16700,2022-08-11 21:01:42,-34.9223012981957,-56.1538990898484,10.498688,8.0052496,82.27861647806,90.28386607806,10.498688,4.809421,39.677166624,56.887797096,16,5,7.308,90.28386607806,10.498688,9.4398868,39.677166624,-1.789552,-4.47388,0,247.1, 8.5, 1.5,0,0,1024,1024,1024,1024,0,0,0,0,255.3,0,0,26,3.656,3.65,0,0,0,0,4.62,81.68,90.28386607806,10.498688,6,P-GPS,
16800,2022-08-11 21:01:42,-34.9223026304518,-56.1539020415167,10.498688,7.9396328,82.34423327806,90.28386607806,10.826772,4.1159696,40.6578097,57.895671144,16,5,7.308,90.28386607806,10.498688,9.4398868,40.6578097,-1.565858,-3.802798,0,247.4, 18.2, 1.7,0,0,1024,1024,1024,1024,0,0,0,0,255.3,0,0,26,3.656,3.65,0,0,0,0,4.62,81.68,90.28386607806,10.498688,6,P-GPS,
16900,2022-08-11 21:01:42,-34.9223031325141,-56.1539037856402,10.498688,7.9724412,82.31142487806,90.28386607806,10.826772,3.1988242,41.209646988,58.448820768,16,5,7.308,90.28386607806,10.498688,9.4398868,41.209646988,-1.342164,-2.908022,0,247.3, 18.2, 1.5,0,0,1024,1024,1024,1024,0,0,0,0,255.2,0,0,26,3.656,3.65,0,0,0,0,4.62,81.68,90.28386607806,10.498688,6,P-GPS,
17000,2022-08-11 21:01:42,-34.9223035012655,-56.1539053291122,10.498688,7.9396328,82.34423327806,90.28386607806,10.826772,2.4158952,41.690618132,58.929791912,16,5,7.286,90.28386607806,10.498688,9.4398868,41.690618132,-0.894776,-2.23694,0,247.1, 15.7, 1.7,0,0,1024,1024,1024,1024,0,0,0,0,255.2,0,0,26,3.654,3.651,0,0,0,0,4.817,81.86,90.28386607806,10.498688,6,P-GPS,
17100,2022-08-11 21:01:42,-34.9223038002413,-56.1539064557549,10.498688,7.9724412,82.31142487806,90.28386607806,11.154856,1.7000744,42.044620768,59.283794548,14,5,7.286,90.28386607806,10.498688,9.4398868,42.044620768,-0.671082,-1.565858,0,247.1, 12.7, 1.6,0,0,1024,1024,1024,1024,0,0,0,0,255.3,0,0,26,3.654,3.651,0,0,0,0,4.817,81.86,90.28386607806,10.498688,6,P-GPS,
17200,2022-08-11 21:01:42,-34.9223050929587,-56.1539076739467,10.498688,7.9396328,82.34423327806,90.28386607806,11.154856,1.2079476,42.524935744,59.879923176,14,5,7.286,90.28386607806,10.498688,9.4398868,42.524935744,-0.447388,-1.11847,0,247.2, 9.9, 1.6,0,0,1024,1024,1024,1024,0,0,0,0,255.3,0,0,26,3.654,3.651,0,0,0,0,4.817,81.86,90.28386607806,10.498688,6,P-GPS,
17300,2022-08-11 21:01:43,-34.9223053800925,-56.1539080428073,10.498688,7.9396328,82.34423327806,90.28386607806,11.154856,0.8052984,42.660106352,60.032154152,16,5,7.286,90.28386607806,10.498688,9.4398868,42.660106352,-0.447388,-0.671082,0,247.1, 7.8, 1.7,0,0,1024,1024,1024,1024,0,0,0,0,255.2,0,0,26,3.654,3.651,0,0,0,0,4.817,81.86,90.28386607806,10.498688,6,P-GPS,
17400,2022-08-11 21:01:43,-34.9223055355959,-56.1539078979608,10.498688,7.9068244,82.37704167806,90.28386607806,11.154856,0.4921268,42.634843884,60.103676464,16,5,7.286,90.28386607806,10.498688,9.4398868,42.660106352,-0.223694,-0.447388,0,246.5, 5.7, 1.5,0,0,1222,1024,1024,1024,30,0,0,0,255.2,0,0,26,3.654,3.651,0,0,0,0,4.817,81.86,90.28386607806,10.498688,6,P-GPS,
17500,2022-08-11 21:01:43,-34.9223055667969,-56.153907619385,10.498688,7.9068244,82.37704167806,90.28386607806,11.154856,0.223694,42.558072228,60.187665968,16,5,7.286,90.28386607806,10.498688,9.4398868,42.660106352,0,-0.223694,0,246.7, 4.2, 1.4,0,0,1642,1024,1024,1024,94,0,0,0,255.3,0,0,26,3.654,3.651,0,0,0,0,4.817,81.86,90.28386607806,10.498688,6,P-GPS,
17600,2022-08-11 21:01:43,-34.9223051459157,-56.1539060661542,10.498688,7.9396328,82.34423327806,90.28386607806,11.154856,0,42.068898984,60.677167296,16,5,7.286,90.28386607806,10.498688,9.4398868,42.660106352,0,0,0,246.8, -0.1, 1.3,0,0,1684,1024,1024,1024,100,0,0,0,255.2,0,0,26,3.654,3.651,0,0,0,0,4.817,81.86,90.28386607806,10.498688,6,P-GPS,
17700,2022-08-11 21:01:43,-34.9223048996233,-56.1539058020913,10.498688,7.9396328,82.34423327806,90.28386607806,11.154856,0.223694,41.967849112,60.796589872,16,5,7.286,90.28386607806,10.498688,9.4398868,42.660106352,0,-0.223694,0,246.7, -10.3, 1,0,0,1684,1024,1024,1024,100,0,0,0,255.3,0,0,26,3.654,3.651,0,0,0,0,4.817,81.86,90.28386607806,10.498688,6,P-GPS,
17800,2022-08-11 21:01:43,-34.9223045834642,-56.1539057606946,10.498688,7.9396328,82.34423327806,90.28386607806,11.154856,0.7158208,41.923557772,60.912731608,16,5,7.286,90.28386607806,10.498688,9.4398868,42.660106352,-0.223694,-0.671082,0,246.7, -18.4, 0.9,0,0,1684,1024,1024,1024,100,0,0,0,255.2,0,0,26,3.654,3.651,0,0,0,0,4.817,81.86,90.28386607806,10.498688,6,P-GPS,
17900,2022-08-11 21:01:43,-34.9223044141125,-56.1539060451842,10.498688,7.9724412,82.31142487806,90.28386607806,10.826772,0.7158208,41.98819032,61.017718488,16,5,7.286,90.28386607806,10.498688,9.4398868,42.660106352,-0.447388,-1.342164,0,246.8, -20.4, 1,0,0,1684,1024,1024,1024,100,0,0,0,255.2,0,0,26,3.654,3.651,0,0,0,0,4.817,81.86,90.28386607806,10.498688,6,P-GPS,
18000,2022-08-11 21:01:43,-34.9223041957317,-56.1539070000967,10.498688,7.9724412,82.31142487806,90.28386607806,10.826772,2.3264176,42.240815,61.314306424,16,5,7.286,90.28386607806,10.498688,9.4398868,42.660106352,-0.671082,-2.23694,0,246.8, -20.2, 0.9,0,0,1684,1024,1024,1024,100,0,0,0,255.2,0,0,26,3.654,3.651,0,0,0,0,4.817,81.86,90.28386607806,10.498688,6,P-GPS,
18100,2022-08-11 21:01:43,-34.9223043737141,-56.1539081473228,10.498688,8.0052496,82.27861647806,90.28386607806,10.826772,3.1093466,42.58858404,61.663715884,16,5,7.297,90.28386607806,10.498688,9.4398868,42.660106352,-1.11847,-2.908022,0,246.8, -19.7, 0.9,0,0,1684,1024,1024,1024,100,0,0,0,255.3,0,0,26,3.653,3.647,0,0,0,0,4.683,81.86,90.28386607806,10.498688,6,P-GPS,
18200,2022-08-11 21:01:43,-34.9223046089591,-56.1539097526181,10.498688,7.9724412,82.31142487806,90.28386607806,10.826772,3.8251674,43.07414836,62.151576792,16,5,7.297,90.28386607806,10.498688,9.4398868,43.07414836,-1.342164,-3.579104,0,246.9, -19.4, 0.8,0,0,1592,1024,1024,1024,86,0,0,0,255.2,0,0,26,3.653,3.647,0,0,0,0,4.683,81.86,90.28386607806,10.498688,6,P-GPS,
18300,2022-08-11 21:01:44,-34.9223050387967,-56.1539116446494,10.498688,8.0052496,82.27861647806,90.28386607806,10.826772,4.6080964,43.66141872,62.738847152,16,5,7.297,90.28386607806,10.498688,9.4398868,43.66141872,-1.789552,-4.250186,0,246.8, -19.2, 0.4,0,0,1168,1024,1024,1024,22,0,0,0,255.2,0,0,26,3.653,3.647,0,0,0,0,4.683,81.86,90.28386607806,10.498688,6,P-GPS,
18400,2022-08-11 21:01:44,-34.9223059268784,-56.1539141477984,10.498688,8.0052496,82.27861647806,90.28386607806,10.826772,5.3239172,44.47014578,63.55479206,16,5,7.297,90.28386607806,10.498688,9.4398868,44.47014578,-2.013246,-4.921268,0,246.8, -15.2, 0.6,0,0,1024,1024,1024,1024,0,0,0,0,255.3,0,0,26,3.653,3.647,0,0,0,0,4.683,81.86,90.28386607806,10.498688,6,P-GPS,
18500,2022-08-11 21:01:44,-34.9223073343816,-56.1539176872844,10.170604,7.6771656,82.27861647806,89.95578207806,10.826772,5.5252418,45.629594636,64.731629368,15,5,7.297,90.28386607806,10.498688,9.4398868,45.629594636,-2.013246,-5.144962,0,246.8, -4.8, 0.6,0,0,1024,1024,1024,1024,0,0,0,0,255.3,0,0,26,3.653,3.647,0,0,0,0,4.683,81.86,89.95578207806,10.170604,6,P-GPS,
18600,2022-08-11 21:01:44,-34.9223082605298,-56.1539202878754,10.170604,7.6771656,82.27861647806,89.95578207806,11.154856,5.3239172,46.471130096,65.579726508,15,5,7.297,90.28386607806,10.498688,9.4398868,46.471130096,-2.013246,-4.921268,0,247, 13.3, 0.9,0,0,1024,1024,1024,1024,0,0,0,0,255.2,0,0,26,3.653,3.647,0,0,0,0,4.683,81.86,89.95578207806,10.170604,6,P-GPS,
18700,2022-08-11 21:01:44,-34.922309067261,-56.1539225604173,10.170604,7.6771656,82.27861647806,89.95578207806,11.154856,4.6080964,47.20636634,66.32054018,15,5,7.297,90.28386607806,10.498688,9.4398868,47.20636634,-1.789552,-4.250186,0,247.3, 20.3, 1.4,0,0,1024,1024,1024,1024,0,0,0,0,255.2,0,0,26,3.653,3.647,0,0,0,0,4.683,81.86,89.95578207806,10.170604,6,P-GPS,
18800,2022-08-11 21:01:44,-34.9223097132843,-56.1539245632123,10.170604,7.6443572,82.31142487806,89.95578207806,11.48294,3.6238428,47.84777056,66.964240988,15,5,7.297,90.28386607806,10.498688,9.4398868,47.84777056,-1.342164,-3.35541,0,247, 19.8, 1.3,0,0,1024,1024,1024,1024,0,0,0,0,255.2,0,0,26,3.653,3.647,0,0,0,0,4.683,81.86,89.95578207806,10.170604,6,P-GPS,
