time(millisecond),datetime(utc),latitude,longitude,height_above_takeoff(feet),height_above_ground_at_drone_location(feet),ground_elevation_at_drone_location(feet),altitude_above_seaLevel(feet),height_sonar(feet),speed(mph),distance(feet),mileage(feet),satellites,gpslevel,voltage(v),max_altitude(feet),max_ascent(feet),max_speed(mph),max_distance(feet), xSpeed(mph), ySpeed(mph), zSpeed(mph), compass_heading(degrees), pitch(degrees), roll(degrees),isPhoto,isVideo,rc_elevator,rc_aileron,rc_throttle,rc_rudder,rc_elevator(percent),rc_aileron(percent),rc_throttle(percent),rc_rudder(percent),gimbal_heading(degrees),gimbal_pitch(degrees),gimbal_roll(degrees),battery_percent,voltageCell1,voltageCell2,voltageCell3,voltageCell4,voltageCell5,voltageCell6,current(A),battery_temperature(f),altitude(feet),ascent(feet),flycStateRaw,flycState,message
900,2022-08-28 20:59:06,-34.9105473974393,-56.1389427303962,0,0,41.376628948724,41.376628948724,0,0,0,0,19,5,0,41.376628948724,0,0,0,0,0,-0.223694,265.2, -3.1, 1.2,0,0,364,364,364,1684,-100,-100,-100,100,276.2,-18.3,0,40,3.808,3.805,0,0,0,0,0,85.82,41.376628948724,0,41,Motors_Started,"En vuelo Aeronave en Zona de altitud restringida (150). Vuela con precaución (Code: 190001)"
1000,2022-08-28 20:59:06,-34.9105473120721,-56.1389427174583,0,0,41.376628948724,41.376628948724,0,0,0.0313857621592,0.0313857621592,19,5,0,41.376628948724,0,0,0.0313857621592,0,0,-0.223694,265.1, -3.4, 1,0,0,641,416,364,1548,-58,-92,-100,79,275.9,-18.3,0,40,3.808,3.805,0,0,0,0,0,85.82,41.376628948724,0,41,Motors_Started,
1100,2022-08-28 20:59:07,-34.9105471050819,-56.1389426603252,0,0,41.376628948724,41.376628948724,0.328084,0,0.108707024476,0.108816604532,19,5,0,41.376628948724,0,0,0.108707024476,0,0,0,264.8, -3.3, 1.2,0,0,1021,614,608,1024,-0,-62,-63,0,275.7,-18.3,0,40,3.808,3.805,0,0,0,0,0,85.82,41.376628948724,0,41,Motors_Started,
1200,2022-08-28 20:59:07,-34.9105470477948,-56.138942638747,0,0,41.376628948724,41.376628948724,0.328084,0,0.130481303388,0.130691933316,19,5,0,41.376628948724,0,0,0.130481303388,0,0,0,265, -3.5, 1.3,0,0,1024,1024,1024,1024,0,0,0,0,275.6,-18.3,0,40,3.808,3.805,0,0,0,0,0,85.82,41.376628948724,0,41,Motors_Started,"Setting new Return-To-Home altitude to 100m (328 ft). Data Recorder File Index is 23. Setting new Maximum Flight Altitude to 120m (394 ft)"
1300,2022-08-28 20:59:07,-34.9105470203266,-56.1389426288035,0,0,41.376628948724,41.376628948724,0.328084,0,0.140906828656,0.141146001892,19,5,0,41.376628948724,0,0,0.140906828656,0,0,-0.223694,264.9, -3, 1.6,0,0,1024,1024,1024,1024,0,0,0,0,275.5,-18.3,0,40,3.808,3.805,0,0,0,0,0,85.82,41.376628948724,0,41,Motors_Started,
1400,2022-08-28 20:59:07,-34.91054692679,-56.1389426280519,0,0,41.376628948724,41.376628948724,0.328084,0,0.174424874348,0.175273627656,19,5,0,41.376628948724,0,0,0.174424874348,0,0,-0.223694,264.9, -2.4, 2,0,0,1024,1024,1024,1024,0,0,0,0,275.5,-18.3,0,40,3.808,3.805,0,0,0,0,0,85.82,41.376628948724,0,41,Motors_Started,
1500,2022-08-28 20:59:07,-34.9105468395909,-56.1389426798512,0,0,41.376628948724,41.376628948724,0.328084,0,0.204091541964,0.210662080232,19,5,0,41.376628948724,0,0,0.204091541964,0,0,-0.223694,264.8, -1.9, 2.3,0,0,1024,1024,1024,1024,0,0,0,0,275.5,-18.3,0,40,3.808,3.805,0,0,0,0,0,85.82,41.376628948724,0,41,Motors_Started,
1600,2022-08-28 20:59:07,-34.9105467556642,-56.1389426854325,0,0,41.376628948724,41.376628948724,0.328084,0,0.23453740908,0.241328091712,19,5,0,41.376628948724,0,0,0.23453740908,0,0,-0.223694,265.1, -1.3, 1.6,0,0,1024,1024,1024,1024,0,0,0,0,275.5,-18.3,0,40,3.808,3.805,0,0,0,0,0,85.82,41.376628948724,0,41,Motors_Started,
1700,2022-08-28 20:59:07,-34.9105466960611,-56.1389426742105,0,0,41.376628948724,41.376628948724,0.328084,0,0.256448827104,0.263332029424,19,5,0,41.376628948724,0,0,0.256448827104,0,0,-0.223694,265.2, 0.4, 0.9,0,0,1024,1024,1024,1024,0,0,0,0,275.5,-18.3,0,40,3.808,3.805,0,0,0,0,0,85.82,41.376628948724,0,41,Motors_Started,
1800,2022-08-28 20:59:07,-34.9105466243222,-56.1389426611035,0.328084,0.328084,41.376628948724,41.704712948724,0.328084,0,0.282832030048,0.28979823762,19,5,0,41.704712948724,0.328084,0,0.282832030048,0,0,-0.223694,265.7, -0.3, 2.2,0,0,1024,1024,1024,1024,0,0,0,0,275.7,-18.2,0,40,3.808,3.805,0,0,0,0,0,85.82,41.704712948724,0.328084,41,Motors_Started,
1900,2022-08-28 20:59:07,-34.9105466790443,-56.1389426794124,0.328084,0.328084,41.376628948724,41.704712948724,0.328084,0,0.262549549084,0.310501322272,19,5,0,41.704712948724,0.328084,0,0.282832030048,0,0,-0.223694,265.9, -0.1, 2.2,0,0,1024,1024,1024,1024,0,0,0,0,275.9,-18.3,0,40,3.808,3.805,0,0,0,0,0,85.82,41.704712948724,0.328084,41,Motors_Started,
2000,2022-08-28 20:59:08,-34.910546640559,-56.1389426763808,0.328084,0.328084,41.376628948724,41.704712948724,0.328084,0,0.276619759508,0.32457186078,19,5,0,41.704712948724,0.328084,0,0.282832030048,0,0,-0.223694,267.1, 0.4, 1.9,0,0,1024,1024,1024,1024,0,0,0,0,276.7,-18.3,0,40,3.808,3.805,0,0,0,0,0,85.82,41.704712948724,0.328084,10,Assisted_Takeoff,
2100,2022-08-28 20:59:08,-34.910546616934,-56.1389426880984,0.328084,0.328084,41.376628948724,41.704712948724,0.328084,0,0.285047909384,0.33387796344,19,5,0,41.704712948724,0.328084,0,0.285047909384,0,0,-0.223694,265.8, -0.5, 1.6,0,0,1024,1024,1024,1024,0,0,0,0,277,-18.2,0,40,3.808,3.805,0,0,0,0,0,85.82,41.704712948724,0.328084,10,Assisted_Takeoff,
2200,2022-08-28 20:59:08,-34.910546612525,-56.1389426914029,0.328084,0.328084,41.376628948724,41.704712948724,0.328084,0,0.286613198148,0.33576444644,19,5,7.613,41.704712948724,0.328084,0,0.286613198148,0,0,-0.223694,265.4, -1.5, 1,0,0,1024,1024,1024,1024,0,0,0,0,276.4,-18.2,0,40,3.798,3.793,0,0,0,0,0.621,85.82,41.704712948724,0.328084,10,Assisted_Takeoff,
2300,2022-08-28 20:59:08,-34.9105468559804,-56.1389426169736,0.328084,0.328084,41.376628948724,41.704712948724,0.328084,0,0.20044456022,0.42733925252,19,5,7.613,41.704712948724,0.328084,0,0.286613198148,0,0,-0.223694,265, -2.2, 0.9,0,0,1024,1024,1024,1024,0,0,0,0,276,-18.2,0,40,3.798,3.793,0,0,0,0,0.621,85.82,41.704712948724,0.328084,10,Assisted_Takeoff,
2400,2022-08-28 20:59:08,-34.9105468370945,-56.1389426201991,0.328084,0.328084,41.376628948724,41.704712948724,0.328084,0,0.207083011876,0.43429791416,19,5,7.613,41.704712948724,0.328084,0,0.286613198148,0,0,-0.223694,264.6, -2.9, 0.6,0,0,1024,1024,1024,1024,0,0,0,0,275.6,-18.2,0,40,3.798,3.793,0,0,0,0,0.621,85.82,41.704712948724,0.328084,10,Assisted_Takeoff,
2500,2022-08-28 20:59:08,-34.9105468013616,-56.1389426429826,0.328084,0.328084,41.376628948724,41.704712948724,0.328084,0,0.219045610684,0.44900920072,19,5,7.613,41.704712948724,0.328084,0,0.286613198148,0,0,-0.223694,264.7, -3, 0.6,0,0,1024,1024,1024,1024,0,0,0,0,275.4,-18.2,0,40,3.798,3.793,0,0,0,0,0.621,85.82,41.704712948724,0.328084,10,Assisted_Takeoff,
2600,2022-08-28 20:59:08,-34.9105467808074,-56.1389426615083,0.328084,0.328084,41.376628948724,41.704712948724,0.328084,0,0.225919954736,0.458333348,19,5,7.613,41.704712948724,0.328084,0,0.286613198148,0,0,-0.223694,264.8, -2.8, 0.7,0,0,1024,1024,1024,1024,0,0,0,0,275.3,-18.2,0,40,3.798,3.793,0,0,0,0,0.621,85.82,41.704712948724,0.328084,10,Assisted_Takeoff,
2700,2022-08-28 20:59:08,-34.9105467682683,-56.1389426904927,0.328084,0.328084,41.376628948724,41.704712948724,0.328084,0,0.229862868248,0.46813649792,19,5,7.613,41.704712948724,0.328084,0,0.286613198148,0,0,-0.223694,264.9, -2.8, 0.7,0,0,1024,1024,1024,1024,0,0,0,0,275.3,-18.2,0,40,3.798,3.793,0,0,0,0,0.621,85.82,41.704712948724,0.328084,10,Assisted_Takeoff,
2800,2022-08-28 20:59:08,-34.9105468258143,-56.1389427248508,0.328084,0.328084,41.376628948724,41.704712948724,0.328084,0,0.208563654968,0.49151576376,19,5,7.613,41.704712948724,0.328084,0,0.286613198148,0,0,-0.223694,265, -2.8, 0.9,0,0,1024,1024,1024,1024,0,0,0,0,275.3,-18.2,0,40,3.798,3.793,0,0,0,0,0.621,85.82,41.704712948724,0.328084,10,Assisted_Takeoff,
2900,2022-08-28 20:59:08,-34.9105467607058,-56.1389427276819,0.328084,0.328084,41.376628948724,41.704712948724,0.328084,0,0.232313327644,0.51528544956,20,5,7.613,41.704712948724,0.328084,0,0.286613198148,0,0,-0.223694,265, -2.8, 1,0,0,1024,1024,1024,1024,0,0,0,0,275.4,-18.2,0,40,3.798,3.793,0,0,0,0,0.621,85.82,41.704712948724,0.328084,10,Assisted_Takeoff,
3000,2022-08-28 20:59:09,-34.9105467224154,-56.1389427582072,0.328084,0.328084,41.376628948724,41.704712948724,0.328084,0,0.246422580064,0.53197508264,20,5,7.613,41.704712948724,0.328084,0,0.286613198148,0,0,-0.223694,265.1, -2.9, 1,0,0,1024,1024,1024,1024,0,0,0,0,275.4,-18.3,0,40,3.798,3.793,0,0,0,0,0.621,85.82,41.704712948724,0.328084,10,Assisted_Takeoff,
3100,2022-08-28 20:59:09,-34.9105466943134,-56.138942806685,0.328084,0.328084,41.376628948724,41.704712948724,0.328084,0,0.257548564672,0.5497375504,20,5,7.613,41.704712948724,0.328084,0,0.286613198148,0,0,-0.223694,265.1, -3, 0.8,0,0,1024,1024,1024,1024,0,0,0,0,275.5,-18.2,0,40,3.798,3.793,0,0,0,0,0.621,85.82,41.704712948724,0.328084,10,Assisted_Takeoff,
3200,2022-08-28 20:59:09,-34.9105466891064,-56.1389428588858,0.328084,0.328084,41.376628948724,41.704712948724,0.328084,0,0.261278551668,0.56547245904,20,5,7.581,41.704712948724,0.328084,0,0.286613198148,0,0,-0.223694,265, -3.2, 0.7,0,0,1024,1024,1024,1024,0,0,0,0,275.5,-18.2,0,40,3.797,3.796,0,0,0,0,1.522,85.82,41.704712948724,0.328084,10,Assisted_Takeoff,
3300,2022-08-28 20:59:09,-34.9105466361708,-56.1389428806305,0.328084,0.328084,41.376628948724,41.704712948724,0.328084,0,0.281361885644,0.58584975628,20,5,7.581,41.704712948724,0.328084,0,0.286613198148,0,0,-0.223694,265, -3.4, 0.6,0,0,1024,1024,1024,1024,0,0,0,0,275.5,-18.2,0,40,3.797,3.796,0,0,0,0,1.522,85.82,41.704712948724,0.328084,10,Assisted_Takeoff,
3400,2022-08-28 20:59:09,-34.9105465805619,-56.1389428882405,0.328084,0.328084,41.376628948724,41.704712948724,0.328084,0,0.301755587084,0.6062664236,20,5,7.581,41.704712948724,0.328084,0,0.301755587084,0,0,-0.223694,265.1, -3.3, 0.6,0,0,1024,1024,1024,1024,0,0,0,0,275.5,-18.2,0,40,3.797,3.796,0,0,0,0,1.522,85.82,41.704712948724,0.328084,10,Assisted_Takeoff,
3500,2022-08-28 20:59:09,-34.9105465154587,-56.1389428937166,0.328084,0.328084,41.376628948724,41.704712948724,0.328084,0,0.32547901304,0.63007547948,20,5,7.581,41.704712948724,0.328084,0,0.32547901304,0,0,-0.223694,265, -3.5, 0.6,0,0,1024,1024,1024,1024,0,0,0,0,275.5,-18.2,0,40,3.797,3.796,0,0,0,0,1.522,85.82,41.704712948724,0.328084,10,Assisted_Takeoff,
3600,2022-08-28 20:59:09,-34.910546541641,-56.1389429317115,0.328084,0.328084,41.376628948724,41.704712948724,0.328084,0,0.317994104664,0.64492456132,20,5,7.581,41.704712948724,0.328084,0,0.32547901304,0,0,-0.223694,265.2, -3.5, 0.5,0,0,1024,1024,1024,1024,0,0,0,0,275.5,-18.2,0,40,3.797,3.796,0,0,0,0,1.522,85.82,41.704712948724,0.328084,10,Assisted_Takeoff,
3700,2022-08-28 20:59:09,-34.9105465293363,-56.1389429847233,0.328084,0.328084,41.376628948724,41.704712948724,0.328084,0,0.325739183652,0.66140750148,20,5,7.581,41.704712948724,0.328084,0,0.325739183652,0,0,-0.223694,265.1, -3.7, 0.4,0,0,1024,1024,1024,1024,0,0,0,0,275.5,-18.2,0,40,3.797,3.796,0,0,0,0,1.522,85.82,41.704712948724,0.328084,10,Assisted_Takeoff,
3800,2022-08-28 20:59:09,-34.9105465001717,-56.1389430120675,0.656168,0.656168,41.376628948724,42.032796948724,0.328084,0,0.3380413494,0.67483269876,20,5,7.581,42.032796948724,0.656168,0,0.3380413494,0,0,-0.223694,265.1, -3.7, 0.4,0,0,1024,1024,1024,1024,0,0,0,0,275.5,-18.2,0,40,3.797,3.796,0,0,0,0,1.522,85.82,42.032796948724,0.656168,10,Assisted_Takeoff,
3900,2022-08-28 20:59:09,-34.9105464538459,-56.1389430265248,0.656168,0.5249344,41.507862548724,42.032796948724,0.328084,0,0.35548885652,0.69227692504,20,5,7.581,42.032796948724,0.656168,0,0.35548885652,0,0,-0.223694,264.8, -3.7, 1,0,0,1024,1024,1024,1024,0,0,0,0,275.5,-18.2,0,40,3.797,3.796,0,0,0,0,1.522,85.82,42.032796948724,0.656168,10,Assisted_Takeoff,
4000,2022-08-28 20:59:09,-34.9105464786514,-56.1389430663061,0.656168,0.5249344,41.507862548724,42.032796948724,0.328084,0,0.34996064112,0.70723099376,20,5,7.581,42.032796948724,0.656168,0,0.35548885652,0,0,-0.223694,263.3, -4.9, 2,0,0,1024,1024,1024,1024,0,0,0,0,275.1,-18.2,0,40,3.797,3.796,0,0,0,0,1.522,85.82,42.032796948724,0.656168,10,Assisted_Takeoff,
4100,2022-08-28 20:59:10,-34.9105464654842,-56.1389431555897,0.656168,0.5249344,41.507862548724,42.032796948724,0.328084,0,0.3630413502,0.73437338308,20,5,7.581,42.032796948724,0.656168,0,0.3630413502,0,0,-0.223694,262.8, -6.8, 2.7,0,0,1024,1024,1024,1024,0,0,0,0,274.3,-18.2,0,40,3.797,3.796,0,0,0,0,1.522,85.82,42.032796948724,0.656168,10,Assisted_Takeoff,
4200,2022-08-28 20:59:10,-34.9105464228379,-56.1389432125811,0.656168,0.5249344,41.507862548724,42.032796948724,0.328084,0,0.38373360808,0.75745409248,20,5,7.595,42.032796948724,0.656168,0,0.38373360808,0,0,-0.223694,262.4, -6.9, 3.7,0,0,1024,1024,1024,1024,0,0,0,0,274,-18.2,0,40,3.799,3.796,0,0,0,0,1.085,85.82,42.032796948724,0.656168,10,Assisted_Takeoff,
4300,2022-08-28 20:59:10,-34.9105463629234,-56.1389432289965,0.656168,0.5249344,41.507862548724,42.032796948724,0.328084,0,0.40585303136,0.77985894884,20,5,7.595,42.032796948724,0.656168,0,0.40585303136,0,0,-0.223694,260.9, -6.1, 4.6,0,0,1024,1024,1024,1024,0,0,0,0,273.4,-18.2,0,40,3.799,3.796,0,0,0,0,1.085,85.82,42.032796948724,0.656168,10,Assisted_Takeoff,
4400,2022-08-28 20:59:10,-34.9105462908849,-56.1389432672879,0.656168,0.5249344,41.507862548724,42.032796948724,0.656168,0,0.43450788792,0.8085302096,20,5,7.595,42.032796948724,0.656168,0,0.43450788792,0,0,-0.447388,259.6, -6.6, 6.3,0,0,1024,1024,1024,1024,0,0,0,0,272.3,-18.2,0,40,3.799,3.796,0,0,0,0,1.085,85.82,42.032796948724,0.656168,10,Assisted_Takeoff,
4500,2022-08-28 20:59:10,-34.9105461548345,-56.1389433320649,0.656168,0.5249344,41.507862548724,42.032796948724,0.656168,0,0.4877952912,0.86181761288,20,5,7.595,42.032796948724,0.656168,0,0.4877952912,0,0,-1.11847,259.9, -4, 7,0,0,1024,1024,1024,1024,0,0,0,0,271.4,-18.2,0,40,3.799,3.796,0,0,0,0,1.085,85.82,42.032796948724,0.656168,6,P-GPS,
4600,2022-08-28 20:59:10,-34.9105461634396,-56.1389434287383,0.984252,0.8530184,41.507862548724,42.360880948724,0.656168,0,0.49634516024,0.890912102,20,5,7.595,42.360880948724,0.984252,0,0.49634516024,0,0,-0.671082,259, -1.7, 4.5,0,0,1024,1024,1024,1024,0,0,0,0,271.3,-18.2,0,40,3.799,3.796,0,0,0,0,1.085,85.82,42.360880948724,0.984252,6,P-GPS,
4700,2022-08-28 20:59:10,-34.9105461657974,-56.1389435227687,0.984252,0.8858268,41.475054148724,42.360880948724,0.656168,0,0.50806760156,0.91905842836,20,5,7.595,42.360880948724,0.984252,0,0.50806760156,0,0,0,259.2, -3.6, 3.1,0,0,1024,1024,1024,1024,0,0,0,0,271.3,-18.2,0,40,3.799,3.796,0,0,0,0,1.085,85.82,42.360880948724,0.984252,6,P-GPS,
4800,2022-08-28 20:59:10,-34.9105461305316,-56.1389435240309,0.984252,0.8858268,41.475054148724,42.360880948724,0.656168,0,0.5196522476,0.93193244452,20,5,7.595,42.360880948724,0.984252,0,0.5196522476,0,0,-0.223694,258.9, -6, 0.7,0,0,1024,1024,1024,1024,0,0,0,0,271.3,-18.2,0,40,3.799,3.796,0,0,0,0,1.085,85.82,42.360880948724,0.984252,6,P-GPS,
4900,2022-08-28 20:59:10,-34.9105461479692,-56.1389434017317,0.984252,0.8530184,41.507862548724,42.360880948724,0.656168,0,0.49815618392,0.96907155332,20,5,7.595,42.360880948724,0.984252,0,0.5196522476,0,0,-0.223694,259.5, -4.9, 0,0,0,1024,1024,1024,1024,0,0,0,0,271.3,-18.2,0,40,3.799,3.796,0,0,0,0,1.085,85.82,42.360880948724,0.984252,6,P-GPS,
5000,2022-08-28 20:59:10,-34.9105461500501,-56.1389434394811,0.984252,0.8530184,41.507862548724,42.360880948724,0.328084,0,0.50212928116,0.98039045132,20,5,7.595,42.360880948724,0.984252,0,0.5196522476,0,0,-0.223694,259.9, -4.9, -1.4,0,0,1024,1024,1024,1024,0,0,0,0,271.3,-18.2,0,40,3.799,3.796,0,0,0,0,1.085,85.82,42.360880948724,0.984252,6,P-GPS,
5100,2022-08-28 20:59:11,-34.9105461968596,-56.1389435207877,0.984252,0.8858268,41.475054148724,42.360880948724,0.328084,0,0.49778872984,1.01011486172,20,5,7.595,42.360880948724,0.984252,0,0.5196522476,0,0,-0.223694,259.6, -3.6, -1.8,0,0,1024,1024,1024,1024,0,0,0,0,271.3,-18.2,0,40,3.799,3.796,0,0,0,0,1.085,85.82,42.360880948724,0.984252,6,P-GPS,
5200,2022-08-28 20:59:11,-34.9105462541645,-56.1389435550107,0.984252,0.8858268,41.475054148724,42.360880948724,0.328084,0,0.48462599976,1.03339570236,20,5,7.593,42.360880948724,0.984252,0,0.5196522476,0,0,-0.223694,258.9, -2.4, -2.1,0,0,1024,1024,1024,1024,0,0,0,0,271.3,-18.2,0,40,3.8,3.794,0,0,0,0,1.11,85.82,42.360880948724,0.984252,6,P-GPS,
5300,2022-08-28 20:59:11,-34.9105464764333,-56.138943613084,0.984252,0.8858268,41.475054148724,42.360880948724,0.656168,0,0.42738846512,1.11632877588,20,5,7.593,42.360880948724,0.984252,0,0.5196522476,0,0,-0.447388,259.2, -0.1, -1.8,0,0,1024,1024,1024,1024,0,0,0,0,271.3,-18.2,0,40,3.8,3.794,0,0,0,0,1.11,85.82,42.360880948724,0.984252,6,P-GPS,
5400,2022-08-28 20:59:11,-34.9105464878403,-56.1389436488569,1.312336,1.2139108,41.475054148724,42.688964948724,0.656168,0,0.43086943636,1.12781499672,20,5,7.593,42.688964948724,1.312336,0,0.5196522476,0,0,-0.447388,258.4, 0.4, -1.4,0,0,1024,1024,1024,1024,0,0,0,0,271.3,-18.2,0,40,3.8,3.794,0,0,0,0,1.11,85.82,42.688964948724,1.312336,6,P-GPS,
5500,2022-08-28 20:59:11,-34.9105465020666,-56.138943714866,1.312336,1.3451444,41.343820548724,42.688964948724,0.656168,0,0.43985893796,1.14823494488,20,5,7.593,42.688964948724,1.312336,0,0.5196522476,0,0,-0.447388,258.2, 0.6, -1,0,0,1024,1024,1024,1024,0,0,0,0,271.3,-18.2,0,40,3.8,3.794,0,0,0,0,1.11,85.82,42.688964948724,1.312336,6,P-GPS,
5600,2022-08-28 20:59:11,-34.9105464961043,-56.1389437952383,1.312336,1.2139108,41.475054148724,42.688964948724,0.656168,0,0.45787074956,1.17237864644,20,5,7.593,42.688964948724,1.312336,0,0.5196522476,0,0,-0.447388,258.7, 0.3, 0,0,0,1024,1024,1024,1024,0,0,0,0,271.3,-18.2,0,40,3.8,3.794,0,0,0,0,1.11,85.82,42.688964948724,1.312336,6,P-GPS,
5700,2022-08-28 20:59:11,-34.9105464744765,-56.138943962972,1.312336,1.2139108,41.475054148724,42.688964948724,0.656168,0,0.4993930606,1.223179173,20,5,7.593,42.688964948724,1.312336,0,0.5196522476,0,0,-0.447388,258.8, 0, 0.7,0,0,1024,1024,1024,1024,0,0,0,0,271.3,-18.2,0,40,3.8,3.794,0,0,0,0,1.11,85.82,42.688964948724,1.312336,6,P-GPS,
5800,2022-08-28 20:59:11,-34.9105464502064,-56.1389440816885,1.312336,1.2139108,41.475054148724,42.688964948724,0.656168,0,0.53187665744,1.25978678572,20,5,7.593,42.688964948724,1.312336,0,0.53187665744,0,0,-0.447388,258.9, 0.7, 0.5,0,0,1024,1024,1024,1024,0,0,0,0,271.3,-18.2,0,40,3.8,3.794,0,0,0,0,1.11,85.82,42.688964948724,1.312336,6,P-GPS,
5900,2022-08-28 20:59:11,-34.9105463874714,-56.1389442530858,1.64042,1.5419948,41.475054148724,43.017048948724,0.656168,0.223694,0.58594818148,1.315944924,20,5,7.593,43.017048948724,1.64042,0.223694,0.58594818148,0,-0.223694,-0.894776,262.3, 9.1, 1.4,0,0,1024,1024,1024,1024,0,0,0,0,271.3,-18.2,0,40,3.8,3.794,0,0,0,0,1.11,85.82,43.017048948724,1.64042,6,P-GPS,
6000,2022-08-28 20:59:12,-34.9105463354324,-56.1389443754189,1.64042,1.5419948,41.475054148724,43.017048948724,0.656168,0,0.62640093868,1.35717524028,20,5,7.593,43.017048948724,1.64042,0.223694,0.62640093868,0,0,-1.11847,262.9, 7.3, 0.5,0,0,1024,1024,1024,889,0,0,0,-20,271.3,-18.2,0,40,3.8,3.794,0,0,0,0,1.11,85.82,43.017048948724,1.64042,6,P-GPS,
6100,2022-08-28 20:59:12,-34.9105462565377,-56.1389443723828,1.968504,1.8700788,41.475054148724,43.345132948724,0.656168,0.3131716,0.64390750092,1.3859744538,20,5,7.593,43.345132948724,1.968504,0.3131716,0.64390750092,0.223694,0.223694,-1.342164,262.5, 2.7, -1.4,0,0,1024,1024,1193,851,0,0,26,-26,271.3,-18.2,0,40,3.8,3.794,0,0,0,0,1.11,85.82,43.345132948724,1.968504,6,P-GPS,
6200,2022-08-28 20:59:12,-34.9105461325639,-56.1389443728039,1.968504,1.8700788,41.475054148724,43.345132948724,0.984252,0.223694,0.67412403732,1.43120739488,20,5,7.53,43.345132948724,1.968504,0.3131716,0.67412403732,0,0.223694,-1.342164,262.2, 0, -1.9,0,0,1024,1024,1684,1024,0,0,100,0,271,-18.2,0,40,3.756,3.746,0,0,0,0,2.289,85.82,43.345132948724,1.968504,6,P-GPS,
6300,2022-08-28 20:59:12,-34.9105460306451,-56.1389442219434,2.296588,2.1981628,41.475054148724,43.673216948724,0.984252,0.223694,0.66919621564,1.48968836788,20,5,7.53,43.673216948724,2.296588,0.3131716,0.67412403732,0,0.223694,-1.342164,261.9, -1.2, -1.6,0,0,1024,1024,1456,1024,0,0,65,0,270.7,-18.2,0,40,3.756,3.746,0,0,0,0,2.289,85.82,43.673216948724,2.296588,6,P-GPS,
6400,2022-08-28 20:59:12,-34.9105459181742,-56.138944092127,2.296588,2.1981628,41.475054148724,43.673216948724,1.312336,0.223694,0.67622377492,1.54619099436,20,5,7.53,43.673216948724,2.296588,0.3131716,0.67622377492,0,0.223694,-1.789552,261.5, -2, -1.7,0,0,1024,1024,1332,1024,0,0,47,0,270.6,-18.2,0,40,3.756,3.746,0,0,0,0,2.289,85.82,43.673216948724,2.296588,6,P-GPS,
6500,2022-08-28 20:59:12,-34.9105458106376,-56.1389439808872,2.624672,2.5262468,41.475054148724,44.001300948724,1.64042,0.223694,0.68931432652,1.59764112724,20,5,7.53,44.001300948724,2.624672,0.3131716,0.68931432652,0,0.223694,-2.013246,261.3, -2.1, -1,0,0,1024,1024,1024,1024,0,0,0,0,270.6,-18.2,0,40,3.756,3.746,0,0,0,0,2.289,85.82,44.001300948724,2.624672,6,P-GPS,"Punto de origen actualizado. Altitud de RPO establecida en 100m (Code: 3000001)"
6600,2022-08-28 20:59:12,-34.9105456727461,-56.1389436259755,2.952756,2.8543308,41.475054148724,44.329384948724,1.968504,0,0.68392718724,1.715141131,20,5,7.53,44.329384948724,2.952756,0.3131716,0.68931432652,0,0,-2.460634,261.1, -2, -1,0,0,1024,1024,1024,1024,0,0,0,0,270.6,-18.2,0,40,3.756,3.746,0,0,0,0,2.289,85.82,44.329384948724,2.952756,6,P-GPS,
6700,2022-08-28 20:59:12,-34.9105456750379,-56.1389434294389,3.28084,3.1496064,41.507862548724,44.657468948724,2.296588,0,0.66230645164,1.773950188,20,5,7.53,44.657468948724,3.28084,0.3131716,0.68931432652,0,0,-2.23694,260.9, -1.7, -1.2,0,0,1024,1024,1024,1024,0,0,0,0,270.6,-18.2,0,40,3.756,3.746,0,0,0,0,2.289,85.82,44.657468948724,3.28084,6,P-GPS,
6800,2022-08-28 20:59:12,-34.9105457146244,-56.138943258899,3.608924,3.4776904,41.507862548724,44.985552948724,2.624672,0,0.63400920664,1.82697840492,20,5,7.53,44.985552948724,3.608924,0.3131716,0.68931432652,0,0,-1.789552,260.8, -1.7, -1.3,0,0,1024,1024,1024,1024,0,0,0,0,270.6,-18.2,0,40,3.756,3.746,0,0,0,0,2.289,85.82,44.985552948724,3.608924,6,P-GPS,
6900,2022-08-28 20:59:12,-34.9105457769897,-56.1389430955713,3.608924,3.4776904,41.507862548724,44.985552948724,2.624672,0,0.6012303342,1.88088260612,20,5,7.53,44.985552948724,3.608924,0.3131716,0.68931432652,0,0,-1.11847,260.8, -1.3, -0.9,0,0,1024,1024,1024,1024,0,0,0,0,270.6,-18.2,0,40,3.756,3.746,0,0,0,0,2.289,85.82,44.985552948724,3.608924,6,P-GPS,
7000,2022-08-28 20:59:12,-34.9105458058058,-56.1389431583347,3.937008,3.8057744,41.507862548724,45.313636948724,2.624672,0,0.59465553084,1.90240491652,20,5,7.53,45.313636948724,3.937008,0.3131716,0.68931432652,0,0,-0.447388,260.8, -1, -0.6,0,0,1024,1024,1024,1024,0,0,0,0,270.6,-18.2,0,40,3.756,3.746,0,0,0,0,2.289,85.82,45.313636948724,3.937008,6,P-GPS,
7100,2022-08-28 20:59:13,-34.9105457900527,-56.1389431633218,3.937008,3.8057744,41.507862548724,45.313636948724,2.624672,0,0.60058728956,1.90834323692,20,5,7.53,45.313636948724,3.937008,0.3131716,0.68931432652,0,0,0,260.7, -0.5, -0.6,0,0,1024,1024,1024,1024,0,0,0,0,270.6,-18.2,0,40,3.756,3.746,0,0,0,0,2.289,85.82,45.313636948724,3.937008,6,P-GPS,
7200,2022-08-28 20:59:13,-34.9105458288756,-56.1389432014636,3.937008,3.8057744,41.507862548724,45.313636948724,2.624672,0,0.58938978264,1.92653221388,20,5,7.448,45.313636948724,3.937008,0.3131716,0.68931432652,0,0,0,260.7, -0.7, -0.6,0,0,1024,1024,1024,1024,0,0,0,0,270.6,-18.2,0,39,3.741,3.716,0,0,0,0,5.377,85.82,45.313636948724,3.937008,6,P-GPS,
7300,2022-08-28 20:59:13,-34.9105459022213,-56.1389432598647,3.937008,3.8057744,41.507862548724,45.313636948724,2.624672,0,0.56806432264,1.95849415716,20,5,7.448,45.313636948724,3.937008,0.3131716,0.68931432652,0,0,0,260.7, -1, -0.4,0,0,1024,1024,1024,1024,0,0,0,0,270.6,-18.2,0,39,3.741,3.716,0,0,0,0,5.377,85.82,45.313636948724,3.937008,6,P-GPS,
7400,2022-08-28 20:59:13,-34.9105459251677,-56.1389432982605,3.937008,3.8057744,41.507862548724,45.313636948724,2.624672,0,0.5633858448,1.97270675604,20,5,7.448,45.313636948724,3.937008,0.3131716,0.68931432652,0,0,0,260.6, -1.1, -0.5,0,0,1024,1024,1024,1024,0,0,0,0,270.6,-18.2,0,39,3.741,3.716,0,0,0,0,5.377,85.82,45.313636948724,3.937008,6,P-GPS,
7500,2022-08-28 20:59:13,-34.91054591535,-56.1389431873778,3.937008,3.8057744,41.507862548724,45.313636948724,2.624672,0,0.55775592336,2.00607617968,20,5,7.448,45.313636948724,3.937008,0.3131716,0.68931432652,0,0,0,260.6, -1.2, -0.6,0,0,1024,1024,1024,1024,0,0,0,0,270.6,-18.2,0,39,3.741,3.716,0,0,0,0,5.377,85.82,45.313636948724,3.937008,6,P-GPS,
7600,2022-08-28 20:59:13,-34.9105459789165,-56.1389431021882,3.937008,3.8057744,41.507862548724,45.313636948724,2.624672,0,0.52936681484,2.0405348422,20,5,7.448,45.313636948724,3.937008,0.3131716,0.68931432652,0,0,0,260.5, -1.2, -0.6,0,0,1024,1024,1024,1024,0,0,0,0,270.6,-18.2,0,39,3.741,3.716,0,0,0,0,5.377,85.82,45.313636948724,3.937008,6,P-GPS,
7700,2022-08-28 20:59:13,-34.9105460876176,-56.138943026818,3.937008,3.8057744,41.507862548724,45.313636948724,2.296588,0,0.48604660348,2.08615820324,20,5,7.448,45.313636948724,3.937008,0.3131716,0.68931432652,0,0,0,260.5, -0.8, -0.6,0,0,1024,1024,1024,1024,0,0,0,0,270.6,-18.2,0,39,3.741,3.716,0,0,0,0,5.377,85.82,45.313636948724,3.937008,6,P-GPS,
7800,2022-08-28 20:59:13,-34.9105461905062,-56.138943000318,3.937008,3.8057744,41.507862548724,45.313636948724,2.296588,0,0.44769358388,2.1245243462,20,5,7.448,45.313636948724,3.937008,0.3131716,0.68931432652,0,0,0,260.6, -1.2, -0.4,0,0,1024,1024,1024,1024,0,0,0,0,270.6,-18.2,0,39,3.741,3.716,0,0,0,0,5.377,85.82,45.313636948724,3.937008,6,P-GPS,
7900,2022-08-28 20:59:13,-34.9105464475259,-56.1389430475774,3.937008,3.8057744,41.507862548724,45.313636948724,2.296588,0,0.359334001,2.21936030724,20,5,7.448,45.313636948724,3.937008,0.3131716,0.68931432652,0,0,0,260.6, -1.3, -0.2,0,0,1024,1024,1024,1024,0,0,0,0,270.6,-18.2,0,39,3.741,3.716,0,0,0,0,5.377,85.82,45.313636948724,3.937008,6,P-GPS,
8000,2022-08-28 20:59:13,-34.9105465732007,-56.1389430164148,3.937008,3.937008,41.376628948724,45.313636948724,2.296588,0,0.312661755412,2.26614836648,20,5,7.448,45.313636948724,3.937008,0.3131716,0.68931432652,0,0,-0.223694,260.7, -1.7, -0.1,0,0,1024,1024,1024,1024,0,0,0,0,270.6,-18.2,0,39,3.741,3.716,0,0,0,0,5.377,85.82,45.313636948724,3.937008,6,P-GPS,
8100,2022-08-28 20:59:14,-34.9105467132652,-56.1389429681498,3.937008,3.937008,41.376628948724,45.313636948724,2.624672,0,0.259558407256,2.31925204272,20,5,7.448,45.313636948724,3.937008,0.3131716,0.68931432652,0,0,-0.223694,260.7, -1.5, 0,0,0,1024,1024,1024,1024,0,0,0,0,270.6,-18.2,0,39,3.741,3.716,0,0,0,0,5.377,85.82,45.313636948724,3.937008,6,P-GPS,
8200,2022-08-28 20:59:14,-34.9105468086733,-56.1389429042498,3.937008,3.937008,41.376628948724,45.313636948724,2.624672,0,0.221019035944,2.35896661092,20,5,7.496,45.313636948724,3.937008,0.3131716,0.68931432652,0,0,-0.223694,260.6, -1.3, 0.3,0,0,1024,1024,1024,1024,0,0,0,0,270.6,-18.2,0,39,3.736,3.728,0,0,0,0,4.278,85.82,45.313636948724,3.937008,6,P-GPS,
8300,2022-08-28 20:59:14,-34.910546926924,-56.1389428315631,3.937008,3.937008,41.376628948724,45.313636948724,2.624672,0,0.174315294292,2.4072835416,20,5,7.496,45.313636948724,3.937008,0.3131716,0.68931432652,0,0,-0.223694,260.6, -1.3, 0.1,0,0,1024,1024,1024,1024,0,0,0,0,270.6,-18.2,0,39,3.736,3.728,0,0,0,0,4.278,85.82,45.313636948724,3.937008,6,P-GPS,
8400,2022-08-28 20:59:14,-34.9105469598283,-56.1389427518287,3.937008,3.937008,41.376628948724,45.313636948724,2.624672,0,0.159790687528,2.4339895792,20,5,7.496,45.313636948724,3.937008,0.3131716,0.68931432652,0,0,-0.223694,260.6, -1.5, 0,0,0,1024,1024,1024,1024,0,0,0,0,270.6,-18.2,0,39,3.736,3.728,0,0,0,0,4.278,85.82,45.313636948724,3.937008,6,P-GPS,
8500,2022-08-28 20:59:14,-34.9105469753494,-56.1389426625615,3.937008,3.937008,41.376628948724,45.313636948724,2.624672,0,0.155330713632,2.46128944884,20,5,7.496,45.313636948724,3.937008,0.3131716,0.68931432652,0,0,-0.223694,260.6, -1.7, 0,0,0,1024,1024,1024,1024,0,0,0,0,270.6,-18.2,0,39,3.736,3.728,0,0,0,0,4.278,85.82,45.313636948724,3.937008,6,P-GPS,
8600,2022-08-28 20:59:14,-34.9105469744485,-56.138942550023,3.937008,3.937008,41.376628948724,45.313636948724,2.624672,0,0.163491475048,2.4949639906,20,5,7.496,45.313636948724,3.937008,0.3131716,0.68931432652,0,0,-0.223694,260.5, -2.1, -0.6,0,0,1024,1024,1024,1024,0,0,0,0,270.6,-18.2,0,39,3.736,3.728,0,0,0,0,4.278,85.82,45.313636948724,3.937008,6,P-GPS,
8700,2022-08-28 20:59:14,-34.9105468328997,-56.1389423473822,3.937008,3.8713912,41.442245748724,45.313636948724,2.624672,0,0.235704403868,2.5746063816,20,5,7.496,45.313636948724,3.937008,0.3131716,0.68931432652,0,0,-0.223694,260.7, -2.2, -0.5,0,0,1024,1024,1024,1024,0,0,0,0,270.6,-18.2,0,39,3.736,3.728,0,0,0,0,4.278,85.82,45.313636948724,3.937008,6,P-GPS,
8800,2022-08-28 20:59:14,-34.910546846408,-56.1389422975874,4.265092,4.1994752,41.442245748724,45.641720948724,2.624672,0,0.239138131012,2.59029863932,20,5,7.496,45.641720948724,4.265092,0.3131716,0.68931432652,0,0,-0.223694,260.8, -1.5, -0.1,0,0,1024,1024,1024,1024,0,0,0,0,270.6,-18.2,0,39,3.736,3.728,0,0,0,0,4.278,85.82,45.641720948724,4.265092,6,P-GPS,
8900,2022-08-28 20:59:14,-34.9105468625548,-56.138942284786,4.265092,4.1994752,41.442245748724,45.641720948724,2.624672,0,0.236346464256,2.5973261986,20,5,7.496,45.641720948724,4.265092,0.3131716,0.68931432652,0,0,-0.223694,260.8, -1.3, -0.4,0,0,1024,1024,1024,1024,0,0,0,0,270.6,-18.2,0,39,3.736,3.728,0,0,0,0,4.278,85.82,45.641720948724,4.265092,6,P-GPS,
9000,2022-08-28 20:59:15,-34.9105468571228,-56.1389422727524,4.265092,4.1994752,41.442245748724,45.641720948724,2.624672,0,0.240021005056,2.60143381028,20,5,7.496,45.641720948724,4.265092,0.3131716,0.68931432652,0,0,-0.223694,260.8, -1.1, -0.1,0,0,1024,1024,1024,1024,0,0,0,0,270.6,-18.2,0,39,3.736,3.728,0,0,0,0,4.278,85.82,45.641720948724,4.265092,6,P-GPS,
9100,2022-08-28 20:59:15,-34.9105467633346,-56.1389424333175,4.265092,4.1994752,41.442245748724,45.641720948724,2.624672,0,0.24783957486,2.6604167518,20,5,7.496,45.641720948724,4.265092,0.3131716,0.68931432652,0,0,-0.223694,260.8, -1.1, 0.1,0,0,1024,1024,1084,1024,0,0,9,0,270.6,-18.2,0,39,3.736,3.728,0,0,0,0,4.278,85.82,45.641720948724,4.265092,6,P-GPS,
9200,2022-08-28 20:59:15,-34.9105467626303,-56.1389424770034,4.265092,4.1994752,41.442245748724,45.641720948724,2.624672,0,0.243702107536,2.67348761836,20,5,7.466,45.641720948724,4.265092,0.3131716,0.68931432652,0,0,-0.223694,260.7, -0.7, 0,0,0,1024,1024,1084,1024,0,0,9,0,270.6,-18.2,0,39,3.736,3.729,0,0,0,0,4.467,85.82,45.641720948724,4.265092,6,P-GPS,
9300,2022-08-28 20:59:15,-34.9105467701598,-56.1389425557969,4.265092,4.265092,41.376628948724,45.641720948724,2.624672,0,0.234748695176,2.69722121492,20,5,7.466,45.641720948724,4.265092,0.3131716,0.68931432652,0,0,-0.223694,260.7, -1, -0.6,0,0,1024,1024,1347,1024,0,0,49,0,270.6,-18.2,0,39,3.736,3.729,0,0,0,0,4.467,85.82,45.641720948724,4.265092,6,P-GPS,
9400,2022-08-28 20:59:15,-34.9105467847384,-56.1389426114217,4.265092,4.265092,41.376628948724,45.641720948724,2.624672,0,0.22635991538,2.71469496876,20,5,7.466,45.641720948724,4.265092,0.3131716,0.68931432652,0,0,-0.223694,260.8, -0.7, -0.4,0,0,1024,1024,1576,1024,0,0,84,0,270.6,-18.2,0,39,3.736,3.729,0,0,0,0,4.467,85.82,45.641720948724,4.265092,6,P-GPS,
9500,2022-08-28 20:59:15,-34.9105468023981,-56.1389426472156,4.265092,4.265092,41.376628948724,45.641720948724,2.952756,0,0.218522316704,2.72719168832,20,5,7.466,45.641720948724,4.265092,0.3131716,0.68931432652,0,0,-0.894776,260.7, -0.9, -0.8,0,0,1024,1024,1684,1024,0,0,100,0,270.6,-18.2,0,39,3.736,3.729,0,0,0,0,4.467,85.82,45.641720948724,4.265092,6,P-GPS,
9600,2022-08-28 20:59:15,-34.9105469321484,-56.1389429406202,4.593176,4.593176,41.376628948724,45.969804948724,2.952756,0,0.18103839162,2.82692922432,20,5,7.466,45.969804948724,4.593176,0.3131716,0.68931432652,0,0,-1.565858,260.7, -0.8, -0.9,0,0,1024,1024,1684,1024,0,0,100,0,270.6,-18.2,0,39,3.736,3.729,0,0,0,0,4.467,85.82,45.969804948724,4.593176,6,P-GPS,
9700,2022-08-28 20:59:15,-34.9105469834896,-56.1389429941934,4.92126,4.92126,41.376628948724,46.297888948724,3.28084,0,0.170409126188,2.85158145608,21,5,7.466,46.297888948724,4.92126,0.3131716,0.68931432652,0,0,-2.460634,260.7, -0.8, -0.5,0,0,1024,1024,1584,1024,0,0,85,0,270.6,-18.2,0,39,3.736,3.729,0,0,0,0,4.467,85.82,46.297888948724,4.92126,6,P-GPS,
9800,2022-08-28 20:59:15,-34.9105470192087,-56.1389430451674,5.577428,5.577428,41.376628948724,46.954056948724,3.937008,0,0.167070871488,2.87164379268,21,5,7.466,46.954056948724,5.577428,0.3131716,0.68931432652,0,0,-3.131716,260.6, -0.7, 0,0,0,1024,1024,1335,1024,0,0,47,0,270.6,-18.2,0,39,3.736,3.729,0,0,0,0,4.467,85.82,46.954056948724,5.577428,6,P-GPS,
9900,2022-08-28 20:59:15,-34.9105470399009,-56.1389430949001,5.905512,5.905512,41.376628948724,47.282140948724,4.265092,0,0.170029533,2.88832686408,21,5,7.466,47.282140948724,5.905512,0.3131716,0.68931432652,0,0,-3.802798,260.7, -0.9, -0.6,0,0,1024,1024,1210,1024,0,0,28,0,270.6,-18.2,0,39,3.736,3.729,0,0,0,0,4.467,85.82,47.282140948724,5.905512,6,P-GPS,
10000,2022-08-28 20:59:16,-34.910547092781,-56.1389434198754,6.56168,6.56168,41.376628948724,47.938308948724,4.92126,0,0.234328747656,2.98745416384,21,5,7.466,47.938308948724,6.56168,0.3131716,0.68931432652,0,0,-3.579104,260.7, -0.7, -1,0,0,1024,1024,1024,1024,0,0,0,0,270.6,-18.2,0,39,3.736,3.729,0,0,0,0,4.467,85.82,47.938308948724,6.56168,6,P-GPS,
10100,2022-08-28 20:59:16,-34.9105471137887,-56.1389435177216,6.889764,6.9225724,41.343820548724,48.266392948724,5.577428,0,0.25729331532,3.017716632,21,5,7.466,48.266392948724,6.889764,0.3131716,0.68931432652,0,0,-3.131716,260.7, 0, -0.7,0,0,1024,1024,1024,1024,0,0,0,0,270.6,-18.2,0,39,3.736,3.729,0,0,0,0,4.467,85.82,48.266392948724,6.889764,6,P-GPS,
10200,2022-08-28 20:59:16,-34.9105471572279,-56.1389435833578,7.217848,7.2506564,41.343820548724,48.594476948724,5.905512,0,0.269830061128,3.04295285328,21,5,7.462,48.594476948724,7.217848,0.3131716,0.68931432652,0,0,-2.460634,260.7, -0.1, -0.4,0,0,1024,1024,1024,1024,0,0,0,0,270.6,-18.2,0,39,3.71,3.7,0,0,0,0,4.345,85.82,48.594476948724,7.217848,6,P-GPS,
10300,2022-08-28 20:59:16,-34.9105472103713,-56.1389436295562,7.545932,7.5787404,41.343820548724,48.922560948724,6.233596,0,0.277545612556,3.06676190916,21,5,7.462,48.922560948724,7.545932,0.3131716,0.68931432652,0,0,-1.565858,260.7, 0.2, -0.7,0,0,1024,1024,1024,1024,0,0,0,0,270.6,-18.2,0,39,3.71,3.7,0,0,0,0,4.345,85.82,48.922560948724,7.545932,6,P-GPS,
10400,2022-08-28 20:59:16,-34.9105470002703,-56.1389438871173,7.874016,7.9068244,41.343820548724,49.250644948724,6.233596,0,0.3751968624,3.17545613836,21,5,7.462,49.250644948724,7.874016,0.3131716,0.68931432652,0,0,-0.894776,260.7, 0.7, -0.7,0,0,1024,1024,1024,1024,0,0,0,0,270.6,-18.2,0,39,3.71,3.7,0,0,0,0,4.345,85.82,49.250644948724,7.874016,6,P-GPS,
10500,2022-08-28 20:59:16,-34.9105468944992,-56.1389439934673,7.874016,7.9068244,41.343820548724,49.250644948724,6.56168,0,0.42009843864,3.22547254416,21,5,7.462,49.250644948724,7.874016,0.3131716,0.68931432652,0,0,-0.447388,260.7, 1.1, -1,0,0,1024,1024,1024,1024,0,0,0,0,270.6,-18.2,0,39,3.71,3.7,0,0,0,0,4.345,85.82,49.250644948724,7.874016,6,P-GPS,
10600,2022-08-28 20:59:16,-34.9105468261937,-56.1389440302183,7.874016,7.9068244,41.343820548724,49.250644948724,6.56168,0,0.44122704824,3.25271335868,21,5,7.462,49.250644948724,7.874016,0.3131716,0.68931432652,0,0,0,260.7, 0.8, -1,0,0,1024,1024,1024,1024,0,0,0,0,270.6,-18.2,0,39,3.71,3.7,0,0,0,0,4.345,85.82,49.250644948724,7.874016,6,P-GPS,
10700,2022-08-28 20:59:16,-34.9105467785031,-56.138944021155,7.874016,7.9068244,41.343820548724,49.250644948724,6.56168,0,0.44736221904,3.27032162696,21,5,7.462,49.250644948724,7.874016,0.3131716,0.68931432652,0,0,0,260.8, 0.6, -0.8,0,0,1024,1024,1024,1024,0,0,0,0,270.6,-18.2,0,39,3.71,3.7,0,0,0,0,4.345,85.82,49.250644948724,7.874016,6,P-GPS,
10800,2022-08-28 20:59:16,-34.9105467276692,-56.1389438159892,7.874016,7.9068244,41.343820548724,49.250644948724,6.56168,0,0.40645998676,3.3344489256,21,5,7.462,49.250644948724,7.874016,0.3131716,0.68931432652,0,0,0,260.9, 0.3, -1,0,0,1024,1024,1024,1024,0,0,0,0,270.6,-18.2,0,39,3.71,3.7,0,0,0,0,4.345,85.82,49.250644948724,7.874016,6,P-GPS,
10900,2022-08-28 20:59:16,-34.9105467182258,-56.1389437024622,7.874016,7.9068244,41.343820548724,49.250644948724,6.233596,0,0.38209318808,3.36860247,21,5,7.462,49.250644948724,7.874016,0.3131716,0.68931432652,0,0,0,260.9, 0.1, -0.9,0,0,1024,1024,1024,1024,0,0,0,0,270.6,-18.2,0,39,3.71,3.7,0,0,0,0,4.345,85.82,49.250644948724,7.874016,6,P-GPS,
11000,2022-08-28 20:59:16,-34.9105467273276,-56.13894362383,7.874016,7.9068244,41.343820548724,49.250644948724,6.233596,0,0.36225722944,3.3923557516,21,5,7.462,49.250644948724,7.874016,0.3131716,0.68931432652,0,0,0,260.9, 0, -0.9,0,0,1024,1024,1024,1024,0,0,0,0,270.6,-18.2,0,39,3.71,3.7,0,0,0,0,4.345,85.82,49.250644948724,7.874016,6,P-GPS,
11100,2022-08-28 20:59:17,-34.910546747579,-56.138943558099,8.2021,8.2349084,41.343820548724,49.578728948724,6.233596,0,0.34284778,3.4133531276,21,5,7.462,49.578728948724,8.2021,0.3131716,0.68931432652,0,0,0,261, -0.1, -0.7,0,0,1024,1024,1024,1024,0,0,0,0,270.6,-18.2,0,39,3.71,3.7,0,0,0,0,4.345,85.82,49.578728948724,8.2021,6,P-GPS,
11200,2022-08-28 20:59:17,-34.9105467687402,-56.1389434758299,8.2021,8.2021,41.376628948724,49.578728948724,6.233596,0,0.319933409188,3.43914053,21,5,7.465,49.578728948724,8.2021,0.3131716,0.68931432652,0,0,0,260.9, -0.3, -0.6,0,0,1024,1024,1024,1024,0,0,0,0,270.6,-18.2,0,39,3.742,3.733,0,0,0,0,5.193,85.82,49.578728948724,8.2021,6,P-GPS,
11300,2022-08-28 20:59:17,-34.9105468723365,-56.1389433489223,8.2021,8.2021,41.376628948724,49.578728948724,6.233596,0,0.26636647834,3.4927166472,21,5,7.465,49.578728948724,8.2021,0.3131716,0.68931432652,0,0,0,260.9, 0, -0.7,0,0,1024,1024,1024,1024,0,0,0,0,270.6,-18.2,0,39,3.742,3.733,0,0,0,0,5.193,85.82,49.578728948724,8.2021,6,P-GPS,
11400,2022-08-28 20:59:17,-34.910546886392,-56.1389433014775,8.2021,8.2021,41.376628948724,49.578728948724,6.233596,0,0.252903223316,3.5078085112,21,5,7.465,49.578728948724,8.2021,0.3131716,0.68931432652,0,0,0,260.9, 0, -0.8,0,0,1024,1024,1024,1024,0,0,0,0,270.6,-18.2,0,39,3.742,3.733,0,0,0,0,5.193,85.82,49.578728948724,8.2021,6,P-GPS,
11500,2022-08-28 20:59:17,-34.910546894073,-56.1389432707954,8.2021,8.2021,41.376628948724,49.578728948724,6.233596,0,0.244683734864,3.5174213724,21,5,7.465,49.578728948724,8.2021,0.3131716,0.68931432652,0,0,0,260.9, -0.3, -1.1,0,0,1024,1024,1024,1024,0,0,0,0,270.6,-18.2,0,39,3.742,3.733,0,0,0,0,5.193,85.82,49.578728948724,8.2021,6,P-GPS,
11600,2022-08-28 20:59:17,-34.910546861338,-56.1389432301908,8.2021,8.2021,41.376628948724,49.578728948724,6.233596,0,0.246208669296,3.534448932,21,5,7.465,49.578728948724,8.2021,0.3131716,0.68931432652,0,0,0,260.9, -0.3, -1.2,0,0,1024,1024,1024,1024,0,0,0,0,270.6,-18.2,0,39,3.742,3.733,0,0,0,0,5.193,85.82,49.578728948724,8.2021,6,P-GPS,
11700,2022-08-28 20:59:17,-34.9105467243867,-56.1389433121053,8.2021,8.2021,41.376628948724,49.578728948724,6.233596,0,0.300985573936,3.5901247868,21,5,7.465,49.578728948724,8.2021,0.3131716,0.68931432652,0,0,0,260.8, -0.3, -1.4,0,0,1024,1024,1024,1024,0,0,0,0,270.6,-18.2,0,39,3.742,3.733,0,0,0,0,5.193,85.82,49.578728948724,8.2021,6,P-GPS,
11800,2022-08-28 20:59:17,-34.9105466936551,-56.1389432600364,8.2021,8.2021,41.376628948724,49.578728948724,6.233596,0,0.301735902044,3.6093177008,21,5,7.465,49.578728948724,8.2021,0.3131716,0.68931432652,0,0,0,260.9, -0.4, -1.5,0,0,1024,1024,1024,1024,0,0,0,0,270.6,-18.2,0,39,3.742,3.733,0,0,0,0,5.193,85.82,49.578728948724,8.2021,6,P-GPS,
11900,2022-08-28 20:59:17,-34.9105466834325,-56.1389431961037,8.2021,8.2021,41.376628948724,49.578728948724,6.56168,0,0.295427830976,3.6288058904,21,5,7.465,49.578728948724,8.2021,0.3131716,0.68931432652,0,0,0,260.9, -0.5, -1.1,0,0,1024,1024,1024,1024,0,0,0,0,270.6,-18.2,0,39,3.742,3.733,0,0,0,0,5.193,85.82,49.578728948724,8.2021,6,P-GPS,
12000,2022-08-28 20:59:17,-34.910546692255,-56.1389431345398,8.2021,8.2021,41.376628948724,49.578728948724,6.56168,0,0.284283473664,3.6475066784,21,5,7.465,49.578728948724,8.2021,0.3131716,0.68931432652,0,0,0,261, -0.6, -1,0,0,1024,1024,1024,1024,0,0,0,0,270.6,-18.2,0,39,3.742,3.733,0,0,0,0,5.193,85.82,49.578728948724,8.2021,6,P-GPS,
12100,2022-08-28 20:59:18,-34.9105467250551,-56.1389430860365,8.2021,8.2021,41.376628948724,49.578728948724,6.56168,0,0.267401255276,3.6663058916,21,5,7.465,49.578728948724,8.2021,0.3131716,0.68931432652,0,0,0,261, -0.6, -1,0,0,1024,1024,1024,1024,0,0,0,0,270.6,-18.2,0,39,3.742,3.733,0,0,0,0,5.193,85.82,49.578728948724,8.2021,6,P-GPS,
12200,2022-08-28 20:59:18,-34.910546712258,-56.1389430287683,8.2021,8.2021,41.376628948724,49.578728948724,6.56168,0,0.265449155476,3.684055236,21,5,7.465,49.578728948724,8.2021,0.3131716,0.68931432652,0,0,0,260.9, -0.8, -1.2,0,0,1024,1024,1024,1024,0,0,0,0,270.6,-18.2,0,39,3.742,3.733,0,0,0,0,5.193,85.82,49.578728948724,8.2021,6,P-GPS,
12300,2022-08-28 20:59:18,-34.9105466899699,-56.1389429704116,8.2021,8.2021,41.376628948724,49.578728948724,6.56168,0,0.267922908836,3.7033137668,21,5,7.45,49.578728948724,8.2021,0.3131716,0.68931432652,0,0,0,261, -0.9, -1.2,0,0,1024,1024,1024,1024,0,0,0,0,270.6,-18.2,0,39,3.728,3.721,0,0,0,0,4.032,85.82,49.578728948724,8.2021,6,P-GPS,
12400,2022-08-28 20:59:18,-34.9105466893132,-56.1389429517873,8.2021,8.2021,41.376628948724,49.578728948724,6.56168,0,0.266715559716,3.7088911948,21,5,7.45,49.578728948724,8.2021,0.3131716,0.68931432652,0,0,0,261, -1, -1.1,0,0,1024,1024,1024,1024,0,0,0,0,270.6,-18.2,0,39,3.728,3.721,0,0,0,0,4.032,85.82,49.578728948724,8.2021,6,P-GPS,
12500,2022-08-28 20:59:18,-34.9105466500557,-56.1389430729667,8.2021,8.2021,41.376628948724,49.578728948724,6.56168,0,0.29130906444,3.747867574,21,5,7.45,49.578728948724,8.2021,0.3131716,0.68931432652,0,0,0,261, -1, -0.9,0,0,1024,1024,903,1024,0,0,-18,0,270.6,-18.2,0,39,3.728,3.721,0,0,0,0,4.032,85.82,49.578728948724,8.2021,6,P-GPS,
12600,2022-08-28 20:59:18,-34.9105466645192,-56.1389430663891,8.2021,8.2021,41.376628948724,49.578728948724,6.56168,0,0.285676846412,3.7535106188,21,5,7.45,49.578728948724,8.2021,0.3131716,0.68931432652,0,0,0,260.9, -0.5, -1.1,0,0,1024,1024,364,1024,0,0,-100,0,270.6,-18.2,0,39,3.728,3.721,0,0,0,0,4.032,85.82,49.578728948724,8.2021,6,P-GPS,
12700,2022-08-28 20:59:18,-34.9105466805221,-56.1389430441488,8.2021,8.2021,41.376628948724,49.578728948724,6.56168,0,0.277901583696,3.7623688868,21,5,7.45,49.578728948724,8.2021,0.3131716,0.68931432652,0,0,0.223694,261, -0.9, -1.2,0,0,1024,1024,567,1024,0,0,-69,0,270.6,-18.2,0,39,3.728,3.721,0,0,0,0,4.032,85.82,49.578728948724,8.2021,6,P-GPS,
12800,2022-08-28 20:59:18,-34.9105466918145,-56.138943012614,8.2021,8.2021,41.376628948724,49.578728948724,6.233596,0,0.270940297384,3.7726707244,21,5,7.45,49.578728948724,8.2021,0.3131716,0.68931432652,0,0,0.671082,261, -0.6, -0.6,0,0,1024,1024,1024,1024,0,0,0,0,270.6,-18.2,0,39,3.728,3.721,0,0,0,0,4.032,85.82,49.578728948724,8.2021,6,P-GPS,
12900,2022-08-28 20:59:18,-34.9105466902313,-56.1389429722731,7.874016,7.874016,41.376628948724,49.250644948724,6.233596,0,0.267980979704,3.7847442156,21,5,7.45,49.578728948724,8.2021,0.3131716,0.68931432652,0,0,1.11847,260.9, -0.6, -0.5,0,0,1024,1024,1024,1024,0,0,0,0,270.6,-18.2,0,39,3.728,3.721,0,0,0,0,4.032,85.82,49.250644948724,7.874016,6,P-GPS,
13000,2022-08-28 20:59:19,-34.9105466795128,-56.1389429513283,7.874016,7.874016,41.376628948724,49.250644948724,6.233596,0,0.270146990272,3.7921261056,21,5,7.45,49.578728948724,8.2021,0.3131716,0.68931432652,0,0,0.671082,260.8, -0.9, -1.1,0,0,1024,1024,1024,1024,0,0,0,0,270.6,-18.2,0,39,3.728,3.721,0,0,0,0,4.032,85.82,49.250644948724,7.874016,6,P-GPS,
13100,2022-08-28 20:59:19,-34.9105466371812,-56.1389429408298,7.545932,7.545932,41.376628948724,48.922560948724,5.905512,0,0.284435376556,3.807906946,21,5,7.45,49.578728948724,8.2021,0.3131716,0.68931432652,0,0,0.447388,260.8, -1.4, -1.7,0,0,1024,1024,1024,1024,0,0,0,0,270.6,-18.2,0,39,3.728,3.721,0,0,0,0,4.032,85.82,48.922560948724,7.545932,6,P-GPS,
13200,2022-08-28 20:59:19,-34.9105465614273,-56.1389429041022,7.545932,7.545932,41.376628948724,48.922560948724,5.905512,0,0.30941437998,3.8376313564,21,5,7.446,49.578728948724,8.2021,0.3131716,0.68931432652,0,0,0.223694,260.7, -1.9, -2.2,0,0,1024,1024,995,1024,0,0,-4,0,270.6,-18.2,0,39,3.726,3.718,0,0,0,0,4.395,85.82,48.922560948724,7.545932,6,P-GPS,
13300,2022-08-28 20:59:19,-34.9105464666707,-56.1389428505211,7.545932,7.4146984,41.507862548724,48.922560948724,5.905512,0,0.3414862314,3.8757547172,21,5,7.446,49.578728948724,8.2021,0.3131716,0.68931432652,0,0,0,260.8, -2.1, -2.7,0,0,1024,1024,995,1024,0,0,-4,0,270.6,-18.2,0,39,3.726,3.718,0,0,0,0,4.395,85.82,48.922560948724,7.545932,6,P-GPS,
13400,2022-08-28 20:59:19,-34.9105462072405,-56.1389429779857,7.545932,7.4146984,41.507862548724,48.922560948724,5.905512,0,0.44051510596,3.9777888412,21,5,7.446,49.578728948724,8.2021,0.3131716,0.68931432652,0,0,0,261.1, -2.5, -2.4,0,0,1024,1024,491,1024,0,0,-81,0,270.6,-18.2,0,39,3.726,3.718,0,0,0,0,4.395,85.82,48.922560948724,7.545932,6,P-GPS,
13500,2022-08-28 20:59:19,-34.9105461324654,-56.1389430256897,7.545932,7.4146984,41.507862548724,48.922560948724,5.905512,0,0.46990487068,4.0085631204,21,5,7.446,49.578728948724,8.2021,0.3131716,0.68931432652,0,0,0.223694,261, -2.3, -2.8,0,0,1024,1024,364,1024,0,0,-100,0,270.6,-18.2,0,39,3.726,3.718,0,0,0,0,4.395,85.82,48.922560948724,7.545932,6,P-GPS,
13600,2022-08-28 20:59:19,-34.9105460875816,-56.1389429743906,7.545932,7.4146984,41.507862548724,48.922560948724,5.905512,0,0.48344489736,4.0310368744,21,5,7.446,49.578728948724,8.2021,0.3131716,0.68931432652,0,0,0.671082,260.9, -2.1, -2.7,0,0,1024,1024,540,1024,0,0,-73,0,270.6,-18.2,0,39,3.726,3.718,0,0,0,0,4.395,85.82,48.922560948724,7.545932,6,P-GPS,
13700,2022-08-28 20:59:19,-34.9105460631234,-56.1389428714653,7.217848,7.0866144,41.507862548724,48.594476948724,5.577428,0,0.48865159044,4.0630906812,21,5,7.446,49.578728948724,8.2021,0.3131716,0.68931432652,0,0,0.894776,260.8, -1.4, -2.6,0,0,1024,1024,828,1024,0,0,-30,0,270.6,-18.2,0,39,3.726,3.718,0,0,0,0,4.395,85.82,48.594476948724,7.217848,6,P-GPS,
13800,2022-08-28 20:59:19,-34.9105461073045,-56.1389426903151,7.217848,7.0866144,41.507862548724,48.594476948724,5.577428,0,0.47085631428,4.1196195544,21,5,7.446,49.578728948724,8.2021,0.3131716,0.68931432652,0,0,1.11847,260.7, -1.1, -2.2,0,0,1024,1024,1024,1024,0,0,0,0,270.6,-18.2,0,39,3.726,3.718,0,0,0,0,4.395,85.82,48.594476948724,7.217848,6,P-GPS,
13900,2022-08-28 20:59:19,-34.9105461250232,-56.1389426853593,7.217848,7.0866144,41.507862548724,48.594476948724,5.249344,0,0.4644357104,4.1262468512,21,5,7.446,49.578728948724,8.2021,0.3131716,0.68931432652,0,0,1.11847,260.8, -0.6, -1.5,0,0,1024,1024,1024,1024,0,0,0,0,270.6,-18.2,0,39,3.726,3.718,0,0,0,0,4.395,85.82,48.594476948724,7.217848,6,P-GPS,
14000,2022-08-28 20:59:20,-34.9105461291888,-56.138942657291,6.889764,6.7585304,41.507862548724,48.266392948724,5.249344,0,0.4632382038,4.1348098436,21,5,7.446,49.578728948724,8.2021,0.3131716,0.68931432652,0,0,0.894776,260.9, -1.6, -1.9,0,0,1024,1024,1024,1024,0,0,0,0,270.6,-18.2,0,39,3.726,3.718,0,0,0,0,4.395,85.82,48.266392948724,6.889764,6,P-GPS,
14100,2022-08-28 20:59:20,-34.9105461284299,-56.1389426122725,6.889764,6.7585304,41.507862548724,48.266392948724,4.92126,0,0.46434384688,4.1482612876,21,5,7.446,49.578728948724,8.2021,0.3131716,0.68931432652,0,0,0.447388,261, -2.5, -2.2,0,0,1024,1024,1024,1024,0,0,0,0,270.6,-18.2,0,39,3.726,3.718,0,0,0,0,4.395,85.82,48.266392948724,6.889764,6,P-GPS,
14200,2022-08-28 20:59:20,-34.9105460657517,-56.1389427185128,6.889764,6.7585304,41.507862548724,48.266392948724,4.92126,0,0.48587928064,4.1874345172,21,5,7.434,49.578728948724,8.2021,0.3131716,0.68931432652,0,0,0.223694,261.1, -2.7, -2,0,0,1024,1024,1024,1024,0,0,0,0,270.6,-18.2,0,39,3.738,3.724,0,0,0,0,4.342,85.82,48.266392948724,6.889764,6,P-GPS,
14300,2022-08-28 20:59:20,-34.9105460540291,-56.1389427682611,6.889764,6.7585304,41.507862548724,48.266392948724,4.92126,0,0.4902723254,4.202920082,21,5,7.434,49.578728948724,8.2021,0.3131716,0.68931432652,0,0,0,261.1, -2.8, -1.9,0,0,1024,1024,1024,1024,0,0,0,0,270.6,-18.2,0,39,3.738,3.724,0,0,0,0,4.342,85.82,48.266392948724,6.889764,6,P-GPS,
14400,2022-08-28 20:59:20,-34.9105460622086,-56.1389428128461,6.889764,6.7585304,41.507862548724,48.266392948724,4.92126,0,0.48778216784,4.2165683764,21,5,7.434,49.578728948724,8.2021,0.3131716,0.68931432652,0,0,0,261.1, -2.6, -2,0,0,1024,1024,1024,1024,0,0,0,0,270.6,-18.2,0,39,3.738,3.724,0,0,0,0,4.342,85.82,48.266392948724,6.889764,6,P-GPS,
14500,2022-08-28 20:59:20,-34.910546085647,-56.138942858071,6.889764,6.7585304,41.507862548724,48.266392948724,4.92126,0,0.48012796812,4.2325788756,21,5,7.434,49.578728948724,8.2021,0.3131716,0.68931432652,0,0,0,261.1, -3, -1.8,0,0,871,1024,1024,1024,-23,0,0,0,270.6,-18.2,0,39,3.738,3.724,0,0,0,0,4.342,85.82,48.266392948724,6.889764,6,P-GPS,
14600,2022-08-28 20:59:20,-34.910546114618,-56.1389428536806,6.889764,6.7585304,41.507862548724,48.266392948724,4.92126,0,0.469488204,4.2432416056,21,5,7.434,49.578728948724,8.2021,0.3131716,0.68931432652,0,0,0,261.3, -2.6, -1.8,0,0,592,1024,1024,1024,-65,0,0,0,270.6,-18.2,0,39,3.738,3.724,0,0,0,0,4.342,85.82,48.266392948724,6.889764,6,P-GPS,
14700,2022-08-28 20:59:20,-34.9105461587094,-56.138942710784,6.889764,6.7585304,41.507862548724,48.266392948724,4.92126,0,0.45198820344,4.2889108984,21,5,7.434,49.578728948724,8.2021,0.3131716,0.68931432652,0,0,0,261, 2.4, -2,0,0,364,1024,1024,1024,-100,0,0,0,270.6,-18.2,0,39,3.738,3.724,0,0,0,0,4.342,85.82,48.266392948724,6.889764,6,P-GPS,
14800,2022-08-28 20:59:20,-34.9105461630032,-56.1389426447396,6.889764,6.7585304,41.507862548724,48.266392948724,4.92126,0.223694,0.45111221916,4.308727172,21,5,7.434,49.578728948724,8.2021,0.3131716,0.68931432652,0,0.223694,0,260.7, 9.3, -1.8,0,0,364,1024,1024,1024,-100,0,0,0,270.6,-18.2,0,39,3.738,3.724,0,0,0,0,4.342,85.82,48.266392948724,6.889764,6,P-GPS,
14900,2022-08-28 20:59:20,-34.9105461338314,-56.1389424099359,6.889764,6.6929136,41.573479348724,48.266392948724,4.92126,0.671082,0.47089240352,4.3797901664,20,5,7.434,49.578728948724,8.2021,0.671082,0.68931432652,0,0.671082,0,260.7, 17.4, -1.5,0,0,364,1024,1024,1024,-100,0,0,0,270.6,-18.2,0,39,3.738,3.724,0,0,0,0,4.342,85.82,48.266392948724,6.889764,6,P-GPS,
15000,2022-08-28 20:59:20,-34.9105460469283,-56.1389418709234,6.889764,6.6929136,41.573479348724,48.266392948724,4.92126,1.3645334,0.55579726188,4.5441602504,20,5,7.434,49.578728948724,8.2021,1.3645334,0.68931432652,0.223694,1.342164,0,260.8, 19.4, -1.8,0,0,364,1024,1024,1024,-100,0,0,0,270.6,-18.2,0,39,3.738,3.724,0,0,0,0,4.342,85.82,48.266392948724,6.889764,6,P-GPS,
15100,2022-08-28 20:59:21,-34.9105458494504,-56.1389409148869,6.889764,6.6601052,41.606287748724,48.266392948724,5.249344,2.2816788,0.78360238728,4.8391405748,20,5,7.434,49.578728948724,8.2021,2.2816788,0.78360238728,0.447388,2.23694,0,260.9, 19.1, -1.9,0,0,1024,1024,1024,1024,0,0,0,0,270.6,-18.2,0,39,3.738,3.724,0,0,0,0,4.342,85.82,48.266392948724,6.889764,6,P-GPS,
15200,2022-08-28 20:59:21,-34.9105456581436,-56.1389396243168,6.889764,6.5944884,41.671904548724,48.266392948724,5.249344,3.1540854,1.1253117158,5.2315290388,20,5,7.429,49.578728948724,8.2021,3.1540854,1.1253117158,0.447388,3.131716,0,260.9, 18.3, -2.1,0,0,1024,1024,1024,1024,0,0,0,0,270.6,-18.2,0,39,3.721,3.713,0,0,0,0,4.341,85.82,48.266392948724,6.889764,6,P-GPS,
15300,2022-08-28 20:59:21,-34.9105454236013,-56.1389379123865,6.889764,6.397638,41.868754948724,48.266392948724,4.92126,3.8251674,1.61139440852,5.750820394,19,5,7.429,49.578728948724,8.2021,3.8251674,1.61139440852,0.447388,3.802798,0,261.4, 5.8, -2.3,0,0,1024,1024,1024,1024,0,0,0,0,270.6,-18.2,0,39,3.721,3.713,0,0,0,0,4.341,85.82,48.266392948724,6.889764,6,P-GPS,
15400,2022-08-28 20:59:21,-34.9105451960873,-56.1389360997555,6.889764,6.2992128,41.967180148724,48.266392948724,4.92126,3.8251674,2.14025925484,6.2994424588,19,5,7.429,49.578728948724,8.2021,3.8251674,2.14025925484,0.447388,3.802798,0,261.9, -15.4, -2.1,0,0,1024,1024,1024,1024,0,0,0,0,270.6,-18.2,0,39,3.721,3.713,0,0,0,0,4.341,85.82,48.266392948724,6.889764,6,P-GPS,
15500,2022-08-28 20:59:21,-34.9105449282504,-56.1389340961971,6.889764,6.2007876,42.065605348724,48.266392948724,4.92126,3.131716,2.73587279096,6.906824368,19,5,7.429,49.578728948724,8.2021,3.8251674,2.73587279096,0.223694,3.131716,0,261.6, -17.5, -1.5,0,0,1024,1024,1024,1024,0,0,0,0,270.6,-18.2,0,39,3.721,3.713,0,0,0,0,4.341,85.82,48.266392948724,6.889764,6,P-GPS,
15600,2022-08-28 20:59:21,-34.9105447746437,-56.138932671855,6.889764,6.1679792,42.098413748724,48.266392948724,4.92126,2.460634,3.15792661024,7.3366472164,19,5,7.429,49.578728948724,8.2021,3.8251674,3.15792661024,0.223694,2.460634,0,261.2, -15.1, -1.3,0,0,1024,1024,1024,1024,0,0,0,0,270.6,-18.2,0,39,3.721,3.713,0,0,0,0,4.341,85.82,48.266392948724,6.889764,6,P-GPS,
15700,2022-08-28 20:59:21,-34.9105446568173,-56.1389314411564,6.889764,6.069554,42.196838948724,48.266392948724,4.92126,1.789552,3.5225722912,7.707349328,20,5,7.429,49.578728948724,8.2021,3.8251674,3.5225722912,0,1.789552,0,261, -12.6, -1,0,0,1024,1024,1024,1024,0,0,0,0,270.6,-18.2,0,39,3.721,3.713,0,0,0,0,4.341,85.82,48.266392948724,6.889764,6,P-GPS,
15800,2022-08-28 20:59:21,-34.9105446691999,-56.1389304649336,6.889764,6.0039372,42.262455748724,48.266392948724,4.92126,1.342164,3.8023623264,7.9994753216,20,5,7.429,49.578728948724,8.2021,3.8251674,3.8023623264,0,1.342164,0,261.1, -10, -0.6,0,0,776,1024,1024,1024,-38,0,0,0,270.6,-18.2,0,39,3.721,3.713,0,0,0,0,4.341,85.82,48.266392948724,6.889764,6,P-GPS,
15900,2022-08-28 20:59:21,-34.9105448888335,-56.138929136489,6.56168,5.6430448,42.295264148724,47.938308948724,4.92126,0.894776,4.1689305796,8.4049215288,20,5,7.429,49.578728948724,8.2021,3.8251674,4.1689305796,0,0.894776,0,261.1, -7.4, -0.1,0,0,364,1024,1024,1024,-100,0,0,0,270.6,-18.2,0,39,3.721,3.713,0,0,0,0,4.341,85.82,47.938308948724,6.56168,6,P-GPS,
16000,2022-08-28 20:59:21,-34.9105449641433,-56.1389287794204,6.56168,5.6430448,42.295264148724,47.938308948724,4.92126,0.447388,4.2674213964,8.515256178,20,5,7.429,49.578728948724,8.2021,3.8251674,4.2674213964,0,0.447388,0,261.1, 0, 0.3,0,0,364,1024,1024,1024,-100,0,0,0,270.6,-18.2,0,39,3.721,3.713,0,0,0,0,4.341,85.82,47.938308948724,6.56168,6,P-GPS,
16100,2022-08-28 20:59:22,-34.9105450137459,-56.1389285681425,6.56168,5.6430448,42.295264148724,47.938308948724,4.92126,0.671082,4.3255906896,8.5810042116,20,5,7.429,49.578728948724,8.2021,3.8251674,4.3255906896,0,0.671082,0,261, 12.2, -0.5,0,0,364,1024,1024,1024,-100,0,0,0,270.6,-18.2,0,39,3.721,3.713,0,0,0,0,4.341,85.82,47.938308948724,6.56168,6,P-GPS,
16200,2022-08-28 20:59:22,-34.9105450157021,-56.1389282590299,6.56168,5.577428,42.360880948724,47.938308948724,4.92126,1.1408394,4.4160762568,8.6734910912,20,5,7.416,49.578728948724,8.2021,3.8251674,4.4160762568,0.223694,1.11847,0,260.8, 18.4, -1,0,0,364,1024,1024,1024,-100,0,0,0,270.6,-18.2,0,39,3.715,3.703,0,0,0,0,4.731,85.82,47.938308948724,6.56168,6,P-GPS,
16300,2022-08-28 20:59:22,-34.9105449659864,-56.1389276298439,6.56168,5.577428,42.360880948724,47.938308948724,4.92126,2.0356154,4.6042652392,8.8625987088,20,5,7.416,49.578728948724,8.2021,3.8251674,4.6042652392,0.223694,2.013246,0,260.7, 19.4, -1.3,0,0,364,1024,1024,1024,-100,0,0,0,270.6,-18.2,0,39,3.715,3.703,0,0,0,0,4.731,85.82,47.938308948724,6.56168,6,P-GPS,
16400,2022-08-28 20:59:22,-34.9105449642744,-56.1389275906013,6.56168,5.577428,42.360880948724,47.938308948724,4.92126,2.7290668,4.6159122212,8.8743769244,20,5,7.416,49.578728948724,8.2021,3.8251674,4.6159122212,0.447388,2.684328,0,260.7, 19.2, -1.1,0,0,364,1024,1024,1024,-100,0,0,0,270.6,-18.2,0,39,3.715,3.703,0,0,0,0,4.731,85.82,47.938308948724,6.56168,6,P-GPS,
16500,2022-08-28 20:59:22,-34.9105447894671,-56.1389262150354,6.56168,5.5118112,42.426497748724,47.938308948724,4.92126,3.6014734,5.0320539668,9.290846754,20,5,7.416,49.578728948724,8.2021,3.8251674,5.0320539668,0.447388,3.579104,0,260.7, 18.9, -1.4,0,0,364,1024,1024,1024,-100,0,0,0,270.6,-18.2,0,39,3.715,3.703,0,0,0,0,4.731,85.82,47.938308948724,6.56168,6,P-GPS,
16600,2022-08-28 20:59:22,-34.910544483915,-56.1389244265734,6.56168,5.2821524,42.656156548724,47.938308948724,4.92126,4.5186188,5.5786091024,9.837434698,20,5,7.416,49.578728948724,8.2021,4.5186188,5.5786091024,0.671082,4.47388,0,260.8, 18.9, -1.4,0,0,364,1024,1024,1024,-100,0,0,0,270.6,-18.2,0,39,3.715,3.703,0,0,0,0,4.731,85.82,47.938308948724,6.56168,6,P-GPS,
16700,2022-08-28 20:59:22,-34.9105440671304,-56.138922110644,6.56168,5.1837272,42.754581748724,47.938308948724,4.92126,5.1897008,6.2878282852,10.5468179228,20,5,7.416,49.578728948724,8.2021,5.1897008,6.2878282852,0.671082,5.144962,0,260.9, 17.9, -1.7,0,0,364,1024,1024,1024,-100,0,0,0,270.6,-18.2,0,39,3.715,3.703,0,0,0,0,4.731,85.82,47.938308948724,6.56168,6,P-GPS,
16800,2022-08-28 20:59:22,-34.9105432005316,-56.1389187080273,6.56168,4.92126,43.017048948724,47.938308948724,4.92126,5.8831522,7.3486550908,11.6128284556,20,5,7.416,49.578728948724,8.2021,5.8831522,7.3486550908,0.894776,5.816044,0,261, 17.8, -1.3,0,0,364,1024,1024,1024,-100,0,0,0,270.6,-18.2,0,39,3.715,3.703,0,0,0,0,4.731,85.82,47.938308948724,6.56168,6,P-GPS,
16900,2022-08-28 20:59:22,-34.9105427521686,-56.1389154232562,6.56168,4.7244096,43.213899348724,47.938308948724,4.92126,6.5542342,8.3440619468,12.6091211384,20,5,7.416,49.578728948724,8.2021,6.5542342,8.3440619468,0.894776,6.487126,0,260.8, 17.1, -1.8,0,0,489,1024,1024,1024,-81,0,0,0,270.6,-18.2,0,39,3.715,3.703,0,0,0,0,4.731,85.82,47.938308948724,6.56168,6,P-GPS,
17000,2022-08-28 20:59:23,-34.9105423130012,-56.1389119740199,6.56168,4.4619424,43.476366548724,47.938308948724,4.92126,7.2029468,9.3872378332,13.6534781272,20,5,7.416,49.578728948724,8.2021,7.2029468,9.3872378332,0.894776,7.158208,0,260.8, 16.5, -0.9,0,0,1024,1024,1024,1024,0,0,0,0,270.6,-18.2,0,39,3.715,3.703,0,0,0,0,4.731,85.82,47.938308948724,6.56168,6,P-GPS,
17100,2022-08-28 20:59:23,-34.9105418330987,-56.1389080751495,6.56168,4.265092,43.673216948724,47.938308948724,4.593176,7.6950736,10.5655187108,14.8330713408,20,5,7.416,49.578728948724,8.2021,7.6950736,10.5655187108,1.11847,7.605596,0,260.9, 12.1, -0.5,0,0,1024,1024,1024,1024,0,0,0,0,270.6,-18.2,0,39,3.715,3.703,0,0,0,0,4.731,85.82,47.938308948724,6.56168,6,P-GPS,
17200,2022-08-28 20:59:23,-34.9105413457723,-56.1389036015504,6.56168,3.9698164,43.968492548724,47.938308948724,4.593176,7.4713796,11.9134846332,16.1833010428,20,5,7.41,49.578728948724,8.2021,7.6950736,11.9134846332,1.11847,7.381902,0,261, -13.2, -0.5,0,0,1024,1024,1024,1024,0,0,0,0,270.6,-18.2,0,39,3.709,3.7,0,0,0,0,4.767,85.82,47.938308948724,6.56168,6,P-GPS,
17300,2022-08-28 20:59:23,-34.9105409158273,-56.1388998930939,6.56168,3.772966,44.165342948724,47.938308948724,4.593176,6.7779282,13.032972858,17.3038719448,21,5,7.41,49.578728948724,8.2021,7.6950736,13.032972858,0.894776,6.71082,0,261.3, -20.3, 0.1,0,0,1024,1024,1024,1024,0,0,0,0,270.6,-18.2,0,39,3.709,3.7,0,0,0,0,4.767,85.82,47.938308948724,6.56168,6,P-GPS,
17400,2022-08-28 20:59:23,-34.9105406214815,-56.1388966920773,6.56168,3.6417324,44.296576548724,47.938308948724,4.265092,5.8831522,13.9944558284,18.2676186948,21,5,7.41,49.578728948724,8.2021,7.6950736,13.9944558284,0.894776,5.816044,0,261.3, -20.8, 0.1,0,0,1024,1024,1024,1024,0,0,0,0,270.6,-18.2,0,39,3.709,3.7,0,0,0,0,4.767,85.82,47.938308948724,6.56168,6,P-GPS,
17500,2022-08-28 20:59:23,-34.9105403887924,-56.1388937603125,6.889764,3.7073492,44.559043748724,48.266392948724,4.265092,4.9660068,14.8729991636,19.1488851272,21,5,7.41,49.578728948724,8.2021,7.6950736,14.8729991636,0.671082,4.921268,0,261.2, -20.2, -0.5,0,0,1024,1024,1024,1024,0,0,0,0,270.6,-18.2,0,39,3.709,3.7,0,0,0,0,4.767,85.82,48.266392948724,6.889764,6,P-GPS,
