time(millisecond),datetime(utc),latitude,longitude,height_above_takeoff(feet),height_above_ground_at_drone_location(feet),ground_elevation_at_drone_location(feet),altitude_above_seaLevel(feet),height_sonar(feet),speed(mph),distance(feet),mileage(feet),satellites,gpslevel,voltage(v),max_altitude(feet),max_ascent(feet),max_speed(mph),max_distance(feet), xSpeed(mph), ySpeed(mph), zSpeed(mph), compass_heading(degrees), pitch(degrees), roll(degrees),isPhoto,isVideo,rc_elevator,rc_aileron,rc_throttle,rc_rudder,rc_elevator(percent),rc_aileron(percent),rc_throttle(percent),rc_rudder(percent),gimbal_heading(degrees),gimbal_pitch(degrees),gimbal_roll(degrees),battery_percent,voltageCell1,voltageCell2,voltageCell3,voltageCell4,voltageCell5,voltageCell6,current(A),battery_temperature(f),altitude(feet),ascent(feet),flycStateRaw,flycState,message
0,2022-08-16 04:19:19,0,0,0,,,3.28084E-5,0.328084,0,0,0,0,0,0,3.28084E-5,0,0,0,0,0,0,46.9, 3.2, 0.2,0,0,364,364,364,1684,-100,-100,-100,100,46.9,0,0,94,4.284,4.279,0,0,0,0,0,89.6,3.28084E-5,0,41,Motors_Started,"Vuela con cuidado (sin GPS) Sin señal GPS. La aeronave no puede hacer vuelo estacionario. Vuela con cuidado (Code: 30008). Señal débil del GPS. Vuelo estacionario inestable. Vuela con cuidado (Code: 30002)"
100,2022-08-16 04:19:19,0,0,0,,,3.28084E-5,0.328084,0,0,0,0,0,0,3.28084E-5,0,0,0,0,0,0,46.9, 3.2, 0.2,0,0,364,364,364,1684,-100,-100,-100,100,46.9,0,0,94,4.284,4.279,0,0,0,0,0,89.6,3.28084E-5,0,41,Motors_Started,
200,2022-08-16 04:19:19,0,0,0,,,3.28084E-5,0.328084,0,0,0,0,0,0,3.28084E-5,0,0,0,0,0,0,47, 3.2, 0.1,0,0,364,364,364,1684,-100,-100,-100,100,46.9,0,0,94,4.284,4.279,0,0,0,0,0,89.6,3.28084E-5,0,41,Motors_Started,
300,2022-08-16 04:19:19,0,0,0,,,3.28084E-5,0.328084,0,0,0,0,0,0,3.28084E-5,0,0,0,0,0,0,47, 3.2, 0.1,0,0,364,364,364,1684,-100,-100,-100,100,46.9,0,0,94,4.284,4.279,0,0,0,0,0,89.6,3.28084E-5,0,41,Motors_Started,
400,2022-08-16 04:19:19,0,0,0,,,3.28084E-5,0.328084,0,0,0,0,0,0,3.28084E-5,0,0,0,0,0,0,46.9, 3.2, 0.1,0,0,1024,1024,1024,1024,0,0,0,0,46.9,0,0,94,4.284,4.279,0,0,0,0,0,89.6,3.28084E-5,0,41,Motors_Started,
500,2022-08-16 04:19:19,0,0,0,,,3.28084E-5,0.328084,0,0,0,0,0,0,3.28084E-5,0,0,0,0,0,0,46.9, 3.2, 0.1,0,0,1024,1024,1024,1024,0,0,0,0,46.9,0,0,94,4.284,4.279,0,0,0,0,0,89.6,3.28084E-5,0,41,Motors_Started,
600,2022-08-16 04:19:20,0,0,0,,,3.28084E-5,0.328084,0,0,0,0,0,0,3.28084E-5,0,0,0,0,0,0,47, 3.2, 0.2,0,0,1024,1024,1024,1024,0,0,0,0,46.9,0,0,94,4.284,4.279,0,0,0,0,0,89.6,3.28084E-5,0,41,Motors_Started,
700,2022-08-16 04:19:20,0,0,0,,,3.28084E-5,0.328084,0,0,0,0,0,0,3.28084E-5,0,0,0,0,0,0,47, 3.2, 0.1,0,0,1024,1024,1024,1024,0,0,0,0,46.9,0,0,94,4.284,4.279,0,0,0,0,0,89.6,3.28084E-5,0,41,Motors_Started,
800,2022-08-16 04:19:20,0,0,0,,,3.28084E-5,0.328084,0,0,0,0,0,0,3.28084E-5,0,0,0,0,0,0,46.9, 3.2, 0.2,0,0,1024,1024,1024,1024,0,0,0,0,47,0,0,94,4.284,4.279,0,0,0,0,0,89.6,3.28084E-5,0,41,Motors_Started,
900,2022-08-16 04:19:20,0,0,0,,,3.28084E-5,0.328084,0,0,0,0,0,0,3.28084E-5,0,0,0,0,0,0,47, 3.1, 0.2,0,0,1024,1024,1526,1024,0,0,76,0,47,0,0,94,4.284,4.279,0,0,0,0,0,89.6,3.28084E-5,0,41,Motors_Started,"Setting new Return-To-Home altitude to 15m (49 ft). Data Recorder File Index is 78. Setting new Maximum Flight Altitude to 30m (98 ft)"
1000,2022-08-16 04:19:20,0,0,0,,,3.28084E-5,0.328084,0,0,0,0,0,0,3.28084E-5,0,0,0,0,0,0,47.1, 3.2, 0.1,0,0,1024,1024,1684,1024,0,0,100,0,47,0,0,94,4.284,4.279,0,0,0,0,0,89.6,3.28084E-5,0,41,Motors_Started,
1100,2022-08-16 04:19:20,0,0,0,,,3.28084E-5,0.328084,0,0,0,0,0,0,3.28084E-5,0,0,0,0,0,0,47.1, 3.2, 0.1,0,0,1024,1024,1684,1024,0,0,100,0,47,0,0,94,4.284,4.279,0,0,0,0,0,89.6,3.28084E-5,0,10,Assisted_Takeoff,
1200,2022-08-16 04:19:20,0,0,0,,,3.28084E-5,0.328084,0,0,0,0,0,0,3.28084E-5,0,0,0,0,0,0,47.2, 3.2, 0.2,0,0,1024,1024,1684,1024,0,0,100,0,47.1,0,0,94,4.284,4.279,0,0,0,0,0,89.6,3.28084E-5,0,10,Assisted_Takeoff,
1300,2022-08-16 04:19:20,0,0,0,,,3.28084E-5,0.328084,0,0,0,0,0,8.565,3.28084E-5,0,0,0,0,0,0,47.3, 3.1, 0.2,0,0,1024,1024,1684,1024,0,0,100,0,47.1,0,0,94,4.284,4.279,0,0,0,0,1.146,89.6,3.28084E-5,0,10,Assisted_Takeoff,
1400,2022-08-16 04:19:20,0,0,0,,,3.28084E-5,0.328084,0,0,0,0,0,8.565,3.28084E-5,0,0,0,0,0,0,47.8, 3, 0.1,0,0,1024,1024,1684,1024,0,0,100,0,47.4,0,0,94,4.284,4.279,0,0,0,0,1.146,89.6,3.28084E-5,0,10,Assisted_Takeoff,
1500,2022-08-16 04:19:21,0,0,0,,,3.28084E-5,0.328084,0,0,0,0,0,8.565,3.28084E-5,0,0,0,0,0,0,48.6, 0, 0.4,0,0,1024,1024,1684,1024,0,0,100,0,47.9,0,0,94,4.284,4.279,0,0,0,0,1.146,89.6,3.28084E-5,0,10,Assisted_Takeoff,
1600,2022-08-16 04:19:21,0,0,0,,,3.28084E-5,0.328084,0,0,0,0,0,8.565,3.28084E-5,0,0,0,0,0,-0.223694,49.2, -1.1, 0.4,0,0,1024,1024,1508,1024,0,0,73,0,48.6,0,0,94,4.284,4.279,0,0,0,0,1.146,89.6,3.28084E-5,0,6,P-GPS,"Señal débil del GPS. Vuelo estacionario inestable. Vuela con cuidado (Code: 30002)"
1700,2022-08-16 04:19:21,0,0,0,,,3.28084E-5,0.328084,0,0,0,0,0,8.565,3.28084E-5,0,0,0,0,0,-0.671082,49, -0.7, 0,0,0,1024,1024,1024,1024,0,0,0,0,48.7,0,0,94,4.284,4.279,0,0,0,0,1.146,89.6,3.28084E-5,0,6,P-GPS,
1800,2022-08-16 04:19:21,0,0,0,,,3.28084E-5,0.656168,0,0,0,0,0,8.565,3.28084E-5,0,0,0,0,0,-0.894776,49, -0.2, -0.5,0,0,1024,1024,1024,1024,0,0,0,0,48.7,0,0,94,4.284,4.279,0,0,0,0,1.146,89.6,3.28084E-5,0,6,P-GPS,
1900,2022-08-16 04:19:21,0,0,0.328084,,,0.3281168084,0.656168,0,0,0,0,0,8.565,0.3281168084,0.328084,0,0,0,0,-0.894776,48.9, 0, -0.6,0,0,1024,1024,1024,1024,0,0,0,0,48.7,0,0,94,4.284,4.279,0,0,0,0,1.146,89.6,0.3281168084,0.328084,6,P-GPS,
2000,2022-08-16 04:19:21,0,0,0.328084,,,0.3281168084,0.656168,0,0,0,0,0,8.565,0.3281168084,0.328084,0,0,0,0,-0.894776,48.9, 0, -0.3,0,0,1024,1024,1024,1024,0,0,0,0,48.7,0,0,94,4.284,4.279,0,0,0,0,1.146,89.6,0.3281168084,0.328084,6,P-GPS,
2100,2022-08-16 04:19:21,0,0,0.328084,,,0.3281168084,0.984252,0,0,0,0,0,8.565,0.3281168084,0.328084,0,0,0,0,-0.894776,48.8, 0, 0,0,0,1024,1024,1024,1024,0,0,0,0,48.7,0,0,94,4.284,4.279,0,0,0,0,1.146,89.6,0.3281168084,0.328084,6,P-GPS,
2200,2022-08-16 04:19:21,0,0,0.656168,,,0.6562008084,0.984252,0,0,0,0,0,8.565,0.6562008084,0.656168,0,0,0,0,-0.894776,48.8, 0, 0,0,0,1024,1024,1024,1024,0,0,0,0,48.7,0,0,94,4.284,4.279,0,0,0,0,1.146,89.6,0.6562008084,0.656168,6,P-GPS,
2300,2022-08-16 04:19:21,0,0,0.656168,,,0.6562008084,1.312336,0,0,0,0,0,8.497,0.6562008084,0.656168,0,0,0,0,-0.894776,48.8, 0.1, 0,0,0,1024,1024,1024,1024,0,0,0,0,48.7,0,0,94,4.241,4.227,0,0,0,0,2.574,89.6,0.6562008084,0.656168,6,P-GPS,
2400,2022-08-16 04:19:21,0,0,0.656168,,,0.6562008084,1.312336,0,0,0,0,0,8.497,0.6562008084,0.656168,0,0,0,0,-0.671082,48.7, 0.1, 0,0,0,1024,1024,1024,1024,0,0,0,0,48.7,0,0,94,4.241,4.227,0,0,0,0,2.574,89.6,0.6562008084,0.656168,6,P-GPS,
2500,2022-08-16 04:19:22,0,0,0.984252,,,0.9842848084,1.312336,0,0,0,0,0,8.497,0.9842848084,0.984252,0,0,0,0,-0.671082,48.7, 0.2, 0,0,0,1024,1024,1024,1024,0,0,0,0,48.7,0,0,94,4.241,4.227,0,0,0,0,2.574,89.6,0.9842848084,0.984252,6,P-GPS,
2600,2022-08-16 04:19:22,0,0,0.984252,,,0.9842848084,1.312336,0,0,0,0,0,8.497,0.9842848084,0.984252,0,0,0,0,-0.447388,48.7, 0.2, 0,0,0,1024,1024,1024,1024,0,0,0,0,48.7,0,0,94,4.241,4.227,0,0,0,0,2.574,89.6,0.9842848084,0.984252,6,P-GPS,
2700,2022-08-16 04:19:22,0,0,0.984252,,,0.9842848084,1.64042,0,0,0,0,0,8.497,0.9842848084,0.984252,0,0,0,0,-0.223694,48.7, 0.3, 0,0,0,1024,1024,1024,1024,0,0,0,0,48.7,0,0,94,4.241,4.227,0,0,0,0,2.574,89.6,0.9842848084,0.984252,6,P-GPS,
2800,2022-08-16 04:19:22,0,0,1.312336,,,1.3123688084,1.64042,0,0,0,0,0,8.497,1.3123688084,1.312336,0,0,0,0,-0.223694,48.7, 0.3, 0,0,0,1024,1024,1024,1024,0,0,0,0,48.7,0,0,94,4.241,4.227,0,0,0,0,2.574,89.6,1.3123688084,1.312336,6,P-GPS,
2900,2022-08-16 04:19:22,0,0,1.312336,,,1.3123688084,1.64042,0,0,0,0,0,8.497,1.3123688084,1.312336,0,0,0,0,0,48.7, 0.3, 0,0,0,1024,1024,1024,1024,0,0,0,0,48.7,0,0,94,4.241,4.227,0,0,0,0,2.574,89.6,1.3123688084,1.312336,6,P-GPS,
3000,2022-08-16 04:19:22,0,0,1.312336,,,1.3123688084,1.64042,0,0,0,0,0,8.497,1.3123688084,1.312336,0,0,0,0,0,48.7, 0.3, 0,0,0,1024,1024,1024,1024,0,0,0,0,48.7,0,0,94,4.241,4.227,0,0,0,0,2.574,89.6,1.3123688084,1.312336,6,P-GPS,
3100,2022-08-16 04:19:22,0,0,1.312336,,,1.3123688084,1.64042,0,0,0,0,0,8.497,1.3123688084,1.312336,0,0,0,0,0,48.7, 0.3, -0.1,0,0,1024,1024,1024,1024,0,0,0,0,48.7,0,0,94,4.241,4.227,0,0,0,0,2.574,89.6,1.3123688084,1.312336,6,P-GPS,
3200,2022-08-16 04:19:22,0,0,1.312336,,,1.3123688084,1.64042,0,0,0,0,0,8.497,1.3123688084,1.312336,0,0,0,0,0,48.7, 0.4, 0,0,0,1024,1024,1024,1024,0,0,0,0,48.7,0,0,94,4.241,4.227,0,0,0,0,2.574,89.6,1.3123688084,1.312336,6,P-GPS,
3300,2022-08-16 04:19:22,0,0,1.312336,,,1.3123688084,1.64042,0,0,0,0,0,8.497,1.3123688084,1.312336,0,0,0,0,0,48.7, 0.4, 0,0,0,1024,1024,1024,1024,0,0,0,0,48.7,0,0,94,4.241,4.227,0,0,0,0,2.574,89.6,1.3123688084,1.312336,6,P-GPS,
3400,2022-08-16 04:19:22,0,0,1.312336,,,1.3123688084,1.64042,0,0,0,0,0,8.469,1.3123688084,1.312336,0,0,0,0,0,48.7, 0.3, 0,0,0,1024,1024,1024,1024,0,0,0,0,48.7,0,0,94,4.239,4.222,0,0,0,0,3.949,89.96,1.3123688084,1.312336,6,P-GPS,
3500,2022-08-16 04:19:22,0,0,1.312336,,,1.3123688084,1.64042,0,0,0,0,0,8.469,1.3123688084,1.312336,0,0,0,0,0,48.7, 0, 0,0,0,1024,1024,1024,1024,0,0,0,0,48.7,0,0,94,4.239,4.222,0,0,0,0,3.949,89.96,1.3123688084,1.312336,1,Atti,"Señal del GPS demasiado débil. Se ha pasado al modo Atti. La aeronave no puede hacer vuelo estacionario. Vuela con precaución (Code: 30022). Señal débil del GPS. Vuelo estacionario inestable. Vuela con cuidado (Code: 30002). Aeronave en modo Atti. No"
3600,2022-08-16 04:19:23,0,0,1.312336,,,1.3123688084,1.64042,0,0,0,0,0,8.469,1.3123688084,1.312336,0,0,0,0,0,48.7, 0, 0,0,0,1024,1024,1024,1024,0,0,0,0,48.7,0,0,94,4.239,4.222,0,0,0,0,3.949,89.96,1.3123688084,1.312336,1,Atti,"Vuela con cuidado (modo Atti) La brújula no funciona bien el GPS no tiene buena señal. Cambia a modo Atti (Code: 30020). Aeronave en modo Atti. No se puede hacer vuelo estacionario. Vuela con cuidado (Code: 30004)"
3700,2022-08-16 04:19:23,0,0,1.312336,,,1.3123688084,1.64042,0,0,0,0,0,8.469,1.3123688084,1.312336,0,0,0,0,0,48.7, 0, 0,0,0,1024,1024,1024,1024,0,0,0,0,48.7,0,0,94,4.239,4.222,0,0,0,0,3.949,89.96,1.3123688084,1.312336,1,Atti,
3800,2022-08-16 04:19:23,0,0,1.312336,,,1.3123688084,1.64042,0,0,0,0,0,8.469,1.3123688084,1.312336,0,0,0,0,0,48.7, 0, 0,0,0,1024,1024,1024,1011,0,0,0,-2,48.7,0,0,94,4.239,4.222,0,0,0,0,3.949,89.96,1.3123688084,1.312336,1,Atti,
3900,2022-08-16 04:19:23,0,0,1.312336,,,1.3123688084,1.64042,0,0,0,0,0,8.469,1.3123688084,1.312336,0,0,0,0,0,48.7, 0.1, 0,0,0,1024,1024,1024,370,0,0,0,-99,48.7,0,0,94,4.239,4.222,0,0,0,0,3.949,89.96,1.3123688084,1.312336,1,Atti,
4000,2022-08-16 04:19:23,0,0,1.312336,,,1.3123688084,1.64042,0,0,0,0,0,8.469,1.3123688084,1.312336,0,0,0,0,0,47.3, 0.1, 0.2,0,0,1024,1024,1024,403,0,0,0,-94,48,0,0,94,4.239,4.222,0,0,0,0,3.949,89.96,1.3123688084,1.312336,1,Atti,
4100,2022-08-16 04:19:23,0,0,1.312336,,,1.3123688084,1.64042,0,0,0,0,0,8.469,1.3123688084,1.312336,0,0,0,0,0,41.2, 0.1, 0.2,0,0,1024,1024,1024,1002,0,0,0,-3,42.5,0,0,94,4.239,4.222,0,0,0,0,3.949,89.96,1.3123688084,1.312336,1,Atti,
4200,2022-08-16 04:19:23,0,0,1.312336,,,1.3123688084,1.64042,0,0,0,0,0,8.469,1.3123688084,1.312336,0,0,0,0,0,36.8, 0, -0.1,0,0,1024,1024,1024,1024,0,0,0,0,37.7,0,0,94,4.239,4.222,0,0,0,0,3.949,89.96,1.3123688084,1.312336,1,Atti,
4300,2022-08-16 04:19:23,0,0,1.312336,,,1.3123688084,1.64042,0,0,0,0,0,8.469,1.3123688084,1.312336,0,0,0,0,0,36.9, 0.1, 0,0,0,1024,1024,1024,1024,0,0,0,0,37,0,0,94,4.239,4.222,0,0,0,0,3.949,89.96,1.3123688084,1.312336,1,Atti,
4400,2022-08-16 04:19:23,0,0,1.312336,,,1.3123688084,1.64042,0,0,0,0,0,8.453,1.3123688084,1.312336,0,0,0,0,0,36.9, 0.1, 0.1,0,0,1024,1024,1024,1024,0,0,0,0,37,0,0,94,4.233,4.215,0,0,0,0,4.021,89.96,1.3123688084,1.312336,1,Atti,
4500,2022-08-16 04:19:24,0,0,1.312336,,,1.3123688084,1.64042,0,0,0,0,0,8.453,1.3123688084,1.312336,0,0,0,0,0,36.9, 0, 0.1,0,0,1024,1024,1024,1024,0,0,0,0,36.9,0,0,94,4.233,4.215,0,0,0,0,4.021,89.96,1.3123688084,1.312336,1,Atti,
4600,2022-08-16 04:19:24,0,0,1.312336,,,1.3123688084,1.64042,0,0,0,0,0,8.453,1.3123688084,1.312336,0,0,0,0,0,36.8, 0, 0,0,0,1024,1024,1024,1024,0,0,0,0,36.9,0,0,94,4.233,4.215,0,0,0,0,4.021,89.96,1.3123688084,1.312336,1,Atti,
4700,2022-08-16 04:19:24,0,0,1.312336,,,1.3123688084,1.64042,0,0,0,0,0,8.453,1.3123688084,1.312336,0,0,0,0,0,36.8, 0, 0,0,0,1024,1024,1024,991,0,0,0,-5,36.9,0,0,94,4.233,4.215,0,0,0,0,4.021,89.96,1.3123688084,1.312336,1,Atti,
4800,2022-08-16 04:19:24,0,0,1.312336,,,1.3123688084,1.64042,0.3131716,0,0,0,0,8.453,1.3123688084,1.312336,0,0,0.223694,0.223694,0,36.8, 0.3, 0,0,0,1024,1024,1024,364,0,0,0,-100,36.9,0,0,94,4.233,4.215,0,0,0,0,4.021,89.96,1.3123688084,1.312336,6,P-GPS,"Señal débil del GPS. Vuelo estacionario inestable. Vuela con cuidado (Code: 30002)"
4900,2022-08-16 04:19:24,0,0,1.312336,,,1.3123688084,1.64042,0.223694,0,0,0,0,8.453,1.3123688084,1.312336,0,0,0,0.223694,0,36.7, 0.9, -0.2,0,0,1024,1024,1024,493,0,0,0,-80,36,0,0,94,4.233,4.215,0,0,0,0,4.021,89.96,1.3123688084,1.312336,6,P-GPS,
5000,2022-08-16 04:19:24,0,0,1.312336,,,1.3123688084,1.64042,0,0,0,0,0,8.453,1.3123688084,1.312336,0,0,0,0,0,34.6, 1.1, 0,0,0,1024,1024,1024,1024,0,0,0,0,32.4,0,0,94,4.233,4.215,0,0,0,0,4.021,89.96,1.3123688084,1.312336,6,P-GPS,
5100,2022-08-16 04:19:24,0,0,1.312336,,,1.3123688084,1.64042,0,0,0,0,0,8.453,1.3123688084,1.312336,0,0,0,0,0,30.8, 1.1, -0.4,0,0,1024,1024,1024,1024,0,0,0,0,29.2,0,0,94,4.233,4.215,0,0,0,0,4.021,89.96,1.3123688084,1.312336,6,P-GPS,
5200,2022-08-16 04:19:24,0,0,1.312336,,,1.3123688084,1.64042,0,0,0,0,0,8.453,1.3123688084,1.312336,0,0,0,0,0,28.8, 1, -0.6,0,0,1024,1024,1024,1024,0,0,0,0,28.1,0,0,94,4.233,4.215,0,0,0,0,4.021,89.96,1.3123688084,1.312336,6,P-GPS,
5300,2022-08-16 04:19:24,0,0,1.312336,,,1.3123688084,1.64042,0,0,0,0,0,8.453,1.3123688084,1.312336,0,0,0,0,0,28, 1, -0.5,0,0,1024,766,1024,1024,0,-39,0,0,27.7,0,0,94,4.233,4.215,0,0,0,0,4.021,89.96,1.3123688084,1.312336,6,P-GPS,
5400,2022-08-16 04:19:24,0,0,1.312336,,,1.3123688084,1.64042,0,0,0,0,0,8.446,1.3123688084,1.312336,0,0,0,0,0,27.8, 0.9, -0.4,0,0,1024,766,1024,1024,0,-39,0,0,27.7,0,0,94,4.23,4.212,0,0,0,0,4.109,89.96,1.3123688084,1.312336,6,P-GPS,
5500,2022-08-16 04:19:25,0,0,1.312336,,,1.3123688084,1.64042,0,0,0,0,0,8.446,1.3123688084,1.312336,0,0,0,0,0,27.8, 0.8, -1.4,0,0,1024,619,1024,1024,0,-61,0,0,27.7,0,0,94,4.23,4.212,0,0,0,0,4.109,89.96,1.3123688084,1.312336,6,P-GPS,
5600,2022-08-16 04:19:25,0,0,1.312336,,,1.3123688084,1.64042,0,0,0,0,0,8.446,1.3123688084,1.312336,0,0,0,0,0,27.6, 0.5, -7.6,0,0,1024,1024,1024,1024,0,0,0,0,27.7,0,0,94,4.23,4.212,0,0,0,0,4.109,89.96,1.3123688084,1.312336,6,P-GPS,
5700,2022-08-16 04:19:25,0,0,1.312336,,,1.3123688084,1.64042,0.3131716,0,0,0,0,8.446,1.3123688084,1.312336,0,0,0.223694,-0.223694,0,27.6, 0.4, -6.7,0,0,1024,1024,1024,1024,0,0,0,0,27.7,0,0,94,4.23,4.212,0,0,0,0,4.109,89.96,1.3123688084,1.312336,6,P-GPS,
5800,2022-08-16 04:19:25,0,0,1.312336,,,1.3123688084,1.64042,0.4921268,0,0,0,0,8.446,1.3123688084,1.312336,0,0,0.223694,-0.447388,0,28.1, 0.5, 1.9,0,0,1024,1024,1024,1024,0,0,0,0,27.7,0,0,94,4.23,4.212,0,0,0,0,4.109,89.96,1.3123688084,1.312336,6,P-GPS,
5900,2022-08-16 04:19:25,0,0,1.312336,,,1.3123688084,1.64042,0.3131716,0,0,0,0,8.446,1.3123688084,1.312336,0,0,0.223694,-0.223694,0,27.9, 0.5, 3,0,0,1024,1024,1024,1024,0,0,0,0,27.7,0,0,94,4.23,4.212,0,0,0,0,4.109,89.96,1.3123688084,1.312336,6,P-GPS,
6000,2022-08-16 04:19:25,0,0,1.312336,,,1.3123688084,1.64042,0.3131716,0,0,0,0,8.446,1.3123688084,1.312336,0,0,0.223694,-0.223694,0,27.8, 0.4, 2.4,0,0,1024,1024,1024,1024,0,0,0,0,27.7,0,0,94,4.23,4.212,0,0,0,0,4.109,89.96,1.3123688084,1.312336,6,P-GPS,
6100,2022-08-16 04:19:25,0,0,1.312336,,,1.3123688084,1.64042,0.223694,0,0,0,0,8.446,1.3123688084,1.312336,0,0,0.223694,0,0,27.7, 0.4, 1.9,0,0,1024,1024,1024,1024,0,0,0,0,27.7,0,0,94,4.23,4.212,0,0,0,0,4.109,89.96,1.3123688084,1.312336,6,P-GPS,
6200,2022-08-16 04:19:25,0,0,1.312336,,,1.3123688084,1.64042,0,0,0,0,0,8.446,1.3123688084,1.312336,0,0,0,0,0,27.7, 0.5, 1.6,0,0,1024,1024,1024,1035,0,0,0,2,27.7,0,0,94,4.23,4.212,0,0,0,0,4.109,89.96,1.3123688084,1.312336,6,P-GPS,
6300,2022-08-16 04:19:25,0,0,1.312336,,,1.3123688084,1.64042,0,0,0,0,0,8.446,1.3123688084,1.312336,0,0,0,0,0,27.8, 0.9, 1.6,0,0,1024,1024,1024,1024,0,0,0,0,27.7,0,0,94,4.23,4.212,0,0,0,0,4.109,89.96,1.3123688084,1.312336,6,P-GPS,
6400,2022-08-16 04:19:25,0,0,1.312336,,,1.3123688084,1.64042,0,0,0,0,0,8.442,1.3123688084,1.312336,0,0,0,0,0,27.7, 1.6, 0.4,0,0,1024,1024,1024,1024,0,0,0,0,27.7,0,0,94,4.227,4.211,0,0,0,0,4.128,89.96,1.3123688084,1.312336,6,P-GPS,
6500,2022-08-16 04:19:26,0,0,1.312336,,,1.3123688084,1.64042,0,0,0,0,0,8.442,1.3123688084,1.312336,0,0,0,0,0,27.7, 1.4, 0.1,0,0,1024,1024,1024,1024,0,0,0,0,27.7,0,0,94,4.227,4.211,0,0,0,0,4.128,89.96,1.3123688084,1.312336,6,P-GPS,
6600,2022-08-16 04:19:26,0,0,1.312336,,,1.3123688084,1.64042,0,0,0,0,0,8.442,1.3123688084,1.312336,0,0,0,0,0,27.7, 1.3, 0,0,0,1024,1024,1024,1024,0,0,0,0,27.7,0,0,94,4.227,4.211,0,0,0,0,4.128,89.96,1.3123688084,1.312336,6,P-GPS,"En vuelo"
6700,2022-08-16 04:19:26,0,0,1.312336,,,1.3123688084,1.64042,0,0,0,0,0,8.442,1.3123688084,1.312336,0,0,0,0,0,27.7, 1.3, -0.1,0,0,1024,1024,1288,1024,0,0,40,0,27.7,0,0,94,4.227,4.211,0,0,0,0,4.128,89.96,1.3123688084,1.312336,6,P-GPS,
6800,2022-08-16 04:19:26,0,0,1.312336,,,1.3123688084,1.64042,0,0,0,0,0,8.442,1.3123688084,1.312336,0,0,0,0,0,27.7, 1.5, -0.1,0,0,1024,1024,1347,1024,0,0,49,0,27.7,0,0,94,4.227,4.211,0,0,0,0,4.128,89.96,1.3123688084,1.312336,6,P-GPS,
6900,2022-08-16 04:19:26,0,0,1.312336,,,1.3123688084,1.64042,0,0,0,0,0,8.442,1.3123688084,1.312336,0,0,0,0,-0.447388,27.7, 1.3, -0.2,0,0,1024,1024,1024,1024,0,0,0,0,27.7,0,0,94,4.227,4.211,0,0,0,0,4.128,89.96,1.3123688084,1.312336,6,P-GPS,
7000,2022-08-16 04:19:26,0,0,1.64042,,,1.6404528084,1.968504,0,0,0,0,0,8.442,1.6404528084,1.64042,0,0,0,0,-0.894776,27.7, 0.8, -0.3,0,0,1024,1024,1024,1024,0,0,0,0,27.7,0,0,94,4.227,4.211,0,0,0,0,4.128,89.96,1.6404528084,1.64042,6,P-GPS,
7100,2022-08-16 04:19:26,0,0,1.64042,,,1.6404528084,1.968504,0,0,0,0,0,8.442,1.6404528084,1.64042,0,0,0,0,-0.671082,27.8, 1.2, 0,0,0,1024,1024,1024,1024,0,0,0,0,27.7,0,0,94,4.227,4.211,0,0,0,0,4.128,89.96,1.6404528084,1.64042,6,P-GPS,
7200,2022-08-16 04:19:26,0,0,1.64042,,,1.6404528084,1.968504,0,0,0,0,0,8.442,1.6404528084,1.64042,0,0,0,0,-0.447388,27.8, 1.1, 0,0,0,1024,1024,1024,1024,0,0,0,0,27.7,0,0,94,4.227,4.211,0,0,0,0,4.128,89.96,1.6404528084,1.64042,6,P-GPS,
7300,2022-08-16 04:19:26,0,0,1.968504,,,1.9685368084,1.968504,0,0,0,0,0,8.442,1.9685368084,1.968504,0,0,0,0,-0.223694,27.8, 1.2, 0.3,0,0,1024,1024,1024,1024,0,0,0,0,27.7,0,0,94,4.227,4.211,0,0,0,0,4.128,89.96,1.9685368084,1.968504,6,P-GPS,
7400,2022-08-16 04:19:26,0,0,1.968504,,,1.9685368084,1.968504,0,0,0,0,0,8.435,1.9685368084,1.968504,0,0,0,0,0,27.6, 1, 0.4,0,0,1024,1024,1079,1024,0,0,8,0,27.7,0,0,94,4.246,4.216,0,0,0,0,4.135,89.96,1.9685368084,1.968504,6,P-GPS,
7500,2022-08-16 04:19:26,0,0,1.968504,,,1.9685368084,1.968504,0,0,0,0,0,8.435,1.9685368084,1.968504,0,0,0,0,0,27.3, 0.8, 0.3,0,0,1024,1024,1252,1024,0,0,35,0,27.7,0,0,94,4.246,4.216,0,0,0,0,4.135,89.96,1.9685368084,1.968504,6,P-GPS,
7600,2022-08-16 04:19:27,0,0,1.968504,,,1.9685368084,1.968504,0,0,0,0,0,8.435,1.9685368084,1.968504,0,0,0,0,0,27.1, 0.8, 0.2,0,0,1024,1024,1299,1024,0,0,42,0,27.7,0,0,94,4.246,4.216,0,0,0,0,4.135,89.96,1.9685368084,1.968504,6,P-GPS,
7700,2022-08-16 04:19:27,0,0,1.968504,,,1.9685368084,2.296588,0,0,0,0,0,8.435,1.9685368084,1.968504,0,0,0,0,-0.671082,26.9, 0.8, 0.1,0,0,1024,1024,1136,1024,0,0,17,0,27.7,0,0,94,4.246,4.216,0,0,0,0,4.135,89.96,1.9685368084,1.968504,6,P-GPS,
7800,2022-08-16 04:19:27,0,0,2.296588,,,2.2966208084,2.296588,0,0,0,0,0,8.435,2.2966208084,2.296588,0,0,0,0,-1.11847,26.6, 0.6, 0.1,0,0,1024,1024,1024,1024,0,0,0,0,27.7,0,0,94,4.246,4.216,0,0,0,0,4.135,89.96,2.2966208084,2.296588,6,P-GPS,
7900,2022-08-16 04:19:27,0,0,2.296588,,,2.2966208084,2.624672,0,0,0,0,0,8.435,2.2966208084,2.296588,0,0,0,0,-0.894776,26.4, 1, 0.3,0,0,1024,1024,1024,1024,0,0,0,0,27.7,0,0,94,4.246,4.216,0,0,0,0,4.135,89.96,2.2966208084,2.296588,6,P-GPS,
8000,2022-08-16 04:19:27,0,0,2.296588,,,2.2966208084,2.624672,0,0,0,0,0,8.435,2.2966208084,2.296588,0,0,0,0,-0.447388,26.1, 0.8, 0.3,0,0,1024,1024,1048,1024,0,0,4,0,27.7,0,0,94,4.246,4.216,0,0,0,0,4.135,89.96,2.2966208084,2.296588,6,P-GPS,
8100,2022-08-16 04:19:27,0,0,2.296588,,,2.2966208084,2.624672,0,0,0,0,0,8.435,2.2966208084,2.296588,0,0,0,0,-0.223694,25.9, 0.9, 0.3,0,0,1024,1024,1134,1024,0,0,17,0,27.7,0,0,94,4.246,4.216,0,0,0,0,4.135,89.96,2.2966208084,2.296588,6,P-GPS,
8200,2022-08-16 04:19:27,0,0,2.296588,,,2.2966208084,2.624672,0,0,0,0,0,8.435,2.2966208084,2.296588,0,0,0,0,0,25.7, 0.9, 0.4,0,0,1024,1024,1134,1024,0,0,17,0,27.7,0,0,94,4.246,4.216,0,0,0,0,4.135,89.96,2.2966208084,2.296588,6,P-GPS,
8300,2022-08-16 04:19:27,0,0,2.624672,,,2.6247048084,2.624672,0,0,0,0,0,8.435,2.6247048084,2.624672,0,0,0,0,0,25.6, 0.5, 0.4,0,0,1024,1024,1059,1024,0,0,5,0,27.7,0,0,94,4.246,4.216,0,0,0,0,4.135,89.96,2.6247048084,2.624672,6,P-GPS,
8400,2022-08-16 04:19:27,0,0,2.624672,,,2.6247048084,2.624672,0,0,0,0,0,8.435,2.6247048084,2.624672,0,0,0,0,0,25.3, 0.4, 0.4,0,0,1024,1024,1024,1024,0,0,0,0,27.7,0,0,94,4.246,4.216,0,0,0,0,4.135,89.96,2.6247048084,2.624672,6,P-GPS,
8500,2022-08-16 04:19:28,0,0,2.624672,,,2.6247048084,2.952756,0,0,0,0,0,8.399,2.6247048084,2.624672,0,0,0,0,0,25.2, 0.5, 0.3,0,0,1024,1024,1024,1024,0,0,0,0,27.7,0,0,94,4.227,4.214,0,0,0,0,4.529,89.96,2.6247048084,2.624672,6,P-GPS,
8600,2022-08-16 04:19:28,0,0,2.624672,,,2.6247048084,2.952756,0,0,0,0,0,8.399,2.6247048084,2.624672,0,0,0,0,0,25, 0.5, 0,0,0,1024,1024,1029,1024,0,0,1,0,27.7,0,0,94,4.227,4.214,0,0,0,0,4.529,89.96,2.6247048084,2.624672,6,P-GPS,
8700,2022-08-16 04:19:28,0,0,2.624672,,,2.6247048084,2.952756,0,0,0,0,0,8.399,2.6247048084,2.624672,0,0,0,0,0,24.8, 0.5, 0.2,0,0,1024,1024,1090,1024,0,0,10,0,27.7,0,0,94,4.227,4.214,0,0,0,0,4.529,89.96,2.6247048084,2.624672,6,P-GPS,
8800,2022-08-16 04:19:28,0,0,2.624672,,,2.6247048084,2.952756,0,0,0,0,0,8.399,2.6247048084,2.624672,0,0,0,0,0,24.7, 0.6, 0.7,0,0,1024,1024,1152,1024,0,0,19,0,27.7,0,0,94,4.227,4.214,0,0,0,0,4.529,89.96,2.6247048084,2.624672,6,P-GPS,
8900,2022-08-16 04:19:28,0,0,2.624672,,,2.6247048084,2.952756,0,0,0,0,0,8.399,2.6247048084,2.624672,0,0,0,0,0,24.6, 0.7, 0.9,0,0,1024,1024,1212,1024,0,0,28,0,27.7,0,0,94,4.227,4.214,0,0,0,0,4.529,89.96,2.6247048084,2.624672,6,P-GPS,
9000,2022-08-16 04:19:28,0,0,2.624672,,,2.6247048084,2.952756,0,0,0,0,0,8.399,2.6247048084,2.624672,0,0,0,0,-0.223694,24.4, 0.6, 0.5,0,0,1024,1024,1110,1024,0,0,13,0,27.7,0,0,94,4.227,4.214,0,0,0,0,4.529,89.96,2.6247048084,2.624672,6,P-GPS,
9100,2022-08-16 04:19:28,0,0,2.624672,,,2.6247048084,2.952756,0,0,0,0,0,8.399,2.6247048084,2.624672,0,0,0,0,-0.447388,24.3, 0.5, 0.3,0,0,1024,1024,1110,1024,0,0,13,0,27.7,0,0,94,4.227,4.214,0,0,0,0,4.529,89.96,2.6247048084,2.624672,6,P-GPS,
9200,2022-08-16 04:19:28,0,0,2.624672,,,2.6247048084,2.952756,0,0,0,0,0,8.399,2.6247048084,2.624672,0,0,0,0,-0.447388,24.2, 0.5, 0.3,0,0,1024,1024,1024,1024,0,0,0,0,27.7,0,0,94,4.227,4.214,0,0,0,0,4.529,89.96,2.6247048084,2.624672,6,P-GPS,
9300,2022-08-16 04:19:28,0,0,2.624672,,,2.6247048084,2.952756,0,0,0,0,0,8.399,2.6247048084,2.624672,0,0,0,0,-0.223694,24.1, 0.5, 0,0,0,1024,1024,1024,1024,0,0,0,0,27.7,0,0,94,4.227,4.214,0,0,0,0,4.529,89.96,2.6247048084,2.624672,6,P-GPS,
9400,2022-08-16 04:19:28,0,0,2.624672,,,2.6247048084,2.952756,0,0,0,0,0,8.399,2.6247048084,2.624672,0,0,0,0,0,24, 0.6, 0.1,0,0,1024,1024,1024,1024,0,0,0,0,27.7,0,0,94,4.227,4.214,0,0,0,0,4.529,89.96,2.6247048084,2.624672,6,P-GPS,
9500,2022-08-16 04:19:29,0,0,2.624672,,,2.6247048084,3.28084,0,0,0,0,0,8.425,2.6247048084,2.624672,0,0,0,0,0,23.9, 0.5, 0.2,0,0,1024,1024,1024,1024,0,0,0,0,27.7,0,0,94,4.21,4.19,0,0,0,0,3.856,90.14,2.6247048084,2.624672,6,P-GPS,
9600,2022-08-16 04:19:29,0,0,2.624672,,,2.6247048084,3.28084,0,0,0,0,0,8.425,2.6247048084,2.624672,0,0,0,0,0,23.9, 0.4, 0.2,0,0,1024,1024,1024,1024,0,0,0,0,27.7,0,0,94,4.21,4.19,0,0,0,0,3.856,90.14,2.6247048084,2.624672,6,P-GPS,
9700,2022-08-16 04:19:29,0,0,2.624672,,,2.6247048084,3.28084,0,0,0,0,0,8.425,2.6247048084,2.624672,0,0,0,0,0,23.8, 0.4, 0.1,0,0,1024,1024,1024,1024,0,0,0,0,27.7,0,0,94,4.21,4.19,0,0,0,0,3.856,90.14,2.6247048084,2.624672,6,P-GPS,
9800,2022-08-16 04:19:29,0,0,2.952756,,,2.9527888084,3.28084,0,0,0,0,0,8.425,2.9527888084,2.952756,0,0,0,0,0,23.8, 0.5, 0.1,0,0,1024,1024,1024,1024,0,0,0,0,27.7,0,0,94,4.21,4.19,0,0,0,0,3.856,90.14,2.9527888084,2.952756,6,P-GPS,
9900,2022-08-16 04:19:29,0,0,2.952756,,,2.9527888084,3.28084,0,0,0,0,0,8.425,2.9527888084,2.952756,0,0,0,0,0,23.7, 0.4, 0.1,0,0,1024,1024,1024,1024,0,0,0,0,27.7,0,0,94,4.21,4.19,0,0,0,0,3.856,90.14,2.9527888084,2.952756,6,P-GPS,
10000,2022-08-16 04:19:29,0,0,2.952756,,,2.9527888084,3.28084,0,0,0,0,0,8.425,2.9527888084,2.952756,0,0,0,0,0,23.6, 0.5, 0,0,0,1024,1024,1024,1024,0,0,0,0,27.7,0,0,94,4.21,4.19,0,0,0,0,3.856,90.14,2.9527888084,2.952756,6,P-GPS,
10100,2022-08-16 04:19:29,0,0,2.952756,,,2.9527888084,3.28084,0,0,0,0,0,8.425,2.9527888084,2.952756,0,0,0,0,0,23.6, 0.8, 0,0,0,1024,1024,1024,1024,0,0,0,0,27.7,0,0,94,4.21,4.19,0,0,0,0,3.856,90.14,2.9527888084,2.952756,6,P-GPS,
10200,2022-08-16 04:19:29,0,0,2.952756,,,2.9527888084,3.28084,0,0,0,0,0,8.425,2.9527888084,2.952756,0,0,0,0,0,23.5, 0.5, 0.2,0,0,1024,1024,1024,1024,0,0,0,0,27.7,0,0,94,4.21,4.19,0,0,0,0,3.856,90.14,2.9527888084,2.952756,6,P-GPS,
10300,2022-08-16 04:19:29,0,0,2.952756,,,2.9527888084,3.28084,0,0,0,0,0,8.425,2.9527888084,2.952756,0,0,0,0,0,23.4, 0.3, 0.5,0,0,1024,1024,1024,1024,0,0,0,0,27.7,0,0,94,4.21,4.19,0,0,0,0,3.856,90.14,2.9527888084,2.952756,6,P-GPS,
10400,2022-08-16 04:19:29,0,0,2.952756,,,2.9527888084,3.28084,0,0,0,0,0,8.425,2.9527888084,2.952756,0,0,0,0,0,23.4, 0.2, 0.7,0,0,1024,1024,1024,1024,0,0,0,0,27.7,0,0,94,4.21,4.19,0,0,0,0,3.856,90.14,2.9527888084,2.952756,6,P-GPS,
10500,2022-08-16 04:19:30,0,0,2.952756,,,2.9527888084,3.28084,0,0,0,0,0,8.42,2.9527888084,2.952756,0,0,0,0,0,23.3, 0.3, 0.7,0,0,1024,1024,1024,1024,0,0,0,0,27.7,0,0,94,4.218,4.2,0,0,0,0,4.13,90.14,2.9527888084,2.952756,6,P-GPS,
10600,2022-08-16 04:19:30,0,0,2.952756,,,2.9527888084,3.28084,0,0,0,0,0,8.42,2.9527888084,2.952756,0,0,0,0,0,23.2, 0.5, 0.1,0,0,1024,1024,1024,1024,0,0,0,0,27.7,0,0,94,4.218,4.2,0,0,0,0,4.13,90.14,2.9527888084,2.952756,6,P-GPS,
10700,2022-08-16 04:19:30,0,0,2.952756,,,2.9527888084,3.28084,0,0,0,0,0,8.42,2.9527888084,2.952756,0,0,0,0,0,23.2, 0.7, 0.3,0,0,1024,1024,1024,1024,0,0,0,0,27.7,0,0,94,4.218,4.2,0,0,0,0,4.13,90.14,2.9527888084,2.952756,6,P-GPS,
10800,2022-08-16 04:19:30,0,0,2.952756,,,2.9527888084,2.952756,0,0,0,0,0,8.42,2.9527888084,2.952756,0,0,0,0,0,23.2, 0.6, 0.4,0,0,1024,1024,1024,1024,0,0,0,0,27.7,0,0,94,4.218,4.2,0,0,0,0,4.13,90.14,2.9527888084,2.952756,6,P-GPS,
10900,2022-08-16 04:19:30,0,0,2.952756,,,2.9527888084,2.952756,0,0,0,0,0,8.42,2.9527888084,2.952756,0,0,0,0,0,23.1, 0.6, 0.2,0,0,1024,1024,1024,1024,0,0,0,0,27.7,0,0,94,4.218,4.2,0,0,0,0,4.13,90.14,2.9527888084,2.952756,6,P-GPS,
11000,2022-08-16 04:19:30,0,0,2.952756,,,2.9527888084,2.952756,0,0,0,0,0,8.42,2.9527888084,2.952756,0,0,0,0,0,23.1, 0.5, 0.2,0,0,1024,1024,1024,1024,0,0,0,0,27.7,0,0,94,4.218,4.2,0,0,0,0,4.13,90.14,2.9527888084,2.952756,6,P-GPS,
11100,2022-08-16 04:19:30,0,0,2.952756,,,2.9527888084,2.952756,0,0,0,0,0,8.42,2.9527888084,2.952756,0,0,0,0,0,23, 0.5, 0.3,0,0,1024,1024,1024,1024,0,0,0,0,27.7,0,0,94,4.218,4.2,0,0,0,0,4.13,90.14,2.9527888084,2.952756,6,P-GPS,
11200,2022-08-16 04:19:30,0,0,2.952756,,,2.9527888084,2.952756,0,0,0,0,0,8.42,2.9527888084,2.952756,0,0,0,0,0,23, 0.6, 0.1,0,0,1024,1024,1024,1024,0,0,0,0,27.7,0,0,94,4.218,4.2,0,0,0,0,4.13,90.14,2.9527888084,2.952756,6,P-GPS,
11300,2022-08-16 04:19:30,0,0,2.952756,,,2.9527888084,2.952756,0,0,0,0,0,8.42,2.9527888084,2.952756,0,0,0,0,0,23, 0.8, 0,0,0,1024,1024,1024,1024,0,0,0,0,27.7,0,0,94,4.218,4.2,0,0,0,0,4.13,90.14,2.9527888084,2.952756,6,P-GPS,
11400,2022-08-16 04:19:30,0,0,2.952756,,,2.9527888084,2.952756,0,0,0,0,0,8.42,2.9527888084,2.952756,0,0,0,0,0,23, 0.8, 0,0,0,1024,1024,1024,1024,0,0,0,0,27.7,0,0,94,4.218,4.2,0,0,0,0,4.13,90.14,2.9527888084,2.952756,6,P-GPS,
11500,2022-08-16 04:19:30,0,0,2.952756,,,2.9527888084,2.952756,0,0,0,0,0,8.415,2.9527888084,2.952756,0,0,0,0,0,23, 0.8, 0.2,0,0,1024,1024,1024,1024,0,0,0,0,27.7,0,0,94,4.216,4.198,0,0,0,0,4.082,90.14,2.9527888084,2.952756,6,P-GPS,
11600,2022-08-16 04:19:31,0,0,2.952756,,,2.9527888084,2.952756,0,0,0,0,0,8.415,2.9527888084,2.952756,0,0,0,0,0,23, 0.6, 0.5,0,0,1024,1024,1024,1024,0,0,0,0,27.7,0,0,94,4.216,4.198,0,0,0,0,4.082,90.14,2.9527888084,2.952756,6,P-GPS,
11700,2022-08-16 04:19:31,0,0,2.952756,,,2.9527888084,2.952756,0,0,0,0,0,8.415,2.9527888084,2.952756,0,0,0,0,0,23, 0.4, 0.9,0,0,1024,1024,1024,1024,0,0,0,0,27.7,0,0,94,4.216,4.198,0,0,0,0,4.082,90.14,2.9527888084,2.952756,6,P-GPS,
11800,2022-08-16 04:19:31,0,0,2.952756,,,2.9527888084,2.952756,0,0,0,0,0,8.415,2.9527888084,2.952756,0,0,0,0,0,23, 0.5, 0.7,0,0,1024,1024,1024,1024,0,0,0,0,27.7,0,0,94,4.216,4.198,0,0,0,0,4.082,90.14,2.9527888084,2.952756,6,P-GPS,
11900,2022-08-16 04:19:31,0,0,2.952756,,,2.9527888084,2.952756,0,0,0,0,0,8.415,2.9527888084,2.952756,0,0,0,0,0,23, 0.5, 0.6,0,0,1024,1024,1024,1024,0,0,0,0,27.7,0,0,94,4.216,4.198,0,0,0,0,4.082,90.14,2.9527888084,2.952756,6,P-GPS,
12000,2022-08-16 04:19:31,0,0,2.952756,,,2.9527888084,2.952756,0,0,0,0,0,8.415,2.9527888084,2.952756,0,0,0,0,0,22.9, 0.5, 0.3,0,0,1024,1024,1024,1024,0,0,0,0,27.7,0,0,94,4.216,4.198,0,0,0,0,4.082,90.14,2.9527888084,2.952756,6,P-GPS,
12100,2022-08-16 04:19:31,0,0,2.952756,,,2.9527888084,2.952756,0,0,0,0,0,8.415,2.9527888084,2.952756,0,0,0,0,0,22.9, 0.8, 0,0,0,1024,1024,1024,1024,0,0,0,0,27.7,0,0,94,4.216,4.198,0,0,0,0,4.082,90.14,2.9527888084,2.952756,6,P-GPS,
12200,2022-08-16 04:19:31,0,0,2.952756,,,2.9527888084,2.952756,0,0,0,0,0,8.415,2.9527888084,2.952756,0,0,0,0,0,22.9, 0.7, 0,0,0,1024,1024,1024,1024,0,0,0,0,27.7,0,0,94,4.216,4.198,0,0,0,0,4.082,90.14,2.9527888084,2.952756,6,P-GPS,
12300,2022-08-16 04:19:31,0,0,2.952756,,,2.9527888084,2.952756,0,0,0,0,0,8.415,2.9527888084,2.952756,0,0,0,0,0,22.9, 0.6, 0,0,0,1024,1024,1024,1024,0,0,0,0,27.7,0,0,94,4.216,4.198,0,0,0,0,4.082,90.14,2.9527888084,2.952756,6,P-GPS,
12400,2022-08-16 04:19:31,0,0,2.952756,,,2.9527888084,2.952756,0,0,0,0,0,8.415,2.9527888084,2.952756,0,0,0,0,0,22.9, 0.6, 0.1,0,0,1024,1024,1024,1024,0,0,0,0,27.7,0,0,94,4.216,4.198,0,0,0,0,4.082,90.14,2.9527888084,2.952756,6,P-GPS,
12500,2022-08-16 04:19:32,0,0,2.952756,,,2.9527888084,2.952756,0,0,0,0,0,8.411,2.9527888084,2.952756,0,0,0,0,0,22.8, 0.7, 0.2,0,0,1024,1024,1024,1024,0,0,0,0,27.7,0,0,94,4.215,4.197,0,0,0,0,4.077,90.14,2.9527888084,2.952756,6,P-GPS,
12600,2022-08-16 04:19:32,0,0,2.952756,,,2.9527888084,2.952756,0,0,0,0,0,8.411,2.9527888084,2.952756,0,0,0,0,0,22.8, 0.6, 0.1,0,0,1024,1024,1024,607,0,0,0,-63,27.7,0,0,94,4.215,4.197,0,0,0,0,4.077,90.14,2.9527888084,2.952756,6,P-GPS,
12700,2022-08-16 04:19:32,0,0,2.952756,,,2.9527888084,2.952756,0,0,0,0,0,8.411,2.9527888084,2.952756,0,0,0,0,0,22.7, 0.6, 0,0,0,1024,1024,1024,542,0,0,0,-73,27.1,0,0,94,4.215,4.197,0,0,0,0,4.077,90.14,2.9527888084,2.952756,6,P-GPS,
12800,2022-08-16 04:19:32,0,0,2.952756,,,2.9527888084,2.952756,0,0,0,0,0,8.411,2.9527888084,2.952756,0,0,0,0,0,21.2, 0.6, -0.1,0,0,1024,1024,1024,1024,0,0,0,0,24.6,0,0,94,4.215,4.197,0,0,0,0,4.077,90.14,2.9527888084,2.952756,6,P-GPS,
12900,2022-08-16 04:19:32,0,0,2.952756,,,2.9527888084,2.952756,0,0,0,0,0,8.411,2.9527888084,2.952756,0,0,0,0,0,18.8, 0.8, -0.4,0,0,1024,1024,1024,1024,0,0,0,0,22.8,0,0,94,4.215,4.197,0,0,0,0,4.077,90.14,2.9527888084,2.952756,6,P-GPS,
13000,2022-08-16 04:19:32,0,0,2.952756,,,2.9527888084,2.952756,0,0,0,0,0,8.411,2.9527888084,2.952756,0,0,0,0,0,17.6, 0.9, -0.1,0,0,1024,1024,1024,1024,0,0,0,0,22,0,0,94,4.215,4.197,0,0,0,0,4.077,90.14,2.9527888084,2.952756,6,P-GPS,
13100,2022-08-16 04:19:32,0,0,2.952756,,,2.9527888084,2.952756,0,0,0,0,0,8.411,2.9527888084,2.952756,0,0,0,0,0,17.1, 0.9, 0.1,0,0,1024,1024,1024,1024,0,0,0,0,21.8,0,0,94,4.215,4.197,0,0,0,0,4.077,90.14,2.9527888084,2.952756,6,P-GPS,
13200,2022-08-16 04:19:32,0,0,2.952756,,,2.9527888084,2.952756,0,0,0,0,0,8.411,2.9527888084,2.952756,0,0,0,0,0,17.1, 0.8, 0.1,0,0,1024,1024,1024,1024,0,0,0,0,21.8,0,0,94,4.215,4.197,0,0,0,0,4.077,90.14,2.9527888084,2.952756,6,P-GPS,
13300,2022-08-16 04:19:32,0,0,2.952756,,,2.9527888084,2.952756,0,0,0,0,0,8.411,2.9527888084,2.952756,0,0,0,0,0,17, 0.5, 0.4,0,0,1024,1024,1024,1024,0,0,0,0,21.8,0,0,94,4.215,4.197,0,0,0,0,4.077,90.14,2.9527888084,2.952756,6,P-GPS,
13400,2022-08-16 04:19:32,0,0,2.952756,,,2.9527888084,2.952756,0,0,0,0,0,8.411,2.9527888084,2.952756,0,0,0,0,0,17, 0.4, 0.5,0,0,1024,1024,1024,1024,0,0,0,0,21.8,0,0,94,4.215,4.197,0,0,0,0,4.077,90.14,2.9527888084,2.952756,6,P-GPS,
13500,2022-08-16 04:19:33,0,0,2.952756,,,2.9527888084,2.952756,0,0,0,0,0,8.411,2.9527888084,2.952756,0,0,0,0,0,17, 0.4, 0.4,0,0,1024,1024,1024,1024,0,0,0,0,21.8,0,0,94,4.215,4.197,0,0,0,0,4.077,90.14,2.9527888084,2.952756,6,P-GPS,
13600,2022-08-16 04:19:33,0,0,2.952756,,,2.9527888084,2.952756,0,0,0,0,0,8.408,2.9527888084,2.952756,0,0,0,0,0,16.9, 0.5, 0.2,0,0,1024,1024,1024,1024,0,0,0,0,21.8,0,0,94,4.214,4.196,0,0,0,0,4.047,90.32,2.9527888084,2.952756,6,P-GPS,
13700,2022-08-16 04:19:33,0,0,2.952756,,,2.9527888084,2.952756,0,0,0,0,0,8.408,2.9527888084,2.952756,0,0,0,0,0,17, 0.7, 0,0,0,1024,1024,1024,1024,0,0,0,0,21.8,0,0,94,4.214,4.196,0,0,0,0,4.047,90.32,2.9527888084,2.952756,6,P-GPS,
13800,2022-08-16 04:19:33,0,0,2.952756,,,2.9527888084,2.952756,0,0,0,0,0,8.408,2.9527888084,2.952756,0,0,0,0,0,17, 0.7, -0.1,0,0,1024,1024,1024,1024,0,0,0,0,21.8,0,0,94,4.214,4.196,0,0,0,0,4.047,90.32,2.9527888084,2.952756,6,P-GPS,
13900,2022-08-16 04:19:33,0,0,2.952756,,,2.9527888084,2.952756,0,0,0,0,0,8.408,2.9527888084,2.952756,0,0,0,0,0,17, 0.5, -0.2,0,0,1024,1024,1024,1024,0,0,0,0,21.8,0,0,94,4.214,4.196,0,0,0,0,4.047,90.32,2.9527888084,2.952756,6,P-GPS,
14000,2022-08-16 04:19:33,0,0,2.952756,,,2.9527888084,2.952756,0,0,0,0,0,8.408,2.9527888084,2.952756,0,0,0,0,0,16.9, 0.6, -0.2,0,0,1024,1024,1024,1024,0,0,0,0,21.8,0,0,94,4.214,4.196,0,0,0,0,4.047,90.32,2.9527888084,2.952756,6,P-GPS,
14100,2022-08-16 04:19:33,0,0,2.952756,,,2.9527888084,2.952756,0,0,0,0,0,8.408,2.9527888084,2.952756,0,0,0,0,0,17, 0.7, 0,0,0,1024,1024,1024,1024,0,0,0,0,21.8,0,0,94,4.214,4.196,0,0,0,0,4.047,90.32,2.9527888084,2.952756,6,P-GPS,
14200,2022-08-16 04:19:33,0,0,2.952756,,,2.9527888084,2.952756,0,0,0,0,0,8.408,2.9527888084,2.952756,0,0,0,0,0,16.9, 0.8, 0,0,0,1024,1024,1024,1024,0,0,0,0,21.8,0,0,94,4.214,4.196,0,0,0,0,4.047,90.32,2.9527888084,2.952756,6,P-GPS,
14300,2022-08-16 04:19:33,0,0,2.952756,,,2.9527888084,2.952756,0,0,0,0,0,8.408,2.9527888084,2.952756,0,0,0,0,0,16.9, 0.7, 0.1,0,0,1024,1024,1024,1024,0,0,0,0,21.8,0,0,94,4.214,4.196,0,0,0,0,4.047,90.32,2.9527888084,2.952756,6,P-GPS,
14400,2022-08-16 04:19:33,0,0,2.952756,,,2.9527888084,2.952756,0,0,0,0,0,8.408,2.9527888084,2.952756,0,0,0,0,0,16.9, 0.7, 0,0,0,1024,1024,1024,1024,0,0,0,0,21.8,0,0,94,4.214,4.196,0,0,0,0,4.047,90.32,2.9527888084,2.952756,6,P-GPS,
14500,2022-08-16 04:19:33,0,0,2.952756,,,2.9527888084,2.952756,0,0,0,0,0,8.408,2.9527888084,2.952756,0,0,0,0,0,16.8, 0.7, 0.1,0,0,1024,1024,1024,1024,0,0,0,0,21.8,0,0,94,4.214,4.196,0,0,0,0,4.047,90.32,2.9527888084,2.952756,6,P-GPS,
14600,2022-08-16 04:19:34,0,0,2.952756,,,2.9527888084,2.952756,0,0,0,0,0,8.405,2.9527888084,2.952756,0,0,0,0,0,16.8, 0.6, -0.2,0,0,1024,1024,1024,1024,0,0,0,0,21.8,0,0,93,4.211,4.194,0,0,0,0,4.041,90.32,2.9527888084,2.952756,6,P-GPS,
14700,2022-08-16 04:19:34,0,0,2.952756,,,2.9527888084,2.952756,0,0,0,0,0,8.405,2.9527888084,2.952756,0,0,0,0,0,16.9, 0.7, -0.2,0,0,1024,1024,1024,1024,0,0,0,0,21.8,0,0,93,4.211,4.194,0,0,0,0,4.041,90.32,2.9527888084,2.952756,6,P-GPS,
14800,2022-08-16 04:19:34,0,0,2.952756,,,2.9527888084,2.952756,0,0,0,0,0,8.405,2.9527888084,2.952756,0,0,0,0,0,16.9, 0.8, -0.2,0,0,1024,1024,1024,1024,0,0,0,0,21.8,0,0,93,4.211,4.194,0,0,0,0,4.041,90.32,2.9527888084,2.952756,6,P-GPS,
14900,2022-08-16 04:19:34,0,0,2.952756,,,2.9527888084,2.952756,0,0,0,0,0,8.405,2.9527888084,2.952756,0,0,0,0,0,16.9, 0.4, 0,0,0,1024,1024,1024,1024,0,0,0,0,21.8,0,0,93,4.211,4.194,0,0,0,0,4.041,90.32,2.9527888084,2.952756,6,P-GPS,
15000,2022-08-16 04:19:34,0,0,2.952756,,,2.9527888084,2.952756,0,0,0,0,0,8.405,2.9527888084,2.952756,0,0,0,0,0,16.9, 0.4, 0,0,0,1024,1024,1024,1024,0,0,0,0,21.8,0,0,93,4.211,4.194,0,0,0,0,4.041,90.32,2.9527888084,2.952756,6,P-GPS,
15100,2022-08-16 04:19:34,0,0,2.952756,,,2.9527888084,2.952756,0,0,0,0,0,8.405,2.9527888084,2.952756,0,0,0,0,0,16.9, 0.7, 0.2,0,0,1024,1024,1024,1024,0,0,0,0,21.8,0,0,93,4.211,4.194,0,0,0,0,4.041,90.32,2.9527888084,2.952756,6,P-GPS,
15200,2022-08-16 04:19:34,0,0,2.952756,,,2.9527888084,2.952756,0,0,0,0,0,8.405,2.9527888084,2.952756,0,0,0,0,0,16.9, 0.7, 0.5,0,0,1024,923,1024,1024,0,-15,0,0,21.8,0,0,93,4.211,4.194,0,0,0,0,4.041,90.32,2.9527888084,2.952756,6,P-GPS,
15300,2022-08-16 04:19:34,0,0,2.952756,,,2.9527888084,2.952756,0,0,0,0,0,8.405,2.9527888084,2.952756,0,0,0,0,0,16.8, 0.7, 0.5,0,0,1024,720,1024,1024,0,-46,0,0,21.8,0,0,93,4.211,4.194,0,0,0,0,4.041,90.32,2.9527888084,2.952756,6,P-GPS,
15400,2022-08-16 04:19:34,0,0,2.952756,,,2.9527888084,2.952756,0,0,0,0,0,8.405,2.9527888084,2.952756,0,0,0,0,0,16.8, 0.6, -0.8,0,0,1024,963,1024,1024,0,-9,0,0,21.8,0,0,93,4.211,4.194,0,0,0,0,4.041,90.32,2.9527888084,2.952756,6,P-GPS,
15500,2022-08-16 04:19:35,0,0,2.952756,,,2.9527888084,2.952756,0,0,0,0,0,8.405,2.9527888084,2.952756,0,0,0,0,0,16.6, 0.7, -5.2,0,0,1024,1024,1024,1024,0,0,0,0,21.8,0,0,93,4.211,4.194,0,0,0,0,4.041,90.32,2.9527888084,2.952756,6,P-GPS,
15600,2022-08-16 04:19:35,0,0,2.952756,,,2.9527888084,2.952756,0.223694,0,0,0,0,8.404,2.9527888084,2.952756,0,0,0,-0.223694,0,16.7, 0.6, -2.9,0,0,1024,1024,1024,1024,0,0,0,0,21.8,0,0,93,4.21,4.191,0,0,0,0,4.056,90.32,2.9527888084,2.952756,6,P-GPS,
15700,2022-08-16 04:19:35,0,0,2.952756,,,2.9527888084,2.952756,0.223694,0,0,0,0,8.404,2.9527888084,2.952756,0,0,0,-0.223694,0,17, 0.3, 1.3,0,0,1024,1024,1024,1024,0,0,0,0,21.8,0,0,93,4.21,4.191,0,0,0,0,4.056,90.32,2.9527888084,2.952756,6,P-GPS,
15800,2022-08-16 04:19:35,0,0,2.952756,,,2.9527888084,2.952756,0.223694,0,0,0,0,8.404,2.9527888084,2.952756,0,0,0,-0.223694,0,16.9, 0.2, 1.8,0,0,1024,1024,1024,1045,0,0,0,3,21.8,0,0,93,4.21,4.191,0,0,0,0,4.056,90.32,2.9527888084,2.952756,6,P-GPS,
15900,2022-08-16 04:19:35,0,0,2.952756,,,2.9527888084,2.952756,0.223694,0,0,0,0,8.404,2.9527888084,2.952756,0,0,0,-0.223694,0,16.8, 0.3, 1.6,0,0,1024,1024,1388,1043,0,0,55,3,21.8,0,0,93,4.21,4.191,0,0,0,0,4.056,90.32,2.9527888084,2.952756,6,P-GPS,
16000,2022-08-16 04:19:35,0,0,2.952756,,,2.9527888084,2.952756,0,0,0,0,0,8.404,2.9527888084,2.952756,0,0,0,0,0,16.7, 0.4, 1.3,0,0,1024,1024,1487,1024,0,0,70,0,21.8,0,0,93,4.21,4.191,0,0,0,0,4.056,90.32,2.9527888084,2.952756,6,P-GPS,
16100,2022-08-16 04:19:35,0,0,3.28084,,,3.2808728084,2.952756,0,0,0,0,0,8.404,3.2808728084,3.28084,0,0,0,0,-0.671082,16.8, 0.3, 1.3,0,0,1024,1024,1265,1024,0,0,37,0,21.8,0,0,93,4.21,4.191,0,0,0,0,4.056,90.32,3.2808728084,3.28084,6,P-GPS,
16200,2022-08-16 04:19:35,0,0,3.28084,,,3.2808728084,3.28084,0,0,0,0,0,8.404,3.2808728084,3.28084,0,0,0,0,-1.565858,16.8, 0.2, 1.1,0,0,1024,1024,1024,1024,0,0,0,0,21.8,0,0,93,4.21,4.191,0,0,0,0,4.056,90.32,3.2808728084,3.28084,6,P-GPS,
16300,2022-08-16 04:19:35,0,0,3.608924,,,3.6089568084,3.608924,0,0,0,0,0,8.404,3.6089568084,3.608924,0,0,0,0,-1.565858,16.7, 0.4, 0.6,0,0,1024,1024,1024,1024,0,0,0,0,21.8,0,0,93,4.21,4.191,0,0,0,0,4.056,90.32,3.6089568084,3.608924,6,P-GPS,
16400,2022-08-16 04:19:35,0,0,3.937008,,,3.9370408084,3.608924,0,0,0,0,0,8.404,3.9370408084,3.937008,0,0,0,0,-1.11847,16.7, 0.6, 0.5,0,0,1024,1024,1024,1024,0,0,0,0,21.8,0,0,93,4.21,4.191,0,0,0,0,4.056,90.32,3.9370408084,3.937008,6,P-GPS,
16500,2022-08-16 04:19:36,0,0,3.937008,,,3.9370408084,3.937008,0,0,0,0,0,8.404,3.9370408084,3.937008,0,0,0,0,-0.671082,16.8, 0.6, 0.4,0,0,1024,1024,1024,1024,0,0,0,0,21.8,0,0,93,4.21,4.191,0,0,0,0,4.056,90.32,3.9370408084,3.937008,6,P-GPS,
16600,2022-08-16 04:19:36,0,0,3.937008,,,3.9370408084,3.937008,0,0,0,0,0,8.404,3.9370408084,3.937008,0,0,0,0,-0.223694,16.8, 0.5, 0.2,0,0,1024,1024,1024,1024,0,0,0,0,21.8,0,0,93,4.185,4.161,0,0,0,0,4.056,90.32,3.9370408084,3.937008,6,P-GPS,
16700,2022-08-16 04:19:36,0,0,3.937008,,,3.9370408084,3.937008,0,0,0,0,0,8.404,3.9370408084,3.937008,0,0,0,0,0,16.8, 0.3, 0.2,0,0,1024,1024,1024,1069,0,0,0,7,21.8,0,0,93,4.185,4.161,0,0,0,0,4.056,90.32,3.9370408084,3.937008,6,P-GPS,
16800,2022-08-16 04:19:36,0,0,3.937008,,,3.9370408084,3.937008,0,0,0,0,0,8.404,3.9370408084,3.937008,0,0,0,0,0,16.8, 0.3, 0.2,0,0,1024,1024,1024,1674,0,0,0,98,21.8,0,0,93,4.185,4.161,0,0,0,0,4.056,90.32,3.9370408084,3.937008,6,P-GPS,
16900,2022-08-16 04:19:36,0,0,3.937008,,,3.9370408084,3.937008,0,0,0,0,0,8.404,3.9370408084,3.937008,0,0,0,0,0,17.1, 0.3, 0.2,0,0,1024,1024,1024,1289,0,0,0,40,23.1,0,0,93,4.185,4.161,0,0,0,0,4.056,90.32,3.9370408084,3.937008,6,P-GPS,
17000,2022-08-16 04:19:36,0,0,3.937008,,,3.9370408084,3.937008,0,0,0,0,0,8.404,3.9370408084,3.937008,0,0,0,0,0,19.5, 0.2, 0.3,0,0,1024,1024,1024,1024,0,0,0,0,26.5,0,0,93,4.185,4.161,0,0,0,0,4.056,90.32,3.9370408084,3.937008,6,P-GPS,
17100,2022-08-16 04:19:36,0,0,3.937008,,,3.9370408084,3.937008,0,0,0,0,0,8.404,3.9370408084,3.937008,0,0,0,0,0,22.2, 0.2, 0.7,0,0,1024,1024,1024,1024,0,0,0,0,28.2,0,0,93,4.185,4.161,0,0,0,0,4.056,90.32,3.9370408084,3.937008,6,P-GPS,
17200,2022-08-16 04:19:36,0,0,3.937008,,,3.9370408084,3.937008,0,0,0,0,0,8.404,3.9370408084,3.937008,0,0,0,0,0,23.4, 0, 0.6,0,0,1024,1024,1024,1522,0,0,0,75,28.9,0,0,93,4.185,4.161,0,0,0,0,4.056,90.32,3.9370408084,3.937008,6,P-GPS,
17300,2022-08-16 04:19:36,0,0,3.937008,,,3.9370408084,3.937008,0,0,0,0,0,8.404,3.9370408084,3.937008,0,0,0,0,0,23.8, 0, 0.5,0,0,1024,1024,1024,1515,0,0,0,74,29.2,0,0,93,4.185,4.161,0,0,0,0,4.056,90.32,3.9370408084,3.937008,6,P-GPS,
17400,2022-08-16 04:19:36,0,0,3.937008,,,3.9370408084,3.937008,0,0,0,0,0,8.404,3.9370408084,3.937008,0,0,0,0,0,24.6, 0, 0.3,0,0,1024,1024,1024,1024,0,0,0,0,31,0,0,93,4.185,4.161,0,0,0,0,4.056,90.32,3.9370408084,3.937008,6,P-GPS,
17500,2022-08-16 04:19:37,0,0,3.937008,,,3.9370408084,3.937008,0,0,0,0,0,8.404,3.9370408084,3.937008,0,0,0,0,0,27.2, 0, 0.1,0,0,1024,1024,1024,1024,0,0,0,0,33.9,0,0,93,4.185,4.161,0,0,0,0,4.056,90.32,3.9370408084,3.937008,6,P-GPS,
17600,2022-08-16 04:19:37,0,0,3.937008,,,3.9370408084,3.937008,0,0,0,0,0,8.397,3.9370408084,3.937008,0,0,0,0,0,29.4, 0.2, 0.3,0,0,1024,1024,1024,1024,0,0,0,0,35.4,0,0,93,4.208,4.189,0,0,0,0,4.403,90.32,3.9370408084,3.937008,6,P-GPS,
17700,2022-08-16 04:19:37,0,0,3.937008,,,3.9370408084,3.937008,0,0,0,0,0,8.397,3.9370408084,3.937008,0,0,0,0,0,30.5, 0.3, 0.3,0,0,1024,1024,1024,1024,0,0,0,0,35.9,0,0,93,4.208,4.189,0,0,0,0,4.403,90.32,3.9370408084,3.937008,6,P-GPS,
17800,2022-08-16 04:19:37,0,0,3.937008,,,3.9370408084,3.937008,0,0,0,0,0,8.397,3.9370408084,3.937008,0,0,0,0,0,30.7, 0.4, 0,0,0,1024,1024,1024,1024,0,0,0,0,35.9,0,0,93,4.208,4.189,0,0,0,0,4.403,90.32,3.9370408084,3.937008,6,P-GPS,
17900,2022-08-16 04:19:37,0,0,3.937008,,,3.9370408084,3.937008,0,0,0,0,0,8.397,3.9370408084,3.937008,0,0,0,0,0,30.8, 0.7, 0,0,0,1024,1024,1024,1024,0,0,0,0,35.9,0,0,93,4.208,4.189,0,0,0,0,4.403,90.32,3.9370408084,3.937008,6,P-GPS,
18000,2022-08-16 04:19:37,0,0,3.937008,,,3.9370408084,3.937008,0,0,0,0,0,8.397,3.9370408084,3.937008,0,0,0,0,0,30.8, 0.6, 0,0,0,1024,1024,1024,1024,0,0,0,0,35.9,0,0,93,4.208,4.189,0,0,0,0,4.403,90.32,3.9370408084,3.937008,6,P-GPS,
18100,2022-08-16 04:19:37,0,0,3.937008,,,3.9370408084,3.937008,0,0,0,0,0,8.397,3.9370408084,3.937008,0,0,0,0,0,30.8, 0.8, 0,0,0,1024,1024,1024,1024,0,0,0,0,35.9,0,0,93,4.208,4.189,0,0,0,0,4.403,90.32,3.9370408084,3.937008,6,P-GPS,
18200,2022-08-16 04:19:37,0,0,4.265092,,,4.2651248084,3.937008,0,0,0,0,0,8.397,4.2651248084,4.265092,0,0,0,0,0,30.9, 0.6, 0,0,0,1024,1024,1024,1024,0,0,0,0,35.9,0,0,93,4.208,4.189,0,0,0,0,4.403,90.32,4.2651248084,4.265092,6,P-GPS,
18300,2022-08-16 04:19:37,0,0,4.265092,,,4.2651248084,3.937008,0,0,0,0,0,8.397,4.2651248084,4.265092,0,0,0,0,0,30.9, 0.5, 0.2,0,0,1024,1024,1024,1024,0,0,0,0,35.9,0,0,93,4.208,4.189,0,0,0,0,4.403,90.32,4.2651248084,4.265092,6,P-GPS,
18400,2022-08-16 04:19:37,0,0,4.265092,,,4.2651248084,3.937008,0,0,0,0,0,8.397,4.2651248084,4.265092,0,0,0,0,0,30.9, 0.4, 0.3,0,0,1024,1024,1024,1024,0,0,0,0,35.9,0,0,93,4.208,4.189,0,0,0,0,4.403,90.32,4.2651248084,4.265092,6,P-GPS,
18500,2022-08-16 04:19:37,0,0,3.937008,,,3.9370408084,3.937008,0,0,0,0,0,8.397,4.2651248084,4.265092,0,0,0,0,0,30.9, 0.2, 0.7,0,0,1024,1024,1024,1024,0,0,0,0,35.9,0,0,93,4.208,4.189,0,0,0,0,4.403,90.32,3.9370408084,3.937008,6,P-GPS,
18600,2022-08-16 04:19:38,0,0,3.937008,,,3.9370408084,3.937008,0,0,0,0,0,8.4,4.2651248084,4.265092,0,0,0,0,0,30.9, 0.1, 0.5,0,0,1024,1024,1024,1024,0,0,0,0,35.9,0,0,93,4.207,4.187,0,0,0,0,3.922,90.32,3.9370408084,3.937008,6,P-GPS,
18700,2022-08-16 04:19:38,0,0,3.937008,,,3.9370408084,3.937008,0,0,0,0,0,8.4,4.2651248084,4.265092,0,0,0,0,0,30.9, 0.2, 0.1,0,0,1024,1024,1024,1024,0,0,0,0,35.9,0,0,93,4.207,4.187,0,0,0,0,3.922,90.32,3.9370408084,3.937008,6,P-GPS,
18800,2022-08-16 04:19:38,0,0,3.937008,,,3.9370408084,3.937008,0,0,0,0,0,8.4,4.2651248084,4.265092,0,0,0,0,0,30.9, 0.3, 0,0,0,1024,1024,1024,1024,0,0,0,0,35.9,0,0,93,4.207,4.187,0,0,0,0,3.922,90.32,3.9370408084,3.937008,6,P-GPS,
18900,2022-08-16 04:19:38,0,0,3.937008,,,3.9370408084,3.937008,0,0,0,0,0,8.4,4.2651248084,4.265092,0,0,0,0,0,30.8, 0.3, -0.1,0,0,1024,1024,1024,1024,0,0,0,0,35.9,0,0,93,4.207,4.187,0,0,0,0,3.922,90.32,3.9370408084,3.937008,6,P-GPS,
19000,2022-08-16 04:19:38,0,0,3.937008,,,3.9370408084,3.937008,0,0,0,0,0,8.4,4.2651248084,4.265092,0,0,0,0,0,30.9, 0.4, -0.2,0,0,1024,1024,1024,1024,0,0,0,0,35.9,0,0,93,4.207,4.187,0,0,0,0,3.922,90.32,3.9370408084,3.937008,6,P-GPS,
19100,2022-08-16 04:19:38,0,0,3.937008,,,3.9370408084,3.937008,0,0,0,0,0,8.4,4.2651248084,4.265092,0,0,0,0,0,30.9, 0.4, 0,0,0,1024,1024,1024,1024,0,0,0,0,35.9,0,0,93,4.207,4.187,0,0,0,0,3.922,90.32,3.9370408084,3.937008,6,P-GPS,
19200,2022-08-16 04:19:38,0,0,3.937008,,,3.9370408084,3.937008,0,0,0,0,0,8.4,4.2651248084,4.265092,0,0,0,0,0,30.9, 0.5, 0,0,0,1024,1024,1024,1024,0,0,0,0,35.9,0,0,93,4.207,4.187,0,0,0,0,3.922,90.32,3.9370408084,3.937008,6,P-GPS,
19300,2022-08-16 04:19:38,0,0,3.937008,,,3.9370408084,3.937008,0,0,0,0,0,8.4,4.2651248084,4.265092,0,0,0,0,0,30.9, 0.4, 0,0,0,1024,1024,1062,1024,0,0,6,0,35.9,0,0,93,4.207,4.187,0,0,0,0,3.922,90.32,3.9370408084,3.937008,6,P-GPS,
19400,2022-08-16 04:19:38,0,0,3.937008,,,3.9370408084,3.937008,0,0,0,0,0,8.4,4.2651248084,4.265092,0,0,0,0,0,30.9, 0.4, 0.1,0,0,1024,1024,1133,1024,0,0,17,0,35.9,0,0,93,4.207,4.187,0,0,0,0,3.922,90.32,3.9370408084,3.937008,6,P-GPS,
19500,2022-08-16 04:19:39,0,0,3.937008,,,3.9370408084,3.937008,0,0,0,0,0,8.4,4.2651248084,4.265092,0,0,0,0,0,30.9, 0.4, 0.2,0,0,1024,1024,1134,1024,0,0,17,0,35.9,0,0,93,4.207,4.187,0,0,0,0,3.922,90.32,3.9370408084,3.937008,6,P-GPS,
19600,2022-08-16 04:19:39,0,0,3.937008,,,3.9370408084,3.937008,0,0,0,0,0,8.391,4.2651248084,4.265092,0,0,0,0,0,30.9, 0.3, 0.1,0,0,1024,1024,1144,1024,0,0,18,0,35.9,0,0,93,4.205,4.185,0,0,0,0,4.093,90.5,3.9370408084,3.937008,6,P-GPS,
19700,2022-08-16 04:19:39,0,0,3.937008,,,3.9370408084,3.937008,0,0,0,0,0,8.391,4.2651248084,4.265092,0,0,0,0,-0.223694,30.9, 0.4, 0.1,0,0,1024,1024,1144,1024,0,0,18,0,35.9,0,0,93,4.205,4.185,0,0,0,0,4.093,90.5,3.9370408084,3.937008,6,P-GPS,
19800,2022-08-16 04:19:39,0,0,3.937008,,,3.9370408084,4.265092,0,0,0,0,0,8.391,4.2651248084,4.265092,0,0,0,0,-0.223694,30.9, 0.5, 0,0,0,1024,1024,1138,1024,0,0,17,0,35.9,0,0,93,4.205,4.185,0,0,0,0,4.093,90.5,3.9370408084,3.937008,6,P-GPS,
19900,2022-08-16 04:19:39,0,0,4.265092,,,4.2651248084,4.265092,0,0,0,0,0,8.391,4.2651248084,4.265092,0,0,0,0,-0.223694,30.9, 0.3, 0,0,0,1024,1024,1094,1024,0,0,11,0,35.9,0,0,93,4.205,4.185,0,0,0,0,4.093,90.5,4.2651248084,4.265092,6,P-GPS,
20000,2022-08-16 04:19:39,0,0,4.265092,,,4.2651248084,4.265092,0,0,0,0,0,8.391,4.2651248084,4.265092,0,0,0,0,-0.223694,30.9, 0.2, 0.2,0,0,1024,1024,1024,1024,0,0,0,0,35.9,0,0,93,4.205,4.185,0,0,0,0,4.093,90.5,4.2651248084,4.265092,6,P-GPS,
20100,2022-08-16 04:19:39,0,0,4.265092,,,4.2651248084,4.265092,0,0,0,0,0,8.391,4.2651248084,4.265092,0,0,0,0,-0.223694,30.9, 0.2, 0.2,0,0,1024,1024,1024,1024,0,0,0,0,35.9,0,0,93,4.205,4.185,0,0,0,0,4.093,90.5,4.2651248084,4.265092,6,P-GPS,
20200,2022-08-16 04:19:39,0,0,4.265092,,,4.2651248084,4.265092,0,0,0,0,0,8.391,4.2651248084,4.265092,0,0,0,0,0,30.9, 0.1, 0.1,0,0,1024,1024,1024,1024,0,0,0,0,35.9,0,0,93,4.205,4.185,0,0,0,0,4.093,90.5,4.2651248084,4.265092,6,P-GPS,
20300,2022-08-16 04:19:39,0,0,4.265092,,,4.2651248084,4.265092,0,0,0,0,0,8.391,4.2651248084,4.265092,0,0,0,0,0,30.8, 0.2, 0.1,0,0,1024,1024,1024,1024,0,0,0,0,35.9,0,0,93,4.205,4.185,0,0,0,0,4.093,90.5,4.2651248084,4.265092,6,P-GPS,
20400,2022-08-16 04:19:39,0,0,4.265092,,,4.2651248084,4.265092,0,0,0,0,0,8.391,4.2651248084,4.265092,0,0,0,0,0,30.8, 0.3, 0,0,0,1068,1024,1024,1024,7,0,0,0,35.9,0,0,93,4.205,4.185,0,0,0,0,4.093,90.5,4.2651248084,4.265092,6,P-GPS,
20500,2022-08-16 04:19:40,0,0,4.265092,,,4.2651248084,4.265092,0,0,0,0,0,8.391,4.2651248084,4.265092,0,0,0,0,0,30.8, 0.4, 0.1,0,0,1118,1024,1024,1024,14,0,0,0,35.9,0,0,93,4.205,4.185,0,0,0,0,4.093,90.5,4.2651248084,4.265092,6,P-GPS,
20600,2022-08-16 04:19:40,0,0,4.265092,,,4.2651248084,4.265092,0,0,0,0,0,8.39,4.2651248084,4.265092,0,0,0,0,0,30.9, 0, 0.1,0,0,1118,1024,1024,1024,14,0,0,0,35.9,0,0,93,4.204,4.185,0,0,0,0,4.053,90.5,4.2651248084,4.265092,6,P-GPS,
20700,2022-08-16 04:19:40,0,0,4.265092,,,4.2651248084,4.265092,0,0,0,0,0,8.39,4.2651248084,4.265092,0,0,0,0,0,30.8, -0.5, 0.1,0,0,1118,1024,1024,1024,14,0,0,0,35.9,0,0,93,4.204,4.185,0,0,0,0,4.053,90.5,4.2651248084,4.265092,6,P-GPS,
20800,2022-08-16 04:19:40,0,0,4.265092,,,4.2651248084,4.265092,0,0,0,0,0,8.39,4.2651248084,4.265092,0,0,0,0,0,30.9, -0.9, 0,0,0,1129,1024,1024,1024,16,0,0,0,35.9,0,0,93,4.204,4.185,0,0,0,0,4.053,90.5,4.2651248084,4.265092,6,P-GPS,
20900,2022-08-16 04:19:40,0,0,4.265092,,,4.2651248084,4.265092,0,0,0,0,0,8.39,4.2651248084,4.265092,0,0,0,0,0,30.9, -0.9, 0.1,0,0,1158,1024,1024,1024,20,0,0,0,35.9,0,0,93,4.204,4.185,0,0,0,0,4.053,90.5,4.2651248084,4.265092,6,P-GPS,
21000,2022-08-16 04:19:40,0,0,4.265092,,,4.2651248084,4.265092,0,0,0,0,0,8.39,4.2651248084,4.265092,0,0,0,0,0,31, -1.2, 0.2,0,0,1197,1024,1024,1024,26,0,0,0,35.9,0,0,93,4.204,4.185,0,0,0,0,4.053,90.5,4.2651248084,4.265092,6,P-GPS,
21100,2022-08-16 04:19:40,0,0,4.265092,,,4.2651248084,4.265092,0,0,0,0,0,8.39,4.2651248084,4.265092,0,0,0,0,0,31, -1.7, 0.2,0,0,1209,1024,1024,1024,28,0,0,0,35.9,0,0,93,4.204,4.185,0,0,0,0,4.053,90.5,4.2651248084,4.265092,6,P-GPS,
21200,2022-08-16 04:19:40,0,0,4.265092,,,4.2651248084,4.265092,0.223694,0,0,0,0,8.39,4.2651248084,4.265092,0,0,0.223694,0,0,31, -2.4, 0.2,0,0,1209,1024,1024,1024,28,0,0,0,35.9,0,0,93,4.204,4.185,0,0,0,0,4.053,90.5,4.2651248084,4.265092,6,P-GPS,
21300,2022-08-16 04:19:40,0,0,4.265092,,,4.2651248084,4.265092,0.223694,0,0,0,0,8.39,4.2651248084,4.265092,0,0,0.223694,0,0,31, -2.8, 0.2,0,0,1214,1024,1024,1024,29,0,0,0,35.9,0,0,93,4.204,4.185,0,0,0,0,4.053,90.5,4.2651248084,4.265092,6,P-GPS,
21400,2022-08-16 04:19:40,0,0,4.265092,,,4.2651248084,4.265092,0.223694,0,0,0,0,8.39,4.2651248084,4.265092,0,0,0.223694,0,0,31, -2.9, 0.1,0,0,1218,1024,1024,1024,29,0,0,0,35.9,0,0,93,4.204,4.185,0,0,0,0,4.053,90.5,4.2651248084,4.265092,6,P-GPS,
21500,2022-08-16 04:19:41,0,0,4.265092,,,4.2651248084,4.265092,0.4921268,0,0,0,0,8.39,4.2651248084,4.265092,0,0,0.447388,0.223694,0,31, -3, 0.3,0,0,1218,1024,1024,1024,29,0,0,0,35.9,0,0,93,4.204,4.185,0,0,0,0,4.053,90.5,4.2651248084,4.265092,6,P-GPS,
21600,2022-08-16 04:19:41,0,0,4.265092,,,4.2651248084,4.265092,0.4921268,0,0,0,0,8.384,4.2651248084,4.265092,0,0,0.447388,0.223694,0,31, -3.2, 0.6,0,0,1218,1024,1024,1024,29,0,0,0,35.9,0,0,93,4.202,4.182,0,0,0,0,4.124,90.5,4.2651248084,4.265092,6,P-GPS,
21700,2022-08-16 04:19:41,0,0,4.265092,,,4.2651248084,4.265092,0.7158208,0,0,0,0,8.384,4.2651248084,4.265092,0,0,0.671082,0.223694,0,31, -3.1, 0.6,0,0,1218,1024,1024,1024,29,0,0,0,35.9,0,0,93,4.202,4.182,0,0,0,0,4.124,90.5,4.2651248084,4.265092,6,P-GPS,
21800,2022-08-16 04:19:41,0,0,4.265092,,,4.2651248084,4.265092,0.8052984,0,0,0,0,8.384,4.2651248084,4.265092,0,0,0.671082,0.447388,0,31, -3, 0.6,0,0,1218,1024,1024,1024,29,0,0,0,35.9,0,0,93,4.202,4.182,0,0,0,0,4.124,90.5,4.2651248084,4.265092,6,P-GPS,
21900,2022-08-16 04:19:41,0,0,4.265092,,,4.2651248084,4.265092,0.8052984,0,0,0,0,8.384,4.2651248084,4.265092,0,0,0.894776,0.447388,0,30.9, -2.7, 0.5,0,0,1215,1024,1024,1024,29,0,0,0,35.9,0,0,93,4.202,4.182,0,0,0,0,4.124,90.5,4.2651248084,4.265092,6,P-GPS,
22000,2022-08-16 04:19:41,0,0,4.265092,,,4.2651248084,4.265092,1.006623,0,0,0,0,8.384,4.2651248084,4.265092,0,0,0.894776,0.447388,0,31, -2.5, 0.3,0,0,1213,1024,1024,1024,29,0,0,0,35.9,0,0,93,4.202,4.182,0,0,0,0,4.124,90.5,4.2651248084,4.265092,6,P-GPS,
22100,2022-08-16 04:19:41,0,0,4.265092,,,4.2651248084,4.265092,1.006623,0,0,0,0,8.384,4.2651248084,4.265092,0,0,0.894776,0.447388,0,31, -2.4, 0.2,0,0,1208,1024,1024,1024,28,0,0,0,35.9,0,0,93,4.202,4.182,0,0,0,0,4.124,90.5,4.2651248084,4.265092,6,P-GPS,
22200,2022-08-16 04:19:41,0,0,4.265092,,,4.2651248084,4.265092,1.2974252,0,0,0,0,8.384,4.2651248084,4.265092,0,0,1.11847,0.671082,0,31, -2.3, 0,0,0,1196,1024,1024,1024,26,0,0,0,35.9,0,0,93,4.202,4.182,0,0,0,0,4.124,90.5,4.2651248084,4.265092,6,P-GPS,
22300,2022-08-16 04:19:41,0,0,4.265092,,,4.2651248084,4.265092,1.2974252,0,0,0,0,8.384,4.2651248084,4.265092,0,0,1.11847,0.671082,0,31, -2.3, -0.1,0,0,1097,1024,1024,1024,11,0,0,0,35.9,0,0,93,4.202,4.182,0,0,0,0,4.124,90.5,4.2651248084,4.265092,6,P-GPS,
22400,2022-08-16 04:19:41,0,0,4.265092,,,4.2651248084,4.265092,1.2974252,0,0,0,0,8.384,4.2651248084,4.265092,0,0,1.11847,0.671082,0,31, -1.9, 0,0,0,1097,1024,1024,1024,11,0,0,0,35.9,0,0,93,4.202,4.182,0,0,0,0,4.124,90.5,4.2651248084,4.265092,6,P-GPS,
22500,2022-08-16 04:19:41,0,0,4.265092,,,4.2651248084,4.265092,1.2974252,0,0,0,0,8.384,4.2651248084,4.265092,0,0,1.11847,0.671082,0,31, -1, 0.3,0,0,1030,1024,1024,1024,1,0,0,0,35.9,0,0,93,4.202,4.182,0,0,0,0,4.124,90.5,4.2651248084,4.265092,6,P-GPS,
22600,2022-08-16 04:19:42,0,0,4.265092,,,4.2651248084,4.265092,1.2974252,0,0,0,0,8.384,4.2651248084,4.265092,0,0,1.11847,0.671082,0,31.1, 0.9, 0.4,0,0,1024,1024,1024,1024,0,0,0,0,35.9,0,0,93,4.201,4.181,0,0,0,0,4.076,90.68,4.2651248084,4.265092,6,P-GPS,
22700,2022-08-16 04:19:42,0,0,4.265092,,,4.2651248084,4.265092,1.2974252,0,0,0,0,8.384,4.2651248084,4.265092,0,0,1.11847,0.671082,0,31.1, 5.4, 0.5,0,0,1024,1024,1024,1024,0,0,0,0,35.9,0,0,93,4.201,4.181,0,0,0,0,4.076,90.68,4.2651248084,4.265092,6,P-GPS,
22800,2022-08-16 04:19:42,0,0,4.265092,,,4.2651248084,4.265092,1.006623,0,0,0,0,8.384,4.2651248084,4.265092,0,0,0.894776,0.447388,0,31.1, 6.3, 0.4,0,0,1024,1024,1024,1024,0,0,0,0,35.9,0,0,93,4.201,4.181,0,0,0,0,4.076,90.68,4.2651248084,4.265092,6,P-GPS,
22900,2022-08-16 04:19:42,0,0,4.265092,,,4.2651248084,4.265092,0.8052984,0,0,0,0,8.384,4.2651248084,4.265092,0,0,0.671082,0.447388,0,31, 5.7, 0.2,0,0,1024,1024,1024,1024,0,0,0,0,35.9,0,0,93,4.201,4.181,0,0,0,0,4.076,90.68,4.2651248084,4.265092,6,P-GPS,
23000,2022-08-16 04:19:42,0,0,4.265092,,,4.2651248084,4.265092,0.4921268,0,0,0,0,8.384,4.2651248084,4.265092,0,0,0.447388,0.223694,0,31, 4.8, 0,0,0,1024,1024,1024,1024,0,0,0,0,35.9,0,0,93,4.201,4.181,0,0,0,0,4.076,90.68,4.2651248084,4.265092,6,P-GPS,
23100,2022-08-16 04:19:42,0,0,4.265092,,,4.2651248084,4.265092,0.4921268,0,0,0,0,8.384,4.2651248084,4.265092,0,0,0.447388,0.223694,0,31, 3.9, 0,0,0,1024,1024,1024,1024,0,0,0,0,35.9,0,0,93,4.201,4.181,0,0,0,0,4.076,90.68,4.2651248084,4.265092,6,P-GPS,
23200,2022-08-16 04:19:42,0,0,4.265092,,,4.2651248084,4.265092,0.223694,0,0,0,0,8.384,4.2651248084,4.265092,0,0,0.223694,0,0,31, 3.1, 0,0,0,1024,1024,1024,1024,0,0,0,0,35.9,0,0,93,4.201,4.181,0,0,0,0,4.076,90.68,4.2651248084,4.265092,6,P-GPS,
23300,2022-08-16 04:19:42,0,0,4.265092,,,4.2651248084,4.265092,0.223694,0,0,0,0,8.384,4.2651248084,4.265092,0,0,0.223694,0,0,30.9, 2.6, -0.2,0,0,1024,1024,1024,1024,0,0,0,0,35.9,0,0,93,4.201,4.181,0,0,0,0,4.076,90.68,4.2651248084,4.265092,6,P-GPS,
23400,2022-08-16 04:19:42,0,0,4.265092,,,4.2651248084,4.265092,0.223694,0,0,0,0,8.384,4.2651248084,4.265092,0,0,0.223694,0,0,30.9, 2.1, -0.2,0,0,1024,1024,1024,1024,0,0,0,0,35.9,0,0,93,4.201,4.181,0,0,0,0,4.076,90.68,4.2651248084,4.265092,6,P-GPS,
23500,2022-08-16 04:19:43,0,0,4.265092,,,4.2651248084,4.265092,0,0,0,0,0,8.384,4.2651248084,4.265092,0,0,0,0,0,30.8, 1.4, 0,0,0,1024,1024,1024,1024,0,0,0,0,35.9,0,0,93,4.201,4.181,0,0,0,0,4.076,90.68,4.2651248084,4.265092,6,P-GPS,
23600,2022-08-16 04:19:43,0,0,4.265092,,,4.2651248084,4.265092,0,0,0,0,0,8.382,4.2651248084,4.265092,0,0,0,0,0,30.8, 1.4, 0.1,0,0,1024,1024,1024,1024,0,0,0,0,35.9,0,0,93,4.197,4.178,0,0,0,0,4.094,90.68,4.2651248084,4.265092,6,P-GPS,
23700,2022-08-16 04:19:43,0,0,4.265092,,,4.2651248084,4.265092,0,0,0,0,0,8.382,4.2651248084,4.265092,0,0,0,0,0,30.9, 1.4, 0.5,0,0,1035,1024,1024,1024,2,0,0,0,35.9,0,0,93,4.197,4.178,0,0,0,0,4.094,90.68,4.2651248084,4.265092,6,P-GPS,
23800,2022-08-16 04:19:43,0,0,4.265092,,,4.2651248084,4.265092,0,0,0,0,0,8.382,4.2651248084,4.265092,0,0,0,0,0,30.8, 1.5, 0.6,0,0,1126,1024,1024,1024,15,0,0,0,35.9,0,0,93,4.197,4.178,0,0,0,0,4.094,90.68,4.2651248084,4.265092,6,P-GPS,
23900,2022-08-16 04:19:43,0,0,4.265092,,,4.2651248084,4.265092,0,0,0,0,0,8.382,4.2651248084,4.265092,0,0,0,0,0,30.8, 0.8, 0.7,0,0,1152,1024,1024,1024,19,0,0,0,35.9,0,0,93,4.197,4.178,0,0,0,0,4.094,90.68,4.2651248084,4.265092,6,P-GPS,
24000,2022-08-16 04:19:43,0,0,4.265092,,,4.2651248084,4.265092,0,0,0,0,0,8.382,4.2651248084,4.265092,0,0,0,0,0,30.8, -0.4, 0.7,0,0,1151,1024,1024,1024,19,0,0,0,35.9,0,0,93,4.197,4.178,0,0,0,0,4.094,90.68,4.2651248084,4.265092,6,P-GPS,
24100,2022-08-16 04:19:43,0,0,4.265092,,,4.2651248084,4.265092,0,0,0,0,0,8.382,4.2651248084,4.265092,0,0,0,0,0,30.8, -0.9, 0.6,0,0,1151,1024,1024,1024,19,0,0,0,35.9,0,0,93,4.197,4.178,0,0,0,0,4.094,90.68,4.2651248084,4.265092,6,P-GPS,
24200,2022-08-16 04:19:43,0,0,4.265092,,,4.2651248084,4.265092,0,0,0,0,0,8.382,4.2651248084,4.265092,0,0,0,0,0,30.9, -1.1, 0.6,0,0,1143,1024,1024,1024,18,0,0,0,35.9,0,0,93,4.197,4.178,0,0,0,0,4.094,90.68,4.2651248084,4.265092,6,P-GPS,
24300,2022-08-16 04:19:43,0,0,4.265092,,,4.2651248084,4.265092,0.223694,0,0,0,0,8.382,4.2651248084,4.265092,0,0,0.223694,0,0,30.9, -1, 0.8,0,0,1050,1024,1024,1024,4,0,0,0,35.9,0,0,93,4.197,4.178,0,0,0,0,4.094,90.68,4.2651248084,4.265092,6,P-GPS,
24400,2022-08-16 04:19:43,0,0,4.265092,,,4.2651248084,4.265092,0.223694,0,0,0,0,8.382,4.2651248084,4.265092,0,0,0.223694,0,0,30.8, -0.7, 0.8,0,0,1050,1024,1024,1024,4,0,0,0,35.9,0,0,93,4.197,4.178,0,0,0,0,4.094,90.68,4.2651248084,4.265092,6,P-GPS,
24500,2022-08-16 04:19:44,0,0,4.265092,,,4.2651248084,4.265092,0.223694,0,0,0,0,8.382,4.2651248084,4.265092,0,0,0.223694,0,0,30.9, 0.1, 0.7,0,0,1024,1024,1024,1024,0,0,0,0,35.9,0,0,93,4.197,4.178,0,0,0,0,4.094,90.68,4.2651248084,4.265092,6,P-GPS,
24600,2022-08-16 04:19:44,0,0,4.265092,,,4.2651248084,4.265092,0.223694,0,0,0,0,8.382,4.2651248084,4.265092,0,0,0.223694,0,0,30.9, 1.9, 0.5,0,0,1024,1024,1024,1024,0,0,0,0,35.9,0,0,93,4.197,4.178,0,0,0,0,4.094,90.68,4.2651248084,4.265092,6,P-GPS,
24700,2022-08-16 04:19:44,0,0,4.265092,,,4.2651248084,4.265092,0,0,0,0,0,8.382,4.2651248084,4.265092,0,0,0,0,0,30.9, 2, 0.4,0,0,1024,1024,1024,1024,0,0,0,0,35.9,0,0,93,4.197,4.178,0,0,0,0,4.094,90.68,4.2651248084,4.265092,6,P-GPS,
24800,2022-08-16 04:19:44,0,0,4.265092,,,4.2651248084,4.265092,0,0,0,0,0,8.377,4.2651248084,4.265092,0,0,0,0,0,30.9, 1.6, 0.2,0,0,1024,1024,1024,870,0,0,0,-23,35.9,0,0,93,4.199,4.178,0,0,0,0,4.13,90.86,4.2651248084,4.265092,6,P-GPS,
