time(millisecond),datetime(utc),latitude,longitude,height_above_takeoff(feet),height_above_ground_at_drone_location(feet),ground_elevation_at_drone_location(feet),altitude_above_seaLevel(feet),height_sonar(feet),speed(mph),distance(feet),mileage(feet),satellites,gpslevel,voltage(v),max_altitude(feet),max_ascent(feet),max_speed(mph),max_distance(feet), xSpeed(mph), ySpeed(mph), zSpeed(mph), compass_heading(degrees), pitch(degrees), roll(degrees),isPhoto,isVideo,rc_elevator,rc_aileron,rc_throttle,rc_rudder,rc_elevator(percent),rc_aileron(percent),rc_throttle(percent),rc_rudder(percent),gimbal_heading(degrees),gimbal_pitch(degrees),gimbal_roll(degrees),battery_percent,voltageCell1,voltageCell2,voltageCell3,voltageCell4,voltageCell5,voltageCell6,current(A),battery_temperature(f),altitude(feet),ascent(feet),flycStateRaw,flycState,message
0,2022-08-17 13:29:32,0,0,0,,,3.28084E-5,0.328084,0,0,0,0,0,0,3.28084E-5,0,0,0,0,0,0,30, 3.4, -0.3,0,0,364,364,364,1684,-100,-100,-100,100,30,-8.1,0,96,4.265,4.26,0,0,0,0,0,69.44,3.28084E-5,0,41,Motors_Started,"Vuela con cuidado (sin GPS) Sin señal GPS. La aeronave no puede hacer vuelo estacionario. Vuela con cuidado (Code: 30008). Señal débil del GPS. Vuelo estacionario inestable. Vuela con cuidado (Code: 30002)"
100,2022-08-17 13:29:32,0,0,0,,,3.28084E-5,0.328084,0,0,0,0,0,0,3.28084E-5,0,0,0,0,0,0,29.9, 3.4, -0.3,0,0,364,364,364,1684,-100,-100,-100,100,30,-8,0,96,4.265,4.26,0,0,0,0,0,69.44,3.28084E-5,0,41,Motors_Started,
200,2022-08-17 13:29:33,0,0,0,,,3.28084E-5,0.328084,0,0,0,0,0,0,3.28084E-5,0,0,0,0,0,0,29.9, 3.4, -0.3,0,0,364,364,364,1684,-100,-100,-100,100,30,-8,0,96,4.265,4.26,0,0,0,0,0,69.44,3.28084E-5,0,41,Motors_Started,"Setting new Return-To-Home altitude to 15m (49 ft). Data Recorder File Index is 79. Setting new Maximum Flight Altitude to 30m (98 ft)"
300,2022-08-17 13:29:33,0,0,0,,,3.28084E-5,0.328084,0,0,0,0,0,0,3.28084E-5,0,0,0,0,0,0,29.9, 3.4, -0.3,0,0,1024,1024,1024,1024,0,0,0,0,30,-8,0,96,4.265,4.26,0,0,0,0,0,69.44,3.28084E-5,0,41,Motors_Started,
400,2022-08-17 13:29:33,0,0,0,,,3.28084E-5,0.328084,0,0,0,0,0,0,3.28084E-5,0,0,0,0,0,0,29.9, 3.4, -0.3,0,0,1024,1024,1024,1024,0,0,0,0,30,-8,0,96,4.265,4.26,0,0,0,0,0,69.44,3.28084E-5,0,41,Motors_Started,
500,2022-08-17 13:29:33,0,0,0,,,3.28084E-5,0.328084,0,0,0,0,0,0,3.28084E-5,0,0,0,0,0,0,29.9, 3.4, -0.3,0,0,1024,1024,1024,1024,0,0,0,0,30,-8.1,0,96,4.265,4.26,0,0,0,0,0,69.44,3.28084E-5,0,41,Motors_Started,
600,2022-08-17 13:29:33,0,0,0,,,3.28084E-5,0.328084,0,0,0,0,0,0,3.28084E-5,0,0,0,0,0,0,29.9, 3.4, -0.3,0,0,1024,1024,1024,1024,0,0,0,0,30,-8,0,96,4.265,4.26,0,0,0,0,0,69.44,3.28084E-5,0,41,Motors_Started,
700,2022-08-17 13:29:33,0,0,0,,,3.28084E-5,0.328084,0,0,0,0,0,0,3.28084E-5,0,0,0,0,0,0,29.9, 3.4, -0.3,0,0,1024,1024,1024,1024,0,0,0,0,30,-8,0,96,4.265,4.26,0,0,0,0,0,69.44,3.28084E-5,0,41,Motors_Started,
800,2022-08-17 13:29:33,0,0,0,,,3.28084E-5,0.328084,0,0,0,0,0,0,3.28084E-5,0,0,0,0,0,0,29.9, 3.4, -0.3,0,0,1024,1024,1024,1024,0,0,0,0,30,-8.1,0,96,4.265,4.26,0,0,0,0,0,69.44,3.28084E-5,0,41,Motors_Started,
900,2022-08-17 13:29:33,0,0,0,,,3.28084E-5,0.328084,0,0,0,0,0,0,3.28084E-5,0,0,0,0,0,0,29.9, 3.4, -0.3,0,0,1024,1024,1024,1024,0,0,0,0,30,-8,0,96,4.265,4.26,0,0,0,0,0,69.44,3.28084E-5,0,41,Motors_Started,
1000,2022-08-17 13:29:33,0,0,0,,,3.28084E-5,0.328084,0,0,0,0,0,0,3.28084E-5,0,0,0,0,0,0,29.9, 3.4, -0.3,0,0,1024,1024,1024,1024,0,0,0,0,30,-8.1,0,96,4.265,4.26,0,0,0,0,0,69.44,3.28084E-5,0,41,Motors_Started,
1100,2022-08-17 13:29:33,0,0,0,,,3.28084E-5,0.328084,0,0,0,0,0,0,3.28084E-5,0,0,0,0,0,0,29.9, 3.4, -0.3,0,0,1024,1024,1111,1024,0,0,13,0,30,-8.1,0,96,4.265,4.26,0,0,0,0,0,69.44,3.28084E-5,0,10,Assisted_Takeoff,
1200,2022-08-17 13:29:34,0,0,0,,,3.28084E-5,0.328084,0,0,0,0,0,0,3.28084E-5,0,0,0,0,0,0,30, 3.4, -0.3,0,0,1024,1024,1530,1024,0,0,77,0,30,-8,0,96,4.265,4.26,0,0,0,0,0,69.44,3.28084E-5,0,10,Assisted_Takeoff,
1300,2022-08-17 13:29:34,0,0,0,,,3.28084E-5,0.328084,0,0,0,0,0,0,3.28084E-5,0,0,0,0,0,0,30, 3.3, -0.3,0,0,1024,1024,1604,1024,0,0,88,0,30,-8.1,0,96,4.265,4.26,0,0,0,0,0,69.44,3.28084E-5,0,10,Assisted_Takeoff,
1400,2022-08-17 13:29:34,0,0,0,,,3.28084E-5,0.328084,0,0,0,0,0,0,3.28084E-5,0,0,0,0,0,0,30, 3.3, -0.3,0,0,1024,1024,1247,1024,0,0,34,0,30,-8.1,0,96,4.265,4.26,0,0,0,0,0,69.44,3.28084E-5,0,10,Assisted_Takeoff,
1500,2022-08-17 13:29:34,0,0,0,,,3.28084E-5,0.328084,0,0,0,0,0,0,3.28084E-5,0,0,0,0,0,0,30, 3.4, -0.3,0,0,1024,1024,1218,1024,0,0,29,0,30,-8,0,96,4.265,4.26,0,0,0,0,0,69.44,3.28084E-5,0,10,Assisted_Takeoff,
1600,2022-08-17 13:29:34,0,0,0,,,3.28084E-5,0.328084,0,0,0,0,0,8.53,3.28084E-5,0,0,0,0,0,0,30.1, 2.8, -0.3,0,0,1024,1024,1678,1024,0,0,99,0,30,-8,0,96,4.265,4.26,0,0,0,0,1.385,69.44,3.28084E-5,0,10,Assisted_Takeoff,
1700,2022-08-17 13:29:34,0,0,0,,,3.28084E-5,0.328084,0,0,0,0,0,8.53,3.28084E-5,0,0,0,0,0,0,30.7, -0.5, 0,0,0,1024,1024,1641,1024,0,0,93,0,30.2,-8,0,96,4.265,4.26,0,0,0,0,1.385,69.44,3.28084E-5,0,10,Assisted_Takeoff,
1800,2022-08-17 13:29:34,0,0,0,,,3.28084E-5,0.328084,0,0,0,0,0,8.53,3.28084E-5,0,0,0,0,0,-0.223694,31.6, -1.7, -0.2,0,0,1024,1024,1024,1024,0,0,0,0,30.9,-8.1,0,96,4.265,4.26,0,0,0,0,1.385,69.44,3.28084E-5,0,10,Assisted_Takeoff,"Señal débil del GPS. Vuelo estacionario inestable. Vuela con cuidado (Code: 30002)"
1900,2022-08-17 13:29:34,0,0,0,,,3.28084E-5,0.328084,0,0,0,0,0,8.53,3.28084E-5,0,0,0,0,0,-0.671082,31.4, -0.9, 0.4,0,0,1024,1024,1024,1024,0,0,0,0,31,-8.1,0,96,4.265,4.26,0,0,0,0,1.385,69.44,3.28084E-5,0,6,P-GPS,
2000,2022-08-17 13:29:34,0,0,0,,,3.28084E-5,0.656168,0,0,0,0,0,8.53,3.28084E-5,0,0,0,0,0,-0.671082,31.4, 0, 0,0,0,1024,1024,1024,1024,0,0,0,0,31,-8.1,0,96,4.265,4.26,0,0,0,0,1.385,69.44,3.28084E-5,0,6,P-GPS,
2100,2022-08-17 13:29:35,0,0,0.328084,,,0.3281168084,0.656168,0,0,0,0,0,8.53,0.3281168084,0.328084,0,0,0,0,-0.671082,31.2, 0, 0,0,0,1024,1024,1024,1024,0,0,0,0,31,-8,0,96,4.265,4.26,0,0,0,0,1.385,69.44,0.3281168084,0.328084,6,P-GPS,
2200,2022-08-17 13:29:35,0,0,0.328084,,,0.3281168084,0.656168,0,0,0,0,0,8.53,0.3281168084,0.328084,0,0,0,0,-0.894776,31.1, 0, 0.2,0,0,1024,1024,1024,1024,0,0,0,0,31,-8.1,0,96,4.265,4.26,0,0,0,0,1.385,69.44,0.3281168084,0.328084,6,P-GPS,
2300,2022-08-17 13:29:35,0,0,0.328084,,,0.3281168084,0.984252,0,0,0,0,0,8.53,0.3281168084,0.328084,0,0,0,0,-0.894776,31.1, 0.2, 0.3,0,0,1024,1024,1024,1024,0,0,0,0,31,-8.1,0,96,4.265,4.26,0,0,0,0,1.385,69.44,0.3281168084,0.328084,6,P-GPS,
2400,2022-08-17 13:29:35,0,0,0.656168,,,0.6562008084,0.984252,0,0,0,0,0,8.53,0.6562008084,0.656168,0,0,0,0,-0.894776,31.1, 0.2, 0.2,0,0,1024,1024,1024,1024,0,0,0,0,31,-8,0,96,4.265,4.26,0,0,0,0,1.385,69.44,0.6562008084,0.656168,6,P-GPS,
2500,2022-08-17 13:29:35,0,0,0.656168,,,0.6562008084,0.984252,0,0,0,0,0,8.53,0.6562008084,0.656168,0,0,0,0,-0.894776,31.1, 0, 0.3,0,0,1024,1024,1024,1024,0,0,0,0,31,-8,0,96,4.265,4.26,0,0,0,0,1.385,69.44,0.6562008084,0.656168,6,P-GPS,
2600,2022-08-17 13:29:35,0,0,0.984252,,,0.9842848084,1.312336,0,0,0,0,0,8.393,0.9842848084,0.984252,0,0,0,0,-0.894776,31.1, 0, 0.3,0,0,1024,1024,1024,1024,0,0,0,0,31,-8.1,0,96,4.175,4.17,0,0,0,0,2.635,69.44,0.9842848084,0.984252,6,P-GPS,
2700,2022-08-17 13:29:35,0,0,0.984252,,,0.9842848084,1.312336,0,0,0,0,0,8.393,0.9842848084,0.984252,0,0,0,0,-0.671082,31, 0.1, 0.2,0,0,1024,1024,1024,1024,0,0,0,0,31,-8.1,0,96,4.175,4.17,0,0,0,0,2.635,69.44,0.9842848084,0.984252,6,P-GPS,
2800,2022-08-17 13:29:35,0,0,0.984252,,,0.9842848084,1.312336,0,0,0,0,0,8.393,0.9842848084,0.984252,0,0,0,0,-0.671082,31, 0.1, 0.1,0,0,1024,1024,1024,1024,0,0,0,0,31,-8,0,96,4.175,4.17,0,0,0,0,2.635,69.44,0.9842848084,0.984252,6,P-GPS,
2900,2022-08-17 13:29:35,0,0,1.312336,,,1.3123688084,1.64042,0,0,0,0,0,8.393,1.3123688084,1.312336,0,0,0,0,-0.447388,31, 0.2, 0.2,0,0,1024,1024,1024,1024,0,0,0,0,31,-8,0,96,4.175,4.17,0,0,0,0,2.635,69.44,1.3123688084,1.312336,6,P-GPS,
3000,2022-08-17 13:29:35,0,0,1.312336,,,1.3123688084,1.64042,0,0,0,0,0,8.393,1.3123688084,1.312336,0,0,0,0,-0.223694,31, 0.2, 0.1,0,0,1024,1024,1024,1024,0,0,0,0,31,-8,0,96,4.175,4.17,0,0,0,0,2.635,69.44,1.3123688084,1.312336,6,P-GPS,"En vuelo"
3100,2022-08-17 13:29:36,0,0,1.312336,,,1.3123688084,1.64042,0,0,0,0,0,8.393,1.3123688084,1.312336,0,0,0,0,-0.223694,31, 0.3, 0,0,0,1024,1024,1024,1024,0,0,0,0,31,-8.1,0,96,4.175,4.17,0,0,0,0,2.635,69.44,1.3123688084,1.312336,6,P-GPS,
3200,2022-08-17 13:29:36,0,0,1.312336,,,1.3123688084,1.64042,0,0,0,0,0,8.393,1.3123688084,1.312336,0,0,0,0,0,31, 0.4, 0,0,0,1024,1024,1024,1024,0,0,0,0,31,-8,0,96,4.175,4.17,0,0,0,0,2.635,69.44,1.3123688084,1.312336,6,P-GPS,
3300,2022-08-17 13:29:36,0,0,1.312336,,,1.3123688084,1.64042,0,0,0,0,0,8.393,1.3123688084,1.312336,0,0,0,0,0,31, 0.5, -0.1,0,0,1024,1024,1024,1024,0,0,0,0,31,-8.1,0,96,4.175,4.17,0,0,0,0,2.635,69.44,1.3123688084,1.312336,6,P-GPS,
3400,2022-08-17 13:29:36,0,0,1.312336,,,1.3123688084,1.64042,0,0,0,0,0,8.393,1.3123688084,1.312336,0,0,0,0,0,31, 0.5, -0.2,0,0,1024,1024,1024,1024,0,0,0,0,31,-8.1,0,96,4.175,4.17,0,0,0,0,2.635,69.44,1.3123688084,1.312336,6,P-GPS,
3500,2022-08-17 13:29:36,0,0,1.312336,,,1.3123688084,1.64042,0,0,0,0,0,8.393,1.3123688084,1.312336,0,0,0,0,0,31, 0.5, -0.3,0,0,1024,1024,1024,1024,0,0,0,0,31,-8.1,0,96,4.175,4.17,0,0,0,0,2.635,69.44,1.3123688084,1.312336,6,P-GPS,
3600,2022-08-17 13:29:36,0,0,1.312336,,,1.3123688084,1.64042,0,0,0,0,0,8.393,1.3123688084,1.312336,0,0,0,0,0,31, 0.6, -0.2,0,0,1024,1024,1024,1024,0,0,0,0,31,-8,0,96,4.175,4.17,0,0,0,0,2.635,69.44,1.3123688084,1.312336,6,P-GPS,
3700,2022-08-17 13:29:36,0,0,1.312336,,,1.3123688084,1.64042,0,0,0,0,0,8.363,1.3123688084,1.312336,0,0,0,0,0,31, 0.5, -0.1,0,0,1024,1024,1024,1024,0,0,0,0,31,-8,0,96,4.177,4.172,0,0,0,0,4.047,69.44,1.3123688084,1.312336,6,P-GPS,
3800,2022-08-17 13:29:36,0,0,1.64042,,,1.6404528084,1.64042,0,0,0,0,0,8.363,1.6404528084,1.64042,0,0,0,0,0,31, 0.5, 0,0,0,1024,1024,1024,1024,0,0,0,0,31,-8,0,96,4.177,4.172,0,0,0,0,4.047,69.44,1.6404528084,1.64042,6,P-GPS,
3900,2022-08-17 13:29:36,0,0,1.64042,,,1.6404528084,1.64042,0,0,0,0,0,8.363,1.6404528084,1.64042,0,0,0,0,0,31, 0.5, 0,0,0,1024,1024,1024,1024,0,0,0,0,31,-8,0,96,4.177,4.172,0,0,0,0,4.047,69.44,1.6404528084,1.64042,6,P-GPS,
4000,2022-08-17 13:29:36,0,0,1.64042,,,1.6404528084,1.64042,0,0,0,0,0,8.363,1.6404528084,1.64042,0,0,0,0,0,31, 0.5, 0.1,0,0,1024,1024,1024,1024,0,0,0,0,31,-8.1,0,96,4.177,4.172,0,0,0,0,4.047,69.44,1.6404528084,1.64042,6,P-GPS,
4100,2022-08-17 13:29:36,0,0,1.64042,,,1.6404528084,1.64042,0,0,0,0,0,8.363,1.6404528084,1.64042,0,0,0,0,0,31, 0.4, 0,0,0,1024,1024,1024,1024,0,0,0,0,31,-8,0,96,4.177,4.172,0,0,0,0,4.047,69.44,1.6404528084,1.64042,6,P-GPS,
4200,2022-08-17 13:29:37,0,0,1.64042,,,1.6404528084,1.64042,0,0,0,0,0,8.363,1.6404528084,1.64042,0,0,0,0,0,31, 0.3, 0,0,0,1024,1024,1024,1024,0,0,0,0,31,-8,0,96,4.177,4.172,0,0,0,0,4.047,69.44,1.6404528084,1.64042,6,P-GPS,
4300,2022-08-17 13:29:37,0,0,1.64042,,,1.6404528084,1.64042,0,0,0,0,0,8.363,1.6404528084,1.64042,0,0,0,0,0,31, 0.4, 0,0,0,1024,1024,1024,1024,0,0,0,0,31,-8,0,96,4.177,4.172,0,0,0,0,4.047,69.44,1.6404528084,1.64042,6,P-GPS,
4400,2022-08-17 13:29:37,0,0,1.64042,,,1.6404528084,1.64042,0,0,0,0,0,8.363,1.6404528084,1.64042,0,0,0,0,0,31, 0.4, 0,0,0,1024,1024,1024,1024,0,0,0,0,31,-8.1,0,96,4.177,4.172,0,0,0,0,4.047,69.44,1.6404528084,1.64042,6,P-GPS,
4500,2022-08-17 13:29:37,0,0,1.64042,,,1.6404528084,1.64042,0,0,0,0,0,8.363,1.6404528084,1.64042,0,0,0,0,0,31, 0.4, 0,0,0,1024,1024,1024,1024,0,0,0,0,31,-8.1,0,96,4.177,4.172,0,0,0,0,4.047,69.44,1.6404528084,1.64042,6,P-GPS,
4600,2022-08-17 13:29:37,0,0,1.64042,,,1.6404528084,1.64042,0,0,0,0,0,8.363,1.6404528084,1.64042,0,0,0,0,0,31, 0.4, 0,0,0,1024,1024,1024,1024,0,0,0,0,31,-8,0,96,4.177,4.172,0,0,0,0,4.047,69.44,1.6404528084,1.64042,6,P-GPS,
4700,2022-08-17 13:29:37,0,0,1.64042,,,1.6404528084,1.64042,0,0,0,0,0,8.339,1.6404528084,1.64042,0,0,0,0,0,31, 0.5, 0,0,0,1024,1024,1024,1024,0,0,0,0,31,-8,0,96,4.17,4.167,0,0,0,0,4.053,69.44,1.6404528084,1.64042,6,P-GPS,
4800,2022-08-17 13:29:37,0,0,1.64042,,,1.6404528084,1.64042,0,0,0,0,0,8.339,1.6404528084,1.64042,0,0,0,0,0,31, 0.5, 0,0,0,1024,1024,1024,1024,0,0,0,0,31,-8,0,96,4.17,4.167,0,0,0,0,4.053,69.44,1.6404528084,1.64042,6,P-GPS,
4900,2022-08-17 13:29:37,0,0,1.64042,,,1.6404528084,1.64042,0,0,0,0,0,8.339,1.6404528084,1.64042,0,0,0,0,0,31, 0.5, 0,0,0,1024,1024,1024,1024,0,0,0,0,31,-8.1,0,96,4.17,4.167,0,0,0,0,4.053,69.44,1.6404528084,1.64042,6,P-GPS,
5000,2022-08-17 13:29:37,0,0,1.64042,,,1.6404528084,1.64042,0,0,0,0,0,8.339,1.6404528084,1.64042,0,0,0,0,0,31, 0.4, 0.1,0,0,1024,1024,1113,1024,0,0,13,0,31,-8.1,0,96,4.17,4.167,0,0,0,0,4.053,69.44,1.6404528084,1.64042,6,P-GPS,
5100,2022-08-17 13:29:37,0,0,1.64042,,,1.6404528084,1.64042,0,0,0,0,0,8.339,1.6404528084,1.64042,0,0,0,0,0,31, 0.5, 0.1,0,0,1024,1024,1137,1024,0,0,17,0,31,-8,0,96,4.17,4.167,0,0,0,0,4.053,69.44,1.6404528084,1.64042,6,P-GPS,
5200,2022-08-17 13:29:38,0,0,1.64042,,,1.6404528084,1.64042,0,0,0,0,0,8.339,1.6404528084,1.64042,0,0,0,0,0,31, 0.5, 0.3,0,0,1024,1024,1137,1024,0,0,17,0,31,-8,0,96,4.17,4.167,0,0,0,0,4.053,69.44,1.6404528084,1.64042,6,P-GPS,
5300,2022-08-17 13:29:38,0,0,1.64042,,,1.6404528084,1.64042,0,0,0,0,0,8.339,1.6404528084,1.64042,0,0,0,0,0,31, 0.4, 0.3,0,0,1024,1024,1150,1024,0,0,19,0,31,-8,0,96,4.17,4.167,0,0,0,0,4.053,69.44,1.6404528084,1.64042,6,P-GPS,
5400,2022-08-17 13:29:38,0,0,1.64042,,,1.6404528084,1.64042,0,0,0,0,0,8.339,1.6404528084,1.64042,0,0,0,0,-0.223694,31, 0.4, 0.1,0,0,1024,1024,1082,1024,0,0,9,0,31,-8.1,0,96,4.17,4.167,0,0,0,0,4.053,69.44,1.6404528084,1.64042,6,P-GPS,
5500,2022-08-17 13:29:38,0,0,1.64042,,,1.6404528084,1.64042,0,0,0,0,0,8.339,1.6404528084,1.64042,0,0,0,0,-0.223694,31, 0.4, 0,0,0,1024,1024,1074,1024,0,0,8,0,31,-8.1,0,96,4.17,4.167,0,0,0,0,4.053,69.44,1.6404528084,1.64042,6,P-GPS,
5600,2022-08-17 13:29:38,0,0,1.64042,,,1.6404528084,1.968504,0,0,0,0,0,8.339,1.6404528084,1.64042,0,0,0,0,-0.223694,31, 0.5, 0,0,0,1024,1024,1077,1024,0,0,8,0,31,-8.1,0,96,4.17,4.167,0,0,0,0,4.053,69.44,1.6404528084,1.64042,6,P-GPS,
5700,2022-08-17 13:29:38,0,0,1.64042,,,1.6404528084,1.968504,0,0,0,0,0,8.339,1.6404528084,1.64042,0,0,0,0,0,31, 0.4, 0,0,0,1024,1024,1074,1024,0,0,8,0,31,-8.1,0,96,4.17,4.167,0,0,0,0,4.053,69.44,1.6404528084,1.64042,6,P-GPS,
5800,2022-08-17 13:29:38,0,0,1.64042,,,1.6404528084,1.968504,0,0,0,0,0,8.339,1.6404528084,1.64042,0,0,0,0,0,31, 0.3, 0,0,0,1024,1024,1087,1024,0,0,10,0,31,-8,0,96,4.171,4.166,0,0,0,0,4.053,69.44,1.6404528084,1.64042,6,P-GPS,
5900,2022-08-17 13:29:38,0,0,1.64042,,,1.6404528084,1.968504,0,0,0,0,0,8.339,1.6404528084,1.64042,0,0,0,0,0,30.9, 0.2, 0,0,0,1024,1024,1100,1024,0,0,12,0,31,-8,0,96,4.171,4.166,0,0,0,0,4.053,69.44,1.6404528084,1.64042,6,P-GPS,
6000,2022-08-17 13:29:38,0,0,1.64042,,,1.6404528084,1.968504,0,0,0,0,0,8.339,1.6404528084,1.64042,0,0,0,0,0,30.9, 0.4, 0.1,0,0,1024,1024,1100,1024,0,0,12,0,31,-8.1,0,96,4.171,4.166,0,0,0,0,4.053,69.44,1.6404528084,1.64042,6,P-GPS,
6100,2022-08-17 13:29:39,0,0,1.64042,,,1.6404528084,1.968504,0,0,0,0,0,8.339,1.6404528084,1.64042,0,0,0,0,0,30.8, 0.3, 0.1,0,0,1024,1024,1103,1024,0,0,12,0,31,-8.1,0,96,4.171,4.166,0,0,0,0,4.053,69.44,1.6404528084,1.64042,6,P-GPS,
6200,2022-08-17 13:29:39,0,0,1.64042,,,1.6404528084,1.968504,0,0,0,0,0,8.339,1.6404528084,1.64042,0,0,0,0,0,30.7, 0.3, 0.1,0,0,1024,1024,1103,1024,0,0,12,0,31,-8,0,95,4.171,4.166,0,0,0,0,4.053,69.44,1.6404528084,1.64042,6,P-GPS,
6300,2022-08-17 13:29:39,0,0,1.64042,,,1.6404528084,1.968504,0,0,0,0,0,8.339,1.6404528084,1.64042,0,0,0,0,0,30.6, 0.3, 0.1,0,0,1024,1024,1103,1024,0,0,12,0,31,-8.1,0,95,4.171,4.166,0,0,0,0,4.053,69.44,1.6404528084,1.64042,6,P-GPS,
6400,2022-08-17 13:29:39,0,0,1.968504,,,1.9685368084,1.968504,0,0,0,0,0,8.339,1.9685368084,1.968504,0,0,0,0,0,30.5, 0.4, 0.1,0,0,1024,1024,1105,1024,0,0,12,0,31,-8.1,0,95,4.171,4.166,0,0,0,0,4.053,69.44,1.9685368084,1.968504,6,P-GPS,
6500,2022-08-17 13:29:39,0,0,1.968504,,,1.9685368084,1.968504,0,0,0,0,0,8.339,1.9685368084,1.968504,0,0,0,0,-0.223694,30.4, 0.4, 0.1,0,0,1024,1024,1105,1024,0,0,12,0,31,-8,0,95,4.171,4.166,0,0,0,0,4.053,69.44,1.9685368084,1.968504,6,P-GPS,
6600,2022-08-17 13:29:39,0,0,1.968504,,,1.9685368084,1.968504,0,0,0,0,0,8.339,1.9685368084,1.968504,0,0,0,0,-0.223694,30.3, 0.5, 0.1,0,0,1024,1024,1105,1024,0,0,12,0,31,-8.1,0,95,4.171,4.166,0,0,0,0,4.053,69.44,1.9685368084,1.968504,6,P-GPS,
6700,2022-08-17 13:29:39,0,0,1.968504,,,1.9685368084,1.968504,0,0,0,0,0,8.339,1.9685368084,1.968504,0,0,0,0,-0.223694,30.3, 0.6, 0.3,0,0,1024,1024,1106,1024,0,0,12,0,31,-8,0,95,4.171,4.166,0,0,0,0,4.053,69.44,1.9685368084,1.968504,6,P-GPS,
6800,2022-08-17 13:29:39,0,0,1.968504,,,1.9685368084,1.968504,0,0,0,0,0,8.332,1.9685368084,1.968504,0,0,0,0,-0.223694,30.2, 0.6, 0.1,0,0,1024,1024,1107,1024,0,0,13,0,31,-8.1,0,95,4.161,4.155,0,0,0,0,4.091,69.44,1.9685368084,1.968504,6,P-GPS,
6900,2022-08-17 13:29:39,0,0,1.968504,,,1.9685368084,1.968504,0,0,0,0,0,8.332,1.9685368084,1.968504,0,0,0,0,-0.223694,30, 0.5, 0.1,0,0,1024,1024,1107,1024,0,0,13,0,31,-8,0,95,4.161,4.155,0,0,0,0,4.091,69.44,1.9685368084,1.968504,6,P-GPS,
7000,2022-08-17 13:29:39,0,0,1.968504,,,1.9685368084,2.296588,0,0,0,0,0,8.332,1.9685368084,1.968504,0,0,0,0,-0.223694,29.9, 0.5, 0.1,0,0,1024,1024,1108,1024,0,0,13,0,31,-8,0,95,4.161,4.155,0,0,0,0,4.091,69.44,1.9685368084,1.968504,6,P-GPS,
7100,2022-08-17 13:29:40,0,0,1.968504,,,1.9685368084,2.296588,0,0,0,0,0,8.332,1.9685368084,1.968504,0,0,0,0,-0.223694,29.9, 0.2, 0,0,0,1024,1024,1108,1024,0,0,13,0,31,-8,0,95,4.161,4.155,0,0,0,0,4.091,69.44,1.9685368084,1.968504,6,P-GPS,
7200,2022-08-17 13:29:40,0,0,1.968504,,,1.9685368084,2.296588,0,0,0,0,0,8.332,1.9685368084,1.968504,0,0,0,0,-0.223694,29.7, 0, 0,0,0,1024,1024,1109,1024,0,0,13,0,31,-8,0,95,4.161,4.155,0,0,0,0,4.091,69.44,1.9685368084,1.968504,6,P-GPS,
7300,2022-08-17 13:29:40,0,0,1.968504,,,1.9685368084,2.296588,0,0,0,0,0,8.332,1.9685368084,1.968504,0,0,0,0,-0.223694,29.7, 0, 0,0,0,1024,1024,1112,1024,0,0,13,0,31,-8,0,95,4.161,4.155,0,0,0,0,4.091,69.44,1.9685368084,1.968504,6,P-GPS,
7400,2022-08-17 13:29:40,0,0,2.296588,,,2.2966208084,2.296588,0,0,0,0,0,8.332,2.2966208084,2.296588,0,0,0,0,-0.223694,29.6, 0.1, 0,0,0,1024,1024,1112,1024,0,0,13,0,31,-8.1,0,95,4.161,4.155,0,0,0,0,4.091,69.44,2.2966208084,2.296588,6,P-GPS,
7500,2022-08-17 13:29:40,0,0,2.296588,,,2.2966208084,2.296588,0,0,0,0,0,8.332,2.2966208084,2.296588,0,0,0,0,-0.223694,29.6, 0.3, 0.1,0,0,1024,1024,1113,1024,0,0,13,0,31,-8.1,0,95,4.161,4.155,0,0,0,0,4.091,69.44,2.2966208084,2.296588,6,P-GPS,
7600,2022-08-17 13:29:40,0,0,2.296588,,,2.2966208084,2.296588,0,0,0,0,0,8.332,2.2966208084,2.296588,0,0,0,0,-0.223694,29.5, 0.4, 0.2,0,0,1024,1024,1114,1024,0,0,14,0,31,-8,0,95,4.161,4.155,0,0,0,0,4.091,69.44,2.2966208084,2.296588,6,P-GPS,
7700,2022-08-17 13:29:40,0,0,2.296588,,,2.2966208084,2.296588,0,0,0,0,0,8.332,2.2966208084,2.296588,0,0,0,0,-0.223694,29.5, 0.4, 0.2,0,0,1024,1024,1114,1024,0,0,14,0,31,-8,0,95,4.161,4.155,0,0,0,0,4.091,69.44,2.2966208084,2.296588,6,P-GPS,
7800,2022-08-17 13:29:40,0,0,2.296588,,,2.2966208084,2.624672,0,0,0,0,0,8.314,2.2966208084,2.296588,0,0,0,0,-0.223694,29.5, 0.4, 0.1,0,0,1024,1024,1114,1024,0,0,14,0,31,-8.1,0,95,4.155,4.15,0,0,0,0,4.145,69.44,2.2966208084,2.296588,6,P-GPS,
7900,2022-08-17 13:29:40,0,0,2.296588,,,2.2966208084,2.624672,0,0,0,0,0,8.314,2.2966208084,2.296588,0,0,0,0,-0.223694,29.5, 0.4, 0.1,0,0,1024,1024,1114,1024,0,0,14,0,31,-8,0,95,4.155,4.15,0,0,0,0,4.145,69.44,2.2966208084,2.296588,6,P-GPS,
8000,2022-08-17 13:29:40,0,0,2.296588,,,2.2966208084,2.624672,0,0,0,0,0,8.314,2.2966208084,2.296588,0,0,0,0,-0.223694,29.4, 0.4, 0.1,0,0,1024,1024,1114,1024,0,0,14,0,31,-8,0,95,4.155,4.15,0,0,0,0,4.145,69.44,2.2966208084,2.296588,6,P-GPS,
8100,2022-08-17 13:29:40,0,0,2.296588,,,2.2966208084,2.624672,0,0,0,0,0,8.314,2.2966208084,2.296588,0,0,0,0,-0.223694,29.4, 0.5, 0.2,0,0,1024,1024,1115,1024,0,0,14,0,31,-8,0,95,4.155,4.15,0,0,0,0,4.145,69.44,2.2966208084,2.296588,6,P-GPS,
8200,2022-08-17 13:29:41,0,0,2.624672,,,2.6247048084,2.624672,0,0,0,0,0,8.314,2.6247048084,2.624672,0,0,0,0,-0.223694,29.3, 0.4, 0.2,0,0,1024,1024,1117,1024,0,0,14,0,31,-8,0,95,4.155,4.15,0,0,0,0,4.145,69.44,2.6247048084,2.624672,6,P-GPS,
8300,2022-08-17 13:29:41,0,0,2.624672,,,2.6247048084,2.624672,0,0,0,0,0,8.314,2.6247048084,2.624672,0,0,0,0,-0.223694,29.3, 0.4, 0.2,0,0,1024,1024,1116,1024,0,0,14,0,31,-8,0,95,4.155,4.15,0,0,0,0,4.145,69.44,2.6247048084,2.624672,6,P-GPS,
8400,2022-08-17 13:29:41,0,0,2.624672,,,2.6247048084,2.624672,0,0,0,0,0,8.314,2.6247048084,2.624672,0,0,0,0,-0.223694,29.2, 0.4, 0.3,0,0,1024,1024,1116,1024,0,0,14,0,31,-8.1,0,95,4.155,4.15,0,0,0,0,4.145,69.44,2.6247048084,2.624672,6,P-GPS,
8500,2022-08-17 13:29:41,0,0,2.624672,,,2.6247048084,2.624672,0,0,0,0,0,8.314,2.6247048084,2.624672,0,0,0,0,-0.223694,29.2, 0.5, 0.4,0,0,1024,1024,1111,1024,0,0,13,0,31,-8.1,0,95,4.155,4.15,0,0,0,0,4.145,69.44,2.6247048084,2.624672,6,P-GPS,
8600,2022-08-17 13:29:41,0,0,2.624672,,,2.6247048084,2.952756,0,0,0,0,0,8.314,2.6247048084,2.624672,0,0,0,0,-0.223694,29.1, 0.4, 0.3,0,0,1024,1024,1114,1024,0,0,14,0,31,-8.1,0,95,4.155,4.15,0,0,0,0,4.145,69.44,2.6247048084,2.624672,6,P-GPS,
8700,2022-08-17 13:29:41,0,0,2.624672,,,2.6247048084,2.952756,0,0,0,0,0,8.314,2.6247048084,2.624672,0,0,0,0,-0.223694,29.1, 0.3, 0.3,0,0,1024,1024,1114,1024,0,0,14,0,31,-8.1,0,95,4.155,4.15,0,0,0,0,4.145,69.44,2.6247048084,2.624672,6,P-GPS,
8800,2022-08-17 13:29:41,0,0,2.624672,,,2.6247048084,2.952756,0,0,0,0,0,8.312,2.6247048084,2.624672,0,0,0,0,-0.223694,29.1, 0.3, 0.4,0,0,1024,1024,1109,1024,0,0,13,0,31,-8,0,95,4.155,4.151,0,0,0,0,4.179,69.44,2.6247048084,2.624672,6,P-GPS,
8900,2022-08-17 13:29:41,0,0,2.624672,,,2.6247048084,2.952756,0,0,0,0,0,8.312,2.6247048084,2.624672,0,0,0,0,-0.223694,29, 0.3, 0.3,0,0,1024,1024,1103,1024,0,0,12,0,31,-8,0,95,4.155,4.151,0,0,0,0,4.179,69.44,2.6247048084,2.624672,6,P-GPS,
9000,2022-08-17 13:29:41,0,0,2.952756,,,2.9527888084,2.952756,0,0,0,0,0,8.312,2.9527888084,2.952756,0,0,0,0,-0.223694,29, 0.2, 0.2,0,0,1024,1024,1105,1024,0,0,12,0,31,-8.1,0,95,4.155,4.151,0,0,0,0,4.179,69.44,2.9527888084,2.952756,6,P-GPS,
9100,2022-08-17 13:29:41,0,0,2.952756,,,2.9527888084,2.952756,0,0,0,0,0,8.312,2.9527888084,2.952756,0,0,0,0,-0.223694,29, 0.2, 0.3,0,0,1024,1024,1133,1024,0,0,17,0,31,-8,0,95,4.155,4.151,0,0,0,0,4.179,69.44,2.9527888084,2.952756,6,P-GPS,
9200,2022-08-17 13:29:42,0,0,2.952756,,,2.9527888084,2.952756,0,0,0,0,0,8.312,2.9527888084,2.952756,0,0,0,0,-0.223694,29, 0.2, 0.4,0,0,1024,1024,1134,1024,0,0,17,0,31,-8,0,95,4.155,4.151,0,0,0,0,4.179,69.44,2.9527888084,2.952756,6,P-GPS,
9300,2022-08-17 13:29:42,0,0,2.952756,,,2.9527888084,2.952756,0,0,0,0,0,8.312,2.9527888084,2.952756,0,0,0,0,-0.223694,29.1, 0.2, 0.4,0,0,1024,1024,1114,1024,0,0,14,0,31,-8.1,0,95,4.155,4.151,0,0,0,0,4.179,69.44,2.9527888084,2.952756,6,P-GPS,
9400,2022-08-17 13:29:42,0,0,2.952756,,,2.9527888084,3.28084,0,0,0,0,0,8.312,2.9527888084,2.952756,0,0,0,0,-0.223694,29, 0.3, 0.4,0,0,1024,1024,1105,1024,0,0,12,0,31,-8.1,0,95,4.155,4.151,0,0,0,0,4.179,69.44,2.9527888084,2.952756,6,P-GPS,
9500,2022-08-17 13:29:42,0,0,2.952756,,,2.9527888084,3.28084,0,0,0,0,0,8.312,2.9527888084,2.952756,0,0,0,0,-0.223694,29, 0.5, 0.3,0,0,1024,1024,1082,1024,0,0,9,0,31,-8.1,0,95,4.155,4.151,0,0,0,0,4.179,69.44,2.9527888084,2.952756,6,P-GPS,
9600,2022-08-17 13:29:42,0,0,2.952756,,,2.9527888084,3.28084,0,0,0,0,0,8.312,2.9527888084,2.952756,0,0,0,0,-0.223694,29, 0.4, 0.2,0,0,1024,1024,1082,1024,0,0,9,0,31,-8.1,0,95,4.155,4.151,0,0,0,0,4.179,69.44,2.9527888084,2.952756,6,P-GPS,
9700,2022-08-17 13:29:42,0,0,2.952756,,,2.9527888084,3.28084,0,0,0,0,0,8.312,2.9527888084,2.952756,0,0,0,0,-0.223694,28.9, 0.4, 0.4,0,0,1024,1024,1040,1024,0,0,2,0,31,-8,0,95,4.155,4.151,0,0,0,0,4.179,69.44,2.9527888084,2.952756,6,P-GPS,
9800,2022-08-17 13:29:42,0,0,2.952756,,,2.9527888084,3.28084,0,0,0,0,0,8.312,2.9527888084,2.952756,0,0,0,0,0,28.9, 0.4, 0.4,0,0,1024,1024,1024,1024,0,0,0,0,31,-8,0,95,4.155,4.151,0,0,0,0,4.179,69.44,2.9527888084,2.952756,6,P-GPS,
9900,2022-08-17 13:29:42,0,0,2.952756,,,2.9527888084,3.28084,0,0,0,0,0,8.312,2.9527888084,2.952756,0,0,0,0,0,28.9, 0.4, 0.4,0,0,1024,1024,1024,1024,0,0,0,0,31,-8,0,95,4.155,4.151,0,0,0,0,4.179,69.44,2.9527888084,2.952756,6,P-GPS,
10000,2022-08-17 13:29:42,0,0,3.28084,,,3.2808728084,3.28084,0,0,0,0,0,8.301,3.2808728084,3.28084,0,0,0,0,0,28.9, 0.3, -0.1,0,0,1024,1024,1024,1024,0,0,0,0,31,-8,0,95,4.152,4.147,0,0,0,0,4.183,69.62,3.2808728084,3.28084,6,P-GPS,
10100,2022-08-17 13:29:43,0,0,3.28084,,,3.2808728084,3.28084,0,0,0,0,0,8.301,3.2808728084,3.28084,0,0,0,0,0,28.9, 0.4, 0,0,0,1024,1024,1024,1024,0,0,0,0,31,-8,0,95,4.152,4.147,0,0,0,0,4.183,69.62,3.2808728084,3.28084,6,P-GPS,
10200,2022-08-17 13:29:43,0,0,3.28084,,,3.2808728084,3.28084,0,0,0,0,0,8.301,3.2808728084,3.28084,0,0,0,0,0,28.9, 0.3, 0.3,0,0,1024,1024,1024,1024,0,0,0,0,31,-8,0,95,4.152,4.147,0,0,0,0,4.183,69.62,3.2808728084,3.28084,6,P-GPS,
10300,2022-08-17 13:29:43,0,0,3.28084,,,3.2808728084,3.28084,0,0,0,0,0,8.301,3.2808728084,3.28084,0,0,0,0,0,28.9, 0.4, 0.4,0,0,1024,1024,1024,1024,0,0,0,0,31,-8,0,95,4.152,4.147,0,0,0,0,4.183,69.62,3.2808728084,3.28084,6,P-GPS,
10400,2022-08-17 13:29:43,0,0,3.28084,,,3.2808728084,3.28084,0,0,0,0,0,8.301,3.2808728084,3.28084,0,0,0,0,0,28.9, 0.4, 0.4,0,0,1024,1024,1024,1024,0,0,0,0,31,-8.1,0,95,4.152,4.147,0,0,0,0,4.183,69.62,3.2808728084,3.28084,6,P-GPS,
10500,2022-08-17 13:29:43,0,0,3.28084,,,3.2808728084,3.28084,0,0,0,0,0,8.301,3.2808728084,3.28084,0,0,0,0,0,28.9, 0.3, 0.4,0,0,1024,1024,1024,1024,0,0,0,0,31,-8,0,95,4.152,4.147,0,0,0,0,4.183,69.62,3.2808728084,3.28084,6,P-GPS,
10600,2022-08-17 13:29:43,0,0,3.28084,,,3.2808728084,3.28084,0,0,0,0,0,8.301,3.2808728084,3.28084,0,0,0,0,0,28.9, 0.3, 0.3,0,0,1024,1024,1024,1024,0,0,0,0,31,-8,0,95,4.152,4.147,0,0,0,0,4.183,69.62,3.2808728084,3.28084,6,P-GPS,
10700,2022-08-17 13:29:43,0,0,3.28084,,,3.2808728084,3.28084,0,0,0,0,0,8.301,3.2808728084,3.28084,0,0,0,0,0,28.9, 0.3, 0.5,0,0,1024,1024,1024,1024,0,0,0,0,31,-8.1,0,95,4.152,4.147,0,0,0,0,4.183,69.62,3.2808728084,3.28084,6,P-GPS,
10800,2022-08-17 13:29:43,0,0,3.28084,,,3.2808728084,3.28084,0,0,0,0,0,8.301,3.2808728084,3.28084,0,0,0,0,0,28.8, 0.2, 0.4,0,0,1024,1024,1024,1024,0,0,0,0,31,-8,0,95,4.152,4.147,0,0,0,0,4.183,69.62,3.2808728084,3.28084,6,P-GPS,
10900,2022-08-17 13:29:43,0,0,3.28084,,,3.2808728084,3.28084,0,0,0,0,0,8.301,3.2808728084,3.28084,0,0,0,0,0,28.8, 0.2, 0.2,0,0,1024,1024,1024,1024,0,0,0,0,31,-8,0,95,4.152,4.147,0,0,0,0,4.183,69.62,3.2808728084,3.28084,6,P-GPS,
11000,2022-08-17 13:29:43,0,0,3.28084,,,3.2808728084,3.28084,0,0,0,0,0,8.296,3.2808728084,3.28084,0,0,0,0,0,28.9, 0.2, 0.2,0,0,1024,1024,1024,1024,0,0,0,0,31,-8.1,0,95,4.152,4.145,0,0,0,0,4.053,69.62,3.2808728084,3.28084,6,P-GPS,
11100,2022-08-17 13:29:43,0,0,3.28084,,,3.2808728084,3.28084,0,0,0,0,0,8.296,3.2808728084,3.28084,0,0,0,0,0,28.8, 0.2, 0.1,0,0,1024,1024,1024,1024,0,0,0,0,31,-8,0,95,4.152,4.145,0,0,0,0,4.053,69.62,3.2808728084,3.28084,6,P-GPS,
11200,2022-08-17 13:29:44,0,0,3.28084,,,3.2808728084,3.28084,0,0,0,0,0,8.296,3.2808728084,3.28084,0,0,0,0,0,28.9, 0.2, 0,0,0,1024,1024,1024,1024,0,0,0,0,31,-8.1,0,95,4.152,4.145,0,0,0,0,4.053,69.62,3.2808728084,3.28084,6,P-GPS,
11300,2022-08-17 13:29:44,0,0,3.28084,,,3.2808728084,3.28084,0,0,0,0,0,8.296,3.2808728084,3.28084,0,0,0,0,0,28.9, 0.2, 0,0,0,1024,1024,1024,1024,0,0,0,0,31,-8,0,95,4.152,4.145,0,0,0,0,4.053,69.62,3.2808728084,3.28084,6,P-GPS,
11400,2022-08-17 13:29:44,0,0,3.28084,,,3.2808728084,3.28084,0,0,0,0,0,8.296,3.2808728084,3.28084,0,0,0,0,0,28.9, 0.2, 0,0,0,1024,1024,1024,1024,0,0,0,0,31,-8,0,95,4.152,4.145,0,0,0,0,4.053,69.62,3.2808728084,3.28084,6,P-GPS,
11500,2022-08-17 13:29:44,0,0,3.28084,,,3.2808728084,3.28084,0,0,0,0,0,8.296,3.2808728084,3.28084,0,0,0,0,0,28.8, 0.3, -0.1,0,0,1024,1024,1024,1024,0,0,0,0,31,-8.1,0,95,4.152,4.145,0,0,0,0,4.053,69.62,3.2808728084,3.28084,6,P-GPS,
11600,2022-08-17 13:29:44,0,0,3.28084,,,3.2808728084,3.28084,0,0,0,0,0,8.296,3.2808728084,3.28084,0,0,0,0,0,28.8, 0.3, -0.2,0,0,1024,1024,1024,1024,0,0,0,0,31,-8,0,95,4.152,4.145,0,0,0,0,4.053,69.62,3.2808728084,3.28084,6,P-GPS,
11700,2022-08-17 13:29:44,0,0,3.28084,,,3.2808728084,3.28084,0,0,0,0,0,8.296,3.2808728084,3.28084,0,0,0,0,0,28.8, 0.2, -0.3,0,0,1024,1024,1024,1024,0,0,0,0,31,-8,0,95,4.152,4.145,0,0,0,0,4.053,69.62,3.2808728084,3.28084,6,P-GPS,
11800,2022-08-17 13:29:44,0,0,3.28084,,,3.2808728084,3.28084,0,0,0,0,0,8.296,3.2808728084,3.28084,0,0,0,0,0,28.8, 0.3, -0.2,0,0,1024,1024,1024,1024,0,0,0,0,31,-8,0,95,4.152,4.145,0,0,0,0,4.053,69.62,3.2808728084,3.28084,6,P-GPS,
11900,2022-08-17 13:29:44,0,0,3.28084,,,3.2808728084,3.28084,0,0,0,0,0,8.296,3.2808728084,3.28084,0,0,0,0,0,28.8, 0.2, 0,0,0,1024,1024,1024,1024,0,0,0,0,31,-8,0,95,4.152,4.145,0,0,0,0,4.053,69.62,3.2808728084,3.28084,6,P-GPS,
12000,2022-08-17 13:29:44,0,0,3.28084,,,3.2808728084,3.28084,0,0,0,0,0,8.288,3.2808728084,3.28084,0,0,0,0,0,28.8, 0.3, 0,0,0,1024,1024,1024,1024,0,0,0,0,31,-8.1,0,95,4.148,4.144,0,0,0,0,4.158,69.62,3.2808728084,3.28084,6,P-GPS,
12100,2022-08-17 13:29:44,0,0,3.28084,,,3.2808728084,3.28084,0,0,0,0,0,8.288,3.2808728084,3.28084,0,0,0,0,0,28.8, 0.3, 0.3,0,0,1024,1024,1024,889,0,0,0,-20,31,-8,0,95,4.148,4.144,0,0,0,0,4.158,69.62,3.2808728084,3.28084,6,P-GPS,
12200,2022-08-17 13:29:45,0,0,3.28084,,,3.2808728084,3.28084,0,0,0,0,0,8.288,3.2808728084,3.28084,0,0,0,0,0,28.8, 0.3, 0.3,0,0,1024,1024,1024,558,0,0,0,-71,31,-8,0,95,4.148,4.144,0,0,0,0,4.158,69.62,3.2808728084,3.28084,6,P-GPS,
12300,2022-08-17 13:29:45,0,0,3.28084,,,3.2808728084,3.28084,0,0,0,0,0,8.288,3.2808728084,3.28084,0,0,0,0,0,28.6, 0.2, 0.5,0,0,1024,1024,1024,417,0,0,0,-92,30.3,-8.1,0,95,4.148,4.144,0,0,0,0,4.158,69.62,3.2808728084,3.28084,6,P-GPS,
12400,2022-08-17 13:29:45,0,0,3.28084,,,3.2808728084,3.28084,0,0,0,0,0,8.288,3.2808728084,3.28084,0,0,0,0,0,27.3, 0.2, 0.5,0,0,1024,1024,1024,364,0,0,0,-100,27.9,-8,0,95,4.148,4.144,0,0,0,0,4.158,69.62,3.2808728084,3.28084,6,P-GPS,
12500,2022-08-17 13:29:45,0,0,3.28084,,,3.2808728084,3.28084,0,0,0,0,0,8.288,3.2808728084,3.28084,0,0,0,0,0,24.3, 0.2, 0.5,0,0,1024,1024,1024,364,0,0,0,-100,24,-8,0,95,4.148,4.144,0,0,0,0,4.158,69.62,3.2808728084,3.28084,6,P-GPS,
12600,2022-08-17 13:29:45,0,0,3.28084,,,3.2808728084,3.28084,0,0,0,0,0,8.288,3.2808728084,3.28084,0,0,0,0,0,20.2, 0.2, 0.4,0,0,1024,1024,1024,364,0,0,0,-100,19.4,-8,0,95,4.148,4.144,0,0,0,0,4.158,69.62,3.2808728084,3.28084,6,P-GPS,
12700,2022-08-17 13:29:45,0,0,3.28084,,,3.2808728084,3.28084,0,0,0,0,0,8.288,3.2808728084,3.28084,0,0,0,0,0,15.5, 0.2, 0.3,0,0,1024,1024,1024,364,0,0,0,-100,14.6,-8.1,0,95,4.148,4.144,0,0,0,0,4.158,69.62,3.2808728084,3.28084,6,P-GPS,
12800,2022-08-17 13:29:45,0,0,3.28084,,,3.2808728084,3.28084,0,0,0,0,0,8.288,3.2808728084,3.28084,0,0,0,0,0,10.8, 0.2, 0,0,0,1024,1024,1024,364,0,0,0,-100,9.8,-8.1,0,95,4.148,4.144,0,0,0,0,4.158,69.62,3.2808728084,3.28084,6,P-GPS,
12900,2022-08-17 13:29:45,0,0,3.28084,,,3.2808728084,3.28084,0,0,0,0,0,8.288,3.2808728084,3.28084,0,0,0,0,0,6, 0, -0.2,0,0,1024,1024,1024,364,0,0,0,-100,5,-8,0,95,4.148,4.144,0,0,0,0,4.158,69.62,3.2808728084,3.28084,6,P-GPS,
13000,2022-08-17 13:29:45,0,0,3.28084,,,3.2808728084,3.28084,0,0,0,0,0,8.286,3.2808728084,3.28084,0,0,0,0,0,1.3, 0.1, -0.2,0,0,1024,1024,1024,364,0,0,0,-100,0.2,-8.1,0,95,4.145,4.14,0,0,0,0,4.114,69.62,3.2808728084,3.28084,6,P-GPS,
13100,2022-08-17 13:29:46,0,0,3.28084,,,3.2808728084,3.28084,0,0,0,0,0,8.286,3.2808728084,3.28084,0,0,0,0,0,356.5, 0, -0.2,0,0,1024,1024,1024,364,0,0,0,-100,355.5,-8.1,0,95,4.145,4.14,0,0,0,0,4.114,69.62,3.2808728084,3.28084,6,P-GPS,
13200,2022-08-17 13:29:46,0,0,3.28084,,,3.2808728084,3.28084,0,0,0,0,0,8.286,3.2808728084,3.28084,0,0,0,0,0,351.8, 0.1, 0,0,0,1024,1024,1024,364,0,0,0,-100,350.7,-8,0,95,4.145,4.14,0,0,0,0,4.114,69.62,3.2808728084,3.28084,6,P-GPS,
13300,2022-08-17 13:29:46,0,0,3.28084,,,3.2808728084,3.28084,0,0,0,0,0,8.286,3.2808728084,3.28084,0,0,0,0,0,347, 0.2, 0.1,0,0,1024,1024,1024,364,0,0,0,-100,345.9,-8.1,0,95,4.145,4.14,0,0,0,0,4.114,69.62,3.2808728084,3.28084,6,P-GPS,
13400,2022-08-17 13:29:46,0,0,3.28084,,,3.2808728084,3.28084,0,0,0,0,0,8.286,3.2808728084,3.28084,0,0,0,0,0,342.2, 0.1, 0,0,0,1024,1024,1024,364,0,0,0,-100,341.1,-8.1,0,95,4.145,4.14,0,0,0,0,4.114,69.62,3.2808728084,3.28084,6,P-GPS,
13500,2022-08-17 13:29:46,0,0,3.28084,,,3.2808728084,3.28084,0,0,0,0,0,8.286,3.2808728084,3.28084,0,0,0,0,0,337.5, 0, 0,0,0,1024,1024,1024,364,0,0,0,-100,336.3,-8.1,0,95,4.145,4.14,0,0,0,0,4.114,69.62,3.2808728084,3.28084,6,P-GPS,
13600,2022-08-17 13:29:46,0,0,3.28084,,,3.2808728084,3.28084,0,0,0,0,0,8.286,3.2808728084,3.28084,0,0,0,0,0,332.6, -0.1, 0,0,0,1024,1024,1024,364,0,0,0,-100,331.5,-8.1,0,95,4.145,4.14,0,0,0,0,4.114,69.62,3.2808728084,3.28084,6,P-GPS,
13700,2022-08-17 13:29:46,0,0,3.28084,,,3.2808728084,3.28084,0,0,0,0,0,8.286,3.2808728084,3.28084,0,0,0,0,0,327.9, -0.1, -0.3,0,0,1024,1024,1024,364,0,0,0,-100,326.7,-8.1,0,95,4.145,4.14,0,0,0,0,4.114,69.62,3.2808728084,3.28084,6,P-GPS,
13800,2022-08-17 13:29:46,0,0,3.28084,,,3.2808728084,3.28084,0,0,0,0,0,8.286,3.2808728084,3.28084,0,0,0,0,0,323, 0, -0.5,0,0,1024,1024,1024,364,0,0,0,-100,321.9,-8,0,95,4.145,4.14,0,0,0,0,4.114,69.62,3.2808728084,3.28084,6,P-GPS,
13900,2022-08-17 13:29:46,0,0,3.28084,,,3.2808728084,3.28084,0,0,0,0,0,8.286,3.2808728084,3.28084,0,0,0,0,0,318.2, 0.1, -0.6,0,0,1024,1024,1024,364,0,0,0,-100,317.1,-8.1,0,95,4.145,4.14,0,0,0,0,4.114,69.62,3.2808728084,3.28084,6,P-GPS,
14000,2022-08-17 13:29:46,0,0,3.28084,,,3.2808728084,3.28084,0,0,0,0,0,8.286,3.2808728084,3.28084,0,0,0,0,0,313.4, 0, -0.3,0,0,1024,1024,1024,412,0,0,0,-93,312.3,-8,0,95,4.145,4.14,0,0,0,0,4.114,69.62,3.2808728084,3.28084,6,P-GPS,
14100,2022-08-17 13:29:47,0,0,3.28084,,,3.2808728084,3.28084,0,0,0,0,0,8.279,3.2808728084,3.28084,0,0,0,0,0,308.6, 0, 0,0,0,1024,1024,1024,547,0,0,0,-72,307.6,-8.1,0,95,4.141,4.137,0,0,0,0,4.162,69.62,3.2808728084,3.28084,6,P-GPS,
14200,2022-08-17 13:29:47,0,0,3.28084,,,3.2808728084,3.28084,0,0,0,0,0,8.279,3.2808728084,3.28084,0,0,0,0,0,304.2, 0, 0.3,0,0,1024,1024,1024,554,0,0,0,-71,304,-8,0,95,4.141,4.137,0,0,0,0,4.162,69.62,3.2808728084,3.28084,6,P-GPS,
14300,2022-08-17 13:29:47,0,0,3.28084,,,3.2808728084,3.28084,0,0,0,0,0,8.279,3.2808728084,3.28084,0,0,0,0,0,301, 0, 0.4,0,0,1024,1024,1024,555,0,0,0,-71,301.1,-8.1,0,95,4.141,4.137,0,0,0,0,4.162,69.62,3.2808728084,3.28084,6,P-GPS,
14400,2022-08-17 13:29:47,0,0,3.28084,,,3.2808728084,3.28084,0,0,0,0,0,8.279,3.2808728084,3.28084,0,0,0,0,0,298.2, 0.2, 0.4,0,0,1024,1024,1024,621,0,0,0,-61,298.5,-8.1,0,95,4.141,4.137,0,0,0,0,4.162,69.62,3.2808728084,3.28084,6,P-GPS,
14500,2022-08-17 13:29:47,0,0,3.28084,,,3.2808728084,3.28084,0,0,0,0,0,8.279,3.2808728084,3.28084,0,0,0,0,0,295.5, 0.3, 0.2,0,0,1024,1024,1024,597,0,0,0,-65,295.9,-8.1,0,95,4.141,4.137,0,0,0,0,4.162,69.62,3.2808728084,3.28084,6,P-GPS,
14600,2022-08-17 13:29:47,0,0,3.28084,,,3.2808728084,3.28084,0,0,0,0,0,8.279,3.2808728084,3.28084,0,0,0,0,0,293, 0.2, 0.1,0,0,1024,1024,1024,575,0,0,0,-68,293.7,-8,0,95,4.141,4.137,0,0,0,0,4.162,69.62,3.2808728084,3.28084,6,P-GPS,
14700,2022-08-17 13:29:47,0,0,3.28084,,,3.2808728084,3.28084,0,0,0,0,0,8.279,3.2808728084,3.28084,0,0,0,0,0,290.9, 0.3, 0,0,0,1024,1024,1024,574,0,0,0,-68,291.6,-8.1,0,95,4.141,4.137,0,0,0,0,4.162,69.62,3.2808728084,3.28084,6,P-GPS,
14800,2022-08-17 13:29:47,0,0,3.28084,,,3.2808728084,3.28084,0,0,0,0,0,8.279,3.2808728084,3.28084,0,0,0,0,0,288.7, 0.2, 0,0,0,1024,1024,1024,574,0,0,0,-68,289.3,-8,0,95,4.141,4.137,0,0,0,0,4.162,69.62,3.2808728084,3.28084,6,P-GPS,
14900,2022-08-17 13:29:47,0,0,3.28084,,,3.2808728084,3.28084,0,0,0,0,0,8.279,3.2808728084,3.28084,0,0,0,0,0,286.4, 0.2, 0.2,0,0,1024,1024,1024,574,0,0,0,-68,286.9,-8.1,0,95,4.141,4.137,0,0,0,0,4.162,69.62,3.2808728084,3.28084,6,P-GPS,
15000,2022-08-17 13:29:47,0,0,3.28084,,,3.2808728084,3.28084,0,0,0,0,0,8.279,3.2808728084,3.28084,0,0,0,0,0,283.9, 0.1, 0.2,0,0,1024,1024,1024,574,0,0,0,-68,284.5,-8.1,0,95,4.141,4.137,0,0,0,0,4.162,69.62,3.2808728084,3.28084,6,P-GPS,
15100,2022-08-17 13:29:47,0,0,3.28084,,,3.2808728084,3.28084,0,0,0,0,0,8.275,3.2808728084,3.28084,0,0,0,0,0,281.6, 0.1, 0.3,0,0,1024,1024,1024,574,0,0,0,-68,282.1,-8.1,0,95,4.14,4.134,0,0,0,0,4.138,69.8,3.2808728084,3.28084,6,P-GPS,
15200,2022-08-17 13:29:48,0,0,3.28084,,,3.2808728084,3.28084,0,0,0,0,0,8.275,3.2808728084,3.28084,0,0,0,0,0,279.2, 0.1, 0.2,0,0,1024,1024,1024,577,0,0,0,-68,279.7,-8,0,95,4.14,4.134,0,0,0,0,4.138,69.8,3.2808728084,3.28084,6,P-GPS,
15300,2022-08-17 13:29:48,0,0,3.28084,,,3.2808728084,3.28084,0,0,0,0,0,8.275,3.2808728084,3.28084,0,0,0,0,0,276.8, 0.2, 0,0,0,1024,1024,1024,588,0,0,0,-66,277.3,-8.1,0,95,4.14,4.134,0,0,0,0,4.138,69.8,3.2808728084,3.28084,6,P-GPS,
15400,2022-08-17 13:29:48,0,0,3.28084,,,3.2808728084,3.28084,0,0,0,0,0,8.275,3.2808728084,3.28084,0,0,0,0,0,274.4, 0.3, 0.2,0,0,1024,1024,1024,593,0,0,0,-65,274.9,-8.1,0,95,4.14,4.134,0,0,0,0,4.138,69.8,3.2808728084,3.28084,6,P-GPS,
15500,2022-08-17 13:29:48,0,0,3.28084,,,3.2808728084,3.28084,0,0,0,0,0,8.275,3.2808728084,3.28084,0,0,0,0,0,272.1, 0.3, 0.3,0,0,1024,1024,1024,592,0,0,0,-65,272.6,-8,0,95,4.14,4.134,0,0,0,0,4.138,69.8,3.2808728084,3.28084,6,P-GPS,
15600,2022-08-17 13:29:48,0,0,3.28084,,,3.2808728084,3.28084,0,0,0,0,0,8.275,3.2808728084,3.28084,0,0,0,0,0,269.8, 0.3, 0.2,0,0,1024,1024,1024,593,0,0,0,-65,270.3,-8,0,95,4.14,4.134,0,0,0,0,4.138,69.8,3.2808728084,3.28084,6,P-GPS,
15700,2022-08-17 13:29:48,0,0,3.28084,,,3.2808728084,3.28084,0,0,0,0,0,8.275,3.2808728084,3.28084,0,0,0,0,0,267.5, 0.2, -0.1,0,0,1024,1024,1024,593,0,0,0,-65,268.2,-8.1,0,95,4.14,4.134,0,0,0,0,4.138,69.8,3.2808728084,3.28084,6,P-GPS,
15800,2022-08-17 13:29:48,0,0,3.28084,,,3.2808728084,3.28084,0,0,0,0,0,8.275,3.2808728084,3.28084,0,0,0,0,0,265.3, 0.3, 0,0,0,1024,1024,1024,593,0,0,0,-65,265.9,-8,0,95,4.14,4.134,0,0,0,0,4.138,69.8,3.2808728084,3.28084,6,P-GPS,
15900,2022-08-17 13:29:48,0,0,3.28084,,,3.2808728084,3.28084,0,0,0,0,0,8.275,3.2808728084,3.28084,0,0,0,0,0,263, 0.4, 0,0,0,1024,1024,1024,593,0,0,0,-65,263.7,-8,0,95,4.14,4.134,0,0,0,0,4.138,69.8,3.2808728084,3.28084,6,P-GPS,
16000,2022-08-17 13:29:48,0,0,3.28084,,,3.2808728084,3.28084,0,0,0,0,0,8.275,3.2808728084,3.28084,0,0,0,0,0,260.7, 0.3, 0.1,0,0,1024,1024,1024,592,0,0,0,-65,261.4,-8,0,95,4.14,4.134,0,0,0,0,4.138,69.8,3.2808728084,3.28084,6,P-GPS,
16100,2022-08-17 13:29:48,0,0,3.28084,,,3.2808728084,3.28084,0,0,0,0,0,8.268,3.2808728084,3.28084,0,0,0,0,0,258.4, 0.2, 0,0,0,1024,1024,1024,593,0,0,0,-65,259.2,-8,0,95,4.135,4.131,0,0,0,0,4.178,69.8,3.2808728084,3.28084,6,P-GPS,
16200,2022-08-17 13:29:49,0,0,3.28084,,,3.2808728084,3.28084,0,0,0,0,0,8.268,3.2808728084,3.28084,0,0,0,0,0,256.2, 0.3, 0,0,0,1024,1024,1024,596,0,0,0,-65,257,-8,0,95,4.135,4.131,0,0,0,0,4.178,69.8,3.2808728084,3.28084,6,P-GPS,
16300,2022-08-17 13:29:49,0,0,3.28084,,,3.2808728084,3.28084,0,0,0,0,0,8.268,3.2808728084,3.28084,0,0,0,0,0,254, 0.1, -0.1,0,0,1024,1024,1024,596,0,0,0,-65,254.7,-8,0,95,4.135,4.131,0,0,0,0,4.178,69.8,3.2808728084,3.28084,6,P-GPS,
16400,2022-08-17 13:29:49,0,0,3.28084,,,3.2808728084,3.28084,0,0,0,0,0,8.268,3.2808728084,3.28084,0,0,0,0,0,251.8, 0.2, 0,0,0,1024,1024,1024,597,0,0,0,-65,252.5,-8.1,0,95,4.135,4.131,0,0,0,0,4.178,69.8,3.2808728084,3.28084,6,P-GPS,
16500,2022-08-17 13:29:49,0,0,3.28084,,,3.2808728084,3.28084,0,0,0,0,0,8.268,3.2808728084,3.28084,0,0,0,0,0,249.5, 0.2, 0,0,0,1024,1024,1024,597,0,0,0,-65,250.3,-8,0,95,4.135,4.131,0,0,0,0,4.178,69.8,3.2808728084,3.28084,6,P-GPS,
16600,2022-08-17 13:29:49,0,0,3.28084,,,3.2808728084,3.28084,0,0,0,0,0,8.268,3.2808728084,3.28084,0,0,0,0,0,247.3, 0.2, 0.1,0,0,1024,1024,1024,597,0,0,0,-65,248.1,-8.1,0,95,4.135,4.131,0,0,0,0,4.178,69.8,3.2808728084,3.28084,6,P-GPS,
16700,2022-08-17 13:29:49,0,0,3.28084,,,3.2808728084,3.28084,0,0,0,0,0,8.268,3.2808728084,3.28084,0,0,0,0,0,245.2, 0.1, 0,0,0,1024,1024,1024,606,0,0,0,-63,245.9,-8,0,95,4.135,4.131,0,0,0,0,4.178,69.8,3.2808728084,3.28084,6,P-GPS,
16800,2022-08-17 13:29:49,0,0,3.28084,,,3.2808728084,3.28084,0,0,0,0,0,8.268,3.2808728084,3.28084,0,0,0,0,0,242.9, 0.2, -0.1,0,0,1024,1024,1024,609,0,0,0,-63,243.7,-8.1,0,95,4.135,4.131,0,0,0,0,4.178,69.8,3.2808728084,3.28084,6,P-GPS,
16900,2022-08-17 13:29:49,0,0,3.28084,,,3.2808728084,3.28084,0,0,0,0,0,8.268,3.2808728084,3.28084,0,0,0,0,0,240.8, 0.1, -0.2,0,0,1024,1024,1024,608,0,0,0,-63,241.6,-8.1,0,95,4.135,4.131,0,0,0,0,4.178,69.8,3.2808728084,3.28084,6,P-GPS,
17000,2022-08-17 13:29:49,0,0,3.28084,,,3.2808728084,3.28084,0,0,0,0,0,8.268,3.2808728084,3.28084,0,0,0,0,0,238.6, 0.3, -0.1,0,0,1024,1024,1024,610,0,0,0,-63,239.5,-8,0,95,4.135,4.131,0,0,0,0,4.178,69.8,3.2808728084,3.28084,6,P-GPS,
17100,2022-08-17 13:29:50,0,0,3.28084,,,3.2808728084,3.28084,0,0,0,0,0,8.267,3.2808728084,3.28084,0,0,0,0,0,236.5, 0.4, -0.1,0,0,1024,1024,1024,610,0,0,0,-63,237.4,-8.1,0,95,4.134,4.131,0,0,0,0,4.177,69.8,3.2808728084,3.28084,6,P-GPS,
17200,2022-08-17 13:29:50,0,0,3.28084,,,3.2808728084,3.28084,0,0,0,0,0,8.267,3.2808728084,3.28084,0,0,0,0,0,234.4, 0.4, -0.1,0,0,1024,1024,1024,610,0,0,0,-63,235.3,-8,0,95,4.134,4.131,0,0,0,0,4.177,69.8,3.2808728084,3.28084,6,P-GPS,
17300,2022-08-17 13:29:50,0,0,3.28084,,,3.2808728084,3.28084,0,0,0,0,0,8.267,3.2808728084,3.28084,0,0,0,0,0,232.3, 0.3, -0.1,0,0,1024,1024,1024,612,0,0,0,-62,233.2,-8.1,0,95,4.134,4.131,0,0,0,0,4.177,69.8,3.2808728084,3.28084,6,P-GPS,
17400,2022-08-17 13:29:50,0,0,3.28084,,,3.2808728084,3.28084,0,0,0,0,0,8.267,3.2808728084,3.28084,0,0,0,0,0,230.2, 0.3, -0.2,0,0,1024,1024,1024,618,0,0,0,-62,231.1,-8.1,0,95,4.134,4.131,0,0,0,0,4.177,69.8,3.2808728084,3.28084,6,P-GPS,
17500,2022-08-17 13:29:50,0,0,3.28084,,,3.2808728084,3.28084,0,0,0,0,0,8.267,3.2808728084,3.28084,0,0,0,0,0,228.1, 0.2, -0.2,0,0,1024,1024,1024,616,0,0,0,-62,229.1,-8,0,95,4.134,4.131,0,0,0,0,4.177,69.8,3.2808728084,3.28084,6,P-GPS,
17600,2022-08-17 13:29:50,0,0,3.28084,,,3.2808728084,3.28084,0,0,0,0,0,8.267,3.2808728084,3.28084,0,0,0,0,0,226.1, 0.2, -0.2,0,0,1024,1024,1024,618,0,0,0,-62,227,-8.1,0,95,4.134,4.131,0,0,0,0,4.177,69.8,3.2808728084,3.28084,6,P-GPS,
17700,2022-08-17 13:29:50,0,0,3.28084,,,3.2808728084,3.28084,0,0,0,0,0,8.267,3.2808728084,3.28084,0,0,0,0,0,224.1, 0.1, -0.2,0,0,1024,1024,1024,618,0,0,0,-62,225,-8,0,95,4.134,4.131,0,0,0,0,4.177,69.8,3.2808728084,3.28084,6,P-GPS,
17800,2022-08-17 13:29:50,0,0,3.28084,,,3.2808728084,3.28084,0,0,0,0,0,8.267,3.2808728084,3.28084,0,0,0,0,0,222.1, 0.3, 0,0,0,1024,1024,1024,619,0,0,0,-61,223,-8,0,95,4.134,4.131,0,0,0,0,4.177,69.8,3.2808728084,3.28084,6,P-GPS,
17900,2022-08-17 13:29:50,0,0,3.28084,,,3.2808728084,3.28084,0,0,0,0,0,8.267,3.2808728084,3.28084,0,0,0,0,0,220.1, 0.4, 0,0,0,1024,1024,1024,623,0,0,0,-61,221,-8.1,0,95,4.134,4.131,0,0,0,0,4.177,69.8,3.2808728084,3.28084,6,P-GPS,
18000,2022-08-17 13:29:50,0,0,3.28084,,,3.2808728084,3.28084,0,0,0,0,0,8.267,3.2808728084,3.28084,0,0,0,0,0,218.1, 0.3, 0,0,0,1024,1024,1024,627,0,0,0,-60,218.9,-8,0,95,4.134,4.131,0,0,0,0,4.177,69.8,3.2808728084,3.28084,6,P-GPS,
18100,2022-08-17 13:29:51,0,0,3.28084,,,3.2808728084,3.28084,0,0,0,0,0,8.262,3.2808728084,3.28084,0,0,0,0,0,216.1, 0.4, 0,0,0,1024,1024,1024,637,0,0,0,-59,217,-8.1,0,95,4.132,4.127,0,0,0,0,4.167,69.8,3.2808728084,3.28084,6,P-GPS,
18200,2022-08-17 13:29:51,0,0,3.28084,,,3.2808728084,3.28084,0,0,0,0,0,8.262,3.2808728084,3.28084,0,0,0,0,0,214.2, 0.3, 0.1,0,0,1024,1024,1024,652,0,0,0,-56,215,-8.1,0,95,4.132,4.127,0,0,0,0,4.167,69.8,3.2808728084,3.28084,6,P-GPS,
18300,2022-08-17 13:29:51,0,0,3.28084,,,3.2808728084,3.28084,0,0,0,0,0,8.262,3.2808728084,3.28084,0,0,0,0,0,212.2, 0.4, 0,0,0,1024,1024,1024,650,0,0,0,-57,213.1,-8.1,0,95,4.132,4.127,0,0,0,0,4.167,69.8,3.2808728084,3.28084,6,P-GPS,
18400,2022-08-17 13:29:51,0,0,3.28084,,,3.2808728084,3.28084,0,0,0,0,0,8.262,3.2808728084,3.28084,0,0,0,0,0,210.4, 0.2, 0,0,0,1024,1024,1024,652,0,0,0,-56,211.4,-8.1,0,95,4.132,4.127,0,0,0,0,4.167,69.8,3.2808728084,3.28084,6,P-GPS,
18500,2022-08-17 13:29:51,0,0,3.28084,,,3.2808728084,3.28084,0,0,0,0,0,8.262,3.2808728084,3.28084,0,0,0,0,0,208.6, 0.2, -0.1,0,0,1024,1024,1024,653,0,0,0,-56,209.7,-8.1,0,95,4.132,4.127,0,0,0,0,4.167,69.8,3.2808728084,3.28084,6,P-GPS,
18600,2022-08-17 13:29:51,0,0,3.28084,,,3.2808728084,3.28084,0,0,0,0,0,8.262,3.2808728084,3.28084,0,0,0,0,0,206.8, 0.3, -0.1,0,0,1024,1024,1024,653,0,0,0,-56,207.9,-8,0,95,4.132,4.127,0,0,0,0,4.167,69.8,3.2808728084,3.28084,6,P-GPS,
18700,2022-08-17 13:29:51,0,0,3.28084,,,3.2808728084,3.28084,0,0,0,0,0,8.262,3.2808728084,3.28084,0,0,0,0,0,205.1, 0.2, 0,0,0,1024,1024,1024,671,0,0,0,-53,206.2,-8.1,0,95,4.132,4.127,0,0,0,0,4.167,69.8,3.2808728084,3.28084,6,P-GPS,
18800,2022-08-17 13:29:51,0,0,3.28084,,,3.2808728084,3.28084,0,0,0,0,0,8.262,3.2808728084,3.28084,0,0,0,0,0,203.3, 0.4, 0,0,0,1024,1024,1024,674,0,0,0,-53,204.5,-8.1,0,95,4.132,4.127,0,0,0,0,4.167,69.8,3.2808728084,3.28084,6,P-GPS,
18900,2022-08-17 13:29:51,0,0,3.28084,,,3.2808728084,3.28084,0,0,0,0,0,8.262,3.2808728084,3.28084,0,0,0,0,0,201.7, 0.3, 0,0,0,1024,1024,1024,631,0,0,0,-60,203,-8.1,0,95,4.132,4.127,0,0,0,0,4.167,69.8,3.2808728084,3.28084,6,P-GPS,
19000,2022-08-17 13:29:51,0,0,3.28084,,,3.2808728084,3.28084,0,0,0,0,0,8.262,3.2808728084,3.28084,0,0,0,0,0,200.1, 0.3, 0,0,0,1024,1024,1024,633,0,0,0,-59,201.3,-8.1,0,95,4.132,4.127,0,0,0,0,4.167,69.8,3.2808728084,3.28084,6,P-GPS,
19100,2022-08-17 13:29:51,0,0,3.28084,,,3.2808728084,3.28084,0,0,0,0,0,8.262,3.2808728084,3.28084,0,0,0,0,0,198.4, 0.2, 0,0,0,1024,1024,1024,634,0,0,0,-59,199.5,-8,0,95,4.132,4.127,0,0,0,0,4.167,69.8,3.2808728084,3.28084,6,P-GPS,
19200,2022-08-17 13:29:52,0,0,3.28084,,,3.2808728084,3.28084,0,0,0,0,0,8.257,3.2808728084,3.28084,0,0,0,0,0,196.5, 0.3, 0.1,0,0,1024,1024,1024,643,0,0,0,-58,197.6,-8,0,95,4.132,4.125,0,0,0,0,4.175,69.98,3.2808728084,3.28084,6,P-GPS,
19300,2022-08-17 13:29:52,0,0,3.28084,,,3.2808728084,3.28084,0,0,0,0,0,8.257,3.2808728084,3.28084,0,0,0,0,0,194.6, 0.3, 0,0,0,1024,1024,1024,663,0,0,0,-55,195.8,-8,0,95,4.132,4.125,0,0,0,0,4.175,69.98,3.2808728084,3.28084,6,P-GPS,
19400,2022-08-17 13:29:52,0,0,3.28084,,,3.2808728084,3.28084,0,0,0,0,0,8.257,3.2808728084,3.28084,0,0,0,0,0,192.8, 0.2, 0,0,0,1024,1024,1024,663,0,0,0,-55,193.9,-8,0,95,4.132,4.125,0,0,0,0,4.175,69.98,3.2808728084,3.28084,6,P-GPS,
19500,2022-08-17 13:29:52,0,0,3.28084,,,3.2808728084,3.28084,0,0,0,0,0,8.257,3.2808728084,3.28084,0,0,0,0,0,191.1, 0.3, 0.2,0,0,1024,1024,1024,666,0,0,0,-54,192.2,-8.1,0,95,4.132,4.125,0,0,0,0,4.175,69.98,3.2808728084,3.28084,6,P-GPS,
19600,2022-08-17 13:29:52,0,0,3.28084,,,3.2808728084,3.28084,0,0,0,0,0,8.257,3.2808728084,3.28084,0,0,0,0,0,189.4, 0.4, 0,0,0,1024,1024,1024,695,0,0,0,-50,190.6,-8.1,0,95,4.132,4.125,0,0,0,0,4.175,69.98,3.2808728084,3.28084,6,P-GPS,
19700,2022-08-17 13:29:52,0,0,3.28084,,,3.2808728084,3.28084,0,0,0,0,0,8.257,3.2808728084,3.28084,0,0,0,0,0,187.8, 0.3, 0.2,0,0,1024,1024,1024,754,0,0,0,-41,189,-8,0,95,4.132,4.125,0,0,0,0,4.175,69.98,3.2808728084,3.28084,6,P-GPS,
19800,2022-08-17 13:29:52,0,0,3.28084,,,3.2808728084,3.28084,0,0,0,0,0,8.257,3.2808728084,3.28084,0,0,0,0,0,186.2, 0.1, 0.1,0,0,1024,1024,1024,803,0,0,0,-33,187.7,-8,0,95,4.132,4.125,0,0,0,0,4.175,69.98,3.2808728084,3.28084,6,P-GPS,
19900,2022-08-17 13:29:52,0,0,3.28084,,,3.2808728084,3.28084,0,0,0,0,0,8.257,3.2808728084,3.28084,0,0,0,0,0,185, 0.2, 0.1,0,0,1024,1024,1024,813,0,0,0,-32,186.7,-8,0,95,4.132,4.125,0,0,0,0,4.175,69.98,3.2808728084,3.28084,6,P-GPS,
20000,2022-08-17 13:29:52,0,0,3.28084,,,3.2808728084,3.28084,0,0,0,0,0,8.257,3.2808728084,3.28084,0,0,0,0,0,184.2, 0.4, 0,0,0,1024,1024,1024,808,0,0,0,-33,186,-8.1,0,95,4.132,4.125,0,0,0,0,4.175,69.98,3.2808728084,3.28084,6,P-GPS,
20100,2022-08-17 13:29:52,0,0,3.28084,,,3.2808728084,3.28084,0,0,0,0,0,8.257,3.2808728084,3.28084,0,0,0,0,0,183.5, 0.1, 0.2,0,0,1024,1024,1024,809,0,0,0,-33,185.4,-8,0,95,4.132,4.125,0,0,0,0,4.175,69.98,3.2808728084,3.28084,6,P-GPS,
20200,2022-08-17 13:29:53,0,0,3.28084,,,3.2808728084,3.28084,0,0,0,0,0,8.252,3.2808728084,3.28084,0,0,0,0,0,182.8, 0.1, 0.2,0,0,1024,1024,1024,809,0,0,0,-33,184.8,-8.1,0,95,4.128,4.123,0,0,0,0,4.2,69.98,3.2808728084,3.28084,6,P-GPS,
20300,2022-08-17 13:29:53,0,0,3.28084,,,3.2808728084,3.28084,0,0,0,0,0,8.252,3.2808728084,3.28084,0,0,0,0,0,182.2, 0.3, 0.3,0,0,1024,1024,1024,809,0,0,0,-33,184.1,-8,0,95,4.128,4.123,0,0,0,0,4.2,69.98,3.2808728084,3.28084,6,P-GPS,
20400,2022-08-17 13:29:53,0,0,3.28084,,,3.2808728084,3.28084,0,0,0,0,0,8.252,3.2808728084,3.28084,0,0,0,0,0,181.6, 0.4, 0.3,0,0,1024,1024,1024,766,0,0,0,-39,183.5,-8,0,95,4.128,4.123,0,0,0,0,4.2,69.98,3.2808728084,3.28084,6,P-GPS,
20500,2022-08-17 13:29:53,0,0,3.28084,,,3.2808728084,3.28084,0,0,0,0,0,8.252,3.2808728084,3.28084,0,0,0,0,0,180.9, 0.3, 0.3,0,0,1024,1024,1024,740,0,0,0,-43,182.8,-8.1,0,95,4.128,4.123,0,0,0,0,4.2,69.98,3.2808728084,3.28084,6,P-GPS,
20600,2022-08-17 13:29:53,0,0,3.28084,,,3.2808728084,3.28084,0,0,0,0,0,8.252,3.2808728084,3.28084,0,0,0,0,0,180.1, 0.3, 0.4,0,0,1024,1024,1024,740,0,0,0,-43,181.8,-8,0,95,4.128,4.123,0,0,0,0,4.2,69.98,3.2808728084,3.28084,6,P-GPS,
20700,2022-08-17 13:29:53,0,0,3.28084,,,3.2808728084,3.28084,0,0,0,0,0,8.252,3.2808728084,3.28084,0,0,0,0,0,179, 0.3, 0.3,0,0,1024,1024,1024,740,0,0,0,-43,180.8,-8.1,0,95,4.128,4.123,0,0,0,0,4.2,69.98,3.2808728084,3.28084,6,P-GPS,
20800,2022-08-17 13:29:53,0,0,3.28084,,,3.2808728084,3.28084,0,0,0,0,0,8.252,3.2808728084,3.28084,0,0,0,0,0,177.9, 0.3, 0.3,0,0,1024,1024,1024,740,0,0,0,-43,179.6,-8,0,95,4.128,4.123,0,0,0,0,4.2,69.98,3.2808728084,3.28084,6,P-GPS,
20900,2022-08-17 13:29:53,0,0,3.28084,,,3.2808728084,3.28084,0,0,0,0,0,8.252,3.2808728084,3.28084,0,0,0,0,0,177, 0.3, 0.1,0,0,1024,1024,1024,740,0,0,0,-43,178.6,-8,0,95,4.128,4.123,0,0,0,0,4.2,69.98,3.2808728084,3.28084,6,P-GPS,
21000,2022-08-17 13:29:53,0,0,3.28084,,,3.2808728084,3.28084,0,0,0,0,0,8.252,3.2808728084,3.28084,0,0,0,0,0,175.9, 0.1, 0,0,0,1024,1024,1024,743,0,0,0,-43,177.5,-8.1,0,95,4.128,4.123,0,0,0,0,4.2,69.98,3.2808728084,3.28084,6,P-GPS,
21100,2022-08-17 13:29:54,0,0,3.28084,,,3.2808728084,3.28084,0,0,0,0,0,8.252,3.2808728084,3.28084,0,0,0,0,0,174.9, 0, 0.1,0,0,1024,1024,1024,747,0,0,0,-42,176.5,-8,0,95,4.128,4.123,0,0,0,0,4.2,69.98,3.2808728084,3.28084,6,P-GPS,
21200,2022-08-17 13:29:54,0,0,3.28084,,,3.2808728084,3.28084,0,0,0,0,0,8.251,3.2808728084,3.28084,0,0,0,0,0,173.8, 0, 0.1,0,0,1024,1024,1024,747,0,0,0,-42,175.4,-8,0,95,4.127,4.124,0,0,0,0,4.189,69.98,3.2808728084,3.28084,6,P-GPS,
21300,2022-08-17 13:29:54,0,0,3.28084,,,3.2808728084,3.28084,0,0,0,0,0,8.251,3.2808728084,3.28084,0,0,0,0,0,172.8, 0, 0.2,0,0,1024,1024,1024,749,0,0,0,-42,174.4,-8,0,95,4.127,4.124,0,0,0,0,4.189,69.98,3.2808728084,3.28084,6,P-GPS,
21400,2022-08-17 13:29:54,0,0,3.28084,,,3.2808728084,3.28084,0,0,0,0,0,8.251,3.2808728084,3.28084,0,0,0,0,0,171.7, 0, 0.3,0,0,1024,1024,1024,751,0,0,0,-41,173.4,-8.1,0,95,4.127,4.124,0,0,0,0,4.189,69.98,3.2808728084,3.28084,6,P-GPS,
21500,2022-08-17 13:29:54,0,0,3.28084,,,3.2808728084,3.28084,0,0,0,0,0,8.251,3.2808728084,3.28084,0,0,0,0,0,170.8, 0.1, 0.3,0,0,1024,1024,1024,752,0,0,0,-41,172.4,-8,0,95,4.127,4.124,0,0,0,0,4.189,69.98,3.2808728084,3.28084,6,P-GPS,
21600,2022-08-17 13:29:54,0,0,3.28084,,,3.2808728084,3.28084,0,0,0,0,0,8.251,3.2808728084,3.28084,0,0,0,0,0,169.8, 0.2, 0.1,0,0,1024,1024,1024,770,0,0,0,-38,171.4,-8.1,0,95,4.127,4.124,0,0,0,0,4.189,69.98,3.2808728084,3.28084,6,P-GPS,
21700,2022-08-17 13:29:54,0,0,3.28084,,,3.2808728084,3.28084,0,0,0,0,0,8.251,3.2808728084,3.28084,0,0,0,0,0,168.8, 0.3, -0.2,0,0,1024,1024,1024,775,0,0,0,-38,170.4,-8.1,0,95,4.127,4.124,0,0,0,0,4.189,69.98,3.2808728084,3.28084,6,P-GPS,
21800,2022-08-17 13:29:54,0,0,3.28084,,,3.2808728084,3.28084,0,0,0,0,0,8.251,3.2808728084,3.28084,0,0,0,0,0,167.8, 0.2, -0.1,0,0,1024,1024,1024,776,0,0,0,-38,169.6,-8.1,0,95,4.127,4.124,0,0,0,0,4.189,69.98,3.2808728084,3.28084,6,P-GPS,
21900,2022-08-17 13:29:54,0,0,3.28084,,,3.2808728084,3.28084,0,0,0,0,0,8.251,3.2808728084,3.28084,0,0,0,0,0,167, 0, 0,0,0,1024,1024,1024,776,0,0,0,-38,168.7,-8,0,95,4.127,4.124,0,0,0,0,4.189,69.98,3.2808728084,3.28084,6,P-GPS,
22000,2022-08-17 13:29:54,0,0,3.28084,,,3.2808728084,3.28084,0,0,0,0,0,8.251,3.2808728084,3.28084,0,0,0,0,0,166.1, 0.1, 0,0,0,1024,1024,1024,776,0,0,0,-38,167.9,-8.1,0,95,4.127,4.124,0,0,0,0,4.189,69.98,3.2808728084,3.28084,6,P-GPS,
22100,2022-08-17 13:29:54,0,0,3.28084,,,3.2808728084,3.28084,0,0,0,0,0,8.251,3.2808728084,3.28084,0,0,0,0,0,165.2, 0.2, 0.1,0,0,1024,1024,1024,776,0,0,0,-38,167.1,-8.1,0,95,4.127,4.124,0,0,0,0,4.189,69.98,3.2808728084,3.28084,6,P-GPS,
22200,2022-08-17 13:29:55,0,0,3.28084,,,3.2808728084,3.28084,0,0,0,0,0,8.25,3.2808728084,3.28084,0,0,0,0,0,164.4, 0.2, 0,0,0,1024,1024,1024,776,0,0,0,-38,166.3,-8,0,95,4.126,4.121,0,0,0,0,4.15,70.16,3.2808728084,3.28084,6,P-GPS,
22300,2022-08-17 13:29:55,0,0,3.28084,,,3.2808728084,3.28084,0,0,0,0,0,8.25,3.2808728084,3.28084,0,0,0,0,0,163.6, 0.2, 0,0,0,1024,1024,1024,776,0,0,0,-38,165.5,-8.1,0,95,4.126,4.121,0,0,0,0,4.15,70.16,3.2808728084,3.28084,6,P-GPS,
22400,2022-08-17 13:29:55,0,0,3.28084,,,3.2808728084,3.28084,0,0,0,0,0,8.25,3.2808728084,3.28084,0,0,0,0,0,162.8, 0.2, -0.1,0,0,1024,1024,1024,777,0,0,0,-37,164.7,-8.1,0,95,4.126,4.121,0,0,0,0,4.15,70.16,3.2808728084,3.28084,6,P-GPS,
22500,2022-08-17 13:29:55,0,0,3.28084,,,3.2808728084,3.28084,0,0,0,0,0,8.25,3.2808728084,3.28084,0,0,0,0,0,162.1, 0.3, -0.1,0,0,1024,1024,1024,778,0,0,0,-37,163.9,-8,0,95,4.126,4.121,0,0,0,0,4.15,70.16,3.2808728084,3.28084,6,P-GPS,
22600,2022-08-17 13:29:55,0,0,3.28084,,,3.2808728084,3.28084,0,0,0,0,0,8.25,3.2808728084,3.28084,0,0,0,0,0,161.3, 0.4, 0,0,0,1024,1024,1024,779,0,0,0,-37,163,-8.1,0,95,4.126,4.121,0,0,0,0,4.15,70.16,3.2808728084,3.28084,6,P-GPS,
22700,2022-08-17 13:29:55,0,0,3.28084,,,3.2808728084,3.28084,0,0,0,0,0,8.25,3.2808728084,3.28084,0,0,0,0,0,160.4, 0.4, 0,0,0,1024,1024,1024,784,0,0,0,-36,162.2,-8,0,95,4.126,4.121,0,0,0,0,4.15,70.16,3.2808728084,3.28084,6,P-GPS,
22800,2022-08-17 13:29:55,0,0,3.28084,,,3.2808728084,3.28084,0,0,0,0,0,8.25,3.2808728084,3.28084,0,0,0,0,0,159.6, 0.4, 0,0,0,1024,1024,1024,793,0,0,0,-35,161.5,-8.1,0,95,4.126,4.121,0,0,0,0,4.15,70.16,3.2808728084,3.28084,6,P-GPS,
22900,2022-08-17 13:29:55,0,0,3.28084,,,3.2808728084,3.28084,0,0,0,0,0,8.25,3.2808728084,3.28084,0,0,0,0,0,158.8, 0.3, 0.2,0,0,1024,1024,1024,1024,0,0,0,0,160.7,-8.1,0,95,4.126,4.121,0,0,0,0,4.15,70.16,3.2808728084,3.28084,6,P-GPS,
23000,2022-08-17 13:29:55,0,0,3.28084,,,3.2808728084,3.28084,0,0,0,0,0,8.25,3.2808728084,3.28084,0,0,0,0,0,158.1, 0.3, 0.1,0,0,1024,1024,1024,1024,0,0,0,0,160,-8,0,95,4.126,4.121,0,0,0,0,4.15,70.16,3.2808728084,3.28084,6,P-GPS,
23100,2022-08-17 13:29:55,0,0,3.28084,,,3.2808728084,3.28084,0,0,0,0,0,8.25,3.2808728084,3.28084,0,0,0,0,0,157.6, 0.4, 0.1,0,0,1024,1024,1024,1024,0,0,0,0,159.7,-8.1,0,95,4.126,4.121,0,0,0,0,4.15,70.16,3.2808728084,3.28084,6,P-GPS,
23200,2022-08-17 13:29:56,0,0,3.28084,,,3.2808728084,3.28084,0,0,0,0,0,8.247,3.2808728084,3.28084,0,0,0,0,0,157.3, 0.5, 0.1,0,0,1024,1024,1024,1024,0,0,0,0,159.6,-8,0,94,4.125,4.119,0,0,0,0,4.154,70.16,3.2808728084,3.28084,6,P-GPS,
23300,2022-08-17 13:29:56,0,0,3.28084,,,3.2808728084,3.28084,0,0,0,0,0,8.247,3.2808728084,3.28084,0,0,0,0,0,157.3, 0.3, 0,0,0,1024,1024,1024,1024,0,0,0,0,159.6,-8,0,94,4.125,4.119,0,0,0,0,4.154,70.16,3.2808728084,3.28084,6,P-GPS,
23400,2022-08-17 13:29:56,0,0,3.28084,,,3.2808728084,3.28084,0,0,0,0,0,8.247,3.2808728084,3.28084,0,0,0,0,0,157.3, 0.2, 0,0,0,1024,1024,1024,1024,0,0,0,0,159.6,-8,0,94,4.125,4.119,0,0,0,0,4.154,70.16,3.2808728084,3.28084,6,P-GPS,
23500,2022-08-17 13:29:56,0,0,3.28084,,,3.2808728084,3.28084,0,0,0,0,0,8.247,3.2808728084,3.28084,0,0,0,0,0,157.3, 0.2, 0,0,0,1024,1024,1024,1024,0,0,0,0,159.6,-8.1,0,94,4.125,4.119,0,0,0,0,4.154,70.16,3.2808728084,3.28084,6,P-GPS,
23600,2022-08-17 13:29:56,0,0,3.28084,,,3.2808728084,3.28084,0,0,0,0,0,8.247,3.2808728084,3.28084,0,0,0,0,0,157.2, 0.1, 0.1,0,0,1024,1024,1024,1024,0,0,0,0,159.6,-8,0,94,4.125,4.119,0,0,0,0,4.154,70.16,3.2808728084,3.28084,6,P-GPS,
23700,2022-08-17 13:29:56,0,0,3.28084,,,3.2808728084,3.28084,0,0,0,0,0,8.247,3.2808728084,3.28084,0,0,0,0,0,157.2, 0.2, 0,0,0,1024,1024,1024,1024,0,0,0,0,159.6,-8,0,94,4.125,4.119,0,0,0,0,4.154,70.16,3.2808728084,3.28084,6,P-GPS,
23800,2022-08-17 13:29:56,0,0,3.28084,,,3.2808728084,3.28084,0,0,0,0,0,8.247,3.2808728084,3.28084,0,0,0,0,0,157.2, 0.2, -0.1,0,0,1024,1024,1024,1024,0,0,0,0,159.6,-8.1,0,94,4.125,4.119,0,0,0,0,4.154,70.16,3.2808728084,3.28084,6,P-GPS,
23900,2022-08-17 13:29:56,0,0,3.28084,,,3.2808728084,3.28084,0,0,0,0,0,8.247,3.2808728084,3.28084,0,0,0,0,0,157.2, 0, -0.2,0,0,1024,1024,1024,1024,0,0,0,0,159.6,-8,0,94,4.125,4.119,0,0,0,0,4.154,70.16,3.2808728084,3.28084,6,P-GPS,
24000,2022-08-17 13:29:56,0,0,3.28084,,,3.2808728084,3.28084,0,0,0,0,0,8.247,3.2808728084,3.28084,0,0,0,0,0,157.2, 0, -0.3,0,0,1024,1024,1024,1024,0,0,0,0,159.6,-8.1,0,94,4.125,4.119,0,0,0,0,4.154,70.16,3.2808728084,3.28084,6,P-GPS,
24100,2022-08-17 13:29:57,0,0,3.28084,,,3.2808728084,3.28084,0,0,0,0,0,8.247,3.2808728084,3.28084,0,0,0,0,0,157.3, 0, -0.2,0,0,1024,1024,1024,1024,0,0,0,0,159.6,-8.1,0,94,4.125,4.119,0,0,0,0,4.154,70.16,3.2808728084,3.28084,6,P-GPS,
24200,2022-08-17 13:29:57,0,0,3.28084,,,3.2808728084,3.28084,0,0,0,0,0,8.247,3.2808728084,3.28084,0,0,0,0,0,157.3, 0.1, 0,0,0,1024,1024,1024,1024,0,0,0,0,159.6,-8,0,94,4.125,4.119,0,0,0,0,4.154,70.16,3.2808728084,3.28084,6,P-GPS,
24300,2022-08-17 13:29:57,0,0,3.28084,,,3.2808728084,3.28084,0,0,0,0,0,8.243,3.2808728084,3.28084,0,0,0,0,0,157.3, 0.1, -0.1,0,0,1024,1024,1024,1024,0,0,0,0,159.6,-8,0,94,4.124,4.119,0,0,0,0,4.142,70.16,3.2808728084,3.28084,6,P-GPS,
24400,2022-08-17 13:29:57,0,0,3.28084,,,3.2808728084,3.28084,0,0,0,0,0,8.243,3.2808728084,3.28084,0,0,0,0,0,157.3, 0, -0.1,0,0,1024,1024,1024,1024,0,0,0,0,159.6,-8,0,94,4.124,4.119,0,0,0,0,4.142,70.16,3.2808728084,3.28084,6,P-GPS,
24500,2022-08-17 13:29:57,0,0,3.28084,,,3.2808728084,3.28084,0,0,0,0,0,8.243,3.2808728084,3.28084,0,0,0,0,0,157.2, 0, -0.1,0,0,1024,1024,1024,1024,0,0,0,0,159.6,-8,0,94,4.124,4.119,0,0,0,0,4.142,70.16,3.2808728084,3.28084,6,P-GPS,
24600,2022-08-17 13:29:57,0,0,3.28084,,,3.2808728084,3.28084,0,0,0,0,0,8.243,3.2808728084,3.28084,0,0,0,0,0,157.3, 0, -0.2,0,0,1024,1024,1024,1024,0,0,0,0,159.6,-8.1,0,94,4.124,4.119,0,0,0,0,4.142,70.16,3.2808728084,3.28084,6,P-GPS,
24700,2022-08-17 13:29:57,0,0,3.28084,,,3.2808728084,3.28084,0,0,0,0,0,8.243,3.2808728084,3.28084,0,0,0,0,0,157.2, 0.1, -0.4,0,0,1024,1024,1024,1024,0,0,0,0,159.6,-8,0,94,4.124,4.119,0,0,0,0,4.142,70.16,3.2808728084,3.28084,6,P-GPS,
24800,2022-08-17 13:29:57,0,0,3.28084,,,3.2808728084,3.28084,0,0,0,0,0,8.243,3.2808728084,3.28084,0,0,0,0,0,157.2, 0.1, -0.4,0,0,1024,1024,1024,1024,0,0,0,0,159.6,-8,0,94,4.124,4.119,0,0,0,0,4.142,70.16,3.2808728084,3.28084,6,P-GPS,
24900,2022-08-17 13:29:57,0,0,3.28084,,,3.2808728084,3.28084,0,0,0,0,0,8.243,3.2808728084,3.28084,0,0,0,0,0,157.3, 0.1, -0.2,0,0,1024,1024,1024,1024,0,0,0,0,159.6,-8,0,94,4.124,4.119,0,0,0,0,4.142,70.16,3.2808728084,3.28084,6,P-GPS,
25000,2022-08-17 13:29:57,0,0,3.28084,,,3.2808728084,3.28084,0,0,0,0,0,8.243,3.2808728084,3.28084,0,0,0,0,0,157.3, 0.1, -0.2,0,0,1024,1024,1024,1024,0,0,0,0,159.6,-8,0,94,4.124,4.119,0,0,0,0,4.142,70.16,3.2808728084,3.28084,6,P-GPS,
25100,2022-08-17 13:29:58,0,0,3.28084,,,3.2808728084,3.28084,0,0,0,0,0,8.243,3.2808728084,3.28084,0,0,0,0,0,157.3, 0.1, -0.5,0,0,1024,1024,1024,1024,0,0,0,0,159.6,-8,0,94,4.124,4.119,0,0,0,0,4.142,70.16,3.2808728084,3.28084,6,P-GPS,
25200,2022-08-17 13:29:58,0,0,3.28084,,,3.2808728084,3.28084,0,0,0,0,0,8.243,3.2808728084,3.28084,0,0,0,0,0,157.3, 0.1, -0.6,0,0,1024,1024,1024,1024,0,0,0,0,159.6,-8,0,94,4.124,4.119,0,0,0,0,4.142,70.16,3.2808728084,3.28084,6,P-GPS,
25300,2022-08-17 13:29:58,0,0,3.28084,,,3.2808728084,3.28084,0,0,0,0,0,8.24,3.2808728084,3.28084,0,0,0,0,0,157.3, 0.2, -0.6,0,0,1024,1024,1024,1024,0,0,0,0,159.6,-8,0,94,4.122,4.119,0,0,0,0,4.145,70.34,3.2808728084,3.28084,6,P-GPS,
