time(millisecond),datetime(utc),latitude,longitude,height_above_takeoff(feet),height_above_ground_at_drone_location(feet),ground_elevation_at_drone_location(feet),altitude_above_seaLevel(feet),height_sonar(feet),speed(mph),distance(feet),mileage(feet),satellites,gpslevel,voltage(v),max_altitude(feet),max_ascent(feet),max_speed(mph),max_distance(feet), xSpeed(mph), ySpeed(mph), zSpeed(mph), compass_heading(degrees), pitch(degrees), roll(degrees),isPhoto,isVideo,rc_elevator,rc_aileron,rc_throttle,rc_rudder,rc_elevator(percent),rc_aileron(percent),rc_throttle(percent),rc_rudder(percent),gimbal_heading(degrees),gimbal_pitch(degrees),gimbal_roll(degrees),battery_percent,voltageCell1,voltageCell2,voltageCell3,voltageCell4,voltageCell5,voltageCell6,current(A),battery_temperature(f),altitude(feet),ascent(feet),flycStateRaw,flycState,message
0,2022-08-29 21:06:29,-34.9185043609181,-56.1683789711062,0,0,32.982298627612,32.982298627612,0,0,0,0,22,5,0,32.982298627612,0,0,0,0,0,0,282, -10.5, -0.3,0,0,364,364,364,1684,-100,-100,-100,100,293.3,0,0,59,3.929,3.925,0,0,0,0,0,79.7,32.982298627612,0,41,Motors_Started,"En vuelo Aeronave en Zona de altitud restringida (150). Vuela con precaución (Code: 190001)"
100,2022-08-29 21:06:29,-34.9185041343983,-56.1683792818988,0,0,32.982298627612,32.982298627612,0,0,0.12439961028,0.12439961028,22,5,0,32.982298627612,0,0,0.12439961028,0,0,0,282.8, -10.8, -0.6,0,0,753,669,364,1684,-41,-54,-100,100,292.9,0,0,59,3.929,3.925,0,0,0,0,0,79.7,32.982298627612,0,41,Motors_Started,
200,2022-08-29 21:06:29,-34.918504104246,-56.1683792822116,0,0,32.982298627612,32.982298627612,0,0,0.132030516036,0.135400922968,22,5,0,32.982298627612,0,0,0.132030516036,0,0,0,282.9, -10.2, 0,0,0,753,669,364,1684,-41,-54,-100,100,293.3,0,0,59,3.929,3.925,0,0,0,0,0,79.7,32.982298627612,0,41,Motors_Started,
300,2022-08-29 21:06:30,-34.9185040825047,-56.1683793788204,0,0,32.982298627612,32.982298627612,0.328084,0,0.15873196046,0.165371724452,22,5,0,32.982298627612,0,0,0.15873196046,0,0,0,282.5, -10.3, 0.3,0,0,736,629,364,1684,-44,-60,-100,100,293.1,0,0,59,3.929,3.925,0,0,0,0,0,79.7,32.982298627612,0,41,Motors_Started,
400,2022-08-29 21:06:30,-34.9185040585975,-56.1683794791444,0,0,32.982298627612,32.982298627612,0.328084,0,0.18779364118,0.196626646712,22,5,0,32.982298627612,0,0,0.18779364118,0,0,0,283.2, -9.9, 0.4,0,0,1024,1024,737,1024,0,0,-43,0,293.3,0,0,59,3.929,3.925,0,0,0,0,0,79.7,32.982298627612,0,41,Motors_Started,
500,2022-08-29 21:06:30,-34.9185039581144,-56.1683796005799,0,0.032808400000005,32.949490227612,32.982298627612,0.328084,0,0.238874351476,0.248239181172,22,5,0,32.982298627612,0,0,0.238874351476,0,0,0,282.5, -9.7, 0.6,0,0,1024,1024,1024,1024,0,0,0,0,293.5,0,0,59,3.929,3.925,0,0,0,0,0,79.7,32.982298627612,0,41,Motors_Started,"Setting new Return-To-Home altitude to 100m (328 ft). Data Recorder File Index is 26. Setting new Maximum Flight Altitude to 120m (394 ft)"
600,2022-08-29 21:06:30,-34.9185039262913,-56.1683796083274,0,0.032808400000005,32.949490227612,32.982298627612,0.328084,0,0.247965231032,0.260079076564,22,5,0,32.982298627612,0,0,0.247965231032,0,0,0,282.5, -9.9, 0.7,0,0,1024,1024,1024,1024,0,0,0,0,293.3,0,0,59,3.929,3.925,0,0,0,0,0,79.7,32.982298627612,0,41,Motors_Started,
700,2022-08-29 21:06:30,-34.9185039149622,-56.168379597248,0,0.032808400000005,32.949490227612,32.982298627612,0.328084,0,0.248117133924,0.26537730508,22,5,0,32.982298627612,0,0,0.248117133924,0,0,0,282.3, -9.8, 1,0,0,1024,1024,1024,1024,0,0,0,0,293.2,0,0,59,3.929,3.925,0,0,0,0,0,79.7,32.982298627612,0,41,Motors_Started,
800,2022-08-29 21:06:30,-34.91850390089,-56.1683795869205,0,0.032808400000005,32.949490227612,32.982298627612,0.328084,0,0.249221136584,0.271369431256,22,5,0,32.982298627612,0,0,0.249221136584,0,0,0,282.6, -10, 1.2,0,0,1024,1024,1024,1024,0,0,0,0,293.1,0,0,59,3.929,3.925,0,0,0,0,0,79.7,32.982298627612,0,41,Motors_Started,
900,2022-08-29 21:06:30,-34.9185039812953,-56.1683795452448,0,0.032808400000005,32.949490227612,32.982298627612,0.328084,0,0.220648629108,0.30324476036,22,5,0,32.982298627612,0,0,0.249221136584,0,0,0,282.5, -9.6, 1.4,0,0,1024,1024,1432,1024,0,0,62,0,293.3,0,0,59,3.929,3.925,0,0,0,0,0,79.7,32.982298627612,0,41,Motors_Started,
1000,2022-08-29 21:06:30,-34.9185039939304,-56.1683795366478,0,0.032808400000005,32.949490227612,32.982298627612,0.328084,0,0.215761817928,0.30852363192,22,5,0,32.982298627612,0,0,0.249221136584,0,0,0,282.2, -9.4, 1.4,0,0,1024,1024,1637,1024,0,0,93,0,293.2,0,0,59,3.929,3.925,0,0,0,0,0,79.7,32.982298627612,0,41,Motors_Started,
1100,2022-08-29 21:06:30,-34.9185040069514,-56.1683796091913,0,0.032808400000005,32.949490227612,32.982298627612,0.328084,0,0.230473760656,0.3307414804,22,5,0,32.982298627612,0,0,0.249221136584,0,0,0,281.9, -10.4, 1.1,0,0,1024,1024,1684,1024,0,0,100,0,293,0,0,59,3.929,3.925,0,0,0,0,0,79.7,32.982298627612,0,10,Assisted_Takeoff,
1200,2022-08-29 21:06:31,-34.9185040175754,-56.1683796774744,0,0.032808400000005,32.949490227612,32.982298627612,0.328084,0,0.245659128596,0.35153216348,22,5,0,32.982298627612,0,0,0.249221136584,0,0,0,281.7, -9.4, 2.1,0,0,1024,1024,1684,1024,0,0,100,0,292.7,0,0,59,3.929,3.925,0,0,0,0,0,79.7,32.982298627612,0,10,Assisted_Takeoff,
1300,2022-08-29 21:06:31,-34.9185040564903,-56.1683798927258,0,0.032808400000005,32.949490227612,32.982298627612,0.328084,0,0.297247056756,0.41747376664,22,5,7.897,32.982298627612,0,0,0.297247056756,0,0,0,281.5, -7.7, 2.4,0,0,1024,1024,1684,1024,0,0,100,0,292.6,0,0,59,3.929,3.925,0,0,0,0,0.607,79.7,32.982298627612,0,10,Assisted_Takeoff,
1400,2022-08-29 21:06:31,-34.9185040618283,-56.1683799355014,0,0.032808400000005,32.949490227612,32.982298627612,0.328084,0,0.30845965554,0.43041996128,22,5,7.897,32.982298627612,0,0,0.30845965554,0,0,0,281.4, -6, 2.3,0,0,1024,1024,1684,1024,0,0,100,0,292.5,0,0,59,3.929,3.925,0,0,0,0,0.607,79.7,32.982298627612,0,10,Assisted_Takeoff,
1500,2022-08-29 21:06:31,-34.9185040639258,-56.168379949568,0,0.032808400000005,32.949490227612,32.982298627612,0.328084,0,0.312132884004,0.4346948958,22,5,7.897,32.982298627612,0,0,0.312132884004,0,0,0,280.7, -5.6, 2.3,0,0,1024,1024,1024,1024,0,0,0,0,291.9,0,0,59,3.929,3.925,0,0,0,0,0.607,79.7,32.982298627612,0,10,Assisted_Takeoff,
1600,2022-08-29 21:06:31,-34.9185040660346,-56.1683799933865,0,0.032808400000005,32.949490227612,32.982298627612,0.328084,0,0.324202438196,0.44782809832,22,5,7.897,32.982298627612,0,0,0.324202438196,0,0,0,281.4, -5, 3.2,0,0,1024,1024,1024,1024,0,0,0,0,291.8,0,0,59,3.929,3.925,0,0,0,0,0.607,79.7,32.982298627612,0,10,Assisted_Takeoff,
1700,2022-08-29 21:06:31,-34.9185040506377,-56.1683800445995,0,0.032808400000005,32.949490227612,32.982298627612,0.328084,0,0.3405183836,0.46414699648,22,5,7.897,32.982298627612,0,0,0.3405183836,0,0,0,280.2, -5.7, 3.6,0,0,1024,1024,1024,1024,0,0,0,0,291.7,0,0,59,3.929,3.925,0,0,0,0,0.607,79.7,32.982298627612,0,10,Assisted_Takeoff,
1800,2022-08-29 21:06:31,-34.9185040153346,-56.1683800420649,0,0.032808400000005,32.949490227612,32.982298627612,0.328084,0,0.34431103464,0.47704725936,22,5,7.897,32.982298627612,0,0,0.34431103464,0,0,0,278.3, -6.4, 2.9,0,0,1024,1024,1024,1024,0,0,0,0,290.1,0,0,59,3.929,3.925,0,0,0,0,0.607,79.7,32.982298627612,0,10,Assisted_Takeoff,
1900,2022-08-29 21:06:31,-34.9185039495455,-56.1683800784023,0,0.032808400000005,32.949490227612,32.982298627612,0.328084,0,0.36367783316,0.50339896624,22,5,7.897,32.982298627612,0,0,0.36367783316,0,0,0,278.8, -7, 2.5,0,0,1024,1024,1024,1024,0,0,0,0,289.5,0,0,59,3.929,3.925,0,0,0,0,0.607,79.7,32.982298627612,0,10,Assisted_Takeoff,
2000,2022-08-29 21:06:31,-34.9185038944251,-56.1683801168423,0,0.032808400000005,32.949490227612,32.982298627612,0.328084,0,0.3826935818,0.52656497748,22,5,7.897,32.982298627612,0,0,0.3826935818,0,0,0,279, -7.9, 2.2,0,0,1024,1024,1083,1024,0,0,9,0,289.6,0,0,59,3.929,3.925,0,0,0,0,0.607,79.7,32.982298627612,0,10,Assisted_Takeoff,
2100,2022-08-29 21:06:31,-34.9185038688496,-56.1683802074915,0,0.032808400000005,32.949490227612,32.982298627612,0.328084,0,0.41115158796,0.55524608076,22,5,7.897,32.982298627612,0,0,0.41115158796,0,0,0,279.2, -8.8, 1.9,0,0,1024,1024,1544,1024,0,0,79,0,289.7,0,0,59,3.929,3.925,0,0,0,0,0.607,79.7,32.982298627612,0,10,Assisted_Takeoff,
2200,2022-08-29 21:06:32,-34.9185037784034,-56.1683804349602,0,0.032808400000005,32.949490227612,32.982298627612,0.328084,0,0.4867782308,0.6308727236,22,5,7.897,32.982298627612,0,0,0.4867782308,0,0,0,280.1, -9.1, 1.4,0,0,1024,1024,1544,1024,0,0,79,0,290.1,0,0,59,3.929,3.925,0,0,0,0,0.607,79.7,32.982298627612,0,10,Assisted_Takeoff,
2300,2022-08-29 21:06:32,-34.9185037806278,-56.1683804446217,0,0.032808400000005,32.949490227612,32.982298627612,0.328084,0,0.48902888704,0.63387797304,22,5,7.865,32.982298627612,0,0,0.48902888704,0,0,0,280.5, -7.2, 1.7,0,0,1024,1024,1684,1024,0,0,100,0,290.6,0,0,59,3.924,3.922,0,0,0,0,1.2,79.7,32.982298627612,0,10,Assisted_Takeoff,
2400,2022-08-29 21:06:32,-34.9185037797713,-56.1683804448362,0,0.032808400000005,32.949490227612,32.982298627612,0.328084,0,0.4892224566,0.63419621452,22,5,7.865,32.982298627612,0,0,0.4892224566,0,0,0,280.7, -6.3, 1.4,0,0,1024,1024,1684,1024,0,0,100,0,291.1,0,0,59,3.924,3.922,0,0,0,0,1.2,79.7,32.982298627612,0,10,Assisted_Takeoff,
2500,2022-08-29 21:06:32,-34.9185037505879,-56.16838051149,0,0.065616800000004,32.916681827612,32.982298627612,0.328084,0,0.51180775916,0.65680120212,22,5,7.865,32.982298627612,0,0,0.51180775916,0,0,0,279.3, -6, 1.3,0,0,1024,1024,1684,1024,0,0,100,0,290.7,0,0,59,3.924,3.922,0,0,0,0,1.2,79.7,32.982298627612,0,10,Assisted_Takeoff,
2600,2022-08-29 21:06:32,-34.9185037242087,-56.1683806780829,0,0.065616800000004,32.916681827612,32.982298627612,0.328084,0,0.56102035916,0.70755907776,22,5,7.865,32.982298627612,0,0,0.56102035916,0,0,0,280.1, -5.5, 2.9,0,0,1024,1024,1684,1024,0,0,100,0,290.5,0,0,59,3.924,3.922,0,0,0,0,1.2,79.7,32.982298627612,0,10,Assisted_Takeoff,
2700,2022-08-29 21:06:32,-34.9185036702958,-56.168380771525,0,0.065616800000004,32.916681827612,32.982298627612,0.328084,0,0.59464568832,0.74174214972,22,5,7.865,32.982298627612,0,0,0.59464568832,0,0,0,281.2, -4.3, 5,0,0,1024,1024,1684,1024,0,0,100,0,291.2,0,0,59,3.924,3.922,0,0,0,0,1.2,79.7,32.982298627612,0,10,Assisted_Takeoff,
2800,2022-08-29 21:06:32,-34.9185035723376,-56.1683808586728,0,0.065616800000004,32.916681827612,32.982298627612,0.328084,0,0.63376314364,0.78598099628,22,5,7.865,32.982298627612,0,0,0.63376314364,0,0,0,282.2, -2.1, 5,0,0,1024,1024,1684,1024,0,0,100,0,292,0,0,59,3.924,3.922,0,0,0,0,1.2,79.7,32.982298627612,0,10,Assisted_Takeoff,
2900,2022-08-29 21:06:32,-34.9185033715081,-56.1683809852037,0,0.032808400000005,32.949490227612,32.982298627612,0.328084,0.447388,0.70240487812,0.86845147136,22,5,7.865,32.982298627612,0,0.447388,0.70240487812,0.447388,0,-0.223694,283.5, -1.6, 5.2,0,0,1024,1024,1684,1024,0,0,100,0,293.1,0,0,59,3.924,3.922,0,0,0,0,1.2,79.7,32.982298627612,0,10,Assisted_Takeoff,
3000,2022-08-29 21:06:32,-34.9185029876489,-56.1683811905073,0,0.032808400000005,32.949490227612,32.982298627612,0.328084,0.7158208,0.83179792688,1.02138126628,22,5,7.865,32.982298627612,0,0.7158208,0.83179792688,0.671082,-0.223694,-0.447388,284.6, -1.4, 4.1,0,0,1024,1024,1684,1024,0,0,100,0,294.3,0,0,59,3.924,3.922,0,0,0,0,1.2,79.7,32.982298627612,0,6,P-GPS,
3100,2022-08-29 21:06:32,-34.9185026051559,-56.1683813644824,0,0.032808400000005,32.949490227612,32.982298627612,0.984252,0.9171454,0.9607447814,1.17032155976,22,5,7.865,32.982298627612,0,0.9171454,0.9607447814,0.894776,-0.223694,-1.11847,284.2, 0.9, -1.6,0,0,1024,1024,1024,1024,0,0,0,0,294.4,0,0,59,3.924,3.922,0,0,0,0,1.2,79.7,32.982298627612,0,6,P-GPS,
3200,2022-08-29 21:06:32,-34.9185022350887,-56.1683815400583,0.328084,0.36089240000001,32.949490227612,33.310382627612,1.312336,0.7158208,1.09188979872,1.31519689248,22,5,7.865,33.310382627612,0.328084,0.9171454,1.09188979872,0.671082,-0.223694,-1.789552,283.9, 1.8, -4.5,0,0,1024,1024,1024,1024,0,0,0,0,294.4,0,0,59,3.924,3.922,0,0,0,0,1.2,79.7,33.310382627612,0.328084,6,P-GPS,
3300,2022-08-29 21:06:33,-34.9185018632987,-56.1683817324583,0.656168,0.68897640000001,32.949490227612,33.638466627612,1.64042,0.4921268,1.2299705118,1.46255254024,22,5,7.815,33.638466627612,0.656168,0.9171454,1.2299705118,0.447388,-0.223694,-2.460634,283.9, 2.4, -3.8,0,0,1024,1024,1024,1024,0,0,0,0,294.4,0,0,59,3.86,3.847,0,0,0,0,2.149,79.7,33.638466627612,0.656168,6,P-GPS,
3400,2022-08-29 21:06:33,-34.9185015720555,-56.1683819082314,0.984252,1.0170604,32.949490227612,33.966550627612,2.296588,0.4921268,1.34440293016,1.58111225532,22,5,7.815,33.966550627612,0.984252,0.9171454,1.34440293016,0.447388,-0.223694,-2.460634,283.9, 2.7, -2.9,0,0,1024,1024,1024,1024,0,0,0,0,294.4,0,0,59,3.86,3.847,0,0,0,0,2.149,79.7,33.966550627612,0.984252,6,P-GPS,
3500,2022-08-29 21:06:33,-34.9185010866563,-56.1683824213071,1.312336,1.3451444,32.949490227612,34.294634627612,2.624672,0.3131716,1.57876317388,1.8154692182,22,5,7.815,34.294634627612,1.312336,0.9171454,1.57876317388,0.223694,-0.223694,-2.23694,283.9, 2.5, -2.6,0,0,1024,1024,1024,1024,0,0,0,0,294.4,0,0,59,3.86,3.847,0,0,0,0,2.149,79.7,34.294634627612,1.312336,6,P-GPS,
3600,2022-08-29 21:06:33,-34.9185008037052,-56.1683826836109,1.64042,1.7060368,32.916681827612,34.622718627612,2.952756,0.3131716,1.7082021544,1.9451444192,23,5,7.815,34.622718627612,1.64042,0.9171454,1.7082021544,0.223694,-0.223694,-2.013246,283.9, 2.3, -2.3,0,0,1024,1024,1024,1024,0,0,0,0,294.4,0,0,59,3.86,3.847,0,0,0,0,2.149,79.7,34.622718627612,1.64042,6,P-GPS,
3700,2022-08-29 21:06:33,-34.918500620335,-56.168382883724,1.968504,2.0341208,32.916681827612,34.950802627612,3.28084,0.223694,1.79795609428,2.03492132496,23,5,7.815,34.950802627612,1.968504,0.9171454,1.79795609428,0.223694,0,-1.565858,283.9, 2.2, -2.2,0,0,1024,1024,1024,1024,0,0,0,0,294.4,0,0,59,3.86,3.847,0,0,0,0,2.149,79.7,34.950802627612,1.968504,6,P-GPS,
3800,2022-08-29 21:06:33,-34.9185004598959,-56.1683830617131,1.968504,2.0013124,32.949490227612,34.950802627612,3.608924,0.223694,1.87705714668,2.11405190492,23,5,7.815,34.950802627612,1.968504,0.9171454,1.87705714668,0.223694,0,-0.894776,283.9, 2, -2,0,0,1024,1024,1024,1024,0,0,0,0,294.4,0,0,59,3.86,3.847,0,0,0,0,2.149,79.7,34.950802627612,1.968504,6,P-GPS,
3900,2022-08-29 21:06:33,-34.9185006238517,-56.1683830433297,2.296588,2.3622048,32.916681827612,35.278886627612,3.608924,0.223694,1.8284449404,2.17412408532,23,5,7.815,35.278886627612,2.296588,0.9171454,1.87705714668,0.223694,0,-0.447388,283.9, 2.2, -2.7,0,0,1024,1024,1024,1024,0,0,0,0,294.4,0,0,59,3.86,3.847,0,0,0,0,2.149,79.7,35.278886627612,2.296588,6,P-GPS,
4000,2022-08-29 21:06:33,-34.9185005846656,-56.1683830884731,2.296588,2.3622048,32.916681827612,35.278886627612,3.937008,0.223694,1.84810373368,2.19379272112,22,5,7.815,35.278886627612,2.296588,0.9171454,1.87705714668,0.223694,0,-0.223694,284, 2.2, -2.5,0,0,1024,1024,1024,1024,0,0,0,0,294.4,0,0,59,3.86,3.847,0,0,0,0,2.149,79.7,35.278886627612,2.296588,6,P-GPS,
4100,2022-08-29 21:06:33,-34.9185005189017,-56.1683830825379,2.296588,2.3622048,32.916681827612,35.278886627612,3.937008,0.223694,1.86488851112,2.21785112084,22,5,7.815,35.278886627612,2.296588,0.9171454,1.87705714668,0.223694,0,0,284, 2.1, -2.7,0,0,1024,1024,1024,1024,0,0,0,0,294.4,0,0,59,3.86,3.847,0,0,0,0,2.149,79.7,35.278886627612,2.296588,6,P-GPS,
4200,2022-08-29 21:06:33,-34.9185004810029,-56.1683830624701,2.296588,2.3293964,32.949490227612,35.278886627612,3.937008,0,1.87137145096,2.23292658064,22,5,7.815,35.278886627612,2.296588,0.9171454,1.87705714668,0,0,0,283.9, 1.8, -2.6,0,0,1024,1024,1024,1024,0,0,0,0,294.4,0,0,59,3.86,3.847,0,0,0,0,2.149,79.7,35.278886627612,2.296588,6,P-GPS,
4300,2022-08-29 21:06:34,-34.9185006311544,-56.1683829555787,2.296588,2.3622048,32.916681827612,35.278886627612,3.608924,0,1.809055176,2.2963583412,22,5,7.813,35.278886627612,2.296588,0.9171454,1.87705714668,0,0,0,283.8, 1.5, -2.7,0,0,1024,1024,1024,1024,0,0,0,0,294.4,0,0,59,3.882,3.874,0,0,0,0,2.247,79.7,35.278886627612,2.296588,6,P-GPS,
4400,2022-08-29 21:06:34,-34.9185006692633,-56.1683829847287,2.296588,2.3622048,32.916681827612,35.278886627612,3.608924,0,1.80440950656,2.31277238372,22,5,7.813,35.278886627612,2.296588,0.9171454,1.87705714668,0,0,0,283.7, 1.3, -2.5,0,0,1024,1024,1024,1024,0,0,0,0,294.4,0,0,59,3.882,3.874,0,0,0,0,2.247,79.7,35.278886627612,2.296588,6,P-GPS,
4500,2022-08-29 21:06:34,-34.9185007080805,-56.1683830238629,2.296588,2.3622048,32.916681827612,35.278886627612,3.608924,0,1.80171921776,2.33114508772,22,5,7.813,35.278886627612,2.296588,0.9171454,1.87705714668,0,0,0,283.5, 1.2, -2.1,0,0,1024,1024,1024,1024,0,0,0,0,294.4,0,0,59,3.882,3.874,0,0,0,0,2.247,79.7,35.278886627612,2.296588,6,P-GPS,
4600,2022-08-29 21:06:34,-34.9185007580916,-56.168383060055,2.296588,2.3622048,32.916681827612,35.278886627612,3.608924,0,1.79562341704,2.35236228,21,5,7.813,35.278886627612,2.296588,0.9171454,1.87705714668,0,0,0,283.4, 1.1, -1.8,0,0,1024,1024,1024,1024,0,0,0,0,294.4,0,0,59,3.882,3.874,0,0,0,0,2.247,79.7,35.278886627612,2.296588,6,P-GPS,
4700,2022-08-29 21:06:34,-34.9185007294009,-56.1683832134026,2.296588,2.3622048,32.916681827612,35.278886627612,3.608924,0,1.83473102984,2.39941936812,21,5,7.813,35.278886627612,2.296588,0.9171454,1.87705714668,0,0,0,283.3, 1, -1.8,0,0,1024,1024,1024,1024,0,0,0,0,294.4,0,0,59,3.882,3.874,0,0,0,0,2.247,79.7,35.278886627612,2.296588,6,P-GPS,
4800,2022-08-29 21:06:34,-34.9185007459443,-56.1683832704948,2.296588,2.3622048,32.916681827612,35.278886627612,3.608924,0,1.84226055764,2.41753288576,21,5,7.813,35.278886627612,2.296588,0.9171454,1.87705714668,0,0,0,283.3, 0.7, -1.6,0,0,1024,1024,1024,1024,0,0,0,0,294.4,0,0,59,3.882,3.874,0,0,0,0,2.247,79.7,35.278886627612,2.296588,6,P-GPS,
4900,2022-08-29 21:06:34,-34.91850075958,-56.1683832685157,2.296588,2.3622048,32.916681827612,35.278886627612,3.608924,0,1.8382874604,2.42254272844,21,5,7.813,35.278886627612,2.296588,0.9171454,1.87705714668,0,0,0,283.1, 0.8, -1.4,0,0,1024,1024,1024,1024,0,0,0,0,294.4,0,0,59,3.882,3.874,0,0,0,0,2.247,79.7,35.278886627612,2.296588,6,P-GPS,
5000,2022-08-29 21:06:34,-34.9185007749298,-56.1683832685846,2.296588,2.3622048,32.916681827612,35.278886627612,3.608924,0,1.83430452064,2.42814312232,21,5,7.813,35.278886627612,2.296588,0.9171454,1.87705714668,0,0,0,283, 0.8, -1.2,0,0,1024,1024,1024,1024,0,0,0,0,294.4,0,0,59,3.882,3.874,0,0,0,0,2.247,79.7,35.278886627612,2.296588,6,P-GPS,
5100,2022-08-29 21:06:34,-34.9185008049583,-56.1683833033241,2.296588,2.3622048,32.916681827612,35.278886627612,3.608924,0,1.83383536052,2.44324482884,21,5,7.813,35.278886627612,2.296588,0.9171454,1.87705714668,0,0,0,282.9, 0.6, -1.1,0,0,1024,1024,1024,1024,0,0,0,0,294.4,0,0,59,3.882,3.874,0,0,0,0,2.247,79.7,35.278886627612,2.296588,6,P-GPS,
5200,2022-08-29 21:06:35,-34.9185007400566,-56.1683833063256,2.296588,2.3622048,32.916681827612,35.278886627612,3.608924,0,1.85129271016,2.46694233616,21,5,7.813,35.278886627612,2.296588,0.9171454,1.87705714668,0,0,0,282.9, 0.6, -1,0,0,1024,1024,1024,1024,0,0,0,0,294.4,0,0,59,3.882,3.874,0,0,0,0,2.247,79.7,35.278886627612,2.296588,6,P-GPS,
5300,2022-08-29 21:06:35,-34.9185008004149,-56.1683833632463,2.296588,2.3622048,32.916681827612,35.278886627612,3.608924,0,1.84771331372,2.49478026356,21,5,7.735,35.278886627612,2.296588,0.9171454,1.87705714668,0,0,0,282.7, 0.7, -0.9,0,0,1024,1024,1024,1024,0,0,0,0,294.4,0,0,59,3.866,3.857,0,0,0,0,4.955,79.7,35.278886627612,2.296588,6,P-GPS,
5400,2022-08-29 21:06:35,-34.9185008559701,-56.1683834152067,2.296588,2.3622048,32.916681827612,35.278886627612,3.608924,0,1.84469166008,2.52032160296,21,5,7.735,35.278886627612,2.296588,0.9171454,1.87705714668,0,0,0,282.7, 0.8, -0.8,0,0,1024,1024,1024,1024,0,0,0,0,294.4,0,0,59,3.866,3.857,0,0,0,0,4.955,79.7,35.278886627612,2.296588,6,P-GPS,
5500,2022-08-29 21:06:35,-34.9185009091844,-56.168383417173,2.296588,2.3622048,32.916681827612,35.278886627612,3.608924,0,1.83171265704,2.5397474566,21,5,7.735,35.278886627612,2.296588,0.9171454,1.87705714668,0,0,0,282.6, 0.7, -0.9,0,0,1024,1024,1024,1024,0,0,0,0,294.4,0,0,59,3.866,3.857,0,0,0,0,4.955,79.7,35.278886627612,2.296588,6,P-GPS,"Punto de origen actualizado. Altitud de RPO establecida en 100m (Code: 3000001)"
5600,2022-08-29 21:06:35,-34.9185010140928,-56.168383418736,2.296588,2.3622048,32.916681827612,35.278886627612,3.608924,0,1.80595806304,2.57802501688,21,5,7.735,35.278886627612,2.296588,0.9171454,1.87705714668,0,0,0,282.6, 0.7, -0.9,0,0,1024,1024,1024,1024,0,0,0,0,294.4,0,0,59,3.866,3.857,0,0,0,0,4.955,79.7,35.278886627612,2.296588,6,P-GPS,
5700,2022-08-29 21:06:35,-34.9185010007217,-56.1683834455971,2.296588,2.3622048,32.916681827612,35.278886627612,3.608924,0,1.81517722344,2.58742790432,21,5,7.735,35.278886627612,2.296588,0.9171454,1.87705714668,0,0,0,282.5, 0.5, -1.1,0,0,1024,1024,1024,1024,0,0,0,0,294.4,0,0,59,3.866,3.857,0,0,0,0,4.955,79.7,35.278886627612,2.296588,6,P-GPS,
5800,2022-08-29 21:06:35,-34.918500987572,-56.1683834690865,2.624672,2.6902888,32.916681827612,35.606970627612,3.608924,0,1.82359913972,2.59593512244,21,5,7.735,35.606970627612,2.624672,0.9171454,1.87705714668,0,0,0,282.5, 0.4, -0.9,0,0,1024,1024,1024,1024,0,0,0,0,294.4,0,0,59,3.866,3.857,0,0,0,0,4.955,79.7,35.606970627612,2.624672,6,P-GPS,
5900,2022-08-29 21:06:35,-34.9185010064725,-56.1683834596718,2.624672,2.6902888,32.916681827612,35.606970627612,3.608924,0,1.81687013688,2.60338262924,21,5,7.735,35.606970627612,2.624672,0.9171454,1.87705714668,0,0,0,282.4, 0.4, -0.8,0,0,1024,1024,1024,1024,0,0,0,0,294.4,0,0,59,3.866,3.857,0,0,0,0,4.955,79.7,35.606970627612,2.624672,6,P-GPS,
6000,2022-08-29 21:06:35,-34.9185009626853,-56.1683834343596,2.624672,2.6902888,32.916681827612,35.606970627612,3.608924,0,1.8221129192,2.621063076,21,5,7.735,35.606970627612,2.624672,0.9171454,1.87705714668,0,0,0,282.4, 0.5, -0.8,0,0,1024,1024,1024,1024,0,0,0,0,294.4,0,0,59,3.866,3.857,0,0,0,0,4.955,79.7,35.606970627612,2.624672,6,P-GPS,
6100,2022-08-29 21:06:35,-34.9185010009439,-56.1683834230263,2.624672,2.6902888,32.916681827612,35.606970627612,3.608924,0,1.81014769572,2.63542659352,21,5,7.735,35.606970627612,2.624672,0.9171454,1.87705714668,0,0,0,282.4, 0.6, -0.8,0,0,1024,1024,1024,1024,0,0,0,0,294.4,0,0,59,3.866,3.857,0,0,0,0,4.955,79.7,35.606970627612,2.624672,6,P-GPS,
6200,2022-08-29 21:06:35,-34.9185010331464,-56.1683834132359,2.624672,2.6902888,32.916681827612,35.606970627612,3.608924,0,1.8000492702,2.64753617396,21,5,7.735,35.606970627612,2.624672,0.9171454,1.87705714668,0,0,0,282.3, 0.6, -0.7,0,0,1024,1024,1024,1024,0,0,0,0,294.4,0,0,59,3.866,3.857,0,0,0,0,4.955,79.7,35.606970627612,2.624672,6,P-GPS,
6300,2022-08-29 21:06:36,-34.9185010269233,-56.1683834103422,2.624672,2.6902888,32.916681827612,35.606970627612,3.608924,0,1.80094165868,2.6499672764,21,5,7.723,35.606970627612,2.624672,0.9171454,1.87705714668,0,0,0,282.3, 0.9, -0.6,0,0,1024,1024,1024,1024,0,0,0,0,294.4,0,0,59,3.863,3.855,0,0,0,0,4.399,79.7,35.606970627612,2.624672,6,P-GPS,
6400,2022-08-29 21:06:36,-34.9185010297755,-56.1683833579841,2.624672,2.6902888,32.916681827612,35.606970627612,3.608924,0,1.788713968,2.6656660958,21,5,7.723,35.606970627612,2.624672,0.9171454,1.87705714668,0,0,0,282.2, 0.8, -0.5,0,0,1024,1024,1024,1024,0,0,0,0,294.4,0,0,59,3.863,3.855,0,0,0,0,4.399,79.7,35.606970627612,2.624672,6,P-GPS,
6500,2022-08-29 21:06:36,-34.9185010526641,-56.1683833977933,2.624672,2.6902888,32.916681827612,35.606970627612,3.608924,0,1.79183404684,2.68021005952,21,5,7.723,35.606970627612,2.624672,0.9171454,1.87705714668,0,0,0,282.2, 0.6, -0.6,0,0,1024,1024,1024,1024,0,0,0,0,294.4,0,0,59,3.863,3.855,0,0,0,0,4.399,79.7,35.606970627612,2.624672,6,P-GPS,
6600,2022-08-29 21:06:36,-34.9185010707228,-56.1683834306421,2.624672,2.6902888,32.916681827612,35.606970627612,3.937008,0,1.79469822016,2.69204076856,21,5,7.723,35.606970627612,2.624672,0.9171454,1.87705714668,0,0,0,282.1, 0.6, -0.7,0,0,1024,1024,1024,1024,0,0,0,0,294.4,0,0,59,3.863,3.855,0,0,0,0,4.399,79.7,35.606970627612,2.624672,6,P-GPS,
6700,2022-08-29 21:06:36,-34.9185011043933,-56.1683834221366,2.624672,2.6902888,32.916681827612,35.606970627612,3.937008,0,1.78460307548,2.70458670072,21,5,7.723,35.606970627612,2.624672,0.9171454,1.87705714668,0,0,0,282, 0.7, -0.7,0,0,1024,1024,1024,1024,0,0,0,0,294.4,0,0,59,3.863,3.855,0,0,0,0,4.399,79.7,35.606970627612,2.624672,6,P-GPS,
6800,2022-08-29 21:06:36,-34.918501132545,-56.1683834043145,2.624672,2.6902888,32.916681827612,35.606970627612,3.937008,0,1.77379270768,2.71616150424,22,5,7.723,35.606970627612,2.624672,0.9171454,1.87705714668,0,0,0,282, 0.3, -0.9,0,0,1024,1024,1024,1024,0,0,0,0,294.4,0,0,59,3.863,3.855,0,0,0,0,4.399,79.7,35.606970627612,2.624672,6,P-GPS,
6900,2022-08-29 21:06:36,-34.9185011908799,-56.1683834086485,2.624672,2.6902888,32.916681827612,35.606970627612,3.937008,0,1.76070871776,2.7374836834,22,5,7.723,35.606970627612,2.624672,0.9171454,1.87705714668,0,0,0,281.9, 0, -0.8,0,0,1024,1024,1024,1024,0,0,0,0,294.4,0,0,59,3.863,3.855,0,0,0,0,4.399,79.7,35.606970627612,2.624672,6,P-GPS,
7000,2022-08-29 21:06:36,-34.9185011728751,-56.1683833729611,2.624672,2.6902888,32.916681827612,35.606970627612,3.937008,0,1.75701449192,2.75001977304,22,5,7.723,35.606970627612,2.624672,0.9171454,1.87705714668,0,0,0,281.9, 0.1, -0.8,0,0,1024,1024,1024,1024,0,0,0,0,294.4,0,0,59,3.863,3.855,0,0,0,0,4.399,79.7,35.606970627612,2.624672,6,P-GPS,
7100,2022-08-29 21:06:36,-34.9185011410886,-56.1683833422106,2.624672,2.6902888,32.916681827612,35.606970627612,3.937008,0,1.75786094864,2.76481964228,22,5,7.723,35.606970627612,2.624672,0.9171454,1.87705714668,0,0,0,281.9, 0.2, -1,0,0,1024,1024,1024,1024,0,0,0,0,294.4,0,0,59,3.863,3.855,0,0,0,0,4.399,79.7,35.606970627612,2.624672,6,P-GPS,
7200,2022-08-29 21:06:36,-34.9185011103762,-56.1683833103729,2.624672,2.6902888,32.916681827612,35.606970627612,3.937008,0,1.75832354708,2.779527648,22,5,7.723,35.606970627612,2.624672,0.9171454,1.87705714668,0,0,0,282, 0.2, -1.2,0,0,1024,1024,1024,1024,0,0,0,0,294.4,0,0,59,3.863,3.855,0,0,0,0,4.399,79.7,35.606970627612,2.624672,6,P-GPS,
7300,2022-08-29 21:06:37,-34.9185011834998,-56.1683831902751,2.624672,2.6902888,32.916681827612,35.606970627612,3.937008,0,1.71380910996,2.8242783056,22,5,7.72,35.606970627612,2.624672,0.9171454,1.87705714668,0,0,0,281.9, 0.1, -1.2,0,0,1024,1024,1024,1024,0,0,0,0,294.4,0,0,59,3.861,3.854,0,0,0,0,4.408,79.7,35.606970627612,2.624672,6,P-GPS,
7400,2022-08-29 21:06:37,-34.9185012073337,-56.1683831284567,2.624672,2.6902888,32.916681827612,35.606970627612,3.937008,0,1.69431763952,2.84471465796,22,5,7.72,35.606970627612,2.624672,0.9171454,1.87705714668,0,0,0,281.9, 0, -1.1,0,0,1024,1024,1024,1024,0,0,0,0,294.4,0,0,59,3.861,3.854,0,0,0,0,4.408,79.7,35.606970627612,2.624672,6,P-GPS,
7500,2022-08-29 21:06:37,-34.9185011558187,-56.168383068654,2.624672,2.6902888,32.916681827612,35.606970627612,3.937008,0,1.69414703584,2.87066282152,22,5,7.72,35.606970627612,2.624672,0.9171454,1.87705714668,0,0,0,281.9, 0, -1.2,0,0,1024,1024,1024,1024,0,0,0,0,294.4,0,0,59,3.861,3.854,0,0,0,0,4.408,79.7,35.606970627612,2.624672,6,P-GPS,
7600,2022-08-29 21:06:37,-34.9185011020923,-56.1683830121463,2.624672,2.6902888,32.916681827612,35.606970627612,3.937008,0,1.69564309888,2.89654864912,22,5,7.72,35.606970627612,2.624672,0.9171454,1.87705714668,0,0,0,281.8, 0.2, -1.1,0,0,1024,1003,1024,1024,0,-3,0,0,294.4,0,0,59,3.861,3.854,0,0,0,0,4.408,79.7,35.606970627612,2.624672,6,P-GPS,
7700,2022-08-29 21:06:37,-34.918501021385,-56.1683829059208,2.624672,2.6902888,32.916681827612,35.606970627612,3.937008,0,1.69418312508,2.93987214132,22,5,7.72,35.606970627612,2.624672,0.9171454,1.87705714668,0,0,0,281.9, -0.1, -1,0,0,1024,1003,1024,1024,0,-3,0,0,294.4,0,0,59,3.861,3.854,0,0,0,0,4.408,79.7,35.606970627612,2.624672,6,P-GPS,
7800,2022-08-29 21:06:37,-34.9185009913589,-56.1683828567141,2.624672,2.6902888,32.916681827612,35.606970627612,3.937008,0,1.69193246884,2.95822187944,22,5,7.72,35.606970627612,2.624672,0.9171454,1.87705714668,0,0,0,282, 0, -1.2,0,0,1024,927,1024,1024,0,-15,0,0,294.4,0,0,59,3.861,3.854,0,0,0,0,4.408,79.7,35.606970627612,2.624672,6,P-GPS,
7900,2022-08-29 21:06:37,-34.918500965557,-56.1683828650488,2.624672,2.6902888,32.916681827612,35.606970627612,3.937008,0,1.7004921804,2.96795941256,22,5,7.72,35.606970627612,2.624672,0.9171454,1.87705714668,0,0,0,281.8, 0, -1.4,0,0,1024,898,1024,1024,0,-19,0,0,294.4,0,0,59,3.861,3.854,0,0,0,0,4.408,79.7,35.606970627612,2.624672,6,P-GPS,
8000,2022-08-29 21:06:37,-34.9185009348389,-56.1683828821131,2.624672,2.6902888,32.916681827612,35.606970627612,3.937008,0,1.71215884744,2.98027568592,22,5,7.72,35.606970627612,2.624672,0.9171454,1.87705714668,0,0,0,281.9, 0.3, -2.7,0,0,1024,1020,1024,1024,0,-1,0,0,294.4,0,0,59,3.861,3.854,0,0,0,0,4.408,79.7,35.606970627612,2.624672,6,P-GPS,
8100,2022-08-29 21:06:37,-34.9185008512101,-56.1683830737199,2.624672,2.6902888,32.916681827612,35.606970627612,3.937008,0,1.77373037172,3.04521335204,22,5,7.72,35.606970627612,2.624672,0.9171454,1.87705714668,0,0,0,282, 0.6, -2.9,0,0,1024,1024,1024,1024,0,0,0,0,294.4,0,0,59,3.861,3.854,0,0,0,0,4.408,79.7,35.606970627612,2.624672,6,P-GPS,
8200,2022-08-29 21:06:37,-34.9185007948008,-56.1683831272126,2.952756,3.0183728,32.916681827612,35.935054627612,3.937008,0,1.79966541192,3.07128290668,22,5,7.72,35.935054627612,2.952756,0.9171454,1.87705714668,0,0,0,282, 0.4, -1.8,0,0,1024,1024,1024,1024,0,0,0,0,294.4,0,0,59,3.861,3.854,0,0,0,0,4.408,79.7,35.935054627612,2.952756,6,P-GPS,
8300,2022-08-29 21:06:38,-34.9185007828896,-56.1683831387065,2.952756,3.0183728,32.916681827612,35.935054627612,3.937008,0,1.8051837848,3.07682424544,22,5,7.72,35.935054627612,2.952756,0.9171454,1.87705714668,0,0,0,281.9, 0.7, -1.5,0,0,1024,592,1024,1024,0,-65,0,0,294.4,0,0,59,3.861,3.854,0,0,0,0,4.408,79.7,35.935054627612,2.952756,6,P-GPS,
8400,2022-08-29 21:06:38,-34.918500768876,-56.1683831524002,2.952756,3.0183728,32.916681827612,35.935054627612,3.937008,0,1.81170937556,3.08337608292,22,5,7.72,35.935054627612,2.952756,0.9171454,1.87705714668,0,0,0,281.8, 1.2, -1.7,0,0,1024,364,1024,1024,0,-100,0,0,294.4,0,0,59,3.861,3.854,0,0,0,0,4.408,79.7,35.935054627612,2.952756,6,P-GPS,
8500,2022-08-29 21:06:38,-34.9185007386904,-56.1683831840213,2.952756,3.0183728,32.916681827612,35.935054627612,3.937008,0,1.82620740752,3.09789379992,22,5,7.711,35.935054627612,2.952756,0.9171454,1.87705714668,0,0,0,281.7, 1.2, -8.6,0,0,1024,364,1024,1024,0,-100,0,0,294.4,0,0,59,3.859,3.852,0,0,0,0,4.306,79.7,35.935054627612,2.952756,6,P-GPS,
8600,2022-08-29 21:06:38,-34.918500818888,-56.1683831918388,2.952756,3.0183728,32.916681827612,35.935054627612,3.937008,0.223694,1.80678155388,3.1272474754,22,5,7.711,35.935054627612,2.952756,0.9171454,1.87705714668,-0.223694,0,0,281.3, 1, -16.5,0,0,1024,364,1024,1024,0,-100,0,0,294.4,0,0,59,3.859,3.852,0,0,0,0,4.306,79.7,35.935054627612,2.952756,6,P-GPS,
8700,2022-08-29 21:06:38,-34.9185011020141,-56.1683832659884,2.952756,3.0183728,32.916681827612,35.935054627612,3.937008,0.9171454,1.75061357308,3.23290364676,22,5,7.711,35.935054627612,2.952756,0.9171454,1.87705714668,-0.894776,-0.223694,0,281.4, 1.1, -18.6,0,0,1024,364,1024,1024,0,-100,0,0,294.4,0,0,59,3.859,3.852,0,0,0,0,4.306,79.7,35.935054627612,2.952756,6,P-GPS,
8800,2022-08-29 21:06:38,-34.918501599187,-56.1683833863353,2.952756,3.0183728,32.916681827612,35.935054627612,3.937008,1.3645334,1.66132879332,3.4178478784,22,5,7.711,35.935054627612,2.952756,1.3645334,1.87705714668,-1.342164,-0.223694,0,281.5, 0.9, -18.9,0,0,1024,364,1024,1024,0,-100,0,0,294.4,0,0,59,3.859,3.852,0,0,0,0,4.306,79.7,35.935054627612,2.952756,6,P-GPS,
8900,2022-08-29 21:06:38,-34.9185023441016,-56.168383605467,2.952756,3.0511812,32.883873427612,35.935054627612,3.937008,2.0579848,1.5696030686,3.6974082548,22,5,7.711,35.935054627612,2.952756,2.0579848,1.87705714668,-2.013246,-0.447388,0,281.6, 0.7, -19.2,0,0,1024,364,1024,1024,0,-100,0,0,294.4,0,0,59,3.859,3.852,0,0,0,0,4.306,79.7,35.935054627612,2.952756,6,P-GPS,
9000,2022-08-29 21:06:38,-34.9185033033919,-56.1683838955479,3.28084,3.4120736,32.851065027612,36.263138627612,3.937008,2.9527608,1.52290687288,4.0580053792,22,5,7.711,36.263138627612,3.28084,2.9527608,1.87705714668,-2.908022,-0.447388,0,281.7, 1, -18.6,0,0,1024,364,1106,1088,0,-100,12,10,294.4,0,0,59,3.859,3.852,0,0,0,0,4.306,79.7,36.263138627612,3.28084,6,P-GPS,
9100,2022-08-29 21:06:38,-34.9185046321208,-56.1683842479989,3.28084,3.444882,32.818256627612,36.263138627612,3.937008,3.4225182,1.58175529996,4.554134004,22,5,7.711,36.263138627612,3.28084,3.4225182,1.87705714668,-3.35541,-0.671082,0,281.4, 1.1, -18.3,0,0,1024,364,1684,1024,0,-100,100,0,294.4,0,0,59,3.859,3.852,0,0,0,0,4.306,79.7,36.263138627612,3.28084,6,P-GPS,
9200,2022-08-29 21:06:39,-34.9185061011597,-56.168384632078,3.28084,3.5104988,32.752639827612,36.263138627612,3.937008,4.1159696,1.80866803688,5.1022967512,22,5,7.711,36.263138627612,3.28084,4.1159696,1.87705714668,-4.026492,-0.894776,-0.223694,281.4, 0.8, -17.6,0,0,1024,641,1684,1038,0,-58,100,2,294.5,0,0,59,3.859,3.852,0,0,0,0,4.306,79.7,36.263138627612,3.28084,6,P-GPS,
9300,2022-08-29 21:06:39,-34.918508003179,-56.1683850775262,3.608924,3.8713912,32.719831427612,36.591222627612,3.937008,4.1159696,2.25902566284,5.8089240704,22,5,7.711,36.591222627612,3.608924,4.1159696,2.25902566284,-4.697574,-0.894776,-0.671082,281.6, 0.9, -15.7,0,0,1024,1024,1504,1024,0,0,73,0,294.5,0,0,59,3.859,3.852,0,0,0,0,4.306,79.7,36.591222627612,3.608924,6,P-GPS,
9400,2022-08-29 21:06:39,-34.9185105289575,-56.168385616225,3.937008,4.2979004,32.621406227612,36.919306627612,4.265092,5.256809,3.00273303572,6.744422788,22,5,7.711,36.919306627612,3.937008,5.256809,3.00273303572,-5.144962,-1.11847,-1.565858,281.8, 0.5, -5.6,0,0,1024,1024,1333,1024,0,0,47,0,294.5,0,0,59,3.859,3.852,0,0,0,0,4.306,79.7,36.919306627612,3.937008,6,P-GPS,
9500,2022-08-29 21:06:39,-34.9185126120647,-56.1683861294857,4.265092,4.6587928,32.588597827612,37.247390627612,4.593176,5.0107456,3.6944226904,7.5198165136,22,5,7.688,37.247390627612,4.265092,5.256809,3.6944226904,-4.921268,-0.894776,-2.23694,282.3, 0.2, 15.8,0,0,1024,1024,1284,1024,0,0,39,0,294.5,0,0,59,3.847,3.838,0,0,0,0,4.5,79.7,37.247390627612,4.265092,6,P-GPS,
9600,2022-08-29 21:06:39,-34.9185144598455,-56.1683865847897,4.92126,5.3477692,32.555789427612,37.903558627612,4.92126,4.1159696,4.3317914772,8.2075790028,23,5,7.688,37.903558627612,4.92126,5.256809,4.3317914772,-4.026492,-0.894776,-2.23694,282.2, 0.7, 18.4,0,0,1024,1024,1284,1024,0,0,39,0,294.5,0,0,59,3.847,3.838,0,0,0,0,4.5,79.7,37.903558627612,4.92126,6,P-GPS,
9700,2022-08-29 21:06:39,-34.9185161347213,-56.1683869219371,5.249344,5.74147,32.490172627612,38.231642627612,5.249344,3.4225182,4.9102363776,8.826935978,23,5,7.688,38.231642627612,5.249344,5.256809,4.9102363776,-3.35541,-0.671082,-2.013246,282, 1.2, 17.7,0,0,1024,1024,1223,1024,0,0,30,0,294.5,0,0,59,3.847,3.838,0,0,0,0,4.5,79.7,38.231642627612,5.249344,6,P-GPS,
9800,2022-08-29 21:06:39,-34.9185178259223,-56.1683871487466,5.905512,6.4304464,32.457364227612,38.887810627612,5.249344,2.5053728,5.4881563436,9.447670906,23,5,7.688,38.887810627612,5.905512,5.256809,5.4881563436,-2.460634,-0.447388,-1.789552,281.8, 0.8, 15,0,0,1024,1093,1030,1024,0,10,1,0,294.5,0,0,59,3.847,3.838,0,0,0,0,4.5,79.7,38.887810627612,5.905512,6,P-GPS,
9900,2022-08-29 21:06:39,-34.9185187369618,-56.1683872544907,6.233596,6.7913388,32.424555827612,39.215894627612,5.577428,1.8119214,5.801017246,9.7815948012,23,5,7.688,39.215894627612,6.233596,5.256809,5.801017246,-1.789552,-0.223694,-1.342164,281.8, 0.6, 11.8,0,0,1024,1684,1024,1024,0,100,0,0,294.5,0,0,59,3.847,3.838,0,0,0,0,4.5,79.7,39.215894627612,6.233596,6,P-GPS,
10000,2022-08-29 21:06:39,-34.9185194329881,-56.1683873095636,6.233596,6.7913388,32.424555827612,39.215894627612,5.577428,1.11847,6.03838602,10.0360567516,23,5,7.688,39.215894627612,6.233596,5.256809,6.03838602,-1.11847,0,-0.671082,281.8, 0.3, 12.3,0,0,1024,1684,1024,1024,0,100,0,0,294.5,0,0,59,3.847,3.838,0,0,0,0,4.5,79.7,39.215894627612,6.233596,6,P-GPS,
10100,2022-08-29 21:06:39,-34.9185198007493,-56.1683873484046,6.56168,7.1194228,32.424555827612,39.543978627612,5.577428,0.447388,6.1655513784,10.1707352336,23,5,7.688,39.543978627612,6.56168,5.256809,6.1655513784,-0.447388,0,-0.223694,282, 0.1, 18.7,0,0,1024,1684,1024,1024,0,100,0,0,294.5,0,0,59,3.847,3.838,0,0,0,0,4.5,79.7,39.543978627612,6.56168,6,P-GPS,
10200,2022-08-29 21:06:39,-34.9185198890533,-56.1683873306814,6.56168,7.1194228,32.424555827612,39.543978627612,5.577428,0.223694,6.1928479672,10.2033795916,23,5,7.688,39.543978627612,6.56168,5.256809,6.1928479672,0.223694,0,0,282.3, 1, 19.1,0,0,1024,1684,1024,1024,0,100,0,0,294.5,0,0,59,3.847,3.838,0,0,0,0,4.5,79.7,39.543978627612,6.56168,6,P-GPS,
10300,2022-08-29 21:06:40,-34.9185185336603,-56.1683868076924,6.56168,7.1194228,32.424555827612,39.543978627612,5.577428,0.894776,5.6775592368,10.7220803956,23,5,7.688,39.543978627612,6.56168,5.256809,6.1928479672,0.894776,0,0,282.2, 0.9, 18.7,0,0,1024,1684,1024,1024,0,100,0,0,294.5,0,0,59,3.847,3.838,0,0,0,0,4.5,79.7,39.543978627612,6.56168,6,P-GPS,
10400,2022-08-29 21:06:40,-34.9185178449392,-56.1683865384647,6.56168,7.0866144,32.457364227612,39.543978627612,5.577428,1.8119214,5.415518546,10.9859255484,22,5,7.688,39.543978627612,6.56168,5.256809,6.1928479672,1.789552,0.223694,0,282, 0.6, 16.6,0,0,1024,1444,1024,1024,0,64,0,0,294.5,0,0,59,3.847,3.838,0,0,0,0,4.5,79.7,39.543978627612,6.56168,6,P-GPS,
10500,2022-08-29 21:06:40,-34.9185170201682,-56.168386220176,6.233596,6.725722,32.490172627612,39.215894627612,5.577428,2.5053728,5.10252641,11.3015751648,22,5,7.679,39.543978627612,6.56168,5.256809,6.1928479672,2.460634,0.447388,0,282, 0.5, 15.9,0,0,1024,1444,1024,1024,0,64,0,0,294.5,0,0,59,3.851,3.84,0,0,0,0,4.992,79.88,39.215894627612,6.233596,6,P-GPS,
10600,2022-08-29 21:06:40,-34.9185159864661,-56.1683858604888,6.233596,6.6929136,32.522981027612,39.215894627612,5.577428,3.1540854,4.7158137992,11.6937667784,22,5,7.679,39.543978627612,6.56168,5.256809,6.1928479672,3.131716,0.447388,0,282, 0.6, 13,0,0,1024,1024,1024,1024,0,0,0,0,294.5,0,0,59,3.851,3.84,0,0,0,0,4.992,79.88,39.215894627612,6.233596,6,P-GPS,
10700,2022-08-29 21:06:40,-34.9185144291949,-56.1683857721221,6.233596,6.6601052,32.555789427612,39.215894627612,5.577428,3.4225182,4.1992455412,12.2625332008,22,5,7.679,39.543978627612,6.56168,5.256809,6.1928479672,3.35541,0.671082,0,281.5, 0.6, -6,0,0,1115,1024,1024,1024,14,0,0,0,294.5,0,0,59,3.851,3.84,0,0,0,0,4.992,79.88,39.215894627612,6.233596,6,P-GPS,
10800,2022-08-29 21:06:40,-34.9185130830759,-56.1683854999263,6.233596,6.5944884,32.621406227612,39.215894627612,5.577428,3.1988242,3.7338911956,12.7603678624,22,5,7.679,39.543978627612,6.56168,5.256809,6.1928479672,3.131716,0.671082,0,281.5, 0, -13.7,0,0,1443,1024,1024,1024,63,0,0,0,294.5,0,0,59,3.851,3.84,0,0,0,0,4.992,79.88,39.215894627612,6.233596,6,P-GPS,
10900,2022-08-29 21:06:40,-34.9185118320238,-56.1683852508939,5.905512,6.233596,32.654214627612,38.887810627612,5.905512,2.7290668,3.310531602,13.2228678772,22,5,7.679,39.543978627612,6.56168,5.256809,6.1928479672,2.684328,0.447388,0,282.4, -3.1, -9.9,0,0,1026,1024,1024,1024,0,0,0,0,294.5,0,0,59,3.851,3.84,0,0,0,0,4.992,79.88,38.887810627612,5.905512,6,P-GPS,
11000,2022-08-29 21:06:40,-34.9185107681271,-56.1683851091814,5.905512,6.233596,32.654214627612,38.887810627612,5.905512,2.23694,2.97265101376,13.6133206456,23,5,7.679,39.543978627612,6.56168,5.256809,6.1928479672,2.23694,0.223694,0,282.4, -5.5, -7.3,0,0,1024,1024,1024,1024,0,0,0,0,294.5,0,0,59,3.851,3.84,0,0,0,0,4.992,79.88,38.887810627612,5.905512,6,P-GPS,
11100,2022-08-29 21:06:40,-34.9185095965887,-56.16838554967,5.905512,6.233596,32.654214627612,38.887810627612,5.905512,2.013246,2.74268053396,14.0606303712,23,5,7.679,39.543978627612,6.56168,5.256809,6.1928479672,2.013246,0,0,281.5, 1.3, -8.7,0,0,1024,1024,1024,1024,0,0,0,0,294.5,0,0,59,3.851,3.84,0,0,0,0,4.992,79.88,38.887810627612,5.905512,6,P-GPS,
11200,2022-08-29 21:06:40,-34.9185087194241,-56.1683856342608,5.905512,6.2007876,32.687023027612,38.887810627612,5.905512,1.342164,2.54996071152,14.3816605652,23,5,7.679,39.543978627612,6.56168,5.256809,6.1928479672,1.342164,0,0,281.5, 1.5, -9.8,0,0,1024,1024,1024,1024,0,0,0,0,294.5,0,0,59,3.851,3.84,0,0,0,0,4.992,79.88,38.887810627612,5.905512,6,P-GPS,
11300,2022-08-29 21:06:41,-34.9185081096011,-56.1683856673908,5.905512,6.2007876,32.687023027612,38.887810627612,5.905512,1.11847,2.42565296476,14.6043639844,23,5,7.679,39.543978627612,6.56168,5.256809,6.1928479672,1.11847,0,0,281.6, 1.8, -9.2,0,0,1053,1024,1024,1024,4,0,0,0,294.5,0,0,59,3.851,3.84,0,0,0,0,4.992,79.88,38.887810627612,5.905512,6,P-GPS,
11400,2022-08-29 21:06:41,-34.9185076486358,-56.1683856961282,5.905512,6.2007876,32.687023027612,38.887810627612,5.905512,0.671082,2.34233603296,14.7727695016,23,5,7.679,39.543978627612,6.56168,5.256809,6.1928479672,0.671082,0,0,281.7, 1.8, -8.2,0,0,1684,1024,1024,1024,100,0,0,0,294.5,0,0,59,3.851,3.84,0,0,0,0,4.992,79.88,38.887810627612,5.905512,6,P-GPS,
11500,2022-08-29 21:06:41,-34.9185081307171,-56.1683863513379,5.905512,6.2007876,32.687023027612,38.887810627612,5.905512,0.447388,2.60126648744,15.0361225284,23,5,7.673,39.543978627612,6.56168,5.256809,6.1928479672,0.447388,0,0,281.7, 1.1, -6.3,0,0,1684,1024,1024,1024,100,0,0,0,294.5,0,0,59,3.848,3.839,0,0,0,0,4.448,79.88,38.887810627612,5.905512,6,P-GPS,
11600,2022-08-29 21:06:41,-34.9185080164134,-56.1683865994134,5.905512,6.233596,32.654214627612,38.887810627612,5.905512,0.223694,2.64326123944,15.1212603264,23,5,7.673,39.543978627612,6.56168,5.256809,6.1928479672,0.223694,0,0,282.2, -6.7, -4.2,0,0,1684,1024,1024,1024,100,0,0,0,294.5,0,0,59,3.848,3.839,0,0,0,0,4.448,79.88,38.887810627612,5.905512,6,P-GPS,
11700,2022-08-29 21:06:41,-34.9185079288959,-56.1683868989622,5.905512,6.233596,32.654214627612,38.887810627612,5.905512,0.4921268,2.70550205508,15.2164046864,23,5,7.673,39.543978627612,6.56168,5.256809,6.1928479672,0.223694,-0.447388,0,282.5, -13.7, -3.4,0,0,1684,1024,1024,1024,100,0,0,0,294.5,0,0,59,3.848,3.839,0,0,0,0,4.448,79.88,38.887810627612,5.905512,6,P-GPS,
11800,2022-08-29 21:06:41,-34.9185078301161,-56.1683873901179,5.905512,6.233596,32.654214627612,38.887810627612,5.905512,1.006623,2.81882554952,15.3676842188,23,5,7.673,39.543978627612,6.56168,5.256809,6.1928479672,0.447388,-0.894776,0,282.5, -15.9, -2.8,0,0,1684,1024,1024,1024,100,0,0,0,294.5,0,0,59,3.848,3.839,0,0,0,0,4.448,79.88,38.887810627612,5.905512,6,P-GPS,
11900,2022-08-29 21:06:41,-34.9185076102599,-56.1683881106123,5.905512,6.233596,32.654214627612,38.887810627612,5.905512,1.6329662,2.9801674182,15.5976711028,23,5,7.673,39.543978627612,6.56168,5.256809,6.1928479672,0.447388,-1.565858,0,282.3, -16.2, -2.6,0,0,1684,1024,1024,1024,100,0,0,0,294.5,0,0,59,3.848,3.839,0,0,0,0,4.448,79.88,38.887810627612,5.905512,6,P-GPS,
12000,2022-08-29 21:06:41,-34.9185077846337,-56.1683891105136,5.905512,6.2664044,32.621406227612,38.887810627612,5.905512,2.3264176,3.28048238844,15.9035110076,23,5,7.673,39.543978627612,6.56168,5.256809,6.1928479672,0.671082,-2.23694,0,282.1, -15.9, -2.6,0,0,1684,1024,1024,1024,100,0,0,0,294.5,0,0,59,3.848,3.839,0,0,0,0,4.448,79.88,38.887810627612,5.905512,6,P-GPS,
12100,2022-08-29 21:06:41,-34.9185075268917,-56.1683904194859,5.905512,6.2992128,32.588597827612,38.887810627612,5.905512,3.0422384,3.614501428,16.3062341176,23,5,7.673,39.543978627612,6.56168,5.256809,6.1928479672,0.894776,-2.908022,0,282.1, -15.9, -2.4,0,0,1392,1024,1024,1024,56,0,0,0,294.5,0,0,59,3.848,3.839,0,0,0,0,4.448,79.88,38.887810627612,5.905512,6,P-GPS,
12200,2022-08-29 21:06:42,-34.9185072411601,-56.1683919209111,5.905512,6.3320212,32.555789427612,38.887810627612,5.905512,3.467257,4.01410774,16.7673233712,22,5,7.673,39.543978627612,6.56168,5.256809,6.1928479672,0.894776,-3.35541,0,282, -14.9, -2.1,0,0,1239,1024,1024,1024,33,0,0,0,294.5,0,0,59,3.848,3.839,0,0,0,0,4.448,79.88,38.887810627612,5.905512,6,P-GPS,
12300,2022-08-29 21:06:42,-34.9185067748535,-56.1683938442738,5.905512,6.397638,32.490172627612,38.887810627612,5.905512,3.9593838,4.5358597252,17.3673561988,22,5,7.673,39.543978627612,6.56168,5.256809,6.1928479672,1.11847,-3.802798,0,281.7, -7.9, -2.4,0,0,1290,1024,1024,1024,40,0,0,0,294.5,0,0,59,3.848,3.839,0,0,0,0,4.448,79.88,38.887810627612,5.905512,6,P-GPS,
12400,2022-08-29 21:06:42,-34.9185063323092,-56.1683959818833,5.905512,6.4304464,32.457364227612,38.887810627612,6.233596,4.1830778,5.139599902,18.0269362724,23,5,7.673,39.543978627612,6.56168,5.256809,6.1928479672,1.11847,-4.026492,0,281.8, -3.3, -3.5,0,0,1290,1024,1024,1024,40,0,0,0,294.5,0,0,59,3.848,3.839,0,0,0,0,4.448,79.88,38.887810627612,5.905512,6,P-GPS,
12500,2022-08-29 21:06:42,-34.9185059202184,-56.1683982423035,5.905512,6.4960632,32.391747427612,38.887810627612,6.233596,4.3844024,5.7932744636,18.7196856384,23,5,7.683,39.543978627612,6.56168,5.256809,6.1928479672,1.11847,-4.250186,0,281.9, -2.6, -2.4,0,0,1481,1024,1024,1024,69,0,0,0,294.5,0,0,59,3.842,3.833,0,0,0,0,4.394,79.88,38.887810627612,5.905512,6,P-GPS,
12600,2022-08-29 21:06:42,-34.9185055305464,-56.168400426144,5.905512,6.5288716,32.358939027612,38.887810627612,6.233596,4.3844024,6.432742988,19.388288022,23,5,7.683,39.543978627612,6.56168,5.256809,6.432742988,1.11847,-4.250186,0,281.8, -4.9, -2.1,0,0,1446,947,1024,1024,64,-12,0,0,294.5,0,0,59,3.842,3.833,0,0,0,0,4.394,79.88,38.887810627612,5.905512,6,P-GPS,
12700,2022-08-29 21:06:42,-34.9185050898194,-56.1684027612201,5.905512,6.5944884,32.293322227612,38.887810627612,6.233596,4.6080964,7.1221130888,20.105151562,23,5,7.683,39.543978627612,6.56168,5.256809,7.1221130888,1.11847,-4.47388,0,281.6, -7.4, -1.6,0,0,1090,456,1024,1024,10,-86,0,0,294.5,0,0,59,3.842,3.833,0,0,0,0,4.394,79.88,38.887810627612,5.905512,6,P-GPS,
12800,2022-08-29 21:06:42,-34.9185047078223,-56.1684054353983,5.905512,6.6601052,32.227705427612,38.887810627612,6.233596,4.6080964,7.9181761064,20.9171922704,23,5,7.683,39.543978627612,6.56168,5.256809,7.9181761064,1.11847,-4.47388,0,281.5, -4.1, -5,0,0,1024,364,1024,1024,0,-100,0,0,294.5,0,0,59,3.842,3.833,0,0,0,0,4.394,79.88,38.887810627612,5.905512,6,P-GPS,
12900,2022-08-29 21:06:42,-34.9185043441517,-56.1684078607567,5.905512,6.725722,32.162088627612,38.887810627612,6.233596,4.6080964,8.6427496204,21.6548235276,23,5,7.683,39.543978627612,6.56168,5.256809,8.6427496204,0.894776,-4.47388,0,280.7, 2, -13.4,0,0,1024,429,1024,1024,0,-90,0,0,294.5,0,0,59,3.842,3.833,0,0,0,0,4.394,79.88,38.887810627612,5.905512,6,P-GPS,
13000,2022-08-29 21:06:42,-34.9185041390296,-56.1684101578584,5.905512,6.7913388,32.096471827612,38.887810627612,6.233596,4.47388,9.3303152592,22.3460965156,23,5,7.683,39.543978627612,6.56168,5.256809,9.3303152592,0.223694,-4.47388,0,280.4, 3.5, -18.8,0,0,1024,1024,1024,1024,0,0,0,0,294.5,0,0,59,3.842,3.833,0,0,0,0,4.394,79.88,38.887810627612,5.905512,6,P-GPS,
13100,2022-08-29 21:06:42,-34.9185042684665,-56.1684124008239,5.905512,6.8241472,32.063663427612,38.887810627612,6.233596,4.250186,10.0010501888,23.0187671408,23,5,7.683,39.543978627612,6.56168,5.256809,10.0010501888,-0.223694,-4.250186,0,281, 3.3, -16.1,0,0,1024,1024,1024,1024,0,0,0,0,294.5,0,0,59,3.842,3.833,0,0,0,0,4.394,79.88,38.887810627612,5.905512,6,P-GPS,
13200,2022-08-29 21:06:42,-34.9185048825723,-56.168414200132,5.905512,6.9225724,31.965238227612,38.887810627612,6.233596,4.0488614,10.5409780276,23.6018380256,23,5,7.683,39.543978627612,6.56168,5.256809,10.5409780276,-0.447388,-4.026492,0,282, 6, -0.9,0,0,1024,652,1024,1024,0,-56,0,0,294.5,0,0,59,3.842,3.833,0,0,0,0,4.394,79.88,38.887810627612,5.905512,6,P-GPS,
13300,2022-08-29 21:06:43,-34.9185052403153,-56.1684163030738,5.905512,6.9553808,31.932429827612,38.887810627612,6.56168,3.6014734,11.1729990452,24.2443577312,23,5,7.683,39.543978627612,6.56168,5.256809,11.1729990452,-0.447388,-3.579104,0,282.5, 14.9, 4.1,0,0,1024,652,1024,1024,0,-56,0,0,294.5,0,0,59,3.842,3.833,0,0,0,0,4.394,79.88,38.887810627612,5.905512,6,P-GPS,
13400,2022-08-29 21:06:43,-34.918505517115,-56.1684180338431,6.233596,7.38189,31.834004627612,39.215894627612,6.56168,2.9527608,11.6937995868,24.7718839948,22,5,7.683,39.543978627612,6.56168,5.256809,11.6937995868,-0.447388,-2.908022,0,280.2, 11.8, 0.2,0,0,1024,364,1024,1024,0,-100,0,0,294.5,0,0,59,3.842,3.833,0,0,0,0,4.394,79.88,39.215894627612,6.233596,6,P-GPS,
13500,2022-08-29 21:06:43,-34.9185058375879,-56.1684194068687,6.233596,7.4146984,31.801196227612,39.215894627612,6.56168,2.5501116,12.108924272,25.198983746,22,5,7.683,39.543978627612,6.56168,5.256809,12.108924272,-0.671082,-2.460634,0,279.6, 7, -11,0,0,1024,364,1024,1024,0,-100,0,0,294.5,0,0,59,3.842,3.833,0,0,0,0,4.394,79.88,39.215894627612,6.233596,6,P-GPS,
13600,2022-08-29 21:06:43,-34.9185062501819,-56.1684205519612,6.233596,7.4475068,31.768387827612,39.215894627612,6.56168,2.4158952,12.4585961992,25.573163548,23,5,7.671,39.543978627612,6.56168,5.256809,12.4585961992,-0.894776,-2.23694,0,279.7, 4.1, -17.8,0,0,1024,364,1024,1024,0,-100,0,0,294.5,0,0,59,3.837,3.833,0,0,0,0,4.536,79.88,39.215894627612,6.233596,6,P-GPS,
13700,2022-08-29 21:06:43,-34.9185074792386,-56.1684213770246,6.233596,7.4803152,31.735579427612,39.215894627612,6.56168,2.5501116,12.7372707488,26.0850073964,23,5,7.671,39.543978627612,6.56168,5.256809,12.7372707488,-1.565858,-2.013246,0,279.9, 2.2, -19.4,0,0,1024,364,1024,1024,0,-100,0,0,294.5,0,0,59,3.837,3.833,0,0,0,0,4.536,79.88,39.215894627612,6.233596,6,P-GPS,
13800,2022-08-29 21:06:43,-34.9185084111238,-56.16842245863,6.233596,7.5131236,31.702771027612,39.215894627612,6.56168,2.8409138,13.0935699728,26.5543971752,23,5,7.671,39.543978627612,6.56168,5.256809,13.0935699728,-2.013246,-2.013246,0,279.8, 2, -20.4,0,0,1024,364,1024,1024,0,-100,0,0,294.5,0,0,59,3.837,3.833,0,0,0,0,4.536,79.88,39.215894627612,6.233596,6,P-GPS,
13900,2022-08-29 21:06:43,-34.9185094411912,-56.1684233483872,6.233596,7.5787404,31.637154227612,39.215894627612,6.56168,3.35541,13.404856072,27.014928686,23,5,7.671,39.543978627612,6.56168,5.256809,13.404856072,-2.684328,-2.013246,0,280.2, 1.7, -19.8,0,0,1024,1024,1024,1024,0,0,0,0,294.5,0,0,59,3.837,3.833,0,0,0,0,4.536,79.88,39.215894627612,6.233596,6,P-GPS,
14000,2022-08-29 21:06:43,-34.9185106443865,-56.168424169368,5.905512,7.3162732,31.571537427612,38.887810627612,6.56168,4.1159696,13.7146657932,27.5179470748,23,5,7.671,39.543978627612,6.56168,5.256809,13.7146657932,-3.579104,-2.013246,0,280.3, 0.4, -17.1,0,0,1024,1024,1024,1024,0,0,0,0,294.5,0,0,59,3.837,3.833,0,0,0,0,4.536,79.88,38.887810627612,5.905512,6,P-GPS,
14100,2022-08-29 21:06:43,-34.9185122079338,-56.1684242716824,5.905512,7.3490816,31.538729027612,38.887810627612,6.56168,4.4962494,13.8514440128,28.0892069356,23,5,7.671,39.543978627612,6.56168,5.256809,13.8514440128,-4.026492,-2.013246,0,280.6, 0.7, -2.4,0,0,1024,1024,1024,1024,0,0,0,0,294.5,0,0,59,3.837,3.833,0,0,0,0,4.536,79.88,38.887810627612,5.905512,6,P-GPS,
14200,2022-08-29 21:06:43,-34.9185137370215,-56.1684250253652,5.905512,7.4146984,31.473112227612,38.887810627612,6.233596,4.0041226,14.1961290632,28.6909458,23,5,7.671,39.543978627612,6.56168,5.256809,14.1961290632,-3.579104,-1.789552,0,281.6, 4.2, 13.3,0,0,1024,1024,1024,1024,0,0,0,0,294.5,0,0,59,3.837,3.833,0,0,0,0,4.536,79.88,38.887810627612,5.905512,6,P-GPS,
14300,2022-08-29 21:06:44,-34.9185152718919,-56.1684257941871,6.233596,7.7755908,31.440303827612,39.215894627612,6.233596,3.3106712,14.5624676576,29.2963263968,23,5,7.671,39.543978627612,6.56168,5.256809,14.5624676576,-2.908022,-1.565858,0,281.3, 4.7, 15.7,0,0,1024,1024,1024,1024,0,0,0,0,294.5,0,0,59,3.837,3.833,0,0,0,0,4.536,79.88,39.215894627612,6.233596,6,P-GPS,
14400,2022-08-29 21:06:44,-34.9185164486169,-56.1684263775967,6.233596,7.8083992,31.407495427612,39.215894627612,6.233596,2.5053728,14.8522314464,29.7597778552,23,5,7.671,39.543978627612,6.56168,5.256809,14.8522314464,-2.23694,-1.11847,0,280.6, 5.1, 12.7,0,0,1024,1024,1024,1024,0,0,0,0,294.5,0,0,59,3.837,3.833,0,0,0,0,4.536,79.88,39.215894627612,6.233596,6,P-GPS,
14500,2022-08-29 21:06:44,-34.9185176858565,-56.1684271621062,6.56168,8.2021,31.341878627612,39.543978627612,6.233596,1.6105968,15.2146658412,30.2685705224,23,5,7.671,39.543978627612,6.56168,5.256809,15.2146658412,-1.342164,-0.894776,0,280.5, 5.1, 9.6,0,0,1024,1024,1024,1024,0,0,0,0,294.5,0,0,59,3.837,3.833,0,0,0,0,4.536,79.88,39.543978627612,6.56168,6,P-GPS,
14600,2022-08-29 21:06:44,-34.9185183688422,-56.1684275978911,6.56168,8.2349084,31.309070227612,39.543978627612,6.233596,1.11847,15.4190621732,30.5498041272,23,5,7.664,39.543978627612,6.56168,5.256809,15.4190621732,-0.894776,-0.671082,0,280.5, 4.6, 6.3,0,0,1024,1024,1024,1024,0,0,0,0,294.5,0,0,59,3.835,3.824,0,0,0,0,4.752,79.88,39.543978627612,6.56168,6,P-GPS,
14700,2022-08-29 21:06:44,-34.918518834701,-56.1684279476788,6.56168,8.2349084,31.309070227612,39.543978627612,6.233596,0.6263432,15.574639606,30.7493776244,23,5,7.664,39.543978627612,6.56168,5.256809,15.574639606,-0.447388,-0.447388,0,280.6, 3.7, 3.3,0,0,1024,1024,1024,1024,0,0,0,0,294.5,0,0,59,3.835,3.824,0,0,0,0,4.752,79.88,39.543978627612,6.56168,6,P-GPS,
14800,2022-08-29 21:06:44,-34.9185191760782,-56.1684282142301,6.56168,8.2349084,31.309070227612,39.543978627612,6.233596,0.3131716,15.6921264864,30.8972778916,23,5,7.664,39.543978627612,6.56168,5.256809,15.6921264864,-0.223694,-0.223694,0,280.7, 3.5, 2.3,0,0,1024,1024,1024,1024,0,0,0,0,294.5,0,0,59,3.835,3.824,0,0,0,0,4.752,79.88,39.543978627612,6.56168,6,P-GPS,
14900,2022-08-29 21:06:44,-34.9185188850753,-56.1684283864284,6.56168,8.2349084,31.309070227612,39.543978627612,6.233596,0.223694,15.7043640196,31.0152897064,23,5,7.664,39.543978627612,6.56168,5.256809,15.7043640196,0,-0.223694,0,280.5, 3.9, 1.3,0,0,1024,1024,1024,1024,0,0,0,0,294.5,0,0,59,3.835,3.824,0,0,0,0,4.752,79.88,39.543978627612,6.56168,6,P-GPS,
15000,2022-08-29 21:06:44,-34.9185189209597,-56.1684284726711,6.233596,7.9068244,31.309070227612,39.215894627612,6.233596,0.223694,15.7330713696,31.0442267152,23,5,7.664,39.543978627612,6.56168,5.256809,15.7330713696,0,-0.223694,0,280.4, 3.6, 0.1,0,0,1024,1024,1024,1024,0,0,0,0,294.5,0,0,59,3.835,3.824,0,0,0,0,4.752,79.88,39.215894627612,6.233596,6,P-GPS,
15100,2022-08-29 21:06:44,-34.9185188485297,-56.1684285284346,6.233596,7.9396328,31.276261827612,39.215894627612,6.233596,0,15.7398627084,31.0754931204,23,5,7.664,39.543978627612,6.56168,5.256809,15.7398627084,0,0,0,280.4, 2.9, -0.2,0,0,1024,1024,1024,1024,0,0,0,0,294.5,0,0,59,3.835,3.824,0,0,0,0,4.752,79.88,39.215894627612,6.233596,6,P-GPS,
15200,2022-08-29 21:06:44,-34.9185187483446,-56.1684285358396,6.233596,7.9396328,31.276261827612,39.215894627612,6.233596,0,15.7297249128,31.1121072948,23,5,7.664,39.543978627612,6.56168,5.256809,15.7398627084,0,0,0,280.3, 2.4, -0.3,0,0,1024,1024,1024,1024,0,0,0,0,294.5,0,0,59,3.835,3.824,0,0,0,0,4.752,79.88,39.215894627612,6.233596,6,P-GPS,
15300,2022-08-29 21:06:45,-34.918518789681,-56.1684285477294,6.233596,7.9396328,31.276261827612,39.215894627612,6.233596,0,15.7381238632,31.1275928596,23,5,7.664,39.543978627612,6.56168,5.256809,15.7398627084,0,0,0,280.3, 1.8, -0.6,0,0,1024,975,1024,1024,0,-7,0,0,294.5,0,0,59,3.835,3.824,0,0,0,0,4.752,79.88,39.215894627612,6.233596,6,P-GPS,
15400,2022-08-29 21:06:45,-34.9185185668676,-56.1684285965684,6.233596,7.9396328,31.276261827612,39.215894627612,6.233596,0,15.724902078,31.2102044108,23,5,7.664,39.543978627612,6.56168,5.256809,15.7398627084,0,0,0,280.3, 2.3, 0,0,0,1024,975,1024,1024,0,-7,0,0,294.5,0,0,59,3.835,3.824,0,0,0,0,4.752,79.88,39.215894627612,6.233596,6,P-GPS,
15500,2022-08-29 21:06:45,-34.9185185963326,-56.1684285751945,5.905512,7.6115488,31.276261827612,38.887810627612,6.233596,0,15.7224086396,31.2227044112,23,5,7.664,39.543978627612,6.56168,5.256809,15.7398627084,0,0,0,280.3, 1.5, -0.4,0,0,1024,691,1024,1024,0,-50,0,0,294.5,0,0,59,3.835,3.824,0,0,0,0,4.752,79.88,38.887810627612,5.905512,6,P-GPS,
15600,2022-08-29 21:06:45,-34.9185186074419,-56.1684285333373,5.905512,7.6115488,31.276261827612,38.887810627612,6.233596,0,15.71194276,31.2358605796,23,5,7.66,39.543978627612,6.56168,5.256809,15.7398627084,0,0,0,280.4, 1, -3.4,0,0,1024,412,1024,1024,0,-93,0,0,294.5,0,0,59,3.837,3.828,0,0,0,0,4.765,79.88,38.887810627612,5.905512,6,P-GPS,
15700,2022-08-29 21:06:45,-34.9185187358154,-56.1684284879487,5.905512,7.5787404,31.309070227612,38.887810627612,6.233596,0,15.7146986656,31.284613862,23,5,7.66,39.543978627612,6.56168,5.256809,15.7398627084,0,0,0,280, 1.2, -10.7,0,0,1024,364,1024,1024,0,-100,0,0,294.5,0,0,59,3.837,3.828,0,0,0,0,4.765,79.88,38.887810627612,5.905512,6,P-GPS,
15800,2022-08-29 21:06:45,-34.9185192775075,-56.1684285975453,5.905512,7.6115488,31.276261827612,38.887810627612,6.233596,0.447388,15.8125333144,31.4849747608,23,5,7.66,39.543978627612,6.56168,5.256809,15.8125333144,-0.447388,0,0,279.8, 1.4, -16.2,0,0,1024,522,1024,1024,0,-76,0,0,294.5,0,0,59,3.837,3.828,0,0,0,0,4.765,79.88,38.887810627612,5.905512,6,P-GPS,
15900,2022-08-29 21:06:45,-34.9185196902464,-56.168428682469,5.905512,7.6443572,31.243453427612,38.887810627612,6.233596,1.11847,15.888780036,31.6376650544,23,5,7.66,39.543978627612,6.56168,5.256809,15.888780036,-1.11847,0,0,279.8, 1.3, -18.3,0,0,1024,1024,1024,1024,0,0,0,0,294.5,0,0,59,3.837,3.828,0,0,0,0,4.765,79.88,38.887810627612,5.905512,6,P-GPS,
16000,2022-08-29 21:06:45,-34.918520302017,-56.1684288022498,5.905512,7.6443572,31.243453427612,38.887810627612,6.233596,1.8119214,16.0021002496,31.8637477388,23,5,7.66,39.543978627612,6.56168,5.256809,16.0021002496,-1.789552,-0.223694,0,280.2, 0.6, -12.9,0,0,1024,1024,1024,1024,0,0,0,0,294.5,0,0,59,3.837,3.828,0,0,0,0,4.765,79.88,38.887810627612,5.905512,6,P-GPS,
16100,2022-08-29 21:06:45,-34.9185211440463,-56.1684289470587,5.905512,7.6443572,31.243453427612,38.887810627612,6.233596,2.0356154,16.1563653464,32.1739839692,23,5,7.66,39.543978627612,6.56168,5.256809,16.1563653464,-2.013246,-0.223694,0,281.1, 0, 3.2,0,0,1024,1000,1024,1024,0,-4,0,0,294.5,0,0,59,3.837,3.828,0,0,0,0,4.765,79.88,38.887810627612,5.905512,6,P-GPS,
16200,2022-08-29 21:06:46,-34.9185221088114,-56.1684293491698,5.905512,7.6771656,31.210645027612,38.887810627612,6.233596,1.5882274,16.4034782152,32.5459656084,23,5,7.66,39.543978627612,6.56168,5.256809,16.4034782152,-1.565858,-0.223694,0,280.6, 0, 6.1,0,0,1024,962,1024,1024,0,-9,0,0,294.5,0,0,59,3.837,3.828,0,0,0,0,4.765,79.88,38.887810627612,5.905512,6,P-GPS,
16300,2022-08-29 21:06:46,-34.9185228132795,-56.16842950567,5.905512,7.709974,31.177836627612,38.887810627612,6.233596,1.3645334,16.5494099784,32.8072188976,23,5,7.66,39.543978627612,6.56168,5.256809,16.5494099784,-1.342164,-0.223694,0,280.2, 0.5, 4.9,0,0,1024,962,1024,1024,0,-9,0,0,294.5,0,0,59,3.837,3.828,0,0,0,0,4.765,79.88,38.887810627612,5.905512,6,P-GPS,
16400,2022-08-29 21:06:46,-34.91852335987,-56.1684296512521,6.233596,8.038058,31.177836627612,39.215894627612,6.233596,1.3645334,16.6711291424,33.011483996,23,5,7.66,39.543978627612,6.56168,5.256809,16.6711291424,-0.894776,-0.223694,0,280.3, 1.6, 1.9,0,0,1024,965,1024,1024,0,-9,0,0,294.5,0,0,59,3.837,3.828,0,0,0,0,4.765,79.88,39.215894627612,6.233596,6,P-GPS,
16500,2022-08-29 21:06:46,-34.9185239174265,-56.1684298064724,6.233596,8.0708664,31.145028227612,39.215894627612,6.233596,0.7158208,16.7987538184,33.22014542,23,5,7.66,39.543978627612,6.56168,5.256809,16.7987538184,-0.671082,-0.223694,0,280.4, 2.8, 0.3,0,0,1024,1024,1024,1024,0,0,0,0,294.5,0,0,59,3.837,3.828,0,0,0,0,4.765,79.88,39.215894627612,6.233596,6,P-GPS,
16600,2022-08-29 21:06:46,-34.9185247857714,-56.1684300056316,6.233596,8.0708664,31.145028227612,39.215894627612,6.233596,0.7158208,16.9892721972,33.542323908,23,5,7.659,39.543978627612,6.56168,5.256809,16.9892721972,-0.671082,-0.223694,0,280.3, 3.5, 1.1,0,0,1024,1024,1024,1024,0,0,0,0,294.5,0,0,59,3.841,3.83,0,0,0,0,4.581,79.88,39.215894627612,6.233596,6,P-GPS,
