time(millisecond),datetime(utc),latitude,longitude,height_above_takeoff(feet),height_above_ground_at_drone_location(feet),ground_elevation_at_drone_location(feet),altitude_above_seaLevel(feet),height_sonar(feet),speed(mph),distance(feet),mileage(feet),satellites,gpslevel,voltage(v),max_altitude(feet),max_ascent(feet),max_speed(mph),max_distance(feet), xSpeed(mph), ySpeed(mph), zSpeed(mph), compass_heading(degrees), pitch(degrees), roll(degrees),isPhoto,isVideo,rc_elevator,rc_aileron,rc_throttle,rc_rudder,rc_elevator(percent),rc_aileron(percent),rc_throttle(percent),rc_rudder(percent),gimbal_heading(degrees),gimbal_pitch(degrees),gimbal_roll(degrees),battery_percent,voltageCell1,voltageCell2,voltageCell3,voltageCell4,voltageCell5,voltageCell6,current(A),battery_temperature(f),altitude(feet),ascent(feet),flycStateRaw,flycState,message
125400,2022-08-15 19:59:07,0,0,0,,,3.28084E-5,0,0,0,0,0,0,0,3.28084E-5,0,0,0,0,0,0,205.5, 3.2, -0.3,0,0,364,364,364,1684,-100,-100,-100,100,202.2,0,0,94,4.252,4.239,0,0,0,0,0,77.72,3.28084E-5,0,6,P-GPS,"Señal débil del GPS. Vuelo estacionario inestable. Vuela con cuidado (Code: 30002)"
125500,2022-08-15 19:59:07,0,0,0,,,3.28084E-5,0,0,0,0,0,0,0,3.28084E-5,0,0,0,0,0,0,205.5, 3.2, -0.3,0,0,364,364,364,1684,-100,-100,-100,100,202.2,0,0,94,4.252,4.239,0,0,0,0,0,77.72,3.28084E-5,0,41,Motors_Started,"Vuela con cuidado (sin GPS)"
125600,2022-08-15 19:59:07,0,0,0,,,3.28084E-5,0.328084,0,0,0,0,0,0,3.28084E-5,0,0,0,0,0,0,205.5, 3.1, -0.3,0,0,364,364,364,1684,-100,-100,-100,100,202.2,0,0,94,4.252,4.239,0,0,0,0,0,77.72,3.28084E-5,0,41,Motors_Started,
125700,2022-08-15 19:59:07,0,0,0,,,3.28084E-5,0.328084,0,0,0,0,0,0,3.28084E-5,0,0,0,0,0,0,205.5, 3.2, -0.3,0,0,364,364,364,1684,-100,-100,-100,100,202.2,0,0,94,4.252,4.239,0,0,0,0,0,77.72,3.28084E-5,0,41,Motors_Started,
125800,2022-08-15 19:59:07,0,0,0,,,3.28084E-5,0.328084,0,0,0,0,0,0,3.28084E-5,0,0,0,0,0,0,205.5, 3.2, -0.3,0,0,1024,1024,1024,1024,0,0,0,0,202.2,0,0,94,4.252,4.239,0,0,0,0,0,77.72,3.28084E-5,0,41,Motors_Started,
125900,2022-08-15 19:59:07,0,0,0,,,3.28084E-5,0.328084,0,0,0,0,0,0,3.28084E-5,0,0,0,0,0,0,205.5, 3.2, -0.3,0,0,1024,1024,1024,1024,0,0,0,0,202.2,0,0,94,4.252,4.239,0,0,0,0,0,77.72,3.28084E-5,0,41,Motors_Started,
126000,2022-08-15 19:59:07,0,0,0,,,3.28084E-5,0.328084,0,0,0,0,0,8.507,3.28084E-5,0,0,0,0,0,0,205.5, 3.2, -0.3,0,0,1024,1024,1024,1024,0,0,0,0,202.2,0,0,94,4.252,4.239,0,0,0,0,0.532,77.72,3.28084E-5,0,41,Motors_Started,
126100,2022-08-15 19:59:07,0,0,0,,,3.28084E-5,0.328084,0,0,0,0,0,8.507,3.28084E-5,0,0,0,0,0,0,205.5, 3.2, -0.3,0,0,1024,1024,1024,1024,0,0,0,0,202.2,0,0,94,4.252,4.239,0,0,0,0,0.532,77.72,3.28084E-5,0,41,Motors_Started,
126200,2022-08-15 19:59:07,0,0,0,,,3.28084E-5,0.328084,0,0,0,0,0,8.507,3.28084E-5,0,0,0,0,0,0,205.6, 3.2, -0.3,0,0,1024,1024,1024,1024,0,0,0,0,202.2,0,0,94,4.252,4.239,0,0,0,0,0.532,77.72,3.28084E-5,0,41,Motors_Started,"Setting new Return-To-Home altitude to 60m (197 ft). Data Recorder File Index is 61. Setting new Maximum Flight Altitude to 30m (98 ft)"
126300,2022-08-15 19:59:08,0,0,0,,,3.28084E-5,0.328084,0,0,0,0,0,8.507,3.28084E-5,0,0,0,0,0,0,205.5, 3.2, -0.3,0,0,1024,1024,1024,1024,0,0,0,0,202.2,0,0,94,4.252,4.239,0,0,0,0,0.532,77.72,3.28084E-5,0,41,Motors_Started,
126400,2022-08-15 19:59:08,0,0,0,,,3.28084E-5,0.328084,0,0,0,0,0,8.507,3.28084E-5,0,0,0,0,0,0,205.6, 3.2, -0.3,0,0,1024,1024,1062,1024,0,0,6,0,202.2,0,0,94,4.252,4.239,0,0,0,0,0.532,77.72,3.28084E-5,0,41,Motors_Started,
126500,2022-08-15 19:59:08,0,0,0,,,3.28084E-5,0.328084,0,0,0,0,0,8.507,3.28084E-5,0,0,0,0,0,0,205.5, 3.1, -0.3,0,0,1024,1024,1386,1024,0,0,55,0,202.2,0,0,94,4.252,4.239,0,0,0,0,0.532,77.72,3.28084E-5,0,41,Motors_Started,
126600,2022-08-15 19:59:08,0,0,0,,,3.28084E-5,0.328084,0,0,0,0,0,8.507,3.28084E-5,0,0,0,0,0,0,205.6, 3.1, -0.3,0,0,1024,1024,1590,1024,0,0,86,0,202.2,0,0,94,4.252,4.239,0,0,0,0,0.532,77.72,3.28084E-5,0,10,Assisted_Takeoff,
126700,2022-08-15 19:59:08,0,0,0,,,3.28084E-5,0.328084,0,0,0,0,0,8.507,3.28084E-5,0,0,0,0,0,0,205.5, 3.2, -0.3,0,0,1024,1024,1434,1024,0,0,62,0,202.2,0,0,94,4.252,4.239,0,0,0,0,0.532,77.72,3.28084E-5,0,10,Assisted_Takeoff,
126800,2022-08-15 19:59:08,0,0,0,,,3.28084E-5,0.328084,0,0,0,0,0,8.507,3.28084E-5,0,0,0,0,0,0,205.5, 3.1, -0.3,0,0,1024,1024,1067,1024,0,0,7,0,202.2,0,0,94,4.252,4.239,0,0,0,0,0.532,77.72,3.28084E-5,0,10,Assisted_Takeoff,
126900,2022-08-15 19:59:08,0,0,0,,,3.28084E-5,0.328084,0,0,0,0,0,8.507,3.28084E-5,0,0,0,0,0,0,205.3, 3.1, -0.3,0,0,1024,1024,1087,1024,0,0,10,0,202.2,0,0,94,4.252,4.239,0,0,0,0,0.532,77.72,3.28084E-5,0,10,Assisted_Takeoff,
127000,2022-08-15 19:59:08,0,0,0,,,3.28084E-5,0.328084,0,0,0,0,0,8.463,3.28084E-5,0,0,0,0,0,0,205.1, 2.3, -0.3,0,0,1024,1024,1447,1024,0,0,64,0,202.1,0,0,94,4.234,4.233,0,0,0,0,1.435,77.9,3.28084E-5,0,10,Assisted_Takeoff,
127100,2022-08-15 19:59:08,0,0,0,,,3.28084E-5,0.328084,0,0,0,0,0,8.463,3.28084E-5,0,0,0,0,0,0,205, 2.1, -0.2,0,0,1024,1024,1512,1024,0,0,74,0,201.9,0,0,94,4.234,4.233,0,0,0,0,1.435,77.9,3.28084E-5,0,10,Assisted_Takeoff,
127200,2022-08-15 19:59:08,0,0,0,,,3.28084E-5,0.328084,0,0,0,0,0,8.463,3.28084E-5,0,0,0,0,0,0,205, 1.4, -0.2,0,0,1024,1024,1512,1024,0,0,74,0,201.8,0,0,94,4.234,4.233,0,0,0,0,1.435,77.9,3.28084E-5,0,10,Assisted_Takeoff,
127300,2022-08-15 19:59:09,0,0,0,,,3.28084E-5,0.328084,0,0,0,0,0,8.463,3.28084E-5,0,0,0,0,0,0,205.1, -1.2, 0,0,0,1024,1024,1351,1024,0,0,50,0,201.8,0,0,94,4.234,4.233,0,0,0,0,1.435,77.9,3.28084E-5,0,10,Assisted_Takeoff,
127400,2022-08-15 19:59:09,0,0,0,,,3.28084E-5,0.328084,0,0,0,0,0,8.463,3.28084E-5,0,0,0,0,0,-0.447388,205.3, -0.7, 0.5,0,0,1024,1024,1024,1024,0,0,0,0,201.8,0,0,94,4.234,4.233,0,0,0,0,1.435,77.9,3.28084E-5,0,6,P-GPS,"Señal débil del GPS. Vuelo estacionario inestable. Vuela con cuidado (Code: 30002)"
127500,2022-08-15 19:59:09,0,0,0,,,3.28084E-5,0.328084,0,0,0,0,0,8.463,3.28084E-5,0,0,0,0,0,-0.671082,205.3, -0.6, 0.8,0,0,1024,1024,1024,1024,0,0,0,0,201.8,0,0,94,4.234,4.233,0,0,0,0,1.435,77.9,3.28084E-5,0,1,Atti,"Vuela con cuidado (modo Atti) Señal del GPS demasiado débil. Se ha pasado al modo Atti. La aeronave no puede hacer vuelo estacionario. Vuela con precaución (Code: 30022). Señal débil del GPS. Vuelo estacionario inestable. Vuela con cuidado (Code: 30002). Aeronave en modo Atti. No"
127600,2022-08-15 19:59:09,0,0,0,,,3.28084E-5,0.656168,0,0,0,0,0,8.463,3.28084E-5,0,0,0,0,0,-0.894776,205.5, 0.1, -0.2,0,0,1024,1024,1024,1024,0,0,0,0,201.9,0,0,94,4.234,4.233,0,0,0,0,1.435,77.9,3.28084E-5,0,1,Atti,"La brújula no funciona bien el GPS no tiene buena señal. Cambia a modo Atti (Code: 30020). Aeronave en modo Atti. No se puede hacer vuelo estacionario. Vuela con cuidado (Code: 30004)"
127700,2022-08-15 19:59:09,0,0,0.328084,,,0.3281168084,0.656168,0,0,0,0,0,8.463,0.3281168084,0.328084,0,0,0,0,-0.894776,205.5, 0, -0.2,0,0,1024,1024,1024,1024,0,0,0,0,202,0,0,94,4.234,4.233,0,0,0,0,1.435,77.9,0.3281168084,0.328084,1,Atti,
127800,2022-08-15 19:59:09,0,0,0.328084,,,0.3281168084,0.656168,0,0,0,0,0,8.463,0.3281168084,0.328084,0,0,0,0,-0.894776,205.5, 0.2, 0.1,0,0,1024,1024,1024,1024,0,0,0,0,202,0,0,94,4.234,4.233,0,0,0,0,1.435,77.9,0.3281168084,0.328084,1,Atti,
127900,2022-08-15 19:59:09,0,0,0.328084,,,0.3281168084,0.984252,0,0,0,0,0,8.463,0.3281168084,0.328084,0,0,0,0,-0.894776,205.4, -0.1, 0.1,0,0,1024,1024,1024,1024,0,0,0,0,202,0,0,94,4.234,4.233,0,0,0,0,1.435,77.9,0.3281168084,0.328084,1,Atti,
128000,2022-08-15 19:59:09,0,0,0.656168,,,0.6562008084,0.984252,0,0,0,0,0,8.38,0.6562008084,0.656168,0,0,0,0,-0.894776,205.3, -0.2, 0.1,0,0,1024,1024,1024,1024,0,0,0,0,202,0,0,94,4.178,4.168,0,0,0,0,2.656,77.9,0.6562008084,0.656168,1,Atti,
128100,2022-08-15 19:59:09,0,0,0.656168,,,0.6562008084,0.984252,0,0,0,0,0,8.38,0.6562008084,0.656168,0,0,0,0,-0.894776,205.3, 0, 0.1,0,0,1024,1024,1024,1024,0,0,0,0,202,0,0,94,4.178,4.168,0,0,0,0,2.656,77.9,0.6562008084,0.656168,1,Atti,
128200,2022-08-15 19:59:10,0,0,0.984252,,,0.9842848084,1.312336,0,0,0,0,0,8.38,0.9842848084,0.984252,0,0,0,0,-0.894776,205.3, 0, 0.1,0,0,1024,1024,1024,1024,0,0,0,0,202,0,0,94,4.178,4.168,0,0,0,0,2.656,77.9,0.9842848084,0.984252,1,Atti,
128300,2022-08-15 19:59:10,0,0,0.984252,,,0.9842848084,1.312336,0,0,0,0,0,8.38,0.9842848084,0.984252,0,0,0,0,-0.671082,205.3, 0, 0.1,0,0,1024,1024,1024,1024,0,0,0,0,202,0,0,94,4.178,4.168,0,0,0,0,2.656,77.9,0.9842848084,0.984252,1,Atti,
128400,2022-08-15 19:59:10,0,0,0.984252,,,0.9842848084,1.312336,0,0,0,0,0,8.38,0.9842848084,0.984252,0,0,0,0,-0.447388,205.3, 0, 0.1,0,0,1024,1024,1024,1024,0,0,0,0,202,0,0,94,4.178,4.168,0,0,0,0,2.656,77.9,0.9842848084,0.984252,1,Atti,
128500,2022-08-15 19:59:10,0,0,1.312336,,,1.3123688084,1.64042,0,0,0,0,0,8.38,1.3123688084,1.312336,0,0,0,0,-0.447388,205.3, 0.3, 0,0,0,1024,1024,1024,1024,0,0,0,0,202,0,0,94,4.178,4.168,0,0,0,0,2.656,77.9,1.3123688084,1.312336,6,P-GPS,
128600,2022-08-15 19:59:10,0,0,1.312336,,,1.3123688084,1.64042,0,0,0,0,0,8.38,1.3123688084,1.312336,0,0,0,0,-0.223694,205.4, 0.5, 0.1,0,0,1024,1024,1031,1024,0,0,1,0,202,0,0,94,4.178,4.168,0,0,0,0,2.656,77.9,1.3123688084,1.312336,6,P-GPS,
128700,2022-08-15 19:59:10,0,0,1.312336,,,1.3123688084,1.64042,0,0,0,0,0,8.38,1.3123688084,1.312336,0,0,0,0,0,205.4, 0.5, 0.2,0,0,1024,1024,1205,1024,0,0,27,0,202,0,0,94,4.178,4.168,0,0,0,0,2.656,77.9,1.3123688084,1.312336,6,P-GPS,
128800,2022-08-15 19:59:10,0,0,1.312336,,,1.3123688084,1.64042,0,0,0,0,0,8.38,1.3123688084,1.312336,0,0,0,0,0,205.4, 0.5, 0.2,0,0,1024,1024,1380,1024,0,0,54,0,202,0,0,94,4.178,4.168,0,0,0,0,2.656,77.9,1.3123688084,1.312336,6,P-GPS,
128900,2022-08-15 19:59:10,0,0,1.312336,,,1.3123688084,1.64042,0,0,0,0,0,8.38,1.3123688084,1.312336,0,0,0,0,0,205.4, 0.6, 0.3,0,0,1024,1024,1116,1024,0,0,14,0,202,0,0,94,4.178,4.168,0,0,0,0,2.656,77.9,1.3123688084,1.312336,6,P-GPS,
129000,2022-08-15 19:59:10,0,0,1.64042,,,1.6404528084,1.64042,0,0,0,0,0,8.38,1.6404528084,1.64042,0,0,0,0,-0.671082,205.5, 0.7, 0.2,0,0,1024,1024,1024,1024,0,0,0,0,202,0,0,94,4.176,4.168,0,0,0,0,2.656,77.9,1.6404528084,1.64042,6,P-GPS,
129100,2022-08-15 19:59:10,0,0,1.64042,,,1.6404528084,1.968504,0,0,0,0,0,8.38,1.6404528084,1.64042,0,0,0,0,-0.671082,205.4, 0.6, 0,0,0,1024,1024,1024,1024,0,0,0,0,202,0,0,94,4.176,4.168,0,0,0,0,2.656,77.9,1.6404528084,1.64042,6,P-GPS,
129200,2022-08-15 19:59:11,0,0,1.64042,,,1.6404528084,1.968504,0,0,0,0,0,8.38,1.6404528084,1.64042,0,0,0,0,-0.671082,205.4, 0.6, 0,0,0,1024,1024,1024,1024,0,0,0,0,202,0,0,94,4.176,4.168,0,0,0,0,2.656,77.9,1.6404528084,1.64042,6,P-GPS,
129300,2022-08-15 19:59:11,0,0,1.64042,,,1.6404528084,1.968504,0,0,0,0,0,8.38,1.6404528084,1.64042,0,0,0,0,-0.447388,205.4, 0.5, -0.2,0,0,1024,1024,1068,1024,0,0,7,0,202,0,0,94,4.176,4.168,0,0,0,0,2.656,77.9,1.6404528084,1.64042,6,P-GPS,
129400,2022-08-15 19:59:11,0,0,1.968504,,,1.9685368084,1.968504,0,0,0,0,0,8.38,1.9685368084,1.968504,0,0,0,0,-0.223694,205.4, 0.3, -0.3,0,0,1024,1024,1187,1024,0,0,25,0,202,0,0,94,4.176,4.168,0,0,0,0,2.656,77.9,1.9685368084,1.968504,6,P-GPS,
129500,2022-08-15 19:59:11,0,0,1.968504,,,1.9685368084,2.296588,0,0,0,0,0,8.38,1.9685368084,1.968504,0,0,0,0,0,205.5, 0.3, -0.1,0,0,1024,1024,1499,1024,0,0,72,0,202,0,0,94,4.176,4.168,0,0,0,0,2.656,77.9,1.9685368084,1.968504,6,P-GPS,
129600,2022-08-15 19:59:11,0,0,1.968504,,,1.9685368084,2.296588,0,0,0,0,0,8.38,1.9685368084,1.968504,0,0,0,0,-0.223694,205.5, 0.3, -0.1,0,0,1024,1024,1289,1024,0,0,40,0,202,0,0,94,4.176,4.168,0,0,0,0,2.656,77.9,1.9685368084,1.968504,6,P-GPS,
129700,2022-08-15 19:59:11,0,0,1.968504,,,1.9685368084,2.296588,0,0,0,0,0,8.38,1.9685368084,1.968504,0,0,0,0,-0.894776,205.4, 0.4, -0.2,0,0,1024,1024,1051,1024,0,0,4,0,202,0,0,94,4.176,4.168,0,0,0,0,2.656,77.9,1.9685368084,1.968504,6,P-GPS,
129800,2022-08-15 19:59:11,0,0,2.296588,,,2.2966208084,2.624672,0,0,0,0,0,8.38,2.2966208084,2.296588,0,0,0,0,-1.11847,205.3, 0.3, -0.6,0,0,1024,1024,1024,1024,0,0,0,0,202,0,0,94,4.176,4.168,0,0,0,0,2.656,77.9,2.2966208084,2.296588,6,P-GPS,
129900,2022-08-15 19:59:11,0,0,2.296588,,,2.2966208084,2.624672,0,0,0,0,0,8.38,2.2966208084,2.296588,0,0,0,0,-0.894776,205.3, 0.5, -0.5,0,0,1024,1024,1024,1024,0,0,0,0,202,0,0,94,4.176,4.168,0,0,0,0,2.656,77.9,2.2966208084,2.296588,6,P-GPS,
130000,2022-08-15 19:59:11,0,0,2.296588,,,2.2966208084,2.624672,0,0,0,0,0,8.341,2.2966208084,2.296588,0,0,0,0,-0.447388,205.3, 0.6, -0.3,0,0,1024,1024,1024,1024,0,0,0,0,202,0,0,94,4.176,4.178,0,0,0,0,4.07,77.9,2.2966208084,2.296588,6,P-GPS,
130100,2022-08-15 19:59:11,0,0,2.624672,,,2.6247048084,2.952756,0,0,0,0,0,8.341,2.6247048084,2.624672,0,0,0,0,-0.223694,205.3, 0.5, -0.2,0,0,1024,1024,1038,1024,0,0,2,0,202,0,0,94,4.176,4.178,0,0,0,0,4.07,77.9,2.6247048084,2.624672,6,P-GPS,
130200,2022-08-15 19:59:11,0,0,2.624672,,,2.6247048084,2.952756,0,0,0,0,0,8.341,2.6247048084,2.624672,0,0,0,0,0,205.3, 0.7, -0.2,0,0,1024,1024,1245,1024,0,0,33,0,202,0,0,93,4.176,4.178,0,0,0,0,4.07,77.9,2.6247048084,2.624672,6,P-GPS,
130300,2022-08-15 19:59:12,0,0,2.624672,,,2.6247048084,2.952756,0,0,0,0,0,8.341,2.6247048084,2.624672,0,0,0,0,0,205.4, 0.7, 0,0,0,1024,1024,1132,1024,0,0,16,0,202,0,0,93,4.176,4.178,0,0,0,0,4.07,77.9,2.6247048084,2.624672,6,P-GPS,
130400,2022-08-15 19:59:12,0,0,2.624672,,,2.6247048084,2.952756,0,0,0,0,0,8.341,2.6247048084,2.624672,0,0,0,0,-0.447388,205.3, 0.4, 0,0,0,1024,1024,1024,1024,0,0,0,0,202,0,0,93,4.176,4.178,0,0,0,0,4.07,77.9,2.6247048084,2.624672,6,P-GPS,
130500,2022-08-15 19:59:12,0,0,2.624672,,,2.6247048084,2.952756,0,0,0,0,0,8.341,2.6247048084,2.624672,0,0,0,0,-0.223694,205.3, 0.6, 0,0,0,1024,1024,1141,1024,0,0,18,0,202,0,0,93,4.176,4.178,0,0,0,0,4.07,77.9,2.6247048084,2.624672,6,P-GPS,"En vuelo"
130600,2022-08-15 19:59:12,0,0,2.952756,,,2.9527888084,2.952756,0,0,0,0,0,8.341,2.9527888084,2.952756,0,0,0,0,-0.223694,205.3, 0.8, -0.2,0,0,1024,1024,1259,1024,0,0,36,0,202,0,0,93,4.176,4.178,0,0,0,0,4.07,77.9,2.9527888084,2.952756,6,P-GPS,
130700,2022-08-15 19:59:12,0,0,2.952756,,,2.9527888084,2.952756,0,0,0,0,0,8.341,2.9527888084,2.952756,0,0,0,0,-0.223694,205.3, 0.7, 0,0,0,1024,1024,1024,1024,0,0,0,0,202,0,0,93,4.176,4.178,0,0,0,0,4.07,77.9,2.9527888084,2.952756,6,P-GPS,
130800,2022-08-15 19:59:12,0,0,2.952756,,,2.9527888084,3.28084,0,0,0,0,0,8.341,2.9527888084,2.952756,0,0,0,0,-0.671082,205.3, 0.2, -0.1,0,0,1024,1024,1024,1024,0,0,0,0,202,0,0,93,4.176,4.178,0,0,0,0,4.07,77.9,2.9527888084,2.952756,6,P-GPS,
130900,2022-08-15 19:59:12,0,0,2.952756,,,2.9527888084,3.28084,0,0,0,0,0,8.341,2.9527888084,2.952756,0,0,0,0,-0.447388,205.3, 0.5, -0.1,0,0,1024,1024,1107,1024,0,0,13,0,202,0,0,93,4.176,4.178,0,0,0,0,4.07,77.9,2.9527888084,2.952756,6,P-GPS,
131000,2022-08-15 19:59:12,0,0,2.952756,,,2.9527888084,3.28084,0,0,0,0,0,8.334,2.9527888084,2.952756,0,0,0,0,-0.223694,205.4, 0.6, -0.2,0,0,1024,1024,1237,1024,0,0,32,0,202,0,0,93,4.139,4.169,0,0,0,0,4.089,77.9,2.9527888084,2.952756,6,P-GPS,
131100,2022-08-15 19:59:12,0,0,3.28084,,,3.2808728084,3.28084,0,0,0,0,0,8.334,3.2808728084,3.28084,0,0,0,0,-0.447388,205.4, 0.5, 0.1,0,0,1024,1024,1024,1024,0,0,0,0,202,0,0,93,4.139,4.169,0,0,0,0,4.089,77.9,3.2808728084,3.28084,6,P-GPS,
131200,2022-08-15 19:59:12,0,0,3.28084,,,3.2808728084,3.608924,0,0,0,0,0,8.334,3.2808728084,3.28084,0,0,0,0,-0.447388,205.3, 0.2, -0.2,0,0,1024,1024,1164,1024,0,0,21,0,202,0,0,93,4.139,4.169,0,0,0,0,4.089,77.9,3.2808728084,3.28084,6,P-GPS,
131300,2022-08-15 19:59:13,0,0,3.28084,,,3.2808728084,3.608924,0,0,0,0,0,8.334,3.2808728084,3.28084,0,0,0,0,-0.223694,205.4, 0.6, 0,0,0,1024,1024,1162,1024,0,0,21,0,202,0,0,93,4.139,4.169,0,0,0,0,4.089,77.9,3.2808728084,3.28084,6,P-GPS,
131400,2022-08-15 19:59:13,0,0,3.28084,,,3.2808728084,3.608924,0,0,0,0,0,8.334,3.2808728084,3.28084,0,0,0,0,-0.223694,205.4, 0.6, 0,0,0,1024,1024,1074,1024,0,0,8,0,202,0,0,93,4.139,4.169,0,0,0,0,4.089,77.9,3.2808728084,3.28084,6,P-GPS,
131500,2022-08-15 19:59:13,0,0,3.608924,,,3.6089568084,3.608924,0,0,0,0,0,8.334,3.6089568084,3.608924,0,0,0,0,-0.447388,205.3, 0.4, -0.1,0,0,1024,1024,1238,1024,0,0,32,0,202,0,0,93,4.139,4.169,0,0,0,0,4.089,77.9,3.6089568084,3.608924,6,P-GPS,
131600,2022-08-15 19:59:13,0,0,3.608924,,,3.6089568084,3.608924,0,0,0,0,0,8.334,3.6089568084,3.608924,0,0,0,0,-0.223694,205.4, 0.7, -0.1,0,0,1024,1024,1238,1024,0,0,32,0,202,0,0,93,4.139,4.169,0,0,0,0,4.089,77.9,3.6089568084,3.608924,6,P-GPS,
131700,2022-08-15 19:59:13,0,0,3.608924,,,3.6089568084,3.937008,0,0,0,0,0,8.334,3.6089568084,3.608924,0,0,0,0,-0.447388,205.4, 0.5, 0,0,0,1024,1024,1069,1024,0,0,7,0,202,0,0,93,4.139,4.169,0,0,0,0,4.089,77.9,3.6089568084,3.608924,6,P-GPS,
131800,2022-08-15 19:59:13,0,0,3.608924,,,3.6089568084,3.937008,0,0,0,0,0,8.334,3.6089568084,3.608924,0,0,0,0,-0.671082,205.3, 0.3, -0.2,0,0,1024,1024,1076,1024,0,0,8,0,202,0,0,93,4.139,4.169,0,0,0,0,4.089,77.9,3.6089568084,3.608924,6,P-GPS,
131900,2022-08-15 19:59:13,0,0,3.937008,,,3.9370408084,3.937008,0,0,0,0,0,8.334,3.9370408084,3.937008,0,0,0,0,-0.223694,205.3, 0.8, -0.2,0,0,1024,1024,1205,1024,0,0,27,0,202,0,0,93,4.139,4.169,0,0,0,0,4.089,77.9,3.9370408084,3.937008,6,P-GPS,
132000,2022-08-15 19:59:13,0,0,3.937008,,,3.9370408084,3.937008,0,0,0,0,0,8.299,3.9370408084,3.937008,0,0,0,0,-0.223694,205.3, 0.6, 0,0,0,1024,1024,1049,1024,0,0,4,0,202,0,0,93,4.181,4.184,0,0,0,0,4.25,77.9,3.9370408084,3.937008,6,P-GPS,
132100,2022-08-15 19:59:13,0,0,3.937008,,,3.9370408084,4.265092,0,0,0,0,0,8.299,3.9370408084,3.937008,0,0,0,0,-0.447388,205.3, 0.4, -0.1,0,0,1024,1024,1112,1024,0,0,13,0,202,0,0,93,4.181,4.184,0,0,0,0,4.25,77.9,3.9370408084,3.937008,6,P-GPS,
132200,2022-08-15 19:59:13,0,0,3.937008,,,3.9370408084,4.265092,0,0,0,0,0,8.299,3.9370408084,3.937008,0,0,0,0,-0.223694,205.3, 0.6, -0.2,0,0,1024,1024,1146,1024,0,0,18,0,202,0,0,93,4.181,4.184,0,0,0,0,4.25,77.9,3.9370408084,3.937008,6,P-GPS,
132300,2022-08-15 19:59:14,0,0,3.937008,,,3.9370408084,4.265092,0,0,0,0,0,8.299,3.9370408084,3.937008,0,0,0,0,-0.223694,205.4, 0.8, -0.2,0,0,1024,1024,1146,1024,0,0,18,0,202,0,0,93,4.181,4.184,0,0,0,0,4.25,77.9,3.9370408084,3.937008,6,P-GPS,
132400,2022-08-15 19:59:14,0,0,4.265092,,,4.2651248084,4.265092,0,0,0,0,0,8.299,4.2651248084,4.265092,0,0,0,0,-0.447388,205.4, 0.4, -0.1,0,0,1024,1024,1024,1024,0,0,0,0,202,0,0,93,4.181,4.184,0,0,0,0,4.25,77.9,4.2651248084,4.265092,6,P-GPS,
132500,2022-08-15 19:59:14,0,0,4.265092,,,4.2651248084,4.265092,0,0,0,0,0,8.299,4.2651248084,4.265092,0,0,0,0,-0.223694,205.4, 0.6, -0.1,0,0,1024,1024,1127,1024,0,0,16,0,202,0,0,93,4.181,4.184,0,0,0,0,4.25,77.9,4.2651248084,4.265092,6,P-GPS,
132600,2022-08-15 19:59:14,0,0,4.265092,,,4.2651248084,4.265092,0,0,0,0,0,8.299,4.2651248084,4.265092,0,0,0,0,0,205.4, 0.6, 0,0,0,1024,1024,1243,1024,0,0,33,0,202,0,0,93,4.181,4.184,0,0,0,0,4.25,77.9,4.2651248084,4.265092,6,P-GPS,
132700,2022-08-15 19:59:14,0,0,4.265092,,,4.2651248084,4.593176,0,0,0,0,0,8.299,4.2651248084,4.265092,0,0,0,0,-0.223694,205.5, 0.5, 0,0,0,1024,1024,1024,1024,0,0,0,0,202,0,0,93,4.181,4.184,0,0,0,0,4.25,77.9,4.2651248084,4.265092,6,P-GPS,
132800,2022-08-15 19:59:14,0,0,4.265092,,,4.2651248084,4.593176,0,0,0,0,0,8.299,4.2651248084,4.265092,0,0,0,0,-0.447388,205.4, 0.2, -0.1,0,0,1024,1024,1024,1024,0,0,0,0,202,0,0,93,4.181,4.184,0,0,0,0,4.25,77.9,4.2651248084,4.265092,6,P-GPS,
132900,2022-08-15 19:59:14,0,0,4.593176,,,4.5932088084,4.593176,0,0,0,0,0,8.299,4.5932088084,4.593176,0,0,0,0,-0.223694,205.4, 0.7, 0,0,0,1024,1024,1024,1024,0,0,0,0,202,0,0,93,4.181,4.184,0,0,0,0,4.25,77.9,4.5932088084,4.593176,6,P-GPS,
133000,2022-08-15 19:59:14,0,0,4.593176,,,4.5932088084,4.593176,0,0,0,0,0,8.304,4.5932088084,4.593176,0,0,0,0,0,205.4, 0.6, 0.1,0,0,1024,1024,1024,1024,0,0,0,0,202,0,0,93,4.19,4.18,0,0,0,0,4.301,77.9,4.5932088084,4.593176,6,P-GPS,
133100,2022-08-15 19:59:14,0,0,4.593176,,,4.5932088084,4.593176,0,0,0,0,0,8.304,4.5932088084,4.593176,0,0,0,0,0,205.4, 0.6, 0.2,0,0,1024,1024,1024,1024,0,0,0,0,202,0,0,93,4.19,4.18,0,0,0,0,4.301,77.9,4.5932088084,4.593176,6,P-GPS,
133200,2022-08-15 19:59:14,0,0,4.593176,,,4.5932088084,4.593176,0,0,0,0,0,8.304,4.5932088084,4.593176,0,0,0,0,0,205.3, 0.6, 0.1,0,0,1024,1024,1024,1024,0,0,0,0,202,0,0,93,4.19,4.18,0,0,0,0,4.301,77.9,4.5932088084,4.593176,6,P-GPS,
133300,2022-08-15 19:59:15,0,0,4.593176,,,4.5932088084,4.593176,0,0,0,0,0,8.304,4.5932088084,4.593176,0,0,0,0,0,205.3, 0.5, -0.1,0,0,1024,1024,1024,1024,0,0,0,0,202,0,0,93,4.19,4.18,0,0,0,0,4.301,77.9,4.5932088084,4.593176,6,P-GPS,
133400,2022-08-15 19:59:15,0,0,4.593176,,,4.5932088084,4.593176,0,0,0,0,0,8.304,4.5932088084,4.593176,0,0,0,0,0,205.3, 0.4, -0.2,0,0,1024,1024,1024,1024,0,0,0,0,202,0,0,93,4.19,4.18,0,0,0,0,4.301,77.9,4.5932088084,4.593176,6,P-GPS,
133500,2022-08-15 19:59:15,0,0,4.593176,,,4.5932088084,4.593176,0,0,0,0,0,8.304,4.5932088084,4.593176,0,0,0,0,0,205.3, 0.4, -0.3,0,0,1024,1024,1024,1024,0,0,0,0,202,0,0,93,4.19,4.18,0,0,0,0,4.301,77.9,4.5932088084,4.593176,6,P-GPS,
133600,2022-08-15 19:59:15,0,0,4.593176,,,4.5932088084,4.593176,0,0,0,0,0,8.304,4.5932088084,4.593176,0,0,0,0,0,205.3, 0.4, -0.4,0,0,1024,1024,1024,1024,0,0,0,0,202,0,0,93,4.19,4.18,0,0,0,0,4.301,77.9,4.5932088084,4.593176,6,P-GPS,
133700,2022-08-15 19:59:15,0,0,4.593176,,,4.5932088084,4.593176,0,0,0,0,0,8.304,4.5932088084,4.593176,0,0,0,0,0,205.4, 0.4, -0.2,0,0,1024,1024,1024,1024,0,0,0,0,202,0,0,93,4.19,4.18,0,0,0,0,4.301,77.9,4.5932088084,4.593176,6,P-GPS,
133800,2022-08-15 19:59:15,0,0,4.593176,,,4.5932088084,4.593176,0,0,0,0,0,8.304,4.5932088084,4.593176,0,0,0,0,0,205.4, 0.4, -0.3,0,0,1024,1024,1024,1024,0,0,0,0,202,0,0,93,4.19,4.18,0,0,0,0,4.301,77.9,4.5932088084,4.593176,6,P-GPS,
133900,2022-08-15 19:59:15,0,0,4.593176,,,4.5932088084,4.593176,0,0,0,0,0,8.304,4.5932088084,4.593176,0,0,0,0,0,205.4, 0.4, -0.3,0,0,1024,1024,1024,1024,0,0,0,0,202,0,0,93,4.19,4.18,0,0,0,0,4.301,77.9,4.5932088084,4.593176,6,P-GPS,
134000,2022-08-15 19:59:15,0,0,4.593176,,,4.5932088084,4.593176,0,0,0,0,0,8.272,4.5932088084,4.593176,0,0,0,0,0,205.4, 0.5, -0.5,0,0,1024,1024,1024,1024,0,0,0,0,202,0,0,93,4.157,4.15,0,0,0,0,4.097,78.08,4.5932088084,4.593176,6,P-GPS,
134100,2022-08-15 19:59:15,0,0,4.593176,,,4.5932088084,4.593176,0,0,0,0,0,8.272,4.5932088084,4.593176,0,0,0,0,0,205.4, 0.4, -0.4,0,0,1024,1024,1024,1024,0,0,0,0,202,0,0,93,4.157,4.15,0,0,0,0,4.097,78.08,4.5932088084,4.593176,6,P-GPS,
134200,2022-08-15 19:59:16,0,0,4.593176,,,4.5932088084,4.593176,0,0,0,0,0,8.272,4.5932088084,4.593176,0,0,0,0,0,205.4, 0.4, -0.3,0,0,1024,1024,1024,1024,0,0,0,0,202,0,0,93,4.157,4.15,0,0,0,0,4.097,78.08,4.5932088084,4.593176,6,P-GPS,
134300,2022-08-15 19:59:16,0,0,4.593176,,,4.5932088084,4.593176,0,0,0,0,0,8.272,4.5932088084,4.593176,0,0,0,0,0,205.4, 0.5, -0.4,0,0,1024,1024,1024,1024,0,0,0,0,202,0,0,93,4.157,4.15,0,0,0,0,4.097,78.08,4.5932088084,4.593176,6,P-GPS,
134400,2022-08-15 19:59:16,0,0,4.593176,,,4.5932088084,4.593176,0,0,0,0,0,8.272,4.5932088084,4.593176,0,0,0,0,0,205.4, 0.5, -0.4,0,0,1024,1024,1024,1024,0,0,0,0,202,0,0,93,4.157,4.15,0,0,0,0,4.097,78.08,4.5932088084,4.593176,6,P-GPS,
134500,2022-08-15 19:59:16,0,0,4.593176,,,4.5932088084,4.593176,0,0,0,0,0,8.272,4.5932088084,4.593176,0,0,0,0,0,205.4, 0.4, -0.2,0,0,1024,1024,1024,1024,0,0,0,0,202,0,0,93,4.157,4.15,0,0,0,0,4.097,78.08,4.5932088084,4.593176,6,P-GPS,
134600,2022-08-15 19:59:16,0,0,4.593176,,,4.5932088084,4.593176,0,0,0,0,0,8.272,4.5932088084,4.593176,0,0,0,0,0,205.3, 0.5, -0.1,0,0,1024,1024,1024,1024,0,0,0,0,202,0,0,93,4.157,4.15,0,0,0,0,4.097,78.08,4.5932088084,4.593176,6,P-GPS,
134700,2022-08-15 19:59:16,0,0,4.593176,,,4.5932088084,4.593176,0,0,0,0,0,8.272,4.5932088084,4.593176,0,0,0,0,0,205.3, 0.5, 0,0,0,1024,1024,1024,1024,0,0,0,0,202,0,0,93,4.157,4.15,0,0,0,0,4.097,78.08,4.5932088084,4.593176,6,P-GPS,
134800,2022-08-15 19:59:16,0,0,4.593176,,,4.5932088084,4.593176,0,0,0,0,0,8.272,4.5932088084,4.593176,0,0,0,0,0,205.3, 0.6, -0.1,0,0,1024,1024,1024,1024,0,0,0,0,202,0,0,93,4.157,4.15,0,0,0,0,4.097,78.08,4.5932088084,4.593176,6,P-GPS,
134900,2022-08-15 19:59:16,0,0,4.593176,,,4.5932088084,4.593176,0,0,0,0,0,8.272,4.5932088084,4.593176,0,0,0,0,0,205.3, 0.6, -0.1,0,0,1024,1024,1024,1024,0,0,0,0,202,0,0,93,4.157,4.15,0,0,0,0,4.097,78.08,4.5932088084,4.593176,6,P-GPS,
135000,2022-08-15 19:59:16,0,0,4.593176,,,4.5932088084,4.593176,0,0,0,0,0,8.312,4.5932088084,4.593176,0,0,0,0,0,205.3, 0.5, -0.1,0,0,1024,1024,1024,1024,0,0,0,0,202,0,0,93,4.155,4.146,0,0,0,0,4.112,78.08,4.5932088084,4.593176,6,P-GPS,
135100,2022-08-15 19:59:16,0,0,4.593176,,,4.5932088084,4.593176,0,0,0,0,0,8.312,4.5932088084,4.593176,0,0,0,0,0,205.3, 0.4, 0,0,0,1024,1024,1024,1024,0,0,0,0,202,0,0,93,4.155,4.146,0,0,0,0,4.112,78.08,4.5932088084,4.593176,6,P-GPS,
135200,2022-08-15 19:59:16,0,0,4.593176,,,4.5932088084,4.593176,0,0,0,0,0,8.312,4.5932088084,4.593176,0,0,0,0,0,205.3, 0.5, -0.1,0,0,1024,1024,1024,1024,0,0,0,0,202,0,0,93,4.155,4.146,0,0,0,0,4.112,78.08,4.5932088084,4.593176,6,P-GPS,
135300,2022-08-15 19:59:17,0,0,4.593176,,,4.5932088084,4.593176,0,0,0,0,0,8.312,4.5932088084,4.593176,0,0,0,0,0,205.4, 0.5, 0,0,0,1024,1024,1024,1024,0,0,0,0,202,0,0,93,4.155,4.146,0,0,0,0,4.112,78.08,4.5932088084,4.593176,6,P-GPS,
135400,2022-08-15 19:59:17,0,0,4.593176,,,4.5932088084,4.265092,0,0,0,0,0,8.312,4.5932088084,4.593176,0,0,0,0,0,205.4, 0.4, 0,0,0,1024,1024,1024,1024,0,0,0,0,202,0,0,93,4.155,4.146,0,0,0,0,4.112,78.08,4.5932088084,4.593176,6,P-GPS,
135500,2022-08-15 19:59:17,0,0,4.593176,,,4.5932088084,4.265092,0,0,0,0,0,8.312,4.5932088084,4.593176,0,0,0,0,0,205.4, 0.4, 0,0,0,1024,1024,1024,1024,0,0,0,0,202,0,0,93,4.155,4.146,0,0,0,0,4.112,78.08,4.5932088084,4.593176,6,P-GPS,
135600,2022-08-15 19:59:17,0,0,4.593176,,,4.5932088084,4.265092,0,0,0,0,0,8.312,4.5932088084,4.593176,0,0,0,0,0,205.4, 0.4, 0,0,0,1024,1024,1024,1024,0,0,0,0,202,0,0,93,4.155,4.146,0,0,0,0,4.112,78.08,4.5932088084,4.593176,6,P-GPS,
135700,2022-08-15 19:59:17,0,0,4.593176,,,4.5932088084,4.265092,0,0,0,0,0,8.312,4.5932088084,4.593176,0,0,0,0,0,205.4, 0.5, -0.1,0,0,1024,1024,1024,1024,0,0,0,0,202,0,0,93,4.155,4.146,0,0,0,0,4.112,78.08,4.5932088084,4.593176,6,P-GPS,
135800,2022-08-15 19:59:17,0,0,4.593176,,,4.5932088084,1.64042,0,0,0,0,0,8.312,4.5932088084,4.593176,0,0,0,0,0,205.3, 0.5, 0,0,0,1024,1024,1024,1024,0,0,0,0,202,0,0,93,4.155,4.146,0,0,0,0,4.112,78.08,4.5932088084,4.593176,6,P-GPS,
135900,2022-08-15 19:59:17,0,0,4.593176,,,4.5932088084,1.64042,0,0,0,0,0,8.312,4.5932088084,4.593176,0,0,0,0,0,205.3, 0.4, 0.1,0,0,1024,1024,1024,1024,0,0,0,0,202,0,0,93,4.155,4.146,0,0,0,0,4.112,78.08,4.5932088084,4.593176,6,P-GPS,
136000,2022-08-15 19:59:17,0,0,4.593176,,,4.5932088084,1.312336,0,0,0,0,0,8.303,4.5932088084,4.593176,0,0,0,0,0,205.4, 0.4, 0.1,0,0,1024,1024,1024,1024,0,0,0,0,202,0,0,93,4.154,4.135,0,0,0,0,4.087,78.08,4.5932088084,4.593176,6,P-GPS,
136100,2022-08-15 19:59:17,0,0,4.593176,,,4.5932088084,1.312336,0,0,0,0,0,8.303,4.5932088084,4.593176,0,0,0,0,0,205.4, 0.3, 0,0,0,1024,1024,1024,1024,0,0,0,0,202,0,0,93,4.154,4.135,0,0,0,0,4.087,78.08,4.5932088084,4.593176,6,P-GPS,
136200,2022-08-15 19:59:17,0,0,4.593176,,,4.5932088084,1.312336,0,0,0,0,0,8.303,4.5932088084,4.593176,0,0,0,0,0,205.4, 0.3, -0.1,0,0,1024,1024,1024,1024,0,0,0,0,202,0,0,93,4.154,4.135,0,0,0,0,4.087,78.08,4.5932088084,4.593176,6,P-GPS,
136300,2022-08-15 19:59:18,0,0,4.92126,,,4.9212928084,1.312336,0,0,0,0,0,8.303,4.9212928084,4.92126,0,0,0,0,0,205.4, 0.3, -0.1,0,0,1024,1024,1024,1024,0,0,0,0,202,0,0,93,4.154,4.135,0,0,0,0,4.087,78.08,4.9212928084,4.92126,6,P-GPS,
136400,2022-08-15 19:59:18,0,0,4.92126,,,4.9212928084,1.64042,0,0,0,0,0,8.303,4.9212928084,4.92126,0,0,0,0,0,205.3, 0.3, 0,0,0,1024,1024,1024,1024,0,0,0,0,202,0,0,93,4.154,4.135,0,0,0,0,4.087,78.08,4.9212928084,4.92126,6,P-GPS,
136500,2022-08-15 19:59:18,0,0,4.92126,,,4.9212928084,1.64042,0,0,0,0,0,8.303,4.9212928084,4.92126,0,0,0,0,0,205.4, 0.3, 0,0,0,1024,1024,1024,1024,0,0,0,0,202,0,0,93,4.154,4.135,0,0,0,0,4.087,78.08,4.9212928084,4.92126,6,P-GPS,
136600,2022-08-15 19:59:18,0,0,4.92126,,,4.9212928084,1.64042,0,0,0,0,0,8.303,4.9212928084,4.92126,0,0,0,0,0,205.3, 0.4, 0,0,0,1024,1024,1024,1024,0,0,0,0,202,0,0,93,4.154,4.135,0,0,0,0,4.087,78.08,4.9212928084,4.92126,6,P-GPS,
136700,2022-08-15 19:59:18,0,0,4.92126,,,4.9212928084,1.64042,0,0,0,0,0,8.303,4.9212928084,4.92126,0,0,0,0,0,205.3, 0.4, 0,0,0,1024,1024,1024,1024,0,0,0,0,202,0,0,93,4.154,4.135,0,0,0,0,4.087,78.08,4.9212928084,4.92126,6,P-GPS,
136800,2022-08-15 19:59:18,0,0,4.92126,,,4.9212928084,1.64042,0,0,0,0,0,8.303,4.9212928084,4.92126,0,0,0,0,0,205.3, 0.5, -0.1,0,0,1024,1024,1024,1024,0,0,0,0,202,0,0,93,4.154,4.135,0,0,0,0,4.087,78.08,4.9212928084,4.92126,6,P-GPS,
136900,2022-08-15 19:59:18,0,0,4.92126,,,4.9212928084,1.64042,0,0,0,0,0,8.303,4.9212928084,4.92126,0,0,0,0,0,205.3, 0.5, 0,0,0,1024,1024,1024,1024,0,0,0,0,202,0,0,93,4.154,4.135,0,0,0,0,4.087,78.08,4.9212928084,4.92126,6,P-GPS,
137000,2022-08-15 19:59:18,0,0,4.92126,,,4.9212928084,1.64042,0,0,0,0,0,8.303,4.9212928084,4.92126,0,0,0,0,0,205.3, 0.5, 0.1,0,0,1024,1024,1024,1024,0,0,0,0,202,0,0,93,4.154,4.135,0,0,0,0,4.087,78.08,4.9212928084,4.92126,6,P-GPS,
137100,2022-08-15 19:59:18,0,0,4.92126,,,4.9212928084,1.64042,0,0,0,0,0,8.303,4.9212928084,4.92126,0,0,0,0,0,205.3, 0.4, 0.3,0,0,1024,1024,1024,1024,0,0,0,0,202,0,0,93,4.154,4.135,0,0,0,0,4.087,78.08,4.9212928084,4.92126,6,P-GPS,
137200,2022-08-15 19:59:18,0,0,4.92126,,,4.9212928084,1.64042,0,0,0,0,0,8.295,4.9212928084,4.92126,0,0,0,0,0,205.3, 0.4, 0.1,0,0,1024,1024,1024,1024,0,0,0,0,202,0,0,93,4.153,4.145,0,0,0,0,4.157,78.26,4.9212928084,4.92126,6,P-GPS,
137300,2022-08-15 19:59:19,0,0,4.92126,,,4.9212928084,1.64042,0,0,0,0,0,8.295,4.9212928084,4.92126,0,0,0,0,0,205.3, 0.4, 0,0,0,1024,1024,1024,1024,0,0,0,0,202,0,0,93,4.153,4.145,0,0,0,0,4.157,78.26,4.9212928084,4.92126,6,P-GPS,
137400,2022-08-15 19:59:19,0,0,4.92126,,,4.9212928084,1.64042,0,0,0,0,0,8.295,4.9212928084,4.92126,0,0,0,0,0,205.3, 0.5, -0.2,0,0,1024,1024,1024,1024,0,0,0,0,202,0,0,93,4.153,4.145,0,0,0,0,4.157,78.26,4.9212928084,4.92126,6,P-GPS,
137500,2022-08-15 19:59:19,0,0,4.92126,,,4.9212928084,1.64042,0,0,0,0,0,8.295,4.9212928084,4.92126,0,0,0,0,0,205.3, 0.5, -0.1,0,0,1024,1024,1024,1024,0,0,0,0,202,0,0,93,4.153,4.145,0,0,0,0,4.157,78.26,4.9212928084,4.92126,6,P-GPS,
137600,2022-08-15 19:59:19,0,0,4.92126,,,4.9212928084,1.312336,0,0,0,0,0,8.295,4.9212928084,4.92126,0,0,0,0,0,205.3, 0.4, -0.3,0,0,1024,1024,1024,1024,0,0,0,0,202,0,0,93,4.153,4.145,0,0,0,0,4.157,78.26,4.9212928084,4.92126,6,P-GPS,
137700,2022-08-15 19:59:19,0,0,4.92126,,,4.9212928084,1.312336,0,0,0,0,0,8.295,4.9212928084,4.92126,0,0,0,0,0,205.3, 0.3, -0.4,0,0,1024,1024,1024,1024,0,0,0,0,202,0,0,93,4.153,4.145,0,0,0,0,4.157,78.26,4.9212928084,4.92126,6,P-GPS,
137800,2022-08-15 19:59:19,0,0,4.92126,,,4.9212928084,1.312336,0,0,0,0,0,8.295,4.9212928084,4.92126,0,0,0,0,0,205.4, 0.2, -0.5,0,0,1024,1024,1024,1024,0,0,0,0,202,0,0,93,4.153,4.145,0,0,0,0,4.157,78.26,4.9212928084,4.92126,6,P-GPS,
137900,2022-08-15 19:59:19,0,0,4.92126,,,4.9212928084,1.312336,0,0,0,0,0,8.295,4.9212928084,4.92126,0,0,0,0,0,205.4, 0.3, -0.6,0,0,1024,1024,1024,1024,0,0,0,0,202,0,0,93,4.153,4.145,0,0,0,0,4.157,78.26,4.9212928084,4.92126,6,P-GPS,
138000,2022-08-15 19:59:19,0,0,4.92126,,,4.9212928084,1.312336,0,0,0,0,0,8.295,4.9212928084,4.92126,0,0,0,0,-0.223694,205.4, 0.3, -0.5,0,0,1024,1024,1024,1024,0,0,0,0,202,0,0,93,4.153,4.145,0,0,0,0,4.157,78.26,4.9212928084,4.92126,6,P-GPS,
138100,2022-08-15 19:59:19,0,0,4.92126,,,4.9212928084,1.64042,0,0,0,0,0,8.295,4.9212928084,4.92126,0,0,0,0,-0.223694,205.4, 0.1, -0.2,0,0,1024,1024,1024,1024,0,0,0,0,202,0,0,93,4.153,4.145,0,0,0,0,4.157,78.26,4.9212928084,4.92126,6,P-GPS,
138200,2022-08-15 19:59:19,0,0,4.92126,,,4.9212928084,1.64042,0,0,0,0,0,8.295,4.9212928084,4.92126,0,0,0,0,-0.223694,205.3, 0, 0,0,0,1024,1024,1024,1024,0,0,0,0,202,0,0,93,4.146,4.139,0,0,0,0,4.076,78.26,4.9212928084,4.92126,6,P-GPS,
138300,2022-08-15 19:59:20,0,0,4.92126,,,4.9212928084,1.968504,0,0,0,0,0,8.295,4.9212928084,4.92126,0,0,0,0,0,205.3, 0.1, 0,0,0,1024,1024,1024,1024,0,0,0,0,202,0,0,93,4.146,4.139,0,0,0,0,4.076,78.26,4.9212928084,4.92126,6,P-GPS,
138400,2022-08-15 19:59:20,0,0,4.92126,,,4.9212928084,1.968504,0,0,0,0,0,8.295,4.9212928084,4.92126,0,0,0,0,0,205.3, 0.1, 0,0,0,1024,1024,1024,1024,0,0,0,0,202,0,0,93,4.146,4.139,0,0,0,0,4.076,78.26,4.9212928084,4.92126,6,P-GPS,
138500,2022-08-15 19:59:20,0,0,5.249344,,,5.2493768084,1.968504,0,0,0,0,0,8.295,5.2493768084,5.249344,0,0,0,0,0,205.3, 0.1, -0.3,0,0,1024,1024,1024,1024,0,0,0,0,202,0,0,93,4.146,4.139,0,0,0,0,4.076,78.26,5.2493768084,5.249344,6,P-GPS,
138600,2022-08-15 19:59:20,0,0,5.249344,,,5.2493768084,1.968504,0,0,0,0,0,8.295,5.2493768084,5.249344,0,0,0,0,0,205.3, 0.3, -0.5,0,0,1024,1024,1024,1024,0,0,0,0,202,0,0,93,4.146,4.139,0,0,0,0,4.076,78.26,5.2493768084,5.249344,6,P-GPS,
138700,2022-08-15 19:59:20,0,0,5.249344,,,5.2493768084,1.968504,0,0,0,0,0,8.295,5.2493768084,5.249344,0,0,0,0,0,205.3, 0.4, -0.3,0,0,1024,1024,1024,1024,0,0,0,0,202,0,0,93,4.146,4.139,0,0,0,0,4.076,78.26,5.2493768084,5.249344,6,P-GPS,
138800,2022-08-15 19:59:20,0,0,5.249344,,,5.2493768084,5.249344,0,0,0,0,0,8.295,5.2493768084,5.249344,0,0,0,0,0,205.3, 0.4, -0.4,0,0,1024,1024,1024,1024,0,0,0,0,202,0,0,93,4.146,4.139,0,0,0,0,4.076,78.26,5.2493768084,5.249344,6,P-GPS,
138900,2022-08-15 19:59:20,0,0,5.249344,,,5.2493768084,5.249344,0,0,0,0,0,8.295,5.2493768084,5.249344,0,0,0,0,0,205.3, 0.5, -0.3,0,0,1024,1024,1024,1024,0,0,0,0,202,0,0,93,4.146,4.139,0,0,0,0,4.076,78.26,5.2493768084,5.249344,6,P-GPS,
139000,2022-08-15 19:59:20,0,0,5.249344,,,5.2493768084,5.249344,0,0,0,0,0,8.295,5.2493768084,5.249344,0,0,0,0,0,205.3, 0.4, -0.1,0,0,1024,1024,1024,1024,0,0,0,0,202,0,0,93,4.146,4.139,0,0,0,0,4.076,78.26,5.2493768084,5.249344,6,P-GPS,
139100,2022-08-15 19:59:20,0,0,5.249344,,,5.2493768084,5.249344,0,0,0,0,0,8.295,5.2493768084,5.249344,0,0,0,0,0,205.4, 0.6, 0.2,0,0,1024,1024,1024,1024,0,0,0,0,202,0,0,93,4.146,4.139,0,0,0,0,4.076,78.26,5.2493768084,5.249344,6,P-GPS,
139200,2022-08-15 19:59:21,0,0,5.249344,,,5.2493768084,5.249344,0,0,0,0,0,8.296,5.2493768084,5.249344,0,0,0,0,0,205.4, 0.4, 0.3,0,0,1024,1024,1024,1024,0,0,0,0,202,0,0,93,4.149,4.141,0,0,0,0,4.127,78.26,5.2493768084,5.249344,6,P-GPS,
139300,2022-08-15 19:59:21,0,0,5.249344,,,5.2493768084,5.249344,0,0,0,0,0,8.296,5.2493768084,5.249344,0,0,0,0,0,205.4, 0.3, 0.3,0,0,1024,1024,1024,1024,0,0,0,0,202,0,0,93,4.149,4.141,0,0,0,0,4.127,78.26,5.2493768084,5.249344,6,P-GPS,
139400,2022-08-15 19:59:21,0,0,5.249344,,,5.2493768084,5.249344,0,0,0,0,0,8.296,5.2493768084,5.249344,0,0,0,0,0,205.4, 0.2, 0.1,0,0,1024,1024,1024,1024,0,0,0,0,202,0,0,93,4.149,4.141,0,0,0,0,4.127,78.26,5.2493768084,5.249344,6,P-GPS,
139500,2022-08-15 19:59:21,0,0,5.249344,,,5.2493768084,5.249344,0,0,0,0,0,8.296,5.2493768084,5.249344,0,0,0,0,0,205.4, 0.2, 0,0,0,1024,1024,1024,1024,0,0,0,0,202,0,0,93,4.149,4.141,0,0,0,0,4.127,78.26,5.2493768084,5.249344,6,P-GPS,
139600,2022-08-15 19:59:21,0,0,5.249344,,,5.2493768084,5.249344,0,0,0,0,0,8.296,5.2493768084,5.249344,0,0,0,0,0,205.4, 0.1, -0.1,0,0,1024,1024,1024,1024,0,0,0,0,202,0,0,93,4.149,4.141,0,0,0,0,4.127,78.26,5.2493768084,5.249344,6,P-GPS,
139700,2022-08-15 19:59:21,0,0,5.249344,,,5.2493768084,5.249344,0,0,0,0,0,8.296,5.2493768084,5.249344,0,0,0,0,0,205.4, 0.2, -0.1,0,0,1024,1024,1024,1024,0,0,0,0,202,0,0,93,4.149,4.141,0,0,0,0,4.127,78.26,5.2493768084,5.249344,6,P-GPS,
139800,2022-08-15 19:59:21,0,0,5.249344,,,5.2493768084,5.249344,0,0,0,0,0,8.296,5.2493768084,5.249344,0,0,0,0,0,205.4, 0.3, -0.1,0,0,1024,1024,1024,1024,0,0,0,0,202,0,0,93,4.149,4.141,0,0,0,0,4.127,78.26,5.2493768084,5.249344,6,P-GPS,
139900,2022-08-15 19:59:21,0,0,5.249344,,,5.2493768084,5.249344,0,0,0,0,0,8.296,5.2493768084,5.249344,0,0,0,0,0,205.3, 0.4, -0.1,0,0,1024,1024,1024,1024,0,0,0,0,202,0,0,93,4.149,4.141,0,0,0,0,4.127,78.26,5.2493768084,5.249344,6,P-GPS,
140000,2022-08-15 19:59:21,0,0,5.249344,,,5.2493768084,5.249344,0,0,0,0,0,8.296,5.2493768084,5.249344,0,0,0,0,0,205.3, 0.2, -0.1,0,0,1024,1024,1024,1024,0,0,0,0,202,0,0,93,4.149,4.141,0,0,0,0,4.127,78.26,5.2493768084,5.249344,6,P-GPS,
140100,2022-08-15 19:59:21,0,0,5.249344,,,5.2493768084,5.249344,0,0,0,0,0,8.296,5.2493768084,5.249344,0,0,0,0,0,205.3, 0.1, -0.1,0,0,1024,1024,1024,1024,0,0,0,0,202,0,0,93,4.149,4.141,0,0,0,0,4.127,78.26,5.2493768084,5.249344,6,P-GPS,
140200,2022-08-15 19:59:21,0,0,5.249344,,,5.2493768084,5.249344,0,0,0,0,0,8.296,5.2493768084,5.249344,0,0,0,0,0,205.3, 0.1, -0.1,0,0,1024,1024,1024,1024,0,0,0,0,202,0,0,93,4.149,4.141,0,0,0,0,4.127,78.26,5.2493768084,5.249344,6,P-GPS,
140300,2022-08-15 19:59:22,0,0,5.249344,,,5.2493768084,5.249344,0,0,0,0,0,8.291,5.2493768084,5.249344,0,0,0,0,0,205.4, 0.2, -0.1,0,0,1024,1024,1024,1024,0,0,0,0,202,0,0,93,4.149,4.142,0,0,0,0,4.075,78.44,5.2493768084,5.249344,6,P-GPS,
140400,2022-08-15 19:59:22,0,0,5.249344,,,5.2493768084,5.249344,0,0,0,0,0,8.291,5.2493768084,5.249344,0,0,0,0,0,205.4, 0.2, 0,0,0,1024,1024,1024,1024,0,0,0,0,202,0,0,93,4.149,4.142,0,0,0,0,4.075,78.44,5.2493768084,5.249344,6,P-GPS,
140500,2022-08-15 19:59:22,0,0,5.249344,,,5.2493768084,5.249344,0,0,0,0,0,8.291,5.2493768084,5.249344,0,0,0,0,0,205.3, 0.4, -0.1,0,0,1024,1024,1024,1024,0,0,0,0,202,0,0,93,4.149,4.142,0,0,0,0,4.075,78.44,5.2493768084,5.249344,6,P-GPS,
140600,2022-08-15 19:59:22,0,0,5.249344,,,5.2493768084,5.249344,0,0,0,0,0,8.291,5.2493768084,5.249344,0,0,0,0,0,205.4, 0.4, -0.4,0,0,1024,1024,1024,1024,0,0,0,0,202,0,0,93,4.149,4.142,0,0,0,0,4.075,78.44,5.2493768084,5.249344,6,P-GPS,
140700,2022-08-15 19:59:22,0,0,5.249344,,,5.2493768084,5.249344,0,0,0,0,0,8.291,5.2493768084,5.249344,0,0,0,0,0,205.3, 0.5, -0.4,0,0,1024,1024,1024,1024,0,0,0,0,202,0,0,93,4.149,4.142,0,0,0,0,4.075,78.44,5.2493768084,5.249344,6,P-GPS,
140800,2022-08-15 19:59:22,0,0,5.249344,,,5.2493768084,5.249344,0,0,0,0,0,8.291,5.2493768084,5.249344,0,0,0,0,0,205.4, 0.9, -0.4,0,0,1024,1024,1024,1024,0,0,0,0,202,0,0,93,4.149,4.142,0,0,0,0,4.075,78.44,5.2493768084,5.249344,6,P-GPS,
140900,2022-08-15 19:59:22,0,0,5.249344,,,5.2493768084,5.249344,0,0,0,0,0,8.291,5.2493768084,5.249344,0,0,0,0,0,205.4, 0.5, -0.3,0,0,1024,1024,1024,1024,0,0,0,0,202,0,0,93,4.149,4.142,0,0,0,0,4.075,78.44,5.2493768084,5.249344,6,P-GPS,
141000,2022-08-15 19:59:22,0,0,5.249344,,,5.2493768084,5.249344,0,0,0,0,0,8.291,5.2493768084,5.249344,0,0,0,0,0,205.4, 0.3, -0.2,0,0,1024,1024,1024,1024,0,0,0,0,202,0,0,93,4.149,4.142,0,0,0,0,4.075,78.44,5.2493768084,5.249344,6,P-GPS,
141100,2022-08-15 19:59:22,0,0,5.249344,,,5.2493768084,5.249344,0,0,0,0,0,8.291,5.2493768084,5.249344,0,0,0,0,0,205.5, 0.2, 0,0,0,1024,1024,1024,1024,0,0,0,0,202,0,0,93,4.149,4.142,0,0,0,0,4.075,78.44,5.2493768084,5.249344,6,P-GPS,
141200,2022-08-15 19:59:22,0,0,5.249344,,,5.2493768084,5.249344,0,0,0,0,0,8.291,5.2493768084,5.249344,0,0,0,0,0,205.5, 0, 0.1,0,0,1024,1024,1024,1024,0,0,0,0,202,0,0,93,4.149,4.142,0,0,0,0,4.075,78.44,5.2493768084,5.249344,6,P-GPS,
141300,2022-08-15 19:59:23,0,0,5.249344,,,5.2493768084,5.249344,0,0,0,0,0,8.288,5.2493768084,5.249344,0,0,0,0,0,205.4, -0.1, 0.1,0,0,1024,1024,1024,1024,0,0,0,0,202,0,0,93,4.148,4.14,0,0,0,0,4.063,78.44,5.2493768084,5.249344,6,P-GPS,
141400,2022-08-15 19:59:23,0,0,5.249344,,,5.2493768084,5.249344,0,0,0,0,0,8.288,5.2493768084,5.249344,0,0,0,0,0,205.5, -0.1, 0.1,0,0,1024,1024,1024,1024,0,0,0,0,202,0,0,93,4.148,4.14,0,0,0,0,4.063,78.44,5.2493768084,5.249344,6,P-GPS,
141500,2022-08-15 19:59:23,0,0,5.249344,,,5.2493768084,2.296588,0,0,0,0,0,8.288,5.2493768084,5.249344,0,0,0,0,0,205.5, 0, 0,0,0,1024,1024,1024,1024,0,0,0,0,202,0,0,93,4.148,4.14,0,0,0,0,4.063,78.44,5.2493768084,5.249344,6,P-GPS,
141600,2022-08-15 19:59:23,0,0,5.249344,,,5.2493768084,2.296588,0,0,0,0,0,8.288,5.2493768084,5.249344,0,0,0,0,0,205.4, 0, 0,0,0,1024,1024,1024,1024,0,0,0,0,202,0,0,93,4.148,4.14,0,0,0,0,4.063,78.44,5.2493768084,5.249344,6,P-GPS,
141700,2022-08-15 19:59:23,0,0,5.249344,,,5.2493768084,2.296588,0,0,0,0,0,8.288,5.2493768084,5.249344,0,0,0,0,0,205.4, 0.1, -0.2,0,0,1024,1024,1024,1024,0,0,0,0,202,0,0,93,4.148,4.14,0,0,0,0,4.063,78.44,5.2493768084,5.249344,6,P-GPS,
141800,2022-08-15 19:59:23,0,0,5.249344,,,5.2493768084,2.296588,0,0,0,0,0,8.288,5.2493768084,5.249344,0,0,0,0,0,205.4, 0.2, -0.4,0,0,1024,1024,1024,1024,0,0,0,0,202,0,0,93,4.148,4.14,0,0,0,0,4.063,78.44,5.2493768084,5.249344,6,P-GPS,
141900,2022-08-15 19:59:23,0,0,5.249344,,,5.2493768084,2.296588,0,0,0,0,0,8.288,5.2493768084,5.249344,0,0,0,0,0,205.4, 0.3, -0.4,0,0,1024,1024,1024,1024,0,0,0,0,202,0,0,93,4.148,4.14,0,0,0,0,4.063,78.44,5.2493768084,5.249344,6,P-GPS,
142000,2022-08-15 19:59:23,0,0,5.249344,,,5.2493768084,2.296588,0,0,0,0,0,8.288,5.2493768084,5.249344,0,0,0,0,0,205.3, 0.6, -0.4,0,0,1024,1024,1024,1024,0,0,0,0,202,0,0,93,4.148,4.14,0,0,0,0,4.063,78.44,5.2493768084,5.249344,6,P-GPS,
142100,2022-08-15 19:59:23,0,0,5.249344,,,5.2493768084,2.296588,0,0,0,0,0,8.288,5.2493768084,5.249344,0,0,0,0,0,205.3, 0.7, -0.6,0,0,1024,1024,1024,1024,0,0,0,0,202,0,0,93,4.148,4.14,0,0,0,0,4.063,78.44,5.2493768084,5.249344,6,P-GPS,
142200,2022-08-15 19:59:23,0,0,5.249344,,,5.2493768084,2.296588,0,0,0,0,0,8.288,5.2493768084,5.249344,0,0,0,0,0,205.2, 0.6, -0.6,0,0,1024,1024,1024,1024,0,0,0,0,202,0,0,93,4.148,4.14,0,0,0,0,4.063,78.44,5.2493768084,5.249344,6,P-GPS,
142300,2022-08-15 19:59:24,0,0,5.249344,,,5.2493768084,2.296588,0,0,0,0,0,8.287,5.2493768084,5.249344,0,0,0,0,0,205.2, 0.4, -0.6,0,0,1024,1024,1024,1024,0,0,0,0,202,0,0,93,4.146,4.138,0,0,0,0,4.069,78.62,5.2493768084,5.249344,6,P-GPS,
142400,2022-08-15 19:59:24,0,0,5.249344,,,5.2493768084,2.296588,0,0,0,0,0,8.287,5.2493768084,5.249344,0,0,0,0,0,205.3, 0.4, -0.4,0,0,1024,1024,1024,1024,0,0,0,0,202,0,0,93,4.146,4.138,0,0,0,0,4.069,78.62,5.2493768084,5.249344,6,P-GPS,
142500,2022-08-15 19:59:24,0,0,5.249344,,,5.2493768084,5.249344,0,0,0,0,0,8.287,5.2493768084,5.249344,0,0,0,0,0,205.3, 0.1, 0,0,0,1024,1024,1024,1024,0,0,0,0,202,0,0,93,4.146,4.138,0,0,0,0,4.069,78.62,5.2493768084,5.249344,6,P-GPS,
142600,2022-08-15 19:59:24,0,0,5.249344,,,5.2493768084,5.249344,0,0,0,0,0,8.287,5.2493768084,5.249344,0,0,0,0,0,205.3, 0.1, -0.1,0,0,1024,1024,1024,1024,0,0,0,0,202,0,0,93,4.146,4.138,0,0,0,0,4.069,78.62,5.2493768084,5.249344,6,P-GPS,
142700,2022-08-15 19:59:24,0,0,5.249344,,,5.2493768084,5.249344,0,0,0,0,0,8.287,5.2493768084,5.249344,0,0,0,0,0,205.3, 0, -0.2,0,0,1024,1024,1024,1024,0,0,0,0,202,0,0,93,4.146,4.138,0,0,0,0,4.069,78.62,5.2493768084,5.249344,6,P-GPS,
142800,2022-08-15 19:59:24,0,0,5.249344,,,5.2493768084,5.249344,0,0,0,0,0,8.287,5.2493768084,5.249344,0,0,0,0,0,205.3, 0.1, -0.3,0,0,1024,1024,1024,1024,0,0,0,0,202,0,0,93,4.146,4.138,0,0,0,0,4.069,78.62,5.2493768084,5.249344,6,P-GPS,
142900,2022-08-15 19:59:24,0,0,5.249344,,,5.2493768084,5.249344,0,0,0,0,0,8.287,5.2493768084,5.249344,0,0,0,0,0,205.3, 0.2, -0.4,0,0,1024,1024,1024,1024,0,0,0,0,202,0,0,93,4.146,4.138,0,0,0,0,4.069,78.62,5.2493768084,5.249344,6,P-GPS,
143000,2022-08-15 19:59:24,0,0,5.249344,,,5.2493768084,5.249344,0,0,0,0,0,8.287,5.2493768084,5.249344,0,0,0,0,0,205.3, 0.1, -0.3,0,0,1024,1024,1024,1024,0,0,0,0,202,0,0,93,4.146,4.138,0,0,0,0,4.069,78.62,5.2493768084,5.249344,6,P-GPS,
143100,2022-08-15 19:59:24,0,0,5.249344,,,5.2493768084,5.249344,0,0,0,0,0,8.287,5.2493768084,5.249344,0,0,0,0,0,205.3, 0.1, -0.2,0,0,1024,1024,609,1024,0,0,-63,0,202,0,0,93,4.146,4.138,0,0,0,0,4.069,78.62,5.2493768084,5.249344,6,P-GPS,
143200,2022-08-15 19:59:24,0,0,5.249344,,,5.2493768084,5.249344,0,0,0,0,0,8.287,5.2493768084,5.249344,0,0,0,0,0,205.3, 0, -0.2,0,0,1024,1024,828,1024,0,0,-30,0,202,0,0,93,4.146,4.138,0,0,0,0,4.069,78.62,5.2493768084,5.249344,6,P-GPS,
143300,2022-08-15 19:59:25,0,0,4.92126,,,4.9212928084,5.249344,0,0,0,0,0,8.283,5.2493768084,5.249344,0,0,0,0,0.223694,205.3, 0.4, -0.5,0,0,1024,1024,828,1024,0,0,-30,0,202,0,0,93,4.146,4.136,0,0,0,0,4.111,78.62,4.9212928084,4.92126,6,P-GPS,
143400,2022-08-15 19:59:25,0,0,4.92126,,,4.9212928084,4.92126,0,0,0,0,0,8.283,5.2493768084,5.249344,0,0,0,0,0.671082,205.3, 0.3, -0.7,0,0,1024,1024,1024,1024,0,0,0,0,202,0,0,93,4.146,4.136,0,0,0,0,4.111,78.62,4.9212928084,4.92126,6,P-GPS,
143500,2022-08-15 19:59:25,0,0,4.92126,,,4.9212928084,4.92126,0,0,0,0,0,8.283,5.2493768084,5.249344,0,0,0,0,0.447388,205.4, 0, -0.5,0,0,1024,1024,1024,1024,0,0,0,0,202,0,0,93,4.146,4.136,0,0,0,0,4.111,78.62,4.9212928084,4.92126,6,P-GPS,
143600,2022-08-15 19:59:25,0,0,4.92126,,,4.9212928084,4.92126,0,0,0,0,0,8.283,5.2493768084,5.249344,0,0,0,0,0.223694,205.3, 0, -0.5,0,0,1024,1024,1024,1024,0,0,0,0,202,0,0,93,4.146,4.136,0,0,0,0,4.111,78.62,4.9212928084,4.92126,6,P-GPS,
143700,2022-08-15 19:59:25,0,0,4.92126,,,4.9212928084,4.92126,0,0,0,0,0,8.283,5.2493768084,5.249344,0,0,0,0,0,205.4, 0.2, -0.3,0,0,1024,1024,1024,1024,0,0,0,0,202,0,0,93,4.146,4.136,0,0,0,0,4.111,78.62,4.9212928084,4.92126,6,P-GPS,
143800,2022-08-15 19:59:25,0,0,4.92126,,,4.9212928084,4.92126,0,0,0,0,0,8.283,5.2493768084,5.249344,0,0,0,0,0,205.4, 0.1, -0.2,0,0,1024,1024,1024,1024,0,0,0,0,202,0,0,93,4.146,4.136,0,0,0,0,4.111,78.62,4.9212928084,4.92126,6,P-GPS,
143900,2022-08-15 19:59:25,0,0,4.92126,,,4.9212928084,4.92126,0,0,0,0,0,8.283,5.2493768084,5.249344,0,0,0,0,0,205.4, 0, 0,0,0,1024,1024,1024,1024,0,0,0,0,202,0,0,93,4.146,4.136,0,0,0,0,4.111,78.62,4.9212928084,4.92126,6,P-GPS,
144000,2022-08-15 19:59:25,0,0,4.92126,,,4.9212928084,4.92126,0,0,0,0,0,8.283,5.2493768084,5.249344,0,0,0,0,0,205.4, 0, 0.1,0,0,1024,1024,1024,1024,0,0,0,0,202,0,0,93,4.146,4.136,0,0,0,0,4.111,78.62,4.9212928084,4.92126,6,P-GPS,
144100,2022-08-15 19:59:25,0,0,4.92126,,,4.9212928084,4.92126,0,0,0,0,0,8.283,5.2493768084,5.249344,0,0,0,0,0,205.4, 0, 0,0,0,1049,1024,1024,1024,4,0,0,0,202,0,0,93,4.146,4.136,0,0,0,0,4.111,78.62,4.9212928084,4.92126,6,P-GPS,
144200,2022-08-15 19:59:26,0,0,4.92126,,,4.9212928084,4.92126,0,0,0,0,0,8.283,5.2493768084,5.249344,0,0,0,0,0,205.4, -0.2, -0.2,0,0,1104,1024,1024,1024,12,0,0,0,202,0,0,93,4.146,4.136,0,0,0,0,4.111,78.62,4.9212928084,4.92126,6,P-GPS,
144300,2022-08-15 19:59:26,0,0,4.92126,,,4.9212928084,4.92126,0,0,0,0,0,8.275,5.2493768084,5.249344,0,0,0,0,0,205.4, -0.1, -0.3,0,0,1104,1024,1024,1024,12,0,0,0,202,0,0,93,4.143,4.135,0,0,0,0,4.117,78.62,4.9212928084,4.92126,6,P-GPS,
144400,2022-08-15 19:59:26,0,0,4.92126,,,4.9212928084,4.92126,0,0,0,0,0,8.275,5.2493768084,5.249344,0,0,0,0,0,205.4, -0.5, -0.3,0,0,1161,1024,1024,1024,21,0,0,0,202,0,0,93,4.143,4.135,0,0,0,0,4.117,78.62,4.9212928084,4.92126,6,P-GPS,
144500,2022-08-15 19:59:26,0,0,4.593176,,,4.5932088084,4.92126,0,0,0,0,0,8.275,5.2493768084,5.249344,0,0,0,0,0,205.4, -1.4, -0.2,0,0,1182,1024,1024,1024,24,0,0,0,202,0,0,93,4.143,4.135,0,0,0,0,4.117,78.62,4.5932088084,4.593176,6,P-GPS,
144600,2022-08-15 19:59:26,0,0,4.593176,,,4.5932088084,4.92126,0,0,0,0,0,8.275,5.2493768084,5.249344,0,0,0,0,0,205.4, -2.1, -0.2,0,0,1191,1024,1024,1024,25,0,0,0,202,0,0,93,4.143,4.135,0,0,0,0,4.117,78.62,4.5932088084,4.593176,6,P-GPS,
144700,2022-08-15 19:59:26,0,0,4.593176,,,4.5932088084,4.92126,0,0,0,0,0,8.275,5.2493768084,5.249344,0,0,0,0,0,205.4, -2.4, -0.2,0,0,1192,1024,1024,1024,25,0,0,0,202,0,0,93,4.143,4.135,0,0,0,0,4.117,78.62,4.5932088084,4.593176,6,P-GPS,
144800,2022-08-15 19:59:26,0,0,4.593176,,,4.5932088084,4.92126,0.223694,0,0,0,0,8.275,5.2493768084,5.249344,0,0,-0.223694,0,0,205.4, -2.6, -0.2,0,0,1194,1024,1024,1024,26,0,0,0,202,0,0,93,4.143,4.135,0,0,0,0,4.117,78.62,4.5932088084,4.593176,6,P-GPS,
144900,2022-08-15 19:59:26,0,0,4.593176,,,4.5932088084,4.92126,0.223694,0,0,0,0,8.275,5.2493768084,5.249344,0,0,-0.223694,0,0,205.4, -2.6, -0.1,0,0,1193,1024,1024,1024,26,0,0,0,202,0,0,93,4.143,4.135,0,0,0,0,4.117,78.62,4.5932088084,4.593176,6,P-GPS,
145000,2022-08-15 19:59:26,0,0,4.593176,,,4.5932088084,4.92126,0.223694,0,0,0,0,8.275,5.2493768084,5.249344,0,0,-0.223694,0,0,205.3, -2.4, -0.3,0,0,1194,1024,1024,1024,26,0,0,0,202,0,0,93,4.143,4.135,0,0,0,0,4.117,78.62,4.5932088084,4.593176,6,P-GPS,
145100,2022-08-15 19:59:26,0,0,4.593176,,,4.5932088084,4.92126,0.4921268,0,0,0,0,8.275,5.2493768084,5.249344,0,0,-0.447388,-0.223694,0,205.3, -2.3, -0.4,0,0,1194,1024,1024,1024,26,0,0,0,202,0,0,93,4.143,4.135,0,0,0,0,4.117,78.62,4.5932088084,4.593176,6,P-GPS,
145200,2022-08-15 19:59:26,0,0,4.593176,,,4.5932088084,4.593176,0.4921268,0,0,0,0,8.275,5.2493768084,5.249344,0,0,-0.447388,-0.223694,0,205.2, -2.3, -0.6,0,0,1193,1024,1024,1024,26,0,0,0,202,0,0,93,4.143,4.135,0,0,0,0,4.117,78.62,4.5932088084,4.593176,6,P-GPS,
145300,2022-08-15 19:59:27,0,0,4.593176,,,4.5932088084,4.593176,0.4921268,0,0,0,0,8.275,5.2493768084,5.249344,0,0,-0.447388,-0.223694,0,205.2, -2.4, -0.5,0,0,1191,1024,1024,1024,25,0,0,0,202,0,0,93,4.143,4.135,0,0,0,0,4.117,78.62,4.5932088084,4.593176,6,P-GPS,
145400,2022-08-15 19:59:27,0,0,4.593176,,,4.5932088084,4.593176,0.4921268,0,0,0,0,8.275,5.2493768084,5.249344,0,0,-0.671082,-0.223694,0,205.2, -2.4, -0.4,0,0,1147,1024,1024,1024,19,0,0,0,202,0,0,93,4.141,4.133,0,0,0,0,4.128,78.8,4.5932088084,4.593176,6,P-GPS,
145500,2022-08-15 19:59:27,0,0,4.593176,,,4.5932088084,4.593176,0.7158208,0,0,0,0,8.275,5.2493768084,5.249344,0,0,-0.671082,-0.223694,0,205.3, -2.4, -0.2,0,0,1057,1024,1024,1024,5,0,0,0,202,0,0,93,4.141,4.133,0,0,0,0,4.128,78.8,4.5932088084,4.593176,6,P-GPS,
145600,2022-08-15 19:59:27,0,0,4.593176,,,4.5932088084,4.593176,0.7158208,0,0,0,0,8.275,5.2493768084,5.249344,0,0,-0.671082,-0.223694,0,205.2, -1.5, 0,0,0,1028,1024,1024,1024,1,0,0,0,202,0,0,93,4.141,4.133,0,0,0,0,4.128,78.8,4.5932088084,4.593176,6,P-GPS,
145700,2022-08-15 19:59:27,0,0,4.593176,,,4.5932088084,4.593176,0.7158208,0,0,0,0,8.275,5.2493768084,5.249344,0,0,-0.671082,-0.223694,0,205.2, 0.4, 0.2,0,0,1024,1024,1024,1024,0,0,0,0,202,0,0,93,4.141,4.133,0,0,0,0,4.128,78.8,4.5932088084,4.593176,6,P-GPS,
145800,2022-08-15 19:59:27,0,0,4.593176,,,4.5932088084,4.593176,0.7158208,0,0,0,0,8.275,5.2493768084,5.249344,0,0,-0.671082,-0.223694,0,205.3, 3.2, 0.3,0,0,1024,1024,1024,1024,0,0,0,0,202,0,0,93,4.141,4.133,0,0,0,0,4.128,78.8,4.5932088084,4.593176,6,P-GPS,
145900,2022-08-15 19:59:27,0,0,4.593176,,,4.5932088084,4.593176,0.4921268,0,0,0,0,8.275,5.2493768084,5.249344,0,0,-0.447388,-0.223694,0,205.3, 3.5, 0.5,0,0,1024,1024,1024,1024,0,0,0,0,202,0,0,93,4.141,4.133,0,0,0,0,4.128,78.8,4.5932088084,4.593176,6,P-GPS,
146000,2022-08-15 19:59:27,0,0,4.593176,,,4.5932088084,4.593176,0.447388,0,0,0,0,8.275,5.2493768084,5.249344,0,0,-0.447388,0,0,205.3, 3.2, 0.3,0,0,1024,1024,1024,1024,0,0,0,0,202,0,0,93,4.141,4.133,0,0,0,0,4.128,78.8,4.5932088084,4.593176,6,P-GPS,
146100,2022-08-15 19:59:27,0,0,4.593176,,,4.5932088084,4.593176,0.223694,0,0,0,0,8.275,5.2493768084,5.249344,0,0,-0.223694,0,0,205.3, 2.7, 0.2,0,0,1024,1024,1024,1024,0,0,0,0,202,0,0,93,4.141,4.133,0,0,0,0,4.128,78.8,4.5932088084,4.593176,6,P-GPS,
146200,2022-08-15 19:59:27,0,0,4.593176,,,4.5932088084,4.593176,0.223694,0,0,0,0,8.275,5.2493768084,5.249344,0,0,-0.223694,0,0,205.2, 2.1, 0.1,0,0,1024,1024,1024,1024,0,0,0,0,202,0,0,93,4.141,4.133,0,0,0,0,4.128,78.8,4.5932088084,4.593176,6,P-GPS,
146300,2022-08-15 19:59:28,0,0,4.593176,,,4.5932088084,4.593176,0,0,0,0,0,8.275,5.2493768084,5.249344,0,0,0,0,0,205.3, 1.8, 0.1,0,0,1024,1024,1024,1024,0,0,0,0,202,0,0,93,4.141,4.133,0,0,0,0,4.128,78.8,4.5932088084,4.593176,6,P-GPS,
146400,2022-08-15 19:59:28,0,0,4.92126,,,4.9212928084,4.593176,0,0,0,0,0,8.276,5.2493768084,5.249344,0,0,0,0,0,205.3, 1.4, 0,0,0,1024,1024,1024,1024,0,0,0,0,202,0,0,92,4.141,4.133,0,0,0,0,4.162,78.8,4.9212928084,4.92126,6,P-GPS,
146500,2022-08-15 19:59:28,0,0,4.92126,,,4.9212928084,4.593176,0,0,0,0,0,8.276,5.2493768084,5.249344,0,0,0,0,0,205.3, 1.5, 0.1,0,0,1024,1024,1024,1024,0,0,0,0,202,0,0,92,4.141,4.133,0,0,0,0,4.162,78.8,4.9212928084,4.92126,6,P-GPS,
146600,2022-08-15 19:59:28,0,0,4.92126,,,4.9212928084,4.593176,0,0,0,0,0,8.276,5.2493768084,5.249344,0,0,0,0,0,205.2, 1, 0,0,0,1024,1024,1024,1024,0,0,0,0,202,0,0,92,4.141,4.133,0,0,0,0,4.162,78.8,4.9212928084,4.92126,6,P-GPS,
146700,2022-08-15 19:59:28,0,0,4.92126,,,4.9212928084,4.593176,0,0,0,0,0,8.276,5.2493768084,5.249344,0,0,0,0,0,205.2, 1.1, 0,0,0,1024,1024,1024,1024,0,0,0,0,202,0,0,92,4.141,4.133,0,0,0,0,4.162,78.8,4.9212928084,4.92126,6,P-GPS,
146800,2022-08-15 19:59:28,0,0,4.92126,,,4.9212928084,4.593176,0,0,0,0,0,8.276,5.2493768084,5.249344,0,0,0,0,0,205.3, 1.2, -0.2,0,0,1024,1024,1024,699,0,0,0,-49,202,0,0,92,4.141,4.133,0,0,0,0,4.162,78.8,4.9212928084,4.92126,6,P-GPS,
146900,2022-08-15 19:59:28,0,0,4.593176,,,4.5932088084,4.593176,0,0,0,0,0,8.276,5.2493768084,5.249344,0,0,0,0,0,205.3, 1, 0,0,0,1024,1024,1024,364,0,0,0,-100,202,0,0,92,4.141,4.133,0,0,0,0,4.162,78.8,4.5932088084,4.593176,6,P-GPS,
147000,2022-08-15 19:59:28,0,0,4.92126,,,4.9212928084,4.593176,0,0,0,0,0,8.276,5.2493768084,5.249344,0,0,0,0,0,205.3, 0.8, 0.1,0,0,1024,1024,1024,364,0,0,0,-100,201.4,0,0,92,4.141,4.133,0,0,0,0,4.162,78.8,4.9212928084,4.92126,6,P-GPS,
147100,2022-08-15 19:59:28,0,0,4.593176,,,4.5932088084,4.593176,0,0,0,0,0,8.276,5.2493768084,5.249344,0,0,0,0,0,203.7, 1, 0.4,0,0,1024,1024,1024,364,0,0,0,-100,198.1,0,0,92,4.141,4.133,0,0,0,0,4.162,78.8,4.5932088084,4.593176,6,P-GPS,
147200,2022-08-15 19:59:28,0,0,4.593176,,,4.5932088084,4.593176,0,0,0,0,0,8.276,5.2493768084,5.249344,0,0,0,0,0,199.6, 1.3, 0,0,0,1024,1024,1024,364,0,0,0,-100,193.5,0,0,92,4.141,4.133,0,0,0,0,4.162,78.8,4.5932088084,4.593176,6,P-GPS,
147300,2022-08-15 19:59:29,0,0,4.593176,,,4.5932088084,4.593176,0,0,0,0,0,8.276,5.2493768084,5.249344,0,0,0,0,0,195.1, 1, -0.1,0,0,1024,1024,1024,364,0,0,0,-100,188.7,0,0,92,4.141,4.133,0,0,0,0,4.162,78.8,4.5932088084,4.593176,6,P-GPS,
147400,2022-08-15 19:59:29,0,0,4.593176,,,4.5932088084,4.593176,0,0,0,0,0,8.272,5.2493768084,5.249344,0,0,0,0,0,190.4, 0.8, -0.1,0,0,1024,1024,1024,364,0,0,0,-100,183.9,0,0,92,4.14,4.132,0,0,0,0,4.141,78.98,4.5932088084,4.593176,6,P-GPS,
147500,2022-08-15 19:59:29,0,0,4.593176,,,4.5932088084,4.593176,0,0,0,0,0,8.272,5.2493768084,5.249344,0,0,0,0,0,185.6, 0.7, 0,0,0,1024,1024,1024,364,0,0,0,-100,179,0,0,92,4.14,4.132,0,0,0,0,4.141,78.98,4.5932088084,4.593176,6,P-GPS,
147600,2022-08-15 19:59:29,0,0,4.593176,,,4.5932088084,4.593176,0,0,0,0,0,8.272,5.2493768084,5.249344,0,0,0,0,0,180.9, 0.9, -0.3,0,0,1024,1024,1024,364,0,0,0,-100,174.2,0,0,92,4.14,4.132,0,0,0,0,4.141,78.98,4.5932088084,4.593176,6,P-GPS,
147700,2022-08-15 19:59:29,0,0,4.593176,,,4.5932088084,4.593176,0,0,0,0,0,8.272,5.2493768084,5.249344,0,0,0,0,0,175.9, 0.7, -0.2,0,0,1024,1024,1024,364,0,0,0,-100,169.4,0,0,92,4.14,4.132,0,0,0,0,4.141,78.98,4.5932088084,4.593176,6,P-GPS,
147800,2022-08-15 19:59:29,0,0,4.593176,,,4.5932088084,4.593176,0,0,0,0,0,8.272,5.2493768084,5.249344,0,0,0,0,0,171.1, 0.5, -0.3,0,0,1024,1024,1024,364,0,0,0,-100,164.6,0,0,92,4.14,4.132,0,0,0,0,4.141,78.98,4.5932088084,4.593176,6,P-GPS,
147900,2022-08-15 19:59:29,0,0,4.593176,,,4.5932088084,4.593176,0,0,0,0,0,8.272,5.2493768084,5.249344,0,0,0,0,0,166.3, 0.2, -0.2,0,0,1024,1024,1024,364,0,0,0,-100,159.8,0,0,92,4.14,4.132,0,0,0,0,4.141,78.98,4.5932088084,4.593176,6,P-GPS,
148000,2022-08-15 19:59:29,0,0,4.593176,,,4.5932088084,4.593176,0,0,0,0,0,8.272,5.2493768084,5.249344,0,0,0,0,0,161.6, 0.2, -0.5,0,0,1024,1024,1024,364,0,0,0,-100,155,0,0,92,4.14,4.132,0,0,0,0,4.141,78.98,4.5932088084,4.593176,6,P-GPS,
148100,2022-08-15 19:59:29,0,0,4.593176,,,4.5932088084,4.593176,0,0,0,0,0,8.272,5.2493768084,5.249344,0,0,0,0,0,156.8, 0.1, -0.6,0,0,1024,1024,1024,364,0,0,0,-100,150.2,0,0,92,4.14,4.132,0,0,0,0,4.141,78.98,4.5932088084,4.593176,6,P-GPS,
148200,2022-08-15 19:59:29,0,0,4.593176,,,4.5932088084,4.593176,0,0,0,0,0,8.272,5.2493768084,5.249344,0,0,0,0,0,152.2, 0.1, -0.4,0,0,1024,1024,1024,364,0,0,0,-100,145.4,0,0,92,4.14,4.132,0,0,0,0,4.141,78.98,4.5932088084,4.593176,6,P-GPS,
148300,2022-08-15 19:59:30,0,0,4.593176,,,4.5932088084,4.593176,0,0,0,0,0,8.272,5.2493768084,5.249344,0,0,0,0,0,147.3, 0.3, 0,0,0,1024,1024,1024,364,0,0,0,-100,140.6,0,0,92,4.14,4.132,0,0,0,0,4.141,78.98,4.5932088084,4.593176,6,P-GPS,
148400,2022-08-15 19:59:30,0,0,4.593176,,,4.5932088084,4.593176,0,0,0,0,0,8.269,5.2493768084,5.249344,0,0,0,0,0,142.5, 0.4, 0.2,0,0,1024,1024,1024,364,0,0,0,-100,135.8,0,0,92,4.138,4.129,0,0,0,0,4.148,78.8,4.5932088084,4.593176,6,P-GPS,
148500,2022-08-15 19:59:30,0,0,4.593176,,,4.5932088084,4.593176,0,0,0,0,0,8.269,5.2493768084,5.249344,0,0,0,0,0,137.7, 0.5, 0.2,0,0,1024,1024,1024,364,0,0,0,-100,131,0,0,92,4.138,4.129,0,0,0,0,4.148,78.8,4.5932088084,4.593176,6,P-GPS,
148600,2022-08-15 19:59:30,0,0,4.593176,,,4.5932088084,4.593176,0,0,0,0,0,8.269,5.2493768084,5.249344,0,0,0,0,0,132.9, 0.5, 0.2,0,0,1024,1024,1024,364,0,0,0,-100,126.2,0,0,92,4.138,4.129,0,0,0,0,4.148,78.8,4.5932088084,4.593176,6,P-GPS,
148700,2022-08-15 19:59:30,0,0,4.593176,,,4.5932088084,4.593176,0,0,0,0,0,8.269,5.2493768084,5.249344,0,0,0,0,0,128.1, 0.3, 0.2,0,0,1024,1024,1024,364,0,0,0,-100,121.4,0,0,92,4.138,4.129,0,0,0,0,4.148,78.8,4.5932088084,4.593176,6,P-GPS,
148800,2022-08-15 19:59:30,0,0,4.593176,,,4.5932088084,4.593176,0,0,0,0,0,8.269,5.2493768084,5.249344,0,0,0,0,0,123.3, 0.1, 0.3,0,0,1024,1024,1024,364,0,0,0,-100,116.6,0,0,92,4.138,4.129,0,0,0,0,4.148,78.8,4.5932088084,4.593176,6,P-GPS,
148900,2022-08-15 19:59:30,0,0,4.593176,,,4.5932088084,4.593176,0,0,0,0,0,8.269,5.2493768084,5.249344,0,0,0,0,0,118.5, 0, 0.3,0,0,1024,1024,1024,364,0,0,0,-100,111.8,0,0,92,4.138,4.129,0,0,0,0,4.148,78.8,4.5932088084,4.593176,6,P-GPS,
149000,2022-08-15 19:59:30,0,0,4.593176,,,4.5932088084,4.593176,0,0,0,0,0,8.269,5.2493768084,5.249344,0,0,0,0,0,113.7, 0, 0.5,0,0,1024,1024,1024,364,0,0,0,-100,107,0,0,92,4.138,4.129,0,0,0,0,4.148,78.8,4.5932088084,4.593176,6,P-GPS,
149100,2022-08-15 19:59:30,0,0,4.593176,,,4.5932088084,4.593176,0,0,0,0,0,8.269,5.2493768084,5.249344,0,0,0,0,0,108.9, 0, 0.6,0,0,1024,1024,1024,364,0,0,0,-100,102.2,0,0,92,4.138,4.129,0,0,0,0,4.148,78.8,4.5932088084,4.593176,6,P-GPS,
149200,2022-08-15 19:59:31,0,0,4.593176,,,4.5932088084,4.593176,0,0,0,0,0,8.269,5.2493768084,5.249344,0,0,0,0,0,104.1, 0, 0.8,0,0,1024,1024,1024,367,0,0,0,-100,97.4,0,0,92,4.138,4.129,0,0,0,0,4.148,78.8,4.5932088084,4.593176,6,P-GPS,
149300,2022-08-15 19:59:31,0,0,4.593176,,,4.5932088084,4.593176,0,0,0,0,0,8.269,5.2493768084,5.249344,0,0,0,0,0,99.4, 0.2, 1,0,0,1024,1024,1024,387,0,0,0,-97,92.6,0,0,92,4.138,4.129,0,0,0,0,4.148,78.8,4.5932088084,4.593176,6,P-GPS,
149400,2022-08-15 19:59:31,0,0,4.593176,,,4.5932088084,4.593176,0,0,0,0,0,8.271,5.2493768084,5.249344,0,0,0,0,0,94.7, 0.1, 0.9,0,0,1024,1024,1024,392,0,0,0,-96,88,0,0,92,4.141,4.131,0,0,0,0,4.137,78.8,4.5932088084,4.593176,6,P-GPS,
149500,2022-08-15 19:59:31,0,0,4.593176,,,4.5932088084,4.593176,0,0,0,0,0,8.271,5.2493768084,5.249344,0,0,0,0,0,90.1, 0.3, 1.1,0,0,1024,1024,1024,419,0,0,0,-92,83.4,0,0,92,4.141,4.131,0,0,0,0,4.137,78.8,4.5932088084,4.593176,6,P-GPS,
149600,2022-08-15 19:59:31,0,0,4.593176,,,4.5932088084,4.593176,0,0,0,0,0,8.271,5.2493768084,5.249344,0,0,0,0,0,85.5, 0.6, 1.2,0,0,1024,1024,1024,438,0,0,0,-89,79,0,0,92,4.141,4.131,0,0,0,0,4.137,78.8,4.5932088084,4.593176,6,P-GPS,
149700,2022-08-15 19:59:31,0,0,4.593176,,,4.5932088084,4.593176,0,0,0,0,0,8.271,5.2493768084,5.249344,0,0,0,0,0,81.1, 0.8, 1.2,0,0,1024,1024,1024,439,0,0,0,-89,74.9,0,0,92,4.141,4.131,0,0,0,0,4.137,78.8,4.5932088084,4.593176,6,P-GPS,
149800,2022-08-15 19:59:31,0,0,4.593176,,,4.5932088084,4.593176,0,0,0,0,0,8.271,5.2493768084,5.249344,0,0,0,0,0,77.1, 0.8, 1,0,0,1024,1024,1024,439,0,0,0,-89,70.9,0,0,92,4.141,4.131,0,0,0,0,4.137,78.8,4.5932088084,4.593176,6,P-GPS,
149900,2022-08-15 19:59:31,0,0,4.593176,,,4.5932088084,4.593176,0,0,0,0,0,8.271,5.2493768084,5.249344,0,0,0,0,0,73.2, 0.8, 0.9,0,0,1024,1024,1024,418,0,0,0,-92,67,0,0,92,4.141,4.131,0,0,0,0,4.137,78.8,4.5932088084,4.593176,6,P-GPS,
150000,2022-08-15 19:59:31,0,0,4.593176,,,4.5932088084,4.593176,0,0,0,0,0,8.271,5.2493768084,5.249344,0,0,0,0,0,69.4, 0.9, 0.9,0,0,1024,1024,1024,409,0,0,0,-93,63.2,0,0,92,4.141,4.131,0,0,0,0,4.137,78.8,4.5932088084,4.593176,6,P-GPS,
150100,2022-08-15 19:59:31,0,0,4.593176,,,4.5932088084,4.593176,0,0,0,0,0,8.271,5.2493768084,5.249344,0,0,0,0,0,65.4, 1.1, 0.9,0,0,1024,1024,1024,409,0,0,0,-93,59.2,0,0,92,4.141,4.131,0,0,0,0,4.137,78.8,4.5932088084,4.593176,6,P-GPS,
