time(millisecond),datetime(utc),latitude,longitude,height_above_takeoff(feet),height_above_ground_at_drone_location(feet),ground_elevation_at_drone_location(feet),altitude_above_seaLevel(feet),height_sonar(feet),speed(mph),distance(feet),mileage(feet),satellites,gpslevel,voltage(v),max_altitude(feet),max_ascent(feet),max_speed(mph),max_distance(feet), xSpeed(mph), ySpeed(mph), zSpeed(mph), compass_heading(degrees), pitch(degrees), roll(degrees),isPhoto,isVideo,rc_elevator,rc_aileron,rc_throttle,rc_rudder,rc_elevator(percent),rc_aileron(percent),rc_throttle(percent),rc_rudder(percent),gimbal_heading(degrees),gimbal_pitch(degrees),gimbal_roll(degrees),battery_percent,voltageCell1,voltageCell2,voltageCell3,voltageCell4,voltageCell5,voltageCell6,current(A),battery_temperature(f),altitude(feet),ascent(feet),flycStateRaw,flycState,message
54600,2022-08-11 20:32:11,-34.9287638287698,-56.1628125397769,0,0,6.114564172044,6.114564172044,0.656168,0,0,0,22,5,0,6.114564172044,0,0,0,0,0,0,210.3, 2.1, -2.1,0,0,364,364,364,1684,-100,-100,-100,100,226.7,0,0,50,3.861,3.855,0,0,0,0,0,93.38,6.114564172044,0,41,Motors_Started,"Aeronave en Zona de altitud restringida (150). Vuela con precaución (Code: 190001). Baja velocidad de la tarjeta SD. Puede afectar a su uso normal. Sustituye la tarjeta SD (Code: 10028)"
54700,2022-08-11 20:32:11,-34.9287639524306,-56.1628125848734,0,0,6.114564172044,6.114564172044,0.656168,0,0.047090880772,0.047090880772,22,5,0,6.114564172044,0,0,0.047090880772,0,0,0,210.3, 2.1, -2.1,0,0,364,364,364,1684,-100,-100,-100,100,226.7,0,0,50,3.861,3.855,0,0,0,0,0,93.38,6.114564172044,0,41,Motors_Started,
54800,2022-08-11 20:32:11,-34.9287643176173,-56.1628124650427,0,0,6.114564172044,6.114564172044,0.328084,0,0.179751318088,0.185066606972,22,5,0,6.114564172044,0,0,0.179751318088,0,0,0,210.2, 2, -2,0,0,364,364,364,1684,-100,-100,-100,100,226.7,0,0,50,3.861,3.855,0,0,0,0,0,93.38,6.114564172044,0,41,Motors_Started,
54900,2022-08-11 20:32:11,-34.9287644324617,-56.1628124974648,0,0,6.114564172044,6.114564172044,0.328084,0,0.2206200858,0.228075138532,22,5,0,6.114564172044,0,0,0.2206200858,0,0,0,210.2, 2.1, -2.2,0,0,364,364,364,1684,-100,-100,-100,100,226.7,0,0,50,3.861,3.855,0,0,0,0,0,93.38,6.114564172044,0,41,Motors_Started,
55000,2022-08-11 20:32:11,-34.9287645035319,-56.1628125347965,0,0.032808400000001,6.081755772044,6.114564172044,0.328084,0,0.24619095276,0.2563074229,22,5,0,6.114564172044,0,0,0.24619095276,0,0,0,210.2, 2.1, -2.2,0,0,364,364,364,1684,-100,-100,-100,100,226.7,0,0,50,3.861,3.855,0,0,0,0,0,93.38,6.114564172044,0,41,Motors_Started,
55100,2022-08-11 20:32:12,-34.9287645765757,-56.1628125695554,0,0.032808400000001,6.081755772044,6.114564172044,0.328084,0,0.272981964116,0.284913723028,22,5,0,6.114564172044,0,0,0.272981964116,0,0,0,210.2, 2.1, -2.2,0,0,364,364,364,1684,-100,-100,-100,100,226.7,0,0,50,3.861,3.855,0,0,0,0,0,93.38,6.114564172044,0,41,Motors_Started,
55200,2022-08-11 20:32:12,-34.928764674157,-56.1628126122449,0,0.032808400000001,6.081755772044,6.114564172044,0.328084,0,0.309199813044,0.322737215052,22,5,0,6.114564172044,0,0,0.309199813044,0,0,0,210.3, 2.1, -2.1,0,0,364,364,364,1684,-100,-100,-100,100,226.7,0,0,50,3.861,3.855,0,0,0,0,0,93.38,6.114564172044,0,41,Motors_Started,
55300,2022-08-11 20:32:12,-34.9287647356959,-56.1628125986259,0,0.032808400000001,6.081755772044,6.114564172044,0.328084,0,0.33135827832,0.345554473,22,5,0,6.114564172044,0,0,0.33135827832,0,0,0,210.3, 2.1, -2.1,0,0,546,364,1024,1024,-72,-100,0,0,226.7,0,0,50,3.861,3.855,0,0,0,0,0,93.38,6.114564172044,0,41,Motors_Started,
55400,2022-08-11 20:32:12,-34.9287646882756,-56.1628126464481,0,0.032808400000001,6.081755772044,6.114564172044,0.328084,0,0.315209327672,0.36800526112,22,5,0,6.114564172044,0,0,0.33135827832,0,0,0,210.2, 2.1, -2.1,0,0,1024,1024,1024,1024,0,0,0,0,226.7,0,0,50,3.861,3.855,0,0,0,0,0,93.38,6.114564172044,0,41,Motors_Started,"Setting new Return-To-Home altitude to 40m (131 ft). Data Recorder File Index is 20. Setting new Maximum Flight Altitude to 120m (394 ft)"
55500,2022-08-11 20:32:12,-34.9287646289041,-56.1628126826013,0,0.032808400000001,6.081755772044,6.114564172044,0.328084,0,0.295038067184,0.39221786032,22,5,0,6.114564172044,0,0,0.33135827832,0,0,0,210.2, 2.2, -2.2,0,0,1024,1024,1024,1024,0,0,0,0,226.7,0,0,50,3.861,3.855,0,0,0,0,0,93.38,6.114564172044,0,41,Motors_Started,
55600,2022-08-11 20:32:12,-34.9287645330947,-56.162812681172,0,0.032808400000001,6.081755772044,6.114564172044,0.328084,0,0.26042979836,0.42717521052,22,5,0,6.114564172044,0,0,0.33135827832,0,0,0,210.2, 2.1, -2.2,0,0,1024,1024,1027,1024,0,0,0,0,226.7,0,0,50,3.861,3.855,0,0,0,0,0,93.38,6.114564172044,0,41,Motors_Started,
55700,2022-08-11 20:32:12,-34.9287640456216,-56.1628126019485,0,0,6.114564172044,6.114564172044,0.328084,0,0.0812746089,0.60660106928,22,5,0,6.114564172044,0,0,0.33135827832,0,0,0,210.2, 2.1, -2.2,0,0,1024,1024,1027,1024,0,0,0,0,226.7,0,0,50,3.861,3.855,0,0,0,0,0,93.38,6.114564172044,0,10,Assisted_Takeoff,
55800,2022-08-11 20:32:12,-34.9287640010657,-56.1628126361304,0,0,6.114564172044,6.114564172044,0.328084,0,0.069154529772,0.62580710664,22,5,0,6.114564172044,0,0,0.33135827832,0,0,0,210.2, 2.2, -2.2,0,0,1024,1024,1473,1024,0,0,68,0,226.7,0,0,50,3.861,3.855,0,0,0,0,0,93.38,6.114564172044,0,10,Assisted_Takeoff,
55900,2022-08-11 20:32:12,-34.9287639748136,-56.1628126824504,0,0,6.114564172044,6.114564172044,0.328084,0,0.068268374888,0.6426509392,22,5,7.718,6.114564172044,0,0,0.33135827832,0,0,0,210.2, 2.1, -2.1,0,0,1024,1024,1684,1024,0,0,100,0,226.7,0,0,50,3.852,3.845,0,0,0,0,0.593,93.38,6.114564172044,0,10,Assisted_Takeoff,
56000,2022-08-11 20:32:12,-34.9287640155214,-56.1628127874631,0,0,6.114564172044,6.114564172044,0.328084,0,0.100656827368,0.6773950348,22,5,7.718,6.114564172044,0,0,0.33135827832,0,0,0,210.3, 2, -1.9,0,0,1024,1024,1684,1024,0,0,100,0,226.7,0,0,50,3.852,3.845,0,0,0,0,0.593,93.38,6.114564172044,0,10,Assisted_Takeoff,
56100,2022-08-11 20:32:13,-34.9287640867528,-56.162812995039,0,0,6.114564172044,6.114564172044,0.328084,0,0.165543968552,0.74470802908,22,5,7.718,6.114564172044,0,0,0.33135827832,0,0,0,210.2, 1.9, -1.2,0,0,1024,1024,1684,1024,0,0,100,0,226.7,0,0,50,3.852,3.845,0,0,0,0,0.593,93.38,6.114564172044,0,10,Assisted_Takeoff,
56200,2022-08-11 20:32:13,-34.9287641553119,-56.1628130776311,0,0,6.114564172044,6.114564172044,0.328084,0,0.200196200632,0.77986551052,22,5,7.718,6.114564172044,0,0,0.33135827832,0,0,0,210.2, 1.7, -0.1,0,0,1024,1024,1024,1024,0,0,0,0,226.7,0,0,50,3.852,3.845,0,0,0,0,0.593,93.38,6.114564172044,0,10,Assisted_Takeoff,
56300,2022-08-11 20:32:13,-34.9287642156849,-56.1628131448915,0,0,6.114564172044,6.114564172044,0.328084,0,0.229545282936,0.80969818864,22,5,7.718,6.114564172044,0,0,0.33135827832,0,0,0,210.2, 1, 0.6,0,0,1024,1024,1024,1024,0,0,0,0,226.7,0,0,50,3.852,3.845,0,0,0,0,0.593,93.38,6.114564172044,0,10,Assisted_Takeoff,
56400,2022-08-11 20:32:13,-34.9287642413133,-56.1628131781947,0,0,6.114564172044,6.114564172044,0.328084,0,0.243154207256,0.8233596064,22,5,7.718,6.114564172044,0,0,0.33135827832,0,0,0,210, -0.2, 1.1,0,0,1024,1024,1245,1024,0,0,33,0,226.6,0,0,50,3.852,3.845,0,0,0,0,0.593,93.38,6.114564172044,0,10,Assisted_Takeoff,
56500,2022-08-11 20:32:13,-34.9287643246848,-56.162813125946,0,0,6.114564172044,6.114564172044,0.328084,0,0.251954404388,0.85755908256,22,5,7.718,6.114564172044,0,0,0.33135827832,0,0,0,209.8, 1.6, 0.3,0,0,1024,1024,1684,1146,0,0,100,18,226.4,0,0,50,3.852,3.845,0,0,0,0,0.593,93.38,6.114564172044,0,10,Assisted_Takeoff,
56600,2022-08-11 20:32:13,-34.9287643128509,-56.1628131543458,0,0,6.114564172044,6.114564172044,0.328084,0,0.254928485848,0.86708664192,22,5,7.718,6.114564172044,0,0,0.33135827832,0,0,0,210, 1.7, 0.2,0,0,1024,1024,1684,1226,0,0,100,31,226.4,0,0,50,3.852,3.845,0,0,0,0,0.593,93.38,6.114564172044,0,10,Assisted_Takeoff,
56700,2022-08-11 20:32:13,-34.9287643116702,-56.1628131761424,0,0,6.114564172044,6.114564172044,0.328084,0,0.25937664872,0.8736220752,22,5,7.718,6.114564172044,0,0,0.33135827832,0,0,0,210.1, 1.4, 0.5,0,0,1024,1024,1684,1226,0,0,100,31,226.4,0,0,50,3.852,3.845,0,0,0,0,0.593,93.38,6.114564172044,0,10,Assisted_Takeoff,
56800,2022-08-11 20:32:13,-34.9287643526679,-56.1628131684239,0,0,6.114564172044,6.114564172044,0.328084,0,0.268136163436,0.88875659012,22,5,7.718,6.114564172044,0,0,0.33135827832,0,0,0,210.2, 0.1, 1.2,0,0,1024,1024,1684,1024,0,0,100,0,226.4,0,0,50,3.852,3.845,0,0,0,0,0.593,93.38,6.114564172044,0,10,Assisted_Takeoff,
56900,2022-08-11 20:32:13,-34.9287643782247,-56.1628131648339,0,0,6.114564172044,6.114564172044,0.328084,0,0.274127633444,0.89814307336,22,5,7.689,6.114564172044,0,0,0.33135827832,0,0,0,210.5, -0.4, 1.6,0,0,1024,1024,1684,1024,0,0,100,0,226.6,0,0,50,3.85,3.843,0,0,0,0,1.563,93.38,6.114564172044,0,10,Assisted_Takeoff,
57000,2022-08-11 20:32:13,-34.9287642728335,-56.1628129733548,0,0,6.114564172044,6.114564172044,0.328084,0,0.207533143124,0.96712929604,22,5,7.689,6.114564172044,0,0,0.33135827832,0,0,-0.447388,210.8, -1, 1,0,0,1024,1024,1684,1024,0,0,100,0,226.8,0,0,50,3.85,3.843,0,0,0,0,1.563,93.38,6.114564172044,0,6,P-GPS,"Baja velocidad de la tarjeta SD. Puede afectar a su uso normal. Sustituye la tarjeta SD (Code: 10028)"
57100,2022-08-11 20:32:14,-34.9287642535478,-56.1628129916936,0,0,6.114564172044,6.114564172044,0.328084,0,0.205651581384,0.9760499,22,5,7.689,6.114564172044,0,0,0.33135827832,0,0,-0.894776,210.5, -0.6, 0.2,0,0,1024,1024,1595,1024,0,0,87,0,226.8,0,0,50,3.85,3.843,0,0,0,0,1.563,93.38,6.114564172044,0,6,P-GPS,
57200,2022-08-11 20:32:14,-34.9287643158895,-56.1628130336612,0,0,6.114564172044,6.114564172044,0.656168,0,0.231109587448,1.00203087196,22,5,7.689,6.114564172044,0,0,0.33135827832,0,0,-1.342164,210.3, 0.5, -1.1,0,0,1024,1024,1024,1024,0,0,0,0,226.8,0,0,50,3.85,3.843,0,0,0,0,1.563,93.38,6.114564172044,0,6,P-GPS,
57300,2022-08-11 20:32:14,-34.9287644061721,-56.1628130532435,0,0,6.114564172044,6.114564172044,0.656168,0,0.260710966348,1.03548887828,22,5,7.689,6.114564172044,0,0,0.33135827832,0,0,-1.565858,210.2, 0.7, 0.4,0,0,1630,1024,1024,1024,92,0,0,0,226.8,0,0,50,3.85,3.843,0,0,0,0,1.563,93.38,6.114564172044,0,6,P-GPS,
57400,2022-08-11 20:32:14,-34.9287646912687,-56.1628131480358,0.328084,0.3608924,6.081755772044,6.442648172044,0.984252,0.223694,0.36349738696,1.14330056152,22,5,7.689,6.442648172044,0.328084,0.223694,0.36349738696,-0.223694,0,-1.789552,209.9, -0.1, 1.2,0,0,1684,1024,1024,1024,100,0,0,0,226.8,0,0,50,3.85,3.843,0,0,0,0,1.563,93.38,6.442648172044,0.328084,6,P-GPS,"Baja velocidad de la tarjeta SD. Puede afectar a su uso normal. Sustituye la tarjeta SD (Code: 10028)"
57500,2022-08-11 20:32:14,-34.9287648644227,-56.1628132215282,0.656168,0.6889764,6.081755772044,6.770732172044,1.312336,0.223694,0.42937665416,1.21019032744,22,5,7.689,6.770732172044,0.656168,0.223694,0.42937665416,-0.223694,0,-1.789552,209.9, -7.2, 0.2,0,0,1684,1024,1024,1024,100,0,0,0,226.8,0,0,50,3.85,3.843,0,0,0,0,1.563,93.38,6.770732172044,0.656168,6,P-GPS,
57600,2022-08-11 20:32:14,-34.9287651518219,-56.1628134339748,0.984252,1.0170604,6.081755772044,7.098816172044,1.312336,0.9171454,0.55186681556,1.33280187992,22,5,7.689,7.098816172044,0.984252,0.9171454,0.55186681556,-0.894776,-0.223694,-1.565858,209.9, -17.8, 1,0,0,1684,1024,1024,1024,100,0,0,0,226.8,0,0,50,3.85,3.843,0,0,0,0,1.563,93.38,7.098816172044,0.984252,6,P-GPS,
57700,2022-08-11 20:32:14,-34.9287656655716,-56.162813767618,1.312336,1.3779528,6.048947372044,7.426900172044,1.64042,1.6329662,0.76420278036,1.54515752976,22,5,7.689,7.426900172044,1.312336,1.6329662,0.76420278036,-1.565858,-0.447388,-1.342164,209.9, -19.3, 2.9,0,0,1684,1024,1024,1024,100,0,0,0,226.8,0,0,50,3.85,3.843,0,0,0,0,1.563,93.38,7.426900172044,1.312336,6,P-GPS,
57800,2022-08-11 20:32:14,-34.9287664580034,-56.1628146225769,1.64042,1.7060368,6.048947372044,7.754984172044,1.64042,2.4158952,1.14383861928,1.9311516366,22,5,7.689,7.754984172044,1.64042,2.4158952,1.14383861928,-2.23694,-0.894776,-0.894776,210, -18.9, 2.6,0,0,1684,1024,1024,1024,100,0,0,0,226.8,0,0,50,3.85,3.843,0,0,0,0,1.563,93.38,7.754984172044,1.64042,6,P-GPS,
57900,2022-08-11 20:32:14,-34.9287674926776,-56.1628152782856,1.968504,2.0669292,6.016138972044,8.083068172044,1.968504,3.1988242,1.5677986066,2.35656831688,22,5,7.689,8.083068172044,1.968504,3.1988242,1.5677986066,-2.908022,-1.342164,-0.223694,210, -18.5, 2.5,0,0,1684,1024,1024,1024,100,0,0,0,226.8,0,0,50,3.85,3.843,0,0,0,0,1.563,93.38,8.083068172044,1.968504,6,P-GPS,
58000,2022-08-11 20:32:14,-34.9287688121635,-56.1628160100671,1.968504,2.1653544,5.917713772044,8.083068172044,1.968504,4.2054472,2.0936516418,2.88541019732,22,5,7.658,8.083068172044,1.968504,4.2054472,2.0936516418,-3.802798,-1.789552,0,209.8, -17.6, 2.9,0,0,1684,1024,1024,1024,100,0,0,0,226.8,0,0,50,3.819,3.807,0,0,0,0,2.155,93.38,8.083068172044,1.968504,6,P-GPS,
58100,2022-08-11 20:32:15,-34.9287703421713,-56.1628168892657,1.968504,2.1981628,5.884905372044,8.083068172044,1.968504,5.0107456,2.70925533604,3.5024935504,22,5,7.658,8.083068172044,1.968504,5.0107456,2.70925533604,-4.47388,-2.23694,0,209.9, -16.4, 3.6,0,0,1684,1024,1024,1024,100,0,0,0,226.8,0,0,50,3.819,3.807,0,0,0,0,2.155,93.38,8.083068172044,1.968504,6,P-GPS,
58200,2022-08-11 20:32:15,-34.9287727068991,-56.1628180986648,1.968504,2.296588,5.786480172044,8.083068172044,1.968504,5.5028724,3.6410434236,4.4380250764,22,5,7.658,8.083068172044,1.968504,5.5028724,3.6410434236,-4.921268,-2.460634,0.223694,209.9, -14.7, 2.9,0,0,1684,1024,1024,1024,100,0,0,0,226.8,0,0,50,3.819,3.807,0,0,0,0,2.155,93.38,8.083068172044,1.968504,6,P-GPS,
58300,2022-08-11 20:32:15,-34.9287749218647,-56.1628194491044,1.968504,2.3622048,5.720863372044,8.083068172044,1.968504,6.3081708,4.5444883344,5.3415027956,22,5,7.658,8.083068172044,1.968504,6.3081708,4.5444883344,-5.59235,-2.908022,0.223694,210.2, -14.8, 3.6,0,0,1684,1024,1024,1024,100,0,0,0,226.8,0,0,50,3.819,3.807,0,0,0,0,2.155,93.38,8.083068172044,1.968504,6,P-GPS,
58400,2022-08-11 20:32:15,-34.9287775300897,-56.1628210600596,1.968504,2.46063,5.622438172044,8.083068172044,1.968504,6.8002976,5.6111222268,6.4081694964,22,5,7.658,8.083068172044,1.968504,6.8002976,5.6111222268,-6.039738,-3.131716,0.223694,210.3, -14.4, 3.2,0,0,1675,1024,1024,1024,99,0,0,0,226.8,0,0,50,3.819,3.807,0,0,0,0,2.155,93.38,8.083068172044,1.968504,6,P-GPS,
58500,2022-08-11 20:32:15,-34.9287801984136,-56.1628227619497,1.968504,2.5262468,5.556821372044,8.083068172044,1.64042,7.4042714,6.7096786924,7.5067587704,22,5,7.658,8.083068172044,1.968504,7.4042714,6.7096786924,-6.487126,-3.579104,0,210.4, -14, 3,0,0,1275,1024,1024,1024,38,0,0,0,226.8,0,0,50,3.819,3.807,0,0,0,0,2.155,93.38,8.083068172044,1.968504,6,P-GPS,
58600,2022-08-11 20:32:15,-34.9287831666905,-56.1628247415294,1.968504,2.6574804,5.425587772044,8.083068172044,1.64042,7.9187676,7.9436026164,8.7410435868,22,5,7.658,8.083068172044,1.968504,7.9187676,7.9436026164,-6.934514,-3.802798,0,210.5, -13.2, 2.4,0,0,1275,1024,1024,1024,38,0,0,0,226.8,0,0,50,3.819,3.807,0,0,0,0,2.155,93.38,8.083068172044,1.968504,6,P-GPS,
58700,2022-08-11 20:32:15,-34.9287867227718,-56.1628269996687,1.968504,2.788714,5.294354172044,8.083068172044,1.64042,8.5227414,9.406332322,10.2037732924,22,5,7.658,8.083068172044,1.968504,8.5227414,9.406332322,-7.381902,-4.250186,0,210.7, -5.3, 2.1,0,0,1024,1024,1100,1024,0,0,12,0,226.8,0,0,50,3.819,3.807,0,0,0,0,2.155,93.38,8.083068172044,1.968504,6,P-GPS,
58800,2022-08-11 20:32:15,-34.9287898595257,-56.16282922009,1.968504,2.8871392,5.195928972044,8.083068172044,1.64042,8.5227414,10.728182758,11.5270016812,22,5,7.658,8.083068172044,1.968504,8.5227414,10.728182758,-7.381902,-4.250186,0,211, 12.4, 1.9,0,0,1024,1024,1290,1024,0,0,40,0,226.8,0,0,50,3.819,3.807,0,0,0,0,2.155,93.38,8.083068172044,1.968504,6,P-GPS,
58900,2022-08-11 20:32:15,-34.9287927508496,-56.1628312789393,1.968504,2.9855644,5.097503772044,8.083068172044,1.64042,7.717443,11.9486224296,12.74852403,22,5,7.601,8.083068172044,1.968504,8.5227414,11.9486224296,-6.71082,-3.802798,0,211, 18.8, 1.3,0,0,1024,1024,1269,1024,0,0,37,0,226.8,0,0,50,3.814,3.802,0,0,0,0,4.381,93.38,8.083068172044,1.968504,6,P-GPS,
59000,2022-08-11 20:32:15,-34.9287955414245,-56.1628332394204,1.968504,3.116798,4.966270172044,8.083068172044,1.64042,6.71082,13.1229334908,13.9234584508,22,5,7.601,8.083068172044,1.968504,8.5227414,13.1229334908,-5.816044,-3.35541,-0.447388,210.8, 19.3, 0.9,0,0,1024,1024,1075,1024,0,0,8,0,226.8,0,0,50,3.814,3.802,0,0,0,0,4.381,93.38,8.083068172044,1.968504,6,P-GPS,
59100,2022-08-11 20:32:16,-34.9287979762764,-56.1628350497635,2.296588,3.5104988,4.900653372044,8.411152172044,1.968504,5.9055216,14.1618114768,14.9638456232,22,5,7.601,8.411152172044,2.296588,8.5227414,14.1618114768,-5.144962,-2.908022,-0.894776,210.5, 19.2, 0,0,0,1024,1024,1038,1024,0,0,2,0,226.8,0,0,50,3.814,3.802,0,0,0,0,4.381,93.38,8.411152172044,2.296588,6,P-GPS,
59200,2022-08-11 20:32:16,-34.9288000197163,-56.1628364949357,2.296588,3.5761156,4.835036572044,8.411152172044,1.968504,5.1002232,15.0232616356,15.8256566744,22,5,7.601,8.411152172044,2.296588,8.5227414,15.0232616356,-4.47388,-2.460634,-0.671082,210.6, 18.7, -0.6,0,0,1024,1024,1029,1024,0,0,1,0,226.8,0,0,50,3.814,3.802,0,0,0,0,4.381,93.38,8.411152172044,2.296588,6,P-GPS,
59300,2022-08-11 20:32:16,-34.9288017404052,-56.1628376641371,2.624672,3.9698164,4.769419772044,8.739236172044,1.968504,5.1002232,15.7418640208,16.544291868,22,5,7.601,8.739236172044,2.624672,8.5227414,15.7418640208,-3.802798,-2.013246,-0.447388,210.7, 18.6, -0.2,0,0,1024,1024,1024,1024,0,0,0,0,226.8,0,0,50,3.814,3.802,0,0,0,0,4.381,93.38,8.739236172044,2.624672,6,P-GPS,
59400,2022-08-11 20:32:16,-34.9288031711772,-56.1628385715187,2.624672,4.0026248,4.736611372044,8.739236172044,1.968504,3.7133204,16.3301186328,17.1326777136,22,5,7.601,8.739236172044,2.624672,8.5227414,16.3301186328,-3.35541,-1.565858,-0.223694,210.8, 18.5, 1.4,0,0,1025,1024,1030,1024,0,0,1,0,226.8,0,0,50,3.814,3.802,0,0,0,0,4.381,93.38,8.739236172044,2.624672,6,P-GPS,
59500,2022-08-11 20:32:16,-34.9288037157533,-56.1628388941455,2.952756,4.3635172,4.703802972044,9.067320172044,1.968504,3.1093466,16.5507879312,17.3535438624,22,5,7.601,9.067320172044,2.952756,8.5227414,16.5507879312,-2.908022,-1.11847,0,210.7, 18, 1.8,0,0,1025,1024,1030,1024,0,0,1,0,226.8,0,0,50,3.814,3.802,0,0,0,0,4.381,93.38,9.067320172044,2.952756,6,P-GPS,
59600,2022-08-11 20:32:16,-34.9288047884745,-56.1628392246876,2.952756,4.3963256,4.670994572044,9.067320172044,1.968504,2.5501116,16.9423233768,17.757218416,22,5,7.601,9.067320172044,2.952756,8.5227414,16.9423233768,-2.460634,-0.671082,0,210.6, 17.2, 3.2,0,0,1098,1024,1391,1024,11,0,56,0,226.8,0,0,50,3.814,3.802,0,0,0,0,4.381,93.38,9.067320172044,2.952756,6,P-GPS,
59700,2022-08-11 20:32:16,-34.9288056014312,-56.1628393945015,3.28084,4.757218,4.638186172044,9.395404172044,1.968504,2.0579848,17.2281173492,18.0581698692,22,5,7.601,9.395404172044,3.28084,8.5227414,17.2281173492,-2.013246,-0.447388,0,210.8, 15.5, 4.1,0,0,1099,1024,1658,1024,11,0,96,0,226.8,0,0,50,3.814,3.802,0,0,0,0,4.381,93.38,9.395404172044,3.28084,6,P-GPS,
59800,2022-08-11 20:32:16,-34.9288061680972,-56.1628394843313,3.608924,5.085302,4.638186172044,9.723488172044,2.296588,1.5882274,17.42372103,18.2666344428,22,5,7.601,9.723488172044,3.608924,8.5227414,17.42372103,-1.565858,-0.223694,-0.671082,210.3, 10.2, 4.5,0,0,1166,1024,1684,1024,22,0,100,0,226.8,0,0,50,3.814,3.802,0,0,0,0,4.381,93.38,9.723488172044,3.608924,6,P-GPS,
59900,2022-08-11 20:32:16,-34.9288059899845,-56.1628389992025,3.937008,5.413386,4.638186172044,10.051572172044,2.296588,1.3645334,17.2992459604,18.4256567576,23,5,7.583,10.051572172044,3.937008,8.5227414,17.42372103,-1.342164,-0.223694,-1.565858,210.2, 7.3, 3.9,0,0,1466,1024,1684,1024,67,0,100,0,226.8,0,0,50,3.776,3.757,0,0,0,0,4.403,93.38,10.051572172044,3.937008,6,P-GPS,
60000,2022-08-11 20:32:16,-34.9288064471587,-56.1628390731887,4.265092,5.74147,4.638186172044,10.379656172044,2.624672,1.1408394,17.4577761492,18.5938982328,23,5,7.583,10.379656172044,4.265092,8.5227414,17.4577761492,-1.11847,-0.223694,-2.460634,210, 4.8, 4.9,0,0,1684,1024,1684,1024,100,0,100,0,226.8,0,0,50,3.776,3.757,0,0,0,0,4.403,93.38,10.379656172044,4.265092,6,P-GPS,
60100,2022-08-11 20:32:17,-34.9288068953912,-56.1628391780759,4.92126,6.4632548,4.572569372044,11.035824172044,3.28084,1.4092722,17.617782716,18.7604336712,23,5,7.583,11.035824172044,4.92126,8.5227414,17.617782716,-1.342164,-0.447388,-3.131716,210.1, -1.4, 4,0,0,1684,1024,1409,1024,100,0,58,0,226.8,0,0,50,3.776,3.757,0,0,0,0,4.403,93.38,11.035824172044,4.92126,6,P-GPS,
60200,2022-08-11 20:32:17,-34.9288074910679,-56.1628394243838,5.577428,7.1194228,4.572569372044,11.691992172044,3.608924,1.9908766,17.8449480776,18.9898956208,23,5,7.583,11.691992172044,5.577428,8.5227414,17.8449480776,-1.789552,-0.894776,-3.802798,210.1, -9.2, 4.2,0,0,1684,1024,1140,1024,100,0,18,0,226.8,0,0,50,3.776,3.757,0,0,0,0,4.403,93.38,11.691992172044,5.577428,6,P-GPS,
60300,2022-08-11 20:32:17,-34.9288082765006,-56.1628399026082,6.233596,7.8083992,4.539760972044,12.348160172044,4.265092,2.6172198,18.1652236784,19.31020403,23,5,7.583,12.348160172044,6.233596,8.5227414,18.1652236784,-2.23694,-1.342164,-4.250186,210.2, -10.5, 2.1,0,0,1684,1024,1140,1024,100,0,18,0,226.8,0,0,50,3.776,3.757,0,0,0,0,4.403,93.38,12.348160172044,6.233596,6,P-GPS,
60400,2022-08-11 20:32:17,-34.9288095367729,-56.1628409159063,6.889764,8.530184,4.474144172044,13.004328172044,4.92126,3.3106712,18.7124021736,19.8609258324,23,5,7.583,13.004328172044,6.889764,8.5227414,18.7124021736,-2.908022,-1.565858,-3.802798,210.2, -12.4, 1.9,0,0,1684,1024,1024,1024,100,0,0,0,226.8,0,0,50,3.776,3.757,0,0,0,0,4.403,93.38,13.004328172044,6.889764,6,P-GPS,"Punto de origen actualizado. Altitud de RPO establecida en 40m (Code: 3000001)"
60500,2022-08-11 20:32:17,-34.9288108377417,-56.1628418167911,7.545932,9.2191604,4.441335772044,13.660496172044,5.577428,4.1159696,19.2576777816,20.4067263748,22,5,7.583,13.660496172044,7.545932,8.5227414,19.2576777816,-3.579104,-2.013246,-3.131716,210.2, -12.9, 1.6,0,0,1663,1024,1024,1024,97,0,0,0,226.8,0,0,50,3.776,3.757,0,0,0,0,4.403,93.38,13.660496172044,7.545932,6,P-GPS,
60600,2022-08-11 20:32:17,-34.9288124643928,-56.1628429034641,7.874016,9.5800528,4.408527372044,13.988580172044,5.905512,4.7199434,19.934055756,21.0833996248,22,5,7.583,13.988580172044,7.874016,8.5227414,19.934055756,-4.026492,-2.460634,-2.460634,210.1, -14.2, 1.8,0,0,1464,1024,1024,1024,67,0,0,0,226.8,0,0,50,3.776,3.757,0,0,0,0,4.403,93.38,13.988580172044,7.874016,6,P-GPS,
60700,2022-08-11 20:32:17,-34.928814229815,-56.1628440819053,8.2021,9.9737536,4.342910572044,14.316664172044,6.233596,5.4133948,20.6680780892,21.8176516168,22,5,7.583,14.316664172044,8.2021,8.5227414,20.6680780892,-4.697574,-2.684328,-1.565858,210.2, -11.3, 2.3,0,0,1516,1024,1395,1024,75,0,56,0,226.8,0,0,50,3.776,3.757,0,0,0,0,4.403,93.38,14.316664172044,8.2021,6,P-GPS,
60800,2022-08-11 20:32:17,-34.9288169075046,-56.1628462448934,8.2021,10.0721788,4.244485372044,14.316664172044,6.233596,5.7936746,21.8330387564,22.9894364312,22,5,7.583,14.316664172044,8.2021,8.5227414,21.8330387564,-5.144962,-2.684328,-0.894776,210.2, -7, 2,0,0,1684,1024,1684,1024,100,0,100,0,226.8,0,0,50,3.776,3.757,0,0,0,0,4.403,93.38,14.316664172044,8.2021,6,P-GPS,
60900,2022-08-11 20:32:17,-34.9288191323629,-56.1628477496473,8.530184,10.498688,4.146060172044,14.644748172044,6.56168,6.3081708,22.7608931168,23.9176188756,23,5,7.594,14.644748172044,8.530184,8.5227414,22.7608931168,-5.59235,-2.908022,-0.894776,210.1, -8.9, 1.1,0,0,1684,1024,1684,1024,100,0,100,0,226.8,0,0,50,3.781,3.76,0,0,0,0,5.004,93.38,14.644748172044,8.530184,6,P-GPS,
61000,2022-08-11 20:32:17,-34.9288218028254,-56.1628493405556,8.858268,10.9251972,4.047634972044,14.972832172044,6.889764,7.0016222,23.8448498444,25.0019364956,23,5,7.594,14.972832172044,8.858268,8.5227414,23.8448498444,-6.263432,-3.131716,-1.342164,210.1, -10, 2.3,0,0,1684,1024,1684,1024,100,0,100,0,226.8,0,0,50,3.781,3.76,0,0,0,0,5.004,93.38,14.972832172044,8.858268,6,P-GPS,
61100,2022-08-11 20:32:18,-34.9288245773716,-56.1628509873075,9.186352,11.3517064,3.949209772044,15.300916172044,7.217848,7.493749,24.9702435812,26.1277239332,22,5,7.594,15.300916172044,9.186352,8.5227414,24.9702435812,-6.71082,-3.35541,-2.013246,210.3, -8.7, 3.3,0,0,1684,1024,1684,1024,100,0,100,0,226.8,0,0,50,3.781,3.76,0,0,0,0,5.004,93.38,15.300916172044,9.186352,6,P-GPS,
61200,2022-08-11 20:32:18,-34.9288282001546,-56.1628530381069,9.84252,12.1062996,3.850784572044,15.957084172044,7.545932,8.2990474,26.4260835228,27.5849090192,22,5,7.594,15.957084172044,9.84252,8.5227414,26.4260835228,-7.381902,-3.802798,-2.908022,210.6, -8.1, 4.2,0,0,1684,1024,1684,1024,100,0,100,0,226.8,0,0,50,3.781,3.76,0,0,0,0,5.004,93.38,15.957084172044,9.84252,6,P-GPS,
61300,2022-08-11 20:32:18,-34.9288313145114,-56.1628549238259,10.498688,12.8608928,3.752359372044,16.613252172044,7.874016,8.8135436,27.6945218836,28.8534786136,22,5,7.594,16.613252172044,10.498688,8.8135436,27.6945218836,-7.82929,-4.026492,-3.579104,210.5, -9.1, 3.8,0,0,1684,1024,1684,1024,100,0,100,0,226.8,0,0,50,3.781,3.76,0,0,0,0,5.004,93.38,16.613252172044,10.498688,6,P-GPS,
61400,2022-08-11 20:32:18,-34.9288347887283,-56.1628569770052,11.154856,13.6811028,3.588317372044,17.269420172044,8.530184,9.3056704,29.1026256032,30.2620088424,22,5,7.594,17.269420172044,11.154856,9.3056704,29.1026256032,-8.276678,-4.250186,-4.47388,210.6, -9.1, 3.9,0,0,1684,1024,1684,1024,100,0,100,0,226.8,0,0,50,3.781,3.76,0,0,0,0,5.004,93.38,17.269420172044,11.154856,6,P-GPS,
61500,2022-08-11 20:32:18,-34.928838280477,-56.1628590893535,12.139108,14.76378,3.489892172044,18.253672172044,9.186352,9.9096442,30.5245744676,31.684056132,22,5,7.594,18.253672172044,12.139108,9.9096442,30.5245744676,-8.724066,-4.697574,-5.368656,210.4, -8.2, 4,0,0,1657,1024,1684,1024,96,0,100,0,226.8,0,0,50,3.781,3.76,0,0,0,0,5.004,93.38,18.253672172044,12.139108,6,P-GPS,
61600,2022-08-11 20:32:18,-34.9288424525408,-56.1628613685872,12.795276,15.5511816,3.358658572044,18.909840172044,10.170604,10.2228158,32.1902569356,33.352035188,22,5,7.594,18.909840172044,12.795276,10.2228158,32.1902569356,-8.94776,-4.921268,-5.816044,210.3, -7.5, 4.6,0,0,1474,1024,1684,1024,68,0,100,0,226.8,0,0,50,3.781,3.76,0,0,0,0,5.004,93.38,18.909840172044,12.795276,6,P-GPS,
61700,2022-08-11 20:32:18,-34.9288462009844,-56.1628637765509,13.779528,16.6994756,3.194616572044,19.894092172044,11.154856,10.513618,33.735893468,34.897638912,23,5,7.594,19.894092172044,13.779528,10.513618,33.735893468,-9.171454,-5.144962,-6.039738,210.8, -5.3, 2.3,0,0,1221,1024,1562,1024,30,0,82,0,226.8,0,0,50,3.781,3.76,0,0,0,0,5.004,93.38,19.894092172044,13.779528,6,P-GPS,
61800,2022-08-11 20:32:18,-34.928850175723,-56.1628664161543,14.76378,17.8149612,3.063382972044,20.878344172044,12.139108,10.7149426,35.386484072,36.548885684,23,5,7.594,20.878344172044,14.76378,10.7149426,35.386484072,-9.395148,-5.144962,-6.263432,210.6, 0, 4,0,0,1074,1024,1347,1024,8,0,49,0,226.8,0,0,50,3.781,3.76,0,0,0,0,5.004,93.38,20.878344172044,14.76378,6,P-GPS,
61900,2022-08-11 20:32:18,-34.928853991962,-56.1628689470328,15.748032,18.9304468,2.932149372044,21.862596172044,12.795276,10.513618,36.970801708,38.133859488,24,5,7.591,21.862596172044,15.748032,10.7149426,36.970801708,-9.171454,-5.144962,-6.039738,210.8, 6.8, 3.9,0,0,1024,1024,1376,1024,0,0,53,0,226.8,0,0,50,3.78,3.767,0,0,0,0,5.257,93.38,21.862596172044,15.748032,6,P-GPS,
62000,2022-08-11 20:32:18,-34.9288579483644,-56.1628715230471,16.732284,20.0787408,2.768107372044,22.846848172044,13.451444,10.513618,38.606956616,39.770014396,24,5,7.591,22.846848172044,16.732284,10.7149426,38.606956616,-9.171454,-5.144962,-5.368656,210.9, 12.5, 3.8,0,0,1024,1024,1586,1024,0,0,85,0,226.8,0,0,50,3.78,3.767,0,0,0,0,5.257,93.38,22.846848172044,16.732284,6,P-GPS,
62100,2022-08-11 20:32:19,-34.9288614647873,-56.1628738360738,17.388452,20.833334,2.669682172044,23.503016172044,18.700788,9.7083196,40.064305744,41.227691608,24,5,7.591,23.503016172044,17.388452,10.7149426,40.064305744,-8.500372,-4.697574,-4.697574,211.2, 20, 2.7,0,0,1024,1024,1575,1024,0,0,83,0,226.8,0,0,50,3.78,3.767,0,0,0,0,5.257,93.38,23.503016172044,17.388452,6,P-GPS,
62200,2022-08-11 20:32:19,-34.9288648919193,-56.1628761533012,18.372704,21.9488196,2.538448572044,24.487268172044,19.356956,9.1043458,41.493111564,42.657153596,24,5,7.591,24.487268172044,18.372704,10.7149426,41.493111564,-8.052984,-4.250186,-4.47388,210.7, 19.3, 1.2,0,0,1024,1024,1575,1024,0,0,83,0,226.8,0,0,50,3.78,3.767,0,0,0,0,5.257,93.38,24.487268172044,18.372704,6,P-GPS,
62300,2022-08-11 20:32:19,-34.9288679440468,-56.1628781362038,19.028872,22.7034128,2.440023372044,25.143436172044,20.013124,8.2990474,42.754922628,43.91896466,24,5,7.591,25.143436172044,19.028872,10.7149426,42.754922628,-7.381902,-3.802798,-4.921268,210.4, 18.1, 1.1,0,0,1024,1024,1501,1024,0,0,72,0,226.8,0,0,50,3.78,3.767,0,0,0,0,5.257,93.38,25.143436172044,19.028872,6,P-GPS,
62400,2022-08-11 20:32:19,-34.9288710802866,-56.1628800161809,20.013124,23.8188984,2.308789772044,26.127688172044,20.669292,7.8963982,44.029528968,45.193899084,24,5,7.591,26.127688172044,20.013124,10.7149426,44.029528968,-7.158208,-3.35541,-4.697574,210.5, 18.8, 1.7,0,0,1024,1024,1647,1024,0,0,94,0,226.8,0,0,50,3.78,3.767,0,0,0,0,5.257,93.38,26.127688172044,20.013124,6,P-GPS,
62500,2022-08-11 20:32:19,-34.9288735515481,-56.1628815298377,20.669292,24.5734916,2.210364572044,26.783856172044,20.669292,7.3147938,45.038387268,46.202757384,24,5,7.591,26.783856172044,20.669292,10.7149426,45.038387268,-6.71082,-2.908022,-4.47388,210.6, 19.2, 2.4,0,0,1024,1024,1632,1024,0,0,92,0,226.8,0,0,50,3.78,3.767,0,0,0,0,5.257,93.38,26.783856172044,20.669292,6,P-GPS,
62600,2022-08-11 20:32:19,-34.9288762943233,-56.1628829090174,21.653544,25.6233604,2.144747772044,27.768108172044,25.262468,6.5318648,46.11712746,47.285434584,24,5,7.591,27.768108172044,21.653544,10.7149426,46.11712746,-6.039738,-2.460634,-4.921268,210.6, 19.5, 2.7,0,0,1024,1024,1438,1024,0,0,63,0,226.8,0,0,50,3.78,3.767,0,0,0,0,5.257,93.38,27.768108172044,21.653544,6,P-GPS,
62700,2022-08-11 20:32:19,-34.9288786571499,-56.1628840181198,22.309712,26.3779536,2.046322572044,28.424276172044,26.24672,6.0173686,47.03576266,48.208991044,25,5,7.591,28.424276172044,22.309712,10.7149426,47.03576266,-5.59235,-2.23694,-5.144962,210.8, 20, 3.6,0,0,1024,1024,1334,1024,0,0,47,0,226.8,0,0,50,3.78,3.767,0,0,0,0,5.257,93.38,28.424276172044,22.309712,6,P-GPS,
62800,2022-08-11 20:32:19,-34.9288808291034,-56.1628849350807,22.96588,27.0997384,1.980705772044,29.080444172044,26.902888,5.5252418,47.866143264,49.047573748,25,5,7.591,29.080444172044,22.96588,10.7149426,47.866143264,-5.144962,-2.013246,-4.697574,210.9, 20.5, 4,0,0,1024,1024,1297,1024,0,0,41,0,226.8,0,0,50,3.78,3.767,0,0,0,0,5.257,93.38,29.080444172044,22.96588,6,P-GPS,
62900,2022-08-11 20:32:19,-34.9288823750113,-56.1628852282719,23.622048,27.8215232,1.915088972044,29.736612172044,27.559056,5.2344396,48.409122284,49.618439908,25,5,7.489,29.736612172044,23.622048,10.7149426,48.409122284,-4.921268,-1.789552,-3.802798,210.9, 20, 4,0,0,1024,1024,1254,1024,0,0,35,0,226.8,0,0,50,3.793,3.774,0,0,0,0,6.343,93.38,29.736612172044,23.622048,6,P-GPS,
63000,2022-08-11 20:32:19,-34.9288842812939,-56.1628859634415,24.278216,28.543308,1.849472172044,30.392780172044,28.215224,4.7423128,49.129594748,50.34777064,25,5,7.489,30.392780172044,24.278216,10.7149426,49.129594748,-4.47388,-1.565858,-3.131716,211, 20, 4,0,0,1024,1024,1254,1024,0,0,35,0,226.8,0,0,50,3.793,3.774,0,0,0,0,6.343,93.38,30.392780172044,24.278216,6,P-GPS,
63100,2022-08-11 20:32:20,-34.9288859485535,-56.162886554735,24.6063,28.9370088,1.783855372044,30.720864172044,28.871392,4.4515106,49.752954348,50.981300844,25,5,7.489,30.720864172044,24.6063,10.7149426,49.752954348,-4.250186,-1.342164,-2.460634,211.1, 19.6, 4.6,0,0,1024,1024,1375,1024,0,0,53,0,226.8,0,0,50,3.793,3.774,0,0,0,0,6.343,93.38,30.720864172044,24.6063,6,P-GPS,
63200,2022-08-11 20:32:20,-34.9288874882929,-56.1628870405168,24.934384,29.2979012,1.751046972044,31.048948172044,29.199476,3.9593838,50.320867752,51.56168144,25,5,7.489,31.048948172044,24.934384,10.7149426,50.320867752,-3.802798,-1.11847,-2.013246,210.9, 18.6, 4.4,0,0,1024,1024,1493,1024,0,0,71,0,226.8,0,0,50,3.793,3.774,0,0,0,0,6.343,93.38,31.048948172044,24.934384,6,P-GPS,
63300,2022-08-11 20:32:20,-34.9288884022148,-56.1628872203699,25.262468,29.6587936,1.718238572044,31.377032172044,29.855644,3.467257,50.643702408,51.899279876,25,5,7.489,31.377032172044,25.262468,10.7149426,50.643702408,-3.35541,-0.894776,-2.460634,210.8, 18, 4.6,0,0,1024,1024,1363,1024,0,0,51,0,226.8,0,0,50,3.793,3.774,0,0,0,0,6.343,93.38,31.377032172044,25.262468,6,P-GPS,
63400,2022-08-11 20:32:20,-34.9288895892136,-56.1628875472391,25.918636,30.34777,1.685430172044,32.033200172044,30.511812,2.7738056,51.075460952,52.343177528,25,5,7.489,32.033200172044,25.918636,10.7149426,51.075460952,-2.684328,-0.671082,-2.684328,210.9, 18.1, 5.4,0,0,1024,1024,1130,1024,0,0,16,0,226.8,0,0,50,3.793,3.774,0,0,0,0,6.343,93.38,32.033200172044,25.918636,6,P-GPS,
63500,2022-08-11 20:32:20,-34.9288905616553,-56.1628878147145,26.574804,31.003938,1.685430172044,32.689368172044,30.839896,2.5501116,51.429463588,52.707022684,25,5,7.489,32.689368172044,26.574804,10.7149426,51.429463588,-2.460634,-0.671082,-2.460634,211.3, 19, 6,0,0,1024,1024,1024,1024,0,0,0,0,226.8,0,0,50,3.793,3.774,0,0,0,0,6.343,93.38,32.689368172044,26.574804,6,P-GPS,
63600,2022-08-11 20:32:20,-34.9288915025311,-56.1628882514945,26.902888,31.332022,1.685430172044,33.017452172044,31.16798,2.125093,51.795277248,53.07414868,25,5,7.489,33.017452172044,26.902888,10.7149426,51.795277248,-2.013246,-0.671082,-2.013246,211.3, 18.9, 5.7,0,0,1024,1024,1024,1024,0,0,0,0,226.8,0,0,50,3.793,3.774,0,0,0,0,6.343,93.38,33.017452172044,26.902888,6,P-GPS,
63700,2022-08-11 20:32:20,-34.9288922842754,-56.1628886071253,27.230972,31.660106,1.685430172044,33.345536172044,31.496064,1.8342908,52.098426864,53.378610632,25,5,7.489,33.345536172044,27.230972,10.7149426,52.098426864,-1.789552,-0.447388,-1.342164,211.2, 17.3, 5.3,0,0,1024,1024,1024,1024,0,0,0,0,226.8,0,0,50,3.793,3.774,0,0,0,0,6.343,93.38,33.345536172044,27.230972,6,P-GPS,
63800,2022-08-11 20:32:20,-34.9288929265728,-56.1628893695362,27.230972,31.6929144,1.652621772044,33.345536172044,31.824148,1.6329662,52.408794328,53.70571038,25,5,7.489,33.345536172044,27.230972,10.7149426,52.408794328,-1.565858,-0.447388,-0.894776,211.1, 15.2, 4.7,0,0,1024,1024,1024,1024,0,0,0,0,226.8,0,0,50,3.793,3.774,0,0,0,0,6.343,93.38,33.345536172044,27.230972,6,P-GPS,
63900,2022-08-11 20:32:20,-34.9288934735411,-56.1628895327226,27.559056,32.0209984,1.652621772044,33.673620172044,32.152232,1.4092722,52.609581736,53.911090964,25,5,7.542,33.673620172044,27.559056,10.7149426,52.609581736,-1.342164,-0.447388,-0.447388,210.9, 13.6, 4.2,0,0,1024,1024,1024,1024,0,0,0,0,226.8,0,0,50,3.78,3.772,0,0,0,0,6.445,93.38,33.673620172044,27.559056,6,P-GPS,
64000,2022-08-11 20:32:20,-34.9288939925653,-56.1628896284224,27.559056,32.0209984,1.652621772044,33.673620172044,32.152232,1.3645334,52.792652608,54.10269202,25,5,7.542,33.673620172044,27.559056,10.7149426,52.792652608,-1.342164,-0.223694,-0.223694,210.7, 12.3, 3.8,0,0,1024,1024,1024,1024,0,0,0,0,226.8,0,0,50,3.78,3.772,0,0,0,0,6.445,93.38,33.673620172044,27.559056,6,P-GPS,
64100,2022-08-11 20:32:21,-34.92889445249,-56.1628896944827,27.559056,32.0209984,1.652621772044,33.673620172044,32.152232,1.1408394,52.952101432,54.27165528,25,5,7.542,33.673620172044,27.559056,10.7149426,52.952101432,-1.11847,-0.223694,0,210.8, 11.5, 3.8,0,0,1024,1024,1024,1024,0,0,0,0,226.8,0,0,50,3.78,3.772,0,0,0,0,6.445,93.38,33.673620172044,27.559056,6,P-GPS,
64200,2022-08-11 20:32:21,-34.92889499413,-56.1628898418594,27.559056,32.0209984,1.652621772044,33.673620172044,32.480316,1.1408394,53.149279916,54.474083108,25,5,7.542,33.673620172044,27.559056,10.7149426,53.149279916,-1.11847,-0.223694,0,210.8, 11.1, 3.8,0,0,1024,1024,1024,1024,0,0,0,0,226.8,0,0,50,3.78,3.772,0,0,0,0,6.445,93.38,33.673620172044,27.559056,6,P-GPS,
64300,2022-08-11 20:32:21,-34.9288954473455,-56.1628899019271,27.88714,32.3490824,1.652621772044,34.001704172044,32.480316,1.1408394,53.305775984,54.640421696,25,5,7.542,34.001704172044,27.88714,10.7149426,53.305775984,-1.11847,-0.223694,0,210.8, 10.6, 3.5,0,0,1024,1024,1024,1024,0,0,0,0,226.8,0,0,50,3.78,3.772,0,0,0,0,6.445,93.38,34.001704172044,27.88714,6,P-GPS,
64400,2022-08-11 20:32:21,-34.9288959072051,-56.1628899553125,27.88714,32.3490824,1.652621772044,34.001704172044,32.480316,0.9171454,53.463912472,54.809056872,25,5,7.542,34.001704172044,27.88714,10.7149426,53.463912472,-0.894776,-0.223694,0,210.8, 10.5, 3.6,0,0,1024,1024,1024,1024,0,0,0,0,226.8,0,0,50,3.78,3.772,0,0,0,0,6.445,93.38,34.001704172044,27.88714,6,P-GPS,
64500,2022-08-11 20:32:21,-34.9288963235396,-56.1628899821044,27.88714,32.3490824,1.652621772044,34.001704172044,32.480316,0.894776,53.604332424,54.960959764,25,5,7.542,34.001704172044,27.88714,10.7149426,53.604332424,-0.894776,0,0,210.8, 10.9, 3.9,0,0,1024,1024,1112,1024,0,0,13,0,226.8,0,0,50,3.78,3.772,0,0,0,0,6.445,93.38,34.001704172044,27.88714,6,P-GPS,
64600,2022-08-11 20:32:21,-34.9288968293864,-56.162889904205,27.88714,32.3490824,1.652621772044,34.001704172044,32.480316,0.894776,53.760828492,55.146983392,25,5,7.542,34.001704172044,27.88714,10.7149426,53.760828492,-0.894776,0,0,210.8, 10.8, 3.7,0,0,1049,1024,1334,1024,4,0,47,0,226.8,0,0,50,3.78,3.772,0,0,0,0,6.445,93.38,34.001704172044,27.88714,6,P-GPS,
64700,2022-08-11 20:32:21,-34.9288972017008,-56.1628898412063,27.88714,32.3490824,1.652621772044,34.001704172044,32.480316,0.894776,53.875329808,55.284122504,25,5,7.542,34.001704172044,27.88714,10.7149426,53.875329808,-0.894776,0,0,210.7, 9.8, 3.4,0,0,1155,1024,1486,1024,20,0,70,0,226.8,0,0,50,3.78,3.772,0,0,0,0,6.445,93.38,34.001704172044,27.88714,6,P-GPS,
64800,2022-08-11 20:32:21,-34.9288976250571,-56.1628897780718,27.88714,32.3490824,1.652621772044,34.001704172044,32.480316,0.671082,54.006891492,55.439962404,25,5,7.542,34.001704172044,27.88714,10.7149426,54.006891492,-0.671082,0,-0.447388,210.6, 8.7, 3.3,0,0,1282,1024,1628,1024,39,0,92,0,226.8,0,0,50,3.78,3.772,0,0,0,0,6.445,93.38,34.001704172044,27.88714,6,P-GPS,
64900,2022-08-11 20:32:21,-34.9288980174861,-56.1628897225547,27.88714,32.3490824,1.652621772044,34.001704172044,32.8084,0.671082,54.129266824,55.58399128,25,5,7.509,34.001704172044,27.88714,10.7149426,54.129266824,-0.671082,0,-1.11847,210.6, 7.2, 3.4,0,0,1323,1024,1684,1024,45,0,100,0,226.8,0,0,50,3.784,3.77,0,0,0,0,5.647,93.38,34.001704172044,27.88714,6,P-GPS,
65000,2022-08-11 20:32:21,-34.9288986957005,-56.1628898851769,28.215224,32.6771664,1.652621772044,34.329788172044,33.136484,0.894776,54.374017488,55.836287876,25,5,7.509,34.329788172044,28.215224,10.7149426,54.374017488,-0.894776,0,-1.789552,210.5, 5.1, 3.4,0,0,1323,1024,1684,1024,45,0,100,0,226.8,0,0,50,3.784,3.77,0,0,0,0,5.647,93.38,34.329788172044,28.215224,6,P-GPS,
65100,2022-08-11 20:32:22,-34.9288991442781,-56.1628899457148,28.543308,33.0052504,1.652621772044,34.657872172044,33.464568,0.9171454,54.529857388,56.00065796,25,5,7.509,34.657872172044,28.543308,10.7149426,54.529857388,-0.894776,-0.223694,-2.684328,210.4, 2.7, 3.7,0,0,1224,1024,1625,1024,30,0,91,0,226.8,0,0,50,3.784,3.77,0,0,0,0,5.647,93.38,34.657872172044,28.543308,6,P-GPS,
65200,2022-08-11 20:32:22,-34.9288996562088,-56.1628900444135,29.199476,33.6942268,1.619813372044,35.314040172044,33.792652,1.3645334,54.71128784,56.189962428,25,5,7.509,35.314040172044,29.199476,10.7149426,54.71128784,-1.342164,-0.223694,-3.579104,210.5, 4, 3.9,0,0,1024,1024,1313,1024,0,0,44,0,226.8,0,0,50,3.784,3.77,0,0,0,0,5.647,93.38,35.314040172044,29.199476,6,P-GPS,
65300,2022-08-11 20:32:22,-34.928900222256,-56.1628902080179,29.52756,34.0223108,1.619813372044,35.642124172044,34.44882,1.4092722,54.919293096,56.402232776,25,5,7.509,35.642124172044,29.52756,10.7149426,54.919293096,-1.342164,-0.447388,-3.802798,210.8, 9.8, 3.9,0,0,1024,1024,1417,1024,0,0,60,0,226.8,0,0,50,3.784,3.77,0,0,0,0,5.647,93.38,35.642124172044,29.52756,6,P-GPS,
65400,2022-08-11 20:32:22,-34.9289008631334,-56.1628904073745,30.183728,34.6784788,1.619813372044,36.298292172044,35.104988,1.4092722,55.156497828,56.643374516,25,5,7.509,36.298292172044,30.183728,10.7149426,55.156497828,-1.342164,-0.447388,-3.35541,211.1, 14.8, 4.4,0,0,1024,1024,1636,1024,0,0,93,0,226.8,0,0,50,3.784,3.77,0,0,0,0,5.647,93.38,36.298292172044,30.183728,6,P-GPS,
65500,2022-08-11 20:32:22,-34.9289014792454,-56.1628906187948,30.511812,35.0065628,1.619813372044,36.626376172044,35.433072,1.3645334,55.386812796,56.876970324,25,5,7.509,36.626376172044,30.511812,10.7149426,55.386812796,-1.342164,-0.223694,-3.35541,211, 13.9, 4.4,0,0,1192,1024,1399,1024,25,0,57,0,226.8,0,0,50,3.784,3.77,0,0,0,0,5.647,93.38,36.626376172044,30.511812,6,P-GPS,
65600,2022-08-11 20:32:22,-34.9289020397428,-56.1628907151476,31.16798,35.6627308,1.619813372044,37.282544172044,36.08924,1.1408394,55.584319364,57.083663244,25,5,7.509,37.282544172044,31.16798,10.7149426,55.584319364,-1.11847,-0.223694,-3.802798,210.8, 11.7, 3.6,0,0,1684,1024,1024,1024,100,0,0,0,226.8,0,0,50,3.784,3.77,0,0,0,0,5.647,93.38,37.282544172044,31.16798,6,P-GPS,
65700,2022-08-11 20:32:22,-34.9289025011396,-56.1628907663125,32.152232,36.6469828,1.619813372044,38.266796172044,36.745408,0.894776,55.743768188,57.252626504,25,5,7.509,38.266796172044,32.152232,10.7149426,55.743768188,-0.894776,0,-4.026492,210.7, 9, 4.1,0,0,1684,1024,1024,1024,100,0,0,0,226.8,0,0,50,3.784,3.77,0,0,0,0,5.647,93.38,38.266796172044,32.152232,6,P-GPS,
65800,2022-08-11 20:32:22,-34.9289029789381,-56.1628908922577,32.480316,36.9750668,1.619813372044,38.594880172044,37.073492,1.1408394,55.917652708,57.430776116,25,5,7.509,38.594880172044,32.480316,10.7149426,55.917652708,-1.11847,-0.223694,-3.579104,210.1, -3.1, 4.5,0,0,1684,1024,1024,1024,100,0,0,0,226.8,0,0,50,3.784,3.77,0,0,0,0,5.647,93.38,38.594880172044,32.480316,6,P-GPS,
65900,2022-08-11 20:32:22,-34.9289036950626,-56.1628912839594,33.136484,37.6312348,1.619813372044,39.251048172044,37.72966,1.6329662,56.20407004,57.717193448,25,5,7.549,39.251048172044,33.136484,10.7149426,56.20407004,-1.565858,-0.447388,-3.35541,209.9, -11.9, 4.3,0,0,1684,1024,1024,1024,100,0,0,0,226.8,0,0,50,3.751,3.729,0,0,0,0,4.855,93.38,39.251048172044,33.136484,6,P-GPS,
66000,2022-08-11 20:32:22,-34.9289045516893,-56.1628916139582,33.136484,37.6312348,1.619813372044,39.251048172044,38.057744,2.3264176,56.529201284,58.044949364,25,5,7.549,39.251048172044,33.136484,10.7149426,56.529201284,-2.23694,-0.671082,-2.684328,209.7, -13.6, 4.8,0,0,1684,1024,1024,1024,100,0,0,0,226.8,0,0,50,3.751,3.729,0,0,0,0,4.855,93.38,39.251048172044,33.136484,6,P-GPS,
66100,2022-08-11 20:32:23,-34.9289055861942,-56.1628920800588,33.464568,37.9921272,1.587004972044,39.579132172044,38.385828,2.908022,56.930448016,58.447508432,25,5,7.549,39.579132172044,33.464568,10.7149426,56.930448016,-2.684328,-1.11847,-2.013246,209.8, -13.9, 4.8,0,0,1684,1024,1024,1024,100,0,0,0,226.8,0,0,50,3.751,3.729,0,0,0,0,4.855,93.38,39.579132172044,33.464568,6,P-GPS,
66200,2022-08-11 20:32:23,-34.9289068177668,-56.16289270572,33.464568,37.9921272,1.587004972044,39.579132172044,38.385828,3.6238428,57.416668504,58.934057004,25,5,7.549,39.579132172044,33.464568,10.7149426,57.416668504,-3.35541,-1.342164,-1.342164,209.8, -14.1, 5.3,0,0,1684,1024,1024,1024,100,0,0,0,226.8,0,0,50,3.751,3.729,0,0,0,0,4.855,93.38,39.579132172044,33.464568,6,P-GPS,
66300,2022-08-11 20:32:23,-34.9289080922913,-56.1628934714851,33.464568,37.9921272,1.587004972044,39.579132172044,38.385828,4.4067718,57.935041224,59.452429724,24,5,7.549,39.579132172044,33.464568,10.7149426,57.935041224,-4.026492,-1.789552,-0.671082,209.6, -14.7, 5.2,0,0,1684,1024,1024,1024,100,0,0,0,226.8,0,0,50,3.751,3.729,0,0,0,0,4.855,93.38,39.579132172044,33.464568,6,P-GPS,
66400,2022-08-11 20:32:23,-34.9289099048797,-56.1628944759849,33.464568,37.9921272,1.587004972044,39.579132172044,38.385828,5.2120702,58.6614192,60.1788077,24,5,7.549,39.579132172044,33.464568,10.7149426,58.6614192,-4.697574,-2.23694,-0.223694,209.6, -13.9, 4.8,0,0,1684,1024,1024,1024,100,0,0,0,226.8,0,0,50,3.751,3.729,0,0,0,0,4.855,93.38,39.579132172044,33.464568,6,P-GPS,
66500,2022-08-11 20:32:23,-34.9289119163729,-56.1628956378091,33.136484,37.6968516,1.554196572044,39.251048172044,38.385828,5.9949992,59.473099016,60.9908156,24,5,7.549,39.579132172044,33.464568,10.7149426,59.473099016,-5.368656,-2.684328,0,209.8, -12.2, 4.8,0,0,1684,1024,1024,1024,100,0,0,0,226.8,0,0,50,3.751,3.729,0,0,0,0,4.855,93.38,39.251048172044,33.136484,6,P-GPS,
66600,2022-08-11 20:32:23,-34.9289144446038,-56.1628971513353,33.136484,37.6968516,1.554196572044,39.251048172044,38.385828,6.71082,60.50033002,62.018374688,24,5,7.549,39.579132172044,33.464568,10.7149426,60.50033002,-6.039738,-2.908022,0,209.8, -11.6, 4.7,0,0,1684,1024,1024,1024,100,0,0,0,226.8,0,0,50,3.751,3.729,0,0,0,0,4.855,93.38,39.251048172044,33.136484,6,P-GPS,
66700,2022-08-11 20:32:23,-34.9289177711501,-56.1628991225399,32.8084,37.401576,1.521388172044,38.922964172044,38.385828,7.2924244,61.849411428,63.36778418,24,5,7.549,39.579132172044,33.464568,10.7149426,61.849411428,-6.487126,-3.35541,0,209.9, -10.3, 4.7,0,0,1684,1024,1024,1024,100,0,0,0,226.8,0,0,50,3.751,3.729,0,0,0,0,4.855,93.38,38.922964172044,32.8084,6,P-GPS,
66800,2022-08-11 20:32:23,-34.9289208075989,-56.1629009380816,32.8084,37.401576,1.521388172044,38.922964172044,38.385828,8.0082452,63.083007268,64.601708104,24,5,7.549,39.579132172044,33.464568,10.7149426,63.083007268,-7.158208,-3.579104,0,210, -9.7, 4.6,0,0,1684,1024,1024,1024,100,0,0,0,226.8,0,0,50,3.751,3.729,0,0,0,0,4.855,93.38,38.922964172044,32.8084,6,P-GPS,
66900,2022-08-11 20:32:23,-34.9289238790788,-56.1629028111988,32.480316,37.1063004,1.488579772044,38.594880172044,38.385828,8.612219,64.335303896,65.854332816,24,5,7.49,39.579132172044,33.464568,10.7149426,64.335303896,-7.605596,-4.026492,0,210, -9, 4.4,0,0,1684,1024,1024,1024,100,0,0,0,226.8,0,0,50,3.778,3.775,0,0,0,0,7.573,93.38,38.594880172044,32.480316,6,P-GPS,
67000,2022-08-11 20:32:23,-34.92892725711,-56.1629049321834,32.480316,37.1063004,1.488579772044,38.594880172044,38.385828,9.1043458,65.72014646,67.240487716,24,5,7.49,39.579132172044,33.464568,10.7149426,65.72014646,-8.052984,-4.250186,0,210, -8.9, 4.6,0,0,1684,1024,1024,1024,100,0,0,0,226.8,0,0,50,3.778,3.775,0,0,0,0,7.573,93.38,38.594880172044,32.480316,6,P-GPS,
67100,2022-08-11 20:32:24,-34.9289306070798,-56.162907059678,32.480316,37.1391088,1.455771372044,38.594880172044,38.385828,9.4175174,67.096786924,68.6187686,24,5,7.49,39.579132172044,33.464568,10.7149426,67.096786924,-8.276678,-4.47388,0,210, -9, 4.4,0,0,1684,1024,1024,1024,100,0,0,0,226.8,0,0,50,3.778,3.775,0,0,0,0,7.573,93.38,38.594880172044,32.480316,6,P-GPS,
67200,2022-08-11 20:32:24,-34.9289341991016,-56.1629094628245,32.152232,36.8438332,1.422962972044,38.266796172044,38.385828,9.9096442,68.588256788,70.113519304,24,5,7.49,39.579132172044,33.464568,10.7149426,68.588256788,-8.724066,-4.697574,0,210.1, -9.2, 4.7,0,0,1684,1024,1024,1024,100,0,0,0,226.8,0,0,50,3.778,3.775,0,0,0,0,7.573,93.38,38.266796172044,32.152232,6,P-GPS,
67300,2022-08-11 20:32:24,-34.928937759727,-56.1629117938502,32.152232,36.8766416,1.390154572044,38.266796172044,38.385828,10.401771,70.060369696,71.587600716,24,5,7.49,39.579132172044,33.464568,10.7149426,70.060369696,-9.171454,-4.921268,0,210.1, -9, 4.5,0,0,1684,1024,1024,1024,100,0,0,0,226.8,0,0,50,3.778,3.775,0,0,0,0,7.573,93.38,38.266796172044,32.152232,6,P-GPS,
67400,2022-08-11 20:32:24,-34.92894168713,-56.1629144007472,31.824148,36.5485576,1.390154572044,37.938712172044,38.385828,10.9162672,71.688978672,73.219162448,24,5,7.49,39.579132172044,33.464568,10.9162672,71.688978672,-9.618842,-5.144962,0,210.2, -9, 4.4,0,0,1684,1024,1024,1024,100,0,0,0,226.8,0,0,49,3.778,3.775,0,0,0,0,7.573,93.38,37.938712172044,31.824148,6,P-GPS,
67500,2022-08-11 20:32:24,-34.9289455602473,-56.1629169738096,31.824148,36.581366,1.357346172044,37.938712172044,38.385828,11.2070694,73.295277936,74.828086384,24,5,7.49,39.579132172044,33.464568,11.2070694,73.295277936,-9.842536,-5.368656,0,210.2, -9.1, 4.4,0,0,1684,1024,1024,1024,100,0,0,0,226.8,0,0,49,3.778,3.775,0,0,0,0,7.573,93.38,37.938712172044,31.824148,6,P-GPS,
67600,2022-08-11 20:32:24,-34.9289496891866,-56.1629196854921,31.824148,36.6141744,1.324537772044,37.938712172044,38.385828,11.7215656,75.003611324,76.539044444,24,5,7.49,39.579132172044,33.464568,11.7215656,75.003611324,-10.289924,-5.59235,0,210.3, -9.1, 4.7,0,0,1684,1024,1024,1024,100,0,0,0,226.8,0,0,49,3.778,3.775,0,0,0,0,7.573,93.38,37.938712172044,31.824148,6,P-GPS,
67700,2022-08-11 20:32:24,-34.9289538316876,-56.1629224037262,31.824148,36.6469828,1.291729372044,37.938712172044,38.385828,12.0123678,76.71752214,78.255251848,24,5,7.49,39.579132172044,33.464568,12.0123678,76.71752214,-10.513618,-5.816044,0,210.4, -9.2, 4.6,0,0,1684,1024,1024,1024,100,0,0,0,226.8,0,0,49,3.778,3.775,0,0,0,0,7.573,93.38,37.938712172044,31.824148,6,P-GPS,
67800,2022-08-11 20:32:24,-34.928958332355,-56.1629253979573,31.824148,36.6797912,1.258920972044,37.938712172044,38.385828,12.5044946,78.585304352,80.125986816,24,5,7.49,39.579132172044,33.464568,12.5044946,78.585304352,-10.961006,-6.039738,0,210.3, -9.4, 4.5,0,0,1684,1024,1024,1024,100,0,0,0,226.8,0,0,49,3.778,3.775,0,0,0,0,7.573,93.38,37.938712172044,31.824148,6,P-GPS,
67900,2022-08-11 20:32:24,-34.9289627296489,-56.1629283381865,31.824148,36.7125996,1.226112572044,37.938712172044,38.385828,12.7058192,80.41174798,81.9553832,25,5,7.558,39.579132172044,33.464568,12.7058192,80.41174798,-11.1847,-6.039738,0,210.4, -9.5, 4.6,0,0,1684,1024,1024,1024,100,0,0,0,226.8,0,0,49,3.774,3.76,0,0,0,0,4.221,93.38,37.938712172044,31.824148,6,P-GPS,
68000,2022-08-11 20:32:24,-34.9289674419489,-56.1629314573595,31.824148,36.7782164,1.160495772044,37.938712172044,38.385828,13.0189908,82.3654882,83.911420008,25,5,7.558,39.579132172044,33.464568,13.0189908,82.3654882,-11.408394,-6.263432,0,210.4, -9.9, 4.7,0,0,1684,1024,1024,1024,100,0,0,0,226.8,0,0,49,3.774,3.76,0,0,0,0,4.221,93.38,37.938712172044,31.824148,6,P-GPS,
68100,2022-08-11 20:32:25,-34.9289720455731,-56.162934551841,31.824148,36.8110248,1.127687372044,37.938712172044,38.385828,13.309793,84.280186424,85.829399072,25,5,7.558,39.579132172044,33.464568,13.309793,84.280186424,-11.632088,-6.487126,0,210.4, -10.3, 4.5,0,0,1684,1024,1024,1024,100,0,0,0,226.8,0,0,49,3.774,3.76,0,0,0,0,4.221,93.38,37.938712172044,31.824148,6,P-GPS,
68200,2022-08-11 20:32:25,-34.9289769217207,-56.1629377932289,31.496064,36.5157492,1.094878972044,37.610628172044,38.385828,13.6229646,86.303808536,87.855645856,25,5,7.558,39.579132172044,33.464568,13.6229646,86.303808536,-11.855782,-6.71082,0,210.3, -10.3, 4.3,0,0,1684,1024,1024,1024,100,0,0,0,226.8,0,0,49,3.774,3.76,0,0,0,0,4.221,93.38,37.610628172044,31.496064,6,P-GPS,
68300,2022-08-11 20:32:25,-34.9289816941689,-56.1629409877309,31.496064,36.581366,1.029262172044,37.610628172044,38.385828,14.0032444,88.287076316,89.841538308,25,5,7.558,39.579132172044,33.464568,14.0032444,88.287076316,-12.30317,-6.71082,0,210.3, -10.3, 4.3,0,0,1684,1024,1024,1024,100,0,0,0,226.8,0,0,49,3.774,3.76,0,0,0,0,4.221,93.38,37.610628172044,31.496064,6,P-GPS,
68400,2022-08-11 20:32:25,-34.9289869638528,-56.1629444674982,31.496064,36.6141744,0.996453772044,37.610628172044,38.385828,14.316416,90.471131504,92.027890084,25,5,7.558,39.579132172044,33.464568,14.316416,90.471131504,-12.526864,-6.934514,0,210.3, -10.3, 4.5,0,0,1684,1024,1024,1024,100,0,0,0,226.8,0,0,49,3.774,3.76,0,0,0,0,4.221,93.38,37.610628172044,31.496064,6,P-GPS,
68500,2022-08-11 20:32:25,-34.9289920844363,-56.162947980024,31.496064,36.6797912,0.930836972044,37.610628172044,38.385828,14.6295876,92.610895352,94.17159094,25,5,7.558,39.579132172044,33.464568,14.6295876,92.610895352,-12.750558,-7.158208,0,210.2, -10.3, 4.5,0,0,1684,1024,1024,1024,100,0,0,0,226.8,0,0,49,3.774,3.76,0,0,0,0,4.221,93.38,37.610628172044,31.496064,6,P-GPS,
68600,2022-08-11 20:32:25,-34.9289975087963,-56.1629518033742,31.496064,36.745408,0.865220172044,37.610628172044,38.385828,14.9203898,94.890751068,96.457352168,25,5,7.558,39.579132172044,33.464568,14.9203898,94.890751068,-12.974252,-7.381902,0,210.2, -10.1, 4.3,0,0,1684,1024,1024,1024,100,0,0,0,226.8,0,0,49,3.774,3.76,0,0,0,0,4.221,93.38,37.610628172044,31.496064,6,P-GPS,
68700,2022-08-11 20:32:25,-34.9290027707939,-56.1629555152932,31.16798,36.4501324,0.832411772044,37.282544172044,38.385828,15.1217144,97.103349564,98.674871924,25,5,7.558,39.579132172044,33.464568,15.1217144,97.103349564,-13.197946,-7.381902,0,210.2, -9.8, 4.2,0,0,1684,1024,1024,1024,100,0,0,0,226.8,0,0,49,3.774,3.76,0,0,0,0,4.221,93.38,37.282544172044,31.16798,6,P-GPS,
68800,2022-08-11 20:32:25,-34.9290084343528,-56.1629594533033,31.16798,36.5157492,0.766794972044,37.282544172044,38.385828,15.6138412,99.477365388,101.053480924,25,5,7.558,39.579132172044,33.464568,15.6138412,99.477365388,-13.645334,-7.605596,0,210.2, -9.9, 4.2,0,0,1684,1024,1024,1024,100,0,0,0,226.8,0,0,49,3.774,3.76,0,0,0,0,4.221,93.38,37.282544172044,31.16798,6,P-GPS,
68900,2022-08-11 20:32:25,-34.929013940161,-56.1629633054726,31.16798,36.581366,0.701178172044,37.282544172044,38.385828,15.7256882,101.788717168,103.36942588,25,5,7.524,39.579132172044,33.464568,15.7256882,101.788717168,-13.645334,-7.82929,0,210.2, -9.8, 4.2,0,0,1684,1024,1024,1024,100,0,0,0,226.8,0,0,49,3.77,3.754,0,0,0,0,5.295,93.38,37.282544172044,31.16798,6,P-GPS,
69000,2022-08-11 20:32:25,-34.9290197271299,-56.1629673172442,31.16798,36.6469828,0.635561372044,37.282544172044,38.385828,15.9270128,104.213257928,105.797903648,25,5,7.524,39.579132172044,33.464568,15.9270128,104.213257928,-13.869028,-7.82929,0,210.1, -9.6, 4.2,0,0,1684,1024,1024,1024,100,0,0,0,226.8,0,0,49,3.77,3.754,0,0,0,0,5.295,93.38,37.282544172044,31.16798,6,P-GPS,
69100,2022-08-11 20:32:26,-34.929025318477,-56.1629712002493,30.839896,36.3845156,0.569944572044,36.954460172044,38.385828,16.2401844,106.557090024,108.145344668,25,5,7.524,39.579132172044,33.464568,16.2401844,106.557090024,-14.092722,-8.052984,0,210.1, -9.7, 4,0,0,1684,1024,1024,1024,100,0,0,0,226.8,0,0,49,3.77,3.754,0,0,0,0,5.295,93.38,36.954460172044,30.839896,6,P-GPS,
69200,2022-08-11 20:32:26,-34.9290313349132,-56.1629753733682,30.839896,36.4501324,0.504327772044,36.954460172044,38.385828,16.5309866,109.078415564,110.670607216,25,5,7.524,39.579132172044,33.464568,16.5309866,109.078415564,-14.316416,-8.276678,0,210.1, -9.6, 3.7,0,0,1684,1024,1024,1024,100,0,0,0,226.8,0,0,49,3.77,3.754,0,0,0,0,5.295,93.38,36.954460172044,30.839896,6,P-GPS,
69300,2022-08-11 20:32:26,-34.9290371359257,-56.1629793405736,30.839896,36.5485576,0.405902572044,36.954460172044,38.385828,16.8441582,111.502300156,113.09711648,25,5,7.524,39.579132172044,33.464568,16.8441582,111.502300156,-14.54011,-8.500372,0,210.2, -9.2, 3.7,0,0,1684,1024,1024,1024,100,0,0,0,226.8,0,0,49,3.77,3.754,0,0,0,0,5.295,93.38,36.954460172044,30.839896,6,P-GPS,
69400,2022-08-11 20:32:26,-34.9290434385772,-56.1629837615704,30.839896,36.6141744,0.340285772044,36.954460172044,38.385828,17.0454828,114.150594204,115.74967562,25,5,7.524,39.579132172044,33.464568,17.0454828,114.150594204,-14.763804,-8.500372,0,210.1, -9.1, 3.4,0,0,1684,1024,1024,1024,100,0,0,0,226.8,0,0,49,3.77,3.754,0,0,0,0,5.295,93.38,36.954460172044,30.839896,6,P-GPS,
69500,2022-08-11 20:32:26,-34.9290494610582,-56.1629879871761,30.839896,36.7125996,0.241860572044,36.954460172044,38.385828,17.336285,116.68143418,118.284780688,25,5,7.524,39.579132172044,33.464568,17.336285,116.68143418,-14.987498,-8.724066,0,210.1, -9.1, 3.4,0,0,1684,1024,1024,1024,100,0,0,0,226.8,0,0,49,3.77,3.754,0,0,0,0,5.295,93.38,36.954460172044,30.839896,6,P-GPS,
69600,2022-08-11 20:32:26,-34.9290556764772,-56.1629923498763,30.839896,36.7782164,0.176243772044,36.954460172044,38.385828,17.5376096,119.293967072,120.900922504,25,5,7.524,39.579132172044,33.464568,17.5376096,119.293967072,-15.211192,-8.724066,0,210.2, -9.1, 3.6,0,0,1684,1024,1024,1024,100,0,0,0,226.8,0,0,49,3.77,3.754,0,0,0,0,5.295,93.38,36.954460172044,30.839896,6,P-GPS,
69700,2022-08-11 20:32:26,-34.9290616356963,-56.1629965026923,30.511812,36.5485576,0.077818572044,36.626376172044,38.385828,17.5376096,121.79462332,123.405187676,25,5,7.524,39.579132172044,33.464568,17.5376096,121.79462332,-15.211192,-8.724066,0,210.2, -8.9, 3.2,0,0,1684,1024,1024,1024,100,0,0,0,226.8,0,0,49,3.77,3.754,0,0,0,0,5.295,93.38,36.626376172044,30.511812,6,P-GPS,
69800,2022-08-11 20:32:26,-34.9290680238867,-56.1630010114944,30.511812,36.6469828,-0.020606627956,36.626376172044,38.385828,17.8507812,124.4832717,126.097773064,25,5,7.524,39.579132172044,33.464568,17.8507812,124.4832717,-15.434886,-8.94776,0,210.2, -9, 3.5,0,0,1684,1024,1024,1024,100,0,0,0,226.8,0,0,49,3.77,3.754,0,0,0,0,5.295,93.38,36.626376172044,30.511812,6,P-GPS,
69900,2022-08-11 20:32:26,-34.9290741660387,-56.163005364038,30.511812,36.745408,-0.119031827956,36.626376172044,38.385828,18.1415834,127.071198292,128.689636664,25,5,7.516,39.579132172044,33.464568,18.1415834,127.071198292,-15.65858,-9.171454,0,210.2, -8.3, 3.4,0,0,1684,1024,1024,1024,100,0,0,0,226.8,0,0,49,3.766,3.749,0,0,0,0,5.445,93.38,36.626376172044,30.511812,6,P-GPS,
70000,2022-08-11 20:32:26,-34.929080742347,-56.1630100778549,30.511812,36.8438332,-0.217457027956,36.626376172044,38.385828,18.1415834,129.84908552,131.472773236,25,5,7.516,39.579132172044,33.464568,18.1415834,129.84908552,-15.65858,-9.171454,0,210.1, -8.3, 3.2,0,0,1684,1024,1024,1024,100,0,0,0,226.8,0,0,49,3.766,3.749,0,0,0,0,5.445,93.38,36.626376172044,30.511812,6,P-GPS,
70100,2022-08-11 20:32:27,-34.9290870073749,-56.163014594912,30.511812,36.9422584,-0.315882227956,36.626376172044,38.385828,18.454755,132.499676156,134.127957048,25,5,7.516,39.579132172044,33.464568,18.454755,132.499676156,-15.882274,-9.395148,0,210.2, -8.2, 3.1,0,0,1684,1024,1024,1024,100,0,0,0,226.8,0,0,49,3.766,3.749,0,0,0,0,5.445,93.38,36.626376172044,30.511812,6,P-GPS,
70200,2022-08-11 20:32:27,-34.9290933694841,-56.163019277402,30.511812,37.0406836,-0.414307427956,36.626376172044,38.385828,18.6560796,135.204072568,136.83891514,25,5,7.516,39.579132172044,33.464568,18.6560796,135.204072568,-16.105968,-9.395148,0,210.1, -8.1, 1.5,0,0,1684,1024,1024,1024,100,0,0,0,226.8,0,0,49,3.766,3.749,0,0,0,0,5.445,93.38,36.626376172044,30.511812,6,P-GPS,
70300,2022-08-11 20:32:27,-34.9290995318289,-56.1630237904047,30.511812,37.1391088,-0.512732627956,36.626376172044,38.385828,18.6560796,137.821198636,139.461290552,25,5,7.516,39.579132172044,33.464568,18.6560796,137.821198636,-16.105968,-9.395148,0,210.2, -8, 2,0,0,1684,1024,1024,1024,100,0,0,0,226.8,0,0,49,3.766,3.749,0,0,0,0,5.445,93.38,36.626376172044,30.511812,6,P-GPS,
70400,2022-08-11 20:32:27,-34.9291064543834,-56.1630287455374,30.511812,37.2703424,-0.643966227956,36.626376172044,38.385828,18.9468818,140.745411328,142.39009642,25,5,7.516,39.579132172044,33.464568,18.9468818,140.745411328,-16.329662,-9.618842,0,210.2, -7.5, 2.9,0,0,1684,1024,1024,1024,100,0,0,0,226.8,0,0,49,3.766,3.749,0,0,0,0,5.445,93.38,36.626376172044,30.511812,6,P-GPS,
70500,2022-08-11 20:32:27,-34.9291130742297,-56.1630334707441,30.511812,37.3687676,-0.742391427956,36.626376172044,38.385828,18.9468818,143.54003084,145.188324856,25,5,7.516,39.579132172044,33.464568,18.9468818,143.54003084,-16.329662,-9.618842,0,210.1, -7.8, 2.9,0,0,1684,1024,1024,1024,100,0,0,0,226.8,0,0,49,3.766,3.749,0,0,0,0,5.445,93.38,36.626376172044,30.511812,6,P-GPS,
