time(millisecond),datetime(utc),latitude,longitude,height_above_takeoff(feet),height_above_ground_at_drone_location(feet),ground_elevation_at_drone_location(feet),altitude_above_seaLevel(feet),height_sonar(feet),speed(mph),distance(feet),mileage(feet),satellites,gpslevel,voltage(v),max_altitude(feet),max_ascent(feet),max_speed(mph),max_distance(feet), xSpeed(mph), ySpeed(mph), zSpeed(mph), compass_heading(degrees), pitch(degrees), roll(degrees),isPhoto,isVideo,rc_elevator,rc_aileron,rc_throttle,rc_rudder,rc_elevator(percent),rc_aileron(percent),rc_throttle(percent),rc_rudder(percent),gimbal_heading(degrees),gimbal_pitch(degrees),gimbal_roll(degrees),battery_percent,voltageCell1,voltageCell2,voltageCell3,voltageCell4,voltageCell5,voltageCell6,current(A),battery_temperature(f),altitude(feet),ascent(feet),flycStateRaw,flycState,message
180300,2022-08-30 05:07:26,0,0,0,,,3.28084E-5,0.328084,0,0,0,0,0,0,3.28084E-5,0,0,0,0,0,0,32.9, 2.5, -0.5,0,0,364,364,364,1684,-100,-100,-100,100,33,0,0,90,4.231,4.221,0,0,0,0,0,84.02,3.28084E-5,0,41,Motors_Started,"En vuelo"
180400,2022-08-30 05:07:26,0,0,0,,,3.28084E-5,0.328084,0,0,0,0,0,0,3.28084E-5,0,0,0,0,0,0,32.9, 2.6, -0.5,0,0,370,402,364,1684,-99,-94,-100,100,33,0,0,90,4.231,4.221,0,0,0,0,0,84.02,3.28084E-5,0,41,Motors_Started,
180500,2022-08-30 05:07:26,0,0,0,,,3.28084E-5,0.328084,0,0,0,0,0,0,3.28084E-5,0,0,0,0,0,0,32.9, 2.6, -0.5,0,0,370,402,364,1684,-99,-94,-100,100,33,0,0,90,4.231,4.221,0,0,0,0,0,84.02,3.28084E-5,0,41,Motors_Started,
180600,2022-08-30 05:07:26,0,0,0,,,3.28084E-5,0.328084,0,0,0,0,0,8.462,3.28084E-5,0,0,0,0,0,0,32.9, 2.6, -0.5,0,0,1024,1024,1024,1024,0,0,0,0,33,0,0,90,4.231,4.221,0,0,0,0,0.568,84.02,3.28084E-5,0,41,Motors_Started,
180700,2022-08-30 05:07:26,0,0,0,,,3.28084E-5,0.328084,0,0,0,0,0,8.462,3.28084E-5,0,0,0,0,0,0,32.9, 2.6, -0.4,0,0,1024,1024,1024,1024,0,0,0,0,33,0,0,90,4.231,4.221,0,0,0,0,0.568,84.02,3.28084E-5,0,41,Motors_Started,"Setting new Return-To-Home altitude to 60m (197 ft). Data Recorder File Index is 34. Setting new Maximum Flight Altitude to 30m (98 ft)"
180800,2022-08-30 05:07:26,0,0,0,,,3.28084E-5,0.328084,0,0,0,0,0,8.462,3.28084E-5,0,0,0,0,0,0,32.9, 2.6, -0.5,0,0,1024,1024,1024,1024,0,0,0,0,33,0,0,90,4.231,4.221,0,0,0,0,0.568,84.02,3.28084E-5,0,41,Motors_Started,
180900,2022-08-30 05:07:26,0,0,0,,,3.28084E-5,0.328084,0,0,0,0,0,8.462,3.28084E-5,0,0,0,0,0,0,32.9, 2.6, -0.5,0,0,1024,1024,1024,1024,0,0,0,0,33,0,0,90,4.231,4.221,0,0,0,0,0.568,84.02,3.28084E-5,0,41,Motors_Started,
181000,2022-08-30 05:07:26,0,0,0,,,3.28084E-5,0.328084,0,0,0,0,0,8.462,3.28084E-5,0,0,0,0,0,0,32.9, 2.6, -0.5,0,0,1024,1024,1024,1024,0,0,0,0,33,0,0,90,4.231,4.221,0,0,0,0,0.568,84.02,3.28084E-5,0,41,Motors_Started,
181100,2022-08-30 05:07:26,0,0,0,,,3.28084E-5,0.328084,0,0,0,0,0,8.462,3.28084E-5,0,0,0,0,0,0,32.9, 2.6, -0.5,0,0,1024,1024,1266,1024,0,0,37,0,33,0,0,90,4.231,4.221,0,0,0,0,0.568,84.02,3.28084E-5,0,41,Motors_Started,
181200,2022-08-30 05:07:26,0,0,0,,,3.28084E-5,0.328084,0,0,0,0,0,8.462,3.28084E-5,0,0,0,0,0,0,32.9, 2.5, -0.5,0,0,1024,1024,1684,1024,0,0,100,0,33,0,0,90,4.231,4.221,0,0,0,0,0.568,84.02,3.28084E-5,0,41,Motors_Started,
181300,2022-08-30 05:07:27,0,0,0,,,3.28084E-5,0.328084,0,0,0,0,0,8.462,3.28084E-5,0,0,0,0,0,0,32.9, 2.6, -0.5,0,0,1024,1024,1029,1024,0,0,1,0,33,0,0,90,4.231,4.221,0,0,0,0,0.568,84.02,3.28084E-5,0,41,Motors_Started,
181400,2022-08-30 05:07:27,0,0,0,,,3.28084E-5,0.328084,0,0,0,0,0,8.462,3.28084E-5,0,0,0,0,0,0,33, 2.6, -0.4,0,0,1024,1024,1024,1024,0,0,0,0,33,0,0,90,4.231,4.221,0,0,0,0,0.568,84.02,3.28084E-5,0,10,Assisted_Takeoff,
181500,2022-08-30 05:07:27,0,0,0,,,3.28084E-5,0.328084,0,0,0,0,0,8.462,3.28084E-5,0,0,0,0,0,0,33, 2.6, -0.5,0,0,1024,1024,1024,1024,0,0,0,0,33,0,0,90,4.231,4.221,0,0,0,0,0.568,84.02,3.28084E-5,0,10,Assisted_Takeoff,
181600,2022-08-30 05:07:27,0,0,0,,,3.28084E-5,0.328084,0,0,0,0,0,8.432,3.28084E-5,0,0,0,0,0,0,33, 2.5, -0.4,0,0,1024,1024,1072,1024,0,0,7,0,33,0,0,90,4.214,4.214,0,0,0,0,1.192,84.02,3.28084E-5,0,10,Assisted_Takeoff,
181700,2022-08-30 05:07:27,0,0,0,,,3.28084E-5,0.328084,0,0,0,0,0,8.432,3.28084E-5,0,0,0,0,0,0,33, 2.5, -0.5,0,0,1024,1024,1532,1024,0,0,77,0,33,0,0,90,4.214,4.214,0,0,0,0,1.192,84.02,3.28084E-5,0,10,Assisted_Takeoff,
181800,2022-08-30 05:07:27,0,0,0,,,3.28084E-5,0.328084,0,0,0,0,0,8.432,3.28084E-5,0,0,0,0,0,0,33, 2.6, -0.4,0,0,1024,1024,1684,1024,0,0,100,0,33,0,0,90,4.214,4.214,0,0,0,0,1.192,84.02,3.28084E-5,0,10,Assisted_Takeoff,
181900,2022-08-30 05:07:27,0,0,0,,,3.28084E-5,0.328084,0,0,0,0,0,8.432,3.28084E-5,0,0,0,0,0,0,33.1, 2.6, -0.4,0,0,1024,1024,1684,1024,0,0,100,0,33,0,0,90,4.214,4.214,0,0,0,0,1.192,84.02,3.28084E-5,0,10,Assisted_Takeoff,
182000,2022-08-30 05:07:27,0,0,0,,,3.28084E-5,0.328084,0,0,0,0,0,8.432,3.28084E-5,0,0,0,0,0,0,33.4, 2.3, -0.4,0,0,1024,1024,1407,1024,0,0,58,0,33.1,0,0,90,4.214,4.214,0,0,0,0,1.192,84.02,3.28084E-5,0,10,Assisted_Takeoff,
182100,2022-08-30 05:07:27,0,0,0,,,3.28084E-5,0.328084,0,0,0,0,0,8.432,3.28084E-5,0,0,0,0,0,0,33.9, -0.7, -0.2,0,0,1024,1024,1024,1024,0,0,0,0,33.4,0,0,90,4.214,4.214,0,0,0,0,1.192,84.02,3.28084E-5,0,10,Assisted_Takeoff,
182200,2022-08-30 05:07:27,0,0,0,,,3.28084E-5,0.328084,0,0,0,0,0,8.432,3.28084E-5,0,0,0,0,0,-0.223694,34.8, -1.8, -0.1,0,0,1024,1024,1024,1024,0,0,0,0,34.1,0,0,90,4.214,4.214,0,0,0,0,1.192,84.02,3.28084E-5,0,10,Assisted_Takeoff,
182300,2022-08-30 05:07:28,0,0,0,,,3.28084E-5,0.328084,0,0,0,0,0,8.432,3.28084E-5,0,0,0,0,0,-0.447388,34.7, -0.9, 0.9,0,0,1024,1024,1024,1024,0,0,0,0,34.2,0,0,90,4.214,4.214,0,0,0,0,1.192,84.02,3.28084E-5,0,6,P-GPS,
182400,2022-08-30 05:07:28,0,0,0,,,3.28084E-5,0.328084,0,0,0,0,0,8.432,3.28084E-5,0,0,0,0,0,-0.447388,34.5, -0.6, -0.2,0,0,1024,1024,1024,1024,0,0,0,0,34.2,0,0,90,4.214,4.214,0,0,0,0,1.192,84.02,3.28084E-5,0,6,P-GPS,
182500,2022-08-30 05:07:28,0,0,0,,,3.28084E-5,0.656168,0,0,0,0,0,8.432,3.28084E-5,0,0,0,0,0,-0.671082,34.5, 0, -0.5,0,0,1024,1024,1024,1024,0,0,0,0,34.2,0,0,90,4.214,4.214,0,0,0,0,1.192,84.02,3.28084E-5,0,6,P-GPS,
182600,2022-08-30 05:07:28,0,0,0,,,3.28084E-5,0.656168,0,0,0,0,0,8.432,3.28084E-5,0,0,0,0,0,-0.671082,34.4, 0.6, -0.3,0,0,1024,1024,1024,1024,0,0,0,0,34.2,0,0,90,4.179,4.17,0,0,0,0,1.192,84.02,3.28084E-5,0,6,P-GPS,
182700,2022-08-30 05:07:28,0,0,0.328084,,,0.3281168084,0.656168,0,0,0,0,0,8.432,0.3281168084,0.328084,0,0,0,0,-0.671082,34.2, 0.9, 0,0,0,1024,1024,1024,1024,0,0,0,0,34.2,0,0,90,4.179,4.17,0,0,0,0,1.192,84.02,0.3281168084,0.328084,6,P-GPS,
182800,2022-08-30 05:07:28,0,0,0.328084,,,0.3281168084,0.656168,0,0,0,0,0,8.432,0.3281168084,0.328084,0,0,0,0,-0.894776,34.3, 0.8, -0.1,0,0,1024,1024,1024,1024,0,0,0,0,34.2,0,0,90,4.179,4.17,0,0,0,0,1.192,84.02,0.3281168084,0.328084,6,P-GPS,
182900,2022-08-30 05:07:28,0,0,0.328084,,,0.3281168084,0.984252,0,0,0,0,0,8.432,0.3281168084,0.328084,0,0,0,0,-0.894776,34.2, 0.6, -0.3,0,0,1024,1024,1024,1024,0,0,0,0,34.2,0,0,90,4.179,4.17,0,0,0,0,1.192,84.02,0.3281168084,0.328084,6,P-GPS,
183000,2022-08-30 05:07:28,0,0,0.656168,,,0.6562008084,0.984252,0,0,0,0,0,8.432,0.6562008084,0.656168,0,0,0,0,-0.894776,34.2, 0.3, -0.2,0,0,1024,1024,1024,1024,0,0,0,0,34.2,0,0,90,4.179,4.17,0,0,0,0,1.192,84.02,0.6562008084,0.656168,6,P-GPS,
183100,2022-08-30 05:07:28,0,0,0.656168,,,0.6562008084,1.312336,0,0,0,0,0,8.432,0.6562008084,0.656168,0,0,0,0,-0.894776,34.2, 0.1, -0.2,0,0,1024,1024,1024,1024,0,0,0,0,34.2,0,0,90,4.179,4.17,0,0,0,0,1.192,84.02,0.6562008084,0.656168,6,P-GPS,
183200,2022-08-30 05:07:29,0,0,0.656168,,,0.6562008084,1.312336,0,0,0,0,0,8.432,0.6562008084,0.656168,0,0,0,0,-0.894776,34.2, 0.1, -0.1,0,0,1024,1024,1024,1024,0,0,0,0,34.2,0,0,90,4.179,4.17,0,0,0,0,1.192,84.02,0.6562008084,0.656168,6,P-GPS,
183300,2022-08-30 05:07:29,0,0,0.984252,,,0.9842848084,1.312336,0,0,0,0,0,8.432,0.9842848084,0.984252,0,0,0,0,-0.671082,34.2, 0.1, -0.1,0,0,1024,1024,1024,1024,0,0,0,0,34.2,0,0,90,4.179,4.17,0,0,0,0,1.192,84.02,0.9842848084,0.984252,6,P-GPS,
183400,2022-08-30 05:07:29,0,0,0.984252,,,0.9842848084,1.64042,0,0,0,0,0,8.432,0.9842848084,0.984252,0,0,0,0,-0.447388,34.2, 0.2, -0.2,0,0,1024,1024,1024,1024,0,0,0,0,34.2,0,0,90,4.179,4.17,0,0,0,0,1.192,84.02,0.9842848084,0.984252,6,P-GPS,
183500,2022-08-30 05:07:29,0,0,0.984252,,,0.9842848084,1.64042,0,0,0,0,0,8.432,0.9842848084,0.984252,0,0,0,0,-0.223694,34.2, 0.3, -0.2,0,0,1024,1024,1024,1024,0,0,0,0,34.2,0,0,90,4.179,4.17,0,0,0,0,1.192,84.02,0.9842848084,0.984252,6,P-GPS,
183600,2022-08-30 05:07:29,0,0,0.984252,,,0.9842848084,1.64042,0,0,0,0,0,8.416,0.9842848084,0.984252,0,0,0,0,-0.223694,34.2, 0.4, -0.3,0,0,1024,1024,1024,1024,0,0,0,0,34.2,0,0,90,4.17,4.163,0,0,0,0,1.752,84.2,0.9842848084,0.984252,6,P-GPS,
183700,2022-08-30 05:07:29,0,0,0.984252,,,0.9842848084,1.64042,0,0,0,0,0,8.416,0.9842848084,0.984252,0,0,0,0,0,34.2, 0.4, -0.2,0,0,1024,1024,1024,1024,0,0,0,0,34.2,0,0,90,4.17,4.163,0,0,0,0,1.752,84.2,0.9842848084,0.984252,6,P-GPS,
183800,2022-08-30 05:07:29,0,0,1.312336,,,1.3123688084,1.64042,0,0,0,0,0,8.416,1.3123688084,1.312336,0,0,0,0,0,34.2, 0.3, -0.2,0,0,1024,1024,1024,1024,0,0,0,0,34.2,0,0,90,4.17,4.163,0,0,0,0,1.752,84.2,1.3123688084,1.312336,6,P-GPS,
183900,2022-08-30 05:07:29,0,0,1.312336,,,1.3123688084,1.64042,0,0,0,0,0,8.416,1.3123688084,1.312336,0,0,0,0,0,34.2, 0.3, -0.1,0,0,1024,1024,1024,1024,0,0,0,0,34.2,0,0,90,4.17,4.163,0,0,0,0,1.752,84.2,1.3123688084,1.312336,6,P-GPS,
184000,2022-08-30 05:07:29,0,0,1.312336,,,1.3123688084,1.64042,0,0,0,0,0,8.416,1.3123688084,1.312336,0,0,0,0,0,34.2, 0.3, -0.1,0,0,1024,1024,1024,1024,0,0,0,0,34.2,0,0,90,4.17,4.163,0,0,0,0,1.752,84.2,1.3123688084,1.312336,6,P-GPS,
184100,2022-08-30 05:07:29,0,0,1.312336,,,1.3123688084,1.64042,0,0,0,0,0,8.416,1.3123688084,1.312336,0,0,0,0,0,34.2, 0.4, 0,0,0,1024,1024,1024,1024,0,0,0,0,34.2,0,0,90,4.17,4.163,0,0,0,0,1.752,84.2,1.3123688084,1.312336,6,P-GPS,
184200,2022-08-30 05:07:29,0,0,1.312336,,,1.3123688084,1.64042,0,0,0,0,0,8.416,1.3123688084,1.312336,0,0,0,0,0,34.2, 0.3, 0,0,0,1024,1024,1024,1024,0,0,0,0,34.2,0,0,90,4.17,4.163,0,0,0,0,1.752,84.2,1.3123688084,1.312336,6,P-GPS,
184300,2022-08-30 05:07:30,0,0,1.312336,,,1.3123688084,1.64042,0,0,0,0,0,8.416,1.3123688084,1.312336,0,0,0,0,0,34.2, 0.3, 0,0,0,1024,1024,1024,1024,0,0,0,0,34.2,0,0,90,4.17,4.163,0,0,0,0,1.752,84.2,1.3123688084,1.312336,6,P-GPS,
184400,2022-08-30 05:07:30,0,0,1.312336,,,1.3123688084,1.64042,0,0,0,0,0,8.416,1.3123688084,1.312336,0,0,0,0,0,34.2, 0.2, 0,0,0,1058,1024,1024,1024,5,0,0,0,34.2,0,0,90,4.17,4.163,0,0,0,0,1.752,84.2,1.3123688084,1.312336,6,P-GPS,
184500,2022-08-30 05:07:30,0,0,1.312336,,,1.3123688084,1.64042,0,0,0,0,0,8.416,1.3123688084,1.312336,0,0,0,0,0,34.2, 0.3, 0,0,0,1370,1024,1024,1024,52,0,0,0,34.2,0,0,90,4.17,4.163,0,0,0,0,1.752,84.2,1.3123688084,1.312336,6,P-GPS,
184600,2022-08-30 05:07:30,0,0,1.312336,,,1.3123688084,1.64042,0,0,0,0,0,8.321,1.3123688084,1.312336,0,0,0,0,0,34.2, 0.2, 0,0,0,1216,1024,1024,1024,29,0,0,0,34.2,0,0,90,4.163,4.157,0,0,0,0,4.084,84.2,1.3123688084,1.312336,6,P-GPS,
184700,2022-08-30 05:07:30,0,0,1.312336,,,1.3123688084,1.64042,0,0,0,0,0,8.321,1.3123688084,1.312336,0,0,0,0,0,34.2, -3.2, 0.2,0,0,1216,1024,1024,1024,29,0,0,0,34.2,0,0,90,4.163,4.157,0,0,0,0,4.084,84.2,1.3123688084,1.312336,6,P-GPS,
184800,2022-08-30 05:07:30,0,0,1.312336,,,1.3123688084,1.64042,0,0,0,0,0,8.321,1.3123688084,1.312336,0,0,0,0,0,34.2, -5.4, 0.1,0,0,1024,1024,1024,1024,0,0,0,0,34.2,0,0,90,4.163,4.157,0,0,0,0,4.084,84.2,1.3123688084,1.312336,6,P-GPS,
184900,2022-08-30 05:07:30,0,0,1.312336,,,1.3123688084,1.64042,0.223694,0,0,0,0,8.321,1.3123688084,1.312336,0,0,0.223694,0,0,34.2, 0.6, 0.2,0,0,1024,1024,1024,1024,0,0,0,0,34.2,0,0,90,4.163,4.157,0,0,0,0,4.084,84.2,1.3123688084,1.312336,6,P-GPS,
185000,2022-08-30 05:07:30,0,0,1.312336,,,1.3123688084,1.64042,0.223694,0,0,0,0,8.321,1.3123688084,1.312336,0,0,0.223694,0,0,34.2, 1.7, 0.1,0,0,1024,1024,1024,1385,0,0,0,55,34.2,0,0,90,4.163,4.157,0,0,0,0,4.084,84.2,1.3123688084,1.312336,6,P-GPS,
185100,2022-08-30 05:07:30,0,0,1.312336,,,1.3123688084,1.64042,0.223694,0,0,0,0,8.321,1.3123688084,1.312336,0,0,0.223694,0,0,34.2, 1.7, 0,0,0,1024,1024,1024,1684,0,0,0,100,34.3,0,0,90,4.163,4.157,0,0,0,0,4.084,84.2,1.3123688084,1.312336,6,P-GPS,
185200,2022-08-30 05:07:30,0,0,1.312336,,,1.3123688084,1.64042,0,0,0,0,0,8.321,1.3123688084,1.312336,0,0,0,0,0,34.8, 1.5, 0,0,0,1024,1024,1024,1024,0,0,0,0,36.6,0,0,90,4.163,4.157,0,0,0,0,4.084,84.2,1.3123688084,1.312336,6,P-GPS,
185300,2022-08-30 05:07:31,0,0,1.312336,,,1.3123688084,1.64042,0,0,0,0,0,8.321,1.3123688084,1.312336,0,0,0,0,0,38.1, 1.2, 0,0,0,1024,1024,1024,1024,0,0,0,0,40.5,0,0,90,4.163,4.157,0,0,0,0,4.084,84.2,1.3123688084,1.312336,6,P-GPS,
185400,2022-08-30 05:07:31,0,0,1.312336,,,1.3123688084,1.64042,0,0,0,0,0,8.321,1.3123688084,1.312336,0,0,0,0,0,41.3, 1.3, 0.3,0,0,1024,1024,1024,1024,0,0,0,0,42.7,0,0,90,4.163,4.157,0,0,0,0,4.084,84.2,1.3123688084,1.312336,6,P-GPS,
185500,2022-08-30 05:07:31,0,0,1.312336,,,1.3123688084,1.64042,0,0,0,0,0,8.321,1.3123688084,1.312336,0,0,0,0,0,42.9, 0.9, 0.1,0,0,1024,1024,1024,1024,0,0,0,0,43.4,0,0,90,4.163,4.157,0,0,0,0,4.084,84.2,1.3123688084,1.312336,6,P-GPS,
185600,2022-08-30 05:07:31,0,0,1.312336,,,1.3123688084,1.64042,0,0,0,0,0,8.325,1.3123688084,1.312336,0,0,0,0,0,43.2, 0.6, 0.1,0,0,1024,1024,1024,1024,0,0,0,0,43.5,0,0,90,4.16,4.152,0,0,0,0,3.885,84.2,1.3123688084,1.312336,6,P-GPS,
185700,2022-08-30 05:07:31,0,0,1.312336,,,1.3123688084,1.64042,0,0,0,0,0,8.325,1.3123688084,1.312336,0,0,0,0,0,43.3, 0.5, 0,0,0,1024,1024,1024,1024,0,0,0,0,43.5,0,0,90,4.16,4.152,0,0,0,0,3.885,84.2,1.3123688084,1.312336,6,P-GPS,
185800,2022-08-30 05:07:31,0,0,1.312336,,,1.3123688084,1.64042,0,0,0,0,0,8.325,1.3123688084,1.312336,0,0,0,0,0,43.4, 0.6, 0.2,0,0,1024,1024,1024,1024,0,0,0,0,43.5,0,0,90,4.16,4.152,0,0,0,0,3.885,84.2,1.3123688084,1.312336,6,P-GPS,
185900,2022-08-30 05:07:31,0,0,1.312336,,,1.3123688084,1.64042,0,0,0,0,0,8.325,1.3123688084,1.312336,0,0,0,0,0,43.4, 0.6, 0.1,0,0,1024,1024,1024,1024,0,0,0,0,43.5,0,0,90,4.16,4.152,0,0,0,0,3.885,84.2,1.3123688084,1.312336,6,P-GPS,
186000,2022-08-30 05:07:31,0,0,1.312336,,,1.3123688084,1.64042,0,0,0,0,0,8.325,1.3123688084,1.312336,0,0,0,0,0,43.4, 0.6, 0,0,0,1024,1024,1024,1024,0,0,0,0,43.5,0,0,90,4.16,4.152,0,0,0,0,3.885,84.2,1.3123688084,1.312336,6,P-GPS,
186100,2022-08-30 05:07:31,0,0,1.312336,,,1.3123688084,1.64042,0,0,0,0,0,8.325,1.3123688084,1.312336,0,0,0,0,0,43.4, 0.6, 0,0,0,1024,1250,1024,1024,0,34,0,0,43.5,0,0,90,4.16,4.152,0,0,0,0,3.885,84.2,1.3123688084,1.312336,6,P-GPS,
186200,2022-08-30 05:07:31,0,0,1.312336,,,1.3123688084,1.64042,0,0,0,0,0,8.325,1.3123688084,1.312336,0,0,0,0,0,43.4, 0.7, 0.1,0,0,1024,1453,1024,1024,0,65,0,0,43.5,0,0,90,4.16,4.152,0,0,0,0,3.885,84.2,1.3123688084,1.312336,6,P-GPS,
186300,2022-08-30 05:07:32,0,0,1.312336,,,1.3123688084,1.64042,0,0,0,0,0,8.325,1.3123688084,1.312336,0,0,0,0,0,43.5, 0.6, 4.6,0,0,1024,1024,1024,1024,0,0,0,0,43.5,0,0,90,4.16,4.152,0,0,0,0,3.885,84.2,1.3123688084,1.312336,6,P-GPS,
186400,2022-08-30 05:07:32,0,0,1.312336,,,1.3123688084,1.64042,0,0,0,0,0,8.325,1.3123688084,1.312336,0,0,0,0,0,43.6, 0.6, 8.2,0,0,1024,1024,1024,1024,0,0,0,0,43.5,0,0,90,4.16,4.152,0,0,0,0,3.885,84.2,1.3123688084,1.312336,6,P-GPS,
186500,2022-08-30 05:07:32,0,0,1.312336,,,1.3123688084,1.64042,0.3131716,0,0,0,0,8.325,1.3123688084,1.312336,0,0,-0.223694,0.223694,0,43.3, 0.5, -0.2,0,0,1024,1024,1024,1012,0,0,0,-2,43.5,0,0,90,4.16,4.152,0,0,0,0,3.885,84.2,1.3123688084,1.312336,6,P-GPS,
186600,2022-08-30 05:07:32,0,0,1.312336,,,1.3123688084,1.64042,0.3131716,0,0,0,0,8.313,1.3123688084,1.312336,0,0,-0.223694,0.223694,0,43.2, 0.4, -2.3,0,0,1024,1024,1024,458,0,0,0,-86,43.5,0,0,90,4.158,4.149,0,0,0,0,4.091,84.38,1.3123688084,1.312336,6,P-GPS,
186700,2022-08-30 05:07:32,0,0,1.312336,,,1.3123688084,1.64042,0.3131716,0,0,0,0,8.313,1.3123688084,1.312336,0,0,-0.223694,0.223694,0,43.4, 0.4, -2.1,0,0,1024,1024,1024,458,0,0,0,-86,43.4,0,0,90,4.158,4.149,0,0,0,0,4.091,84.38,1.3123688084,1.312336,6,P-GPS,
186800,2022-08-30 05:07:32,0,0,1.312336,,,1.3123688084,1.64042,0.223694,0,0,0,0,8.313,1.3123688084,1.312336,0,0,0,0.223694,0,43.1, 0.4, -1.6,0,0,1024,1024,1024,1024,0,0,0,0,42.1,0,0,90,4.158,4.149,0,0,0,0,4.091,84.38,1.3123688084,1.312336,6,P-GPS,
186900,2022-08-30 05:07:32,0,0,0.984252,,,0.9842848084,1.64042,0,0,0,0,0,8.313,1.3123688084,1.312336,0,0,0,0,0,41, 0.3, -1.3,0,0,1024,1024,1024,1024,0,0,0,0,39.6,0,0,90,4.158,4.149,0,0,0,0,4.091,84.38,0.9842848084,0.984252,6,P-GPS,
187000,2022-08-30 05:07:32,0,0,0.984252,,,0.9842848084,1.64042,0,0,0,0,0,8.313,1.3123688084,1.312336,0,0,0,0,0,39, 0.2, -1.9,0,0,1024,1024,1024,1024,0,0,0,0,38.2,0,0,90,4.158,4.149,0,0,0,0,4.091,84.38,0.9842848084,0.984252,6,P-GPS,
187100,2022-08-30 05:07:32,0,0,0.984252,,,0.9842848084,1.64042,0,0,0,0,0,8.313,1.3123688084,1.312336,0,0,0,0,0,38.2, 0.4, -1.1,0,0,1024,1024,1024,1024,0,0,0,0,38,0,0,90,4.158,4.149,0,0,0,0,4.091,84.38,0.9842848084,0.984252,6,P-GPS,
187200,2022-08-30 05:07:32,0,0,0.984252,,,0.9842848084,1.64042,0,0,0,0,0,8.313,1.3123688084,1.312336,0,0,0,0,0,38.2, 0.4, -0.5,0,0,1071,1024,1024,1024,7,0,0,0,38,0,0,90,4.158,4.149,0,0,0,0,4.091,84.38,0.9842848084,0.984252,6,P-GPS,
187300,2022-08-30 05:07:33,0,0,0.984252,,,0.9842848084,1.64042,0,0,0,0,0,8.313,1.3123688084,1.312336,0,0,0,0,0,38.1, 0.4, -0.3,0,0,1430,1024,1024,1024,62,0,0,0,38,0,0,90,4.158,4.149,0,0,0,0,4.091,84.38,0.9842848084,0.984252,6,P-GPS,
187400,2022-08-30 05:07:33,0,0,0.984252,,,0.9842848084,1.64042,0,0,0,0,0,8.313,1.3123688084,1.312336,0,0,0,0,0,38.1, -0.6, -0.1,0,0,1066,1024,1024,1024,6,0,0,0,38,0,0,90,4.158,4.149,0,0,0,0,4.091,84.38,0.9842848084,0.984252,6,P-GPS,
187500,2022-08-30 05:07:33,0,0,0.984252,,,0.9842848084,1.64042,0,0,0,0,0,8.313,1.3123688084,1.312336,0,0,0,0,0,38.1, -6.2, -0.2,0,0,1024,1024,1024,1024,0,0,0,0,38,0,0,90,4.158,4.149,0,0,0,0,4.091,84.38,0.9842848084,0.984252,6,P-GPS,
187600,2022-08-30 05:07:33,0,0,0.984252,,,0.9842848084,1.64042,0.223694,0,0,0,0,8.309,1.3123688084,1.312336,0,0,0.223694,0,0,38.1, -4.3, -0.2,0,0,1024,1024,1024,1024,0,0,0,0,38,0,0,90,4.155,4.147,0,0,0,0,4.088,84.38,0.9842848084,0.984252,6,P-GPS,
187700,2022-08-30 05:07:33,0,0,0.984252,,,0.9842848084,1.64042,0.3131716,0,0,0,0,8.309,1.3123688084,1.312336,0,0,0.223694,0.223694,0,38, 1.4, -0.1,0,0,1024,1024,1024,1024,0,0,0,0,38,0,0,90,4.155,4.147,0,0,0,0,4.088,84.38,0.9842848084,0.984252,6,P-GPS,
187800,2022-08-30 05:07:33,0,0,0.984252,,,0.9842848084,1.64042,0.3131716,0,0,0,0,8.309,1.3123688084,1.312336,0,0,0.223694,0.223694,0,38, 2.1, -0.2,0,0,1024,1024,1024,1024,0,0,0,0,38,0,0,90,4.155,4.147,0,0,0,0,4.088,84.38,0.9842848084,0.984252,6,P-GPS,
187900,2022-08-30 05:07:33,0,0,0.984252,,,0.9842848084,1.64042,0,0,0,0,0,8.309,1.3123688084,1.312336,0,0,0,0,0,38, 1.9, -0.2,0,0,1024,1024,1024,847,0,0,0,-27,38,0,0,90,4.155,4.147,0,0,0,0,4.088,84.38,0.9842848084,0.984252,6,P-GPS,
188000,2022-08-30 05:07:33,0,0,0.984252,,,0.9842848084,1.64042,0,0,0,0,0,8.309,1.3123688084,1.312336,0,0,0,0,0,38, 1.4, 0,0,0,1024,1024,1024,596,0,0,0,-65,37.9,0,0,90,4.155,4.147,0,0,0,0,4.088,84.38,0.9842848084,0.984252,6,P-GPS,
188100,2022-08-30 05:07:33,0,0,0.984252,,,0.9842848084,1.64042,0,0,0,0,0,8.309,1.3123688084,1.312336,0,0,0,0,0,37.8, 1.2, 0,0,0,1024,1024,1024,1024,0,0,0,0,37,0,0,90,4.155,4.147,0,0,0,0,4.088,84.38,0.9842848084,0.984252,6,P-GPS,
188200,2022-08-30 05:07:33,0,0,0.984252,,,0.9842848084,1.64042,0,0,0,0,0,8.309,1.3123688084,1.312336,0,0,0,0,0,36.2, 1.5, -0.2,0,0,1024,1024,1024,1024,0,0,0,0,35.3,0,0,90,4.155,4.147,0,0,0,0,4.088,84.38,0.9842848084,0.984252,6,P-GPS,
188300,2022-08-30 05:07:34,0,0,0.984252,,,0.9842848084,1.64042,0,0,0,0,0,8.309,1.3123688084,1.312336,0,0,0,0,0,34.9, 1, -0.4,0,0,1148,1024,1024,1024,19,0,0,0,34.4,0,0,90,4.155,4.147,0,0,0,0,4.088,84.38,0.9842848084,0.984252,6,P-GPS,
188400,2022-08-30 05:07:34,0,0,0.984252,,,0.9842848084,1.64042,0,0,0,0,0,8.309,1.3123688084,1.312336,0,0,0,0,0,34.4, 0.7, -0.1,0,0,1192,1024,1024,1024,25,0,0,0,34.1,0,0,90,4.155,4.147,0,0,0,0,4.088,84.38,0.9842848084,0.984252,6,P-GPS,
188500,2022-08-30 05:07:34,0,0,0.984252,,,0.9842848084,1.64042,0,0,0,0,0,8.309,1.3123688084,1.312336,0,0,0,0,0,34.3, -0.2, 0,0,0,1192,1024,1024,1024,25,0,0,0,34.1,0,0,90,4.155,4.147,0,0,0,0,4.088,84.38,0.9842848084,0.984252,6,P-GPS,
188600,2022-08-30 05:07:34,0,0,0.984252,,,0.9842848084,1.64042,0,0,0,0,0,8.304,1.3123688084,1.312336,0,0,0,0,0,34.3, -1.6, 0,0,0,1304,1024,1024,1024,42,0,0,0,34.1,0,0,90,4.152,4.144,0,0,0,0,4.14,84.38,0.9842848084,0.984252,6,P-GPS,
188700,2022-08-30 05:07:34,0,0,0.984252,,,0.9842848084,1.64042,0,0,0,0,0,8.304,1.3123688084,1.312336,0,0,0,0,0,34.2, -3.3, -0.1,0,0,1271,1024,1024,1024,37,0,0,0,34.1,0,0,90,4.152,4.144,0,0,0,0,4.14,84.38,0.9842848084,0.984252,6,P-GPS,
188800,2022-08-30 05:07:34,0,0,0.984252,,,0.9842848084,1.64042,0.223694,0,0,0,0,8.304,1.3123688084,1.312336,0,0,0.223694,0,0,34.2, -4.2, -0.1,0,0,1064,1024,1024,1024,6,0,0,0,34.1,0,0,90,4.152,4.144,0,0,0,0,4.14,84.38,0.9842848084,0.984252,6,P-GPS,
188900,2022-08-30 05:07:34,0,0,0.984252,,,0.9842848084,1.64042,0.3131716,0,0,0,0,8.304,1.3123688084,1.312336,0,0,0.223694,0.223694,0,34.1, -2.1, -0.1,0,0,1076,1024,1024,1024,8,0,0,0,34.1,0,0,90,4.152,4.144,0,0,0,0,4.14,84.38,0.9842848084,0.984252,6,P-GPS,
189000,2022-08-30 05:07:34,0,0,0.984252,,,0.9842848084,1.64042,0.4921268,0,0,0,0,8.304,1.3123688084,1.312336,0,0,0.447388,0.223694,0,34.1, 0.2, -0.1,0,0,1078,1024,1024,1024,8,0,0,0,34.1,0,0,90,4.152,4.144,0,0,0,0,4.14,84.38,0.9842848084,0.984252,6,P-GPS,
189100,2022-08-30 05:07:34,0,0,0.984252,,,0.9842848084,1.64042,0.4921268,0,0,0,0,8.304,1.3123688084,1.312336,0,0,0.447388,0.223694,0,34.2, 0.8, -0.1,0,0,1078,1024,1024,1024,8,0,0,0,34.1,0,0,90,4.152,4.144,0,0,0,0,4.14,84.38,0.9842848084,0.984252,6,P-GPS,
189200,2022-08-30 05:07:34,0,0,0.984252,,,0.9842848084,1.64042,0.3131716,0,0,0,0,8.304,1.3123688084,1.312336,0,0,0.223694,0.223694,0,34.2, 0.6, -0.1,0,0,1081,1024,1024,1024,9,0,0,0,34.1,0,0,90,4.152,4.144,0,0,0,0,4.14,84.38,0.9842848084,0.984252,6,P-GPS,
189300,2022-08-30 05:07:35,0,0,0.984252,,,0.9842848084,1.64042,0.223694,0,0,0,0,8.304,1.3123688084,1.312336,0,0,0.223694,0,0,34.2, 0.3, 0,0,0,1087,1024,1024,1024,10,0,0,0,34.1,0,0,90,4.152,4.144,0,0,0,0,4.14,84.38,0.9842848084,0.984252,6,P-GPS,
189400,2022-08-30 05:07:35,0,0,0.984252,,,0.9842848084,1.64042,0.223694,0,0,0,0,8.304,1.3123688084,1.312336,0,0,0.223694,0,0,34.1, 0.2, 0,0,0,1087,1024,1024,1024,10,0,0,0,34.1,0,0,90,4.152,4.144,0,0,0,0,4.14,84.38,0.9842848084,0.984252,6,P-GPS,
189500,2022-08-30 05:07:35,0,0,0.984252,,,0.9842848084,1.64042,0.223694,0,0,0,0,8.304,1.3123688084,1.312336,0,0,0.223694,0,0,34.2, 0, 0.1,0,0,1089,1024,1024,1024,10,0,0,0,34.1,0,0,90,4.152,4.144,0,0,0,0,4.14,84.38,0.9842848084,0.984252,6,P-GPS,
189600,2022-08-30 05:07:35,0,0,0.984252,,,0.9842848084,1.64042,0.223694,0,0,0,0,8.299,1.3123688084,1.312336,0,0,0.223694,0,0,34.2, -0.2, 0.2,0,0,1090,1024,1024,1024,10,0,0,0,34.1,0,0,90,4.151,4.143,0,0,0,0,4.156,84.38,0.9842848084,0.984252,6,P-GPS,
189700,2022-08-30 05:07:35,0,0,0.984252,,,0.9842848084,1.64042,0.223694,0,0,0,0,8.299,1.3123688084,1.312336,0,0,0.223694,0,0,34.2, -0.2, 0.4,0,0,1090,1024,1024,1024,10,0,0,0,34.1,0,0,90,4.151,4.143,0,0,0,0,4.156,84.38,0.9842848084,0.984252,6,P-GPS,
189800,2022-08-30 05:07:35,0,0,1.312336,,,1.3123688084,1.64042,0.223694,0,0,0,0,8.299,1.3123688084,1.312336,0,0,0.223694,0,0,34.2, -0.1, 0.4,0,0,1090,1024,1024,1076,10,0,0,8,34.1,0,0,90,4.151,4.143,0,0,0,0,4.156,84.38,1.3123688084,1.312336,6,P-GPS,
189900,2022-08-30 05:07:35,0,0,1.312336,,,1.3123688084,1.64042,0.223694,0,0,0,0,8.299,1.3123688084,1.312336,0,0,0.223694,0,0,34.2, -0.1, 0.4,0,0,1089,1024,1024,1211,10,0,0,28,34.2,0,0,90,4.151,4.143,0,0,0,0,4.156,84.38,1.3123688084,1.312336,6,P-GPS,
190000,2022-08-30 05:07:35,0,0,1.312336,,,1.3123688084,1.64042,0.447388,0,0,0,0,8.299,1.3123688084,1.312336,0,0,0.447388,0,0,34.2, -0.1, 0.4,0,0,1024,1024,1024,1274,0,0,0,38,34.3,0,0,90,4.151,4.143,0,0,0,0,4.156,84.38,1.3123688084,1.312336,6,P-GPS,
190100,2022-08-30 05:07:35,0,0,1.312336,,,1.3123688084,1.64042,0.4921268,0,0,0,0,8.299,1.3123688084,1.312336,0,0,0.447388,0.223694,0,34.4, 0, 0.3,0,0,1024,1024,1024,1024,0,0,0,0,34.7,0,0,90,4.151,4.143,0,0,0,0,4.156,84.38,1.3123688084,1.312336,6,P-GPS,
190200,2022-08-30 05:07:36,0,0,1.312336,,,1.3123688084,1.64042,0.223694,0,0,0,0,8.299,1.3123688084,1.312336,0,0,0.223694,0,0,35, 1.8, 0.3,0,0,1024,1024,1024,1024,0,0,0,0,35.4,0,0,90,4.151,4.143,0,0,0,0,4.156,84.38,1.3123688084,1.312336,6,P-GPS,
190300,2022-08-30 05:07:36,0,0,1.312336,,,1.3123688084,1.64042,0.223694,0,0,0,0,8.299,1.3123688084,1.312336,0,0,0.223694,0,0,35.6, 2.2, 0.2,0,0,1024,1024,1024,1024,0,0,0,0,35.8,0,0,90,4.151,4.143,0,0,0,0,4.156,84.38,1.3123688084,1.312336,6,P-GPS,
190400,2022-08-30 05:07:36,0,0,1.312336,,,1.3123688084,1.64042,0.223694,0,0,0,0,8.299,1.3123688084,1.312336,0,0,0.223694,0,0,35.9, 2.1, 0.2,0,0,1024,1024,1024,1024,0,0,0,0,36,0,0,90,4.151,4.143,0,0,0,0,4.156,84.38,1.3123688084,1.312336,6,P-GPS,
190500,2022-08-30 05:07:36,0,0,1.312336,,,1.3123688084,1.64042,0.223694,0,0,0,0,8.299,1.3123688084,1.312336,0,0,0.223694,0,0,36, 1.8, 0.3,0,0,1024,1024,1024,1024,0,0,0,0,36,0,0,90,4.151,4.143,0,0,0,0,4.156,84.38,1.3123688084,1.312336,6,P-GPS,
190600,2022-08-30 05:07:36,0,0,1.312336,,,1.3123688084,1.64042,0,0,0,0,0,8.299,1.3123688084,1.312336,0,0,0,0,0,36, 1.4, 0.2,0,0,1068,1024,1024,1024,7,0,0,0,36,0,0,90,4.151,4.143,0,0,0,0,4.156,84.38,1.3123688084,1.312336,6,P-GPS,
190700,2022-08-30 05:07:36,0,0,1.312336,,,1.3123688084,1.64042,0,0,0,0,0,8.299,1.3123688084,1.312336,0,0,0,0,0,36, 1.7, 0,0,0,1070,1024,1024,1024,7,0,0,0,36,0,0,90,4.151,4.143,0,0,0,0,4.156,84.38,1.3123688084,1.312336,6,P-GPS,
190800,2022-08-30 05:07:36,0,0,1.312336,,,1.3123688084,1.64042,0,0,0,0,0,8.292,1.3123688084,1.312336,0,0,0,0,0,36, 0.9, 0.3,0,0,1070,1024,1024,1024,7,0,0,0,36,0,0,90,4.15,4.141,0,0,0,0,4.107,84.56,1.3123688084,1.312336,6,P-GPS,
190900,2022-08-30 05:07:36,0,0,1.312336,,,1.3123688084,1.64042,0,0,0,0,0,8.292,1.3123688084,1.312336,0,0,0,0,0,36, 0.6, 0.4,0,0,1071,1024,1024,1201,7,0,0,27,36,0,0,90,4.15,4.141,0,0,0,0,4.107,84.56,1.3123688084,1.312336,6,P-GPS,
191000,2022-08-30 05:07:36,0,0,0.984252,,,0.9842848084,1.64042,0,0,0,0,0,8.292,1.3123688084,1.312336,0,0,0,0,0,36, 0.4, 0.3,0,0,1070,1024,1024,1337,7,0,0,47,36,0,0,90,4.15,4.141,0,0,0,0,4.107,84.56,0.9842848084,0.984252,6,P-GPS,
191100,2022-08-30 05:07:36,0,0,0.984252,,,0.9842848084,1.64042,0,0,0,0,0,8.292,1.3123688084,1.312336,0,0,0,0,0,36.1, 0.3, 0.3,0,0,1067,1024,1024,1024,7,0,0,0,36.4,0,0,90,4.15,4.141,0,0,0,0,4.107,84.56,0.9842848084,0.984252,6,P-GPS,
191200,2022-08-30 05:07:36,0,0,0.984252,,,0.9842848084,1.64042,0,0,0,0,0,8.292,1.3123688084,1.312336,0,0,0,0,0,36.8, 0.3, 0.2,0,0,1056,1024,1024,1024,5,0,0,0,37.4,0,0,90,4.15,4.141,0,0,0,0,4.107,84.56,0.9842848084,0.984252,6,P-GPS,
191300,2022-08-30 05:07:37,0,0,0.984252,,,0.9842848084,1.64042,0,0,0,0,0,8.292,1.3123688084,1.312336,0,0,0,0,0,37.7, 0.1, 0.3,0,0,1056,1024,1024,1024,5,0,0,0,38.1,0,0,90,4.15,4.141,0,0,0,0,4.107,84.56,0.9842848084,0.984252,6,P-GPS,
191400,2022-08-30 05:07:37,0,0,0.984252,,,0.9842848084,1.64042,0,0,0,0,0,8.292,1.3123688084,1.312336,0,0,0,0,0,38.1, 0.2, 0.3,0,0,1050,1024,1024,1024,4,0,0,0,38.3,0,0,90,4.15,4.141,0,0,0,0,4.107,84.56,0.9842848084,0.984252,6,P-GPS,
191500,2022-08-30 05:07:37,0,0,0.984252,,,0.9842848084,1.64042,0,0,0,0,0,8.292,1.3123688084,1.312336,0,0,0,0,0,38.3, 0.3, 0.1,0,0,1041,1024,1024,1024,3,0,0,0,38.4,0,0,90,4.15,4.141,0,0,0,0,4.107,84.56,0.9842848084,0.984252,6,P-GPS,
191600,2022-08-30 05:07:37,0,0,0.984252,,,0.9842848084,1.64042,0,0,0,0,0,8.292,1.3123688084,1.312336,0,0,0,0,0,38.3, 0.4, 0.2,0,0,1024,1024,1024,1024,0,0,0,0,38.4,0,0,90,4.15,4.141,0,0,0,0,4.107,84.56,0.9842848084,0.984252,6,P-GPS,
191700,2022-08-30 05:07:37,0,0,0.984252,,,0.9842848084,1.64042,0,0,0,0,0,8.292,1.3123688084,1.312336,0,0,0,0,0,38.3, 0.6, 0.2,0,0,1024,1198,1024,1024,0,26,0,0,38.4,0,0,90,4.15,4.141,0,0,0,0,4.107,84.56,0.9842848084,0.984252,6,P-GPS,
191800,2022-08-30 05:07:37,0,0,1.312336,,,1.3123688084,1.64042,0,0,0,0,0,8.289,1.3123688084,1.312336,0,0,0,0,0,38.3, 0.5, 0.6,0,0,1024,1197,1024,1024,0,26,0,0,38.4,0,0,90,4.147,4.139,0,0,0,0,4.113,84.56,1.3123688084,1.312336,6,P-GPS,
191900,2022-08-30 05:07:37,0,0,1.312336,,,1.3123688084,1.64042,0,0,0,0,0,8.289,1.3123688084,1.312336,0,0,0,0,0,38.4, 0.4, 2.1,0,0,1024,1197,1024,1024,0,26,0,0,38.4,0,0,90,4.147,4.139,0,0,0,0,4.113,84.56,1.3123688084,1.312336,6,P-GPS,
192000,2022-08-30 05:07:37,0,0,1.312336,,,1.3123688084,1.64042,0,0,0,0,0,8.289,1.3123688084,1.312336,0,0,0,0,0,38.4, 0.4, 2.7,0,0,1024,1195,1024,1024,0,26,0,0,38.4,0,0,90,4.147,4.139,0,0,0,0,4.113,84.56,1.3123688084,1.312336,6,P-GPS,
192100,2022-08-30 05:07:37,0,0,1.312336,,,1.3123688084,1.64042,0,0,0,0,0,8.289,1.3123688084,1.312336,0,0,0,0,0,38.4, 0.3, 2.4,0,0,1108,1024,1024,1024,13,0,0,0,38.4,0,0,90,4.147,4.139,0,0,0,0,4.113,84.56,1.3123688084,1.312336,6,P-GPS,
192200,2022-08-30 05:07:37,0,0,1.312336,,,1.3123688084,1.64042,0.223694,0,0,0,0,8.289,1.3123688084,1.312336,0,0,0,0.223694,0,38.4, 0.3, 2.3,0,0,1108,1024,1024,1024,13,0,0,0,38.4,0,0,90,4.147,4.139,0,0,0,0,4.113,84.56,1.3123688084,1.312336,6,P-GPS,
192300,2022-08-30 05:07:38,0,0,1.312336,,,1.3123688084,1.64042,0.3131716,0,0,0,0,8.289,1.3123688084,1.312336,0,0,-0.223694,0.223694,0,38.3, 0, 1,0,0,1204,1024,1024,1024,27,0,0,0,38.4,0,0,90,4.147,4.139,0,0,0,0,4.113,84.56,1.3123688084,1.312336,6,P-GPS,
192400,2022-08-30 05:07:38,0,0,1.312336,,,1.3123688084,1.64042,0.223694,0,0,0,0,8.289,1.3123688084,1.312336,0,0,0,0.223694,0,38.3, -1.3, -0.2,0,0,1203,1024,1024,1024,27,0,0,0,38.4,0,0,90,4.147,4.139,0,0,0,0,4.113,84.56,1.3123688084,1.312336,6,P-GPS,
192500,2022-08-30 05:07:38,0,0,1.312336,,,1.3123688084,1.64042,0.223694,0,0,0,0,8.289,1.3123688084,1.312336,0,0,0,0.223694,0,38.3, -2.2, -0.4,0,0,1173,1024,1024,1024,23,0,0,0,38.4,0,0,90,4.147,4.139,0,0,0,0,4.113,84.56,1.3123688084,1.312336,6,P-GPS,
192600,2022-08-30 05:07:38,0,0,1.312336,,,1.3123688084,1.64042,0.223694,0,0,0,0,8.289,1.3123688084,1.312336,0,0,0,0.223694,0,38.3, -2.1, -0.2,0,0,1123,1024,1024,1024,15,0,0,0,38.4,0,0,90,4.147,4.139,0,0,0,0,4.113,84.56,1.3123688084,1.312336,6,P-GPS,
192700,2022-08-30 05:07:38,0,0,1.312336,,,1.3123688084,1.64042,0.223694,0,0,0,0,8.289,1.3123688084,1.312336,0,0,0,0.223694,0,38.3, -1.4, -0.1,0,0,1119,1024,1024,1024,14,0,0,0,38.4,0,0,90,4.147,4.139,0,0,0,0,4.113,84.56,1.3123688084,1.312336,6,P-GPS,
192800,2022-08-30 05:07:38,0,0,1.312336,,,1.3123688084,1.64042,0.223694,0,0,0,0,8.289,1.3123688084,1.312336,0,0,0,0.223694,0,38.3, -0.7, 0,0,0,1143,1024,1024,1024,18,0,0,0,38.4,0,0,90,4.147,4.139,0,0,0,0,4.113,84.56,1.3123688084,1.312336,6,P-GPS,
192900,2022-08-30 05:07:38,0,0,1.312336,,,1.3123688084,1.64042,0.223694,0,0,0,0,8.286,1.3123688084,1.312336,0,0,0,0.223694,0,38.3, -0.4, 0.1,0,0,1145,1024,1024,1024,18,0,0,0,38.4,0,0,90,4.146,4.138,0,0,0,0,4.128,84.56,1.3123688084,1.312336,6,P-GPS,
193000,2022-08-30 05:07:38,0,0,0.984252,,,0.9842848084,1.64042,0.223694,0,0,0,0,8.286,1.3123688084,1.312336,0,0,0,0.223694,0,38.3, -0.4, 0.2,0,0,1145,1024,1024,1024,18,0,0,0,38.4,0,0,90,4.146,4.138,0,0,0,0,4.128,84.56,0.9842848084,0.984252,6,P-GPS,
193100,2022-08-30 05:07:38,0,0,0.984252,,,0.9842848084,1.64042,0.223694,0,0,0,0,8.286,1.3123688084,1.312336,0,0,0,0.223694,0,38.3, -0.8, 0.1,0,0,1024,1024,1024,1024,0,0,0,0,38.4,0,0,90,4.146,4.138,0,0,0,0,4.128,84.56,0.9842848084,0.984252,6,P-GPS,
193200,2022-08-30 05:07:38,0,0,0.984252,,,0.9842848084,1.64042,0.447388,0,0,0,0,8.286,1.3123688084,1.312336,0,0,0,0.447388,0,38.3, 0.4, -0.2,0,0,1024,1024,1024,1024,0,0,0,0,38.4,0,0,90,4.146,4.138,0,0,0,0,4.128,84.56,0.9842848084,0.984252,6,P-GPS,
193300,2022-08-30 05:07:39,0,0,0.984252,,,0.9842848084,1.64042,0.223694,0,0,0,0,8.286,1.3123688084,1.312336,0,0,0,0.223694,0,38.3, 1.8, -0.7,0,0,1024,777,1024,1024,0,-37,0,0,38.4,0,0,90,4.146,4.138,0,0,0,0,4.128,84.56,0.9842848084,0.984252,6,P-GPS,
193400,2022-08-30 05:07:39,0,0,0.984252,,,0.9842848084,1.64042,0.223694,0,0,0,0,8.286,1.3123688084,1.312336,0,0,0,0.223694,0,38.3, 1.5, -1.5,0,0,1024,1024,1024,1024,0,0,0,0,38.4,0,0,90,4.146,4.138,0,0,0,0,4.128,84.56,0.9842848084,0.984252,6,P-GPS,
193500,2022-08-30 05:07:39,0,0,0.984252,,,0.9842848084,1.64042,0.223694,0,0,0,0,8.286,1.3123688084,1.312336,0,0,0,0.223694,0,38.2, 0.9, -2.6,0,0,1024,1024,1024,1024,0,0,0,0,38.4,0,0,90,4.146,4.138,0,0,0,0,4.128,84.56,0.9842848084,0.984252,6,P-GPS,
193600,2022-08-30 05:07:39,0,0,0.984252,,,0.9842848084,1.64042,0,0,0,0,0,8.286,1.3123688084,1.312336,0,0,0,0,0,38.4, 1.1, -0.3,0,0,1024,1024,1024,1024,0,0,0,0,38.4,0,0,90,4.146,4.138,0,0,0,0,4.128,84.56,0.9842848084,0.984252,6,P-GPS,
193700,2022-08-30 05:07:39,0,0,0.984252,,,0.9842848084,1.64042,0,0,0,0,0,8.286,1.3123688084,1.312336,0,0,0,0,0,38.3, 1.1, -0.1,0,0,1024,1024,1024,1024,0,0,0,0,38.4,0,0,90,4.146,4.138,0,0,0,0,4.128,84.56,0.9842848084,0.984252,6,P-GPS,
193800,2022-08-30 05:07:39,0,0,0.984252,,,0.9842848084,1.64042,0,0,0,0,0,8.286,1.3123688084,1.312336,0,0,0,0,0,38.3, 1, 0,0,0,1024,950,1024,1024,0,-11,0,0,38.4,0,0,90,4.146,4.138,0,0,0,0,4.128,84.56,0.9842848084,0.984252,6,P-GPS,
193900,2022-08-30 05:07:39,0,0,0.984252,,,0.9842848084,1.64042,0,0,0,0,0,8.281,1.3123688084,1.312336,0,0,0,0,0,38.3, 0.8, 0,0,0,1024,945,1024,1024,0,-12,0,0,38.4,0,0,89,4.144,4.135,0,0,0,0,4.144,84.74,0.9842848084,0.984252,6,P-GPS,
194000,2022-08-30 05:07:39,0,0,0.984252,,,0.9842848084,1.64042,0,0,0,0,0,8.281,1.3123688084,1.312336,0,0,0,0,0,38.3, 0.5, -0.4,0,0,1024,945,1024,1024,0,-12,0,0,38.4,0,0,89,4.144,4.135,0,0,0,0,4.144,84.74,0.9842848084,0.984252,6,P-GPS,
194100,2022-08-30 05:07:39,0,0,0.984252,,,0.9842848084,1.64042,0,0,0,0,0,8.281,1.3123688084,1.312336,0,0,0,0,0,38.3, 0.2, -0.8,0,0,1024,950,1024,1024,0,-11,0,0,38.4,0,0,89,4.144,4.135,0,0,0,0,4.144,84.74,0.9842848084,0.984252,6,P-GPS,
194200,2022-08-30 05:07:40,0,0,0.984252,,,0.9842848084,1.64042,0,0,0,0,0,8.281,1.3123688084,1.312336,0,0,0,0,0,38.3, 0.2, -0.8,0,0,1024,952,1024,1024,0,-11,0,0,38.4,0,0,89,4.144,4.135,0,0,0,0,4.144,84.74,0.9842848084,0.984252,6,P-GPS,
194300,2022-08-30 05:07:40,0,0,0.984252,,,0.9842848084,1.64042,0,0,0,0,0,8.281,1.3123688084,1.312336,0,0,0,0,0,38.4, 0.2, -0.5,0,0,1024,958,1024,1024,0,-10,0,0,38.4,0,0,89,4.144,4.135,0,0,0,0,4.144,84.74,0.9842848084,0.984252,6,P-GPS,
194400,2022-08-30 05:07:40,0,0,0.984252,,,0.9842848084,1.64042,0,0,0,0,0,8.281,1.3123688084,1.312336,0,0,0,0,0,38.3, 0.1, -0.5,0,0,1024,1001,1024,1024,0,-3,0,0,38.4,0,0,89,4.144,4.135,0,0,0,0,4.144,84.74,0.9842848084,0.984252,6,P-GPS,
194500,2022-08-30 05:07:40,0,0,0.984252,,,0.9842848084,1.64042,0,0,0,0,0,8.281,1.3123688084,1.312336,0,0,0,0,0,38.3, 0.1, -0.3,0,0,1091,1024,1024,1024,10,0,0,0,38.4,0,0,89,4.144,4.135,0,0,0,0,4.144,84.74,0.9842848084,0.984252,6,P-GPS,
194600,2022-08-30 05:07:40,0,0,0.984252,,,0.9842848084,1.64042,0,0,0,0,0,8.281,1.3123688084,1.312336,0,0,0,0,0,38.3, 0.1, 0.4,0,0,1181,1024,1024,1024,24,0,0,0,38.4,0,0,89,4.144,4.135,0,0,0,0,4.144,84.74,0.9842848084,0.984252,6,P-GPS,
194700,2022-08-30 05:07:40,0,0,0.984252,,,0.9842848084,1.64042,0,0,0,0,0,8.281,1.3123688084,1.312336,0,0,0,0,0,38.3, -0.2, 0.6,0,0,1181,1024,1024,1024,24,0,0,0,38.4,0,0,89,4.144,4.135,0,0,0,0,4.144,84.74,0.9842848084,0.984252,6,P-GPS,
194800,2022-08-30 05:07:40,0,0,1.312336,,,1.3123688084,1.64042,0,0,0,0,0,8.281,1.3123688084,1.312336,0,0,0,0,0,38.3, -1.6, 0.3,0,0,1181,1024,1024,1024,24,0,0,0,38.4,0,0,89,4.144,4.135,0,0,0,0,4.144,84.74,1.3123688084,1.312336,6,P-GPS,
194900,2022-08-30 05:07:40,0,0,1.312336,,,1.3123688084,1.64042,0,0,0,0,0,8.279,1.3123688084,1.312336,0,0,0,0,0,38.3, -2, 0.2,0,0,1123,1024,1024,1024,15,0,0,0,38.4,0,0,89,4.143,4.135,0,0,0,0,4.153,84.74,1.3123688084,1.312336,6,P-GPS,
195000,2022-08-30 05:07:40,0,0,1.312336,,,1.3123688084,1.64042,0,0,0,0,0,8.279,1.3123688084,1.312336,0,0,0,0,0,38.3, -1.5, 0.1,0,0,1045,1024,1024,1024,3,0,0,0,38.4,0,0,89,4.143,4.135,0,0,0,0,4.153,84.74,1.3123688084,1.312336,6,P-GPS,
195100,2022-08-30 05:07:40,0,0,1.312336,,,1.3123688084,1.64042,0,0,0,0,0,8.279,1.3123688084,1.312336,0,0,0,0,0,38.3, -0.4, 0,0,0,1024,1024,1024,1024,0,0,0,0,38.4,0,0,89,4.143,4.135,0,0,0,0,4.153,84.74,1.3123688084,1.312336,6,P-GPS,
195200,2022-08-30 05:07:40,0,0,1.312336,,,1.3123688084,1.64042,0,0,0,0,0,8.279,1.3123688084,1.312336,0,0,0,0,0,38.3, 1.1, 0.1,0,0,1024,1024,1024,1024,0,0,0,0,38.4,0,0,89,4.143,4.135,0,0,0,0,4.153,84.74,1.3123688084,1.312336,6,P-GPS,
195300,2022-08-30 05:07:41,0,0,1.312336,,,1.3123688084,1.64042,0,0,0,0,0,8.279,1.3123688084,1.312336,0,0,0,0,0,38.3, 1.2, 0.2,0,0,1025,1024,1024,1024,0,0,0,0,38.4,0,0,89,4.143,4.135,0,0,0,0,4.153,84.74,1.3123688084,1.312336,6,P-GPS,
195400,2022-08-30 05:07:41,0,0,1.312336,,,1.3123688084,1.64042,0,0,0,0,0,8.279,1.3123688084,1.312336,0,0,0,0,0,38.3, 1.1, 0.2,0,0,1139,1024,1024,1024,17,0,0,0,38.4,0,0,89,4.143,4.135,0,0,0,0,4.153,84.74,1.3123688084,1.312336,6,P-GPS,
195500,2022-08-30 05:07:41,0,0,1.312336,,,1.3123688084,1.64042,0,0,0,0,0,8.279,1.3123688084,1.312336,0,0,0,0,0,38.3, 0.8, 0.4,0,0,1169,1024,1024,1024,22,0,0,0,38.4,0,0,89,4.143,4.135,0,0,0,0,4.153,84.74,1.3123688084,1.312336,6,P-GPS,
195600,2022-08-30 05:07:41,0,0,1.312336,,,1.3123688084,1.64042,0,0,0,0,0,8.279,1.3123688084,1.312336,0,0,0,0,0,38.3, -0.3, 0.1,0,0,1167,1024,1024,1024,22,0,0,0,38.4,0,0,89,4.143,4.135,0,0,0,0,4.153,84.74,1.3123688084,1.312336,6,P-GPS,
195700,2022-08-30 05:07:41,0,0,1.312336,,,1.3123688084,1.64042,0,0,0,0,0,8.279,1.3123688084,1.312336,0,0,0,0,0,38.3, -1.3, 0,0,0,1167,1024,1024,1024,22,0,0,0,38.4,0,0,89,4.143,4.135,0,0,0,0,4.153,84.74,1.3123688084,1.312336,6,P-GPS,
195800,2022-08-30 05:07:41,0,0,1.312336,,,1.3123688084,1.64042,0,0,0,0,0,8.279,1.3123688084,1.312336,0,0,0,0,0,38.3, -1.7, -0.1,0,0,1165,1024,1024,1024,21,0,0,0,38.4,0,0,89,4.143,4.135,0,0,0,0,4.153,84.74,1.3123688084,1.312336,6,P-GPS,
195900,2022-08-30 05:07:41,0,0,0.984252,,,0.9842848084,1.64042,0,0,0,0,0,8.277,1.3123688084,1.312336,0,0,0,0,0,38.4, -1.5, -0.1,0,0,1156,1024,1024,1024,20,0,0,0,38.4,0,0,89,4.141,4.132,0,0,0,0,4.132,84.74,0.9842848084,0.984252,6,P-GPS,
196000,2022-08-30 05:07:41,0,0,1.312336,,,1.3123688084,1.64042,0,0,0,0,0,8.277,1.3123688084,1.312336,0,0,0,0,0,38.4, -1.4, 0,0,0,1160,1024,1024,1024,21,0,0,0,38.4,0,0,89,4.141,4.132,0,0,0,0,4.132,84.74,1.3123688084,1.312336,6,P-GPS,
196100,2022-08-30 05:07:41,0,0,1.312336,,,1.3123688084,1.64042,0.223694,0,0,0,0,8.277,1.3123688084,1.312336,0,0,0.223694,0,0,38.4, -1.1, 0,0,0,1158,1024,1024,1024,20,0,0,0,38.4,0,0,89,4.141,4.132,0,0,0,0,4.132,84.74,1.3123688084,1.312336,6,P-GPS,
196200,2022-08-30 05:07:41,0,0,1.312336,,,1.3123688084,1.64042,0.223694,0,0,0,0,8.277,1.3123688084,1.312336,0,0,0.223694,0,0,38.4, -1.3, 0,0,0,1142,1024,1024,1024,18,0,0,0,38.4,0,0,89,4.141,4.132,0,0,0,0,4.132,84.74,1.3123688084,1.312336,6,P-GPS,
196300,2022-08-30 05:07:42,0,0,1.312336,,,1.3123688084,1.64042,0.223694,0,0,0,0,8.277,1.3123688084,1.312336,0,0,0.223694,0,0,38.5, -1.2, 0.1,0,0,1091,1024,1024,1024,10,0,0,0,38.4,0,0,89,4.141,4.132,0,0,0,0,4.132,84.74,1.3123688084,1.312336,6,P-GPS,
196400,2022-08-30 05:07:42,0,0,1.312336,,,1.3123688084,1.64042,0.3131716,0,0,0,0,8.277,1.3123688084,1.312336,0,0,0.223694,0.223694,0,38.5, -1, 0.2,0,0,1041,1024,1024,1024,3,0,0,0,38.4,0,0,89,4.141,4.132,0,0,0,0,4.132,84.74,1.3123688084,1.312336,6,P-GPS,
196500,2022-08-30 05:07:42,0,0,1.312336,,,1.3123688084,1.64042,0.3131716,0,0,0,0,8.277,1.3123688084,1.312336,0,0,0.223694,0.223694,0,38.5, -0.4, 0.1,0,0,1041,1024,1024,1024,3,0,0,0,38.4,0,0,89,4.141,4.132,0,0,0,0,4.132,84.74,1.3123688084,1.312336,6,P-GPS,
196600,2022-08-30 05:07:42,0,0,1.312336,,,1.3123688084,1.64042,0.3131716,0,0,0,0,8.277,1.3123688084,1.312336,0,0,0.223694,0.223694,0,38.5, 0.5, 0.2,0,0,1024,1024,1080,1024,0,0,8,0,38.4,0,0,89,4.141,4.132,0,0,0,0,4.132,84.74,1.3123688084,1.312336,6,P-GPS,
196700,2022-08-30 05:07:42,0,0,1.312336,,,1.3123688084,1.64042,0.3131716,0,0,0,0,8.277,1.3123688084,1.312336,0,0,0.223694,0.223694,0,38.4, 1.9, 0,0,0,1024,1024,1458,1024,0,0,66,0,38.4,0,0,89,4.141,4.132,0,0,0,0,4.132,84.74,1.3123688084,1.312336,6,P-GPS,
196800,2022-08-30 05:07:42,0,0,1.312336,,,1.3123688084,1.64042,0,0,0,0,0,8.277,1.3123688084,1.312336,0,0,0,0,-0.223694,38.5, 1.9, 0.2,0,0,1024,1024,1404,1024,0,0,58,0,38.4,0,0,89,4.141,4.132,0,0,0,0,4.132,84.74,1.3123688084,1.312336,6,P-GPS,
196900,2022-08-30 05:07:42,0,0,1.312336,,,1.3123688084,1.64042,0,0,0,0,0,8.274,1.3123688084,1.312336,0,0,0,0,-0.894776,38.4, 1.2, -0.1,0,0,1024,1024,1024,1024,0,0,0,0,38.4,0,0,89,4.143,4.133,0,0,0,0,4.143,84.74,1.3123688084,1.312336,6,P-GPS,
197000,2022-08-30 05:07:42,0,0,1.64042,,,1.6404528084,1.968504,0,0,0,0,0,8.274,1.6404528084,1.64042,0,0,0,0,-1.11847,38.3, 0.7, -0.4,0,0,1024,1024,1024,1024,0,0,0,0,38.4,0,0,89,4.143,4.133,0,0,0,0,4.143,84.74,1.6404528084,1.64042,6,P-GPS,
197100,2022-08-30 05:07:42,0,0,1.64042,,,1.6404528084,1.968504,0,0,0,0,0,8.274,1.6404528084,1.64042,0,0,0,0,-0.671082,38.4, 1.7, -0.1,0,0,1024,1024,1105,1024,0,0,12,0,38.4,0,0,89,4.143,4.133,0,0,0,0,4.143,84.74,1.6404528084,1.64042,6,P-GPS,
197200,2022-08-30 05:07:42,0,0,1.64042,,,1.6404528084,2.296588,0,0,0,0,0,8.274,1.6404528084,1.64042,0,0,0,0,-0.447388,38.4, 1.3, 0.1,0,0,1024,1024,1274,1024,0,0,38,0,38.4,0,0,89,4.143,4.133,0,0,0,0,4.143,84.74,1.6404528084,1.64042,6,P-GPS,
197300,2022-08-30 05:07:43,0,0,1.64042,,,1.6404528084,2.296588,0,0,0,0,0,8.274,1.6404528084,1.64042,0,0,0,0,-0.223694,38.5, 0.7, 0.4,0,0,1024,1024,1106,1024,0,0,12,0,38.4,0,0,89,4.143,4.133,0,0,0,0,4.143,84.74,1.6404528084,1.64042,6,P-GPS,
197400,2022-08-30 05:07:43,0,0,1.968504,,,1.9685368084,2.296588,0,0,0,0,0,8.274,1.9685368084,1.968504,0,0,0,0,-0.671082,38.4, 0.2, 0.2,0,0,1024,1024,1106,1024,0,0,12,0,38.4,0,0,89,4.143,4.133,0,0,0,0,4.143,84.74,1.9685368084,1.968504,6,P-GPS,
197500,2022-08-30 05:07:43,0,0,1.968504,,,1.9685368084,2.624672,0,0,0,0,0,8.274,1.9685368084,1.968504,0,0,0,0,-0.894776,38.3, 0, 0.3,0,0,1024,1024,1024,1024,0,0,0,0,38.4,0,0,89,4.143,4.133,0,0,0,0,4.143,84.74,1.9685368084,1.968504,6,P-GPS,
197600,2022-08-30 05:07:43,0,0,1.968504,,,1.9685368084,2.624672,0,0,0,0,0,8.274,1.9685368084,1.968504,0,0,0,0,-0.447388,38.4, 0.2, 0.5,0,0,1024,1024,1024,1024,0,0,0,0,38.4,0,0,89,4.143,4.133,0,0,0,0,4.143,84.74,1.9685368084,1.968504,6,P-GPS,
197700,2022-08-30 05:07:43,0,0,1.968504,,,1.9685368084,2.624672,0,0,0,0,0,8.274,1.9685368084,1.968504,0,0,0,0,-0.223694,38.4, 0, 0.5,0,0,1024,1024,1024,1024,0,0,0,0,38.4,0,0,89,4.143,4.133,0,0,0,0,4.143,84.74,1.9685368084,1.968504,6,P-GPS,
197800,2022-08-30 05:07:43,0,0,2.296588,,,2.2966208084,2.624672,0,0,0,0,0,8.274,2.2966208084,2.296588,0,0,0,0,-0.223694,38.3, 0, 0.3,0,0,1024,1024,1024,1024,0,0,0,0,38.4,0,0,89,4.143,4.133,0,0,0,0,4.143,84.74,2.2966208084,2.296588,6,P-GPS,
197900,2022-08-30 05:07:43,0,0,2.296588,,,2.2966208084,2.624672,0,0,0,0,0,8.274,2.2966208084,2.296588,0,0,0,0,0,38.3, -0.1, 0.1,0,0,1024,1024,1024,1024,0,0,0,0,38.4,0,0,89,4.143,4.133,0,0,0,0,4.143,84.74,2.2966208084,2.296588,6,P-GPS,
198000,2022-08-30 05:07:43,0,0,2.296588,,,2.2966208084,2.624672,0,0,0,0,0,8.275,2.2966208084,2.296588,0,0,0,0,0,38.4, -0.1, 0,0,0,1024,1024,1024,1024,0,0,0,0,38.4,0,0,89,4.157,4.126,0,0,0,0,4.295,84.74,2.2966208084,2.296588,6,P-GPS,
198100,2022-08-30 05:07:43,0,0,2.296588,,,2.2966208084,2.624672,0,0,0,0,0,8.275,2.2966208084,2.296588,0,0,0,0,0,38.3, 0, -0.2,0,0,1024,1024,1024,1024,0,0,0,0,38.4,0,0,89,4.157,4.126,0,0,0,0,4.295,84.74,2.2966208084,2.296588,6,P-GPS,
198200,2022-08-30 05:07:44,0,0,2.296588,,,2.2966208084,2.624672,0,0,0,0,0,8.275,2.2966208084,2.296588,0,0,0,0,0,38.3, -0.1, -0.1,0,0,1024,1024,1024,1024,0,0,0,0,38.4,0,0,89,4.157,4.126,0,0,0,0,4.295,84.74,2.2966208084,2.296588,6,P-GPS,
198300,2022-08-30 05:07:44,0,0,2.296588,,,2.2966208084,2.624672,0,0,0,0,0,8.275,2.2966208084,2.296588,0,0,0,0,0,38.3, -0.1, 0,0,0,1024,1024,1024,1024,0,0,0,0,38.4,0,0,89,4.157,4.126,0,0,0,0,4.295,84.74,2.2966208084,2.296588,6,P-GPS,
198400,2022-08-30 05:07:44,0,0,2.296588,,,2.2966208084,2.624672,0,0,0,0,0,8.275,2.2966208084,2.296588,0,0,0,0,0,38.3, 0, 0.1,0,0,1024,1024,1024,1024,0,0,0,0,38.4,0,0,89,4.157,4.126,0,0,0,0,4.295,84.74,2.2966208084,2.296588,6,P-GPS,
198500,2022-08-30 05:07:44,0,0,2.296588,,,2.2966208084,2.624672,0,0,0,0,0,8.275,2.2966208084,2.296588,0,0,0,0,0,38.3, 0.1, 0.1,0,0,1024,1024,1024,1024,0,0,0,0,38.4,0,0,89,4.157,4.126,0,0,0,0,4.295,84.74,2.2966208084,2.296588,6,P-GPS,
198600,2022-08-30 05:07:44,0,0,1.968504,,,1.9685368084,2.624672,0,0,0,0,0,8.275,2.2966208084,2.296588,0,0,0,0,0,38.3, 0.2, 0.2,0,0,1024,1024,1024,1024,0,0,0,0,38.4,0,0,89,4.157,4.126,0,0,0,0,4.295,84.74,1.9685368084,1.968504,6,P-GPS,
198700,2022-08-30 05:07:44,0,0,1.968504,,,1.9685368084,2.624672,0,0,0,0,0,8.275,2.2966208084,2.296588,0,0,0,0,0,38.3, 0, 0.2,0,0,1024,1024,1024,1024,0,0,0,0,38.4,0,0,89,4.157,4.126,0,0,0,0,4.295,84.74,1.9685368084,1.968504,6,P-GPS,
198800,2022-08-30 05:07:44,0,0,1.968504,,,1.9685368084,2.624672,0,0,0,0,0,8.275,2.2966208084,2.296588,0,0,0,0,0,38.3, 0.1, 0.1,0,0,1024,1024,1024,991,0,0,0,-5,38.4,0,0,89,4.157,4.126,0,0,0,0,4.295,84.74,1.9685368084,1.968504,6,P-GPS,
198900,2022-08-30 05:07:44,0,0,1.968504,,,1.9685368084,2.624672,0,0,0,0,0,8.275,2.2966208084,2.296588,0,0,0,0,0,38.3, 0, 0.1,0,0,1024,1024,1024,649,0,0,0,-57,38.4,0,0,89,4.157,4.126,0,0,0,0,4.295,84.74,1.9685368084,1.968504,6,P-GPS,
199000,2022-08-30 05:07:44,0,0,1.968504,,,1.9685368084,2.624672,0,0,0,0,0,8.272,2.2966208084,2.296588,0,0,0,0,0,38.3, 0, 0.1,0,0,1024,1024,1024,555,0,0,0,-71,38.1,0,0,89,4.138,4.129,0,0,0,0,4.163,84.92,1.9685368084,1.968504,6,P-GPS,
199100,2022-08-30 05:07:44,0,0,1.968504,,,1.9685368084,2.624672,0,0,0,0,0,8.272,2.2966208084,2.296588,0,0,0,0,0,37.6, 0, 0.1,0,0,1024,1024,1024,533,0,0,0,-74,36.6,0,0,89,4.138,4.129,0,0,0,0,4.163,84.92,1.9685368084,1.968504,6,P-GPS,
199200,2022-08-30 05:07:44,0,0,2.296588,,,2.2966208084,2.624672,0,0,0,0,0,8.272,2.2966208084,2.296588,0,0,0,0,0,35.7, 0.1, 0,0,0,1024,1024,1024,516,0,0,0,-77,34.2,0,0,89,4.138,4.129,0,0,0,0,4.163,84.92,2.2966208084,2.296588,6,P-GPS,
199300,2022-08-30 05:07:45,0,0,2.296588,,,2.2966208084,2.624672,0,0,0,0,0,8.272,2.2966208084,2.296588,0,0,0,0,0,33.2, 0.1, 0,0,0,1024,1024,1024,505,0,0,0,-79,31.5,0,0,89,4.138,4.129,0,0,0,0,4.163,84.92,2.2966208084,2.296588,6,P-GPS,
199400,2022-08-30 05:07:45,0,0,2.296588,,,2.2966208084,2.624672,0,0,0,0,0,8.272,2.2966208084,2.296588,0,0,0,0,0,30.5, 0.1, 0,0,0,1024,1024,1024,505,0,0,0,-79,28.6,0,0,89,4.138,4.129,0,0,0,0,4.163,84.92,2.2966208084,2.296588,6,P-GPS,
199500,2022-08-30 05:07:45,0,0,2.296588,,,2.2966208084,2.624672,0,0,0,0,0,8.272,2.2966208084,2.296588,0,0,0,0,0,27.6, 0.2, 0,0,0,1024,1024,1024,478,0,0,0,-83,25.6,0,0,89,4.138,4.129,0,0,0,0,4.163,84.92,2.2966208084,2.296588,6,P-GPS,
199600,2022-08-30 05:07:45,0,0,2.296588,,,2.2966208084,2.624672,0,0,0,0,0,8.272,2.2966208084,2.296588,0,0,0,0,0,24.5, 0, 0,0,0,1024,1024,1024,380,0,0,0,-98,22.3,0,0,89,4.138,4.129,0,0,0,0,4.163,84.92,2.2966208084,2.296588,6,P-GPS,
199700,2022-08-30 05:07:45,0,0,2.296588,,,2.2966208084,2.624672,0,0,0,0,0,8.272,2.2966208084,2.296588,0,0,0,0,0,21.1, 0, 0,0,0,1024,1024,1024,364,0,0,0,-100,18.6,0,0,89,4.138,4.129,0,0,0,0,4.163,84.92,2.2966208084,2.296588,6,P-GPS,
199800,2022-08-30 05:07:45,0,0,2.296588,,,2.2966208084,2.624672,0,0,0,0,0,8.272,2.2966208084,2.296588,0,0,0,0,0,17.1, 0, 0,0,0,1024,1024,1024,364,0,0,0,-100,14.1,0,0,89,4.138,4.129,0,0,0,0,4.163,84.92,2.2966208084,2.296588,6,P-GPS,
199900,2022-08-30 05:07:45,0,0,2.296588,,,2.2966208084,2.624672,0,0,0,0,0,8.272,2.2966208084,2.296588,0,0,0,0,0,12.5, 0, 0,0,0,1024,1024,1024,364,0,0,0,-100,9.3,0,0,89,4.138,4.129,0,0,0,0,4.163,84.92,2.2966208084,2.296588,6,P-GPS,
200000,2022-08-30 05:07:45,0,0,1.968504,,,1.9685368084,2.624672,0,0,0,0,0,8.266,2.2966208084,2.296588,0,0,0,0,0,7.7, 0, -0.1,0,0,1024,1024,1024,364,0,0,0,-100,4.6,0,0,89,4.137,4.129,0,0,0,0,4.154,84.92,1.9685368084,1.968504,6,P-GPS,
200100,2022-08-30 05:07:45,0,0,1.968504,,,1.9685368084,2.624672,0,0,0,0,0,8.266,2.2966208084,2.296588,0,0,0,0,0,3, 0, 0,0,0,1024,1024,1024,364,0,0,0,-100,359.8,0,0,89,4.137,4.129,0,0,0,0,4.154,84.92,1.9685368084,1.968504,6,P-GPS,
200200,2022-08-30 05:07:45,0,0,1.968504,,,1.9685368084,2.624672,0,0,0,0,0,8.266,2.2966208084,2.296588,0,0,0,0,0,358.3, 0.1, 0.1,0,0,1024,1024,1024,364,0,0,0,-100,355,0,0,89,4.137,4.129,0,0,0,0,4.154,84.92,1.9685368084,1.968504,6,P-GPS,
200300,2022-08-30 05:07:46,0,0,1.968504,,,1.9685368084,2.624672,0,0,0,0,0,8.266,2.2966208084,2.296588,0,0,0,0,0,353.5, 0, 0,0,0,1024,1024,1024,364,0,0,0,-100,350.2,0,0,89,4.137,4.129,0,0,0,0,4.154,84.92,1.9685368084,1.968504,6,P-GPS,
200400,2022-08-30 05:07:46,0,0,1.968504,,,1.9685368084,2.624672,0,0,0,0,0,8.266,2.2966208084,2.296588,0,0,0,0,0,348.7, 0, -0.1,0,0,1024,1024,1024,364,0,0,0,-100,345.4,0,0,89,4.137,4.129,0,0,0,0,4.154,84.92,1.9685368084,1.968504,6,P-GPS,
200500,2022-08-30 05:07:46,0,0,1.968504,,,1.9685368084,2.624672,0,0,0,0,0,8.266,2.2966208084,2.296588,0,0,0,0,0,343.9, 0, -0.1,0,0,1024,1024,1024,364,0,0,0,-100,340.6,0,0,89,4.137,4.129,0,0,0,0,4.154,84.92,1.9685368084,1.968504,6,P-GPS,
200600,2022-08-30 05:07:46,0,0,1.968504,,,1.9685368084,2.624672,0,0,0,0,0,8.266,2.2966208084,2.296588,0,0,0,0,0,339.2, 0, 0,0,0,1024,1024,1024,364,0,0,0,-100,335.8,0,0,89,4.137,4.129,0,0,0,0,4.154,84.92,1.9685368084,1.968504,6,P-GPS,
200700,2022-08-30 05:07:46,0,0,1.968504,,,1.9685368084,2.624672,0,0,0,0,0,8.266,2.2966208084,2.296588,0,0,0,0,0,334.4, 0, 0.1,0,0,1024,1024,1024,364,0,0,0,-100,331,0,0,89,4.137,4.129,0,0,0,0,4.154,84.92,1.9685368084,1.968504,6,P-GPS,
200800,2022-08-30 05:07:46,0,0,1.968504,,,1.9685368084,2.624672,0,0,0,0,0,8.266,2.2966208084,2.296588,0,0,0,0,0,329.6, 0.1, 0.2,0,0,1024,1024,1024,364,0,0,0,-100,326.2,0,0,89,4.137,4.129,0,0,0,0,4.154,84.92,1.9685368084,1.968504,6,P-GPS,
200900,2022-08-30 05:07:46,0,0,1.968504,,,1.9685368084,2.624672,0,0,0,0,0,8.266,2.2966208084,2.296588,0,0,0,0,0,324.8, 0.1, 0.1,0,0,1024,1024,1024,364,0,0,0,-100,321.4,0,0,89,4.137,4.129,0,0,0,0,4.154,84.92,1.9685368084,1.968504,6,P-GPS,
201000,2022-08-30 05:07:46,0,0,1.968504,,,1.9685368084,2.624672,0,0,0,0,0,8.265,2.2966208084,2.296588,0,0,0,0,0,320, 0.1, 0.2,0,0,1024,1024,1024,364,0,0,0,-100,316.6,0,0,89,4.136,4.127,0,0,0,0,4.123,84.92,1.9685368084,1.968504,6,P-GPS,
201100,2022-08-30 05:07:46,0,0,1.968504,,,1.9685368084,2.624672,0,0,0,0,0,8.265,2.2966208084,2.296588,0,0,0,0,0,315.2, 0.1, 0.2,0,0,1024,1024,1024,364,0,0,0,-100,311.8,0,0,89,4.136,4.127,0,0,0,0,4.123,84.92,1.9685368084,1.968504,6,P-GPS,
201200,2022-08-30 05:07:46,0,0,1.968504,,,1.9685368084,2.624672,0,0,0,0,0,8.265,2.2966208084,2.296588,0,0,0,0,0,310.4, 0.2, 0.2,0,0,1024,1024,1024,364,0,0,0,-100,307,0,0,89,4.136,4.127,0,0,0,0,4.123,84.92,1.9685368084,1.968504,6,P-GPS,
201300,2022-08-30 05:07:47,0,0,1.968504,,,1.9685368084,2.624672,0,0,0,0,0,8.265,2.2966208084,2.296588,0,0,0,0,0,305.6, 0.1, 0.1,0,0,1024,1024,1024,364,0,0,0,-100,302.2,0,0,89,4.136,4.127,0,0,0,0,4.123,84.92,1.9685368084,1.968504,6,P-GPS,
201400,2022-08-30 05:07:47,0,0,1.968504,,,1.9685368084,2.624672,0,0,0,0,0,8.265,2.2966208084,2.296588,0,0,0,0,0,300.8, 0.1, 0,0,0,1024,1024,1024,364,0,0,0,-100,297.4,0,0,89,4.136,4.127,0,0,0,0,4.123,84.92,1.9685368084,1.968504,6,P-GPS,
201500,2022-08-30 05:07:47,0,0,1.968504,,,1.9685368084,2.624672,0,0,0,0,0,8.265,2.2966208084,2.296588,0,0,0,0,0,296, 0.1, 0.1,0,0,1024,1024,1024,364,0,0,0,-100,292.6,0,0,89,4.136,4.127,0,0,0,0,4.123,84.92,1.9685368084,1.968504,6,P-GPS,
201600,2022-08-30 05:07:47,0,0,1.968504,,,1.9685368084,2.624672,0,0,0,0,0,8.265,2.2966208084,2.296588,0,0,0,0,0,291.2, 0.1, 0.1,0,0,1024,1024,1024,364,0,0,0,-100,287.8,0,0,89,4.136,4.127,0,0,0,0,4.123,84.92,1.9685368084,1.968504,6,P-GPS,
201700,2022-08-30 05:07:47,0,0,1.968504,,,1.9685368084,2.624672,0,0,0,0,0,8.265,2.2966208084,2.296588,0,0,0,0,0,286.4, 0.1, 0.1,0,0,1024,1024,1024,364,0,0,0,-100,283,0,0,89,4.136,4.127,0,0,0,0,4.123,84.92,1.9685368084,1.968504,6,P-GPS,
201800,2022-08-30 05:07:47,0,0,1.968504,,,1.9685368084,2.624672,0,0,0,0,0,8.265,2.2966208084,2.296588,0,0,0,0,0,281.6, 0.1, 0.1,0,0,1024,1024,1024,364,0,0,0,-100,278.2,0,0,89,4.136,4.127,0,0,0,0,4.123,84.92,1.9685368084,1.968504,6,P-GPS,
201900,2022-08-30 05:07:47,0,0,1.968504,,,1.9685368084,2.624672,0,0,0,0,0,8.265,2.2966208084,2.296588,0,0,0,0,0,276.8, 0.3, 0.2,0,0,1024,1024,1024,364,0,0,0,-100,273.4,0,0,89,4.136,4.127,0,0,0,0,4.123,84.92,1.9685368084,1.968504,6,P-GPS,
202000,2022-08-30 05:07:47,0,0,2.296588,,,2.2966208084,2.624672,0,0,0,0,0,8.263,2.2966208084,2.296588,0,0,0,0,0,272, 0.3, 0.4,0,0,1024,1024,1024,364,0,0,0,-100,268.6,0,0,89,4.137,4.128,0,0,0,0,4.145,85.1,2.2966208084,2.296588,6,P-GPS,
202100,2022-08-30 05:07:47,0,0,2.296588,,,2.2966208084,2.624672,0,0,0,0,0,8.263,2.2966208084,2.296588,0,0,0,0,0,267.2, 0.3, 0.3,0,0,1024,1024,1024,364,0,0,0,-100,263.8,0,0,89,4.137,4.128,0,0,0,0,4.145,85.1,2.2966208084,2.296588,6,P-GPS,
202200,2022-08-30 05:07:48,0,0,2.296588,,,2.2966208084,2.624672,0,0,0,0,0,8.263,2.2966208084,2.296588,0,0,0,0,0,262.5, 0.3, 0.3,0,0,1024,1024,1024,364,0,0,0,-100,259,0,0,89,4.137,4.128,0,0,0,0,4.145,85.1,2.2966208084,2.296588,6,P-GPS,
202300,2022-08-30 05:07:48,0,0,2.296588,,,2.2966208084,2.624672,0,0,0,0,0,8.263,2.2966208084,2.296588,0,0,0,0,0,257.7, 0.4, 0.4,0,0,1024,1024,1024,364,0,0,0,-100,254.2,0,0,89,4.137,4.128,0,0,0,0,4.145,85.1,2.2966208084,2.296588,6,P-GPS,
202400,2022-08-30 05:07:48,0,0,2.296588,,,2.2966208084,2.624672,0,0,0,0,0,8.263,2.2966208084,2.296588,0,0,0,0,0,252.8, 0.4, 0.4,0,0,1024,1024,1024,364,0,0,0,-100,249.4,0,0,89,4.137,4.128,0,0,0,0,4.145,85.1,2.2966208084,2.296588,6,P-GPS,
202500,2022-08-30 05:07:48,0,0,2.296588,,,2.2966208084,2.624672,0,0,0,0,0,8.263,2.2966208084,2.296588,0,0,0,0,0,248, 0.4, 0.4,0,0,1024,1024,1024,364,0,0,0,-100,244.6,0,0,89,4.137,4.128,0,0,0,0,4.145,85.1,2.2966208084,2.296588,6,P-GPS,
202600,2022-08-30 05:07:48,0,0,2.296588,,,2.2966208084,2.624672,0,0,0,0,0,8.263,2.2966208084,2.296588,0,0,0,0,0,243.2, 0.4, 0.4,0,0,1024,1024,1024,1024,0,0,0,0,239.8,0,0,89,4.137,4.128,0,0,0,0,4.145,85.1,2.2966208084,2.296588,6,P-GPS,
202700,2022-08-30 05:07:48,0,0,2.296588,,,2.2966208084,2.624672,0,0,0,0,0,8.263,2.2966208084,2.296588,0,0,0,0,0,238.4, 0.2, 0.3,0,0,1024,1024,1024,1024,0,0,0,0,235,0,0,89,4.137,4.128,0,0,0,0,4.145,85.1,2.2966208084,2.296588,6,P-GPS,
202800,2022-08-30 05:07:48,0,0,2.296588,,,2.2966208084,2.624672,0,0,0,0,0,8.263,2.2966208084,2.296588,0,0,0,0,0,233.9, 0.1, 0.2,0,0,1029,1024,1024,1024,1,0,0,0,231.7,0,0,89,4.137,4.128,0,0,0,0,4.145,85.1,2.2966208084,2.296588,6,P-GPS,
202900,2022-08-30 05:07:48,0,0,2.296588,,,2.2966208084,2.624672,0,0,0,0,0,8.263,2.2966208084,2.296588,0,0,0,0,0,231.5, 0.2, 0,0,0,1056,1024,1024,1024,5,0,0,0,230.2,0,0,89,4.137,4.128,0,0,0,0,4.145,85.1,2.2966208084,2.296588,6,P-GPS,
203000,2022-08-30 05:07:48,0,0,2.296588,,,2.2966208084,2.624672,0,0,0,0,0,8.263,2.2966208084,2.296588,0,0,0,0,0,230.4, 0, 0.1,0,0,1024,1024,1024,1024,0,0,0,0,229.9,0,0,89,4.137,4.128,0,0,0,0,4.145,85.1,2.2966208084,2.296588,6,P-GPS,
203100,2022-08-30 05:07:48,0,0,2.296588,,,2.2966208084,2.624672,0,0,0,0,0,8.261,2.2966208084,2.296588,0,0,0,0,0,230.2, 0, 0.2,0,0,1024,1024,1024,1024,0,0,0,0,229.9,0,0,89,4.134,4.125,0,0,0,0,4.145,85.1,2.2966208084,2.296588,6,P-GPS,
203200,2022-08-30 05:07:48,0,0,1.968504,,,1.9685368084,2.624672,0,0,0,0,0,8.261,2.2966208084,2.296588,0,0,0,0,0,230.1, 0, 0.1,0,0,1051,1024,1024,1024,4,0,0,0,229.9,0,0,89,4.134,4.125,0,0,0,0,4.145,85.1,1.9685368084,1.968504,6,P-GPS,
203300,2022-08-30 05:07:49,0,0,1.968504,,,1.9685368084,2.624672,0,0,0,0,0,8.261,2.2966208084,2.296588,0,0,0,0,0,230, -0.1, 0,0,0,1078,1024,1024,1024,8,0,0,0,229.9,0,0,89,4.134,4.125,0,0,0,0,4.145,85.1,1.9685368084,1.968504,6,P-GPS,
203400,2022-08-30 05:07:49,0,0,1.968504,,,1.9685368084,2.624672,0,0,0,0,0,8.261,2.2966208084,2.296588,0,0,0,0,0,230, -0.2, 0,0,0,1078,1024,1024,1024,8,0,0,0,229.9,0,0,89,4.134,4.125,0,0,0,0,4.145,85.1,1.9685368084,1.968504,6,P-GPS,
203500,2022-08-30 05:07:49,0,0,1.968504,,,1.9685368084,2.624672,0,0,0,0,0,8.261,2.2966208084,2.296588,0,0,0,0,0,229.9, -0.3, 0.2,0,0,1078,1024,1024,1024,8,0,0,0,229.9,0,0,89,4.134,4.125,0,0,0,0,4.145,85.1,1.9685368084,1.968504,6,P-GPS,
203600,2022-08-30 05:07:49,0,0,1.968504,,,1.9685368084,2.624672,0,0,0,0,0,8.261,2.2966208084,2.296588,0,0,0,0,0,229.9, -0.3, 0.2,0,0,1078,1024,1024,1024,8,0,0,0,229.9,0,0,89,4.134,4.125,0,0,0,0,4.145,85.1,1.9685368084,1.968504,6,P-GPS,
203700,2022-08-30 05:07:49,0,0,1.968504,,,1.9685368084,2.624672,0,0,0,0,0,8.261,2.2966208084,2.296588,0,0,0,0,0,229.9, -0.2, 0.1,0,0,1078,1024,1024,1024,8,0,0,0,229.9,0,0,89,4.134,4.125,0,0,0,0,4.145,85.1,1.9685368084,1.968504,6,P-GPS,
203800,2022-08-30 05:07:49,0,0,1.968504,,,1.9685368084,2.624672,0,0,0,0,0,8.261,2.2966208084,2.296588,0,0,0,0,0,229.9, -0.2, 0.2,0,0,1076,1024,1024,1024,8,0,0,0,229.9,0,0,89,4.134,4.125,0,0,0,0,4.145,85.1,1.9685368084,1.968504,6,P-GPS,
203900,2022-08-30 05:07:49,0,0,1.968504,,,1.9685368084,2.624672,0,0,0,0,0,8.261,2.2966208084,2.296588,0,0,0,0,0,229.9, -0.1, 0.2,0,0,1076,1024,1024,1024,8,0,0,0,229.9,0,0,89,4.134,4.125,0,0,0,0,4.145,85.1,1.9685368084,1.968504,6,P-GPS,
204000,2022-08-30 05:07:49,0,0,1.968504,,,1.9685368084,2.624672,0,0,0,0,0,8.261,2.2966208084,2.296588,0,0,0,0,0,229.9, -0.1, 0.1,0,0,1069,1024,1024,1024,7,0,0,0,229.9,0,0,89,4.134,4.125,0,0,0,0,4.145,85.1,1.9685368084,1.968504,6,P-GPS,
204100,2022-08-30 05:07:49,0,0,1.968504,,,1.9685368084,2.624672,0,0,0,0,0,8.257,2.2966208084,2.296588,0,0,0,0,0,229.9, -0.1, 0.2,0,0,1069,1024,1024,1024,7,0,0,0,229.9,0,0,89,4.133,4.124,0,0,0,0,4.152,85.1,1.9685368084,1.968504,6,P-GPS,
204200,2022-08-30 05:07:49,0,0,1.968504,,,1.9685368084,2.624672,0,0,0,0,0,8.257,2.2966208084,2.296588,0,0,0,0,0,229.9, 0, 0.1,0,0,1069,1024,1024,1024,7,0,0,0,229.9,0,0,89,4.133,4.124,0,0,0,0,4.152,85.1,1.9685368084,1.968504,6,P-GPS,
204300,2022-08-30 05:07:50,0,0,1.968504,,,1.9685368084,2.624672,0,0,0,0,0,8.257,2.2966208084,2.296588,0,0,0,0,0,229.9, 0, 0.1,0,0,1069,1024,1024,1024,7,0,0,0,229.9,0,0,89,4.133,4.124,0,0,0,0,4.152,85.1,1.9685368084,1.968504,6,P-GPS,
204400,2022-08-30 05:07:50,0,0,1.968504,,,1.9685368084,2.624672,0,0,0,0,0,8.257,2.2966208084,2.296588,0,0,0,0,0,229.9, 0, 0.1,0,0,1069,1024,1024,1024,7,0,0,0,229.9,0,0,89,4.133,4.124,0,0,0,0,4.152,85.1,1.9685368084,1.968504,6,P-GPS,
204500,2022-08-30 05:07:50,0,0,1.968504,,,1.9685368084,2.624672,0,0,0,0,0,8.257,2.2966208084,2.296588,0,0,0,0,0,229.9, 0, 0.1,0,0,1069,1024,1024,1024,7,0,0,0,229.9,0,0,89,4.133,4.124,0,0,0,0,4.152,85.1,1.9685368084,1.968504,6,P-GPS,
204600,2022-08-30 05:07:50,0,0,1.968504,,,1.9685368084,2.624672,0,0,0,0,0,8.257,2.2966208084,2.296588,0,0,0,0,0,229.9, 0.1, 0.1,0,0,1069,1024,1024,1024,7,0,0,0,229.9,0,0,89,4.133,4.124,0,0,0,0,4.152,85.1,1.9685368084,1.968504,6,P-GPS,
204700,2022-08-30 05:07:50,0,0,1.968504,,,1.9685368084,2.624672,0,0,0,0,0,8.257,2.2966208084,2.296588,0,0,0,0,0,230, 0, 0.1,0,0,1069,1024,1024,1024,7,0,0,0,229.9,0,0,89,4.133,4.124,0,0,0,0,4.152,85.1,1.9685368084,1.968504,6,P-GPS,
204800,2022-08-30 05:07:50,0,0,1.968504,,,1.9685368084,2.624672,0,0,0,0,0,8.257,2.2966208084,2.296588,0,0,0,0,0,230, 0, 0.2,0,0,1065,1024,1024,1024,6,0,0,0,229.9,0,0,89,4.133,4.124,0,0,0,0,4.152,85.1,1.9685368084,1.968504,6,P-GPS,
204900,2022-08-30 05:07:50,0,0,1.968504,,,1.9685368084,2.624672,0,0,0,0,0,8.257,2.2966208084,2.296588,0,0,0,0,0,230, 0, 0.3,0,0,1066,1024,1024,1024,6,0,0,0,229.9,0,0,89,4.133,4.124,0,0,0,0,4.152,85.1,1.9685368084,1.968504,6,P-GPS,
205000,2022-08-30 05:07:50,0,0,1.968504,,,1.9685368084,2.624672,0,0,0,0,0,8.257,2.2966208084,2.296588,0,0,0,0,0,230, 0, 0.3,0,0,1066,1024,1024,1024,6,0,0,0,229.9,0,0,89,4.133,4.124,0,0,0,0,4.152,85.1,1.9685368084,1.968504,6,P-GPS,
205100,2022-08-30 05:07:50,0,0,1.968504,,,1.9685368084,2.624672,0,0,0,0,0,8.257,2.2966208084,2.296588,0,0,0,0,0,229.9, 0, 0.1,0,0,1067,1024,1024,1024,7,0,0,0,229.9,0,0,89,4.132,4.123,0,0,0,0,4.141,85.1,1.9685368084,1.968504,6,P-GPS,
205200,2022-08-30 05:07:51,0,0,1.968504,,,1.9685368084,2.624672,0,0,0,0,0,8.257,2.2966208084,2.296588,0,0,0,0,0,229.9, 0, 0.1,0,0,1066,1024,1024,1024,6,0,0,0,229.9,0,0,89,4.132,4.123,0,0,0,0,4.141,85.1,1.9685368084,1.968504,6,P-GPS,
