time(millisecond),datetime(utc),latitude,longitude,height_above_takeoff(feet),height_above_ground_at_drone_location(feet),ground_elevation_at_drone_location(feet),altitude_above_seaLevel(feet),height_sonar(feet),speed(mph),distance(feet),mileage(feet),satellites,gpslevel,voltage(v),max_altitude(feet),max_ascent(feet),max_speed(mph),max_distance(feet), xSpeed(mph), ySpeed(mph), zSpeed(mph), compass_heading(degrees), pitch(degrees), roll(degrees),isPhoto,isVideo,rc_elevator,rc_aileron,rc_throttle,rc_rudder,rc_elevator(percent),rc_aileron(percent),rc_throttle(percent),rc_rudder(percent),gimbal_heading(degrees),gimbal_pitch(degrees),gimbal_roll(degrees),battery_percent,voltageCell1,voltageCell2,voltageCell3,voltageCell4,voltageCell5,voltageCell6,current(A),battery_temperature(f),altitude(feet),ascent(feet),flycStateRaw,flycState,message
0,2022-08-13 20:57:59,-34.9272760189296,-56.1654671311617,0,0,5.140289862652,5.140289862652,0.328084,0,0,0,11,4,0,5.140289862652,0,0,0,0,0,0,204.6, -10, -3.8,0,0,364,364,364,1684,-100,-100,-100,100,214.8,0,0,64,3.982,3.978,0,0,0,0,0,84.38,5.140289862652,0,41,Motors_Started,
100,2022-08-13 20:57:59,-34.9272760797528,-56.1654671954869,0,0,5.140289862652,5.140289862652,0.328084,0,0.0293717201,0.0293717201,11,4,0,5.140289862652,0,0,0.0293717201,0,0,0,204.5, -9.8, -3.2,0,0,364,364,364,1684,-100,-100,-100,100,214.5,0,0,64,3.982,3.978,0,0,0,0,0,84.38,5.140289862652,0,41,Motors_Started,
200,2022-08-13 20:57:59,-34.9272761324908,-56.1654672164464,0,0,5.140289862652,5.140289862652,0.328084,0,0.048657153788,0.049608925472,11,4,0,5.140289862652,0,0,0.048657153788,0,0,0,204.6, -9.3, -2.3,0,0,364,364,364,1684,-100,-100,-100,100,214.4,0,0,64,3.982,3.978,0,0,0,0,0,84.38,5.140289862652,0,41,Motors_Started,
300,2022-08-13 20:57:59,-34.9272761900803,-56.1654672062818,0,0,5.140289862652,5.140289862652,0.328084,0,0.066364175352,0.070839241112,11,4,0,5.140289862652,0,0,0.066364175352,0,0,0,204.8, -8.8, -2.4,0,0,364,364,364,1684,-100,-100,-100,100,214.5,0,0,64,3.982,3.978,0,0,0,0,0,84.38,5.140289862652,0,41,Motors_Started,
400,2022-08-13 20:57:59,-34.9272762414756,-56.16546714717,0,0,5.140289862652,5.140289862652,0.328084,0,0.08133694486,0.096612863984,11,4,0,5.140289862652,0,0,0.08133694486,0,0,0,204.7, -8.2, -2,0,0,364,364,364,1684,-100,-100,-100,100,214.6,0,0,64,3.982,3.978,0,0,0,0,0,84.38,5.140289862652,0,41,Motors_Started,
500,2022-08-13 20:57:59,-34.927276292156,-56.1654671611917,0,0,5.140289862652,5.140289862652,0.328084,0,0.100090554384,0.115573494512,11,4,0,5.140289862652,0,0,0.100090554384,0,0,0,205.9, -8, -1.6,0,0,1024,520,1024,1024,0,-76,0,0,215.2,0,0,64,3.982,3.978,0,0,0,0,0,84.38,5.140289862652,0,41,Motors_Started,
600,2022-08-13 20:57:59,-34.9272763555078,-56.1654672389962,0,0,5.140289862652,5.140289862652,0.328084,0,0.126966211412,0.148374676664,11,4,0,5.140289862652,0,0,0.126966211412,0,0,0,206.5, -7.9, -1,0,0,1024,520,1024,1024,0,-76,0,0,216.1,0,0,64,3.982,3.978,0,0,0,0,0,84.38,5.140289862652,0,41,Motors_Started,
700,2022-08-13 20:57:59,-34.927276394923,-56.165467301706,0,0,5.140289862652,5.140289862652,0.328084,0,0.14635991282,0.17201116036,11,4,0,5.140289862652,0,0,0.14635991282,0,0,0,205.8, -7, -1.5,0,0,1024,1024,1024,1024,0,0,0,0,216.5,0,0,64,3.982,3.978,0,0,0,0,0,84.38,5.140289862652,0,41,Motors_Started,"Aeronave en Zona de altitud restringida (150). Vuela con precaución (Code: 190001)"
800,2022-08-13 20:57:59,-34.9272763064359,-56.1654673173613,0,0,5.140289862652,5.140289862652,0.328084,0,0.118767064168,0.204633536732,11,4,0,5.140289862652,0,0,0.14635991282,0,0,0,206.5, -6.7, -1.4,0,0,1024,1024,1024,1024,0,0,0,0,216.4,0,0,64,3.982,3.978,0,0,0,0,0,84.38,5.140289862652,0,41,Motors_Started,
900,2022-08-13 20:57:59,-34.9272762827709,-56.1654673141456,0,0,5.140289862652,5.140289862652,0.328084,0,0.110736224016,0.213321201052,11,4,0,5.140289862652,0,0,0.14635991282,0,0,0,206, -6.5, -1.1,0,0,1024,1024,1024,1024,0,0,0,0,216.5,0,0,64,3.982,3.978,0,0,0,0,0,84.38,5.140289862652,0,41,Motors_Started,"Setting new Return-To-Home altitude to 40m (131 ft). Data Recorder File Index is 48. Setting new Maximum Flight Altitude to 120m (394 ft)"
1000,2022-08-13 20:58:00,-34.9272763052312,-56.1654673073233,0,0,5.140289862652,5.140289862652,0.328084,0,0.116996066736,0.221766083212,11,4,7.972,5.140289862652,0,0,0.14635991282,0,0,0,206.8, -5.8, -1.3,0,0,1024,1024,1024,1024,0,0,0,0,216.7,0,0,64,3.982,3.978,0,0,0,0,0.91,84.38,5.140289862652,0,41,Motors_Started,
1100,2022-08-13 20:58:00,-34.9272763339798,-56.1654672962741,0,0,5.140289862652,5.140289862652,0.328084,0,0.125107943636,0.232763458892,11,4,7.972,5.140289862652,0,0,0.14635991282,0,0,0,206.2, -6.2, -1.5,0,0,1024,1024,1024,1024,0,0,0,0,216.7,0,0,64,3.982,3.978,0,0,0,0,0.91,84.38,5.140289862652,0,10,Assisted_Takeoff,"En vuelo"
1200,2022-08-13 20:58:00,-34.9272763531555,-56.1654671959473,0,0,5.140289862652,5.140289862652,0.328084,0,0.123472444896,0.263579076676,11,4,7.972,5.140289862652,0,0,0.14635991282,0,0,0,206.6, -6.1, -1.6,0,0,1024,1024,1024,1024,0,0,0,0,216.7,0,0,64,3.982,3.978,0,0,0,0,0.91,84.38,5.140289862652,0,10,Assisted_Takeoff,
1300,2022-08-13 20:58:00,-34.927276335675,-56.165467192265,0,0,5.140289862652,5.140289862652,0.328084,0,0.117000987996,0.270051189744,11,4,7.972,5.140289862652,0,0,0.14635991282,0,0,0,206.1, -6.7, -2,0,0,1024,1024,1024,1024,0,0,0,0,216.7,0,0,64,3.982,3.978,0,0,0,0,0.91,84.38,5.140289862652,0,10,Assisted_Takeoff,
1400,2022-08-13 20:58:00,-34.9272763142052,-56.1654672330562,0,0,5.140289862652,5.140289862652,0.328084,0,0.111959977336,0.284551190208,11,4,7.972,5.140289862652,0,0,0.14635991282,0,0,0,206.3, -7, -3,0,0,1024,1024,1024,1024,0,0,0,0,216.5,0,0,64,3.982,3.978,0,0,0,0,0.91,84.38,5.140289862652,0,10,Assisted_Takeoff,
1500,2022-08-13 20:58:00,-34.9272763141677,-56.1654673138964,0,0,5.140289862652,5.140289862652,0.328084,0,0.120792982868,0.308732949512,11,4,7.972,5.140289862652,0,0,0.14635991282,0,0,0,207.5, -7.9, -3,0,0,1024,1024,1024,1024,0,0,0,0,216.7,0,0,64,3.982,3.978,0,0,0,0,0.91,84.38,5.140289862652,0,10,Assisted_Takeoff,
1600,2022-08-13 20:58:00,-34.9272765296809,-56.1654673934805,0,0.0328084,5.107481462652,5.140289862652,0.328084,0,0.202194232192,0.39088912012,11,4,7.972,5.140289862652,0,0,0.202194232192,0,0,0,207.9, -8.5, -3.1,0,0,1024,1024,1024,1024,0,0,0,0,217.4,0,0,64,3.982,3.978,0,0,0,0,0.91,84.38,5.140289862652,0,10,Assisted_Takeoff,
1700,2022-08-13 20:58:00,-34.9272766223711,-56.1654674336591,0,0.0328084,5.107481462652,5.140289862652,0.328084,0,0.23803478452,0.42677822888,11,4,7.972,5.140289862652,0,0,0.23803478452,0,0,0,208.3, -10.1, -3,0,0,1024,1024,1024,1024,0,0,0,0,217.7,0,0,64,3.982,3.978,0,0,0,0,0.91,84.38,5.140289862652,0,10,Assisted_Takeoff,
1800,2022-08-13 20:58:00,-34.9272766293315,-56.1654674793317,0,0.0328084,5.107481462652,5.140289862652,0.328084,0,0.245854338576,0.44067258628,11,4,7.972,5.140289862652,0,0,0.245854338576,0,0,0,209.1, -12.4, -2.5,0,0,1024,1024,1024,1024,0,0,0,0,218.4,0,0,64,3.982,3.978,0,0,0,0,0.91,84.38,5.140289862652,0,10,Assisted_Takeoff,
1900,2022-08-13 20:58:01,-34.9272767593273,-56.1654675168344,0,0.0328084,5.107481462652,5.140289862652,0.328084,0.671082,0.293737542208,0.48941274532,11,4,7.972,5.140289862652,0,0.671082,0.293737542208,-0.671082,0,-0.894776,209.3, -12.4, -3.4,0,0,1024,1024,1024,1024,0,0,0,0,218.5,0,0,64,3.982,3.978,0,0,0,0,0.91,84.38,5.140289862652,0,6,P-GPS,
2000,2022-08-13 20:58:01,-34.9272770073177,-56.1654676721664,0.328084,0.3608924,5.107481462652,5.468373862652,0.656168,0.223694,0.39526247984,0.591125347,11,4,7.964,5.468373862652,0.328084,0.671082,0.39526247984,0,-0.223694,-1.565858,211.6, -5.7, 0,0,0,1024,1024,1024,1024,0,0,0,0,218.5,0,0,64,3.987,3.983,0,0,0,0,1.475,84.38,5.468373862652,0.328084,6,P-GPS,
2100,2022-08-13 20:58:01,-34.927277045986,-56.1654679671121,0.328084,0.3608924,5.107481462652,5.468373862652,0.656168,0,0.45049542124,0.68047246272,11,4,7.964,5.468373862652,0.328084,0.671082,0.45049542124,0,0,0,211.7, -4.5, 1.7,0,0,1024,1024,1024,1024,0,0,0,0,218.5,0,0,64,3.987,3.983,0,0,0,0,1.475,84.38,5.468373862652,0.328084,6,P-GPS,
2200,2022-08-13 20:58:01,-34.9272771417344,-56.16546793358,0.328084,0.3608924,5.107481462652,5.468373862652,0.328084,0,0.47479660312,0.71681760824,11,4,7.964,5.468373862652,0.328084,0.671082,0.47479660312,0,0,0.223694,213, -6, 0,0,0,1024,1024,1024,1024,0,0,0,0,218.5,0,0,64,3.987,3.983,0,0,0,0,1.475,84.38,5.468373862652,0.328084,6,P-GPS,
2300,2022-08-13 20:58:01,-34.9272771918518,-56.1654679194134,0.328084,0.3608924,5.107481462652,5.468373862652,0.328084,0,0.488599097,0.73558729388,11,4,7.964,5.468373862652,0.328084,0.671082,0.488599097,0,0,0.223694,213.9, -7.6, -1,0,0,1024,1024,1024,1024,0,0,0,0,218.5,0,0,64,3.987,3.983,0,0,0,0,1.475,84.38,5.468373862652,0.328084,6,P-GPS,
2400,2022-08-13 20:58:01,-34.9272773631832,-56.1654678928038,0,0.0328084,5.107481462652,5.140289862652,0.328084,0.223694,0.54078413804,0.79860238776,11,4,7.964,5.468373862652,0.328084,0.671082,0.54078413804,-0.223694,0,0,214.3, -8.3, -1.1,0,0,1024,1024,1024,1024,0,0,0,0,218.5,0,0,64,3.987,3.983,0,0,0,0,1.475,84.38,5.140289862652,0,6,P-GPS,
2500,2022-08-13 20:58:01,-34.9272778607299,-56.1654678925707,0.328084,0.3608924,5.107481462652,5.468373862652,0.328084,0.894776,0.7095308626,0.98013126496,11,4,7.964,5.468373862652,0.328084,0.894776,0.7095308626,-0.894776,0,-1.11847,215.3, -8.5, -1.5,0,0,1024,1024,1024,1024,0,0,0,0,218.5,0,0,64,3.987,3.983,0,0,0,0,1.475,84.38,5.468373862652,0.328084,6,P-GPS,
2600,2022-08-13 20:58:01,-34.9272783711522,-56.1654680492474,0.656168,0.6889764,5.107481462652,5.796457862652,0.656168,1.342164,0.90107614432,1.17216539184,11,4,7.964,5.796457862652,0.656168,1.342164,0.90107614432,-1.342164,0,-3.131716,224.6, 0.9, 2.4,0,0,1024,1024,1024,1024,0,0,0,0,220.7,0,0.5,64,3.987,3.983,0,0,0,0,1.475,84.38,5.796457862652,0.656168,6,P-GPS,
2700,2022-08-13 20:58:01,-34.9272787402651,-56.1654681476003,0.984252,1.0170604,5.107481462652,6.124541862652,0.984252,1.11847,1.03838914084,1.31001316528,11,4,7.964,6.124541862652,0.984252,1.342164,1.03838914084,-1.11847,0,-2.23694,236, 15.9, 13.4,0,0,1024,1024,1024,1024,0,0,0,0,227.1,-0.8,3.1,64,3.987,3.983,0,0,0,0,1.475,84.38,6.124541862652,0.984252,6,P-GPS,
2800,2022-08-13 20:58:01,-34.9272790464345,-56.1654682253525,1.312336,1.3451444,5.107481462652,6.452625862652,1.312336,0.7158208,1.15205712348,1.4241142188,11,4,7.964,6.452625862652,1.312336,1.342164,1.15205712348,-0.671082,-0.223694,-1.11847,236.9, 5.7, 12.9,0,0,1024,1024,1024,1024,0,0,0,0,227.2,-1.1,1.7,64,3.987,3.983,0,0,0,0,1.475,84.38,6.452625862652,1.312336,6,P-GPS,
2900,2022-08-13 20:58:02,-34.9272788588932,-56.165468420148,1.312336,1.3451444,5.107481462652,6.452625862652,1.312336,0.4921268,1.10557418236,1.51398954976,11,4,7.964,6.452625862652,1.312336,1.342164,1.15205712348,-0.447388,-0.223694,0,233.6, 6.4, 7.9,0,0,1024,1024,1024,1024,0,0,0,0,219.7,0,0.2,64,3.987,3.983,0,0,0,0,1.475,84.38,6.452625862652,1.312336,6,P-GPS,
3000,2022-08-13 20:58:02,-34.9272792599154,-56.1654686247934,1.312336,1.3451444,5.107481462652,6.452625862652,1.312336,0.223694,1.26406500108,1.67259191704,11,4,7.902,6.452625862652,1.312336,1.342164,1.26406500108,0,-0.223694,0.447388,220.2, 8.2, 2.8,0,0,1024,1024,1024,1024,0,0,0,0,218.5,0,0,64,3.937,3.936,0,0,0,0,2.269,84.38,6.452625862652,1.312336,6,P-GPS,
3100,2022-08-13 20:58:02,-34.9272795499869,-56.1654688348081,1.312336,1.3779528,5.074673062652,6.452625862652,2.624672,0.223694,1.38543639604,1.79566606796,11,4,7.902,6.452625862652,1.312336,1.342164,1.38543639604,0,-0.223694,0.894776,210.4, 7, -1.3,0,0,1024,1024,1024,1024,0,0,0,0,218.5,0,0,64,3.937,3.936,0,0,0,0,2.269,84.38,6.452625862652,1.312336,6,P-GPS,
3200,2022-08-13 20:58:02,-34.9272795190212,-56.1654690264199,0.984252,1.0498688,5.074673062652,6.124541862652,2.624672,0.3131716,1.39719820744,1.854084705,11,4,7.902,6.452625862652,1.312336,1.342164,1.39719820744,0.223694,-0.223694,1.11847,205.5, 5.3, -2,0,0,1024,1024,1024,1024,0,0,0,0,218.5,0,0,64,3.937,3.936,0,0,0,0,2.269,84.38,6.124541862652,0.984252,6,P-GPS,
3300,2022-08-13 20:58:02,-34.9272795622841,-56.1654690649345,0.984252,1.0498688,5.074673062652,6.124541862652,2.296588,0.4921268,1.4163058196,1.87362538804,11,4,7.902,6.452625862652,1.312336,1.342164,1.4163058196,0.447388,-0.223694,0.671082,203, 3.3, -2.6,0,0,1024,1024,1024,1024,0,0,0,0,218.5,0,0,64,3.937,3.936,0,0,0,0,2.269,84.38,6.124541862652,0.984252,6,P-GPS,
3400,2022-08-13 20:58:02,-34.9272793169745,-56.165469066304,0.984252,1.0170604,5.107481462652,6.124541862652,2.296588,0.4921268,1.3352854758,1.96312998408,11,4,7.902,6.452625862652,1.312336,1.342164,1.4163058196,0.447388,-0.223694,0.447388,201.8, 2.4, -5.1,0,0,1024,1024,1024,1024,0,0,0,0,218.5,0,0,64,3.937,3.936,0,0,0,0,2.269,84.38,6.124541862652,0.984252,6,P-GPS,
3500,2022-08-13 20:58:02,-34.9272790632857,-56.1654690245214,0.984252,1.0170604,5.107481462652,6.124541862652,2.296588,0.447388,1.24679465932,2.0565289372,11,4,7.902,6.452625862652,1.312336,1.342164,1.4163058196,0.447388,0,0,201.7, 1.4, -5,0,0,1024,1024,1024,1024,0,0,0,0,218.5,0,0,64,3.937,3.936,0,0,0,0,2.269,84.38,6.124541862652,0.984252,6,P-GPS,
3600,2022-08-13 20:58:02,-34.9272787221828,-56.1654690546194,0.984252,1.0170604,5.107481462652,6.124541862652,2.296588,0.447388,1.14184058772,2.18130256324,11,4,7.902,6.452625862652,1.312336,1.342164,1.4163058196,0.447388,0,0,202.1, 0.8, -4.4,0,0,1024,1024,1024,1024,0,0,0,0,218.5,0,0,64,3.937,3.936,0,0,0,0,2.269,84.38,6.124541862652,0.984252,6,P-GPS,
3700,2022-08-13 20:58:02,-34.9272784088189,-56.1654690452994,0.984252,1.0170604,5.107481462652,6.124541862652,2.296588,0.447388,1.043143078,2.2956693648,11,4,7.902,6.452625862652,1.312336,1.342164,1.4163058196,0.447388,0,0,202.9, 0.2, -3.9,0,0,1024,1024,1024,1024,0,0,0,0,218.5,0,0,64,3.937,3.936,0,0,0,0,2.269,84.38,6.124541862652,0.984252,6,P-GPS,
3800,2022-08-13 20:58:02,-34.9272776171183,-56.1654691487217,0.984252,1.0170604,5.107481462652,6.124541862652,2.296588,0.223694,0.8391896594,2.5861713426,11,4,7.902,6.452625862652,1.312336,1.342164,1.4163058196,0.223694,0,0,203.6, -0.3, -3.3,0,0,1024,1024,1024,1024,0,0,0,0,218.5,0,0,64,3.937,3.936,0,0,0,0,2.269,84.38,6.124541862652,0.984252,6,P-GPS,
3900,2022-08-13 20:58:03,-34.927277351695,-56.1654690781951,0.984252,1.0170604,5.107481462652,6.124541862652,2.296588,0.223694,0.75872377756,2.68528223816,11,4,7.902,6.452625862652,1.312336,1.342164,1.4163058196,0.223694,0,0,204.1, -0.2, -3.1,0,0,1024,1024,1024,1024,0,0,0,0,218.5,0,0,64,3.937,3.936,0,0,0,0,2.269,84.38,6.124541862652,0.984252,6,P-GPS,
4000,2022-08-13 20:58:03,-34.9272772096938,-56.1654689640403,0.984252,1.0170604,5.107481462652,6.124541862652,2.296588,0.223694,0.69953742396,2.74733276508,11,4,7.843,6.452625862652,1.312336,1.342164,1.4163058196,0.223694,0,0,204.3, 0, -2.7,0,0,1024,1024,1024,1024,0,0,0,0,218.5,0,0,64,3.922,3.916,0,0,0,0,4.073,84.38,6.124541862652,0.984252,6,P-GPS,
4100,2022-08-13 20:58:03,-34.9272771084816,-56.1654688545927,0.984252,1.0170604,5.107481462652,6.124541862652,2.296588,0,0.65099739616,2.79668316036,11,4,7.843,6.452625862652,1.312336,1.342164,1.4163058196,0,0,0,204.4, 0.3, -2.5,0,0,1024,1024,1024,1024,0,0,0,0,218.5,0,0,64,3.922,3.916,0,0,0,0,4.073,84.38,6.124541862652,0.984252,6,P-GPS,
4200,2022-08-13 20:58:03,-34.9272774516855,-56.1654686764837,0.984252,1.0170604,5.107481462652,6.124541862652,2.296588,0,0.69780842128,2.93276584188,11,4,7.843,6.452625862652,1.312336,1.342164,1.4163058196,0,0,0,204.5, 0.7, -2.4,0,0,1024,1024,1024,1024,0,0,0,0,218.5,0,0,64,3.922,3.916,0,0,0,0,4.073,84.38,6.124541862652,0.984252,6,P-GPS,
4300,2022-08-13 20:58:03,-34.9272774983005,-56.1654685704099,0.984252,1.0170604,5.107481462652,6.124541862652,2.296588,0,0.6904199696,2.9687664992,11,4,7.843,6.452625862652,1.312336,1.342164,1.4163058196,0,0,0,204.6, 0.8, -2.4,0,0,1024,1024,1024,1024,0,0,0,0,218.5,0,0,64,3.922,3.916,0,0,0,0,4.073,84.38,6.124541862652,0.984252,6,P-GPS,
4400,2022-08-13 20:58:03,-34.9272775998678,-56.1654685172454,0.984252,1.0170604,5.107481462652,6.124541862652,2.296588,0,0.71036419596,3.00909130364,11,4,7.843,6.452625862652,1.312336,1.342164,1.4163058196,0,0,0,204.9, 0.6, -2.2,0,0,1024,1024,1024,1024,0,0,0,0,218.5,0,0,64,3.922,3.916,0,0,0,0,4.073,84.38,6.124541862652,0.984252,6,P-GPS,
4500,2022-08-13 20:58:03,-34.9272777083555,-56.1654684698405,0.984252,1.0170604,5.107481462652,6.124541862652,2.296588,0,0.73504267444,3.05113526824,11,4,7.843,6.452625862652,1.312336,1.342164,1.4163058196,0,0,0,205, 0.5, -2.4,0,0,1024,1024,1024,1024,0,0,0,0,218.5,0,0,64,3.922,3.916,0,0,0,0,4.073,84.38,6.124541862652,0.984252,6,P-GPS,
4600,2022-08-13 20:58:03,-34.9272781549616,-56.1654684735144,0.984252,1.0170604,5.107481462652,6.124541862652,2.296588,0,0.87669294144,3.21408474852,11,4,7.843,6.452625862652,1.312336,1.342164,1.4163058196,0,0,0,205.1, 0.6, -2.5,0,0,1024,1024,1024,1024,0,0,0,0,218.5,0,0,64,3.922,3.916,0,0,0,0,4.073,84.38,6.124541862652,0.984252,6,P-GPS,
4700,2022-08-13 20:58:03,-34.927278245602,-56.1654684055768,0.984252,1.0170604,5.107481462652,6.124541862652,2.296588,0,0.89739832268,3.25289708572,11,4,7.843,6.452625862652,1.312336,1.342164,1.4163058196,0,0,0,205.3, 1.2, -2,0,0,1024,1024,1024,1024,0,0,0,0,218.5,0,0,64,3.922,3.916,0,0,0,0,4.073,84.38,6.124541862652,0.984252,6,P-GPS,
4800,2022-08-13 20:58:03,-34.9272782901363,-56.1654683641769,0.984252,1.0170604,5.107481462652,6.124541862652,2.296588,0,0.90702758808,3.2733268764,11,4,7.843,6.452625862652,1.312336,1.342164,1.4163058196,0,0,0,205.4, 0.9, -2.3,0,0,1024,1024,1024,1024,0,0,0,0,218.5,0,0,64,3.922,3.916,0,0,0,0,4.073,84.38,6.124541862652,0.984252,6,P-GPS,
4900,2022-08-13 20:58:03,-34.927278326041,-56.1654683268652,0.984252,1.0170604,5.107481462652,6.124541862652,2.296588,0,0.91458664344,3.2905512864,11,4,7.843,6.452625862652,1.312336,1.342164,1.4163058196,0,0,0,205.5, 0.8, -2.4,0,0,1024,1024,1024,1024,0,0,0,0,218.5,0,0,64,3.922,3.916,0,0,0,0,4.073,84.38,6.124541862652,0.984252,6,P-GPS,
5000,2022-08-13 20:58:04,-34.9272782903684,-56.1654683852181,0.984252,1.0170604,5.107481462652,6.124541862652,2.296588,0,0.90968178764,3.3123032556,11,4,7.843,6.452625862652,1.312336,1.342164,1.4163058196,0,0,0,205.6, 1, -2.3,0,0,1024,1024,1024,1024,0,0,0,0,218.5,0,0,64,3.922,3.916,0,0,0,0,4.073,84.38,6.124541862652,0.984252,6,P-GPS,
5100,2022-08-13 20:58:04,-34.9272782841074,-56.1654683605302,0.984252,1.0170604,5.107481462652,6.124541862652,2.296588,0,0.90457351976,3.320046038,11,4,7.842,6.452625862652,1.312336,1.342164,1.4163058196,0,0,0,205.7, 1, -2.4,0,0,1024,1024,1024,1024,0,0,0,0,218.5,0,0,64,3.921,3.914,0,0,0,0,4.431,84.38,6.124541862652,0.984252,6,P-GPS,
5200,2022-08-13 20:58:04,-34.927278258606,-56.1654683650429,0.984252,1.0170604,5.107481462652,6.124541862652,2.296588,0,0.8966371678,3.3294292404,11,4,7.842,6.452625862652,1.312336,1.342164,1.4163058196,0,0,0,205.9, 0.7, -2.4,0,0,1024,1024,1024,1024,0,0,0,0,218.5,0,0,64,3.921,3.914,0,0,0,0,4.431,84.38,6.124541862652,0.984252,6,P-GPS,
5300,2022-08-13 20:58:04,-34.927278238522,-56.1654683662324,0.984252,1.0170604,5.107481462652,6.124541862652,2.296588,0,0.89011157704,3.336778322,11,4,7.842,6.452625862652,1.312336,1.342164,1.4163058196,0,0,0,205.9, 0.6, -2.3,0,0,1119,1024,1024,1024,14,0,0,0,218.5,0,0,64,3.921,3.914,0,0,0,0,4.431,84.38,6.124541862652,0.984252,6,P-GPS,
5400,2022-08-13 20:58:04,-34.9272782633569,-56.1654683348594,0.984252,1.0170604,5.107481462652,6.124541862652,2.296588,0,0.89454399188,3.3498360652,11,4,7.842,6.452625862652,1.312336,1.342164,1.4163058196,0,0,0,206.1, 0.7, -2.2,0,0,1574,1024,1024,1024,83,0,0,0,218.5,0,0,64,3.921,3.914,0,0,0,0,4.431,84.38,6.124541862652,0.984252,6,P-GPS,
5500,2022-08-13 20:58:04,-34.9272782668207,-56.1654684026879,0.984252,1.0170604,5.107481462652,6.124541862652,2.296588,0,0.90404858536,3.3701444648,11,4,7.842,6.452625862652,1.312336,1.342164,1.4163058196,0,0,0,206.3, -2.3, -1.7,0,0,1684,1024,1024,1024,100,0,0,0,218.5,0,0,64,3.921,3.914,0,0,0,0,4.431,84.38,6.124541862652,0.984252,6,P-GPS,
5600,2022-08-13 20:58:04,-34.9272783087303,-56.1654683926686,0.984252,1.0170604,5.107481462652,6.124541862652,2.296588,0,0.91670278524,3.3857284548,11,4,7.842,6.452625862652,1.312336,1.342164,1.4163058196,0,0,0,206.5, -10.3, -1.6,0,0,1684,1024,1024,1024,100,0,0,0,218.5,0,0,64,3.921,3.914,0,0,0,0,4.431,84.38,6.124541862652,0.984252,6,P-GPS,
5700,2022-08-13 20:58:04,-34.9272784671689,-56.1654684733051,0.984252,1.0170604,5.107481462652,6.124541862652,2.296588,0.4921268,0.97931761664,3.4483596904,11,4,7.842,6.452625862652,1.312336,1.342164,1.4163058196,-0.447388,-0.223694,0,206.8, -15.7, -2.5,0,0,1684,1024,1024,1024,100,0,0,0,218.5,0,0,64,3.921,3.914,0,0,0,0,4.431,84.38,6.124541862652,0.984252,6,P-GPS,"Punto de origen actualizado. Altitud de RPO establecida en 40m (Code: 3000001)"
5800,2022-08-13 20:58:04,-34.9272788868943,-56.1654687455508,1.312336,1.3451444,5.107481462652,6.452625862652,2.296588,1.2079476,1.15243770092,3.6218177012,11,4,7.842,6.452625862652,1.312336,1.342164,1.4163058196,-1.11847,-0.447388,0,206.9, -16.4, -2.4,0,0,1684,1024,1024,1024,100,0,0,0,218.5,0,0,64,3.921,3.914,0,0,0,0,4.431,84.38,6.452625862652,1.312336,6,P-GPS,
5900,2022-08-13 20:58:04,-34.9272795512237,-56.1654691614043,1.312336,1.3779528,5.074673062652,6.452625862652,2.296588,1.8119214,1.42468180412,3.8942586548,11,4,7.842,6.452625862652,1.312336,1.8119214,1.42468180412,-1.565858,-0.894776,0,206.8, -15.9, -2.6,0,0,1684,1024,1024,1024,100,0,0,0,218.5,0,0,64,3.921,3.914,0,0,0,0,4.431,84.38,6.452625862652,1.312336,6,P-GPS,
6000,2022-08-13 20:58:05,-34.9272803873075,-56.1654696986689,1.312336,1.3779528,5.074673062652,6.452625862652,2.296588,2.5053728,1.76919953168,4.2390421304,11,4,7.842,6.452625862652,1.312336,2.5053728,1.76919953168,-2.23694,-1.11847,0,206.8, -15.4, -2.6,0,0,1684,1024,1024,1024,100,0,0,0,218.5,0,0,64,3.921,3.914,0,0,0,0,4.431,84.38,6.452625862652,1.312336,6,P-GPS,
6100,2022-08-13 20:58:05,-34.9272813729396,-56.1654703282817,0.984252,1.0498688,5.074673062652,6.124541862652,2.296588,3.1988242,2.17495413784,4.6449804636,11,4,7.832,6.452625862652,1.312336,3.1988242,2.17495413784,-2.908022,-1.342164,0,206.8, -15.2, -2.3,0,0,1684,1024,1024,1024,100,0,0,0,218.5,0,0,64,3.916,3.907,0,0,0,0,4.359,84.38,6.124541862652,0.984252,6,P-GPS,
6200,2022-08-13 20:58:05,-34.9272827178381,-56.1654711399227,0.984252,1.0826772,5.041864662652,6.124541862652,2.296588,3.802798,2.72241806612,5.1924542344,11,4,7.832,6.452625862652,1.312336,3.802798,2.72241806612,-3.35541,-1.789552,0,206.7, -14.9, -2.7,0,0,1684,1024,1024,1024,100,0,0,0,218.5,0,0,64,3.916,3.907,0,0,0,0,4.359,84.38,6.124541862652,0.984252,6,P-GPS,
6300,2022-08-13 20:58:05,-34.9272843793794,-56.1654720296711,0.984252,1.0826772,5.041864662652,6.124541862652,2.296588,4.2949248,3.3839896096,5.8545277464,11,4,7.832,6.452625862652,1.312336,4.2949248,3.3839896096,-3.802798,-2.013246,0,206.9, -14.7, -2.7,0,0,1684,1024,1112,1024,100,0,13,0,218.5,0,0,64,3.916,3.907,0,0,0,0,4.359,84.38,6.124541862652,0.984252,6,P-GPS,
6400,2022-08-13 20:58:05,-34.9272863561769,-56.1654730456534,0.984252,1.1154856,5.009056262652,6.124541862652,2.296588,4.809421,4.1658793984,6.6371721284,11,4,7.832,6.452625862652,1.312336,4.809421,4.1658793984,-4.250186,-2.23694,0,207.1, -14.8, -2,0,0,1684,1024,1381,1024,100,0,54,0,218.5,0,0,64,3.916,3.907,0,0,0,0,4.359,84.38,6.124541862652,0.984252,6,P-GPS,
6500,2022-08-13 20:58:05,-34.9272884079658,-56.1654741130733,0.984252,1.148294,4.976247862652,6.124541862652,2.296588,5.3015478,4.9792980596,7.4510172988,11,4,7.832,6.452625862652,1.312336,5.3015478,4.9792980596,-4.697574,-2.460634,-0.223694,207.2, -14.5, -1.7,0,0,1684,1024,1596,1024,100,0,87,0,218.5,0,0,64,3.916,3.907,0,0,0,0,4.359,84.38,6.124541862652,0.984252,6,P-GPS,
6600,2022-08-13 20:58:05,-34.9272908199242,-56.1654752983489,1.312336,1.5091864,4.943439462652,6.452625862652,2.296588,5.7936746,5.9270671188,8.39977061,11,4,7.832,6.452625862652,1.312336,5.7936746,5.9270671188,-5.144962,-2.684328,-0.671082,207.3, -14.2, -2.4,0,0,1684,987,1628,1024,100,-6,92,0,218.5,0,0,64,3.916,3.907,0,0,0,0,4.359,84.38,6.452625862652,1.312336,6,P-GPS,
6700,2022-08-13 20:58:05,-34.9272945830857,-56.1654760661991,1.312336,1.5419948,4.910631062652,6.452625862652,2.624672,6.4200178,7.2813978708,9.791831022,11,4,7.832,6.452625862652,1.312336,6.4200178,7.2813978708,-5.59235,-3.131716,-1.565858,207.5, -13.8, -3.1,0,0,1684,945,1281,1024,100,-12,39,0,218.5,0,0,64,3.916,3.907,0,0,0,0,4.359,84.38,6.452625862652,1.312336,6,P-GPS,
6800,2022-08-13 20:58:05,-34.927297389406,-56.1654773860921,1.64042,1.9028872,4.877822662652,6.780709862652,2.952756,7.1134692,8.3787404256,10.8892063852,11,4,7.832,6.780709862652,1.64042,7.1134692,8.3787404256,-6.263432,-3.35541,-2.23694,207.5, -13.3, -3.6,0,0,1684,923,1081,1024,100,-15,9,0,218.5,0,0,64,3.916,3.907,0,0,0,0,4.359,84.38,6.780709862652,1.64042,6,P-GPS,
6900,2022-08-13 20:58:06,-34.9273002110582,-56.1654787225025,1.968504,2.2637796,4.845014262652,7.108793862652,3.28084,7.2924244,9.483103978,11.9935699376,11,4,7.832,7.108793862652,1.968504,7.2924244,9.483103978,-6.487126,-3.35541,-2.23694,207.6, -12.7, -4.3,0,0,1684,1024,1024,1024,100,0,0,0,218.5,0,0,64,3.916,3.907,0,0,0,0,4.359,84.38,7.108793862652,1.968504,6,P-GPS,
7000,2022-08-13 20:58:06,-34.9273031624664,-56.1654800145539,2.296588,2.624672,4.812205862652,7.436877862652,3.608924,7.605596,10.6267391852,13.137631654,11,4,7.832,7.436877862652,2.296588,7.605596,10.6267391852,-6.71082,-3.579104,-1.789552,207.7, -13.4, -4.6,0,0,1684,1024,1024,1024,100,0,0,0,218.5,0,0,64,3.916,3.907,0,0,0,0,4.359,84.38,7.436877862652,2.296588,6,P-GPS,
7100,2022-08-13 20:58:06,-34.9273060586442,-56.1654812718792,2.624672,2.9855644,4.779397462652,7.764961862652,3.937008,7.8069206,11.7479006384,14.2592524248,11,4,7.795,7.764961862652,2.624672,7.8069206,11.7479006384,-6.934514,-3.579104,-1.342164,208, -14.7, -4,0,0,1684,974,1024,1024,100,-8,0,0,218.5,0,0,64,3.88,3.867,0,0,0,0,5.005,84.38,7.764961862652,2.624672,6,P-GPS,
7200,2022-08-13 20:58:06,-34.9273097946107,-56.1654816081212,2.624672,3.0511812,4.713780662652,7.764961862652,4.265092,8.0977228,13.0618114416,15.6260175604,11,4,7.795,7.764961862652,2.624672,8.0977228,13.0618114416,-7.158208,-3.802798,-0.671082,207.9, -15.1, -3.7,0,0,1684,1024,1024,1024,100,0,0,0,218.5,0,0,64,3.88,3.867,0,0,0,0,5.005,84.38,7.764961862652,2.624672,6,P-GPS,
7300,2022-08-13 20:58:06,-34.9273130935321,-56.1654828631581,2.952756,3.4120736,4.680972262652,8.093045862652,4.265092,8.4108944,14.3218836604,16.886811564,11,4,7.795,8.093045862652,2.952756,8.4108944,14.3218836604,-7.381902,-4.026492,-0.223694,208, -14.8, -3.5,0,0,1684,1023,1024,1024,100,-0,0,0,218.5,0,0,64,3.88,3.867,0,0,0,0,5.005,84.38,8.093045862652,2.952756,6,P-GPS,
7400,2022-08-13 20:58:06,-34.9273165629157,-56.1654842028208,2.624672,3.116798,4.648163862652,7.764961862652,4.265092,8.612219,15.649114674,18.2145347036,11,4,7.795,8.093045862652,2.952756,8.612219,15.649114674,-7.605596,-4.026492,0,208, -15.1, -2.6,0,0,1684,1024,1024,1024,100,0,0,0,218.5,0,0,64,3.88,3.867,0,0,0,0,5.005,84.38,7.764961862652,2.624672,6,P-GPS,
7500,2022-08-13 20:58:06,-34.9273199651,-56.1654855332752,2.624672,3.1496064,4.615355462652,7.764961862652,4.593176,9.1043458,16.9523299388,19.5180780524,11,4,7.795,8.093045862652,2.952756,9.1043458,16.9523299388,-8.052984,-4.250186,0,208.1, -15.6, -2.7,0,0,1684,1024,1126,1024,100,0,15,0,218.5,0,0,64,3.88,3.867,0,0,0,0,5.005,84.38,7.764961862652,2.624672,6,P-GPS,
7600,2022-08-13 20:58:06,-34.9273235835807,-56.165486035779,2.952756,3.5433072,4.549738662652,8.093045862652,8.530184,9.4175174,18.2520675132,20.8468182524,11,4,7.795,8.093045862652,2.952756,9.4175174,18.2520675132,-8.276678,-4.47388,0,208.1, -15.7, -3.2,0,0,1684,1024,1481,1024,100,0,69,0,218.5,0,0,64,3.88,3.867,0,0,0,0,5.005,84.38,8.093045862652,2.952756,6,P-GPS,
7700,2022-08-13 20:58:06,-34.9273271530876,-56.1654874151768,2.624672,3.2480316,4.516930262652,7.764961862652,8.858268,9.842536,19.6181436724,22.21292722,11,4,7.795,8.093045862652,2.952756,9.842536,19.6181436724,-9.395148,-2.908022,0,197.9, -13.9, -3.4,0,0,1684,1024,1684,1024,100,0,100,0,218.5,0,0,64,3.88,3.867,0,0,0,0,5.005,84.38,7.764961862652,2.624672,6,P-GPS,
7800,2022-08-13 20:58:06,-34.9273310940589,-56.1654889462613,2.624672,3.28084,4.484121862652,7.764961862652,9.186352,10.0438606,21.1271660304,23.7219823864,11,4,7.795,8.093045862652,2.952756,10.0438606,21.1271660304,-9.618842,-2.908022,-0.447388,197.9, -13.5, -3.6,0,0,1684,1024,1684,1024,100,0,100,0,218.5,0,0,64,3.88,3.867,0,0,0,0,5.005,84.38,7.764961862652,2.624672,6,P-GPS,
7900,2022-08-13 20:58:07,-34.9273349716251,-56.1654904118144,2.952756,3.6745408,4.418505062652,8.093045862652,9.514436,10.4688792,22.6081372064,25.203084796,11,4,7.795,8.093045862652,2.952756,10.4688792,22.6081372064,-10.06623,-2.908022,-1.11847,198.1, -13.9, -1.6,0,0,1684,1024,1684,1024,100,0,100,0,218.5,0,0,64,3.88,3.867,0,0,0,0,5.005,84.38,8.093045862652,2.952756,6,P-GPS,
8000,2022-08-13 20:58:07,-34.9273395173874,-56.1654909044412,3.28084,4.0354332,4.385696662652,8.421129862652,9.84252,10.7596814,24.234252744,26.8681439044,11,4,7.795,8.421129862652,3.28084,10.7596814,24.234252744,-10.289924,-3.131716,-2.013246,198.3, -13.8, -2.3,0,0,1684,1024,1684,1024,100,0,100,0,218.5,0,0,64,3.88,3.867,0,0,0,0,5.005,84.38,8.421129862652,3.28084,6,P-GPS,
8100,2022-08-13 20:58:07,-34.9273437277033,-56.1654923774549,3.608924,4.429134,4.320079862652,8.749213862652,10.498688,11.2518082,25.8320546324,28.46620826,11,4,7.795,8.749213862652,3.608924,11.2518082,25.8320546324,-10.737312,-3.35541,-2.684328,198.1, -12.7, -3,0,0,1684,1024,1628,1024,100,0,92,0,218.5,0,0,64,3.88,3.867,0,0,0,0,5.005,84.38,8.749213862652,3.608924,6,P-GPS,
8200,2022-08-13 20:58:07,-34.9273483926482,-56.1654940715971,4.265092,5.1181104,4.287271462652,9.405381862652,11.48294,11.4531328,27.6078748992,30.2420613352,11,4,7.819,9.405381862652,4.265092,11.4531328,27.6078748992,-10.961006,-3.35541,-3.579104,198.1, -12.6, -2.9,0,0,1684,1024,1245,1024,100,0,33,0,218.5,0,0,64,3.888,3.867,0,0,0,0,4.405,84.38,9.405381862652,4.265092,6,P-GPS,
8300,2022-08-13 20:58:07,-34.9273529240411,-56.1654957059132,4.593176,5.5118112,4.221654662652,9.733465862652,12.139108,11.6768268,29.331857894,31.9661099468,11,4,7.819,9.733465862652,4.593176,11.6768268,29.331857894,-11.1847,-3.35541,-4.026492,198.1, -13.5, -3.1,0,0,1387,1024,1024,1024,55,0,0,0,218.5,0,0,64,3.888,3.867,0,0,0,0,4.405,84.38,9.733465862652,4.593176,6,P-GPS,
8400,2022-08-13 20:58:07,-34.9273579658015,-56.165497382535,5.249344,6.233596,4.156037862652,10.389633862652,13.12336,11.6768268,31.23769785,33.872704496,11,4,7.819,10.389633862652,5.249344,11.6768268,31.23769785,-11.1847,-3.35541,-3.579104,198.1, -14.1, -4,0,0,1054,1024,1024,1024,5,0,0,0,218.5,0,0,64,3.888,3.867,0,0,0,0,4.405,84.38,10.389633862652,5.249344,6,P-GPS,
8500,2022-08-13 20:58:07,-34.9273625095185,-56.165499017606,5.905512,6.9553808,4.090421062652,11.045801862652,13.779528,11.6768268,32.966208404,35.601051008,11,4,7.819,11.045801862652,5.905512,11.6768268,32.966208404,-11.1847,-3.35541,-2.908022,197.8, -7.8, -3.1,0,0,1024,1024,1024,1024,0,0,0,0,218.5,0,0,64,3.888,3.867,0,0,0,0,4.405,84.38,11.045801862652,5.905512,6,P-GPS,
8600,2022-08-13 20:58:07,-34.9273671404484,-56.1655006700329,6.233596,7.3162732,4.057612662652,11.373885862652,14.107612,11.4531328,34.726379064,37.361549752,11,4,7.819,11.373885862652,6.233596,11.6768268,34.726379064,-10.961006,-3.35541,-2.460634,197.1, 4.9, -3.1,0,0,1024,1024,1024,1024,0,0,0,0,218.5,0,0,64,3.888,3.867,0,0,0,0,4.405,84.38,11.373885862652,6.233596,6,P-GPS,
8700,2022-08-13 20:58:07,-34.9273714027508,-56.1655021843832,6.233596,7.38189,3.991995862652,11.373885862652,14.435696,10.5359874,36.346129772,38.98130046,11,4,7.819,11.373885862652,6.233596,11.6768268,36.346129772,-10.06623,-3.131716,-1.789552,196.7, 21.9, -1.8,0,0,1024,1024,1024,1024,0,0,0,0,218.5,0,0,64,3.888,3.867,0,0,0,0,4.405,84.38,11.373885862652,6.233596,6,P-GPS,
8800,2022-08-13 20:58:07,-34.9273757130987,-56.1655037107473,6.233596,7.4146984,3.959187462652,11.373885862652,15.091864,9.842536,37.983597016,40.618767704,11,4,7.819,11.373885862652,6.233596,11.6768268,37.983597016,-9.395148,-2.908022,-1.342164,197.5, 20, -0.2,0,0,1024,1024,1024,1024,0,0,0,0,218.5,0,0,64,3.888,3.867,0,0,0,0,4.405,84.38,11.373885862652,6.233596,6,P-GPS,
8900,2022-08-13 20:58:08,-34.927379551009,-56.1655049293078,6.233596,7.4803152,3.893570662652,11.373885862652,15.419948,8.9030212,39.429463204,42.065618144,11,4,7.819,11.373885862652,6.233596,11.6768268,39.429463204,-8.500372,-2.684328,-0.671082,197.5, 20.2, -0.1,0,0,1024,1024,1024,1200,0,0,0,27,218.5,0,0,64,3.888,3.867,0,0,0,0,4.405,84.38,11.373885862652,6.233596,6,P-GPS,
9000,2022-08-13 20:58:08,-34.9273829314959,-56.1655062602115,6.233596,7.5131236,3.860762262652,11.373885862652,15.748032,8.0753534,40.725395004,43.361878028,11,4,7.819,11.373885862652,6.233596,11.6768268,40.725395004,-7.605596,-2.684328,-0.223694,197.4, 21.4, -0.4,0,0,1024,1024,1024,1537,0,0,0,78,218.6,0,0,64,3.888,3.867,0,0,0,0,4.405,84.38,11.373885862652,6.233596,6,P-GPS,
9100,2022-08-13 20:58:08,-34.9273858029508,-56.1655074356382,6.233596,7.545932,3.827953862652,11.373885862652,15.748032,6.934514,41.829725748,44.46686494,11,4,7.819,11.373885862652,6.233596,11.6768268,41.829725748,-6.487126,-2.460634,0,197.6, 21.2, -0.3,0,0,1024,1024,1024,1684,0,0,0,100,219.7,0,0,64,3.888,3.867,0,0,0,0,4.405,84.38,11.373885862652,6.233596,6,P-GPS,
9200,2022-08-13 20:58:08,-34.927388135573,-56.165508504359,6.233596,7.5787404,3.795145462652,11.373885862652,15.748032,6.934514,42.736878008,45.375985704,11,4,7.788,11.373885862652,6.233596,11.6768268,42.736878008,-5.59235,-2.23694,0,199.3, 21.9, -0.6,0,0,1024,1024,1024,1684,0,0,0,100,223.1,0,0,64,3.889,3.916,0,0,0,0,5.804,84.38,11.373885862652,6.233596,6,P-GPS,
9300,2022-08-13 20:58:08,-34.9273889522572,-56.165509195816,6.233596,7.5787404,3.795145462652,11.373885862652,16.076116,5.033115,43.082022376,45.738846608,11,4,7.788,11.373885862652,6.233596,11.6768268,43.082022376,-4.697574,-1.789552,0,203.4, 19, 0.5,0,0,1024,1024,1024,1678,0,0,0,99,227.6,0,0,64,3.889,3.916,0,0,0,0,5.804,84.38,11.373885862652,6.233596,6,P-GPS,
9400,2022-08-13 20:58:08,-34.9273904968689,-56.1655099491785,6.233596,7.5787404,3.795145462652,11.373885862652,16.4042,4.1159696,43.687009272,46.345802008,11,4,7.788,11.373885862652,6.233596,11.6768268,43.687009272,-3.802798,-1.565858,0,208.6, 17.8, 2.1,0,0,1024,1024,1024,1344,0,0,0,48,232.4,0,0,64,3.889,3.916,0,0,0,0,5.804,84.38,11.373885862652,6.233596,6,P-GPS,
9500,2022-08-13 20:58:08,-34.9273916223452,-56.1655105693206,6.233596,7.6115488,3.762337062652,11.373885862652,16.4042,3.4001488,44.13385968,46.79626134,11,4,7.788,11.373885862652,6.233596,11.6768268,44.13385968,-3.131716,-1.342164,0,213.3, 17.7, 3.6,0,0,1024,1024,1024,1361,0,0,0,51,236.4,0,0,64,3.889,3.916,0,0,0,0,5.804,84.38,11.373885862652,6.233596,6,P-GPS,
9600,2022-08-13 20:58:08,-34.9273923731361,-56.1655111110998,6.56168,7.9396328,3.762337062652,11.701969862652,16.4042,2.5053728,44.443570976,47.11450282,11,4,7.788,11.701969862652,6.56168,11.6768268,44.443570976,-2.23694,-1.11847,0,216.3, 17.8, 3.2,0,0,1024,1024,1024,1684,0,0,0,100,238.4,0,0,64,3.889,3.916,0,0,0,0,5.804,84.38,11.701969862652,6.56168,6,P-GPS,
9700,2022-08-13 20:58:08,-34.927391861974,-56.1655111496099,6.56168,7.9396328,3.762337062652,11.701969862652,16.732284,1.8119214,44.268702204,47.3015107,11,4,7.788,11.701969862652,6.56168,11.6768268,44.443570976,-1.565858,-0.894776,0,217.5, 14.9, 1.1,0,0,1024,1024,1024,1684,0,0,0,100,239.7,0,0,64,3.889,3.916,0,0,0,0,5.804,84.38,11.701969862652,6.56168,6,P-GPS,
9800,2022-08-13 20:58:08,-34.9273918778546,-56.1655114566925,6.889764,8.2677168,3.762337062652,12.030053862652,16.732284,1.11847,44.301838688,47.39337422,11,4,7.788,12.030053862652,6.889764,11.6768268,44.443570976,-0.894776,-0.671082,0,219.5, 9.8, -0.4,0,0,1024,1024,1024,1684,0,0,0,100,243,0,0,64,3.889,3.916,0,0,0,0,5.804,84.38,12.030053862652,6.889764,6,P-GPS,
9900,2022-08-13 20:58:08,-34.9273917217975,-56.1655116622101,6.889764,8.2677168,3.762337062652,12.030053862652,16.732284,0.8052984,44.266077532,47.477363724,11,4,7.788,12.030053862652,6.889764,11.6768268,44.443570976,-0.447388,-0.671082,0,223.7, 6.7, -1.6,0,0,1024,1024,1024,1605,0,0,0,88,247.6,0,0,64,3.889,3.916,0,0,0,0,5.804,84.38,12.030053862652,6.889764,6,P-GPS,
10000,2022-08-13 20:58:09,-34.9273915864804,-56.1655118957051,7.217848,8.5958008,3.762337062652,12.358137862652,16.732284,0.4921268,44.239830812,47.562665564,11,4,7.788,12.358137862652,7.217848,11.6768268,44.443570976,-0.223694,-0.447388,0,228.6, 4.2, -1.8,0,0,1024,1024,1024,1158,0,0,0,20,252.2,0,0,64,3.889,3.916,0,0,0,0,5.804,84.38,12.358137862652,7.217848,6,P-GPS,
10100,2022-08-13 20:58:09,-34.9273909507619,-56.1655121060136,7.217848,8.5958008,3.762337062652,12.358137862652,16.732284,0.447388,44.038059152,47.803151136,11,4,7.788,12.358137862652,7.217848,11.6768268,44.443570976,0,-0.447388,0,232.5, 2.8, -1.3,0,0,1024,1024,1024,1421,0,0,0,60,254.7,0,0,64,3.889,3.916,0,0,0,0,5.804,84.38,12.358137862652,7.217848,6,P-GPS,
10200,2022-08-13 20:58:09,-34.9273907396113,-56.1655122728957,7.217848,8.5958008,3.762337062652,12.358137862652,16.732284,0.447388,43.979988284,47.895014656,11,4,7.789,12.358137862652,7.217848,11.6768268,44.443570976,0,-0.447388,0,234.1, 2.7, -1.9,0,0,1024,1024,1024,1684,0,0,0,100,255.3,0,0,64,3.896,3.889,0,0,0,0,4.084,84.38,12.358137862652,7.217848,6,P-GPS,
10300,2022-08-13 20:58:09,-34.9273905435076,-56.1655124407183,7.217848,8.5958008,3.762337062652,12.358137862652,16.732284,0.447388,43.927494844,47.982285,11,4,7.789,12.358137862652,7.217848,11.6768268,44.443570976,0,-0.447388,0,235.1, 3.5, -2.1,0,0,1024,1024,1024,1684,0,0,0,100,257.5,0,0,64,3.896,3.889,0,0,0,0,4.084,84.38,12.358137862652,7.217848,6,P-GPS,
10400,2022-08-13 20:58:09,-34.9273905359255,-56.1655126614288,7.217848,8.5958008,3.762337062652,12.358137862652,16.732284,0.447388,43.94521138,48.048229884,11,4,7.789,12.358137862652,7.217848,11.6768268,44.443570976,0,-0.447388,0,238.5, 3.7, -1.9,0,0,1024,1024,1024,1370,0,0,0,52,261.9,0,0,64,3.896,3.889,0,0,0,0,4.084,84.38,12.358137862652,7.217848,6,P-GPS,
10500,2022-08-13 20:58:09,-34.9273905422178,-56.1655128529813,7.217848,8.5958008,3.762337062652,12.358137862652,16.732284,0.447388,43.965224504,48.105644584,11,4,7.789,12.358137862652,7.217848,11.6768268,44.443570976,0,-0.447388,0,243.1, 3.6, -1.5,0,0,1024,1024,1024,1024,0,0,0,0,266.6,0,0,64,3.896,3.889,0,0,0,0,4.084,84.38,12.358137862652,7.217848,6,P-GPS,
10600,2022-08-13 20:58:09,-34.9273917460679,-56.1655131927015,7.217848,8.5958008,3.762337062652,12.358137862652,16.732284,0.447388,44.4143715,48.556432,11,4,7.789,12.358137862652,7.217848,11.6768268,44.443570976,0,-0.447388,0,247.3, 4, -1.5,0,0,1024,1024,1024,1024,0,0,0,0,269.7,0,0,64,3.896,3.889,0,0,0,0,4.084,84.38,12.358137862652,7.217848,6,P-GPS,
10700,2022-08-13 20:58:09,-34.9273919238939,-56.1655133464074,7.217848,8.5958008,3.762337062652,12.358137862652,16.732284,0.223694,44.490158904,48.636156412,11,4,7.789,12.358137862652,7.217848,11.6768268,44.490158904,0,-0.223694,0,249.3, 4.4, -1.9,0,0,1024,1024,1024,1024,0,0,0,0,270.9,0,0,64,3.896,3.889,0,0,0,0,4.084,84.38,12.358137862652,7.217848,6,P-GPS,
10800,2022-08-13 20:58:09,-34.9273921064881,-56.1655135755974,7.217848,8.5958008,3.762337062652,12.358137862652,16.732284,0.223694,44.574804576,48.731628856,11,4,7.789,12.358137862652,7.217848,11.6768268,44.574804576,0,-0.223694,0,250.2, 4.3, -2.5,0,0,1024,1024,1024,1024,0,0,0,0,271.3,0,0,64,3.896,3.889,0,0,0,0,4.084,84.38,12.358137862652,7.217848,6,P-GPS,
10900,2022-08-13 20:58:09,-34.9273922808619,-56.165513780044,7.217848,8.5958008,3.762337062652,12.358137862652,16.732284,0.223694,44.654528988,48.819883452,11,4,7.789,12.358137862652,7.217848,11.6768268,44.654528988,0,-0.223694,0,250.4, 4.3, -2.5,0,0,1024,1024,1024,1024,0,0,0,0,271.3,0,0,64,3.896,3.889,0,0,0,0,4.084,84.38,12.358137862652,7.217848,6,P-GPS,
11000,2022-08-13 20:58:10,-34.9273931048024,-56.1655146481373,7.217848,8.5958008,3.762337062652,12.358137862652,16.732284,0.223694,45.0213269,49.217193176,11,4,7.789,12.358137862652,7.217848,11.6768268,45.0213269,0,-0.223694,0,250.5, 4.7, -2.3,0,0,1024,1024,1024,1024,0,0,0,0,271.3,0,0,64,3.896,3.889,0,0,0,0,4.084,84.38,12.358137862652,7.217848,6,P-GPS,
11100,2022-08-13 20:58:10,-34.9273932468679,-56.1655148776878,7.217848,8.5958008,3.762337062652,12.358137862652,16.732284,0,45.092193044,49.303151184,11,4,7.789,12.358137862652,7.217848,11.6768268,45.092193044,0,0,0,250.5, 3.9, -2.4,0,0,1024,1024,1024,1024,0,0,0,0,271.3,0,0,64,3.896,3.889,0,0,0,0,4.084,84.38,12.358137862652,7.217848,6,P-GPS,
11200,2022-08-13 20:58:10,-34.9273933472191,-56.1655149712801,7.217848,8.5958008,3.762337062652,12.358137862652,16.732284,0,45.135828216,49.349082944,11,4,7.793,12.358137862652,7.217848,11.6768268,45.135828216,0,0,0,250.5, 3.5, -2.8,0,0,1024,1024,1024,1024,0,0,0,0,271.3,0,0,63,3.898,3.891,0,0,0,0,4.493,84.38,12.358137862652,7.217848,6,P-GPS,
11300,2022-08-13 20:58:10,-34.9273934418252,-56.1655150432638,7.217848,8.5958008,3.762337062652,12.358137862652,16.732284,0,45.17552638,49.38976536,11,4,7.793,12.358137862652,7.217848,11.6768268,45.17552638,0,0,0,250.5, 3.5, -2.8,0,0,1024,1024,1024,1024,0,0,0,0,271.3,0,0,63,3.898,3.891,0,0,0,0,4.493,84.38,12.358137862652,7.217848,6,P-GPS,
11400,2022-08-13 20:58:10,-34.9273936186873,-56.1655149409987,7.217848,8.6286092,3.729528662652,12.358137862652,16.732284,0,45.227035568,49.461287672,11,4,7.793,12.358137862652,7.217848,11.6768268,45.227035568,0,0,0,250.5, 3.6, -2.7,0,0,1024,1024,1024,1024,0,0,0,0,271.3,0,0,63,3.898,3.891,0,0,0,0,4.493,84.38,12.358137862652,7.217848,6,P-GPS,
11500,2022-08-13 20:58:10,-34.9273936614307,-56.1655149425713,7.217848,8.6286092,3.729528662652,12.358137862652,16.732284,0,45.241799348,49.477035704,11,4,7.793,12.358137862652,7.217848,11.6768268,45.241799348,0,0,0,250.6, 3.4, -2.7,0,0,1024,1024,1024,1024,0,0,0,0,271.3,0,0,63,3.898,3.891,0,0,0,0,4.493,84.38,12.358137862652,7.217848,6,P-GPS,
11600,2022-08-13 20:58:10,-34.9273936984419,-56.1655149409778,7.217848,8.6286092,3.729528662652,12.358137862652,16.732284,0,45.254594624,49.490487148,11,4,7.793,12.358137862652,7.217848,11.6768268,45.254594624,0,0,0,250.5, 3.6, -2,0,0,1024,1024,1024,1024,0,0,0,0,271.3,0,0,63,3.898,3.891,0,0,0,0,4.493,84.38,12.358137862652,7.217848,6,P-GPS,
11700,2022-08-13 20:58:10,-34.9273937218394,-56.1655149273836,7.217848,8.6286092,3.729528662652,12.358137862652,16.732284,0,45.261484388,49.500001584,11,4,7.793,12.358137862652,7.217848,11.6768268,45.261484388,0,0,0,250.5, 3.3, -2.1,0,0,1024,1024,1024,1024,0,0,0,0,271.3,0,0,63,3.898,3.891,0,0,0,0,4.493,84.38,12.358137862652,7.217848,6,P-GPS,
11800,2022-08-13 20:58:10,-34.9273935970224,-56.1655147886565,7.217848,8.6286092,3.729528662652,12.358137862652,16.732284,0,45.20505394,49.561681376,11,4,7.793,12.358137862652,7.217848,11.6768268,45.261484388,0,0,0,250.6, 2.7, -2.3,0,0,1024,1024,1024,1024,0,0,0,0,271.3,0,0,63,3.898,3.891,0,0,0,0,4.493,84.38,12.358137862652,7.217848,6,P-GPS,
11900,2022-08-13 20:58:10,-34.9273935817151,-56.1655147630823,7.217848,8.6286092,3.729528662652,12.358137862652,16.732284,0,45.197179924,49.570867728,11,4,7.793,12.358137862652,7.217848,11.6768268,45.261484388,0,0,0,250.6, 2.7, -1.7,0,0,1024,1024,1024,1024,0,0,0,0,271.3,0,0,63,3.898,3.891,0,0,0,0,4.493,84.38,12.358137862652,7.217848,6,P-GPS,
12000,2022-08-13 20:58:11,-34.9273936428925,-56.1655147696182,7.217848,8.6286092,3.729528662652,12.358137862652,16.732284,0,45.219161552,49.593505524,11,4,7.793,12.358137862652,7.217848,11.6768268,45.261484388,0,0,0,250.5, 2.6, -2.2,0,0,1024,1024,1024,1024,0,0,0,0,271.3,0,0,63,3.898,3.891,0,0,0,0,4.493,84.38,12.358137862652,7.217848,6,P-GPS,
12100,2022-08-13 20:58:11,-34.9273936968396,-56.165514779106,7.217848,8.6286092,3.729528662652,12.358137862652,16.732284,0,45.238846592,49.613190564,11,4,7.793,12.358137862652,7.217848,11.6768268,45.261484388,0,0,0,250.5, 2.6, -2.5,0,0,1024,1024,1024,1024,0,0,0,0,271.3,0,0,63,3.898,3.891,0,0,0,0,4.493,84.38,12.358137862652,7.217848,6,P-GPS,
12200,2022-08-13 20:58:11,-34.9273937332906,-56.1655147719327,7.217848,8.6286092,3.729528662652,12.358137862652,16.732284,0,45.250657616,49.626642008,11,4,7.793,12.358137862652,7.217848,11.6768268,45.261484388,0,0,0,250.5, 2.6, -2.6,0,0,1024,1024,1024,1024,0,0,0,0,271.3,0,0,63,3.898,3.891,0,0,0,0,4.493,84.38,12.358137862652,7.217848,6,P-GPS,
12300,2022-08-13 20:58:11,-34.9273939120156,-56.1655147612642,7.217848,8.6286092,3.729528662652,12.358137862652,16.732284,0,45.31168124,49.691930724,11,4,7.793,12.358137862652,7.217848,11.6768268,45.31168124,0,0,0,250.5, 2.5, -2.3,0,0,1024,1024,1024,1024,0,0,0,0,271.3,0,0,63,3.898,3.891,0,0,0,0,4.493,84.38,12.358137862652,7.217848,6,P-GPS,
12400,2022-08-13 20:58:11,-34.927393996825,-56.1655147752294,7.217848,8.6286092,3.729528662652,12.358137862652,16.732284,0,45.342193052,49.723426788,11,4,7.793,12.358137862652,7.217848,11.6768268,45.342193052,0,0,0,250.5, 2.7, -2.3,0,0,1024,1024,1024,1024,0,0,0,0,271.3,0,0,63,3.898,3.891,0,0,0,0,4.493,84.38,12.358137862652,7.217848,6,P-GPS,
12500,2022-08-13 20:58:11,-34.9273940773353,-56.1655147903335,7.217848,8.6286092,3.729528662652,12.358137862652,16.732284,0,45.371392528,49.752954348,11,4,7.788,12.358137862652,7.217848,11.6768268,45.371392528,0,0,0,250.5, 2.7, -2.2,0,0,1024,1024,1024,1024,0,0,0,0,271.3,0,0,63,3.897,3.89,0,0,0,0,4.389,84.38,12.358137862652,7.217848,6,P-GPS,
12600,2022-08-13 20:58:11,-34.9273941800445,-56.1655148116183,7.217848,8.6286092,3.729528662652,12.358137862652,16.732284,0,45.409122188,49.791012092,11,4,7.788,12.358137862652,7.217848,11.6768268,45.409122188,0,0,0,250.5, 2.7, -2.3,0,0,1024,1024,1024,1024,0,0,0,0,271.3,0,0,63,3.897,3.89,0,0,0,0,4.389,84.38,12.358137862652,7.217848,6,P-GPS,
12700,2022-08-13 20:58:11,-34.9273944978256,-56.1655148304841,7.217848,8.6286092,3.729528662652,12.358137862652,16.732284,0,45.520998832,49.907153828,11,4,7.788,12.358137862652,7.217848,11.6768268,45.520998832,0,0,0,250.5, 2.5, -1.9,0,0,1024,1024,1024,1024,0,0,0,0,271.3,0,0,63,3.897,3.89,0,0,0,0,4.389,84.38,12.358137862652,7.217848,6,P-GPS,
12800,2022-08-13 20:58:11,-34.9273945535183,-56.1655148529548,7.217848,8.6286092,3.729528662652,12.358137862652,16.732284,0,45.542324292,49.928479288,11,4,7.788,12.358137862652,7.217848,11.6768268,45.542324292,0,0,0,250.5, 2.6, -2,0,0,1024,1024,1024,1024,0,0,0,0,271.3,0,0,63,3.897,3.89,0,0,0,0,4.389,84.38,12.358137862652,7.217848,6,P-GPS,
12900,2022-08-13 20:58:12,-34.9273945974863,-56.16551487832,7.217848,8.6286092,3.729528662652,12.358137862652,16.732284,0,45.560040828,49.946195824,11,4,7.788,12.358137862652,7.217848,11.6768268,45.560040828,0,0,0,250.5, 2.6, -2.2,0,0,1024,1024,1024,1024,0,0,0,0,271.3,0,0,63,3.897,3.89,0,0,0,0,4.389,84.38,12.358137862652,7.217848,6,P-GPS,
13000,2022-08-13 20:58:12,-34.9273946229031,-56.1655149027551,7.217848,8.6286092,3.729528662652,12.358137862652,16.732284,0,45.571195684,49.958006848,11,4,7.788,12.358137862652,7.217848,11.6768268,45.571195684,0,0,0,250.5, 2.6, -2.3,0,0,715,1024,1024,1024,-47,0,0,0,271.3,0,0,63,3.897,3.89,0,0,0,0,4.389,84.38,12.358137862652,7.217848,6,P-GPS,
13100,2022-08-13 20:58:12,-34.9273946260427,-56.1655148989099,7.217848,8.6286092,3.729528662652,12.358137862652,16.732284,0,45.571851852,49.959647268,11,4,7.788,12.358137862652,7.217848,11.6768268,45.571851852,0,0,0,250.5, 3.5, -2.2,0,0,364,1024,1024,1024,-100,0,0,0,271.3,0,0,63,3.897,3.89,0,0,0,0,4.389,84.38,12.358137862652,7.217848,6,P-GPS,
13200,2022-08-13 20:58:12,-34.9273946852139,-56.1655148921127,7.217848,8.6286092,3.729528662652,12.358137862652,16.732284,0,45.591536892,49.981300812,11,4,7.788,12.358137862652,7.217848,11.6768268,45.591536892,0,0,0,250.2, 12, -1.9,0,0,364,1024,1024,1024,-100,0,0,0,271.3,0,0,63,3.897,3.89,0,0,0,0,4.389,84.38,12.358137862652,7.217848,6,P-GPS,
13300,2022-08-13 20:58:12,-34.9273946933821,-56.1655147646288,7.217848,8.6286092,3.729528662652,12.358137862652,16.732284,0.4921268,45.582678624,50.01968664,11,4,7.788,12.358137862652,7.217848,11.6768268,45.591536892,0.223694,0.447388,0,250.1, 18.5, -2.2,0,0,364,1024,1024,1024,-100,0,0,0,271.3,0,0,63,3.897,3.89,0,0,0,0,4.389,84.38,12.358137862652,7.217848,6,P-GPS,
13400,2022-08-13 20:58:12,-34.9273945924447,-56.1655144092558,7.217848,8.6286092,3.729528662652,12.358137862652,16.732284,1.2079476,45.514437152,50.132219452,11,4,7.788,12.358137862652,7.217848,11.6768268,45.591536892,0.447388,1.11847,0,250.1, 19.3, -2.5,0,0,364,1024,1024,1024,-100,0,0,0,271.3,0,0,63,3.897,3.89,0,0,0,0,4.389,84.38,12.358137862652,7.217848,6,P-GPS,
13500,2022-08-13 20:58:12,-34.9273944804989,-56.1655137760524,7.217848,8.6286092,3.729528662652,12.358137862652,16.732284,1.7000744,45.416996204,50.325789012,11,4,7.785,12.358137862652,7.217848,11.6768268,45.591536892,0.671082,1.565858,0,250.1, 19.3, -2.9,0,0,364,1024,1024,1024,-100,0,0,0,271.3,0,0,63,3.894,3.886,0,0,0,0,4.335,84.38,12.358137862652,7.217848,6,P-GPS,
13600,2022-08-13 20:58:12,-34.9273941995598,-56.1655127792683,6.889764,8.3005252,3.729528662652,12.030053862652,16.732284,2.3264176,45.228675988,50.641077736,11,4,7.785,12.358137862652,7.217848,11.6768268,45.591536892,0.671082,2.23694,0,250.1, 19.2, -2.6,0,0,364,1024,1024,1024,-100,0,0,0,271.3,0,0,63,3.894,3.886,0,0,0,0,4.335,84.38,12.030053862652,6.889764,6,P-GPS,
13700,2022-08-13 20:58:12,-34.92739385261,-56.1655115646889,6.889764,8.3005252,3.729528662652,12.030053862652,16.732284,3.0422384,44.999345272,51.025920268,11,4,7.785,12.358137862652,7.217848,11.6768268,45.591536892,0.894776,2.908022,0,250.1, 19, -2.4,0,0,364,1024,1024,1024,-100,0,0,0,271.3,0,0,63,3.894,3.886,0,0,0,0,4.335,84.38,12.030053862652,6.889764,6,P-GPS,
13800,2022-08-13 20:58:12,-34.9273933412004,-56.1655099164572,6.889764,8.2677168,3.762337062652,12.030053862652,16.732284,3.7580592,44.677494868,51.553151256,11,4,7.785,12.358137862652,7.217848,11.6768268,45.591536892,1.11847,3.579104,0,250.2, 18.8, -2.3,0,0,364,1024,1024,1024,-100,0,0,0,271.3,0,0,63,3.894,3.886,0,0,0,0,4.335,84.38,12.030053862652,6.889764,6,P-GPS,
13900,2022-08-13 20:58:13,-34.9273927718443,-56.1655080924461,7.217848,8.5958008,3.762337062652,12.358137862652,16.732284,4.250186,44.324476484,52.136812692,11,4,7.785,12.358137862652,7.217848,11.6768268,45.591536892,1.342164,4.026492,0,250.1, 18.2, -2.4,0,0,364,1024,1024,1024,-100,0,0,0,271.3,0,0,63,3.894,3.886,0,0,0,0,4.335,84.38,12.358137862652,7.217848,6,P-GPS,
14000,2022-08-13 20:58:13,-34.9273917089915,-56.1655050661932,7.217848,8.5958008,3.762337062652,12.358137862652,16.732284,4.7423128,43.708334732,53.12172086,11,4,7.785,12.358137862652,7.217848,11.6768268,45.591536892,1.565858,4.47388,0,249.9, 18.1, -2.6,0,0,364,1024,1024,1024,-100,0,0,0,271.3,0,0,63,3.894,3.886,0,0,0,0,4.335,84.38,12.358137862652,7.217848,6,P-GPS,
14100,2022-08-13 20:58:13,-34.9273909260747,-56.1655026053529,7.217848,8.5958008,3.762337062652,12.358137862652,16.732284,5.2344396,43.246064376,53.911419048,11,4,7.785,12.358137862652,7.217848,11.6768268,45.591536892,1.789552,4.921268,0,250, 17.9, -2.3,0,0,364,1024,1024,1024,-100,0,0,0,271.3,0,0,63,3.894,3.886,0,0,0,0,4.335,84.38,12.358137862652,7.217848,6,P-GPS,
14200,2022-08-13 20:58:13,-34.9273899964416,-56.165499729982,7.217848,8.5629924,3.795145462652,12.358137862652,16.732284,5.6594582,42.712599792,54.83595976,11,4,7.785,12.358137862652,7.217848,11.6768268,45.591536892,1.789552,5.368656,0,250.3, 17.6, -2.2,0,0,364,1024,1024,1024,-100,0,0,0,271.3,0,0,63,3.894,3.886,0,0,0,0,4.335,84.38,12.358137862652,7.217848,6,P-GPS,
14300,2022-08-13 20:58:13,-34.9273890657663,-56.1654968165348,7.217848,8.5629924,3.795145462652,12.358137862652,16.732284,6.151585,42.190290064,55.771327244,11,4,7.785,12.358137862652,7.217848,11.6768268,45.591536892,2.013246,5.816044,0,250.2, 17.4, -1.9,0,0,490,1024,1024,1024,-81,0,0,0,271.3,0,0,63,3.894,3.886,0,0,0,0,4.335,84.38,12.358137862652,7.217848,6,P-GPS,
14400,2022-08-13 20:58:13,-34.9273879564833,-56.16549346425,7.217848,8.5629924,3.795145462652,12.358137862652,16.732284,6.151585,41.593177184,56.852692108,11,4,7.785,12.358137862652,7.217848,11.6768268,45.591536892,2.23694,6.263432,0,250.2, 16.2, -2,0,0,719,1024,1024,1024,-46,0,0,0,271.3,0,0,63,3.894,3.886,0,0,0,0,4.335,84.38,12.358137862652,7.217848,6,P-GPS,
14500,2022-08-13 20:58:13,-34.9273870208054,-56.1654903702871,7.217848,8.530184,3.827953862652,12.358137862652,16.732284,6.8674058,41.091208664,57.838912612,11,4,7.77,12.358137862652,7.217848,11.6768268,45.591536892,2.23694,6.487126,0,250.2, 13.8, -2.2,0,0,1024,1024,1024,1024,0,0,0,0,271.3,0,0,63,3.888,3.881,0,0,0,0,4.598,84.38,12.358137862652,7.217848,6,P-GPS,
14600,2022-08-13 20:58:13,-34.9273860055813,-56.1654869001603,7.217848,8.530184,3.827953862652,12.358137862652,16.4042,7.158208,40.562009172,58.941274852,11,4,7.77,12.358137862652,7.217848,11.6768268,45.591536892,2.460634,6.71082,0,250.4, 7.2, -2.3,0,0,1024,1024,1024,1024,0,0,0,0,271.3,0,0,63,3.888,3.881,0,0,0,0,4.598,84.38,12.358137862652,7.217848,6,P-GPS,
14700,2022-08-13 20:58:13,-34.9273850318239,-56.1654835963709,7.217848,8.530184,3.827953862652,12.358137862652,16.4042,6.8674058,40.07710102,59.991471736,11,4,7.77,12.358137862652,7.217848,11.6768268,45.591536892,2.23694,6.487126,0,250.9, -17.4, -1.4,0,0,1024,1024,1024,1024,0,0,0,0,271.3,0,0,63,3.888,3.881,0,0,0,0,4.598,84.38,12.358137862652,7.217848,6,P-GPS,
14800,2022-08-13 20:58:13,-34.9273840131215,-56.1654804014923,6.889764,8.1692916,3.860762262652,12.030053862652,16.4042,5.7265664,39.601051136,61.016734236,11,4,7.77,12.358137862652,7.217848,11.6768268,45.591536892,2.013246,5.368656,-0.223694,251.4, -22, -1.9,0,0,559,1024,1024,1024,-70,0,0,0,271.3,0,0,63,3.888,3.881,0,0,0,0,4.598,84.38,12.030053862652,6.889764,6,P-GPS,
14900,2022-08-13 20:58:13,-34.9273831516616,-56.1654778700919,6.889764,8.1692916,3.860762262652,12.030053862652,16.4042,4.809421,39.21916136,61.836616152,11,4,7.77,12.358137862652,7.217848,11.6768268,45.591536892,1.789552,4.47388,0,251.3, -21.3, -1.9,0,0,559,1024,1024,1024,-70,0,0,0,271.3,0,0,63,3.888,3.881,0,0,0,0,4.598,84.38,12.030053862652,6.889764,6,P-GPS,
15000,2022-08-13 20:58:14,-34.9273823570981,-56.1654757194374,6.889764,8.1692916,3.860762262652,12.030053862652,16.076116,4.1159696,38.882219092,62.542324836,11,4,7.77,12.358137862652,7.217848,11.6768268,45.591536892,1.565858,3.802798,0,250.9, -11.6, -2.8,0,0,364,1024,1024,1024,-100,0,0,0,271.3,0,0,63,3.888,3.881,0,0,0,0,4.598,84.38,12.030053862652,6.889764,6,P-GPS,
15100,2022-08-13 20:58:14,-34.9273816783627,-56.16547395454,6.889764,8.1692916,3.860762262652,12.030053862652,16.076116,3.6238428,38.603675776,63.125330104,11,4,7.77,12.358137862652,7.217848,11.6768268,45.591536892,1.342164,3.35541,0,250.2, 4.8, -3.3,0,0,364,1024,1024,1024,-100,0,0,0,271.3,0,0,63,3.888,3.881,0,0,0,0,4.598,84.38,12.030053862652,6.889764,6,P-GPS,
15200,2022-08-13 20:58:14,-34.9273810617686,-56.1654727701401,6.889764,8.1364832,3.893570662652,12.030053862652,16.076116,3.6238428,38.361877868,63.54494954,11,4,7.77,12.358137862652,7.217848,11.6768268,45.591536892,1.342164,3.35541,0,250, 13, -3.6,0,0,364,1024,1024,1024,-100,0,0,0,271.3,0,0,63,3.888,3.881,0,0,0,0,4.598,84.38,12.030053862652,6.889764,6,P-GPS,
15300,2022-08-13 20:58:14,-34.927380434505,-56.1654711006126,6.889764,8.1364832,3.893570662652,12.030053862652,16.076116,3.8251674,38.114502532,64.09449024,11,4,7.77,12.358137862652,7.217848,11.6768268,45.591536892,1.342164,3.579104,0,249.9, 15.6, -3.1,0,0,364,1024,1024,1024,-100,0,0,0,271.3,0,0,63,3.888,3.881,0,0,0,0,4.598,84.38,12.030053862652,6.889764,6,P-GPS,
15400,2022-08-13 20:58:14,-34.9273799381032,-56.1654696026034,6.889764,8.1364832,3.893570662652,12.030053862652,16.076116,4.3172942,37.921917224,64.577757972,11,4,7.77,12.358137862652,7.217848,11.6768268,45.591536892,1.565858,4.026492,0,249.8, 16.7, -3,0,0,497,1024,1024,1024,-80,0,0,0,271.3,0,0,63,3.888,3.881,0,0,0,0,4.598,84.38,12.030053862652,6.889764,6,P-GPS,
15500,2022-08-13 20:58:14,-34.9273794357152,-56.165468009215,6.889764,8.1036748,3.926379062652,12.030053862652,16.4042,4.7423128,37.732612756,65.088256676,11,4,7.784,12.358137862652,7.217848,11.6768268,45.591536892,1.565858,4.47388,0,250, 17.1, -2.5,0,0,958,1024,1024,1024,-10,0,0,0,271.3,0,0,63,3.891,3.883,0,0,0,0,4.327,84.38,12.030053862652,6.889764,6,P-GPS,
15600,2022-08-13 20:58:14,-34.9273788341745,-56.1654660823621,6.889764,8.1036748,3.926379062652,12.030053862652,16.4042,5.2344396,37.513452644,65.705054596,11,4,7.784,12.358137862652,7.217848,11.6768268,45.591536892,1.789552,4.921268,0,250.2, 10.7, -1.9,0,0,1024,1024,1024,1024,0,0,0,0,271.3,0,0,63,3.891,3.883,0,0,0,0,4.327,84.38,12.030053862652,6.889764,6,P-GPS,
15700,2022-08-13 20:58:14,-34.9273787852625,-56.1654654011062,6.889764,8.1036748,3.926379062652,12.030053862652,16.4042,5.4581336,37.497704612,65.909779012,11,4,7.784,12.358137862652,7.217848,11.6768268,45.591536892,1.789552,5.144962,0,250.5, 2.6, -1.5,0,0,1024,1024,1024,1024,0,0,0,0,271.3,0,0,63,3.891,3.883,0,0,0,0,4.327,84.38,12.030053862652,6.889764,6,P-GPS,
15800,2022-08-13 20:58:14,-34.9273780482939,-56.1654628016377,6.889764,8.1036748,3.926379062652,12.030053862652,16.4042,5.1673314,37.248032688,66.732613684,11,4,7.784,12.358137862652,7.217848,11.6768268,45.591536892,1.565858,4.921268,0,250.9, -14.6, -1.5,0,0,1024,1024,1024,1024,0,0,0,0,271.3,0,0,63,3.891,3.883,0,0,0,0,4.327,84.38,12.030053862652,6.889764,6,P-GPS,
15900,2022-08-13 20:58:14,-34.9273774020296,-56.1654605721284,7.217848,8.4317588,3.926379062652,12.358137862652,16.4042,4.4515106,37.041667852,67.439962788,11,4,7.784,12.358137862652,7.217848,11.6768268,45.591536892,1.342164,4.250186,0,251.1, -19.9, -1.9,0,0,1024,1024,1024,1024,0,0,0,0,271.3,0,0,63,3.891,3.883,0,0,0,0,4.327,84.38,12.358137862652,7.217848,6,P-GPS,
16000,2022-08-13 20:58:15,-34.9273768230266,-56.1654584247148,7.217848,8.4317588,3.926379062652,12.358137862652,16.4042,3.5343652,36.870408004,68.116143912,11,4,7.784,12.358137862652,7.217848,11.6768268,45.591536892,1.11847,3.35541,0,250.8, -18.3, -2.1,0,0,1024,1024,1024,1024,0,0,0,0,271.3,0,0,63,3.891,3.883,0,0,0,0,4.327,84.38,12.358137862652,7.217848,6,P-GPS,
16100,2022-08-13 20:58:15,-34.9273763382584,-56.1654555086547,7.217848,8.3989504,3.959187462652,12.358137862652,16.4042,2.6172198,36.766077292,69.006235804,11,4,7.784,12.358137862652,7.217848,11.6768268,45.591536892,0.894776,2.460634,0,250.8, -15.2, -2.4,0,0,1024,1024,1024,1024,0,0,0,0,271.3,0,0,63,3.891,3.883,0,0,0,0,4.327,84.38,12.358137862652,7.217848,6,P-GPS,
16200,2022-08-13 20:58:15,-34.9273758692926,-56.1654540869668,7.217848,8.3989504,3.959187462652,12.358137862652,14.76378,1.901399,36.6387807,69.464569152,11,4,7.784,12.358137862652,7.217848,11.6768268,45.591536892,0.671082,1.789552,0,250.8, -12, -2.1,0,0,1024,1024,1024,1024,0,0,0,0,271.3,0,0,63,3.891,3.883,0,0,0,0,4.327,84.38,12.358137862652,7.217848,6,P-GPS,
16300,2022-08-13 20:58:15,-34.9273754985024,-56.1654530082018,7.545932,8.7270344,3.959187462652,12.686221862652,14.76378,1.4092722,36.540027416,69.814306696,11,4,7.784,12.686221862652,7.545932,11.6768268,45.591536892,0.447388,1.342164,0,250.8, -8.9, -2.1,0,0,1024,1024,1024,1024,0,0,0,0,271.3,0,0,63,3.891,3.883,0,0,0,0,4.327,84.38,12.686221862652,7.545932,6,P-GPS,
16400,2022-08-13 20:58:15,-34.9273753295481,-56.1654525767844,7.545932,8.7270344,3.959187462652,12.686221862652,14.76378,0.9171454,36.494095656,69.95735132,11,4,7.784,12.686221862652,7.545932,11.6768268,45.591536892,0.223694,0.894776,0,250.7, -6.7, -2.4,0,0,1024,1024,1024,1024,0,0,0,0,271.3,0,0,63,3.891,3.883,0,0,0,0,4.327,84.38,12.686221862652,7.545932,6,P-GPS,
16500,2022-08-13 20:58:15,-34.9273753041118,-56.1654523943064,7.545932,8.7270344,3.959187462652,12.686221862652,14.76378,0.7158208,36.491470984,70.012797516,11,4,7.779,12.686221862652,7.545932,11.6768268,45.591536892,0.223694,0.671082,0,250.7, -4.6, -2.4,0,0,1024,1024,1024,1024,0,0,0,0,271.3,0,0,63,3.889,3.882,0,0,0,0,4.368,84.38,12.686221862652,7.545932,6,P-GPS,
