time(millisecond),datetime(utc),latitude,longitude,height_above_takeoff(feet),height_above_ground_at_drone_location(feet),ground_elevation_at_drone_location(feet),altitude_above_seaLevel(feet),height_sonar(feet),speed(mph),distance(feet),mileage(feet),satellites,gpslevel,voltage(v),max_altitude(feet),max_ascent(feet),max_speed(mph),max_distance(feet), xSpeed(mph), ySpeed(mph), zSpeed(mph), compass_heading(degrees), pitch(degrees), roll(degrees),isPhoto,isVideo,rc_elevator,rc_aileron,rc_throttle,rc_rudder,rc_elevator(percent),rc_aileron(percent),rc_throttle(percent),rc_rudder(percent),gimbal_heading(degrees),gimbal_pitch(degrees),gimbal_roll(degrees),battery_percent,voltageCell1,voltageCell2,voltageCell3,voltageCell4,voltageCell5,voltageCell6,current(A),battery_temperature(f),altitude(feet),ascent(feet),flycStateRaw,flycState,message
0,2022-08-15 19:56:49,0,0,0,,,3.28084E-5,0.328084,0,0,0,0,0,0,3.28084E-5,0,0,0,0,0,0,208.6, 3.5, 0.5,0,0,364,364,364,1684,-100,-100,-100,100,208.6,-0.4,0,100,4.322,4.32,0,0,0,0,0,69.08,3.28084E-5,0,41,Motors_Started,"Sin señal GPS. La aeronave no puede hacer vuelo estacionario. Vuela con cuidado (Code: 30008). Señal débil del GPS. Vuelo estacionario inestable. Vuela con cuidado (Code: 30002)"
100,2022-08-15 19:56:49,0,0,0,,,3.28084E-5,0.328084,0,0,0,0,0,0,3.28084E-5,0,0,0,0,0,0,208.6, 3.5, 0.5,0,0,364,364,364,1684,-100,-100,-100,100,208.6,-0.4,0,100,4.322,4.32,0,0,0,0,0,69.08,3.28084E-5,0,41,Motors_Started,
200,2022-08-15 19:56:49,0,0,0,,,3.28084E-5,0.328084,0,0,0,0,0,0,3.28084E-5,0,0,0,0,0,0,208.7, 3.5, 0.5,0,0,1024,1024,1024,1024,0,0,0,0,208.6,-0.4,0,100,4.322,4.32,0,0,0,0,0,69.08,3.28084E-5,0,41,Motors_Started,"Setting new Return-To-Home altitude to 60m (197 ft). Data Recorder File Index is 61. Setting new Maximum Flight Altitude to 30m (98 ft)"
300,2022-08-15 19:56:49,0,0,0,,,3.28084E-5,0.328084,0,0,0,0,0,0,3.28084E-5,0,0,0,0,0,0,208.6, 3.5, 0.5,0,0,1024,1024,1024,1024,0,0,0,0,208.6,-0.4,0,100,4.322,4.32,0,0,0,0,0,69.08,3.28084E-5,0,41,Motors_Started,
400,2022-08-15 19:56:49,0,0,0,,,3.28084E-5,0.328084,0,0,0,0,0,0,3.28084E-5,0,0,0,0,0,0,208.6, 3.5, 0.5,0,0,1024,1024,1024,1024,0,0,0,0,208.6,-0.4,0,100,4.322,4.32,0,0,0,0,0,69.08,3.28084E-5,0,41,Motors_Started,
500,2022-08-15 19:56:50,0,0,0,,,3.28084E-5,0.328084,0,0,0,0,0,0,3.28084E-5,0,0,0,0,0,0,208.7, 3.6, 0.5,0,0,1024,1024,1024,1024,0,0,0,0,208.6,-0.4,0,100,4.322,4.32,0,0,0,0,0,69.08,3.28084E-5,0,41,Motors_Started,
600,2022-08-15 19:56:50,0,0,0,,,3.28084E-5,0.328084,0,0,0,0,0,0,3.28084E-5,0,0,0,0,0,0,208.7, 3.5, 0.5,0,0,1024,1024,1024,1024,0,0,0,0,208.6,-0.4,0,100,4.322,4.32,0,0,0,0,0,69.08,3.28084E-5,0,41,Motors_Started,
700,2022-08-15 19:56:50,0,0,0,,,3.28084E-5,0.328084,0,0,0,0,0,0,3.28084E-5,0,0,0,0,0,0,208.7, 3.5, 0.5,0,0,1024,1024,1024,1024,0,0,0,0,208.6,-0.4,0,100,4.322,4.32,0,0,0,0,0,69.08,3.28084E-5,0,41,Motors_Started,
800,2022-08-15 19:56:50,0,0,0,,,3.28084E-5,0.328084,0,0,0,0,0,0,3.28084E-5,0,0,0,0,0,0,208.6, 3.5, 0.5,0,0,1024,1024,1024,1024,0,0,0,0,208.6,-0.4,0,100,4.322,4.32,0,0,0,0,0,69.08,3.28084E-5,0,41,Motors_Started,
900,2022-08-15 19:56:50,0,0,0,,,3.28084E-5,0.328084,0,0,0,0,0,0,3.28084E-5,0,0,0,0,0,0,208.7, 3.5, 0.5,0,0,1024,1024,1024,1024,0,0,0,0,208.6,-0.4,0,100,4.322,4.32,0,0,0,0,0,69.08,3.28084E-5,0,41,Motors_Started,
1000,2022-08-15 19:56:50,0,0,0,,,3.28084E-5,0.328084,0,0,0,0,0,0,3.28084E-5,0,0,0,0,0,0,208.7, 3.6, 0.5,0,0,1024,1024,1024,1024,0,0,0,0,208.6,-0.4,0,100,4.322,4.32,0,0,0,0,0,69.08,3.28084E-5,0,41,Motors_Started,
1100,2022-08-15 19:56:50,0,0,0,,,3.28084E-5,0.328084,0,0,0,0,0,0,3.28084E-5,0,0,0,0,0,0,208.8, 3.5, 0.5,0,0,1024,1024,1024,1024,0,0,0,0,208.6,-0.4,0,100,4.322,4.32,0,0,0,0,0,69.08,3.28084E-5,0,10,Assisted_Takeoff,
1200,2022-08-15 19:56:50,0,0,0,,,3.28084E-5,0.328084,0,0,0,0,0,0,3.28084E-5,0,0,0,0,0,0,208.8, 3.6, 0.5,0,0,1024,1024,1038,1024,0,0,2,0,208.7,-0.4,0,100,4.322,4.32,0,0,0,0,0,69.08,3.28084E-5,0,10,Assisted_Takeoff,
1300,2022-08-15 19:56:50,0,0,0,,,3.28084E-5,0.328084,0,0,0,0,0,8.71,3.28084E-5,0,0,0,0,0,0,208.8, 3.6, 0.4,0,0,1024,1024,1136,1024,0,0,17,0,208.7,-0.4,0,100,4.322,4.32,0,0,0,0,0.518,69.08,3.28084E-5,0,10,Assisted_Takeoff,
1400,2022-08-15 19:56:50,0,0,0,,,3.28084E-5,0.328084,0,0,0,0,0,8.71,3.28084E-5,0,0,0,0,0,0,208.8, 3.6, 0.5,0,0,1024,1024,1466,1024,0,0,67,0,208.7,-0.4,0,100,4.322,4.32,0,0,0,0,0.518,69.08,3.28084E-5,0,10,Assisted_Takeoff,
1500,2022-08-15 19:56:51,0,0,0,,,3.28084E-5,0.328084,0,0,0,0,0,8.71,3.28084E-5,0,0,0,0,0,0,208.9, 3.6, 0.5,0,0,1024,1024,1642,1024,0,0,94,0,208.8,-0.4,0,100,4.322,4.32,0,0,0,0,0.518,69.08,3.28084E-5,0,10,Assisted_Takeoff,
1600,2022-08-15 19:56:51,0,0,0,,,3.28084E-5,0.328084,0,0,0,0,0,8.71,3.28084E-5,0,0,0,0,0,0,208.9, 3.6, 0.5,0,0,1024,1024,1289,1024,0,0,40,0,208.8,-0.4,0,100,4.322,4.32,0,0,0,0,0.518,69.08,3.28084E-5,0,10,Assisted_Takeoff,
1700,2022-08-15 19:56:51,0,0,0,,,3.28084E-5,0.328084,0,0,0,0,0,8.71,3.28084E-5,0,0,0,0,0,0,208.9, 3.5, 0.5,0,0,1024,1024,1024,1024,0,0,0,0,208.8,-0.4,0,100,4.322,4.32,0,0,0,0,0.518,69.08,3.28084E-5,0,10,Assisted_Takeoff,
1800,2022-08-15 19:56:51,0,0,0,,,3.28084E-5,0.328084,0,0,0,0,0,8.71,3.28084E-5,0,0,0,0,0,0,208.9, 2.4, 0.5,0,0,1024,1024,1024,1024,0,0,0,0,208.8,-0.4,0,100,4.322,4.32,0,0,0,0,0.518,69.08,3.28084E-5,0,10,Assisted_Takeoff,
1900,2022-08-15 19:56:51,0,0,0,,,3.28084E-5,0.328084,0,0,0,0,0,8.71,3.28084E-5,0,0,0,0,0,0,209.2, 0.3, 0.4,0,0,1024,1024,1344,1024,0,0,48,0,208.9,-0.4,0,100,4.322,4.32,0,0,0,0,0.518,69.08,3.28084E-5,0,10,Assisted_Takeoff,"Vuela con cuidado (sin GPS)"
2000,2022-08-15 19:56:51,0,0,0,,,3.28084E-5,0.328084,0,0,0,0,0,8.71,3.28084E-5,0,0,0,0,0,0,209.4, 3.4, 0.6,0,0,1024,1024,1344,1024,0,0,48,0,209.1,-0.4,0,100,4.322,4.32,0,0,0,0,0.518,69.08,3.28084E-5,0,10,Assisted_Takeoff,
2100,2022-08-15 19:56:51,0,0,0,,,3.28084E-5,0.328084,0,0,0,0,0,8.71,3.28084E-5,0,0,0,0,0,0,209.7, 3.2, 0.4,0,0,1024,1024,1477,1024,0,0,69,0,209.3,-0.4,0,100,4.322,4.32,0,0,0,0,0.518,69.08,3.28084E-5,0,10,Assisted_Takeoff,"Señal débil del GPS. Vuelo estacionario inestable. Vuela con cuidado (Code: 30002)"
2200,2022-08-15 19:56:51,0,0,0,,,3.28084E-5,0.328084,0,0,0,0,0,8.71,3.28084E-5,0,0,0,0,0,0,209.7, 2.5, 0.4,0,0,1024,1024,1511,1024,0,0,74,0,209.4,-0.4,0,100,4.322,4.32,0,0,0,0,0.518,69.08,3.28084E-5,0,6,P-GPS,
2300,2022-08-15 19:56:51,0,0,0,,,3.28084E-5,0.328084,0,0,0,0,0,8.643,3.28084E-5,0,0,0,0,0,0,209.5, -0.8, 0,0,0,1024,1024,1499,1024,0,0,72,0,209.4,-0.4,0,100,4.292,4.286,0,0,0,0,1.492,69.08,3.28084E-5,0,6,P-GPS,
2400,2022-08-15 19:56:51,0,0,0,,,3.28084E-5,0.328084,0,0,0,0,0,8.643,3.28084E-5,0,0,0,0,0,-0.223694,209.4, -1.3, 0,0,0,1024,1024,1024,1024,0,0,0,0,209.4,-0.4,0,100,4.292,4.286,0,0,0,0,1.492,69.08,3.28084E-5,0,6,P-GPS,
2500,2022-08-15 19:56:52,0,0,0,,,3.28084E-5,0.328084,0,0,0,0,0,8.643,3.28084E-5,0,0,0,0,0,-0.447388,209.5, -0.7, 0,0,0,1024,1024,1024,1024,0,0,0,0,209.4,-0.4,0,100,4.292,4.286,0,0,0,0,1.492,69.08,3.28084E-5,0,6,P-GPS,
2600,2022-08-15 19:56:52,0,0,0,,,3.28084E-5,0.328084,0,0,0,0,0,8.643,3.28084E-5,0,0,0,0,0,-0.671082,209.4, 0.1, -0.1,0,0,1024,1024,1024,1024,0,0,0,0,209.4,-0.4,0,100,4.292,4.286,0,0,0,0,1.492,69.08,3.28084E-5,0,6,P-GPS,
2700,2022-08-15 19:56:52,0,0,0.328084,,,0.3281168084,0.656168,0,0,0,0,0,8.643,0.3281168084,0.328084,0,0,0,0,-0.671082,209.3, 0, 0,0,0,1024,1024,1024,1024,0,0,0,0,209.4,-0.4,0,100,4.292,4.286,0,0,0,0,1.492,69.08,0.3281168084,0.328084,6,P-GPS,
2800,2022-08-15 19:56:52,0,0,0.328084,,,0.3281168084,0.656168,0,0,0,0,0,8.643,0.3281168084,0.328084,0,0,0,0,-0.671082,209.3, 0.2, 0,0,0,1024,1024,1024,1024,0,0,0,0,209.4,-0.4,0,100,4.292,4.286,0,0,0,0,1.492,69.08,0.3281168084,0.328084,6,P-GPS,
2900,2022-08-15 19:56:52,0,0,0.328084,,,0.3281168084,0.656168,0,0,0,0,0,8.643,0.3281168084,0.328084,0,0,0,0,-0.671082,209.3, 0.3, -0.2,0,0,1024,1024,1024,1024,0,0,0,0,209.4,-0.4,0,100,4.292,4.286,0,0,0,0,1.492,69.08,0.3281168084,0.328084,6,P-GPS,
3000,2022-08-15 19:56:52,0,0,0.328084,,,0.3281168084,0.984252,0,0,0,0,0,8.643,0.3281168084,0.328084,0,0,0,0,-0.894776,209.4, 0, 0,0,0,1024,1024,1024,1024,0,0,0,0,209.4,-0.4,0,100,4.292,4.286,0,0,0,0,1.492,69.08,0.3281168084,0.328084,6,P-GPS,
3100,2022-08-15 19:56:52,0,0,0.656168,,,0.6562008084,0.984252,0,0,0,0,0,8.643,0.6562008084,0.656168,0,0,0,0,-0.894776,209.4, 0.1, 0.1,0,0,1024,1024,1024,1024,0,0,0,0,209.4,-0.4,0,100,4.292,4.286,0,0,0,0,1.492,69.08,0.6562008084,0.656168,6,P-GPS,
3200,2022-08-15 19:56:52,0,0,0.656168,,,0.6562008084,0.984252,0,0,0,0,0,8.643,0.6562008084,0.656168,0,0,0,0,-0.894776,209.4, 0.2, 0.1,0,0,1024,1024,1024,1024,0,0,0,0,209.4,-0.4,0,100,4.292,4.286,0,0,0,0,1.492,69.08,0.6562008084,0.656168,6,P-GPS,
3300,2022-08-15 19:56:52,0,0,0.984252,,,0.9842848084,1.312336,0,0,0,0,0,8.643,0.9842848084,0.984252,0,0,0,0,-0.894776,209.4, 0.1, 0,0,0,1024,1024,1024,1024,0,0,0,0,209.4,-0.4,0,100,4.228,4.23,0,0,0,0,1.492,69.08,0.9842848084,0.984252,6,P-GPS,
3400,2022-08-15 19:56:52,0,0,0.984252,,,0.9842848084,1.312336,0,0,0,0,0,8.643,0.9842848084,0.984252,0,0,0,0,-0.671082,209.4, 0, 0,0,0,1024,1024,1024,1024,0,0,0,0,209.4,-0.4,0,100,4.228,4.23,0,0,0,0,1.492,69.08,0.9842848084,0.984252,6,P-GPS,
3500,2022-08-15 19:56:53,0,0,0.984252,,,0.9842848084,1.312336,0,0,0,0,0,8.643,0.9842848084,0.984252,0,0,0,0,-0.447388,209.4, 0.1, 0,0,0,1024,1024,1024,1024,0,0,0,0,209.4,-0.4,0,100,4.228,4.23,0,0,0,0,1.492,69.08,0.9842848084,0.984252,6,P-GPS,
3600,2022-08-15 19:56:53,0,0,0.984252,,,0.9842848084,1.64042,0,0,0,0,0,8.643,0.9842848084,0.984252,0,0,0,0,-0.447388,209.4, 0.6, -0.4,0,0,1024,1024,1024,1024,0,0,0,0,209.4,-0.4,0,100,4.228,4.23,0,0,0,0,1.492,69.08,0.9842848084,0.984252,6,P-GPS,
3700,2022-08-15 19:56:53,0,0,1.312336,,,1.3123688084,1.64042,0,0,0,0,0,8.643,1.3123688084,1.312336,0,0,0,0,-0.223694,209.4, 0.6, -0.3,0,0,1024,1024,1385,1024,0,0,55,0,209.4,-0.4,0,100,4.228,4.23,0,0,0,0,1.492,69.08,1.3123688084,1.312336,6,P-GPS,
3800,2022-08-15 19:56:53,0,0,1.312336,,,1.3123688084,1.64042,0,0,0,0,0,8.643,1.3123688084,1.312336,0,0,0,0,0,209.4, 0.6, -0.2,0,0,1024,1024,1385,1024,0,0,55,0,209.4,-0.4,0,100,4.228,4.23,0,0,0,0,1.492,69.08,1.3123688084,1.312336,6,P-GPS,
3900,2022-08-15 19:56:53,0,0,1.312336,,,1.3123688084,1.64042,0,0,0,0,0,8.643,1.3123688084,1.312336,0,0,0,0,-0.223694,209.4, 0.7, -0.1,0,0,1024,1024,1684,1024,0,0,100,0,209.4,-0.4,0,100,4.228,4.23,0,0,0,0,1.492,69.08,1.3123688084,1.312336,6,P-GPS,
4000,2022-08-15 19:56:53,0,0,1.312336,,,1.3123688084,1.64042,0,0,0,0,0,8.643,1.3123688084,1.312336,0,0,0,0,-0.671082,209.4, 0.5, 0,0,0,1024,1024,1343,1024,0,0,48,0,209.4,-0.4,0,100,4.228,4.23,0,0,0,0,1.492,69.08,1.3123688084,1.312336,6,P-GPS,
4100,2022-08-15 19:56:53,0,0,1.64042,,,1.6404528084,1.968504,0,0,0,0,0,8.643,1.6404528084,1.64042,0,0,0,0,-1.342164,209.4, 0.3, 0,0,0,1024,1024,1024,1024,0,0,0,0,209.4,-0.4,0,100,4.228,4.23,0,0,0,0,1.492,69.08,1.6404528084,1.64042,6,P-GPS,
4200,2022-08-15 19:56:53,0,0,1.968504,,,1.9685368084,1.968504,0,0,0,0,0,8.643,1.9685368084,1.968504,0,0,0,0,-1.342164,209.3, 0.6, -0.1,0,0,1024,1024,1024,1024,0,0,0,0,209.4,-0.4,0,100,4.228,4.23,0,0,0,0,1.492,69.08,1.9685368084,1.968504,6,P-GPS,
4300,2022-08-15 19:56:53,0,0,1.968504,,,1.9685368084,2.296588,0,0,0,0,0,8.643,1.9685368084,1.968504,0,0,0,0,-0.894776,209.3, 0.8, 0,0,0,1024,1024,1099,1024,0,0,11,0,209.4,-0.4,0,100,4.228,4.23,0,0,0,0,1.492,69.08,1.9685368084,1.968504,6,P-GPS,
4400,2022-08-15 19:56:53,0,0,2.296588,,,2.2966208084,2.296588,0,0,0,0,0,8.643,2.2966208084,2.296588,0,0,0,0,-0.671082,209.3, 0.8, 0,0,0,1024,1024,1170,1024,0,0,22,0,209.4,-0.4,0,100,4.228,4.23,0,0,0,0,1.492,69.08,2.2966208084,2.296588,6,P-GPS,
4500,2022-08-15 19:56:53,0,0,2.296588,,,2.2966208084,2.296588,0,0,0,0,0,8.473,2.2966208084,2.296588,0,0,0,0,-0.447388,209.4, 0.8, 0.1,0,0,1024,1024,1489,1024,0,0,70,0,209.4,-0.4,0,100,4.192,4.19,0,0,0,0,4.144,69.08,2.2966208084,2.296588,6,P-GPS,
4600,2022-08-15 19:56:54,0,0,2.296588,,,2.2966208084,2.624672,0,0,0,0,0,8.473,2.2966208084,2.296588,0,0,0,0,-0.223694,209.5, 0.8, 0.2,0,0,1024,1024,1489,1024,0,0,70,0,209.4,-0.4,0,100,4.192,4.19,0,0,0,0,4.144,69.08,2.2966208084,2.296588,6,P-GPS,
4700,2022-08-15 19:56:54,0,0,2.296588,,,2.2966208084,2.624672,0,0,0,0,0,8.473,2.2966208084,2.296588,0,0,0,0,-0.671082,209.6, 0.5, 0.2,0,0,1024,1024,1024,1024,0,0,0,0,209.4,-0.4,0,100,4.192,4.19,0,0,0,0,4.144,69.08,2.2966208084,2.296588,6,P-GPS,
4800,2022-08-15 19:56:54,0,0,2.624672,,,2.6247048084,2.624672,0,0,0,0,0,8.473,2.6247048084,2.624672,0,0,0,0,-0.894776,209.7, 0.1, -0.1,0,0,1024,1024,1024,1024,0,0,0,0,209.4,-0.4,0,100,4.192,4.19,0,0,0,0,4.144,69.08,2.6247048084,2.624672,6,P-GPS,
4900,2022-08-15 19:56:54,0,0,2.624672,,,2.6247048084,2.952756,0,0,0,0,0,8.473,2.6247048084,2.624672,0,0,0,0,-0.671082,209.9, 0.6, 0,0,0,1024,1024,1024,1024,0,0,0,0,209.4,-0.4,0,100,4.192,4.19,0,0,0,0,4.144,69.08,2.6247048084,2.624672,6,P-GPS,"En vuelo"
5000,2022-08-15 19:56:54,0,0,2.624672,,,2.6247048084,2.952756,0,0,0,0,0,8.473,2.6247048084,2.624672,0,0,0,0,-0.447388,210.1, 0.6, 0,0,0,1024,1024,1373,1024,0,0,53,0,209.4,-0.4,0,100,4.192,4.19,0,0,0,0,4.144,69.08,2.6247048084,2.624672,6,P-GPS,
5100,2022-08-15 19:56:54,0,0,2.952756,,,2.9527888084,2.952756,0,0,0,0,0,8.473,2.9527888084,2.952756,0,0,0,0,-0.223694,210.3, 0.5, 0,0,0,1024,1024,1513,1024,0,0,74,0,209.4,-0.4,0,100,4.192,4.19,0,0,0,0,4.144,69.08,2.9527888084,2.952756,6,P-GPS,
5200,2022-08-15 19:56:54,0,0,2.952756,,,2.9527888084,2.952756,0,0,0,0,0,8.473,2.9527888084,2.952756,0,0,0,0,-0.447388,210.4, 0.5, 0.1,0,0,1024,1024,1104,1024,0,0,12,0,209.4,-0.4,0,100,4.192,4.19,0,0,0,0,4.144,69.08,2.9527888084,2.952756,6,P-GPS,
5300,2022-08-15 19:56:54,0,0,2.952756,,,2.9527888084,3.28084,0,0,0,0,0,8.473,2.9527888084,2.952756,0,0,0,0,-1.11847,210.5, 0.3, -0.1,0,0,1024,1024,1024,1024,0,0,0,0,209.4,-0.4,0,100,4.192,4.19,0,0,0,0,4.144,69.08,2.9527888084,2.952756,6,P-GPS,
5400,2022-08-15 19:56:54,0,0,3.28084,,,3.2808728084,3.28084,0,0,0,0,0,8.473,3.2808728084,3.28084,0,0,0,0,-1.11847,210.6, 0.1, -0.2,0,0,1024,1024,1024,1024,0,0,0,0,209.4,-0.4,0,100,4.192,4.19,0,0,0,0,4.144,69.08,3.2808728084,3.28084,6,P-GPS,
5500,2022-08-15 19:56:55,0,0,3.28084,,,3.2808728084,3.608924,0,0,0,0,0,8.514,3.2808728084,3.28084,0,0,0,0,-0.671082,210.7, 0.5, -0.1,0,0,1024,1024,1024,1024,0,0,0,0,209.4,-0.4,0,100,4.238,4.245,0,0,0,0,4.048,69.08,3.2808728084,3.28084,6,P-GPS,
5600,2022-08-15 19:56:55,0,0,3.608924,,,3.6089568084,3.608924,0,0,0,0,0,8.514,3.6089568084,3.608924,0,0,0,0,-0.447388,210.9, 0.6, -0.1,0,0,1024,1024,1024,1024,0,0,0,0,209.4,-0.4,0,100,4.238,4.245,0,0,0,0,4.048,69.08,3.6089568084,3.608924,6,P-GPS,
5700,2022-08-15 19:56:55,0,0,3.608924,,,3.6089568084,3.608924,0,0,0,0,0,8.514,3.6089568084,3.608924,0,0,0,0,-0.223694,211, 0.6, 0,0,0,1024,1024,1024,1024,0,0,0,0,209.4,-0.4,0,100,4.238,4.245,0,0,0,0,4.048,69.08,3.6089568084,3.608924,6,P-GPS,
5800,2022-08-15 19:56:55,0,0,3.608924,,,3.6089568084,3.608924,0,0,0,0,0,8.514,3.6089568084,3.608924,0,0,0,0,0,211.1, 0.5, 0,0,0,1024,1024,1024,1024,0,0,0,0,209.4,-0.4,0,100,4.238,4.245,0,0,0,0,4.048,69.08,3.6089568084,3.608924,6,P-GPS,
5900,2022-08-15 19:56:55,0,0,3.608924,,,3.6089568084,3.608924,0,0,0,0,0,8.514,3.6089568084,3.608924,0,0,0,0,0,211.2, 0.4, 0,0,0,1024,1024,1026,1024,0,0,0,0,209.4,-0.4,0,100,4.238,4.245,0,0,0,0,4.048,69.08,3.6089568084,3.608924,6,P-GPS,
6000,2022-08-15 19:56:55,0,0,3.608924,,,3.6089568084,3.608924,0,0,0,0,0,8.514,3.6089568084,3.608924,0,0,0,0,0,211.3, 0.3, 0,0,0,1024,1024,1200,1024,0,0,27,0,209.4,-0.4,0,100,4.238,4.245,0,0,0,0,4.048,69.08,3.6089568084,3.608924,6,P-GPS,
6100,2022-08-15 19:56:55,0,0,3.608924,,,3.6089568084,3.608924,0,0,0,0,0,8.514,3.6089568084,3.608924,0,0,0,0,0,211.3, 0.4, 0,0,0,1024,1024,1304,1024,0,0,42,0,209.4,-0.4,0,100,4.238,4.245,0,0,0,0,4.048,69.08,3.6089568084,3.608924,6,P-GPS,
6200,2022-08-15 19:56:55,0,0,3.608924,,,3.6089568084,3.608924,0,0,0,0,0,8.514,3.6089568084,3.608924,0,0,0,0,-0.223694,211.4, 0.4, 0.3,0,0,1024,1024,1183,1024,0,0,24,0,209.4,-0.4,0,100,4.238,4.245,0,0,0,0,4.048,69.08,3.6089568084,3.608924,6,P-GPS,
6300,2022-08-15 19:56:55,0,0,3.937008,,,3.9370408084,3.937008,0,0,0,0,0,8.514,3.9370408084,3.937008,0,0,0,0,-0.894776,211.5, 0.3, 0.1,0,0,1024,1024,1024,1024,0,0,0,0,209.4,-0.4,0,100,4.238,4.245,0,0,0,0,4.048,69.08,3.9370408084,3.937008,6,P-GPS,
6400,2022-08-15 19:56:55,0,0,3.937008,,,3.9370408084,3.937008,0,0,0,0,0,8.514,3.9370408084,3.937008,0,0,0,0,-0.894776,211.5, 0.3, -0.1,0,0,1024,1024,1024,1024,0,0,0,0,209.4,-0.4,0,100,4.238,4.245,0,0,0,0,4.048,69.08,3.9370408084,3.937008,6,P-GPS,
6500,2022-08-15 19:56:56,0,0,4.265092,,,4.2651248084,4.265092,0,0,0,0,0,8.514,4.2651248084,4.265092,0,0,0,0,-0.671082,211.6, 0.5, -0.1,0,0,1024,1024,1024,1024,0,0,0,0,209.4,-0.4,0,100,4.238,4.245,0,0,0,0,4.048,69.08,4.2651248084,4.265092,6,P-GPS,
6600,2022-08-15 19:56:56,0,0,4.265092,,,4.2651248084,4.265092,0,0,0,0,0,8.457,4.2651248084,4.265092,0,0,0,0,-0.447388,211.6, 0.5, -0.1,0,0,1024,1024,1024,1024,0,0,0,0,209.4,-0.4,0,100,4.225,4.224,0,0,0,0,4.07,69.08,4.2651248084,4.265092,6,P-GPS,
6700,2022-08-15 19:56:56,0,0,4.265092,,,4.2651248084,4.265092,0,0,0,0,0,8.457,4.2651248084,4.265092,0,0,0,0,-0.223694,211.7, 0.4, -0.1,0,0,1024,1024,1024,1024,0,0,0,0,209.4,-0.4,0,100,4.225,4.224,0,0,0,0,4.07,69.08,4.2651248084,4.265092,6,P-GPS,
6800,2022-08-15 19:56:56,0,0,4.265092,,,4.2651248084,4.265092,0,0,0,0,0,8.457,4.2651248084,4.265092,0,0,0,0,0,211.8, 0.4, 0,0,0,1024,1024,1024,1024,0,0,0,0,209.4,-0.4,0,100,4.225,4.224,0,0,0,0,4.07,69.08,4.2651248084,4.265092,6,P-GPS,
6900,2022-08-15 19:56:56,0,0,4.265092,,,4.2651248084,4.265092,0,0,0,0,0,8.457,4.2651248084,4.265092,0,0,0,0,0,211.9, 0.4, 0,0,0,1024,1024,1024,1024,0,0,0,0,209.4,-0.4,0,100,4.225,4.224,0,0,0,0,4.07,69.08,4.2651248084,4.265092,6,P-GPS,
7000,2022-08-15 19:56:56,0,0,4.265092,,,4.2651248084,4.265092,0,0,0,0,0,8.457,4.2651248084,4.265092,0,0,0,0,0,211.9, 0.5, -0.2,0,0,1024,1024,1024,1024,0,0,0,0,209.4,-0.4,0,100,4.225,4.224,0,0,0,0,4.07,69.08,4.2651248084,4.265092,6,P-GPS,
7100,2022-08-15 19:56:56,0,0,4.265092,,,4.2651248084,4.265092,0,0,0,0,0,8.457,4.2651248084,4.265092,0,0,0,0,0,211.9, 0.4, -0.1,0,0,1024,1024,1024,1024,0,0,0,0,209.4,-0.4,0,100,4.225,4.224,0,0,0,0,4.07,69.08,4.2651248084,4.265092,6,P-GPS,
7200,2022-08-15 19:56:56,0,0,4.265092,,,4.2651248084,4.265092,0,0,0,0,0,8.457,4.2651248084,4.265092,0,0,0,0,0,212, 0.4, 0,0,0,1024,1024,1024,1024,0,0,0,0,209.4,-0.4,0,100,4.225,4.224,0,0,0,0,4.07,69.08,4.2651248084,4.265092,6,P-GPS,
7300,2022-08-15 19:56:56,0,0,4.265092,,,4.2651248084,4.265092,0,0,0,0,0,8.457,4.2651248084,4.265092,0,0,0,0,0,212, 0.4, 0,0,0,1024,1024,1024,1024,0,0,0,0,209.4,-0.4,0,100,4.225,4.224,0,0,0,0,4.07,69.08,4.2651248084,4.265092,6,P-GPS,
7400,2022-08-15 19:56:56,0,0,4.265092,,,4.2651248084,4.265092,0,0,0,0,0,8.457,4.2651248084,4.265092,0,0,0,0,0,212, 0.4, 0.2,0,0,1024,1024,1024,1024,0,0,0,0,209.4,-0.4,0,100,4.225,4.224,0,0,0,0,4.07,69.08,4.2651248084,4.265092,6,P-GPS,
7500,2022-08-15 19:56:57,0,0,4.265092,,,4.2651248084,4.265092,0,0,0,0,0,8.457,4.2651248084,4.265092,0,0,0,0,0,212.1, 0.5, 0.2,0,0,1024,1024,1024,1024,0,0,0,0,209.4,-0.4,0,100,4.225,4.224,0,0,0,0,4.07,69.08,4.2651248084,4.265092,6,P-GPS,
7600,2022-08-15 19:56:57,0,0,4.265092,,,4.2651248084,4.265092,0,0,0,0,0,8.449,4.2651248084,4.265092,0,0,0,0,0,212.1, 0.4, 0.2,0,0,1024,1024,1024,1024,0,0,0,0,209.4,-0.4,0,100,4.222,4.22,0,0,0,0,4.122,69.08,4.2651248084,4.265092,6,P-GPS,
7700,2022-08-15 19:56:57,0,0,4.265092,,,4.2651248084,4.265092,0,0,0,0,0,8.449,4.2651248084,4.265092,0,0,0,0,0,212.1, 0.4, 0.2,0,0,1024,1024,1024,1024,0,0,0,0,209.4,-0.4,0,100,4.222,4.22,0,0,0,0,4.122,69.08,4.2651248084,4.265092,6,P-GPS,
7800,2022-08-15 19:56:57,0,0,4.265092,,,4.2651248084,4.265092,0,0,0,0,0,8.449,4.2651248084,4.265092,0,0,0,0,0,212.2, 0.4, 0.1,0,0,1024,1024,1024,1024,0,0,0,0,209.4,-0.4,0,100,4.222,4.22,0,0,0,0,4.122,69.08,4.2651248084,4.265092,6,P-GPS,
7900,2022-08-15 19:56:57,0,0,4.265092,,,4.2651248084,4.265092,0,0,0,0,0,8.449,4.2651248084,4.265092,0,0,0,0,0,212.2, 0.4, 0,0,0,1024,1024,1024,1024,0,0,0,0,209.4,-0.4,0,100,4.222,4.22,0,0,0,0,4.122,69.08,4.2651248084,4.265092,6,P-GPS,
8000,2022-08-15 19:56:57,0,0,4.265092,,,4.2651248084,4.265092,0,0,0,0,0,8.449,4.2651248084,4.265092,0,0,0,0,0,212.2, 0.4, 0,0,0,1024,1024,1024,1024,0,0,0,0,209.4,-0.4,0,100,4.222,4.22,0,0,0,0,4.122,69.08,4.2651248084,4.265092,6,P-GPS,
8100,2022-08-15 19:56:57,0,0,4.265092,,,4.2651248084,4.265092,0,0,0,0,0,8.449,4.2651248084,4.265092,0,0,0,0,0,212.2, 0.4, 0,0,0,1024,1024,1024,1024,0,0,0,0,209.4,-0.4,0,100,4.222,4.22,0,0,0,0,4.122,69.08,4.2651248084,4.265092,6,P-GPS,
8200,2022-08-15 19:56:57,0,0,4.265092,,,4.2651248084,4.265092,0,0,0,0,0,8.449,4.2651248084,4.265092,0,0,0,0,0,212.3, 0.3, -0.1,0,0,1024,1024,1024,1024,0,0,0,0,209.4,-0.4,0,100,4.222,4.22,0,0,0,0,4.122,69.08,4.2651248084,4.265092,6,P-GPS,
8300,2022-08-15 19:56:57,0,0,4.265092,,,4.2651248084,4.265092,0,0,0,0,0,8.449,4.2651248084,4.265092,0,0,0,0,0,212.2, 0.4, -0.1,0,0,1024,1024,1024,1024,0,0,0,0,209.4,-0.4,0,100,4.222,4.22,0,0,0,0,4.122,69.08,4.2651248084,4.265092,6,P-GPS,
8400,2022-08-15 19:56:57,0,0,4.265092,,,4.2651248084,4.265092,0,0,0,0,0,8.449,4.2651248084,4.265092,0,0,0,0,0,212.3, 0.3, 0,0,0,1024,1024,1024,1024,0,0,0,0,209.4,-0.4,0,100,4.222,4.22,0,0,0,0,4.122,69.08,4.2651248084,4.265092,6,P-GPS,
8500,2022-08-15 19:56:58,0,0,4.265092,,,4.2651248084,4.265092,0,0,0,0,0,8.449,4.2651248084,4.265092,0,0,0,0,0,212.4, 0.4, 0,0,0,1024,1024,1024,1024,0,0,0,0,209.4,-0.4,0,100,4.222,4.22,0,0,0,0,4.122,69.08,4.2651248084,4.265092,6,P-GPS,
8600,2022-08-15 19:56:58,0,0,4.265092,,,4.2651248084,4.265092,0,0,0,0,0,8.436,4.2651248084,4.265092,0,0,0,0,0,212.4, 0.4, -0.1,0,0,1024,1024,981,1024,0,0,-7,0,209.4,-0.4,0,100,4.217,4.217,0,0,0,0,4.041,69.08,4.2651248084,4.265092,6,P-GPS,
8700,2022-08-15 19:56:58,0,0,4.265092,,,4.2651248084,4.265092,0,0,0,0,0,8.436,4.2651248084,4.265092,0,0,0,0,0,212.4, 0.4, 0,0,0,1024,1024,981,1024,0,0,-7,0,209.4,-0.4,0,100,4.217,4.217,0,0,0,0,4.041,69.08,4.2651248084,4.265092,6,P-GPS,
8800,2022-08-15 19:56:58,0,0,4.265092,,,4.2651248084,4.265092,0,0,0,0,0,8.436,4.2651248084,4.265092,0,0,0,0,0,212.4, 0.3, 0,0,0,1024,1024,364,1024,0,0,-100,0,209.4,-0.4,0,100,4.217,4.217,0,0,0,0,4.041,69.08,4.2651248084,4.265092,6,P-GPS,
8900,2022-08-15 19:56:58,0,0,4.265092,,,4.2651248084,4.265092,0,0,0,0,0,8.436,4.2651248084,4.265092,0,0,0,0,0.223694,212.4, 0.3, 0.1,0,0,1024,1024,364,1024,0,0,-100,0,209.4,-0.4,0,100,4.217,4.217,0,0,0,0,4.041,69.08,4.2651248084,4.265092,6,P-GPS,
9000,2022-08-15 19:56:58,0,0,4.265092,,,4.2651248084,4.265092,0,0,0,0,0,8.436,4.2651248084,4.265092,0,0,0,0,0.447388,212.5, 0.2, 0.1,0,0,1024,1024,534,1024,0,0,-74,0,209.4,-0.4,0,100,4.217,4.217,0,0,0,0,4.041,69.08,4.2651248084,4.265092,6,P-GPS,
9100,2022-08-15 19:56:58,0,0,4.265092,,,4.2651248084,3.937008,0,0,0,0,0,8.436,4.2651248084,4.265092,0,0,0,0,0.671082,212.5, 0.2, 0.2,0,0,1024,1024,1024,1024,0,0,0,0,209.4,-0.4,0,100,4.217,4.217,0,0,0,0,4.041,69.08,4.2651248084,4.265092,6,P-GPS,
9200,2022-08-15 19:56:58,0,0,3.937008,,,3.9370408084,3.937008,0,0,0,0,0,8.436,4.2651248084,4.265092,0,0,0,0,0.671082,212.5, 0.3, 0.1,0,0,1024,1024,1234,1024,0,0,32,0,209.4,-0.4,0,100,4.217,4.217,0,0,0,0,4.041,69.08,3.9370408084,3.937008,6,P-GPS,
9300,2022-08-15 19:56:58,0,0,3.937008,,,3.9370408084,3.937008,0,0,0,0,0,8.436,4.2651248084,4.265092,0,0,0,0,0.447388,212.5, 0.2, 0.2,0,0,1024,1024,1638,1024,0,0,93,0,209.4,-0.4,0,100,4.217,4.217,0,0,0,0,4.041,69.08,3.9370408084,3.937008,6,P-GPS,
9400,2022-08-15 19:56:58,0,0,3.937008,,,3.9370408084,3.608924,0,0,0,0,0,8.436,4.2651248084,4.265092,0,0,0,0,0,212.6, 0.3, 0.3,0,0,1024,1024,1299,1024,0,0,42,0,209.4,-0.4,0,100,4.217,4.217,0,0,0,0,4.041,69.08,3.9370408084,3.937008,6,P-GPS,
9500,2022-08-15 19:56:59,0,0,3.937008,,,3.9370408084,3.937008,0,0,0,0,0,8.436,4.2651248084,4.265092,0,0,0,0,-0.447388,212.5, 0.4, 0.3,0,0,1024,1024,1024,1024,0,0,0,0,209.4,-0.4,0,100,4.217,4.217,0,0,0,0,4.041,69.08,3.9370408084,3.937008,6,P-GPS,
9600,2022-08-15 19:56:59,0,0,3.937008,,,3.9370408084,3.937008,0,0,0,0,0,8.46,4.2651248084,4.265092,0,0,0,0,-1.11847,212.5, 0.4, 0.2,0,0,1024,1024,1024,1024,0,0,0,0,209.4,-0.4,0,100,4.207,4.211,0,0,0,0,3.901,69.08,3.9370408084,3.937008,6,P-GPS,
9700,2022-08-15 19:56:59,0,0,4.265092,,,4.2651248084,4.265092,0,0,0,0,0,8.46,4.2651248084,4.265092,0,0,0,0,-0.894776,212.5, 0.8, 0.1,0,0,1024,1024,1024,1024,0,0,0,0,209.4,-0.4,0,100,4.207,4.211,0,0,0,0,3.901,69.08,4.2651248084,4.265092,6,P-GPS,
9800,2022-08-15 19:56:59,0,0,4.265092,,,4.2651248084,4.265092,0,0,0,0,0,8.46,4.2651248084,4.265092,0,0,0,0,-0.447388,212.5, 0.6, 0.2,0,0,1024,1024,1024,1024,0,0,0,0,209.4,-0.4,0,100,4.207,4.211,0,0,0,0,3.901,69.08,4.2651248084,4.265092,6,P-GPS,
9900,2022-08-15 19:56:59,0,0,4.265092,,,4.2651248084,4.265092,0,0,0,0,0,8.46,4.2651248084,4.265092,0,0,0,0,-0.223694,212.6, 0.4, 0.1,0,0,1024,1024,1024,1024,0,0,0,0,209.4,-0.4,0,100,4.207,4.211,0,0,0,0,3.901,69.08,4.2651248084,4.265092,6,P-GPS,
10000,2022-08-15 19:56:59,0,0,4.265092,,,4.2651248084,4.265092,0,0,0,0,0,8.46,4.2651248084,4.265092,0,0,0,0,0,212.6, 0.6, 0.2,0,0,1024,1024,1024,1024,0,0,0,0,209.4,-0.4,0,100,4.207,4.211,0,0,0,0,3.901,69.08,4.2651248084,4.265092,6,P-GPS,
10100,2022-08-15 19:56:59,0,0,4.265092,,,4.2651248084,4.265092,0,0,0,0,0,8.46,4.2651248084,4.265092,0,0,0,0,0,212.6, 0.5, 0.1,0,0,1024,1024,1024,1024,0,0,0,0,209.4,-0.4,0,100,4.207,4.211,0,0,0,0,3.901,69.08,4.2651248084,4.265092,6,P-GPS,
10200,2022-08-15 19:56:59,0,0,4.265092,,,4.2651248084,4.265092,0,0,0,0,0,8.46,4.2651248084,4.265092,0,0,0,0,0,212.6, 0.4, -0.2,0,0,1024,1024,1024,1024,0,0,0,0,209.4,-0.4,0,100,4.207,4.211,0,0,0,0,3.901,69.08,4.2651248084,4.265092,6,P-GPS,
10300,2022-08-15 19:56:59,0,0,4.265092,,,4.2651248084,4.265092,0,0,0,0,0,8.46,4.2651248084,4.265092,0,0,0,0,0,212.5, 0.3, -0.1,0,0,1024,1024,1024,1024,0,0,0,0,209.4,-0.4,0,100,4.207,4.211,0,0,0,0,3.901,69.08,4.2651248084,4.265092,6,P-GPS,
10400,2022-08-15 19:56:59,0,0,4.265092,,,4.2651248084,4.265092,0,0,0,0,0,8.46,4.2651248084,4.265092,0,0,0,0,0,212.5, 0.3, -0.1,0,0,1024,1024,1024,1024,0,0,0,0,209.4,-0.4,0,100,4.207,4.211,0,0,0,0,3.901,69.08,4.2651248084,4.265092,6,P-GPS,
10500,2022-08-15 19:57:00,0,0,4.265092,,,4.2651248084,4.265092,0,0,0,0,0,8.46,4.2651248084,4.265092,0,0,0,0,0,212.6, 0.3, -0.1,0,0,1024,1024,1024,1024,0,0,0,0,209.4,-0.4,0,100,4.207,4.211,0,0,0,0,3.901,69.08,4.2651248084,4.265092,6,P-GPS,
10600,2022-08-15 19:57:00,0,0,4.265092,,,4.2651248084,4.265092,0,0,0,0,0,8.46,4.2651248084,4.265092,0,0,0,0,0,212.6, 0.3, -0.1,0,0,1024,1024,1024,1024,0,0,0,0,209.4,-0.4,0,100,4.207,4.211,0,0,0,0,3.901,69.08,4.2651248084,4.265092,6,P-GPS,
10700,2022-08-15 19:57:00,0,0,4.265092,,,4.2651248084,4.265092,0,0,0,0,0,8.438,4.2651248084,4.265092,0,0,0,0,0,212.6, 0.3, 0,0,0,1024,1024,1024,1024,0,0,0,0,209.4,-0.4,0,100,4.212,4.211,0,0,0,0,4.344,69.08,4.2651248084,4.265092,6,P-GPS,
10800,2022-08-15 19:57:00,0,0,4.593176,,,4.5932088084,4.265092,0,0,0,0,0,8.438,4.5932088084,4.593176,0,0,0,0,0,212.6, 0.3, 0,0,0,1024,1024,1024,1024,0,0,0,0,209.4,-0.4,0,100,4.212,4.211,0,0,0,0,4.344,69.08,4.5932088084,4.593176,6,P-GPS,
10900,2022-08-15 19:57:00,0,0,4.593176,,,4.5932088084,4.265092,0,0,0,0,0,8.438,4.5932088084,4.593176,0,0,0,0,0,212.6, 0.3, 0.1,0,0,1024,1024,1024,1024,0,0,0,0,209.4,-0.4,0,100,4.212,4.211,0,0,0,0,4.344,69.08,4.5932088084,4.593176,6,P-GPS,
11000,2022-08-15 19:57:00,0,0,4.593176,,,4.5932088084,4.265092,0,0,0,0,0,8.438,4.5932088084,4.593176,0,0,0,0,0,212.6, 0.3, 0.2,0,0,1024,1024,1024,1024,0,0,0,0,209.4,-0.4,0,100,4.212,4.211,0,0,0,0,4.344,69.08,4.5932088084,4.593176,6,P-GPS,
11100,2022-08-15 19:57:00,0,0,4.593176,,,4.5932088084,4.265092,0,0,0,0,0,8.438,4.5932088084,4.593176,0,0,0,0,0,212.7, 0.3, 0.2,0,0,1024,1024,1024,1024,0,0,0,0,209.4,-0.4,0,100,4.212,4.211,0,0,0,0,4.344,69.08,4.5932088084,4.593176,6,P-GPS,
11200,2022-08-15 19:57:00,0,0,4.593176,,,4.5932088084,4.265092,0,0,0,0,0,8.438,4.5932088084,4.593176,0,0,0,0,0,212.6, 0.3, 0.1,0,0,1024,1024,1024,1024,0,0,0,0,209.4,-0.4,0,100,4.212,4.211,0,0,0,0,4.344,69.08,4.5932088084,4.593176,6,P-GPS,
11300,2022-08-15 19:57:00,0,0,4.593176,,,4.5932088084,4.265092,0,0,0,0,0,8.438,4.5932088084,4.593176,0,0,0,0,0,212.6, 0.3, 0.2,0,0,1024,1024,1024,1024,0,0,0,0,209.4,-0.4,0,100,4.212,4.211,0,0,0,0,4.344,69.08,4.5932088084,4.593176,6,P-GPS,
11400,2022-08-15 19:57:00,0,0,4.593176,,,4.5932088084,4.265092,0,0,0,0,0,8.438,4.5932088084,4.593176,0,0,0,0,0,212.7, 0.3, 0.2,0,0,1024,1024,1024,1024,0,0,0,0,209.4,-0.4,0,100,4.212,4.211,0,0,0,0,4.344,69.08,4.5932088084,4.593176,6,P-GPS,
11500,2022-08-15 19:57:01,0,0,4.265092,,,4.2651248084,4.265092,0,0,0,0,0,8.438,4.5932088084,4.593176,0,0,0,0,0,212.6, 0.3, 0.1,0,0,1024,1024,1024,1024,0,0,0,0,209.4,-0.4,0,100,4.212,4.211,0,0,0,0,4.344,69.08,4.2651248084,4.265092,6,P-GPS,
11600,2022-08-15 19:57:01,0,0,4.265092,,,4.2651248084,4.265092,0,0,0,0,0,8.438,4.5932088084,4.593176,0,0,0,0,0,212.6, 0.2, 0.2,0,0,1024,1024,1024,1024,0,0,0,0,209.4,-0.4,0,100,4.212,4.211,0,0,0,0,4.344,69.08,4.2651248084,4.265092,6,P-GPS,
11700,2022-08-15 19:57:01,0,0,4.265092,,,4.2651248084,4.265092,0,0,0,0,0,8.419,4.5932088084,4.593176,0,0,0,0,0,212.7, 0.3, 0.3,0,0,1024,1024,1024,1024,0,0,0,0,209.4,-0.4,0,100,4.208,4.208,0,0,0,0,4.047,69.26,4.2651248084,4.265092,6,P-GPS,
11800,2022-08-15 19:57:01,0,0,4.265092,,,4.2651248084,4.265092,0,0,0,0,0,8.419,4.5932088084,4.593176,0,0,0,0,0,212.7, 0.3, 0.3,0,0,1024,1024,1024,1024,0,0,0,0,209.4,-0.4,0,100,4.208,4.208,0,0,0,0,4.047,69.26,4.2651248084,4.265092,6,P-GPS,
11900,2022-08-15 19:57:01,0,0,4.265092,,,4.2651248084,4.265092,0,0,0,0,0,8.419,4.5932088084,4.593176,0,0,0,0,0,212.7, 0.4, 0.2,0,0,1024,1024,1024,1024,0,0,0,0,209.4,-0.4,0,100,4.208,4.208,0,0,0,0,4.047,69.26,4.2651248084,4.265092,6,P-GPS,
12000,2022-08-15 19:57:01,0,0,4.265092,,,4.2651248084,4.265092,0,0,0,0,0,8.419,4.5932088084,4.593176,0,0,0,0,0,212.7, 0.3, 0.2,0,0,1024,1024,1024,1024,0,0,0,0,209.4,-0.4,0,100,4.208,4.208,0,0,0,0,4.047,69.26,4.2651248084,4.265092,6,P-GPS,
12100,2022-08-15 19:57:01,0,0,4.265092,,,4.2651248084,4.265092,0,0,0,0,0,8.419,4.5932088084,4.593176,0,0,0,0,0,212.7, 0.3, 0.2,0,0,1024,1024,1024,1024,0,0,0,0,209.4,-0.4,0,100,4.208,4.208,0,0,0,0,4.047,69.26,4.2651248084,4.265092,6,P-GPS,
12200,2022-08-15 19:57:01,0,0,4.265092,,,4.2651248084,4.265092,0,0,0,0,0,8.419,4.5932088084,4.593176,0,0,0,0,0,212.7, 0.2, 0.3,0,0,1024,1024,1024,1024,0,0,0,0,209.4,-0.4,0,100,4.208,4.208,0,0,0,0,4.047,69.26,4.2651248084,4.265092,6,P-GPS,
12300,2022-08-15 19:57:01,0,0,4.265092,,,4.2651248084,4.265092,0,0,0,0,0,8.419,4.5932088084,4.593176,0,0,0,0,0,212.7, 0.2, 0.3,0,0,1024,1024,1024,1024,0,0,0,0,209.4,-0.4,0,100,4.208,4.208,0,0,0,0,4.047,69.26,4.2651248084,4.265092,6,P-GPS,
12400,2022-08-15 19:57:01,0,0,4.265092,,,4.2651248084,4.265092,0,0,0,0,0,8.419,4.5932088084,4.593176,0,0,0,0,0,212.7, 0.3, 0.2,0,0,1024,1024,1024,1024,0,0,0,0,209.4,-0.4,0,100,4.208,4.208,0,0,0,0,4.047,69.26,4.2651248084,4.265092,6,P-GPS,
12500,2022-08-15 19:57:02,0,0,4.265092,,,4.2651248084,4.265092,0,0,0,0,0,8.419,4.5932088084,4.593176,0,0,0,0,0,212.7, 0.3, 0.1,0,0,1024,1024,1024,1024,0,0,0,0,209.4,-0.4,0,100,4.208,4.208,0,0,0,0,4.047,69.26,4.2651248084,4.265092,6,P-GPS,
12600,2022-08-15 19:57:02,0,0,4.265092,,,4.2651248084,4.265092,0,0,0,0,0,8.419,4.5932088084,4.593176,0,0,0,0,0,212.7, 0.3, 0.1,0,0,1024,1024,1024,1024,0,0,0,0,209.4,-0.4,0,100,4.208,4.208,0,0,0,0,4.047,69.26,4.2651248084,4.265092,6,P-GPS,
12700,2022-08-15 19:57:02,0,0,4.265092,,,4.2651248084,4.265092,0,0,0,0,0,8.414,4.5932088084,4.593176,0,0,0,0,0,212.7, 0.2, 0.2,0,0,1024,1024,1024,1024,0,0,0,0,209.4,-0.4,0,100,4.206,4.206,0,0,0,0,4.061,69.26,4.2651248084,4.265092,6,P-GPS,
12800,2022-08-15 19:57:02,0,0,4.265092,,,4.2651248084,4.265092,0,0,0,0,0,8.414,4.5932088084,4.593176,0,0,0,0,0,212.7, 0.3, 0.2,0,0,1024,1024,1024,1024,0,0,0,0,209.4,-0.4,0,100,4.206,4.206,0,0,0,0,4.061,69.26,4.2651248084,4.265092,6,P-GPS,
12900,2022-08-15 19:57:02,0,0,4.265092,,,4.2651248084,4.265092,0,0,0,0,0,8.414,4.5932088084,4.593176,0,0,0,0,0,212.7, 0.3, 0.2,0,0,1024,1024,1024,1024,0,0,0,0,209.4,-0.4,0,100,4.206,4.206,0,0,0,0,4.061,69.26,4.2651248084,4.265092,6,P-GPS,
13000,2022-08-15 19:57:02,0,0,4.265092,,,4.2651248084,4.265092,0,0,0,0,0,8.414,4.5932088084,4.593176,0,0,0,0,0,212.7, 0.3, 0.1,0,0,1024,1024,1024,1024,0,0,0,0,209.4,-0.4,0,100,4.206,4.206,0,0,0,0,4.061,69.26,4.2651248084,4.265092,6,P-GPS,
13100,2022-08-15 19:57:02,0,0,4.265092,,,4.2651248084,4.265092,0,0,0,0,0,8.414,4.5932088084,4.593176,0,0,0,0,0,212.8, 0.2, 0.2,0,0,1024,1024,1024,1024,0,0,0,0,209.4,-0.4,0,100,4.206,4.206,0,0,0,0,4.061,69.26,4.2651248084,4.265092,6,P-GPS,
13200,2022-08-15 19:57:02,0,0,4.265092,,,4.2651248084,4.265092,0,0,0,0,0,8.414,4.5932088084,4.593176,0,0,0,0,0,212.8, 0.2, 0.2,0,0,1024,1024,1024,1024,0,0,0,0,209.4,-0.4,0,100,4.206,4.206,0,0,0,0,4.061,69.26,4.2651248084,4.265092,6,P-GPS,
13300,2022-08-15 19:57:02,0,0,4.265092,,,4.2651248084,4.265092,0,0,0,0,0,8.414,4.5932088084,4.593176,0,0,0,0,0,212.8, 0, 0.2,0,0,1024,1024,1024,1024,0,0,0,0,209.4,-0.4,0,100,4.206,4.206,0,0,0,0,4.061,69.26,4.2651248084,4.265092,6,P-GPS,
13400,2022-08-15 19:57:02,0,0,4.265092,,,4.2651248084,4.265092,0,0,0,0,0,8.414,4.5932088084,4.593176,0,0,0,0,0,212.8, 0, 0,0,0,1024,794,1024,1024,0,-35,0,0,209.4,-0.4,0,100,4.206,4.206,0,0,0,0,4.061,69.26,4.2651248084,4.265092,6,P-GPS,
13500,2022-08-15 19:57:03,0,0,4.265092,,,4.2651248084,4.265092,0,0,0,0,0,8.414,4.5932088084,4.593176,0,0,0,0,0,212.8, 0.1, -0.7,0,0,1024,552,1024,1024,0,-72,0,0,209.4,-0.4,0,100,4.206,4.206,0,0,0,0,4.061,69.26,4.2651248084,4.265092,6,P-GPS,
13600,2022-08-15 19:57:03,0,0,4.265092,,,4.2651248084,4.265092,0,0,0,0,0,8.414,4.5932088084,4.593176,0,0,0,0,0,212.7, 0.1, -5.9,0,0,1024,462,1024,1024,0,-85,0,0,209.4,-0.4,0,100,4.206,4.206,0,0,0,0,4.061,69.26,4.2651248084,4.265092,6,P-GPS,
13700,2022-08-15 19:57:03,0,0,4.265092,,,4.2651248084,4.265092,0.223694,0,0,0,0,8.409,4.5932088084,4.593176,0,0,0,0.223694,0,212.5, 0.1, -12.1,0,0,1024,1024,1024,1024,0,0,0,0,209.4,-0.4,0,100,4.204,4.202,0,0,0,0,4.055,69.26,4.2651248084,4.265092,6,P-GPS,
13800,2022-08-15 19:57:03,0,0,4.265092,,,4.2651248084,4.265092,0.8052984,0,0,0,0,8.409,4.5932088084,4.593176,0,0,-0.447388,0.671082,0,212.5, 0.2, -15.6,0,0,1024,1024,1024,1024,0,0,0,0,209.4,-0.4,0,100,4.204,4.202,0,0,0,0,4.055,69.26,4.2651248084,4.265092,6,P-GPS,
13900,2022-08-15 19:57:03,0,0,4.265092,,,4.2651248084,4.265092,1.2974252,0,0,0,0,8.409,4.5932088084,4.593176,0,0,-0.671082,1.11847,0,212.9, 0.4, -2.4,0,0,1024,1024,1024,1024,0,0,0,0,209.4,-0.4,0,100,4.204,4.202,0,0,0,0,4.055,69.26,4.2651248084,4.265092,6,P-GPS,
14000,2022-08-15 19:57:03,0,0,4.265092,,,4.2651248084,4.265092,1.2974252,0,0,0,0,8.409,4.5932088084,4.593176,0,0,-0.671082,1.11847,0,213.1, 0.2, 5.2,0,0,1024,1024,1024,1024,0,0,0,0,209.4,-0.4,0,100,4.204,4.202,0,0,0,0,4.055,69.26,4.2651248084,4.265092,6,P-GPS,
14100,2022-08-15 19:57:03,0,0,4.265092,,,4.2651248084,4.265092,1.006623,0,0,0,0,8.409,4.5932088084,4.593176,0,0,-0.447388,0.894776,0,212.9, 0.1, 6,0,0,1024,1024,1024,1024,0,0,0,0,209.4,-0.4,0,100,4.204,4.202,0,0,0,0,4.055,69.26,4.2651248084,4.265092,6,P-GPS,
14200,2022-08-15 19:57:03,0,0,4.265092,,,4.2651248084,4.265092,0.7158208,0,0,0,0,8.409,4.5932088084,4.593176,0,0,-0.223694,0.671082,0,212.8, 0.1, 5.2,0,0,1024,1128,1024,1024,0,16,0,0,209.4,-0.4,0,100,4.204,4.202,0,0,0,0,4.055,69.26,4.2651248084,4.265092,6,P-GPS,
14300,2022-08-15 19:57:03,0,0,4.265092,,,4.2651248084,4.265092,0.4921268,0,0,0,0,8.409,4.5932088084,4.593176,0,0,-0.223694,0.447388,0,212.7, 0.1, 4.3,0,0,1024,1552,1024,1024,0,80,0,0,209.4,-0.4,0,100,4.204,4.202,0,0,0,0,4.055,69.26,4.2651248084,4.265092,6,P-GPS,
14400,2022-08-15 19:57:03,0,0,4.265092,,,4.2651248084,4.265092,0.223694,0,0,0,0,8.409,4.5932088084,4.593176,0,0,0,0.223694,0,212.8, 0.2, 8.6,0,0,1024,1600,1024,1024,0,87,0,0,209.4,-0.4,0,100,4.204,4.202,0,0,0,0,4.055,69.26,4.2651248084,4.265092,6,P-GPS,
14500,2022-08-15 19:57:04,0,0,4.265092,,,4.2651248084,4.265092,0,0,0,0,0,8.409,4.5932088084,4.593176,0,0,0,0,0,213, 0.2, 15.7,0,0,1024,1438,1024,1024,0,63,0,0,209.4,-0.4,0,100,4.204,4.202,0,0,0,0,4.055,69.26,4.2651248084,4.265092,6,P-GPS,
14600,2022-08-15 19:57:04,0,0,4.265092,,,4.2651248084,4.265092,0.4921268,0,0,0,0,8.409,4.5932088084,4.593176,0,0,0.223694,-0.447388,0,213, 0.1, 18.8,0,0,1024,1024,1024,1024,0,0,0,0,209.4,-0.4,0,100,4.204,4.202,0,0,0,0,4.055,69.26,4.2651248084,4.265092,6,P-GPS,
14700,2022-08-15 19:57:04,0,0,4.265092,,,4.2651248084,4.265092,1.11847,0,0,0,0,8.394,4.5932088084,4.593176,0,0,0.671082,-0.894776,0,212.7, 0, 13.7,0,0,1024,1024,1024,1024,0,0,0,0,209.4,-0.4,0,100,4.202,4.2,0,0,0,0,4.144,69.26,4.2651248084,4.265092,6,P-GPS,
14800,2022-08-15 19:57:04,0,0,4.265092,,,4.2651248084,4.265092,1.6105968,0,0,0,0,8.394,4.5932088084,4.593176,0,0,0.894776,-1.342164,0,212.2, 0, -3,0,0,1024,1024,1024,1024,0,0,0,0,209.4,-0.4,0,100,4.202,4.2,0,0,0,0,4.144,69.26,4.2651248084,4.265092,6,P-GPS,
14900,2022-08-15 19:57:04,0,0,4.265092,,,4.2651248084,4.265092,1.2974252,0,0,0,0,8.394,4.5932088084,4.593176,0,0,0.671082,-1.11847,0,212.3, -0.1, -6.7,0,0,1024,1024,1024,1024,0,0,0,0,209.4,-0.4,0,100,4.202,4.2,0,0,0,0,4.144,69.26,4.2651248084,4.265092,6,P-GPS,
15000,2022-08-15 19:57:04,0,0,4.265092,,,4.2651248084,4.265092,1.11847,0,0,0,0,8.394,4.5932088084,4.593176,0,0,0.671082,-0.894776,0,212.6, 0, -6.2,0,0,1024,620,1024,1024,0,-61,0,0,209.4,-0.4,0,100,4.202,4.2,0,0,0,0,4.144,69.26,4.2651248084,4.265092,6,P-GPS,
15100,2022-08-15 19:57:04,0,0,4.265092,,,4.2651248084,4.265092,1.11847,0,0,0,0,8.394,4.5932088084,4.593176,0,0,0.447388,-0.671082,0,212.7, 0.1, -7,0,0,1024,364,1024,1024,0,-100,0,0,209.4,-0.4,0,100,4.202,4.2,0,0,0,0,4.144,69.26,4.2651248084,4.265092,6,P-GPS,
15200,2022-08-15 19:57:04,0,0,4.265092,,,4.2651248084,4.265092,0.3131716,0,0,0,0,8.394,4.5932088084,4.593176,0,0,0.223694,-0.223694,0,212.5, 0, -15.5,0,0,1024,1024,1024,1024,0,0,0,0,209.4,-0.4,0,100,4.202,4.2,0,0,0,0,4.144,69.26,4.2651248084,4.265092,6,P-GPS,
15300,2022-08-15 19:57:04,0,0,4.265092,,,4.2651248084,4.265092,0,0,0,0,0,8.394,4.5932088084,4.593176,0,0,0,0,0,212.4, 0, -18.9,0,0,1024,1024,1024,1024,0,0,0,0,209.4,-0.4,0,100,4.202,4.2,0,0,0,0,4.144,69.26,4.2651248084,4.265092,6,P-GPS,
15400,2022-08-15 19:57:04,0,0,4.265092,,,4.2651248084,4.265092,0.4921268,0,0,0,0,8.394,4.5932088084,4.593176,0,0,-0.223694,0.447388,0,213.1, 0.1, 0.1,0,0,1024,1024,1024,1024,0,0,0,0,209.4,-0.4,0,100,4.202,4.2,0,0,0,0,4.144,69.26,4.2651248084,4.265092,6,P-GPS,
15500,2022-08-15 19:57:04,0,0,4.265092,,,4.2651248084,4.265092,0.4921268,0,0,0,0,8.394,4.5932088084,4.593176,0,0,-0.223694,0.447388,0,213, 0, 3.2,0,0,1024,1352,1024,1024,0,50,0,0,209.4,-0.4,0,100,4.202,4.2,0,0,0,0,4.144,69.26,4.2651248084,4.265092,6,P-GPS,
15600,2022-08-15 19:57:05,0,0,4.265092,,,4.2651248084,4.265092,0.3131716,0,0,0,0,8.394,4.5932088084,4.593176,0,0,-0.223694,0.223694,0,212.8, 0.1, 2.8,0,0,1024,1492,1024,1024,0,71,0,0,209.4,-0.4,0,100,4.202,4.2,0,0,0,0,4.144,69.26,4.2651248084,4.265092,6,P-GPS,
15700,2022-08-15 19:57:05,0,0,4.265092,,,4.2651248084,4.265092,0.223694,0,0,0,0,8.394,4.5932088084,4.593176,0,0,0,0.223694,0,212.9, 0.2, 7.5,0,0,1024,1024,1024,1024,0,0,0,0,209.4,-0.4,0,100,4.202,4.2,0,0,0,0,4.144,69.26,4.2651248084,4.265092,6,P-GPS,
15800,2022-08-15 19:57:05,0,0,4.265092,,,4.2651248084,4.265092,0,0,0,0,0,8.399,4.5932088084,4.593176,0,0,0,0,0,213, 0.1, 12.6,0,0,1024,1024,1024,1024,0,0,0,0,209.4,-0.4,0,100,4.187,4.187,0,0,0,0,4.191,69.44,4.2651248084,4.265092,6,P-GPS,
15900,2022-08-15 19:57:05,0,0,4.265092,,,4.2651248084,4.265092,0.3131716,0,0,0,0,8.399,4.5932088084,4.593176,0,0,0.223694,-0.223694,0,212.7, 0, 3.2,0,0,1024,1024,1024,1024,0,0,0,0,209.4,-0.4,0,100,4.187,4.187,0,0,0,0,4.191,69.44,4.2651248084,4.265092,6,P-GPS,
16000,2022-08-15 19:57:05,0,0,4.265092,,,4.2651248084,4.265092,0.3131716,0,0,0,0,8.399,4.5932088084,4.593176,0,0,0.223694,-0.223694,0,212.6, 0, -1.7,0,0,1024,1024,1024,1024,0,0,0,0,209.4,-0.4,0,100,4.187,4.187,0,0,0,0,4.191,69.44,4.2651248084,4.265092,6,P-GPS,
16100,2022-08-15 19:57:05,0,0,4.265092,,,4.2651248084,4.265092,0.3131716,0,0,0,0,8.399,4.5932088084,4.593176,0,0,0.223694,-0.223694,0,212.7, 0.2, -1.8,0,0,1024,1024,1024,1024,0,0,0,0,209.4,-0.4,0,100,4.187,4.187,0,0,0,0,4.191,69.44,4.2651248084,4.265092,6,P-GPS,
16200,2022-08-15 19:57:05,0,0,4.265092,,,4.2651248084,4.265092,0.223694,0,0,0,0,8.399,4.5932088084,4.593176,0,0,0,-0.223694,0,212.7, 0.1, -1.7,0,0,1024,1024,1024,1024,0,0,0,0,209.4,-0.4,0,100,4.187,4.187,0,0,0,0,4.191,69.44,4.2651248084,4.265092,6,P-GPS,
16300,2022-08-15 19:57:05,0,0,4.265092,,,4.2651248084,4.265092,0,0,0,0,0,8.399,4.5932088084,4.593176,0,0,0,0,0,212.7, 0, -1.4,0,0,1024,1024,1024,1024,0,0,0,0,209.4,-0.4,0,100,4.187,4.187,0,0,0,0,4.191,69.44,4.2651248084,4.265092,6,P-GPS,
16400,2022-08-15 19:57:05,0,0,4.265092,,,4.2651248084,4.265092,0,0,0,0,0,8.399,4.5932088084,4.593176,0,0,0,0,0,212.7, 0, -1.5,0,0,1024,1402,1024,1024,0,57,0,0,209.4,-0.4,0,100,4.187,4.187,0,0,0,0,4.191,69.44,4.2651248084,4.265092,6,P-GPS,
16500,2022-08-15 19:57:06,0,0,4.265092,,,4.2651248084,4.265092,0,0,0,0,0,8.399,4.5932088084,4.593176,0,0,0,0,0,212.6, -0.1, -1.2,0,0,1024,1684,1024,1024,0,100,0,0,209.4,-0.4,0,100,4.187,4.187,0,0,0,0,4.191,69.44,4.2651248084,4.265092,6,P-GPS,
16600,2022-08-15 19:57:06,0,0,4.265092,,,4.2651248084,4.265092,0,0,0,0,0,8.399,4.5932088084,4.593176,0,0,0,0,0,212.7, -0.2, 6.7,0,0,1024,1388,1024,1024,0,55,0,0,209.4,-0.4,0,100,4.187,4.187,0,0,0,0,4.191,69.44,4.2651248084,4.265092,6,P-GPS,
16700,2022-08-15 19:57:06,0,0,4.265092,,,4.2651248084,4.265092,0.3131716,0,0,0,0,8.399,4.5932088084,4.593176,0,0,0.223694,-0.223694,0,213, -0.1, 18,0,0,1024,1024,1024,1024,0,0,0,0,209.4,-0.4,0,100,4.187,4.187,0,0,0,0,4.191,69.44,4.2651248084,4.265092,6,P-GPS,
16800,2022-08-15 19:57:06,0,0,4.265092,,,4.2651248084,4.265092,1.11847,0,0,0,0,8.383,4.5932088084,4.593176,0,0,0.671082,-0.894776,0,212.8, 0, 15.9,0,0,1024,1024,1024,1024,0,0,0,0,209.4,-0.4,0,100,4.198,4.197,0,0,0,0,4.202,69.44,4.2651248084,4.265092,6,P-GPS,
16900,2022-08-15 19:57:06,0,0,4.265092,,,4.2651248084,4.265092,1.2974252,0,0,0,0,8.383,4.5932088084,4.593176,0,0,0.671082,-1.11847,0,212.1, 0, -3.2,0,0,1024,1287,1024,1024,0,40,0,0,209.4,-0.4,0,100,4.198,4.197,0,0,0,0,4.202,69.44,4.2651248084,4.265092,6,P-GPS,
17000,2022-08-15 19:57:06,0,0,4.265092,,,4.2651248084,4.265092,1.2974252,0,0,0,0,8.383,4.5932088084,4.593176,0,0,0.671082,-1.11847,0,212.3, 0, -3.7,0,0,1024,1502,1024,1024,0,72,0,0,209.4,-0.4,0,100,4.198,4.197,0,0,0,0,4.202,69.44,4.2651248084,4.265092,6,P-GPS,
17100,2022-08-15 19:57:06,0,0,4.265092,,,4.2651248084,4.265092,1.11847,0,0,0,0,8.383,4.5932088084,4.593176,0,0,0.671082,-0.894776,0,212.7, 0, 5,0,0,1024,1024,1024,1024,0,0,0,0,209.4,-0.4,0,100,4.198,4.197,0,0,0,0,4.202,69.44,4.2651248084,4.265092,6,P-GPS,
17200,2022-08-15 19:57:06,0,0,4.265092,,,4.2651248084,4.265092,1.2974252,0,0,0,0,8.383,4.5932088084,4.593176,0,0,0.671082,-1.11847,0,212.9, 0, 7.7,0,0,1024,1024,1024,1024,0,0,0,0,209.4,-0.4,0,100,4.198,4.197,0,0,0,0,4.202,69.44,4.2651248084,4.265092,6,P-GPS,
17300,2022-08-15 19:57:06,0,0,4.265092,,,4.2651248084,4.265092,1.2974252,0,0,0,0,8.383,4.5932088084,4.593176,0,0,0.671082,-1.11847,0,212.3, 0.1, -4.6,0,0,1024,1024,1024,1024,0,0,0,0,209.4,-0.4,0,100,4.198,4.197,0,0,0,0,4.202,69.44,4.2651248084,4.265092,6,P-GPS,
17400,2022-08-15 19:57:06,0,0,4.265092,,,4.2651248084,4.265092,1.006623,0,0,0,0,8.383,4.5932088084,4.593176,0,0,0.447388,-0.894776,0,212.5, 0, -6.6,0,0,1024,1024,1024,1024,0,0,0,0,209.4,-0.4,0,100,4.198,4.197,0,0,0,0,4.202,69.44,4.2651248084,4.265092,6,P-GPS,
17500,2022-08-15 19:57:07,0,0,4.265092,,,4.2651248084,4.265092,0.8052984,0,0,0,0,8.383,4.5932088084,4.593176,0,0,0.447388,-0.671082,0,212.7, 0.2, -5.6,0,0,1024,1024,1024,1024,0,0,0,0,209.4,-0.4,0,100,4.198,4.197,0,0,0,0,4.202,69.44,4.2651248084,4.265092,6,P-GPS,
17600,2022-08-15 19:57:07,0,0,4.265092,,,4.2651248084,4.265092,0.4921268,0,0,0,0,8.383,4.5932088084,4.593176,0,0,0.223694,-0.447388,0,212.7, 0.3, -4.9,0,0,1024,1024,1024,1024,0,0,0,0,209.4,-0.4,0,100,4.198,4.197,0,0,0,0,4.202,69.44,4.2651248084,4.265092,6,P-GPS,
17700,2022-08-15 19:57:07,0,0,4.265092,,,4.2651248084,4.265092,0.4921268,0,0,0,0,8.383,4.5932088084,4.593176,0,0,0.223694,-0.447388,0,212.7, 0.4, -4,0,0,1024,1024,1024,1024,0,0,0,0,209.4,-0.4,0,100,4.198,4.197,0,0,0,0,4.202,69.44,4.2651248084,4.265092,6,P-GPS,
17800,2022-08-15 19:57:07,0,0,4.265092,,,4.2651248084,4.265092,0.223694,0,0,0,0,8.376,4.5932088084,4.593176,0,0,0,-0.223694,0,212.7, 0.4, -3,0,0,1024,1024,1024,1024,0,0,0,0,209.4,-0.4,0,100,4.194,4.192,0,0,0,0,4.149,69.44,4.2651248084,4.265092,6,P-GPS,
17900,2022-08-15 19:57:07,0,0,4.265092,,,4.2651248084,4.265092,0,0,0,0,0,8.376,4.5932088084,4.593176,0,0,0,0,0,212.7, 0.4, -2,0,0,1024,1024,1024,1024,0,0,0,0,209.4,-0.4,0,100,4.194,4.192,0,0,0,0,4.149,69.44,4.2651248084,4.265092,6,P-GPS,
18000,2022-08-15 19:57:07,0,0,4.265092,,,4.2651248084,4.265092,0,0,0,0,0,8.376,4.5932088084,4.593176,0,0,0,0,0,212.8, 0.3, -1.2,0,0,1024,1024,1024,1024,0,0,0,0,209.4,-0.4,0,100,4.194,4.192,0,0,0,0,4.149,69.44,4.2651248084,4.265092,6,P-GPS,
18100,2022-08-15 19:57:07,0,0,4.265092,,,4.2651248084,4.265092,0,0,0,0,0,8.376,4.5932088084,4.593176,0,0,0,0,0,212.8, 0.3, -1,0,0,1024,1024,1024,1024,0,0,0,0,209.4,-0.4,0,100,4.194,4.192,0,0,0,0,4.149,69.44,4.2651248084,4.265092,6,P-GPS,
18200,2022-08-15 19:57:07,0,0,4.265092,,,4.2651248084,4.265092,0,0,0,0,0,8.376,4.5932088084,4.593176,0,0,0,0,0,212.8, 0.2, -0.9,0,0,1024,1024,1024,1024,0,0,0,0,209.4,-0.4,0,100,4.194,4.192,0,0,0,0,4.149,69.44,4.2651248084,4.265092,6,P-GPS,
18300,2022-08-15 19:57:07,0,0,4.265092,,,4.2651248084,4.265092,0,0,0,0,0,8.376,4.5932088084,4.593176,0,0,0,0,0,212.8, 0.1, -0.9,0,0,1024,1024,1024,1024,0,0,0,0,209.4,-0.4,0,100,4.194,4.192,0,0,0,0,4.149,69.44,4.2651248084,4.265092,6,P-GPS,
18400,2022-08-15 19:57:07,0,0,4.265092,,,4.2651248084,4.265092,0,0,0,0,0,8.376,4.5932088084,4.593176,0,0,0,0,0,212.8, 0.2, -0.8,0,0,1024,1024,1024,1024,0,0,0,0,209.4,-0.4,0,100,4.194,4.192,0,0,0,0,4.149,69.44,4.2651248084,4.265092,6,P-GPS,
18500,2022-08-15 19:57:08,0,0,4.265092,,,4.2651248084,4.265092,0,0,0,0,0,8.376,4.5932088084,4.593176,0,0,0,0,0,212.8, 0.2, -1,0,0,1024,1024,1024,1024,0,0,0,0,209.4,-0.4,0,100,4.194,4.192,0,0,0,0,4.149,69.44,4.2651248084,4.265092,6,P-GPS,
18600,2022-08-15 19:57:08,0,0,4.265092,,,4.2651248084,4.265092,0,0,0,0,0,8.376,4.5932088084,4.593176,0,0,0,0,0,212.8, 0.2, -0.6,0,0,1024,1024,1024,1024,0,0,0,0,209.4,-0.4,0,100,4.194,4.192,0,0,0,0,4.149,69.44,4.2651248084,4.265092,6,P-GPS,
18700,2022-08-15 19:57:08,0,0,4.265092,,,4.2651248084,4.265092,0,0,0,0,0,8.376,4.5932088084,4.593176,0,0,0,0,0,212.9, 0.2, -0.7,0,0,1024,1024,1024,1024,0,0,0,0,209.4,-0.4,0,100,4.194,4.192,0,0,0,0,4.149,69.44,4.2651248084,4.265092,6,P-GPS,
18800,2022-08-15 19:57:08,0,0,4.265092,,,4.2651248084,4.265092,0,0,0,0,0,8.389,4.5932088084,4.593176,0,0,0,0,0,212.9, 0, -0.5,0,0,1024,1024,1024,901,0,0,0,-19,209.4,-0.4,0,100,4.193,4.192,0,0,0,0,4.122,69.44,4.2651248084,4.265092,6,P-GPS,
18900,2022-08-15 19:57:08,0,0,4.265092,,,4.2651248084,4.265092,0,0,0,0,0,8.389,4.5932088084,4.593176,0,0,0,0,0,212.9, 0, -0.5,0,0,1024,1024,1024,901,0,0,0,-19,209.4,-0.4,0,100,4.193,4.192,0,0,0,0,4.122,69.44,4.2651248084,4.265092,6,P-GPS,
19000,2022-08-15 19:57:08,0,0,4.265092,,,4.2651248084,4.265092,0,0,0,0,0,8.389,4.5932088084,4.593176,0,0,0,0,0,212.8, 0, -0.3,0,0,1024,1024,1024,465,0,0,0,-85,209.2,-0.4,0,100,4.193,4.192,0,0,0,0,4.122,69.44,4.2651248084,4.265092,6,P-GPS,
19100,2022-08-15 19:57:08,0,0,4.265092,,,4.2651248084,4.265092,0,0,0,0,0,8.389,4.5932088084,4.593176,0,0,0,0,0,212.1, 0.1, -0.2,0,0,1024,1024,1024,450,0,0,0,-87,207.6,-0.4,0,100,4.193,4.192,0,0,0,0,4.122,69.44,4.2651248084,4.265092,6,P-GPS,
19200,2022-08-15 19:57:08,0,0,4.265092,,,4.2651248084,4.265092,0,0,0,0,0,8.389,4.5932088084,4.593176,0,0,0,0,0,209.6, 0.4, 0,0,0,1024,1024,1024,407,0,0,0,-93,204.2,-0.4,0,100,4.193,4.192,0,0,0,0,4.122,69.44,4.2651248084,4.265092,6,P-GPS,
19300,2022-08-15 19:57:08,0,0,4.265092,,,4.2651248084,4.265092,0,0,0,0,0,8.389,4.5932088084,4.593176,0,0,0,0,0,206, 0.4, 0,0,0,1024,1024,1024,364,0,0,0,-100,200.3,-0.4,0,100,4.193,4.192,0,0,0,0,4.122,69.44,4.2651248084,4.265092,6,P-GPS,
19400,2022-08-15 19:57:08,0,0,4.265092,,,4.2651248084,4.265092,0,0,0,0,0,8.389,4.5932088084,4.593176,0,0,0,0,0,202, 0.4, 0.1,0,0,1024,1024,1024,364,0,0,0,-100,195.9,-0.4,0,100,4.193,4.192,0,0,0,0,4.122,69.44,4.2651248084,4.265092,6,P-GPS,
19500,2022-08-15 19:57:09,0,0,4.265092,,,4.2651248084,4.265092,0,0,0,0,0,8.389,4.5932088084,4.593176,0,0,0,0,0,197.5, 0.6, 0.1,0,0,1024,1024,1024,364,0,0,0,-100,191.1,-0.4,0,100,4.193,4.192,0,0,0,0,4.122,69.44,4.2651248084,4.265092,6,P-GPS,
19600,2022-08-15 19:57:09,0,0,4.265092,,,4.2651248084,4.265092,0,0,0,0,0,8.389,4.5932088084,4.593176,0,0,0,0,0,192.9, 0.5, 0.1,0,0,1024,1024,1024,364,0,0,0,-100,186.3,-0.4,0,100,4.193,4.192,0,0,0,0,4.122,69.44,4.2651248084,4.265092,6,P-GPS,
19700,2022-08-15 19:57:09,0,0,4.265092,,,4.2651248084,4.265092,0,0,0,0,0,8.389,4.5932088084,4.593176,0,0,0,0,0,188.2, 0.3, 0,0,0,1024,1024,1024,364,0,0,0,-100,181.5,-0.4,0,100,4.193,4.192,0,0,0,0,4.122,69.44,4.2651248084,4.265092,6,P-GPS,
19800,2022-08-15 19:57:09,0,0,4.265092,,,4.2651248084,4.265092,0,0,0,0,0,8.383,4.5932088084,4.593176,0,0,0,0,0,183.6, 0.1, 0,0,0,1024,1024,1024,364,0,0,0,-100,176.6,-0.4,0,99,4.191,4.187,0,0,0,0,4.1,69.62,4.2651248084,4.265092,6,P-GPS,
19900,2022-08-15 19:57:09,0,0,4.265092,,,4.2651248084,4.265092,0,0,0,0,0,8.383,4.5932088084,4.593176,0,0,0,0,0,178.6, 0.1, 0,0,0,1024,1024,1024,364,0,0,0,-100,171.8,-0.4,0,99,4.191,4.187,0,0,0,0,4.1,69.62,4.2651248084,4.265092,6,P-GPS,
20000,2022-08-15 19:57:09,0,0,4.265092,,,4.2651248084,4.265092,0,0,0,0,0,8.383,4.5932088084,4.593176,0,0,0,0,0,173.8, 0.1, 0.1,0,0,1024,1024,1024,364,0,0,0,-100,167,-0.4,0,99,4.191,4.187,0,0,0,0,4.1,69.62,4.2651248084,4.265092,6,P-GPS,
20100,2022-08-15 19:57:09,0,0,4.593176,,,4.5932088084,4.265092,0,0,0,0,0,8.383,4.5932088084,4.593176,0,0,0,0,0,169, 0, 0,0,0,1024,1024,1024,364,0,0,0,-100,162.2,-0.4,0,99,4.191,4.187,0,0,0,0,4.1,69.62,4.5932088084,4.593176,6,P-GPS,
20200,2022-08-15 19:57:09,0,0,4.593176,,,4.5932088084,4.265092,0,0,0,0,0,8.383,4.5932088084,4.593176,0,0,0,0,0,164.2, 0, 0,0,0,1024,1024,1024,364,0,0,0,-100,157.4,-0.4,0,99,4.191,4.187,0,0,0,0,4.1,69.62,4.5932088084,4.593176,6,P-GPS,
20300,2022-08-15 19:57:09,0,0,4.593176,,,4.5932088084,4.265092,0,0,0,0,0,8.383,4.5932088084,4.593176,0,0,0,0,0,159.4, 0, 0.1,0,0,1024,1024,1024,364,0,0,0,-100,152.6,-0.4,0,99,4.191,4.187,0,0,0,0,4.1,69.62,4.5932088084,4.593176,6,P-GPS,
20400,2022-08-15 19:57:09,0,0,4.593176,,,4.5932088084,4.265092,0,0,0,0,0,8.383,4.5932088084,4.593176,0,0,0,0,0,154.6, 0.5, -0.1,0,0,1024,1024,1024,364,0,0,0,-100,147.8,-0.4,0,99,4.191,4.187,0,0,0,0,4.1,69.62,4.5932088084,4.593176,6,P-GPS,
20500,2022-08-15 19:57:09,0,0,4.593176,,,4.5932088084,4.265092,0,0,0,0,0,8.383,4.5932088084,4.593176,0,0,0,0,0,149.8, 0.5, -0.4,0,0,1024,1024,1024,364,0,0,0,-100,143,-0.4,0,99,4.191,4.187,0,0,0,0,4.1,69.62,4.5932088084,4.593176,6,P-GPS,
20600,2022-08-15 19:57:10,0,0,4.593176,,,4.5932088084,4.265092,0,0,0,0,0,8.383,4.5932088084,4.593176,0,0,0,0,0,145, 0.4, -0.5,0,0,1024,1024,1024,364,0,0,0,-100,138.2,-0.4,0,99,4.191,4.187,0,0,0,0,4.1,69.62,4.5932088084,4.593176,6,P-GPS,
20700,2022-08-15 19:57:10,0,0,4.593176,,,4.5932088084,4.265092,0,0,0,0,0,8.383,4.5932088084,4.593176,0,0,0,0,0,140.2, 0.6, -0.4,0,0,1024,1024,1024,364,0,0,0,-100,133.4,-0.4,0,99,4.191,4.187,0,0,0,0,4.1,69.62,4.5932088084,4.593176,6,P-GPS,
20800,2022-08-15 19:57:10,0,0,4.593176,,,4.5932088084,4.265092,0,0,0,0,0,8.383,4.5932088084,4.593176,0,0,0,0,0,135.4, 0.7, -0.1,0,0,1024,1024,1024,364,0,0,0,-100,128.6,-0.4,0,99,4.191,4.187,0,0,0,0,4.1,69.62,4.5932088084,4.593176,6,P-GPS,
20900,2022-08-15 19:57:10,0,0,4.593176,,,4.5932088084,4.265092,0,0,0,0,0,8.379,4.5932088084,4.593176,0,0,0,0,0,130.5, 0.7, 0,0,0,1024,1024,1024,364,0,0,0,-100,123.8,-0.4,0,99,4.191,4.187,0,0,0,0,4.141,69.62,4.5932088084,4.593176,6,P-GPS,
21000,2022-08-15 19:57:10,0,0,4.593176,,,4.5932088084,4.265092,0,0,0,0,0,8.379,4.5932088084,4.593176,0,0,0,0,0,125.8, 0.7, 0,0,0,1024,1024,1024,364,0,0,0,-100,119,-0.4,0,99,4.191,4.187,0,0,0,0,4.141,69.62,4.5932088084,4.593176,6,P-GPS,
21100,2022-08-15 19:57:10,0,0,4.593176,,,4.5932088084,4.265092,0,0,0,0,0,8.379,4.5932088084,4.593176,0,0,0,0,0,121, 0.7, 0.2,0,0,1024,1024,1024,364,0,0,0,-100,114.2,-0.4,0,99,4.191,4.187,0,0,0,0,4.141,69.62,4.5932088084,4.593176,6,P-GPS,
21200,2022-08-15 19:57:10,0,0,4.593176,,,4.5932088084,4.265092,0,0,0,0,0,8.379,4.5932088084,4.593176,0,0,0,0,0,116.2, 0.6, 0.4,0,0,1024,1024,1024,364,0,0,0,-100,109.4,-0.4,0,99,4.191,4.187,0,0,0,0,4.141,69.62,4.5932088084,4.593176,6,P-GPS,
21300,2022-08-15 19:57:10,0,0,4.593176,,,4.5932088084,4.265092,0,0,0,0,0,8.379,4.5932088084,4.593176,0,0,0,0,0,111.4, 0.7, 0.2,0,0,1024,1024,1024,364,0,0,0,-100,104.6,-0.4,0,99,4.191,4.187,0,0,0,0,4.141,69.62,4.5932088084,4.593176,6,P-GPS,
21400,2022-08-15 19:57:10,0,0,4.593176,,,4.5932088084,4.265092,0,0,0,0,0,8.379,4.5932088084,4.593176,0,0,0,0,0,106.5, 0.5, 0.3,0,0,1024,1024,1024,364,0,0,0,-100,99.8,-0.4,0,99,4.191,4.187,0,0,0,0,4.141,69.62,4.5932088084,4.593176,6,P-GPS,
21500,2022-08-15 19:57:11,0,0,4.593176,,,4.5932088084,4.265092,0,0,0,0,0,8.379,4.5932088084,4.593176,0,0,0,0,0,101.7, 0.4, 0.1,0,0,1024,1024,1024,364,0,0,0,-100,95,-0.4,0,99,4.191,4.187,0,0,0,0,4.141,69.62,4.5932088084,4.593176,6,P-GPS,
21600,2022-08-15 19:57:11,0,0,4.593176,,,4.5932088084,4.265092,0,0,0,0,0,8.379,4.5932088084,4.593176,0,0,0,0,0,97, 0.5, 0,0,0,1024,1024,1024,364,0,0,0,-100,90.2,-0.4,0,99,4.191,4.187,0,0,0,0,4.141,69.62,4.5932088084,4.593176,6,P-GPS,
21700,2022-08-15 19:57:11,0,0,4.593176,,,4.5932088084,4.265092,0,0,0,0,0,8.379,4.5932088084,4.593176,0,0,0,0,0,92.1, 0.5, 0,0,0,1024,1024,1024,364,0,0,0,-100,85.4,-0.4,0,99,4.191,4.187,0,0,0,0,4.141,69.62,4.5932088084,4.593176,6,P-GPS,
21800,2022-08-15 19:57:11,0,0,4.593176,,,4.5932088084,4.265092,0,0,0,0,0,8.379,4.5932088084,4.593176,0,0,0,0,0,87.3, 0.5, -0.2,0,0,1024,1024,1024,364,0,0,0,-100,80.6,-0.4,0,99,4.191,4.187,0,0,0,0,4.141,69.62,4.5932088084,4.593176,6,P-GPS,
21900,2022-08-15 19:57:11,0,0,4.593176,,,4.5932088084,4.265092,0,0,0,0,0,8.375,4.5932088084,4.593176,0,0,0,0,0,82.5, 0.7, -0.3,0,0,1024,1024,1024,364,0,0,0,-100,75.8,-0.4,0,99,4.187,4.186,0,0,0,0,4.111,69.62,4.5932088084,4.593176,6,P-GPS,
22000,2022-08-15 19:57:11,0,0,4.593176,,,4.5932088084,4.265092,0,0,0,0,0,8.375,4.5932088084,4.593176,0,0,0,0,0,77.7, 0.6, -0.3,0,0,1024,1024,1024,364,0,0,0,-100,71.1,-0.4,0,99,4.187,4.186,0,0,0,0,4.111,69.62,4.5932088084,4.593176,6,P-GPS,
22100,2022-08-15 19:57:11,0,0,4.593176,,,4.5932088084,4.265092,0,0,0,0,0,8.375,4.5932088084,4.593176,0,0,0,0,0,72.9, 0.5, -0.3,0,0,1024,1024,1024,364,0,0,0,-100,66.3,-0.4,0,99,4.187,4.186,0,0,0,0,4.111,69.62,4.5932088084,4.593176,6,P-GPS,
22200,2022-08-15 19:57:11,0,0,4.593176,,,4.5932088084,4.265092,0,0,0,0,0,8.375,4.5932088084,4.593176,0,0,0,0,0,68.1, 0.4, -0.2,0,0,1024,1024,1024,364,0,0,0,-100,61.5,-0.4,0,99,4.187,4.186,0,0,0,0,4.111,69.62,4.5932088084,4.593176,6,P-GPS,
22300,2022-08-15 19:57:11,0,0,4.593176,,,4.5932088084,4.265092,0,0,0,0,0,8.375,4.5932088084,4.593176,0,0,0,0,0,63.2, 0.5, 0,0,0,1024,1024,1024,364,0,0,0,-100,56.7,-0.4,0,99,4.187,4.186,0,0,0,0,4.111,69.62,4.5932088084,4.593176,6,P-GPS,
22400,2022-08-15 19:57:11,0,0,4.593176,,,4.5932088084,4.265092,0,0,0,0,0,8.375,4.5932088084,4.593176,0,0,0,0,0,58.5, 0.5, -0.2,0,0,1024,1024,1024,364,0,0,0,-100,51.9,-0.4,0,99,4.187,4.186,0,0,0,0,4.111,69.62,4.5932088084,4.593176,6,P-GPS,
22500,2022-08-15 19:57:12,0,0,4.593176,,,4.5932088084,4.265092,0,0,0,0,0,8.375,4.5932088084,4.593176,0,0,0,0,0,53.7, 0.5, -0.1,0,0,1024,1024,1024,364,0,0,0,-100,47.1,-0.4,0,99,4.187,4.186,0,0,0,0,4.111,69.62,4.5932088084,4.593176,6,P-GPS,
22600,2022-08-15 19:57:12,0,0,4.593176,,,4.5932088084,4.265092,0,0,0,0,0,8.375,4.5932088084,4.593176,0,0,0,0,0,48.9, 0.4, 0.1,0,0,1024,1024,1024,364,0,0,0,-100,42.3,-0.4,0,99,4.187,4.186,0,0,0,0,4.111,69.62,4.5932088084,4.593176,6,P-GPS,
22700,2022-08-15 19:57:12,0,0,4.593176,,,4.5932088084,4.265092,0,0,0,0,0,8.375,4.5932088084,4.593176,0,0,0,0,0,44.1, 0.5, 0,0,0,1024,1024,1024,364,0,0,0,-100,37.5,-0.4,0,99,4.187,4.186,0,0,0,0,4.111,69.62,4.5932088084,4.593176,6,P-GPS,
22800,2022-08-15 19:57:12,0,0,4.593176,,,4.5932088084,4.265092,0,0,0,0,0,8.375,4.5932088084,4.593176,0,0,0,0,0,39.3, 0.3, -0.1,0,0,1024,1024,1024,640,0,0,0,-58,32.7,-0.4,0,99,4.187,4.186,0,0,0,0,4.111,69.62,4.5932088084,4.593176,6,P-GPS,
22900,2022-08-15 19:57:12,0,0,4.593176,,,4.5932088084,4.265092,0,0,0,0,0,8.369,4.5932088084,4.593176,0,0,0,0,0,34.5, 0.3, -0.3,0,0,1024,1024,1024,1024,0,0,0,0,28.1,-0.4,0,99,4.187,4.185,0,0,0,0,4.125,69.62,4.5932088084,4.593176,6,P-GPS,
23000,2022-08-15 19:57:12,0,0,4.593176,,,4.5932088084,4.265092,0,0,0,0,0,8.369,4.5932088084,4.593176,0,0,0,0,0,30.4, 0.2, -0.6,0,0,1024,1024,1024,1024,0,0,0,0,25.3,-0.4,0,99,4.187,4.185,0,0,0,0,4.125,69.62,4.5932088084,4.593176,6,P-GPS,
23100,2022-08-15 19:57:12,0,0,4.593176,,,4.5932088084,4.265092,0,0,0,0,0,8.369,4.5932088084,4.593176,0,0,0,0,0,28.8, 0.2, -0.3,0,0,1024,1024,1024,1024,0,0,0,0,24.4,-0.4,0,99,4.187,4.185,0,0,0,0,4.125,69.62,4.5932088084,4.593176,6,P-GPS,
23200,2022-08-15 19:57:12,0,0,4.593176,,,4.5932088084,4.265092,0,0,0,0,0,8.369,4.5932088084,4.593176,0,0,0,0,0,28, 0.4, 0.1,0,0,1024,1024,1024,1024,0,0,0,0,24.1,-0.4,0,99,4.187,4.185,0,0,0,0,4.125,69.62,4.5932088084,4.593176,6,P-GPS,
23300,2022-08-15 19:57:12,0,0,4.593176,,,4.5932088084,4.265092,0,0,0,0,0,8.369,4.5932088084,4.593176,0,0,0,0,0,27.8, 0.5, 0.4,0,0,1024,1024,1024,1024,0,0,0,0,24.1,-0.4,0,99,4.187,4.185,0,0,0,0,4.125,69.62,4.5932088084,4.593176,6,P-GPS,
23400,2022-08-15 19:57:12,0,0,4.593176,,,4.5932088084,4.265092,0,0,0,0,0,8.369,4.5932088084,4.593176,0,0,0,0,0,27.7, 0.4, 0.7,0,0,1024,1024,1024,1024,0,0,0,0,24.1,-0.4,0,99,4.187,4.185,0,0,0,0,4.125,69.62,4.5932088084,4.593176,6,P-GPS,
23500,2022-08-15 19:57:13,0,0,4.593176,,,4.5932088084,4.265092,0,0,0,0,0,8.369,4.5932088084,4.593176,0,0,0,0,0,27.7, 0.3, 0.7,0,0,1024,1024,1024,1024,0,0,0,0,24.1,-0.4,0,99,4.187,4.185,0,0,0,0,4.125,69.62,4.5932088084,4.593176,6,P-GPS,
23600,2022-08-15 19:57:13,0,0,4.593176,,,4.5932088084,4.265092,0,0,0,0,0,8.369,4.5932088084,4.593176,0,0,0,0,0,27.7, 0.5, 1,0,0,1024,1024,1024,1024,0,0,0,0,24.1,-0.4,0,99,4.187,4.185,0,0,0,0,4.125,69.62,4.5932088084,4.593176,6,P-GPS,
23700,2022-08-15 19:57:13,0,0,4.593176,,,4.5932088084,4.265092,0,0,0,0,0,8.369,4.5932088084,4.593176,0,0,0,0,0,27.6, 0.3, 1.1,0,0,1024,1024,1024,1190,0,0,0,25,24.1,-0.4,0,99,4.187,4.185,0,0,0,0,4.125,69.62,4.5932088084,4.593176,6,P-GPS,
23800,2022-08-15 19:57:13,0,0,4.593176,,,4.5932088084,4.265092,0,0,0,0,0,8.369,4.5932088084,4.593176,0,0,0,0,0,27.6, 0.1, 1.1,0,0,1024,1024,1024,1684,0,0,0,100,24.1,-0.4,0,99,4.187,4.185,0,0,0,0,4.125,69.62,4.5932088084,4.593176,6,P-GPS,
23900,2022-08-15 19:57:13,0,0,4.593176,,,4.5932088084,4.265092,0,0,0,0,0,8.374,4.5932088084,4.593176,0,0,0,0,0,27.9, 0.2, 0.9,0,0,1024,1024,1024,1024,0,0,0,0,25.4,-0.4,0,99,4.187,4.186,0,0,0,0,4.052,69.8,4.5932088084,4.593176,6,P-GPS,
24000,2022-08-15 19:57:13,0,0,4.593176,,,4.5932088084,4.265092,0,0,0,0,0,8.374,4.5932088084,4.593176,0,0,0,0,0,30.4, 0.4, 0.6,0,0,1024,1024,1024,1024,0,0,0,0,29.1,-0.4,0,99,4.187,4.186,0,0,0,0,4.052,69.8,4.5932088084,4.593176,6,P-GPS,
24100,2022-08-15 19:57:13,0,0,4.593176,,,4.5932088084,4.265092,0,0,0,0,0,8.374,4.5932088084,4.593176,0,0,0,0,0,33.5, 0.3, 0.8,0,0,1024,1024,1024,1024,0,0,0,0,31.1,-0.4,0,99,4.187,4.186,0,0,0,0,4.052,69.8,4.5932088084,4.593176,6,P-GPS,
24200,2022-08-15 19:57:13,0,0,4.593176,,,4.5932088084,4.265092,0,0,0,0,0,8.374,4.5932088084,4.593176,0,0,0,0,0,34.9, 0.3, 0.7,0,0,1024,1024,1024,1024,0,0,0,0,32,-0.4,0,99,4.187,4.186,0,0,0,0,4.052,69.8,4.5932088084,4.593176,6,P-GPS,
24300,2022-08-15 19:57:13,0,0,4.593176,,,4.5932088084,4.265092,0,0,0,0,0,8.374,4.5932088084,4.593176,0,0,0,0,0,35.3, 0.3, 0.6,0,0,1024,1024,1024,1024,0,0,0,0,32,-0.4,0,99,4.187,4.186,0,0,0,0,4.052,69.8,4.5932088084,4.593176,6,P-GPS,
