time(millisecond),datetime(utc),latitude,longitude,height_above_takeoff(feet),height_above_ground_at_drone_location(feet),ground_elevation_at_drone_location(feet),altitude_above_seaLevel(feet),height_sonar(feet),speed(mph),distance(feet),mileage(feet),satellites,gpslevel,voltage(v),max_altitude(feet),max_ascent(feet),max_speed(mph),max_distance(feet), xSpeed(mph), ySpeed(mph), zSpeed(mph), compass_heading(degrees), pitch(degrees), roll(degrees),isPhoto,isVideo,rc_elevator,rc_aileron,rc_throttle,rc_rudder,rc_elevator(percent),rc_aileron(percent),rc_throttle(percent),rc_rudder(percent),gimbal_heading(degrees),gimbal_pitch(degrees),gimbal_roll(degrees),battery_percent,voltageCell1,voltageCell2,voltageCell3,voltageCell4,voltageCell5,voltageCell6,current(A),battery_temperature(f),altitude(feet),ascent(feet),flycStateRaw,flycState,message
0,2022-12-18 05:26:27,-34.9065582333232,-56.163239709816,0,0,117.28622520985,117.28622520985,0,0,0,0,17,5,0,117.28622520985,0,0,0,0,0,0,147.4, -6.1, 2.8,0,0,364,364,364,1684,-100,-100,-100,100,158,0,0,32,3.782,3.779,0,0,0,0,0,87.26,117.28622520985,0,41,Motors_Started,"Aeronave en Zona de altitud restringida (150). Vuela con precauci贸n (Code: 190001). Error de calibraci贸n del estabilizador. Reinicia la aeronave o contacta con la Asistencia DJI (Code: 40011)"
100,2022-12-18 05:26:27,-34.9065581131774,-56.1632397799741,0,0,117.28622520985,117.28622520985,0,0,0.04860236376,0.04860236376,17,5,0,117.28622520985,0,0,0.04860236376,0,0,0,147.5, -6.3, 2.9,0,0,364,364,364,1684,-100,-100,-100,100,158.1,0,0,32,3.782,3.779,0,0,0,0,0,87.26,117.28622520985,0,41,Motors_Started,"Setting new Return-To-Home altitude to 100m (328 ft). Data Recorder File Index is 82. Setting new Maximum Flight Altitude to 120m (394 ft)"
200,2022-12-18 05:26:27,-34.9065580839411,-56.1632397988598,0,0,117.28622520985,117.28622520985,0.328084,0,0.060665356272,0.060673230288,17,5,0,117.28622520985,0,0,0.060665356272,0,0,0,147.7, -6.3, 2.8,0,0,364,364,364,1684,-100,-100,-100,100,158.1,0,0,32,3.782,3.779,0,0,0,0,0,87.26,117.28622520985,0,41,Motors_Started,
300,2022-12-18 05:26:27,-34.9065580321212,-56.1632398034158,0,0,117.28622520985,117.28622520985,0.328084,0,0.078569228236,0.079628939556,17,5,0,117.28622520985,0,0,0.078569228236,0,0,0,148, -5.7, 3.2,0,0,364,364,364,1684,-100,-100,-100,100,158.5,0,0,32,3.782,3.779,0,0,0,0,0,87.26,117.28622520985,0,41,Motors_Started,
400,2022-12-18 05:26:27,-34.9065579769442,-56.1632397815319,0,0,117.28622520985,117.28622520985,0.328084,0,0.09596949126,0.100798231572,17,5,0,117.28622520985,0,0,0.09596949126,0,0,0,148.1, -5.9, 3.2,0,0,364,1024,364,1684,-100,0,-100,100,158.7,0,0,32,3.782,3.779,0,0,0,0,0,87.26,117.28622520985,0,41,Motors_Started,
500,2022-12-18 05:26:27,-34.9065579031212,-56.1632399765768,0,0,117.28622520985,117.28622520985,0.328084,0,0.144515424572,0.165072839928,17,5,0,117.28622520985,0,0,0.144515424572,0,0,0,147.7, -6.8, 3.2,0,0,1024,1024,1024,1153,0,0,0,20,158.7,0,0,32,3.782,3.779,0,0,0,0,0,87.26,117.28622520985,0,41,Motors_Started,
600,2022-12-18 05:26:27,-34.9065578788337,-56.1632400628053,0,0,117.28622520985,117.28622520985,0.328084,0,0.166980976472,0.192352696444,17,5,0,117.28622520985,0,0,0.166980976472,0,0,0,145.5, -7.6, 3.9,0,0,1024,1024,1024,1024,0,0,0,0,157.8,0,0,32,3.782,3.779,0,0,0,0,0,87.26,117.28622520985,0,41,Motors_Started,
700,2022-12-18 05:26:27,-34.9065579115712,-56.1632400460597,0,0,117.28622520985,117.28622520985,0.328084,0,0.154604007572,0.20530512468,17,5,0,117.28622520985,0,0,0.166980976472,0,0,0,145.4, -8.9, 3.4,0,0,1024,1024,1024,1024,0,0,0,0,156.6,0,0,32,3.782,3.779,0,0,0,0,0,87.26,117.28622520985,0,41,Motors_Started,
800,2022-12-18 05:26:27,-34.90655793628,-56.1632399957067,0,0,117.28622520985,117.28622520985,0.328084,0,0.138067261636,0.222862211856,17,5,0,117.28622520985,0,0,0.166980976472,0,0,0,145.7, -9.3, 3.5,0,0,1024,1024,1024,1024,0,0,0,0,156.6,0,0,32,3.782,3.779,0,0,0,0,0,87.26,117.28622520985,0,41,Motors_Started,
900,2022-12-18 05:26:27,-34.9065579823352,-56.1632397075987,0,0,117.28622520985,117.28622520985,0.328084,0,0.091575134164,0.31068898632,17,5,0,117.28622520985,0,0,0.166980976472,0,0,0,143.6, -9.3, 3.3,0,0,1024,1024,1024,1024,0,0,0,0,155.8,0,0,32,3.782,3.779,0,0,0,0,0,87.26,117.28622520985,0,41,Motors_Started,
1000,2022-12-18 05:26:28,-34.9065579742011,-56.1632395612328,0,0,117.28622520985,117.28622520985,0.328084,0,0.10447178812,0.35458334468,17,5,0,117.28622520985,0,0,0.166980976472,0,0,0,142.7, -10.8, 2.2,0,0,1024,1024,1024,1024,0,0,0,0,153.9,0,0,32,3.782,3.779,0,0,0,0,0,87.26,117.28622520985,0,41,Motors_Started,
1100,2022-12-18 05:26:28,-34.9065579721037,-56.1632394804729,-0.328084,-0.36089240000002,117.31903360985,116.95814120985,0.328084,0,0.117439636304,0.37875985464,17,5,7.597,117.28622520985,0,0,0.166980976472,0,0,0,142.5, -11.3, 2.4,0,0,1024,1024,1024,1024,0,0,0,0,153.7,0,0,32,3.782,3.779,0,0,0,0,0.661,87.26,116.95814120985,-0.328084,10,Assisted_Takeoff,
1200,2022-12-18 05:26:28,-34.9065579755723,-56.1632394314492,-0.328084,-0.36089240000002,117.31903360985,116.95814120985,0.328084,0,0.125621395096,0.39348098372,17,5,7.597,117.28622520985,0,0,0.166980976472,0,0,0,140.5, -8.5, 5.1,0,0,1024,1024,1024,1024,0,0,0,0,152.6,0,0,32,3.782,3.779,0,0,0,0,0.661,87.26,116.95814120985,-0.328084,10,Assisted_Takeoff,
1300,2022-12-18 05:26:28,-34.9065579214961,-56.1632393908284,-0.328084,-0.36089240000002,117.31903360985,116.95814120985,0.328084,0,0.148502957508,0.41665355664,17,5,7.597,117.28622520985,0,0,0.166980976472,0,0,0,140.7, -5.5, 6.5,0,0,1024,1024,1024,1024,0,0,0,0,151.9,0,0,32,3.782,3.779,0,0,0,0,0.661,87.26,116.95814120985,-0.328084,10,Assisted_Takeoff,
1400,2022-12-18 05:26:28,-34.9065577545945,-56.16323940356,-0.328084,-0.36089240000002,117.31903360985,116.95814120985,0.328084,0,0.197241804212,0.47766733812,17,5,7.597,117.28622520985,0,0,0.197241804212,0,0,0,141.5, -3.7, 7.5,0,0,1024,1024,1024,1024,0,0,0,0,151.9,0,0,32,3.782,3.779,0,0,0,0,0.661,87.26,116.95814120985,-0.328084,10,Assisted_Takeoff,
1500,2022-12-18 05:26:28,-34.9065576999402,-56.1632394011037,-0.328084,-0.36089240000002,117.31903360985,116.95814120985,0.328084,0,0.21541339272,0.497621407,17,5,7.597,117.28622520985,0,0,0.21541339272,0,0,0,143, -5, 5.4,0,0,1024,1024,1114,1017,0,0,14,-1,153,0,0,32,3.782,3.779,0,0,0,0,0.661,87.26,116.95814120985,-0.328084,10,Assisted_Takeoff,
1600,2022-12-18 05:26:28,-34.9065576545262,-56.1632393702085,-0.328084,-0.36089240000002,117.31903360985,116.95814120985,0.328084,0,0.234349416948,0.51659450472,17,5,7.597,117.28622520985,0,0,0.234349416948,0,0,0,142.6, -7.9, 2.5,0,0,1024,1024,1583,1024,0,0,85,0,153.6,0,0,32,3.782,3.779,0,0,0,0,0.661,87.26,116.95814120985,-0.328084,10,Assisted_Takeoff,
1700,2022-12-18 05:26:28,-34.9065575957919,-56.163239379195,-0.328084,-0.36089240000002,117.31903360985,116.95814120985,0.328084,0,0.252765099952,0.53819227444,17,5,7.597,117.28622520985,0,0,0.252765099952,0,0,0,141.2, -7.7, 2.4,0,0,1024,1024,1684,1012,0,0,100,-2,152.6,0,0,32,3.782,3.779,0,0,0,0,0.661,87.26,116.95814120985,-0.328084,10,Assisted_Takeoff,
1800,2022-12-18 05:26:28,-34.9065575353408,-56.1632395130918,-0.328084,-0.328084,117.28622520985,116.95814120985,0.328084,0,0.261372711776,0.58392718404,16,5,7.597,117.28622520985,0,0,0.261372711776,0,0,0,141.6, -5.3, 3.3,0,0,1024,1024,1590,1024,0,0,86,0,152.3,0,0,32,3.782,3.779,0,0,0,0,0.661,87.26,116.95814120985,-0.328084,10,Assisted_Takeoff,
1900,2022-12-18 05:26:29,-34.9065575152848,-56.1632396153204,-0.328084,-0.328084,117.28622520985,116.95814120985,0.328084,0,0.263497055676,0.61537731628,16,5,7.597,117.28622520985,0,0,0.263497055676,0,0,0,142.1, -4.1, 3.1,0,0,1024,1024,1590,1024,0,0,86,0,152.4,0,0,32,3.782,3.779,0,0,0,0,0.661,87.26,116.95814120985,-0.328084,10,Assisted_Takeoff,
2000,2022-12-18 05:26:29,-34.9065574923816,-56.1632397052692,-0.328084,-0.36089240000002,117.31903360985,116.95814120985,0.328084,0,0.270335638572,0.64355645104,16,5,7.597,117.28622520985,0,0,0.270335638572,0,0,0,142.4, -3.6, 2.4,0,0,1024,1024,1024,1024,0,0,0,0,152.7,0,0,32,3.782,3.779,0,0,0,0,0.661,87.26,116.95814120985,-0.328084,10,Assisted_Takeoff,
2100,2022-12-18 05:26:29,-34.9065574512316,-56.1632397205562,-0.328084,-0.36089240000002,117.31903360985,116.95814120985,0.328084,0,0.285363854276,0.6592519896,16,5,7.569,117.28622520985,0,0,0.285363854276,0,0,0,142.1, -2.7, 2.1,0,0,1024,1024,1024,1024,0,0,0,0,152.7,0,0,32,3.777,3.772,0,0,0,0,1.132,87.26,116.95814120985,-0.328084,10,Assisted_Takeoff,
2200,2022-12-18 05:26:29,-34.906557498588,-56.1632397721536,-0.328084,-0.36089240000002,117.31903360985,116.95814120985,0.328084,0,0.268715887864,0.68242128168,17,5,7.569,117.28622520985,0,0,0.285363854276,0,0,0,140.5, -2.8, 1.6,0,0,1024,1024,1024,1024,0,0,0,0,151.8,0,0,32,3.777,3.772,0,0,0,0,1.132,87.26,116.95814120985,-0.328084,10,Assisted_Takeoff,
2300,2022-12-18 05:26:29,-34.9065575382512,-56.1632397955039,-0.328084,-0.328084,117.28622520985,116.95814120985,0.328084,0,0.254889443852,0.698490836,17,5,7.569,117.28622520985,0,0,0.285363854276,0,0,0,140.2, -3.4, 1.2,0,0,1024,1024,1024,1024,0,0,0,0,150.9,0,0,32,3.777,3.772,0,0,0,0,1.132,87.26,116.95814120985,-0.328084,10,Assisted_Takeoff,
2400,2022-12-18 05:26:29,-34.9065575842226,-56.1632398382559,-0.328084,-0.328084,117.28622520985,116.95814120985,0.328084,0,0.239921923688,0.7195866372,17,5,7.569,117.28622520985,0,0,0.285363854276,0,0,0,141.1, -2.7, 1.1,0,0,1024,1024,1263,1017,0,0,36,-1,151,0,0,32,3.777,3.772,0,0,0,0,1.132,87.26,116.95814120985,-0.328084,10,Assisted_Takeoff,"Error de calibraci贸n del estabilizador. Reinicia la aeronave o contacta con la Asistencia DJI (Code: 40011)"
2500,2022-12-18 05:26:29,-34.9065576058479,-56.1632398254016,-0.328084,-0.328084,117.28622520985,116.95814120985,0.328084,0,0.231531503472,0.7283628842,17,5,7.569,117.28622520985,0,0,0.285363854276,0,0,0,140.9, -1.6, 1.1,0,0,1024,1024,1684,1024,0,0,100,0,151,0,0,32,3.777,3.772,0,0,0,0,1.132,87.26,116.95814120985,-0.328084,6,P-GPS,
2600,2022-12-18 05:26:29,-34.9065577691515,-56.1632397617908,-0.328084,-0.328084,117.28622520985,116.95814120985,0.328084,0,0.170065294156,0.7909120988,16,5,7.569,117.28622520985,0,0,0.285363854276,0,0,0,141.2, -1.2, 0.7,0,0,1024,1024,1684,1024,0,0,100,0,151,0,0,32,3.777,3.772,0,0,0,0,1.132,87.26,116.95814120985,-0.328084,6,P-GPS,
2700,2022-12-18 05:26:29,-34.9065577704901,-56.1632397760227,-0.328084,-0.328084,117.28622520985,116.95814120985,0.328084,0,0.170022315152,0.79519687584,16,5,7.569,117.28622520985,0,0,0.285363854276,0,0,0,141.2, -0.9, 0.6,0,0,1024,1024,1457,1024,0,0,66,0,150.9,0,0,32,3.777,3.772,0,0,0,0,1.132,87.26,116.95814120985,-0.328084,6,P-GPS,
2800,2022-12-18 05:26:29,-34.9065577646452,-56.1632397897258,-0.328084,-0.328084,117.28622520985,116.95814120985,0.328084,0,0.172660438596,0.7998195794,17,5,7.569,117.28622520985,0,0,0.285363854276,0,0,0,140.9, -0.5, 0.1,0,0,1024,1024,1082,1020,0,0,9,-1,150.9,0,0,32,3.777,3.772,0,0,0,0,1.132,87.26,116.95814120985,-0.328084,6,P-GPS,
2900,2022-12-18 05:26:29,-34.9065577465064,-56.1632398154044,-0.328084,-0.328084,117.28622520985,116.95814120985,0.328084,0,0.180402564828,0.809957375,17,5,7.569,117.28622520985,0,0,0.285363854276,0,0,0,140.6, -0.5, -0.1,0,0,1024,1024,1082,1020,0,0,9,-1,150.9,0,0,32,3.777,3.772,0,0,0,0,1.132,87.26,116.95814120985,-0.328084,6,P-GPS,
3000,2022-12-18 05:26:30,-34.9065577308982,-56.1632398329635,-0.328084,-0.328084,117.28622520985,116.95814120985,0.328084,0,0.186976055852,0.81770671908,17,5,7.569,117.28622520985,0,0,0.285363854276,0,0,0,140.2, -0.6, 0,0,0,1024,1024,1024,1024,0,0,0,0,150.9,0,0,32,3.777,3.772,0,0,0,0,1.132,87.26,116.95814120985,-0.328084,6,P-GPS,
3100,2022-12-18 05:26:30,-34.9065577781043,-56.1632397754638,0,0,117.28622520985,117.28622520985,0.328084,0,0.167243771756,0.84205055188,17,5,7.575,117.28622520985,0,0,0.285363854276,0,0,0,140.2, -0.6, 0.1,0,0,1024,1024,1348,1024,0,0,49,0,150.9,0,0,32,3.749,3.751,0,0,0,0,1.487,87.26,117.28622520985,0,6,P-GPS,"Error de calibraci贸n del estabilizador. Reinicia la aeronave o contacta con la Asistencia DJI (Code: 40011)"
3200,2022-12-18 05:26:30,-34.9065577825048,-56.1632397906542,0,0,117.28622520985,117.28622520985,0.328084,0,0.166249677236,0.84687010584,17,5,7.575,117.28622520985,0,0,0.285363854276,0,0,0,140.1, -0.9, -0.1,0,0,1024,1024,1684,1024,0,0,100,0,150.9,0,0,32,3.749,3.751,0,0,0,0,1.487,87.26,117.28622520985,0,6,P-GPS,
3300,2022-12-18 05:26:30,-34.9065578075303,-56.1632398368913,0,0,117.28622520985,117.28622520985,0.328084,0,0.159935700656,0.86344819036,17,5,7.575,117.28622520985,0,0,0.285363854276,0,0,-0.223694,140, -0.2, -0.5,0,0,1024,1024,1024,1024,0,0,0,0,150.9,0,0,32,3.749,3.751,0,0,0,0,1.487,87.26,117.28622520985,0,6,P-GPS,
3400,2022-12-18 05:26:30,-34.9065578392552,-56.163239890766,0,0,117.28622520985,117.28622520985,0.328084,0,0.15363189468,0.88329071068,17,5,7.575,117.28622520985,0,0,0.285363854276,0,0,-0.894776,140.1, -0.2, -1.1,0,0,1024,1024,1024,1024,0,0,0,0,150.9,0,0,32,3.749,3.751,0,0,0,0,1.487,87.26,117.28622520985,0,6,P-GPS,
3500,2022-12-18 05:26:30,-34.9065580306165,-56.1632397815946,0,0,117.28622520985,117.28622520985,0.656168,0,0.07701279774,0.96037404648,17,5,7.575,117.28622520985,0,0,0.285363854276,0,0,-1.11847,140.2, 0.2, -0.9,0,0,1024,1024,1024,1024,0,0,0,0,150.9,0,0,32,3.749,3.751,0,0,0,0,1.487,87.26,117.28622520985,0,6,P-GPS,
3600,2022-12-18 05:26:30,-34.9065581084415,-56.1632397465077,0,0,117.28622520985,117.28622520985,0.984252,0,0.046867127484,0.99064635716,16,5,7.575,117.28622520985,0,0,0.285363854276,0,0,-1.11847,140.1, 0.3, -0.9,0,0,1024,1024,1024,1024,0,0,0,0,150.9,0,0,32,3.749,3.751,0,0,0,0,1.487,87.26,117.28622520985,0,6,P-GPS,
3700,2022-12-18 05:26:30,-34.9065581829066,-56.1632397348808,0.328084,0.328084,117.28622520985,117.61430920985,1.312336,0,0.0198645675648,1.01803809032,16,5,7.575,117.61430920985,0.328084,0,0.285363854276,0,0,-1.11847,140.1, 0, -1,0,0,1024,1024,1024,1024,0,0,0,0,150.9,0,0,32,3.749,3.751,0,0,0,0,1.487,87.26,117.61430920985,0.328084,6,P-GPS,
3800,2022-12-18 05:26:30,-34.9065582530237,-56.1632397308563,0.328084,0.328084,117.28622520985,117.61430920985,1.64042,0,0.0095548887572,1.04364832736,15,5,7.575,117.61430920985,0.328084,0,0.285363854276,0,0,-1.11847,140.1, 0, -0.9,0,0,1024,1024,1024,1024,0,0,0,0,150.9,0,0,32,3.749,3.751,0,0,0,0,1.487,87.26,117.61430920985,0.328084,6,P-GPS,
3900,2022-12-18 05:26:30,-34.9065583756651,-56.1632398112388,0.656168,0.656168,117.28622520985,117.94239320985,1.968504,0,0.060149608224,1.09444557308,15,5,7.575,117.94239320985,0.656168,0,0.285363854276,0,0,-0.671082,140.1, 0, -0.9,0,0,1024,1024,1024,1024,0,0,0,0,150.9,0,0,32,3.749,3.751,0,0,0,0,1.487,87.26,117.94239320985,0.656168,6,P-GPS,
4000,2022-12-18 05:26:31,-34.9065584075842,-56.1632398712443,0.656168,0.656168,117.28622520985,117.94239320985,1.968504,0,0.079845146912,1.1158464924,15,5,7.575,117.94239320985,0.656168,0,0.285363854276,0,0,-0.447388,140.2, -0.1, -0.7,0,0,1024,1024,1024,1024,0,0,0,0,150.9,0,0,32,3.749,3.751,0,0,0,0,1.487,87.26,117.94239320985,0.656168,6,P-GPS,
4100,2022-12-18 05:26:31,-34.9065583806347,-56.1632400410794,0.656168,0.656168,117.28622520985,117.94239320985,1.968504,0,0.11275098786,1.16760502424,15,5,7.575,117.94239320985,0.656168,0,0.285363854276,0,0,-0.223694,140.2, -0.4, -0.7,0,0,1024,1024,1024,1024,0,0,0,0,150.9,0,0,32,3.749,3.751,0,0,0,0,1.487,87.26,117.94239320985,0.656168,6,P-GPS,
4200,2022-12-18 05:26:31,-34.9065583447617,-56.1632402341251,0.656168,0.656168,117.28622520985,117.94239320985,1.968504,0,0.162060700724,1.22683074792,16,5,7.575,117.94239320985,0.656168,0,0.285363854276,0,0,0,140.2, -0.4, -0.7,0,0,1024,1024,1024,1024,0,0,0,0,150.9,0,0,32,3.749,3.751,0,0,0,0,1.487,87.26,117.94239320985,0.656168,6,P-GPS,
4300,2022-12-18 05:26:31,-34.9065581489075,-56.1632406175409,0.656168,0.68897639999999,117.25341680985,117.94239320985,2.296588,0,0.273339247592,1.36198823256,16,5,7.575,117.94239320985,0.656168,0,0.285363854276,0,0,0,140.3, -0.4, -0.7,0,0,1024,1024,1024,1024,0,0,0,0,150.9,0,0,32,3.749,3.751,0,0,0,0,1.487,87.26,117.94239320985,0.656168,6,P-GPS,
4400,2022-12-18 05:26:31,-34.9065581098057,-56.1632407338603,0.656168,0.68897639999999,117.25341680985,117.94239320985,2.296588,0,0.309698500724,1.39959978232,17,5,7.438,117.94239320985,0.656168,0,0.309698500724,0,0,0,140.3, -0.5, -0.9,0,0,1024,1024,1024,1024,0,0,0,0,150.9,0,0,32,3.732,3.727,0,0,0,0,4.839,87.26,117.94239320985,0.656168,6,P-GPS,
4500,2022-12-18 05:26:31,-34.9065580022812,-56.1632407525725,0.656168,0.68897639999999,117.25341680985,117.94239320985,2.296588,0,0.323188002468,1.43922904868,17,5,7.438,117.94239320985,0.656168,0,0.323188002468,0,0,0,140.3, -0.6, -0.6,0,0,1024,1024,1024,1024,0,0,0,0,150.9,0,0,32,3.732,3.727,0,0,0,0,4.839,87.26,117.94239320985,0.656168,6,P-GPS,
4600,2022-12-18 05:26:31,-34.9065578871734,-56.163240755423,0.656168,0.68897639999999,117.25341680985,117.94239320985,2.296588,0,0.33738190056,1.4812336432,18,5,7.438,117.94239320985,0.656168,0,0.33738190056,0,0,0,140.3, -0.6, -0.7,0,0,1024,1024,1024,1024,0,0,0,0,150.9,0,0,32,3.732,3.727,0,0,0,0,4.839,87.26,117.94239320985,0.656168,6,P-GPS,
4700,2022-12-18 05:26:31,-34.9065579005841,-56.1632407133253,0.656168,0.68897639999999,117.25341680985,117.94239320985,2.296588,0,0.32387140144,1.49474742316,18,5,7.438,117.94239320985,0.656168,0,0.33738190056,0,0,0,140.4, -0.5, -0.6,0,0,1024,1024,1024,1024,0,0,0,0,150.9,0,0,32,3.732,3.727,0,0,0,0,4.839,87.26,117.94239320985,0.656168,6,P-GPS,
4800,2022-12-18 05:26:31,-34.9065578824692,-56.1632403943638,0.656168,0.656168,117.28622520985,117.94239320985,1.968504,0,0.241533472296,1.59041015588,18,5,7.438,117.94239320985,0.656168,0,0.33738190056,0,0,0,140.4, -0.7, -0.4,0,0,1024,1024,1024,1024,0,0,0,0,150.9,0,0,32,3.732,3.727,0,0,0,0,4.839,87.26,117.94239320985,0.656168,6,P-GPS,
4900,2022-12-18 05:26:32,-34.9065579334676,-56.1632403798355,0.656168,0.656168,117.28622520985,117.94239320985,1.968504,0,0.228383865576,1.60952104888,18,5,7.438,117.94239320985,0.656168,0,0.33738190056,0,0,0,140.3, -0.4, -0.5,0,0,1024,1024,1024,1024,0,0,0,0,150.9,0,0,32,3.732,3.727,0,0,0,0,4.839,87.26,117.94239320985,0.656168,6,P-GPS,
5000,2022-12-18 05:26:32,-34.9065579894674,-56.1632403700838,0.656168,0.656168,117.28622520985,117.94239320985,1.968504,0,0.216667329768,1.63015753248,18,5,7.438,117.94239320985,0.656168,0,0.33738190056,0,0,0,140.4, -0.3, -0.5,0,0,1024,1024,1024,1024,0,0,0,0,150.9,0,0,32,3.732,3.727,0,0,0,0,4.839,87.26,117.94239320985,0.656168,6,P-GPS,
5100,2022-12-18 05:26:32,-34.9065579908805,-56.1632403898902,0.656168,0.656168,117.28622520985,117.94239320985,1.968504,0,0.22187828794,1.6361056954,18,5,7.438,117.94239320985,0.656168,0,0.33738190056,0,0,0,140.4, -0.2, -0.6,0,0,1537,1024,1024,1024,78,0,0,0,150.9,0,0,32,3.732,3.727,0,0,0,0,4.839,87.26,117.94239320985,0.656168,6,P-GPS,
5200,2022-12-18 05:26:32,-34.9065580080255,-56.1632404217165,0.656168,0.656168,117.28622520985,117.94239320985,1.968504,0,0.228316608356,1.64750005272,18,5,7.438,117.94239320985,0.656168,0,0.33738190056,0,0,0,140.4, -3, -0.6,0,0,1684,1024,1024,1024,100,0,0,0,150.9,0,0,32,3.732,3.727,0,0,0,0,4.839,87.26,117.94239320985,0.656168,6,P-GPS,
5300,2022-12-18 05:26:32,-34.906558050039,-56.163240428376,0.656168,0.656168,117.28622520985,117.94239320985,1.968504,0.223694,0.225158471772,1.6629593708,18,5,7.438,117.94239320985,0.656168,0.223694,0.33738190056,-0.223694,0,0,140.5, -11.6, -0.5,0,0,1249,1024,1024,1024,34,0,0,0,150.9,0,0,32,3.732,3.727,0,0,0,0,4.839,87.26,117.94239320985,0.656168,6,P-GPS,
5400,2022-12-18 05:26:32,-34.9065582133369,-56.1632403185438,0.656168,0.656168,117.28622520985,117.94239320985,1.968504,0.4921268,0.182282158064,1.73100071156,18,5,7.438,117.94239320985,0.656168,0.4921268,0.33738190056,-0.447388,0.223694,0,140.6, -15.4, -0.6,0,0,1148,1024,1024,1024,19,0,0,0,150.9,0,0,32,3.732,3.727,0,0,0,0,4.839,87.26,117.94239320985,0.656168,6,P-GPS,
5500,2022-12-18 05:26:32,-34.906558528026,-56.1632401516781,0.656168,0.68897639999999,117.25341680985,117.94239320985,1.968504,1.11847,0.17041175086,1.85619756596,18,5,7.443,117.94239320985,0.656168,1.11847,0.33738190056,-0.894776,0.671082,0,140.4, -8.1, -0.5,0,0,1206,1024,1024,1024,28,0,0,0,150.9,0,0,32,3.721,3.716,0,0,0,0,4.469,87.26,117.94239320985,0.656168,6,P-GPS,
5600,2022-12-18 05:26:32,-34.906558932904,-56.1632401554428,0.656168,0.68897639999999,117.25341680985,117.94239320985,1.968504,1.2974252,0.287969825488,2.00392394864,18,5,7.443,117.94239320985,0.656168,1.2974252,0.33738190056,-1.11847,0.671082,0,140.2, -2.6, -0.8,0,0,1295,1024,1024,1024,41,0,0,0,150.9,0,0,32,3.721,3.716,0,0,0,0,4.469,87.26,117.94239320985,0.656168,6,P-GPS,
5700,2022-12-18 05:26:32,-34.9065593382709,-56.1632398544152,0.656168,0.68897639999999,117.25341680985,117.94239320985,1.968504,1.4316416,0.40545604972,2.17708996468,18,5,7.443,117.94239320985,0.656168,1.4316416,0.40545604972,-1.11847,0.894776,0,140.3, -1.6, -1.1,0,0,1322,1024,1024,1001,45,0,0,-3,150.9,0,0,32,3.721,3.716,0,0,0,0,4.469,87.26,117.94239320985,0.656168,6,P-GPS,"Punto de origen actualizado. Altitud de RPO establecida en 100m (Code: 3000001)"
5800,2022-12-18 05:26:32,-34.9065597683108,-56.1632395180996,0.656168,0.75459319999998,117.18780000985,117.94239320985,1.968504,1.4316416,0.56296917812,2.3634843276,17,5,7.443,117.94239320985,0.656168,1.4316416,0.56296917812,-1.11847,0.894776,0,140.3, -2.8, -1,0,0,1322,1024,1024,1001,45,0,0,-3,150.9,0,0,32,3.721,3.716,0,0,0,0,4.469,87.26,117.94239320985,0.656168,6,P-GPS,
5900,2022-12-18 05:26:33,-34.9065603204148,-56.163239062695,0.656168,0.72178479999999,117.22060840985,117.94239320985,1.968504,1.6105968,0.78570540572,2.60667987344,17,5,7.443,117.94239320985,0.656168,1.6105968,0.78570540572,-1.342164,0.894776,0,140.3, -4.1, -0.8,0,0,1298,1024,1024,1024,42,0,0,0,150.9,0,0,32,3.721,3.716,0,0,0,0,4.469,87.26,117.94239320985,0.656168,6,P-GPS,
6000,2022-12-18 05:26:33,-34.9065609896369,-56.1632385629872,0.656168,0.75459319999998,117.18780000985,117.94239320985,2.296588,1.4316416,1.06256893164,2.89298565688,17,5,7.443,117.94239320985,0.656168,1.6105968,1.06256893164,-1.11847,0.894776,0,140.3, -4.5, -0.8,0,0,1272,1024,1402,1027,38,0,57,0,150.9,0,0,32,3.721,3.716,0,0,0,0,4.469,87.26,117.94239320985,0.656168,6,P-GPS,
6100,2022-12-18 05:26:33,-34.9065616149675,-56.1632380857012,0.656168,0.75459319999998,117.18780000985,117.94239320985,2.296588,1.4316416,1.32604006868,3.16214577048,17,5,7.443,117.94239320985,0.656168,1.6105968,1.32604006868,-1.342164,0.894776,0,140.2, -4.4, -1.1,0,0,1024,1024,1592,1329,0,0,86,46,150.8,0,0,32,3.721,3.716,0,0,0,0,4.469,87.26,117.94239320985,0.656168,6,P-GPS,
6200,2022-12-18 05:26:33,-34.9065623072793,-56.1632375468285,0.984252,1.0826772,117.18780000985,118.27047720985,2.296588,1.6105968,1.62116475004,3.4618111344,17,5,7.443,118.27047720985,0.984252,1.6105968,1.62116475004,-1.342164,0.894776,-0.447388,140.2, -2.3, -0.9,0,0,1024,1024,1282,1133,0,0,39,17,151.1,0,0,32,3.721,3.716,0,0,0,0,4.469,87.26,118.27047720985,0.984252,6,P-GPS,
6300,2022-12-18 05:26:33,-34.9065629534825,-56.1632370887535,0.984252,1.1154856,117.15499160985,118.27047720985,2.296588,1.6105968,1.892306491,3.7345145552,17,5,7.443,118.27047720985,0.984252,1.6105968,1.892306491,-1.342164,0.894776,-1.342164,140.8, 5.4, -0.8,0,0,1024,1465,1024,1024,0,67,0,0,152.3,0,0,32,3.721,3.716,0,0,0,0,4.469,87.26,118.27047720985,0.984252,6,P-GPS,
6400,2022-12-18 05:26:33,-34.9065635479151,-56.1632366877107,1.312336,1.476378,117.12218320985,118.59856120985,2.624672,1.4316416,2.1395013808,3.9823820172,17,5,7.443,118.59856120985,1.312336,1.6105968,2.1395013808,-1.11847,0.894776,-1.565858,142.2, 5.1, -0.7,0,0,1024,1684,1024,1024,0,100,0,0,153.3,0,0,32,3.721,3.716,0,0,0,0,4.469,87.26,118.59856120985,1.312336,6,P-GPS,
6500,2022-12-18 05:26:33,-34.90656419007,-56.1632364305724,1.64042,1.7716536,117.15499160985,118.92664520985,2.952756,1.11847,2.38453419704,4.2289699516,17,5,7.434,118.92664520985,1.64042,1.6105968,2.38453419704,-0.894776,0.671082,-1.342164,143.3, 3, 5.6,0,0,1024,1684,1024,1024,0,100,0,0,153.7,0,0,31,3.691,3.68,0,0,0,0,4.771,87.26,118.92664520985,1.64042,6,P-GPS,
6600,2022-12-18 05:26:33,-34.9065647004512,-56.1632361347406,1.64042,1.804462,117.12218320985,118.92664520985,2.952756,1.1408394,2.59067921676,4.4351707456,17,5,7.434,118.92664520985,1.64042,1.6105968,2.59067921676,-1.11847,0.223694,-0.894776,143.8, 2, 14.3,0,0,1024,1640,1024,1024,0,93,0,0,153.8,0,0,31,3.691,3.68,0,0,0,0,4.771,87.26,118.92664520985,1.64042,6,P-GPS,
6700,2022-12-18 05:26:33,-34.9065653165445,-56.1632361224243,1.64042,1.804462,117.12218320985,118.92664520985,3.28084,1.342164,2.79835638876,4.6599739024,17,5,7.434,118.92664520985,1.64042,1.6105968,2.79835638876,-1.342164,0,-0.447388,143.7, 1.6, 17.7,0,0,1024,1640,1024,1024,0,93,0,0,153.8,0,0,31,3.691,3.68,0,0,0,0,4.771,87.26,118.92664520985,1.64042,6,P-GPS,
6800,2022-12-18 05:26:33,-34.9065660875549,-56.1632363731994,1.64042,1.8700788,117.05656640985,118.92664520985,3.28084,1.8342908,3.03453749868,4.951115644,17,5,7.434,118.92664520985,1.64042,1.8342908,3.03453749868,-1.789552,-0.447388,-0.223694,143.6, 1.2, 17.7,0,0,1024,1401,1024,1024,0,57,0,0,153.8,0,0,31,3.691,3.68,0,0,0,0,4.771,87.26,118.92664520985,1.64042,6,P-GPS,
6900,2022-12-18 05:26:33,-34.9065672460234,-56.1632371559488,1.968504,2.2637796,116.99094960985,119.25472920985,3.28084,1.8342908,3.3758859348,5.4343177592,17,5,7.434,119.25472920985,1.968504,1.8342908,3.3758859348,-2.013246,-1.11847,0,143.3, 1, 12.9,0,0,1024,1024,1024,1024,0,0,0,0,153.8,0,0,31,3.691,3.68,0,0,0,0,4.771,87.26,119.25472920985,1.968504,6,P-GPS,
7000,2022-12-18 05:26:34,-34.9065682852476,-56.1632379381092,1.968504,2.3293964,116.92533280985,119.25472920985,3.28084,2.6172198,3.705544738,5.8798886396,17,5,7.434,119.25472920985,1.968504,2.6172198,3.705544738,-2.23694,-1.342164,0,143, 0.7, 6,0,0,1024,1024,1024,1024,0,0,0,0,153.8,0,0,31,3.691,3.68,0,0,0,0,4.771,87.26,119.25472920985,1.968504,6,P-GPS,
7100,2022-12-18 05:26:34,-34.9065692061799,-56.163238843703,1.968504,2.3950132,116.85971600985,119.25472920985,3.28084,2.7290668,4.011811152,6.3115487584,17,5,7.434,119.25472920985,1.968504,2.7290668,4.011811152,-2.23694,-1.565858,0,142.6, 2.2, -6.5,0,0,1024,1024,1024,1024,0,0,0,0,153.8,0,0,31,3.691,3.68,0,0,0,0,4.771,87.26,119.25472920985,1.968504,6,P-GPS,
7200,2022-12-18 05:26:34,-34.9065700897785,-56.1632397678262,1.968504,2.46063,116.79409920985,119.25472920985,3.28084,2.4158952,4.3258531568,6.7362534964,17,5,7.434,119.25472920985,1.968504,2.7290668,4.3258531568,-2.013246,-1.342164,0,142.4, 3.4, -11.3,0,0,1024,1024,1024,1024,0,0,0,0,153.8,0,0,31,3.691,3.68,0,0,0,0,4.771,87.26,119.25472920985,1.968504,6,P-GPS,
7300,2022-12-18 05:26:34,-34.9065707846062,-56.1632409423772,1.968504,2.5262468,116.72848240985,119.25472920985,3.28084,1.8119214,4.594160252,7.1695868436,17,5,7.434,119.25472920985,1.968504,2.7290668,4.594160252,-1.565858,-0.894776,0,142.8, 3.5, -11,0,0,1024,1024,1024,1024,0,0,0,0,153.8,0,0,31,3.691,3.68,0,0,0,0,4.771,87.26,119.25472920985,1.968504,6,P-GPS,
7400,2022-12-18 05:26:34,-34.9065714248664,-56.1632416583544,1.64042,2.2309712,116.69567400985,118.92664520985,3.28084,1.2974252,4.848097268,7.486548796,18,5,7.434,119.25472920985,1.968504,2.7290668,4.848097268,-1.11847,-0.671082,0,143, 3.1, -9.2,0,0,1024,1024,1024,1024,0,0,0,0,153.8,0,0,31,3.691,3.68,0,0,0,0,4.771,87.26,118.92664520985,1.64042,6,P-GPS,
7500,2022-12-18 05:26:34,-34.9065719032463,-56.1632421013996,1.64042,2.2637796,116.66286560985,118.92664520985,3.28084,1.006623,5.03855003,7.705708908,18,5,7.445,119.25472920985,1.968504,2.7290668,5.03855003,-0.894776,-0.447388,0,143.1, 2.4, -7.2,0,0,1024,1024,1024,1004,0,0,0,-3,153.8,0,0,31,3.715,3.711,0,0,0,0,4.935,87.26,118.92664520985,1.64042,6,P-GPS,
7600,2022-12-18 05:26:34,-34.9065723043467,-56.1632424707623,1.64042,2.2637796,116.66286560985,118.92664520985,3.28084,0.4921268,5.1998361244,7.889107864,18,5,7.445,119.25472920985,1.968504,2.7290668,5.1998361244,-0.447388,-0.223694,0,143.1, 1.9, -5.5,0,0,1024,1024,1024,1004,0,0,0,-3,153.8,0,0,31,3.715,3.711,0,0,0,0,4.935,87.26,118.92664520985,1.64042,6,P-GPS,
7700,2022-12-18 05:26:34,-34.9065722754385,-56.1632424896364,1.64042,2.2637796,116.66286560985,118.92664520985,3.28084,0.4921268,5.1903216884,7.9010501216,18,5,7.445,119.25472920985,1.968504,2.7290668,5.1998361244,-0.447388,-0.223694,0,143.2, 1.4, -4.2,0,0,1024,1024,930,364,0,0,-14,-100,153.7,0,0,31,3.715,3.711,0,0,0,0,4.935,87.26,118.92664520985,1.64042,6,P-GPS,
7800,2022-12-18 05:26:34,-34.9065723659247,-56.1632427202591,1.64042,2.296588,116.63005720985,118.92664520985,3.28084,0.3131716,5.2343505612,7.9775593104,18,5,7.445,119.25472920985,1.968504,2.7290668,5.2343505612,-0.223694,-0.223694,0,142.5, 1, -3.3,0,0,1024,1024,969,374,0,0,-8,-98,152.1,0,0,31,3.715,3.711,0,0,0,0,4.935,87.26,118.92664520985,1.64042,6,P-GPS,
7900,2022-12-18 05:26:34,-34.90657235192,-56.1632427987469,1.64042,2.296588,116.63005720985,118.92664520985,3.28084,0.3131716,5.233431926,8.0015750592,18,5,7.445,119.25472920985,1.968504,2.7290668,5.2343505612,-0.223694,-0.223694,0,140.2, 0.6, -2.7,0,0,1024,1024,1024,1024,0,0,0,0,149.3,0,0,31,3.715,3.711,0,0,0,0,4.935,87.26,118.92664520985,1.64042,6,P-GPS,
8000,2022-12-18 05:26:35,-34.9065723112545,-56.1632428559175,1.64042,2.296588,116.63005720985,118.92664520985,3.28084,0.223694,5.2218833692,8.0242456636,18,5,7.445,119.25472920985,1.968504,2.7290668,5.2343505612,-0.223694,0,0,137.5, 0.1, -2.3,0,0,1024,1024,938,692,0,0,-13,-50,147.3,0,0,31,3.715,3.711,0,0,0,0,4.935,87.26,118.92664520985,1.64042,6,P-GPS,
8100,2022-12-18 05:26:35,-34.9065723757458,-56.1632426349081,1.64042,2.296588,116.63005720985,118.92664520985,3.28084,0,5.2335631596,8.0944228312,18,5,7.445,119.25472920985,1.968504,2.7290668,5.2343505612,0,0,0,136.2, 0, -1.9,0,0,1024,1024,852,364,0,0,-26,-100,146.2,0,0,31,3.715,3.711,0,0,0,0,4.935,87.26,118.92664520985,1.64042,6,P-GPS,
8200,2022-12-18 05:26:35,-34.9065722918581,-56.163241486998,1.64042,2.2309712,116.69567400985,118.92664520985,3.28084,0,5.1567258868,8.4392391152,18,5,7.445,119.25472920985,1.968504,2.7290668,5.2343505612,0,0,0,135.1, 0, -1.7,0,0,1024,1024,1019,895,0,0,-1,-20,144.4,0,0,31,3.715,3.711,0,0,0,0,4.935,87.26,118.92664520985,1.64042,6,P-GPS,
8300,2022-12-18 05:26:35,-34.906572335748,-56.1632413972007,1.64042,2.2309712,116.69567400985,118.92664520985,2.952756,0,5.1699804804,8.4705383288,18,5,7.445,119.25472920985,1.968504,2.7290668,5.2343505612,0,0,0.223694,132.7, 0.2, -1.7,0,0,1024,1024,942,832,0,0,-12,-29,141.6,0,0,31,3.715,3.711,0,0,0,0,4.935,87.26,118.92664520985,1.64042,6,P-GPS,
8400,2022-12-18 05:26:35,-34.9065723636888,-56.1632413321392,1.64042,2.2309712,116.69567400985,118.92664520985,2.952756,0,5.1782481972,8.4924871484,18,5,7.445,119.25472920985,1.968504,2.7290668,5.2343505612,0,0,0.223694,130.3, 0.3, -1.5,0,0,1024,1024,928,545,0,0,-15,-73,140.1,0,0,31,3.715,3.711,0,0,0,0,4.935,87.26,118.92664520985,1.64042,6,P-GPS,
8500,2022-12-18 05:26:35,-34.9065724107932,-56.163241297905,1.64042,2.2309712,116.69567400985,118.92664520985,2.952756,0,5.1944227384,8.5125002724,18,5,7.423,119.25472920985,1.968504,2.7290668,5.2343505612,0,0,0,129.5, 0.5, -1.5,0,0,1024,1024,928,545,0,0,-15,-73,139.3,0,0,31,3.713,3.711,0,0,0,0,4.618,87.26,118.92664520985,1.64042,6,P-GPS,
8600,2022-12-18 05:26:35,-34.9065726061723,-56.1632412626575,1.64042,2.2637796,116.66286560985,118.92664520985,2.952756,0,5.2644686724,8.5845803272,18,5,7.423,119.25472920985,1.968504,2.7290668,5.2644686724,0,0,0.223694,128.2, 1.2, -1,0,0,1024,1024,1024,1024,0,0,0,0,137.5,0,0,31,3.713,3.711,0,0,0,0,4.618,87.26,118.92664520985,1.64042,6,P-GPS,
8700,2022-12-18 05:26:35,-34.9065725912866,-56.1632412891979,1.312336,1.9356956,116.66286560985,118.59856120985,2.952756,0,5.2597770712,8.5941931884,18,5,7.423,119.25472920985,1.968504,2.7290668,5.2644686724,0,0,0,126.4, 0.7, -1.1,0,0,1024,1024,1024,1024,0,0,0,0,136.3,0,0,31,3.713,3.711,0,0,0,0,4.618,87.26,118.59856120985,1.312336,6,P-GPS,
8800,2022-12-18 05:26:35,-34.906572552046,-56.1632413293069,1.312336,1.9356956,116.66286560985,118.59856120985,2.952756,0,5.2465880944,8.612861168,18,5,7.423,119.25472920985,1.968504,2.7290668,5.2644686724,0,0,0,125.6, 0.6, -1.3,0,0,1024,1024,1024,1024,0,0,0,0,135.7,0,0,31,3.713,3.711,0,0,0,0,4.618,87.26,118.59856120985,1.312336,6,P-GPS,
8900,2022-12-18 05:26:36,-34.906572557985,-56.1632414609904,1.312336,1.9356956,116.66286560985,118.59856120985,2.952756,0,5.2525592232,8.6523296732,18,5,7.423,119.25472920985,1.968504,2.7290668,5.2644686724,0,0,0,125.3, 0.2, -1.4,0,0,1024,1024,1024,1024,0,0,0,0,135.7,0,0,31,3.713,3.711,0,0,0,0,4.618,87.26,118.59856120985,1.312336,6,P-GPS,
9000,2022-12-18 05:26:36,-34.9065726699828,-56.1632419172568,1.312336,1.968504,116.63005720985,118.59856120985,2.952756,0,5.3084647368,8.7948165544,18,5,7.423,119.25472920985,1.968504,2.7290668,5.3084647368,0,0,0,125.3, 0.1, -1,0,0,1024,1024,1024,1024,0,0,0,0,135.7,0,0,31,3.713,3.711,0,0,0,0,4.618,87.26,118.59856120985,1.312336,6,P-GPS,
9100,2022-12-18 05:26:36,-34.9065726533027,-56.1632419339162,1.312336,1.968504,116.63005720985,118.59856120985,2.952756,0,5.3030513508,8.8026905704,18,5,7.423,119.25472920985,1.968504,2.7290668,5.3084647368,0,0,0,125.3, -0.1, -0.8,0,0,1024,1024,1024,1024,0,0,0,0,135.7,0,0,31,3.713,3.711,0,0,0,0,4.618,87.26,118.59856120985,1.312336,6,P-GPS,
9200,2022-12-18 05:26:36,-34.9065726273909,-56.1632419329695,1.312336,1.968504,116.63005720985,118.59856120985,2.952756,0,5.29363534,8.8121393896,18,5,7.423,119.25472920985,1.968504,2.7290668,5.3084647368,0,0,0,125.3, -0.1, -0.4,0,0,1024,1024,1024,1024,0,0,0,0,135.7,0,0,31,3.713,3.711,0,0,0,0,4.618,87.26,118.59856120985,1.312336,6,P-GPS,
9300,2022-12-18 05:26:36,-34.9065726687143,-56.1632418274451,1.312336,1.968504,116.63005720985,118.59856120985,2.952756,0,5.3047245792,8.8471459524,18,5,7.423,119.25472920985,1.968504,2.7290668,5.3084647368,0,0,0,125.2, 0, -0.1,0,0,1024,1024,1024,1024,0,0,0,0,135.7,0,0,31,3.713,3.711,0,0,0,0,4.618,87.26,118.59856120985,1.312336,6,P-GPS,
9400,2022-12-18 05:26:36,-34.9065729577549,-56.1632414521828,1.312336,1.9356956,116.66286560985,118.59856120985,2.952756,0,5.3974411176,9.0011813904,17,5,7.423,119.25472920985,1.968504,2.7290668,5.3974411176,0,0,0,125.2, 0.1, 0.1,0,0,1024,1024,1024,1024,0,0,0,0,135.7,0,0,31,3.713,3.711,0,0,0,0,4.618,87.26,118.59856120985,1.312336,6,P-GPS,
9500,2022-12-18 05:26:36,-34.9065730136008,-56.1632412578247,1.312336,1.9356956,116.66286560985,118.59856120985,2.952756,0,5.4124345564,9.0627955656,17,5,7.423,119.25472920985,1.968504,2.7290668,5.4124345564,0,0,0,125.2, 0, 0.3,0,0,1024,1024,1024,1024,0,0,0,0,135.7,0,0,31,3.713,3.711,0,0,0,0,4.618,87.26,118.59856120985,1.312336,6,P-GPS,
9600,2022-12-18 05:26:36,-34.9065730739363,-56.16324105433,1.312336,1.9356956,116.66286560985,118.59856120985,2.952756,0,5.4295277328,9.1275593472,17,5,7.408,119.25472920985,1.968504,2.7290668,5.4295277328,0,0.223694,0,125.2, 0.5, 0.4,0,0,1024,1024,1024,1024,0,0,0,0,135.7,0,0,31,3.708,3.703,0,0,0,0,4.676,87.26,118.59856120985,1.312336,6,P-GPS,
9700,2022-12-18 05:26:36,-34.9065731474622,-56.1632407804409,1.312336,1.9356956,116.66286560985,118.59856120985,2.952756,0,5.4508203844,9.2137798224,17,5,7.408,119.25472920985,1.968504,2.7290668,5.4508203844,0,0,0,125.2, 1.3, 0.5,0,0,1024,1024,1024,1024,0,0,0,0,135.7,0,0,31,3.708,3.703,0,0,0,0,4.676,87.26,118.59856120985,1.312336,6,P-GPS,
9800,2022-12-18 05:26:36,-34.9065732221035,-56.1632405111116,1.312336,1.9356956,116.66286560985,118.59856120985,2.952756,0,5.4738846896,9.2988520036,17,5,7.408,119.25472920985,1.968504,2.7290668,5.4738846896,0,0,0,125.2, 1.1, 0.3,0,0,1024,1024,1024,1024,0,0,0,0,135.7,0,0,31,3.708,3.703,0,0,0,0,4.676,87.26,118.59856120985,1.312336,6,P-GPS,
9900,2022-12-18 05:26:36,-34.9065734842341,-56.1632399360812,1.312336,1.9028872,116.69567400985,118.59856120985,2.952756,0,5.5646983408,9.4957024036,17,5,7.408,119.25472920985,1.968504,2.7290668,5.5646983408,0,0,0,125.1, 1.4, 0.1,0,0,1024,1024,1024,1024,0,0,0,0,135.7,0,0,31,3.708,3.703,0,0,0,0,4.676,87.26,118.59856120985,1.312336,6,P-GPS,
10000,2022-12-18 05:26:37,-34.9065737910021,-56.1632392840478,1.312336,1.9356956,116.66286560985,118.59856120985,2.952756,0,5.6776248536,9.7206039856,17,5,7.408,119.25472920985,1.968504,2.7290668,5.6776248536,0,0,0,125.1, 0.8, 0,0,0,1024,1024,1024,1024,0,0,0,0,135.7,0,0,31,3.708,3.703,0,0,0,0,4.676,87.26,118.59856120985,1.312336,6,P-GPS,
10100,2022-12-18 05:26:37,-34.9065739877409,-56.1632390025903,1.312336,1.9356956,116.66286560985,118.59856120985,2.952756,0,5.7518702628,9.8312667188,17,5,7.408,119.25472920985,1.968504,2.7290668,5.7518702628,0,0,0,125.1, 0.6, 0.1,0,0,1024,1024,1024,1024,0,0,0,0,135.7,0,0,31,3.708,3.703,0,0,0,0,4.676,87.26,118.59856120985,1.312336,6,P-GPS,
10200,2022-12-18 05:26:37,-34.9065741499469,-56.1632388179774,1.312336,1.9356956,116.66286560985,118.59856120985,2.952756,0,5.8132875876,9.9122050416,17,5,7.408,119.25472920985,1.968504,2.7290668,5.8132875876,0,0,0,125.2, 0.6, 0.4,0,0,1024,1024,1024,1024,0,0,0,0,135.7,0,0,31,3.708,3.703,0,0,0,0,4.676,87.26,118.59856120985,1.312336,6,P-GPS,
10300,2022-12-18 05:26:37,-34.9065744724261,-56.1632383699284,1.312336,1.9028872,116.69567400985,118.59856120985,2.952756,0,5.9383860168,10.0905843124,17,5,7.408,119.25472920985,1.968504,2.7290668,5.9383860168,0,0,0,125.2, 0.8, 0.7,0,0,1024,1024,1024,925,0,0,0,-15,135.7,0,0,31,3.708,3.703,0,0,0,0,4.676,87.26,118.59856120985,1.312336,6,P-GPS,
10400,2022-12-18 05:26:37,-34.9065745880798,-56.1632381898088,1.64042,2.2637796,116.66286560985,118.92664520985,2.952756,0,5.9843177768,10.1590226348,18,5,7.408,119.25472920985,1.968504,2.7290668,5.9843177768,0,0,0,125.3, 0.8, 0.6,0,0,1024,1024,1003,700,0,0,-3,-49,135.7,0,0,31,3.708,3.703,0,0,0,0,4.676,87.26,118.92664520985,1.64042,6,P-GPS,
10500,2022-12-18 05:26:37,-34.9065746375877,-56.1632381359432,1.64042,2.2637796,116.66286560985,118.92664520985,2.952756,0,6.0035763076,10.183235234,18,5,7.408,119.25472920985,1.968504,2.7290668,6.0035763076,0,0,0,125.1, 0.9, 0.3,0,0,1024,1024,1014,702,0,0,-2,-49,135.3,0,0,31,3.708,3.703,0,0,0,0,4.676,87.26,118.92664520985,1.64042,6,P-GPS,
10600,2022-12-18 05:26:37,-34.9065746824888,-56.1632381032264,1.64042,2.2637796,116.66286560985,118.92664520985,2.952756,0,6.0207022924,10.2023297228,17,5,7.409,119.25472920985,1.968504,2.7290668,6.0207022924,0,0,0,124.3, 0.9, 0.5,0,0,1024,1024,1014,702,0,0,-2,-49,134.1,0,0,31,3.706,3.701,0,0,0,0,4.728,87.26,118.92664520985,1.64042,6,P-GPS,
10700,2022-12-18 05:26:37,-34.9065743247115,-56.1632384576338,1.64042,2.2309712,116.69567400985,118.92664520985,2.952756,0,5.882874204,10.3705055812,17,5,7.409,119.25472920985,1.968504,2.7290668,6.0207022924,0,0,0,123, 0.9, 0.2,0,0,1024,1024,1024,824,0,0,0,-30,132.6,0,0,31,3.706,3.701,0,0,0,0,4.728,87.26,118.92664520985,1.64042,6,P-GPS,
10800,2022-12-18 05:26:37,-34.9065742507639,-56.163238529022,1.64042,2.2637796,116.66286560985,118.92664520985,2.952756,0,5.8546261716,10.4049215928,17,5,7.409,119.25472920985,1.968504,2.7290668,6.0207022924,0,0,0,121.6, 0.7, 0.1,0,0,1024,1024,1024,895,0,0,0,-20,131.4,0,0,31,3.706,3.701,0,0,0,0,4.728,87.26,118.92664520985,1.64042,6,P-GPS,
10900,2022-12-18 05:26:37,-34.90657419583,-56.1632385959547,1.64042,2.2637796,116.66286560985,118.92664520985,2.952756,0,5.8334319452,10.433235242,17,5,7.409,119.25472920985,1.968504,2.7290668,6.0207022924,0,0,0,120.5, 0.6, 0,0,0,1024,1024,1024,990,0,0,0,-5,130.5,0,0,31,3.706,3.701,0,0,0,0,4.728,87.26,118.92664520985,1.64042,6,P-GPS,
11000,2022-12-18 05:26:38,-34.9065741444916,-56.1632386640196,1.64042,2.2637796,116.66286560985,118.92664520985,2.952756,0,5.8136156716,10.4609255316,17,5,7.409,119.25472920985,1.968504,2.7290668,6.0207022924,0,0,0,119.8, 0.5, 0.1,0,0,1024,1024,1024,987,0,0,0,-6,130,0,0,31,3.706,3.701,0,0,0,0,4.728,87.26,118.92664520985,1.64042,6,P-GPS,
11100,2022-12-18 05:26:38,-34.9065738512675,-56.1632390184832,1.64042,2.2637796,116.66286560985,118.92664520985,2.952756,0,5.701935878,10.611548896,17,5,7.409,119.25472920985,1.968504,2.7290668,6.0207022924,0,0,0,119.4, 0.4, 0.1,0,0,1024,1024,1024,1002,0,0,0,-3,129.8,0,0,31,3.706,3.701,0,0,0,0,4.728,87.26,118.92664520985,1.64042,6,P-GPS,
11200,2022-12-18 05:26:38,-34.9065737747388,-56.1632391392658,1.64042,2.2637796,116.66286560985,118.92664520985,2.952756,0,5.6728348272,10.6572181888,17,5,7.409,119.25472920985,1.968504,2.7290668,6.0207022924,0,0,0,119.3, 0.1, 0.1,0,0,1024,1024,1024,1024,0,0,0,0,129.7,0,0,31,3.706,3.701,0,0,0,0,4.728,87.26,118.92664520985,1.64042,6,P-GPS,
11300,2022-12-18 05:26:38,-34.906573746228,-56.163239287187,1.64042,2.2637796,116.66286560985,118.92664520985,2.952756,0,5.6612862704,10.7026906312,17,5,7.409,119.25472920985,1.968504,2.7290668,6.0207022924,0,0,0,119.3, 0.1, 0,0,0,1024,1024,1024,1024,0,0,0,0,129.7,0,0,31,3.706,3.701,0,0,0,0,4.728,87.26,118.92664520985,1.64042,6,P-GPS,
11400,2022-12-18 05:26:38,-34.9065737246283,-56.1632394410639,1.312336,1.9356956,116.66286560985,118.59856120985,2.952756,0,5.652559236,10.7494097928,17,5,7.409,119.25472920985,1.968504,2.7290668,6.0207022924,0,0,0,119.3, 0.1, 0,0,0,1024,1024,1024,1024,0,0,0,0,129.7,0,0,31,3.706,3.701,0,0,0,0,4.728,87.26,118.59856120985,1.312336,6,P-GPS,
11500,2022-12-18 05:26:38,-34.906573726374,-56.1632395317765,1.312336,1.968504,116.63005720985,118.59856120985,2.952756,0,5.65288732,10.7765423396,17,5,7.409,119.25472920985,1.968504,2.7290668,6.0207022924,0,0,0,119.2, 0.4, 0,0,0,1024,1024,1024,1024,0,0,0,0,129.7,0,0,31,3.706,3.701,0,0,0,0,4.728,87.26,118.59856120985,1.312336,6,P-GPS,
11600,2022-12-18 05:26:38,-34.9065737764926,-56.1632397388165,1.312336,1.968504,116.63005720985,118.59856120985,2.952756,0,5.67093194,10.8411420792,17,5,7.405,119.25472920985,1.968504,2.7290668,6.0207022924,0,0,0,119.2, 0.2, 0.2,0,0,1024,1024,1024,1024,0,0,0,0,129.7,0,0,31,3.703,3.698,0,0,0,0,4.738,87.26,118.59856120985,1.312336,6,P-GPS,
11700,2022-12-18 05:26:38,-34.9065737856559,-56.1632398352016,1.64042,2.296588,116.63005720985,118.92664520985,2.952756,0,5.674376822,10.8701775132,17,5,7.405,119.25472920985,1.968504,2.7290668,6.0207022924,0,0,0,119.1, 0.1, 0,0,0,1024,1039,1024,1024,0,2,0,0,129.7,0,0,31,3.703,3.698,0,0,0,0,4.738,87.26,118.92664520985,1.64042,6,P-GPS,
11800,2022-12-18 05:26:38,-34.9065737966365,-56.1632399411909,1.64042,2.296588,116.63005720985,118.92664520985,2.952756,0,5.6786747224,10.9021328948,18,5,7.405,119.25472920985,1.968504,2.7290668,6.0207022924,0,0,0,119.2, -0.2, 0,0,0,1024,1174,920,824,0,23,-16,-30,129.7,0,0,31,3.703,3.698,0,0,0,0,4.738,87.26,118.92664520985,1.64042,6,P-GPS,
11900,2022-12-18 05:26:39,-34.9065737658084,-56.1632400452554,1.64042,2.296588,116.63005720985,118.92664520985,2.952756,0,5.6679135672,10.9352365704,18,5,7.405,119.25472920985,1.968504,2.7290668,6.0207022924,0,0,0,119.2, -0.1, 0.5,0,0,1040,1438,906,649,2,63,-18,-57,129.6,0,0,31,3.703,3.698,0,0,0,0,4.738,87.26,118.92664520985,1.64042,6,P-GPS,
12000,2022-12-18 05:26:39,-34.9065737200719,-56.1632402027415,1.64042,2.296588,116.63005720985,118.92664520985,2.952756,0,5.6522639604,10.985236572,18,5,7.405,119.25472920985,1.968504,2.7290668,6.0207022924,0,0,0,119, -0.1, 2.3,0,0,1054,1579,942,647,5,84,-12,-57,128.7,0,0,31,3.703,3.698,0,0,0,0,4.738,87.26,118.92664520985,1.64042,6,P-GPS,
12100,2022-12-18 05:26:39,-34.9065737071225,-56.1632402831318,1.64042,2.296588,116.63005720985,118.92664520985,2.952756,0,5.6482285272,11.0097444468,18,5,7.405,119.25472920985,1.968504,2.7290668,6.0207022924,0,0,0.223694,117.9, 0.1, 7.4,0,0,1024,1289,1024,937,0,40,0,-13,127.1,0,0,31,3.703,3.698,0,0,0,0,4.738,87.26,118.92664520985,1.64042,6,P-GPS,
12200,2022-12-18 05:26:39,-34.9065737810425,-56.1632404168785,1.64042,2.296588,116.63005720985,118.92664520985,2.952756,0.3131716,5.676509368,11.0580056032,18,5,7.405,119.25472920985,1.968504,2.7290668,6.0207022924,-0.223694,-0.223694,0.223694,116.3, 0.3, 11.7,0,0,1024,1051,1024,1024,0,4,0,0,125.4,0,0,31,3.703,3.698,0,0,0,0,4.738,87.26,118.92664520985,1.64042,6,P-GPS,
12300,2022-12-18 05:26:39,-34.9065741297086,-56.1632405280948,1.312336,1.968504,116.63005720985,118.59856120985,2.624672,0.8052984,5.804954254,11.1895016704,18,5,7.405,119.25472920985,1.968504,2.7290668,6.0207022924,-0.671082,-0.447388,0,114.6, 0.3, 9.5,0,0,1024,1051,1024,1024,0,4,0,0,124.2,0,0,31,3.703,3.698,0,0,0,0,4.738,87.26,118.59856120985,1.312336,6,P-GPS,
12400,2022-12-18 05:26:39,-34.9065747851753,-56.1632404251364,1.312336,2.0013124,116.59724880985,118.59856120985,2.624672,1.11847,6.0427167288,11.430610602,18,5,7.405,119.25472920985,1.968504,2.7290668,6.0427167288,-0.894776,-0.671082,0,113.3, 0.1, 1.2,0,0,1024,1024,1024,1024,0,0,0,0,123.7,0,0,31,3.703,3.698,0,0,0,0,4.738,87.26,118.59856120985,1.312336,6,P-GPS,
12500,2022-12-18 05:26:39,-34.9065753195475,-56.16324063001,1.312336,2.0341208,116.56444040985,118.59856120985,2.624672,1.006623,6.2399608296,11.635006934,18,5,7.405,119.25472920985,1.968504,2.7290668,6.2399608296,-0.894776,-0.447388,0,112.9, -0.7, -5,0,0,1024,1024,1024,1024,0,0,0,0,123.6,0,0,31,3.703,3.698,0,0,0,0,4.738,87.26,118.59856120985,1.312336,6,P-GPS,
12600,2022-12-18 05:26:39,-34.9065758223345,-56.1632408078549,1.312336,2.0669292,116.53163200985,118.59856120985,2.624672,0.8052984,6.4257547988,11.8259846304,18,5,7.4,119.25472920985,1.968504,2.7290668,6.4257547988,-0.671082,-0.447388,0,113.2, -1.2, -5.6,0,0,1024,1024,1024,939,0,0,0,-13,123.6,0,0,31,3.699,3.696,0,0,0,0,4.662,87.26,118.59856120985,1.312336,6,P-GPS,
12700,2022-12-18 05:26:39,-34.9065762764912,-56.1632409815786,1.312336,2.0669292,116.53163200985,118.59856120985,2.952756,0.7158208,6.5940290824,11.9996723,18,5,7.4,119.25472920985,1.968504,2.7290668,6.5940290824,-0.671082,-0.223694,0,113.3, -0.9, -4.9,0,0,1024,1193,966,518,0,26,-9,-77,123.6,0,0,31,3.699,3.696,0,0,0,0,4.662,87.26,118.59856120985,1.312336,6,P-GPS,
12800,2022-12-18 05:26:39,-34.9065769574495,-56.1632410484435,1.312336,2.0997376,116.49882360985,118.59856120985,2.952756,0.4921268,6.8432088804,12.2489177148,17,5,7.4,119.25472920985,1.968504,2.7290668,6.8432088804,-0.447388,-0.223694,0,113.1, -0.5, -3.7,0,0,1024,1457,996,534,0,66,-4,-74,122.7,0,0,31,3.699,3.696,0,0,0,0,4.662,87.26,118.59856120985,1.312336,6,P-GPS,
12900,2022-12-18 05:26:40,-34.9065773196611,-56.1632411647446,1.312336,2.0997376,116.49882360985,118.59856120985,2.952756,0.3131716,6.9772311944,12.3855647008,17,5,7.4,119.25472920985,1.968504,2.7290668,6.9772311944,-0.223694,-0.223694,0,111.6, -0.1, 0.2,0,0,1024,1423,1024,790,0,60,0,-35,120.6,0,0,31,3.699,3.696,0,0,0,0,4.662,87.26,118.59856120985,1.312336,6,P-GPS,
13000,2022-12-18 05:26:40,-34.9065777022754,-56.1632412794553,1.312336,2.132546,116.46601520985,118.59856120985,2.952756,0.4921268,7.1187338236,12.5293311096,18,5,7.4,119.25472920985,1.968504,2.7290668,7.1187338236,-0.447388,-0.223694,0,109.5, 0.2, 6.2,0,0,1024,1307,1024,656,0,43,0,-56,118.3,0,0,31,3.699,3.696,0,0,0,0,4.662,87.26,118.59856120985,1.312336,6,P-GPS,
13100,2022-12-18 05:26:40,-34.9065779158409,-56.1632415227874,1.312336,2.1653544,116.43320680985,118.59856120985,2.952756,0.7158208,7.201607842,12.6359584096,18,5,7.4,119.25472920985,1.968504,2.7290668,7.201607842,-0.671082,-0.223694,0,107.6, 0.4, 8,0,0,1024,1356,1015,364,0,50,-1,-100,116.8,0,0,31,3.699,3.696,0,0,0,0,4.662,87.26,118.59856120985,1.312336,6,P-GPS,
13200,2022-12-18 05:26:40,-34.9065782243496,-56.1632418209214,1.312336,2.1653544,116.43320680985,118.59856120985,2.952756,1.006623,7.321030418,12.7795935848,17,5,7.4,119.25472920985,1.968504,2.7290668,7.321030418,-0.894776,-0.447388,0,106.1, 0.5, 5.2,0,0,1024,1356,1015,364,0,50,-1,-100,115.4,0,0,31,3.699,3.696,0,0,0,0,4.662,87.26,118.59856120985,1.312336,6,P-GPS,
13300,2022-12-18 05:26:40,-34.9065782519729,-56.1632426530247,1.312336,2.1981628,116.40039840985,118.59856120985,2.952756,1.2079476,7.3566931488,13.0287733828,17,5,7.4,119.25472920985,1.968504,2.7290668,7.3566931488,-1.11847,-0.447388,0,104.2, 0.3, 4.8,0,0,1024,1325,1024,375,0,46,0,-98,112.9,0,0,31,3.699,3.696,0,0,0,0,4.662,87.26,118.59856120985,1.312336,6,P-GPS,
13400,2022-12-18 05:26:40,-34.906578727477,-56.1632430354364,1.312336,2.2309712,116.36759000985,118.59856120985,2.952756,1.4092722,7.5432089028,13.2365817884,18,5,7.4,119.25472920985,1.968504,2.7290668,7.5432089028,-1.342164,-0.447388,0,101.3, 0, 4.6,0,0,1024,1256,1024,874,0,35,0,-23,109.8,0,0,31,3.699,3.696,0,0,0,0,4.662,87.26,118.59856120985,1.312336,6,P-GPS,
13500,2022-12-18 05:26:40,-34.9065792170638,-56.163243396886,1.312336,2.2309712,116.36759000985,118.59856120985,2.952756,1.6329662,7.7349740008,13.4454072544,18,5,7.4,119.25472920985,1.968504,2.7290668,7.7349740008,-1.565858,-0.447388,0,98.5, -0.5, 3.8,0,0,1024,1230,1024,1024,0,31,0,0,107.6,0,0,31,3.699,3.696,0,0,0,0,4.662,87.26,118.59856120985,1.312336,6,P-GPS,
13600,2022-12-18 05:26:40,-34.9065797822836,-56.1632437705357,1.312336,2.296588,116.30197320985,118.59856120985,2.952756,1.6329662,7.9554464488,13.679954506,18,5,7.4,119.25472920985,1.968504,2.7290668,7.9554464488,-1.565858,-0.447388,0,97.3, -0.5, 2.4,0,0,1024,1219,1024,1024,0,30,0,0,106.8,0,0,31,3.699,3.696,0,0,0,0,4.662,87.26,118.59856120985,1.312336,6,P-GPS,
13700,2022-12-18 05:26:40,-34.9065803393222,-56.16324401503,1.312336,2.296588,116.30197320985,118.59856120985,2.952756,1.6329662,8.1675855632,13.8959650116,18,5,7.401,119.25472920985,1.968504,2.7290668,8.1675855632,-1.565858,-0.447388,0,96.6, -0.1, 1.7,0,0,1024,1216,1024,944,0,29,0,-12,106.4,0,0,31,3.7,3.694,0,0,0,0,4.819,87.26,118.59856120985,1.312336,6,P-GPS,
13800,2022-12-18 05:26:40,-34.9065810530334,-56.1632442991879,1.312336,2.3293964,116.26916480985,118.59856120985,2.952756,1.6329662,8.4382220548,14.1698823432,17,5,7.401,119.25472920985,1.968504,2.7290668,8.4382220548,-1.565858,-0.447388,0,95.9, 0.2, 1.1,0,0,1024,1221,1024,475,0,30,0,-83,106.4,0,0,31,3.7,3.694,0,0,0,0,4.819,87.26,118.59856120985,1.312336,6,P-GPS,
13900,2022-12-18 05:26:40,-34.906581747555,-56.1632446650877,1.312336,2.3950132,116.20354800985,118.59856120985,2.952756,1.6329662,8.7063322996,14.4459322208,17,5,7.401,119.25472920985,1.968504,2.7290668,8.7063322996,-1.565858,-0.447388,0,95.6, 0.2, 1.1,0,0,1024,1304,1024,574,0,42,0,-68,105.8,0,0,31,3.7,3.694,0,0,0,0,4.819,87.26,118.59856120985,1.312336,6,P-GPS,
14000,2022-12-18 05:26:41,-34.9065824881518,-56.1632450700532,1.312336,2.3950132,116.20354800985,118.59856120985,2.952756,1.7000744,8.9935370332,14.7420608392,16,5,7.401,119.25472920985,1.968504,2.7290668,8.9935370332,-1.565858,-0.671082,0,94.1, 0, 1.8,0,0,1024,1166,1024,1024,0,22,0,0,103.8,0,0,31,3.7,3.694,0,0,0,0,4.819,87.26,118.59856120985,1.312336,6,P-GPS,
14100,2022-12-18 05:26:41,-34.9065832903331,-56.163246091164,1.312336,2.46063,116.13793120985,118.59856120985,2.952756,1.7000744,9.3393047608,15.1651579656,16,5,7.401,119.25472920985,1.968504,2.7290668,9.3393047608,-1.565858,-0.671082,0,91.8, -0.7, 3.5,0,0,1024,1166,1024,1024,0,22,0,0,101.6,0,0,31,3.7,3.694,0,0,0,0,4.819,87.26,118.59856120985,1.312336,6,P-GPS,
14200,2022-12-18 05:26:41,-34.9065840970772,-56.1632465736817,1.312336,2.5262468,116.07231440985,118.59856120985,2.952756,1.8342908,9.6572837736,15.4929794984,17,5,7.401,119.25472920985,1.968504,2.7290668,9.6572837736,-1.789552,-0.447388,0,90.2, -0.8, 2.5,0,0,1024,1024,1024,1024,0,0,0,0,100.6,0,0,31,3.7,3.694,0,0,0,0,4.819,87.26,118.59856120985,1.312336,6,P-GPS,
14300,2022-12-18 05:26:41,-34.9065848620128,-56.1632469717845,1.312336,2.5918636,116.00669760985,118.59856120985,2.952756,1.8342908,9.9554793212,15.79642439,17,5,7.401,119.25472920985,1.968504,2.7290668,9.9554793212,-1.789552,-0.447388,0,89.3, -1.3, -3.3,0,0,1024,1024,1024,1024,0,0,0,0,100.2,0,0,31,3.7,3.694,0,0,0,0,4.819,87.26,118.59856120985,1.312336,6,P-GPS,
14400,2022-12-18 05:26:41,-34.9065856165816,-56.1632473487933,1.312336,2.624672,115.97388920985,118.59856120985,2.952756,1.6329662,10.2488848424,16.0939637696,17,5,7.401,119.25472920985,1.968504,2.7290668,10.2488848424,-1.565858,-0.447388,0,89.1, -2.4, -8,0,0,1024,1024,1024,1024,0,0,0,0,100.1,0,0,31,3.7,3.694,0,0,0,0,4.819,87.26,118.59856120985,1.312336,6,P-GPS,
14500,2022-12-18 05:26:41,-34.906585825283,-56.1632477381349,1.312336,2.6574804,115.94108080985,118.59856120985,2.952756,1.1408394,10.3495410136,16.2331370024,17,5,7.401,119.25472920985,1.968504,2.7290668,10.3495410136,-1.11847,-0.223694,0,89.3, -2.4, -7.6,0,0,1024,1024,1024,1024,0,0,0,0,100.1,0,0,31,3.7,3.694,0,0,0,0,4.819,87.26,118.59856120985,1.312336,6,P-GPS,
14600,2022-12-18 05:26:41,-34.9065861896766,-56.1632480014849,1.312336,2.6574804,115.94108080985,118.59856120985,2.952756,1.1408394,10.4972444304,16.3876645664,17,5,7.401,119.25472920985,1.968504,2.7290668,10.4972444304,-1.11847,-0.223694,0,89.4, -2, -6.5,0,0,1024,1024,1024,1684,0,0,0,100,100.2,0,0,31,3.7,3.694,0,0,0,0,4.819,87.26,118.59856120985,1.312336,6,P-GPS,
14700,2022-12-18 05:26:41,-34.9065865712667,-56.1632482051872,1.312336,2.6902888,115.90827240985,118.59856120985,2.952756,0.7158208,10.6469491596,16.5396658836,17,5,7.39,119.25472920985,1.968504,2.7290668,10.6469491596,-0.671082,-0.223694,0,89.5, -1.6, -5.7,0,0,1024,1024,1024,1668,0,0,0,98,101,0,0,31,3.698,3.691,0,0,0,0,4.747,87.26,118.59856120985,1.312336,6,P-GPS,
14800,2022-12-18 05:26:41,-34.9065869067913,-56.1632483831836,1.312336,2.6902888,115.90827240985,118.59856120985,2.952756,0.4921268,10.7785764604,16.6731632632,17,5,7.39,119.25472920985,1.968504,2.7290668,10.7785764604,-0.447388,-0.223694,0,91.2, -1.2, -4.3,0,0,1024,1024,1024,1024,0,0,0,0,103.7,0,0,31,3.698,3.691,0,0,0,0,4.747,87.26,118.59856120985,1.312336,6,P-GPS,
14900,2022-12-18 05:26:41,-34.9065871033933,-56.1632485502197,1.312336,2.7230972,115.87546400985,118.59856120985,2.952756,0.4921268,10.8602693764,16.7605648408,17,5,7.39,119.25472920985,1.968504,2.7290668,10.8602693764,-0.447388,-0.223694,0,93.9, -0.8, -3.2,0,0,1024,1024,1024,1024,0,0,0,0,106.5,0,0,31,3.698,3.691,0,0,0,0,4.747,87.26,118.59856120985,1.312336,6,P-GPS,
15000,2022-12-18 05:26:42,-34.9065873182925,-56.1632487005467,1.312336,2.7230972,115.87546400985,118.59856120985,2.952756,0.223694,10.9473100616,16.8509519828,17,5,7.39,119.25472920985,1.968504,2.7290668,10.9473100616,-0.223694,0,0,95.7, -0.4, -2.6,0,0,1024,1024,1024,1024,0,0,0,0,108.2,0,0,31,3.698,3.691,0,0,0,0,4.747,87.26,118.59856120985,1.312336,6,P-GPS,
15100,2022-12-18 05:26:42,-34.906587380333,-56.1632487188319,1.312336,2.7230972,115.87546400985,118.59856120985,2.952756,0.223694,10.9705712172,16.8742459468,17,5,7.39,119.25472920985,1.968504,2.7290668,10.9705712172,-0.223694,0,0,96.8, -0.2, -2.4,0,0,1024,1024,1024,1024,0,0,0,0,108.8,0,0,31,3.698,3.691,0,0,0,0,4.747,87.26,118.59856120985,1.312336,6,P-GPS,
15200,2022-12-18 05:26:42,-34.9065874100293,-56.1632487099714,1.312336,2.7230972,115.87546400985,118.59856120985,2.952756,0.223694,10.9804465456,16.8854008028,16,5,7.39,119.25472920985,1.968504,2.7290668,10.9804465456,-0.223694,0,0,97.1, -0.2, -2.1,0,0,1024,1024,1024,1024,0,0,0,0,108.8,0,0,31,3.698,3.691,0,0,0,0,4.747,87.26,118.59856120985,1.312336,6,P-GPS,
15300,2022-12-18 05:26:42,-34.9065874180543,-56.1632486524397,1.312336,2.7230972,115.87546400985,118.59856120985,2.624672,0,10.9790685928,16.9028548716,16,5,7.39,119.25472920985,1.968504,2.7290668,10.9804465456,0,0,0,97.3, 0, -2.1,0,0,1024,1024,1024,1024,0,0,0,0,108.8,0,0,31,3.698,3.691,0,0,0,0,4.747,87.26,118.59856120985,1.312336,6,P-GPS,
15400,2022-12-18 05:26:42,-34.9065872613198,-56.1632483134231,1.312336,2.6902888,115.90827240985,118.59856120985,2.624672,0,10.8992129472,17.0193246916,16,5,7.39,119.25472920985,1.968504,2.7290668,10.9804465456,0,0,0,97.4, 0.2, -2.6,0,0,1024,1024,1024,1024,0,0,0,0,108.8,0,0,31,3.698,3.691,0,0,0,0,4.747,87.26,118.59856120985,1.312336,6,P-GPS,
15500,2022-12-18 05:26:42,-34.906587220029,-56.1632482629833,1.312336,2.6902888,115.90827240985,118.59856120985,2.624672,0,10.8810042852,17.0406501516,16,5,7.39,119.25472920985,1.968504,2.7290668,10.9804465456,0,0,0,97.5, 0, -2.1,0,0,1024,964,1024,1024,0,-9,0,0,108.8,0,0,31,3.698,3.691,0,0,0,0,4.747,87.26,118.59856120985,1.312336,6,P-GPS,
15600,2022-12-18 05:26:42,-34.9065871555003,-56.1632482123078,1.312336,2.6902888,115.90827240985,118.59856120985,2.624672,0,10.8545607148,17.0686357168,17,5,7.39,119.25472920985,1.968504,2.7290668,10.9804465456,0,0,0,97.6, -0.1, -1.8,0,0,1024,593,1024,1024,0,-65,0,0,108.8,0,0,31,3.698,3.691,0,0,0,0,4.747,87.26,118.59856120985,1.312336,6,P-GPS,
15700,2022-12-18 05:26:42,-34.9065871125354,-56.1632482110927,1.312336,2.6902888,115.90827240985,118.59856120985,2.624672,0,10.839239192,17.084318132,17,5,7.387,119.25472920985,1.968504,2.7290668,10.9804465456,0,0,0,97.7, -0.1, -2,0,0,1024,364,1024,1024,0,-100,0,0,108.8,0,0,31,3.695,3.69,0,0,0,0,4.75,87.26,118.59856120985,1.312336,6,P-GPS,
15800,2022-12-18 05:26:42,-34.9065871300053,-56.1632481978617,1.312336,2.6902888,115.90827240985,118.59856120985,2.624672,0,10.8445213444,17.0918312556,17,5,7.387,119.25472920985,1.968504,2.7290668,10.9804465456,0,0,0,97.5, 0, -8.1,0,0,1024,364,1024,1024,0,-100,0,0,108.8,0,0,31,3.695,3.69,0,0,0,0,4.75,87.26,118.59856120985,1.312336,6,P-GPS,
15900,2022-12-18 05:26:43,-34.9065869988179,-56.1632482636812,1.312336,2.6902888,115.90827240985,118.59856120985,2.624672,0.223694,10.8026250176,17.1435701024,17,5,7.387,119.25472920985,1.968504,2.7290668,10.9804465456,0.223694,0,0,97.3, 0.1, -15.2,0,0,1024,364,1024,1024,0,-100,0,0,108.8,0,0,31,3.695,3.69,0,0,0,0,4.75,87.26,118.59856120985,1.312336,6,P-GPS,
16000,2022-12-18 05:26:43,-34.9065866751744,-56.1632483203687,1.312336,2.6902888,115.90827240985,118.59856120985,2.624672,0.894776,10.6920279012,17.2628614448,17,5,7.387,119.25472920985,1.968504,2.7290668,10.9804465456,0.894776,0,0,97.4, -0.1, -18.4,0,0,1024,545,1024,1024,0,-73,0,0,108.8,0,0,31,3.695,3.69,0,0,0,0,4.75,87.26,118.59856120985,1.312336,6,P-GPS,
16100,2022-12-18 05:26:43,-34.9065861065641,-56.1632483605841,1.312336,2.6574804,115.94108080985,118.59856120985,2.624672,1.565858,10.49376674,17.4706698504,17,5,7.387,119.25472920985,1.968504,2.7290668,10.9804465456,1.565858,0,0,97.7, -0.3, -19.2,0,0,1024,545,1024,1024,0,-73,0,0,108.8,0,0,31,3.695,3.69,0,0,0,0,4.75,87.26,118.59856120985,1.312336,6,P-GPS,
16200,2022-12-18 05:26:43,-34.9065853014484,-56.1632486775294,1.312336,2.624672,115.97388920985,118.59856120985,2.624672,2.23694,10.2337929784,17.779364086,17,5,7.387,119.25472920985,1.968504,2.7290668,10.9804465456,2.23694,0.223694,0,97.9, -0.2, -16.7,0,0,1024,966,1024,1024,0,-9,0,0,108.8,0,0,31,3.695,3.69,0,0,0,0,4.75,87.26,118.59856120985,1.312336,6,P-GPS,
16300,2022-12-18 05:26:43,-34.9065842186471,-56.1632485767255,1.312336,2.5918636,116.00669760985,118.59856120985,2.624672,2.908022,9.8449478216,18.1755583244,17,5,7.387,119.25472920985,1.968504,2.908022,10.9804465456,2.908022,0.223694,0,98.4, -0.4, -6.9,0,0,1024,1024,1024,1024,0,0,0,0,108.8,0,0,31,3.695,3.69,0,0,0,0,4.75,87.26,118.59856120985,1.312336,6,P-GPS,
16400,2022-12-18 05:26:43,-34.9065829792872,-56.1632484255418,1.312336,2.5262468,116.07231440985,118.59856120985,2.952756,2.9527608,9.397638096,18.6299874728,17,5,7.387,119.25472920985,1.968504,2.9527608,10.9804465456,2.908022,0.447388,0,98.3, -0.3, 4.2,0,0,1024,1024,1024,1024,0,0,0,0,108.8,0,0,31,3.695,3.69,0,0,0,0,4.75,87.26,118.59856120985,1.312336,6,P-GPS,
16500,2022-12-18 05:26:43,-34.9065817116511,-56.1632482767118,1.312336,2.4934384,116.10512280985,118.59856120985,2.952756,2.7290668,8.9413388688,19.0946200336,17,5,7.387,119.25472920985,1.968504,2.9527608,10.9804465456,2.684328,0.447388,0,98.2, 0, 10.5,0,0,1024,1024,1024,1024,0,0,0,0,108.8,0,0,31,3.695,3.69,0,0,0,0,4.75,87.26,118.59856120985,1.312336,6,P-GPS,
16600,2022-12-18 05:26:43,-34.9065805295001,-56.1632481410065,1.312336,2.46063,116.13793120985,118.59856120985,2.952756,2.0356154,8.5169294064,19.5278549556,17,5,7.387,119.25472920985,1.968504,2.9527608,10.9804465456,2.013246,0.223694,0,97.7, 0.2, 10.5,0,0,1024,1024,1024,1024,0,0,0,0,108.8,0,0,31,3.695,3.69,0,0,0,0,4.75,87.26,118.59856120985,1.312336,6,P-GPS,
