time(millisecond),datetime(utc),latitude,longitude,height_above_takeoff(feet),height_above_ground_at_drone_location(feet),ground_elevation_at_drone_location(feet),altitude_above_seaLevel(feet),height_sonar(feet),speed(mph),distance(feet),mileage(feet),satellites,gpslevel,voltage(v),max_altitude(feet),max_ascent(feet),max_speed(mph),max_distance(feet), xSpeed(mph), ySpeed(mph), zSpeed(mph), compass_heading(degrees), pitch(degrees), roll(degrees),isPhoto,isVideo,rc_elevator,rc_aileron,rc_throttle,rc_rudder,rc_elevator(percent),rc_aileron(percent),rc_throttle(percent),rc_rudder(percent),gimbal_heading(degrees),gimbal_pitch(degrees),gimbal_roll(degrees),battery_percent,voltageCell1,voltageCell2,voltageCell3,voltageCell4,voltageCell5,voltageCell6,current(A),battery_temperature(f),altitude(feet),ascent(feet),flycStateRaw,flycState,message
0,2023-12-27 00:50:24,-34.9551350153421,-54.9345436021642,0,0,50.425039999428,50.425039999428,0.328084,0,0,0,18,5,0,50.425039999428,0,0,0,0,0,0,302, -6.3, 2.3,0,0,364,364,364,1684,-100,-100,-100,100,303.6,0,0,96,4.274,4.273,0,0,0,0,0,75.92,50.425039999428,0,41,Motors_Started,"Error de calibración del estabilizador. Reinicia la aeronave o contacta con la Asistencia DJI (Code: 40011)"
100,2023-12-27 00:50:24,-34.9551350365503,-54.9345436245406,0,0,50.425039999428,50.425039999428,0.328084,0.223694,0.0102296919284,0.0102296919284,18,5,0,50.425039999428,0,0.223694,0.0102296919284,0.223694,0,0,301.9, -6.7, 2.6,0,0,364,364,364,1684,-100,-100,-100,100,303.5,0,0,96,4.274,4.273,0,0,0,0,0,75.92,50.425039999428,0,41,Motors_Started,
200,2023-12-27 00:50:25,-34.9551349021355,-54.9345435663783,0,0,50.425039999428,50.425039999428,0.328084,0,0.042666996116,0.06226378152,18,5,0,50.425039999428,0,0.223694,0.042666996116,0,0,0,301.7, -6.8, 2.7,0,0,364,364,364,1684,-100,-100,-100,100,303.5,0,0,96,4.274,4.273,0,0,0,0,0,75.92,50.425039999428,0,41,Motors_Started,
300,2023-12-27 00:50:25,-34.9551347215856,-54.9345434942931,0,0.032808400000005,50.392231599428,50.425039999428,0.328084,0,0.1119258566,0.131574151192,18,5,0,50.425039999428,0,0.223694,0.1119258566,0,0,0,302.4, -6.9, 2.2,0,0,364,364,364,1684,-100,-100,-100,100,303.6,0,0,96,4.274,4.273,0,0,0,0,0,75.92,50.425039999428,0,41,Motors_Started,
400,2023-12-27 00:50:25,-34.9551345777545,-54.934543449582,0,0.032808400000005,50.392231599428,50.425039999428,0.328084,0,0.166045280904,0.185727368148,18,5,0,50.425039999428,0,0.223694,0.166045280904,0,0,0,302.6, -6.2, 2.5,0,0,364,364,364,1684,-100,-100,-100,100,304,0,0,96,4.274,4.273,0,0,0,0,0,75.92,50.425039999428,0,41,Motors_Started,
500,2023-12-27 00:50:25,-34.9551344492982,-54.9345434441361,0,-0.098425200000004,50.523465199428,50.425039999428,0.328084,0,0.211858274496,0.23262303894,18,5,0,50.425039999428,0,0.223694,0.211858274496,0,0,0,302.6, -6, 2.4,0,0,1024,1007,1024,1024,0,-3,0,0,304.3,0,0,96,4.274,4.273,0,0,0,0,0,75.92,50.425039999428,0,41,Motors_Started,
600,2023-12-27 00:50:25,-34.9551344536693,-54.9345435919977,0,-0.098425200000004,50.523465199428,50.425039999428,0.328084,0,0.204948497372,0.27686680676,18,5,0,50.425039999428,0,0.223694,0.211858274496,0,0,0,302.4, -5.9, 2,0,0,1024,1007,1024,1024,0,-3,0,0,304.4,0,0,96,4.274,4.273,0,0,0,0,0,75.92,50.425039999428,0,41,Motors_Started,"Setting new Return-To-Home altitude to 100m (328 ft). Data Recorder File Index is 28. Setting new Maximum Flight Altitude to 120m (394 ft)"
700,2023-12-27 00:50:25,-34.9551343350883,-54.9345435489864,0,-0.098425200000004,50.523465199428,50.425039999428,0.328084,0,0.24869915494,0.322002306892,18,5,0,50.425039999428,0,0.223694,0.24869915494,0,0,0,302.1, -5.7, 2,0,0,1024,1024,1024,1024,0,0,0,0,304.2,0,0,96,4.274,4.273,0,0,0,0,0,75.92,50.425039999428,0,41,Motors_Started,
800,2023-12-27 00:50:25,-34.9551342679893,-54.9345435232573,0,-0.098425200000004,50.523465199428,50.425039999428,0.328084,0,0.273690297472,0.34766405312,18,5,0,50.425039999428,0,0.223694,0.273690297472,0,0,0,301.8, -5.5, 2.2,0,0,1024,1024,1024,1024,0,0,0,0,304.1,0,0,96,4.274,4.273,0,0,0,0,0,75.92,50.425039999428,0,41,Motors_Started,
900,2023-12-27 00:50:25,-34.9551342354171,-54.934543493334,0,-0.098425200000004,50.523465199428,50.425039999428,0.328084,0,0.286410114152,0.36253938168,18,5,0,50.425039999428,0,0.223694,0.286410114152,0,0,0,301.6, -5.6, 2.2,0,0,1024,1024,1024,1024,0,0,0,0,303.7,0,0,96,4.274,4.273,0,0,0,0,0,75.92,50.425039999428,0,41,Motors_Started,
1000,2023-12-27 00:50:25,-34.955134446768,-54.9345434461078,0,-0.098425200000004,50.523465199428,50.425039999428,0.328084,0,0.21262795956,0.44093505348,18,5,0,50.425039999428,0,0.223694,0.286410114152,0,0,0,301.7, -6, 1.7,0,0,1024,1024,1024,1024,0,0,0,0,303.7,0,0,96,4.274,4.273,0,0,0,0,0,75.92,50.425039999428,0,41,Motors_Started,
1100,2023-12-27 00:50:26,-34.9551344643645,-54.9345434046735,0,-0.098425200000004,50.523465199428,50.425039999428,0.328084,0,0.209519035576,0.454888466,18,5,0,50.425039999428,0,0.223694,0.286410114152,0,0,0,301.7, -5, 1.6,0,0,1024,1024,1024,1024,0,0,0,0,303.6,0,0,96,4.274,4.273,0,0,0,0,0,75.92,50.425039999428,0,10,Assisted_Takeoff,
1200,2023-12-27 00:50:26,-34.9551344862769,-54.9345433096618,0,-0.098425200000004,50.523465199428,50.425039999428,0.328084,0,0.211921594708,0.48440290264,18,5,0,50.425039999428,0,0.223694,0.286410114152,0,0,0,302.3, -3.3, 1.9,0,0,1024,1024,1024,1024,0,0,0,0,303.9,0,0,96,4.274,4.273,0,0,0,0,0,75.92,50.425039999428,0,10,Assisted_Takeoff,
1300,2023-12-27 00:50:26,-34.9551345097643,-54.9345432429139,0,0.032808400000005,50.392231599428,50.425039999428,0.328084,0,0.213461949088,0.50612534428,18,5,8.616,50.425039999428,0,0.223694,0.286410114152,0,0,0,301.9, -3.1, 1.6,0,0,1024,1024,1024,1024,0,0,0,0,304,0,0,96,4.274,4.273,0,0,0,0,0.591,75.92,50.425039999428,0,10,Assisted_Takeoff,
1400,2023-12-27 00:50:26,-34.9551347953167,-54.9345432045397,0,0.032808400000005,50.392231599428,50.425039999428,0.328084,0,0.143464243436,0.61093833976,18,5,8.616,50.425039999428,0,0.223694,0.286410114152,0,0,0,301.7, -3.2, 1.2,0,0,1024,1024,1024,1024,0,0,0,0,303.8,0,0,96,4.274,4.273,0,0,0,0,0.591,75.92,50.425039999428,0,10,Assisted_Takeoff,
1500,2023-12-27 00:50:26,-34.9551347687602,-54.9345432205113,0,0.032808400000005,50.392231599428,50.425039999428,0.328084,0,0.145321855044,0.62174214588,18,5,8.616,50.425039999428,0,0.223694,0.286410114152,0,0,0,301.8, -3.6, 2,0,0,1024,1024,1024,1024,0,0,0,0,303.8,0,0,96,4.274,4.273,0,0,0,0,0.591,75.92,50.425039999428,0,10,Assisted_Takeoff,
1600,2023-12-27 00:50:26,-34.9551347411127,-54.9345431931451,0,0.032808400000005,50.392231599428,50.425039999428,0.328084,0,0.158019033928,0.63473099144,18,5,8.616,50.425039999428,0,0.223694,0.286410114152,0,0,0,301.6, -3.6, 2.6,0,0,1024,1024,1091,1024,0,0,10,0,303.7,0,0,96,4.274,4.273,0,0,0,0,0.591,75.92,50.425039999428,0,10,Assisted_Takeoff,
1700,2023-12-27 00:50:26,-34.9551347239298,-54.9345431012835,0,0.032808400000005,50.392231599428,50.425039999428,0.328084,0,0.183679139736,0.66290684536,18,5,8.616,50.425039999428,0,0.223694,0.286410114152,0,0,0,302.1, -3.8, 3,0,0,1024,1024,1091,1024,0,0,10,0,304,0,0,96,4.274,4.273,0,0,0,0,0.591,75.92,50.425039999428,0,10,Assisted_Takeoff,
1800,2023-12-27 00:50:26,-34.9551348967681,-54.9345432002659,0,0.032808400000005,50.392231599428,50.425039999428,0.328084,0,0.127729334796,0.73256564024,18,5,8.616,50.425039999428,0,0.223694,0.286410114152,0,0,0,301.3, -3.3, 2.6,0,0,1024,1024,1024,1024,0,0,0,0,303.8,0,0,96,4.274,4.273,0,0,0,0,0.591,75.92,50.425039999428,0,10,Assisted_Takeoff,
1900,2023-12-27 00:50:26,-34.9551348421296,-54.9345432464913,0,0.032808400000005,50.392231599428,50.425039999428,0.328084,0,0.123715883224,0.7568241712,18,5,8.616,50.425039999428,0,0.223694,0.286410114152,0,0,0,301.3, -2.9, 2.4,0,0,1024,1024,1024,1024,0,0,0,0,303.6,0,0,96,4.274,4.273,0,0,0,0,0.591,75.92,50.425039999428,0,10,Assisted_Takeoff,
2000,2023-12-27 00:50:26,-34.9551347690981,-54.9345432744012,0,0.032808400000005,50.392231599428,50.425039999428,0.328084,0,0.13295768142,0.78474740044,18,5,8.616,50.425039999428,0,0.223694,0.286410114152,0,0,0,301.4, -3.1, 2.1,0,0,1024,1024,1024,1024,0,0,0,0,303.6,0,0,96,4.274,4.273,0,0,0,0,0.591,75.92,50.425039999428,0,10,Assisted_Takeoff,
2100,2023-12-27 00:50:27,-34.9551346685635,-54.9345432548548,0,0.032808400000005,50.392231599428,50.425039999428,0.328084,0,0.163688653532,0.82188979008,18,5,8.616,50.425039999428,0,0.223694,0.286410114152,0,0,0,301.5, -3.1, 2.7,0,0,1024,1024,1024,1024,0,0,0,0,303.6,0,0,96,4.274,4.273,0,0,0,0,0.591,75.92,50.425039999428,0,10,Assisted_Takeoff,
2200,2023-12-27 00:50:27,-34.9551345706688,-54.9345432271971,0,0.032808400000005,50.392231599428,50.425039999428,0.328084,0,0.197215229408,0.85854989624,18,5,8.616,50.425039999428,0,0.223694,0.286410114152,0,0,0,301.6, -3.4, 2.4,0,0,1024,1024,1061,1024,0,0,6,0,303.6,0,0,96,4.274,4.273,0,0,0,0,0.591,75.92,50.425039999428,0,10,Assisted_Takeoff,
2300,2023-12-27 00:50:27,-34.9551344857607,-54.9345432296665,0,-0.098425200000004,50.523465199428,50.425039999428,0.328084,0,0.223025597688,0.88953743004,18,5,8.561,50.425039999428,0,0.223694,0.286410114152,0,0,0,301.5, -3.4, 2,0,0,1024,1024,1201,1024,0,0,27,0,303.6,0,0,96,4.285,4.285,0,0,0,0,1.16,75.92,50.425039999428,0,10,Assisted_Takeoff,
2400,2023-12-27 00:50:27,-34.9551343994181,-54.9345432210183,0,-0.098425200000004,50.523465199428,50.425039999428,0.328084,0,0.25197015242,0.92114832344,18,5,8.561,50.425039999428,0,0.223694,0.286410114152,0,0,0,301.4, -3.4, 2.1,0,0,1024,1024,1183,1024,0,0,24,0,303.6,0,0,96,4.285,4.285,0,0,0,0,1.16,75.92,50.425039999428,0,10,Assisted_Takeoff,
2500,2023-12-27 00:50:27,-34.9551343031911,-54.9345432340867,0,-0.098425200000004,50.523465199428,50.425039999428,0.328084,0,0.282179142888,0.95647312772,18,5,8.561,50.425039999428,0,0.223694,0.286410114152,0,0,0,301.3, -3.2, 2.1,0,0,1024,1024,1167,1024,0,0,22,0,303.6,0,0,96,4.285,4.285,0,0,0,0,1.16,75.92,50.425039999428,0,10,Assisted_Takeoff,
2600,2023-12-27 00:50:27,-34.9551342263469,-54.9345432074586,0,-0.098425200000004,50.523465199428,50.425039999428,0.328084,0,0.311121729116,0.98561682944,18,5,8.561,50.425039999428,0,0.223694,0.311121729116,0,0,0,301.3, -2.7, 1.6,0,0,1024,1024,1167,1024,0,0,22,0,303.5,0,0,96,4.285,4.285,0,0,0,0,1.16,75.92,50.425039999428,0,10,Assisted_Takeoff,
2700,2023-12-27 00:50:27,-34.95513423746,-54.934543139024,0,-0.098425200000004,50.523465199428,50.425039999428,0.328084,0,0.315797910368,1.006479691,18,5,8.561,50.425039999428,0,0.223694,0.315797910368,0,0,0,301, -2.7, 1.5,0,0,1024,1024,1107,1024,0,0,13,0,303.5,0,0,96,4.285,4.285,0,0,0,0,1.16,75.92,50.425039999428,0,10,Assisted_Takeoff,
2800,2023-12-27 00:50:27,-34.9551341571331,-54.9345431005766,0,-0.098425200000004,50.523465199428,50.425039999428,0.328084,0,0.34718833132,1.0379593508,18,5,8.561,50.425039999428,0,0.223694,0.34718833132,0,0,0,301.2, -2.7, 0.9,0,0,1024,1024,1056,1024,0,0,5,0,303.4,0,0,96,4.285,4.285,0,0,0,0,1.16,75.92,50.425039999428,0,10,Assisted_Takeoff,
2900,2023-12-27 00:50:27,-34.9551340345284,-54.9345430845658,0,-0.098425200000004,50.523465199428,50.425039999428,0.328084,0,0.38988846392,1.08294950972,18,5,8.561,50.425039999428,0,0.223694,0.38988846392,0,0,0,301.2, -2.5, 0.9,0,0,1024,1024,1053,1024,0,0,4,0,303.3,0,0,96,4.285,4.285,0,0,0,0,1.16,75.92,50.425039999428,0,10,Assisted_Takeoff,
3000,2023-12-27 00:50:27,-34.9551339034177,-54.9345430800137,0,-0.098425200000004,50.523465199428,50.425039999428,0.328084,0,0.4346948958,1.13080384196,18,5,8.561,50.425039999428,0,0.223694,0.4346948958,0,0,0,301.5, -2.5, 1.4,0,0,1024,1024,1090,1024,0,0,10,0,303.4,0,0,96,4.285,4.285,0,0,0,0,1.16,75.92,50.425039999428,0,10,Assisted_Takeoff,
3100,2023-12-27 00:50:28,-34.9551337234319,-54.9345431273,0,-0.098425200000004,50.523465199428,50.425039999428,0.328084,0,0.49227691864,1.19797576012,18,5,8.561,50.425039999428,0,0.223694,0.49227691864,0,0,0,301.1, -2.2, 2,0,0,1024,1024,1144,1024,0,0,18,0,303.4,0,0,96,4.285,4.285,0,0,0,0,1.16,75.92,50.425039999428,0,10,Assisted_Takeoff,
3200,2023-12-27 00:50:28,-34.9551336043839,-54.9345431141781,0,-0.098425200000004,50.523465199428,50.425039999428,0.328084,0,0.53506891476,1.24158796624,18,5,8.561,50.425039999428,0,0.223694,0.53506891476,0,0,0,300.7, -2.3, 1.6,0,0,1024,1024,1142,1024,0,0,18,0,303.3,0,0,96,4.285,4.285,0,0,0,0,1.16,75.92,50.425039999428,0,10,Assisted_Takeoff,
3300,2023-12-27 00:50:28,-34.9551335079668,-54.9345430833049,0,-0.098425200000004,50.523465199428,50.425039999428,0.328084,0,0.57143046448,1.27795607764,18,5,8.573,50.425039999428,0,0.223694,0.57143046448,0,0,0,300.9, -2, 2.1,0,0,1024,1024,1121,1024,0,0,15,0,303.1,0,0,96,4.25,4.252,0,0,0,0,1.306,75.92,50.425039999428,0,10,Assisted_Takeoff,
3400,2023-12-27 00:50:28,-34.9551334233614,-54.9345430712165,0,-0.2296588,50.654698799428,50.425039999428,0.328084,0,0.60214240772,1.30903547496,18,5,8.573,50.425039999428,0,0.223694,0.60214240772,0,0,0,300.9, -1.9, 1.9,0,0,1024,1024,1121,1024,0,0,15,0,303.1,0,0,96,4.25,4.252,0,0,0,0,1.306,75.92,50.425039999428,0,10,Assisted_Takeoff,
3500,2023-12-27 00:50:28,-34.9551334892881,-54.9345431026005,0,-0.2296588,50.654698799428,50.425039999428,0.328084,0,0.57647311556,1.33485568576,18,5,8.573,50.425039999428,0,0.223694,0.60214240772,0,0,0,300.3, -2.1, 1.5,0,0,1024,1024,1139,1024,0,0,17,0,303,0,0,96,4.25,4.252,0,0,0,0,1.306,75.92,50.425039999428,0,10,Assisted_Takeoff,
3600,2023-12-27 00:50:28,-34.9551334192072,-54.9345430941652,0,-0.2296588,50.654698799428,50.425039999428,0.328084,0,0.60183400876,1.3605479438,18,5,8.573,50.425039999428,0,0.223694,0.60214240772,0,0,0,299.7, -1.5, 2.1,0,0,1024,1024,1158,1024,0,0,20,0,302.7,0,0,96,4.25,4.252,0,0,0,0,1.306,75.92,50.425039999428,0,10,Assisted_Takeoff,
3700,2023-12-27 00:50:28,-34.9551333250856,-54.9345430653865,0,-0.2296588,50.654698799428,50.425039999428,0.328084,0.223694,0.6372375532,1.39595148824,18,5,8.573,50.425039999428,0,0.223694,0.6372375532,0.223694,0,0,298.6, -1, 2.7,0,0,1024,1024,1158,1024,0,0,20,0,301.9,0,0,96,4.25,4.252,0,0,0,0,1.306,75.92,50.425039999428,0,10,Assisted_Takeoff,
3800,2023-12-27 00:50:28,-34.9551331757731,-54.9345430452352,0,-0.2296588,50.654698799428,50.425039999428,0.328084,0.223694,0.691519051,1.45075792044,18,5,8.573,50.425039999428,0,0.223694,0.691519051,0.223694,0,0,297.4, -1.2, 2.6,0,0,1024,1024,1163,1024,0,0,21,0,300.9,0,0,96,4.25,4.252,0,0,0,0,1.306,75.92,50.425039999428,0,10,Assisted_Takeoff,
3900,2023-12-27 00:50:28,-34.9551329592304,-54.934543030672,0,-0.2296588,50.654698799428,50.425039999428,0.328084,0.447388,0.7693897884,1.52988521956,18,5,8.573,50.425039999428,0,0.447388,0.7693897884,0.447388,0,-0.447388,296.9, -1.1, 1.9,0,0,1024,1024,1166,1024,0,0,22,0,300,0,0,96,4.25,4.252,0,0,0,0,1.306,75.92,50.425039999428,0,6,P-GPS,
4000,2023-12-27 00:50:28,-34.9551328926791,-54.9345429869265,0,-0.2296588,50.654698799428,50.425039999428,0.656168,0.447388,0.79600396248,1.55746724144,18,5,8.573,50.425039999428,0,0.447388,0.79600396248,0.447388,0,-0.894776,296.8, 0.5, -1.2,0,0,1024,1024,1138,1024,0,0,17,0,299.8,0,0,96,4.25,4.252,0,0,0,0,1.306,75.92,50.425039999428,0,6,P-GPS,
4100,2023-12-27 00:50:29,-34.9551326344698,-54.9345429430986,0,-0.2296588,50.654698799428,50.425039999428,0.656168,0.447388,0.89073493664,1.65258207388,18,5,8.573,50.425039999428,0,0.447388,0.89073493664,0.447388,0,-1.342164,297.2, 0.9, -2.6,0,0,1024,1024,1082,1024,0,0,9,0,299.8,0,0,96,4.25,4.252,0,0,0,0,1.306,75.92,50.425039999428,0,6,P-GPS,
4200,2023-12-27 00:50:29,-34.9551324117276,-54.9345429034401,0.328084,-4.6441417378418E-15,50.753123999428,50.753123999428,0.984252,0.447388,0.97263454556,1.73470806076,18,5,8.573,50.753123999428,0.328084,0.447388,0.97263454556,0.447388,0,-1.565858,297.4, 0.8, -2.8,0,0,1024,1024,1024,1024,0,0,0,0,299.8,0,0,96,4.25,4.252,0,0,0,0,1.306,75.92,50.753123999428,0.328084,6,P-GPS,
4300,2023-12-27 00:50:29,-34.9551321985223,-54.9345428675471,0.656168,0.328084,50.753123999428,51.081207999428,0.984252,0.223694,1.05093179216,1.81323496616,18,5,8.537,51.081207999428,0.656168,0.447388,1.05093179216,0.223694,0,-1.565858,297.5, 0.8, -2.7,0,0,1024,1024,1024,1024,0,0,0,0,299.8,0,0,96,4.158,4.159,0,0,0,0,1.517,75.92,51.081207999428,0.656168,6,P-GPS,
4400,2023-12-27 00:50:29,-34.9551320722532,-54.934542856138,0.656168,0.328084,50.753123999428,51.081207999428,4.265092,0.223694,1.09671263352,1.85942919336,18,5,8.537,51.081207999428,0.656168,0.447388,1.09671263352,0.223694,0,-1.342164,297.5, 0.8, -2.7,0,0,1024,1024,1024,1024,0,0,0,0,299.8,0,0,96,4.158,4.159,0,0,0,0,1.517,75.92,51.081207999428,0.656168,6,P-GPS,
4500,2023-12-27 00:50:29,-34.9551318626488,-54.9345428253119,0.984252,0.656168,50.753123999428,51.409291999428,4.593176,0,1.17348100868,1.93645675488,18,5,8.537,51.409291999428,0.984252,0.447388,1.17348100868,0,0,-0.894776,297.6, 0.5, -2.4,0,0,1024,1024,1024,1024,0,0,0,0,299.8,0,0,96,4.158,4.159,0,0,0,0,1.517,75.92,51.409291999428,0.984252,6,P-GPS,
4600,2023-12-27 00:50:29,-34.9551317192607,-54.9345428242797,0.984252,0.656168,50.753123999428,51.409291999428,4.593176,0,1.22486224392,1.98877302952,18,5,8.537,51.409291999428,0.984252,0.447388,1.22486224392,0,0,-0.671082,297.6, 0.4, -2.4,0,0,1024,1024,1024,1024,0,0,0,0,299.8,0,0,96,4.158,4.159,0,0,0,0,1.517,75.92,51.409291999428,0.984252,6,P-GPS,
4700,2023-12-27 00:50:29,-34.9551316468092,-54.934542864133,1.312336,0.984252,50.753123999428,51.737375999428,4.92126,0,1.24866473812,2.01776909344,18,5,8.537,51.737375999428,1.312336,0.447388,1.24866473812,0,0,-0.223694,297.7, 0.3, -2.2,0,0,1024,1024,1024,1024,0,0,0,0,299.8,0,0,96,4.158,4.159,0,0,0,0,1.517,75.92,51.737375999428,1.312336,6,P-GPS,
4800,2023-12-27 00:50:29,-34.9551316129388,-54.9345430049965,1.312336,0.984252,50.753123999428,51.737375999428,4.92126,0,1.25414374092,2.06166673264,17,5,8.537,51.737375999428,1.312336,0.447388,1.25414374092,0,0,0,297.6, 0.3, -2.5,0,0,1024,1024,1024,1024,0,0,0,0,299.8,0,0,96,4.158,4.159,0,0,0,0,1.517,75.92,51.737375999428,1.312336,6,P-GPS,
4900,2023-12-27 00:50:29,-34.9551315020055,-54.9345429139698,1.312336,0.984252,50.753123999428,51.737375999428,4.92126,0,1.29825135388,2.11044298092,17,5,8.537,51.737375999428,1.312336,0.447388,1.29825135388,0,0,0,297.6, 0.2, -2.7,0,0,1024,1024,1024,1024,0,0,0,0,299.8,0,0,96,4.158,4.159,0,0,0,0,1.517,75.92,51.737375999428,1.312336,6,P-GPS,
5000,2023-12-27 00:50:29,-34.9551314636357,-54.9345428728949,1.312336,0.8530184,50.884357599428,51.737375999428,4.92126,0,1.314058441,2.12906502876,18,5,8.537,51.737375999428,1.312336,0.447388,1.314058441,0,0,0,297.7, 0, -2.2,0,0,1024,1024,1024,1024,0,0,0,0,299.8,0,0,96,4.158,4.159,0,0,0,0,1.517,75.92,51.737375999428,1.312336,6,P-GPS,
5100,2023-12-27 00:50:30,-34.9551315088356,-54.9345429015129,1.312336,0.984252,50.753123999428,51.737375999428,4.92126,0,1.29638783676,2.14764442568,18,5,8.537,51.737375999428,1.312336,0.447388,1.314058441,0,0,0,297.7, -0.2, -2,0,0,1024,1024,1024,1024,0,0,0,0,299.8,0,0,96,4.158,4.159,0,0,0,0,1.517,75.92,51.737375999428,1.312336,6,P-GPS,
5200,2023-12-27 00:50:30,-34.9551317209665,-54.9345427989007,1.312336,0.984252,50.753123999428,51.737375999428,4.92126,0,1.22571854316,2.23090230236,18,5,8.537,51.737375999428,1.312336,0.447388,1.314058441,0,0,0,297.7, -0.2, -2,0,0,1024,1024,1024,1024,0,0,0,0,299.8,0,0,96,4.158,4.159,0,0,0,0,1.517,75.92,51.737375999428,1.312336,6,P-GPS,
5300,2023-12-27 00:50:30,-34.9551317355968,-54.9345427331851,1.312336,0.984252,50.753123999428,51.737375999428,4.92126,0,1.22450135152,2.2512631954,18,5,8.427,51.737375999428,1.312336,0.447388,1.314058441,0,0,0,297.6, -0.2, -2.1,0,0,1024,1024,1024,1024,0,0,0,0,299.8,0,0,96,4.186,4.183,0,0,0,0,3.013,75.92,51.737375999428,1.312336,6,P-GPS,
5400,2023-12-27 00:50:30,-34.9551317749042,-54.9345427017384,1.312336,0.984252,50.753123999428,51.737375999428,4.92126,0,1.21254597056,2.26841214608,18,5,8.427,51.737375999428,1.312336,0.447388,1.314058441,0,0,0,297.6, -0.2, -2.1,0,0,1024,1024,1024,1024,0,0,0,0,299.8,0,0,96,4.186,4.183,0,0,0,0,3.013,75.92,51.737375999428,1.312336,6,P-GPS,
5500,2023-12-27 00:50:30,-34.9551318494043,-54.9345427157932,1.312336,0.984252,50.753123999428,51.737375999428,4.92126,0,1.18511158648,2.29591870864,18,5,8.427,51.737375999428,1.312336,0.447388,1.314058441,0,0,0,297.5, 0, -2,0,0,1024,1024,1024,1024,0,0,0,0,299.8,0,0,96,4.186,4.183,0,0,0,0,3.013,75.92,51.737375999428,1.312336,6,P-GPS,
5600,2023-12-27 00:50:30,-34.9551319225385,-54.9345427201141,1.312336,0.984252,50.753123999428,51.737375999428,4.593176,0,1.1588254964,2.32263130792,18,5,8.427,51.737375999428,1.312336,0.447388,1.314058441,0,0,0,297.6, -0.1, -1.8,0,0,1024,1024,1024,1024,0,0,0,0,299.8,0,0,96,4.186,4.183,0,0,0,0,3.013,75.92,51.737375999428,1.312336,6,P-GPS,"Punto de origen actualizado. Altitud de RPO establecida en 100m (Code: 3000001)"
5700,2023-12-27 00:50:30,-34.9551321020883,-54.9345427264954,1.312336,0.984252,50.753123999428,51.737375999428,4.593176,0,1.09467851272,2.38816936776,18,5,8.427,51.737375999428,1.312336,0.447388,1.314058441,0,0,0,297.6, 0, -1.6,0,0,1024,1024,1024,1024,0,0,0,0,299.8,0,0,96,4.186,4.183,0,0,0,0,3.013,75.92,51.737375999428,1.312336,6,P-GPS,
5800,2023-12-27 00:50:30,-34.9551321797032,-54.9345427437906,1.312336,0.984252,50.753123999428,51.737375999428,4.593176,0,1.06594819684,2.41695545792,18,5,8.427,51.737375999428,1.312336,0.447388,1.314058441,0,0,0,297.7, 0.1, -1.2,0,0,1024,1024,1024,1024,0,0,0,0,299.8,0,0,96,4.186,4.183,0,0,0,0,3.013,75.92,51.737375999428,1.312336,6,P-GPS,
5900,2023-12-27 00:50:30,-34.9551322724643,-54.9345428030975,1.312336,0.984252,50.753123999428,51.737375999428,4.593176,0,1.02886814316,2.45516412056,18,5,8.427,51.737375999428,1.312336,0.447388,1.314058441,0,0,0,297.6, 0, -1.4,0,0,1024,1024,1024,1024,0,0,0,0,299.8,0,0,96,4.186,4.183,0,0,0,0,3.013,75.92,51.737375999428,1.312336,6,P-GPS,
6000,2023-12-27 00:50:30,-34.9551323549816,-54.9345428427796,1.312336,0.984252,50.753123999428,51.737375999428,4.593176,0,0.99684058308,2.48752304548,18,5,8.427,51.737375999428,1.312336,0.447388,1.314058441,0,0,0,297.7, 0, -1.2,0,0,1024,1024,1024,1024,0,0,0,0,299.8,0,0,96,4.186,4.183,0,0,0,0,3.013,75.92,51.737375999428,1.312336,6,P-GPS,
6100,2023-12-27 00:50:30,-34.955132497218,-54.9345429414341,1.312336,0.984252,50.753123999428,51.737375999428,4.593176,0,0.93974084372,2.54721792928,18,5,8.427,51.737375999428,1.312336,0.447388,1.314058441,0,0,0,297.7, 0, -0.9,0,0,1024,1024,1024,1024,0,0,0,0,299.8,0,0,96,4.186,4.183,0,0,0,0,3.013,75.92,51.737375999428,1.312336,6,P-GPS,
6200,2023-12-27 00:50:31,-34.95513257581,-54.9345429358445,1.312336,1.0826772,50.654698799428,51.737375999428,4.593176,0.223694,0.9120899242,2.57594168348,18,5,8.427,51.737375999428,1.312336,0.447388,1.314058441,-0.223694,0,0,297.6, -0.5, -0.2,0,0,1024,1024,1024,1024,0,0,0,0,299.8,0,0,96,4.186,4.183,0,0,0,0,3.013,75.92,51.737375999428,1.312336,6,P-GPS,
6300,2023-12-27 00:50:31,-34.9551326591876,-54.9345429124097,1.312336,1.0826772,50.654698799428,51.737375999428,4.593176,0,0.8840387422,2.60715887608,18,5,8.396,51.737375999428,1.312336,0.447388,1.314058441,0,0,0,297.6, -0.5, -0.4,0,0,1024,1024,1024,1024,0,0,0,0,299.8,0,0,96,4.178,4.176,0,0,0,0,4.352,75.92,51.737375999428,1.312336,6,P-GPS,
6400,2023-12-27 00:50:31,-34.9551327264545,-54.9345428889606,1.312336,1.0826772,50.654698799428,51.737375999428,4.593176,0,0.86190291472,2.63268381128,18,5,8.396,51.737375999428,1.312336,0.447388,1.314058441,0,0,0,297.6, -0.4, -0.7,0,0,1024,1024,1024,1024,0,0,0,0,299.8,0,0,96,4.178,4.176,0,0,0,0,4.352,75.92,51.737375999428,1.312336,6,P-GPS,
6500,2023-12-27 00:50:31,-34.9551328834679,-54.93454281427,1.312336,1.0826772,50.654698799428,51.737375999428,4.593176,0,0.8127132806,2.69417003372,18,5,8.396,51.737375999428,1.312336,0.447388,1.314058441,0,0,0,297.6, -0.7, -0.3,0,0,1024,1024,1024,1024,0,0,0,0,299.8,0,0,96,4.178,4.176,0,0,0,0,4.352,75.92,51.737375999428,1.312336,6,P-GPS,
6600,2023-12-27 00:50:31,-34.9551329263273,-54.9345427856377,1.312336,1.0826772,50.654698799428,51.737375999428,4.265092,0,0.80033139044,2.71199483744,18,5,8.396,51.737375999428,1.312336,0.447388,1.314058441,0,0,0,297.7, -0.8, -0.2,0,0,1024,1024,1024,1024,0,0,0,0,299.8,0,0,96,4.178,4.176,0,0,0,0,4.352,75.92,51.737375999428,1.312336,6,P-GPS,
6700,2023-12-27 00:50:31,-34.9551329493909,-54.9345427338005,1.312336,1.0826772,50.654698799428,51.737375999428,3.937008,0,0.79723427748,2.72963263328,18,5,8.396,51.737375999428,1.312336,0.447388,1.314058441,0,0,0,297.6, -0.4, -0.3,0,0,1024,1024,1024,1024,0,0,0,0,299.8,0,0,96,4.178,4.176,0,0,0,0,4.352,75.92,51.737375999428,1.312336,6,P-GPS,
6800,2023-12-27 00:50:31,-34.9551329617398,-54.9345426978369,1.312336,1.0826772,50.654698799428,51.737375999428,3.937008,0,0.79656170528,2.74129273864,18,5,8.396,51.737375999428,1.312336,0.447388,1.314058441,0,0,0,297.6, -0.4, -0.4,0,0,1024,1024,1024,1024,0,0,0,0,299.8,0,0,96,4.178,4.176,0,0,0,0,4.352,75.92,51.737375999428,1.312336,6,P-GPS,
6900,2023-12-27 00:50:31,-34.9551330681928,-54.9345426658662,1.312336,1.0826772,50.654698799428,51.737375999428,3.937008,0,0.7635991058,2.78129273992,18,5,8.396,51.737375999428,1.312336,0.447388,1.314058441,0,0,0,297.6, -0.5, -0.4,0,0,1024,1024,1024,1024,0,0,0,0,299.8,0,0,96,4.178,4.176,0,0,0,0,4.352,75.92,51.737375999428,1.312336,6,P-GPS,
7000,2023-12-27 00:50:31,-34.9551331024899,-54.9345426674655,1.312336,1.0826772,50.654698799428,51.737375999428,3.608924,0,0.75179136264,2.7938157062,18,5,8.396,51.737375999428,1.312336,0.447388,1.314058441,0,0,0,297.7, -0.5, 0.1,0,0,1024,1024,1024,1024,0,0,0,0,299.8,0,0,96,4.178,4.176,0,0,0,0,4.352,75.92,51.737375999428,1.312336,6,P-GPS,
7100,2023-12-27 00:50:31,-34.9551331635627,-54.9345426726748,1.312336,1.0826772,50.654698799428,51.737375999428,3.608924,0,0.730561047,2.81615166492,18,5,8.396,51.737375999428,1.312336,0.447388,1.314058441,0,0,0,297.5, -0.4, -0.1,0,0,1024,1024,1024,1024,0,0,0,0,299.8,0,0,96,4.178,4.176,0,0,0,0,4.352,75.92,51.737375999428,1.312336,6,P-GPS,
7200,2023-12-27 00:50:32,-34.9551331883814,-54.9345426709501,1.64042,1.4107612,50.654698799428,52.065459999428,3.608924,0,0.7223917554,2.82521990668,18,5,8.396,52.065459999428,1.64042,0.447388,1.314058441,0,0,0,297.5, -0.4, -0.4,0,0,1024,1024,1024,1024,0,0,0,0,299.8,0,0,96,4.178,4.176,0,0,0,0,4.352,75.92,52.065459999428,1.64042,6,P-GPS,
7300,2023-12-27 00:50:32,-34.9551331696315,-54.9345426623385,1.64042,1.4107612,50.654698799428,52.065459999428,3.608924,0,0.72969818608,2.8325296182,18,5,8.396,52.065459999428,1.64042,0.447388,1.314058441,0,0,0,297.6, -0.5, -0.5,0,0,1024,1024,1024,1024,0,0,0,0,299.8,0,0,96,4.178,4.176,0,0,0,0,4.352,75.92,52.065459999428,1.64042,6,P-GPS,
7400,2023-12-27 00:50:32,-34.9551333006553,-54.9345427099998,1.64042,1.4107612,50.654698799428,52.065459999428,3.608924,0,0.68011157032,2.8824147904,18,5,8.396,52.065459999428,1.64042,0.447388,1.314058441,0,0,0,297.7, -0.2, -0.2,0,0,1024,1024,1024,1024,0,0,0,0,299.8,0,0,96,4.178,4.176,0,0,0,0,4.352,75.92,52.065459999428,1.64042,6,P-GPS,
7500,2023-12-27 00:50:32,-34.9551332640947,-54.9345426942425,1.64042,1.4107612,50.654698799428,52.065459999428,3.608924,0,0.69423230568,2.89656177248,18,5,8.346,52.065459999428,1.64042,0.447388,1.314058441,0,0,0,297.6, -0.2, -0.4,0,0,1024,1024,1024,1024,0,0,0,0,299.8,0,0,96,4.174,4.171,0,0,0,0,4.186,75.92,52.065459999428,1.64042,6,P-GPS,
7600,2023-12-27 00:50:32,-34.9551332137134,-54.934542658863,1.64042,1.4107612,50.654698799428,52.065459999428,3.608924,0,0.71529201764,2.91776912224,18,5,8.346,52.065459999428,1.64042,0.447388,1.314058441,0,0,0,297.6, -0.5, -0.6,0,0,1024,1024,1024,1024,0,0,0,0,299.8,0,0,96,4.174,4.171,0,0,0,0,4.186,75.92,52.065459999428,1.64042,6,P-GPS,
7700,2023-12-27 00:50:32,-34.9551331413723,-54.9345425959761,1.64042,1.4107612,50.654698799428,52.065459999428,3.608924,0,0.74699149372,2.95017725976,18,5,8.346,52.065459999428,1.64042,0.447388,1.314058441,0,0,0,297.6, -0.3, -0.7,0,0,1024,1024,1024,1024,0,0,0,0,299.8,0,0,96,4.174,4.171,0,0,0,0,4.186,75.92,52.065459999428,1.64042,6,P-GPS,
7800,2023-12-27 00:50:32,-34.9551331150432,-54.9345424918104,1.64042,1.4435696,50.621890399428,52.065459999428,3.608924,0,0.76872705872,2.98277240516,18,5,8.346,52.065459999428,1.64042,0.447388,1.314058441,0,0,0,297.6, 0, -0.4,0,0,1024,1024,1024,1024,0,0,0,0,299.8,0,0,96,4.174,4.171,0,0,0,0,4.186,75.92,52.065459999428,1.64042,6,P-GPS,
7900,2023-12-27 00:50:32,-34.9551330567237,-54.9345424737509,1.64042,1.4435696,50.621890399428,52.065459999428,3.937008,0,0.79026249248,3.00472778644,18,5,8.346,52.065459999428,1.64042,0.447388,1.314058441,0,0,0,297.6, 0, -0.6,0,0,1024,1024,1024,1024,0,0,0,0,299.8,0,0,96,4.174,4.171,0,0,0,0,4.186,75.92,52.065459999428,1.64042,6,P-GPS,
8000,2023-12-27 00:50:32,-34.9551330088357,-54.9345424415803,1.64042,1.4435696,50.621890399428,52.065459999428,3.937008,0,0.8101706296,3.0246720128,18,5,8.346,52.065459999428,1.64042,0.447388,1.314058441,0,0,0,297.6, -0.1, -0.9,0,0,1024,1024,1024,1024,0,0,0,0,299.8,0,0,96,4.174,4.171,0,0,0,0,4.186,75.92,52.065459999428,1.64042,6,P-GPS,
8100,2023-12-27 00:50:33,-34.9551329722482,-54.9345423884274,1.64042,1.4435696,50.621890399428,52.065459999428,3.937008,0,0.8290846722,3.04542660664,18,5,8.346,52.065459999428,1.64042,0.447388,1.314058441,0,0,0,297.7, -0.1, -0.8,0,0,1024,1024,1024,1024,0,0,0,0,299.8,0,0,96,4.174,4.171,0,0,0,0,4.186,75.92,52.065459999428,1.64042,6,P-GPS,
8200,2023-12-27 00:50:33,-34.9551330382091,-54.9345423551985,1.64042,1.4435696,50.621890399428,52.065459999428,3.937008,0,0.81203086588,3.07146335288,18,5,8.346,52.065459999428,1.64042,0.447388,1.314058441,0,0,0,297.7, 0, -0.6,0,0,1024,1024,1024,1024,0,0,0,0,299.8,0,0,96,4.174,4.171,0,0,0,0,4.186,75.92,52.065459999428,1.64042,6,P-GPS,
8300,2023-12-27 00:50:33,-34.9551329720597,-54.9345423416584,1.64042,1.4435696,50.621890399428,52.065459999428,3.937008,0,0.83536419996,3.09593513844,18,5,8.346,52.065459999428,1.64042,0.447388,1.314058441,0,0,0,297.6, 0.1, -0.5,0,0,1024,1024,1024,1024,0,0,0,0,299.8,0,0,96,4.174,4.171,0,0,0,0,4.186,75.92,52.065459999428,1.64042,6,P-GPS,
8400,2023-12-27 00:50:33,-34.9551329232699,-54.9345423318656,1.64042,1.4435696,50.621890399428,52.065459999428,4.265092,0,0.85258860996,3.1139764776,18,5,8.346,52.065459999428,1.64042,0.447388,1.314058441,0,0,0,297.6, 0.2, -0.7,0,0,1024,1024,1024,1024,0,0,0,0,299.8,0,0,96,4.174,4.171,0,0,0,0,4.186,75.92,52.065459999428,1.64042,6,P-GPS,
8500,2023-12-27 00:50:33,-34.9551328968097,-54.9345423232814,1.64042,1.4435696,50.621890399428,52.065459999428,4.265092,0,0.86237535568,3.1239666354,18,5,8.344,52.065459999428,1.64042,0.447388,1.314058441,0,0,0,297.6, 0.1, -0.8,0,0,1024,1024,1024,1024,0,0,0,0,299.8,0,0,96,4.172,4.171,0,0,0,0,4.168,75.92,52.065459999428,1.64042,6,P-GPS,
8600,2023-12-27 00:50:33,-34.9551329476208,-54.9345423575556,1.64042,1.4435696,50.621890399428,52.065459999428,4.265092,0,0.84121721852,3.14514773844,18,5,8.344,52.065459999428,1.64042,0.447388,1.314058441,0,0,0,297.5, 0.1, -1,0,0,1024,1024,1024,1024,0,0,0,0,299.8,0,0,96,4.172,4.171,0,0,0,0,4.168,75.92,52.065459999428,1.64042,6,P-GPS,
8700,2023-12-27 00:50:33,-34.9551328927516,-54.9345422983271,1.64042,1.4435696,50.621890399428,52.065459999428,4.265092,0,0.86703414848,3.17187674192,18,5,8.344,52.065459999428,1.64042,0.447388,1.314058441,0,0,0,297.6, 0.1, -1,0,0,1024,1024,1024,1024,0,0,0,0,299.8,0,0,96,4.172,4.171,0,0,0,0,4.168,75.92,52.065459999428,1.64042,6,P-GPS,
8800,2023-12-27 00:50:33,-34.955132839863,-54.9345422327094,1.64042,1.4435696,50.621890399428,52.065459999428,4.265092,0,0.89313651152,3.19939970868,18,5,8.344,52.065459999428,1.64042,0.447388,1.314058441,0,0,0,297.6, 0, -0.9,0,0,1024,1024,1024,1024,0,0,0,0,299.8,0,0,96,4.172,4.171,0,0,0,0,4.168,75.92,52.065459999428,1.64042,6,P-GPS,
8900,2023-12-27 00:50:33,-34.9551327803654,-54.9345421527991,1.64042,1.4435696,50.621890399428,52.065459999428,4.265092,0,0.92345475396,3.23168317428,18,5,8.344,52.065459999428,1.64042,0.447388,1.314058441,0,0,0,297.6, 0.2, -0.9,0,0,1024,1024,1024,1024,0,0,0,0,299.8,0,0,96,4.172,4.171,0,0,0,0,4.168,75.92,52.065459999428,1.64042,6,P-GPS,
9000,2023-12-27 00:50:33,-34.9551327471044,-54.9345420955252,1.64042,1.4435696,50.621890399428,52.065459999428,4.265092,0,0.94225396716,3.25267070776,18,5,8.344,52.065459999428,1.64042,0.447388,1.314058441,0,0,0,297.6, 0.2, -0.8,0,0,1024,1024,1024,1024,0,0,0,0,299.8,0,0,96,4.172,4.171,0,0,0,0,4.168,75.92,52.065459999428,1.64042,6,P-GPS,
9100,2023-12-27 00:50:34,-34.9551328482996,-54.9345420868234,1.312336,1.1154856,50.621890399428,51.737375999428,4.265092,0,0.91128939924,3.289698268,18,5,8.344,52.065459999428,1.64042,0.447388,1.314058441,0,0,0,297.6, 0.2, -0.5,0,0,1049,1024,1024,1024,4,0,0,0,299.8,0,0,96,4.172,4.171,0,0,0,0,4.168,75.92,51.737375999428,1.312336,6,P-GPS,
9200,2023-12-27 00:50:34,-34.9551328367164,-54.9345420470237,1.312336,1.1154856,50.621890399428,51.737375999428,4.265092,0,0.92091210296,3.302329502,18,5,8.344,52.065459999428,1.64042,0.447388,1.314058441,0,0,0,297.6, 0.2, -0.6,0,0,1417,1024,1024,1024,60,0,0,0,299.8,0,0,96,4.172,4.171,0,0,0,0,4.168,75.92,51.737375999428,1.312336,6,P-GPS,
9300,2023-12-27 00:50:34,-34.9551327996014,-54.9345419860627,1.312336,1.1154856,50.621890399428,51.737375999428,4.265092,0,0.941847143,3.3250329148,18,5,8.344,52.065459999428,1.64042,0.447388,1.314058441,0,0,0,297.6, -0.4, -0.8,0,0,1684,1024,1024,1024,100,0,0,0,299.8,0,0,96,4.172,4.171,0,0,0,0,4.168,75.92,51.737375999428,1.312336,6,P-GPS,
9400,2023-12-27 00:50:34,-34.9551327684671,-54.9345419594229,1.312336,1.1154856,50.621890399428,51.737375999428,4.265092,0,0.95568244528,3.338910868,18,5,8.344,52.065459999428,1.64042,0.447388,1.314058441,0,0,0,297.7, -7.8, -0.9,0,0,1684,1024,1024,1024,100,0,0,0,299.8,0,0,96,4.172,4.171,0,0,0,0,4.168,75.92,51.737375999428,1.312336,6,P-GPS,
9500,2023-12-27 00:50:34,-34.9551327595335,-54.9345421304893,1.312336,1.1154856,50.621890399428,51.737375999428,4.265092,0.4921268,0.93329727396,3.3901575888,18,5,8.345,52.065459999428,1.64042,0.4921268,1.314058441,0.223694,-0.447388,0,297.8, -14.9, -0.8,0,0,1537,1024,1024,1024,78,0,0,0,299.8,0,0,96,4.172,4.172,0,0,0,0,4.041,75.92,51.737375999428,1.312336,6,P-GPS,
9600,2023-12-27 00:50:34,-34.955132593773,-54.934542422746,0.984252,0.7874016,50.621890399428,51.409291999428,4.265092,1.006623,0.95129924304,3.4964239964,18,5,8.345,52.065459999428,1.64042,1.006623,1.314058441,0.447388,-0.894776,0,297.6, -16.7, -0.7,0,0,1337,1024,1024,1024,47,0,0,0,299.8,0,0,96,4.172,4.172,0,0,0,0,4.041,75.92,51.409291999428,0.984252,6,P-GPS,
9700,2023-12-27 00:50:34,-34.9551322741192,-54.9345429780744,0.984252,0.656168,50.753123999428,51.409291999428,4.265092,1.4987498,1.01739504568,3.6993439504,18,5,8.345,52.065459999428,1.64042,1.4987498,1.314058441,0.671082,-1.342164,0,297.5, -13.8, -0.8,0,0,1337,1024,1024,1024,47,0,0,0,299.8,0,0,96,4.172,4.172,0,0,0,0,4.041,75.92,51.409291999428,0.984252,6,P-GPS,
9800,2023-12-27 00:50:34,-34.9551318866509,-54.9345437217109,0.984252,0.6233596,50.785932399428,51.409291999428,3.28084,1.9908766,1.142060404,3.9628610192,18,5,8.345,52.065459999428,1.64042,1.9908766,1.314058441,0.894776,-1.789552,0,297.5, -9.3, -1,0,0,1050,1024,1024,1024,4,0,0,0,299.8,0,0,96,4.172,4.172,0,0,0,0,4.041,75.92,51.409291999428,0.984252,6,P-GPS,
9900,2023-12-27 00:50:34,-34.9551314603149,-54.9345446499903,0.984252,0.492126,50.917165999428,51.409291999428,3.28084,2.3040482,1.33436027892,4.2810696908,18,5,8.345,52.065459999428,1.64042,2.3040482,1.33436027892,1.11847,-2.013246,0,297.6, -3, -0.9,0,0,1024,1024,1024,1024,0,0,0,0,299.8,0,0,96,4.172,4.172,0,0,0,0,4.041,75.92,51.409291999428,0.984252,6,P-GPS,
10000,2023-12-27 00:50:34,-34.9551310225903,-54.9345456432877,0.984252,0.492126,50.917165999428,51.409291999428,3.28084,2.1922012,1.57945215028,4.6183072344,18,5,8.345,52.065459999428,1.64042,2.3040482,1.57945215028,0.894776,-2.013246,0,297.4, 5.7, -1.1,0,0,1024,1024,1024,1024,0,0,0,0,299.8,0,0,96,4.172,4.172,0,0,0,0,4.041,75.92,51.409291999428,0.984252,6,P-GPS,
10100,2023-12-27 00:50:35,-34.9551306042883,-54.9345467083554,0.656168,0.164042,50.917165999428,51.081207999428,3.28084,1.9908766,1.85817919332,4.971456852,18,5,8.345,52.065459999428,1.64042,2.3040482,1.85817919332,0.894776,-1.789552,0,297.5, 9, -1.1,0,0,1065,1024,1024,1024,6,0,0,0,299.8,0,0,96,4.172,4.172,0,0,0,0,4.041,75.92,51.081207999428,0.656168,6,P-GPS,
10200,2023-12-27 00:50:35,-34.9551302644463,-54.9345475843495,0.656168,0.032808399999996,51.048399599428,51.081207999428,4.265092,1.4987498,2.10298235076,5.2612862576,18,5,8.345,52.065459999428,1.64042,2.3040482,2.10298235076,0.671082,-1.342164,0,297.5, 8.8, -1.1,0,0,1345,1024,1024,1024,49,0,0,0,299.8,0,0,96,4.172,4.172,0,0,0,0,4.041,75.92,51.081207999428,0.656168,6,P-GPS,
10300,2023-12-27 00:50:35,-34.9551300877214,-54.9345488157552,0.656168,2.3676016702723E-15,51.081207999428,51.081207999428,4.265092,1.006623,2.37966214964,5.6351051672,18,5,8.345,52.065459999428,1.64042,2.3040482,2.37966214964,0.447388,-0.894776,0,297.7, 4.4, -1.1,0,0,1434,1024,1024,1024,62,0,0,0,299.8,0,0,96,4.172,4.172,0,0,0,0,4.041,75.92,51.081207999428,0.656168,6,P-GPS,
10400,2023-12-27 00:50:35,-34.9551298631631,-54.9345494226817,0.656168,2.3676016702723E-15,51.081207999428,51.081207999428,3.937008,0.9171454,2.56182094812,5.8342193468,18,5,8.345,52.065459999428,1.64042,2.3040482,2.56182094812,0.223694,-0.894776,0,297.9, -1.9, -0.8,0,0,1200,1024,1024,1024,27,0,0,0,299.8,0,0,96,4.172,4.172,0,0,0,0,4.041,75.92,51.081207999428,0.656168,6,P-GPS,
10500,2023-12-27 00:50:35,-34.955129631188,-54.9345500248771,0.656168,2.3676016702723E-15,51.081207999428,51.081207999428,3.937008,1.006623,2.74728027164,6.0332022928,18,5,8.329,52.065459999428,1.64042,2.3040482,2.74728027164,0.447388,-0.894776,0,298, -6.2, -0.7,0,0,1085,1024,1024,1024,9,0,0,0,299.8,0,0,96,4.166,4.165,0,0,0,0,4.153,76.1,51.081207999428,0.656168,6,P-GPS,
10600,2023-12-27 00:50:35,-34.955129418479,-54.9345505969702,0.656168,-0.13123359999999,51.212441599428,51.081207999428,3.937008,1.2079476,2.92315954236,6.2210631912,18,5,8.329,52.065459999428,1.64042,2.3040482,2.92315954236,0.447388,-1.11847,0,297.8, -4.7, -0.8,0,0,1085,1024,1024,1024,9,0,0,0,299.8,0,0,96,4.166,4.165,0,0,0,0,4.153,76.1,51.081207999428,0.656168,6,P-GPS,
10700,2023-12-27 00:50:35,-34.9551292201052,-54.9345511649895,0.656168,-0.13123359999999,51.212441599428,51.081207999428,3.937008,1.2079476,3.0959810702,6.405676058,18,5,8.329,52.065459999428,1.64042,2.3040482,3.0959810702,0.447388,-1.11847,0,297.6, -0.8, -0.9,0,0,1074,1024,1024,1024,8,0,0,0,299.8,0,0,96,4.166,4.165,0,0,0,0,4.153,76.1,51.081207999428,0.656168,6,P-GPS,
10800,2023-12-27 00:50:35,-34.9551293126676,-54.9345515880569,0.328084,-0.45931759999999,51.212441599428,50.753123999428,3.937008,1.4092722,3.16727700424,6.5366143824,18,5,8.329,52.065459999428,1.64042,2.3040482,3.16727700424,0.447388,-1.342164,0,297.5, 0.5, -0.6,0,0,1102,1024,1024,1024,12,0,0,0,299.8,0,0,96,4.166,4.165,0,0,0,0,4.153,76.1,50.753123999428,0.328084,6,P-GPS,
10900,2023-12-27 00:50:35,-34.9551291758685,-54.934552090789,0.328084,-0.45931759999999,51.212441599428,50.753123999428,3.937008,1.2079476,3.313976484,6.6950133376,18,5,8.329,52.065459999428,1.64042,2.3040482,3.313976484,0.447388,-1.11847,0,297.5, 0.4, -0.8,0,0,1139,1024,1024,1024,17,0,0,0,299.8,0,0,96,4.166,4.165,0,0,0,0,4.153,76.1,50.753123999428,0.328084,6,P-GPS,
11000,2023-12-27 00:50:35,-34.9551290135696,-54.9345525914724,0.328084,-0.492126,51.245249999428,50.753123999428,3.937008,1.2079476,3.4670932868,6.8560369648,18,5,8.329,52.065459999428,1.64042,2.3040482,3.4670932868,0.447388,-1.11847,0,297.5, 0.3, -0.8,0,0,1152,1024,1024,1024,19,0,0,0,299.8,0,0,96,4.166,4.165,0,0,0,0,4.153,76.1,50.753123999428,0.328084,6,P-GPS,
11100,2023-12-27 00:50:36,-34.9551287830365,-54.9345531781365,0.328084,-0.492126,51.245249999428,50.753123999428,3.937008,1.2079476,3.6565289884,7.0505907768,18,5,8.329,52.065459999428,1.64042,2.3040482,3.6565289884,0.447388,-1.11847,0,297.5, 0, -0.9,0,0,1098,1024,1024,1024,11,0,0,0,299.8,0,0,96,4.166,4.165,0,0,0,0,4.153,76.1,50.753123999428,0.328084,6,P-GPS,
11200,2023-12-27 00:50:36,-34.9551286715687,-54.9345535696998,0.328084,-0.492126,51.245249999428,50.753123999428,3.608924,1.2079476,3.7737205932,7.174540912,18,5,8.329,52.065459999428,1.64042,2.3040482,3.7737205932,0.447388,-1.11847,0,297.6, -0.4, -0.8,0,0,1080,1024,1024,1024,8,0,0,0,299.8,0,0,96,4.166,4.165,0,0,0,0,4.153,76.1,50.753123999428,0.328084,6,P-GPS,
11300,2023-12-27 00:50:36,-34.9551283460851,-54.9345541947825,0.328084,-0.6233596,51.376483599428,50.753123999428,3.608924,1.2079476,3.994258658,7.395997612,18,5,8.329,52.065459999428,1.64042,2.3040482,3.994258658,0.447388,-1.11847,0,297.6, -0.1, -0.9,0,0,1024,1024,1024,1024,0,0,0,0,299.8,0,0,96,4.166,4.165,0,0,0,0,4.153,76.1,50.753123999428,0.328084,6,P-GPS,
11400,2023-12-27 00:50:36,-34.955128034339,-54.9345547408251,0.328084,-0.6233596,51.376483599428,50.753123999428,3.608924,1.006623,4.1930447536,7.594980558,18,5,8.329,52.065459999428,1.64042,2.3040482,4.1930447536,0.447388,-0.894776,0,297.5, 0.2, -1.1,0,0,1024,1024,1024,1024,0,0,0,0,299.8,0,0,96,4.166,4.165,0,0,0,0,4.153,76.1,50.753123999428,0.328084,6,P-GPS,
11500,2023-12-27 00:50:36,-34.9551277176246,-54.934555232548,0.328084,-0.6233596,51.376483599428,50.753123999428,3.608924,1.006623,4.3800198252,7.781988438,18,5,8.329,52.065459999428,1.64042,2.3040482,4.3800198252,0.447388,-0.894776,0,297.5, 3.8, -1.1,0,0,1024,1024,1024,1024,0,0,0,0,299.8,0,0,96,4.166,4.165,0,0,0,0,4.153,76.1,50.753123999428,0.328084,6,P-GPS,
11600,2023-12-27 00:50:36,-34.9551272617417,-54.9345557034806,0.328084,-0.75459319999999,51.507717199428,50.753123999428,3.608924,1.006623,4.593176,7.9999346392,18,5,8.323,52.065459999428,1.64042,2.3040482,4.593176,0.447388,-0.894776,0,297.5, 4.9, -0.9,0,0,1024,1024,1024,1024,0,0,0,0,299.8,0,0,96,4.165,4.162,0,0,0,0,4.148,76.1,50.753123999428,0.328084,6,P-GPS,
11700,2023-12-27 00:50:36,-34.9551271221295,-54.9345561004844,0.328084,-0.75459319999999,51.507717199428,50.753123999428,3.608924,0.7158208,4.7182088124,8.12910131,18,5,8.323,52.065459999428,1.64042,2.3040482,4.7182088124,0.223694,-0.671082,0,297.5, 4.6, -1,0,0,1024,1024,1024,1024,0,0,0,0,299.8,0,0,96,4.165,4.162,0,0,0,0,4.148,76.1,50.753123999428,0.328084,6,P-GPS,
11800,2023-12-27 00:50:36,-34.9551269989238,-54.9345563741995,0.328084,-0.75459319999999,51.507717199428,50.753123999428,3.608924,0.4921268,4.8104988416,8.2225068248,18,5,8.323,52.065459999428,1.64042,2.3040482,4.8104988416,0.223694,-0.447388,0,297.5, 3.9, -1.1,0,0,1024,1024,1024,1024,0,0,0,0,299.8,0,0,96,4.165,4.162,0,0,0,0,4.148,76.1,50.753123999428,0.328084,6,P-GPS,
11900,2023-12-27 00:50:36,-34.9551268610248,-54.9345565545047,0,-1.0826772,51.507717199428,50.425039999428,3.608924,0.3131716,4.8838912324,8.2962272996,18,5,8.323,52.065459999428,1.64042,2.3040482,4.8838912324,0.223694,-0.223694,0,297.5, 3.2, -1.1,0,0,1024,1024,1024,1024,0,0,0,0,299.8,0,0,96,4.165,4.162,0,0,0,0,4.148,76.1,50.425039999428,0,6,P-GPS,
12000,2023-12-27 00:50:36,-34.9551267772006,-54.9345566111501,0,-1.0826772,51.507717199428,50.425039999428,3.608924,0.223694,4.9159778476,8.331201054,18,5,8.323,52.065459999428,1.64042,2.3040482,4.9159778476,0,-0.223694,0,297.6, 2.5, -0.9,0,0,1024,1024,1024,1024,0,0,0,0,299.8,0,0,96,4.165,4.162,0,0,0,0,4.148,76.1,50.425039999428,0,6,P-GPS,
12100,2023-12-27 00:50:37,-34.9551266919524,-54.9345567006167,0,-1.0826772,51.507717199428,50.425039999428,3.608924,0,4.9561681376,8.372211554,18,5,8.323,52.065459999428,1.64042,2.3040482,4.9561681376,0,0,0,297.7, 1.9, -0.9,0,0,1025,1024,1024,1024,0,0,0,0,299.8,0,0,96,4.165,4.162,0,0,0,0,4.148,76.1,50.425039999428,0,6,P-GPS,
12200,2023-12-27 00:50:37,-34.955126626804,-54.9345567448993,0,-1.0826772,51.507717199428,50.425039999428,3.608924,0,4.9812337552,8.399442526,18,5,8.323,52.065459999428,1.64042,2.3040482,4.9812337552,0,0,0,297.6, 1.5, -1,0,0,1089,1024,1024,1024,10,0,0,0,299.8,0,0,96,4.165,4.162,0,0,0,0,4.148,76.1,50.425039999428,0,6,P-GPS,
12300,2023-12-27 00:50:37,-34.9551265728301,-54.9345567551951,0,-1.0826772,51.507717199428,50.425039999428,3.608924,0,4.9957678764,8.4193572248,18,5,8.323,52.065459999428,1.64042,2.3040482,4.9957678764,0,0,0,297.6, 1.4, -1.1,0,0,1097,1024,1024,1024,11,0,0,0,299.8,0,0,96,4.165,4.162,0,0,0,0,4.148,76.1,50.425039999428,0,6,P-GPS,
12400,2023-12-27 00:50:37,-34.9551265487364,-54.9345567424952,0,-1.0826772,51.507717199428,50.425039999428,3.608924,0,4.998195698,8.4289372776,18,5,8.323,52.065459999428,1.64042,2.3040482,4.998195698,0,0,0,297.6, 1.1, -1,0,0,1097,1024,1024,1024,11,0,0,0,299.8,0,0,96,4.165,4.162,0,0,0,0,4.148,76.1,50.425039999428,0,6,P-GPS,
12500,2023-12-27 00:50:37,-34.9551265971248,-54.9345566725201,0,-1.0826772,51.507717199428,50.425039999428,3.28084,0,4.9708334924,8.4563322916,18,5,8.323,52.065459999428,1.64042,2.3040482,4.998195698,0,0,0,297.6, 0.2, -1.1,0,0,1078,1024,1024,1024,8,0,0,0,299.8,0,0,96,4.165,4.162,0,0,0,0,4.148,76.1,50.425039999428,0,6,P-GPS,
12600,2023-12-27 00:50:37,-34.9551265958758,-54.9345566498248,0,-1.0826772,51.507717199428,50.425039999428,3.28084,0,4.9657809988,8.4631236304,18,5,8.316,52.065459999428,1.64042,2.3040482,4.998195698,0,0,0,297.6, 0, -1,0,0,1024,1024,1024,1024,0,0,0,0,299.8,0,0,96,4.16,4.157,0,0,0,0,4.18,76.1,50.425039999428,0,6,P-GPS,
12700,2023-12-27 00:50:37,-34.9551265709891,-54.9345566389305,0,-1.0826772,51.507717199428,50.425039999428,3.28084,0,4.9688649884,8.4727693,18,5,8.316,52.065459999428,1.64042,2.3040482,4.998195698,0,0,0,297.6, 0.6, -1,0,0,1024,1024,1024,1024,0,0,0,0,299.8,0,0,96,4.16,4.157,0,0,0,0,4.18,76.1,50.425039999428,0,6,P-GPS,
12800,2023-12-27 00:50:37,-34.9551265334071,-54.93455661236,0,-1.0826772,51.507717199428,50.425039999428,3.28084,0,4.9711615764,8.4886157572,18,5,8.316,52.065459999428,1.64042,2.3040482,4.998195698,0,0,0,297.6, 0.7, -1,0,0,1024,1024,1024,1024,0,0,0,0,299.8,0,0,96,4.16,4.157,0,0,0,0,4.18,76.1,50.425039999428,0,6,P-GPS,
12900,2023-12-27 00:50:37,-34.9551263458136,-54.9345565202749,0,-1.2139108,51.638950799428,50.425039999428,3.28084,0,4.9927166952,8.5624018488,18,5,8.316,52.065459999428,1.64042,2.3040482,4.998195698,0,0,0,297.6, 0.6, -1,0,0,1024,1024,1024,1024,0,0,0,0,299.8,0,0,96,4.16,4.157,0,0,0,0,4.18,76.1,50.425039999428,0,6,P-GPS,
13000,2023-12-27 00:50:37,-34.9551262992841,-54.9345564496178,0,-1.2139108,51.638950799428,50.425039999428,3.28084,0,4.9871720756,8.5895015872,18,5,8.316,52.065459999428,1.64042,2.3040482,4.998195698,0,0,0,297.6, 0.6, -1.1,0,0,1024,1024,1024,1024,0,0,0,0,299.8,0,0,96,4.16,4.157,0,0,0,0,4.18,76.1,50.425039999428,0,6,P-GPS,
13100,2023-12-27 00:50:37,-34.9551262685293,-54.9345563571225,0,-1.2139108,51.638950799428,50.425039999428,3.28084,0,4.973097272,8.6193572312,18,5,8.316,52.065459999428,1.64042,2.3040482,4.998195698,0,0,0,297.6, 0.5, -1.1,0,0,1024,1024,1024,1024,0,0,0,0,299.8,0,0,96,4.16,4.157,0,0,0,0,4.18,76.1,50.425039999428,0,6,P-GPS,
13200,2023-12-27 00:50:38,-34.9551262453166,-54.9345562868626,0,-1.2139108,51.638950799428,50.425039999428,3.28084,0,4.9624673504,8.6419950272,18,5,8.316,52.065459999428,1.64042,2.3040482,4.998195698,0,0,0,297.6, 0.4, -1.1,0,0,1024,1024,1024,1024,0,0,0,0,299.8,0,0,96,4.16,4.157,0,0,0,0,4.18,76.1,50.425039999428,0,6,P-GPS,
13300,2023-12-27 00:50:38,-34.9551261836075,-54.9345562363659,0,-1.2139108,51.638950799428,50.425039999428,3.28084,0,4.9655185316,8.6690947656,18,5,8.316,52.065459999428,1.64042,2.3040482,4.998195698,0,0,0,297.6, 0.2, -1,0,0,1024,1024,1024,1024,0,0,0,0,299.8,0,0,96,4.16,4.157,0,0,0,0,4.18,76.1,50.425039999428,0,6,P-GPS,
13400,2023-12-27 00:50:38,-34.955126187712,-54.9345561877246,0,-1.2139108,51.638950799428,50.425039999428,3.28084,0,4.9534778488,8.683727312,18,5,8.316,52.065459999428,1.64042,2.3040482,4.998195698,0,0,0,297.6, 0, -1.1,0,0,1024,1024,1024,1024,0,0,0,0,299.8,0,0,96,4.16,4.157,0,0,0,0,4.18,76.1,50.425039999428,0,6,P-GPS,
13500,2023-12-27 00:50:38,-34.9551262196027,-54.9345561257824,0,-1.2139108,51.638950799428,50.425039999428,3.28084,0,4.9318571132,8.7056105148,18,5,8.316,52.065459999428,1.64042,2.3040482,4.998195698,0,0,0,297.6, 0, -1.1,0,0,1024,1024,1024,1024,0,0,0,0,299.8,0,0,96,4.16,4.157,0,0,0,0,4.18,76.1,50.425039999428,0,6,P-GPS,
13600,2023-12-27 00:50:38,-34.9551262523588,-54.934556071055,0,-1.2139108,51.638950799428,50.425039999428,3.28084,0,4.9116471388,8.7258532976,18,5,8.311,52.065459999428,1.64042,2.3040482,4.998195698,0,0,0,297.5, 0, -1,0,0,1024,1024,1024,1024,0,0,0,0,299.8,0,0,95,4.157,4.152,0,0,0,0,4.208,76.1,50.425039999428,0,6,P-GPS,
13700,2023-12-27 00:50:38,-34.9551263683635,-54.9345560327514,0,-1.2139108,51.638950799428,50.425039999428,3.28084,0,4.8754594736,8.7697181284,18,5,8.311,52.065459999428,1.64042,2.3040482,4.998195698,0,0,0,297.5, 0, -1,0,0,1024,1024,1024,1024,0,0,0,0,299.8,0,0,95,4.157,4.152,0,0,0,0,4.208,76.1,50.425039999428,0,6,P-GPS,
13800,2023-12-27 00:50:38,-34.9551263947687,-54.934555989407,0,-1.2139108,51.638950799428,50.425039999428,3.28084,0,4.8593505492,8.7858598612,18,5,8.311,52.065459999428,1.64042,2.3040482,4.998195698,0,0,0,297.5, -0.2, -1,0,0,1024,1024,1024,1024,0,0,0,0,299.8,0,0,95,4.157,4.152,0,0,0,0,4.208,76.1,50.425039999428,0,6,P-GPS,
13900,2023-12-27 00:50:38,-34.9551264105662,-54.9345559530135,0,-1.2139108,51.638950799428,50.425039999428,3.28084,0,4.8473098664,8.7981630112,18,5,8.311,52.065459999428,1.64042,2.3040482,4.998195698,0,0,0,297.5, -0.3, -1,0,0,1024,1024,1024,1024,0,0,0,0,299.8,0,0,95,4.157,4.152,0,0,0,0,4.208,76.1,50.425039999428,0,6,P-GPS,
14000,2023-12-27 00:50:38,-34.9551264389134,-54.934555926882,0,-1.2139108,51.638950799428,50.425039999428,3.28084,0,4.8346786324,8.8111223292,18,5,8.311,52.065459999428,1.64042,2.3040482,4.998195698,0,0,0,297.5, -0.2, -0.8,0,0,1024,1024,1024,1024,0,0,0,0,299.8,0,0,95,4.157,4.152,0,0,0,0,4.208,76.1,50.425039999428,0,6,P-GPS,
14100,2023-12-27 00:50:39,-34.955126487546,-54.9345559075733,0,-1.2139108,51.638950799428,50.425039999428,3.608924,0,4.8187993668,8.8297903088,18,5,8.311,52.065459999428,1.64042,2.3040482,4.998195698,0,0,0,297.5, -0.1, -0.8,0,0,1024,1024,1024,1024,0,0,0,0,299.8,0,0,95,4.157,4.152,0,0,0,0,4.208,76.1,50.425039999428,0,6,P-GPS,
14200,2023-12-27 00:50:39,-34.9551265690211,-54.9345559294193,0,-1.0826772,51.507717199428,50.425039999428,3.608924,0,4.8046589464,8.860236504,18,5,8.311,52.065459999428,1.64042,2.3040482,4.998195698,0,0,0,297.4, -0.1, -0.6,0,0,1024,1024,1024,1024,0,0,0,0,299.8,0,0,95,4.157,4.152,0,0,0,0,4.208,76.1,50.425039999428,0,6,P-GPS,
14300,2023-12-27 00:50:39,-34.9551265685041,-54.9345559152874,0,-1.0826772,51.507717199428,50.425039999428,3.608924,0,4.8015421484,8.8644687876,18,5,8.311,52.065459999428,1.64042,2.3040482,4.998195698,0,0,0,297.4, -0.1, -0.7,0,0,1024,1024,1024,1024,0,0,0,0,299.8,0,0,95,4.157,4.152,0,0,0,0,4.208,76.1,50.425039999428,0,6,P-GPS,
14400,2023-12-27 00:50:39,-34.95512657656,-54.9345559031911,0,-1.0826772,51.507717199428,50.425039999428,3.608924,0,4.7968833556,8.8691275804,18,5,8.311,52.065459999428,1.64042,2.3040482,4.998195698,0,0,0,297.4, 0, -0.5,0,0,1024,1024,1024,1024,0,0,0,0,299.8,0,0,95,4.157,4.152,0,0,0,0,4.208,76.1,50.425039999428,0,6,P-GPS,
14500,2023-12-27 00:50:39,-34.9551265995773,-54.934555888722,0,-1.0826772,51.507717199428,50.425039999428,3.608924,0,4.7881891296,8.8785763996,18,5,8.311,52.065459999428,1.64042,2.3040482,4.998195698,0,0,0,297.4, 0, -0.5,0,0,1024,1024,1024,1024,0,0,0,0,299.8,0,0,95,4.157,4.152,0,0,0,0,4.208,76.1,50.425039999428,0,6,P-GPS,
14600,2023-12-27 00:50:39,-34.955126625029,-54.9345558798948,0,-1.0826772,51.507717199428,50.425039999428,3.608924,0,4.78018388,8.8882220692,18,5,8.307,52.065459999428,1.64042,2.3040482,4.998195698,0,0,0,297.4, 0, -0.4,0,0,1024,1024,1024,1024,0,0,0,0,299.8,0,0,95,4.153,4.152,0,0,0,0,4.215,76.28,50.425039999428,0,6,P-GPS,
14700,2023-12-27 00:50:39,-34.9551266512698,-54.9345559065072,0,-1.0826772,51.507717199428,50.425039999428,3.608924,0,4.78018388,8.9006892612,18,5,8.307,52.065459999428,1.64042,2.3040482,4.998195698,0,0,0,297.4, 0.1, -0.4,0,0,1024,1024,1024,1024,0,0,0,0,299.8,0,0,95,4.153,4.152,0,0,0,0,4.215,76.28,50.425039999428,0,6,P-GPS,
14800,2023-12-27 00:50:39,-34.9551266760295,-54.9345559139547,0,-1.0826772,51.507717199428,50.425039999428,3.608924,0,4.7761484468,8.9099740384,18,5,8.307,52.065459999428,1.64042,2.3040482,4.998195698,0,0,0,297.3, 0.3, -0.3,0,0,1024,1024,1024,1024,0,0,0,0,299.8,0,0,95,4.153,4.152,0,0,0,0,4.215,76.28,50.425039999428,0,6,P-GPS,
14900,2023-12-27 00:50:39,-34.9551267006214,-54.9345558871385,0,-1.0826772,51.507717199428,50.425039999428,3.608924,0,4.7642389976,8.9220147212,18,5,8.307,52.065459999428,1.64042,2.3040482,4.998195698,0,0,0,297.4, 0.3, -0.2,0,0,1024,1024,1024,1024,0,0,0,0,299.8,0,0,95,4.153,4.152,0,0,0,0,4.215,76.28,50.425039999428,0,6,P-GPS,
15000,2023-12-27 00:50:39,-34.9551268154804,-54.9345558433158,0,-1.0826772,51.507717199428,50.425039999428,3.608924,0,4.727526398,8.9659123604,18,5,8.307,52.065459999428,1.64042,2.3040482,4.998195698,0,0,0,297.3, 0, -0.2,0,0,1024,1024,1024,1024,0,0,0,0,299.8,0,0,95,4.153,4.152,0,0,0,0,4.215,76.28,50.425039999428,0,6,P-GPS,
15100,2023-12-27 00:50:40,-34.9551268389064,-54.9345558294217,0,-1.0826772,51.507717199428,50.425039999428,3.608924,0,4.7188977888,8.9754267964,18,5,8.307,52.065459999428,1.64042,2.3040482,4.998195698,0,0,0,297.4, -0.1, -0.4,0,0,1024,1024,1024,1024,0,0,0,0,299.8,0,0,95,4.153,4.152,0,0,0,0,4.215,76.28,50.425039999428,0,6,P-GPS,
15200,2023-12-27 00:50:40,-34.9551268397312,-54.9345558203932,0,-1.0826772,51.507717199428,50.425039999428,3.608924,0,4.7166340092,8.9781498936,17,5,8.307,52.065459999428,1.64042,2.3040482,4.998195698,0,0,0,297.4, -0.1, -0.7,0,0,1024,1024,1024,1024,0,0,0,0,299.8,0,0,95,4.153,4.152,0,0,0,0,4.215,76.28,50.425039999428,0,6,P-GPS,
15300,2023-12-27 00:50:40,-34.9551268114956,-54.9345558188802,0,-1.0826772,51.507717199428,50.425039999428,3.608924,0,4.7228019884,8.9884517312,17,5,8.307,52.065459999428,1.64042,2.3040482,4.998195698,0,0,0,297.3, 0, -0.7,0,0,1024,1024,1024,1024,0,0,0,0,299.8,0,0,95,4.153,4.152,0,0,0,0,4.215,76.28,50.425039999428,0,6,P-GPS,
15400,2023-12-27 00:50:40,-34.9551268561126,-54.9345559453988,0,-1.0826772,51.507717199428,50.425039999428,3.608924,0,4.7418636688,9.0296262732,18,5,8.307,52.065459999428,1.64042,2.3040482,4.998195698,0,0,0,297.3, 0.2, -0.7,0,0,1024,1024,1024,1024,0,0,0,0,299.8,0,0,95,4.153,4.152,0,0,0,0,4.215,76.28,50.425039999428,0,6,P-GPS,
15500,2023-12-27 00:50:40,-34.9551268746149,-54.9345560035676,0,-1.0826772,51.507717199428,50.425039999428,3.608924,0,4.7512140628,9.0482942528,18,5,8.307,52.065459999428,1.64042,2.3040482,4.998195698,0,0,0,297.3, 0.3, -0.6,0,0,1024,1024,1024,1024,0,0,0,0,299.8,0,0,95,4.153,4.152,0,0,0,0,4.215,76.28,50.425039999428,0,6,P-GPS,
15600,2023-12-27 00:50:40,-34.9551268852471,-54.9345560449339,0,-1.0826772,51.507717199428,50.425039999428,3.608924,0,4.7584647192,9.0612535708,18,5,8.301,52.065459999428,1.64042,2.3040482,4.998195698,0,0,0,297.3, 0.2, -0.6,0,0,1024,1024,1024,1024,0,0,0,0,299.8,0,0,95,4.15,4.149,0,0,0,0,4.217,76.28,50.425039999428,0,6,P-GPS,
15700,2023-12-27 00:50:40,-34.9551268830886,-54.934556064969,0.328084,-0.75459319999999,51.507717199428,50.753123999428,3.608924,0,4.763615638,9.0672903164,18,5,8.301,52.065459999428,1.64042,2.3040482,4.998195698,0,0,0,297.3, 0.2, -0.6,0,0,1024,1024,1024,1024,0,0,0,0,299.8,0,0,95,4.15,4.149,0,0,0,0,4.217,76.28,50.753123999428,0.328084,6,P-GPS,
15800,2023-12-27 00:50:40,-34.9551268824771,-54.9345560724243,0.328084,-0.75459319999999,51.507717199428,50.753123999428,3.608924,0,4.7655185252,9.069554096,18,5,8.301,52.065459999428,1.64042,2.3040482,4.998195698,0,0,0,297.4, 0.2, -0.5,0,0,1024,1024,1024,1024,0,0,0,0,299.8,0,0,95,4.15,4.149,0,0,0,0,4.217,76.28,50.753123999428,0.328084,6,P-GPS,
15900,2023-12-27 00:50:40,-34.9551268952693,-54.9345560477143,0.328084,-0.75459319999999,51.507717199428,50.753123999428,3.608924,0,4.7568242992,9.0782811304,18,5,8.301,52.065459999428,1.64042,2.3040482,4.998195698,0,0,0,297.5, 0.2, -0.3,0,0,1024,1024,1024,1024,0,0,0,0,299.8,0,0,95,4.15,4.149,0,0,0,0,4.217,76.28,50.753123999428,0.328084,6,P-GPS,
16000,2023-12-27 00:50:40,-34.9551268961185,-54.9345560505339,0.328084,-0.75459319999999,51.507717199428,50.753123999428,3.608924,0,4.7572836168,9.0791669572,18,5,8.301,52.065459999428,1.64042,2.3040482,4.998195698,0,0,0,297.5, 0.3, -0.2,0,0,1024,1024,1024,1024,0,0,0,0,299.8,0,0,95,4.15,4.149,0,0,0,0,4.217,76.28,50.753123999428,0.328084,6,P-GPS,
16100,2023-12-27 00:50:41,-34.9551268950641,-54.9345560686745,0.328084,-0.75459319999999,51.507717199428,50.753123999428,3.608924,0,4.7617783676,9.0846131516,18,5,8.301,52.065459999428,1.64042,2.3040482,4.998195698,0,0,0,297.5, 0.2, -0.2,0,0,1024,1024,1024,1024,0,0,0,0,299.8,0,0,95,4.15,4.149,0,0,0,0,4.217,76.28,50.753123999428,0.328084,6,P-GPS,
16200,2023-12-27 00:50:41,-34.9551269098716,-54.934556068029,0.328084,-0.75459319999999,51.507717199428,50.753123999428,3.608924,0,4.7582678688,9.0900265376,18,5,8.301,52.065459999428,1.64042,2.3040482,4.998195698,0,0,0,297.5, 0.1, -0.3,0,0,1024,1024,1024,1024,0,0,0,0,299.8,0,0,95,4.15,4.149,0,0,0,0,4.217,76.28,50.753123999428,0.328084,6,P-GPS,
16300,2023-12-27 00:50:41,-34.9551270275291,-54.9345560677625,0.328084,-0.75459319999999,51.507717199428,50.753123999428,3.608924,0,4.731627448,9.1329399248,18,5,8.301,52.065459999428,1.64042,2.3040482,4.998195698,0,0,0,297.5, 0, -0.4,0,0,1024,1024,1024,1024,0,0,0,0,299.8,0,0,95,4.15,4.149,0,0,0,0,4.217,76.28,50.753123999428,0.328084,6,P-GPS,
16400,2023-12-27 00:50:41,-34.9551270488479,-54.9345560431883,0.328084,-0.75459319999999,51.507717199428,50.753123999428,3.608924,0,4.7210631432,9.1436682716,18,5,8.301,52.065459999428,1.64042,2.3040482,4.998195698,0,0,0,297.4, 0, -0.4,0,0,1024,1024,1024,1024,0,0,0,0,299.8,0,0,95,4.15,4.149,0,0,0,0,4.217,76.28,50.753123999428,0.328084,6,P-GPS,
16500,2023-12-27 00:50:41,-34.9551270445659,-54.934556016069,0.328084,-0.75459319999999,51.507717199428,50.753123999428,3.608924,0,4.7156497572,9.15190318,18,5,8.301,52.065459999428,1.64042,2.3040482,4.998195698,0,0,0,297.4, 0, -0.4,0,0,1024,1024,1024,1024,0,0,0,0,299.8,0,0,95,4.15,4.149,0,0,0,0,4.217,76.28,50.753123999428,0.328084,6,P-GPS,
16600,2023-12-27 00:50:41,-34.9551270328427,-54.9345559752436,0.328084,-0.75459319999999,51.507717199428,50.753123999428,3.608924,0,4.708661568,9.164862498,19,5,8.301,52.065459999428,1.64042,2.3040482,4.998195698,0,0,0,297.4, 0, -0.5,0,0,1024,1024,1024,1024,0,0,0,0,299.8,0,0,95,4.15,4.149,0,0,0,0,4.217,76.28,50.753123999428,0.328084,6,P-GPS,
16700,2023-12-27 00:50:41,-34.9551269860233,-54.934555834486,0.328084,-0.75459319999999,51.507717199428,50.753123999428,3.608924,0,4.6863190476,9.2102693236,19,5,8.299,52.065459999428,1.64042,2.3040482,4.998195698,0,0,0,297.4, 0, -0.5,0,0,1024,1024,1024,1024,0,0,0,0,299.8,0,0,95,4.15,4.147,0,0,0,0,4.205,76.46,50.753123999428,0.328084,6,P-GPS,
16800,2023-12-27 00:50:41,-34.9551269690647,-54.9345557965142,0.328084,-0.75459319999999,51.507717199428,50.753123999428,3.608924,0,4.6813649792,9.2231958332,19,5,8.299,52.065459999428,1.64042,2.3040482,4.998195698,0,0,0,297.4, 0, -0.6,0,0,1024,1024,1024,1024,0,0,0,0,299.8,0,0,95,4.15,4.147,0,0,0,0,4.205,76.46,50.753123999428,0.328084,6,P-GPS,
16900,2023-12-27 00:50:41,-34.9551269556789,-54.9345557890014,0.328084,-0.75459319999999,51.507717199428,50.753123999428,3.608924,0,4.6826773152,9.2285764108,19,5,8.299,52.065459999428,1.64042,2.3040482,4.998195698,0,0,0,297.5, 0, -0.4,0,0,1024,1024,1024,1024,0,0,0,0,299.8,0,0,95,4.15,4.147,0,0,0,0,4.205,76.46,50.753123999428,0.328084,6,P-GPS,
17000,2023-12-27 00:50:41,-34.9551269256097,-54.9345557723739,0.328084,-0.75459319999999,51.507717199428,50.753123999428,3.608924,0,4.685695688,9.2406170936,19,5,8.299,52.065459999428,1.64042,2.3040482,4.998195698,0,0,0,297.5, 0, -0.4,0,0,1024,1024,1024,1024,0,0,0,0,299.8,0,0,95,4.15,4.147,0,0,0,0,4.205,76.46,50.753123999428,0.328084,6,P-GPS,
17100,2023-12-27 00:50:42,-34.9551268006608,-54.9345557475672,0.328084,-0.75459319999999,51.507717199428,50.753123999428,3.608924,0,4.70882561,9.2868113208,19,5,8.299,52.065459999428,1.64042,2.3040482,4.998195698,0,0,0,297.5, 0.1, -0.4,0,0,1024,1024,1024,1024,0,0,0,0,299.8,0,0,95,4.15,4.147,0,0,0,0,4.205,76.46,50.753123999428,0.328084,6,P-GPS,
