time(millisecond),datetime(utc),latitude,longitude,height_above_takeoff(feet),height_above_ground_at_drone_location(feet),ground_elevation_at_drone_location(feet),altitude_above_seaLevel(feet),height_sonar(feet),speed(mph),distance(feet),mileage(feet),satellites,gpslevel,voltage(v),max_altitude(feet),max_ascent(feet),max_speed(mph),max_distance(feet), xSpeed(mph), ySpeed(mph), zSpeed(mph), compass_heading(degrees), pitch(degrees), roll(degrees),isPhoto,isVideo,rc_elevator,rc_aileron,rc_throttle,rc_rudder,rc_elevator(percent),rc_aileron(percent),rc_throttle(percent),rc_rudder(percent),gimbal_heading(degrees),gimbal_pitch(degrees),gimbal_roll(degrees),battery_percent,voltageCell1,voltageCell2,voltageCell3,voltageCell4,voltageCell5,voltageCell6,current(A),battery_temperature(f),altitude(feet),ascent(feet),flycStateRaw,flycState,message
0,2022-12-05 22:42:11,-34.9181260793863,-56.1685659382421,0,0,25.784054958948,25.784054958948,0,0,0,0,14,5,0,25.784054958948,0,0,0,0,0,0,27.9, -5.5, 2.4,0,0,364,364,364,1684,-100,-100,-100,100,38.9,0,0,91,4.223,4.22,0,0,0,0,0,81.5,25.784054958948,0,41,Motors_Started,"Aeronave en Zona de altitud restringida (150). Vuela con precauci贸n (Code: 190001). Error de calibraci贸n del estabilizador. Reinicia la aeronave o contacta con la Asistencia DJI (Code: 40011)"
100,2022-12-05 22:42:11,-34.9181260265085,-56.1685657843409,0,0,25.784054958948,25.784054958948,0,0,0.049920605272,0.049920605272,14,5,0,25.784054958948,0,0,0.049920605272,0,0,0,28.2, -5.4, 1.6,0,0,364,364,364,1684,-100,-100,-100,100,38.7,0,0,91,4.223,4.22,0,0,0,0,0,81.5,25.784054958948,0,41,Motors_Started,
200,2022-12-05 22:42:11,-34.9181259299155,-56.168565754086,0,0,25.784054958948,25.784054958948,0,0,0.077519359436,0.086306105124,14,5,0,25.784054958948,0,0,0.077519359436,0,0,0,27.8, -5, 0.9,0,0,364,364,364,1684,-100,-100,-100,100,38.6,0,0,91,4.223,4.22,0,0,0,0,0,81.5,25.784054958948,0,41,Motors_Started,
300,2022-12-05 22:42:11,-34.9181258507833,-56.1685657094545,0,0,25.784054958948,25.784054958948,0.328084,0,0.107894688492,0.118115489344,14,5,0,25.784054958948,0,0,0.107894688492,0,0,0,28.4, -5.1, 0.9,0,0,364,364,364,1684,-100,-100,-100,100,38.5,0,0,91,4.223,4.22,0,0,0,0,0,81.5,25.784054958948,0,41,Motors_Started,"Setting new Return-To-Home altitude to 100m (328 ft). Data Recorder File Index is 77. Setting new Maximum Flight Altitude to 120m (394 ft)"
400,2022-12-05 22:42:11,-34.9181258167908,-56.1685656780566,0,0,25.784054958948,25.784054958948,0.328084,0,0.123442261168,0.133673560708,14,5,0,25.784054958948,0,0,0.123442261168,0,0,0,28.8, -5.8, 1.3,0,0,833,597,709,1646,-29,-65,-48,94,38.7,0,0,91,4.223,4.22,0,0,0,0,0,81.5,25.784054958948,0,41,Motors_Started,
500,2022-12-05 22:42:11,-34.9181257735116,-56.1685656442707,0,0,25.784054958948,25.784054958948,0.328084,0,0.142086946804,0.152421592804,14,5,0,25.784054958948,0,0,0.142086946804,0,0,0,29.1, -6.5, 2.8,0,0,1024,1024,1024,1024,0,0,0,0,39.2,0,0,91,4.223,4.22,0,0,0,0,0,81.5,25.784054958948,0,41,Motors_Started,
600,2022-12-05 22:42:12,-34.9181256593732,-56.1685656754087,0,0,25.784054958948,25.784054958948,0.328084,0,0.17223753832,0.195094166348,14,5,0,25.784054958948,0,0,0.17223753832,0,0,0,28.5, -7.9, 2.9,0,0,1024,1024,1024,1024,0,0,0,0,39.2,0,0,91,4.223,4.22,0,0,0,0,0,81.5,25.784054958948,0,41,Motors_Started,
700,2022-12-05 22:42:12,-34.9181255764056,-56.1685656287406,-0.328084,-0.328084,25.784054958948,25.455970958948,0.328084,0.223694,0.205548234924,0.228429469252,14,5,0,25.784054958948,0,0.223694,0.205548234924,0,0.223694,0,30.3, -9.7, 2.7,0,0,1024,1024,1274,1024,0,0,38,0,39.5,0,0,91,4.223,4.22,0,0,0,0,0,81.5,25.455970958948,-0.328084,41,Motors_Started,
800,2022-12-05 22:42:12,-34.9181255479636,-56.1685655614133,-0.328084,-0.328084,25.784054958948,25.455970958948,0.328084,0,0.224281175156,0.25108760646,14,5,0,25.784054958948,0,0.223694,0.224281175156,0,0,0,31.2, -8.6, 2.9,0,0,1024,1024,1530,1024,0,0,77,0,41,0,0,91,4.223,4.22,0,0,0,0,0,81.5,25.455970958948,-0.328084,41,Motors_Started,
900,2022-12-05 22:42:12,-34.9181255427045,-56.168565516996,-0.328084,-0.328084,25.784054958948,25.455970958948,0.328084,0,0.232857290916,0.264513459908,14,5,0,25.784054958948,0,0.223694,0.232857290916,0,0,0,32.1, -8.9, 2,0,0,1024,1024,1572,1024,0,0,83,0,41.7,0,0,91,4.223,4.22,0,0,0,0,0,81.5,25.455970958948,-0.328084,41,Motors_Started,
1000,2022-12-05 22:42:12,-34.918125558233,-56.1685654574223,-0.328084,-0.3608924,25.816863358948,25.455970958948,0.328084,0,0.238422907892,0.283214575992,14,5,0,25.784054958948,0,0.223694,0.238422907892,0,0,0,32.8, -6.5, 1.6,0,0,1024,1024,1572,1024,0,0,83,0,42.6,0,0,91,4.223,4.22,0,0,0,0,0,81.5,25.455970958948,-0.328084,41,Motors_Started,
1100,2022-12-05 22:42:12,-34.9181255339541,-56.1685654288225,-0.328084,-0.3608924,25.816863358948,25.455970958948,0.328084,0,0.250653879412,0.295530193184,14,5,8.486,25.784054958948,0,0.223694,0.250653879412,0,0,0,34.4, -6.2, 1.4,0,0,1024,1024,1607,1024,0,0,88,0,43.6,0,0,91,4.223,4.22,0,0,0,0,0.609,81.5,25.455970958948,-0.328084,10,Assisted_Takeoff,
1200,2022-12-05 22:42:12,-34.9181255049828,-56.1685654372115,-0.328084,-0.3608924,25.816863358948,25.455970958948,0.328084,0,0.25765748856,0.30639436676,14,5,8.486,25.784054958948,0,0.223694,0.25765748856,0,0,0,33.4, -4.7, 2.2,0,0,1024,1024,1586,1024,0,0,85,0,44.1,0,0,91,4.223,4.22,0,0,0,0,0.609,81.5,25.455970958948,-0.328084,10,Assisted_Takeoff,
1300,2022-12-05 22:42:12,-34.9181254969448,-56.1685654770464,-0.328084,-0.3937008,25.849671758948,25.455970958948,0.328084,0,0.253366477924,0.318667004948,14,5,8.486,25.784054958948,0,0.223694,0.25765748856,0,0,0,33.4, -3.1, 1.7,0,0,1024,1024,1398,1024,0,0,57,0,43.8,0,0,91,4.223,4.22,0,0,0,0,0.609,81.5,25.455970958948,-0.328084,10,Assisted_Takeoff,
1400,2022-12-05 22:42:12,-34.9181256307822,-56.168565765838,-0.328084,-0.328084,25.784054958948,25.455970958948,0.328084,0,0.171607288956,0.41790683752,14,5,8.486,25.784054958948,0,0.223694,0.25765748856,0,0,0,33.4, -0.4, 1.6,0,0,1024,1024,1201,1024,0,0,27,0,43.8,0,0,91,4.223,4.22,0,0,0,0,0.609,81.5,25.455970958948,-0.328084,10,Assisted_Takeoff,
1500,2022-12-05 22:42:12,-34.9181257000065,-56.1685658358664,-0.328084,-0.328084,25.784054958948,25.455970958948,0.328084,0,0.141764440232,0.4507217992,14,5,8.486,25.784054958948,0,0.223694,0.25765748856,0,0,0,32.6, 1.2, 2.2,0,0,1024,1024,1048,1024,0,0,4,0,43.3,0,0,91,4.223,4.22,0,0,0,0,0.609,81.5,25.455970958948,-0.328084,10,Assisted_Takeoff,
1600,2022-12-05 22:42:13,-34.9181257794347,-56.16856585341,-0.656168,-0.656168,25.784054958948,25.127886958948,0.328084,0,0.112341539028,0.48017389988,14,5,8.486,25.784054958948,0,0.223694,0.25765748856,0,0,-0.223694,32.7, 3.2, 2.2,0,0,1024,1024,1024,1024,0,0,0,0,43,0,0,91,4.223,4.22,0,0,0,0,0.609,81.5,25.127886958948,-0.656168,10,Assisted_Takeoff,
1700,2022-12-05 22:42:13,-34.9181258750349,-56.1685658642122,-0.328084,-0.328084,25.784054958948,25.455970958948,0.328084,0.223694,0.07777723346,0.51520342856,14,5,8.486,25.784054958948,0,0.223694,0.25765748856,-0.223694,0,-0.223694,35.8, 3.3, 3.9,0,0,1024,1024,1024,1024,0,0,0,0,44.1,0,0,91,4.223,4.22,0,0,0,0,0.609,81.5,25.455970958948,-0.328084,10,Assisted_Takeoff,
1800,2022-12-05 22:42:13,-34.9181259868425,-56.1685658347465,-0.656168,-0.656168,25.784054958948,25.127886958948,0.328084,0,0.045811681256,0.55693571336,14,5,8.486,25.784054958948,0,0.223694,0.25765748856,0,0,0,39.7, 5.8, 3.6,0,0,1024,1024,1024,1024,0,0,0,0,48.4,0,0,91,4.223,4.22,0,0,0,0,0.609,81.5,25.127886958948,-0.656168,10,Assisted_Takeoff,
1900,2022-12-05 22:42:13,-34.9181260217628,-56.1685658393703,-0.656168,-0.656168,25.784054958948,25.127886958948,0.328084,0,0.03628937124,0.56975395524,14,5,8.486,25.784054958948,0,0.223694,0.25765748856,0,0,0,39.8, 4.4, 4.1,0,0,1024,1024,1024,1024,0,0,0,0,49.8,0,0,91,4.223,4.22,0,0,0,0,0.609,81.5,25.127886958948,-0.656168,6,P-GPS,"Error de calibraci贸n del estabilizador. Reinicia la aeronave o contacta con la Asistencia DJI (Code: 40011)"
2000,2022-12-05 22:42:13,-34.9181260213806,-56.1685658218446,-0.656168,-0.656168,25.784054958948,25.127886958948,0.328084,0,0.040749017052,0.57499673756,14,5,8.486,25.784054958948,0,0.223694,0.25765748856,0,0,0,37.2, 2.5, 2.5,0,0,1024,1024,1024,1024,0,0,0,0,49.8,0,0,91,4.223,4.22,0,0,0,0,0.609,81.5,25.127886958948,-0.656168,6,P-GPS,
2100,2022-12-05 22:42:13,-34.9181259929257,-56.1685658357939,-0.656168,-0.656168,25.784054958948,25.127886958948,0.328084,0,0.043982612956,0.5861876828,14,5,8.45,25.784054958948,0,0.223694,0.25765748856,0,0,0,35.7, 2, 1.2,0,0,1024,1024,1024,1024,0,0,0,0,49.8,0,0,91,4.177,4.17,0,0,0,0,1.056,81.5,25.127886958948,-0.656168,6,P-GPS,
2200,2022-12-05 22:42:13,-34.9181259452368,-56.1685658832065,-0.656168,-0.656168,25.784054958948,25.127886958948,0.328084,0,0.051639437348,0.60863519008,14,5,8.45,25.784054958948,0,0.223694,0.25765748856,0,0,0,35.9, 2, 0,0,0,1024,1024,1024,1024,0,0,0,0,49.8,0,0,91,4.177,4.17,0,0,0,0,1.056,81.5,25.127886958948,-0.656168,6,P-GPS,
2300,2022-12-05 22:42:13,-34.9181257150082,-56.168565918828,-0.656168,-0.656168,25.784054958948,25.127886958948,0.328084,0,0.133069886148,0.6933071088,14,5,8.45,25.784054958948,0,0.223694,0.25765748856,0,0,0,36.7, 2.4, -0.6,0,0,1024,1024,1085,1018,0,0,9,-1,49.8,0,0,91,4.177,4.17,0,0,0,0,1.056,81.5,25.127886958948,-0.656168,6,P-GPS,
2400,2022-12-05 22:42:13,-34.9181256118185,-56.168565883023,-0.656168,-0.656168,25.784054958948,25.127886958948,0.328084,0,0.171389769264,0.73245081084,14,5,8.45,25.784054958948,0,0.223694,0.25765748856,0,0,-0.223694,36.7, 0.9, -1.7,0,0,1024,1024,1456,1024,0,0,65,0,49.8,0,0,91,4.177,4.17,0,0,0,0,1.056,81.5,25.127886958948,-0.656168,6,P-GPS,"Error de calibraci贸n del estabilizador. Reinicia la aeronave o contacta con la Asistencia DJI (Code: 40011)"
2500,2022-12-05 22:42:13,-34.9181255470415,-56.1685658147622,-0.656168,-0.656168,25.784054958948,25.127886958948,0.328084,0,0.197707355408,0.76368440764,14,5,8.45,25.784054958948,0,0.223694,0.25765748856,0,0,-0.671082,39.6, 0.6, -4.2,0,0,1024,1024,1603,1024,0,0,88,0,49.8,0,0,91,4.177,4.17,0,0,0,0,1.056,81.5,25.127886958948,-0.656168,6,P-GPS,
2600,2022-12-05 22:42:14,-34.9181255826979,-56.1685658344066,-0.328084,-0.328084,25.784054958948,25.455970958948,0.656168,0,0.183859585936,0.77795934248,14,5,8.45,25.784054958948,0,0.223694,0.25765748856,0,0,-1.11847,41, -0.3, -2,0,0,1024,1024,1435,1024,0,0,62,0,49.8,0,0,91,4.177,4.17,0,0,0,0,1.056,81.5,25.455970958948,-0.328084,6,P-GPS,
2700,2022-12-05 22:42:14,-34.9181255337868,-56.1685659338948,-0.328084,-0.328084,25.784054958948,25.455970958948,0.656168,0,0.199065951252,0.812664068,14,5,8.45,25.784054958948,0,0.223694,0.25765748856,0,0,-1.789552,41.1, -1.8, 0.1,0,0,1024,1024,1024,1024,0,0,0,0,49.8,0,0,91,4.177,4.17,0,0,0,0,1.056,81.5,25.455970958948,-0.328084,6,P-GPS,
2800,2022-12-05 22:42:14,-34.9181255529987,-56.168566025805,0,0,25.784054958948,25.784054958948,0.984252,0,0.19383038678,0.84103677232,14,5,8.45,25.784054958948,0,0.223694,0.25765748856,0,0,-2.460634,40.6, -2.4, 0,0,0,1024,1024,1024,1024,0,0,0,0,49.8,0,0,91,4.177,4.17,0,0,0,0,1.056,81.5,25.784054958948,0,6,P-GPS,
2900,2022-12-05 22:42:14,-34.9181256016717,-56.1685660919906,0.328084,0.328084,25.784054958948,26.112138958948,1.64042,0,0.18026083254,0.8676345422,14,5,8.45,26.112138958948,0.328084,0.223694,0.25765748856,0,0,-2.460634,40.4, -2.7, -0.7,0,0,1024,1024,1024,1024,0,0,0,0,49.8,0,0,91,4.177,4.17,0,0,0,0,1.056,81.5,26.112138958948,0.328084,6,P-GPS,
3000,2022-12-05 22:42:14,-34.918125738349,-56.1685661503268,0.656168,0.656168,25.784054958948,26.440222958948,1.968504,0,0.139670608144,0.92046918956,14,5,8.45,26.440222958948,0.656168,0.223694,0.25765748856,0,0,-2.013246,40.2, -1.3, -1.2,0,0,1024,1024,1024,1024,0,0,0,0,49.8,0,0,91,4.177,4.17,0,0,0,0,1.056,81.5,26.440222958948,0.656168,6,P-GPS,
3100,2022-12-05 22:42:14,-34.9181258973528,-56.1685662243505,0.984252,0.984252,25.784054958948,26.768306958948,2.296588,0,0.108338586144,0.9825623674,14,5,8.403,26.768306958948,0.984252,0.223694,0.25765748856,0,0,-1.565858,40.1, -1.7, -0.8,0,0,1024,1024,1024,1024,0,0,0,0,49.8,0,0,91,4.119,4.112,0,0,0,0,2.034,81.5,26.768306958948,0.984252,6,P-GPS,
3200,2022-12-05 22:42:14,-34.9181261297162,-56.1685663368003,0.984252,0.984252,25.784054958948,26.768306958948,2.296588,0.223694,0.120640751892,1.07377300024,14,5,8.403,26.768306958948,0.984252,0.223694,0.25765748856,-0.223694,0,-1.11847,39.9, -2.3, -1,0,0,1024,1024,1122,1024,0,0,15,0,49.8,0,0,91,4.119,4.112,0,0,0,0,2.034,81.5,26.768306958948,0.984252,6,P-GPS,
3300,2022-12-05 22:42:14,-34.9181263575073,-56.1685664518357,0.984252,0.984252,25.784054958948,26.768306958948,3.608924,0.223694,0.184132551824,1.16372379052,14,5,8.403,26.768306958948,0.984252,0.223694,0.25765748856,-0.223694,0,-0.447388,39.8, -2.7, -1.3,0,0,1024,1024,1349,1024,0,0,49,0,49.8,0,0,91,4.119,4.112,0,0,0,0,2.034,81.5,26.768306958948,0.984252,6,P-GPS,
3400,2022-12-05 22:42:14,-34.9181265508966,-56.1685665559729,0.984252,1.0826772,25.685629758948,26.768306958948,3.608924,0.223694,0.252481635376,1.24085633892,14,5,8.403,26.768306958948,0.984252,0.223694,0.25765748856,-0.223694,0,-0.223694,39.7, -2.6, -1,0,0,1024,1024,1684,1024,0,0,100,0,49.8,0,0,91,4.119,4.112,0,0,0,0,2.034,81.5,26.768306958948,0.984252,6,P-GPS,
3500,2022-12-05 22:42:14,-34.9181269198035,-56.1685666413894,1.312336,1.4107612,25.685629758948,27.096390958948,3.937008,0.3131716,0.37184712476,1.3778543748,14,5,8.403,27.096390958948,1.312336,0.3131716,0.37184712476,-0.223694,-0.223694,-0.671082,39.7, -3.6, -0.6,0,0,1024,1024,1684,763,0,0,100,-40,49.8,0,0,91,4.119,4.112,0,0,0,0,2.034,81.5,27.096390958948,1.312336,6,P-GPS,
3600,2022-12-05 22:42:15,-34.9181271515779,-56.168566808327,1.312336,1.4107612,25.685629758948,27.096390958948,3.937008,0.3131716,0.46987534312,1.47606303936,14,5,8.403,27.096390958948,1.312336,0.3131716,0.46987534312,-0.223694,-0.223694,-0.894776,39.9, -4.5, 0.4,0,0,1024,1024,1024,1024,0,0,0,0,49.7,0,0,91,4.119,4.112,0,0,0,0,2.034,81.5,27.096390958948,1.312336,6,P-GPS,
3700,2022-12-05 22:42:15,-34.9181273643298,-56.1685669649741,1.64042,1.7388452,25.685629758948,27.424474958948,4.265092,0.223694,0.56047573972,1.56673561444,14,5,8.403,27.424474958948,1.64042,0.3131716,0.56047573972,-0.223694,0,-1.565858,39.2, -5.4, 0.2,0,0,1024,1024,1024,1024,0,0,0,0,49.1,0,0,91,4.119,4.112,0,0,0,0,2.034,81.5,27.424474958948,1.64042,6,P-GPS,
3800,2022-12-05 22:42:15,-34.9181275605361,-56.1685671438116,1.968504,2.0997376,25.652821358948,27.752558958948,4.593176,0.223694,0.64969818352,1.65610569604,14,5,8.403,27.752558958948,1.968504,0.3131716,0.64969818352,-0.223694,0,-2.013246,38.2, -6.2, -1.1,0,0,1024,1024,1024,1024,0,0,0,0,48.7,0,0,91,4.119,4.112,0,0,0,0,2.034,81.5,27.752558958948,1.968504,6,P-GPS,
3900,2022-12-05 22:42:15,-34.9181277450119,-56.1685672781315,1.968504,2.0997376,25.652821358948,27.752558958948,4.593176,0.223694,0.72799871096,1.73449480616,14,5,8.403,27.752558958948,1.968504,0.3131716,0.72799871096,-0.223694,0,-1.565858,37.5, -6.5, -1.1,0,0,1024,1024,1024,1024,0,0,0,0,48.6,0,0,91,4.119,4.112,0,0,0,0,2.034,81.5,27.752558958948,1.968504,6,P-GPS,
4000,2022-12-05 22:42:15,-34.9181279950664,-56.1685673297947,2.296588,2.4278216,25.652821358948,28.080642958948,4.92126,0.223694,0.81352364808,1.82702761752,14,5,8.403,28.080642958948,2.296588,0.3131716,0.81352364808,-0.223694,0,-1.11847,37, -7, -0.5,0,0,1024,1024,1024,1024,0,0,0,0,48.6,0,0,91,4.119,4.112,0,0,0,0,2.034,81.5,28.080642958948,2.296588,6,P-GPS,
4100,2022-12-05 22:42:15,-34.9181281294084,-56.1685673908,2.296588,2.4278216,25.652821358948,28.080642958948,4.92126,0.223694,0.86502299356,1.8793307688,14,5,8.255,28.080642958948,2.296588,0.3131716,0.86502299356,-0.223694,0,-0.671082,36.5, -6.8, -1.1,0,0,1024,1024,1024,1024,0,0,0,0,48.6,0,0,91,4.166,4.159,0,0,0,0,4.437,81.5,28.080642958948,2.296588,6,P-GPS,
4200,2022-12-05 22:42:15,-34.9181281422153,-56.1685675017591,2.296588,2.46063,25.620012958948,28.080642958948,4.92126,0.223694,0.88613191812,1.91285111108,14,5,8.255,28.080642958948,2.296588,0.3131716,0.88613191812,-0.223694,0,-0.223694,36.1, -6.3, -0.8,0,0,1024,1024,1024,1024,0,0,0,0,48.6,0,0,91,4.166,4.159,0,0,0,0,4.437,81.5,28.080642958948,2.296588,6,P-GPS,
4300,2022-12-05 22:42:15,-34.9181282049426,-56.168567633692,2.296588,2.46063,25.620012958948,28.080642958948,4.92126,0.223694,0.92665357296,1.95847775296,14,5,8.255,28.080642958948,2.296588,0.3131716,0.92665357296,-0.223694,0,0,35.8, -6.4, -0.4,0,0,1024,1024,1024,1024,0,0,0,0,48.6,0,0,91,4.166,4.159,0,0,0,0,4.437,81.5,28.080642958948,2.296588,6,P-GPS,
4400,2022-12-05 22:42:15,-34.9181285107653,-56.1685679812187,2.296588,2.4934384,25.587204558948,28.080642958948,4.593176,0.223694,1.07725397148,2.11098760036,14,5,8.255,28.080642958948,2.296588,0.3131716,1.07725397148,-0.223694,0,0,35.3, -6.5, -0.3,0,0,1024,1024,1024,1024,0,0,0,0,48.5,0,0,91,4.166,4.159,0,0,0,0,4.437,81.5,28.080642958948,2.296588,6,P-GPS,
4500,2022-12-05 22:42:15,-34.9181287512028,-56.1685681519544,2.296588,2.4934384,25.587204558948,28.080642958948,4.593176,0.223694,1.17849741304,2.21249678996,14,5,8.255,28.080642958948,2.296588,0.3131716,1.17849741304,-0.223694,0,0,34.8, -7.4, -0.7,0,0,1024,1024,1024,1024,0,0,0,0,48.6,0,0,91,4.166,4.159,0,0,0,0,4.437,81.5,28.080642958948,2.296588,6,P-GPS,
4600,2022-12-05 22:42:16,-34.9181289530575,-56.1685682328206,2.296588,2.4934384,25.587204558948,28.080642958948,4.265092,0,1.25319229732,2.29001647748,14,5,8.255,28.080642958948,2.296588,0.3131716,1.25319229732,0,0,0,34.4, -7.7, -0.4,0,0,1024,1024,1024,1024,0,0,0,0,48.6,0,0,91,4.166,4.159,0,0,0,0,4.437,81.5,28.080642958948,2.296588,6,P-GPS,
4700,2022-12-05 22:42:16,-34.918129080671,-56.1685682765976,1.968504,2.1653544,25.587204558948,27.752558958948,4.265092,0,1.29939964788,2.33838262076,14,5,8.255,28.080642958948,2.296588,0.3131716,1.29939964788,0,0,0,34.2, -7.5, 0,0,0,1024,1024,1024,1024,0,0,0,0,48.6,0,0,91,4.166,4.159,0,0,0,0,4.437,81.5,27.752558958948,1.968504,6,P-GPS,
4800,2022-12-05 22:42:16,-34.9181290016787,-56.1685680517704,1.968504,2.1653544,25.587204558948,27.752558958948,3.937008,0,1.23958665384,2.41155847612,14,5,8.255,28.080642958948,2.296588,0.3131716,1.29939964788,0,0,0,33.9, -7.3, -0.8,0,0,1024,1024,1024,1024,0,0,0,0,48.6,0,0,91,4.166,4.159,0,0,0,0,4.437,81.5,27.752558958948,1.968504,6,P-GPS,
4900,2022-12-05 22:42:16,-34.9181289876128,-56.16856802414,1.968504,2.1653544,25.587204558948,27.752558958948,3.937008,0,1.23096460632,2.42128616672,14,5,8.255,28.080642958948,2.296588,0.3131716,1.29939964788,0,0,0,33.7, -7.3, -0.3,0,0,1024,1024,1024,1024,0,0,0,0,48.6,0,0,91,4.166,4.159,0,0,0,0,4.437,81.5,27.752558958948,1.968504,6,P-GPS,
5000,2022-12-05 22:42:16,-34.918128999322,-56.1685679997386,1.968504,2.1653544,25.587204558948,27.752558958948,3.937008,0,1.23097444884,2.42974417224,14,5,8.255,28.080642958948,2.296588,0.3131716,1.29939964788,0,0,0,33.5, -6.8, -0.4,0,0,1024,1024,1024,1024,0,0,0,0,48.6,0,0,91,4.166,4.159,0,0,0,0,4.437,81.5,27.752558958948,1.968504,6,P-GPS,
5100,2022-12-05 22:42:16,-34.9181289920653,-56.1685679785486,1.968504,2.1653544,25.587204558948,27.752558958948,3.937008,0,1.22551513108,2.4366142512,14,5,8.289,28.080642958948,2.296588,0.3131716,1.29939964788,0,0,0,33.3, -6.6, -0.4,0,0,1024,1024,1024,1024,0,0,0,0,48.6,0,0,91,4.147,4.144,0,0,0,0,4.261,81.68,27.752558958948,1.968504,6,P-GPS,
5200,2022-12-05 22:42:16,-34.9181289287076,-56.1685679747851,1.968504,2.1653544,25.587204558948,27.752558958948,3.937008,0,1.2049541068,2.45975729656,14,5,8.289,28.080642958948,2.296588,0.3131716,1.29939964788,0,0,0,32.9, -6.8, -0.5,0,0,1024,1024,1024,1024,0,0,0,0,48.6,0,0,91,4.147,4.144,0,0,0,0,4.261,81.68,27.752558958948,1.968504,6,P-GPS,
5300,2022-12-05 22:42:16,-34.918128893738,-56.1685679705465,1.968504,2.1653544,25.587204558948,27.752558958948,3.608924,0,1.19331696732,2.47257881928,14,5,8.289,28.080642958948,2.296588,0.3131716,1.29939964788,0,0,0,32.8, -6.7, -1.1,0,0,1024,1024,1210,1024,0,0,28,0,48.6,0,0,91,4.147,4.144,0,0,0,0,4.261,81.68,27.752558958948,1.968504,6,P-GPS,
5400,2022-12-05 22:42:16,-34.9181288447968,-56.1685679450595,1.968504,2.1653544,25.587204558948,27.752558958948,3.937008,0.223694,1.17407155988,2.4919948304,14,5,8.289,28.080642958948,2.296588,0.3131716,1.29939964788,0.223694,0,0,32.6, -6, 0,0,0,1024,1024,1342,1024,0,0,48,0,48.6,0,0,91,4.147,4.144,0,0,0,0,4.261,81.68,27.752558958948,1.968504,6,P-GPS,
5500,2022-12-05 22:42:16,-34.9181287488521,-56.1685679288094,1.968504,2.1653544,25.587204558948,27.752558958948,3.937008,0.223694,1.1415846822,2.52733603888,14,5,8.289,28.080642958948,2.296588,0.3131716,1.29939964788,0.223694,0,-0.447388,32.2, -5, 1.1,0,0,1024,1024,1038,1024,0,0,2,0,48.6,0,0,91,4.147,4.144,0,0,0,0,4.261,81.68,27.752558958948,1.968504,6,P-GPS,"Punto de origen actualizado. Altitud de RPO establecida en 100m (Code: 3000001)"
5600,2022-12-05 22:42:17,-34.9181285869199,-56.1685679144242,2.296588,2.4934384,25.587204558948,28.080642958948,3.937008,0.223694,1.0892716884,2.58657488592,14,5,8.289,28.080642958948,2.296588,0.3131716,1.29939964788,0.223694,0,-0.894776,32, -5.2, 0.8,0,0,1024,1024,1024,1024,0,0,0,0,48.5,0,0,91,4.147,4.144,0,0,0,0,4.261,81.68,28.080642958948,2.296588,6,P-GPS,
5700,2022-12-05 22:42:17,-34.9181284774065,-56.1685678581884,2.296588,2.46063,25.620012958948,28.080642958948,3.937008,0.223694,1.04661092588,2.62992790568,14,5,8.289,28.080642958948,2.296588,0.3131716,1.29939964788,0.223694,0,-0.671082,32, -5.1, 1.6,0,0,1024,1024,1024,1024,0,0,0,0,48.6,0,0,91,4.147,4.144,0,0,0,0,4.261,81.68,28.080642958948,2.296588,6,P-GPS,
5800,2022-12-05 22:42:17,-34.9181283768921,-56.1685678531969,2.624672,2.788714,25.620012958948,28.408726958948,4.265092,0.223694,1.01530843144,2.66663066276,14,5,8.289,28.408726958948,2.624672,0.3131716,1.29939964788,0.223694,0,-0.447388,31.9, -5, 1.2,0,0,1024,1024,1024,1024,0,0,0,0,48.6,0,0,91,4.147,4.144,0,0,0,0,4.261,81.68,28.408726958948,2.624672,6,P-GPS,
5900,2022-12-05 22:42:17,-34.9181282765182,-56.1685678459562,2.624672,2.788714,25.620012958948,28.408726958948,4.265092,0.223694,0.98403546456,2.70331701564,14,5,8.289,28.408726958948,2.624672,0.3131716,1.29939964788,0.223694,0,-0.223694,31.6, -3.1, 1,0,0,1024,1024,1024,1024,0,0,0,0,48.5,0,0,91,4.147,4.144,0,0,0,0,4.261,81.68,28.408726958948,2.624672,6,P-GPS,
6000,2022-12-05 22:42:17,-34.9181281662135,-56.1685678466568,2.624672,2.788714,25.620012958948,28.408726958948,4.265092,0.223694,0.95166013544,2.74356307992,14,5,8.289,28.408726958948,2.624672,0.3131716,1.29939964788,0.223694,0,-0.223694,31.5, -2.4, 1.3,0,0,1024,1024,1024,1024,0,0,0,0,48.6,0,0,91,4.147,4.144,0,0,0,0,4.261,81.68,28.408726958948,2.624672,6,P-GPS,
6100,2022-12-05 22:42:17,-34.9181281475456,-56.1685678758202,2.952756,3.116798,25.620012958948,28.736810958948,4.593176,0.223694,0.95151249764,2.75462935324,14,5,8.308,28.736810958948,2.952756,0.3131716,1.29939964788,0.223694,0,0,31.7, -2.3, 2.6,0,0,1024,1024,1024,1024,0,0,0,0,48.6,0,0,91,4.141,4.145,0,0,0,0,3.782,81.68,28.736810958948,2.952756,6,P-GPS,
6200,2022-12-05 22:42:17,-34.9181279158287,-56.1685678537151,2.952756,3.116798,25.620012958948,28.736810958948,4.593176,0.223694,0.88165357152,2.83942922472,14,5,8.308,28.736810958948,2.952756,0.3131716,1.29939964788,0.223694,0,0,31.4, -2.7, 2.6,0,0,1024,1024,1024,1024,0,0,0,0,48.6,0,0,91,4.141,4.145,0,0,0,0,3.782,81.68,28.736810958948,2.952756,6,P-GPS,
6300,2022-12-05 22:42:17,-34.9181277414222,-56.1685678416967,2.952756,3.116798,25.620012958948,28.736810958948,4.593176,0,0.831856982,2.90316282256,14,5,8.308,28.736810958948,2.952756,0.3131716,1.29939964788,0,0,0,31.3, -2.7, 3.1,0,0,1166,1024,1024,1024,22,0,0,0,48.6,0,0,90,4.141,4.145,0,0,0,0,3.782,81.68,28.736810958948,2.952756,6,P-GPS,
6400,2022-12-05 22:42:17,-34.9181276753282,-56.1685678533308,2.952756,3.116798,25.620012958948,28.736810958948,4.593176,0,0.81688322824,2.92752962124,14,5,8.308,28.736810958948,2.952756,0.3131716,1.29939964788,0,0,0,31.1, -3.1, 2.6,0,0,1551,1024,1024,1024,80,0,0,0,48.6,0,0,90,4.141,4.145,0,0,0,0,3.782,81.68,28.736810958948,2.952756,6,P-GPS,
6500,2022-12-05 22:42:17,-34.9181275915271,-56.1685678696736,2.952756,3.116798,25.620012958948,28.736810958948,4.593176,0,0.79890750588,2.95849090832,14,5,8.308,28.736810958948,2.952756,0.3131716,1.29939964788,0,0,0,31, -7, 2.4,0,0,1567,1024,1024,1024,82,0,0,0,48.6,0,0,90,4.141,4.145,0,0,0,0,3.782,81.68,28.736810958948,2.952756,6,P-GPS,
6600,2022-12-05 22:42:17,-34.9181273610361,-56.1685679007496,2.952756,3.0839896,25.652821358948,28.736810958948,4.593176,0.223694,0.750574171,3.04309721024,14,5,8.308,28.736810958948,2.952756,0.3131716,1.29939964788,0.223694,0,0,30.8, -13.3, 2.4,0,0,1547,1024,1041,1024,79,0,3,0,48.6,0,0,90,4.141,4.145,0,0,0,0,3.782,81.68,28.736810958948,2.952756,6,P-GPS,
6700,2022-12-05 22:42:18,-34.9181270693523,-56.1685678043118,2.952756,3.0839896,25.652821358948,28.736810958948,4.593176,0.7158208,0.66491800028,3.15335968096,14,5,8.308,28.736810958948,2.952756,0.7158208,1.29939964788,0.671082,0.223694,0,30.7, -16.4, 2.2,0,0,1439,1024,1072,1024,63,0,7,0,48.6,0,0,90,4.141,4.145,0,0,0,0,3.782,81.68,28.736810958948,2.952756,6,P-GPS,
6800,2022-12-05 22:42:18,-34.9181267161698,-56.1685674783695,2.952756,3.0511812,25.685629758948,28.736810958948,4.265092,1.11847,0.51601379604,3.314960736,14,5,8.308,28.736810958948,2.952756,1.11847,1.29939964788,0.894776,0.671082,0,30.6, -16.4, 1.1,0,0,1367,1024,1080,1024,52,0,8,0,48.6,0,0,90,4.141,4.145,0,0,0,0,3.782,81.68,28.736810958948,2.952756,6,P-GPS,
6900,2022-12-05 22:42:18,-34.9181262498305,-56.1685670641665,2.952756,2.9855644,25.751246558948,28.736810958948,4.265092,1.6105968,0.34252953852,3.525426622,14,5,8.308,28.736810958948,2.952756,1.6105968,1.29939964788,1.342164,0.894776,0,30.4, -15, 0.2,0,0,1367,1024,1080,1024,52,0,8,0,48.5,0,0,90,4.141,4.145,0,0,0,0,3.782,81.68,28.736810958948,2.952756,6,P-GPS,
7000,2022-12-05 22:42:18,-34.9181255381233,-56.1685665283042,2.952756,2.9855644,25.751246558948,28.736810958948,4.265092,2.1027236,0.26487697698,3.8306103588,14,5,8.308,28.736810958948,2.952756,2.1027236,1.29939964788,1.789552,1.11847,0,30.3, -11.5, 0.1,0,0,1250,1024,1024,1024,34,0,0,0,48.5,0,0,90,4.141,4.145,0,0,0,0,3.782,81.68,28.736810958948,2.952756,6,P-GPS,
7100,2022-12-05 22:42:18,-34.9181247517098,-56.1685659376727,2.952756,2.9199476,25.816863358948,28.736810958948,4.593176,2.4158952,0.48440290264,4.1675854352,14,5,8.282,28.736810958948,2.952756,2.4158952,1.29939964788,2.013246,1.342164,0,30.4, -8.6, -0.2,0,0,1157,1024,1024,1024,20,0,0,0,48.5,0,0,90,4.142,4.134,0,0,0,0,4.424,81.68,28.736810958948,2.952756,6,P-GPS,
7200,2022-12-05 22:42:18,-34.9181238352199,-56.1685652477704,2.952756,2.8543308,25.882480158948,28.736810958948,4.593176,2.6172198,0.8444390034,4.560531642,14,5,8.282,28.736810958948,2.952756,2.6172198,1.29939964788,2.23694,1.342164,0,30.3, -5.3, 0,0,0,1117,1024,1024,1024,14,0,0,0,48.5,0,0,90,4.142,4.134,0,0,0,0,4.424,81.68,28.736810958948,2.952756,6,P-GPS,
7300,2022-12-05 22:42:18,-34.918122919416,-56.1685645822748,2.952756,2.8215224,25.915288558948,28.736810958948,4.593176,2.6172198,1.22219820184,4.949475224,14,5,8.282,28.736810958948,2.952756,2.6172198,1.29939964788,2.23694,1.342164,0,30.3, -3.3, 0.9,0,0,1066,1024,1024,1024,6,0,0,0,48.5,0,0,90,4.142,4.134,0,0,0,0,4.424,81.68,28.736810958948,2.952756,6,P-GPS,
7400,2022-12-05 22:42:18,-34.9181216294298,-56.1685636293207,2.952756,2.7559056,25.980905358948,28.736810958948,4.593176,2.3040482,1.76439638192,5.4997377088,14,5,8.282,28.736810958948,2.952756,2.6172198,1.76439638192,2.013246,1.11847,0,30.2, -2.7, 0.6,0,0,1063,1024,1282,1024,6,0,39,0,48.6,0,0,90,4.142,4.134,0,0,0,0,4.424,81.68,28.736810958948,2.952756,6,P-GPS,
7500,2022-12-05 22:42:18,-34.9181207168873,-56.168562966821,2.952756,2.6902888,26.046522158948,28.736810958948,6.233596,2.3040482,2.14898628924,5.8872049128,14,5,8.282,28.736810958948,2.952756,2.6172198,2.14898628924,2.013246,1.11847,0,30.1, -2.6, 1,0,0,1089,1024,1414,1024,10,0,59,0,48.5,0,0,90,4.142,4.134,0,0,0,0,4.424,81.68,28.736810958948,2.952756,6,P-GPS,
7600,2022-12-05 22:42:19,-34.9181198448156,-56.1685623144452,2.952756,2.624672,26.112138958948,28.736810958948,6.233596,1.9908766,2.5198163536,6.2604660796,14,5,8.282,28.736810958948,2.952756,2.6172198,2.5198163536,1.789552,0.894776,-0.223694,30.1, -3.2, 0.4,0,0,1083,1024,1457,1024,9,0,66,0,48.6,0,0,90,4.142,4.134,0,0,0,0,4.424,81.68,28.736810958948,2.952756,6,P-GPS,
7700,2022-12-05 22:42:19,-34.9181190749655,-56.1685617435639,2.952756,2.5590552,26.177755758948,28.736810958948,6.56168,1.9908766,2.84704405436,6.5892062476,14,5,8.282,28.736810958948,2.952756,2.6172198,2.84704405436,1.789552,0.894776,-0.894776,30, -4.3, 0.8,0,0,1083,1024,1457,1024,9,0,66,0,48.5,0,0,90,4.142,4.134,0,0,0,0,4.424,81.68,28.736810958948,2.952756,6,P-GPS,
7800,2022-12-05 22:42:19,-34.9181184838704,-56.1685613619221,3.28084,2.8215224,26.243372558948,29.064894958948,6.56168,1.8119214,3.090961385,6.8332023184,14,5,8.282,29.064894958948,3.28084,2.6172198,3.090961385,1.565858,0.894776,-1.565858,29.9, -4.8, 0.7,0,0,1040,1024,1536,1024,2,0,78,0,48.5,0,0,90,4.142,4.134,0,0,0,0,4.424,81.68,29.064894958948,3.28084,6,P-GPS,
7900,2022-12-05 22:42:19,-34.918117860454,-56.1685608822523,3.608924,3.1496064,26.243372558948,29.392978958948,6.889764,1.8119214,3.3585630996,7.1021655816,14,5,8.282,29.392978958948,3.608924,2.6172198,3.3585630996,1.565858,0.894776,-2.460634,29.9, -4.8, 0.5,0,0,1024,1024,1524,1024,0,0,76,0,48.5,0,0,90,4.142,4.134,0,0,0,0,4.424,81.68,29.392978958948,3.608924,6,P-GPS,
8000,2022-12-05 22:42:19,-34.9181172688419,-56.1685603633871,3.937008,3.4120736,26.308989358948,29.721062958948,7.545932,1.6105968,3.6214240004,7.3680120468,14,5,8.282,29.721062958948,3.937008,2.6172198,3.6214240004,1.342164,0.894776,-3.131716,29.8, 0.7, -0.6,0,0,1024,1024,1345,1024,0,0,49,0,48.6,0,0,90,4.142,4.134,0,0,0,0,4.424,81.68,29.721062958948,3.937008,6,P-GPS,
8100,2022-12-05 22:42:19,-34.9181167669645,-56.1685599322915,4.593176,4.0682416,26.308989358948,30.377230958948,7.874016,1.2974252,3.8434712516,7.5919949936,14,5,8.293,30.377230958948,4.593176,2.6172198,3.8434712516,1.11847,0.671082,-3.579104,29.8, 1.5, -0.3,0,0,1024,1024,1024,1024,0,0,0,0,48.5,0,0,90,4.09,4.087,0,0,0,0,3.867,81.68,30.377230958948,4.593176,6,P-GPS,
8200,2022-12-05 22:42:19,-34.918116506849,-56.1685597593336,4.92126,4.3963256,26.308989358948,30.705314958948,8.530184,1.11847,3.9515749296,7.7000658632,14,5,8.293,30.705314958948,4.92126,2.6172198,3.9515749296,0.894776,0.671082,-3.131716,29.9, 3.6, -0.8,0,0,1024,1024,1024,1024,0,0,0,0,48.5,0,0,90,4.09,4.087,0,0,0,0,3.867,81.68,30.705314958948,4.92126,6,P-GPS,
8300,2022-12-05 22:42:19,-34.9181161570527,-56.1685594987576,5.577428,4.9868768,26.374606158948,31.361482958948,8.858268,0.8052984,4.1008203412,7.8496393588,14,5,8.293,31.361482958948,5.577428,2.6172198,4.1008203412,0.671082,0.447388,-2.684328,29.9, 2.9, 0,0,0,1024,1024,1024,1024,0,0,0,0,48.5,0,0,90,4.09,4.087,0,0,0,0,3.867,81.68,31.361482958948,5.577428,6,P-GPS,
8400,2022-12-05 22:42:19,-34.9181159756742,-56.1685592498728,5.905512,5.3149608,26.374606158948,31.689566958948,9.186352,0.7158208,4.194389898,7.9492456612,14,5,8.293,31.689566958948,5.905512,2.6172198,4.194389898,0.671082,0.223694,-1.789552,30, 2.1, 0.9,0,0,1024,1024,1048,1024,0,0,4,0,48.6,0,0,90,4.09,4.087,0,0,0,0,3.867,81.68,31.689566958948,5.905512,6,P-GPS,
8500,2022-12-05 22:42:19,-34.918115848829,-56.1685590547216,5.905512,5.3149608,26.374606158948,31.689566958948,9.514436,0.4921268,4.2629922624,8.0237535376,14,5,8.293,31.689566958948,5.905512,2.6172198,4.2629922624,0.447388,0.223694,-1.11847,29.9, 1.6, 0.4,0,0,1024,1024,1684,1024,0,0,100,0,48.5,0,0,90,4.09,4.087,0,0,0,0,3.867,81.68,31.689566958948,5.905512,6,P-GPS,
8600,2022-12-05 22:42:20,-34.918115765999,-56.1685588061163,6.233596,5.6430448,26.374606158948,32.017650958948,9.514436,0.223694,4.3256891148,8.1040356924,14,5,8.293,32.017650958948,6.233596,2.6172198,4.3256891148,0.223694,0,-0.671082,29.8, 0.8, 0.1,0,0,1024,1024,1684,1024,0,0,100,0,48.5,0,0,90,4.09,4.087,0,0,0,0,3.867,81.68,32.017650958948,6.233596,6,P-GPS,
8700,2022-12-05 22:42:20,-34.9181156802761,-56.168558729144,6.233596,5.6430448,26.374606158948,32.017650958948,9.84252,0,4.3642389848,8.1428480296,14,5,8.293,32.017650958948,6.233596,2.6172198,4.3642389848,0,0,-0.671082,29.8, -0.3, 0.2,0,0,1024,1024,1684,1024,0,0,100,0,48.5,0,0,90,4.09,4.087,0,0,0,0,3.867,81.68,32.017650958948,6.233596,6,P-GPS,
8800,2022-12-05 22:42:20,-34.9181157718492,-56.168558798253,6.56168,5.9711288,26.374606158948,32.345734958948,9.84252,0,4.3250001384,8.1821524928,14,5,8.293,32.345734958948,6.56168,2.6172198,4.3642389848,0,0,-1.11847,29.7, -2.1, 0.8,0,0,1024,1024,1684,1024,0,0,100,0,48.5,0,0,90,4.09,4.087,0,0,0,0,3.867,81.68,32.345734958948,6.56168,6,P-GPS,
8900,2022-12-05 22:42:20,-34.9181158928516,-56.1685588969765,6.889764,6.2992128,26.374606158948,32.673818958948,10.170604,0,4.2720145724,8.2352692924,14,5,8.293,32.673818958948,6.889764,2.6172198,4.3642389848,0,0,-2.013246,29.7, -3.2, 0.4,0,0,1024,1024,1684,1024,0,0,100,0,48.5,0,0,90,4.09,4.087,0,0,0,0,3.867,81.68,32.673818958948,6.889764,6,P-GPS,
9000,2022-12-05 22:42:20,-34.9181160171116,-56.1685590435567,7.217848,6.6272968,26.374606158948,33.001902958948,10.498688,0,4.2109909484,8.2983270372,14,5,8.293,33.001902958948,7.217848,2.6172198,4.3642389848,0,0,-2.684328,29.7, -3.8, 0.2,0,0,1024,1024,1684,1024,0,0,100,0,48.6,0,0,90,4.09,4.087,0,0,0,0,3.867,81.68,33.001902958948,7.217848,6,P-GPS,
9100,2022-12-05 22:42:20,-34.9181163275867,-56.1685594440106,7.874016,7.2834648,26.374606158948,33.658070958948,10.826772,0,4.0538387124,8.4632220556,14,5,8.293,33.658070958948,7.874016,2.6172198,4.3642389848,0,0,-3.579104,29.7, -3.6, 0.7,0,0,1024,1024,1684,1024,0,0,100,0,48.5,0,0,90,4.09,4.087,0,0,0,0,3.867,81.68,33.658070958948,7.874016,6,P-GPS,
9200,2022-12-05 22:42:20,-34.9181164259756,-56.1685595392981,8.530184,7.9724412,26.341797758948,34.314238958948,11.48294,0,4.0086615456,8.5090553904,14,5,8.293,34.314238958948,8.530184,2.6172198,4.3642389848,0,0,-4.47388,29.7, -3.8, 1.2,0,0,1024,1024,1684,1024,0,0,100,0,48.6,0,0,90,4.09,4.087,0,0,0,0,3.867,81.68,34.314238958948,8.530184,6,P-GPS,
9300,2022-12-05 22:42:20,-34.9181165212632,-56.1685596144316,9.186352,8.6614176,26.308989358948,34.970406958948,12.467192,0,3.9673885784,8.5504595912,14,5,8.311,34.970406958948,9.186352,2.6172198,4.3642389848,0,0,-5.368656,29.6, -4.1, 0.3,0,0,1024,1024,1684,1024,0,0,100,0,48.5,0,0,90,4.083,4.077,0,0,0,0,4.414,81.68,34.970406958948,9.186352,6,P-GPS,
9400,2022-12-05 22:42:20,-34.9181165890594,-56.1685596657595,10.170604,9.6456696,26.308989358948,35.954658958948,13.12336,0,3.938320336,8.579560642,14,5,8.311,35.954658958948,10.170604,2.6172198,4.3642389848,0,0,-5.816044,29.7, -5.1, 0.7,0,0,1025,1024,1684,1024,0,0,100,0,48.5,0,0,90,4.083,4.077,0,0,0,0,4.414,81.68,35.954658958948,10.170604,6,P-GPS,
9500,2022-12-05 22:42:20,-34.9181165414502,-56.1685596051395,11.154856,10.6299216,26.308989358948,36.938910958948,14.107612,0,3.962270468,8.6046918764,14,5,8.311,36.938910958948,11.154856,2.6172198,4.3642389848,0,0,-6.039738,29.6, -4.8, 0.5,0,0,1188,1024,1684,1024,25,0,100,0,48.5,0,0,90,4.083,4.077,0,0,0,0,4.414,81.68,36.938910958948,11.154856,6,P-GPS,
9600,2022-12-05 22:42:21,-34.9181165267103,-56.1685596065526,12.139108,11.6141736,26.308989358948,37.923162958948,15.091864,0,3.9667652188,8.610072454,14,5,8.311,37.923162958948,12.139108,2.6172198,4.3642389848,0,0,-6.263432,29.6, -3.4, -0.5,0,0,1188,1024,1684,1024,25,0,100,0,48.5,0,0,90,4.083,4.077,0,0,0,0,4.414,81.68,37.923162958948,12.139108,6,P-GPS,
9700,2022-12-05 22:42:21,-34.9181165522004,-56.1685596133724,13.12336,12.5984256,26.308989358948,38.907414958948,16.076116,0,3.9576444836,8.61958689,14,5,8.311,38.907414958948,13.12336,2.6172198,4.3642389848,0,0,-6.487126,29.9, -4, -1,0,0,1642,1024,1684,1024,94,0,100,0,48.5,0,0,90,4.083,4.077,0,0,0,0,4.414,81.68,38.907414958948,13.12336,6,P-GPS,
9800,2022-12-05 22:42:21,-34.9181166973387,-56.1685596388392,14.435696,13.9107616,26.308989358948,40.219750958948,17.060368,0,3.9075132484,8.6730973904,14,5,8.311,40.219750958948,14.435696,2.6172198,4.3642389848,0,0,-6.487126,29.8, -12.2, -0.3,0,0,1684,1024,1684,1024,100,0,100,0,48.5,0,0,90,4.083,4.077,0,0,0,0,4.414,81.68,40.219750958948,14.435696,6,P-GPS,
9900,2022-12-05 22:42:21,-34.9181166654953,-56.1685594867242,15.419948,14.8622052,26.341797758948,41.204002958948,17.716536,0.4921268,3.939796714,8.7200790192,14,5,8.311,41.204002958948,15.419948,2.6172198,4.3642389848,0.447388,0.223694,-6.487126,30, -19, -0.7,0,0,1684,1024,1684,1024,100,0,100,0,48.5,0,0,90,4.083,4.077,0,0,0,0,4.414,81.68,41.204002958948,15.419948,6,P-GPS,
10000,2022-12-05 22:42:21,-34.9181163406272,-56.1685592807346,16.4042,15.8136488,26.374606158948,42.188254958948,18.700788,1.006623,4.073326902,8.8536420156,14,5,8.311,42.188254958948,16.4042,2.6172198,4.3642389848,0.894776,0.447388,-6.487126,29.9, -20.2, -0.1,0,0,1684,1024,1684,1024,100,0,100,0,48.5,0,0,90,4.083,4.077,0,0,0,0,4.414,81.68,42.188254958948,16.4042,6,P-GPS,
10100,2022-12-05 22:42:21,-34.9181157846341,-56.1685589575914,17.716536,17.1259848,26.374606158948,43.500590958948,19.356956,1.8119214,4.297572316,9.0783795556,14,5,8.311,43.500590958948,17.716536,2.6172198,4.3642389848,1.565858,0.894776,-6.487126,29.6, -20.1, 0.4,0,0,1684,1024,1684,1024,100,0,100,0,48.5,0,0,90,4.083,4.077,0,0,0,0,4.414,81.68,43.500590958948,17.716536,6,P-GPS,
10200,2022-12-05 22:42:21,-34.9181149125576,-56.1685585553222,18.700788,18.0774284,26.407414558948,44.484842958948,20.341208,2.5053728,4.6343833504,9.4185370468,14,5,8.311,44.484842958948,18.700788,2.6172198,4.6343833504,2.23694,1.11847,-6.487126,29.6, -18.4, 0.3,0,0,1684,1024,1684,1024,100,0,100,0,48.5,0,0,90,4.083,4.077,0,0,0,0,4.414,81.68,44.484842958948,18.700788,6,P-GPS,
10300,2022-12-05 22:42:21,-34.9181131060449,-56.1685581428428,20.013124,19.2913392,26.505839758948,45.797178958948,20.997376,3.3106712,5.2766405888,10.0891079344,14,5,8.161,45.797178958948,20.013124,3.3106712,5.2766405888,2.908022,1.565858,-6.487126,29.4, -19.1, 0.2,0,0,1684,1024,1684,1024,100,0,100,0,48.5,0,0,90,4.084,4.082,0,0,0,0,6.583,81.86,45.797178958948,20.013124,6,P-GPS,
10400,2022-12-05 22:42:21,-34.9181116054256,-56.1685574343259,20.997376,20.2099744,26.571456558948,46.781430958948,21.981628,3.3106712,5.8616799776,10.6762142524,14,5,8.161,46.781430958948,20.997376,3.3106712,5.8616799776,3.579104,1.789552,-6.487126,29.5, -17.4, -0.1,0,0,1684,1024,1684,1024,100,0,100,0,48.5,0,0,90,4.084,4.082,0,0,0,0,6.583,81.86,46.781430958948,20.997376,6,P-GPS,
10500,2022-12-05 22:42:21,-34.9181099490928,-56.1685566191529,22.309712,21.4238852,26.669881758948,48.093766958948,22.96588,4.697574,6.5121065076,11.3278546932,14,5,8.161,48.093766958948,22.309712,4.697574,6.5121065076,4.250186,2.013246,-6.487126,29.7, -15.8, 0.6,0,0,1684,1024,1684,1024,100,0,100,0,48.5,0,0,90,4.084,4.082,0,0,0,0,6.583,81.86,48.093766958948,22.309712,6,P-GPS,
10600,2022-12-05 22:42:21,-34.918108008538,-56.1685555089742,23.293964,22.309712,26.768306958948,49.078018958948,23.950132,5.3015478,7.29412753,12.109908524,14,5,8.161,49.078018958948,23.293964,5.3015478,7.29412753,4.697574,2.460634,-6.487126,29.5, -14.6, 2.7,0,0,1684,1024,1684,1024,100,0,100,0,48.6,0,0,90,4.084,4.082,0,0,0,0,6.583,81.86,49.078018958948,23.293964,6,P-GPS,
10700,2022-12-05 22:42:22,-34.9181060088006,-56.1685543261316,24.6063,23.4908144,26.899540558948,50.390354958948,24.934384,5.7936746,8.104987136,12.9208009384,14,5,8.161,50.390354958948,24.6063,5.7936746,8.104987136,5.144962,2.684328,-6.487126,29.5, -14.3, 2,0,0,1684,1024,1684,1024,100,0,100,0,48.6,0,0,90,4.084,4.082,0,0,0,0,6.583,81.86,50.390354958948,24.6063,6,P-GPS,
10800,2022-12-05 22:42:22,-34.9181035080301,-56.1685524340812,25.918636,24.6391084,27.063582558948,51.702690958948,25.918636,6.1963238,9.172736514,13.9945214452,14,5,8.161,51.702690958948,25.918636,6.1963238,9.172736514,5.59235,2.684328,-6.263432,29.5, -14.4, 2.2,0,0,1684,1024,1684,1024,100,0,100,0,48.5,0,0,90,4.084,4.082,0,0,0,0,6.583,81.86,51.702690958948,25.918636,6,P-GPS,
10900,2022-12-05 22:42:22,-34.9181012306789,-56.1685510019476,27.230972,25.8202108,27.194816158948,53.015026958948,26.902888,6.5094954,10.1074150216,14.9293639948,14,5,8.161,53.015026958948,27.230972,6.5094954,10.1074150216,5.816044,2.908022,-6.263432,29.5, -13.6, 2.2,0,0,1684,1024,1684,1024,100,0,100,0,48.5,0,0,90,4.084,4.082,0,0,0,0,6.583,81.86,53.015026958948,27.230972,6,P-GPS,
11000,2022-12-05 22:42:22,-34.9180986140462,-56.1685493499431,28.543308,27.0013132,27.326049758948,54.327362958948,27.88714,7.0016222,11.182251014,16.0043968376,14,5,8.161,54.327362958948,28.543308,7.0016222,11.182251014,6.263432,3.131716,-6.263432,29.5, -13.7, 3.5,0,0,1684,1024,1684,1024,100,0,100,0,48.5,0,0,90,4.084,4.082,0,0,0,0,6.583,81.86,54.327362958948,28.543308,6,P-GPS,
11100,2022-12-05 22:42:22,-34.9180960452833,-56.1685477027394,29.855644,28.1824156,27.457283358948,55.639698958948,28.871392,7.493749,12.2408468484,17.0632551392,14,5,8.161,55.639698958948,29.855644,7.493749,12.2408468484,6.71082,3.35541,-6.263432,29.2, -13.6, 2.5,0,0,1684,1024,1684,1024,100,0,100,0,48.5,0,0,90,4.084,4.082,0,0,0,0,6.583,81.86,55.639698958948,29.855644,6,P-GPS,
11200,2022-12-05 22:42:22,-34.9180934972244,-56.1685456491383,31.16798,29.2979012,27.654133758948,56.952034958948,29.855644,7.8069206,13.3475397972,18.1775596368,14,5,8.161,56.952034958948,31.16798,7.8069206,13.3475397972,6.934514,3.579104,-6.263432,29, -13.8, 3,0,0,1684,1024,1684,1024,100,0,100,0,48.5,0,0,90,4.084,4.082,0,0,0,0,6.583,81.86,56.952034958948,31.16798,6,P-GPS,
11300,2022-12-05 22:42:22,-34.9180908664829,-56.1685438998429,32.480316,30.4790036,27.785367358948,58.264370958948,30.839896,8.0977228,14.4404204096,19.2708011416,14,5,8.134,58.264370958948,32.480316,8.0977228,14.4404204096,7.158208,3.802798,-6.263432,29.3, -13.4, 3.4,0,0,1684,1024,1684,1024,100,0,100,0,48.5,0,0,90,4.038,4.037,0,0,0,0,6.241,81.86,58.264370958948,32.480316,6,P-GPS,
11400,2022-12-05 22:42:22,-34.918088005994,-56.1685419921651,33.792652,31.5944892,27.982217758948,59.576706958948,31.824148,8.4108944,15.6295280592,20.460302492,14,5,8.134,59.576706958948,33.792652,8.4108944,15.6295280592,7.381902,4.026492,-6.263432,29.4, -13.8, 4.3,0,0,1684,1024,1684,1024,100,0,100,0,48.5,0,0,90,4.038,4.037,0,0,0,0,6.241,81.86,59.576706958948,33.792652,6,P-GPS,
11500,2022-12-05 22:42:22,-34.9180851715211,-56.1685400514876,35.104988,32.7427832,28.146259758948,60.889042958948,32.8084,8.9030212,16.8148299344,21.6462933436,14,5,8.134,60.889042958948,35.104988,8.9030212,16.8148299344,7.82929,4.250186,-6.487126,28.9, -13.2, 3.2,0,0,1684,1024,1684,1024,100,0,100,0,48.5,0,0,90,4.038,4.037,0,0,0,0,6.241,81.86,60.889042958948,35.104988,6,P-GPS,
11600,2022-12-05 22:42:23,-34.9180822532485,-56.1685379411726,36.417324,33.8910772,28.310301758948,62.201378958948,33.792652,9.0148682,18.0508207876,22.8841214672,14,5,8.134,62.201378958948,36.417324,9.0148682,18.0508207876,7.82929,4.47388,-6.71082,28.9, -12.6, 2.2,0,0,1684,1024,1684,1024,100,0,100,0,48.5,0,0,90,4.038,4.037,0,0,0,0,6.241,81.86,62.201378958948,36.417324,6,P-GPS,
11700,2022-12-05 22:42:23,-34.9180792193238,-56.1685357940445,37.72966,35.0065628,28.507152158948,63.513714958948,34.776904,9.3280398,19.3294953692,24.1639115344,14,5,8.134,63.513714958948,37.72966,9.3280398,19.3294953692,8.052984,4.697574,-6.71082,29.8, -14.6, 0.3,0,0,1684,1024,1684,1024,100,0,100,0,48.5,0,0,90,4.038,4.037,0,0,0,0,6.241,81.86,63.513714958948,37.72966,6,P-GPS,
11800,2022-12-05 22:42:23,-34.9180760055798,-56.1685334654415,39.041996,36.1220484,28.704002558948,64.826050958948,35.761156,9.618842,20.6917329456,25.5277895308,14,5,8.134,64.826050958948,39.041996,9.618842,20.6917329456,8.276678,4.921268,-6.934514,30.3, -14.2, 0,0,0,1684,1024,1684,1024,100,0,100,0,48.5,0,0,90,4.038,4.037,0,0,0,0,6.241,81.86,64.826050958948,39.041996,6,P-GPS,
11900,2022-12-05 22:42:23,-34.9180728497791,-56.168531177264,40.026248,36.90945,28.900852958948,65.810302958948,37.073492,9.8201666,22.0298235396,26.867290886,14,5,8.134,65.810302958948,40.026248,9.8201666,22.0298235396,8.500372,4.921268,-6.934514,30.4, -14.2, 0.2,0,0,1684,1024,1684,1024,100,0,100,0,48.5,0,0,90,4.038,4.037,0,0,0,0,6.241,81.86,65.810302958948,40.026248,6,P-GPS,
12000,2022-12-05 22:42:23,-34.9180698905186,-56.1685286547818,41.338584,38.057744,29.064894958948,67.122638958948,38.057744,10.1333382,23.3383865736,28.1845809544,14,5,8.134,67.122638958948,41.338584,10.1333382,23.3383865736,8.724066,5.144962,-6.71082,30.4, -14.6, 0,0,0,1684,1024,1684,1024,100,0,100,0,48.5,0,0,90,4.038,4.037,0,0,0,0,6.241,81.86,67.122638958948,41.338584,6,P-GPS,
12100,2022-12-05 22:42:23,-34.9180665700496,-56.1685262279424,42.322836,38.8123372,29.294553758948,68.106890958948,39.041996,10.3122934,24.7496070912,29.596949766,14,5,8.134,68.106890958948,42.322836,10.3122934,24.7496070912,8.94776,5.144962,-6.71082,30.4, -14.7, 1.1,0,0,1684,1024,1684,1024,100,0,100,0,48.5,0,0,90,4.038,4.037,0,0,0,0,6.241,81.86,68.106890958948,42.322836,6,P-GPS,
12200,2022-12-05 22:42:23,-34.9180629980772,-56.1685236406492,43.307088,39.5997388,29.491404158948,69.091142958948,40.026248,10.513618,26.2644693444,31.112697846,14,5,8.134,69.091142958948,43.307088,10.513618,26.2644693444,9.171454,5.144962,-6.71082,30.1, -14.6, 1.4,0,0,1684,1024,1684,1024,100,0,100,0,48.5,0,0,90,4.038,4.037,0,0,0,0,6.241,81.86,69.091142958948,43.307088,6,P-GPS,
12300,2022-12-05 22:42:23,-34.9180594284889,-56.1685210713787,44.29134,40.3215236,29.753871358948,70.075394958948,41.0105,10.8267896,27.776083566,32.6249682356,14,5,8.001,70.075394958948,44.29134,10.8267896,27.776083566,9.395148,5.368656,-6.71082,30.2, -14.8, 1.9,0,0,1684,1024,1684,1024,100,0,100,0,48.5,0,0,90,4.035,4.028,0,0,0,0,8.477,81.86,70.075394958948,44.29134,6,P-GPS,
12400,2022-12-05 22:42:23,-34.9180552762824,-56.1685181320277,45.275592,41.1089252,29.950721758948,71.059646958948,41.0105,11.1175918,29.5273303412,34.37664152,14,5,8.001,71.059646958948,45.275592,11.1175918,29.5273303412,9.618842,5.59235,-6.71082,30.1, -14.5, 0.6,0,0,1684,1024,1684,1024,100,0,100,0,48.5,0,0,90,4.035,4.028,0,0,0,0,8.477,81.86,71.059646958948,45.275592,6,P-GPS,
12500,2022-12-05 22:42:23,-34.9180509665989,-56.1685150373947,46.259844,42.0603688,29.983530158948,72.043898958948,41.0105,11.3189164,31.3514445728,36.201444728,14,5,8.001,72.043898958948,46.259844,11.3189164,31.3514445728,9.842536,5.59235,-6.71082,30.2, -14.9, 1.9,0,0,1684,1024,1684,1024,100,0,100,0,48.6,0,0,90,4.035,4.028,0,0,0,0,8.477,81.86,72.043898958948,46.259844,6,P-GPS,
12600,2022-12-05 22:42:24,-34.9180467882656,-56.1685121297426,47.244096,43.0118124,30.016338558948,73.028150958948,41.0105,11.520241,33.106628356,37.956366044,14,5,8.001,73.028150958948,47.244096,11.520241,33.106628356,10.06623,5.59235,-6.487126,30.2, -15.2, 3,0,0,1684,1024,1684,1024,100,0,100,0,48.5,0,0,90,4.035,4.028,0,0,0,0,8.477,81.86,73.028150958948,47.244096,6,P-GPS,
12700,2022-12-05 22:42:24,-34.918042773389,-56.168509358582,47.900264,43.635172,30.049146958948,73.684318958948,41.0105,11.520241,34.789699276,39.639765048,13,5,8.001,73.684318958948,47.900264,11.520241,34.789699276,10.06623,5.59235,-6.487126,30.1, -16.3, 2.8,0,0,1684,1024,1684,1024,100,0,100,0,48.6,0,0,90,4.035,4.028,0,0,0,0,8.477,81.86,73.684318958948,47.900264,6,P-GPS,
12800,2022-12-05 22:42:24,-34.9180385648449,-56.1685064904491,48.884516,44.5866156,30.081955358948,74.668570958948,41.0105,11.8110432,36.5485576,41.398623372,13,5,8.001,74.668570958948,48.884516,11.8110432,36.5485576,10.289924,5.816044,-6.487126,29.9, -16.7, 2.1,0,0,1684,1024,1684,1024,100,0,100,0,48.5,0,0,90,4.035,4.028,0,0,0,0,8.477,81.86,74.668570958948,48.884516,6,P-GPS,
12900,2022-12-05 22:42:24,-34.9180346109959,-56.1685039154897,49.868768,45.5708676,30.081955358948,75.652822958948,41.0105,12.0123678,38.183728256,43.034122112,13,5,8.001,75.652822958948,49.868768,12.0123678,38.183728256,10.513618,5.816044,-6.487126,30.1, -16.4, 2.6,0,0,1684,1024,1684,1024,100,0,100,0,48.6,0,0,90,4.035,4.028,0,0,0,0,8.477,81.86,75.652822958948,49.868768,6,P-GPS,
13000,2022-12-05 22:42:24,-34.9180303038267,-56.1685009313172,50.85302,46.5551196,30.081955358948,76.637074958948,41.0105,12.3255394,39.991143012,44.841208784,13,5,8.001,76.637074958948,50.85302,12.3255394,39.991143012,10.737312,6.039738,-6.487126,30, -15.5, 2.9,0,0,1684,1024,1684,1024,100,0,100,0,48.5,0,0,90,4.035,4.028,0,0,0,0,8.477,81.86,76.637074958948,50.85302,6,P-GPS,
13100,2022-12-05 22:42:24,-34.9180261476077,-56.1684980293697,51.837272,47.5065632,30.114763758948,77.621326958948,41.0105,12.4373864,41.738190312,46.588584168,14,5,8.001,77.621326958948,51.837272,12.4373864,41.738190312,10.737312,6.263432,-6.71082,30.1, -16.4, 1.6,0,0,1684,1024,1684,1024,100,0,100,0,48.5,0,0,90,4.035,4.028,0,0,0,0,8.477,81.86,77.621326958948,51.837272,6,P-GPS,
13200,2022-12-05 22:42:24,-34.9180217216076,-56.1684949717118,52.821524,48.4580068,30.147572158948,78.605578958948,41.0105,12.6163416,43.5941615,48.444555356,14,5,8.001,78.605578958948,52.821524,12.6163416,43.5941615,10.961006,6.263432,-6.71082,30.2, -16, 0.9,0,0,1684,1024,1684,1024,100,0,100,0,48.5,0,0,90,4.035,4.028,0,0,0,0,8.477,81.86,78.605578958948,52.821524,6,P-GPS,
13300,2022-12-05 22:42:24,-34.918017824676,-56.1684923611825,53.477692,49.0813664,30.180380558948,79.261746958948,41.0105,12.6163416,45.216208796,50.066602652,14,5,8.063,79.261746958948,53.477692,12.6163416,45.216208796,10.961006,6.263432,-6.71082,30.2, -16, 2.5,0,0,1684,1024,1684,1024,100,0,100,0,48.5,0,0,90,4.013,4.012,0,0,0,0,7.684,81.86,79.261746958948,53.477692,6,P-GPS,
13400,2022-12-05 22:42:24,-34.9180132521355,-56.1684891429351,54.461944,50.03281,30.213188958948,80.245998958948,41.0105,12.9295132,47.142061876,51.992783816,14,5,8.063,80.245998958948,54.461944,12.9295132,47.142061876,11.1847,6.487126,-6.71082,30.1, -18, 1.6,0,0,1684,1024,1684,1024,100,0,100,0,48.5,0,0,90,4.013,4.012,0,0,0,0,7.684,81.86,80.245998958948,54.461944,6,P-GPS,
13500,2022-12-05 22:42:24,-34.9180088796201,-56.1684860393483,55.446196,50.9842536,30.245997358948,81.230250958948,41.0105,12.9295132,48.98786246,53.838912484,14,5,8.063,81.230250958948,55.446196,12.9295132,48.98786246,11.1847,6.487126,-6.487126,29.8, -18.9, 1.1,0,0,1409,1024,1684,1024,58,0,100,0,48.5,0,0,90,4.013,4.012,0,0,0,0,7.684,81.86,81.230250958948,55.446196,6,P-GPS,
13600,2022-12-05 22:42:25,-34.9180042577182,-56.1684827234809,56.430448,51.9356972,30.278805758948,82.214502958948,41.0105,13.1308378,50.943571184,55.795277376,14,5,8.063,82.214502958948,56.430448,13.1308378,50.943571184,11.408394,6.487126,-6.263432,30.1, -19, 1.5,0,0,1024,1024,1684,1024,0,0,100,0,48.6,0,0,90,4.013,4.012,0,0,0,0,7.684,81.86,82.214502958948,56.430448,6,P-GPS,
13700,2022-12-05 22:42:25,-34.9179999944258,-56.1684796582326,57.4147,52.8871408,30.311614158948,83.198754958948,41.0105,13.1308378,52.749017436,57.600723628,14,5,8.063,83.198754958948,57.4147,13.1308378,52.749017436,11.408394,6.487126,-6.263432,30.2, -8.7, 0.8,0,0,1024,1024,1684,1024,0,0,100,0,48.6,0,0,90,4.013,4.012,0,0,0,0,7.684,81.86,83.198754958948,57.4147,6,P-GPS,
13800,2022-12-05 22:42:25,-34.9179953760674,-56.1684764664393,58.398952,53.805776,30.377230958948,84.183006958948,41.0105,12.5044946,54.685697288,59.537731564,14,5,8.063,84.183006958948,58.398952,13.1308378,54.685697288,10.961006,6.039738,-6.71082,30.1, 19.3, 0.4,0,0,1024,1024,1684,1024,0,0,100,0,48.6,0,0,90,4.013,4.012,0,0,0,0,7.684,81.86,84.183006958948,58.398952,6,P-GPS,
13900,2022-12-05 22:42:25,-34.9179914245373,-56.1684737875128,59.383204,54.790028,30.377230958948,85.167258958948,41.0105,10.7149426,56.33530364,61.187009832,14,5,8.063,85.167258958948,59.383204,13.1308378,56.33530364,9.395148,5.144962,-7.381902,31, 22.3, 0.9,0,0,1024,1024,1684,1024,0,0,100,0,48.5,0,0,90,4.013,4.012,0,0,0,0,7.684,81.86,85.167258958948,59.383204,6,P-GPS,
14000,2022-12-05 22:42:25,-34.9179878492429,-56.1684714117322,60.039372,55.3805792,30.442847758948,85.823426958948,41.0105,10.7149426,57.820539908,62.672574184,14,5,8.063,85.823426958948,60.039372,13.1308378,57.820539908,8.276678,4.250186,-7.158208,31.1, 22.8, 1.3,0,0,1024,1024,1684,1024,0,0,100,0,48.6,0,0,90,4.013,4.012,0,0,0,0,7.684,81.86,85.823426958948,60.039372,6,P-GPS,
14100,2022-12-05 22:42:25,-34.9179849143309,-56.1684695277033,61.023624,56.3648312,30.442847758948,86.807678958948,41.0105,7.8069206,59.030185616,63.882547976,14,5,8.063,86.807678958948,61.023624,13.1308378,59.030185616,6.934514,3.579104,-7.381902,31.2, 22.3, 1.5,0,0,1024,1024,1684,1024,0,0,100,0,48.6,0,0,90,4.013,4.012,0,0,0,0,7.684,81.86,86.807678958948,61.023624,6,P-GPS,
14200,2022-12-05 22:42:25,-34.9179824779181,-56.168467976158,61.679792,57.0209992,30.442847758948,87.463846958948,41.0105,6.1963238,60.032482236,64.885500764,14,5,8.063,87.463846958948,61.679792,13.1308378,60.032482236,5.59235,2.684328,-7.158208,31.4, 22.2, 2.5,0,0,1024,1024,1684,1024,0,0,100,0,48.5,0,0,90,4.013,4.012,0,0,0,0,7.684,81.86,87.463846958948,61.679792,6,P-GPS,
14300,2022-12-05 22:42:25,-34.9179805300125,-56.168466769007,62.33596,57.6443588,30.475656158948,88.120014958948,41.0105,4.697574,60.829070188,65.682744884,14,5,8.046,88.120014958948,62.33596,13.1308378,60.829070188,4.250186,2.013246,-6.487126,31, 18.8, 2.6,0,0,1024,1024,1684,1024,0,0,100,0,48.6,0,0,90,4.081,4.057,0,0,0,0,8.011,82.04,88.120014958948,62.33596,6,P-GPS,
14400,2022-12-05 22:42:25,-34.9179792598913,-56.1684659598167,62.992128,58.3005268,30.475656158948,88.776182958948,41.0105,3.7133204,61.351708,66.205382696,14,5,8.046,88.776182958948,62.992128,13.1308378,61.351708,3.35541,1.565858,-6.263432,31, 18.5, 2.9,0,0,1024,1024,1684,1024,0,0,100,0,48.6,0,0,90,4.081,4.057,0,0,0,0,8.011,82.04,88.776182958948,62.992128,6,P-GPS,
14500,2022-12-05 22:42:25,-34.9179784972584,-56.1684654654323,63.648296,58.9238864,30.508464558948,89.432350958948,41.0105,2.5053728,61.666996724,66.52067142,14,5,8.046,89.432350958948,63.648296,13.1308378,61.666996724,2.23694,1.11847,-6.039738,30.7, 18, 0.6,0,0,1024,1024,1684,1024,0,0,100,0,48.6,0,0,90,4.081,4.057,0,0,0,0,8.011,82.04,89.432350958948,63.648296,6,P-GPS,
14600,2022-12-05 22:42:26,-34.9179795474615,-56.1684664405248,64.304464,59.5800544,30.508464558948,90.088518958948,41.0105,1.4987498,61.189962588,67.002298732,14,5,8.046,90.088518958948,64.304464,13.1308378,61.666996724,1.342164,0.671082,-6.039738,30.5, 11.6, 0.6,0,0,1048,1024,1684,1024,4,0,100,0,48.6,0,0,90,4.081,4.057,0,0,0,0,8.011,82.04,90.088518958948,64.304464,6,P-GPS,
14700,2022-12-05 22:42:26,-34.9179795800955,-56.1684666070853,65.288716,60.6299232,30.442847758948,91.072770958948,41.0105,0.7158208,61.155513768,67.053479836,14,5,8.046,91.072770958948,65.288716,13.1308378,61.666996724,0.671082,0.223694,-6.039738,30.4, 4.6, 1.3,0,0,1317,1024,1684,1024,44,0,100,0,48.5,0,0,90,4.081,4.057,0,0,0,0,8.011,82.04,91.072770958948,65.288716,6,P-GPS,
14800,2022-12-05 22:42:26,-34.9179798290781,-56.1684668971923,66.272968,61.6141752,30.442847758948,92.057022958948,41.0105,0.223694,61.033794604,67.179136008,14,5,8.046,92.057022958948,66.272968,13.1308378,61.666996724,0.223694,0,-5.816044,30.5, 0, 0.7,0,0,1535,1024,1684,1024,77,0,100,0,48.5,0,0,90,4.081,4.057,0,0,0,0,8.011,82.04,92.057022958948,66.272968,6,P-GPS,
14900,2022-12-05 22:42:26,-34.9179801572812,-56.1684672072653,67.25722,62.5984272,30.442847758948,93.041274958948,41.0105,0.223694,60.8841883,67.330710816,14,5,8.046,93.041274958948,67.25722,13.1308378,61.666996724,0.223694,0,-6.039738,30.5, -5.5, 0,0,0,1615,1024,1684,1024,90,0,100,0,48.5,0,0,90,4.081,4.057,0,0,0,0,8.011,82.04,93.041274958948,67.25722,6,P-GPS,
15000,2022-12-05 22:42:26,-34.9179809144946,-56.1684675426639,68.241472,63.5826792,30.442847758948,94.025526958948,41.0105,0.447388,60.59383396,67.624345996,14,5,8.046,94.025526958948,68.241472,13.1308378,61.666996724,0.447388,0,-6.039738,30.8, -13, 1.3,0,0,1615,1024,1684,1024,90,0,100,0,48.5,0,0,90,4.081,4.057,0,0,0,0,8.011,82.04,94.025526958948,68.241472,6,P-GPS,
15100,2022-12-05 22:42:26,-34.9179810528863,-56.1684676347413,69.553808,64.8950152,30.442847758948,95.337862958948,41.0105,0.9171454,60.53641926,67.68208878,14,5,8.046,95.337862958948,69.553808,13.1308378,61.666996724,0.894776,0.223694,-6.263432,30.8, -15.3, 2,0,0,1682,1024,1684,1024,100,0,100,0,48.6,0,0,90,4.081,4.057,0,0,0,0,8.011,82.04,95.337862958948,69.553808,6,P-GPS,
15200,2022-12-05 22:42:26,-34.9179809399896,-56.1684675844033,70.866144,66.2073512,30.442847758948,96.650198958948,41.0105,1.4092722,60.579726348,67.725723952,14,5,8.046,96.650198958948,70.866144,13.1308378,61.666996724,1.342164,0.447388,-6.263432,30.2, -17.2, 1.4,0,0,1684,1024,1684,1024,100,0,100,0,48.6,0,0,90,4.081,4.057,0,0,0,0,8.011,82.04,96.650198958948,70.866144,6,P-GPS,
15300,2022-12-05 22:42:26,-34.9179805986026,-56.1684673889752,72.17848,67.4868788,30.475656158948,97.962534958948,41.0105,1.901399,60.717193544,67.863519232,14,5,8.046,97.962534958948,72.17848,13.1308378,61.666996724,1.789552,0.671082,-6.487126,30.6, -18, 1.3,0,0,1684,1024,1684,1024,100,0,100,0,48.5,0,0,90,4.081,4.057,0,0,0,0,8.011,82.04,97.962534958948,72.17848,6,P-GPS,
15400,2022-12-05 22:42:26,-34.9179792011371,-56.1684665482323,73.490816,68.8320232,30.442847758948,99.274870958948,41.0105,2.5053728,61.284778864,68.432088804,14,5,8.148,99.274870958948,73.490816,13.1308378,61.666996724,2.23694,1.11847,-6.487126,30.4, -18.2, 2.5,0,0,1684,1024,1684,1024,100,0,100,0,48.6,0,0,90,4.02,4.023,0,0,0,0,5.852,82.04,99.274870958948,73.490816,6,P-GPS,
15500,2022-12-05 22:42:26,-34.9179782154725,-56.1684659614884,74.803152,70.1443592,30.442847758948,100.58720695895,41.0105,2.9974996,61.684385176,68.8320232,14,5,8.148,100.58720695895,74.803152,13.1308378,61.684385176,2.684328,1.342164,-6.487126,30.3, -17.8, 2.1,0,0,1684,1024,1684,1024,100,0,100,0,48.5,0,0,90,4.02,4.023,0,0,0,0,5.852,82.04,100.58720695895,74.803152,6,P-GPS,
15600,2022-12-05 22:42:27,-34.9179767737003,-56.168465007417,76.115488,71.4238868,30.475656158948,101.89954295895,41.0105,3.5119958,62.283138476,69.4307765,14,5,8.148,101.89954295895,76.115488,13.1308378,62.283138476,3.131716,1.565858,-6.71082,30.1, -17.7, 2.1,0,0,1684,1024,1684,1024,100,0,100,0,48.5,0,0,90,4.02,4.023,0,0,0,0,5.852,82.04,101.89954295895,76.115488,6,P-GPS,
15700,2022-12-05 22:42:27,-34.9179752149928,-56.1684639918388,77.09974,72.4081388,30.475656158948,102.88379495895,41.0105,4.0041226,62.927823536,70.07546156,14,5,8.148,102.88379495895,77.09974,13.1308378,62.927823536,3.579104,1.789552,-6.934514,29.6, -18.3, 3.3,0,0,1684,1024,1684,1024,100,0,100,0,48.5,0,0,90,4.02,4.023,0,0,0,0,5.852,82.04,102.88379495895,77.09974,6,P-GPS,
15800,2022-12-05 22:42:27,-34.9179733689496,-56.1684627919909,78.412076,73.7204748,30.475656158948,104.19613095895,41.0105,4.2949248,63.690618836,70.838584944,14,5,8.148,104.19613095895,78.412076,13.1308378,63.690618836,3.802798,2.013246,-6.934514,29.8, -19.2, 2.8,0,0,1684,1024,1684,1024,100,0,100,0,48.6,0,0,90,4.02,4.023,0,0,0,0,5.852,82.04,104.19613095895,78.412076,6,P-GPS,
15900,2022-12-05 22:42:27,-34.9179700958423,-56.1684605108579,79.396328,74.6719184,30.508464558948,105.18038295895,41.0105,4.809421,65.065946964,72.213913072,14,5,8.148,105.18038295895,79.396328,13.1308378,65.065946964,4.250186,2.23694,-7.158208,29.9, -19.3, 2.1,0,0,1684,1024,1684,1024,100,0,100,0,48.5,0,0,90,4.02,4.023,0,0,0,0,5.852,82.04,105.18038295895,79.396328,6,P-GPS,
16000,2022-12-05 22:42:27,-34.9179679540215,-56.1684590723903,80.38058,75.5905536,30.574081358948,106.16463495895,41.0105,5.3015478,65.958335444,73.106301552,14,5,8.148,106.16463495895,80.38058,13.1308378,65.958335444,4.697574,2.460634,-6.934514,29.9, -19.7, 2.8,0,0,1684,1024,1684,1024,100,0,100,0,48.5,0,0,90,4.02,4.023,0,0,0,0,5.852,82.04,106.16463495895,80.38058,6,P-GPS,
16100,2022-12-05 22:42:27,-34.9179658021826,-56.1684576413616,81.364832,76.5748056,30.574081358948,107.14888695895,41.0105,5.5028724,66.852364344,74.000330452,14,5,8.148,107.14888695895,81.364832,13.1308378,66.852364344,4.921268,2.460634,-6.71082,29.8, -19.1, 2.9,0,0,1684,1024,1684,1024,100,0,100,0,48.5,0,0,90,4.02,4.023,0,0,0,0,5.852,82.04,107.14888695895,81.364832,6,P-GPS,
