time(millisecond),datetime(utc),latitude,longitude,height_above_takeoff(feet),height_above_ground_at_drone_location(feet),ground_elevation_at_drone_location(feet),altitude_above_seaLevel(feet),height_sonar(feet),speed(mph),distance(feet),mileage(feet),satellites,gpslevel,voltage(v),max_altitude(feet),max_ascent(feet),max_speed(mph),max_distance(feet), xSpeed(mph), ySpeed(mph), zSpeed(mph), compass_heading(degrees), pitch(degrees), roll(degrees),isPhoto,isVideo,rc_elevator,rc_aileron,rc_throttle,rc_rudder,rc_elevator(percent),rc_aileron(percent),rc_throttle(percent),rc_rudder(percent),gimbal_heading(degrees),gimbal_pitch(degrees),gimbal_roll(degrees),battery_percent,voltageCell1,voltageCell2,voltageCell3,voltageCell4,voltageCell5,voltageCell6,current(A),battery_temperature(f),altitude(feet),ascent(feet),flycStateRaw,flycState,message
0,2023-01-03 17:50:06,-34.9536553943355,-54.9408178097906,0,0,14.891811172076,14.891811172076,0.328084,0,0,0,22,5,0,14.891811172076,0,0,0,0,0,0,252.4, -3, 0.1,0,0,364,364,364,1684,-100,-100,-100,100,263.6,0,0,93,4.289,4.289,0,0,0,0,0,88.16,14.891811172076,0,6,P-GPS,"Error de calibración del estabilizador. Reinicia la aeronave o contacta con la Asistencia DJI (Code: 40011)"
100,2023-01-03 17:50:06,-34.953655371158,-54.9408177927053,0,0,14.891811172076,14.891811172076,0.328084,0,0.0098798887676,0.0098798887676,22,5,0,14.891811172076,0,0,0.0098798887676,0,0,0,253.2, -3.6, -0.6,0,0,364,364,364,1684,-100,-100,-100,100,263.9,0,0,93,4.289,4.289,0,0,0,0,0,88.16,14.891811172076,0,41,Motors_Started,"Error de calibración del estabilizador. Reinicia la aeronave o contacta con la Asistencia DJI (Code: 40011)"
200,2023-01-03 17:50:06,-34.9536553350645,-54.9408177732994,0,0,14.891811172076,14.891811172076,0.328084,0,0.0242222448696,0.024270506026,22,5,0,14.891811172076,0,0,0.0242222448696,0,0,0,253, -3.5, -0.1,0,0,364,364,364,1684,-100,-100,-100,100,264.4,0,0,93,4.289,4.289,0,0,0,0,0,88.16,14.891811172076,0,41,Motors_Started,
300,2023-01-03 17:50:06,-34.9536552783239,-54.9408177247508,0,0,14.891811172076,14.891811172076,0.328084,0,0.049378610504,0.04955544778,22,5,0,14.891811172076,0,0,0.049378610504,0,0,0,253.2, -2.2, 1,0,0,364,364,364,1684,-100,-100,-100,100,264.5,0,0,93,4.289,4.289,0,0,0,0,0,88.16,14.891811172076,0,41,Motors_Started,
400,2023-01-03 17:50:06,-34.9536552577917,-54.9408176378033,0,0,14.891811172076,14.891811172076,0.328084,0,0.071602364496,0.076613519512,22,5,0,14.891811172076,0,0,0.071602364496,0,0,0,254.5, -2.1, 0.8,0,0,364,364,364,1684,-100,-100,-100,100,265.2,0,0,93,4.289,4.289,0,0,0,0,0,88.16,14.891811172076,0,41,Motors_Started,
500,2023-01-03 17:50:06,-34.9536552865902,-54.940817416747,0,-0.032808400000002,14.924619572076,14.891811172076,0.328084,0,0.123934059084,0.143547248688,22,5,0,14.891811172076,0,0,0.123934059084,0,0,0,253.6, -2.2, 1.6,0,0,1024,959,638,1184,0,-10,-58,24,265.6,0,0,93,4.289,4.289,0,0,0,0,0,88.16,14.891811172076,0,41,Motors_Started,
600,2023-01-03 17:50:06,-34.9536552553241,-54.9408173491745,0,-0.032808400000002,14.924619572076,14.891811172076,0.328084,0,0.146781828844,0.166751645756,22,5,0,14.891811172076,0,0,0.146781828844,0,0,0,253.3, -1.9, 2,0,0,1024,1024,1024,1024,0,0,0,0,265.1,0,0,93,4.289,4.289,0,0,0,0,0,88.16,14.891811172076,0,41,Motors_Started,
700,2023-01-03 17:50:07,-34.9536552229696,-54.9408173077458,0,-0.032808400000002,14.924619572076,14.891811172076,0.328084,0,0.162628286044,0.183863851028,22,5,0,14.891811172076,0,0,0.162628286044,0,0,0,254, -1.2, 2.6,0,0,1024,1024,1024,1024,0,0,0,0,265.1,0,0,93,4.289,4.289,0,0,0,0,0,88.16,14.891811172076,0,41,Motors_Started,
800,2023-01-03 17:50:07,-34.9536551912953,-54.9408172362647,-0.328084,-0.3608924,14.924619572076,14.563727172076,0.328084,0,0.186819887868,0.208163064404,22,5,0,14.891811172076,0,0,0.186819887868,0,0,0,254, -0.4, 2.9,0,0,1024,1024,1024,1024,0,0,0,0,265.4,0,0,93,4.289,4.289,0,0,0,0,0,88.16,14.563727172076,-0.328084,41,Motors_Started,"Setting new Return-To-Home altitude to 100m (328 ft). Data Recorder File Index is 91. Setting new Maximum Flight Altitude to 120m (394 ft)"
900,2023-01-03 17:50:07,-34.9536551563071,-54.9408171099638,-0.328084,-0.3608924,14.924619572076,14.563727172076,0.328084,0,0.226577763156,0.248030519748,22,5,0,14.891811172076,0,0,0.226577763156,0,0,0,254.4, -0.5, 2.9,0,0,1024,1024,1138,1024,0,0,17,0,265.5,0,0,93,4.289,4.289,0,0,0,0,0,88.16,14.563727172076,-0.328084,41,Motors_Started,
1000,2023-01-03 17:50:07,-34.9536551147171,-54.9408170419672,-0.328084,-0.3608924,14.924619572076,14.563727172076,0.328084,0,0.251251320376,0.273401911636,22,5,0,14.891811172076,0,0,0.251251320376,0,0,0,254.5, 0.4, 3.6,0,0,1024,1024,1361,1024,0,0,51,0,265.7,0,0,93,4.289,4.289,0,0,0,0,0,88.16,14.563727172076,-0.328084,41,Motors_Started,
1100,2023-01-03 17:50:07,-34.9536550644658,-54.9408169823689,-0.328084,-0.3608924,14.924619572076,14.563727172076,0.328084,0,0.275147318516,0.298970810092,22,5,0,14.891811172076,0,0,0.275147318516,0,0,0,254.2, 0.6, 3.9,0,0,1024,1024,1024,1024,0,0,0,0,265.7,0,0,93,4.289,4.289,0,0,0,0,0,88.16,14.563727172076,-0.328084,41,Motors_Started,
1200,2023-01-03 17:50:07,-34.9536550198453,-54.9408169403446,-0.328084,-0.3608924,14.924619572076,14.563727172076,0.328084,0,0.293711295488,0.319536755632,22,5,8.603,14.891811172076,0,0,0.293711295488,0,0,0,254.6, 0.4, 3.5,0,0,1024,1024,1282,1024,0,0,39,0,265.7,0,0,93,4.289,4.289,0,0,0,0,0.598,88.16,14.563727172076,-0.328084,10,Assisted_Takeoff,
1300,2023-01-03 17:50:07,-34.9536549218986,-54.9408169197542,-0.328084,-0.3608924,14.924619572076,14.563727172076,0.328084,0,0.317093514084,0.35580053632,22,5,8.603,14.891811172076,0,0,0.317093514084,0,0,0,254.2, 0.5, 3.4,0,0,1024,1024,1024,1024,0,0,0,0,265.8,0,0,93,4.289,4.289,0,0,0,0,0.598,88.16,14.563727172076,-0.328084,10,Assisted_Takeoff,
1400,2023-01-03 17:50:07,-34.9536548919095,-54.9408168813799,-0.328084,-0.3608924,14.924619572076,14.563727172076,0.328084,0,0.33268701852,0.3716535552,22,5,8.603,14.891811172076,0,0,0.33268701852,0,0,0,254.5, 0.2, 2.9,0,0,1024,1024,1024,1024,0,0,0,0,265.8,0,0,93,4.289,4.289,0,0,0,0,0.598,88.16,14.563727172076,-0.328084,10,Assisted_Takeoff,
1500,2023-01-03 17:50:07,-34.9536548725204,-54.9408168436137,-0.328084,-0.3608924,14.924619572076,14.563727172076,0.328084,0,0.34600722892,0.38498032728,22,5,8.603,14.891811172076,0,0,0.34600722892,0,0,0,254.8, 0.2, 2.4,0,0,1024,1024,1024,1024,0,0,0,0,266,0,0,93,4.289,4.289,0,0,0,0,0.598,88.16,14.563727172076,-0.328084,10,Assisted_Takeoff,
1600,2023-01-03 17:50:07,-34.9536548400397,-54.9408168214201,-0.328084,-0.3608924,14.924619572076,14.563727172076,0.328084,0,0.35812665188,0.39856300488,22,5,8.603,14.891811172076,0,0,0.35812665188,0,0,0,254.7, 0, 2.5,0,0,1024,1024,1024,1024,0,0,0,0,266.1,0,0,93,4.289,4.289,0,0,0,0,0.598,88.16,14.563727172076,-0.328084,10,Assisted_Takeoff,
1700,2023-01-03 17:50:08,-34.9536548600429,-54.9408168177259,-0.328084,-0.3608924,14.924619572076,14.563727172076,0.328084,0,0.35497704548,0.40594489488,22,5,8.603,14.891811172076,0,0,0.35812665188,0,0,0,257.1, 0, 1.9,0,0,1024,1024,1111,1024,0,0,13,0,267.4,0,0,93,4.289,4.289,0,0,0,0,0.598,88.16,14.563727172076,-0.328084,10,Assisted_Takeoff,
1800,2023-01-03 17:50:08,-34.9536548559474,-54.9408167718581,-0.328084,-0.3608924,14.924619572076,14.563727172076,0.328084,0,0.36731628472,0.41974082708,22,5,8.603,14.891811172076,0,0,0.36731628472,0,0,0,258, 0.7, 1.5,0,0,1024,1024,1446,1024,0,0,64,0,268.9,0,0,93,4.289,4.289,0,0,0,0,0.598,88.16,14.563727172076,-0.328084,10,Assisted_Takeoff,
1900,2023-01-03 17:50:08,-34.9536548597708,-54.940816736434,-0.328084,-0.3608924,14.924619572076,14.563727172076,0.328084,0,0.37558400152,0.43042652296,22,5,8.603,14.891811172076,0,0,0.37558400152,0,0,0,256.9, 0.3, 1,0,0,1024,1024,1351,1024,0,0,50,0,268.9,0,0,93,4.289,4.289,0,0,0,0,0.598,88.16,14.563727172076,-0.328084,10,Assisted_Takeoff,
2000,2023-01-03 17:50:08,-34.9536548682804,-54.9408167078697,-0.328084,-0.3608924,14.924619572076,14.563727172076,0.328084,0,0.38133531404,0.43951444976,22,5,8.603,14.891811172076,0,0,0.38133531404,0,0,0,256.3, 0, 0.5,0,0,1024,1024,1024,1024,0,0,0,0,268.3,0,0,93,4.289,4.289,0,0,0,0,0.598,88.16,14.563727172076,-0.328084,10,Assisted_Takeoff,
2100,2023-01-03 17:50:08,-34.9536548687968,-54.9408166772103,-0.328084,-0.3608924,14.924619572076,14.563727172076,0.328084,0,0.38919292584,0.44868439756,22,5,8.603,14.891811172076,0,0,0.38919292584,0,0,0,256.3, -0.9, -0.4,0,0,1024,1024,1024,1024,0,0,0,0,267.9,0,0,93,4.289,4.289,0,0,0,0,0.598,88.16,14.563727172076,-0.328084,10,Assisted_Takeoff,
2200,2023-01-03 17:50:08,-34.9536548941936,-54.940816614858,-0.328084,-0.3608924,14.924619572076,14.563727172076,0.328084,0,0.40122376612,0.4695046082,22,5,8.566,14.891811172076,0,0,0.40122376612,0,0,0,256.6, -1, -1.6,0,0,1024,1024,1024,1024,0,0,0,0,267.9,0,0,93,4.28,4.281,0,0,0,0,1.419,88.34,14.563727172076,-0.328084,6,P-GPS,"Error de calibración del estabilizador. Reinicia la aeronave o contacta con la Asistencia DJI (Code: 40011)"
2300,2023-01-03 17:50:08,-34.9536549083332,-54.9408165838621,-0.328084,-0.3608924,14.924619572076,14.563727172076,0.328084,0,0.40722770332,0.48011484476,22,5,8.566,14.891811172076,0,0,0.40722770332,0,0,0,256.4, -1, -1.4,0,0,1024,1024,1290,1024,0,0,40,0,267.9,0,0,93,4.28,4.281,0,0,0,0,1.419,88.34,14.563727172076,-0.328084,6,P-GPS,
2400,2023-01-03 17:50:08,-34.9536549406532,-54.9408165243884,-0.328084,-0.3608924,14.924619572076,14.563727172076,0.328084,0,0.41850723124,0.50145342812,22,5,8.566,14.891811172076,0,0,0.41850723124,0,0,0,256.2, -0.6, -1.2,0,0,1024,1024,1268,1024,0,0,37,0,267.9,0,0,93,4.28,4.281,0,0,0,0,1.419,88.34,14.563727172076,-0.328084,6,P-GPS,
2500,2023-01-03 17:50:08,-34.9536549606209,-54.9408164705239,-0.328084,-0.3608924,14.924619572076,14.563727172076,0.328084,0,0.43061681168,0.51913059404,22,5,8.566,14.891811172076,0,0,0.43061681168,0,0,0,256.3, -0.4, -1.4,0,0,1024,1024,1268,1024,0,0,37,0,267.9,0,0,93,4.28,4.281,0,0,0,0,1.419,88.34,14.563727172076,-0.328084,6,P-GPS,
2600,2023-01-03 17:50:09,-34.9536550508245,-54.9408164133815,-0.328084,-0.3608924,14.924619572076,14.563727172076,0.328084,0,0.43598098508,0.55621392856,22,5,8.566,14.891811172076,0,0,0.43598098508,0,0,0,256.2, -0.4, -0.4,0,0,1024,1024,1024,1024,0,0,0,0,267.9,0,0,93,4.28,4.281,0,0,0,0,1.419,88.34,14.563727172076,-0.328084,6,P-GPS,
2700,2023-01-03 17:50:09,-34.9536551026352,-54.940816372464,-0.328084,-0.3608924,14.924619572076,14.563727172076,0.328084,0,0.44279200892,0.57873033348,22,5,8.566,14.891811172076,0,0,0.44279200892,0,0,-0.223694,256.2, -0.1, 0.3,0,0,1024,1024,1024,1024,0,0,0,0,267.9,0,0,93,4.28,4.281,0,0,0,0,1.419,88.34,14.563727172076,-0.328084,6,P-GPS,
2800,2023-01-03 17:50:09,-34.9536551032759,-54.9408163294846,-0.328084,-0.3608924,14.924619572076,14.563727172076,0.328084,0,0.45522311168,0.5915846646,22,5,8.566,14.891811172076,0,0,0.45522311168,0,0,-0.447388,256.2, 0.2, 0.3,0,0,1024,1024,1024,1024,0,0,0,0,267.9,0,0,93,4.28,4.281,0,0,0,0,1.419,88.34,14.563727172076,-0.328084,6,P-GPS,"Error de calibración del estabilizador. Reinicia la aeronave o contacta con la Asistencia DJI (Code: 40011)"
2900,2023-01-03 17:50:09,-34.9536550671649,-54.9408162780396,0,-0.032808400000002,14.924619572076,14.891811172076,0.328084,0,0.47334647184,0.61184057076,22,5,8.566,14.891811172076,0,0,0.47334647184,0,0,-0.894776,256.2, 0.3, 0.1,0,0,1024,1024,1024,1024,0,0,0,0,267.9,0,0,93,4.28,4.281,0,0,0,0,1.419,88.34,14.891811172076,0,6,P-GPS,"Error de calibración del estabilizador. Reinicia la aeronave o contacta con la Asistencia DJI (Code: 40011)"
3000,2023-01-03 17:50:09,-34.9536549722437,-54.9408162969084,0,-0.032808400000002,14.924619572076,14.891811172076,0.656168,0,0.47790027776,0.64692915456,22,5,8.566,14.891811172076,0,0,0.47790027776,0,0,-1.11847,256.2, 0.4, 0.4,0,0,1024,1024,1024,1024,0,0,0,0,267.9,0,0,93,4.28,4.281,0,0,0,0,1.419,88.34,14.891811172076,0,6,P-GPS,
3100,2023-01-03 17:50:09,-34.9536549554397,-54.9408163270996,0,-0.032808400000002,14.924619572076,14.891811172076,0.656168,0,0.4714074954,0.6578412284,22,5,8.566,14.891811172076,0,0,0.47790027776,0,0,-1.342164,256.1, 0.4, 0.2,0,0,1024,1024,1024,1024,0,0,0,0,267.9,0,0,93,4.28,4.281,0,0,0,0,1.419,88.34,14.891811172076,0,6,P-GPS,
3200,2023-01-03 17:50:09,-34.953654978105,-54.9408163588341,0,-0.032808400000002,14.924619572076,14.891811172076,0.984252,0,0.45969817744,0.67042981148,22,5,8.564,14.891811172076,0,0,0.47790027776,0,0,-1.342164,256.2, 0.3, 0.3,0,0,1024,1024,1024,1024,0,0,0,0,267.9,0,0,93,4.252,4.25,0,0,0,0,1.745,88.34,14.891811172076,0,6,P-GPS,
3300,2023-01-03 17:50:09,-34.9536550267076,-54.9408163932611,0.328084,0.2952756,14.924619572076,15.219895172076,1.312336,0,0.44432088036,0.69093506148,22,5,8.564,15.219895172076,0.328084,0,0.47790027776,0,0,-1.342164,256.3, 0.4, 0.4,0,0,1024,1024,1024,1024,0,0,0,0,267.9,0,0,93,4.252,4.25,0,0,0,0,1.745,88.34,15.219895172076,0.328084,6,P-GPS,
3400,2023-01-03 17:50:09,-34.9536550210215,-54.9408161641968,0.656168,0.6233596,14.924619572076,15.547979172076,1.64042,0,0.51059384836,0.7594652474,22,5,8.564,15.547979172076,0.656168,0,0.51059384836,0,0,-0.894776,256.3, 0, 0.3,0,0,1024,1024,1024,1024,0,0,0,0,267.9,0,0,93,4.252,4.25,0,0,0,0,1.745,88.34,15.547979172076,0.656168,6,P-GPS,
3500,2023-01-03 17:50:09,-34.953654984862,-54.940816041071,0.656168,0.6233596,14.924619572076,15.547979172076,1.64042,0,0.5496063168,0.79857614104,22,5,8.564,15.547979172076,0.656168,0,0.5496063168,0,0,-0.671082,256.3, -0.3, 0.2,0,0,1024,1024,1024,1024,0,0,0,0,267.9,0,0,93,4.252,4.25,0,0,0,0,1.745,88.34,15.547979172076,0.656168,6,P-GPS,
3600,2023-01-03 17:50:10,-34.9536549916805,-54.9408160168119,0.656168,0.6233596,14.924619572076,15.547979172076,1.968504,0,0.55592849548,0.80624346412,22,5,8.564,15.547979172076,0.656168,0,0.55592849548,0,0,-0.223694,256.3, -0.3, 0.3,0,0,1024,1024,1024,1024,0,0,0,0,267.9,0,0,93,4.252,4.25,0,0,0,0,1.745,88.34,15.547979172076,0.656168,6,P-GPS,
3700,2023-01-03 17:50:10,-34.9536550276489,-54.9408160608031,0.656168,0.6233596,14.924619572076,15.547979172076,1.968504,0,0.53984909864,0.82482614188,22,5,8.564,15.547979172076,0.656168,0,0.55592849548,0,0,0,256.2, 0.2, 0.2,0,0,1024,1024,1024,1024,0,0,0,0,267.9,0,0,93,4.252,4.25,0,0,0,0,1.745,88.34,15.547979172076,0.656168,6,P-GPS,
3800,2023-01-03 17:50:10,-34.9536550495397,-54.9408161126709,0.656168,0.6233596,14.924619572076,15.547979172076,1.968504,0,0.52286090912,0.84227036816,22,5,8.564,15.547979172076,0.656168,0,0.55592849548,0,0,0,256.2, 0.6, 0.3,0,0,1024,1024,1024,1024,0,0,0,0,267.9,0,0,93,4.252,4.25,0,0,0,0,1.745,88.34,15.547979172076,0.656168,6,P-GPS,
3900,2023-01-03 17:50:10,-34.9536551149928,-54.9408163098133,0.656168,0.6233596,14.924619572076,15.547979172076,1.968504,0,0.45998032968,0.90587601324,22,5,8.564,15.547979172076,0.656168,0,0.55592849548,0,0,0,256.2, 1.2, 0.2,0,0,1024,1024,1024,1024,0,0,0,0,267.9,0,0,93,4.252,4.25,0,0,0,0,1.745,88.34,15.547979172076,0.656168,6,P-GPS,
4000,2023-01-03 17:50:10,-34.9536550830091,-54.9408163440771,0.656168,0.6233596,14.924619572076,15.547979172076,1.968504,0,0.45278216672,0.9214075098,22,5,8.564,15.547979172076,0.656168,0,0.55592849548,0,0,0,256.3, 1, 0.2,0,0,1024,1024,1024,1024,0,0,0,0,267.9,0,0,93,4.252,4.25,0,0,0,0,1.745,88.34,15.547979172076,0.656168,6,P-GPS,
4100,2023-01-03 17:50:10,-34.9536550218523,-54.9408163580823,0.656168,0.6233596,14.924619572076,15.547979172076,2.296588,0,0.454888466,0.94410764176,22,5,8.564,15.547979172076,0.656168,0,0.55592849548,0,0,0,256.3, 0.8, 0.4,0,0,1024,1024,1024,1024,0,0,0,0,267.9,0,0,93,4.252,4.25,0,0,0,0,1.745,88.34,15.547979172076,0.656168,6,P-GPS,
4200,2023-01-03 17:50:10,-34.9536549742307,-54.9408163761033,0.656168,0.6233596,14.924619572076,15.547979172076,2.296588,0,0.455298571,0.96229989956,22,5,8.424,15.547979172076,0.656168,0,0.55592849548,0,0,0,256.3, 0.8, 0.5,0,0,1024,1024,1024,1024,0,0,0,0,267.9,0,0,93,4.227,4.229,0,0,0,0,4.04,88.34,15.547979172076,0.656168,6,P-GPS,
4300,2023-01-03 17:50:10,-34.9536548195939,-54.940816458957,0.656168,0.6233596,14.924619572076,15.547979172076,2.296588,0,0.45513124816,1.02392063644,22,5,8.424,15.547979172076,0.656168,0,0.55592849548,0,0,0,256.3, 0.5, 0,0,0,1024,1024,1024,1024,0,0,0,0,267.9,0,0,93,4.227,4.229,0,0,0,0,4.04,88.34,15.547979172076,0.656168,6,P-GPS,
4400,2023-01-03 17:50:10,-34.953654782777,-54.9408164521612,0.656168,0.6233596,14.924619572076,15.547979172076,2.296588,0,0.463254608,1.03750659488,22,5,8.424,15.547979172076,0.656168,0,0.55592849548,0,0,0,256.3, 0.4, -0.1,0,0,1024,1024,1024,1024,0,0,0,0,267.9,0,0,93,4.227,4.229,0,0,0,0,4.04,88.34,15.547979172076,0.656168,6,P-GPS,
4500,2023-01-03 17:50:10,-34.953654753795,-54.9408164215185,0.656168,0.6233596,14.924619572076,15.547979172076,2.296588,0,0.47640421472,1.05149609664,22,5,8.424,15.547979172076,0.656168,0,0.55592849548,0,0,0,256.4, 0.3, -0.1,0,0,1024,1024,1024,1024,0,0,0,0,267.9,0,0,93,4.227,4.229,0,0,0,0,4.04,88.34,15.547979172076,0.656168,6,P-GPS,
4600,2023-01-03 17:50:10,-34.9536547398657,-54.9408163924383,0.656168,0.6233596,14.924619572076,15.547979172076,2.296588,0,0.48647311268,1.06156827544,22,5,8.424,15.547979172076,0.656168,0,0.55592849548,0,0,0,256.4, 0.2, -0.1,0,0,1024,1024,1024,1024,0,0,0,0,267.9,0,0,93,4.227,4.229,0,0,0,0,4.04,88.34,15.547979172076,0.656168,6,P-GPS,
4700,2023-01-03 17:50:11,-34.9536547905136,-54.9408162873867,0.656168,0.6233596,14.924619572076,15.547979172076,2.296588,0,0.5057578902,1.098015127,22,5,8.424,15.547979172076,0.656168,0,0.55592849548,0,0,0,256.4, 0.1, -0.4,0,0,1024,1024,1024,1024,0,0,0,0,267.9,0,0,93,4.227,4.229,0,0,0,0,4.04,88.34,15.547979172076,0.656168,6,P-GPS,
4800,2023-01-03 17:50:11,-34.9536547768095,-54.9408162769744,0.656168,0.6233596,14.924619572076,15.547979172076,2.296588,0,0.51074804784,1.1039042348,22,5,8.424,15.547979172076,0.656168,0,0.55592849548,0,0,0,256.3, 0.2, -0.3,0,0,1024,1024,1024,1024,0,0,0,0,267.9,0,0,93,4.227,4.229,0,0,0,0,4.04,88.34,15.547979172076,0.656168,6,P-GPS,
4900,2023-01-03 17:50:11,-34.9536547562605,-54.9408162758525,0.656168,0.6233596,14.924619572076,15.547979172076,2.296588,0,0.51439634192,1.11141079672,22,5,8.424,15.547979172076,0.656168,0,0.55592849548,0,0,0,256.3, 0.4, 0.1,0,0,1024,1024,1024,1024,0,0,0,0,267.9,0,0,93,4.227,4.229,0,0,0,0,4.04,88.34,15.547979172076,0.656168,6,P-GPS,
5000,2023-01-03 17:50:11,-34.953654767332,-54.9408162517098,0.656168,0.6233596,14.924619572076,15.547979172076,2.296588,0,0.51905185388,1.1196850752,22,5,8.424,15.547979172076,0.656168,0,0.55592849548,0,0,0,256.3, 0.4, 0,0,0,1024,1024,1024,1024,0,0,0,0,267.9,0,0,93,4.227,4.229,0,0,0,0,4.04,88.34,15.547979172076,0.656168,6,P-GPS,
5100,2023-01-03 17:50:11,-34.953654812248,-54.940816170296,0.656168,0.6233596,14.924619572076,15.547979172076,2.296588,0,0.53429135568,1.149032189,22,5,8.424,15.547979172076,0.656168,0,0.55592849548,0,0,0,256.3, 0.4, 0,0,0,1024,1024,1024,1024,0,0,0,0,267.9,0,0,93,4.227,4.229,0,0,0,0,4.04,88.34,15.547979172076,0.656168,6,P-GPS,
5200,2023-01-03 17:50:11,-34.9536548195666,-54.9408161554543,0.656168,0.6233596,14.924619572076,15.547979172076,2.296588,0,0.53731629016,1.15420935452,22,5,8.452,15.547979172076,0.656168,0,0.55592849548,0,0,0,256.3, 0.7, 0,0,0,1024,1024,1024,1024,0,0,0,0,267.9,0,0,93,4.222,4.219,0,0,0,0,3.935,88.34,15.547979172076,0.656168,6,P-GPS,
5300,2023-01-03 17:50:11,-34.9536548144717,-54.9408161506768,0.656168,0.6233596,14.924619572076,15.547979172076,2.296588,0,0.53936025348,1.15655515512,22,5,8.452,15.547979172076,0.656168,0,0.55592849548,0,0,0,256.2, 0.8, -0.1,0,0,1024,1024,1024,1024,0,0,0,0,267.9,0,0,93,4.222,4.219,0,0,0,0,3.935,88.34,15.547979172076,0.656168,6,P-GPS,
5400,2023-01-03 17:50:11,-34.95365479865,-54.9408161444096,0.656168,0.6233596,14.924619572076,15.547979172076,2.296588,0,0.54336615912,1.16262470912,22,5,8.452,15.547979172076,0.656168,0,0.55592849548,0,0,0,256.3, 0.6, 0.5,0,0,1024,1024,1024,1024,0,0,0,0,267.9,0,0,93,4.222,4.219,0,0,0,0,3.935,88.34,15.547979172076,0.656168,6,P-GPS,
5500,2023-01-03 17:50:11,-34.9536547768985,-54.9408161380516,0.656168,0.6233596,14.924619572076,15.547979172076,2.296588,0,0.54832350836,1.1707841582,22,5,8.452,15.547979172076,0.656168,0,0.55592849548,0,0,0,256.3, 0.4, 0.8,0,0,1024,1024,1024,1024,0,0,0,0,267.9,0,0,93,4.222,4.219,0,0,0,0,3.935,88.34,15.547979172076,0.656168,6,P-GPS,
5600,2023-01-03 17:50:11,-34.953654652346,-54.9408161763299,0.328084,0.2952756,14.924619572076,15.219895172076,2.296588,0,0.5584645848,1.21764767676,22,5,8.452,15.547979172076,0.656168,0,0.5584645848,0,0,0,256.3, 0.3, 0.7,0,0,1024,1024,1024,1024,0,0,0,0,267.9,0,0,93,4.222,4.219,0,0,0,0,3.935,88.34,15.219895172076,0.328084,6,P-GPS,
5700,2023-01-03 17:50:12,-34.9536546608421,-54.9408161727076,0.328084,0.2952756,14.924619572076,15.219895172076,2.296588,0,0.55791996536,1.2209317976,22,5,8.452,15.547979172076,0.656168,0,0.5584645848,0,0,0,256.5, 0.4, 0.9,0,0,1024,1024,1024,1024,0,0,0,0,267.9,0,0,93,4.222,4.219,0,0,0,0,3.935,88.34,15.219895172076,0.328084,6,P-GPS,
5800,2023-01-03 17:50:12,-34.9536546697406,-54.9408161413768,0.328084,0.2952756,14.924619572076,15.219895172076,2.296588,0,0.56462928316,1.23084649608,22,5,8.452,15.547979172076,0.656168,0,0.56462928316,0,0,0,256.6, 0.2, 1,0,0,1024,1024,1024,1024,0,0,0,0,267.9,0,0,93,4.222,4.219,0,0,0,0,3.935,88.34,15.219895172076,0.328084,6,P-GPS,
5900,2023-01-03 17:50:12,-34.9536546783612,-54.9408160889706,0.328084,0.2952756,14.924619572076,15.219895172076,1.968504,0,0.57709319432,1.24683074856,22,5,8.452,15.547979172076,0.656168,0,0.57709319432,0,0,0,256.5, 0.3, 1.1,0,0,1024,1024,1024,1024,0,0,0,0,267.9,0,0,93,4.222,4.219,0,0,0,0,3.935,88.34,15.219895172076,0.328084,6,P-GPS,
6000,2023-01-03 17:50:12,-34.9536546731021,-54.9408160653017,0.328084,0.2952756,14.924619572076,15.219895172076,1.968504,0,0.58427495308,1.25416342596,22,5,8.452,15.547979172076,0.656168,0,0.58427495308,0,0,0,256.5, 0.3, 1.1,0,0,1024,1024,1024,1024,0,0,0,0,267.9,0,0,93,4.222,4.219,0,0,0,0,3.935,88.34,15.219895172076,0.328084,6,P-GPS,
6100,2023-01-03 17:50:12,-34.9536546558328,-54.9408160579018,0.328084,0.2952756,14.924619572076,15.219895172076,1.968504,0,0.5891076304,1.26083993536,22,5,8.452,15.547979172076,0.656168,0,0.5891076304,0,0,0,256.5, 0.3, 1,0,0,1024,1024,1024,1024,0,0,0,0,267.9,0,0,93,4.222,4.219,0,0,0,0,3.935,88.34,15.219895172076,0.328084,6,P-GPS,
6200,2023-01-03 17:50:12,-34.9536546294819,-54.9408160432927,0.328084,0.2952756,14.924619572076,15.219895172076,1.968504,0,0.5974245598,1.27140095932,22,5,8.434,15.547979172076,0.656168,0,0.5974245598,0,0,0,256.4, 0.4, 0.4,0,0,1024,1024,1024,1024,0,0,0,0,267.9,0,0,93,4.217,4.213,0,0,0,0,4.186,88.34,15.219895172076,0.328084,6,P-GPS,
6300,2023-01-03 17:50:12,-34.9536545985813,-54.940816023168,0.328084,0.2952756,14.924619572076,15.219895172076,1.968504,0,0.6080544814,1.28417983112,22,5,8.434,15.547979172076,0.656168,0,0.6080544814,0,0,0,256.3, 0.7, 0.2,0,0,1024,1024,1024,1024,0,0,0,0,267.9,0,0,93,4.217,4.213,0,0,0,0,4.186,88.34,15.219895172076,0.328084,6,P-GPS,
6400,2023-01-03 17:50:12,-34.9536545593602,-54.9408160118747,0.328084,0.2952756,14.924619572076,15.219895172076,1.968504,0,0.61795277568,1.298884556,22,5,8.434,15.547979172076,0.656168,0,0.61795277568,0,0,0,256.4, 0.3, 0.6,0,0,1024,1024,1024,1024,0,0,0,0,267.9,0,0,93,4.217,4.213,0,0,0,0,4.186,88.34,15.219895172076,0.328084,6,P-GPS,
6500,2023-01-03 17:50:12,-34.9536545379302,-54.9408160262005,0.328084,0.2952756,14.924619572076,15.219895172076,1.968504,0,0.6181430644,1.30779859828,22,5,8.434,15.547979172076,0.656168,0,0.6181430644,0,0,0,256.4, 0.2, 0.8,0,0,1024,1024,1024,1024,0,0,0,0,267.9,0,0,93,4.217,4.213,0,0,0,0,4.186,88.34,15.219895172076,0.328084,6,P-GPS,
6600,2023-01-03 17:50:12,-34.9536545233284,-54.9408160177455,0.328084,0.2952756,14.924619572076,15.219895172076,1.968504,0,0.62302823516,1.3136975486,22,5,8.434,15.547979172076,0.656168,0,0.62302823516,0,0,0,256.5, 0, 0.4,0,0,1024,1024,1024,1024,0,0,0,0,267.9,0,0,93,4.217,4.213,0,0,0,0,4.186,88.34,15.219895172076,0.328084,6,P-GPS,
6700,2023-01-03 17:50:13,-34.9536545160862,-54.940815996233,0.328084,0.2952756,14.924619572076,15.219895172076,1.968504,0,0.62990815664,1.32064964856,22,5,8.434,15.547979172076,0.656168,0,0.62990815664,0,0,0,256.5, 0.2, 0.1,0,0,1024,1024,1024,1024,0,0,0,0,267.9,0,0,93,4.217,4.213,0,0,0,0,4.186,88.34,15.219895172076,0.328084,6,P-GPS,
6800,2023-01-03 17:50:13,-34.9536544770623,-54.9408159330667,0.328084,0.2624672,14.957427972076,15.219895172076,1.968504,0,0.65341865608,1.34430450496,22,5,8.434,15.547979172076,0.656168,0,0.65341865608,0,0,0,256.4, 0.6, 0,0,0,1024,1024,1024,1024,0,0,0,0,267.9,0,0,93,4.217,4.213,0,0,0,0,4.186,88.34,15.219895172076,0.328084,6,P-GPS,
6900,2023-01-03 17:50:13,-34.9536544438204,-54.9408159457679,0.328084,0.2624672,14.957427972076,15.219895172076,1.968504,0,0.65648624148,1.35701447912,22,5,8.434,15.547979172076,0.656168,0,0.65648624148,0,0,0,256.4, 0.4, 0.5,0,0,1106,1024,1024,1024,12,0,0,0,267.9,0,0,93,4.217,4.213,0,0,0,0,4.186,88.34,15.219895172076,0.328084,6,P-GPS,
7000,2023-01-03 17:50:13,-34.9536544343212,-54.9408159366871,0.328084,0.2624672,14.957427972076,15.219895172076,1.968504,0,0.66062338072,1.3614173664,22,5,8.434,15.547979172076,0.656168,0,0.66062338072,0,0,0,256.5, 0.6, 0.5,0,0,1106,1024,1024,1024,12,0,0,0,267.9,0,0,93,4.217,4.213,0,0,0,0,4.186,88.34,15.219895172076,0.328084,6,P-GPS,
7100,2023-01-03 17:50:13,-34.953654440804,-54.9408159099415,0.328084,0.2624672,14.957427972076,15.219895172076,1.968504,0,0.66618112368,1.36975726168,22,5,8.434,15.547979172076,0.656168,0,0.66618112368,0,0,0,256.3, 0.5, 0.6,0,0,1213,1024,1024,1024,29,0,0,0,267.9,0,0,93,4.217,4.213,0,0,0,0,4.186,88.34,15.219895172076,0.328084,6,P-GPS,
7200,2023-01-03 17:50:13,-34.953654430231,-54.9408159016238,0.328084,0.2624672,14.957427972076,15.219895172076,1.968504,0,0.67031826292,1.37434715684,22,5,8.43,15.547979172076,0.656168,0,0.67031826292,0,0,0,256.3, -0.8, 0.6,0,0,1310,1024,1024,1024,43,0,0,0,267.9,0,0,93,4.216,4.212,0,0,0,0,4.164,88.34,15.219895172076,0.328084,6,P-GPS,
7300,2023-01-03 17:50:13,-34.9536543987643,-54.9408158646489,0.328084,0.2624672,14.957427972076,15.219895172076,1.968504,0,0.68576773848,1.39028547756,22,5,8.43,15.547979172076,0.656168,0,0.68576773848,0,0,0,256.2, -2.8, 0.5,0,0,1235,1024,1024,1024,32,0,0,0,267.9,0,0,93,4.216,4.212,0,0,0,0,4.164,88.34,15.219895172076,0.328084,6,P-GPS,
7400,2023-01-03 17:50:13,-34.9536544049375,-54.9408159388319,0.328084,0.2624672,14.957427972076,15.219895172076,1.968504,0.223694,0.6658300738,1.41258534704,22,5,8.43,15.547979172076,0.656168,0.223694,0.68576773848,0,-0.223694,0,256.2, -4, 0.5,0,0,1176,1024,1024,1024,23,0,0,0,267.9,0,0,93,4.216,4.212,0,0,0,0,4.164,88.34,15.219895172076,0.328084,6,P-GPS,
7500,2023-01-03 17:50:13,-34.9536544374934,-54.940816090402,0.328084,0.2624672,14.957427972076,15.219895172076,1.968504,0.223694,0.62147639784,1.45943902308,22,5,8.43,15.547979172076,0.656168,0.223694,0.68576773848,0,-0.223694,0,256.3, -2.8, 0.8,0,0,1229,1024,1024,1024,31,0,0,0,267.9,0,0,93,4.216,4.212,0,0,0,0,4.164,88.34,15.219895172076,0.328084,6,P-GPS,
7600,2023-01-03 17:50:14,-34.9536544516157,-54.9408162939998,0.328084,0.2624672,14.957427972076,15.219895172076,1.968504,0.447388,0.56899936204,1.52054138724,22,5,8.43,15.547979172076,0.656168,0.447388,0.68576773848,0,-0.447388,0,256.2, -1.6, 0.5,0,0,1282,1024,1024,1024,39,0,0,0,267.9,0,0,93,4.216,4.212,0,0,0,0,4.164,88.34,15.219895172076,0.328084,6,P-GPS,
7700,2023-01-03 17:50:14,-34.9536544067531,-54.9408165541976,0.328084,0.2624672,14.957427972076,15.219895172076,1.968504,0.447388,0.5203904366,1.60005254464,22,5,8.43,15.547979172076,0.656168,0.447388,0.68576773848,0,-0.447388,0,256.1, -2.1, 0.4,0,0,1304,1024,1024,1024,42,0,0,0,267.9,0,0,93,4.216,4.212,0,0,0,0,4.164,88.34,15.219895172076,0.328084,6,P-GPS,
7800,2023-01-03 17:50:14,-34.9536544293352,-54.9408168448004,0.328084,0.2624672,14.957427972076,15.219895172076,1.968504,0.671082,0.45522639252,1.68734257368,22,5,8.43,15.547979172076,0.656168,0.671082,0.68576773848,0,-0.671082,0,256.1, -3, 0.3,0,0,1344,1024,1024,1024,48,0,0,0,267.9,0,0,93,4.216,4.212,0,0,0,0,4.164,88.34,15.219895172076,0.328084,6,P-GPS,
7900,2023-01-03 17:50:14,-34.9536544808739,-54.9408172100329,0.328084,0.2624672,14.957427972076,15.219895172076,1.968504,0.671082,0.37846785988,1.79816606804,22,5,8.43,15.547979172076,0.656168,0.671082,0.68576773848,0,-0.671082,0,256.1, -3.9, 0.2,0,0,1344,1024,1024,1024,48,0,0,0,267.9,0,0,93,4.216,4.212,0,0,0,0,4.164,88.34,15.219895172076,0.328084,6,P-GPS,
8000,2023-01-03 17:50:14,-34.9536545463317,-54.9408176246514,0.328084,0.328084,14.891811172076,15.219895172076,1.968504,0.9171454,0.314308080924,1.92443247628,22,5,8.43,15.547979172076,0.656168,0.9171454,0.68576773848,-0.223694,-0.894776,0,256.3, -4.9, 0.4,0,0,1344,1024,1024,1024,48,0,0,0,267.9,0,0,93,4.216,4.212,0,0,0,0,4.164,88.34,15.219895172076,0.328084,6,P-GPS,
8100,2023-01-03 17:50:14,-34.9536546274053,-54.9408182037406,0.328084,0.328084,14.891811172076,15.219895172076,1.968504,0.9171454,0.303601715752,2.10010833492,22,5,8.43,15.547979172076,0.656168,0.9171454,0.68576773848,-0.223694,-0.894776,0,256.4, -5.2, 0.3,0,0,1348,1024,1024,1024,49,0,0,0,267.9,0,0,93,4.216,4.212,0,0,0,0,4.164,88.34,15.219895172076,0.328084,6,P-GPS,
8200,2023-01-03 17:50:14,-34.9536547563867,-54.9408187773127,0.328084,0.328084,14.891811172076,15.219895172076,1.968504,1.1408394,0.3713254712,2.27796595216,22,5,8.425,15.547979172076,0.656168,1.1408394,0.68576773848,-0.223694,-1.11847,0,256.4, -5.4, 0.5,0,0,1350,1024,1024,1024,49,0,0,0,267.9,0,0,93,4.213,4.21,0,0,0,0,4.124,88.34,15.219895172076,0.328084,6,P-GPS,
8300,2023-01-03 17:50:14,-34.9536549305209,-54.9408194668423,0.328084,0.328084,14.891811172076,15.219895172076,1.968504,1.3645334,0.52361878316,2.49372711392,22,5,8.425,15.547979172076,0.656168,1.3645334,0.68576773848,-0.223694,-1.342164,0,256.5, -5, 0.7,0,0,1350,1024,1024,1024,49,0,0,0,267.9,0,0,93,4.213,4.21,0,0,0,0,4.124,88.34,15.219895172076,0.328084,6,P-GPS,
8400,2023-01-03 17:50:14,-34.9536551095619,-54.9408201766202,0.328084,0.328084,14.891811172076,15.219895172076,1.968504,1.6329662,0.7153543536,2.71580061184,22,5,8.425,15.547979172076,0.656168,1.6329662,0.7153543536,-0.447388,-1.565858,0,256.7, -5.2, 1.7,0,0,1350,1024,1024,1024,49,0,0,0,267.9,0,0,93,4.213,4.21,0,0,0,0,4.124,88.34,15.219895172076,0.328084,6,P-GPS,
8500,2023-01-03 17:50:14,-34.9536553458549,-54.9408209559448,0.328084,0.328084,14.891811172076,15.219895172076,1.968504,1.8119214,0.94098100124,2.96428159092,22,5,8.425,15.547979172076,0.656168,1.8119214,0.94098100124,-0.223694,-1.789552,0,256.9, -4.9, 2.2,0,0,1367,1024,1024,1024,52,0,0,0,267.9,0,0,93,4.213,4.21,0,0,0,0,4.124,88.34,15.219895172076,0.328084,6,P-GPS,
8600,2023-01-03 17:50:15,-34.9536555053023,-54.9408218474333,0.328084,0.3937008,14.826194372076,15.219895172076,1.968504,1.8119214,1.20808074732,3.23714249204,22,5,8.425,15.547979172076,0.656168,1.8119214,1.20808074732,-0.223694,-1.789552,0,256.8, -4.8, 2.3,0,0,1357,1024,1024,1024,50,0,0,0,267.9,0,0,93,4.213,4.21,0,0,0,0,4.124,88.34,15.219895172076,0.328084,6,P-GPS,
8700,2023-01-03 17:50:15,-34.9536556471976,-54.9408229061877,0.328084,0.3937008,14.826194372076,15.219895172076,1.968504,2.0356154,1.52679794912,3.5579397464,22,5,8.425,15.547979172076,0.656168,2.0356154,1.52679794912,-0.223694,-2.013246,0,256.6, -5.2, 1.1,0,0,1383,1024,1024,1024,54,0,0,0,267.9,0,0,93,4.213,4.21,0,0,0,0,4.124,88.34,15.219895172076,0.328084,6,P-GPS,
8800,2023-01-03 17:50:15,-34.9536557914408,-54.9408239749902,0.328084,0.3937008,14.826194372076,15.219895172076,1.968504,2.23694,1.84930124028,3.8818570796,22,5,8.425,15.547979172076,0.656168,2.23694,1.84930124028,-0.223694,-2.23694,0,256.5, -5.3, -0.1,0,0,1383,1024,1024,1024,54,0,0,0,267.9,0,0,93,4.213,4.21,0,0,0,0,4.124,88.34,15.219895172076,0.328084,6,P-GPS,
8900,2023-01-03 17:50:15,-34.9536559634238,-54.940825163502,0.328084,0.3937008,14.826194372076,15.219895172076,1.968504,2.460634,2.20880584496,4.242782288,22,5,8.425,15.547979172076,0.656168,2.460634,2.20880584496,-0.223694,-2.460634,0,256.4, -5.9, -1.4,0,0,1383,1024,1024,1024,54,0,0,0,267.9,0,0,93,4.213,4.21,0,0,0,0,4.124,88.34,15.219895172076,0.328084,6,P-GPS,
9000,2023-01-03 17:50:15,-34.9536562297701,-54.9408264313236,0.328084,0.3937008,14.826194372076,15.219895172076,2.296588,2.684328,2.59610572612,4.6341536916,22,5,8.425,15.547979172076,0.656168,2.684328,2.59610572612,-0.223694,-2.684328,0,256.3, -5.4, -2.2,0,0,1382,1024,1024,1024,54,0,0,0,267.9,0,0,93,4.213,4.21,0,0,0,0,4.124,88.34,15.219895172076,0.328084,6,P-GPS,
9100,2023-01-03 17:50:15,-34.9536564445194,-54.9408278435876,0.328084,0.4265092,14.793385972076,15.219895172076,2.296588,2.684328,3.0248360548,5.0636812644,22,5,8.425,15.547979172076,0.656168,2.684328,3.0248360548,-0.223694,-2.684328,0,256.2, -5.1, -1.8,0,0,1385,1024,1024,1024,55,0,0,0,267.9,0,0,93,4.213,4.21,0,0,0,0,4.124,88.34,15.219895172076,0.328084,6,P-GPS,
9200,2023-01-03 17:50:15,-34.9536566984804,-54.9408292580584,0.328084,0.4593176,14.760577572076,15.219895172076,2.296588,2.9527608,3.45636494,5.4966865276,22,5,8.416,15.547979172076,0.656168,2.9527608,3.45636494,-0.447388,-2.908022,0,256.1, -5.7, -1.4,0,0,1386,1024,1024,1024,55,0,0,0,267.9,0,0,93,4.208,4.205,0,0,0,0,4.153,88.52,15.219895172076,0.328084,6,P-GPS,
9300,2023-01-03 17:50:15,-34.9536570095423,-54.9408308267772,0.328084,0.492126,14.727769172076,15.219895172076,2.296588,3.1540854,3.9369095748,5.9793309,22,5,8.416,15.547979172076,0.656168,3.1540854,3.9369095748,-0.447388,-3.131716,0,256.2, -5.8, -1.8,0,0,1386,1024,1024,1024,55,0,0,0,267.9,0,0,93,4.208,4.205,0,0,0,0,4.153,88.52,15.219895172076,0.328084,6,P-GPS,
9400,2023-01-03 17:50:15,-34.9536574551609,-54.9408324909386,0.328084,0.492126,14.727769172076,15.219895172076,2.296588,3.4225182,4.4541011924,6.5028545388,22,5,8.416,15.547979172076,0.656168,3.4225182,4.4541011924,-0.671082,-3.35541,0,256.1, -5.3, -1.8,0,0,1387,1024,1024,1024,55,0,0,0,267.9,0,0,93,4.208,4.205,0,0,0,0,4.153,88.52,15.219895172076,0.328084,6,P-GPS,
9500,2023-01-03 17:50:15,-34.9536578822187,-54.9408341877731,0.328084,0.5905512,14.629343972076,15.219895172076,2.296588,3.4225182,4.9810040964,7.0336616424,22,5,8.416,15.547979172076,0.656168,3.4225182,4.9810040964,-0.671082,-3.35541,0,256.3, -5, -1.4,0,0,1298,1024,1024,1024,42,0,0,0,267.9,0,0,93,4.208,4.205,0,0,0,0,4.153,88.52,15.219895172076,0.328084,6,P-GPS,
9600,2023-01-03 17:50:16,-34.9536583083701,-54.940835880437,0.328084,0.7217848,14.498110372076,15.219895172076,2.296588,3.690951,5.507382066,7.56315641,22,5,8.416,15.547979172076,0.656168,3.690951,5.507382066,-0.894776,-3.579104,0,256.4, -4.7, -0.4,0,0,1143,1024,1024,1024,18,0,0,0,267.9,0,0,93,4.208,4.205,0,0,0,0,4.153,88.52,15.219895172076,0.328084,6,P-GPS,
9700,2023-01-03 17:50:16,-34.953658764825,-54.9408377353739,0.328084,0.8858268,14.334068372076,15.219895172076,2.296588,3.690951,6.0840553128,8.1423230952,22,5,8.416,15.547979172076,0.656168,3.690951,6.0840553128,-0.894776,-3.579104,0,256.3, -3.9, 0.2,0,0,1143,1024,1024,1024,18,0,0,0,267.9,0,0,93,4.208,4.205,0,0,0,0,4.153,88.52,15.219895172076,0.328084,6,P-GPS,
9800,2023-01-03 17:50:16,-34.9536593194726,-54.940839559864,0.328084,1.0170604,14.202834772076,15.219895172076,2.296588,3.690951,6.6598427328,8.7242128776,22,5,8.416,15.547979172076,0.656168,3.690951,6.6598427328,-0.894776,-3.802798,0,256.1, -0.3, -0.1,0,0,1051,1024,1024,1024,4,0,0,0,267.9,0,0,93,4.208,4.205,0,0,0,0,4.153,88.52,15.219895172076,0.328084,6,P-GPS,
9900,2023-01-03 17:50:16,-34.9536598074106,-54.9408414678536,0.328084,1.1154856,14.104409572076,15.219895172076,2.296588,3.690951,7.2555120432,9.3219163088,22,5,8.416,15.547979172076,0.656168,3.690951,7.2555120432,-0.894776,-3.579104,0,256.2, 1.9, -0.1,0,0,1024,1024,1024,1024,0,0,0,0,267.9,0,0,93,4.208,4.205,0,0,0,0,4.153,88.52,15.219895172076,0.328084,6,P-GPS,
10000,2023-01-03 17:50:16,-34.9536603280787,-54.9408432482815,0.328084,1.2467192,13.973175972076,15.219895172076,2.624672,3.467257,7.817093426,9.8872050408,22,5,8.416,15.547979172076,0.656168,3.690951,7.817093426,-0.894776,-3.35541,0,256.3, 11.2, 0.7,0,0,1029,1024,1024,1024,1,0,0,0,267.9,0,0,93,4.208,4.205,0,0,0,0,4.153,88.52,15.219895172076,0.328084,6,P-GPS,
10100,2023-01-03 17:50:16,-34.9536608769343,-54.9408449459391,0.328084,1.4107612,13.809133972076,15.219895172076,2.624672,3.0422384,8.357611816,10.4329399664,22,5,8.416,15.547979172076,0.656168,3.690951,8.357611816,-0.894776,-2.908022,0,252.3, 14.6, 0.6,0,0,1024,1024,1024,1024,0,0,0,0,267.9,0,0,93,4.208,4.205,0,0,0,0,4.153,88.52,15.219895172076,0.328084,6,P-GPS,
10200,2023-01-03 17:50:16,-34.9536614031615,-54.9408461627214,0.328084,1.476378,13.743517172076,15.219895172076,2.624672,2.3264176,8.7574149784,10.844324494,22,5,8.409,15.547979172076,0.656168,3.690951,8.7574149784,-0.671082,-2.23694,0,252.3, 14, 0.8,0,0,1024,1024,1024,1024,0,0,0,0,267.9,0,0,92,4.205,4.202,0,0,0,0,4.233,88.52,15.219895172076,0.328084,6,P-GPS,
10300,2023-01-03 17:50:16,-34.9536617323226,-54.9408472061395,0.328084,1.5748032,13.645091972076,15.219895172076,2.624672,1.901399,9.0896328368,11.1786748984,22,5,8.409,15.547979172076,0.656168,3.690951,9.0896328368,-0.671082,-1.789552,0,252.3, 12.3, 0.8,0,0,1024,1024,1024,1024,0,0,0,0,267.9,0,0,92,4.205,4.202,0,0,0,0,4.233,88.52,15.219895172076,0.328084,6,P-GPS,
10400,2023-01-03 17:50:16,-34.9536619829051,-54.9408479676812,0.656168,1.968504,13.579475172076,15.547979172076,2.624672,1.4092722,9.33316959,11.424048922,22,5,8.409,15.547979172076,0.656168,3.690951,9.33316959,-0.447388,-1.342164,0,252.2, 10.3, 1,0,0,1024,1024,1024,1024,0,0,0,0,267.9,0,0,92,4.205,4.202,0,0,0,0,4.233,88.52,15.547979172076,0.656168,6,P-GPS,
10500,2023-01-03 17:50:16,-34.9536621926658,-54.9408485802834,0.656168,2.0341208,13.513858372076,15.547979172076,2.624672,0.9171454,9.5299543732,11.6226053588,22,5,8.409,15.547979172076,0.656168,3.690951,9.5299543732,-0.223694,-0.894776,0,252.2, 8.5, 0.9,0,0,1024,1024,1024,1024,0,0,0,0,267.9,0,0,92,4.205,4.202,0,0,0,0,4.233,88.52,15.547979172076,0.656168,6,P-GPS,
10600,2023-01-03 17:50:16,-34.953662305052,-54.9408489572953,0.656168,2.0341208,13.513858372076,15.547979172076,2.624672,0.4921268,9.6494753744,11.7425528692,22,5,8.409,15.547979172076,0.656168,3.690951,9.6494753744,-0.223694,-0.447388,0,252.3, 6.6, 0.7,0,0,1024,1024,1024,1024,0,0,0,0,267.9,0,0,92,4.205,4.202,0,0,0,0,4.233,88.52,15.547979172076,0.656168,6,P-GPS,
10700,2023-01-03 17:50:17,-34.9536622325944,-54.9408488856699,0.656168,2.0341208,13.513858372076,15.547979172076,2.624672,0.447388,9.6219163184,11.77657518,22,5,8.409,15.547979172076,0.656168,3.690951,9.6494753744,0,-0.447388,0,252.2, 5.3, 0.8,0,0,1024,1024,1024,1024,0,0,0,0,267.9,0,0,92,4.205,4.202,0,0,0,0,4.233,88.52,15.547979172076,0.656168,6,P-GPS,
10800,2023-01-03 17:50:17,-34.9536622577319,-54.9408489897868,0.656168,2.0341208,13.513858372076,15.547979172076,2.624672,0.223694,9.654363826,11.809055496,22,5,8.409,15.547979172076,0.656168,3.690951,9.654363826,0,-0.223694,0,252.1, 4, 0.9,0,0,1024,1024,1024,1024,0,0,0,0,267.9,0,0,92,4.205,4.202,0,0,0,0,4.233,88.52,15.547979172076,0.656168,6,P-GPS,
10900,2023-01-03 17:50:17,-34.9536622668373,-54.9408490159309,0.656168,2.0341208,13.513858372076,15.547979172076,2.624672,0.223694,9.6627627764,11.8175528716,22,5,8.409,15.547979172076,0.656168,3.690951,9.6627627764,0,-0.223694,0,252.2, 3.2, 0.7,0,0,1024,1024,1024,1024,0,0,0,0,267.9,0,0,92,4.205,4.202,0,0,0,0,4.233,88.52,15.547979172076,0.656168,6,P-GPS,
11000,2023-01-03 17:50:17,-34.9536622785059,-54.9408490146766,0.656168,2.0341208,13.513858372076,15.547979172076,2.624672,0.223694,9.6635173696,11.8218179636,22,5,8.409,15.547979172076,0.656168,3.690951,9.6635173696,0,-0.223694,0,252.1, 2.8, 0.5,0,0,1024,1024,1024,1024,0,0,0,0,267.9,0,0,92,4.205,4.202,0,0,0,0,4.233,88.52,15.547979172076,0.656168,6,P-GPS,
11100,2023-01-03 17:50:17,-34.9536622064636,-54.9408487423173,0.656168,2.0341208,13.513858372076,15.547979172076,2.624672,0,9.5780514876,11.9073822708,22,5,8.409,15.547979172076,0.656168,3.690951,9.6635173696,0,0,0,252.1, 2.2, 0.6,0,0,1024,1024,1024,1024,0,0,0,0,267.9,0,0,92,4.205,4.202,0,0,0,0,4.233,88.52,15.547979172076,0.656168,6,P-GPS,
11200,2023-01-03 17:50:17,-34.9536621821265,-54.9408487124729,0.656168,2.0341208,13.513858372076,15.547979172076,2.952756,0,9.5671262904,11.9199806964,22,5,8.399,15.547979172076,0.656168,3.690951,9.6635173696,0,0,0,252.1, 1.8, 0.3,0,0,1024,1024,1024,1024,0,0,0,0,267.9,0,0,92,4.202,4.2,0,0,0,0,4.3,88.52,15.547979172076,0.656168,6,P-GPS,
11300,2023-01-03 17:50:17,-34.95366213515,-54.9408486689019,0.656168,2.0341208,13.513858372076,15.547979172076,2.952756,0,9.5500987308,11.9415030068,22,5,8.399,15.547979172076,0.656168,3.690951,9.6635173696,0,0,0,252, 1.9, 0,0,0,1024,1024,1024,1024,0,0,0,0,267.9,0,0,92,4.202,4.2,0,0,0,0,4.3,88.52,15.547979172076,0.656168,6,P-GPS,
11400,2023-01-03 17:50:17,-34.9536621145925,-54.9408486481799,0.656168,2.0341208,13.513858372076,15.547979172076,2.952756,0,9.5421919064,11.9512471016,22,5,8.399,15.547979172076,0.656168,3.690951,9.6635173696,0,0,0,252, 2.1, 0,0,0,1024,1024,1024,1024,0,0,0,0,267.9,0,0,92,4.202,4.2,0,0,0,0,4.3,88.52,15.547979172076,0.656168,6,P-GPS,
11500,2023-01-03 17:50:17,-34.9536620744464,-54.9408488064979,0.656168,2.0341208,13.513858372076,15.547979172076,2.952756,0,9.5842194668,12.0007877856,22,5,8.399,15.547979172076,0.656168,3.690951,9.6635173696,0,0,0,252, 1.9, 0.8,0,0,1024,1024,1024,1024,0,0,0,0,267.9,0,0,92,4.202,4.2,0,0,0,0,4.3,88.52,15.547979172076,0.656168,6,P-GPS,
11600,2023-01-03 17:50:17,-34.953662064267,-54.9408488359973,0.656168,2.0341208,13.513858372076,15.547979172076,2.952756,0,9.5917982072,12.0103678384,22,5,8.399,15.547979172076,0.656168,3.690951,9.6635173696,0,0,0,252, 1.8, 1.1,0,0,1024,1024,1024,1024,0,0,0,0,267.9,0,0,92,4.202,4.2,0,0,0,0,4.3,88.52,15.547979172076,0.656168,6,P-GPS,
11700,2023-01-03 17:50:18,-34.9536620316078,-54.9408488875906,0.656168,2.0341208,13.513858372076,15.547979172076,2.952756,0,9.6037076564,12.029856028,22,5,8.399,15.547979172076,0.656168,3.690951,9.6635173696,0,0,0,252.1, 1.8, 0.9,0,0,1059,1024,1024,1024,5,0,0,0,267.9,0,0,92,4.202,4.2,0,0,0,0,4.3,88.52,15.547979172076,0.656168,6,P-GPS,
11800,2023-01-03 17:50:18,-34.9536619823767,-54.9408489143724,0.656168,2.0341208,13.513858372076,15.547979172076,2.952756,0,9.606955688,12.049541068,22,5,8.399,15.547979172076,0.656168,3.690951,9.6635173696,0,0,0,252.2, 1.8, 0.2,0,0,1059,1024,1024,1024,5,0,0,0,267.9,0,0,92,4.202,4.2,0,0,0,0,4.3,88.52,15.547979172076,0.656168,6,P-GPS,
11900,2023-01-03 17:50:18,-34.9536619263997,-54.9408491665899,0.656168,2.0341208,13.513858372076,15.547979172076,2.952756,0,9.6749346928,12.1276578684,22,5,8.399,15.547979172076,0.656168,3.690951,9.6749346928,0,0,0,252.2, 1.7, -0.6,0,0,1024,1024,1024,1024,0,0,0,0,267.9,0,0,92,4.202,4.2,0,0,0,0,4.3,88.52,15.547979172076,0.656168,6,P-GPS,
12000,2023-01-03 17:50:18,-34.9536618866307,-54.9408491669191,0.656168,2.0341208,13.513858372076,15.547979172076,2.952756,0,9.6714898108,12.1421919896,22,5,8.399,15.547979172076,0.656168,3.690951,9.6749346928,0,0,0,252.2, 1.4, -0.5,0,0,1024,1024,1024,1024,0,0,0,0,267.9,0,0,92,4.202,4.2,0,0,0,0,4.3,88.52,15.547979172076,0.656168,6,P-GPS,
12100,2023-01-03 17:50:18,-34.9536618587814,-54.9408491639271,0.656168,2.0341208,13.513858372076,15.547979172076,2.952756,0,9.6681105456,12.152395402,22,5,8.399,15.547979172076,0.656168,3.690951,9.6749346928,0,0,0,252.3, 1.3, -0.3,0,0,1024,1024,1024,1024,0,0,0,0,267.9,0,0,92,4.202,4.2,0,0,0,0,4.3,88.52,15.547979172076,0.656168,6,P-GPS,
12200,2023-01-03 17:50:18,-34.9536617936156,-54.9408491439525,0.656168,2.0341208,13.513858372076,15.547979172076,2.952756,0.223694,9.6565619888,12.1769032768,22,5,8.399,15.547979172076,0.656168,3.690951,9.6749346928,0.223694,0,0,252.4, 1.2, -0.6,0,0,1024,1024,1024,1024,0,0,0,0,267.9,0,0,92,4.202,4.199,0,0,0,0,4.224,88.52,15.547979172076,0.656168,6,P-GPS,
12300,2023-01-03 17:50:18,-34.9536616913546,-54.9408491055816,0.656168,2.0341208,13.513858372076,15.547979172076,2.952756,0,9.6364504396,12.2159452728,22,5,8.399,15.547979172076,0.656168,3.690951,9.6749346928,0,0,0,252.3, 0.8, -1.3,0,0,1024,1024,1024,1024,0,0,0,0,267.9,0,0,92,4.202,4.199,0,0,0,0,4.224,88.52,15.547979172076,0.656168,6,P-GPS,
12400,2023-01-03 17:50:18,-34.9536616739921,-54.9408491303068,0.984252,2.3622048,13.513858372076,15.876063172076,2.952756,0,9.6421262928,12.2256565592,22,5,8.399,15.876063172076,0.984252,3.690951,9.6749346928,0,0,0,252.3, 0.6, -1.5,0,0,1024,1024,1024,1024,0,0,0,0,267.9,0,0,92,4.202,4.199,0,0,0,0,4.224,88.52,15.876063172076,0.984252,6,P-GPS,
12500,2023-01-03 17:50:18,-34.9536616048687,-54.9408490345467,0.656168,2.0341208,13.513858372076,15.547979172076,2.952756,0,9.6083336408,12.2638127284,23,5,8.399,15.876063172076,0.984252,3.690951,9.6749346928,0,0,0,252.3, 0.3, -1.3,0,0,1024,1024,1024,1024,0,0,0,0,267.9,0,0,92,4.202,4.199,0,0,0,0,4.224,88.52,15.547979172076,0.656168,6,P-GPS,
12600,2023-01-03 17:50:18,-34.953661535784,-54.9408489429389,0.656168,2.0341208,13.513858372076,15.547979172076,2.952756,0,9.575787708,12.3010502624,23,5,8.399,15.876063172076,0.984252,3.690951,9.6749346928,0,0,0,252.2, 0.2, -1.3,0,0,1024,1024,1024,1024,0,0,0,0,267.9,0,0,92,4.202,4.199,0,0,0,0,4.224,88.52,15.547979172076,0.656168,6,P-GPS,
12700,2023-01-03 17:50:19,-34.9536614650493,-54.9408488515584,0.656168,2.0013124,13.546666772076,15.547979172076,2.952756,0,9.5432089668,12.3386486888,23,5,8.399,15.876063172076,0.984252,3.690951,9.6749346928,0,0,0,252.4, 0, -1,0,0,1024,1024,1024,1024,0,0,0,0,267.9,0,0,92,4.202,4.199,0,0,0,0,4.224,88.52,15.547979172076,0.656168,6,P-GPS,
12800,2023-01-03 17:50:19,-34.9536613465409,-54.9408486878914,0.656168,2.0013124,13.546666772076,15.547979172076,2.952756,0,9.4855974164,12.4039374048,23,5,8.399,15.876063172076,0.984252,3.690951,9.6749346928,0,0,0,252.4, -0.1, -1.3,0,0,1024,1024,1024,1024,0,0,0,0,267.9,0,0,92,4.202,4.199,0,0,0,0,4.224,88.52,15.547979172076,0.656168,6,P-GPS,
12900,2023-01-03 17:50:19,-34.9536612989875,-54.9408486316363,0.656168,2.0013124,13.546666772076,15.547979172076,2.952756,0,9.4652890168,12.4281171956,23,5,8.399,15.876063172076,0.984252,3.690951,9.6749346928,0,0,0,252.5, 0.1, -1,0,0,1024,1024,1024,1024,0,0,0,0,267.9,0,0,92,4.202,4.199,0,0,0,0,4.224,88.52,15.547979172076,0.656168,6,P-GPS,
13000,2023-01-03 17:50:19,-34.9536612941274,-54.9408485999889,0.656168,2.0013124,13.546666772076,15.547979172076,2.952756,0,9.4556433472,12.4377300568,23,5,8.399,15.876063172076,0.984252,3.690951,9.6749346928,0,0,0,252.4, 0.5, -1,0,0,1024,1024,1024,1024,0,0,0,0,267.9,0,0,92,4.202,4.199,0,0,0,0,4.224,88.52,15.547979172076,0.656168,6,P-GPS,
13100,2023-01-03 17:50:19,-34.9536613155407,-54.9408485713701,0.656168,2.0013124,13.546666772076,15.547979172076,2.952756,0,9.4491144756,12.449311422,23,5,8.399,15.876063172076,0.984252,3.690951,9.6749346928,0,0,0,252.3, 0.4, -1,0,0,1024,1024,1024,1024,0,0,0,0,267.9,0,0,92,4.202,4.199,0,0,0,0,4.224,88.52,15.547979172076,0.656168,6,P-GPS,
13200,2023-01-03 17:50:19,-34.9536613807835,-54.9408485287529,0.656168,2.0013124,13.546666772076,15.547979172076,2.952756,0,9.4421590948,12.4763127352,23,5,8.399,15.876063172076,0.984252,3.690951,9.6749346928,0,0,0,252.3, 0.2, -0.5,0,0,1024,1024,1024,1024,0,0,0,0,267.9,0,0,92,4.201,4.197,0,0,0,0,4.149,88.52,15.547979172076,0.656168,6,P-GPS,
13300,2023-01-03 17:50:19,-34.953661422231,-54.9408484639425,0.656168,1.9356956,13.612283572076,15.547979172076,2.952756,0,9.426837572,12.5009190352,23,5,8.399,15.876063172076,0.984252,3.690951,9.6749346928,0,0,0,252.2, 0.4, -0.1,0,0,1024,1024,1024,1024,0,0,0,0,267.9,0,0,92,4.201,4.197,0,0,0,0,4.149,88.52,15.547979172076,0.656168,6,P-GPS,
13400,2023-01-03 17:50:19,-34.9536614523381,-54.9408484192687,0.656168,1.9356956,13.612283572076,15.547979172076,2.952756,0,9.4164045008,12.518209062,23,5,8.399,15.876063172076,0.984252,3.690951,9.6749346928,0,0,0,252.2, 0.8, -0.3,0,0,1024,1024,1024,1024,0,0,0,0,267.9,0,0,92,4.201,4.197,0,0,0,0,4.149,88.52,15.547979172076,0.656168,6,P-GPS,
13500,2023-01-03 17:50:19,-34.9536614780093,-54.940848381585,0.656168,1.9356956,13.612283572076,15.547979172076,2.952756,0,9.4076774664,12.5328416084,23,5,8.399,15.876063172076,0.984252,3.690951,9.6749346928,0,0,0,252.2, 0.6, -0.2,0,0,1024,1024,1024,1024,0,0,0,0,267.9,0,0,92,4.201,4.197,0,0,0,0,4.149,88.52,15.547979172076,0.656168,6,P-GPS,
13600,2023-01-03 17:50:20,-34.9536614753464,-54.9408483452053,0.656168,1.9356956,13.612283572076,15.547979172076,2.952756,0,9.3968835028,12.5437668056,23,5,8.399,15.876063172076,0.984252,3.690951,9.6749346928,0,0,0,252.2, 0.2, 0.2,0,0,1024,1024,1024,1024,0,0,0,0,267.9,0,0,92,4.201,4.197,0,0,0,0,4.149,88.52,15.547979172076,0.656168,6,P-GPS,
13700,2023-01-03 17:50:20,-34.953661526184,-54.9408483202579,0.656168,1.968504,13.579475172076,15.547979172076,2.952756,0,9.394029172,12.5637799296,23,5,8.399,15.876063172076,0.984252,3.690951,9.6749346928,0,0,0,252.1, 0.1, 0,0,0,1024,1024,1024,1024,0,0,0,0,267.9,0,0,92,4.201,4.197,0,0,0,0,4.149,88.52,15.547979172076,0.656168,6,P-GPS,
13800,2023-01-03 17:50:20,-34.9536615694517,-54.940848303696,0.656168,1.968504,13.579475172076,15.547979172076,2.952756,0,9.3929793032,12.5803153632,23,5,8.399,15.876063172076,0.984252,3.690951,9.6749346928,0,0,0,251.9, 0.6, 0.8,0,0,1024,1024,1024,1024,0,0,0,0,267.9,0,0,92,4.201,4.197,0,0,0,0,4.149,88.52,15.547979172076,0.656168,6,P-GPS,
13900,2023-01-03 17:50:20,-34.9536616056756,-54.9408482913177,0.656168,1.968504,13.579475172076,15.547979172076,2.952756,0,9.3925856024,12.5940292744,23,5,8.399,15.876063172076,0.984252,3.690951,9.6749346928,0,0,0,251.9, 0.5, 1.2,0,0,1024,1024,1024,1024,0,0,0,0,267.9,0,0,92,4.201,4.197,0,0,0,0,4.149,88.52,15.547979172076,0.656168,6,P-GPS,
14000,2023-01-03 17:50:20,-34.9536616430733,-54.9408482832458,0.656168,1.968504,13.579475172076,15.547979172076,2.952756,0,9.393537046,12.6079072276,23,5,8.399,15.876063172076,0.984252,3.690951,9.6749346928,0,0,0,252, 0.6, 0.8,0,0,1024,1024,1024,1024,0,0,0,0,267.9,0,0,92,4.201,4.197,0,0,0,0,4.149,88.52,15.547979172076,0.656168,6,P-GPS,
14100,2023-01-03 17:50:20,-34.9536616816804,-54.9408482473443,0.656168,1.968504,13.579475172076,15.547979172076,2.952756,0,9.3865488568,12.6255909552,23,5,8.399,15.876063172076,0.984252,3.690951,9.6749346928,0,0,0,252.1, 0.8, 1,0,0,1024,1024,1024,1024,0,0,0,0,267.9,0,0,92,4.201,4.197,0,0,0,0,4.149,88.52,15.547979172076,0.656168,6,P-GPS,
14200,2023-01-03 17:50:20,-34.9536617149117,-54.9408482394605,0.656168,1.968504,13.579475172076,15.547979172076,2.952756,0,9.3872378332,12.637959722,23,5,8.395,15.876063172076,0.984252,3.690951,9.6749346928,0,0,0,252.2, 0.6, 1,0,0,1024,1024,1024,1024,0,0,0,0,267.9,0,0,92,4.197,4.194,0,0,0,0,4.141,88.52,15.547979172076,0.656168,6,P-GPS,
14300,2023-01-03 17:50:20,-34.953661739583,-54.9408482326194,0.656168,1.968504,13.579475172076,15.547979172076,2.952756,0,9.387467492,12.6471788824,23,5,8.395,15.876063172076,0.984252,3.690951,9.6749346928,0,0,0,252.1, 0.6, 0.4,0,0,1024,1024,1024,1024,0,0,0,0,267.9,0,0,92,4.197,4.194,0,0,0,0,4.141,88.52,15.547979172076,0.656168,6,P-GPS,
14400,2023-01-03 17:50:20,-34.9536617520443,-54.940848220019,0.656168,1.968504,13.579475172076,15.547979172076,2.952756,0,9.3849412452,12.6530843944,23,5,8.395,15.876063172076,0.984252,3.690951,9.6749346928,0,0,0,252.2, 0.5, 1.2,0,0,1024,1024,1024,1024,0,0,0,0,267.9,0,0,92,4.197,4.194,0,0,0,0,4.141,88.52,15.547979172076,0.656168,6,P-GPS,
14500,2023-01-03 17:50:20,-34.9536617561019,-54.9408481296863,0.656168,1.968504,13.579475172076,15.547979172076,2.952756,0,9.3591210344,12.6801513244,23,5,8.395,15.876063172076,0.984252,3.690951,9.6749346928,0,0,0,252.2, 0.5, 0.5,0,0,1024,1024,1024,1024,0,0,0,0,267.9,0,0,92,4.197,4.194,0,0,0,0,4.141,88.52,15.547979172076,0.656168,6,P-GPS,
14600,2023-01-03 17:50:21,-34.9536617510301,-54.9408481353594,0.656168,1.968504,13.579475172076,15.547979172076,2.952756,0,9.3603349452,12.6826447628,23,5,8.395,15.876063172076,0.984252,3.690951,9.6749346928,0,0,0,252, 0.6, -0.8,0,0,1024,1024,1024,1024,0,0,0,0,267.9,0,0,92,4.197,4.194,0,0,0,0,4.141,88.52,15.547979172076,0.656168,6,P-GPS,
14700,2023-01-03 17:50:21,-34.9536617623519,-54.9408481559298,0.656168,1.968504,13.579475172076,15.547979172076,2.952756,0,9.367290326,12.6900594612,23,5,8.395,15.876063172076,0.984252,3.690951,9.6749346928,0,0,0,252.1, 0.7, -0.2,0,0,1024,1024,1024,1024,0,0,0,0,267.9,0,0,92,4.197,4.194,0,0,0,0,4.141,88.52,15.547979172076,0.656168,6,P-GPS,
14800,2023-01-03 17:50:21,-34.9536617676977,-54.9408481759776,0.656168,1.968504,13.579475172076,15.547979172076,2.952756,0,9.3735895388,12.696358674,23,5,8.395,15.876063172076,0.984252,3.690951,9.6749346928,0,0,0,252.2, 0.4, 0.2,0,0,1024,1024,1024,1024,0,0,0,0,267.9,0,0,92,4.197,4.194,0,0,0,0,4.141,88.52,15.547979172076,0.656168,6,P-GPS,
14900,2023-01-03 17:50:21,-34.9536617486579,-54.9408482241033,0.656168,1.968504,13.579475172076,15.547979172076,2.952756,0,9.385827072,12.7123363648,23,5,8.395,15.876063172076,0.984252,3.690951,9.6749346928,0,0,0,252.3, 0.7, 0,0,0,1024,1024,1024,1024,0,0,0,0,267.9,0,0,92,4.197,4.194,0,0,0,0,4.141,88.52,15.547979172076,0.656168,6,P-GPS,
15000,2023-01-03 17:50:21,-34.9536617194522,-54.9408482385642,0.656168,1.968504,13.579475172076,15.547979172076,2.952756,0,9.3873690668,12.7238521132,23,5,8.395,15.876063172076,0.984252,3.690951,9.6749346928,0,0,0,252.2, 0.5, 0.3,0,0,1024,1024,1024,1024,0,0,0,0,267.9,0,0,92,4.197,4.194,0,0,0,0,4.141,88.52,15.547979172076,0.656168,6,P-GPS,
15100,2023-01-03 17:50:21,-34.9536616653247,-54.9408482511568,0.656168,1.968504,13.579475172076,15.547979172076,2.952756,0,9.3861879644,12.7439636624,23,5,8.389,15.876063172076,0.984252,3.690951,9.6749346928,0,0,0,252.2, 0.7, 0.6,0,0,1024,1024,1024,1024,0,0,0,0,267.9,0,0,92,4.194,4.191,0,0,0,0,4.229,88.7,15.547979172076,0.656168,6,P-GPS,
15200,2023-01-03 17:50:21,-34.953661655697,-54.9408482590432,0.656168,1.968504,13.579475172076,15.547979172076,2.952756,0,9.387631534,12.748195946,23,5,8.389,15.876063172076,0.984252,3.690951,9.6749346928,0,0,0,252.3, 0.7, 0,0,0,1024,1024,1024,1024,0,0,0,0,267.9,0,0,92,4.194,4.191,0,0,0,0,4.229,88.7,15.547979172076,0.656168,6,P-GPS,
15300,2023-01-03 17:50:21,-34.9536617006664,-54.9408482241947,0.656168,1.968504,13.579475172076,15.547979172076,2.952756,0,9.3815291716,12.7676185188,23,5,8.389,15.876063172076,0.984252,3.690951,9.6749346928,0,0,0,252.4, 0.6, -0.4,0,0,1024,1024,1024,1024,0,0,0,0,267.9,0,0,92,4.194,4.191,0,0,0,0,4.229,88.7,15.547979172076,0.656168,6,P-GPS,
15400,2023-01-03 17:50:21,-34.953661721173,-54.9408482242836,0.656168,1.968504,13.579475172076,15.547979172076,2.952756,0,9.3833992504,12.775098834,23,5,8.389,15.876063172076,0.984252,3.690951,9.6749346928,0,0,0,252.3, 1.1, -0.2,0,0,1024,1024,1024,1024,0,0,0,0,267.9,0,0,92,4.194,4.191,0,0,0,0,4.229,88.7,15.547979172076,0.656168,6,P-GPS,
15500,2023-01-03 17:50:21,-34.9536617411597,-54.940848220471,0.656168,1.968504,13.579475172076,15.547979172076,2.952756,0,9.3840882268,12.782480724,23,5,8.389,15.876063172076,0.984252,3.690951,9.6749346928,0,0,0,252.1, 1.2, 0.3,0,0,1024,1024,1024,1024,0,0,0,0,267.9,0,0,92,4.194,4.191,0,0,0,0,4.229,88.7,15.547979172076,0.656168,6,P-GPS,
15600,2023-01-03 17:50:21,-34.9536617550585,-54.9408482446737,0.656168,1.968504,13.579475172076,15.547979172076,2.952756,0,9.3923559436,12.791338992,23,5,8.389,15.876063172076,0.984252,3.690951,9.6749346928,0,0,0,252.2, 1, 0.3,0,0,1024,1024,1024,1024,0,0,0,0,267.9,0,0,92,4.194,4.191,0,0,0,0,4.229,88.7,15.547979172076,0.656168,6,P-GPS,
15700,2023-01-03 17:50:22,-34.9536617642173,-54.9408482941895,0.656168,1.968504,13.579475172076,15.547979172076,2.952756,0,9.4075134244,12.8064964728,23,5,8.389,15.876063172076,0.984252,3.690951,9.6749346928,0,0,0,252.1, 0.7, 0,0,0,1024,1024,1024,1024,0,0,0,0,267.9,0,0,92,4.194,4.191,0,0,0,0,4.229,88.7,15.547979172076,0.656168,6,P-GPS,
15800,2023-01-03 17:50:22,-34.953661786119,-54.9408483837853,0.656168,1.968504,13.579475172076,15.547979172076,2.952756,0,9.4354661812,12.8344492296,23,5,8.389,15.876063172076,0.984252,3.690951,9.6749346928,0,0,0,252.1, 0.8, 0.2,0,0,1024,1024,1024,1024,0,0,0,0,267.9,0,0,92,4.194,4.191,0,0,0,0,4.229,88.7,15.547979172076,0.656168,6,P-GPS,
15900,2023-01-03 17:50:22,-34.9536618142557,-54.9408484000258,0.656168,1.968504,13.579475172076,15.547979172076,2.952756,0,9.4427168376,12.8458337444,23,5,8.389,15.876063172076,0.984252,3.690951,9.6749346928,0,0,0,252.1, 1, 0.3,0,0,1024,1024,1024,1024,0,0,0,0,267.9,0,0,92,4.194,4.191,0,0,0,0,4.229,88.7,15.547979172076,0.656168,6,P-GPS,
16000,2023-01-03 17:50:22,-34.9536618329649,-54.940848433484,0.656168,1.968504,13.579475172076,15.547979172076,2.952756,0,9.4541013524,12.857940044,23,5,8.389,15.876063172076,0.984252,3.690951,9.6749346928,0,0,0,252.2, 1.3, 0.2,0,0,1024,1024,1024,1024,0,0,0,0,267.9,0,0,92,4.194,4.191,0,0,0,0,4.229,88.7,15.547979172076,0.656168,6,P-GPS,
16100,2023-01-03 17:50:22,-34.9536618442085,-54.9408484807944,0.656168,1.968504,13.579475172076,15.547979172076,2.952756,0,9.468832324,12.8726710156,23,5,8.389,15.876063172076,0.984252,3.690951,9.6749346928,0,0,0,252.3, 1.2, -0.1,0,0,1024,1024,1024,1024,0,0,0,0,267.9,0,0,92,4.194,4.191,0,0,0,0,4.229,88.7,15.547979172076,0.656168,6,P-GPS,
16200,2023-01-03 17:50:22,-34.9536618472191,-54.9408485331429,0.656168,2.0341208,13.513858372076,15.547979172076,2.952756,0,9.484252272,12.8883534308,23,5,8.384,15.876063172076,0.984252,3.690951,9.6749346928,0,0,0,252.3, 0.8, -0.5,0,0,1024,1024,1024,1024,0,0,0,0,267.9,0,0,92,4.194,4.188,0,0,0,0,4.199,88.7,15.547979172076,0.656168,6,P-GPS,
16300,2023-01-03 17:50:22,-34.9536618649101,-54.9408485366,0.656168,2.0341208,13.513858372076,15.547979172076,2.952756,0,9.486876944,12.8948823024,23,5,8.384,15.876063172076,0.984252,3.690951,9.6749346928,0,0,0,252.3, 0.9, -0.4,0,0,1024,1024,1024,1024,0,0,0,0,267.9,0,0,92,4.194,4.188,0,0,0,0,4.199,88.7,15.547979172076,0.656168,6,P-GPS,
16400,2023-01-03 17:50:22,-34.953661894562,-54.9408485232026,0.656168,2.0341208,13.513858372076,15.547979172076,2.952756,0,9.4856958416,12.9064308592,23,5,8.384,15.876063172076,0.984252,3.690951,9.6749346928,0,0,0,252.1, 1.3, 0.4,0,0,1024,1024,1024,1024,0,0,0,0,267.9,0,0,92,4.194,4.188,0,0,0,0,4.199,88.7,15.547979172076,0.656168,6,P-GPS,
16500,2023-01-03 17:50:22,-34.9536619326936,-54.9408484948164,0.656168,1.968504,13.579475172076,15.547979172076,2.952756,0,9.4809386236,12.922736634,23,5,8.384,15.876063172076,0.984252,3.690951,9.6749346928,0,0,0,252.1, 1.3, 1.3,0,0,1024,1024,1024,1024,0,0,0,0,267.9,0,0,92,4.194,4.188,0,0,0,0,4.199,88.7,15.547979172076,0.656168,6,P-GPS,
16600,2023-01-03 17:50:22,-34.9536618951776,-54.9408483533268,0.656168,1.968504,13.579475172076,15.547979172076,2.952756,0,9.4365488584,12.967192016,23,5,8.384,15.876063172076,0.984252,3.690951,9.6749346928,0,0,0,252.2, 1.2, 1.5,0,0,1024,1024,1024,1024,0,0,0,0,267.9,0,0,92,4.194,4.188,0,0,0,0,4.199,88.7,15.547979172076,0.656168,6,P-GPS,
16700,2023-01-03 17:50:23,-34.9536619185868,-54.940848321554,0.656168,1.968504,13.579475172076,15.547979172076,2.952756,0,9.4295278608,12.9799544836,23,5,8.384,15.876063172076,0.984252,3.690951,9.6749346928,0,0,0,252.1, 1, 1.4,0,0,1024,1024,1024,1024,0,0,0,0,267.9,0,0,92,4.194,4.188,0,0,0,0,4.199,88.7,15.547979172076,0.656168,6,P-GPS,
16800,2023-01-03 17:50:23,-34.9536619550611,-54.9408482997215,0.656168,1.968504,13.579475172076,15.547979172076,2.952756,0,9.4265751048,12.9947838804,23,5,8.384,15.876063172076,0.984252,3.690951,9.6749346928,0,0,0,252.1, 1, 1.1,0,0,1024,1024,1024,1024,0,0,0,0,267.9,0,0,92,4.194,4.188,0,0,0,0,4.199,88.7,15.547979172076,0.656168,6,P-GPS,
16900,2023-01-03 17:50:23,-34.9536620101335,-54.9408482839827,0.656168,1.968504,13.579475172076,15.547979172076,2.952756,0,9.4271328476,13.015420364,23,5,8.384,15.876063172076,0.984252,3.690951,9.6749346928,0,0,0,252.2, 0.9, 1.2,0,0,1024,1024,1024,1024,0,0,0,0,267.9,0,0,92,4.194,4.188,0,0,0,0,4.199,88.7,15.547979172076,0.656168,6,P-GPS,
