time(millisecond),datetime(utc),latitude,longitude,height_above_takeoff(feet),height_above_ground_at_drone_location(feet),ground_elevation_at_drone_location(feet),altitude_above_seaLevel(feet),height_sonar(feet),speed(mph),distance(feet),mileage(feet),satellites,gpslevel,voltage(v),max_altitude(feet),max_ascent(feet),max_speed(mph),max_distance(feet), xSpeed(mph), ySpeed(mph), zSpeed(mph), compass_heading(degrees), pitch(degrees), roll(degrees),isPhoto,isVideo,rc_elevator,rc_aileron,rc_throttle,rc_rudder,rc_elevator(percent),rc_aileron(percent),rc_throttle(percent),rc_rudder(percent),gimbal_heading(degrees),gimbal_pitch(degrees),gimbal_roll(degrees),battery_percent,voltageCell1,voltageCell2,voltageCell3,voltageCell4,voltageCell5,voltageCell6,current(A),battery_temperature(f),altitude(feet),ascent(feet),flycStateRaw,flycState,message
0,2023-01-04 18:48:48,-34.9535149931982,-54.9408134652012,0,0,14.97484627972,14.97484627972,0.328084,0,0,0,12,4,0,14.97484627972,0,0,0,0,-0.223694,0,11.6, -11.2, -5,0,0,364,364,364,1684,-100,-100,-100,100,21.5,-7.1,0,95,4.281,4.28,0,0,0,0,0,83.12,14.97484627972,0,41,Motors_Started,"Error de calibración del estabilizador. Reinicia la aeronave o contacta con la Asistencia DJI (Code: 40011)"
100,2023-01-04 18:48:48,-34.9535150572388,-54.940813767782,0,0,14.97484627972,14.97484627972,0.328084,0.223694,0.093450790392,0.093450790392,12,4,0,14.97484627972,0,0.223694,0.093450790392,0,-0.223694,0,10.2, -10.9, -3.6,0,0,364,364,364,1684,-100,-100,-100,100,21.4,-7.1,0,95,4.281,4.28,0,0,0,0,0,83.12,14.97484627972,0,41,Motors_Started,"Error de calibración del estabilizador. Reinicia la aeronave o contacta con la Asistencia DJI (Code: 40011)"
200,2023-01-04 18:48:48,-34.9535154115988,-54.940814380045,0,0,14.97484627972,14.97484627972,0.328084,0.223694,0.313280521836,0.317587280504,12,4,0,14.97484627972,0,0.223694,0.313280521836,0,-0.223694,0,9.3, -9.6, -3.9,0,0,364,364,364,1684,-100,-100,-100,100,20.5,-7.1,0,95,4.281,4.28,0,0,0,0,0,83.12,14.97484627972,0,41,Motors_Started,
300,2023-01-04 18:48:48,-34.9535156863656,-54.94081447387,0,-0.032808400000002,15.00765467972,14.97484627972,0.328084,0,0.39362205984,0.4216863652,12,4,0,14.97484627972,0,0.223694,0.39362205984,0,0,0,7.9, -9.5, -2.8,0,0,364,364,364,1684,-100,-100,-100,100,19.7,-7.1,0,95,4.281,4.28,0,0,0,0,0,83.12,14.97484627972,0,41,Motors_Started,
400,2023-01-04 18:48:48,-34.9535159190431,-54.9408144888539,0,-0.032808400000002,15.00765467972,14.97484627972,0.328084,0,0.45585959464,0.50669949128,12,4,0,14.97484627972,0,0.223694,0.45585959464,0,0,0,8, -9.5, -1.5,0,0,364,364,364,1684,-100,-100,-100,100,19.1,-7.1,0,95,4.281,4.28,0,0,0,0,0,83.12,14.97484627972,0,41,Motors_Started,"Setting new Return-To-Home altitude to 100m (328 ft). Data Recorder File Index is 92. Setting new Maximum Flight Altitude to 120m (394 ft)"
500,2023-01-04 18:48:48,-34.9535161145437,-54.9408143925334,0,-0.032808400000002,15.00765467972,14.97484627972,0.328084,0.223694,0.49424542264,0.58362206592,12,4,0,14.97484627972,0,0.223694,0.49424542264,-0.223694,0,0,7.4, -8.1, -0.5,0,0,1024,1024,1021,1024,0,0,-0,0,18.9,-7.1,0,95,4.281,4.28,0,0,0,0,0,83.12,14.97484627972,0,41,Motors_Started,
600,2023-01-04 18:48:48,-34.9535165923542,-54.9408136499523,0,-0.032808400000002,15.00765467972,14.97484627972,0.328084,0,0.58605973004,0.86593506708,13,4,0,14.97484627972,0,0.223694,0.58605973004,0,0,0,6, -8.5, 0.6,0,0,1024,1024,1024,1024,0,0,0,0,18.3,-7.1,0,95,4.281,4.28,0,0,0,0,0,83.12,14.97484627972,0,41,Motors_Started,
700,2023-01-04 18:48:48,-34.9535166256321,-54.9408135086167,0,-0.032808400000002,15.00765467972,14.97484627972,0.328084,0,0.5957349272,0.90991144644,13,4,0,14.97484627972,0,0.223694,0.5957349272,0,0,0.223694,5.2, -9.5, 0.6,0,0,1024,1024,1024,1024,0,0,0,0,17.3,-7.1,0,95,4.281,4.28,0,0,0,0,0,83.12,14.97484627972,0,41,Motors_Started,
800,2023-01-04 18:48:49,-34.953516658293,-54.9408133864172,0,-0.032808400000002,15.00765467972,14.97484627972,0.328084,0,0.60796589872,0.94834648704,13,4,0,14.97484627972,0,0.223694,0.60796589872,0,0,0.223694,4.4, -9.4, -0.5,0,0,1024,1024,1024,1024,0,0,0,0,16.2,-7.1,0,95,4.281,4.28,0,0,0,0,0,83.12,14.97484627972,0,41,Motors_Started,
900,2023-01-04 18:48:49,-34.953516660138,-54.9408132723119,0,-0.032808400000002,15.00765467972,14.97484627972,0.328084,0,0.61091209304,0.98247378472,13,4,0,14.97484627972,0,0.223694,0.61091209304,0,0,0.223694,3.7, -9.2, -1.1,0,0,1024,1024,1024,1024,0,0,0,0,15.5,-7.1,0,95,4.281,4.28,0,0,0,0,0,83.12,14.97484627972,0,41,Motors_Started,
1000,2023-01-04 18:48:49,-34.9535162461169,-54.9408125007677,-0.328084,-0.3608924,15.00765467972,14.64676227972,0.328084,0,0.54049870496,1.25824479092,13,4,0,14.97484627972,0,0.223694,0.61091209304,0,0,0,3.2, -7.9, -0.7,0,0,1024,1024,1024,1024,0,0,0,0,14.9,-7.1,0,95,4.281,4.28,0,0,0,0,0,83.12,14.64676227972,-0.328084,41,Motors_Started,
1100,2023-01-04 18:48:49,-34.9535162833702,-54.9408123851154,-0.328084,-0.3608924,15.00765467972,14.64676227972,0.328084,0,0.57087272168,1.29540358476,13,4,0,14.97484627972,0,0.223694,0.61091209304,0,0,0,0.1, -7.7, 0.9,0,0,1024,1024,1024,1024,0,0,0,0,13.1,-7.1,0,95,4.281,4.28,0,0,0,0,0,83.12,14.64676227972,-0.328084,10,Assisted_Takeoff,
1200,2023-01-04 18:48:49,-34.953516321163,-54.940812252105,0,-0.032808400000002,15.00765467972,14.97484627972,0.328084,0,0.60526248656,1.3375000428,13,4,0,14.97484627972,0,0.223694,0.61091209304,0,0,0,357.4, -8.1, 1.7,0,0,1024,1024,1024,1024,0,0,0,0,9.8,-7.1,0,95,4.281,4.28,0,0,0,0,0,83.12,14.97484627972,0,10,Assisted_Takeoff,
1300,2023-01-04 18:48:49,-34.9535163862582,-54.9408120383672,0,-0.032808400000002,15.00765467972,14.97484627972,0.328084,0.223694,0.66360894512,1.40568574052,13,4,0,14.97484627972,0,0.223694,0.66360894512,0,0.223694,0,358, -7.5, 3.9,0,0,1024,1024,1024,1024,0,0,0,0,9.3,-7.1,0,95,4.281,4.28,0,0,0,0,0,83.12,14.97484627972,0,10,Assisted_Takeoff,
1400,2023-01-04 18:48:49,-34.953516409973,-54.9408118242003,0,-0.032808400000002,15.00765467972,14.97484627972,0.328084,0.223694,0.71274280496,1.47031172684,13,4,0,14.97484627972,0,0.223694,0.71274280496,0,0.223694,0,359.3, -12.1, 8.2,0,0,1024,1024,1024,1024,0,0,0,0,10.8,-7.1,0,95,4.281,4.28,0,0,0,0,0,83.12,14.97484627972,0,10,Assisted_Takeoff,
1500,2023-01-04 18:48:49,-34.9535162855204,-54.9408116957253,0,-0.032808400000002,15.00765467972,14.97484627972,0.328084,0.223694,0.70873361848,1.5297900752,13,4,0,14.97484627972,0,0.223694,0.71274280496,0,0.223694,0,0.4, -17.1, 12.5,0,0,1024,1024,1024,1024,0,0,0,0,13.9,-7.1,0,95,4.281,4.28,0,0,0,0,0,83.12,14.97484627972,0,10,Assisted_Takeoff,
1600,2023-01-04 18:48:49,-34.9535162559464,-54.9408115659405,0,-0.032808400000002,15.00765467972,14.97484627972,0.328084,0.223694,0.7313156402,1.57007550956,13,4,0,14.97484627972,0,0.223694,0.7313156402,0,0.223694,0,1.3, -17.6, 14.4,0,0,1024,1024,1248,885,0,0,34,-21,16.2,-7.1,0,95,4.281,4.28,0,0,0,0,0,83.12,14.97484627972,0,10,Assisted_Takeoff,
1700,2023-01-04 18:48:49,-34.9535162203352,-54.9408114197633,0,-0.032808400000002,15.00765467972,14.97484627972,0.328084,0.223694,0.75801183528,1.61567590472,13,4,8.602,14.97484627972,0,0.223694,0.75801183528,0,0.223694,0,1.5, -14.5, 14.1,0,0,1024,1024,1684,879,0,0,100,-22,16.2,-7.1,0,95,4.281,4.28,0,0,0,0,0.681,83.12,14.97484627972,0,10,Assisted_Takeoff,
1800,2023-01-04 18:48:50,-34.9535162305476,-54.9408112778105,0,-0.032808400000002,15.00765467972,14.97484627972,0.328084,0,0.79477364748,1.65828745464,13,4,8.602,14.97484627972,0,0.223694,0.79477364748,0,0,0,0.7, -10.7, 11.2,0,0,1024,1024,1684,836,0,0,100,-28,14.5,-7.1,0,95,4.281,4.28,0,0,0,0,0.681,83.12,14.97484627972,0,10,Assisted_Takeoff,
1900,2023-01-04 18:48:50,-34.953516163176,-54.9408110861004,0,-0.032808400000002,15.00765467972,14.97484627972,0.328084,0,0.8296752234,1.72066606556,13,4,8.602,14.97484627972,0,0.223694,0.8296752234,0,0,0,0.8, -8.1, 7.5,0,0,1024,1024,1684,860,0,0,100,-25,14.9,-7.4,-0.4,95,4.281,4.28,0,0,0,0,0.681,83.12,14.97484627972,0,10,Assisted_Takeoff,
2000,2023-01-04 18:48:50,-34.9535162754544,-54.9408109727835,0,-0.032808400000002,15.00765467972,14.97484627972,0.328084,0.223694,0.8799869048,1.77382879692,13,4,8.602,14.97484627972,0,0.223694,0.8799869048,-0.223694,0,0,3.6, -5.1, 4.2,0,0,1024,1024,1684,864,0,0,100,-24,17.7,-7.4,-0.5,95,4.281,4.28,0,0,0,0,0.681,83.12,14.97484627972,0,10,Assisted_Takeoff,
2100,2023-01-04 18:48:50,-34.9535164134015,-54.9408110041433,0,-0.032808400000002,15.00765467972,14.97484627972,0.328084,0.223694,0.90005908392,1.82502302428,13,4,8.602,14.97484627972,0,0.223694,0.90005908392,-0.223694,0,0,5.2, -2.5, 3,0,0,1024,1024,1684,860,0,0,100,-25,14.8,-7.1,0,95,4.281,4.28,0,0,0,0,0.681,83.12,14.97484627972,0,10,Assisted_Takeoff,
2200,2023-01-04 18:48:50,-34.9535165616583,-54.9408110569763,0,-0.032808400000002,15.00765467972,14.97484627972,0.328084,0.223694,0.91982942576,1.88137473212,13,4,8.602,14.97484627972,0,0.223694,0.91982942576,-0.223694,0,0,4.3, -2.3, 2.8,0,0,1024,1024,1684,860,0,0,100,-25,14.9,-7.1,0,95,4.281,4.28,0,0,0,0,0.681,83.12,14.97484627972,0,10,Assisted_Takeoff,
2300,2023-01-04 18:48:50,-34.9535167769705,-54.940811203402,0.328084,0.2952756,15.00765467972,15.30293027972,0.328084,0,0.93862535812,1.97131239904,13,4,8.602,15.30293027972,0.328084,0.223694,0.93862535812,0,0,-0.447388,3.6, -6.8, 3.6,0,0,1024,1024,1684,866,0,0,100,-24,14.8,-7.1,0,95,4.281,4.28,0,0,0,0,0.681,83.12,15.30293027972,0.328084,6,P-GPS,"Error de calibración del estabilizador. Reinicia la aeronave o contacta con la Asistencia DJI (Code: 40011)"
2400,2023-01-04 18:48:50,-34.9535167231444,-54.9408110957179,0.328084,0.2952756,15.00765467972,15.30293027972,0.328084,0.4921268,0.94891407236,2.00902893568,13,4,8.602,15.30293027972,0.328084,0.4921268,0.94891407236,0.447388,0.223694,-0.894776,3.5, -1.2, -0.2,0,0,1024,1024,1684,868,0,0,100,-24,14.6,-7.1,0,95,4.281,4.28,0,0,0,0,0.681,83.12,15.30293027972,0.328084,6,P-GPS,"Error de calibración del estabilizador. Reinicia la aeronave o contacta con la Asistencia DJI (Code: 40011)"
2500,2023-01-04 18:48:50,-34.9535165117045,-54.9408109331168,0.656168,0.6233596,15.00765467972,15.63101427972,0.656168,0.4921268,0.93823165732,2.10021660264,13,4,8.602,15.63101427972,0.656168,0.4921268,0.94891407236,0.447388,0.223694,-1.565858,3.3, 3.1, -1.7,0,0,1024,1024,1684,1024,0,0,100,0,14.3,-7.1,0,95,4.281,4.28,0,0,0,0,0.681,83.12,15.63101427972,0.656168,6,P-GPS,"Error de calibración del estabilizador. Reinicia la aeronave o contacta con la Asistencia DJI (Code: 40011)"
2600,2023-01-04 18:48:50,-34.9535162823073,-54.940810766781,0.984252,0.9514436,15.00765467972,15.95909827972,0.984252,0.6263432,0.93399281204,2.19757881048,13,4,8.602,15.95909827972,0.984252,0.6263432,0.94891407236,0.447388,0.447388,-2.013246,3.4, 3.2, -1.1,0,0,1024,1024,1024,1024,0,0,0,0,14,-7.1,0,95,4.281,4.28,0,0,0,0,0.681,83.12,15.95909827972,0.984252,6,P-GPS,
2700,2023-01-04 18:48:51,-34.9535158173983,-54.9408105636577,1.312336,1.2795276,15.00765467972,16.28718227972,1.312336,0.6263432,0.91830055432,2.37774613908,13,4,8.552,16.28718227972,1.312336,0.6263432,0.94891407236,0.447388,0.447388,-2.684328,3.1, 3.4, -2.2,0,0,1024,1024,1024,1024,0,0,0,0,13.9,-7.1,0,95,4.193,4.189,0,0,0,0,1.488,83.3,16.28718227972,1.312336,6,P-GPS,
2800,2023-01-04 18:48:51,-34.9535155196109,-54.9408103040317,1.968504,1.9356956,15.00765467972,16.94335027972,1.64042,0.4921268,0.96461945344,2.51128288876,13,4,8.552,16.94335027972,1.968504,0.6263432,0.96461945344,0.447388,0.223694,-2.908022,2.9, 4.1, -2.8,0,0,1024,1024,1684,889,0,0,100,-20,13.8,-7.1,0,95,4.193,4.189,0,0,0,0,1.488,83.3,16.94335027972,1.968504,6,P-GPS,
2900,2023-01-04 18:48:51,-34.9535151172278,-54.9408099394754,2.296588,2.296588,14.97484627972,17.27143427972,4.265092,0.4921268,1.05529202852,2.694143787,13,4,8.552,17.27143427972,2.296588,0.6263432,1.05529202852,0.447388,0.223694,-2.684328,2.8, 5.1, -4.2,0,0,1024,1024,1684,621,0,0,100,-61,13.8,-7.1,0,95,4.193,4.189,0,0,0,0,1.488,83.3,17.27143427972,2.296588,6,P-GPS,
3000,2023-01-04 18:48:51,-34.9535147555525,-54.9408096143114,2.624672,2.624672,14.97484627972,17.59951827972,4.593176,0.4921268,1.15481630992,2.8580545534,13,4,8.552,17.59951827972,2.624672,0.6263432,1.15481630992,0.447388,0.223694,-2.460634,2.8, 5.1, -3.4,0,0,1024,1024,1684,621,0,0,100,-61,13.7,-7.1,0,95,4.193,4.189,0,0,0,0,1.488,83.3,17.59951827972,2.624672,6,P-GPS,
3100,2023-01-04 18:48:51,-34.9535144448506,-54.9408092827711,3.28084,3.3136484,14.94203787972,18.25568627972,4.92126,0.4921268,1.2666010904,3.00865167108,13,4,8.552,18.25568627972,3.28084,0.6263432,1.2666010904,0.447388,0.223694,-2.684328,2.5, 5.6, -3.1,0,0,1024,1024,1684,633,0,0,100,-59,12.7,-7.1,0,95,4.193,4.189,0,0,0,0,1.488,83.3,18.25568627972,3.28084,6,P-GPS,
3200,2023-01-04 18:48:51,-34.9535138032168,-54.9408084805723,3.608924,3.6417324,14.94203787972,18.58377027972,5.577428,0.447388,1.55252957724,3.343832128,13,4,8.552,18.58377027972,3.608924,0.6263432,1.55252957724,0.447388,0,-3.131716,1, 6.2, -2.7,0,0,1024,1024,1684,711,0,0,100,-47,10.9,-7.1,0,95,4.193,4.189,0,0,0,0,1.488,83.3,18.58377027972,3.608924,6,P-GPS,
3300,2023-01-04 18:48:51,-34.9535135622829,-54.940808200336,4.265092,4.2979004,14.94203787972,19.23993827972,5.905512,0.447388,1.65869099796,3.4652888248,13,4,8.552,19.23993827972,4.265092,0.6263432,1.65869099796,0.447388,0,-3.802798,359.2, 6.2, -2.5,0,0,1024,1024,1684,780,0,0,100,-37,9.2,-7.1,0,95,4.193,4.189,0,0,0,0,1.488,83.3,19.23993827972,4.265092,6,P-GPS,
3400,2023-01-04 18:48:51,-34.9535133863734,-54.9408080301246,4.92126,4.9868768,14.90922947972,19.89610627972,6.56168,0.223694,1.7277887692,3.5472113996,13,4,8.552,19.89610627972,4.92126,0.6263432,1.7277887692,0.223694,0,-4.47388,357.6, 6.5, -2.4,0,0,1024,1024,1684,860,0,0,100,-25,8,-7.1,0,95,4.193,4.189,0,0,0,0,1.488,83.3,19.89610627972,4.92126,6,P-GPS,
3500,2023-01-04 18:48:51,-34.9535132932834,-54.940808070319,5.905512,5.9711288,14.90922947972,20.88035827972,7.545932,0.223694,1.7283793204,3.5832350228,13,4,8.552,20.88035827972,5.905512,0.6263432,1.7283793204,0.223694,0,-5.144962,356.6, 6.4, -1.5,0,0,1024,1024,1684,838,0,0,100,-28,7.3,-7.1,0,95,4.193,4.189,0,0,0,0,1.488,83.3,20.88035827972,5.905512,6,P-GPS,
3600,2023-01-04 18:48:51,-34.9535132991287,-54.9408081315573,6.889764,6.9553808,14.90922947972,21.86461027972,8.2021,0,1.71052826996,3.6016733436,13,4,8.552,21.86461027972,6.889764,0.6263432,1.7283793204,0,0,-5.816044,355.9, 6.5, -1.5,0,0,1024,1024,1684,875,0,0,100,-23,6.8,-7.1,0,95,4.193,4.189,0,0,0,0,1.488,83.3,21.86461027972,6.889764,6,P-GPS,
3700,2023-01-04 18:48:52,-34.9535133171695,-54.9408080791059,7.545932,7.6115488,14.90922947972,22.52077827972,9.186352,0,1.72281501576,3.6186680948,13,4,8.513,22.52077827972,7.545932,0.6263432,1.7283793204,0,0,-6.263432,355.4, 6.2, -1.6,0,0,1024,1024,1148,1024,0,0,19,0,6.4,-7.1,0,95,4.152,4.148,0,0,0,0,1.947,83.3,22.52077827972,7.545932,6,P-GPS,
3800,2023-01-04 18:48:52,-34.9535133759453,-54.9408080222139,8.858268,8.9238848,14.90922947972,23.83311427972,10.170604,0,1.73130582968,3.6460631088,13,4,8.513,23.83311427972,8.858268,0.6263432,1.73130582968,0,0,-6.487126,354.9, 5.4, -1.2,0,0,1024,1024,1148,1024,0,0,19,0,5.9,-7.1,0,95,4.152,4.148,0,0,0,0,1.947,83.3,23.83311427972,8.858268,6,P-GPS,
3900,2023-01-04 18:48:52,-34.9535134691147,-54.9408079540891,9.84252,9.9081368,14.90922947972,24.81736627972,11.154856,0,1.73930779844,3.6856628476,13,4,8.513,24.81736627972,9.84252,0.6263432,1.73930779844,0,0,-6.487126,354.3, 6, -1.8,0,0,1024,1024,1024,1024,0,0,0,0,5.7,-7.1,0,95,4.152,4.148,0,0,0,0,1.947,83.3,24.81736627972,9.84252,6,P-GPS,
4000,2023-01-04 18:48:52,-34.9535137152165,-54.9408079136403,10.826772,10.8595804,14.94203787972,25.80161827972,12.139108,0,1.72435701056,3.7762796484,13,4,8.513,25.80161827972,10.826772,0.6263432,1.73930779844,0,0,-6.039738,353.9, 6.2, -1.8,0,0,1024,1024,1024,1024,0,0,0,0,5.7,-7.1,0,95,4.152,4.148,0,0,0,0,1.947,83.3,25.80161827972,10.826772,6,P-GPS,
4100,2023-01-04 18:48:52,-34.9535138357609,-54.9408077617051,11.48294,11.5157484,14.94203787972,26.45778627972,12.795276,0,1.75705714284,3.8395014352,13,4,8.513,26.45778627972,11.48294,0.6263432,1.75705714284,0,0,-5.368656,353.7, 6.3, -2.2,0,0,1024,1024,1024,1024,0,0,0,0,5.7,-7.1,0,95,4.152,4.148,0,0,0,0,1.947,83.3,26.45778627972,11.48294,6,P-GPS,
4200,2023-01-04 18:48:52,-34.953513949539,-54.9408075918378,12.467192,12.5000004,14.94203787972,27.44203827972,13.451444,0,1.79715556932,3.9051182352,13,4,8.513,27.44203827972,12.467192,0.6263432,1.79715556932,0,0,-4.697574,353.6, 6.6, -2.3,0,0,1024,1024,1024,1024,0,0,0,0,5.7,-7.1,0,95,4.152,4.148,0,0,0,0,1.947,83.3,27.44203827972,12.467192,6,P-GPS,
4300,2023-01-04 18:48:52,-34.9535140457459,-54.940807382679,13.12336,13.1561684,14.94203787972,28.09820627972,14.107612,0,1.85145347132,3.9768373976,13,4,8.513,28.09820627972,13.12336,0.6263432,1.85145347132,0,0,-4.026492,353.6, 5.9, -2.8,0,0,1024,1024,1024,1024,0,0,0,0,5.7,-7.1,0,95,4.152,4.148,0,0,0,0,1.947,83.3,28.09820627972,13.12336,6,P-GPS,
4400,2023-01-04 18:48:52,-34.9535141221667,-54.9408069493323,13.451444,13.4842524,14.94203787972,28.42629027972,14.76378,0,1.9742290658,4.1093833336,13,4,8.513,28.42629027972,13.451444,0.6263432,1.9742290658,0,0,-3.35541,353.3, 6.8, -3.1,0,0,1024,1024,1024,1024,0,0,0,0,5.7,-7.1,0,95,4.152,4.148,0,0,0,0,1.947,83.3,28.42629027972,13.451444,6,P-GPS,
4500,2023-01-04 18:48:52,-34.9535141939717,-54.9408066833718,14.107612,14.1404204,14.94203787972,29.08245827972,15.091864,0,2.04887473748,4.1931103704,13,4,8.513,29.08245827972,14.107612,0.6263432,2.04887473748,0,0,-2.460634,353, 7.2, -3.9,0,0,1024,1024,1024,1024,0,0,0,0,5.7,-7.1,0,95,4.152,4.148,0,0,0,0,1.947,83.3,29.08245827972,14.107612,6,P-GPS,
4600,2023-01-04 18:48:52,-34.9535142637172,-54.9408064375523,14.435696,14.4685044,14.94203787972,29.41054227972,15.091864,0,2.11831371608,4.2708990868,13,4,8.513,29.41054227972,14.435696,0.6263432,2.11831371608,0,0,-1.565858,352.8, 7.7, -4.1,0,0,1024,1024,1024,1024,0,0,0,0,5.7,-7.1,0,95,4.152,4.148,0,0,0,0,1.947,83.3,29.41054227972,14.435696,6,P-GPS,
4700,2023-01-04 18:48:52,-34.9535143399736,-54.9408062061765,14.76378,14.7965884,14.94203787972,29.73862627972,15.419948,0,2.1837599124,4.34547258,13,4,8.4,29.73862627972,14.76378,0.6263432,2.1837599124,0,0,-0.671082,352.9, 5.4, -2.6,0,0,1024,1024,1024,1024,0,0,0,0,5.7,-7.1,0,95,4.232,4.228,0,0,0,0,5.071,83.3,29.73862627972,14.76378,6,P-GPS,
4800,2023-01-04 18:48:53,-34.9535144044388,-54.9408059817087,14.76378,14.7965884,14.94203787972,29.73862627972,15.419948,0,2.24812671236,4.4166011912,13,4,8.4,29.73862627972,14.76378,0.6263432,2.24812671236,0,0,-0.447388,352.8, 5.4, -3.3,0,0,1024,1024,1024,1024,0,0,0,0,5.7,-7.1,0,95,4.232,4.228,0,0,0,0,5.071,83.3,29.73862627972,14.76378,6,P-GPS,
4900,2023-01-04 18:48:53,-34.9535142644296,-54.940805704673,14.76378,14.7965884,14.94203787972,29.73862627972,15.419948,0,2.33586621648,4.513943714,13,4,8.4,29.73862627972,14.76378,0.6263432,2.33586621648,0,0,-0.223694,352.6, 4.6, -3.9,0,0,1024,1024,1024,1024,0,0,0,0,5.7,-7.1,0,95,4.232,4.228,0,0,0,0,5.071,83.3,29.73862627972,14.76378,6,P-GPS,
5000,2023-01-04 18:48:53,-34.9535143223978,-54.9408055436891,15.091864,15.1246724,14.94203787972,30.06671027972,15.419948,0,2.38143380324,4.5665355792,13,4,8.4,30.06671027972,15.091864,0.6263432,2.38143380324,0,0,0,352.7, 4.1, -4,0,0,1024,1024,1024,1024,0,0,0,0,5.7,-7.1,0,95,4.232,4.228,0,0,0,0,5.071,83.3,30.06671027972,15.091864,6,P-GPS,
5100,2023-01-04 18:48:53,-34.9535143881303,-54.9408055274523,15.091864,15.1246724,14.94203787972,30.06671027972,15.419948,0,2.3839239608,4.5909778372,13,4,8.4,30.06671027972,15.091864,0.6263432,2.3839239608,0,0,0,352.6, 4.4, -3.9,0,0,1024,1024,1024,1024,0,0,0,0,5.7,-7.1,0,95,4.232,4.228,0,0,0,0,5.071,83.3,30.06671027972,15.091864,6,P-GPS,
5200,2023-01-04 18:48:53,-34.9535145033863,-54.9408055246566,15.091864,15.091864,14.97484627972,30.06671027972,15.419948,0.223694,2.38123039116,4.633038206,13,4,8.4,30.06671027972,15.091864,0.6263432,2.3839239608,-0.223694,0,0,352.5, 4.6, -3.7,0,0,1024,1024,1024,1024,0,0,0,0,5.7,-7.1,0,95,4.232,4.228,0,0,0,0,5.071,83.3,30.06671027972,15.091864,6,P-GPS,
5300,2023-01-04 18:48:53,-34.9535147685348,-54.940805882228,15.091864,15.091864,14.97484627972,30.06671027972,15.419948,0.223694,2.26906831408,4.777231124,13,4,8.4,30.06671027972,15.091864,0.6263432,2.3839239608,-0.223694,0,0,352.4, 3.5, -3.4,0,0,1024,1024,1024,1024,0,0,0,0,5.7,-7.1,0,95,4.232,4.228,0,0,0,0,5.071,83.3,30.06671027972,15.091864,6,P-GPS,
5400,2023-01-04 18:48:53,-34.9535150002038,-54.9408058633198,15.091864,15.091864,14.97484627972,30.06671027972,15.748032,0.223694,2.2732448234,4.8619424128,13,4,8.4,30.06671027972,15.091864,0.6263432,2.3839239608,-0.223694,0,0,352.3, 2.8, -3.2,0,0,1024,1024,1024,1024,0,0,0,0,5.7,-7.1,0,95,4.232,4.228,0,0,0,0,5.071,83.3,30.06671027972,15.091864,6,P-GPS,
5500,2023-01-04 18:48:53,-34.9535152179813,-54.9408058153817,15.419948,15.419948,14.97484627972,30.39479427972,15.419948,0.223694,2.28904862968,4.9426838852,13,4,8.4,30.39479427972,15.419948,0.6263432,2.3839239608,-0.223694,0,0,352.1, 2.9, -4,0,0,1024,1024,1024,1024,0,0,0,0,5.7,-7.1,0,95,4.232,4.228,0,0,0,0,5.071,83.3,30.39479427972,15.419948,6,P-GPS,
5600,2023-01-04 18:48:53,-34.9535154132501,-54.9408057771202,15.419948,15.419948,14.97484627972,30.39479427972,15.419948,0.223694,2.30412080864,5.0148623652,13,4,8.4,30.39479427972,15.419948,0.6263432,2.3839239608,-0.223694,0,0,352.1, 2.5, -3.8,0,0,1024,1024,1024,1024,0,0,0,0,5.7,-7.1,0,95,4.232,4.228,0,0,0,0,5.071,83.3,30.39479427972,15.419948,6,P-GPS,
5700,2023-01-04 18:48:53,-34.9535156377441,-54.9408057816634,15.419948,15.3871396,15.00765467972,30.39479427972,15.748032,0.223694,2.3096621474,5.09678494,13,4,8.399,30.39479427972,15.419948,0.6263432,2.3839239608,-0.223694,0,0,352.1, 1.8, -3.7,0,0,1024,1024,1024,1024,0,0,0,0,5.7,-7.1,0,95,4.211,4.208,0,0,0,0,5.396,83.3,30.39479427972,15.419948,6,P-GPS,
5800,2023-01-04 18:48:54,-34.9535158037098,-54.9408057622333,15.748032,15.7152236,15.00765467972,30.72287827972,15.748032,0.223694,2.3223754024,5.1576117136,13,4,8.399,30.72287827972,15.748032,0.6263432,2.3839239608,-0.223694,0,0,352.1, 1.4, -4.1,0,0,1024,1024,1024,1024,0,0,0,0,5.7,-7.1,0,95,4.211,4.208,0,0,0,0,5.396,83.3,30.72287827972,15.748032,6,P-GPS,
5900,2023-01-04 18:48:54,-34.9535159710717,-54.9408057305814,15.748032,15.7152236,15.00765467972,30.72287827972,15.748032,0.223694,2.34029206964,5.2193899308,13,4,8.399,30.72287827972,15.748032,0.6263432,2.3839239608,-0.223694,0,0,352, 1.7, -4.1,0,0,1024,1024,1024,1024,0,0,0,0,5.7,-7.1,0,95,4.211,4.208,0,0,0,0,5.396,83.3,30.72287827972,15.748032,6,P-GPS,
6000,2023-01-04 18:48:54,-34.9535161086024,-54.9408057019616,15.748032,15.7152236,15.00765467972,30.72287827972,15.748032,0.223694,2.35689312004,5.2703085676,13,4,8.399,30.72287827972,15.748032,0.6263432,2.3839239608,-0.223694,0,0,352.1, 1.9, -3.8,0,0,1024,1024,1024,1024,0,0,0,0,5.7,-7.1,0,95,4.211,4.208,0,0,0,0,5.396,83.3,30.72287827972,15.748032,6,P-GPS,
6100,2023-01-04 18:48:54,-34.9535162574845,-54.9408054199182,16.076116,16.0433076,15.00765467972,31.05096227972,15.748032,0.223694,2.4496555902,5.3706038464,13,4,8.399,31.05096227972,16.076116,0.6263432,2.4496555902,-0.223694,0,0,352.1, 2.5, -3.5,0,0,1024,1024,1024,1024,0,0,0,0,5.7,-7.1,0,95,4.211,4.208,0,0,0,0,5.396,83.3,31.05096227972,16.076116,6,P-GPS,
6200,2023-01-04 18:48:54,-34.9535163495323,-54.9408053817351,16.076116,16.0433076,15.00765467972,31.05096227972,15.748032,0.223694,2.4673885304,5.4060697268,13,4,8.399,31.05096227972,16.076116,0.6263432,2.4673885304,-0.223694,0,0,352.1, 2, -3.2,0,0,1024,1024,1024,1024,0,0,0,0,5.7,-7.1,0,95,4.211,4.208,0,0,0,0,5.396,83.3,31.05096227972,16.076116,6,P-GPS,
6300,2023-01-04 18:48:54,-34.9535164020854,-54.9408053918812,16.076116,16.0433076,15.00765467972,31.05096227972,15.748032,0,2.46833669316,5.4254922996,13,4,8.399,31.05096227972,16.076116,0.6263432,2.46833669316,0,0,0,352.1, 2, -3.3,0,0,1024,1024,1024,1024,0,0,0,0,5.7,-7.1,0,95,4.211,4.208,0,0,0,0,5.396,83.3,31.05096227972,16.076116,6,P-GPS,
6400,2023-01-04 18:48:54,-34.9535164308344,-54.94080539755,16.076116,16.0433076,15.00765467972,31.05096227972,15.748032,0,2.46888459344,5.4361222212,13,4,8.399,31.05096227972,16.076116,0.6263432,2.46888459344,0,0,0,351.9, 2.1, -3.6,0,0,1024,1024,1024,1024,0,0,0,0,5.7,-7.1,0,95,4.211,4.208,0,0,0,0,5.396,83.3,31.05096227972,16.076116,6,P-GPS,
6500,2023-01-04 18:48:54,-34.9535164516369,-54.9408054005146,16.076116,16.0433076,15.00765467972,31.05096227972,15.748032,0,2.46964246748,5.4437665784,13,4,8.399,31.05096227972,16.076116,0.6263432,2.46964246748,0,0,0,351.9, 2.3, -3.7,0,0,1024,1024,1024,1024,0,0,0,0,5.7,-7.1,0,95,4.211,4.208,0,0,0,0,5.396,83.3,31.05096227972,16.076116,6,P-GPS,
6600,2023-01-04 18:48:54,-34.9535164109971,-54.9408053707793,16.4042,16.3713916,15.00765467972,31.37904627972,15.748032,0,2.47518708708,5.4610566052,13,4,8.399,31.37904627972,16.4042,0.6263432,2.47518708708,0,0,0,351.9, 1.9, -4.5,0,0,1024,1024,1024,1024,0,0,0,0,5.7,-7.1,0,95,4.211,4.208,0,0,0,0,5.396,83.3,31.37904627972,16.4042,6,P-GPS,
6700,2023-01-04 18:48:54,-34.9535163834831,-54.9408053913769,16.4042,16.3713916,15.00765467972,31.37904627972,15.748032,0,2.46708013144,5.4728348208,13,4,8.399,31.37904627972,16.4042,0.6263432,2.47518708708,0,0,0,351.9, 2.8, -4.3,0,0,1024,1024,1024,1024,0,0,0,0,5.7,-7.1,0,95,4.211,4.208,0,0,0,0,5.396,83.3,31.37904627972,16.4042,6,P-GPS,
6800,2023-01-04 18:48:55,-34.9535163207204,-54.9408054256814,16.4042,16.3713916,15.00765467972,31.37904627972,15.748032,0,2.45241805748,5.4979332468,13,4,8.399,31.37904627972,16.4042,0.6263432,2.47518708708,0,0,0,351.8, 3.6, -4.3,0,0,1024,1024,1024,1024,0,0,0,0,5.7,-7.1,0,95,4.211,4.208,0,0,0,0,5.396,83.3,31.37904627972,16.4042,6,P-GPS,
6900,2023-01-04 18:48:55,-34.9535162194277,-54.9408054738636,16.4042,16.3713916,15.00765467972,31.37904627972,15.748032,0,2.43122383108,5.5375986024,13,4,8.411,31.37904627972,16.4042,0.6263432,2.47518708708,0,0,0,351.9, 4.4, -4,0,0,1024,1024,1024,1024,0,0,0,0,5.7,-7.1,0,95,4.206,4.199,0,0,0,0,3.817,83.3,31.37904627972,16.4042,6,P-GPS,
7000,2023-01-04 18:48:55,-34.9535160895198,-54.9408055245997,16.076116,16.0433076,15.00765467972,31.05096227972,15.748032,0,2.40798564136,5.5873689452,13,4,8.411,31.37904627972,16.4042,0.6263432,2.47518708708,0,0,0,351.7, 5.6, -3.6,0,0,1024,1024,1024,1024,0,0,0,0,5.7,-7.1,0,95,4.206,4.199,0,0,0,0,3.817,83.3,31.05096227972,16.076116,6,P-GPS,
7100,2023-01-04 18:48:55,-34.9535160245026,-54.9408055832075,16.076116,16.0433076,15.00765467972,31.05096227972,15.748032,0,2.38685047008,5.6168636968,13,4,8.411,31.37904627972,16.4042,0.6263432,2.47518708708,0,0,0,351.5, 5.6, -3.7,0,0,1024,1024,1024,1024,0,0,0,0,5.7,-7.1,0,95,4.206,4.199,0,0,0,0,3.817,83.3,31.05096227972,16.076116,6,P-GPS,
7200,2023-01-04 18:48:55,-34.9535159671518,-54.9408056591687,16.076116,16.0433076,15.00765467972,31.05096227972,15.748032,0,2.36118445876,5.6477364012,13,4,8.411,31.37904627972,16.4042,0.6263432,2.47518708708,0,0,0,351.6, 5, -3.2,0,0,1024,1024,1024,1024,0,0,0,0,5.7,-7.1,0,95,4.206,4.199,0,0,0,0,3.817,83.3,31.05096227972,16.076116,6,P-GPS,
7300,2023-01-04 18:48:55,-34.9535158933324,-54.9408057925718,16.076116,16.0433076,15.00765467972,31.05096227972,15.748032,0,2.3177822264,5.695866324,13,4,8.411,31.37904627972,16.4042,0.6263432,2.47518708708,0,0,0,351.7, 5.3, -2.9,0,0,1024,1024,1024,1024,0,0,0,0,5.7,-7.1,0,95,4.206,4.199,0,0,0,0,3.817,83.3,31.05096227972,16.076116,6,P-GPS,
7400,2023-01-04 18:48:55,-34.9535158665537,-54.9408060212411,15.748032,15.7152236,15.00765467972,30.72287827972,15.748032,0,2.24870742104,5.764928006,13,4,8.411,31.37904627972,16.4042,0.6263432,2.47518708708,0,0,0,351.6, 4.8, -2.5,0,0,1024,1024,1024,1024,0,0,0,0,5.7,-7.1,0,95,4.206,4.199,0,0,0,0,3.817,83.3,30.72287827972,15.748032,6,P-GPS,
7500,2023-01-04 18:48:55,-34.9535158881216,-54.940806090091,15.748032,15.7152236,15.00765467972,30.72287827972,15.748032,0,2.22946857528,5.7869752508,13,4,8.411,31.37904627972,16.4042,0.6263432,2.47518708708,0,0,0,351.4, 4, -3,0,0,1024,1024,1024,1024,0,0,0,0,5.7,-7.1,0,95,4.206,4.199,0,0,0,0,3.817,83.3,30.72287827972,15.748032,6,P-GPS,
7600,2023-01-04 18:48:55,-34.9535159517985,-54.9408061169309,15.748032,15.7152236,15.00765467972,30.72287827972,15.748032,0,2.22506240716,5.8115487424,13,4,8.411,31.37904627972,16.4042,0.6263432,2.47518708708,0,0,0,351.7, 3, -3.6,0,0,1024,1024,1024,1024,0,0,0,0,5.7,-7.1,0,95,4.206,4.199,0,0,0,0,3.817,83.3,30.72287827972,15.748032,6,P-GPS,
7700,2023-01-04 18:48:56,-34.9535160575185,-54.9408060673331,15.748032,15.7152236,15.00765467972,30.72287827972,15.748032,0,2.24605650232,5.8528873264,13,4,8.411,31.37904627972,16.4042,0.6263432,2.47518708708,0,0,0,351.7, 1.7, -3.6,0,0,1024,1024,1024,1024,0,0,0,0,5.7,-7.1,0,95,4.206,4.199,0,0,0,0,3.817,83.3,30.72287827972,15.748032,6,P-GPS,
7800,2023-01-04 18:48:56,-34.9535163145637,-54.9408060548454,15.748032,15.7152236,15.00765467972,30.72287827972,15.748032,0,2.26780519068,5.9467521588,13,4,8.411,31.37904627972,16.4042,0.6263432,2.47518708708,0,0,0,351.8, 1.7, -3.4,0,0,1024,1024,1167,1024,0,0,22,0,5.7,-7.1,0,95,4.206,4.199,0,0,0,0,3.817,83.3,30.72287827972,15.748032,6,P-GPS,
7900,2023-01-04 18:48:56,-34.9535164231375,-54.9408060502911,15.748032,15.7152236,15.00765467972,30.72287827972,15.748032,0,2.27788065032,5.986384706,13,4,8.402,31.37904627972,16.4042,0.6263432,2.47518708708,0,0,0,351.9, 0.9, -4.1,0,0,1024,1024,1454,1024,0,0,65,0,5.7,-7.1,0,95,4.196,4.195,0,0,0,0,3.99,83.48,30.72287827972,15.748032,6,P-GPS,
8000,2023-01-04 18:48:56,-34.9535164957619,-54.9408060474503,15.748032,15.7152236,15.00765467972,30.72287827972,15.748032,0,2.28492133296,6.0128938932,13,4,8.402,31.37904627972,16.4042,0.6263432,2.47518708708,0,0,-0.223694,352, 1.1, -3.7,0,0,1024,1024,1664,1024,0,0,97,0,5.7,-7.1,0,95,4.196,4.195,0,0,0,0,3.99,83.48,30.72287827972,15.748032,6,P-GPS,
8100,2023-01-04 18:48:56,-34.9535165207078,-54.9408060352513,16.076116,16.0433076,15.00765467972,31.05096227972,15.748032,0,2.29065952212,6.0227036048,13,4,8.402,31.37904627972,16.4042,0.6263432,2.47518708708,0,0,-0.894776,351.9, 3, -3.3,0,0,1024,1024,1684,1024,0,0,100,0,5.7,-7.1,0,95,4.196,4.195,0,0,0,0,3.99,83.48,31.05096227972,16.076116,6,P-GPS,
8200,2023-01-04 18:48:56,-34.9535165042147,-54.9408060492589,16.4042,16.3713916,15.00765467972,31.37904627972,16.076116,0,2.2851378684,6.030019878,13,4,8.402,31.37904627972,16.4042,0.6263432,2.47518708708,0,0,-1.789552,351.7, 4.8, -3.9,0,0,1024,1024,1684,1024,0,0,100,0,5.7,-7.1,0,95,4.196,4.195,0,0,0,0,3.99,83.48,31.37904627972,16.4042,6,P-GPS,
8300,2023-01-04 18:48:56,-34.953516423911,-54.9408062005909,16.4042,16.3713916,15.00765467972,31.37904627972,16.4042,0,2.2342192316,6.0839240792,13,4,8.402,31.37904627972,16.4042,0.6263432,2.47518708708,0,0,-2.460634,351.7, 5.5, -4.4,0,0,1024,1024,1684,1024,0,0,100,0,5.7,-7.1,0,95,4.196,4.195,0,0,0,0,3.99,83.48,31.37904627972,16.4042,6,P-GPS,
8400,2023-01-04 18:48:56,-34.9535163704535,-54.9408063227159,17.060368,17.0275596,15.00765467972,32.03521427972,16.732284,0.223694,2.19417986024,6.12532828,13,4,8.402,32.03521427972,17.060368,0.6263432,2.47518708708,0,-0.223694,-3.35541,351.8, 4.9, -3.7,0,0,1024,1024,1684,1024,0,0,100,0,5.7,-7.1,0,95,4.196,4.195,0,0,0,0,3.99,83.48,32.03521427972,17.060368,6,P-GPS,
8500,2023-01-04 18:48:56,-34.9535162992197,-54.940806483462,17.388452,17.3556436,15.00765467972,32.36329827972,17.388452,0.223694,2.14148300816,6.1799870744,13,4,8.402,32.36329827972,17.388452,0.6263432,2.47518708708,0,-0.223694,-4.026492,351.7, 5.5, -2.8,0,0,1024,1024,1024,1024,0,0,0,0,5.7,-7.1,0,95,4.196,4.195,0,0,0,0,3.99,83.48,32.36329827972,17.388452,6,P-GPS,
8600,2023-01-04 18:48:56,-34.9535162518773,-54.9408066723196,18.04462,18.0118116,15.00765467972,33.01946627972,18.04462,0.223694,2.08258536848,6.2390421944,13,4,8.402,33.01946627972,18.04462,0.6263432,2.47518708708,0,-0.223694,-4.697574,351.8, 4.5, -1.5,0,0,1024,1024,1024,1024,0,0,0,0,5.7,-7.1,0,95,4.196,4.195,0,0,0,0,3.99,83.48,33.01946627972,18.04462,6,P-GPS,
8700,2023-01-04 18:48:57,-34.9535160166781,-54.9408070063869,18.700788,18.6679796,15.00765467972,33.67563427972,18.372704,0.223694,1.96718838316,6.370735112,13,4,8.402,33.67563427972,18.700788,0.6263432,2.47518708708,0,-0.223694,-4.250186,351.5, 6.9, -2,0,0,1024,1024,1024,1024,0,0,0,0,5.7,-7.1,0,95,4.196,4.195,0,0,0,0,3.99,83.48,33.67563427972,18.700788,6,P-GPS,
8800,2023-01-04 18:48:57,-34.9535159450903,-54.9408071913615,19.028872,18.9960636,15.00765467972,34.00371827972,19.028872,0,1.90798234452,6.431922778,13,4,8.402,34.00371827972,19.028872,0.6263432,2.47518708708,0,0,-3.579104,351.5, 5.7, -2.3,0,0,1024,1024,1024,1024,0,0,0,0,5.7,-7.1,0,95,4.196,4.195,0,0,0,0,3.99,83.48,34.00371827972,19.028872,6,P-GPS,
8900,2023-01-04 18:48:57,-34.9535158319924,-54.9408073485821,19.356956,19.3241476,15.00765467972,34.33180227972,19.356956,0,1.85452105672,6.4944555884,13,4,8.319,34.33180227972,19.356956,0.6263432,2.47518708708,0,0,-2.908022,351.5, 5.5, -3,0,0,1024,1024,1364,1024,0,0,52,0,5.7,-7.1,0,95,4.134,4.131,0,0,0,0,4.635,83.48,34.33180227972,19.356956,6,P-GPS,
9000,2023-01-04 18:48:57,-34.9535157461687,-54.9408074752342,19.68504,19.6522316,15.00765467972,34.65988627972,19.68504,0,1.81216541232,6.5436025716,13,4,8.319,34.65988627972,19.68504,0.6263432,2.47518708708,0,0,-2.013246,351.5, 5.1, -3.5,0,0,1024,1024,1627,999,0,0,91,-4,5.7,-7.1,0,95,4.134,4.131,0,0,0,0,4.635,83.48,34.65988627972,19.68504,6,P-GPS,
9100,2023-01-04 18:48:57,-34.9535156530924,-54.9408076017528,20.013124,19.9803156,15.00765467972,34.98797027972,20.013124,0,1.76983929548,6.5944555916,13,4,8.319,34.98797027972,20.013124,0.6263432,2.47518708708,0,0,-1.789552,351.7, 3, -2.9,0,0,1024,1024,1684,998,0,0,100,-4,5.7,-7.1,0,95,4.134,4.131,0,0,0,0,4.635,83.48,34.98797027972,20.013124,6,P-GPS,
9200,2023-01-04 18:48:57,-34.9535156046881,-54.9408077017362,20.013124,19.9803156,15.00765467972,34.98797027972,20.341208,0,1.73786750968,6.6291668788,13,4,8.319,34.98797027972,20.013124,0.6263432,2.47518708708,0,0,-2.23694,351.7, 2.9, -3.3,0,0,1024,1024,1684,998,0,0,100,-4,5.7,-7.1,0,95,4.134,4.131,0,0,0,0,4.635,83.48,34.98797027972,20.013124,6,P-GPS,
9300,2023-01-04 18:48:57,-34.9535154995688,-54.9408078200392,20.669292,20.669292,14.97484627972,35.64413827972,20.669292,0,1.69819231156,6.6813322348,13,4,8.319,35.64413827972,20.669292,0.6263432,2.47518708708,0,0,-2.908022,351.5, 5, -4.3,0,0,1024,1024,1684,1017,0,0,100,-1,5.7,-7.1,0,95,4.134,4.131,0,0,0,0,4.635,83.48,35.64413827972,20.669292,6,P-GPS,
9400,2023-01-04 18:48:57,-34.9535153692621,-54.9408079939609,20.997376,20.997376,14.97484627972,35.97222227972,20.997376,0,1.64184388456,6.751804678,13,4,8.319,35.97222227972,20.997376,0.6263432,2.47518708708,0.223694,-0.223694,-3.579104,351.2, 5.8, -3.4,0,0,1024,1024,1684,1024,0,0,100,0,5.7,-7.1,0,95,4.134,4.131,0,0,0,0,4.635,83.48,35.97222227972,20.997376,6,P-GPS,
9500,2023-01-04 18:48:57,-34.9535149866564,-54.940808276677,21.653544,21.653544,14.97484627972,36.62839027972,21.653544,0.4921268,1.55156172944,6.9149936596,13,4,8.319,36.62839027972,21.653544,0.6263432,2.47518708708,0.223694,-0.447388,-4.47388,351.5, 7.1, -0.9,0,0,1024,1024,1684,1024,0,0,100,0,5.7,-7.1,0,95,4.134,4.131,0,0,0,0,4.635,83.48,36.62839027972,21.653544,6,P-GPS,
9600,2023-01-04 18:48:57,-34.9535148990827,-54.9408085248268,22.309712,22.309712,14.97484627972,37.28455827972,22.309712,0.447388,1.47775267196,6.9958007488,13,4,8.319,37.28455827972,22.309712,0.6263432,2.47518708708,0,-0.447388,-5.368656,351.8, 6.6, 1.3,0,0,1024,1024,1684,1024,0,0,100,0,5.7,-7.1,0,95,4.134,4.131,0,0,0,0,4.635,83.48,37.28455827972,22.309712,6,P-GPS,
9700,2023-01-04 18:48:57,-34.9535149625733,-54.940808737524,23.293964,23.293964,14.97484627972,38.26881027972,23.293964,0.447388,1.41379269616,7.063484478,13,4,8.319,38.26881027972,23.293964,0.6263432,2.47518708708,0,-0.223694,-6.039738,351.7, 6.7, 0.3,0,0,1024,1024,1684,1024,0,0,100,0,5.7,-7.1,0,95,4.134,4.131,0,0,0,0,4.635,83.48,38.26881027972,23.293964,6,P-GPS,
9800,2023-01-04 18:48:58,-34.9535150435212,-54.9408088979143,23.950132,23.950132,14.97484627972,38.92497827972,24.278216,0.223694,1.36590883636,7.1198165008,13,4,8.319,38.92497827972,23.950132,0.6263432,2.47518708708,0,-0.223694,-6.263432,351.5, 7.1, 0,0,0,1024,1024,1684,1024,0,0,100,0,5.7,-7.1,0,95,4.134,4.131,0,0,0,0,4.635,83.48,38.92497827972,23.950132,6,P-GPS,
9900,2023-01-04 18:48:58,-34.9535151459886,-54.9408090623885,24.934384,24.934384,14.97484627972,39.90923027972,24.934384,0.223694,1.3177821944,7.181594718,13,4,8.427,39.90923027972,24.934384,0.6263432,2.47518708708,0,-0.223694,-6.487126,351.5, 7.6, -0.3,0,0,1024,1024,1684,994,0,0,100,-5,5.7,-7.1,0,95,4.129,4.124,0,0,0,0,4.946,83.48,39.90923027972,24.934384,6,P-GPS,
10000,2023-01-04 18:48:58,-34.9535154195615,-54.9408094394971,25.918636,25.918636,14.97484627972,40.89348227972,25.918636,0,1.21384190236,7.332185274,13,4,8.427,40.89348227972,25.918636,0.6263432,2.47518708708,0,0,-6.487126,351.7, 7.5, 0.6,0,0,1024,1024,1394,561,0,0,56,-70,5.7,-7.1,0,95,4.129,4.124,0,0,0,0,4.946,83.48,40.89348227972,25.918636,6,P-GPS,
10100,2023-01-04 18:48:58,-34.953515588366,-54.9408094943655,26.902888,26.8700796,15.00765467972,41.87773427972,26.902888,0,1.20711618036,7.3959319952,13,4,8.427,41.87773427972,26.902888,0.6263432,2.47518708708,0,0,-6.487126,351.5, 6.5, 0.5,0,0,1024,1024,1394,561,0,0,56,-70,5.6,-7.1,0,95,4.129,4.124,0,0,0,0,4.946,83.48,41.87773427972,26.902888,6,P-GPS,
10200,2023-01-04 18:48:58,-34.9535157510563,-54.9408094546734,27.88714,27.8543316,15.00765467972,42.86198627972,27.559056,0,1.2307579134,7.4564634932,13,4,8.427,42.86198627972,27.88714,0.6263432,2.47518708708,0,0,-6.039738,351.1, 7.4, -0.9,0,0,1024,1024,1131,498,0,0,16,-80,4.4,-7.1,0,95,4.129,4.124,0,0,0,0,4.946,83.48,42.86198627972,27.88714,6,P-GPS,
10300,2023-01-04 18:48:58,-34.95351591134,-54.9408092594939,28.543308,28.5104996,15.00765467972,43.51815427972,28.543308,0,1.301509228,7.5390750444,13,4,8.427,43.51815427972,28.543308,0.6263432,2.47518708708,0,0,-5.368656,349.2, 7.7, -1.9,0,0,1024,1024,1024,483,0,0,0,-82,1.7,-7.1,0,95,4.129,4.124,0,0,0,0,4.946,83.48,43.51815427972,28.543308,6,P-GPS,
10400,2023-01-04 18:48:58,-34.9535161078293,-54.9408089287854,29.199476,29.1666676,15.00765467972,44.17432227972,29.199476,0,1.41620083272,7.6612207176,13,4,8.427,44.17432227972,29.199476,0.6263432,2.47518708708,0,0,-4.47388,346.3, 7.8, -2.3,0,0,1024,1024,1024,364,0,0,0,-100,358.7,-7.1,0,95,4.129,4.124,0,0,0,0,4.946,83.48,44.17432227972,29.199476,6,P-GPS,
10500,2023-01-04 18:48:58,-34.9535162046073,-54.9408087015126,29.855644,29.8228356,15.00765467972,44.83049027972,29.855644,0,1.49150923408,7.7378283316,13,4,8.427,44.83049027972,29.855644,0.6263432,2.47518708708,0,0,-3.802798,343, 7.4, -2.6,0,0,1024,1024,1024,364,0,0,0,-100,354.6,-7.1,0,95,4.129,4.124,0,0,0,0,4.946,83.48,44.83049027972,29.855644,6,P-GPS,
10600,2023-01-04 18:48:58,-34.9535162909712,-54.9408084792629,30.183728,30.1509196,15.00765467972,45.15857427972,30.183728,0,1.56435700544,7.8113847644,13,4,8.427,45.15857427972,30.183728,0.6263432,2.47518708708,0,0,-2.908022,338.6, 7, -3.4,0,0,1024,1024,1024,364,0,0,0,-100,349.9,-7.1,0,95,4.129,4.124,0,0,0,0,4.946,83.48,45.15857427972,30.183728,6,P-GPS,
10700,2023-01-04 18:48:58,-34.9535163377307,-54.9408082736637,30.511812,30.4790036,15.00765467972,45.48665827972,30.839896,0,1.62812013084,7.875164294,13,4,8.427,45.48665827972,30.511812,0.6263432,2.47518708708,0,0,-2.23694,333.9, 6.6, -4.4,0,0,1024,1024,1024,553,0,0,0,-71,345.2,-7.1,0,95,4.129,4.124,0,0,0,0,4.946,83.48,45.48665827972,30.511812,6,P-GPS,
10800,2023-01-04 18:48:59,-34.9535161762353,-54.940808005872,30.839896,30.8070876,15.00765467972,45.81474227972,31.16798,0,1.68863522464,7.9746065544,13,4,8.427,45.81474227972,30.839896,0.6263432,2.47518708708,0,0,-1.342164,329.1, 6.1, -4.7,0,0,1024,1024,1024,440,0,0,0,-88,340.4,-7.1,0,95,4.129,4.124,0,0,0,0,4.946,83.48,45.81474227972,30.839896,6,P-GPS,
10900,2023-01-04 18:48:59,-34.9535162846579,-54.9408077785153,31.16798,31.1351716,15.00765467972,46.14282627972,31.16798,0,1.764599794,8.0532482892,13,4,8.393,46.14282627972,31.16798,0.6263432,2.47518708708,0,0,-0.671082,324.7, 5.4, -4.9,0,0,1024,1024,1024,364,0,0,0,-100,336.8,-7.1,0,95,4.213,4.212,0,0,0,0,4.691,83.48,46.14282627972,31.16798,6,P-GPS,
11000,2023-01-04 18:48:59,-34.9535163985904,-54.9408075597413,31.16798,31.1351716,15.00765467972,46.14282627972,31.16798,0,1.83888457328,8.1307745384,13,4,8.393,46.14282627972,31.16798,0.6263432,2.47518708708,0,0,-0.223694,321.5, 4.3, -4.9,0,0,1024,1024,1024,364,0,0,0,-100,333.3,-7.1,0,95,4.213,4.212,0,0,0,0,4.691,83.48,46.14282627972,31.16798,6,P-GPS,
11100,2023-01-04 18:48:59,-34.9535165142962,-54.9408073458294,31.496064,31.4632556,15.00765467972,46.47091027972,31.16798,0,1.9122211898,8.2074149608,13,4,8.393,46.47091027972,31.496064,0.6263432,2.47518708708,0,0,0,317.6, 3.1, -5,0,0,1024,1024,1024,364,0,0,0,-100,328.9,-7.1,0,95,4.213,4.212,0,0,0,0,4.691,83.48,46.47091027972,31.496064,6,P-GPS,
11200,2023-01-04 18:48:59,-34.9535164427467,-54.940807424265,31.824148,31.7913396,15.00765467972,46.79899427972,31.16798,0,1.88228680564,8.2424871404,13,4,8.393,46.79899427972,31.824148,0.6263432,2.47518708708,0,0,0,313, 3.5, -5.1,0,0,1024,1024,1024,364,0,0,0,-100,324.1,-7.1,0,95,4.213,4.212,0,0,0,0,4.691,83.48,46.79899427972,31.824148,6,P-GPS,
11300,2023-01-04 18:48:59,-34.9535165348087,-54.9408072486583,31.824148,31.7913396,15.00765467972,46.79899427972,31.16798,0.223694,1.94220150572,8.3048231004,13,4,8.393,46.79899427972,31.824148,0.6263432,2.47518708708,-0.223694,0,0,308.1, 3.6, -5.6,0,0,1024,1024,1024,364,0,0,0,-100,319.3,-7.1,0,95,4.213,4.212,0,0,0,0,4.691,83.48,46.79899427972,31.824148,6,P-GPS,
11400,2023-01-04 18:48:59,-34.9535166563816,-54.9408070569457,31.824148,31.7913396,15.00765467972,46.79899427972,31.16798,0.223694,2.01008536616,8.3773296644,13,4,8.393,46.79899427972,31.824148,0.6263432,2.47518708708,-0.223694,0,0,303.1, 4, -6.2,0,0,1024,1024,1024,364,0,0,0,-100,314.5,-7.1,0,95,4.213,4.212,0,0,0,0,4.691,83.48,46.79899427972,31.824148,6,P-GPS,
11500,2023-01-04 18:48:59,-34.9535169184725,-54.9408068082768,31.824148,31.7913396,15.00765467972,46.79899427972,31.16798,0.447388,2.11096135364,8.4984582772,13,4,8.393,46.79899427972,31.824148,0.6263432,2.47518708708,-0.447388,0,0,298.5, 2.4, -4.9,0,0,1024,1024,1024,364,0,0,0,-100,309.7,-7.1,0,95,4.213,4.212,0,0,0,0,4.691,83.48,46.79899427972,31.824148,6,P-GPS,
11600,2023-01-04 18:48:59,-34.9535171726793,-54.9408065420284,31.824148,31.7913396,15.00765467972,46.79899427972,31.16798,0.447388,2.21774285312,8.6207023756,13,4,8.393,46.79899427972,31.824148,0.6263432,2.47518708708,-0.447388,0,0,294, 0.8, -3.8,0,0,1024,1024,1024,364,0,0,0,-100,304.9,-7.1,0,95,4.213,4.212,0,0,0,0,4.691,83.48,46.79899427972,31.824148,6,P-GPS,
11700,2023-01-04 18:48:59,-34.9535173571041,-54.9408064238887,31.496064,31.4632556,15.00765467972,46.47091027972,31.16798,0.7158208,2.27540361612,8.69668663,13,4,8.393,46.79899427972,31.824148,0.7158208,2.47518708708,-0.671082,0.223694,0,289.5, 0.1, -1.3,0,0,1024,1024,1024,364,0,0,0,-100,300.1,-7.1,0,95,4.213,4.212,0,0,0,0,4.691,83.48,46.47091027972,31.496064,6,P-GPS,
11800,2023-01-04 18:49:00,-34.9535174653083,-54.9408061053235,31.496064,31.4632556,15.00765467972,46.47091027972,31.16798,0.7158208,2.37852041732,8.7998034312,13,4,8.393,46.79899427972,31.824148,0.7158208,2.47518708708,-0.671082,0.223694,0,284.5, -0.6, -1.2,0,0,1024,1024,1024,364,0,0,0,-100,295.3,-7.1,0,95,4.213,4.212,0,0,0,0,4.691,83.48,46.47091027972,31.496064,6,P-GPS,
11900,2023-01-04 18:49:00,-34.9535175294254,-54.9408056912488,31.496064,31.4304472,15.04046307972,46.47091027972,31.16798,0.4921268,2.50209325592,8.9258204956,13,4,8.393,46.79899427972,31.824148,0.7158208,2.50209325592,-0.447388,0.223694,0,279.6, -0.7, -0.9,0,0,1024,1024,1024,364,0,0,0,-100,290.5,-7.1,0,95,4.213,4.212,0,0,0,0,4.691,83.48,46.47091027972,31.496064,6,P-GPS,
12000,2023-01-04 18:49:00,-34.9535175674471,-54.9408052454726,31.16798,31.1023632,15.04046307972,46.14282627972,31.16798,0.6263432,2.63132882436,9.0598428096,13,4,8.379,46.79899427972,31.824148,0.7158208,2.63132882436,-0.447388,0.447388,0,275, -2.2, -0.8,0,0,1024,1024,1024,364,0,0,0,-100,285.7,-7.1,0,95,4.179,4.176,0,0,0,0,3.388,83.66,46.14282627972,31.16798,6,P-GPS,
12100,2023-01-04 18:49:00,-34.9535176528601,-54.9408046054436,31.16798,31.1023632,15.04046307972,46.14282627972,31.16798,0.6263432,2.82150927664,9.2537404536,13,4,8.379,46.79899427972,31.824148,0.7158208,2.82150927664,-0.447388,0.447388,0,270.2, -2.8, 0.7,0,0,1024,1024,1024,364,0,0,0,-100,280.9,-7.1,0,95,4.179,4.176,0,0,0,0,3.388,83.66,46.14282627972,31.16798,6,P-GPS,
12200,2023-01-04 18:49:00,-34.9535176199974,-54.9408040992673,31.16798,31.1023632,15.04046307972,46.14282627972,31.16798,0.4921268,2.96019366428,9.4056105372,13,4,8.379,46.79899427972,31.824148,0.7158208,2.96019366428,-0.223694,0.447388,0,265.5, -3.4, 0.2,0,0,1024,1024,1024,1024,0,0,0,0,276.2,-7.1,0,95,4.179,4.176,0,0,0,0,3.388,83.66,46.14282627972,31.16798,6,P-GPS,
12300,2023-01-04 18:49:00,-34.9535174392079,-54.9408035787032,30.839896,30.8070876,15.00765467972,45.81474227972,32.8084,0.447388,3.08818579436,9.5746722224,13,4,8.379,46.79899427972,31.824148,0.7158208,3.08818579436,0,0.447388,0,261.2, -4, 0,0,0,1024,1024,1024,1024,0,0,0,0,273,-7.1,0,95,4.179,4.176,0,0,0,0,3.388,83.66,45.81474227972,30.839896,6,P-GPS,
12400,2023-01-04 18:49:00,-34.9535171956686,-54.9408031094122,30.839896,30.8070876,15.00765467972,45.81474227972,32.8084,0.447388,3.19932096852,9.7407483432,13,4,8.379,46.79899427972,31.824148,0.7158208,3.19932096852,0,0.447388,0,258.7, -3.9, -0.8,0,0,1024,1024,1024,1024,0,0,0,0,271.6,-7.1,0,95,4.179,4.176,0,0,0,0,3.388,83.66,45.81474227972,30.839896,6,P-GPS,
12500,2023-01-04 18:49:00,-34.9535167007909,-54.9408025128699,30.839896,30.8070876,15.00765467972,45.81474227972,32.8084,0.447388,3.3338911828,9.994586934,13,4,8.379,46.79899427972,31.824148,0.7158208,3.3338911828,0,0.447388,0,257.8, -4.9, -1.2,0,0,1024,1024,1024,1024,0,0,0,0,271.3,-7.1,0,95,4.179,4.176,0,0,0,0,3.388,83.66,45.81474227972,30.839896,6,P-GPS,
12600,2023-01-04 18:49:00,-34.953516336017,-54.9408021243397,30.839896,30.8070876,15.00765467972,45.81474227972,32.8084,0.447388,3.4265421044,10.171260168,13,4,8.379,46.79899427972,31.824148,0.7158208,3.4265421044,0,0.447388,0,257.8, -5.7, -1.2,0,0,1024,1024,1024,1024,0,0,0,0,271.3,-7.1,0,95,4.179,4.176,0,0,0,0,3.388,83.66,45.81474227972,30.839896,6,P-GPS,
12700,2023-01-04 18:49:01,-34.9535158488733,-54.9408018605169,30.511812,30.4790036,15.00765467972,45.48665827972,32.8084,0.4921268,3.48425208,10.3657155548,13,4,8.379,46.79899427972,31.824148,0.7158208,3.48425208,0.223694,0.447388,0,257.7, -6.1, -1.7,0,0,1030,1024,1024,1024,1,0,0,0,271.3,-7.1,0,95,4.179,4.176,0,0,0,0,3.388,83.66,45.48665827972,30.511812,6,P-GPS,
12800,2023-01-04 18:49:01,-34.953515353053,-54.9408016701349,30.511812,30.511812,14.97484627972,45.48665827972,32.480316,0.3131716,3.5295932888,10.5553481068,13,4,8.379,46.79899427972,31.824148,0.7158208,3.5295932888,0.223694,0.223694,0,257.5, -6.3, -2.5,0,0,1031,1024,1024,1024,1,0,0,0,271.3,-7.1,0,95,4.179,4.176,0,0,0,0,3.388,83.66,45.48665827972,30.511812,6,P-GPS,
12900,2023-01-04 18:49:01,-34.9535145794236,-54.9408018021074,30.511812,30.511812,14.97484627972,45.48665827972,32.480316,0.3131716,3.4909449936,10.8403546776,13,4,8.379,46.79899427972,31.824148,0.7158208,3.5295932888,0.223694,0.223694,0,257.6, -6.4, -2.8,0,0,1051,1024,1024,1024,4,0,0,0,271.3,-7.1,0,95,4.179,4.176,0,0,0,0,3.388,83.66,45.48665827972,30.511812,6,P-GPS,
13000,2023-01-04 18:49:01,-34.9535140950405,-54.9408017334473,30.511812,30.5446204,14.94203787972,45.48665827972,32.480316,0.4921268,3.5234909264,11.0182746308,13,4,8.363,46.79899427972,31.824148,0.7158208,3.5295932888,0.447388,0.223694,0,257.7, -7.3, -3,0,0,1613,1024,1024,1024,89,0,0,0,271.3,-7.1,0,95,4.186,4.184,0,0,0,0,4.161,83.48,45.48665827972,30.511812,6,P-GPS,
13100,2023-01-04 18:49:01,-34.9535136281188,-54.9408017610633,30.183728,30.2165364,14.94203787972,45.15857427972,32.480316,0.447388,3.5352363336,11.188812694,13,4,8.363,46.79899427972,31.824148,0.7158208,3.5352363336,0.447388,0,0,257.5, -6.3, -3.6,0,0,1613,1024,1024,1024,89,0,0,0,271.3,-7.1,0,95,4.186,4.184,0,0,0,0,4.161,83.48,45.15857427972,30.183728,6,P-GPS,
13200,2023-01-04 18:49:01,-34.9535132123526,-54.940801858917,30.183728,30.2493448,14.90922947972,45.15857427972,32.480316,0.447388,3.53100405,11.3433074496,13,4,8.363,46.79899427972,31.824148,0.7158208,3.5352363336,0.447388,0,0,257.9, -14.2, -3.9,0,0,1684,1024,1024,1024,100,0,0,0,271.3,-7.1,0,95,4.186,4.184,0,0,0,0,4.161,83.48,45.15857427972,30.183728,6,P-GPS,
13300,2023-01-04 18:49:01,-34.9535128593166,-54.940802140117,29.855644,29.9212608,14.90922947972,44.83049027972,32.480316,0.4921268,3.4749673028,11.4971460372,13,4,8.363,46.79899427972,31.824148,0.7158208,3.5352363336,0.223694,-0.447388,0,258.4, -24, -4,0,0,1684,1024,1024,1024,100,0,0,0,271.3,-7.1,0,95,4.186,4.184,0,0,0,0,4.161,83.48,44.83049027972,29.855644,6,P-GPS,
13400,2023-01-04 18:49:01,-34.9535127108664,-54.9408030116309,29.855644,29.9212608,14.90922947972,44.83049027972,32.480316,1.1408394,3.23500994604,11.7633205864,13,4,8.363,46.79899427972,31.824148,1.1408394,3.5352363336,0.223694,-1.11847,0,258.3, -24.6, -3.7,0,0,1684,1024,1024,1024,100,0,0,0,271.3,-7.1,0,95,4.186,4.184,0,0,0,0,4.161,83.48,44.83049027972,29.855644,6,P-GPS,
13500,2023-01-04 18:49:01,-34.9535125245765,-54.9408039703358,29.855644,29.9212608,14.90922947972,44.83049027972,32.152232,2.013246,2.97874353364,12.0579400184,13,4,8.363,46.79899427972,31.824148,2.013246,3.5352363336,0,-2.013246,0,258.3, -24.7, -3.4,0,0,1684,1021,1024,1024,100,-0,0,0,271.3,-7.1,0,95,4.186,4.184,0,0,0,0,4.161,83.48,44.83049027972,29.855644,6,P-GPS,
13600,2023-01-04 18:49:01,-34.9535124423392,-54.9408052787593,29.855644,29.9212608,14.90922947972,44.83049027972,32.152232,2.908022,2.61898958512,12.4503612908,13,4,8.363,46.79899427972,31.824148,2.908022,3.5352363336,0,-2.908022,0,258.2, -24.2, -3.6,0,0,1684,1011,1024,1024,100,-2,0,0,271.3,-7.1,0,95,4.186,4.184,0,0,0,0,4.161,83.48,44.83049027972,29.855644,6,P-GPS,
13700,2023-01-04 18:49:02,-34.9535124816906,-54.9408071028237,29.52756,29.5931768,14.90922947972,44.50240627972,32.152232,3.802798,2.11174875524,12.9960305996,13,4,8.363,46.79899427972,31.824148,3.802798,3.5352363336,0,-3.802798,0,258.3, -24.6, -4.4,0,0,1684,997,1024,1024,100,-4,0,0,271.3,-7.1,0,95,4.186,4.184,0,0,0,0,4.161,83.48,44.50240627972,29.52756,6,P-GPS,
13800,2023-01-04 18:49:02,-34.9535128523965,-54.9408095198387,29.52756,29.5931768,14.90922947972,44.50240627972,32.152232,4.47388,1.4149278668,13.7313324604,13,4,8.363,46.79899427972,31.824148,4.47388,3.5352363336,-0.223694,-4.47388,0,258.4, -24.5, -4.4,0,0,1684,990,1024,1024,100,-5,0,0,271.3,-7.1,0,95,4.186,4.184,0,0,0,0,4.161,83.48,44.50240627972,29.52756,6,P-GPS,
13900,2023-01-04 18:49:02,-34.9535131051774,-54.940812157802,29.52756,29.5931768,14.90922947972,44.50240627972,31.824148,5.3910254,0.79205711196,14.5255582076,13,4,8.363,46.79899427972,31.824148,5.3910254,3.5352363336,-0.447388,-5.368656,0,258.5, -24.2, -4.6,0,0,1684,982,1024,1024,100,-6,0,0,271.3,-7.1,0,95,4.186,4.184,0,0,0,0,4.161,83.48,44.50240627972,29.52756,6,P-GPS,
14000,2023-01-04 18:49:02,-34.9535134444971,-54.9408150583188,29.52756,29.5931768,14.90922947972,44.50240627972,31.824148,6.0621074,0.7390748268,15.4017065296,13,4,8.35,46.79899427972,31.824148,6.0621074,3.5352363336,-0.447388,-6.039738,0,258.5, -23, -5.3,0,0,1684,960,1024,1024,100,-10,0,0,271.3,-7.1,0,95,4.167,4.164,0,0,0,0,4.247,83.48,44.50240627972,29.52756,6,P-GPS,
14100,2023-01-04 18:49:02,-34.9535139306552,-54.940818573114,29.52756,29.5603684,14.94203787972,44.50240627972,31.824148,6.7331894,1.57588259636,16.4676186372,13,4,8.35,46.79899427972,31.824148,6.7331894,3.5352363336,-0.671082,-6.71082,0,258.5, -22.7, -5.7,0,0,1684,960,1024,1024,100,-10,0,0,271.3,-7.1,0,95,4.167,4.164,0,0,0,0,4.247,83.48,44.50240627972,29.52756,6,P-GPS,
14200,2023-01-04 18:49:02,-34.9535148684448,-54.9408229415037,29.52756,29.52756,14.97484627972,44.50240627972,31.496064,7.2029468,2.83412738728,17.8180123812,13,4,8.35,46.79899427972,31.824148,7.2029468,3.5352363336,-0.894776,-7.158208,0,258.4, -22.2, -5.7,0,0,1684,959,1024,1024,100,-10,0,0,271.3,-7.1,0,95,4.167,4.164,0,0,0,0,4.247,83.48,44.50240627972,29.52756,6,P-GPS,
14300,2023-01-04 18:49:02,-34.9535155583621,-54.9408269276471,29.52756,29.4947516,15.00765467972,44.50240627972,31.496064,7.9187676,4.0310368744,19.0362866984,13,4,8.35,46.79899427972,31.824148,7.9187676,4.0310368744,-1.11847,-7.82929,0,258.4, -21.9, -6.1,0,0,1684,945,1024,1024,100,-12,0,0,271.3,-7.1,0,95,4.167,4.164,0,0,0,0,4.247,83.48,44.50240627972,29.52756,6,P-GPS,
14400,2023-01-04 18:49:02,-34.953516314557,-54.940830977792,29.52756,29.4947516,15.00765467972,44.50240627972,31.496064,8.388525,5.2590552864,20.2784783392,13,4,8.35,46.79899427972,31.824148,8.388525,5.2590552864,-1.342164,-8.276678,0,258.4, -22, -6.6,0,0,1684,921,1024,1024,100,-16,0,0,271.3,-7.1,0,95,4.167,4.164,0,0,0,0,4.247,83.48,44.50240627972,29.52756,6,P-GPS,
14500,2023-01-04 18:49:02,-34.9535172295486,-54.9408354947181,29.52756,29.5931768,14.90922947972,44.50240627972,31.496064,8.8582824,6.63795953,21.6698497748,13,4,8.35,46.79899427972,31.824148,8.8582824,6.63795953,-1.565858,-8.724066,0,258.4, -22.1, -6.3,0,0,1684,908,1061,1024,100,-18,6,0,271.3,-7.1,0,95,4.167,4.164,0,0,0,0,4.247,83.48,44.50240627972,29.52756,6,P-GPS,
14600,2023-01-04 18:49:02,-34.953518726062,-54.9408397122693,29.52756,29.855644,14.64676227972,44.50240627972,31.496064,9.3504092,7.9661091788,23.0441608424,13,4,8.35,46.79899427972,31.824148,9.3504092,7.9661091788,-1.789552,-9.171454,0,258.5, -21.7, -5.5,0,0,1684,904,1210,1024,100,-18,28,0,271.3,-7.1,0,95,4.167,4.164,0,0,0,0,4.247,83.48,44.50240627972,29.52756,6,P-GPS,
14700,2023-01-04 18:49:03,-34.9535198313397,-54.9408442604416,29.52756,30.0853028,14.41710347972,44.50240627972,31.496064,9.7754278,9.3765751032,24.46276325,13,4,8.35,46.79899427972,31.824148,9.7754278,9.3765751032,-1.789552,-9.618842,0,258.3, -21.6, -6,0,0,1684,904,1410,1024,100,-18,58,0,271.3,-7.1,0,95,4.167,4.164,0,0,0,0,4.247,83.48,44.50240627972,29.52756,6,P-GPS,
14800,2023-01-04 18:49:03,-34.9535209975436,-54.9408488289387,29.52756,30.3805784,14.12182787972,44.50240627972,31.496064,10.2675546,10.7995738364,25.8936359992,13,4,8.35,46.79899427972,31.824148,10.2675546,10.7995738364,-2.013246,-10.06623,-0.223694,258.2, -20.4, -5.6,0,0,1684,896,1569,1024,100,-19,83,0,271.3,-7.1,0,95,4.167,4.164,0,0,0,0,4.247,83.48,44.50240627972,29.52756,6,P-GPS,
14900,2023-01-04 18:49:03,-34.9535223952074,-54.9408540198157,29.52756,30.675854,13.82655227972,44.50240627972,31.496064,10.961006,12.424377038,27.5274943192,13,4,8.35,46.79899427972,31.824148,10.961006,12.424377038,-2.23694,-10.737312,-0.894776,258.3, -19.3, -5.3,0,0,1684,872,1681,1024,100,-23,100,0,271.3,-7.1,0,95,4.167,4.164,0,0,0,0,4.247,83.48,44.50240627972,29.52756,6,P-GPS,
15000,2023-01-04 18:49:03,-34.9535238033579,-54.9408592031592,29.855644,31.2664052,13.56408507972,44.83049027972,31.496064,11.520241,14.0499676412,29.160434004,13,4,8.329,46.79899427972,31.824148,11.520241,14.0499676412,-3.579104,-10.961006,-1.565858,252.7, -18.3, -5.8,0,0,1684,872,1681,1024,100,-23,100,0,271.3,-7.1,0,95,4.155,4.154,0,0,0,0,4.857,83.66,44.83049027972,29.855644,6,P-GPS,
15100,2023-01-04 18:49:03,-34.9535259908178,-54.9408644629937,30.183728,31.8897648,13.26880947972,45.15857427972,31.496064,12.0347372,15.7692590348,30.924213588,13,4,8.329,46.79899427972,31.824148,12.0347372,15.7692590348,-3.802798,-11.408394,-2.460634,252.8, -17.6, -5.8,0,0,1684,872,1684,1024,100,-23,100,0,271.3,-7.1,0,95,4.155,4.154,0,0,0,0,4.857,83.66,45.15857427972,30.183728,6,P-GPS,
15200,2023-01-04 18:49:03,-34.9535276323545,-54.9408700085926,30.839896,32.8740168,12.94072547972,45.81474227972,31.824148,12.30317,17.526083238,32.6874026208,13,4,8.329,46.79899427972,31.824148,12.30317,17.526083238,-4.026492,-11.632088,-3.131716,252.7, -17.6, -6.3,0,0,1684,872,1684,1024,100,-23,100,0,271.3,-7.1,0,95,4.155,4.154,0,0,0,0,4.857,83.66,45.81474227972,30.839896,6,P-GPS,
15300,2023-01-04 18:49:03,-34.9535294695194,-54.9408760558928,31.496064,33.8910772,12.57983307972,46.47091027972,32.152232,12.5939722,19.4478680764,34.61614284,13,4,8.329,46.79899427972,31.824148,12.5939722,19.4478680764,-4.250186,-11.855782,-4.026492,252.9, -17.9, -5.8,0,0,1684,872,1684,1024,100,-23,100,0,271.3,-7.1,0,95,4.155,4.154,0,0,0,0,4.857,83.66,46.47091027972,31.496064,6,P-GPS,
15400,2023-01-04 18:49:03,-34.953531300988,-54.9408819735672,32.152232,34.9081376,12.21894067972,47.12707827972,32.480316,12.5939722,21.3330387404,36.5075471,13,4,8.329,47.12707827972,32.152232,12.5939722,21.3330387404,-4.47388,-12.079476,-4.697574,252.7, -17.4, -5.5,0,0,1684,872,1684,1024,100,-23,100,0,271.3,-7.1,0,95,4.155,4.154,0,0,0,0,4.857,83.66,47.12707827972,32.152232,6,P-GPS,
15500,2023-01-04 18:49:03,-34.9535333959234,-54.9408884919746,32.8084,35.8923896,11.89085667972,47.78324627972,33.464568,13.3769012,23.4188983872,38.601379188,13,4,8.329,47.78324627972,32.8084,13.3769012,23.4188983872,-4.697574,-12.526864,-5.59235,252.8, -18.3, -5.9,0,0,1684,873,1684,1024,100,-23,100,0,271.3,-7.1,0,95,4.155,4.154,0,0,0,0,4.857,83.66,47.78324627972,32.8084,6,P-GPS,
15600,2023-01-04 18:49:03,-34.9535353735547,-54.9408946316378,33.792652,37.3031508,11.46434747972,48.76749827972,34.120736,13.4663788,25.3852042244,40.573820196,13,4,8.329,48.76749827972,33.792652,13.4663788,25.3852042244,-4.921268,-12.526864,-6.039738,252.6, -18.2, -5.6,0,0,1684,874,1684,1024,100,-23,100,0,271.3,-7.1,0,95,4.155,4.154,0,0,0,0,4.857,83.66,48.76749827972,33.792652,6,P-GPS,
15700,2023-01-04 18:49:03,-34.9535375326467,-54.9409009784684,34.776904,38.6154868,11.13626347972,49.75175027972,35.104988,13.757181,27.4313328988,42.628938372,13,4,8.329,49.75175027972,34.776904,13.757181,27.4313328988,-5.144962,-12.750558,-6.263432,252.6, -20.3, -5.2,0,0,1684,872,1684,1024,100,-23,100,0,271.3,-7.1,0,95,4.155,4.154,0,0,0,0,4.857,83.66,49.75175027972,34.776904,6,P-GPS,
15800,2023-01-04 18:49:04,-34.9535396623567,-54.9409072076097,36.08924,40.2887152,10.77537107972,51.06408627972,36.08924,14.0479832,29.441930076,44.64731114,13,4,8.329,51.06408627972,36.08924,14.0479832,29.441930076,-5.368656,-12.974252,-6.263432,252.5, -20.4, -5,0,0,1684,870,1684,1024,100,-23,100,0,271.3,-7.1,0,95,4.155,4.154,0,0,0,0,4.857,83.66,51.06408627972,36.08924,6,P-GPS,
15900,2023-01-04 18:49:04,-34.953542007601,-54.9409138664404,37.073492,41.6994764,10.34886187972,52.04833827972,37.073492,14.3387854,31.600066628,46.814634044,13,4,8.329,52.04833827972,37.073492,14.3387854,31.600066628,-5.59235,-13.197946,-6.263432,252.5, -19.8, -4.8,0,0,1684,870,1684,1024,100,-23,100,0,271.3,-7.1,0,95,4.155,4.154,0,0,0,0,4.857,83.66,52.04833827972,37.073492,6,P-GPS,
16000,2023-01-04 18:49:04,-34.9535442499228,-54.9409205889369,38.057744,43.0774292,9.95516107972,53.03259027972,38.057744,14.54011,33.765421028,48.984909704,13,4,8.147,53.03259027972,38.057744,14.54011,33.765421028,-5.59235,-13.42164,-6.487126,252.5, -19.7, -4.9,0,0,1684,868,1684,1024,100,-24,100,0,271.3,-7.1,0,95,4.09,4.079,0,0,0,0,7.469,83.66,53.03259027972,38.057744,6,P-GPS,
16100,2023-01-04 18:49:04,-34.9535465988474,-54.9409277978062,39.041996,44.4881904,9.52865187972,54.01684227972,39.041996,14.8309122,36.082022152,51.304791668,13,4,8.147,54.01684227972,39.041996,14.8309122,36.082022152,-5.816044,-13.645334,-6.487126,252.5, -19.9, -5.3,0,0,1684,869,1684,1024,100,-23,100,0,271.3,-7.1,0,95,4.09,4.079,0,0,0,0,7.469,83.66,54.01684227972,39.041996,6,P-GPS,
16200,2023-01-04 18:49:04,-34.9535488693087,-54.9409347469324,40.354332,46.2270356,9.10214267972,55.32917827972,40.026248,15.0322368,38.315946108,53.54166838,13,4,8.147,55.32917827972,40.354332,15.0322368,38.315946108,-5.816044,-13.869028,-6.487126,252.5, -20, -5.5,0,0,1684,868,1684,1024,100,-24,100,0,271.3,-7.1,0,95,4.09,4.079,0,0,0,0,7.469,83.66,55.32917827972,40.354332,6,P-GPS,
