time(millisecond),datetime(utc),latitude,longitude,height_above_takeoff(feet),height_above_ground_at_drone_location(feet),ground_elevation_at_drone_location(feet),altitude_above_seaLevel(feet),height_sonar(feet),speed(mph),distance(feet),mileage(feet),satellites,gpslevel,voltage(v),max_altitude(feet),max_ascent(feet),max_speed(mph),max_distance(feet), xSpeed(mph), ySpeed(mph), zSpeed(mph), compass_heading(degrees), pitch(degrees), roll(degrees),isPhoto,isVideo,rc_elevator,rc_aileron,rc_throttle,rc_rudder,rc_elevator(percent),rc_aileron(percent),rc_throttle(percent),rc_rudder(percent),gimbal_heading(degrees),gimbal_pitch(degrees),gimbal_roll(degrees),battery_percent,voltageCell1,voltageCell2,voltageCell3,voltageCell4,voltageCell5,voltageCell6,current(A),battery_temperature(f),altitude(feet),ascent(feet),flycStateRaw,flycState,message
0,2023-01-03 04:59:40,-34.9569115702436,-54.9391761825875,0,0,26.24672,26.24672,0.328084,0,0,0,10,4,0,26.24672,0,0,0,0,0,0,121.4, -7.5, 1.9,0,0,364,364,364,1684,-100,-100,-100,100,127.4,-2.5,0,86,4.211,4.205,0,0,0,0,0,93.02,26.24672,0,41,Motors_Started,
100,2023-01-03 04:59:40,-34.9569118572862,-54.93917609255,0,0,26.24672,26.24672,0.328084,0,0.108132549392,0.108132549392,10,4,0,26.24672,0,0,0.108132549392,0,0,0,121.8, -7.5, 1.7,0,0,364,364,364,1684,-100,-100,-100,100,127.6,-2.5,0,86,4.211,4.205,0,0,0,0,0,93.02,26.24672,0,41,Motors_Started,
200,2023-01-03 04:59:41,-34.956912131692,-54.9391760129581,0,0,26.24672,26.24672,0.328084,0,0.211030846648,0.211039376832,10,4,0,26.24672,0,0,0.211030846648,0,0,0,121.7, -7.2, 1.6,0,0,364,364,364,1684,-100,-100,-100,100,127.9,-2.6,0,86,4.211,4.205,0,0,0,0,0,93.02,26.24672,0,41,Motors_Started,N/A
300,2023-01-03 04:59:41,-34.956913421817,-54.9391758469232,0,0,26.24672,26.24672,0.328084,0,0.68296262028,0.6843504156,10,4,0,26.24672,0,0,0.68296262028,0,0,0,121.5, -6.2, 0.3,0,0,364,364,364,1684,-100,-100,-100,100,127.9,-2.6,0,86,4.211,4.205,0,0,0,0,0,93.02,26.24672,0,41,Motors_Started,
400,2023-01-03 04:59:41,-34.9569137601556,-54.9391757409383,0,0,26.24672,26.24672,0.328084,0,0.80982942224,0.81179792624,11,4,0,26.24672,0,0,0.80982942224,0,0,0,121.1, -5.2, 0,0,0,364,364,364,1684,-100,-100,-100,100,127.7,-2.6,0,86,4.211,4.205,0,0,0,0,0,93.02,26.24672,0,41,Motors_Started,"Setting new Return-To-Home altitude to 100m (328 ft). Data Recorder File Index is 85. Setting new Maximum Flight Altitude to 120m (394 ft)"
500,2023-01-03 04:59:41,-34.9569141100365,-54.9391756670481,0,0,26.24672,26.24672,0.328084,0,0.93937667048,0.94134845532,11,4,0,26.24672,0,0,0.93937667048,0,0,0,121, -4.9, 0.2,0,0,364,587,1040,1428,-100,-66,2,61,127.4,-2.6,0,86,4.211,4.205,0,0,0,0,0,93.02,26.24672,0,41,Motors_Started,
600,2023-01-03 04:59:41,-34.9569144507135,-54.9391755917063,0,0,26.24672,26.24672,0.328084,0,1.06568572964,1.06767063784,10,4,0,26.24672,0,0,1.06568572964,0,0,0,120.9, -4.6, -0.1,0,0,1024,1024,1024,1024,0,0,0,0,127.2,-2.6,0,86,4.211,4.205,0,0,0,0,0,93.02,26.24672,0,41,Motors_Started,
700,2023-01-03 04:59:41,-34.956915368016,-54.9391753380935,0,0,26.24672,26.24672,0.328084,0,1.40843836528,1.41083337848,10,4,0,26.24672,0,0,1.40843836528,0,0,0,121, -5, -0.2,0,0,1024,1024,1024,1024,0,0,0,0,127.2,-2.5,0,86,4.211,4.205,0,0,0,0,0,93.02,26.24672,0,41,Motors_Started,N/A
800,2023-01-03 04:59:41,-34.95691584274,-54.9391751849832,0,-0.032808399999999,26.2795284,26.24672,0.328084,0,1.58710306916,1.58998364668,10,4,0,26.24672,0,0,1.58710306916,0,0,0,121.1, -4.6, -0.3,0,0,1024,1024,1024,1024,0,0,0,0,127.2,-2.6,0,86,4.211,4.205,0,0,0,0,0,93.02,26.24672,0,41,Motors_Started,"Despegue permitido. Error de calibración del estabilizador"
900,2023-01-03 04:59:41,-34.9569162814103,-54.9391750958538,0,-0.032808399999999,26.2795284,26.24672,0.328084,0,1.74931436044,1.75223758888,10,4,8.426,26.24672,0,0,1.74931436044,0,0,0,121, -4.4, 0.3,0,0,1024,1024,1024,1024,0,0,0,0,127.2,-2.6,0,86,4.211,4.205,0,0,0,0,0.64,93.02,26.24672,0,41,Motors_Started,
1000,2023-01-03 04:59:41,-34.9569166826719,-54.9391750268108,0,-0.032808399999999,26.2795284,26.24672,0.328084,0,1.8970144964,1.90008536264,10,4,8.426,26.24672,0,0,1.8970144964,0,0,0,121, -3.9, 0.1,0,0,1024,1024,1024,1024,0,0,0,0,127.2,-2.6,0,86,4.211,4.205,0,0,0,0,0.64,93.02,26.24672,0,41,Motors_Started,
1100,2023-01-03 04:59:42,-34.9569171499702,-54.9391745459072,0,-0.032808399999999,26.2795284,26.24672,0.328084,0,2.09376319036,2.12312670836,10,4,8.426,26.24672,0,0,2.09376319036,0,0,0,121.2, -3.9, 0.7,0,0,1024,1024,1024,1024,0,0,0,0,127.2,-2.5,0,86,4.211,4.205,0,0,0,0,0.64,93.02,26.24672,0,10,Assisted_Takeoff,
1200,2023-01-03 04:59:42,-34.956917511133,-54.9391743347791,0,-0.032808399999999,26.2795284,26.24672,0.328084,0,2.23684718444,2.26923891776,10,4,8.426,26.24672,0,0,2.23684718444,0,0,0,121.1, -3.3, 1.1,0,0,1024,1024,1024,1024,0,0,0,0,127.3,-2.5,0,86,4.211,4.205,0,0,0,0,0.64,93.02,26.24672,0,10,Assisted_Takeoff,
1300,2023-01-03 04:59:42,-34.9569179857984,-54.9391741586892,0,-0.032808399999999,26.2795284,26.24672,0.328084,0,2.4176838044,2.45024942224,10,4,8.426,26.24672,0,0,2.4176838044,0,0,0,121.9, -4, 2.1,0,0,1024,1024,1024,1024,0,0,0,0,127.6,-2.5,0,86,4.211,4.205,0,0,0,0,0.64,93.02,26.24672,0,10,Assisted_Takeoff,
1400,2023-01-03 04:59:42,-34.9569184640268,-54.939173979698,0,-0.032808399999999,26.2795284,26.24672,0.328084,0,2.60001976824,2.63275598976,11,4,8.426,26.24672,0,0,2.60001976824,0,0,0,121.5, -5.3, 1.7,0,0,1024,1024,1024,1024,0,0,0,0,128,-2.5,0,86,4.211,4.205,0,0,0,0,0.64,93.02,26.24672,0,10,Assisted_Takeoff,
1500,2023-01-03 04:59:42,-34.956919441484,-54.9391736506869,0,-0.032808399999999,26.2795284,26.24672,0.328084,0,2.96993775908,3.00270022732,11,4,8.426,26.24672,0,0,2.96993775908,0,0,0,121.3, -5.9, 0.9,0,0,1024,1024,1024,1024,0,0,0,0,128,-2.6,0,86,4.211,4.205,0,0,0,0,0.64,93.02,26.24672,0,10,Assisted_Takeoff,
1600,2023-01-03 04:59:42,-34.9569200074465,-54.9391734649974,0,-0.032808399999999,26.2795284,26.24672,0.328084,0,3.18376322524,3.21652569348,11,4,8.426,26.24672,0,0,3.18376322524,0,0,0,122, -6.6, -0.1,0,0,1024,1024,1024,1024,0,0,0,0,127.8,-2.5,0,86,4.211,4.205,0,0,0,0,0.64,93.02,26.24672,0,10,Assisted_Takeoff,
1700,2023-01-03 04:59:42,-34.9569205333231,-54.9391733193312,0,-0.065616799999999,26.3123368,26.24672,0.328084,0,3.380413494,3.4132875108,11,4,8.426,26.24672,0,0,3.380413494,0,0,0,121.8, -6.6, -0.3,0,0,1024,1024,1203,501,0,0,27,-79,127.9,-2.6,0,86,4.211,4.205,0,0,0,0,0.64,93.02,26.24672,0,10,Assisted_Takeoff,
1800,2023-01-03 04:59:42,-34.9569210048163,-54.9391732011174,0,-0.065616799999999,26.3123368,26.24672,0.328084,0,3.555774392,3.5888780676,10,4,8.426,26.24672,0,0,3.555774392,0,0,0,121.5, -6, -0.9,0,0,1024,1024,1266,376,0,0,37,-98,127.8,-2.5,0,86,4.211,4.205,0,0,0,0,0.64,93.02,26.24672,0,10,Assisted_Takeoff,
1900,2023-01-03 04:59:42,-34.9569215653593,-54.9391730315631,0,-0.065616799999999,26.3123368,26.24672,0.328084,0,3.7664699368,3.7996064208,10,4,8.399,26.24672,0,0,3.7664699368,0,0,0,121.4, -6.1, 0.4,0,0,1024,1024,1353,364,0,0,50,-100,127.7,-2.6,0,86,4.201,4.198,0,0,0,0,1.461,93.02,26.24672,0,10,Assisted_Takeoff,"Entorno demasiado oscuro. El posicionamiento visual no será preciso. Vuela con precaución (Code: 180032)"
2000,2023-01-03 04:59:42,-34.956922293834,-54.9391729193492,0,-0.065616799999999,26.3123368,26.24672,0.328084,0,4.0323492104,4.0674870068,10,4,8.399,26.24672,0,0,4.0323492104,0,0,0,121.3, -4.8, 1.4,0,0,1024,1024,1412,374,0,0,59,-98,127.6,-2.6,0,86,4.201,4.198,0,0,0,0,1.461,93.02,26.24672,0,10,Assisted_Takeoff,
2100,2023-01-03 04:59:43,-34.9569228698407,-54.9391726917673,0,-0.098425199999998,26.3451452,26.24672,0.328084,0,4.2527560416,4.288385964,10,4,8.399,26.24672,0,0,4.2527560416,0,0,0,121.4, -3.9, 2.3,0,0,1024,1024,1386,497,0,0,55,-80,127.6,-2.5,0,86,4.201,4.198,0,0,0,0,1.461,93.02,26.24672,0,10,Assisted_Takeoff,
2200,2023-01-03 04:59:43,-34.9569234215184,-54.9391724550118,0,-0.065616799999999,26.3123368,26.24672,0.328084,0,4.4652888568,4.5017717976,10,4,8.399,26.24672,0,0,4.4652888568,0,0,0,121.3, -4.9, 3.3,0,0,1024,1024,1386,497,0,0,55,-80,127.6,-2.5,0,86,4.201,4.198,0,0,0,0,1.461,93.02,26.24672,0,10,Assisted_Takeoff,
2300,2023-01-03 04:59:43,-34.9569240643695,-54.939172181747,0,-0.098425199999998,26.3451452,26.24672,0.328084,0.223694,4.7128610432,4.7501313856,10,4,8.399,26.24672,0,0.223694,4.7128610432,-0.223694,0,-0.223694,121.3, -5.7, 3.4,0,0,1024,1024,1338,526,0,0,48,-75,127.6,-2.5,0,86,4.201,4.198,0,0,0,0,1.461,93.02,26.24672,0,10,Assisted_Takeoff,"Señal del GPS débil"
2400,2023-01-03 04:59:43,-34.9569248075262,-54.9391718512725,0,-0.098425199999998,26.3451452,26.24672,0.328084,0.223694,5.0002626272,5.038714072,10,4,8.399,26.24672,0,0.223694,5.0002626272,-0.223694,0,-0.223694,120.2, -5.5, 2.8,0,0,1024,1024,1324,544,0,0,45,-73,127.2,-2.6,0,86,4.201,4.198,0,0,0,0,1.461,93.02,26.24672,0,10,Assisted_Takeoff,
2500,2023-01-03 04:59:43,-34.9569259251142,-54.9391715513269,0,-0.098425199999998,26.3451452,26.24672,0.328084,0.3131716,5.4173558164,5.456200962,10,4,8.399,26.24672,0,0.3131716,5.4173558164,-0.223694,0.223694,0,117.8, -3.5, 0.8,0,0,1024,1024,1266,568,0,0,37,-69,124.8,-2.5,0,86,4.201,4.198,0,0,0,0,1.461,93.02,26.24672,0,10,Assisted_Takeoff,
2600,2023-01-03 04:59:43,-34.9569270419598,-54.9391712183229,0,-0.098425199999998,26.3451452,26.24672,0.328084,0.3131716,5.836778402,5.8756891644,12,4,8.399,26.24672,0,0.3131716,5.836778402,-0.223694,0.223694,-0.223694,114.5, -3.2, 0,0,0,1024,1024,1024,1024,0,0,0,0,121.7,-2.5,0,86,4.201,4.198,0,0,0,0,1.461,93.02,26.24672,0,10,Assisted_Takeoff,
2700,2023-01-03 04:59:43,-34.9569294852446,-54.9391709252121,0,-0.1312336,26.3779536,26.24672,0.328084,0.6263432,6.7226708188,6.7714241012,12,4,8.399,26.24672,0,0.6263432,6.7226708188,-0.447388,0.447388,-0.447388,111.7, -2.4, -0.3,0,0,1024,1024,1024,1024,0,0,0,0,118.6,-2.6,0,86,4.201,4.198,0,0,0,0,1.461,93.02,26.24672,0,6,P-GPS,
2800,2023-01-03 04:59:43,-34.9569349461273,-54.9391707176592,0.328084,0.1312336,26.4435704,26.574804,0.656168,0.4921268,8.6838257372,8.76476406,12,4,8.399,26.574804,0.328084,0.6263432,8.6838257372,-0.223694,0.447388,-0.894776,111.4, 1, -0.8,0,0,1024,1024,1024,1024,0,0,0,0,118.2,-2.5,0,86,4.201,4.198,0,0,0,0,1.461,93.02,26.574804,0.328084,6,P-GPS,
2900,2023-01-03 04:59:43,-34.9569371412112,-54.9391705276892,0.328084,0.098425199999999,26.4763788,26.574804,0.656168,0.4921268,9.4815619832,9.5676512248,12,4,8.406,26.574804,0.328084,0.6263432,9.4815619832,-0.223694,0.447388,-1.342164,111.7, 2.6, -0.8,0,0,1024,1024,1024,1024,0,0,0,0,118.2,-2.5,0,86,4.194,4.185,0,0,0,0,1.275,93.02,26.574804,0.328084,6,P-GPS,
3000,2023-01-03 04:59:43,-34.9569394215148,-54.9391703564632,0.656168,0.4265092,26.4763788,26.902888,0.984252,0.3131716,10.3097772328,10.4012142436,11,4,8.406,26.902888,0.656168,0.6263432,10.3097772328,-0.223694,0.223694,-1.565858,111.8, 2.7, -0.3,0,0,1024,1024,1024,1024,0,0,0,0,118.2,-2.5,0,86,4.194,4.185,0,0,0,0,1.275,93.02,26.902888,0.656168,6,P-GPS,
3100,2023-01-03 04:59:44,-34.9569403443019,-54.9391701019319,0.984252,0.7217848,26.5091872,27.230972,4.92126,0.3131716,10.6544950916,10.74639142,11,4,8.406,27.230972,0.984252,0.6263432,10.6544950916,-0.223694,0.223694,-1.565858,111.9, 2.7, -0.1,0,0,1024,1024,1024,1024,0,0,0,0,118.2,-2.5,0,86,4.194,4.185,0,0,0,0,1.275,93.02,27.230972,0.984252,6,P-GPS,
3200,2023-01-03 04:59:44,-34.9569414687099,-54.9391701621396,0.984252,0.7217848,26.5091872,27.230972,5.249344,0.223694,11.0560042908,11.1570213544,10,4,8.406,27.230972,0.984252,0.6263432,11.0560042908,0,0.223694,-1.11847,111.9, 2.3, -0.3,0,0,1035,1024,1024,1024,2,0,0,0,118.2,-2.5,0,86,4.194,4.185,0,0,0,0,1.275,93.02,27.230972,0.984252,6,P-GPS,
3300,2023-01-03 04:59:44,-34.9569414564575,-54.939169606375,1.312336,1.0498688,26.5091872,27.559056,5.249344,0.223694,11.0798559976,11.3232615172,10,4,8.406,27.559056,1.312336,0.6263432,11.0798559976,0,0.223694,-0.894776,112, 1.9, -0.2,0,0,1439,1024,1024,1024,63,0,0,0,118.2,-2.5,0,86,4.194,4.185,0,0,0,0,1.275,93.02,27.559056,1.312336,6,P-GPS,
3400,2023-01-03 04:59:44,-34.9569413682349,-54.9391690422083,1.312336,1.0498688,26.5091872,27.559056,5.577428,0.447388,11.0794622968,11.4950134912,10,4,8.406,27.559056,1.312336,0.6263432,11.0798559976,0,0.447388,-0.447388,112.1, -1.6, -0.2,0,0,1684,1024,1024,1024,100,0,0,0,118.2,-2.5,0,86,4.194,4.185,0,0,0,0,1.275,93.02,27.559056,1.312336,6,P-GPS,
3500,2023-01-03 04:59:44,-34.9569406511203,-54.9391686559118,1.312336,1.0498688,26.5091872,27.559056,5.577428,0.7158208,10.8462273812,11.781004314,10,4,8.406,27.559056,1.312336,0.7158208,11.0798559976,-0.223694,0.671082,-0.223694,112.1, -9.5, 0,0,0,1024,1024,1041,1024,0,0,3,0,118.2,-2.5,0,86,4.194,4.185,0,0,0,0,1.275,93.02,27.559056,1.312336,6,P-GPS,
3600,2023-01-03 04:59:44,-34.9569399568299,-54.939168162795,1.64042,1.4107612,26.4763788,27.88714,5.577428,1.1408394,10.6308402352,12.0741145596,12,4,8.406,27.88714,1.64042,1.1408394,11.0798559976,-0.223694,1.11847,0,112.1, -10.7, 0.3,0,0,1024,1024,1363,1024,0,0,51,0,118.2,-2.6,0,86,4.194,4.185,0,0,0,0,1.275,93.02,27.88714,1.64042,6,P-GPS,
3700,2023-01-03 04:59:44,-34.9569323350867,-54.9391672854709,1.64042,1.5091864,26.3779536,27.88714,5.577428,1.2079476,8.0295934328,14.8672576936,12,4,8.406,27.88714,1.64042,1.2079476,11.0798559976,-0.447388,1.11847,0,111.9, 3.8, 0.2,0,0,1024,1024,1684,1024,0,0,100,0,118.2,-2.5,0,86,4.194,4.185,0,0,0,0,1.275,93.02,27.88714,1.64042,6,P-GPS,
3800,2023-01-03 04:59:44,-34.9569312857239,-54.9391668190978,1.64042,1.5419948,26.3451452,27.88714,5.577428,1.1408394,7.7188978848,15.2747052132,11,4,8.406,27.88714,1.64042,1.2079476,11.0798559976,-0.223694,1.11847,-0.223694,111.9, 5.6, -0.3,0,0,1028,1024,1684,1024,1,0,100,0,118.2,-2.5,0,86,4.194,4.185,0,0,0,0,1.275,93.02,27.88714,1.64042,6,P-GPS,
3900,2023-01-03 04:59:44,-34.9569307043108,-54.939166413423,1.64042,1.5419948,26.3451452,27.88714,5.577428,0.9171454,7.5676183524,15.5190949848,11,4,8.256,27.88714,1.64042,1.2079476,11.0798559976,-0.223694,0.894776,-0.671082,112, 5, 0,0,0,1160,1024,1684,1024,21,0,100,0,118.2,-2.5,0,86,4.149,4.142,0,0,0,0,4.233,93.02,27.88714,1.64042,6,P-GPS,
4000,2023-01-03 04:59:44,-34.9569301018126,-54.9391661300255,1.968504,1.8700788,26.3451452,28.215224,5.905512,0.671082,7.3993440688,15.7546592968,11,4,8.256,28.215224,1.968504,1.2079476,11.0798559976,0,0.671082,-1.11847,112.1, 4, 0.4,0,0,1160,1024,1684,1024,21,0,100,0,118.2,-2.5,0,86,4.149,4.142,0,0,0,0,4.233,93.02,28.215224,1.968504,6,P-GPS,
4100,2023-01-03 04:59:45,-34.956930662349,-54.9391659841574,1.968504,1.8700788,26.3451452,28.215224,6.233596,0.447388,7.6040356764,15.9637800384,11,4,8.256,28.215224,1.968504,1.2079476,11.0798559976,0,0.447388,-2.013246,112.1, 1.6, 0.6,0,0,1218,1024,1684,1024,29,0,100,0,118.2,-2.5,0,86,4.149,4.142,0,0,0,0,4.233,93.02,28.215224,1.968504,6,P-GPS,
4200,2023-01-03 04:59:45,-34.9569309235189,-54.9391657689229,2.296588,2.1981628,26.3451452,28.543308,6.56168,0.223694,7.7171590396,16.0787734804,12,4,8.256,28.543308,2.296588,1.2079476,11.0798559976,0,0.223694,-2.684328,112.1, -0.3, 0.8,0,0,1205,1024,1684,1024,27,0,100,0,118.2,-2.5,0,86,4.149,4.142,0,0,0,0,4.233,93.02,28.543308,2.296588,6,P-GPS,
4300,2023-01-03 04:59:45,-34.9569317289668,-54.9391654143742,2.952756,2.8543308,26.3451452,29.199476,7.217848,0.447388,8.028871648,16.3911750652,12,4,8.256,29.199476,2.952756,1.2079476,11.0798559976,0,0.447388,-3.579104,112.1, -1.1, 0.1,0,0,1055,1024,1384,1024,5,0,55,0,118.2,-2.5,0,86,4.149,4.142,0,0,0,0,4.233,93.02,29.199476,2.952756,6,P-GPS,
4400,2023-01-03 04:59:45,-34.9569325585483,-54.9391650242206,3.608924,3.5104988,26.3451452,29.855644,7.545932,0.4921268,8.3529202148,16.715551716,11,4,8.256,29.855644,3.608924,1.2079476,11.0798559976,-0.223694,0.447388,-4.250186,112.1, -0.4, -0.4,0,0,1024,1024,1210,1024,0,0,28,0,118.2,-2.6,0,86,4.149,4.142,0,0,0,0,4.233,93.02,29.855644,3.608924,6,P-GPS,
4500,2023-01-03 04:59:45,-34.9569350544644,-54.9391647730427,4.265092,4.1338584,26.3779536,30.511812,8.2021,0.4921268,9.2224740484,17.629265656,11,4,8.256,30.511812,4.265092,1.2079476,11.0798559976,-0.223694,0.447388,-4.026492,112, 3.3, -0.8,0,0,1183,1024,1024,1024,24,0,0,0,118.2,-2.5,0,86,4.149,4.142,0,0,0,0,4.233,93.02,30.511812,4.265092,6,P-GPS,
4600,2023-01-03 04:59:45,-34.9569356426975,-54.9391645765097,4.593176,4.4619424,26.3779536,30.839896,8.858268,0.447388,9.4436354728,17.8518050332,12,4,8.256,30.839896,4.593176,1.2079476,11.0798559976,0,0.447388,-3.579104,112, 4, -0.6,0,0,1590,1024,1024,1024,86,0,0,0,118.2,-2.5,0,86,4.149,4.142,0,0,0,0,4.233,93.02,30.839896,4.593176,6,P-GPS,
4700,2023-01-03 04:59:45,-34.9569362437822,-54.9391644397407,5.249344,5.1181104,26.3779536,31.496064,9.514436,0.223694,9.662729968,18.0748693448,12,4,8.256,31.496064,5.249344,1.2079476,11.0798559976,0,0.223694,-2.908022,112.1, 0.9, -0.4,0,0,1526,1024,1024,1024,76,0,0,0,118.2,-2.5,0,86,4.149,4.142,0,0,0,0,4.233,93.02,31.496064,5.249344,6,P-GPS,
4800,2023-01-03 04:59:45,-34.9569368384378,-54.9391643076521,5.577428,5.4461944,26.3779536,31.824148,9.84252,0.447388,9.8792982164,18.2954074096,10,4,8.256,31.824148,5.577428,1.2079476,11.0798559976,0,0.447388,-2.23694,112.2, -8.4, -0.4,0,0,1526,1024,1024,1024,76,0,0,0,118.2,-2.5,0,86,4.149,4.142,0,0,0,0,4.233,93.02,31.824148,5.577428,6,P-GPS,
4900,2023-01-03 04:59:45,-34.956937158388,-54.9391638862627,5.905512,5.7742784,26.3779536,32.152232,10.170604,0.7158208,10.033792972,18.467192192,10,4,8.254,32.152232,5.905512,1.2079476,11.0798559976,-0.223694,0.671082,-1.565858,112.2, -13.6, -0.1,0,0,1024,1024,1024,1024,0,0,0,0,118.2,-2.5,0,86,4.121,4.102,0,0,0,0,4.432,93.02,32.152232,5.905512,6,P-GPS,
5000,2023-01-03 04:59:45,-34.9569374359856,-54.9391633572052,5.905512,5.7742784,26.3779536,32.152232,10.170604,0.9171454,10.1866144992,18.655020282,10,4,8.254,32.152232,5.905512,1.2079476,11.0798559976,-0.223694,0.894776,-0.894776,112, -3.8, 0.2,0,0,1024,1024,1024,1024,0,0,0,0,118.2,-2.5,0,86,4.121,4.102,0,0,0,0,4.432,93.02,32.152232,5.905512,6,P-GPS,
5100,2023-01-03 04:59:45,-34.9569372691678,-54.9391622551829,5.905512,5.7742784,26.3779536,32.152232,10.498688,1.1408394,10.2595475724,18.9901252796,10,4,8.254,32.152232,5.905512,1.2079476,11.0798559976,-0.223694,1.11847,-0.447388,111.9, 3.9, 0.3,0,0,1024,1024,1024,1024,0,0,0,0,118.2,-2.5,0,86,4.121,4.102,0,0,0,0,4.432,93.02,32.152232,5.905512,6,P-GPS,
5200,2023-01-03 04:59:46,-34.956937066179,-54.9391611434355,6.233596,6.1351708,26.3451452,32.480316,10.498688,0.9171454,10.33218537,19.33070928,11,4,8.254,32.480316,6.233596,1.2079476,11.0798559976,-0.223694,0.894776,0,111.9, 5.9, 0,0,0,1089,1024,1024,1024,10,0,0,0,118.2,-2.5,0,86,4.121,4.102,0,0,0,0,4.432,93.02,32.480316,6.233596,6,P-GPS,
5300,2023-01-03 04:59:46,-34.9569371344955,-54.9391607050277,6.233596,6.1351708,26.3451452,32.480316,10.498688,0.7158208,10.412237866,19.4641738512,11,4,8.254,32.480316,6.233596,1.2079476,11.0798559976,-0.223694,0.671082,0,111.9, 5.5, -0.2,0,0,1253,1024,1024,1024,35,0,0,0,118.2,-2.5,0,86,4.121,4.102,0,0,0,0,4.432,93.02,32.480316,6.233596,6,P-GPS,"Error de calibración del estabilizador"
5400,2023-01-03 04:59:46,-34.9569360781629,-54.939159748735,6.233596,6.1351708,26.3451452,32.480316,10.498688,0.7158208,10.2030515076,19.944062318,9,4,8.254,32.480316,6.233596,1.2079476,11.0798559976,-0.223694,0.671082,0,111.9, 2.9, -0.3,0,0,1524,1024,1024,1024,76,0,0,0,118.2,-2.5,0,86,4.121,4.102,0,0,0,0,4.432,93.02,32.480316,6.233596,6,P-GPS,
5500,2023-01-03 04:59:46,-34.9569363201367,-54.9391593697071,6.233596,6.1679792,26.3123368,32.480316,10.498688,0.4921268,10.3351709344,20.0877303016,9,4,8.254,32.480316,6.233596,1.2079476,11.0798559976,-0.223694,0.447388,0,112, -1.9, -0.1,0,0,1587,1024,1024,1024,85,0,0,0,118.2,-2.5,0,86,4.121,4.102,0,0,0,0,4.432,93.02,32.480316,6.233596,6,P-GPS,
5600,2023-01-03 04:59:46,-34.9569365603257,-54.9391589776706,6.233596,6.1351708,26.3451452,32.480316,10.498688,0.7158208,10.4689307812,20.234088574,10,4,8.254,32.480316,6.233596,1.2079476,11.0798559976,-0.223694,0.671082,0,112.1, -8, 0,0,0,1568,1024,1024,1024,82,0,0,0,118.2,-2.5,0,86,4.121,4.102,0,0,0,0,4.432,93.02,32.480316,6.233596,6,P-GPS,
5700,2023-01-03 04:59:46,-34.9569369377534,-54.9391587415892,6.233596,6.1351708,26.3451452,32.480316,10.498688,1.2079476,10.6235567704,20.3888457968,10,4,8.254,32.480316,6.233596,1.2079476,11.0798559976,-0.447388,1.11847,0,112, -12.6, 0.1,0,0,1425,1024,1024,1024,61,0,0,0,118.2,-2.5,0,86,4.121,4.102,0,0,0,0,4.432,93.02,32.480316,6.233596,6,P-GPS,
5800,2023-01-03 04:59:46,-34.9569378492521,-54.9391589662979,6.233596,6.1351708,26.3451452,32.480316,10.498688,1.6329662,10.8825790884,20.7281174612,10,4,8.254,32.480316,6.233596,1.6329662,11.0798559976,-0.447388,1.565858,0,111.9, -14.1, 0,0,0,1425,1024,1024,1024,61,0,0,0,118.2,-2.5,0,86,4.121,4.102,0,0,0,0,4.432,93.02,32.480316,6.233596,6,P-GPS,
5900,2023-01-03 04:59:46,-34.9569384207708,-54.9391584563677,6.233596,6.1351708,26.3451452,32.480316,10.498688,2.125093,11.1384846084,20.9864508028,10,4,8.254,32.480316,6.233596,2.125093,11.1384846084,-0.671082,2.013246,0,112, -12.4, 0,0,0,1087,1024,1024,1024,10,0,0,0,118.2,-2.5,0,86,4.121,4.102,0,0,0,0,4.432,93.02,32.480316,6.233596,6,P-GPS,
6000,2023-01-03 04:59:46,-34.9569390325642,-54.9391577895561,6.233596,6.1351708,26.3451452,32.480316,10.498688,2.6172198,11.4298888172,21.2857290276,8,4,8.31,32.480316,6.233596,2.6172198,11.4298888172,-0.894776,2.460634,0,112, -5.1, 0,0,0,1024,1024,1024,1024,0,0,0,0,118.2,-2.5,0,86,4.146,4.141,0,0,0,0,4.461,93.2,32.480316,6.233596,6,P-GPS,
6100,2023-01-03 04:59:46,-34.9569396914848,-54.9391567321204,6.233596,6.1351708,26.3451452,32.480316,10.498688,2.6172198,11.7938980152,21.6829403264,8,4,8.31,32.480316,6.233596,2.6172198,11.7938980152,-0.894776,2.460634,0,112.1, 3.4, 0.5,0,0,1024,1024,1024,1024,0,0,0,0,118.2,-2.5,0,86,4.146,4.141,0,0,0,0,4.461,93.2,32.480316,6.233596,6,P-GPS,
6200,2023-01-03 04:59:47,-34.9569406909585,-54.9391564263643,6.233596,6.1351708,26.3451452,32.480316,10.498688,2.4158952,12.1566276856,22.058891782,8,4,8.31,32.480316,6.233596,2.6172198,12.1566276856,-0.894776,2.23694,0,112.1, 11.1, 0.6,0,0,1024,1024,1024,1024,0,0,0,0,118.2,-2.5,0,86,4.146,4.141,0,0,0,0,4.461,93.2,32.480316,6.233596,6,P-GPS,
6300,2023-01-03 04:59:47,-34.9569412151351,-54.9391553254527,6.233596,6.1351708,26.3451452,32.480316,10.826772,1.901399,12.4852694284,22.4396004556,8,4,8.31,32.480316,6.233596,2.6172198,12.4852694284,-0.671082,1.789552,0,112, 11.8, 0.3,0,0,1024,1024,1024,1024,0,0,0,0,118.2,-2.5,0,86,4.146,4.141,0,0,0,0,4.461,93.2,32.480316,6.233596,6,P-GPS,
6400,2023-01-03 04:59:47,-34.9569416592639,-54.9391544698797,6.233596,6.1351708,26.3451452,32.480316,10.826772,1.4987498,12.7541998832,22.742454796,8,4,8.31,32.480316,6.233596,2.6172198,12.7541998832,-0.671082,1.342164,0,111.9, 10.4, -0.1,0,0,1024,1024,1024,1024,0,0,0,0,118.2,-2.5,0,86,4.146,4.141,0,0,0,0,4.461,93.2,32.480316,6.233596,6,P-GPS,
6500,2023-01-03 04:59:47,-34.9569420298391,-54.9391536387977,6.233596,6.1351708,26.3451452,32.480316,10.826772,1.006623,12.9979006784,23.0253616292,8,4,8.31,32.480316,6.233596,2.6172198,12.9979006784,-0.447388,0.894776,0,112, 8.7, -0.5,0,0,1024,1024,1024,1024,0,0,0,0,118.2,-2.5,0,86,4.146,4.141,0,0,0,0,4.461,93.2,32.480316,6.233596,6,P-GPS,
6600,2023-01-03 04:59:47,-34.9569422037309,-54.9391521542876,6.233596,6.1679792,26.3123368,32.480316,10.826772,0.8052984,13.2868770656,23.4737868404,8,4,8.31,32.480316,6.233596,2.6172198,13.2868770656,-0.447388,0.671082,0,112, 7, -0.7,0,0,1024,1024,1024,1024,0,0,0,0,118.2,-2.5,0,86,4.146,4.141,0,0,0,0,4.461,93.2,32.480316,6.233596,6,P-GPS,
6700,2023-01-03 04:59:47,-34.9569421656253,-54.9391517780009,6.233596,6.1679792,26.3123368,32.480316,10.826772,0.4921268,13.336450558,23.5871398624,8,4,8.31,32.480316,6.233596,2.6172198,13.336450558,-0.223694,0.447388,0,112.1, 5.5, -1,0,0,1024,1024,1024,1024,0,0,0,0,118.2,-2.5,0,86,4.146,4.141,0,0,0,0,4.461,93.2,32.480316,6.233596,6,P-GPS,
6800,2023-01-03 04:59:47,-34.9569420781323,-54.9391515039692,6.233596,6.1679792,26.3123368,32.480316,10.826772,0.3131716,13.354823262,23.6750991828,8,4,8.31,32.480316,6.233596,2.6172198,13.354823262,-0.223694,0.223694,0,112, 4.3, -0.9,0,0,1024,1024,1024,1024,0,0,0,0,118.2,-2.5,0,86,4.146,4.141,0,0,0,0,4.461,93.2,32.480316,6.233596,6,P-GPS,"Punto de origen actualizado. Altitud de RPO establecida en 100m (Code: 3000001)"
6900,2023-01-03 04:59:47,-34.956942342546,-54.9391513284294,6.233596,6.1679792,26.3123368,32.480316,10.826772,0.223694,13.464239276,23.7849088976,8,4,8.265,32.480316,6.233596,2.6172198,13.464239276,0,0.223694,0,112, 3.3, -0.7,0,0,1024,1024,1024,1684,0,0,0,100,118.3,-2.5,0,86,4.139,4.126,0,0,0,0,4.25,93.2,32.480316,6.233596,6,P-GPS,
7000,2023-01-03 04:59:47,-34.9569425704956,-54.9391512091599,6.233596,6.1679792,26.3123368,32.480316,10.826772,0.223694,13.5532812736,23.8753944648,10,4,8.265,32.480316,6.233596,2.6172198,13.5532812736,0,0.223694,0,112.5, 2.7, -0.7,0,0,1024,1024,1024,1684,0,0,0,100,119.8,-2.6,0,86,4.139,4.126,0,0,0,0,4.25,93.2,32.480316,6.233596,6,P-GPS,
7100,2023-01-03 04:59:48,-34.9569426067773,-54.9391520285294,6.56168,6.4960632,26.3123368,32.8084,10.826772,0,13.4310043668,24.1207684884,10,4,8.265,32.8084,6.56168,2.6172198,13.5532812736,0,0,0,114.6, 2.5, -0.8,0,0,1024,1024,1024,1115,0,0,0,14,122.7,-2.6,0,86,4.139,4.126,0,0,0,0,4.25,93.2,32.8084,6.56168,6,P-GPS,
7200,2023-01-03 04:59:48,-34.9569427490251,-54.9391522962529,6.56168,6.4960632,26.3123368,32.8084,10.826772,0,13.4320542356,24.2161753156,9,4,8.265,32.8084,6.56168,2.6172198,13.5532812736,0,0,0,117.6, 2.1, 0,0,0,1024,1024,1024,1024,0,0,0,0,125.5,-2.5,0,86,4.139,4.126,0,0,0,0,4.25,93.2,32.8084,6.56168,6,P-GPS,
7300,2023-01-03 04:59:48,-34.9569426910004,-54.9391522629998,6.56168,6.4960632,26.3123368,32.8084,11.154856,0,13.4194230016,24.2395677048,9,4,8.265,32.8084,6.56168,2.6172198,13.5532812736,0,0,0,119.7, 2.1, 0.9,0,0,1024,1024,1024,1024,0,0,0,0,127,-2.5,0,86,4.139,4.126,0,0,0,0,4.25,93.2,32.8084,6.56168,6,P-GPS,
7400,2023-01-03 04:59:48,-34.9569426250289,-54.9391522486585,6.56168,6.4960632,26.3123368,32.8084,11.154856,0,13.4013455732,24.2640099628,8,4,8.265,32.8084,6.56168,2.6172198,13.5532812736,0,0,0,120.8, 1.7, 1.1,0,0,1024,1024,1024,1539,0,0,0,78,127.5,-2.5,0,86,4.139,4.126,0,0,0,0,4.25,93.2,32.8084,6.56168,6,P-GPS,
7500,2023-01-03 04:59:48,-34.9569424113184,-54.9391519295515,6.56168,6.4960632,26.3123368,32.8084,11.154856,0,13.3869426856,24.3872383132,8,4,8.265,32.8084,6.56168,2.6172198,13.5532812736,0,0,0,121.1, 1.1, 0.7,0,0,1024,1024,1024,1684,0,0,0,100,127.6,-2.5,0,86,4.139,4.126,0,0,0,0,4.25,93.2,32.8084,6.56168,6,P-GPS,
7600,2023-01-03 04:59:48,-34.9569424147512,-54.9391519078592,6.56168,6.4960632,26.3123368,32.8084,11.154856,0,13.3915030532,24.39386561,9,4,8.265,32.8084,6.56168,2.6172198,13.5532812736,0,0,0,121.5, 1.1, 0.3,0,0,1024,1024,1024,1684,0,0,0,100,128.9,-2.6,0,86,4.139,4.126,0,0,0,0,4.25,93.2,32.8084,6.56168,6,P-GPS,
7700,2023-01-03 04:59:48,-34.9569424006489,-54.9391518118838,6.56168,6.4960632,26.3123368,32.8084,11.154856,0,13.4027891428,24.4229994692,9,4,8.265,32.8084,6.56168,2.6172198,13.5532812736,0,0,0,123.5, 0.8, 0.1,0,0,1024,1024,1024,1684,0,0,0,100,131.7,-2.6,0,86,4.139,4.126,0,0,0,0,4.25,93.2,32.8084,6.56168,6,P-GPS,
7800,2023-01-03 04:59:48,-34.9569423772384,-54.9391517172098,6.56168,6.4960632,26.3123368,32.8084,11.154856,0,13.4110240512,24.452592646,9,4,8.265,32.8084,6.56168,2.6172198,13.5532812736,0,0,0,126.6, 0.4, 0.4,0,0,1024,1024,1024,1684,0,0,0,100,134.9,-2.6,0,86,4.139,4.126,0,0,0,0,4.25,93.2,32.8084,6.56168,6,P-GPS,
7900,2023-01-03 04:59:48,-34.9569422785221,-54.9391507344701,6.56168,6.4960632,26.3123368,32.8084,11.154856,0,13.5437668376,24.7486556476,9,4,8.265,32.8084,6.56168,2.6172198,13.5532812736,0,0,0,129.7, 0.1, 0.6,0,0,1024,1024,1024,1684,0,0,0,100,138.1,-2.6,0,86,4.139,4.126,0,0,0,0,4.25,93.2,32.8084,6.56168,6,P-GPS,
8000,2023-01-03 04:59:48,-34.9569422519328,-54.939150433329,6.56168,6.5288716,26.2795284,32.8084,11.154856,0,13.5865489912,24.8392068316,10,4,8.265,32.8084,6.56168,2.6172198,13.5865489912,0,0,0,132.8, 0.3, 0,0,0,1024,1024,1024,1684,0,0,0,100,141.3,-2.6,0,86,4.139,4.126,0,0,0,0,4.25,93.2,32.8084,6.56168,6,P-GPS,
8100,2023-01-03 04:59:49,-34.9569423408719,-54.9391501388776,6.56168,6.5288716,26.2795284,32.8084,11.154856,0,13.6633206472,24.9330388556,10,4,8.265,32.8084,6.56168,2.6172198,13.6633206472,0,0,0,136, 0.3, -0.5,0,0,1024,1024,1024,1294,0,0,0,41,144.5,-2.6,0,86,4.139,4.126,0,0,0,0,4.25,93.2,32.8084,6.56168,6,P-GPS,
8200,2023-01-03 04:59:49,-34.9569424246977,-54.9391498320188,6.56168,6.5288716,26.2795284,32.8084,11.154856,0,13.7408468964,25.0297580188,10,4,8.265,32.8084,6.56168,2.6172198,13.7408468964,0,0,0,139.1, 0.5, -0.6,0,0,1024,1024,1024,1024,0,0,0,0,147.3,-2.6,0,86,4.139,4.126,0,0,0,0,4.25,93.2,32.8084,6.56168,6,P-GPS,
8300,2023-01-03 04:59:49,-34.9569421988065,-54.9391487610022,6.56168,6.5288716,26.2795284,32.8084,11.154856,0,13.8604335144,25.3604666908,10,4,8.265,32.8084,6.56168,2.6172198,13.8604335144,0,0,0,141.3, 0.7, -0.3,0,0,1024,1024,1024,1024,0,0,0,0,148.8,-2.5,0,86,4.139,4.126,0,0,0,0,4.25,93.2,32.8084,6.56168,6,P-GPS,
8400,2023-01-03 04:59:49,-34.9569420363334,-54.9391482995902,6.56168,6.5288716,26.2795284,32.8084,11.154856,0,13.8950463764,25.5106307376,10,4,8.265,32.8084,6.56168,2.6172198,13.8950463764,0,0,0,142.5, 0.6, -0.1,0,0,1024,1024,1024,1060,0,0,0,5,149.5,-2.5,0,86,4.139,4.126,0,0,0,0,4.25,93.2,32.8084,6.56168,6,P-GPS,
8500,2023-01-03 04:59:49,-34.9569419883138,-54.939147970182,6.56168,6.5288716,26.2795284,32.8084,11.154856,0,13.9404203936,25.6106963576,10,4,8.265,32.8084,6.56168,2.6172198,13.9404203936,0,0,0,142.9, 0.1, -0.2,0,0,1024,1024,1024,1684,0,0,0,100,149.5,-2.5,0,86,4.139,4.126,0,0,0,0,4.25,93.2,32.8084,6.56168,6,P-GPS,
8600,2023-01-03 04:59:49,-34.9569419414146,-54.9391476381579,6.56168,6.5288716,26.2795284,32.8084,11.154856,0,13.9871723636,25.7114181456,10,4,8.26,32.8084,6.56168,2.6172198,13.9871723636,0,0,0,143.1, 0, -0.1,0,0,1024,1024,1024,1684,0,0,0,100,149.9,-2.6,0,86,4.134,4.121,0,0,0,0,4.155,93.2,32.8084,6.56168,6,P-GPS,
8700,2023-01-03 04:59:49,-34.9569419930363,-54.9391472945886,6.56168,6.56168,26.24672,32.8084,11.154856,0,14.06496108,25.8158800912,10,4,8.26,32.8084,6.56168,2.6172198,14.06496108,0,0,0,144.2, -0.1, -0.3,0,0,1024,1024,1024,1684,0,0,0,100,152.2,-2.6,0,86,4.134,4.121,0,0,0,0,4.155,93.2,32.8084,6.56168,6,P-GPS,
8800,2023-01-03 04:59:49,-34.9569422664065,-54.9391468852605,6.56168,6.56168,26.24672,32.8084,11.154856,0,14.2188980928,25.973754112,9,4,8.26,32.8084,6.56168,2.6172198,14.2188980928,0,0,0,147, 0, -0.6,0,0,1024,1024,1024,1266,0,0,0,37,155.3,-2.6,0,86,4.134,4.121,0,0,0,0,4.155,93.2,32.8084,6.56168,6,P-GPS,
8900,2023-01-03 04:59:49,-34.956942307821,-54.9391466182531,6.56168,6.56168,26.24672,32.8084,11.154856,0,14.2800857588,26.0550205188,9,4,8.26,32.8084,6.56168,2.6172198,14.2800857588,0,0,0,149.9, 0.2, -0.3,0,0,1024,1024,1024,1024,0,0,0,0,157.8,-2.5,0,86,4.134,4.121,0,0,0,0,4.155,93.2,32.8084,6.56168,6,P-GPS,
9000,2023-01-03 04:59:49,-34.956942352004,-54.9391463415063,6.56168,6.56168,26.24672,32.8084,11.154856,0,14.3440621388,26.1393381068,9,4,8.26,32.8084,6.56168,2.6172198,14.3440621388,0,0,0,151.8, 0.1, -0.1,0,0,1024,1024,1024,1108,0,0,0,13,158.9,-2.5,0,86,4.134,4.121,0,0,0,0,4.155,93.2,32.8084,6.56168,6,P-GPS,
9100,2023-01-03 04:59:50,-34.9569424578528,-54.9391461194775,6.56168,6.56168,26.24672,32.8084,11.154856,0,14.4156500676,26.2161425712,9,4,8.26,32.8084,6.56168,2.6172198,14.4156500676,0,0,0,152.6, 0.3, 0,0,0,1024,1024,1024,1684,0,0,0,100,159.4,-2.5,0,86,4.134,4.121,0,0,0,0,4.155,93.2,32.8084,6.56168,6,P-GPS,
9200,2023-01-03 04:59:50,-34.9569428690219,-54.9391462940582,6.56168,6.56168,26.24672,32.8084,11.154856,0,14.500984716,26.3749680356,11,4,8.26,32.8084,6.56168,2.6172198,14.500984716,0,0,0,153.3, 0.4, 0.4,0,0,1024,1024,1024,1671,0,0,0,98,160.5,-2.5,0,86,4.134,4.121,0,0,0,0,4.155,93.2,32.8084,6.56168,6,P-GPS,
9300,2023-01-03 04:59:50,-34.9569429475455,-54.9391459569018,6.56168,6.56168,26.24672,32.8084,11.154856,0,14.58579443,26.4797908736,11,4,8.26,32.8084,6.56168,2.6172198,14.58579443,0,0,0,155.2, 0.5, 0.7,0,0,1024,1024,1024,1038,0,0,0,2,163.2,-2.5,0,86,4.134,4.121,0,0,0,0,4.155,93.2,32.8084,6.56168,6,P-GPS,
9400,2023-01-03 04:59:50,-34.9569430231314,-54.9391456361877,6.56168,6.56168,26.24672,32.8084,11.154856,0,14.66699522,26.579561218,12,4,8.26,32.8084,6.56168,2.6172198,14.66699522,0,0,0,158.1, 0.2, 1.1,0,0,1024,1024,1024,1024,0,0,0,0,166,-2.5,0,86,4.134,4.121,0,0,0,0,4.155,93.2,32.8084,6.56168,6,P-GPS,
9500,2023-01-03 04:59:50,-34.9569432974655,-54.9391453882201,6.56168,6.56168,26.24672,32.8084,11.154856,0,14.7914702896,26.7041347128,12,4,8.26,32.8084,6.56168,2.6172198,14.7914702896,0,0,0,160.3, 0.2, 1.1,0,0,1024,1024,1024,1024,0,0,0,0,167.4,-2.5,0,86,4.134,4.121,0,0,0,0,4.155,93.2,32.8084,6.56168,6,P-GPS,
9600,2023-01-03 04:59:50,-34.9569439812817,-54.9391452939773,6.56168,6.56168,26.24672,32.8084,11.154856,0,15.0048561232,26.955217398,12,4,8.252,32.8084,6.56168,2.6172198,15.0048561232,0,0,0,161.2, 0.2, 0.9,0,0,1024,1024,1024,1024,0,0,0,0,168,-2.5,0,86,4.135,4.121,0,0,0,0,4.256,93.2,32.8084,6.56168,6,P-GPS,
9700,2023-01-03 04:59:50,-34.9569442177644,-54.9391450560706,6.56168,6.56168,26.24672,32.8084,11.154856,0,15.1166671504,27.0670612336,12,4,8.252,32.8084,6.56168,2.6172198,15.1166671504,0,0,0,161.6, 0.6, 0.8,0,0,1024,1024,1024,1024,0,0,0,0,168.1,-2.5,0,86,4.135,4.121,0,0,0,0,4.256,93.2,32.8084,6.56168,6,P-GPS,
9800,2023-01-03 04:59:50,-34.9569444697368,-54.9391448164862,6.56168,6.56168,26.24672,32.8084,11.154856,0,15.2332025872,27.1835966704,13,4,8.252,32.8084,6.56168,2.6172198,15.2332025872,0,0,0,161.7, 0.7, 0.4,0,0,1024,1024,1024,1024,0,0,0,0,168.1,-2.5,0,86,4.135,4.121,0,0,0,0,4.256,93.2,32.8084,6.56168,6,P-GPS,
9900,2023-01-03 04:59:50,-34.9569447212532,-54.9391445236289,6.56168,6.56168,26.24672,32.8084,11.154856,0,15.3594493104,27.3104339448,13,4,8.252,32.8084,6.56168,2.6172198,15.3594493104,0,0,0,161.7, 0.7, 0.3,0,0,1024,1024,1024,1024,0,0,0,0,168.1,-2.5,0,86,4.135,4.121,0,0,0,0,4.256,93.2,32.8084,6.56168,6,P-GPS,
10000,2023-01-03 04:59:50,-34.9569452094672,-54.9391441421498,6.56168,6.56168,26.24672,32.8084,11.154856,0,15.5700136216,27.5219496996,13,4,8.252,32.8084,6.56168,2.6172198,15.5700136216,0,0,0,161.8, 0.8, 0,0,0,1024,1024,1024,1024,0,0,0,0,168.1,-2.5,0,86,4.135,4.121,0,0,0,0,4.256,93.2,32.8084,6.56168,6,P-GPS,
10100,2023-01-03 04:59:50,-34.9569454991218,-54.9391437899465,6.56168,6.56168,26.24672,32.8084,11.154856,0,15.7181435476,27.6711623028,13,4,8.252,32.8084,6.56168,2.6172198,15.7181435476,0,0,0,161.8, 1, -0.4,0,0,1024,1024,1024,1024,0,0,0,0,168.1,-2.5,0,86,4.135,4.121,0,0,0,0,4.256,93.2,32.8084,6.56168,6,P-GPS,
10200,2023-01-03 04:59:51,-34.9569457796311,-54.9391434319027,6.56168,6.5944884,26.2139116,32.8084,11.154856,0,15.8647314788,27.8192594204,12,4,8.252,32.8084,6.56168,2.6172198,15.8647314788,0,0,0,161.9, 0.8, -0.5,0,0,1024,1024,1024,1024,0,0,0,0,168.1,-2.5,0,86,4.135,4.121,0,0,0,0,4.256,93.2,32.8084,6.56168,6,P-GPS,
10300,2023-01-03 04:59:51,-34.9569459692015,-54.9391430711699,6.56168,6.5944884,26.2139116,32.8084,11.154856,0,15.9857944748,27.9474090308,12,4,8.252,32.8084,6.56168,2.6172198,15.9857944748,0,0,0,161.8, 0.5, -0.3,0,0,1024,1024,1024,1024,0,0,0,0,168.1,-2.5,0,86,4.135,4.121,0,0,0,0,4.256,93.2,32.8084,6.56168,6,P-GPS,
10400,2023-01-03 04:59:51,-34.9569461517436,-54.9391426963309,6.56168,6.5944884,26.2139116,32.8084,11.154856,0,16.1075792556,28.0777896124,10,4,8.252,32.8084,6.56168,2.6172198,16.1075792556,0,0,0,161.8, 0.2, 0,0,0,1024,1024,1024,1024,0,0,0,0,168.1,-2.5,0,86,4.135,4.121,0,0,0,0,4.256,93.2,32.8084,6.56168,6,P-GPS,
10500,2023-01-03 04:59:51,-34.9569464969867,-54.9391423009469,6.56168,6.5944884,26.2139116,32.8084,11.154856,0,16.2797577388,28.2505586468,10,4,8.252,32.8084,6.56168,2.6172198,16.2797577388,0,0,0,161.9, 0.4, 0.3,0,0,1024,1024,1024,1024,0,0,0,0,168.1,-2.5,0,86,4.135,4.121,0,0,0,0,4.256,93.2,32.8084,6.56168,6,P-GPS,
10600,2023-01-03 04:59:51,-34.9569467052386,-54.9391420468305,6.56168,6.5944884,26.2139116,32.8084,11.154856,0,16.3865162724,28.3580061568,10,4,8.25,32.8084,6.56168,2.6172198,16.3865162724,0,0,0,161.9, 0.3, 0.6,0,0,1024,1024,1024,1024,0,0,0,0,168.1,-2.5,0,86,4.13,4.115,0,0,0,0,4.172,93.2,32.8084,6.56168,6,P-GPS,
10700,2023-01-03 04:59:51,-34.9569468889988,-54.9391418437605,6.56168,6.5944884,26.2139116,32.8084,11.154856,0,16.4767721808,28.4484589156,10,4,8.25,32.8084,6.56168,2.6172198,16.4767721808,0,0,0,161.9, 0.3, 0.8,0,0,1024,1024,1024,1024,0,0,0,0,168.1,-2.5,0,86,4.13,4.115,0,0,0,0,4.172,93.2,32.8084,6.56168,6,P-GPS,
10800,2023-01-03 04:59:51,-34.9569470644538,-54.939141663611,6.56168,6.5944884,26.2139116,32.8084,11.154856,0,16.5604336008,28.5321203356,10,4,8.25,32.8084,6.56168,2.6172198,16.5604336008,0,0,0,161.9, 0.4, 0.9,0,0,1024,1024,1024,1024,0,0,0,0,168.1,-2.5,0,86,4.13,4.115,0,0,0,0,4.172,93.2,32.8084,6.56168,6,P-GPS,
10900,2023-01-03 04:59:51,-34.9569470917661,-54.939141844338,6.56168,6.5944884,26.2139116,32.8084,11.154856,0,16.53461339,28.5870744056,10,4,8.25,32.8084,6.56168,2.6172198,16.5604336008,0,0,0,161.9, 0.5, 0.6,0,0,1024,1024,1024,1024,0,0,0,0,168.1,-2.5,0,86,4.13,4.115,0,0,0,0,4.172,93.2,32.8084,6.56168,6,P-GPS,
11000,2023-01-03 04:59:51,-34.9569472246992,-54.9391417131104,6.56168,6.5944884,26.2139116,32.8084,11.154856,0,16.5969821584,28.6494759824,10,4,8.25,32.8084,6.56168,2.6172198,16.5969821584,0,0,0,161.8, 0.3, 0.3,0,0,1024,1024,1024,1024,0,0,0,0,168.1,-2.5,0,86,4.13,4.115,0,0,0,0,4.172,93.2,32.8084,6.56168,6,P-GPS,
11100,2023-01-03 04:59:51,-34.9569473627913,-54.9391415852852,6.56168,6.5944884,26.2139116,32.8084,11.154856,0,16.6602039452,28.7126977692,10,4,8.25,32.8084,6.56168,2.6172198,16.6602039452,0,0,0,161.8, 0.4, 0.3,0,0,1024,1024,1024,1024,0,0,0,0,168.1,-2.5,0,86,4.13,4.115,0,0,0,0,4.172,93.2,32.8084,6.56168,6,P-GPS,
11200,2023-01-03 04:59:52,-34.9569474975157,-54.9391414746733,6.56168,6.5944884,26.2139116,32.8084,11.154856,0,16.7192918736,28.7719497396,10,4,8.25,32.8084,6.56168,2.6172198,16.7192918736,0,0,0,161.8, 0.7, 0,0,0,1024,1024,1024,1024,0,0,0,0,168.1,-2.5,0,86,4.13,4.115,0,0,0,0,4.172,93.2,32.8084,6.56168,6,P-GPS,
11300,2023-01-03 04:59:52,-34.9569478039889,-54.9391417223455,6.56168,6.5944884,26.2139116,32.8084,11.154856,0,16.7614506676,28.9060704788,10,4,8.25,32.8084,6.56168,2.6172198,16.7614506676,0,0,0,161.8, 0.9, -0.1,0,0,1024,1024,1024,1417,0,0,0,60,168.1,-2.5,0,86,4.13,4.115,0,0,0,0,4.172,93.2,32.8084,6.56168,6,P-GPS,
11400,2023-01-03 04:59:52,-34.956948035,-54.9391416769671,6.56168,6.5944884,26.2139116,32.8084,11.154856,0,16.8363194364,28.9914379356,8,4,8.25,32.8084,6.56168,2.6172198,16.8363194364,0,0,0,161.8, 0.9, -0.2,0,0,1024,1024,1341,1669,0,0,48,98,168.1,-2.5,0,86,4.13,4.115,0,0,0,0,4.172,93.2,32.8084,6.56168,6,P-GPS,
11500,2023-01-03 04:59:52,-34.9569482506971,-54.9391416310791,6.56168,6.5944884,26.2139116,32.8084,11.154856,0,16.9069559216,29.0713263896,8,4,8.25,32.8084,6.56168,2.6172198,16.9069559216,0,0,0,162.1, 0.8, -0.4,0,0,1024,1024,1024,1024,0,0,0,0,169.2,-2.5,0,86,4.13,4.115,0,0,0,0,4.172,93.2,32.8084,6.56168,6,P-GPS,
11600,2023-01-03 04:59:52,-34.9569484491458,-54.9391415815823,6.56168,6.5944884,26.2139116,32.8084,11.154856,0,16.9733601232,29.1452109064,7,3,8.245,32.8084,6.56168,2.6172198,16.9733601232,0,0,-0.223694,164.1, 0.5, -0.6,0,0,1024,1024,1024,1024,0,0,0,0,171.7,-2.6,0,86,4.13,4.117,0,0,0,0,4.204,93.38,32.8084,6.56168,6,P-GPS,
11700,2023-01-03 04:59:52,-34.9569489510648,-54.9391415143444,6.56168,6.5944884,26.2139116,32.8084,11.154856,0,17.1310372936,29.3294628808,7,3,8.245,32.8084,6.56168,2.6172198,17.1310372936,0,0,0,166.1, 1.1, 0,0,0,1024,1024,1024,1024,0,0,0,0,173.1,-2.5,0,86,4.13,4.117,0,0,0,0,4.204,93.38,32.8084,6.56168,6,P-GPS,
11800,2023-01-03 04:59:52,-34.9569492228521,-54.9391413587748,6.56168,6.5944884,26.2139116,32.8084,11.154856,0,17.2381567196,29.43897732,7,3,8.245,32.8084,6.56168,2.6172198,17.2381567196,0,0,0,167, 1, 0,0,0,1024,1024,1024,1024,0,0,0,0,173.6,-2.5,0,86,4.13,4.117,0,0,0,0,4.204,93.38,32.8084,6.56168,6,P-GPS,
11900,2023-01-03 04:59:52,-34.9569493691385,-54.9391412051572,6.56168,6.5944884,26.2139116,32.8084,11.154856,0,17.3084323124,29.5093841464,7,3,8.245,32.8084,6.56168,2.6172198,17.3084323124,0,0,0,167.2, 0.7, 0,0,0,1024,1024,1024,1024,0,0,0,0,173.6,-2.6,0,86,4.13,4.117,0,0,0,0,4.204,93.38,32.8084,6.56168,6,P-GPS,
12000,2023-01-03 04:59:52,-34.956949502925,-54.9391410630037,6.56168,6.5944884,26.2139116,32.8084,11.154856,0,17.3729992436,29.5741151196,7,3,8.245,32.8084,6.56168,2.6172198,17.3729992436,0,0,0,167.2, 0.7, 0.1,0,0,1024,1024,1024,1024,0,0,0,0,173.6,-2.5,0,86,4.13,4.117,0,0,0,0,4.204,93.38,32.8084,6.56168,6,P-GPS,
12100,2023-01-03 04:59:53,-34.9569497045394,-54.939141018195,6.56168,6.5944884,26.2139116,32.8084,11.154856,0,17.4397315292,29.6488854632,7,3,8.245,32.8084,6.56168,2.6172198,17.4397315292,0,0,0,167.3, 0.6, 0.2,0,0,1024,1024,1024,1024,0,0,0,0,173.6,-2.5,0,86,4.13,4.117,0,0,0,0,4.204,93.38,32.8084,6.56168,6,P-GPS,
12200,2023-01-03 04:59:53,-34.9569498640943,-54.9391411407755,6.56168,6.5944884,26.2139116,32.8084,11.154856,0,17.4642065956,29.717684678,7,3,8.245,32.8084,6.56168,2.6172198,17.4642065956,0,0,0,167.3, 0.7, 0,0,0,1024,1024,1024,1024,0,0,0,0,173.6,-2.5,0,86,4.13,4.117,0,0,0,0,4.204,93.38,32.8084,6.56168,6,P-GPS,
12300,2023-01-03 04:59:53,-34.9569499858238,-54.9391410515866,6.56168,6.5944884,26.2139116,32.8084,11.154856,0,17.515748592,29.7694891416,7,3,8.245,32.8084,6.56168,2.6172198,17.515748592,0,0,0,167.3, 0.6, 0,0,0,1024,1024,1024,1024,0,0,0,0,173.6,-2.5,0,86,4.13,4.117,0,0,0,0,4.204,93.38,32.8084,6.56168,6,P-GPS,
12400,2023-01-03 04:59:53,-34.9569500948774,-54.9391409639186,6.56168,6.5944884,26.2139116,32.8084,11.154856,0,17.5632879636,29.8171269384,8,3,8.245,32.8084,6.56168,2.6172198,17.5632879636,0,0,0,167.4, 0.6, 0,0,0,1024,1024,1024,1024,0,0,0,0,173.6,-2.5,0,86,4.13,4.117,0,0,0,0,4.204,93.38,32.8084,6.56168,6,P-GPS,
12500,2023-01-03 04:59:53,-34.9569503047122,-54.9391409571373,6.56168,6.5944884,26.2139116,32.8084,11.154856,0,17.6258535824,29.8937345524,8,3,8.245,32.8084,6.56168,2.6172198,17.6258535824,0,0,0,167.4, 0.3, 0,0,0,1024,1024,1024,1024,0,0,0,0,173.6,-2.5,0,86,4.13,4.117,0,0,0,0,4.204,93.38,32.8084,6.56168,6,P-GPS,
12600,2023-01-03 04:59:53,-34.9569505318866,-54.9391411613127,6.56168,6.5944884,26.2139116,32.8084,11.154856,0,17.6560701188,29.9966545032,8,3,8.23,32.8084,6.56168,2.6172198,17.6560701188,0,0,0,167.4, 0.4, -0.2,0,0,1024,1024,1024,1024,0,0,0,0,173.6,-2.5,0,86,4.127,4.113,0,0,0,0,4.215,93.38,32.8084,6.56168,6,P-GPS,
12700,2023-01-03 04:59:53,-34.9569506839703,-54.9391410196636,6.56168,6.5944884,26.2139116,32.8084,11.154856,0,17.725886394,30.0664707784,8,3,8.23,32.8084,6.56168,2.6172198,17.725886394,0,0,0,167.4, 0.3, -0.3,0,0,1024,1024,1024,1024,0,0,0,0,173.6,-2.6,0,86,4.127,4.113,0,0,0,0,4.215,93.38,32.8084,6.56168,6,P-GPS,
12800,2023-01-03 04:59:53,-34.9569508262311,-54.9391408758952,6.56168,6.5944884,26.2139116,32.8084,11.154856,0,17.7931764224,30.133859232,8,3,8.23,32.8084,6.56168,2.6172198,17.7931764224,0,0,0,167.4, 0.4, -0.4,0,0,1024,1024,1024,1024,0,0,0,0,173.6,-2.5,0,86,4.127,4.113,0,0,0,0,4.215,93.38,32.8084,6.56168,6,P-GPS,
12900,2023-01-03 04:59:53,-34.9569510082326,-54.9391408749048,6.56168,6.5944884,26.2139116,32.8084,11.154856,0,17.8468509648,30.2002634336,8,3,8.23,32.8084,6.56168,2.6172198,17.8468509648,0,0,0,167.4, 0.4, -0.4,0,0,1024,1024,1024,1024,0,0,0,0,173.6,-2.5,0,86,4.127,4.113,0,0,0,0,4.215,93.38,32.8084,6.56168,6,P-GPS,
13000,2023-01-03 04:59:53,-34.9569512058279,-54.9391409739481,6.56168,6.5944884,26.2139116,32.8084,11.154856,0,17.8875661892,30.278216192,9,3,8.23,32.8084,6.56168,2.6172198,17.8875661892,0,0,0,167.4, 0.4, -0.5,0,0,1024,1024,1024,1024,0,0,0,0,173.6,-2.5,0,86,4.127,4.113,0,0,0,0,4.215,93.38,32.8084,6.56168,6,P-GPS,
13100,2023-01-03 04:59:54,-34.9569513009421,-54.9391409096893,6.56168,6.5944884,26.2139116,32.8084,11.154856,0,17.9269362692,30.3178815476,9,3,8.23,32.8084,6.56168,2.6172198,17.9269362692,0,0,0,167.4, 0.4, -0.5,0,0,1024,1024,1024,1024,0,0,0,0,173.6,-2.5,0,86,4.127,4.113,0,0,0,0,4.215,93.38,32.8084,6.56168,6,P-GPS,
13200,2023-01-03 04:59:54,-34.9569513863247,-54.9391408371361,6.56168,6.5944884,26.2139116,32.8084,11.154856,0,17.964895588,30.3558408664,9,3,8.23,32.8084,6.56168,2.6172198,17.964895588,0,0,0,167.4, 0.5, -0.2,0,0,1024,1024,1024,1024,0,0,0,0,173.6,-2.5,0,86,4.127,4.113,0,0,0,0,4.215,93.38,32.8084,6.56168,6,P-GPS,
13300,2023-01-03 04:59:54,-34.9569517078968,-54.9391407329056,6.56168,6.5944884,26.2139116,32.8084,11.154856,0,18.0781501848,30.4772319464,9,3,8.23,32.8084,6.56168,2.6172198,18.0781501848,0,0,0,167.4, 0.5, 0,0,0,1024,1024,1024,1024,0,0,0,0,173.6,-2.6,0,86,4.127,4.113,0,0,0,0,4.215,93.38,32.8084,6.56168,6,P-GPS,
13400,2023-01-03 04:59:54,-34.956952207575,-54.9391407153344,6.56168,6.5944884,26.2139116,32.8084,11.154856,0,18.2292000584,30.659613842,8,3,8.23,32.8084,6.56168,2.6172198,18.2292000584,0,0,0,167.4, 0.4, 0.3,0,0,1024,1024,1024,1024,0,0,0,0,173.6,-2.5,0,86,4.127,4.113,0,0,0,0,4.215,93.38,32.8084,6.56168,6,P-GPS,
13500,2023-01-03 04:59:54,-34.9569524048838,-54.939140460238,6.56168,6.6272968,26.1811032,32.8084,11.154856,0,18.3321200092,30.7645022968,8,3,8.23,32.8084,6.56168,2.6172198,18.3321200092,0,0,0,167.4, 0.4, 0.2,0,0,1024,1024,1024,1024,0,0,0,0,173.6,-2.5,0,86,4.127,4.113,0,0,0,0,4.215,93.38,32.8084,6.56168,6,P-GPS,
13600,2023-01-03 04:59:54,-34.9569525943891,-54.9391402113297,6.56168,6.6272968,26.1811032,32.8084,11.154856,0,18.4316935032,30.8660771032,8,3,8.23,32.8084,6.56168,2.6172198,18.4316935032,0,0,0,167.4, 0.4, 0.2,0,0,1024,1024,1024,1100,0,0,0,12,173.6,-2.6,0,86,4.127,4.113,0,0,0,0,4.215,93.38,32.8084,6.56168,6,P-GPS,
13700,2023-01-03 04:59:54,-34.9569527914178,-54.9391400317341,6.56168,6.6272968,26.1811032,32.8084,11.154856,0,18.5214244772,30.9558080772,8,3,8.236,32.8084,6.56168,2.6172198,18.5214244772,0,0,0,167.4, 0.4, 0.3,0,0,1024,1024,1024,1100,0,0,0,12,173.6,-2.5,0,86,4.125,4.111,0,0,0,0,4.202,93.38,32.8084,6.56168,6,P-GPS,
13800,2023-01-03 04:59:54,-34.956952979946,-54.939139862223,6.56168,6.6272968,26.1811032,32.8084,11.154856,0,18.6068575508,31.0412739592,8,3,8.236,32.8084,6.56168,2.6172198,18.6068575508,0,0,0,167.4, 0.5, 0.4,0,0,1024,1024,1024,1100,0,0,0,12,173.7,-2.5,0,86,4.125,4.111,0,0,0,0,4.202,93.38,32.8084,6.56168,6,P-GPS,
13900,2023-01-03 04:59:54,-34.9569532139404,-54.9391396116945,6.56168,6.6272968,26.1811032,32.8084,11.154856,0,18.7199152972,31.15485664,8,3,8.236,32.8084,6.56168,2.6172198,18.7199152972,0,0,0,167.6, 0.7, 0,0,0,1024,1024,1024,1024,0,0,0,0,174,-2.5,0,86,4.125,4.111,0,0,0,0,4.202,93.38,32.8084,6.56168,6,P-GPS,
14000,2023-01-03 04:59:54,-34.9569534098813,-54.9391394965068,6.56168,6.6272968,26.1811032,32.8084,11.154856,0,18.798064906,31.2341873512,8,3,8.236,32.8084,6.56168,2.6172198,18.798064906,0,0,0,167.8, 0.7, 0.2,0,0,1024,1024,1024,1024,0,0,0,0,174.1,-2.5,0,86,4.125,4.111,0,0,0,0,4.202,93.38,32.8084,6.56168,6,P-GPS,
14100,2023-01-03 04:59:55,-34.9569534540382,-54.9391390956742,6.56168,6.6272968,26.1811032,32.8084,11.154856,0,18.8812998168,31.3551191136,8,3,8.236,32.8084,6.56168,2.6172198,18.8812998168,0,0,0,167.9, 0.5, 0,0,0,1024,1024,1024,1024,0,0,0,0,174.1,-2.5,0,86,4.125,4.111,0,0,0,0,4.202,93.38,32.8084,6.56168,6,P-GPS,
14200,2023-01-03 04:59:55,-34.9569534901896,-54.9391387045864,6.56168,6.6272968,26.1811032,32.8084,11.154856,0,18.9608601868,31.4728356528,7,3,8.236,32.8084,6.56168,2.6172198,18.9608601868,0,0,0,167.9, 0.5, 0,0,0,1024,1024,1684,1024,0,0,100,0,174.1,-2.5,0,86,4.125,4.111,0,0,0,0,4.202,93.38,32.8084,6.56168,6,P-GPS,
14300,2023-01-03 04:59:55,-34.956953685173,-54.9391387607077,6.56168,6.6272968,26.1811032,32.8084,11.154856,0,19.0083995584,31.5458999596,7,3,8.236,32.8084,6.56168,2.6172198,19.0083995584,0,0,0,167.8, 0.6, 0,0,0,1024,1024,1684,1024,0,0,100,0,174.2,-2.5,0,86,4.125,4.111,0,0,0,0,4.202,93.38,32.8084,6.56168,6,P-GPS,
14400,2023-01-03 04:59:55,-34.956953923955,-54.939138781893,6.56168,6.6272968,26.1811032,32.8084,11.48294,0,19.0751646524,31.6332687288,7,3,8.236,32.8084,6.56168,2.6172198,19.0751646524,0,0,-0.671082,167.9, 0.3, 0.1,0,0,1024,1024,1270,1024,0,0,37,0,174.2,-2.5,0,86,4.125,4.111,0,0,0,0,4.202,93.38,32.8084,6.56168,6,P-GPS,
14500,2023-01-03 04:59:55,-34.9569541508038,-54.9391386451358,6.889764,6.9553808,26.1811032,33.136484,11.48294,0,19.1662079624,31.7255915664,7,3,8.236,33.136484,6.889764,2.6172198,19.1662079624,0,0,-1.342164,167.9, 0.1, 0.2,0,0,1024,1024,1544,1024,0,0,79,0,174.2,-2.6,0,86,4.125,4.111,0,0,0,0,4.202,93.38,33.136484,6.889764,6,P-GPS,
14700,2023-01-03 04:59:55,-34.9569544445686,-54.9391383744438,7.217848,7.2834648,26.1811032,33.464568,11.811024,0,19.3004927436,31.8598763476,8,3,8.235,33.464568,7.217848,2.6172198,19.3004927436,0,0,-1.11847,168, 0.7, 0,0,0,1024,1024,1354,1024,0,0,50,0,174.2,-2.5,0,85,4.092,4.078,0,0,0,0,4.169,93.38,33.464568,7.217848,6,P-GPS,
14800,2023-01-03 04:59:55,-34.9569545481376,-54.9391382187827,7.545932,7.6115488,26.1811032,33.792652,12.139108,0,19.3583995696,31.9198501028,10,3,8.235,33.792652,7.545932,2.6172198,19.3583995696,0,0,-1.342164,168, 0.3, -0.1,0,0,1024,1024,1354,1024,0,0,50,0,174.2,-2.5,0,85,4.092,4.078,0,0,0,0,4.169,93.38,33.792652,7.545932,6,P-GPS,
14900,2023-01-03 04:59:55,-34.9569548139192,-54.9391381009687,7.545932,7.6115488,26.1811032,33.792652,12.467192,0,19.4576121712,32.0229997124,10,3,8.235,33.792652,7.545932,2.6172198,19.4576121712,0,0,-2.013246,168, -0.2, 0,0,0,1024,1024,1024,1024,0,0,0,0,174.2,-2.6,0,85,4.092,4.078,0,0,0,0,4.169,93.38,33.792652,7.545932,6,P-GPS,
15000,2023-01-03 04:59:55,-34.9569550744442,-54.9391379789683,7.874016,7.9396328,26.1811032,34.120736,12.795276,0,19.5560373712,32.124836986,8,3,8.235,34.120736,7.874016,2.6172198,19.5560373712,0,0,-1.565858,168.1, 0.3, 0.3,0,0,1024,1024,1024,1024,0,0,0,0,174.2,-2.6,0,85,4.092,4.078,0,0,0,0,4.169,93.38,34.120736,7.874016,6,P-GPS,
15100,2023-01-03 04:59:56,-34.9569559169099,-54.9391378827264,8.2021,8.2677168,26.1811032,34.44882,13.12336,0,19.8229665136,32.4335312216,8,3,8.235,34.44882,8.2021,2.6172198,19.8229665136,0,0,-1.11847,168, 0.5, 0.4,0,0,1024,1024,1273,1107,0,0,38,13,174.2,-2.6,0,85,4.092,4.078,0,0,0,0,4.169,93.38,34.44882,8.2021,6,P-GPS,
15200,2023-01-03 04:59:56,-34.9569563032289,-54.93913771673,8.2021,8.2677168,26.1811032,34.44882,13.12336,0,19.9667329224,32.5829734836,8,3,8.235,34.44882,8.2021,2.6172198,19.9667329224,0,0,-0.671082,167.9, 0.7, 0.3,0,0,1024,1024,1339,1024,0,0,48,0,174.2,-2.5,0,85,4.092,4.078,0,0,0,0,4.169,93.38,34.44882,8.2021,6,P-GPS,
15300,2023-01-03 04:59:56,-34.9569565786965,-54.9391371614306,8.530184,8.6286092,26.1482948,34.776904,13.451444,0,20.144685684,32.777067978,8,3,8.235,34.776904,8.530184,2.6172198,20.144685684,0,0,-0.894776,167.9, 0.3, 0.2,0,0,1024,1024,1024,1024,0,0,0,0,174.4,-2.5,0,85,4.092,4.078,0,0,0,0,4.169,93.38,34.776904,8.530184,6,P-GPS,
15400,2023-01-03 04:59:56,-34.9569568418531,-54.939136600748,8.530184,8.6286092,26.1482948,34.776904,13.451444,0,20.320210624,32.970145412,10,3,8.235,34.776904,8.530184,2.6172198,20.320210624,0,0,-1.11847,168.3, 0.3, 0.5,0,0,1024,1024,1024,1024,0,0,0,0,174.6,-2.6,0,85,4.092,4.078,0,0,0,0,4.169,93.38,34.776904,8.530184,6,P-GPS,
15500,2023-01-03 04:59:56,-34.9569570730661,-54.9391359766088,8.530184,8.6286092,26.1482948,34.776904,13.779528,0,20.4977368764,33.175197912,10,3,8.235,34.776904,8.530184,2.6172198,20.4977368764,0,0,-0.671082,168.5, 1.2, 0.8,0,0,1024,1024,1024,1024,0,0,0,0,174.6,-2.5,0,85,4.092,4.078,0,0,0,0,4.169,93.38,34.776904,8.530184,6,P-GPS,
15600,2023-01-03 04:59:56,-34.956957208976,-54.9391343778282,8.858268,8.9895016,26.1154864,35.104988,13.779528,0,20.8213917424,33.655840972,11,3,8.235,35.104988,8.858268,2.6172198,20.8213917424,0,0,-0.447388,168.4, 1.2, 0.5,0,0,1024,1024,1024,1024,0,0,0,0,174.6,-2.5,0,85,4.092,4.078,0,0,0,0,4.169,93.38,35.104988,8.858268,6,P-GPS,
15700,2023-01-03 04:59:56,-34.956957599086,-54.9391344411881,8.858268,8.9895016,26.1154864,35.104988,13.779528,0,20.9240820344,33.79921368,11,3,8.175,35.104988,8.858268,2.6172198,20.9240820344,0,0,-0.223694,168.4, 0.9, 0.5,0,0,1024,1024,1024,1024,0,0,0,0,174.6,-2.5,0,85,4.099,4.104,0,0,0,0,4.68,93.38,35.104988,8.858268,6,P-GPS,
15800,2023-01-03 04:59:56,-34.9569579682282,-54.9391345174834,8.858268,8.9566932,26.1482948,35.104988,13.779528,0,21.0187998852,33.936024708,9,3,8.175,35.104988,8.858268,2.6172198,21.0187998852,0,0,0,168.5, 0.8, 0.2,0,0,1024,1024,1024,1024,0,0,0,0,174.6,-2.5,0,85,4.099,4.104,0,0,0,0,4.68,93.38,35.104988,8.858268,6,P-GPS,
15900,2023-01-03 04:59:56,-34.9569581980277,-54.9391343110136,8.858268,8.9895016,26.1154864,35.104988,13.779528,0,21.1229337468,34.040027336,9,3,8.175,35.104988,8.858268,2.6172198,21.1229337468,0,0,0,168.5, 0.8, 0.2,0,0,1024,1024,1024,1024,0,0,0,0,174.6,-2.5,0,85,4.099,4.104,0,0,0,0,4.68,93.38,35.104988,8.858268,6,P-GPS,
16000,2023-01-03 04:59:56,-34.9569585194696,-54.9391348966864,8.858268,8.9566932,26.1482948,35.104988,13.779528,0,21.1146332216,34.250657264,8,3,8.175,35.104988,8.858268,2.6172198,21.1229337468,0,0,0,168.5, 0.8, 0,0,0,1024,1024,1024,1024,0,0,0,0,174.6,-2.5,0,85,4.099,4.104,0,0,0,0,4.68,93.38,35.104988,8.858268,6,P-GPS,
16100,2023-01-03 04:59:56,-34.9569597063186,-54.9391349021689,8.858268,8.9566932,26.1482948,35.104988,13.779528,0,21.4664705032,34.683728144,8,3,8.175,35.104988,8.858268,2.6172198,21.4664705032,0,0,0,168.5, 0.8, 0,0,0,1024,1024,1024,1024,0,0,0,0,174.6,-2.5,0,85,4.099,4.104,0,0,0,0,4.68,93.38,35.104988,8.858268,6,P-GPS,
16200,2023-01-03 04:59:57,-34.9569609081168,-54.9391349110172,8.858268,8.9566932,26.1482948,35.104988,13.779528,0,21.8251647404,35.122376452,8,3,8.175,35.104988,8.858268,2.6172198,21.8251647404,0,0,0,168.5, 0.6, 0.1,0,0,1024,1024,1024,1024,0,0,0,0,174.6,-2.5,0,85,4.099,4.104,0,0,0,0,4.68,93.38,35.104988,8.858268,6,P-GPS,
16300,2023-01-03 04:59:57,-34.956962471866,-54.9391348062589,8.858268,8.9566932,26.1482948,35.104988,14.107612,0,22.3154206616,35.693570696,8,3,8.175,35.104988,8.858268,2.6172198,22.3154206616,0,0,0,168.5, 0.4, 0.4,0,0,1024,1024,1024,1024,0,0,0,0,174.6,-2.5,0,85,4.099,4.104,0,0,0,0,4.68,93.38,35.104988,8.858268,6,P-GPS,
16400,2023-01-03 04:59:57,-34.9569667820055,-54.9391351913729,8.858268,8.9566932,26.1482948,35.104988,13.779528,0,23.5801516732,37.2703424,8,3,8.175,35.104988,8.858268,2.6172198,23.5801516732,0,0,0,168.5, 0.4, 0.4,0,0,1024,1024,1024,1024,0,0,0,0,174.6,-2.5,0,85,4.099,4.104,0,0,0,0,4.68,93.38,35.104988,8.858268,6,P-GPS,
16500,2023-01-03 04:59:57,-34.9569674870403,-54.9391351855925,8.858268,8.9566932,26.1482948,35.104988,14.107612,0,23.8011490556,37.527560256,8,3,8.175,35.104988,8.858268,2.6172198,23.8011490556,0,0,0,168.4, 0.3, 0.2,0,0,1024,1024,1024,1024,0,0,0,0,174.6,-2.5,0,85,4.099,4.104,0,0,0,0,4.68,93.38,35.104988,8.858268,6,P-GPS,
16600,2023-01-03 04:59:57,-34.9569681177758,-54.9391351753801,8.858268,8.9566932,26.1482948,35.104988,14.107612,0,24.0002632352,37.757875224,8,3,8.175,35.104988,8.858268,2.6172198,24.0002632352,0,0,0,168.4, 0.2, 0.4,0,0,1024,1024,1024,1095,0,0,0,11,174.6,-2.5,0,85,4.099,4.104,0,0,0,0,4.68,93.38,35.104988,8.858268,6,P-GPS,
16700,2023-01-03 04:59:57,-34.9569681755041,-54.9391350465488,8.858268,8.9566932,26.1482948,35.104988,14.107612,0,24.038058512,37.80183848,8,3,8.227,35.104988,8.858268,2.6172198,24.038058512,0,0,0,168.4, 0.3, 0.3,0,0,1024,1024,1024,1299,0,0,0,42,174.6,-2.5,0,85,4.119,4.106,0,0,0,0,4.083,93.38,35.104988,8.858268,6,P-GPS,
16800,2023-01-03 04:59:57,-34.9569667394087,-54.9391351026544,8.858268,8.9566932,26.1482948,35.104988,13.779528,0,23.5806766076,38.326116712,8,3,8.227,35.104988,8.858268,2.6172198,24.038058512,0,0,0,168.4, 0.3, 0.1,0,0,1024,1024,1024,1299,0,0,0,42,174.8,-2.5,0,85,4.119,4.106,0,0,0,0,4.083,93.38,35.104988,8.858268,6,P-GPS,
16900,2023-01-03 04:59:57,-34.9569666081919,-54.9391350312615,8.858268,8.9566932,26.1482948,35.104988,13.779528,0,23.5509850056,38.378282068,8,3,8.227,35.104988,8.858268,2.6172198,24.038058512,0,0,0,168.8, 0.3, 0,0,0,1024,1024,1024,1434,0,0,0,62,175.6,-2.5,0,85,4.119,4.106,0,0,0,0,4.083,93.38,35.104988,8.858268,6,P-GPS,
17000,2023-01-03 04:59:57,-34.9569664607037,-54.9391349559279,8.858268,8.9566932,26.1482948,35.104988,13.779528,0,23.516897078,38.43668102,7,3,8.227,35.104988,8.858268,2.6172198,24.038058512,0,0,0,170, 0.5, 0.1,0,0,1024,1024,1024,1201,0,0,0,27,177.2,-2.5,0,85,4.119,4.106,0,0,0,0,4.083,93.38,35.104988,8.858268,6,P-GPS,
17100,2023-01-03 04:59:58,-34.9569665446761,-54.9391347857556,8.858268,8.9566932,26.1482948,35.104988,13.779528,0,23.5696857936,38.496064224,7,3,8.227,35.104988,8.858268,2.6172198,24.038058512,0,0,0,171.6, 0.4, 0.1,0,0,1024,1024,1024,1024,0,0,0,0,178.8,-2.5,0,85,4.119,4.106,0,0,0,0,4.083,93.38,35.104988,8.858268,6,P-GPS,
17200,2023-01-03 04:59:58,-34.956966616751,-54.9391346157872,8.858268,8.9566932,26.1482948,35.104988,13.779528,0,23.61876716,38.553478924,6,3,8.227,35.104988,8.858268,2.6172198,24.038058512,0,0,0,172.8, 0.3, 0.4,0,0,1024,1024,1024,1024,0,0,0,0,179.7,-2.5,0,85,4.119,4.106,0,0,0,0,4.083,93.38,35.104988,8.858268,6,P-GPS,
17300,2023-01-03 04:59:58,-34.9569658682595,-54.9391345887875,8.858268,8.9566932,26.1482948,35.104988,13.779528,0,23.3913065228,38.826444812,6,3,8.227,35.104988,8.858268,2.6172198,24.038058512,0,0,0,173.4, 0.3, 0.2,0,0,1024,1024,1024,1024,0,0,0,0,180.1,-2.5,0,85,4.119,4.106,0,0,0,0,4.083,93.38,35.104988,8.858268,6,P-GPS,
17400,2023-01-03 04:59:58,-34.9569662417985,-54.9391344912781,8.858268,8.9895016,26.1154864,35.104988,13.779528,0,23.5222776556,38.965880512,6,3,8.227,35.104988,8.858268,2.6172198,24.038058512,0,0,0,173.6, 0.4, 0.3,0,0,1024,1024,1024,1024,0,0,0,0,180.1,-2.5,0,85,4.119,4.106,0,0,0,0,4.083,93.38,35.104988,8.858268,6,P-GPS,
17500,2023-01-03 04:59:58,-34.956966702101,-54.9391344234705,8.858268,8.9895016,26.1154864,35.104988,13.779528,0,23.675525692,39.135171856,6,3,8.227,35.104988,8.858268,2.6172198,24.038058512,0,0,0,173.7, 0.4, 0.5,0,0,1024,1024,1024,1024,0,0,0,0,180.1,-2.5,0,85,4.119,4.106,0,0,0,0,4.083,93.38,35.104988,8.858268,6,P-GPS,
17600,2023-01-03 04:59:58,-34.9569671490307,-54.9391343632047,8.858268,8.9895016,26.1154864,35.104988,13.779528,0,23.8236884264,39.299213856,6,3,8.227,35.104988,8.858268,2.6172198,24.038058512,0,0,0,173.7, 0.3, 0.5,0,0,1024,1024,1024,1024,0,0,0,0,180.1,-2.5,0,85,4.119,4.106,0,0,0,0,4.083,93.38,35.104988,8.858268,6,P-GPS,
17700,2023-01-03 04:59:58,-34.9569679379728,-54.9391343934552,8.858268,8.9895016,26.1154864,35.104988,14.107612,0,24.064469274,39.587271608,6,3,8.227,35.104988,8.858268,2.6172198,24.064469274,0,0,0,173.7, 0.3, 0.1,0,0,1024,1024,1024,1024,0,0,0,0,180.1,-2.5,0,85,4.119,4.106,0,0,0,0,4.083,93.38,35.104988,8.858268,6,P-GPS,
17800,2023-01-03 04:59:58,-34.9569683471747,-54.9391343097906,8.858268,8.9895016,26.1154864,35.104988,14.107612,0,24.2051188848,39.738518332,6,3,8.222,35.104988,8.858268,2.6172198,24.2051188848,0,0,0,173.7, 0.5, 0,0,0,1024,1024,1024,1024,0,0,0,0,180.1,-2.5,0,85,4.116,4.103,0,0,0,0,4.202,93.56,35.104988,8.858268,6,P-GPS,
17900,2023-01-03 04:59:58,-34.9569687867601,-54.9391343100467,8.858268,8.9895016,26.1154864,35.104988,14.107612,0,24.3424876556,39.898951408,6,3,8.222,35.104988,8.858268,2.6172198,24.3424876556,0,0,0,173.8, 0.4, -0.2,0,0,1024,1024,1024,1024,0,0,0,0,180.1,-2.5,0,85,4.116,4.103,0,0,0,0,4.202,93.56,35.104988,8.858268,6,P-GPS,
18000,2023-01-03 04:59:58,-34.9569692033389,-54.939134302019,8.858268,8.9895016,26.1154864,35.104988,14.107612,0,24.4741805732,40.0508543,7,3,8.222,35.104988,8.858268,2.6172198,24.4741805732,0,0,0,173.8, 0.6, -0.6,0,0,1024,1024,1024,1024,0,0,0,0,180.1,-2.5,0,85,4.116,4.103,0,0,0,0,4.202,93.56,35.104988,8.858268,6,P-GPS,
18100,2023-01-03 04:59:59,-34.9569696408236,-54.9391343632622,8.858268,8.9895016,26.1154864,35.104988,14.107612,0,24.6021333332,40.21161546,7,3,8.222,35.104988,8.858268,2.6172198,24.6021333332,0,0,0,173.9, 0.8, -0.7,0,0,1024,1024,1024,1024,0,0,0,0,180.1,-2.5,0,85,4.116,4.103,0,0,0,0,4.202,93.56,35.104988,8.858268,6,P-GPS,
