time(millisecond),datetime(utc),latitude,longitude,height_above_takeoff(feet),height_above_ground_at_drone_location(feet),ground_elevation_at_drone_location(feet),altitude_above_seaLevel(feet),height_sonar(feet),speed(mph),distance(feet),mileage(feet),satellites,gpslevel,voltage(v),max_altitude(feet),max_ascent(feet),max_speed(mph),max_distance(feet), xSpeed(mph), ySpeed(mph), zSpeed(mph), compass_heading(degrees), pitch(degrees), roll(degrees),isPhoto,isVideo,rc_elevator,rc_aileron,rc_throttle,rc_rudder,rc_elevator(percent),rc_aileron(percent),rc_throttle(percent),rc_rudder(percent),gimbal_heading(degrees),gimbal_pitch(degrees),gimbal_roll(degrees),battery_percent,voltageCell1,voltageCell2,voltageCell3,voltageCell4,voltageCell5,voltageCell6,current(A),battery_temperature(f),altitude(feet),ascent(feet),flycStateRaw,flycState,message
0,2023-01-04 19:37:53,-34.9535351207111,-54.9408358527355,0,0,14.546969297524,14.546969297524,0,0,0,0,21,5,0,14.546969297524,0,0,0,0,0,0,152, -1.2, 2.3,0,0,364,364,364,1684,-100,-100,-100,100,161.6,0,0,99,4.337,4.336,0,0,0,0,0,85.1,14.546969297524,0,41,Motors_Started,
100,2023-01-04 19:37:53,-34.9535351344485,-54.9408358732181,0,0,14.546969297524,14.546969297524,0,0,0.0079143375236,0.0079143375236,20,5,0,14.546969297524,0,0,0.0079143375236,0,0,0,151.2, -1.4, 2.5,0,0,364,364,364,1684,-100,-100,-100,100,161.4,0,0,99,4.337,4.336,0,0,0,0,0,85.1,14.546969297524,0,41,Motors_Started,"Error de calibración del estabilizador. Reinicia la aeronave o contacta con la Asistencia DJI (Code: 40011)"
200,2023-01-04 19:37:53,-34.9535351496899,-54.9408359845934,0,0,14.546969297524,14.546969297524,0.328084,0,0.040823164036,0.041680775612,20,5,0,14.546969297524,0,0,0.040823164036,0,0,0,150.8, -1.1, 3,0,0,364,364,364,1684,-100,-100,-100,100,161,0,0,99,4.337,4.336,0,0,0,0,0,85.1,14.546969297524,0,41,Motors_Started,
300,2023-01-04 19:37:53,-34.9535351505959,-54.940836103553,0,0,14.546969297524,14.546969297524,0.328084,0,0.075791997176,0.0772555799,21,5,0,14.546969297524,0,0,0.075791997176,0,0,0,150.4, -0.7, 3.9,0,0,364,364,364,1684,-100,-100,-100,100,160.7,0,0,99,4.337,4.336,0,0,0,0,0,85.1,14.546969297524,0,41,Motors_Started,
400,2023-01-04 19:37:53,-34.9535348172117,-54.9408360605837,0,0,14.546969297524,14.546969297524,0.328084,0,0.126982943696,0.199567263604,21,5,0,14.546969297524,0,0,0.126982943696,0,0,0,150, -0.4, 4.1,0,0,364,364,364,1684,-100,-100,-100,100,160.4,0,0,99,4.337,4.336,0,0,0,0,0,85.1,14.546969297524,0,41,Motors_Started,
500,2023-01-04 19:37:54,-34.9535346583776,-54.9408359973539,0,0,14.546969297524,14.546969297524,0.328084,0,0.174137472764,0.260524614636,21,5,0,14.546969297524,0,0,0.174137472764,0,0,0,149.6, -0.1, 4.1,0,0,364,364,364,1684,-100,-100,-100,100,160,0,0,99,4.337,4.336,0,0,0,0,0,85.1,14.546969297524,0,41,Motors_Started,
600,2023-01-04 19:37:54,-34.9535345765487,-54.9408359771944,0,0,14.546969297524,14.546969297524,0.328084,0,0.201995741372,0.290982292776,21,5,0,14.546969297524,0,0,0.201995741372,0,0,0,149.3, 0.2, 4,0,0,364,364,364,1684,-100,-100,-100,100,159.8,0,0,99,4.337,4.336,0,0,0,0,0,85.1,14.546969297524,0,41,Motors_Started,
700,2023-01-04 19:37:54,-34.9535344937704,-54.9408359677006,0,0.032808400000002,14.514160897524,14.546969297524,0.328084,0,0.231308078268,0.321316939416,21,5,0,14.546969297524,0,0,0.231308078268,0,0,0,148.9, 0.3, 4.8,0,0,364,364,364,1684,-100,-100,-100,100,159.5,0,0,99,4.337,4.336,0,0,0,0,0,85.1,14.546969297524,0,41,Motors_Started,"Setting new Return-To-Home altitude to 100m (328 ft). Data Recorder File Index is 95. Setting new Maximum Flight Altitude to 120m (394 ft)"
800,2023-01-04 19:37:54,-34.9535345687492,-54.9408359434542,0,0,14.546969297524,14.546969297524,0.328084,0,0.20320210624,0.34961615292,21,5,0,14.546969297524,0,0,0.231308078268,0,0,0,149, -0.2, 3.7,0,0,364,364,364,1684,-100,-100,-100,100,159.2,0,0,99,4.337,4.336,0,0,0,0,0,85.1,14.546969297524,0,41,Motors_Started,
900,2023-01-04 19:37:54,-34.953534546558,-54.9408359389123,0,0,14.546969297524,14.546969297524,0.328084,0,0.211058733788,0.35782809544,21,5,0,14.546969297524,0,0,0.231308078268,0,0,0,148.8, -1, 1.8,0,0,364,364,364,1684,-100,-100,-100,100,159.2,0,0,99,4.337,4.336,0,0,0,0,0,85.1,14.546969297524,0,41,Motors_Started,
1000,2023-01-04 19:37:54,-34.9535345816243,-54.9408359662066,0,0,14.546969297524,14.546969297524,0.328084,0,0.199590885652,0.37300198044,21,5,0,14.546969297524,0,0,0.231308078268,0,0,0,148.3, -0.9, 1.9,0,0,364,364,364,1684,-100,-100,-100,100,159.1,0,0,99,4.337,4.336,0,0,0,0,0,85.1,14.546969297524,0,41,Motors_Started,
1100,2023-01-04 19:37:54,-34.9535346160407,-54.9408359937001,0,0,14.546969297524,14.546969297524,0.328084,0,0.188892394496,0.38801182344,21,5,8.678,14.546969297524,0,0,0.231308078268,0,0,0,147, -0.9, 3,0,0,364,364,364,1684,-100,-100,-100,100,158.3,0,0,99,4.337,4.336,0,0,0,0,1.083,85.1,14.546969297524,0,10,Assisted_Takeoff,
1200,2023-01-04 19:37:54,-34.9535351372425,-54.9408361657849,0,0,14.546969297524,14.546969297524,0.328084,0,0.0938074177,0.58501314208,21,5,8.678,14.546969297524,0,0,0.231308078268,0,0,0,146, -0.8, 3.1,0,0,364,364,364,1684,-100,-100,-100,100,157.2,0,0,99,4.337,4.336,0,0,0,0,1.083,85.1,14.546969297524,0,10,Assisted_Takeoff,
1300,2023-01-04 19:37:54,-34.9535352458717,-54.940836201528,0,0,14.546969297524,14.546969297524,0.328084,0,0.113860239864,0.62605973132,20,5,8.678,14.546969297524,0,0,0.231308078268,0,0,0,144.7, 0, 3.4,0,0,364,364,364,1684,-100,-100,-100,100,156.1,0,0,99,4.337,4.336,0,0,0,0,1.083,85.1,14.546969297524,0,10,Assisted_Takeoff,
1400,2023-01-04 19:37:55,-34.9535353620349,-54.9408362655992,0,0,14.546969297524,14.546969297524,0.328084,0,0.151640752884,0.6725722,20,5,8.678,14.546969297524,0,0,0.231308078268,0,0,0,144.6, 1.1, 3.7,0,0,364,364,364,1684,-100,-100,-100,100,155.3,0,0,99,4.337,4.336,0,0,0,0,1.083,85.1,14.546969297524,0,10,Assisted_Takeoff,
1500,2023-01-04 19:37:55,-34.9535354689968,-54.940836312289,0,0,14.546969297524,14.546969297524,0.328084,0,0.187169625412,0.71401905172,21,5,8.678,14.546969297524,0,0,0.231308078268,0,0,0,144.6, 1.3, 3.9,0,0,364,364,364,1684,-100,-100,-100,100,155.3,0,0,99,4.337,4.336,0,0,0,0,1.083,85.1,14.546969297524,0,10,Assisted_Takeoff,
1600,2023-01-04 19:37:55,-34.9535354227211,-54.9408359817105,0,0,14.546969297524,14.546969297524,0.328084,0,0.116743113972,0.81430776884,21,5,8.678,14.546969297524,0,0,0.231308078268,0,0,0.223694,143.6, -1.1, 4.2,0,0,364,364,364,1684,-100,-100,-100,100,155,0,0,99,4.337,4.336,0,0,0,0,1.083,85.1,14.546969297524,0,10,Assisted_Takeoff,
1700,2023-01-04 19:37:55,-34.9535353929705,-54.940835822882,0,0,14.546969297524,14.546969297524,0.328084,0,0.099733927076,0.86302824284,21,5,8.678,14.546969297524,0,0,0.231308078268,0,0,0.223694,141.8, -2.9, 5.7,0,0,364,364,364,1684,-100,-100,-100,100,153.6,0,0,99,4.337,4.336,0,0,0,0,1.083,85.1,14.546969297524,0,10,Assisted_Takeoff,
1800,2023-01-04 19:37:55,-34.9535353748683,-54.94083578749,0,0,14.546969297524,14.546969297524,0.328084,0,0.094759517468,0.87550199652,21,5,8.678,14.546969297524,0,0,0.231308078268,0,0,0,142.6, -2.2, 7.2,0,0,364,364,364,1684,-100,-100,-100,100,153.2,0,0,99,4.337,4.336,0,0,0,0,1.083,85.1,14.546969297524,0,10,Assisted_Takeoff,
1900,2023-01-04 19:37:55,-34.9535353267472,-54.9408357808354,0,0,14.546969297524,14.546969297524,0.328084,0,0.078186354208,0.89317260076,21,5,8.678,14.546969297524,0,0,0.231308078268,0,0,0,142.2, -1.8, 9.4,0,0,364,364,364,1684,-100,-100,-100,100,153.4,0,0,99,4.337,4.336,0,0,0,0,1.083,85.1,14.546969297524,0,6,P-GPS,
2000,2023-01-04 19:37:55,-34.9535353499639,-54.9408358396373,0,0,14.546969297524,14.546969297524,0.328084,0,0.083734254648,0.91269031792,21,5,8.678,14.546969297524,0,0,0.231308078268,0,0,-0.223694,141.5, -2, 15.7,0,0,1025,650,364,1684,0,-57,-100,100,155.8,0,0,99,4.337,4.336,0,0,0,0,1.083,85.1,14.546969297524,0,6,P-GPS,"Error de calibración del estabilizador. Reinicia la aeronave o contacta con la Asistencia DJI (Code: 40011)"
2100,2023-01-04 19:37:55,-34.9535352867986,-54.9408358926217,0,0,14.546969297524,14.546969297524,0.328084,0.223694,0.061759516412,0.94065619808,21,5,8.678,14.546969297524,0,0.223694,0.231308078268,0.223694,0,-0.223694,145.1, 2, 1.7,0,0,1024,1024,1024,1178,0,0,0,23,160.3,0,0,99,4.337,4.336,0,0,0,0,1.083,85.1,14.546969297524,0,6,P-GPS,
2200,2023-01-04 19:37:55,-34.9535351922721,-54.9408358938865,0,0,14.546969297524,14.546969297524,0.328084,0.223694,0.0288635836008,0.975147669,21,5,8.682,14.546969297524,0,0.223694,0.231308078268,0.223694,0,-0.223694,147, 5.3, -8.6,0,0,1024,1024,1054,1024,0,0,5,0,165,0,0,99,4.342,4.34,0,0,0,0,1.382,85.1,14.546969297524,0,6,P-GPS,
2300,2023-01-04 19:37:55,-34.9535350957593,-54.9408358766546,0,0,14.546969297524,14.546969297524,0.328084,0,0.0115774610004,1.01073494048,21,5,8.682,14.546969297524,0,0.223694,0.231308078268,0,0,0,147.2, 1.6, -6.9,0,0,1024,1024,1130,1028,0,0,16,1,167.4,0,0,99,4.342,4.34,0,0,0,0,1.382,85.1,14.546969297524,0,6,P-GPS,
2400,2023-01-04 19:37:56,-34.9535351060735,-54.9408358364689,0.328084,0.328084,14.546969297524,14.875053297524,0.328084,0,0.0072237863204,1.0233268044,21,5,8.682,14.875053297524,0.328084,0.223694,0.231308078268,0,0,0,144.2, 1.9, -4.4,0,0,1024,1024,1440,1153,0,0,63,20,168.5,0,0,99,4.342,4.34,0,0,0,0,1.382,85.1,14.875053297524,0.328084,6,P-GPS,
2500,2023-01-04 19:37:56,-34.9535351096803,-54.9408359459416,0.328084,0.328084,14.546969297524,14.875053297524,0.328084,0,0.0281611229484,1.05608927264,20,5,8.682,14.875053297524,0.328084,0.223694,0.231308078268,0,0,-0.223694,143.9, 2.3, -2.1,0,0,1024,1024,1440,1153,0,0,63,20,168.6,0,0,99,4.342,4.34,0,0,0,0,1.382,85.1,14.875053297524,0.328084,6,P-GPS,
2600,2023-01-04 19:37:56,-34.9535350342365,-54.9408359994767,0.328084,0.328084,14.546969297524,14.875053297524,0.328084,0.223694,0.054045933488,1.08793310568,20,5,8.682,14.875053297524,0.328084,0.223694,0.231308078268,0.223694,0,-0.223694,148, 3.1, -1.1,0,0,1024,1024,1556,1091,0,0,81,10,168.7,0,0,99,4.342,4.34,0,0,0,0,1.382,85.1,14.875053297524,0.328084,6,P-GPS,
2700,2023-01-04 19:37:56,-34.9535349158799,-54.9408360358375,0.328084,0.328084,14.546969297524,14.875053297524,0.328084,0.223694,0.09264435992,1.13246066616,21,5,8.682,14.875053297524,0.328084,0.223694,0.231308078268,0.223694,0,-0.447388,153.1, 0.9, 1.1,0,0,1024,1024,1556,1024,0,0,81,0,168.9,0,0,99,4.342,4.34,0,0,0,0,1.382,85.1,14.875053297524,0.328084,6,P-GPS,
2800,2023-01-04 19:37:56,-34.9535346219214,-54.9408358179975,0.328084,0.328084,14.546969297524,14.875053297524,0.656168,0.223694,0.182279533392,1.25794623448,21,5,8.682,14.875053297524,0.328084,0.223694,0.231308078268,0.223694,0,-0.894776,155.7, -1.3, 3,0,0,1024,1024,1537,1024,0,0,78,0,169,0,0,99,4.342,4.34,0,0,0,0,1.382,85.1,14.875053297524,0.328084,6,P-GPS,"Error de calibración del estabilizador. Reinicia la aeronave o contacta con la Asistencia DJI (Code: 40011)"
2900,2023-01-04 19:37:56,-34.9535341467862,-54.940835473434,0.656168,0.6233596,14.579777697524,15.203137297524,0.656168,0.223694,0.3729986996,1.45960962676,21,5,8.682,15.203137297524,0.656168,0.223694,0.3729986996,0.223694,0,-1.342164,157, -2.6, 2.8,0,0,1024,1024,1054,1024,0,0,5,0,169,0,0,99,4.342,4.34,0,0,0,0,1.382,85.1,15.203137297524,0.656168,6,P-GPS,
3000,2023-01-04 19:37:56,-34.9535339542309,-54.9408353492325,0.984252,0.9514436,14.579777697524,15.531221297524,0.984252,0.447388,0.45143702232,1.5390748524,21,5,8.682,15.531221297524,0.984252,0.447388,0.45143702232,0.447388,0,-2.013246,157.7, -3.1, 3.6,0,0,1024,1024,1024,1024,0,0,0,0,169,0,0,99,4.342,4.34,0,0,0,0,1.382,85.1,15.531221297524,0.984252,6,P-GPS,
3100,2023-01-04 19:37:56,-34.9535337728803,-54.9408352319051,0.984252,0.9514436,14.579777697524,15.531221297524,1.312336,0.447388,0.52563321892,1.61396658708,21,5,8.682,15.531221297524,0.984252,0.447388,0.52563321892,0.447388,0,-2.013246,157.9, -3.2, 4.7,0,0,1024,1024,1024,1024,0,0,0,0,169,0,0,99,4.342,4.34,0,0,0,0,1.382,85.1,15.531221297524,0.984252,6,P-GPS,
3200,2023-01-04 19:37:56,-34.9535335590212,-54.940835171472,1.312336,1.2795276,14.579777697524,15.859305297524,1.64042,0.223694,0.60510828708,1.69405845316,21,5,8.571,15.859305297524,1.312336,0.447388,0.60510828708,0.223694,0,-1.565858,157.7, -3.8, 4.3,0,0,1024,1024,1024,1024,0,0,0,0,169,0,0,99,4.26,4.257,0,0,0,0,3.119,85.1,15.859305297524,1.312336,6,P-GPS,
3300,2023-01-04 19:37:56,-34.9535336468534,-54.9408351072071,1.64042,1.6076116,14.579777697524,16.187389297524,2.952756,0.223694,0.5821194412,1.73142722076,21,5,8.571,16.187389297524,1.64042,0.447388,0.60510828708,0.223694,0,-1.11847,157.4, -3.9, 4.8,0,0,1024,1024,1024,1024,0,0,0,0,169,0,0,99,4.26,4.257,0,0,0,0,3.119,85.1,16.187389297524,1.64042,6,P-GPS,
3400,2023-01-04 19:37:57,-34.9535335870974,-54.9408350036309,1.64042,1.6076116,14.579777697524,16.187389297524,2.952756,0.223694,0.61445540024,1.76930123772,21,5,8.571,16.187389297524,1.64042,0.447388,0.61445540024,0.223694,0,-0.671082,157.4, -3.3, 5.1,0,0,1024,1024,1024,1024,0,0,0,0,169,0,0,99,4.26,4.257,0,0,0,0,3.119,85.1,16.187389297524,1.64042,6,P-GPS,
3500,2023-01-04 19:37:57,-34.9535335525365,-54.9408349245013,1.64042,1.6076116,14.579777697524,16.187389297524,2.952756,0.223694,0.6359252172,1.79611554304,21,5,8.571,16.187389297524,1.64042,0.447388,0.6359252172,0.223694,0,-0.223694,157.2, -3.2, 4.8,0,0,1024,1024,1024,1024,0,0,0,0,169,0,0,99,4.26,4.257,0,0,0,0,3.119,85.1,16.187389297524,1.64042,6,P-GPS,
3600,2023-01-04 19:37:57,-34.9535335719461,-54.9408349938409,1.968504,1.9356956,14.579777697524,16.515473297524,2.952756,0.223694,0.62069883876,1.81802499256,21,5,8.571,16.515473297524,1.968504,0.447388,0.6359252172,0.223694,0,0,157.1, -3.5, 4.6,0,0,1024,1024,1024,1024,0,0,0,0,169,0,0,99,4.26,4.257,0,0,0,0,3.119,85.1,16.515473297524,1.968504,6,P-GPS,
3700,2023-01-04 19:37:57,-34.9535335888899,-54.9408350664756,1.968504,1.9356956,14.579777697524,16.515473297524,2.952756,0.223694,0.60632875956,1.84061029512,20,5,8.571,16.515473297524,1.968504,0.447388,0.6359252172,0.223694,0,0,157.1, -3.7, 4.2,0,0,1024,1024,1024,1024,0,0,0,0,169,0,0,99,4.26,4.257,0,0,0,0,3.119,85.1,16.515473297524,1.968504,6,P-GPS,
3800,2023-01-04 19:37:57,-34.953533698748,-54.9408353972265,1.968504,1.9356956,14.579777697524,16.515473297524,2.952756,0,0.53638781244,1.94732945864,20,5,8.571,16.515473297524,1.968504,0.447388,0.6359252172,0,0,0,157.2, -3.2, 4.3,0,0,1024,1024,1621,743,0,0,90,-43,169,0,0,99,4.26,4.257,0,0,0,0,3.119,85.1,16.515473297524,1.968504,6,P-GPS,
3900,2023-01-04 19:37:57,-34.9535336114116,-54.9408354436804,1.968504,1.9356956,14.579777697524,16.515473297524,2.952756,0,0.56408794456,1.98208995844,21,5,8.571,16.515473297524,1.968504,0.447388,0.6359252172,0,0,0,157.2, -3.2, 4,0,0,1054,1024,1684,1024,5,0,100,0,168.9,0,0,99,4.26,4.257,0,0,0,0,3.119,85.1,16.515473297524,1.968504,6,P-GPS,
4000,2023-01-04 19:37:57,-34.9535334895995,-54.940835309375,1.968504,1.968504,14.546969297524,16.515473297524,2.952756,0,0.61689306436,2.04199153516,21,5,8.571,16.515473297524,1.968504,0.447388,0.6359252172,0,0,-0.223694,156.9, -3.6, 3.8,0,0,1616,1024,1684,1024,90,0,100,0,168.3,0,0,99,4.26,4.257,0,0,0,0,3.119,85.1,16.515473297524,1.968504,6,P-GPS,
4100,2023-01-04 19:37:57,-34.9535333898906,-54.940835185233,1.968504,1.968504,14.546969297524,16.515473297524,3.28084,0,0.66228348576,2.09396660244,21,5,8.571,16.515473297524,1.968504,0.447388,0.66228348576,0,0,-0.894776,156.3, -4.7, 4,0,0,1684,1024,1684,1024,100,0,100,0,167.9,0,0,99,4.26,4.257,0,0,0,0,3.119,85.1,16.515473297524,1.968504,6,P-GPS,
4200,2023-01-04 19:37:57,-34.9535331289341,-54.9408348028476,2.296588,2.296588,14.546969297524,16.843557297524,3.28084,0,0.7916174794,2.24276253896,21,5,8.571,16.843557297524,2.296588,0.447388,0.7916174794,0,0,-1.789552,155.8, -13, 3.8,0,0,1684,1024,1531,1024,100,0,77,0,167.8,0,0,99,4.278,4.271,0,0,0,0,4.071,85.1,16.843557297524,2.296588,6,P-GPS,
4300,2023-01-04 19:37:57,-34.953533238969,-54.9408346778661,2.624672,2.624672,14.546969297524,17.171641297524,3.608924,0.7158208,0.77122377796,2.29761490292,21,5,8.571,17.171641297524,2.624672,0.7158208,0.7916174794,-0.671082,0.223694,-2.460634,155.6, -17.4, 3.4,0,0,1684,1024,1531,1024,100,0,77,0,167.8,0,0,99,4.278,4.271,0,0,0,0,4.071,85.1,17.171641297524,2.624672,6,P-GPS,
4400,2023-01-04 19:37:57,-34.9535336797485,-54.9408344848569,2.952756,2.8543308,14.645394497524,17.499725297524,4.265092,1.4092722,0.66611878772,2.46847448844,21,5,8.571,17.499725297524,2.952756,1.4092722,0.7916174794,-1.342164,0.447388,-3.35541,155.8, -17.2, 3.2,0,0,1684,1024,1024,1024,100,0,0,0,167.8,0,0,99,4.278,4.271,0,0,0,0,4.071,85.1,17.499725297524,2.952756,6,P-GPS,
4500,2023-01-04 19:37:58,-34.953534337512,-54.9408341792346,3.28084,3.1824148,14.645394497524,17.827809297524,4.593176,1.901399,0.57627298432,2.72527239692,21,5,8.571,17.827809297524,3.28084,1.901399,0.7916174794,-1.789552,0.671082,-3.35541,155.8, -17.1, 3.7,0,0,1684,1024,1024,1024,100,0,0,0,167.8,0,0,99,4.278,4.271,0,0,0,0,4.071,85.1,17.827809297524,3.28084,6,P-GPS,
4600,2023-01-04 19:37:58,-34.953535456242,-54.9408337662432,3.608924,3.4776904,14.678202897524,18.155893297524,5.249344,2.4158952,0.63583335368,3.15171598012,21,5,8.571,18.155893297524,3.608924,2.4158952,0.7916174794,-2.23694,0.894776,-2.684328,155.7, -18.6, 3.8,0,0,1684,980,1024,1024,100,-7,0,0,167.8,0,0,99,4.278,4.271,0,0,0,0,4.071,85.1,18.155893297524,3.608924,6,P-GPS,
4700,2023-01-04 19:37:58,-34.9535365057072,-54.9408332597498,3.937008,3.7073492,14.776628097524,18.483977297524,5.577428,2.908022,0.92551840232,3.563484366,21,5,8.571,18.483977297524,3.937008,2.908022,0.92551840232,-2.684328,1.11847,-2.013246,155.7, -19.1, 3.4,0,0,1684,968,1024,1024,100,-8,0,0,167.8,0,0,99,4.278,4.271,0,0,0,0,4.071,85.1,18.483977297524,3.937008,6,P-GPS,
4800,2023-01-04 19:37:58,-34.953537797744,-54.9408326080334,4.265092,4.0354332,14.776628097524,18.812061297524,5.577428,3.4001488,1.37674217004,4.0735893692,21,5,8.571,18.812061297524,4.265092,3.4001488,1.37674217004,-3.131716,1.342164,-1.342164,155.9, -18.9, 2.9,0,0,1684,1024,1024,1024,100,0,0,0,167.8,0,0,99,4.278,4.271,0,0,0,0,4.071,85.1,18.812061297524,4.265092,6,P-GPS,
4900,2023-01-04 19:37:58,-34.9535391596842,-54.9408319163919,4.265092,4.0026248,14.809436497524,18.812061297524,5.905512,3.914645,1.88603680576,4.6118111712,20,5,8.571,18.812061297524,4.265092,3.914645,1.88603680576,-3.579104,1.565858,-0.671082,156.1, -18.5, 2.7,0,0,1684,1024,1024,1024,100,0,0,0,167.8,0,0,99,4.278,4.271,0,0,0,0,4.071,85.1,18.812061297524,4.265092,6,P-GPS,
5000,2023-01-04 19:37:58,-34.9535412210968,-54.9408310328586,4.265092,3.937008,14.875053297524,18.812061297524,5.905512,4.1159696,2.65165034732,5.408956866,20,5,8.571,18.812061297524,4.265092,4.1159696,2.65165034732,-3.802798,1.565858,-0.223694,156.1, -18.3, 2.5,0,0,1684,1024,1024,1024,100,0,0,0,167.8,0,0,99,4.278,4.271,0,0,0,0,4.071,85.1,18.812061297524,4.265092,6,P-GPS,
5100,2023-01-04 19:37:58,-34.9535429120804,-54.9408302109339,4.265092,3.9041996,14.907861697524,18.812061297524,5.905512,4.6080964,3.305610342,6.0730644988,22,5,8.571,18.812061297524,4.265092,4.6080964,3.305610342,-4.250186,1.789552,0,156.1, -18.4, 2.4,0,0,1684,1024,1024,1024,100,0,0,0,167.8,0,0,99,4.278,4.271,0,0,0,0,4.071,85.1,18.812061297524,4.265092,6,P-GPS,
5200,2023-01-04 19:37:58,-34.9535446255569,-54.940829225113,3.937008,3.5433072,14.940670097524,18.483977297524,5.905512,5.1002232,3.9942258496,6.76427187,22,5,8.53,18.812061297524,4.265092,5.1002232,3.9942258496,-4.697574,2.013246,0,156.2, -18.5, 2.6,0,0,1684,1024,1024,1024,100,0,0,0,167.8,0,0,99,4.282,4.278,0,0,0,0,4.896,85.1,18.483977297524,3.937008,6,P-GPS,
5300,2023-01-04 19:37:58,-34.9535464043038,-54.9408282052112,3.937008,3.5104988,14.973478497524,18.483977297524,5.905512,5.6147194,4.7093505444,7.4813322604,22,5,8.53,18.812061297524,4.265092,5.6147194,4.7093505444,-5.144962,2.23694,0,156.1, -18.6, 2.7,0,0,1684,1024,1024,1024,100,0,0,0,167.8,0,0,99,4.282,4.278,0,0,0,0,4.896,85.1,18.483977297524,3.937008,6,P-GPS,
5400,2023-01-04 19:37:58,-34.9535484957144,-54.9408270314625,3.937008,3.444882,15.039095297524,18.483977297524,5.905512,6.1068462,5.5472114636,8.3212273004,22,5,8.53,18.812061297524,4.265092,6.1068462,5.5472114636,-5.59235,2.460634,0,156, -19.1, 2.8,0,0,1684,1024,1024,1024,100,0,0,0,167.8,0,0,99,4.282,4.278,0,0,0,0,4.896,85.1,18.483977297524,3.937008,6,P-GPS,
5500,2023-01-04 19:37:59,-34.9535503003789,-54.9408257506958,3.937008,3.4120736,15.071903697524,18.483977297524,5.905512,6.3081708,6.3085960024,9.0829399232,22,5,8.53,18.812061297524,4.265092,6.3081708,6.3085960024,-5.816044,2.460634,0,156.1, -19, 3,0,0,1684,1024,1024,1024,100,0,0,0,167.8,0,0,99,4.282,4.278,0,0,0,0,4.896,85.1,18.483977297524,3.937008,6,P-GPS,
5600,2023-01-04 19:37:59,-34.9535527902779,-54.9408243715599,3.937008,3.3464568,15.137520497524,18.483977297524,5.905512,6.822667,7.30397005,10.0806105588,22,5,8.53,18.812061297524,4.265092,6.822667,7.30397005,-6.263432,2.684328,0,156, -19, 2.4,0,0,1684,1024,1024,1024,100,0,0,0,167.8,0,0,99,4.282,4.278,0,0,0,0,4.896,85.1,18.483977297524,3.937008,6,P-GPS,
5700,2023-01-04 19:37:59,-34.953555453756,-54.9408229067557,3.608924,2.952756,15.203137297524,18.155893297524,5.905512,7.3147938,8.3678808452,11.1465554748,22,5,8.53,18.812061297524,4.265092,7.3147938,8.3678808452,-6.71082,2.908022,0,156.2, -19.5, 2.7,0,0,1684,1024,1024,1024,100,0,0,0,167.8,0,0,99,4.282,4.278,0,0,0,0,4.896,85.1,18.155893297524,3.608924,6,P-GPS,
5800,2023-01-04 19:37:59,-34.9535580146421,-54.9408215516813,3.608924,2.8871392,15.268754097524,18.155893297524,5.905512,7.8069206,9.3839569932,12.1649610192,22,5,8.53,18.812061297524,4.265092,7.8069206,9.3839569932,-7.158208,3.131716,0,156.2, -19.3, 3,0,0,1684,1024,1024,1024,100,0,0,0,167.8,0,0,99,4.282,4.278,0,0,0,0,4.896,85.1,18.155893297524,3.608924,6,P-GPS,
5900,2023-01-04 19:37:59,-34.9535605433014,-54.9408201834211,3.608924,2.8215224,15.334370897524,18.155893297524,5.577428,8.2319392,10.3917982328,13.17421302,22,5,8.53,18.812061297524,4.265092,8.2319392,10.3917982328,-7.605596,3.131716,0,156.2, -19.1, 3,0,0,1684,1003,1024,1024,100,-3,0,0,167.8,0,0,99,4.282,4.278,0,0,0,0,4.896,85.1,18.155893297524,3.608924,6,P-GPS,
6000,2023-01-04 19:37:59,-34.953563913376,-54.9408184922223,3.608924,2.7559056,15.399987697524,18.155893297524,5.577428,8.4332638,11.7177497188,14.5037406216,22,5,8.53,18.812061297524,4.265092,8.4332638,11.7177497188,-7.82929,3.131716,0,156.4, -19.3, 2.9,0,0,1684,1024,1024,1024,100,0,0,0,167.8,0,0,99,4.282,4.278,0,0,0,0,4.896,85.1,18.155893297524,3.608924,6,P-GPS,
6100,2023-01-04 19:37:59,-34.9535672515103,-54.9408168374031,3.608924,2.6902888,15.465604497524,18.155893297524,5.577428,8.9253906,13.029199892,15.8183404012,22,5,8.53,18.812061297524,4.265092,8.9253906,13.029199892,-8.276678,3.35541,0,156.5, -19.2, 2.1,0,0,1684,1024,1024,1024,100,0,0,0,167.8,0,0,99,4.282,4.278,0,0,0,0,4.896,85.1,18.155893297524,3.608924,6,P-GPS,
6200,2023-01-04 19:37:59,-34.9535708001927,-54.9408150447907,3.608924,2.5918636,15.564029697524,18.155893297524,5.577428,9.2161928,14.42831411,17.219652782,22,5,8.53,18.812061297524,4.265092,9.2161928,14.42831411,-8.500372,3.579104,0,156.5, -20.3, 2.1,0,0,1684,1024,1024,1024,100,0,0,0,167.8,0,0,99,4.282,4.278,0,0,0,0,4.896,85.1,18.155893297524,3.608924,6,P-GPS,
6300,2023-01-04 19:37:59,-34.9535748408573,-54.9408130274403,3.608924,2.4934384,15.662454897524,18.155893297524,5.577428,9.4398868,16.0188325336,18.8125334104,21,5,8.53,18.812061297524,4.265092,9.4398868,16.0188325336,-8.724066,3.579104,0,156.4, -20.3, 1.9,0,0,1684,1024,1024,1024,100,0,0,0,167.8,0,0,99,4.282,4.278,0,0,0,0,4.896,85.1,18.155893297524,3.608924,6,P-GPS,
6400,2023-01-04 19:38:00,-34.9535785830346,-54.9408111453576,3.608924,2.3950132,15.760880097524,18.155893297524,5.577428,9.730689,17.4939966228,20.2893379196,21,5,8.53,18.812061297524,4.265092,9.730689,17.4939966228,-8.94776,3.802798,0,156.4, -18.1, 2.1,0,0,1684,1024,1024,1024,100,0,0,0,167.8,0,0,99,4.282,4.278,0,0,0,0,4.896,85.1,18.155893297524,3.608924,6,P-GPS,
6500,2023-01-04 19:38:00,-34.9535822664609,-54.9408092767115,3.608924,2.3293964,15.826496897524,18.155893297524,5.577428,10.2228158,18.9482289528,21.744751352,22,5,8.526,18.812061297524,4.265092,10.2228158,18.9482289528,-9.395148,4.026492,-0.223694,156.7, -18.4, 2.5,0,0,1207,1024,1024,1024,28,0,0,0,167.8,0,0,99,4.261,4.258,0,0,0,0,3.761,85.1,18.155893297524,3.608924,6,P-GPS,
6600,2023-01-04 19:38:00,-34.9535860867157,-54.9408071152245,3.608924,2.2309712,15.924922097524,18.155893297524,5.577428,10.4241404,20.4846463248,23.281168724,22,5,8.526,18.812061297524,4.265092,10.4241404,20.4846463248,-9.618842,4.026492,0,156.4, -16.4, 1.9,0,0,1024,1024,1024,1024,0,0,0,0,167.8,0,0,99,4.261,4.258,0,0,0,0,3.761,85.1,18.155893297524,3.608924,6,P-GPS,
6700,2023-01-04 19:38:00,-34.9535892297591,-54.9408047587263,3.608924,2.1653544,15.990538897524,18.155893297524,5.577428,10.2228158,21.8217854752,24.6271005256,22,5,8.526,18.812061297524,4.265092,10.4241404,21.8217854752,-9.395148,4.026492,0,156.7, 3.3, 1.9,0,0,1024,1024,1024,1024,0,0,0,0,167.8,0,0,99,4.261,4.258,0,0,0,0,3.761,85.1,18.155893297524,3.608924,6,P-GPS,
6800,2023-01-04 19:38:00,-34.9535928798186,-54.9408026146688,3.608924,2.0669292,16.088964097524,18.155893297524,5.577428,9.3056704,23.2997710868,26.105151754,22,5,8.526,18.812061297524,4.265092,10.4241404,23.2997710868,-8.500372,3.802798,-0.671082,156.4, 19.4, -1.9,0,0,1024,1024,1024,1024,0,0,0,0,167.8,0,0,99,4.261,4.258,0,0,0,0,3.761,85.1,18.155893297524,3.608924,6,P-GPS,
6900,2023-01-04 19:38:00,-34.953595950126,-54.9408007246056,3.608924,2.0013124,16.154580897524,18.155893297524,5.577428,8.4108944,24.5540362188,27.3598433952,22,5,8.526,18.812061297524,4.265092,10.4241404,24.5540362188,-7.605596,3.579104,-0.671082,156.1, 20.6, -0.1,0,0,1024,1024,1024,1024,0,0,0,0,167.8,0,0,99,4.261,4.258,0,0,0,0,3.761,85.1,18.155893297524,3.608924,6,P-GPS,
7000,2023-01-04 19:38:00,-34.9535989043189,-54.9407989004503,3.28084,1.6076116,16.220197697524,17.827809297524,5.577428,7.493749,25.761647806,28.5678486832,22,5,8.526,18.812061297524,4.265092,10.4241404,25.761647806,-6.71082,3.35541,-0.223694,156.7, 19, 0.4,0,0,1024,1024,1024,1024,0,0,0,0,167.8,0,0,99,4.261,4.258,0,0,0,0,3.761,85.1,17.827809297524,3.28084,6,P-GPS,
7100,2023-01-04 19:38:00,-34.9536014251437,-54.9407972753331,3.28084,1.5419948,16.285814497524,17.827809297524,5.577428,6.5094954,26.8009523012,29.6080718136,22,5,8.526,18.812061297524,4.265092,10.4241404,26.8009523012,-5.816044,2.908022,0,156.7, 19.9, 0.3,0,0,1024,1024,1041,1024,0,0,3,0,167.8,0,0,99,4.261,4.258,0,0,0,0,3.761,85.1,17.827809297524,3.28084,6,P-GPS,
7200,2023-01-04 19:38:00,-34.9536036716733,-54.940795903314,3.28084,1.476378,16.351431297524,17.827809297524,5.577428,5.6147194,27.7173893384,30.5246728928,22,5,8.526,18.812061297524,4.265092,10.4241404,27.7173893384,-4.921268,2.684328,0,156.9, 19.6, 1.3,0,0,1024,1024,1684,1024,0,0,100,0,167.8,0,0,99,4.261,4.258,0,0,0,0,3.761,85.1,17.827809297524,3.28084,6,P-GPS,
7300,2023-01-04 19:38:00,-34.9536055204002,-54.9407946514823,2.952756,1.1154856,16.384239697524,17.499725297524,5.577428,4.6080964,28.4874352948,31.296096802,22,5,8.526,18.812061297524,4.265092,10.4241404,28.4874352948,-4.026492,2.23694,0,157.2, 19.5, 2.8,0,0,1024,1024,1684,1024,0,0,100,0,167.8,0,0,99,4.261,4.258,0,0,0,0,3.761,85.1,17.499725297524,2.952756,6,P-GPS,
7400,2023-01-04 19:38:01,-34.9536069198133,-54.9407937319808,2.952756,1.0826772,16.417048097524,17.499725297524,5.249344,3.6014734,29.0667004052,31.8760180804,22,5,8.526,18.812061297524,4.265092,10.4241404,29.0667004052,-3.131716,1.789552,0,157.4, 20, 3.3,0,0,1024,1024,1684,1024,0,0,100,0,167.8,0,0,99,4.261,4.258,0,0,0,0,3.761,85.1,17.499725297524,2.952756,6,P-GPS,
7500,2023-01-04 19:38:01,-34.953607843812,-54.9407930832603,3.28084,1.3779528,16.449856497524,17.827809297524,5.577428,2.4158952,29.4545941184,32.2649616624,22,5,8.504,18.812061297524,4.265092,10.4241404,29.4545941184,-2.013246,1.342164,-0.671082,157.9, 20.6, 5.9,0,0,1024,1024,1684,1024,0,0,100,0,167.8,0,0,99,4.289,4.284,0,0,0,0,4.165,85.1,17.827809297524,3.28084,6,P-GPS,
7600,2023-01-04 19:38:01,-34.9536080311612,-54.9407931740816,3.608924,1.7060368,16.449856497524,18.155893297524,5.577428,1.4316416,29.504430078,32.3385180952,22,5,8.504,18.812061297524,4.265092,10.4241404,29.504430078,-1.11847,0.894776,-1.11847,157.9, 12.9, 5.1,0,0,1024,1024,1684,1024,0,0,100,0,167.8,0,0,99,4.289,4.284,0,0,0,0,4.165,85.1,18.155893297524,3.608924,6,P-GPS,
7700,2023-01-04 19:38:01,-34.9536082129607,-54.9407929397901,3.937008,2.0341208,16.449856497524,18.483977297524,5.905512,0.4921268,29.5945547528,32.4349747912,21,5,8.504,18.812061297524,4.265092,10.4241404,29.5945547528,-0.223694,0.447388,-1.789552,157.2, 4.3, 4.3,0,0,1024,1024,1684,1024,0,0,100,0,167.8,0,0,99,4.289,4.284,0,0,0,0,4.165,85.1,18.483977297524,3.937008,6,P-GPS,
7800,2023-01-04 19:38:01,-34.9536080181467,-54.940793007454,4.593176,2.6902888,16.449856497524,19.140145297524,6.233596,0,29.5217529132,32.5088921164,21,5,8.504,19.140145297524,4.593176,10.4241404,29.5945547528,0,0,-2.684328,157, 0.4, 4.2,0,0,1024,1024,1684,1024,0,0,100,0,167.8,0,0,99,4.289,4.284,0,0,0,0,4.165,85.1,19.140145297524,4.593176,6,P-GPS,
7900,2023-01-04 19:38:01,-34.9536076754244,-54.9407932115484,4.92126,3.0183728,16.449856497524,19.468229297524,6.889764,0.223694,29.3826124888,32.6480325408,22,5,8.504,19.468229297524,4.92126,10.4241404,29.5945547528,0.223694,0,-3.579104,156.8, -1.5, 3.3,0,0,1088,1024,1684,1024,10,0,100,0,167.8,0,0,99,4.289,4.284,0,0,0,0,4.165,85.1,19.468229297524,4.92126,6,P-GPS,
8000,2023-01-04 19:38:01,-34.9536070912885,-54.9407934988809,5.905512,4.0354332,16.417048097524,20.452481297524,7.545932,0.4921268,29.1533145812,32.877953808,22,5,8.504,20.452481297524,5.905512,10.4241404,29.5945547528,0.447388,-0.223694,-4.47388,156.8, -4.1, 2.9,0,0,1552,1024,1684,1024,80,0,100,0,167.8,0,0,99,4.289,4.284,0,0,0,0,4.165,85.1,20.452481297524,5.905512,6,P-GPS,
8100,2023-01-04 19:38:01,-34.9536068488067,-54.9407935531604,6.56168,4.6916012,16.417048097524,21.108649297524,8.2021,0.4921268,29.06660198,32.967848824,22,5,8.504,21.108649297524,6.56168,10.4241404,29.5945547528,0.447388,-0.223694,-5.144962,156.6, -6, 2.8,0,0,1684,1024,1684,1024,100,0,100,0,167.8,0,0,99,4.289,4.284,0,0,0,0,4.165,85.1,21.108649297524,6.56168,6,P-GPS,
8200,2023-01-04 19:38:01,-34.9536065654835,-54.9407936843386,7.545932,5.6758532,16.417048097524,22.092901297524,9.186352,0.3131716,28.9564641812,33.078413132,22,5,8.504,22.092901297524,7.545932,10.4241404,29.5945547528,0.223694,-0.223694,-5.816044,156.5, -13.8, 2.5,0,0,1684,1024,1684,1024,100,0,100,0,167.8,0,0,99,4.289,4.284,0,0,0,0,4.165,85.1,22.092901297524,7.545932,6,P-GPS,
8300,2023-01-04 19:38:01,-34.9536064133672,-54.940793765183,8.530184,6.6929136,16.384239697524,23.077153297524,10.170604,0.223694,28.8959654916,33.138780588,22,5,8.504,23.077153297524,8.530184,10.4241404,29.5945547528,-0.223694,0,-6.039738,156.7, -20, 1.8,0,0,1684,1024,1684,1024,100,0,100,0,167.8,0,0,99,4.289,4.284,0,0,0,0,4.165,85.1,23.077153297524,8.530184,6,P-GPS,
8400,2023-01-04 19:38:02,-34.9536070627647,-54.9407936955959,9.84252,7.9724412,16.417048097524,24.389489297524,11.154856,0.9171454,29.118439252,33.376641488,22,5,8.504,24.389489297524,9.84252,10.4241404,29.5945547528,-0.894776,0.223694,-6.263432,156.9, -21.1, 2.1,0,0,1684,1024,1684,1024,100,0,100,0,167.8,0,0,99,4.289,4.284,0,0,0,0,4.165,85.1,24.389489297524,9.84252,6,P-GPS,
8500,2023-01-04 19:38:02,-34.9536075801343,-54.9407935543624,10.826772,8.9238848,16.449856497524,25.373741297524,12.139108,1.6329662,29.3068907016,33.570211048,22,5,8.441,25.373741297524,10.826772,10.4241404,29.5945547528,-1.565858,0.447388,-6.487126,156.6, -19.7, 1.5,0,0,1684,1024,1656,1024,100,0,96,0,167.8,0,0,99,4.21,4.206,0,0,0,0,4.638,85.1,25.373741297524,10.826772,6,P-GPS,
8600,2023-01-04 19:38:02,-34.9536083781045,-54.9407932893668,11.811024,9.9081368,16.449856497524,26.357993297524,13.12336,2.3264176,29.6037739132,33.871720244,22,5,8.441,26.357993297524,11.811024,10.4241404,29.6037739132,-2.23694,0.671082,-6.487126,156.6, -19.3, 1.1,0,0,1684,1024,1684,1024,100,0,100,0,167.8,0,0,99,4.21,4.206,0,0,0,0,4.638,85.1,26.357993297524,11.811024,6,P-GPS,
8700,2023-01-04 19:38:02,-34.9536093222372,-54.9407929296721,12.795276,10.8923888,16.449856497524,27.342245297524,14.107612,3.0422384,29.9610573892,34.232612644,22,5,8.441,27.342245297524,12.795276,10.4241404,29.9610573892,-2.908022,0.894776,-6.487126,156.7, -19.3, 0.1,0,0,1684,1024,1684,1129,100,0,100,16,167.8,0,0,99,4.21,4.206,0,0,0,0,4.638,85.1,27.342245297524,12.795276,6,P-GPS,
8800,2023-01-04 19:38:02,-34.9536105497388,-54.9407923225837,13.779528,11.811024,16.515473297524,28.326497297524,14.76378,3.5343652,30.4435377196,34.715880376,22,5,8.441,28.326497297524,13.779528,10.4241404,30.4435377196,-3.35541,1.11847,-6.71082,156.7, -18.8, 0.9,0,0,1684,1024,1684,1433,100,0,100,62,167.8,0,0,99,4.21,4.206,0,0,0,0,4.638,85.1,28.326497297524,13.779528,6,P-GPS,
8900,2023-01-04 19:38:02,-34.9536124098908,-54.9407914822804,15.091864,13.1561684,16.482664897524,29.638833297524,15.748032,4.026492,31.164535118,35.43963368,21,5,8.441,29.638833297524,15.091864,10.4241404,31.164535118,-3.802798,1.342164,-6.71082,156.6, -18.8, 0.4,0,0,1684,1024,1684,1684,100,0,100,100,168.1,0,0,99,4.21,4.206,0,0,0,0,4.638,85.1,29.638833297524,15.091864,6,P-GPS,
9000,2023-01-04 19:38:02,-34.9536141338268,-54.9407907854003,16.076116,14.2388456,16.384239697524,30.623085297524,16.732284,4.5186188,31.8224747716,36.10236336,21,5,8.441,30.623085297524,16.076116,10.4241404,31.8224747716,-4.250186,1.565858,-6.71082,157.4, -19, 0.1,0,0,1684,1024,1684,1684,100,0,100,100,169.6,0,0,99,4.21,4.206,0,0,0,0,4.638,85.1,30.623085297524,16.076116,6,P-GPS,
9100,2023-01-04 19:38:02,-34.9536159239948,-54.9407900316746,17.060368,15.2887144,16.318622897524,31.607337297524,17.716536,5.033115,32.5097123264,36.793308264,22,5,8.441,31.607337297524,17.060368,10.4241404,32.5097123264,-4.697574,1.789552,-6.71082,159.6, -18.5, -1,0,0,1684,1024,1684,1684,100,0,100,100,173.1,0,0,99,4.21,4.206,0,0,0,0,4.638,85.1,31.607337297524,17.060368,6,P-GPS,
9200,2023-01-04 19:38:02,-34.9536177694843,-54.9407890471276,18.04462,16.3713916,16.220197697524,32.591589297524,18.372704,5.3239172,33.244423636,37.528216424,22,5,8.441,32.591589297524,18.04462,10.4241404,33.244423636,-4.921268,2.013246,-6.71082,163.6, -18.6, -0.5,0,0,1684,1024,1684,1684,100,0,100,100,177.7,0,0,99,4.21,4.206,0,0,0,0,4.638,85.1,32.591589297524,18.04462,6,P-GPS,
9300,2023-01-04 19:38:02,-34.9536199296934,-54.940787922361,19.028872,17.4212604,16.154580897524,33.575841297524,19.356956,5.3239172,34.10105096,38.385171832,22,5,8.441,33.575841297524,19.028872,10.4241404,34.10105096,-5.368656,2.013246,-6.487126,168.5, -19.5, -1.2,0,0,1684,1024,1684,1684,100,0,100,100,182.5,0,0,99,4.21,4.206,0,0,0,0,4.638,85.1,33.575841297524,19.028872,6,P-GPS,
9400,2023-01-04 19:38:02,-34.9536220500578,-54.940786769932,20.013124,18.5039376,16.056155697524,34.560093297524,20.013124,6.0173686,34.947835764,39.231956636,22,5,8.441,34.560093297524,20.013124,10.4241404,34.947835764,-5.59235,2.23694,-6.487126,173.2, -19.7, -0.9,0,0,1684,1024,1684,1684,100,0,100,100,187.4,0,0,99,4.21,4.206,0,0,0,0,4.638,85.1,34.560093297524,20.013124,6,P-GPS,
9500,2023-01-04 19:38:03,-34.9536242302512,-54.9407856285251,20.997376,19.5538064,15.990538897524,35.544345297524,20.997376,6.4423872,35.812993272,40.097442228,22,5,8.387,35.544345297524,20.997376,10.4241404,35.812993272,-6.039738,2.23694,-6.487126,178.5, -20, -1.1,0,0,1684,1024,1684,1684,100,0,100,100,192.1,0,0,99,4.217,4.214,0,0,0,0,6.347,85.1,35.544345297524,20.997376,6,P-GPS,
9600,2023-01-04 19:38:03,-34.9536267351628,-54.9407843939713,21.981628,20.669292,15.859305297524,36.528597297524,21.653544,6.8674058,36.797573356,41.083006564,22,5,8.387,36.528597297524,21.981628,10.4241404,36.797573356,-6.487126,2.23694,-6.487126,183.6, -20.1, -1,0,0,1684,1024,1684,1295,100,0,100,41,196.9,0,0,99,4.217,4.214,0,0,0,0,6.347,85.1,36.528597297524,21.981628,6,P-GPS,
9700,2023-01-04 19:38:03,-34.9536295960458,-54.9407827977839,22.96588,21.7847776,15.728071697524,37.512849297524,22.637796,7.5608572,37.945211188,42.23097248,22,5,8.387,37.512849297524,22.96588,10.4241404,37.945211188,-7.158208,2.460634,-6.487126,188.2, -19.2, -0.6,0,0,1684,1024,1457,1024,100,0,66,0,201.5,0,0,99,4.217,4.214,0,0,0,0,6.347,85.1,37.512849297524,22.96588,6,P-GPS,
9800,2023-01-04 19:38:03,-34.9536323860198,-54.9407816582271,23.950132,22.8346464,15.662454897524,38.497101297524,23.622048,7.9187676,39.01246844,43.304463328,22,5,8.387,38.497101297524,23.950132,10.4241404,39.01246844,-7.605596,2.23694,-6.487126,191.7, -18.7, 0,0,0,1684,1024,1285,1024,100,0,40,0,203.7,0,0,99,4.217,4.214,0,0,0,0,6.347,85.1,38.497101297524,23.950132,6,P-GPS,
9900,2023-01-04 19:38:03,-34.9536353229381,-54.9407805667829,24.934384,23.950132,15.531221297524,39.481353297524,24.278216,7.6503348,40.12303278,44.424542104,22,5,8.387,39.481353297524,24.934384,10.4241404,40.12303278,-7.381902,2.013246,-6.039738,193.2, -20.2, -0.1,0,0,1684,1024,1024,1024,100,0,0,0,204.6,0,0,99,4.217,4.214,0,0,0,0,6.347,85.1,39.481353297524,24.934384,6,P-GPS,
10000,2023-01-04 19:38:03,-34.9536386827959,-54.9407794225016,25.590552,24.7375336,15.399987697524,40.137521297524,22.96588,8.0306146,41.381563004,45.69717994,22,5,8.387,40.137521297524,25.590552,10.4241404,41.381563004,-7.82929,1.789552,-5.368656,193.6, -20.6, 0.9,0,0,1684,1024,1024,1024,100,0,0,0,204.6,0,0,99,4.217,4.214,0,0,0,0,6.347,85.1,40.137521297524,25.590552,6,P-GPS,
10100,2023-01-04 19:38:03,-34.9536420381526,-54.9407786717653,26.24672,25.5249352,15.268754097524,40.793689297524,23.622048,7.941137,42.59186488,46.941930636,21,5,8.387,40.793689297524,26.24672,10.4241404,42.59186488,-7.82929,1.342164,-4.47388,193.5, -19.8, 0.9,0,0,1684,1024,1024,1024,100,0,0,0,204.6,0,0,99,4.217,4.214,0,0,0,0,6.347,85.1,40.793689297524,26.24672,6,P-GPS,
10200,2023-01-04 19:38:03,-34.9536454873533,-54.940777989759,26.902888,26.3123368,15.137520497524,41.449857297524,24.278216,7.9187676,43.827429224,48.216536976,21,5,8.387,41.449857297524,26.902888,10.4241404,43.827429224,-7.82929,1.11847,-3.802798,193.6, -19.9, 0.7,0,0,1684,1024,1024,1024,100,0,0,0,204.6,0,0,99,4.217,4.214,0,0,0,0,6.347,85.1,41.449857297524,26.902888,6,P-GPS,
10300,2023-01-04 19:38:03,-34.9536488118804,-54.9407774163588,27.230972,26.7716544,15.006286897524,41.777941297524,24.6063,8.1200922,45.010828212,49.441602632,22,5,8.387,41.777941297524,27.230972,10.4241404,45.010828212,-8.052984,1.11847,-2.908022,193.6, -19.2, 0.4,0,0,1684,1024,1024,1024,100,0,0,0,204.6,0,0,99,4.217,4.214,0,0,0,0,6.347,85.1,41.777941297524,27.230972,6,P-GPS,
10400,2023-01-04 19:38:03,-34.9536521030569,-54.9407769031439,27.559056,27.230972,14.875053297524,42.106025297524,24.934384,8.3214168,46.178151084,50.652232592,22,5,8.387,42.106025297524,27.559056,10.4241404,46.178151084,-8.276678,0.894776,-2.013246,193.6, -18.9, 0.2,0,0,1684,1024,1024,1024,100,0,0,0,204.6,0,0,99,4.217,4.214,0,0,0,0,6.347,85.1,42.106025297524,27.559056,6,P-GPS,
10500,2023-01-04 19:38:04,-34.9536552688302,-54.9407764605665,27.559056,27.3293972,14.776628097524,42.106025297524,25.262468,8.2990474,47.297245608,51.814962288,22,5,8.387,42.106025297524,27.559056,10.4241404,47.297245608,-8.276678,0.671082,-1.342164,193.5, -18.5, 0.1,0,0,1684,1024,1024,1024,100,0,0,0,204.6,0,0,99,4.217,4.214,0,0,0,0,6.347,85.1,42.106025297524,27.559056,6,P-GPS,
10600,2023-01-04 19:38:04,-34.9536580748867,-54.9407762459621,27.559056,27.4606308,14.645394497524,42.106025297524,25.262468,8.5227414,48.271327004,52.840552872,22,5,8.415,42.106025297524,27.559056,10.4241404,48.271327004,-8.500372,0.671082,-0.671082,193.5, -18.3, 0.4,0,0,1684,1024,1024,1024,100,0,0,0,204.6,0,0,99,4.262,4.257,0,0,0,0,5.579,85.28,42.106025297524,27.559056,6,P-GPS,
10700,2023-01-04 19:38:04,-34.9536613135231,-54.9407758545181,27.559056,27.5918644,14.514160897524,42.106025297524,25.262468,8.5227414,49.413715492,54.027888868,22,5,8.415,42.106025297524,27.559056,10.4241404,49.413715492,-8.500372,0.447388,-0.223694,193.5, -17.9, 0.7,0,0,1684,1024,1024,1024,100,0,0,0,204.6,0,0,99,4.262,4.257,0,0,0,0,5.579,85.28,42.106025297524,27.559056,6,P-GPS,
10800,2023-01-04 19:38:04,-34.9536646902516,-54.9407755588289,27.559056,27.7559064,14.350118897524,42.106025297524,25.262468,8.7464354,50.595145976,55.263125128,22,5,8.415,42.106025297524,27.559056,10.4241404,50.595145976,-8.724066,0.447388,0,193.4, -18, 0.6,0,0,1684,1024,1024,1024,100,0,0,0,204.6,0,0,99,4.262,4.257,0,0,0,0,5.579,85.28,42.106025297524,27.559056,6,P-GPS,
10900,2023-01-04 19:38:04,-34.953667956324,-54.940775330673,27.230972,27.5262476,14.251693697524,41.777941297524,25.262468,8.724066,51.73392554,56.45669472,20,5,8.415,42.106025297524,27.559056,10.4241404,51.73392554,-8.724066,0.223694,0,193.5, -18.3, 0.6,0,0,1684,1024,1024,1024,100,0,0,0,204.6,0,0,99,4.262,4.257,0,0,0,0,5.579,85.28,41.777941297524,27.230972,6,P-GPS,
11000,2023-01-04 19:38:04,-34.9536710527646,-54.9407752153355,27.230972,27.6574812,14.120460097524,41.777941297524,25.262468,8.94776,52.805775968,57.5869441,20,5,8.415,42.106025297524,27.559056,10.4241404,52.805775968,-8.94776,0.223694,0,193.5, -18.5, 0.5,0,0,1684,1024,1030,1024,100,0,1,0,204.6,0,0,99,4.262,4.257,0,0,0,0,5.579,85.28,41.777941297524,27.230972,6,P-GPS,
11100,2023-01-04 19:38:04,-34.9536744830363,-54.9407750303481,27.230972,27.7559064,14.022034897524,41.777941297524,24.934384,9.171454,54.001314064,58.839896896,21,5,8.415,42.106025297524,27.559056,10.4241404,54.001314064,-9.171454,0,0,193.5, -19.3, 0.7,0,0,1684,1024,1038,1024,100,0,2,0,204.6,0,0,99,4.262,4.257,0,0,0,0,5.579,85.28,41.777941297524,27.230972,6,P-GPS,
11200,2023-01-04 19:38:04,-34.9536781245498,-54.9407748361835,26.902888,27.5918644,13.857992897524,41.449857297524,24.934384,9.395148,55.273295732,60.169621348,21,5,8.415,42.106025297524,27.559056,10.4241404,55.273295732,-9.395148,0,0,193.5, -19.3, 1.3,0,0,1684,1024,1038,1024,100,0,2,0,204.6,0,0,99,4.262,4.257,0,0,0,0,5.579,85.28,41.449857297524,26.902888,6,P-GPS,
11300,2023-01-04 19:38:04,-34.9536816950109,-54.9407747186981,26.902888,27.7559064,13.693950897524,41.449857297524,24.934384,9.618842,56.516077924,61.472770996,21,5,8.415,42.106025297524,27.559056,10.4241404,56.516077924,-9.618842,0,0,193.4, -20, 0.5,0,0,1684,1024,1038,1024,100,0,2,0,204.6,0,0,99,4.262,4.257,0,0,0,0,5.579,85.28,41.449857297524,26.902888,6,P-GPS,
11400,2023-01-04 19:38:04,-34.9536856846336,-54.940774433916,26.902888,27.9199484,13.529908897524,41.449857297524,24.934384,9.842536,57.922245948,62.930776292,21,5,8.415,42.106025297524,27.559056,10.4241404,57.922245948,-9.842536,-0.223694,0,193.3, -19.9, 0.1,0,0,1684,1024,1024,1024,100,0,0,0,204.6,0,0,99,4.262,4.257,0,0,0,0,5.579,85.28,41.449857297524,26.902888,6,P-GPS,
11500,2023-01-04 19:38:05,-34.9536895907757,-54.9407744313029,26.902888,28.051182,13.398675297524,41.449857297524,24.934384,10.06623,59.275592448,64.355973188,21,5,8.415,42.106025297524,27.559056,10.4241404,59.275592448,-10.06623,-0.223694,0,193.4, -20, 0.1,0,0,1684,1024,1024,1024,100,0,0,0,204.6,0,0,99,4.262,4.257,0,0,0,0,5.579,85.28,41.449857297524,26.902888,6,P-GPS,
11600,2023-01-04 19:38:05,-34.9536936669013,-54.9407745311917,26.574804,27.9199484,13.201824897524,41.121773297524,24.934384,10.289924,60.68241664,65.843506044,21,5,8.5,42.106025297524,27.559056,10.4241404,60.68241664,-10.289924,-0.447388,0,193.5, -19.7, 0.4,0,0,1684,1024,1067,1024,100,0,7,0,204.6,0,0,99,4.236,4.234,0,0,0,0,3.617,85.28,41.121773297524,26.574804,6,P-GPS,
11700,2023-01-04 19:38:05,-34.9536978305199,-54.940774682611,26.574804,28.051182,13.070591297524,41.121773297524,24.934384,10.513618,62.118768392,67.363191132,20,5,8.5,42.106025297524,27.559056,10.513618,62.118768392,-10.513618,-0.447388,0,193.5, -19.7, 0.9,0,0,1684,1024,1556,1024,100,0,81,0,204.6,0,0,99,4.236,4.234,0,0,0,0,3.617,85.28,41.121773297524,26.574804,6,P-GPS,
11800,2023-01-04 19:38:05,-34.9537009227266,-54.9407751646829,26.574804,28.1824156,12.939357697524,41.121773297524,25.262468,10.7596814,63.15617,68.50065836,20,5,8.5,42.106025297524,27.559056,10.7596814,63.15617,-10.737312,-0.671082,0,193.5, -19.3, 0.5,0,0,1684,1024,1684,1024,100,0,100,0,204.6,0,0,99,4.236,4.234,0,0,0,0,3.617,85.28,41.121773297524,26.574804,6,P-GPS,
11900,2023-01-04 19:38:05,-34.9537047418447,-54.9407755460195,26.574804,28.3464576,12.775315697524,41.121773297524,25.262468,10.9833754,64.4603039,69.898624284,21,5,8.5,42.106025297524,27.559056,10.9833754,64.4603039,-10.961006,-0.671082,-0.671082,193.4, -19.5, 0.9,0,0,1684,1024,1651,1024,100,0,95,0,204.6,0,0,99,4.236,4.234,0,0,0,0,3.617,85.28,41.121773297524,26.574804,6,P-GPS,
12000,2023-01-04 19:38:05,-34.9537094847855,-54.9407758813495,26.574804,28.5104996,12.611273697524,41.121773297524,25.590552,11.4531328,66.096130724,71.63222014,21,5,8.5,42.106025297524,27.559056,11.4531328,66.096130724,-11.408394,-0.894776,-1.342164,193.6, -19.6, 0.9,0,0,1684,1024,1024,1024,100,0,0,0,204.6,0,0,99,4.236,4.234,0,0,0,0,3.617,85.28,41.121773297524,26.574804,6,P-GPS,
12100,2023-01-04 19:38:05,-34.9537141428519,-54.9407762821955,26.902888,29.035434,12.414423297524,41.449857297524,25.590552,11.6768268,67.70177382,73.335960352,21,5,8.5,42.106025297524,27.559056,11.6768268,67.70177382,-11.632088,-1.11847,-2.013246,193.5, -20.9, 0.3,0,0,1684,1024,1024,1024,100,0,0,0,204.6,0,0,99,4.236,4.234,0,0,0,0,3.617,85.28,41.449857297524,26.902888,6,P-GPS,
12200,2023-01-04 19:38:05,-34.953719044312,-54.9407767706069,27.230972,29.5931768,12.184764497524,41.777941297524,25.918636,11.9005208,69.39140642,75.129923664,21,5,8.5,42.106025297524,27.559056,11.9005208,69.39140642,-11.855782,-1.11847,-1.789552,193.5, -21.6, 0.4,0,0,1684,1024,1024,1024,100,0,0,0,204.6,0,0,99,4.236,4.234,0,0,0,0,3.617,85.28,41.777941297524,27.230972,6,P-GPS,
12300,2023-01-04 19:38:05,-34.9537243677345,-54.9407771247095,27.559056,30.1181112,11.987914097524,42.106025297524,26.24672,11.9005208,71.24508102,77.0751337,21,5,8.5,42.106025297524,27.559056,11.9005208,71.24508102,-11.855782,-1.11847,-1.342164,193.4, -20.7, 0.5,0,0,1684,1024,1024,1024,100,0,0,0,204.6,0,0,99,4.236,4.234,0,0,0,0,3.617,85.28,42.106025297524,27.559056,6,P-GPS,
12400,2023-01-04 19:38:06,-34.9537293437643,-54.9407777176453,27.559056,30.3149616,11.791063697524,42.106025297524,26.902888,12.1465842,72.963585012,78.89928074,21,5,8.5,42.106025297524,27.559056,12.1465842,72.963585012,-12.079476,-1.342164,-0.894776,193.4, -20.1, 0.8,0,0,1684,1024,1024,1024,100,0,0,0,204.6,0,0,99,4.236,4.234,0,0,0,0,3.617,85.28,42.106025297524,27.559056,6,P-GPS,
12500,2023-01-04 19:38:06,-34.9537341243678,-54.9407783167794,27.559056,30.5446204,11.561404897524,42.106025297524,27.230972,12.1465842,74.617128372,80.652561636,20,5,8.5,42.106025297524,27.559056,12.1465842,74.617128372,-12.079476,-1.342164,-0.447388,193.5, -20.2, 1.1,0,0,1684,1024,1024,1024,100,0,0,0,204.6,0,0,99,4.236,4.234,0,0,0,0,3.617,85.28,42.106025297524,27.559056,6,P-GPS,
12600,2023-01-04 19:38:06,-34.9537391996545,-54.9407790206208,27.559056,30.7414708,11.364554497524,42.106025297524,27.230972,12.3702782,76.37303394,82.51640684,20,5,8.466,42.106025297524,27.559056,12.3702782,76.37303394,-12.30317,-1.342164,-0.223694,193.5, -20.6, 0.5,0,0,1684,1024,1024,1024,100,0,0,0,204.6,0,0,99,4.239,4.229,0,0,0,0,4.984,85.28,42.106025297524,27.559056,6,P-GPS,
12700,2023-01-04 19:38:06,-34.9537441659267,-54.9407797968977,27.559056,30.9711296,11.134895697524,42.106025297524,27.230972,12.6163416,78.090225596,84.343178552,21,5,8.466,42.106025297524,27.559056,12.6163416,78.090225596,-12.526864,-1.565858,0,193.6, -20.7, 1.3,0,0,1684,1024,1086,1024,100,0,9,0,204.6,0,0,99,4.239,4.229,0,0,0,0,4.984,85.28,42.106025297524,27.559056,6,P-GPS,
12800,2023-01-04 19:38:06,-34.953749285937,-54.9407805041989,27.559056,31.2007884,10.905236897524,42.106025297524,27.230972,12.8847744,79.871721716,86.223099872,21,5,8.466,42.106025297524,27.559056,12.8847744,79.871721716,-12.750558,-1.789552,0,193.4, -19.6, 1.1,0,0,1684,1024,1469,1024,100,0,67,0,204.6,0,0,99,4.239,4.229,0,0,0,0,4.984,85.28,42.106025297524,27.559056,6,P-GPS,
12900,2023-01-04 19:38:06,-34.9537542299972,-54.9407812577469,27.559056,31.3976388,10.708386497524,42.106025297524,27.559056,12.8847744,81.591866128,88.041013316,21,5,8.466,42.106025297524,27.559056,12.8847744,81.591866128,-12.750558,-1.789552,0,193.5, -19.3, 0.7,0,0,1684,1024,1632,1024,100,0,92,0,204.6,0,0,99,4.239,4.229,0,0,0,0,4.984,85.28,42.106025297524,27.559056,6,P-GPS,
13000,2023-01-04 19:38:06,-34.9537595605849,-54.9407821835826,27.559056,31.660106,10.445919297524,42.106025297524,27.559056,13.3545318,83.444556476,90.005252224,21,5,8.466,42.106025297524,27.559056,13.3545318,83.444556476,-13.197946,-2.013246,-0.447388,193.6, -19.3, 0.2,0,0,1684,1024,1684,1024,100,0,100,0,204.6,0,0,99,4.239,4.229,0,0,0,0,4.984,85.28,42.106025297524,27.559056,6,P-GPS,
13100,2023-01-04 19:38:06,-34.9537645397673,-54.9407829436268,27.88714,32.1850404,10.249068897524,42.434109297524,27.88714,13.6005952,85.185698264,91.836289028,21,5,8.466,42.434109297524,27.88714,13.6005952,85.185698264,-13.42164,-2.23694,-1.11847,193.5, -18.7, 0.5,0,0,1684,1024,1684,1024,100,0,100,0,204.6,0,0,99,4.239,4.229,0,0,0,0,4.984,85.28,42.434109297524,27.88714,6,P-GPS,
13200,2023-01-04 19:38:06,-34.9537701645432,-54.9407841956728,28.215224,32.7427832,10.019410097524,42.762193297524,28.215224,14.092722,87.13582956,93.9222471,21,5,8.466,42.762193297524,28.215224,14.092722,87.13582956,-13.869028,-2.460634,-2.013246,193.6, -20.4, -0.5,0,0,1684,1024,1684,1024,100,0,100,0,204.6,0,0,99,4.239,4.229,0,0,0,0,4.984,85.28,42.762193297524,28.215224,6,P-GPS,
13300,2023-01-04 19:38:06,-34.9537756613103,-54.940785455302,28.543308,33.3333344,9.756942897524,43.090277297524,28.543308,14.5624794,89.045606524,95.96292958,20,5,8.466,43.090277297524,28.543308,14.5624794,89.045606524,-14.316416,-2.684328,-2.684328,193.6, -20, -1.4,0,0,1024,1024,1684,1024,0,0,100,0,204.6,0,0,99,4.239,4.229,0,0,0,0,4.984,85.28,43.090277297524,28.543308,6,P-GPS,
13400,2023-01-04 19:38:07,-34.9537816752712,-54.940786769817,29.199476,34.284778,9.461667297524,43.746445297524,29.199476,15.0098674,91.14501604,98.191932276,20,5,8.466,43.746445297524,29.199476,15.0098674,91.14501604,-14.763804,-2.684328,-3.35541,193.7, -17.6, -0.7,0,0,1024,1024,1684,1024,0,0,100,0,204.6,0,0,99,4.239,4.229,0,0,0,0,4.984,85.28,43.746445297524,29.199476,6,P-GPS,
13500,2023-01-04 19:38:07,-34.9537874647674,-54.9407880826022,29.855644,35.1706048,9.232008497524,44.402613297524,29.855644,14.7414346,93.16929432,100.340554392,21,5,8.466,44.402613297524,29.855644,15.0098674,93.16929432,-14.54011,-2.460634,-4.250186,193.1, 8.2, 0.4,0,0,1024,1024,1684,1024,0,0,100,0,204.6,0,0,99,4.239,4.229,0,0,0,0,4.984,85.28,44.402613297524,29.855644,6,P-GPS,
13600,2023-01-04 19:38:07,-34.9537931494961,-54.9407892133946,30.511812,36.1220484,8.936732897524,45.058781297524,30.511812,13.1755766,95.169294384,102.441932412,21,5,8.429,45.058781297524,30.511812,15.0098674,95.169294384,-12.974252,-2.23694,-5.816044,193.5, 23.7, 0.5,0,0,1024,1024,1684,1024,0,0,100,0,204.6,0,0,99,4.161,4.147,0,0,0,0,5.24,85.28,45.058781297524,30.511812,6,P-GPS,
13700,2023-01-04 19:38:07,-34.9537978774031,-54.9407901237136,31.16798,37.0078752,8.707074097524,45.714949297524,31.496064,11.3189164,96.836945356,104.188323544,21,5,8.429,45.714949297524,31.16798,15.0098674,96.836945356,-11.1847,-1.789552,-6.263432,194, 25.6, 1.3,0,0,1024,1024,1684,1024,0,0,100,0,204.6,0,0,99,4.161,4.147,0,0,0,0,5.24,85.28,45.714949297524,31.16798,31,Sport,"Error de calibración del estabilizador. Reinicia la aeronave o contacta con la Asistencia DJI (Code: 40011)"
13800,2023-01-04 19:38:07,-34.9538021137285,-54.9407909811275,31.824148,37.8280852,8.543032097524,46.371117297524,32.480316,9.2609316,98.332024144,105.754924644,21,5,8.429,46.371117297524,31.824148,15.0098674,98.332024144,-9.171454,-1.342164,-6.934514,194.4, 33.2, 2.8,0,0,1024,1024,1684,1024,0,0,100,0,204.6,0,0,99,4.161,4.147,0,0,0,0,5.24,85.28,46.371117297524,31.824148,31,Sport,
13900,2023-01-04 19:38:07,-34.9538052543326,-54.9407915891096,32.8084,38.9763792,8.378990097524,47.355369297524,33.792652,6.5542342,99.442916568,106.915029668,22,5,8.429,47.355369297524,32.8084,15.0098674,99.442916568,-6.487126,-0.894776,-8.052984,194.1, 27.2, 2.7,0,0,1684,1684,1684,1024,100,100,100,0,204.6,0,0,99,4.161,4.147,0,0,0,0,5.24,85.28,47.355369297524,32.8084,31,Sport,
14000,2023-01-04 19:38:07,-34.9538083499134,-54.9407919950146,34.120736,40.4199488,8.247756497524,48.667705297524,34.776904,4.2725554,100.546591144,108.05118456,22,5,8.429,48.667705297524,34.120736,15.0098674,100.546591144,-4.250186,-0.447388,-8.94776,193.7, 20.1, 2.7,0,0,1684,1100,1684,1024,100,12,100,0,204.6,0,0,99,4.161,4.147,0,0,0,0,5.24,85.28,48.667705297524,34.120736,31,Sport,
14100,2023-01-04 19:38:07,-34.9538101037607,-54.940792266982,35.433072,41.7979016,8.182139697524,49.980041297524,36.417324,3.1540854,101.170606912,108.696197704,22,5,8.429,49.980041297524,35.433072,15.0098674,101.170606912,-3.131716,-0.447388,-9.395148,192.9, -1.4, 8.6,0,0,1684,1100,1684,1024,100,12,100,0,204.6,0,0,99,4.161,4.147,0,0,0,0,5.24,85.28,49.980041297524,35.433072,31,Sport,
14200,2023-01-04 19:38:07,-34.953811089295,-54.9407926672269,37.073492,43.5039384,8.116522897524,51.620461297524,37.72966,3.0422384,101.511814272,109.075134724,22,5,8.429,51.620461297524,37.073492,15.0098674,101.511814272,-2.908022,-0.894776,-9.842536,190.5, -17.3, 13,0,0,1684,1024,1684,1024,100,0,100,0,204.6,0,0,99,4.161,4.147,0,0,0,0,5.24,85.28,51.620461297524,37.073492,31,Sport,
14300,2023-01-04 19:38:07,-34.9538121454125,-54.9407933770524,38.713912,45.2099752,8.050906097524,53.260881297524,39.37008,3.914645,101.867129244,109.515095368,21,5,8.429,53.260881297524,38.713912,15.0098674,101.867129244,-3.579104,-1.565858,-10.289924,190.8, -23.7, 2.2,0,0,1684,1034,1684,1024,100,2,100,0,204.6,0,0,99,4.161,4.147,0,0,0,0,5.24,85.28,53.260881297524,38.713912,31,Sport,
14400,2023-01-04 19:38:07,-34.9538120279561,-54.9407947398316,40.682416,47.2112876,8.018097697524,55.229385297524,40.682416,3.914645,101.774609556,109.924872284,21,5,8.429,55.229385297524,40.682416,15.0098674,101.867129244,-4.697574,-2.013246,-10.513618,192.7, -22.4, -2.2,0,0,1684,1117,1684,1024,100,14,100,0,204.6,0,0,99,4.161,4.147,0,0,0,0,5.24,85.28,55.229385297524,40.682416,31,Sport,
14500,2023-01-04 19:38:08,-34.9538136341491,-54.9407958711335,42.322836,48.9829412,7.886864097524,56.869805297524,42.322836,6.2410626,102.31627624,110.601381492,23,5,8.429,56.869805297524,42.322836,15.0098674,102.31627624,-5.816044,-2.23694,-10.737312,193.4, -20.4, -2.2,0,0,1684,1077,1684,1024,100,8,100,0,204.6,0,0,99,4.161,4.147,0,0,0,0,5.24,85.28,56.869805297524,42.322836,31,Sport,
14600,2023-01-04 19:38:08,-34.9538155797879,-54.9407970009931,44.29134,51.0498704,7.788438897524,58.838309297524,42.65092,6.934514,102.982942928,111.387470756,23,5,8.314,58.838309297524,44.29134,15.0098674,102.982942928,-6.487126,-2.460634,-10.961006,193.6, -19.8, -0.1,0,0,1684,1024,1684,1024,100,0,100,0,204.6,0,0,99,4.121,4.116,0,0,0,0,8.505,85.46,58.838309297524,44.29134,31,Sport,
14700,2023-01-04 19:38:08,-34.9538176463745,-54.9407981510911,46.259844,53.1167996,7.690013697524,60.806813297524,42.65092,7.6503348,103.693900956,112.21621094,23,5,8.314,60.806813297524,46.259844,15.0098674,103.693900956,-7.158208,-2.684328,-10.961006,193.8, -21.4, -0.8,0,0,1684,1024,1684,1024,100,0,100,0,204.6,0,0,99,4.121,4.116,0,0,0,0,8.505,85.46,60.806813297524,46.259844,31,Sport,
14800,2023-01-04 19:38:08,-34.953820235392,-54.9408003432848,48.228348,55.2493456,7.525971697524,62.775317297524,42.65092,8.3437862,104.564635892,113.36614536,23,5,8.314,62.775317297524,48.228348,15.0098674,104.564635892,-7.82929,-2.908022,-11.1847,193.5, -21.7, -2,0,0,1684,1024,1684,1024,100,0,100,0,204.6,0,0,99,4.121,4.116,0,0,0,0,8.505,85.46,62.775317297524,48.228348,31,Sport,
14900,2023-01-04 19:38:08,-34.9538231907704,-54.9408020203898,50.524936,57.7099756,7.361929697524,65.071905297524,42.65092,8.9924988,105.587929888,114.555121776,22,5,8.314,65.071905297524,50.524936,15.0098674,105.587929888,-8.500372,-2.908022,-10.961006,193.7, -22.5, -2.4,0,0,1684,1024,1684,1024,100,0,100,0,204.6,0,0,99,4.121,4.116,0,0,0,0,8.505,85.46,65.071905297524,50.524936,31,Sport,
15000,2023-01-04 19:38:08,-34.953826934524,-54.9408037571758,52.49344,59.9081384,7.132270897524,67.040409297524,42.65092,9.6859502,106.899937804,116.016735996,22,5,8.314,67.040409297524,52.49344,15.0098674,106.899937804,-9.171454,-3.131716,-10.961006,193.9, -23.8, -3.5,0,0,1684,1024,1684,1024,100,0,100,0,204.6,0,0,99,4.121,4.116,0,0,0,0,8.505,85.46,67.040409297524,52.49344,31,Sport,
15100,2023-01-04 19:38:08,-34.9538307625399,-54.9408054477645,54.461944,62.0734928,6.935420497524,69.008913297524,42.65092,10.1109688,108.247378792,117.501972264,21,5,8.314,69.008913297524,54.461944,15.0098674,108.247378792,-9.618842,-3.131716,-10.961006,193.9, -23.4, -2.8,0,0,1684,1024,1684,1024,100,0,100,0,204.6,0,0,99,4.121,4.116,0,0,0,0,8.505,85.46,69.008913297524,54.461944,31,Sport,
15200,2023-01-04 19:38:08,-34.9538361380205,-54.9408078480637,56.758532,64.6981648,6.607336497524,71.305501297524,42.65092,10.8267896,110.144688564,119.590226924,21,5,8.314,71.305501297524,56.758532,15.0098674,110.144688564,-10.289924,-3.35541,-10.961006,194.3, -24.4, -2.7,0,0,1024,1024,1684,1024,0,0,100,0,204.6,0,0,99,4.121,4.116,0,0,0,0,8.505,85.46,71.305501297524,56.758532,31,Sport,
15300,2023-01-04 19:38:08,-34.9538403955287,-54.9408096427064,58.727036,66.8963276,6.377677697524,73.274005297524,42.65092,11.4531328,111.654859216,121.233927764,22,5,8.314,73.274005297524,58.727036,15.0098674,111.654859216,-10.961006,-3.35541,-10.961006,193.8, -14.8, -1.9,0,0,1024,1024,1684,1024,0,0,100,0,204.6,0,0,99,4.121,4.116,0,0,0,0,8.505,85.46,73.274005297524,58.727036,31,Sport,
15400,2023-01-04 19:38:08,-34.9538448329474,-54.9408113869005,60.367456,68.7664064,6.148018897524,74.914425297524,42.65092,11.2518082,113.23491176,122.93471522,22,5,8.314,74.914425297524,60.367456,15.0098674,113.23491176,-10.737312,-3.35541,-11.632088,193.2, 15.5, -1.7,0,0,1024,1024,1684,1024,0,0,100,0,204.6,0,0,99,4.121,4.116,0,0,0,0,8.505,85.46,74.914425297524,60.367456,31,Sport,
15500,2023-01-04 19:38:09,-34.9538486914478,-54.9408129115097,62.007876,70.6692936,5.885551697524,76.554845297524,42.65092,9.4175174,114.611552224,124.41437406,23,5,8.314,76.554845297524,62.007876,15.0098674,114.611552224,-8.94776,-2.908022,-12.30317,192.8, 31.9, -2.5,0,0,1024,1024,1684,1024,0,0,100,0,204.6,0,0,99,4.121,4.116,0,0,0,0,8.505,85.46,76.554845297524,62.007876,31,Sport,
15600,2023-01-04 19:38:09,-34.953852029289,-54.9408141677183,63.648296,72.4737556,5.721509697524,78.195265297524,42.65092,7.493749,115.8054499,125.6889804,23,5,8.314,78.195265297524,63.648296,15.0098674,115.8054499,-7.158208,-2.23694,-12.30317,193.1, 24.3, -2.3,0,0,1024,1024,1684,1024,0,0,100,0,204.6,0,0,99,4.121,4.116,0,0,0,0,8.505,85.46,78.195265297524,63.648296,6,P-GPS,"Error de calibración del estabilizador. Reinicia la aeronave o contacta con la Asistencia DJI (Code: 40011)"
15700,2023-01-04 19:38:09,-34.953854867732,-54.9408148718158,64.960632,73.9501336,5.557467697524,79.507601297524,42.65092,6.3081708,116.828087728,126.745738964,22,5,8.269,79.507601297524,64.960632,15.0098674,116.828087728,-6.039738,-1.789552,-11.632088,193.5, 20.8, -1.7,0,0,1024,1024,1684,1024,0,0,100,0,204.6,0,0,99,4.107,4.1,0,0,0,0,8.394,85.46,79.507601297524,64.960632,6,P-GPS,
15800,2023-01-04 19:38:09,-34.9538576980458,-54.940815393709,66.272968,75.3937032,5.426234097524,80.819937297524,42.65092,5.1673314,117.85105364,127.790030336,22,5,8.269,80.819937297524,66.272968,15.0098674,117.85105364,-4.921268,-1.565858,-10.737312,193.4, 19.2, -1.5,0,0,1024,1024,1684,1024,0,0,100,0,204.6,0,0,99,4.107,4.1,0,0,0,0,8.394,85.46,80.819937297524,66.272968,6,P-GPS,
