time(millisecond),datetime(utc),latitude,longitude,height_above_takeoff(feet),height_above_ground_at_drone_location(feet),ground_elevation_at_drone_location(feet),altitude_above_seaLevel(feet),height_sonar(feet),speed(mph),distance(feet),mileage(feet),satellites,gpslevel,voltage(v),max_altitude(feet),max_ascent(feet),max_speed(mph),max_distance(feet), xSpeed(mph), ySpeed(mph), zSpeed(mph), compass_heading(degrees), pitch(degrees), roll(degrees),isPhoto,isVideo,rc_elevator,rc_aileron,rc_throttle,rc_rudder,rc_elevator(percent),rc_aileron(percent),rc_throttle(percent),rc_rudder(percent),gimbal_heading(degrees),gimbal_pitch(degrees),gimbal_roll(degrees),battery_percent,voltageCell1,voltageCell2,voltageCell3,voltageCell4,voltageCell5,voltageCell6,current(A),battery_temperature(f),altitude(feet),ascent(feet),flycStateRaw,flycState,message
27900,2023-03-29 16:25:15,-34.9537895009154,-54.9408349047263,0,0,14.583542461424,14.583542461424,0.328084,0,0,0,24,5,0,14.583542461424,0,0,0,0,0,0,190.2, 0.8, 8.4,0,0,364,364,364,1684,-100,-100,-100,100,201.5,0,0,91,4.258,4.257,0,0,0,0,0,99.32,14.583542461424,0,41,Motors_Started,
28000,2023-03-29 16:25:15,-34.9537895016661,-54.9408349100656,0,0,14.583542461424,14.583542461424,0.328084,0,0.0016199475584,0.0016199475584,24,5,0,14.583542461424,0,0,0.0016199475584,0,0,0,190.2, 0.8, 8.4,0,0,364,364,364,1684,-100,-100,-100,100,201.5,0,0,91,4.258,4.257,0,0,0,0,0,99.32,14.583542461424,0,41,Motors_Started,"Error de calibración del estabilizador. Reinicia la aeronave o contacta con la Asistencia DJI (Code: 40011)"
28100,2023-03-29 16:25:15,-34.953789496574,-54.940834914015,0,-0.065616800000002,14.649159261424,14.583542461424,0.328084,0,0.00319752962988,0.0038214240068,24,5,0,14.583542461424,0,0,0.00319752962988,0,0,0,190.2, 0.9, 8.4,0,0,364,364,364,1684,-100,-100,-100,100,201.5,0,0,91,4.258,4.257,0,0,0,0,0,99.32,14.583542461424,0,41,Motors_Started,
28200,2023-03-29 16:25:15,-34.9537894360838,-54.9408349424815,0,-0.065616800000002,14.649159261424,14.583542461424,0.328084,0,0.0262100730172,0.0274759851312,24,5,0,14.583542461424,0,0,0.0262100730172,0,0,0,190.2, 0.8, 8.4,0,0,364,364,364,1684,-100,-100,-100,100,201.5,0,0,91,4.258,4.257,0,0,0,0,0,99.32,14.583542461424,0,41,Motors_Started,
28300,2023-03-29 16:25:15,-34.9537894313125,-54.9408349453465,0,-0.065616800000002,14.649159261424,14.583542461424,0.328084,0,0.0281501649428,0.0294162082904,24,5,0,14.583542461424,0,0,0.0281501649428,0,0,0,190.2, 0.9, 8.4,0,0,364,364,364,1684,-100,-100,-100,100,201.5,0,0,91,4.258,4.257,0,0,0,0,0,99.32,14.583542461424,0,41,Motors_Started,
28400,2023-03-29 16:25:15,-34.9537894268733,-54.9408349481422,0,-0.065616800000002,14.649159261424,14.583542461424,0.328084,0,0.0299720482032,0.0312388789524,24,5,8.534,14.583542461424,0,0,0.0299720482032,0,0,0,190.2, 0.8, 8.4,0,0,364,364,364,1684,-100,-100,-100,100,201.5,0,0,91,4.258,4.257,0,0,0,0,0.595,99.32,14.583542461424,0,41,Motors_Started,
28500,2023-03-29 16:25:15,-34.9537894244909,-54.9408349493606,0,-0.065616800000002,14.649159261424,14.583542461424,0.328084,0,0.0309133540076,0.0321813658592,24,5,8.534,14.583542461424,0,0,0.0309133540076,0,0,0,190.2, 0.8, 8.4,0,0,888,896,1008,1024,-21,-19,-2,0,201.5,0,0,91,4.258,4.257,0,0,0,0,0.595,99.32,14.583542461424,0,41,Motors_Started,
28600,2023-03-29 16:25:15,-34.9537894048861,-54.940834951439,0,-0.065616800000002,14.649159261424,14.583542461424,0.328084,0,0.03771817706,0.039361221732,24,5,8.534,14.583542461424,0,0,0.03771817706,0,0,0,190.2, 0.8, 8.4,0,0,1024,1024,1024,1024,0,0,0,0,201.5,0,0,91,4.258,4.257,0,0,0,0,0.595,99.32,14.583542461424,0,41,Motors_Started,"Setting new Return-To-Home altitude to 60m (197 ft). Data Recorder File Index is 4. Setting new Maximum Flight Altitude to 120m (394 ft)"
28700,2023-03-29 16:25:15,-34.9537894049284,-54.9408349512485,0,-0.065616800000002,14.649159261424,14.583542461424,0.328084,0,0.037682743988,0.039420276852,24,5,8.534,14.583542461424,0,0,0.03771817706,0,0,0,190.2, 0.8, 8.4,0,0,1024,1024,1024,1024,0,0,0,0,201.5,0,0,91,4.258,4.257,0,0,0,0,0.595,99.32,14.583542461424,0,41,Motors_Started,
28800,2023-03-29 16:25:16,-34.9537894049268,-54.9408349506351,0,-0.065616800000002,14.649159261424,14.583542461424,0.328084,0,0.037616142936,0.039603675808,24,5,8.534,14.583542461424,0,0,0.03771817706,0,0,0,190.2, 0.7, 8.4,0,0,1024,1024,1024,1024,0,0,0,0,201.5,0,0,91,4.258,4.257,0,0,0,0,0.595,99.32,14.583542461424,0,41,Motors_Started,
28900,2023-03-29 16:25:16,-34.9537894056775,-54.9408349473511,0,-0.065616800000002,14.649159261424,14.583542461424,0.328084,0,0.037011484124,0.040623032796,24,5,8.534,14.583542461424,0,0,0.03771817706,0,0,0,190.2, 0.8, 8.4,0,0,1024,1024,1024,1024,0,0,0,0,201.5,0,0,91,4.258,4.257,0,0,0,0,0.595,99.32,14.583542461424,0,41,Motors_Started,
29000,2023-03-29 16:25:16,-34.9537893926581,-54.9408349439746,0,-0.065616800000002,14.649159261424,14.583542461424,0.328084,0,0.041204397644,0.045479332164,24,5,8.534,14.583542461424,0,0,0.041204397644,0,0,0,190.2, 0.8, 8.4,0,0,1024,1024,1024,1024,0,0,0,0,201.5,0,0,91,4.258,4.257,0,0,0,0,0.595,99.32,14.583542461424,0,10,Assisted_Takeoff,
29100,2023-03-29 16:25:16,-34.9537893417171,-54.9408349437607,0,-0.065616800000002,14.649159261424,14.583542461424,0.328084,0,0.059244752552,0.064065290764,24,5,8.534,14.583542461424,0,0,0.059244752552,0,0,0,190.2, 0.8, 8.4,0,0,1024,1024,1024,1024,0,0,0,0,201.5,0,0,91,4.258,4.257,0,0,0,0,0.595,99.32,14.583542461424,0,10,Assisted_Takeoff,
29200,2023-03-29 16:25:16,-34.9537892961988,-54.9408349432295,0,-0.065616800000002,14.649159261424,14.583542461424,0.328084,0,0.075572837064,0.080673230928,24,5,8.534,14.583542461424,0,0,0.075572837064,0,0,0,190.2, 0.9, 8.4,0,0,1024,1024,1024,1024,0,0,0,0,201.5,0,0,91,4.258,4.257,0,0,0,0,0.595,99.32,14.583542461424,0,10,Assisted_Takeoff,
29300,2023-03-29 16:25:16,-34.9537893330049,-54.9408349425518,0,-0.065616800000002,14.649159261424,14.583542461424,0.328084,0,0.062297574172,0.094103677552,24,5,8.534,14.583542461424,0,0,0.075572837064,0,0,0,190.2, 0.8, 8.3,0,0,1101,1024,1024,1024,12,0,0,0,201.5,0,0,91,4.258,4.257,0,0,0,0,0.595,99.32,14.583542461424,0,10,Assisted_Takeoff,
29400,2023-03-29 16:25:16,-34.9537893698875,-54.9408349414892,0,-0.065616800000002,14.649159261424,14.583542461424,0.328084,0,0.049053151176,0.10756397982,24,5,8.504,14.583542461424,0,0,0.075572837064,0,0,0,190.2, 0.8, 8.4,0,0,1101,1024,1024,1024,12,0,0,0,201.5,0,0,91,4.254,4.252,0,0,0,0,1.332,99.32,14.583542461424,0,10,Assisted_Takeoff,
29500,2023-03-29 16:25:16,-34.953789407402,-54.9408349351671,0,-0.065616800000002,14.649159261424,14.583542461424,0.328084,0,0.03531168092,0.121380909396,24,5,8.504,14.583542461424,0,0,0.075572837064,0,0,0,190.2, 0.8, 8.4,0,0,1275,1024,1024,1024,38,0,0,0,201.5,0,0,91,4.254,4.252,0,0,0,0,1.332,99.32,14.583542461424,0,10,Assisted_Takeoff,
29600,2023-03-29 16:25:16,-34.9537894429835,-54.9408349264752,0,-0.065616800000002,14.649159261424,14.583542461424,0.328084,0,0.0221144035948,0.134620411132,24,5,8.504,14.583542461424,0,0,0.075572837064,0,0,0,190.2, 0.8, 8.4,0,0,1087,1024,1024,1024,10,0,0,0,201.5,0,0,91,4.254,4.252,0,0,0,0,1.332,99.32,14.583542461424,0,10,Assisted_Takeoff,
29700,2023-03-29 16:25:17,-34.9537894498897,-54.9408348737342,0,-0.065616800000002,14.649159261424,14.583542461424,0.328084,0,0.0207959652324,0.150591868336,24,5,8.504,14.583542461424,0,0,0.075572837064,0,0,0,190.2, 0.8, 8.4,0,0,1024,1024,1024,1024,0,0,0,0,201.5,0,0,91,4.254,4.252,0,0,0,0,1.332,99.32,14.583542461424,0,10,Assisted_Takeoff,
29800,2023-03-29 16:25:17,-34.9537894559899,-54.9408348236565,0,-0.065616800000002,14.649159261424,14.583542461424,0.328084,0,0.029263944506,0.1657316326,24,5,8.504,14.583542461424,0,0,0.075572837064,0,0,0,190.2, 0.8, 8.4,0,0,1148,1024,1024,1024,19,0,0,0,201.5,0,0,91,4.254,4.252,0,0,0,0,1.332,99.32,14.583542461424,0,10,Assisted_Takeoff,
29900,2023-03-29 16:25:17,-34.9537894266958,-54.9408347386814,0,-0.065616800000002,14.649159261424,14.583542461424,0.328084,0,0.056557416508,0.193298234532,24,5,8.504,14.583542461424,0,0,0.075572837064,0,0,0,190.2, 0.8, 8.4,0,0,1449,1024,1024,1024,64,0,0,0,201.5,0,0,91,4.254,4.252,0,0,0,0,1.332,99.32,14.583542461424,0,10,Assisted_Takeoff,
30000,2023-03-29 16:25:17,-34.9537894248524,-54.9408347231236,0,-0.065616800000002,14.649159261424,14.583542461424,0.328084,0,0.060985566256,0.197999022084,24,5,8.504,14.583542461424,0,0,0.075572837064,0,0,0,190.2, 0.8, 8.4,0,0,1130,1024,1024,1024,16,0,0,0,201.5,0,0,91,4.254,4.252,0,0,0,0,1.332,99.32,14.583542461424,0,10,Assisted_Takeoff,
30100,2023-03-29 16:25:17,-34.9537894215548,-54.9408347235322,0,-0.065616800000002,14.649159261424,14.583542461424,0.328084,0,0.061434713252,0.199208339708,24,5,8.504,14.583542461424,0,0,0.075572837064,0,0,0,190.2, 0.9, 8.4,0,0,1024,1024,1024,1024,0,0,0,0,201.5,0,0,91,4.254,4.252,0,0,0,0,1.332,99.32,14.583542461424,0,10,Assisted_Takeoff,
30200,2023-03-29 16:25:17,-34.9537894179283,-54.9408347231007,0,-0.065616800000002,14.649159261424,14.583542461424,0.328084,0,0.062182088604,0.200537736076,24,5,8.504,14.583542461424,0,0,0.075572837064,0,0,0,190.2, 0.9, 8.4,0,0,1024,1024,1024,1024,0,0,0,0,201.5,0,0,91,4.254,4.252,0,0,0,0,1.332,99.32,14.583542461424,0,10,Assisted_Takeoff,
30300,2023-03-29 16:25:17,-34.9537894015933,-54.9408346600571,0,-0.065616800000002,14.649159261424,14.583542461424,0.328084,0,0.081647312324,0.220309718336,24,5,8.504,14.583542461424,0,0,0.081647312324,0,0,0,190.2, 0.7, 8.4,0,0,1302,1024,1024,1024,42,0,0,0,201.5,0,0,91,4.254,4.252,0,0,0,0,1.332,99.32,14.583542461424,0,10,Assisted_Takeoff,
30400,2023-03-29 16:25:17,-34.953789404663,-54.9408346185433,0,-0.065616800000002,14.649159261424,14.583542461424,0.328084,0,0.092504268052,0.232774285664,24,5,8.512,14.583542461424,0,0,0.092504268052,0,0,0,190.2, 0.8, 8.4,0,0,1452,1024,1024,1024,65,0,0,0,201.5,0,0,91,4.257,4.255,0,0,0,0,1.253,99.32,14.583542461424,0,10,Assisted_Takeoff,
30500,2023-03-29 16:25:17,-34.9537894551203,-54.9408346087464,0,-0.065616800000002,14.649159261424,14.583542461424,0.328084,0,0.090071853276,0.251415034292,24,5,8.512,14.583542461424,0,0,0.092504268052,0,0,0,190.2, 0.8, 8.4,0,0,1076,1024,1024,1024,8,0,0,0,201.5,0,0,91,4.257,4.255,0,0,0,0,1.253,99.32,14.583542461424,0,10,Assisted_Takeoff,
30600,2023-03-29 16:25:17,-34.9537895011597,-54.9408346005922,0,0,14.583542461424,14.583542461424,0.328084,0,0.090947181388,0.268388788116,24,5,8.512,14.583542461424,0,0,0.092504268052,0,0,0,190.2, 0.9, 8.4,0,0,1169,1024,1024,1024,22,0,0,0,201.5,0,0,91,4.257,4.255,0,0,0,0,1.253,99.32,14.583542461424,0,10,Assisted_Takeoff,
30700,2023-03-29 16:25:18,-34.9537895832333,-54.9408346648218,0,0,14.583542461424,14.583542461424,0.328084,0,0.077772968368,0.303963592404,24,5,8.512,14.583542461424,0,0,0.092504268052,0,0,0,190.2, 0.9, 8.4,0,0,1545,1024,1024,1024,79,0,0,0,201.5,0,0,91,4.257,4.255,0,0,0,0,1.253,99.32,14.583542461424,0,10,Assisted_Takeoff,
30800,2023-03-29 16:25:18,-34.9537895954792,-54.9408346729773,0,0,14.583542461424,14.583542461424,0.328084,0,0.07741470064,0.309053815664,24,5,8.512,14.583542461424,0,0,0.092504268052,0,0,0,190.2, 0.8, 8.4,0,0,1075,1024,1024,1024,8,0,0,0,201.5,0,0,91,4.257,4.255,0,0,0,0,1.253,99.32,14.583542461424,0,10,Assisted_Takeoff,
30900,2023-03-29 16:25:18,-34.9537895927401,-54.9408346821735,0,0,14.583542461424,14.583542461424,0.328084,0,0.074508204484,0.311979668776,24,5,8.512,14.583542461424,0,0,0.092504268052,0,0,0,190.2, 0.8, 8.4,0,0,1200,1024,1024,1024,27,0,0,0,201.5,0,0,91,4.257,4.255,0,0,0,0,1.253,99.32,14.583542461424,0,10,Assisted_Takeoff,
31000,2023-03-29 16:25:18,-34.9537895917891,-54.9408346886978,0,0,14.583542461424,14.583542461424,0.328084,0,0.072611878964,0.313961296136,24,5,8.512,14.583542461424,0,0,0.092504268052,0,0,0,190.2, 0.8, 8.4,0,0,1200,1024,1024,1024,27,0,0,0,201.5,0,0,91,4.257,4.255,0,0,0,0,1.253,99.32,14.583542461424,0,10,Assisted_Takeoff,
31100,2023-03-29 16:25:18,-34.9537896720453,-54.9408346042424,0,0,14.583542461424,14.583542461424,0.328084,0,0.109418310588,0.35262796404,24,5,8.512,14.583542461424,0,0,0.109418310588,0,0,0,190.2, 0.8, 8.4,0,0,1672,1024,1024,1024,98,0,0,0,201.5,0,0,91,4.257,4.255,0,0,0,0,1.253,99.32,14.583542461424,0,10,Assisted_Takeoff,
31200,2023-03-29 16:25:18,-34.9537897159498,-54.9408345604502,0,0,14.583542461424,14.583542461424,0.328084,0,0.129437668184,0.37332022192,24,5,8.512,14.583542461424,0,0,0.129437668184,0,0,0,190.2, 0.7, 8.4,0,0,1351,1024,1024,1024,50,0,0,0,201.5,0,0,91,4.257,4.255,0,0,0,0,1.253,99.32,14.583542461424,0,10,Assisted_Takeoff,
31300,2023-03-29 16:25:18,-34.9537897280915,-54.9408345457704,0,0,14.583542461424,14.583542461424,0.328084,0,0.13561680224,0.37955709876,24,5,8.512,14.583542461424,0,0,0.13561680224,0,0,0,190.2, 0.8, 8.4,0,0,1056,1024,1024,1024,5,0,0,0,201.5,0,0,91,4.257,4.255,0,0,0,0,1.253,99.32,14.583542461424,0,10,Assisted_Takeoff,
31400,2023-03-29 16:25:18,-34.9537897384924,-54.940834532536,0,0,14.583542461424,14.583542461424,0.328084,0,0.141069886404,0.3850393824,24,5,8.512,14.583542461424,0,0,0.141069886404,0,0,0,190.2, 0.8, 8.3,0,0,1684,1024,1024,1024,100,0,0,0,201.5,0,0,91,4.256,4.255,0,0,0,0,1.153,99.5,14.583542461424,0,10,Assisted_Takeoff,
31500,2023-03-29 16:25:18,-34.9537897343056,-54.94083453434,0,0,14.583542461424,14.583542461424,0.328084,0,0.139708337804,0.38666011736,24,5,8.512,14.583542461424,0,0,0.141069886404,0,0,0,190.2, 0.7, 8.4,0,0,1345,1024,1024,1024,49,0,0,0,201.5,0,0,91,4.256,4.255,0,0,0,0,1.153,99.5,14.583542461424,0,10,Assisted_Takeoff,
31600,2023-03-29 16:25:18,-34.9537896795362,-54.9408345603336,0,0,14.583542461424,14.583542461424,0.328084,0,0.12187336348,0.40810040676,24,5,8.512,14.583542461424,0,0,0.141069886404,0,0,0,190.2, 0.8, 8.4,0,0,1024,1024,1024,1024,0,0,0,0,201.5,0,0,91,4.256,4.255,0,0,0,0,1.153,99.5,14.583542461424,0,10,Assisted_Takeoff,
31700,2023-03-29 16:25:18,-34.9537897226476,-54.9408345672656,0,0,14.583542461424,14.583542461424,0.328084,0,0.129336946396,0.423966549,24,5,8.512,14.583542461424,0,0,0.141069886404,0,0,0,190.2, 0.9, 8.4,0,0,1024,1024,1133,1024,0,0,17,0,201.5,0,0,91,4.256,4.255,0,0,0,0,1.153,99.5,14.583542461424,0,10,Assisted_Takeoff,
31800,2023-03-29 16:25:19,-34.953789762779,-54.9408345740757,0,0,14.583542461424,14.583542461424,0.328084,0,0.137493770804,0.43875001404,24,5,8.512,14.583542461424,0,0,0.141069886404,0,0,0,190.2, 0.8, 8.4,0,0,1024,1024,1505,1024,0,0,73,0,201.5,0,0,91,4.256,4.255,0,0,0,0,1.153,99.5,14.583542461424,0,10,Assisted_Takeoff,
31900,2023-03-29 16:25:19,-34.9537897724324,-54.9408345804092,0,0,14.583542461424,14.583542461424,0.328084,0,0.138632878452,0.44274607716,24,5,8.512,14.583542461424,0,0,0.141069886404,0,0,0,190.2, 0.7, 8.3,0,0,1024,1024,1505,1024,0,0,73,0,201.5,0,0,91,4.256,4.255,0,0,0,0,1.153,99.5,14.583542461424,0,10,Assisted_Takeoff,
32000,2023-03-29 16:25:19,-34.9537898159786,-54.9408346282219,0,0,14.583542461424,14.583542461424,0.328084,0,0.14159941398,0.46412074976,24,5,8.512,14.583542461424,0,0,0.14159941398,0,0,0,190.1, 0.7, 8.3,0,0,1024,1024,1024,1024,0,0,0,0,201.5,0,0,91,4.256,4.255,0,0,0,0,1.153,99.5,14.583542461424,0,10,Assisted_Takeoff,
32100,2023-03-29 16:25:19,-34.9537898649769,-54.9408346313002,0,0,14.583542461424,14.583542461424,0.328084,0,0.15597605486,0.4820210128,24,5,8.512,14.583542461424,0,0,0.15597605486,0,0,0,190.2, 0.8, 8.3,0,0,1024,1024,1024,1024,0,0,0,0,201.5,0,0,91,4.256,4.255,0,0,0,0,1.153,99.5,14.583542461424,0,10,Assisted_Takeoff,
32200,2023-03-29 16:25:19,-34.9537899105277,-54.9408346340002,0,0,14.583542461424,14.583542461424,0.328084,0,0.169965884704,0.49866143328,24,5,8.512,14.583542461424,0,0,0.169965884704,0,0,0,190.3, 0.8, 8.4,0,0,1024,1024,1024,1024,0,0,0,0,201.5,0,0,91,4.256,4.255,0,0,0,0,1.153,99.5,14.583542461424,0,10,Assisted_Takeoff,
32300,2023-03-29 16:25:19,-34.9537899213438,-54.9408346333557,0,0,14.583542461424,14.583542461424,0.328084,0,0.173535766708,0.50261156464,24,5,8.512,14.583542461424,0,0,0.173535766708,0,0,0,190.3, 0.8, 8.4,0,0,1024,1024,1218,1024,0,0,29,0,201.5,0,0,91,4.256,4.255,0,0,0,0,1.153,99.5,14.583542461424,0,10,Assisted_Takeoff,
32400,2023-03-29 16:25:19,-34.9537899368043,-54.9408346476948,0,0,14.583542461424,14.583542461424,0.328084,0,0.176633535836,0.50969817904,24,5,8.51,14.583542461424,0,0,0.176633535836,0,0,0,190.3, 0.9, 8.4,0,0,1024,1024,1447,1024,0,0,64,0,201.5,0,0,91,4.244,4.241,0,0,0,0,1.174,99.32,14.583542461424,0,10,Assisted_Takeoff,
32500,2023-03-29 16:25:19,-34.9537899812282,-54.9408346481887,0,0,14.583542461424,14.583542461424,0.328084,0,0.1912975783,0.52590552864,24,5,8.51,14.583542461424,0,0,0.1912975783,0,0,0,190.3, 0.8, 8.4,0,0,1024,1024,1024,1024,0,0,0,0,201.5,0,0,91,4.244,4.241,0,0,0,0,1.174,99.32,14.583542461424,0,10,Assisted_Takeoff,
32600,2023-03-29 16:25:19,-34.9537900222438,-54.9408346464872,0,0,14.583542461424,14.583542461424,0.328084,0,0.205284783472,0.5408792824,24,5,8.51,14.583542461424,0,0,0.205284783472,0,0,0,190.3, 0.7, 8.3,0,0,1024,1024,1024,1024,0,0,0,0,201.5,0,0,91,4.244,4.241,0,0,0,0,1.174,99.32,14.583542461424,0,10,Assisted_Takeoff,
32700,2023-03-29 16:25:19,-34.9537900286664,-54.9408345953127,0,0,14.583542461424,14.583542461424,0.328084,0,0.213626647256,0.55636156636,24,5,8.51,14.583542461424,0,0,0.213626647256,0,0,0,190.4, 0.8, 8.3,0,0,1024,1024,1024,1024,0,0,0,0,201.5,0,0,91,4.244,4.241,0,0,0,0,1.174,99.32,14.583542461424,0,10,Assisted_Takeoff,
32800,2023-03-29 16:25:20,-34.9537900324851,-54.9408345446935,0,0,14.583542461424,14.583542461424,0.328084,0,0.221822185576,0.57156169808,24,5,8.51,14.583542461424,0,0,0.221822185576,0,0,0,190.6, 0.7, 8.3,0,0,1024,1024,1024,1024,0,0,0,0,201.5,0,0,91,4.244,4.241,0,0,0,0,1.174,99.32,14.583542461424,0,10,Assisted_Takeoff,
32900,2023-03-29 16:25:20,-34.9537900050638,-54.9408344862395,0,-0.065616800000002,14.649159261424,14.583542461424,0.328084,0,0.222472448064,0.59170277484,24,5,8.51,14.583542461424,0,0,0.222472448064,0,0,0,190.7, 0.8, 8.3,0,0,1024,1024,1024,1024,0,0,0,0,201.6,0,0,91,4.244,4.241,0,0,0,0,1.174,99.32,14.583542461424,0,10,Assisted_Takeoff,
33000,2023-03-29 16:25:20,-34.9537899770529,-54.9408344320308,0,-0.065616800000002,14.649159261424,14.583542461424,0.328084,0,0.22396162134,0.61086616128,24,5,8.51,14.583542461424,0,0,0.22396162134,0,0,0,190.7, 0.7, 8.3,0,0,1024,1024,1024,1024,0,0,0,0,201.6,0,0,91,4.244,4.241,0,0,0,0,1.174,99.32,14.583542461424,0,10,Assisted_Takeoff,
33100,2023-03-29 16:25:20,-34.9537899670722,-54.940834430901,0,-0.065616800000002,14.649159261424,14.583542461424,0.328084,0,0.22136483648,0.61452101704,24,5,8.51,14.583542461424,0,0,0.22396162134,0,0,0,190.7, 0.7, 8.3,0,0,1024,1024,1024,1024,0,0,0,0,201.6,0,0,91,4.244,4.241,0,0,0,0,1.174,99.32,14.583542461424,0,10,Assisted_Takeoff,
33200,2023-03-29 16:25:20,-34.9537899569579,-54.9408344304447,0,-0.065616800000002,14.649159261424,14.583542461424,0.328084,0,0.218630912508,0.61821524288,24,5,8.51,14.583542461424,0,0,0.22396162134,0,0,0,190.8, 0.8, 8.3,0,0,1024,1024,1024,1024,0,0,0,0,201.6,0,0,91,4.244,4.241,0,0,0,0,1.174,99.32,14.583542461424,0,10,Assisted_Takeoff,
33300,2023-03-29 16:25:20,-34.9537898999575,-54.9408344895967,0,-0.065616800000002,14.649159261424,14.583542461424,0.328084,0,0.191329402448,0.64551511252,24,5,8.51,14.583542461424,0,0,0.22396162134,0,0,0,190.8, 0.8, 8.3,0,0,1024,1024,1024,1024,0,0,0,0,201.6,0,0,91,4.244,4.241,0,0,0,0,1.174,99.32,14.583542461424,0,10,Assisted_Takeoff,
33400,2023-03-29 16:25:20,-34.9537898913039,-54.9408344939488,0,-0.065616800000002,14.649159261424,14.583542461424,0.328084,0,0.188085307856,0.64893046696,24,5,8.473,14.583542461424,0,0,0.22396162134,0,0,0,190.7, 0.8, 8.3,0,0,1024,1024,1024,1024,0,0,0,0,201.6,0,0,91,4.25,4.249,0,0,0,0,1.756,99.5,14.583542461424,0,10,Assisted_Takeoff,
33500,2023-03-29 16:25:20,-34.9537898867752,-54.9408344967759,0,-0.065616800000002,14.649159261424,14.583542461424,0.328084,0,0.186282486276,0.6507874224,24,5,8.473,14.583542461424,0,0,0.22396162134,0,0,0,190.7, 0.7, 8.4,0,0,1024,1024,1024,1024,0,0,0,0,201.6,0,0,91,4.25,4.249,0,0,0,0,1.756,99.5,14.583542461424,0,10,Assisted_Takeoff,
33600,2023-03-29 16:25:20,-34.9537898852021,-54.9408344971052,0,-0.065616800000002,14.649159261424,14.583542461424,0.328084,0,0.185784782848,0.65136813108,24,5,8.473,14.583542461424,0,0,0.22396162134,0,0,0,190.7, 0.6, 8.3,0,0,1024,1024,1024,1024,0,0,0,0,201.7,0,0,91,4.25,4.249,0,0,0,0,1.756,99.5,14.583542461424,0,10,Assisted_Takeoff,
33700,2023-03-29 16:25:20,-34.9537900199689,-54.9408343933196,0,-0.065616800000002,14.649159261424,14.583542461424,0.328084,0,0.243414705952,0.7095144584,24,5,8.473,14.583542461424,0,0,0.243414705952,0,0,0,190.7, 0.8, 8.4,0,0,588,364,364,1684,-66,-100,-100,100,201.7,0,0,91,4.25,4.249,0,0,0,0,1.756,99.5,14.583542461424,0,10,Assisted_Takeoff,
33800,2023-03-29 16:25:21,-34.9537900682995,-54.9408343469104,0,-0.065616800000002,14.649159261424,14.583542461424,0.328084,0,0.265852698796,0.731955404,24,5,8.473,14.583542461424,0,0,0.265852698796,0,0,0,190.7, 0.7, 8.3,0,0,364,364,364,1684,-100,-100,-100,100,201.9,0,0,91,4.25,4.249,0,0,0,0,1.756,99.5,14.583542461424,0,10,Assisted_Takeoff,
33900,2023-03-29 16:25:21,-34.953790084895,-54.9408343320003,0,-0.065616800000002,14.649159261424,14.583542461424,0.328084,0,0.273365166228,0.73947508928,24,5,8.473,14.583542461424,0,0,0.273365166228,0,0,0,190.7, 0.8, 8.4,0,0,364,364,364,1684,-100,-100,-100,100,202,0,0,91,4.25,4.249,0,0,0,0,1.756,99.5,14.583542461424,0,10,Assisted_Takeoff,
34000,2023-03-29 16:25:21,-34.9537900997285,-54.9408343186564,0,-0.065616800000002,14.649159261424,14.583542461424,0.328084,0,0.280083342296,0.74619753044,24,5,8.473,14.583542461424,0,0,0.280083342296,0,0,0,190.7, 0.7, 8.3,0,0,364,364,364,1684,-100,-100,-100,100,202,0,0,91,4.25,4.249,0,0,0,0,1.756,99.5,14.583542461424,0,10,Assisted_Takeoff,
34100,2023-03-29 16:25:21,-34.9537900785277,-54.9408343580697,0,-0.065616800000002,14.649159261424,14.583542461424,0.328084,0,0.266710310372,0.76029529992,24,5,8.473,14.583542461424,0,0,0.280083342296,0,0,0,190.7, 0.7, 8.4,0,0,364,364,364,1684,-100,-100,-100,100,202,0,0,91,4.25,4.249,0,0,0,0,1.756,99.5,14.583542461424,0,10,Assisted_Takeoff,
34200,2023-03-29 16:25:21,-34.9537900815453,-54.9408343610205,0,-0.065616800000002,14.649159261424,14.583542461424,0.328084,0,0.267042987548,0.76170606112,24,5,8.473,14.583542461424,0,0,0.280083342296,0,0,0,190.7, 0.7, 8.3,0,0,364,364,364,1684,-100,-100,-100,100,202,0,0,91,4.25,4.249,0,0,0,0,1.756,99.5,14.583542461424,0,10,Assisted_Takeoff,
34300,2023-03-29 16:25:21,-34.9537901294753,-54.9408343682553,0,-0.065616800000002,14.649159261424,14.583542461424,0.328084,0,0.279871400032,0.77932745276,24,5,8.473,14.583542461424,0,0,0.280083342296,0,0,0,190.7, 0.7, 8.4,0,0,364,364,364,1684,-100,-100,-100,100,202,0,0,91,4.25,4.249,0,0,0,0,1.756,99.5,14.583542461424,0,10,Assisted_Takeoff,
34400,2023-03-29 16:25:21,-34.9537901743389,-54.9408343760962,0,-0.065616800000002,14.649159261424,14.583542461424,0.328084,0,0.292158473916,0.79586288636,24,5,8.507,14.583542461424,0,0,0.292158473916,0,0,0,190.7, 0.8, 8.4,0,0,364,364,364,1684,-100,-100,-100,100,202,0,0,91,4.255,4.252,0,0,0,0,1.25,99.5,14.583542461424,0,10,Assisted_Takeoff,
34500,2023-03-29 16:25:21,-34.9537902176978,-54.9408344286054,0,-0.065616800000002,14.649159261424,14.583542461424,0.328084,0,0.297762804804,0.81815291332,24,5,8.507,14.583542461424,0,0,0.297762804804,0,0,0,190.7, 0.7, 8.3,0,0,364,364,364,1684,-100,-100,-100,100,202,0,0,91,4.255,4.252,0,0,0,0,1.25,99.5,14.583542461424,0,10,Assisted_Takeoff,
34600,2023-03-29 16:25:21,-34.9537902324548,-54.9408344330888,0,-0.065616800000002,14.649159261424,14.583542461424,0.328084,0,0.301873697324,0.82370081376,24,5,8.507,14.583542461424,0,0,0.301873697324,0,0,0,190.7, 0.7, 8.4,0,0,364,364,364,1684,-100,-100,-100,100,202,0,0,91,4.255,4.252,0,0,0,0,1.25,99.5,14.583542461424,0,10,Assisted_Takeoff,
34700,2023-03-29 16:25:22,-34.9537902832834,-54.9408343852744,0,-0.065616800000002,14.649159261424,14.583542461424,0.328084,0,0.324974747932,0.84711616884,24,5,8.507,14.583542461424,0,0,0.324974747932,0,0,0,190.7, 0.7, 8.3,0,0,364,364,364,1684,-100,-100,-100,100,202,0,0,91,4.255,4.252,0,0,0,0,1.25,99.5,14.583542461424,0,10,Assisted_Takeoff,
34800,2023-03-29 16:25:22,-34.9537903305637,-54.9408343399925,0,-0.065616800000002,14.649159261424,14.583542461424,0.328084,0,0.34661746516,0.8690453034,24,5,8.507,14.583542461424,0,0,0.34661746516,0,0,0,190.7, 0.7, 8.3,0,0,364,364,364,1684,-100,-100,-100,100,202.1,0,0,91,4.255,4.252,0,0,0,0,1.25,99.5,14.583542461424,0,10,Assisted_Takeoff,
34900,2023-03-29 16:25:22,-34.9537903421403,-54.9408343247757,0,-0.065616800000002,14.649159261424,14.583542461424,0.328084,0,0.35252953884,0.87525593352,24,5,8.507,14.583542461424,0,0,0.35252953884,0,0,0,190.7, 0.8, 8.4,0,0,364,364,364,1684,-100,-100,-100,100,202,0,0,91,4.255,4.252,0,0,0,0,1.25,99.5,14.583542461424,0,10,Assisted_Takeoff,
35000,2023-03-29 16:25:22,-34.9537903490921,-54.9408342356961,0,-0.065616800000002,14.649159261424,14.583542461424,0.328084,0,0.36849410628,0.90201446456,24,5,8.507,14.583542461424,0,0,0.36849410628,0,0,0,190.7, 0.7, 8.3,0,0,364,364,364,1684,-100,-100,-100,100,202.1,0,0,91,4.255,4.252,0,0,0,0,1.25,99.5,14.583542461424,0,10,Assisted_Takeoff,
35100,2023-03-29 16:25:22,-34.9537903944801,-54.9408341841596,0,-0.065616800000002,14.649159261424,14.583542461424,0.328084,0,0.39079069492,0.92463585636,24,5,8.507,14.583542461424,0,0,0.39079069492,0,0,0,190.7, 0.8, 8.4,0,0,364,364,364,1684,-100,-100,-100,100,202.1,0,0,91,4.255,4.252,0,0,0,0,1.25,99.5,14.583542461424,0,10,Assisted_Takeoff,
35200,2023-03-29 16:25:22,-34.9537904364907,-54.9408341361094,0,-0.065616800000002,14.649159261424,14.583542461424,0.328084,0,0.4115157612,0.94564635572,24,5,8.507,14.583542461424,0,0,0.4115157612,0,0,0,190.7, 0.8, 8.4,0,0,364,364,364,1684,-100,-100,-100,100,202.1,0,0,91,4.255,4.252,0,0,0,0,1.25,99.5,14.583542461424,0,10,Assisted_Takeoff,
35300,2023-03-29 16:25:22,-34.9537904437633,-54.9408341247094,0,-0.065616800000002,14.649159261424,14.583542461424,0.328084,0,0.41562009204,0.94996394116,24,5,8.507,14.583542461424,0,0,0.41562009204,0,0,0,190.7, 0.7, 8.3,0,0,364,364,364,1684,-100,-100,-100,100,202.1,0,0,91,4.255,4.252,0,0,0,0,1.25,99.5,14.583542461424,0,10,Assisted_Takeoff,
35400,2023-03-29 16:25:22,-34.9537904471912,-54.9408340954059,0,-0.065616800000002,14.649159261424,14.583542461424,0.328084,0,0.42162402924,0.95881564748,24,5,8.507,14.583542461424,0,0,0.42162402924,0,0,0,190.7, 0.8, 8.4,0,0,364,364,364,1684,-100,-100,-100,100,202.1,0,0,91,4.255,4.252,0,0,0,0,1.25,99.5,14.583542461424,0,10,Assisted_Takeoff,
