time(millisecond),datetime(utc),latitude,longitude,height_above_takeoff(feet),height_above_ground_at_drone_location(feet),ground_elevation_at_drone_location(feet),altitude_above_seaLevel(feet),height_sonar(feet),speed(mph),distance(feet),mileage(feet),satellites,gpslevel,voltage(v),max_altitude(feet),max_ascent(feet),max_speed(mph),max_distance(feet), xSpeed(mph), ySpeed(mph), zSpeed(mph), compass_heading(degrees), pitch(degrees), roll(degrees),isPhoto,isVideo,rc_elevator,rc_aileron,rc_throttle,rc_rudder,rc_elevator(percent),rc_aileron(percent),rc_throttle(percent),rc_rudder(percent),gimbal_heading(degrees),gimbal_pitch(degrees),gimbal_roll(degrees),battery_percent,voltageCell1,voltageCell2,voltageCell3,voltageCell4,voltageCell5,voltageCell6,current(A),battery_temperature(f),altitude(feet),ascent(feet),flycStateRaw,flycState,message
305600,2025-05-20 10:49:59,-34.9206164027109,-56.169355098145,0,0,38.211596367128,38.310021567128,0,0,0,0,23,5,0,38.310021567128,0,0,0,0,0,0,154.6, 12.8, 0,0,0,973,1235,1024,400,-8,32,0,-95,169.1,2.5,0.6,67,3.866,3.862,0,0,0,0,0,101.12,38.310021567128,0,6,P-GPS,"Setting new Return-To-Home altitude to 30m (98 ft). Data Recorder File Index is 10. Setting new Maximum Flight Altitude to 120m (394 ft)"
305700,2025-05-20 10:49:59,-34.9206164082666,-56.1693550954493,0,0,38.211596367128,38.310021567128,0,0,3.31282819,0.00218152237952,23,5,0,38.310021567128,0,0,3.31282819,0,0,0,154.6, 12.8, 0,0,0,973,1235,1024,400,-8,32,0,-95,169.1,2.5,0.6,67,3.866,3.862,0,0,0,0,0,101.12,38.310021567128,0,41,Motors_Started,"Zona de altitud restringida 150m Arranque de motores..."
305800,2025-05-20 10:49:59,-34.9206164040259,-56.1693551947701,0,0,38.211596367128,38.310021567128,0,0,3.2979331764,0.0319342529904,23,5,0,38.310021567128,0,0,3.31282819,0,0,0,154.6, 12.8, 0,0,0,973,1235,1024,400,-8,32,0,-95,169.1,2.5,0.6,67,3.866,3.862,0,0,0,0,0,101.12,38.310021567128,0,41,Motors_Started,"Zona de altitud restringida 150m Arranque de motores..."
305900,2025-05-20 10:49:59,-34.9206164044414,-56.1693551941327,0,0,38.211596367128,38.310021567128,0.328084,0,3.2981628352,0.0321778553604,23,5,0,38.310021567128,0,0,3.31282819,0,0,0,154.6, 12.8, 0,0,0,973,1235,1024,400,-8,32,0,-95,169.1,2.5,0.6,67,3.866,3.862,0,0,0,0,0,101.12,38.310021567128,0,41,Motors_Started,"Zona de altitud restringida 150m Arranque de motores..."
306000,2025-05-20 10:49:59,-34.9206164984339,-56.1693553009866,0,0,38.211596367128,38.310021567128,0.328084,0,3.314632652,0.079059057648,23,5,0,38.310021567128,0,0,3.314632652,0,0,0,154.6, 12.8, 0,0,0,973,1235,1024,400,-8,32,0,-95,169.1,2.5,0.6,67,3.866,3.862,0,0,0,0,0,101.12,38.310021567128,0,41,Motors_Started,"Zona de altitud restringida 150m Arranque de motores..."
306100,2025-05-20 10:49:59,-34.9206164961465,-56.1693553018224,0,0,38.211596367128,38.310021567128,0.328084,0,3.3137796336,0.079930120668,23,5,0,38.310021567128,0,0,3.314632652,0,0,0,154.7, 12.8, 0,0,0,973,1235,1024,400,-8,32,0,-95,169.1,2.5,0.6,67,3.866,3.862,0,0,0,0,0,101.12,38.310021567128,0,41,Motors_Started,"Zona de altitud restringida 150m Arranque de motores..."
306200,2025-05-20 10:49:59,-34.9206166044801,-56.1693553992206,0,0,38.211596367128,38.310021567128,0.328084,0,3.336778322,0.129034781032,23,5,0,38.310021567128,0,0,3.336778322,0,0,0,154.6, 12.8, 0,0,0,973,1235,1024,400,-8,32,0,-95,169.1,2.5,0.6,67,3.866,3.862,0,0,0,0,0,101.12,38.310021567128,0,41,Motors_Started,"Zona de altitud restringida 150m Arranque de motores..."
306300,2025-05-20 10:49:59,-34.9206166089306,-56.1693553988236,0,0,38.211596367128,38.310021567128,0.328084,0,3.3382875084,0.13066273384,23,5,0,38.310021567128,0,0,3.3382875084,0,0,0,154.7, 12.7, 0,0,0,973,1235,1024,400,-8,32,0,-95,169.1,2.6,0.7,67,3.866,3.862,0,0,0,0,0,101.12,38.310021567128,0,41,Motors_Started,"Zona de altitud restringida 150m Arranque de motores..."
306400,2025-05-20 10:49:59,-34.9206167062214,-56.1693553988863,0,0,38.211596367128,38.310021567128,0.328084,0,3.370406932,0.166159126052,23,5,0,38.310021567128,0,0,3.370406932,0,0,0,154.7, 12.8, 0,0,0,973,1235,1024,400,-8,32,0,-95,169.1,2.5,0.7,67,3.866,3.862,0,0,0,0,0,101.12,38.310021567128,0,41,Motors_Started,"Zona de altitud restringida 150m Arranque de motores..."
306500,2025-05-20 10:49:59,-34.9206167068854,-56.169355398228,0,0,38.211596367128,38.310021567128,0.328084,0,3.3707022076,0.16647146202,23,5,0,38.310021567128,0,0,3.3707022076,0,0,0,154.6, 12.8, 0,0,0,973,1235,1024,400,-8,32,0,-95,169.1,2.5,0.6,67,3.866,3.862,0,0,0,0,0,101.12,38.310021567128,0,41,Motors_Started,"Zona de altitud restringida 150m Arranque de motores..."
306600,2025-05-20 10:50:00,-34.9206167960075,-56.1693554001192,0,0,38.211596367128,38.310021567128,0.328084,0,3.3999673004,0.198992460436,23,5,0,38.310021567128,0,0,3.3999673004,0,0,0,154.6, 12.8, 0,0,0,973,1235,1024,400,-8,32,0,-95,169.1,2.5,0.6,67,3.866,3.862,0,0,0,0,0,101.12,38.310021567128,0,41,Motors_Started,"Zona de altitud restringida 150m Arranque de motores..."
306700,2025-05-20 10:50:00,-34.9206167954935,-56.1693553982489,0,0,38.211596367128,38.310021567128,0.328084,0,3.4000329172,0.199582683552,23,5,0,38.310021567128,0,0,3.4000329172,0,0,0,154.6, 12.8, 0,0,0,973,1235,1024,400,-8,32,0,-95,169.1,2.5,0.6,67,3.866,3.862,0,0,0,0,0,101.12,38.310021567128,0,41,Motors_Started,"Zona de altitud restringida 150m Arranque de motores..."
306800,2025-05-20 10:50:00,-34.9206168042275,-56.1693554938605,0,0,38.211596367128,38.310021567128,0.328084,0,3.3910106072,0.228362540116,24,5,0,38.310021567128,0,0,3.4000329172,0,0,0,154.7, 12.8, 0,0,0,973,1235,1024,400,-8,32,0,-95,169.1,2.5,0.6,67,3.866,3.862,0,0,0,0,0,101.12,38.310021567128,0,41,Motors_Started,"Zona de altitud restringida 150m Arranque de motores..."
306900,2025-05-20 10:50:00,-34.9206168062964,-56.1693554884797,0,0,38.211596367128,38.310021567128,0.328084,0,3.3923557516,0.230140427312,24,5,0,38.310021567128,0,0,3.4000329172,0,0,0,154.6, 12.8, 0,0,0,973,1235,1024,400,-8,32,0,-95,169.1,2.5,0.6,67,3.866,3.862,0,0,0,0,0,101.12,38.310021567128,0,41,Motors_Started,"Zona de altitud restringida 150m Arranque de motores..."
307000,2025-05-20 10:50:00,-34.9206167032658,-56.1693555941424,0,0,38.211596367128,38.310021567128,0.328084,0,3.3451116556,0.279254930196,24,5,0,38.310021567128,0,0,3.4000329172,0,0,0,154.6, 12.8, 0,0,0,973,1235,1024,400,-8,32,0,-95,169.1,2.5,0.6,67,3.866,3.862,0,0,0,0,0,101.12,38.310021567128,0,41,Motors_Started,"Zona de altitud restringida 150m Arranque de motores..."
307100,2025-05-20 10:50:00,-34.9206167036556,-56.1693555986351,0,0,38.211596367128,38.310021567128,0.328084,0,3.3446851464,0.280606308192,24,5,0,38.310021567128,0,0,3.4000329172,0,0,0,154.6, 12.8, 0,0,0,973,1235,1024,400,-8,32,0,-95,169.1,2.5,0.6,67,3.866,3.862,0,0,0,0,0,101.12,38.310021567128,0,41,Motors_Started,"Zona de altitud restringida 150m Arranque de motores..."
307200,2025-05-20 10:50:00,-34.9206166957312,-56.1693557042665,0,0,38.211596367128,38.310021567128,0.328084,0,3.3292651984,0.312338592672,24,5,0,38.310021567128,0,0,3.4000329172,0,0,0,154.6, 12.8, 0,0,0,973,1235,1024,400,-8,32,0,-95,169.1,2.6,0.6,67,3.866,3.862,0,0,0,0,0,101.12,38.310021567128,0,41,Motors_Started,"Zona de altitud restringida 150m Arranque de motores..."
307300,2025-05-20 10:50:00,-34.9206166902526,-56.1693557040262,0,0,38.211596367128,38.310021567128,0.328084,0,3.3274607364,0.31433892082,24,5,0,38.310021567128,0,0,3.4000329172,0,0,0,154.6, 12.9, 0,0,0,973,1235,1024,400,-8,32,0,-95,169.1,2.5,0.7,67,3.866,3.862,0,0,0,0,0,101.12,38.310021567128,0,41,Motors_Started,"Zona de altitud restringida 150m Arranque de motores..."
307400,2025-05-20 10:50:00,-34.9206167881516,-56.1693558081845,0,0,38.211596367128,38.310021567128,0.328084,0,3.347933178,0.36173885672,24,5,0,38.310021567128,0,0,3.4000329172,0,0,0,154.6, 12.8, 0,0,0,973,1235,1024,400,-8,32,0,-95,169.1,2.5,0.6,67,3.866,3.862,0,0,0,0,0,101.12,38.310021567128,0,41,Motors_Started,"Zona de altitud restringida 150m Arranque de motores..."
307500,2025-05-20 10:50:00,-34.920616790756,-56.1693558151743,0,0,38.211596367128,38.310021567128,0.328084,0,3.3479987948,0.36403544472,24,5,0,38.310021567128,0,0,3.4000329172,0,0,0,154.6, 12.8, 0,0,0,973,1235,1024,400,-8,32,0,-95,169.1,2.5,0.7,67,3.866,3.862,0,0,0,0,0,101.12,38.310021567128,0,41,Motors_Started,"Zona de altitud restringida 150m Arranque de motores..."
307600,2025-05-20 10:50:01,-34.9206167923494,-56.1693558211611,0,0,38.211596367128,38.310021567128,0.328084,0,3.3478347528,0.36591864688,24,5,0,38.310021567128,0,0,3.4000329172,0,0,0,154.6, 12.8, 0,0,0,973,1235,1024,400,-8,32,0,-95,169.1,2.5,0.6,67,3.866,3.862,0,0,0,0,0,101.12,38.310021567128,0,41,Motors_Started,"Zona de altitud restringida 150m Arranque de motores..."
307700,2025-05-20 10:50:01,-34.9206168040348,-56.169355914589,0,0,38.211596367128,38.310021567128,0.328084,0,3.3410106056,0.39418964516,23,5,0,38.310021567128,0,0,3.4000329172,0,0,0,154.6, 12.8, 0,0,0,973,1235,1024,400,-8,32,0,-95,169.1,2.5,0.6,67,3.866,3.862,0,0,0,0,0,101.12,38.310021567128,0,41,Motors_Started,"Zona de altitud restringida 150m Arranque de motores..."
307800,2025-05-20 10:50:01,-34.9206167954335,-56.169355900578,0,0,38.211596367128,38.310021567128,0.328084,0,3.339731078,0.3994258658,23,5,0,38.310021567128,0,0,3.4000329172,0,0,0,154.6, 12.8, 0,0,0,973,1235,1024,400,-8,32,0,-95,169.1,2.5,0.6,67,3.866,3.862,0,0,0,0,0,101.12,38.310021567128,0,10,Assisted_Takeoff,"Zona de altitud restringida 150m Arranque de motores..."
307900,2025-05-20 10:50:01,-34.9206167919982,-56.1693558986764,0,0,38.211596367128,38.310021567128,0.328084,0,3.3387796344,0.4008038186,23,5,0,38.310021567128,0,0,3.4000329172,0,0,0,154.6, 12.8, 0,0,0,973,1235,1024,400,-8,32,0,-95,169.1,2.5,0.6,67,3.866,3.862,0,0,0,0,0,101.12,38.310021567128,0,10,Assisted_Takeoff,"Zona de altitud restringida 150m Arranque de motores..."
308000,2025-05-20 10:50:01,-34.9206167922252,-56.1693559955209,0,0,38.211596367128,38.310021567128,0.328084,0,3.3278872456,0.42977691664,23,5,0,38.310021567128,0,0,3.4000329172,0,0,0,154.6, 12.9, 0,0,0,973,1235,1024,400,-8,32,0,-95,169.1,2.5,0.7,67,3.866,3.862,0,0,0,0,0,101.12,38.310021567128,0,10,Assisted_Takeoff,"Zona de altitud restringida 150m Arranque de motores..."
308100,2025-05-20 10:50:01,-34.9206167737805,-56.1693560154351,0,0,38.211596367128,38.310021567128,0.328084,0,3.3194226784,0.4387631374,23,5,0,38.310021567128,0,0,3.4000329172,0,0,0,154.6, 12.9, 0,0,0,973,1235,1024,400,-8,32,0,-95,169,2.5,0.7,67,3.866,3.862,0,0,0,0,0,101.12,38.310021567128,0,10,Assisted_Takeoff,"Zona de altitud restringida 150m Arranque de motores..."
308200,2025-05-20 10:50:01,-34.9206167778155,-56.1693561310028,0,0,38.211596367128,38.310021567128,0.328084,0,3.3080053552,0.47336615688,23,5,0,38.310021567128,0,0,3.4000329172,0,0,0,154.6, 12.8, 0,0,0,973,1235,1024,400,-8,32,0,-95,169,2.5,0.7,67,3.866,3.862,0,0,0,0,0,101.12,38.310021567128,0,10,Assisted_Takeoff,"Zona de altitud restringida 150m Arranque de motores..."
308300,2025-05-20 10:50:01,-34.9206167715488,-56.169356132779,0,0,38.211596367128,38.310021567128,0.328084,0,3.3056759588,0.47571523832,23,5,0,38.310021567128,0,0,3.4000329172,0,0,0,154.6, 12.8, 0,0,0,973,1235,1024,400,-8,32,0,-95,169,2.5,0.7,67,3.866,3.862,0,0,0,0,0,101.12,38.310021567128,0,10,Assisted_Takeoff,"Zona de altitud restringida 150m Arranque de motores..."
308400,2025-05-20 10:50:01,-34.920616685695,-56.1693561985191,0,0,38.211596367128,38.310021567128,0.328084,0,3.26934721748,0.51270014764,23,5,0,38.310021567128,0,0,3.4000329172,0,0,0,154.6, 12.8, 0,0,0,973,1235,1024,400,-8,32,0,-95,169,2.5,0.7,67,3.866,3.862,0,0,0,0,0,101.12,38.310021567128,0,10,Assisted_Takeoff,"Zona de altitud restringida 150m Arranque de motores..."
308500,2025-05-20 10:50:01,-34.9206166772951,-56.1693561894605,0,0,38.211596367128,38.310021567128,0.328084,0,3.26747713868,0.51679135512,23,5,0,38.310021567128,0,0,3.4000329172,0,0,0,154.6, 12.8, 0,0,0,973,1235,1024,400,-8,32,0,-95,169,2.5,0.7,67,3.866,3.862,0,0,0,0,0,101.12,38.310021567128,0,10,Assisted_Takeoff,"Zona de altitud restringida 150m Arranque de motores..."
308600,2025-05-20 10:50:01,-34.9206165864424,-56.1693562881021,0,0,38.211596367128,38.310021567128,0.328084,0,3.22589577252,0.5611712778,24,5,0,38.310021567128,0,0,3.4000329172,0,0,0,154.6, 12.8, 0,0,0,973,1235,1024,400,-8,32,0,-95,169,2.5,0.8,67,3.866,3.862,0,0,0,0,0,101.12,38.310021567128,0,10,Assisted_Takeoff,"Zona de altitud restringida 150m Arranque de motores.... Motores iniciándose. Mantén presionado el botón Bloqueo para despegar"
308700,2025-05-20 10:50:02,-34.9206165818633,-56.1693562855945,0,0,38.211596367128,38.310021567128,0.328084,0,3.2246064024,0.56300198652,24,5,7.73,38.310021567128,0,0,3.4000329172,0,0,0,154.6, 12.8, 0,0,0,973,1235,1024,400,-8,32,0,-95,169,2.5,0.7,67,3.866,3.862,0,0,0,0,1.505,101.12,38.310021567128,0,10,Assisted_Takeoff,"Zona de altitud restringida 150m Motores iniciándose. Mantén presionado el botón Bloqueo para despegar"
308800,2025-05-20 10:50:02,-34.9206164902267,-56.1693563975157,0,0,38.211596367128,38.310021567128,0.328084,0,3.18141742464,0.610318261,24,5,7.73,38.310021567128,0,0,3.4000329172,0,0,0,154.6, 12.8, 0,0,0,973,1235,1024,400,-8,32,0,-95,168.9,2.5,0.7,67,3.866,3.862,0,0,0,0,1.505,101.12,38.310021567128,0,10,Assisted_Takeoff,"Zona de altitud restringida 150m Motores iniciándose. Mantén presionado el botón Bloqueo para despegar"
308900,2025-05-20 10:50:02,-34.9206164846839,-56.1693563984143,0,0,38.211596367128,38.310021567128,0.328084,0,3.1794292356,0.61235894348,24,5,7.73,38.310021567128,0,0,3.4000329172,0,0,0,154.6, 12.8, 0,0,0,973,1235,1024,400,-8,32,0,-95,168.9,2.5,0.7,67,3.866,3.862,0,0,0,0,1.505,101.12,38.310021567128,0,10,Assisted_Takeoff,"Zona de altitud restringida 150m Motores iniciándose. Mantén presionado el botón Bloqueo para despegar"
309000,2025-05-20 10:50:02,-34.9206164878623,-56.1693565028128,0,0,38.211596367128,38.310021567128,0.328084,0,3.16957687308,0.64361222532,24,5,7.73,38.310021567128,0,0,3.4000329172,0,0,0,154.6, 12.8, 0,0,0,973,1235,1024,400,-8,32,0,-95,169,2.5,0.7,67,3.866,3.862,0,0,0,0,1.505,101.12,38.310021567128,0,10,Assisted_Takeoff,"Zona de altitud restringida 150m Motores iniciándose. Mantén presionado el botón Bloqueo para despegar"
309100,2025-05-20 10:50:02,-34.9206164830005,-56.1693565053622,0,0,38.211596367128,38.310021567128,0.328084,0,3.16764773916,0.64554464008,24,5,7.73,38.310021567128,0,0,3.4000329172,0,0,0,154.6, 12.8, 0,0,0,973,1235,1024,400,-8,32,0,-95,169,2.5,0.7,67,3.866,3.862,0,0,0,0,1.505,101.12,38.310021567128,0,10,Assisted_Takeoff,"Zona de altitud restringida 150m Motores iniciándose. Mantén presionado el botón Bloqueo para despegar"
309200,2025-05-20 10:50:02,-34.9206165904474,-56.169356606156,0,0.032808399999999,38.178787967128,38.310021567128,0.328084,0,3.1942750366,0.69500002224,24,5,7.73,38.310021567128,0,0,3.4000329172,0,0,0,154.6, 12.8, 0,0,0,973,1235,1024,400,-8,32,0,-95,169,2.5,0.8,67,3.866,3.862,0,0,0,0,1.505,101.12,38.310021567128,0,10,Assisted_Takeoff,"Zona de altitud restringida 150m Motores iniciándose. Mantén presionado el botón Bloqueo para despegar"
309300,2025-05-20 10:50:02,-34.9206165887126,-56.1693566100219,0,0.032808399999999,38.178787967128,38.310021567128,0.328084,0,3.19329406544,0.69631891992,24,5,7.73,38.310021567128,0,0,3.4000329172,0,0,0,154.6, 12.8, 0,0,0,973,1235,1024,400,-8,32,0,-95,168.9,2.5,0.8,67,3.866,3.862,0,0,0,0,1.505,101.12,38.310021567128,0,10,Assisted_Takeoff,"Zona de altitud restringida 150m Motores iniciándose. Mantén presionado el botón Bloqueo para despegar"
309400,2025-05-20 10:50:02,-34.9206165983805,-56.1693567071798,0,0.032808399999999,38.178787967128,38.310021567128,0.328084,0,3.18706046944,0.72559713608,24,5,7.73,38.310021567128,0,0,3.4000329172,0,0,0,154.6, 12.7, 0,0,0,973,1235,1024,400,-8,32,0,-95,168.9,2.5,0.8,67,3.866,3.862,0,0,0,0,1.505,101.12,38.310021567128,0,10,Assisted_Takeoff,"Zona de altitud restringida 150m Motores iniciándose. Mantén presionado el botón Bloqueo para despegar"
309500,2025-05-20 10:50:02,-34.9206165993613,-56.1693567094784,0,0.032808399999999,38.178787967128,38.310021567128,0.328084,0,3.18717529884,0.72637141432,24,5,7.73,38.310021567128,0,0,3.4000329172,0,0,0,154.6, 12.7, 0,0,0,973,1235,1024,400,-8,32,0,-95,168.9,2.5,0.8,67,3.866,3.862,0,0,0,0,1.505,101.12,38.310021567128,0,10,Assisted_Takeoff,"Zona de altitud restringida 150m Motores iniciándose. Mantén presionado el botón Bloqueo para despegar"
309600,2025-05-20 10:50:03,-34.920616701788,-56.1693568039929,0,0.032808399999999,38.178787967128,38.310021567128,0.328084,0,3.21357949916,0.77323493288,23,5,7.73,38.310021567128,0,0,3.4000329172,0,0,0,154.6, 12.7, 0,0,0,973,1235,1024,400,-8,32,0,-95,168.9,2.5,0.8,67,3.866,3.862,0,0,0,0,1.505,101.12,38.310021567128,0,10,Assisted_Takeoff,"Zona de altitud restringida 150m Motores iniciándose. Mantén presionado el botón Bloqueo para despegar"
309700,2025-05-20 10:50:03,-34.920616704508,-56.1693568046093,0,0.032808399999999,38.178787967128,38.310021567128,0.328084,0,3.21446532596,0.77424215076,23,5,7.727,38.310021567128,0,0,3.4000329172,0,0,0,154.6, 12.7, 0,0,0,973,1235,1024,400,-8,32,0,-95,168.9,2.5,0.8,67,3.865,3.862,0,0,0,0,1.495,101.12,38.310021567128,0,10,Assisted_Takeoff,"Zona de altitud restringida 150m Motores iniciándose. Mantén presionado el botón Bloqueo para despegar"
309800,2025-05-20 10:50:03,-34.9206169027819,-56.1693570009521,0,0.032808399999999,38.178787967128,38.310021567128,0.328084,0,3.26572845096,0.86742784928,23,5,7.727,38.310021567128,0,0,3.4000329172,0,0,0,154.6, 12.7, 0,0,0,973,1235,1024,400,-8,32,0,-95,169,2.5,0.8,67,3.865,3.862,0,0,0,0,1.495,101.12,38.310021567128,0,10,Assisted_Takeoff,"Zona de altitud restringida 150m Motores iniciándose. Mantén presionado el botón Bloqueo para despegar"
309900,2025-05-20 10:50:03,-34.9206169052364,-56.1693570001685,0,0.032808399999999,38.178787967128,38.310021567128,0.328084,0,3.26665364784,0.86835304616,23,5,7.727,38.310021567128,0,0,3.4000329172,0,0,0,154.7, 12.7, 0,0,0,973,1235,1024,400,-8,32,0,-95,169,2.5,0.8,67,3.865,3.862,0,0,0,0,1.495,101.12,38.310021567128,0,10,Assisted_Takeoff,"Zona de altitud restringida 150m Motores iniciándose. Mantén presionado el botón Bloqueo para despegar"
310000,2025-05-20 10:50:03,-34.9206170024286,-56.1693571988412,0,0.032808399999999,38.178787967128,38.310021567128,0.328084,0,3.2840224148,0.93756236596,23,5,7.727,38.310021567128,0,0,3.4000329172,0,0,0,154.7, 12.7, 0.1,0,0,973,1235,1024,400,-8,32,0,-95,169,2.5,0.8,67,3.865,3.862,0,0,0,0,1.495,101.12,38.310021567128,0,10,Assisted_Takeoff,"Zona de altitud restringida 150m Motores iniciándose. Mantén presionado el botón Bloqueo para despegar"
310100,2025-05-20 10:50:03,-34.9206170055812,-56.1693571967724,0,0.032808399999999,38.178787967128,38.310021567128,0.328084,0,3.2853019424,0.93886814028,23,5,7.727,38.310021567128,0,0,3.4000329172,0,0,0,154.7, 12.7, 0.1,0,0,973,1235,1024,400,-8,32,0,-95,169,2.5,0.8,67,3.865,3.862,0,0,0,0,1.495,101.12,38.310021567128,0,41,Motors_Started,"Zona de altitud restringida 150m Motores iniciándose. Mantén presionado el botón Bloqueo para despegar"
310200,2025-05-20 10:50:03,-34.920616903373,-56.1693571962709,0,0.032808399999999,38.178787967128,38.310021567128,0.328084,0,3.24946860792,0.97615816772,24,5,7.727,38.310021567128,0,0,3.4000329172,0,0,0,154.7, 12.7, 0.1,0,0,973,1235,1024,400,-8,32,0,-95,169,2.5,0.8,67,3.865,3.862,0,0,0,0,1.495,101.12,38.310021567128,0,41,Motors_Started,"Zona de altitud restringida 150m Motores iniciándose. Mantén presionado el botón Bloqueo para despegar"
310300,2025-05-20 10:50:03,-34.9206169060416,-56.1693571931155,0,0.032808399999999,38.178787967128,38.310021567128,0.328084,0,3.25066283368,0.97751315464,24,5,7.727,38.310021567128,0,0,3.4000329172,0,0,0,154.6, 12.6, 0.1,0,0,973,1235,1024,400,-8,32,0,-95,169,2.5,0.8,67,3.865,3.862,0,0,0,0,1.495,101.12,38.310021567128,0,41,Motors_Started,"Zona de altitud restringida 150m Motores iniciándose. Mantén presionado el botón Bloqueo para despegar"
310400,2025-05-20 10:50:03,-34.9206169089115,-56.1693573868985,0,0.032808399999999,38.178787967128,38.310021567128,0.328084,0,3.2362861928,1.03549543996,24,5,7.727,38.310021567128,0,0,3.4000329172,0,0,0,154.6, 12.6, 0.1,0,0,973,1235,1024,400,-8,32,0,-95,169,2.5,0.8,67,3.865,3.862,0,0,0,0,1.495,101.12,38.310021567128,0,41,Motors_Started,"Zona de altitud restringida 150m Motores iniciándose. Mantén presionado el botón Bloqueo para despegar"
310500,2025-05-20 10:50:03,-34.9206169169645,-56.1693573798878,0,0.032808399999999,38.178787967128,38.310021567128,0.328084,0,3.239665458,1.03910436396,24,5,7.727,38.310021567128,0,0,3.4000329172,0,0,0,154.6, 12.6, 0.1,0,0,973,1235,1024,400,-8,32,0,-95,168.9,2.5,0.8,67,3.865,3.862,0,0,0,0,1.495,101.12,38.310021567128,0,41,Motors_Started,"Zona de altitud restringida 150m Motores iniciándose. Mantén presionado el botón Bloqueo para despegar"
310600,2025-05-20 10:50:04,-34.9206169217492,-56.1693573743816,0,0.032808399999999,38.178787967128,38.310021567128,0.328084,0,3.24177503812,1.04150593884,24,5,7.727,38.310021567128,0,0,3.4000329172,0,0,0,154.6, 12.6, 0.1,0,0,973,1235,1024,400,-8,32,0,-95,169,2.5,0.8,67,3.865,3.862,0,0,0,0,1.495,101.12,38.310021567128,0,41,Motors_Started,"Zona de altitud restringida 150m Motores iniciándose. Mantén presionado el botón Bloqueo para despegar"
310700,2025-05-20 10:50:04,-34.9206169095798,-56.1693574871596,0,0.032808399999999,38.178787967128,38.310021567128,0.328084,0,3.22894039204,1.07553481132,24,5,7.739,38.310021567128,0,0,3.4000329172,0,0,0,154.6, 12.6, 0.1,0,0,973,1235,1024,400,-8,32,0,-95,169,2.5,0.8,67,3.871,3.868,0,0,0,0,1.041,101.12,38.310021567128,0,41,Motors_Started,"Zona de altitud restringida 150m Motores iniciándose. Mantén presionado el botón Bloqueo para despegar"
310800,2025-05-20 10:50:04,-34.9206168998648,-56.1693576994045,0,0.032808399999999,38.178787967128,38.310021567128,0.328084,0,3.21031178252,1.13912733304,24,5,7.739,38.310021567128,0,0,3.4000329172,0,0,0,154.6, 12.6, 0.1,0,0,973,1235,1024,400,-8,32,0,-95,169,2.5,0.8,67,3.871,3.868,0,0,0,0,1.041,101.12,38.310021567128,0,41,Motors_Started,"Zona de altitud restringida 150m Motores iniciándose. Mantén presionado el botón Bloqueo para despegar"
310900,2025-05-20 10:50:04,-34.9206169002161,-56.169357699394,0,0.032808399999999,38.178787967128,38.310021567128,0.328084,0,3.21043973528,1.1392552858,24,5,7.739,38.310021567128,0,0,3.4000329172,0,0,0,154.6, 12.6, 0.1,0,0,973,1235,1024,400,-8,32,0,-95,169,2.5,0.8,67,3.871,3.868,0,0,0,0,1.041,101.12,38.310021567128,0,41,Motors_Started,"Zona de altitud restringida 150m Motores iniciándose. Mantén presionado el botón Bloqueo para despegar"
311000,2025-05-20 10:50:04,-34.9206169029147,-56.1693579009086,0,0.032808399999999,38.178787967128,38.310021567128,0.328084,0,3.19807424932,1.19954728248,24,5,7.739,38.310021567128,0,0,3.4000329172,0,0,0,154.6, 12.6, 0.1,0,0,973,1235,1024,400,-8,32,0,-95,169,2.5,0.8,67,3.871,3.868,0,0,0,0,1.041,101.12,38.310021567128,0,41,Motors_Started,"Zona de altitud restringida 150m Motores iniciándose. Mantén presionado el botón Bloqueo para despegar"
311100,2025-05-20 10:50:04,-34.9206169057718,-56.1693579016714,0,0.032808399999999,38.178787967128,38.310021567128,0.328084,0,3.19904537796,1.20061683632,24,5,7.739,38.310021567128,0,0,3.4000329172,0,0,0,154.6, 12.5, 0.1,0,0,973,1235,1024,400,-8,32,0,-95,169,2.5,0.8,67,3.871,3.868,0,0,0,0,1.041,101.12,38.310021567128,0,41,Motors_Started,"Zona de altitud restringida 150m Motores iniciándose. Mantén presionado el botón Bloqueo para despegar"
311200,2025-05-20 10:50:04,-34.9206170019831,-56.1693578959875,0,0.032808399999999,38.178787967128,38.310021567128,0.328084,0,3.23371401424,1.2357611944,24,5,7.739,38.310021567128,0,0,3.4000329172,0,0,0,154.6, 12.5, 0.1,0,0,973,1235,1024,400,-8,32,0,-95,169,2.5,0.8,67,3.871,3.868,0,0,0,0,1.041,101.12,38.310021567128,0,41,Motors_Started,"Zona de altitud restringida 150m Motores iniciándose. Mantén presionado el botón Bloqueo para despegar"
311300,2025-05-20 10:50:04,-34.9206170022358,-56.1693578965204,0,0.032808399999999,38.178787967128,38.310021567128,0.328084,0,3.23377306936,1.23594492144,24,5,7.739,38.310021567128,0,0,3.4000329172,0,0,0,154.6, 12.5, 0.1,0,0,973,1235,1024,400,-8,32,0,-95,169,2.5,0.8,67,3.871,3.868,0,0,0,0,1.041,101.12,38.310021567128,0,41,Motors_Started,"Zona de altitud restringida 150m Motores iniciándose. Mantén presionado el botón Bloqueo para despegar"
311400,2025-05-20 10:50:04,-34.9206171000792,-56.1693578988713,0,0.032808399999999,38.178787967128,38.310021567128,0.328084,0,3.26853685,1.27165030316,24,5,7.739,38.310021567128,0,0,3.4000329172,0,0,0,154.6, 12.5, 0.1,0,0,973,1235,1024,400,-8,32,0,-95,169,2.5,0.8,67,3.871,3.868,0,0,0,0,1.041,101.12,38.310021567128,0,41,Motors_Started,"Zona de altitud restringida 150m Motores iniciándose. Mantén presionado el botón Bloqueo para despegar"
311500,2025-05-20 10:50:04,-34.9206171008973,-56.169357896792,0,0.032808399999999,38.178787967128,38.310021567128,0.328084,0,3.26895679752,1.27233927956,24,5,7.739,38.310021567128,0,0,3.4000329172,0,0,0,154.7, 12.5, 0.1,0,0,973,1235,1024,400,-8,32,0,-95,169,2.5,0.8,67,3.871,3.868,0,0,0,0,1.041,101.12,38.310021567128,0,41,Motors_Started,"Zona de altitud restringida 150m Motores iniciándose. Mantén presionado el botón Bloqueo para despegar"
311600,2025-05-20 10:50:05,-34.9206170997151,-56.1693579989546,0,0.032808399999999,38.178787967128,38.310021567128,0.328084,0,3.2623196582,1.302903585,24,5,7.739,38.310021567128,0,0,3.4000329172,0,0,0,154.7, 12.5, 0.1,0,0,973,1235,1024,400,-8,32,0,-95,169,2.5,0.8,67,3.871,3.868,0,0,0,0,1.041,101.12,38.310021567128,0,41,Motors_Started,"Zona de altitud restringida 150m Motores iniciándose. Mantén presionado el botón Bloqueo para despegar"
311700,2025-05-20 10:50:05,-34.9206170990211,-56.1693579950784,0,0.032808399999999,38.178787967128,38.310021567128,0.328084,0,3.262303254,1.30409124908,24,5,7.739,38.310021567128,0,0,3.4000329172,0,0,0,154.7, 12.5, 0.1,0,0,973,1235,1024,400,-8,32,0,-95,169,2.5,0.8,67,3.871,3.869,0,0,0,0,1.045,100.94,38.310021567128,0,41,Motors_Started,"Zona de altitud restringida 150m Motores iniciándose. Mantén presionado el botón Bloqueo para despegar"
311800,2025-05-20 10:50:05,-34.9206172014735,-56.1693581954541,0,0.032808399999999,38.178787967128,38.310021567128,0.328084,0,3.2876641472,1.37473429596,24,5,7.739,38.310021567128,0,0,3.4000329172,0,0,0,154.7, 12.5, 0.1,0,0,973,1235,1024,400,-8,32,0,-95,169,2.5,0.8,67,3.871,3.869,0,0,0,0,1.045,100.94,38.310021567128,0,41,Motors_Started,"Zona de altitud restringida 150m Motores iniciándose. Mantén presionado el botón Bloqueo para despegar"
311900,2025-05-20 10:50:05,-34.9206172048831,-56.1693581974184,0,0.032808399999999,38.178787967128,38.310021567128,0.328084,0,3.2887796328,1.37611224876,24,5,7.739,38.310021567128,0,0,3.4000329172,0,0,0,154.7, 12.5, 0.1,0,0,973,1235,1024,400,-8,32,0,-95,169,2.5,0.8,67,3.871,3.869,0,0,0,0,1.045,100.94,38.310021567128,0,41,Motors_Started,"Zona de altitud restringida 150m Motores iniciándose. Mantén presionado el botón Bloqueo para despegar"
312000,2025-05-20 10:50:05,-34.9206173035146,-56.1693582033321,0,0.032808399999999,38.178787967128,38.310021567128,0.328084,0,3.3238846208,1.4121391528,24,5,7.739,38.310021567128,0,0,3.4000329172,0,0,0,154.7, 12.4, 0.1,0,0,973,1235,1024,400,-8,32,0,-95,169.1,2.6,1.6,67,3.871,3.869,0,0,0,0,1.045,100.94,38.310021567128,0,41,Motors_Started,"Zona de altitud restringida 150m Motores iniciándose. Mantén presionado el botón Bloqueo para despegar"
312100,2025-05-20 10:50:05,-34.9206172947763,-56.1693582081278,0,0.032808399999999,38.178787967128,38.310021567128,0.328084,0,3.3204725472,1.41563652824,24,5,7.739,38.310021567128,0,0,3.4000329172,0,0,0,155.2, 10.4, 1,0,0,973,1235,1024,400,-8,32,0,-95,169.5,2.5,1.2,67,3.871,3.869,0,0,0,0,1.045,100.94,38.310021567128,0,11,AutoTakeoff,"Zona de altitud restringida 150m Motores iniciándose. Mantén presionado el botón Bloqueo para despegar. Despegando..."
312200,2025-05-20 10:50:05,-34.9206172314322,-56.1693582372992,0,0.032808399999999,38.178787967128,38.310021567128,0.328084,0,3.2961943312,1.44034125344,24,5,7.739,38.310021567128,0,0,3.4000329172,0,0,0,154.8, 6.7, 0,0,0,973,1235,1024,400,-8,32,0,-95,169.2,2.6,-0.4,67,3.871,3.869,0,0,0,0,1.045,100.94,38.310021567128,0,11,AutoTakeoff,"Zona de altitud restringida 150m Despegando..."
312300,2025-05-20 10:50:05,-34.9206171424514,-56.169358288485,0,0.032808399999999,38.178787967128,38.310021567128,0.328084,0.223694,3.26156178416,1.47623364304,24,5,7.739,38.310021567128,0,0.223694,3.4000329172,0.223694,0,0,154.8, 2.4, -1.4,0,0,973,1235,1024,400,-8,32,0,-95,169.1,2.5,-1.5,67,3.871,3.869,0,0,0,0,1.045,100.94,38.310021567128,0,11,AutoTakeoff,"Zona de altitud restringida 150m Despegando..."
312400,2025-05-20 10:50:05,-34.9206170636781,-56.1693582877745,0,0.032808399999999,38.178787967128,38.310021567128,0.328084,0.447388,3.23329406672,1.50497708228,24,5,7.739,38.310021567128,0,0.447388,3.4000329172,0.447388,0,-0.223694,154.6, -4.5, 0,0,0,968,1171,1024,1046,-8,22,0,3,169.3,1.6,3.1,67,3.871,3.869,0,0,0,0,1.045,100.94,38.310021567128,0,11,AutoTakeoff,"Zona de altitud restringida 150m Despegando..."
312500,2025-05-20 10:50:05,-34.9206169254201,-56.169358248134,0,0.032808399999999,38.178787967128,38.310021567128,0,0.447388,3.18574813344,1.55679466924,24,5,7.739,38.310021567128,0,0.447388,3.4000329172,0.223694,0,-0.447388,154.4, -7.9, 4.3,0,0,967,1167,1024,1021,-9,22,0,-0,169.6,0,4.8,67,3.871,3.869,0,0,0,0,1.045,100.94,38.310021567128,0,12,AutoLanding,"Zona de altitud restringida 150m Despegando.... Presiona ligeramente el acelerador para controlar la orientación de la aeronave. Mantén pulsado el botón de bloqueo para que la aeronave aterrice. Aterrizando automáticamente.... Presiona ligeramente el acelerador para controlar la ori"
312600,2025-05-20 10:50:05,-34.9206168061208,-56.1693581870433,0,0.032808399999999,38.178787967128,38.310021567128,0,0,3.14633212168,1.604002676,25,5,7.739,38.310021567128,0,0.447388,3.4000329172,0,0,-0.223694,154.6, -6.2, 3.8,0,0,964,1157,1024,1015,-9,20,0,-1,169.5,0,3.7,67,3.871,3.869,0,0,0,0,1.045,100.94,38.310021567128,0,12,AutoLanding,"Zona de altitud restringida 150m Aterrizando automáticamente.... Pulsa el botón de bloqueo para cancelar el aterrizaje. Aterrizando automáticamente.... Punto de origen actualizado. Altitud de RPO establecida en 30m"
312700,2025-05-20 10:50:06,-34.9206169533227,-56.1693581010232,0,0.032808399999999,38.178787967128,38.310021567128,0,0,3.20396007628,1.66355320284,25,5,7.633,38.310021567128,0,0.447388,3.4000329172,0,0,0,154.7, -3.8, 3,0,0,963,1153,1024,1015,-9,20,0,-1,169.3,0,2.2,67,3.818,3.817,0,0,0,0,4.497,100.94,38.310021567128,0,12,AutoLanding,"Zona de altitud restringida 150m Aterrizando automáticamente.... Punto de origen actualizado. Altitud de RPO establecida en 30m"
312800,2025-05-20 10:50:06,-34.920616875479,-56.1693583914521,0,0.032808399999999,38.178787967128,38.310021567128,0,0.223694,3.1603347468,1.75496396692,25,5,7.633,38.310021567128,0,0.447388,3.4000329172,-0.223694,0,0,154.8, -2.1, 1.6,0,0,960,1146,1024,1021,-10,18,0,-0,169.3,0,1.7,67,3.818,3.817,0,0,0,0,4.497,100.94,38.310021567128,0,12,AutoLanding,"Zona de altitud restringida 150m Aterrizando automáticamente.... Punto de origen actualizado. Altitud de RPO establecida en 30m"
312900,2025-05-20 10:50:06,-34.9206170391637,-56.1693583963105,0,0.032808399999999,38.178787967128,38.310021567128,0,0.223694,3.21898304264,1.81470150164,25,5,7.633,38.310021567128,0,0.447388,3.4000329172,-0.223694,0,0,154.7, 0.2, 0.1,0,0,956,1144,1024,1026,-10,18,0,0,169.1,0,-1,67,3.818,3.817,0,0,0,0,4.497,100.94,38.310021567128,0,12,AutoLanding,"Zona de altitud restringida 150m Aterrizando automáticamente.... Punto de origen actualizado. Altitud de RPO establecida en 30m"
313000,2025-05-20 10:50:06,-34.9206172919321,-56.1693585573383,0,0.032808399999999,38.178787967128,38.310021567128,0,0.223694,3.3026247776,1.91874678056,25,5,7.633,38.310021567128,0,0.447388,3.4000329172,-0.223694,0,0,154.6, 2.1, -1.8,0,0,960,1152,1024,1023,-10,19,0,-0,169.2,0,-2,67,3.818,3.817,0,0,0,0,4.497,100.94,38.310021567128,0,12,AutoLanding,"Zona de altitud restringida 150m Aterrizando automáticamente.... Punto de origen actualizado. Altitud de RPO establecida en 30m"
313100,2025-05-20 10:50:06,-34.9206173592042,-56.1693586543499,0,0.032808399999999,38.178787967128,38.310021567128,0,0,3.3228019436,1.95675531196,25,5,7.633,38.310021567128,0,0.447388,3.4000329172,0,0,0,154.8, 1.3, -3.1,0,0,960,1151,1024,1023,-10,19,0,-0,169.3,0,-3.1,67,3.818,3.817,0,0,0,0,4.497,100.94,38.310021567128,0,12,AutoLanding,"Zona de altitud restringida 150m Aterrizando automáticamente.... Punto de origen actualizado. Altitud de RPO establecida en 30m"
313200,2025-05-20 10:50:06,-34.9206172619134,-56.1693588303292,0,0.032808399999999,38.178787967128,38.310021567128,0,0,3.28082031496,2.02024940848,26,5,7.633,38.310021567128,0,0.447388,3.4000329172,0,0,0,154.7, 0.1, -2.7,0,0,959,1153,1024,1027,-10,20,0,0,169.3,0,-0.9,67,3.818,3.817,0,0,0,0,4.497,100.94,38.310021567128,0,12,AutoLanding,"Zona de altitud restringida 150m Aterrizando automáticamente.... Punto de origen actualizado. Altitud de RPO establecida en 30m"
313300,2025-05-20 10:50:06,-34.9206171925467,-56.1693588658008,0,0.032808399999999,38.178787967128,38.310021567128,0,0,3.25441611464,2.04769363508,26,5,7.633,38.310021567128,0,0.447388,3.4000329172,0,0,0,154.7, -0.9, -0.8,0,0,960,1157,1024,1029,-10,20,0,1,169.2,0,0.5,67,3.818,3.817,0,0,0,0,4.497,100.94,38.310021567128,0,12,AutoLanding,"Zona de altitud restringida 150m Aterrizando automáticamente.... Punto de origen actualizado. Altitud de RPO establecida en 30m"
313400,2025-05-20 10:50:06,-34.9206170733588,-56.1693588164748,0,0.032808399999999,38.178787967128,38.310021567128,0,0,3.21306768812,2.09361555256,26,5,7.633,38.310021567128,0,0.447388,3.4000329172,0,0,0,154.6, -1.5, 0.4,0,0,961,1161,1024,1029,-10,21,0,1,169,0,0.1,67,3.818,3.817,0,0,0,0,4.497,100.94,38.310021567128,0,12,AutoLanding,"Zona de altitud restringida 150m Aterrizando automáticamente.... Punto de origen actualizado. Altitud de RPO establecida en 30m"
313500,2025-05-20 10:50:06,-34.9206170336252,-56.1693587986397,0,0.032808399999999,38.178787967128,38.310021567128,0,0,3.19936690028,2.10906174728,26,5,7.633,38.310021567128,0,0.447388,3.4000329172,0,0,0,154.4, -1.6, 0.4,0,0,963,1165,1024,1030,-9,21,0,1,169.1,0,1.6,67,3.818,3.817,0,0,0,0,4.497,100.94,38.310021567128,0,12,AutoLanding,"Zona de altitud restringida 150m Aterrizando automáticamente.... Punto de origen actualizado. Altitud de RPO establecida en 30m"
313600,2025-05-20 10:50:07,-34.9206171384891,-56.1693588557183,0,0.032808399999999,38.178787967128,38.310021567128,0,0,3.23520023476,2.15095807408,25,5,7.633,38.310021567128,0,0.447388,3.4000329172,0,0,0,154.7, -1.8, 0.9,0,0,970,1174,1042,1016,-8,23,3,-1,170.2,-4,0.7,67,3.818,3.817,0,0,0,0,4.497,100.94,38.310021567128,0,12,AutoLanding,"Zona de altitud restringida 150m Aterrizando automáticamente.... Punto de origen actualizado. Altitud de RPO establecida en 30m"
313700,2025-05-20 10:50:07,-34.9206171336788,-56.1693588143434,0,0.032808399999999,38.178787967128,38.310021567128,0,0,3.23498369932,2.16346135532,25,5,7.608,38.310021567128,0,0.447388,3.4000329172,0,0,0,158.1, -0.4, 0.8,0,0,973,1175,1082,1013,-8,23,9,-2,178.2,-7.6,0.7,67,3.806,3.802,0,0,0,0,5.02,100.94,38.310021567128,0,12,AutoLanding,"Zona de altitud restringida 150m Aterrizando automáticamente.... Punto de origen actualizado. Altitud de RPO establecida en 30m"
313800,2025-05-20 10:50:07,-34.9206172875629,-56.1693588067162,0,0.032808399999999,38.178787967128,38.310021567128,0,0,3.2909777956,2.219652302,25,5,7.608,38.310021567128,0,0.447388,3.4000329172,0,0,0,168.2, -0.7, 1,0,0,974,1176,1159,1013,-8,23,20,-2,188.9,-7.9,1.3,67,3.806,3.802,0,0,0,0,5.02,100.94,38.310021567128,0,12,AutoLanding,"Zona de altitud restringida 150m Aterrizando automáticamente.... Punto de origen actualizado. Altitud de RPO establecida en 30m"
313900,2025-05-20 10:50:07,-34.9206172688355,-56.1693587567215,0,0.032808399999999,38.178787967128,38.310021567128,0,0,3.286089344,2.23609259124,25,5,7.608,38.310021567128,0,0.447388,3.4000329172,0,0,0,178.3, -2.6, 1.3,0,0,970,1170,1038,1012,-8,22,2,-2,199.1,-7.9,2.4,67,3.806,3.802,0,0,0,0,5.02,100.94,38.310021567128,0,12,AutoLanding,"Zona de altitud restringida 150m Aterrizando automáticamente.... Punto de origen actualizado. Altitud de RPO establecida en 30m"
314000,2025-05-20 10:50:07,-34.9206174792574,-56.1693588465134,0,0.032808399999999,38.178787967128,38.310021567128,0,0,3.3589568004,2.31743117652,23,5,7.608,38.310021567128,0,0.447388,3.4000329172,0,0,0,188.2, -4.1, 1.8,0,0,968,1170,1024,1010,-8,22,0,-2,208.4,-8.4,1.2,67,3.806,3.802,0,0,0,0,5.02,100.94,38.310021567128,0,12,AutoLanding,"Zona de altitud restringida 150m Aterrizando automáticamente.... Punto de origen actualizado. Altitud de RPO establecida en 30m"
314100,2025-05-20 10:50:07,-34.9206174975307,-56.1693588920049,0,0.032808399999999,38.178787967128,38.310021567128,0,0,3.364009294,2.33258537648,23,5,7.608,38.310021567128,0,0.447388,3.4000329172,0,0,0,197.4, -2.2, 0.1,0,0,969,1169,1024,1011,-8,22,0,-2,217.2,-8.6,-0.4,67,3.806,3.802,0,0,0,0,5.02,100.94,38.310021567128,0,12,AutoLanding,"Zona de altitud restringida 150m Aterrizando automáticamente.... Punto de origen actualizado. Altitud de RPO establecida en 30m"
314200,2025-05-20 10:50:07,-34.9206177389693,-56.1693590378724,0,0.065616799999999,38.145979567128,38.310021567128,0,0,3.447014546,2.4308891854,23,5,7.608,38.310021567128,0,0.447388,3.447014546,0,0,0,204.2, -1.6, -0.9,0,0,966,1166,1024,1011,-9,22,0,-2,218.4,-8.6,-1,67,3.806,3.802,0,0,0,0,5.02,100.94,38.310021567128,0,12,AutoLanding,"Zona de altitud restringida 150m Aterrizando automáticamente.... Punto de origen actualizado. Altitud de RPO establecida en 30m"
314300,2025-05-20 10:50:07,-34.9206177866701,-56.1693591969046,0,0.065616799999999,38.145979567128,38.310021567128,0,0.223694,3.4600066724,2.48154863584,23,5,7.608,38.310021567128,0,0.447388,3.4600066724,0,-0.223694,0,203.4, -1.4, -1.3,0,0,964,1157,1024,1015,-9,20,0,-1,217.8,-8.6,-1.6,67,3.806,3.802,0,0,0,0,5.02,100.94,38.310021567128,0,12,AutoLanding,"Zona de altitud restringida 150m Aterrizando automáticamente.... Punto de origen actualizado. Altitud de RPO establecida en 30m"
314400,2025-05-20 10:50:07,-34.9206180256328,-56.1693593913144,0,0.065616799999999,38.145979567128,38.310021567128,0,0.223694,3.5425854152,2.5863517888,23,5,7.608,38.310021567128,0,0.447388,3.5425854152,0,-0.223694,0,203.1, -0.7, -2,0,0,959,1134,1024,1038,-10,17,0,2,217.7,-8.6,-1.7,67,3.806,3.802,0,0,0,0,5.02,100.94,38.310021567128,0,12,AutoLanding,"Zona de altitud restringida 150m Aterrizando automáticamente.... Punto de origen actualizado. Altitud de RPO establecida en 30m"
314500,2025-05-20 10:50:07,-34.9206180807313,-56.1693595220947,0,0.065616799999999,38.145979567128,38.310021567128,0,0,3.5603347596,2.63033801068,23,5,7.608,38.310021567128,0,0.447388,3.5603347596,0,0,0,203, -0.8, -1.5,0,0,957,1118,1024,1058,-10,14,0,5,217.7,-8.6,-1.1,67,3.806,3.802,0,0,0,0,5.02,100.94,38.310021567128,0,12,AutoLanding,"Zona de altitud restringida 150m Aterrizando automáticamente.... Punto de origen actualizado. Altitud de RPO establecida en 30m"
314600,2025-05-20 10:50:08,-34.9206181099489,-56.1693596273081,0,0.065616799999999,38.145979567128,38.310021567128,0,0,3.569389878,2.66356963904,22,5,7.608,38.310021567128,0,0.447388,3.569389878,0,0,0,203.1, -0.8, -1.4,0,0,953,1081,1024,1079,-11,9,0,8,217.8,-8.6,-1.1,67,3.806,3.802,0,0,0,0,5.02,100.94,38.310021567128,0,12,AutoLanding,"Zona de altitud restringida 150m Aterrizando automáticamente.... Punto de origen actualizado. Altitud de RPO establecida en 30m"
314700,2025-05-20 10:50:08,-34.9206181896902,-56.169359704207,0,0.065616799999999,38.145979567128,38.310021567128,0,0,3.5975066768,2.70065953524,22,5,7.595,38.310021567128,0,0.447388,3.5975066768,0,0,0,203.1, -0.5, -1.3,0,0,951,1047,1024,1101,-11,3,0,12,217.6,-8.6,-1.2,67,3.799,3.796,0,0,0,0,5.064,100.94,38.310021567128,0,12,AutoLanding,"Zona de altitud restringida 150m Aterrizando automáticamente.... Punto de origen actualizado. Altitud de RPO establecida en 30m"
314800,2025-05-20 10:50:08,-34.9206181152091,-56.1693597652036,0,0.065616799999999,38.145979567128,38.310021567128,0,0,3.5696851536,2.73339247592,22,5,7.595,38.310021567128,0,0.447388,3.5975066768,0,0,0,202.6, -0.3, -1.6,0,0,947,1047,1064,1099,-12,3,6,11,216.9,-11.3,-1.7,67,3.799,3.796,0,0,0,0,5.064,100.94,38.310021567128,0,12,AutoLanding,"Zona de altitud restringida 150m Aterrizando automáticamente.... Punto de origen actualizado. Altitud de RPO establecida en 30m"
314900,2025-05-20 10:50:08,-34.9206181001655,-56.1693598473683,0,0.065616799999999,38.145979567128,38.310021567128,0,0,3.5634515576,2.75857620376,22,5,7.595,38.310021567128,0,0.447388,3.5975066768,0,0,0,202, -0.8, -2.1,0,0,941,1052,1121,1097,-13,4,15,11,216.5,-12.6,-2.5,67,3.799,3.796,0,0,0,0,5.064,100.94,38.310021567128,0,12,AutoLanding,"Zona de altitud restringida 150m Aterrizando automáticamente.... Punto de origen actualizado. Altitud de RPO establecida en 30m"
315000,2025-05-20 10:50:08,-34.9206180566624,-56.1693599435963,0,0.065616799999999,38.145979567128,38.310021567128,0,0,3.5469489324,2.79145022056,24,5,7.595,38.310021567128,0,0.447388,3.5975066768,0,0,0,201.9, -2.1, -2.9,0,0,937,1055,1175,1094,-13,5,23,11,216.6,-13.6,-2.7,67,3.799,3.796,0,0,0,0,5.064,100.94,38.310021567128,0,12,AutoLanding,"Zona de altitud restringida 150m Aterrizando automáticamente.... Punto de origen actualizado. Altitud de RPO establecida en 30m"
315100,2025-05-20 10:50:08,-34.9206180298906,-56.1693599927761,0,0.065616799999999,38.145979567128,38.310021567128,0,0,3.536909562,2.80911098228,24,5,7.595,38.310021567128,0,0.447388,3.5975066768,0,0,0,202.3, -3.6, -2.5,0,0,933,1059,1197,1091,-14,5,26,10,217.2,-14.1,-2.3,67,3.799,3.796,0,0,0,0,5.064,100.94,38.310021567128,0,12,AutoLanding,"Zona de altitud restringida 150m Aterrizando automáticamente.... Punto de origen actualizado. Altitud de RPO establecida en 30m"
315200,2025-05-20 10:50:08,-34.9206180669642,-56.1693599757455,0,0.065616799999999,38.145979567128,38.310021567128,0,0,3.550525048,2.82356308248,24,5,7.595,38.310021567128,0,0.447388,3.5975066768,0,0,0,203, -5, -2.4,0,0,929,1067,1223,1087,-14,7,30,10,218,-15,-2,67,3.799,3.796,0,0,0,0,5.064,100.94,38.310021567128,0,12,AutoLanding,"Zona de altitud restringida 150m Aterrizando automáticamente.... Punto de origen actualizado. Altitud de RPO establecida en 30m"
315300,2025-05-20 10:50:08,-34.920618105567,-56.1693599822547,0,0.065616799999999,38.145979567128,38.310021567128,0,0,3.5645670432,2.83778224304,24,5,7.595,38.310021567128,0,0.447388,3.5975066768,0,0,0,204, -6.3, -1.6,0,0,928,1068,1246,1086,-15,7,34,9,219.3,-15.5,-1.7,67,3.799,3.796,0,0,0,0,5.064,100.94,38.310021567128,0,12,AutoLanding,"Zona de altitud restringida 150m Aterrizando automáticamente.... Punto de origen actualizado. Altitud de RPO establecida en 30m"
315400,2025-05-20 10:50:08,-34.9206181870345,-56.1693599363035,0,0.065616799999999,38.145979567128,38.310021567128,0,0,3.5945211124,2.87053158792,24,5,7.595,38.310021567128,0,0.447388,3.5975066768,0,0,0,205.4, -7.3, -1.9,0,0,930,1065,1285,1084,-14,6,40,9,220.6,-15.5,-2,67,3.799,3.796,0,0,0,0,5.064,100.94,38.310021567128,0,12,AutoLanding,"Zona de altitud restringida 150m Aterrizando automáticamente.... Punto de origen actualizado. Altitud de RPO establecida en 30m"
315500,2025-05-20 10:50:08,-34.9206182786282,-56.1693599929328,0,0.065616799999999,38.145979567128,38.310021567128,0,0.223694,3.6276575964,2.90799549988,24,5,7.595,38.310021567128,0,0.447388,3.6276575964,-0.223694,0,0,206.6, -8, -1.9,0,0,933,1063,1303,1083,-14,6,42,9,221.7,-15.5,-1.8,67,3.799,3.796,0,0,0,0,5.064,100.94,38.310021567128,0,12,AutoLanding,"Zona de altitud restringida 150m Aterrizando automáticamente.... Punto de origen actualizado. Altitud de RPO establecida en 30m"
315600,2025-05-20 10:50:09,-34.9206186526792,-56.1693600489352,0,0.065616799999999,38.145979567128,38.310021567128,0,0.4921268,3.7639108816,3.04549222344,26,5,7.595,38.310021567128,0,0.4921268,3.7639108816,-0.447388,-0.223694,0,207.8, -8.9, -1.7,0,0,934,1063,1319,1081,-14,6,45,9,222.9,-15.6,-1.7,67,3.799,3.796,0,0,0,0,5.064,100.94,38.310021567128,0,12,AutoLanding,"Zona de altitud restringida 150m Aterrizando automáticamente.... Punto de origen actualizado. Altitud de RPO establecida en 30m. Aterrizando automáticamente.... Asegúrate de que la zona bajo la aeronave es adecuada para aterrizar. Presiona el botón Bloqueo para forzar el aterrizaje"
315700,2025-05-20 10:50:09,-34.9206188449347,-56.1693601640849,0,0.065616799999999,38.145979567128,38.310021567128,0,0.7158208,3.8338911988,3.1236385514,26,5,7.59,38.310021567128,0,0.7158208,3.8338911988,-0.671082,-0.223694,0,209, -9.7, -1.6,0,0,934,1059,1318,1079,-14,5,45,8,224.1,-15.5,-1.4,66,3.795,3.793,0,0,0,0,4.892,100.94,38.310021567128,0,12,AutoLanding,"Zona de altitud restringida 150m Aterrizando automáticamente.... Asegúrate de que la zona bajo la aeronave es adecuada para aterrizar. Presiona el botón Bloqueo para forzar el aterrizaje"
315800,2025-05-20 10:50:09,-34.9206194133444,-56.169360270688,0,0.065616799999999,38.145979567128,38.310021567128,0,0.7158208,4.0414043288,3.3334646736,26,5,7.59,38.310021567128,0,0.7158208,4.0414043288,-0.894776,-0.447388,0,210.1, -9.7, -1.3,0,0,934,1053,1217,1077,-14,4,29,8,225.1,-15.6,-1,66,3.795,3.793,0,0,0,0,4.892,100.94,38.310021567128,0,12,AutoLanding,"Zona de altitud restringida 150m Aterrizando automáticamente.... Asegúrate de que la zona bajo la aeronave es adecuada para aterrizar. Presiona el botón Bloqueo para forzar el aterrizaje"
315900,2025-05-20 10:50:09,-34.9206199859005,-56.1693604006533,0,0.098425199999998,38.113171167128,38.310021567128,0,1.2079476,4.2507547292,3.545931872,26,5,7.59,38.310021567128,0,1.2079476,4.2507547292,-1.11847,-0.447388,0,210.9, -8.8, -0.7,0,0,935,1054,1041,1078,-13,5,3,8,225.9,-15.6,-0.3,66,3.795,3.793,0,0,0,0,4.892,100.94,38.310021567128,0,12,AutoLanding,"Zona de altitud restringida 150m Aterrizando automáticamente.... Asegúrate de que la zona bajo la aeronave es adecuada para aterrizar. Presiona el botón Bloqueo para forzar el aterrizaje"
316000,2025-05-20 10:50:09,-34.9206206418003,-56.169360357429,0,0.098425199999998,38.113171167128,38.310021567128,0.328084,1.2079476,4.4898623484,3.785597234,26,5,7.59,38.310021567128,0,1.2079476,4.4898623484,-1.11847,-0.447388,0,211.3, -5.7, -0.3,0,0,935,1055,1024,1077,-13,5,0,8,226.4,-15.6,-0.2,66,3.795,3.793,0,0,0,0,4.892,100.94,38.310021567128,0,12,AutoLanding,"Zona de altitud restringida 150m Aterrizando automáticamente.... Asegúrate de que la zona bajo la aeronave es adecuada para aterrizar. Presiona el botón Bloqueo para forzar el aterrizaje"
316100,2025-05-20 10:50:09,-34.9206212201263,-56.1693605688904,0,0.1312336,38.080362767128,38.310021567128,0.656168,1.4987498,4.7020342712,4.0058728316,26,5,7.59,38.310021567128,0,1.4987498,4.7020342712,-1.342164,-0.671082,0,211.9, -1.9, -0.4,0,0,935,1053,1024,1077,-13,4,0,8,227,-15.6,-0.4,66,3.795,3.793,0,0,0,0,4.892,100.94,38.310021567128,0,12,AutoLanding,"Zona de altitud restringida 150m Aterrizando automáticamente.... Asegúrate de que la zona bajo la aeronave es adecuada para aterrizar. Presiona el botón Bloqueo para forzar el aterrizaje"
316200,2025-05-20 10:50:09,-34.9206215214179,-56.1693607313705,0,0.1312336,38.080362767128,38.310021567128,0.656168,1.2079476,4.8133859808,4.1260828092,24,5,7.59,38.310021567128,0,1.4987498,4.8133859808,-1.11847,-0.447388,0,212.4, 0, -0.6,0,0,932,1052,1024,1078,-14,4,0,8,227.5,-15.6,-0.2,66,3.795,3.793,0,0,0,0,4.892,100.94,38.310021567128,0,12,AutoLanding,"Zona de altitud restringida 150m Aterrizando automáticamente.... Asegúrate de que la zona bajo la aeronave es adecuada para aterrizar. Presiona el botón Bloqueo para forzar el aterrizaje"
316300,2025-05-20 10:50:09,-34.9206219643901,-56.1693607196894,0,0.1312336,38.080362767128,38.310021567128,0.656168,1.2079476,4.9747705004,4.287729796,24,5,7.59,38.310021567128,0,1.4987498,4.9747705004,-1.11847,-0.447388,0,212.8, 2.4, 0.1,0,0,931,1064,1024,1082,-14,6,0,9,227.5,-15.6,1.3,66,3.795,3.793,0,0,0,0,4.892,100.94,38.310021567128,0,12,AutoLanding,"Zona de altitud restringida 150m Aterrizando automáticamente.... Asegúrate de que la zona bajo la aeronave es adecuada para aterrizar. Presiona el botón Bloqueo para forzar el aterrizaje"
316400,2025-05-20 10:50:09,-34.920622472981,-56.1693611124063,0,0.1312336,38.080362767128,38.310021567128,0.656168,0.9171454,5.1653216876,4.5073492256,24,5,7.59,38.310021567128,0,1.4987498,5.1653216876,-0.894776,-0.223694,0,212.9, 3.5, 1.1,0,0,931,1067,1024,1084,-14,7,0,9,227.5,-15.6,1.3,66,3.795,3.793,0,0,0,0,4.892,100.94,38.310021567128,0,12,AutoLanding,"Zona de altitud restringida 150m Aterrizando automáticamente.... Asegúrate de que la zona bajo la aeronave es adecuada para aterrizar. Presiona el botón Bloqueo para forzar el aterrizaje"
316500,2025-05-20 10:50:09,-34.9206227465071,-56.169361267489,0,0.164042,38.047554367128,38.310021567128,0.328084,0.7158208,5.2676838956,4.6174214076,24,5,7.59,38.310021567128,0,1.4987498,5.2676838956,-0.671082,-0.223694,0,212.8, 2.9, 0.6,0,0,934,1065,1024,1083,-14,6,0,9,227.5,-15.6,1.2,66,3.795,3.793,0,0,0,0,4.892,100.94,38.310021567128,0,12,AutoLanding,"Zona de altitud restringida 150m Aterrizando automáticamente.... Asegúrate de que la zona bajo la aeronave es adecuada para aterrizar. Presiona el botón Bloqueo para forzar el aterrizaje"
316600,2025-05-20 10:50:10,-34.9206230637419,-56.1693613657649,0,0.164042,38.047554367128,38.310021567128,0.656168,0.447388,5.3850723508,4.7368111752,24,5,7.59,38.310021567128,0,1.4987498,5.3850723508,-0.447388,0,0,212.8, 1.9, 0.8,0,0,932,1072,1024,1074,-14,7,0,8,227.5,-15.5,0.9,66,3.795,3.793,0,0,0,0,4.892,100.94,38.310021567128,0,12,AutoLanding,"Zona de altitud restringida 150m Aterrizando automáticamente.... Asegúrate de que la zona bajo la aeronave es adecuada para aterrizar. Presiona el botón Bloqueo para forzar el aterrizaje"
316700,2025-05-20 10:50:10,-34.9206241228674,-56.1693619140974,0,0.164042,38.047554367128,38.310021567128,0.656168,0.447388,5.7832022848,5.1566274616,24,5,7.581,38.310021567128,0,1.4987498,5.7832022848,-0.447388,0,0,212.7, 2.1, 0.8,0,0,933,1080,1024,1069,-14,8,0,7,227.4,-15.6,1.6,66,3.791,3.79,0,0,0,0,4.841,100.94,38.310021567128,0,12,AutoLanding,"Zona de altitud restringida 150m Aterrizando automáticamente.... Asegúrate de que la zona bajo la aeronave es adecuada para aterrizar. Presiona el botón Bloqueo para forzar el aterrizaje"
316800,2025-05-20 10:50:10,-34.9206244227926,-56.1693620883944,0,0.164042,38.047554367128,38.310021567128,0.656168,0.223694,5.8970474328,5.2778216912,24,5,7.581,38.310021567128,0,1.4987498,5.8970474328,-0.223694,0,0,212.8, 2.1, 1.4,0,0,935,1086,1024,1063,-13,9,0,6,227.5,-15.6,2.6,66,3.791,3.79,0,0,0,0,4.841,100.94,38.310021567128,0,12,AutoLanding,"Zona de altitud restringida 150m Aterrizando automáticamente.... Asegúrate de que la zona bajo la aeronave es adecuada para aterrizar. Presiona el botón Bloqueo para forzar el aterrizaje"
316900,2025-05-20 10:50:10,-34.9206246765505,-56.1693621430595,0,0.1968504,38.014745967128,38.310021567128,0.656168,0.223694,5.9907810316,5.3718505656,24,5,7.581,38.310021567128,0,1.4987498,5.9907810316,-0.223694,0,0,212.8, 1.4, 2.4,0,0,936,1085,1024,1062,-13,9,0,6,227.5,-15.6,3.1,66,3.791,3.79,0,0,0,0,4.841,100.94,38.310021567128,0,12,AutoLanding,"Zona de altitud restringida 150m Aterrizando automáticamente.... Asegúrate de que la zona bajo la aeronave es adecuada para aterrizar. Presiona el botón Bloqueo para forzar el aterrizaje"
317000,2025-05-20 10:50:10,-34.9206239992033,-56.1693623340423,0,0.164042,38.047554367128,38.310021567128,0.656168,0,5.7510828612,5.625492306,24,5,7.581,38.310021567128,0,1.4987498,5.9907810316,0,0,0,212.7, 0.8, 2.7,0,0,937,1082,1024,1062,-13,9,0,6,227.5,-15.5,2.3,66,3.791,3.79,0,0,0,0,4.841,100.94,38.310021567128,0,12,AutoLanding,"Zona de altitud restringida 150m Aterrizando automáticamente.... Asegúrate de que la zona bajo la aeronave es adecuada para aterrizar. Presiona el botón Bloqueo para forzar el aterrizaje"
317100,2025-05-20 10:50:10,-34.9206238484118,-56.1693623871401,0,0.164042,38.047554367128,38.310021567128,0.656168,0,5.6982285288,5.6827757724,24,5,7.581,38.310021567128,0,1.4987498,5.9907810316,0,0,-0.223694,212.7, 0.8, 1.5,0,0,937,1082,1024,1061,-13,9,0,6,227.5,-15.6,1.9,66,3.791,3.79,0,0,0,0,4.841,100.94,38.310021567128,0,12,AutoLanding,"Zona de altitud restringida 150m Aterrizando automáticamente.... Asegúrate de que la zona bajo la aeronave es adecuada para aterrizar. Presiona el botón Bloqueo para forzar el aterrizaje"
317200,2025-05-20 10:50:10,-34.9206235794347,-56.1693623318273,0,0.164042,38.047554367128,38.310021567128,0.656168,0,5.5988518852,5.7822836496,26,5,7.581,38.310021567128,0,1.4987498,5.9907810316,0,0,-0.671082,212.8, 0.3, 2.1,0,0,938,1082,1024,1057,-13,9,0,5,227.8,-15.6,2.2,66,3.791,3.79,0,0,0,0,4.841,100.94,38.310021567128,0,12,AutoLanding,"Zona de altitud restringida 150m Aterrizando automáticamente.... Asegúrate de que la zona bajo la aeronave es adecuada para aterrizar. Presiona el botón Bloqueo para forzar el aterrizaje"
317300,2025-05-20 10:50:10,-34.9206233903447,-56.1693623950285,0.328084,0.492126,38.047554367128,38.638105567128,0.656168,0,5.5325789172,5.8538059616,26,5,7.581,38.638105567128,0.328084,1.4987498,5.9907810316,0,0,-1.342164,212.9, -1.7, 1.6,0,0,937,1082,1024,1055,-13,9,0,5,227.8,-15.6,1.4,66,3.791,3.79,0,0,0,0,4.841,100.94,38.638105567128,0.328084,12,AutoLanding,"Zona de altitud restringida 150m Aterrizando automáticamente.... Asegúrate de que la zona bajo la aeronave es adecuada para aterrizar. Presiona el botón Bloqueo para forzar el aterrizaje"
317400,2025-05-20 10:50:10,-34.9206233047478,-56.1693623455457,0.656168,0.82021,38.047554367128,38.966189567128,0.984252,0,5.4998033256,5.8883860152,26,5,7.581,38.966189567128,0.656168,1.4987498,5.9907810316,0,0,-1.565858,212.8, -2.3, 0.7,0,0,937,1081,1024,1055,-13,9,0,5,227.5,-15.6,-0.1,66,3.791,3.79,0,0,0,0,4.841,100.94,38.966189567128,0.656168,12,AutoLanding,"Zona de altitud restringida 150m Aterrizando automáticamente.... Asegúrate de que la zona bajo la aeronave es adecuada para aterrizar. Presiona el botón Bloqueo para forzar el aterrizaje"
317500,2025-05-20 10:50:10,-34.9206230850565,-56.1693622368635,0.984252,1.148294,38.047554367128,39.294273567128,1.312336,0.223694,5.4164043728,5.9748689576,26,5,7.581,39.294273567128,0.984252,1.4987498,5.9907810316,0.223694,0,-2.013246,212.8, -3, -1,0,0,937,1083,1024,1055,-13,9,0,5,227.5,-15.6,-1.8,66,3.791,3.79,0,0,0,0,4.841,100.94,39.294273567128,0.984252,12,AutoLanding,"Zona de altitud restringida 150m Aterrizando automáticamente.... Asegúrate de que la zona bajo la aeronave es adecuada para aterrizar. Presiona el botón Bloqueo para forzar el aterrizaje"
317600,2025-05-20 10:50:11,-34.9206230850865,-56.1693624210549,1.312336,1.476378,38.047554367128,39.622357567128,1.64042,0.223694,5.4229988612,6.0299870696,25,5,7.581,39.622357567128,1.312336,1.4987498,5.9907810316,0.223694,0,-2.013246,212.6, -3.7, -2.5,0,0,934,1083,1024,1055,-14,9,0,5,227.7,-15.6,-3.1,66,3.791,3.79,0,0,0,0,4.841,100.94,39.622357567128,1.312336,12,AutoLanding,"Zona de altitud restringida 150m Aterrizando automáticamente.... Asegúrate de que la zona bajo la aeronave es adecuada para aterrizar. Presiona el botón Bloqueo para forzar el aterrizaje"
317700,2025-05-20 10:50:11,-34.9206227932999,-56.1693626884246,1.64042,1.804462,38.047554367128,39.950441567128,1.968504,0,5.32808416,6.1631235568,25,5,7.547,39.950441567128,1.64042,1.4987498,5.9907810316,0,0,-2.013246,213, -4, -3.4,0,0,933,1084,1024,1053,-14,9,0,4,227.8,-15.6,-3.4,66,3.775,3.772,0,0,0,0,5.989,100.94,39.950441567128,1.64042,12,AutoLanding,"Zona de altitud restringida 150m Aterrizando automáticamente.... Asegúrate de que la zona bajo la aeronave es adecuada para aterrizar. Presiona el botón Bloqueo para forzar el aterrizaje"
317800,2025-05-20 10:50:11,-34.9206228545366,-56.169362618453,1.968504,2.132546,38.047554367128,40.278525567128,1.968504,0,5.3473098824,6.1937666024,25,5,7.547,40.278525567128,1.968504,1.4987498,5.9907810316,0,0,-2.23694,213, -4, -2.9,0,0,931,1089,1024,1054,-14,10,0,5,228,-15.6,-2.1,66,3.775,3.772,0,0,0,0,5.989,100.94,40.278525567128,1.968504,12,AutoLanding,"Zona de altitud restringida 150m Aterrizando automáticamente.... Asegúrate de que la zona bajo la aeronave es adecuada para aterrizar. Presiona el botón Bloqueo para forzar el aterrizaje"
317900,2025-05-20 10:50:11,-34.9206229559523,-56.1693627396627,2.296588,2.46063,38.047554367128,40.606609567128,2.296588,0,5.3890093588,6.245571066,25,5,7.547,40.606609567128,2.296588,1.4987498,5.9907810316,0,0,-2.23694,213.1, -3.7, -2.2,0,0,931,1090,1024,1057,-14,10,0,5,227.8,-15.6,-2.3,66,3.775,3.772,0,0,0,0,5.989,100.94,40.606609567128,2.296588,12,AutoLanding,"Zona de altitud restringida 150m Aterrizando automáticamente.... Asegúrate de que la zona bajo la aeronave es adecuada para aterrizar. Presiona el botón Bloqueo para forzar el aterrizaje"
318000,2025-05-20 10:50:11,-34.9206229293904,-56.1693617772676,2.624672,2.788714,38.047554367128,40.934693567128,2.624672,0,5.3458335044,6.533628818,25,5,7.547,40.934693567128,2.624672,1.4987498,5.9907810316,0,0,-2.013246,213, -3.5, -2.4,0,0,932,1092,1024,1058,-14,10,0,5,227.4,-15.6,-1.5,66,3.775,3.772,0,0,0,0,5.989,100.94,40.934693567128,2.624672,12,AutoLanding,"Zona de altitud restringida 150m Aterrizando automáticamente.... Asegúrate de que la zona bajo la aeronave es adecuada para aterrizar. Presiona el botón Bloqueo para forzar el aterrizaje"
318100,2025-05-20 10:50:11,-34.9206229197483,-56.169361224923,2.952756,3.116798,38.047554367128,41.262777567128,2.952756,0.223694,5.3299870472,6.6989175372,25,5,7.547,41.262777567128,2.952756,1.4987498,5.9907810316,0,0.223694,-2.013246,212.6, -4.5, -0.9,0,0,933,1092,1024,1060,-14,10,0,5,227.5,-15.6,0.5,66,3.775,3.772,0,0,0,0,5.989,100.94,41.262777567128,2.952756,12,AutoLanding,"Zona de altitud restringida 150m Aterrizando automáticamente.... Asegúrate de que la zona bajo la aeronave es adecuada para aterrizar. Presiona el botón Bloqueo para forzar el aterrizaje"
318200,2025-05-20 10:50:11,-34.9206223948374,-56.1693603664877,3.28084,3.4120736,38.080362767128,41.590861567128,3.28084,0.223694,5.129429298,7.0192587548,25,5,7.547,41.590861567128,3.28084,1.4987498,5.9907810316,0,0.223694,-2.013246,212.6, -4.8, 1,0,0,937,1083,1024,1067,-13,9,0,7,227.8,-15.6,2.2,66,3.775,3.772,0,0,0,0,5.989,100.94,41.590861567128,3.28084,12,AutoLanding,"Zona de altitud restringida 150m Aterrizando automáticamente.... Asegúrate de que la zona bajo la aeronave es adecuada para aterrizar. Presiona el botón Bloqueo para forzar el aterrizaje"
318300,2025-05-20 10:50:11,-34.9206220143184,-56.1693599127846,3.608924,3.7401576,38.080362767128,41.918945567128,3.608924,0.223694,4.9908466164,7.213418866,25,5,7.547,41.918945567128,3.608924,1.4987498,5.9907810316,0,0.223694,-2.23694,212.6, -6.4, 2.8,0,0,941,1081,1024,1072,-13,9,0,7,227.9,-15.6,3.4,66,3.775,3.772,0,0,0,0,5.989,100.94,41.918945567128,3.608924,12,AutoLanding,"Zona de altitud restringida 150m Aterrizando automáticamente.... Asegúrate de que la zona bajo la aeronave es adecuada para aterrizar. Presiona el botón Bloqueo para forzar el aterrizaje"
318400,2025-05-20 10:50:11,-34.9206214690609,-56.1693598486952,3.937008,4.0354332,38.113171167128,42.247029567128,3.937008,0.223694,4.7922573712,7.4132876388,25,5,7.547,42.247029567128,3.937008,1.4987498,5.9907810316,0,0.223694,-2.013246,212.5, -7.1, 2.9,0,0,950,1071,1024,1087,-11,7,0,10,227.8,-15.6,2.5,66,3.775,3.772,0,0,0,0,5.989,100.94,42.247029567128,3.937008,12,AutoLanding,"Zona de altitud restringida 150m Aterrizando automáticamente.... Asegúrate de que la zona bajo la aeronave es adecuada para aterrizar. Presiona el botón Bloqueo para forzar el aterrizaje"
