time(millisecond),datetime(utc),latitude,longitude,height_above_takeoff(feet),height_above_ground_at_drone_location(feet),ground_elevation_at_drone_location(feet),altitude_above_seaLevel(feet),height_sonar(feet),speed(mph),distance(feet),mileage(feet),satellites,gpslevel,voltage(v),max_altitude(feet),max_ascent(feet),max_speed(mph),max_distance(feet), xSpeed(mph), ySpeed(mph), zSpeed(mph), compass_heading(degrees), pitch(degrees), roll(degrees),isPhoto,isVideo,rc_elevator,rc_aileron,rc_throttle,rc_rudder,rc_elevator(percent),rc_aileron(percent),rc_throttle(percent),rc_rudder(percent),gimbal_heading(degrees),gimbal_pitch(degrees),gimbal_roll(degrees),battery_percent,voltageCell1,voltageCell2,voltageCell3,voltageCell4,voltageCell5,voltageCell6,current(A),battery_temperature(f),altitude(feet),ascent(feet),flycStateRaw,flycState,message
0,2025-05-20 15:36:59,-34.9287311072692,-56.1627971056468,0,0,6.701209532024,6.701209532024,0.328084,0,0,0,8,0,0,6.701209532024,0,0,0,0,0,0,197.9, 6.3, 4.2,0,0,834,1017,1024,942,-29,-1,0,-12,201.5,0,4.7,99,4.098,4.093,0,0,0,0,0,70.16,6.701209532024,0,6,P-GPS,"Conecta a DJI Fly en exteriores Información de ubicación no actualizada. Algunas funciones no están disponibles. Comprueba que la señal de posicionamiento por satélite sea buena y conéctate a DJI Fly. Arranque de motores..."
100,2025-05-20 15:36:59,-34.9287311225093,-56.1627971181929,0,0,6.701209532024,6.701209532024,0.328084,0,0.0067083007396,0.0067083007396,8,0,0,6.701209532024,0,0,0.0067083007396,0,0,0,197.9, 6.2, 4.3,0,0,834,1017,1024,942,-29,-1,0,-12,201.5,0,4.7,99,4.098,4.093,0,0,0,0,0,70.16,6.701209532024,0,41,Motors_Started,"Conecta a DJI Fly en exteriores Información de ubicación no actualizada. Algunas funciones no están disponibles. Comprueba que la señal de posicionamiento por satélite sea buena y conéctate a DJI Fly. Arranque de motores..."
200,2025-05-20 15:36:59,-34.9287313215352,-56.1627968317569,0,0,6.701209532024,6.701209532024,0.328084,0,0.113240817272,0.1190206731,8,0,0,6.701209532024,0,0,0.113240817272,0,0,0,197.9, 6.3, 4.3,0,0,834,1017,1024,942,-29,-1,0,-12,201.5,0,4.7,99,4.098,4.093,0,0,0,0,0,70.16,6.701209532024,0,41,Motors_Started,"Conecta a DJI Fly en exteriores Información de ubicación no actualizada. Algunas funciones no están disponibles. Comprueba que la señal de posicionamiento por satélite sea buena y conéctate a DJI Fly. Arranque de motores..."
300,2025-05-20 15:36:59,-34.9287313207133,-56.1627968416292,0,0,6.701209532024,6.701209532024,0.328084,0,0.110912405124,0.121988849048,8,0,0,6.701209532024,0,0,0.113240817272,0,0,0,197.9, 6.3, 4.3,0,0,834,1017,1024,942,-29,-1,0,-12,201.5,0,4.7,99,4.098,4.093,0,0,0,0,0,70.16,6.701209532024,0,41,Motors_Started,"Conecta a DJI Fly en exteriores Información de ubicación no actualizada. Algunas funciones no están disponibles. Comprueba que la señal de posicionamiento por satélite sea buena y conéctate a DJI Fly. Arranque de motores..."
400,2025-05-20 15:36:59,-34.9287314088183,-56.1627967143257,0,0,6.701209532024,6.701209532024,0.328084,0,0.16064304976,0.17182251206,8,0,0,6.701209532024,0,0,0.16064304976,0,0,0,197.9, 6.2, 4.3,0,0,834,1017,1024,942,-29,-1,0,-12,201.5,0,4.7,99,4.098,4.093,0,0,0,0,0,70.16,6.701209532024,0,41,Motors_Started,"Setting new Return-To-Home altitude to 30m (98 ft). Data Recorder File Index is 5. Setting new Maximum Flight Altitude to 30m (98 ft). Conecta a DJI Fly en exteriores Información de ubicación no actualizada. Algunas funciones no están disponibles. Comprueba que la señal de posicionamiento por satélite sea buena y conéctate a DJI Fly. Arranque de motores..."
500,2025-05-20 15:36:59,-34.9287314089005,-56.1627967120166,0,0,6.701209532024,6.701209532024,0.328084,0,0.161167656076,0.172513785048,8,0,0,6.701209532024,0,0,0.161167656076,0,0,0,197.9, 6.2, 4.3,0,0,834,1017,1024,942,-29,-1,0,-12,201.5,0,4.7,99,4.098,4.093,0,0,0,0,0,70.16,6.701209532024,0,41,Motors_Started,"Conecta a DJI Fly en exteriores Información de ubicación no actualizada. Algunas funciones no están disponibles. Comprueba que la señal de posicionamiento por satélite sea buena y conéctate a DJI Fly. Arranque de motores..."
600,2025-05-20 15:36:59,-34.9287318044721,-56.1627968008232,0,0.0656168,6.635592732024,6.701209532024,0.328084,0,0.270222449592,0.319262149324,8,0,0,6.701209532024,0,0,0.270222449592,0,0,0,197.9, 6.2, 4.3,0,0,834,1017,1024,942,-29,-1,0,-12,201.6,0,4.7,99,4.098,4.093,0,0,0,0,0,70.16,6.701209532024,0,41,Motors_Started,"Conecta a DJI Fly en exteriores Información de ubicación no actualizada. Algunas funciones no están disponibles. Comprueba que la señal de posicionamiento por satélite sea buena y conéctate a DJI Fly. Arranque de motores..."
700,2025-05-20 15:36:59,-34.9287318041535,-56.1627967969157,0,0.0656168,6.635592732024,6.701209532024,0.328084,0,0.270509851176,0.320437018128,8,0,0,6.701209532024,0,0,0.270509851176,0,0,0,197.9, 6.2, 4.3,0,0,834,1017,1024,942,-29,-1,0,-12,201.6,0,4.7,99,4.098,4.093,0,0,0,0,0,70.16,6.701209532024,0,41,Motors_Started,"Conecta a DJI Fly en exteriores Información de ubicación no actualizada. Algunas funciones no están disponibles. Comprueba que la señal de posicionamiento por satélite sea buena y conéctate a DJI Fly. Arranque de motores..."
800,2025-05-20 15:37:00,-34.9287319985047,-56.1627964927241,0,0.0656168,6.635592732024,6.701209532024,0.328084,0,0.3732939752,0.4357939772,8,0,0,6.701209532024,0,0,0.3732939752,0,0,0,197.9, 6.3, 4.3,0,0,834,1017,1024,942,-29,-1,0,-12,201.6,0,4.7,99,4.098,4.093,0,0,0,0,0,70.16,6.701209532024,0,41,Motors_Started,"Conecta a DJI Fly en exteriores Información de ubicación no actualizada. Algunas funciones no están disponibles. Comprueba que la señal de posicionamiento por satélite sea buena y conéctate a DJI Fly. Arranque de motores..."
900,2025-05-20 15:37:00,-34.9287319934901,-56.1627964944262,0,0.0656168,6.635592732024,6.701209532024,0.328084,0,0.37145014312,0.43769358356,8,0,0,6.701209532024,0,0,0.3732939752,0,0,0,197.9, 6.3, 4.3,0,0,834,1017,1024,942,-29,-1,0,-12,201.6,0,4.7,99,4.098,4.093,0,0,0,0,0,70.16,6.701209532024,0,41,Motors_Started,"Conecta a DJI Fly en exteriores Información de ubicación no actualizada. Algunas funciones no están disponibles. Comprueba que la señal de posicionamiento por satélite sea buena y conéctate a DJI Fly. Arranque de motores..."
1000,2025-05-20 15:37:00,-34.9287319917229,-56.1627962944742,0,0.0656168,6.635592732024,6.701209532024,0.328084,0,0.4037401704,0.49750985844,8,0,0,6.701209532024,0,0,0.4037401704,0,0,0,197.9, 6.3, 4.3,0,0,834,1017,1024,942,-29,-1,0,-12,201.5,0,4.7,99,4.098,4.093,0,0,0,0,0,70.16,6.701209532024,0,41,Motors_Started,"Conecta a DJI Fly en exteriores Información de ubicación no actualizada. Algunas funciones no están disponibles. Comprueba que la señal de posicionamiento por satélite sea buena y conéctate a DJI Fly. Arranque de motores..."
1100,2025-05-20 15:37:00,-34.92873198346,-56.1627962926744,0,0.0656168,6.635592732024,6.701209532024,0.328084,0,0.40166011784,0.50057088216,8,0,0,6.701209532024,0,0,0.4037401704,0,0,0,197.8, 6.3, 4.3,0,0,834,1017,1024,942,-29,-1,0,-12,201.5,0,4.7,99,4.098,4.093,0,0,0,0,0,70.16,6.701209532024,0,41,Motors_Started,"Conecta a DJI Fly en exteriores Información de ubicación no actualizada. Algunas funciones no están disponibles. Comprueba que la señal de posicionamiento por satélite sea buena y conéctate a DJI Fly. Arranque de motores..."
1200,2025-05-20 15:37:00,-34.9287319821948,-56.1627963882123,0,0.0656168,6.635592732024,6.701209532024,0.328084,0,0.38464896244,0.52915356024,8,0,0,6.701209532024,0,0,0.4037401704,0,0,0,197.8, 6.4, 4.3,0,0,834,1017,1024,942,-29,-1,0,-12,201.5,0,4.7,99,4.098,4.093,0,0,0,0,0,70.16,6.701209532024,0,41,Motors_Started,"Conecta a DJI Fly en exteriores Información de ubicación no actualizada. Algunas funciones no están disponibles. Comprueba que la señal de posicionamiento por satélite sea buena y conéctate a DJI Fly. Arranque de motores..."
1300,2025-05-20 15:37:00,-34.9287317848853,-56.1627963920909,0,0.0656168,6.635592732024,6.701209532024,0.328084,0,0.326618776856,0.60115159404,8,0,0,6.701209532024,0,0,0.4037401704,0,0,0,197.7, 6.4, 4.3,0,0,834,1017,1024,942,-29,-1,0,-12,201.5,0,4.7,99,4.098,4.093,0,0,0,0,0,70.16,6.701209532024,0,41,Motors_Started,"Conecta a DJI Fly en exteriores Información de ubicación no actualizada. Algunas funciones no están disponibles. Comprueba que la señal de posicionamiento por satélite sea buena y conéctate a DJI Fly. Arranque de motores..."
1400,2025-05-20 15:37:00,-34.9287317734717,-56.1627963721415,0,0.0656168,6.635592732024,6.701209532024,0.328084,0,0.327446532788,0.60842849716,8,0,0,6.701209532024,0,0,0.4037401704,0,0,0,197.8, 6.5, 4.2,0,0,834,1017,1024,942,-29,-1,0,-12,201.5,0,4.7,99,4.098,4.093,0,0,0,0,0,70.16,6.701209532024,0,41,Motors_Started,"Conecta a DJI Fly en exteriores Información de ubicación no actualizada. Algunas funciones no están disponibles. Comprueba que la señal de posicionamiento por satélite sea buena y conéctate a DJI Fly. Arranque de motores..."
1500,2025-05-20 15:37:00,-34.9287318956204,-56.1627966003213,0,0.0656168,6.635592732024,6.701209532024,0.328084,0,0.324929144256,0.6899442478,8,0,0,6.701209532024,0,0,0.4037401704,0,0,0,197.8, 6.4, 4.2,0,0,834,1017,1024,942,-29,-1,0,-12,201.5,0,4.7,99,4.098,4.093,0,0,0,0,0,70.16,6.701209532024,0,41,Motors_Started,"Conecta a DJI Fly en exteriores Información de ubicación no actualizada. Algunas funciones no están disponibles. Comprueba que la señal de posicionamiento por satélite sea buena y conéctate a DJI Fly. Arranque de motores..."
1600,2025-05-20 15:37:00,-34.92873188957,-56.1627966063847,0,0.0656168,6.635592732024,6.701209532024,0.328084,0,0.322131900072,0.69280185944,8,0,0,6.701209532024,0,0,0.4037401704,0,0,0,197.8, 6.5, 4.3,0,0,834,1017,1024,942,-29,-1,0,-12,201.5,0,4.7,99,4.098,4.093,0,0,0,0,0,70.16,6.701209532024,0,41,Motors_Started,"Conecta a DJI Fly en exteriores Información de ubicación no actualizada. Algunas funciones no están disponibles. Comprueba que la señal de posicionamiento por satélite sea buena y conéctate a DJI Fly. Arranque de motores..."
1700,2025-05-20 15:37:00,-34.9287318855068,-56.1627966018976,0,0.0656168,6.635592732024,6.701209532024,0.328084,0,0.321446204512,0.694799891,8,0,0,6.701209532024,0,0,0.4037401704,0,0,0,197.8, 6.5, 4.2,0,0,834,1017,1024,942,-29,-1,0,-12,201.6,0,4.7,99,4.098,4.093,0,0,0,0,0,70.16,6.701209532024,0,41,Motors_Started,"Conecta a DJI Fly en exteriores Información de ubicación no actualizada. Algunas funciones no están disponibles. Comprueba que la señal de posicionamiento por satélite sea buena y conéctate a DJI Fly. Arranque de motores..."
1800,2025-05-20 15:37:01,-34.9287317990074,-56.1627970953308,0,0.0656168,6.635592732024,6.701209532024,0.328084,0,0.252399286292,0.8457349352,8,0,0,6.701209532024,0,0,0.4037401704,0,0,0,197.8, 6.5, 4.2,0,0,834,1017,1024,942,-29,-1,0,-12,201.5,0,4.7,99,4.098,4.093,0,0,0,0,0,70.16,6.701209532024,0,41,Motors_Started,"Conecta a DJI Fly en exteriores Información de ubicación no actualizada. Algunas funciones no están disponibles. Comprueba que la señal de posicionamiento por satélite sea buena y conéctate a DJI Fly. Arranque de motores..."
1900,2025-05-20 15:37:01,-34.9287317997281,-56.1627970968931,0,0.0656168,6.635592732024,6.701209532024,0.328084,0,0.252656832232,0.84627299296,8,0,0,6.701209532024,0,0,0.4037401704,0,0,0,197.7, 6.5, 4.2,0,0,834,1017,1024,942,-29,-1,0,-12,201.5,0,4.7,99,4.098,4.093,0,0,0,0,0,70.16,6.701209532024,0,41,Motors_Started,"Conecta a DJI Fly en exteriores Información de ubicación no actualizada. Algunas funciones no están disponibles. Comprueba que la señal de posicionamiento por satélite sea buena y conéctate a DJI Fly. Arranque de motores..."
2000,2025-05-20 15:37:01,-34.9287318993832,-56.1627974908156,0,0.0656168,6.635592732024,6.701209532024,0.328084,0,0.311121729116,0.9695866452,8,0,0,6.701209532024,0,0,0.4037401704,0,0,0,197.7, 6.5, 4.2,0,0,834,1017,1024,942,-29,-1,0,-12,201.6,0,4.5,99,4.098,4.093,0,0,0,0,0,70.16,6.701209532024,0,41,Motors_Started,"Conecta a DJI Fly en exteriores Información de ubicación no actualizada. Algunas funciones no están disponibles. Comprueba que la señal de posicionamiento por satélite sea buena y conéctate a DJI Fly. Arranque de motores..."
2100,2025-05-20 15:37:01,-34.9287320004125,-56.1627977972078,0,0.0656168,6.635592732024,6.701209532024,0.328084,0,0.38597770264,1.0683727376,8,0,0,6.701209532024,0,0,0.4037401704,0,0,0,197.7, 6.5, 4.1,0,0,834,1017,1024,942,-29,-1,0,-12,201.6,0,4.5,99,4.098,4.093,0,0,0,0,0,70.16,6.701209532024,0,10,Assisted_Takeoff,"Conecta a DJI Fly en exteriores Información de ubicación no actualizada. Algunas funciones no están disponibles. Comprueba que la señal de posicionamiento por satélite sea buena y conéctate a DJI Fly. Arranque de motores..."
2200,2025-05-20 15:37:01,-34.9287320035362,-56.1627977974169,0,0.0656168,6.635592732024,6.701209532024,0.328084,0,0.386975078,1.06951446992,8,0,0,6.701209532024,0,0,0.4037401704,0,0,0,197.7, 6.5, 4.1,0,0,834,1017,1024,942,-29,-1,0,-12,201.6,0,4.6,99,4.098,4.093,0,0,0,0,0,70.16,6.701209532024,0,10,Assisted_Takeoff,"Conecta a DJI Fly en exteriores Información de ubicación no actualizada. Algunas funciones no están disponibles. Comprueba que la señal de posicionamiento por satélite sea buena y conéctate a DJI Fly. Arranque de motores..."
2300,2025-05-20 15:37:01,-34.9287320084467,-56.1627977950784,0,0.0656168,6.635592732024,6.701209532024,0.328084,0,0.38811681032,1.07143704216,8,0,0,6.701209532024,0,0,0.4037401704,0,0,0,197.6, 6.4, 4.1,0,0,834,1017,1024,942,-29,-1,0,-12,201.6,0,4.5,99,4.098,4.093,0,0,0,0,0,70.16,6.701209532024,0,10,Assisted_Takeoff,"Conecta a DJI Fly en exteriores Información de ubicación no actualizada. Algunas funciones no están disponibles. Comprueba que la señal de posicionamiento por satélite sea buena y conéctate a DJI Fly. Arranque de motores..."
2400,2025-05-20 15:37:01,-34.9287319987585,-56.1627979061574,0,0.0656168,6.635592732024,6.701209532024,0.328084,0,0.40389765072,1.10485239756,8,0,0,6.701209532024,0,0,0.40389765072,0,0,0,197.5, 6.5, 4.1,0,0,834,1017,1024,942,-29,-1,0,-12,201.6,0,4.5,99,4.098,4.093,0,0,0,0,0,70.16,6.701209532024,0,10,Assisted_Takeoff,"Conecta a DJI Fly en exteriores Información de ubicación no actualizada. Algunas funciones no están disponibles. Comprueba que la señal de posicionamiento por satélite sea buena y conéctate a DJI Fly. Arranque de motores..."
2500,2025-05-20 15:37:01,-34.9287320047394,-56.1627978986926,0,0.0656168,6.635592732024,6.701209532024,0.328084,0,0.40434056412,1.1079724764,8,0,0,6.701209532024,0,0,0.40434056412,0,0,0,197.5, 6.4, 4.1,0,0,834,1017,1024,942,-29,-1,0,-12,201.6,0,4.5,99,4.098,4.093,0,0,0,0,0,70.16,6.701209532024,0,10,Assisted_Takeoff,"Conecta a DJI Fly en exteriores Información de ubicación no actualizada. Algunas funciones no están disponibles. Comprueba que la señal de posicionamiento por satélite sea buena y conéctate a DJI Fly. Arranque de motores..."
2600,2025-05-20 15:37:01,-34.9287318146933,-56.1627979842696,0,0.0656168,6.635592732024,6.701209532024,0.328084,0,0.36836287268,1.18188652076,8,0,0,6.701209532024,0,0,0.40434056412,0,0,0,197.5, 6.4, 4,0,0,834,1017,1024,942,-29,-1,0,-12,201.6,0,4.5,99,4.098,4.093,0,0,0,0,0,70.16,6.701209532024,0,10,Assisted_Takeoff,"Conecta a DJI Fly en exteriores Información de ubicación no actualizada. Algunas funciones no están disponibles. Comprueba que la señal de posicionamiento por satélite sea buena y conéctate a DJI Fly. Arranque de motores..."
2700,2025-05-20 15:37:01,-34.928731813205,-56.1627979838492,0,0.0656168,6.635592732024,6.701209532024,0.328084,0,0.36789371256,1.18244426356,8,0,0,6.701209532024,0,0,0.40434056412,0,0,0,197.5, 6.5, 4.1,0,0,834,1017,1024,942,-29,-1,0,-12,201.5,0,4.5,99,4.098,4.093,0,0,0,0,0,70.16,6.701209532024,0,10,Assisted_Takeoff,"Conecta a DJI Fly en exteriores Información de ubicación no actualizada. Algunas funciones no están disponibles. Comprueba que la señal de posicionamiento por satélite sea buena y conéctate a DJI Fly. Arranque de motores..."
2800,2025-05-20 15:37:02,-34.9287316036305,-56.1627977977365,0,0.0656168,6.635592732024,6.701209532024,0.328084,0,0.275053814576,1.27702431908,8,0,0,6.701209532024,0,0,0.40434056412,0,0,0,197.4, 6.4, 4,0,0,834,1017,1024,942,-29,-1,0,-12,201.5,0,4.5,99,4.098,4.093,0,0,0,0,0,70.16,6.701209532024,0,10,Assisted_Takeoff,"Conecta a DJI Fly en exteriores Información de ubicación no actualizada. Algunas funciones no están disponibles. Comprueba que la señal de posicionamiento por satélite sea buena y conéctate a DJI Fly. Arranque de motores..."
2900,2025-05-20 15:37:02,-34.9287316064732,-56.1627977849986,0,0.0656168,6.635592732024,6.701209532024,0.328084,0,0.27288878826,1.28097445044,8,0,0,6.701209532024,0,0,0.40434056412,0,0,0,197.4, 6.4, 4,0,0,834,1017,1024,942,-29,-1,0,-12,201.5,0,4.5,99,4.098,4.093,0,0,0,0,0,70.16,6.701209532024,0,10,Assisted_Takeoff,"Conecta a DJI Fly en exteriores Información de ubicación no actualizada. Algunas funciones no están disponibles. Comprueba que la señal de posicionamiento por satélite sea buena y conéctate a DJI Fly. Arranque de motores..."
3000,2025-05-20 15:37:02,-34.9287310968483,-56.1627976780138,0,0,6.701209532024,6.701209532024,0.328084,0,0.171252630152,1.46964571632,8,0,8.191,6.701209532024,0,0,0.40434056412,0,0,0,197.4, 6.5, 4,0,0,834,1017,1024,942,-29,-1,0,-12,201.5,0,4.5,99,4.098,4.093,0,0,0,0,1.329,70.16,6.701209532024,0,10,Assisted_Takeoff,"Conecta a DJI Fly en exteriores Información de ubicación no actualizada. Algunas funciones no están disponibles. Comprueba que la señal de posicionamiento por satélite sea buena y conéctate a DJI Fly. Arranque de motores.... Información de ubicación no actualizada. Algunas funcione"
3100,2025-05-20 15:37:02,-34.9287311008989,-56.1627976675411,0,0,6.701209532024,6.701209532024,0.328084,0,0.1680938374,1.47311028336,8,0,8.191,6.701209532024,0,0,0.40434056412,0,0,0,197.3, 6.5, 4,0,0,834,1017,1024,942,-29,-1,0,-12,201.5,0,4.5,99,4.098,4.093,0,0,0,0,1.329,70.16,6.701209532024,0,10,Assisted_Takeoff,"Conecta a DJI Fly en exteriores Información de ubicación no actualizada. Algunas funciones no están disponibles. Comprueba que la señal de posicionamiento por satélite sea buena y conéctate a DJI Fly. Motores iniciándose. Mantén presionado el botón Bloqueo para despegar"
3200,2025-05-20 15:37:02,-34.9287307048582,-56.162797997846,0,0,6.701209532024,6.701209532024,0.328084,0,0.304600403448,1.64815293988,8,0,8.191,6.701209532024,0,0,0.40434056412,0,0,0,197.3, 6.5, 4,0,0,834,1017,1024,942,-29,-1,0,-12,201.5,0,4.5,99,4.098,4.093,0,0,0,0,1.329,70.16,6.701209532024,0,10,Assisted_Takeoff,"Conecta a DJI Fly en exteriores Información de ubicación no actualizada. Algunas funciones no están disponibles. Comprueba que la señal de posicionamiento por satélite sea buena y conéctate a DJI Fly. Motores iniciándose. Mantén presionado el botón Bloqueo para despegar"
3300,2025-05-20 15:37:02,-34.9287307048486,-56.1627980108102,0,0,6.701209532024,6.701209532024,0.328084,0,0.308005587284,1.65203089276,8,0,8.191,6.701209532024,0,0,0.40434056412,0,0,0,197.2, 6.4, 4.1,0,0,834,1017,1024,942,-29,-1,0,-12,201.5,0,4.5,99,4.098,4.093,0,0,0,0,1.329,70.16,6.701209532024,0,10,Assisted_Takeoff,"Conecta a DJI Fly en exteriores Información de ubicación no actualizada. Algunas funciones no están disponibles. Comprueba que la señal de posicionamiento por satélite sea buena y conéctate a DJI Fly. Motores iniciándose. Mantén presionado el botón Bloqueo para despegar"
3400,2025-05-20 15:37:02,-34.9287304960414,-56.1627985112073,0,-0.032808400000001,6.734017932024,6.701209532024,0.328084,0,0.47592193124,1.81998693488,8,0,8.191,6.701209532024,0,0,0.47592193124,0,0,0,197.2, 6.5, 4,0,0,834,1017,1024,942,-29,-1,0,-12,201.5,0,4.5,99,4.098,4.093,0,0,0,0,1.329,70.16,6.701209532024,0,10,Assisted_Takeoff,"Conecta a DJI Fly en exteriores Información de ubicación no actualizada. Algunas funciones no están disponibles. Comprueba que la señal de posicionamiento por satélite sea buena y conéctate a DJI Fly. Motores iniciándose. Mantén presionado el botón Bloqueo para despegar"
3500,2025-05-20 15:37:02,-34.9287304929042,-56.1627985112456,0,-0.032808400000001,6.734017932024,6.701209532024,0.328084,0,0.47646983152,1.82113194804,8,0,8.191,6.701209532024,0,0,0.47646983152,0,0,0,197.1, 6.5, 4,0,0,834,1017,1024,942,-29,-1,0,-12,201.5,0,4.6,99,4.098,4.093,0,0,0,0,1.329,70.16,6.701209532024,0,10,Assisted_Takeoff,"Conecta a DJI Fly en exteriores Información de ubicación no actualizada. Algunas funciones no están disponibles. Comprueba que la señal de posicionamiento por satélite sea buena y conéctate a DJI Fly. Motores iniciándose. Mantén presionado el botón Bloqueo para despegar"
3600,2025-05-20 15:37:02,-34.9287303942143,-56.1627986019526,0,-0.032808400000001,6.734017932024,6.701209532024,0.328084,0,0.5177001478,1.86621725132,8,0,8.191,6.701209532024,0,0,0.5177001478,0,0,0,197.1, 6.5, 4.1,0,0,834,1017,1024,942,-29,-1,0,-12,201.5,0,4.6,99,4.098,4.093,0,0,0,0,1.329,70.16,6.701209532024,0,10,Assisted_Takeoff,"Conecta a DJI Fly en exteriores Información de ubicación no actualizada. Algunas funciones no están disponibles. Comprueba que la señal de posicionamiento por satélite sea buena y conéctate a DJI Fly. Motores iniciándose. Mantén presionado el botón Bloqueo para despegar"
3700,2025-05-20 15:37:02,-34.9287303922348,-56.1627986057141,0,-0.032808400000001,6.734017932024,6.701209532024,0.328084,0,0.51903873052,1.8675525532,8,0,8.191,6.701209532024,0,0,0.51903873052,0,0,0,197, 6.5, 4.1,0,0,834,1017,1024,942,-29,-1,0,-12,201.5,0,4.6,99,4.098,4.093,0,0,0,0,1.329,70.16,6.701209532024,0,10,Assisted_Takeoff,"Conecta a DJI Fly en exteriores Información de ubicación no actualizada. Algunas funciones no están disponibles. Comprueba que la señal de posicionamiento por satélite sea buena y conéctate a DJI Fly. Motores iniciándose. Mantén presionado el botón Bloqueo para despegar"
3800,2025-05-20 15:37:03,-34.928730399468,-56.1627986173534,0,-0.032808400000001,6.734017932024,6.701209532024,0.328084,0,0.5207349248,1.87192263208,7,0,8.191,6.701209532024,0,0,0.5207349248,0,0,0,197, 6.5, 4.1,0,0,834,1017,1024,942,-29,-1,0,-12,201.5,0,4.5,99,4.098,4.093,0,0,0,0,1.329,70.16,6.701209532024,0,10,Assisted_Takeoff,"Conecta a DJI Fly en exteriores Información de ubicación no actualizada. Algunas funciones no están disponibles. Comprueba que la señal de posicionamiento por satélite sea buena y conéctate a DJI Fly. Motores iniciándose. Mantén presionado el botón Bloqueo para despegar"
3900,2025-05-20 15:37:03,-34.9287303990327,-56.1627986141167,0,-0.032808400000001,6.734017932024,6.701209532024,0.328084,0,0.51997376992,1.87290360324,7,0,8.191,6.701209532024,0,0,0.5207349248,0,0,0,197, 6.5, 4.1,0,0,834,1017,1024,942,-29,-1,0,-12,201.5,0,4.6,99,4.098,4.093,0,0,0,0,1.329,70.16,6.701209532024,0,10,Assisted_Takeoff,"Conecta a DJI Fly en exteriores Información de ubicación no actualizada. Algunas funciones no están disponibles. Comprueba que la señal de posicionamiento por satélite sea buena y conéctate a DJI Fly. Motores iniciándose. Mantén presionado el botón Bloqueo para despegar"
4000,2025-05-20 15:37:03,-34.9287303982236,-56.1627985929982,0,-0.032808400000001,6.734017932024,6.701209532024,0.328084,0,0.51465224744,1.87922906276,7,0,8.18,6.701209532024,0,0,0.5207349248,0,0,0,197, 6.5, 4.1,0,0,834,1017,1024,942,-29,-1,0,-12,201.5,0,4.6,99,4.092,4.088,0,0,0,0,1.359,70.34,6.701209532024,0,10,Assisted_Takeoff,"Conecta a DJI Fly en exteriores Información de ubicación no actualizada. Algunas funciones no están disponibles. Comprueba que la señal de posicionamiento por satélite sea buena y conéctate a DJI Fly. Motores iniciándose. Mantén presionado el botón Bloqueo para despegar"
4100,2025-05-20 15:37:03,-34.9287304009212,-56.1627985943007,0,-0.032808400000001,6.734017932024,6.701209532024,0.328084,0,0.51449476712,1.88028549324,7,0,8.18,6.701209532024,0,0,0.5207349248,0,0,0,197, 6.5, 4.1,0,0,834,1017,1024,942,-29,-1,0,-12,201.5,0,4.6,99,4.092,4.088,0,0,0,0,1.359,70.34,6.701209532024,0,10,Assisted_Takeoff,"Conecta a DJI Fly en exteriores Información de ubicación no actualizada. Algunas funciones no están disponibles. Comprueba que la señal de posicionamiento por satélite sea buena y conéctate a DJI Fly. Motores iniciándose. Mantén presionado el botón Bloqueo para despegar"
4200,2025-05-20 15:37:03,-34.9287304041263,-56.1627985212266,0,-0.032808400000001,6.734017932024,6.701209532024,0.328084,0,0.49508859852,1.90217525772,8,0,8.18,6.701209532024,0,0,0.5207349248,0,0,0,197, 6.4, 4.2,0,0,834,1017,1024,942,-29,-1,0,-12,201.4,0,4.6,99,4.092,4.088,0,0,0,0,1.359,70.34,6.701209532024,0,10,Assisted_Takeoff,"Conecta a DJI Fly en exteriores Información de ubicación no actualizada. Algunas funciones no están disponibles. Comprueba que la señal de posicionamiento por satélite sea buena y conéctate a DJI Fly. Motores iniciándose. Mantén presionado el botón Bloqueo para despegar"
4300,2025-05-20 15:37:03,-34.9287305024966,-56.1627984051675,0,0,6.701209532024,6.701209532024,0.328084,0,0.4469816416,1.95210964252,8,0,8.18,6.701209532024,0,0,0.5207349248,0,0,0,197, 6.4, 4.2,0,0,834,1017,1024,942,-29,-1,0,-12,201.4,0,4.6,99,4.092,4.088,0,0,0,0,1.359,70.34,6.701209532024,0,10,Assisted_Takeoff,"Conecta a DJI Fly en exteriores Información de ubicación no actualizada. Algunas funciones no están disponibles. Comprueba que la señal de posicionamiento por satélite sea buena y conéctate a DJI Fly. Motores iniciándose. Mantén presionado el botón Bloqueo para despegar"
4400,2025-05-20 15:37:03,-34.9287305082852,-56.1627984133828,0,0,6.701209532024,6.701209532024,0.328084,0,0.44808400384,1.95535111244,8,0,8.18,6.701209532024,0,0,0.5207349248,0,0,0,197, 6.4, 4.2,0,0,834,1017,1024,942,-29,-1,0,-12,201.4,0,4.6,99,4.092,4.088,0,0,0,0,1.359,70.34,6.701209532024,0,10,Assisted_Takeoff,"Conecta a DJI Fly en exteriores Información de ubicación no actualizada. Algunas funciones no están disponibles. Comprueba que la señal de posicionamiento por satélite sea buena y conéctate a DJI Fly. Motores iniciándose. Mantén presionado el botón Bloqueo para despegar"
4500,2025-05-20 15:37:03,-34.9287305051036,-56.162798426258,0,0,6.701209532024,6.701209532024,0.328084,0,0.45201445016,1.95937342228,8,0,8.18,6.701209532024,0,0,0.5207349248,0,0,0,197, 6.4, 4.3,0,0,834,1017,1024,942,-29,-1,0,-12,201.4,0,4.6,99,4.092,4.088,0,0,0,0,1.359,70.34,6.701209532024,0,41,Motors_Started,"Conecta a DJI Fly en exteriores Información de ubicación no actualizada. Algunas funciones no están disponibles. Comprueba que la señal de posicionamiento por satélite sea buena y conéctate a DJI Fly. Motores iniciándose. Mantén presionado el botón Bloqueo para despegar"
4600,2025-05-20 15:37:03,-34.9287304964221,-56.1627980175842,0,-0.032808400000001,6.734017932024,6.701209532024,0.328084,0,0.35225066744,2.08165689076,8,0,8.18,6.701209532024,0,0,0.5207349248,0,0,0,197, 6.4, 4.3,0,0,834,1017,1024,942,-29,-1,0,-12,201.4,0,4.6,99,4.092,4.088,0,0,0,0,1.359,70.34,6.701209532024,0,41,Motors_Started,"Conecta a DJI Fly en exteriores Información de ubicación no actualizada. Algunas funciones no están disponibles. Comprueba que la señal de posicionamiento por satélite sea buena y conéctate a DJI Fly. Motores iniciándose. Mantén presionado el botón Bloqueo para despegar"
4700,2025-05-20 15:37:03,-34.928730498968,-56.1627980097189,0,-0.032808400000001,6.734017932024,6.701209532024,0.328084,0,0.34984253088,2.0841864184,8,0,8.18,6.701209532024,0,0,0.5207349248,0,0,0,197.1, 6.4, 4.2,0,0,834,1017,1024,942,-29,-1,0,-12,201.4,0,4.6,99,4.092,4.088,0,0,0,0,1.359,70.34,6.701209532024,0,41,Motors_Started,"Conecta a DJI Fly en exteriores Información de ubicación no actualizada. Algunas funciones no están disponibles. Comprueba que la señal de posicionamiento por satélite sea buena y conéctate a DJI Fly. Motores iniciándose. Mantén presionado el botón Bloqueo para despegar"
4800,2025-05-20 15:37:04,-34.9287306061276,-56.1627977666815,0,0,6.701209532024,6.701209532024,0.328084,0,0.269313000744,2.1667323528,7,0,8.18,6.701209532024,0,0,0.5207349248,0,0,0,197.1, 6.4, 4.1,0,0,834,1017,1024,942,-29,-1,0,-12,201.4,0,4.6,99,4.092,4.088,0,0,0,0,1.359,70.34,6.701209532024,0,41,Motors_Started,"Conecta a DJI Fly en exteriores Información de ubicación no actualizada. Algunas funciones no están disponibles. Comprueba que la señal de posicionamiento por satélite sea buena y conéctate a DJI Fly. Motores iniciándose. Mantén presionado el botón Bloqueo para despegar"
4900,2025-05-20 15:37:04,-34.9287306133865,-56.1627977462184,0,0,6.701209532024,6.701209532024,0.328084,0,0.26302986406,2.17340230052,7,0,8.18,6.701209532024,0,0,0.5207349248,0,0,0,197.1, 6.4, 4.1,0,0,834,1017,1024,942,-29,-1,0,-12,201.4,0,4.6,99,4.092,4.088,0,0,0,0,1.359,70.34,6.701209532024,0,41,Motors_Started,"Conecta a DJI Fly en exteriores Información de ubicación no actualizada. Algunas funciones no están disponibles. Comprueba que la señal de posicionamiento por satélite sea buena y conéctate a DJI Fly. Motores iniciándose. Mantén presionado el botón Bloqueo para despegar"
5000,2025-05-20 15:37:04,-34.9287308065445,-56.1627977721747,0,0,6.701209532024,6.701209532024,0.328084,0,0.227572841928,2.24430125292,8,0,8.212,6.701209532024,0,0,0.5207349248,0,0,0,197.1, 6.4, 4.1,0,0,834,1017,1024,942,-29,-1,0,-12,201.4,0,4.6,99,4.112,4.1,0,0,0,0,0.981,70.34,6.701209532024,0,41,Motors_Started,"Conecta a DJI Fly en exteriores Información de ubicación no actualizada. Algunas funciones no están disponibles. Comprueba que la señal de posicionamiento por satélite sea buena y conéctate a DJI Fly. Motores iniciándose. Mantén presionado el botón Bloqueo para despegar"
5100,2025-05-20 15:37:04,-34.928730612389,-56.1627974942108,0,0,6.701209532024,6.701209532024,0.328084,0,0.214732946504,2.35353353988,8,0,8.212,6.701209532024,0,0,0.5207349248,0,0,0,197.1, 6.4, 4.1,0,0,834,1017,1024,942,-29,-1,0,-12,201.4,0,4.6,99,4.112,4.1,0,0,0,0,0.981,70.34,6.701209532024,0,41,Motors_Started,"Conecta a DJI Fly en exteriores Información de ubicación no actualizada. Algunas funciones no están disponibles. Comprueba que la señal de posicionamiento por satélite sea buena y conéctate a DJI Fly. Motores iniciándose. Mantén presionado el botón Bloqueo para despegar"
5200,2025-05-20 15:37:04,-34.9287306215829,-56.1627974897735,0,0,6.701209532024,6.701209532024,0.328084,0,0.211194888648,2.35714246388,8,0,8.212,6.701209532024,0,0,0.5207349248,0,0,0,197.2, 6.4, 4.1,0,0,834,1017,1024,942,-29,-1,0,-12,201.4,0,4.6,99,4.112,4.1,0,0,0,0,0.981,70.34,6.701209532024,0,41,Motors_Started,"Conecta a DJI Fly en exteriores Información de ubicación no actualizada. Algunas funciones no están disponibles. Comprueba que la señal de posicionamiento por satélite sea buena y conéctate a DJI Fly. Motores iniciándose. Mantén presionado el botón Bloqueo para despegar"
5300,2025-05-20 15:37:04,-34.9287306280869,-56.1627974883558,0,0,6.701209532024,6.701209532024,0.328084,0,0.208975400388,2.35955060044,8,0,8.212,6.701209532024,0,0,0.5207349248,0,0,0,197.2, 6.4, 4.1,0,0,834,1017,1024,942,-29,-1,0,-12,201.4,0,4.6,99,4.112,4.1,0,0,0,0,0.981,70.34,6.701209532024,0,41,Motors_Started,"Conecta a DJI Fly en exteriores Información de ubicación no actualizada. Algunas funciones no están disponibles. Comprueba que la señal de posicionamiento por satélite sea buena y conéctate a DJI Fly. Motores iniciándose. Mantén presionado el botón Bloqueo para despegar"
5400,2025-05-20 15:37:04,-34.9287305087194,-56.1627973003024,0,0,6.701209532024,6.701209532024,0.328084,0,0.226009849752,2.430692335,8,0,8.212,6.701209532024,0,0,0.5207349248,0,0,0,197.3, 6.4, 4.1,0,0,834,1017,1024,942,-29,-1,0,-12,201.3,0,4.6,99,4.112,4.1,0,0,0,0,0.981,70.34,6.701209532024,0,41,Motors_Started,"Conecta a DJI Fly en exteriores Información de ubicación no actualizada. Algunas funciones no están disponibles. Comprueba que la señal de posicionamiento por satélite sea buena y conéctate a DJI Fly. Motores iniciándose. Mantén presionado el botón Bloqueo para despegar"
5500,2025-05-20 15:37:04,-34.928730506447,-56.1627972931597,0,0,6.701209532024,6.701209532024,0.328084,0,0.226271988868,2.43298236132,8,0,8.212,6.701209532024,0,0,0.5207349248,0,0,0,197.3, 6.4, 4.1,0,0,834,1017,1024,942,-29,-1,0,-12,201.3,0,4.6,99,4.112,4.1,0,0,0,0,0.981,70.34,6.701209532024,0,41,Motors_Started,"Conecta a DJI Fly en exteriores Información de ubicación no actualizada. Algunas funciones no están disponibles. Comprueba que la señal de posicionamiento por satélite sea buena y conéctate a DJI Fly. Motores iniciándose. Mantén presionado el botón Bloqueo para despegar"
5600,2025-05-20 15:37:04,-34.9287303971742,-56.1627973949968,0,-0.032808400000001,6.734017932024,6.701209532024,0.328084,0,0.273153223964,2.48315624744,8,0,8.212,6.701209532024,0,0,0.5207349248,0,0,0,197.3, 6.4, 4.1,0,0,834,1017,1024,942,-29,-1,0,-12,201.3,0,4.6,99,4.112,4.1,0,0,0,0,0.981,70.34,6.701209532024,0,41,Motors_Started,"Conecta a DJI Fly en exteriores Información de ubicación no actualizada. Algunas funciones no están disponibles. Comprueba que la señal de posicionamiento por satélite sea buena y conéctate a DJI Fly. Motores iniciándose. Mantén presionado el botón Bloqueo para despegar"
5700,2025-05-20 15:37:04,-34.9287303953831,-56.1627973962834,0,-0.032808400000001,6.734017932024,6.701209532024,0.328084,0,0.273895021888,2.48391740232,8,0,8.212,6.701209532024,0,0,0.5207349248,0,0,0,197.3, 6.4, 4.1,0,0,834,1017,1024,942,-29,-1,0,-12,201.3,0,4.6,99,4.112,4.1,0,0,0,0,0.981,70.34,6.701209532024,0,41,Motors_Started,"Conecta a DJI Fly en exteriores Información de ubicación no actualizada. Algunas funciones no están disponibles. Comprueba que la señal de posicionamiento por satélite sea buena y conéctate a DJI Fly. Motores iniciándose. Mantén presionado el botón Bloqueo para despegar"
5800,2025-05-20 15:37:05,-34.9287302004448,-56.162797400998,0,-0.032808400000001,6.734017932024,6.701209532024,0.328084,0,0.34244751752,2.5550525752,8,0,8.212,6.701209532024,0,0,0.5207349248,0,0,0,197.3, 6.4, 4.1,0,0,834,1017,1024,942,-29,-1,0,-12,201.3,0,4.6,99,4.112,4.1,0,0,0,0,0.981,70.34,6.701209532024,0,41,Motors_Started,"Conecta a DJI Fly en exteriores Información de ubicación no actualizada. Algunas funciones no están disponibles. Comprueba que la señal de posicionamiento por satélite sea buena y conéctate a DJI Fly. Motores iniciándose. Mantén presionado el botón Bloqueo para despegar"
5900,2025-05-20 15:37:05,-34.9287301989798,-56.1627974062869,0,-0.032808400000001,6.734017932024,6.701209532024,0.328084,0,0.3433727144,2.55672252276,8,0,8.212,6.701209532024,0,0,0.5207349248,0,0,0,197.2, 6.4, 4.1,0,0,834,1017,1024,942,-29,-1,0,-12,201.3,0,4.6,99,4.112,4.1,0,0,0,0,0.981,70.34,6.701209532024,0,41,Motors_Started,"Conecta a DJI Fly en exteriores Información de ubicación no actualizada. Algunas funciones no están disponibles. Comprueba que la señal de posicionamiento por satélite sea buena y conéctate a DJI Fly. Motores iniciándose. Mantén presionado el botón Bloqueo para despegar"
6000,2025-05-20 15:37:05,-34.9287300951583,-56.162797204277,0,-0.032808400000001,6.734017932024,6.701209532024,0.328084,0,0.37044620608,2.62804142268,8,0,8.211,6.701209532024,0,0,0.5207349248,0,0,0,197.1, 6.4, 4.1,0,0,834,1017,1024,942,-29,-1,0,-12,201.3,0,4.6,99,4.111,4.1,0,0,0,0,0.981,70.52,6.701209532024,0,41,Motors_Started,"Conecta a DJI Fly en exteriores Información de ubicación no actualizada. Algunas funciones no están disponibles. Comprueba que la señal de posicionamiento por satélite sea buena y conéctate a DJI Fly. Motores iniciándose. Mantén presionado el botón Bloqueo para despegar"
6100,2025-05-20 15:37:05,-34.9287301947033,-56.1627973027068,0,-0.032808400000001,6.734017932024,6.701209532024,0.328084,0,0.33812665124,2.67479339268,8,0,8.211,6.701209532024,0,0,0.5207349248,0,0,0,197.1, 6.4, 4.1,0,0,834,1017,1024,942,-29,-1,0,-12,201.3,0,4.6,99,4.111,4.1,0,0,0,0,0.981,70.52,6.701209532024,0,41,Motors_Started,"Conecta a DJI Fly en exteriores Información de ubicación no actualizada. Algunas funciones no están disponibles. Comprueba que la señal de posicionamiento por satélite sea buena y conéctate a DJI Fly. Motores iniciándose. Mantén presionado el botón Bloqueo para despegar"
6200,2025-05-20 15:37:05,-34.9287301920802,-56.1627973002421,0,-0.032808400000001,6.734017932024,6.701209532024,0.328084,0,0.33894029956,2.67600402264,8,0,8.211,6.701209532024,0,0,0.5207349248,0,0,0,197.1, 6.4, 4.1,0,0,834,1017,1024,942,-29,-1,0,-12,201.3,0,4.6,99,4.111,4.1,0,0,0,0,0.981,70.52,6.701209532024,0,41,Motors_Started,"Conecta a DJI Fly en exteriores Información de ubicación no actualizada. Algunas funciones no están disponibles. Comprueba que la señal de posicionamiento por satélite sea buena y conéctate a DJI Fly. Motores iniciándose. Mantén presionado el botón Bloqueo para despegar"
6300,2025-05-20 15:37:05,-34.9287301913858,-56.1627972994539,0,-0.032808400000001,6.734017932024,6.701209532024,0.328084,0,0.33915027332,2.67634851084,8,0,8.211,6.701209532024,0,0,0.5207349248,0,0,0,197.1, 6.4, 4.1,0,0,834,1017,1024,942,-29,-1,0,-12,201.3,0,4.6,99,4.111,4.1,0,0,0,0,0.981,70.52,6.701209532024,0,41,Motors_Started,"Conecta a DJI Fly en exteriores Información de ubicación no actualizada. Algunas funciones no están disponibles. Comprueba que la señal de posicionamiento por satélite sea buena y conéctate a DJI Fly. Motores iniciándose. Mantén presionado el botón Bloqueo para despegar"
6400,2025-05-20 15:37:05,-34.9287302942757,-56.1627974977141,0,-0.032808400000001,6.734017932024,6.701209532024,0.328084,0,0.318963592884,2.74653552096,7,0,8.211,6.701209532024,0,0,0.5207349248,0,0,0,197.1, 6.4, 4.1,0,0,834,1017,1024,942,-29,-1,0,-12,201.3,0,4.2,99,4.111,4.1,0,0,0,0,0.981,70.52,6.701209532024,0,41,Motors_Started,"Conecta a DJI Fly en exteriores Información de ubicación no actualizada. Algunas funciones no están disponibles. Comprueba que la señal de posicionamiento por satélite sea buena y conéctate a DJI Fly. Motores iniciándose. Mantén presionado el botón Bloqueo para despegar"
6500,2025-05-20 15:37:05,-34.9287300969445,-56.1627974964178,0,-0.032808400000001,6.734017932024,6.701209532024,0.328084,0,0.38670604912,2.81853355476,7,0,8.211,6.701209532024,0,0,0.5207349248,0,0,0,197.1, 6.2, 3.3,0,0,834,1017,1024,942,-29,-1,0,-12,201.6,0,3.4,99,4.111,4.1,0,0,0,0,0.981,70.52,6.701209532024,0,11,AutoTakeoff,"Conecta a DJI Fly en exteriores Información de ubicación no actualizada. Algunas funciones no están disponibles. Comprueba que la señal de posicionamiento por satélite sea buena y conéctate a DJI Fly. Motores iniciándose. Mantén presionado el botón Bloqueo para despegar. Informació"
6600,2025-05-20 15:37:05,-34.9287300959207,-56.162797483859,0,-0.032808400000001,6.734017932024,6.701209532024,0.328084,0,0.38594489424,2.8223098016,8,0,8.211,6.701209532024,0,0,0.5207349248,0,0,0,197.3, 5.2, 2.1,0,0,834,1017,1024,942,-29,-1,0,-12,202.1,0,0.9,99,4.111,4.1,0,0,0,0,0.981,70.52,6.701209532024,0,11,AutoTakeoff,"Conecta a DJI Fly en exteriores Información de ubicación no actualizada. Algunas funciones no están disponibles. Comprueba que la señal de posicionamiento por satélite sea buena y conéctate a DJI Fly. Despegando..."
6700,2025-05-20 15:37:05,-34.9287300937677,-56.1627974680494,0,-0.032808400000001,6.734017932024,6.701209532024,0.328084,0,0.38533793884,2.82710310884,8,0,8.211,6.701209532024,0,0,0.5207349248,0,0,0,197.5, 2.3, -0.6,0,0,834,1017,1024,942,-29,-1,0,-12,201.9,0,-1,99,4.111,4.1,0,0,0,0,0.981,70.52,6.701209532024,0,11,AutoTakeoff,"Conecta a DJI Fly en exteriores Información de ubicación no actualizada. Algunas funciones no están disponibles. Comprueba que la señal de posicionamiento por satélite sea buena y conéctate a DJI Fly. Despegando..."
6800,2025-05-20 15:37:06,-34.9287296413745,-56.1627972466103,0,-0.032808400000001,6.734017932024,6.701209532024,0.328084,0,0.53648951848,3.0049541644,8,0,8.211,6.701209532024,0,0,0.53648951848,0,0,-0.447388,197.1, 0.8, -1.1,0,0,834,1017,1024,942,-29,-1,0,-12,201.9,0,1,99,4.111,4.1,0,0,0,0,0.981,70.52,6.701209532024,0,11,AutoTakeoff,"Conecta a DJI Fly en exteriores Información de ubicación no actualizada. Algunas funciones no están disponibles. Comprueba que la señal de posicionamiento por satélite sea buena y conéctate a DJI Fly. Despegando..."
6900,2025-05-20 15:37:06,-34.928729540575,-56.1627971838545,0,-0.032808400000001,6.734017932024,6.701209532024,0.328084,0,0.57208663248,3.0462435358,8,0,8.211,6.701209532024,0,0,0.57208663248,0,0,-0.671082,197.2, -4.2, 1.5,0,0,834,1017,1024,942,-29,-1,0,-12,201.7,0,1.7,99,4.111,4.1,0,0,0,0,0.981,70.52,6.701209532024,0,11,AutoTakeoff,"Conecta a DJI Fly en exteriores Información de ubicación no actualizada. Algunas funciones no están disponibles. Comprueba que la señal de posicionamiento por satélite sea buena y conéctate a DJI Fly. Despegando..."
7000,2025-05-20 15:37:06,-34.9287291948465,-56.1627976071995,0.328084,0.2624672,6.766826332024,7.029293532024,0,0,0.71369424856,3.22498041816,8,0,7.859,7.029293532024,0.328084,0,0.71369424856,0,0,-0.671082,196.9, -5.6, 1.3,0,0,834,1017,1024,942,-29,-1,0,-12,201.5,0,0.9,99,3.934,3.925,0,0,0,0,5.035,70.52,7.029293532024,0.328084,11,AutoTakeoff,"Conecta a DJI Fly en exteriores Información de ubicación no actualizada. Algunas funciones no están disponibles. Comprueba que la señal de posicionamiento por satélite sea buena y conéctate a DJI Fly. Despegando..."
7100,2025-05-20 15:37:06,-34.9287291867085,-56.1627976172467,0.328084,0.2624672,6.766826332024,7.029293532024,0.328084,0,0.71723099408,3.22920614008,8,0,7.859,7.029293532024,0.328084,0,0.71723099408,0,0,-0.671082,196.7, -4.9, 0.7,0,0,834,1017,1024,942,-29,-1,0,-12,201.3,0,1.3,99,3.934,3.925,0,0,0,0,5.035,70.52,7.029293532024,0.328084,11,AutoTakeoff,"Conecta a DJI Fly en exteriores Información de ubicación no actualizada. Algunas funciones no están disponibles. Comprueba que la señal de posicionamiento por satélite sea buena y conéctate a DJI Fly. Despegando..."
7200,2025-05-20 15:37:06,-34.9287287551984,-56.1627969192327,0.328084,0.2624672,6.766826332024,7.029293532024,0.328084,0.223694,0.85996065744,3.4907153348,8,0,7.859,7.029293532024,0.328084,0.223694,0.85996065744,-0.223694,0,-0.894776,196.6, -2.4, 1.5,0,0,834,1017,1024,942,-29,-1,0,-12,201.2,0,2.3,99,3.934,3.925,0,0,0,0,5.035,70.52,7.029293532024,0.328084,11,AutoTakeoff,"Conecta a DJI Fly en exteriores Información de ubicación no actualizada. Algunas funciones no están disponibles. Comprueba que la señal de posicionamiento por satélite sea buena y conéctate a DJI Fly. Despegando..."
7300,2025-05-20 15:37:06,-34.9287288793692,-56.1627969347711,0.656168,0.5905512,6.766826332024,7.357377532024,0.328084,0.223694,0.8144521258,3.536253394,8,0,7.859,7.357377532024,0.656168,0.223694,0.85996065744,-0.223694,0,-0.894776,196.8, 2.7, 2.5,0,0,834,1017,1024,942,-29,-1,0,-12,201.3,0,2.9,99,3.934,3.925,0,0,0,0,5.035,70.52,7.357377532024,0.656168,11,AutoTakeoff,"Conecta a DJI Fly en exteriores Información de ubicación no actualizada. Algunas funciones no están disponibles. Comprueba que la señal de posicionamiento por satélite sea buena y conéctate a DJI Fly. Despegando..."
7400,2025-05-20 15:37:06,-34.9287280365977,-56.1627956335183,0.656168,0.5577428,6.799634732024,7.357377532024,0.656168,0,1.20376644272,4.0322835936,8,0,7.859,7.357377532024,0.656168,0.223694,1.20376644272,0,0,-0.894776,197, 4.9, 2.4,0,0,834,1017,1024,942,-29,-1,0,-12,201.3,0,2.8,99,3.934,3.925,0,0,0,0,5.035,70.52,7.357377532024,0.656168,11,AutoTakeoff,"Conecta a DJI Fly en exteriores Información de ubicación no actualizada. Algunas funciones no están disponibles. Comprueba que la señal de posicionamiento por satélite sea buena y conéctate a DJI Fly. Despegando..."
7500,2025-05-20 15:37:06,-34.9287280499022,-56.1627956324547,0.984252,0.8858268,6.799634732024,7.685461532024,0.656168,0,1.19936683628,4.0371392368,8,0,7.859,7.685461532024,0.984252,0.223694,1.20376644272,0,0,-0.894776,197, 3.8, 2.5,0,0,834,1017,1024,942,-29,-1,0,-12,201.4,0,2.9,99,3.934,3.925,0,0,0,0,5.035,70.52,7.685461532024,0.984252,11,AutoTakeoff,"Conecta a DJI Fly en exteriores Información de ubicación no actualizada. Algunas funciones no están disponibles. Comprueba que la señal de posicionamiento por satélite sea buena y conéctate a DJI Fly. Despegando..."
7600,2025-05-20 15:37:06,-34.9287272867596,-56.1627941169939,0.984252,0.8530184,6.832443132024,7.685461532024,0.984252,0,1.65595805824,4.5691602512,8,0,7.859,7.685461532024,0.984252,0.223694,1.65595805824,0,0,-1.11847,196.9, 1, 2.5,0,0,834,1017,1024,942,-29,-1,0,-12,201.5,0,2.6,99,3.934,3.925,0,0,0,0,5.035,70.52,7.685461532024,0.984252,11,AutoTakeoff,"Conecta a DJI Fly en exteriores Información de ubicación no actualizada. Algunas funciones no están disponibles. Comprueba que la señal de posicionamiento por satélite sea buena y conéctate a DJI Fly. Despegando..."
7700,2025-05-20 15:37:06,-34.9287271209441,-56.1627939998176,1.312336,1.1811024,6.832443132024,8.013545532024,0.984252,0,1.72580714184,4.6390749516,8,0,7.859,8.013545532024,1.312336,0.223694,1.72580714184,0,0,-1.11847,196.7, -3.7, 2.5,0,0,834,1017,1024,942,-29,-1,0,-12,201.6,0,3.4,99,3.934,3.925,0,0,0,0,5.035,70.52,8.013545532024,1.312336,11,AutoTakeoff,"Conecta a DJI Fly en exteriores Información de ubicación no actualizada. Algunas funciones no están disponibles. Comprueba que la señal de posicionamiento por satélite sea buena y conéctate a DJI Fly. Despegando..."
7800,2025-05-20 15:37:07,-34.9287274866534,-56.1627929049044,1.312336,1.1811024,6.832443132024,8.013545532024,1.312336,0,1.823162788,4.9927166952,8,0,7.859,8.013545532024,1.312336,0.223694,1.823162788,0,0,-0.894776,196.7, -4.6, 3.9,0,0,834,1017,1024,942,-29,-1,0,-12,201.7,0,4.6,99,3.934,3.925,0,0,0,0,5.035,70.52,8.013545532024,1.312336,11,AutoTakeoff,"Conecta a DJI Fly en exteriores Información de ubicación no actualizada. Algunas funciones no están disponibles. Comprueba que la señal de posicionamiento por satélite sea buena y conéctate a DJI Fly. Despegando..."
7900,2025-05-20 15:37:07,-34.928727561736,-56.1627928970622,1.64042,1.5419948,6.799634732024,8.341629532024,1.64042,0,1.80504927036,5.0202101344,8,0,7.859,8.341629532024,1.64042,0.223694,1.823162788,0,0,-0.894776,196.9, -2.1, 4.5,0,0,834,1017,1024,942,-29,-1,0,-12,201.6,0,4.6,99,3.934,3.925,0,0,0,0,5.035,70.52,8.341629532024,1.64042,11,AutoTakeoff,"Conecta a DJI Fly en exteriores Información de ubicación no actualizada. Algunas funciones no están disponibles. Comprueba que la señal de posicionamiento por satélite sea buena y conéctate a DJI Fly. Despegando..."
8000,2025-05-20 15:37:07,-34.9287282442162,-56.1627922582365,1.64042,1.5419948,6.799634732024,8.341629532024,1.64042,0,1.787073548,5.3340880972,8,0,7.826,8.341629532024,1.64042,0.223694,1.823162788,0,0,-0.894776,197, 0.9, 4.1,0,0,834,1017,1024,942,-29,-1,0,-12,201.4,0,4.2,98,3.916,3.91,0,0,0,0,4.995,70.52,8.341629532024,1.64042,11,AutoTakeoff,"Conecta a DJI Fly en exteriores Información de ubicación no actualizada. Algunas funciones no están disponibles. Comprueba que la señal de posicionamiento por satélite sea buena y conéctate a DJI Fly. Despegando..."
8100,2025-05-20 15:37:07,-34.9287283546831,-56.1627923290407,1.968504,1.8700788,6.799634732024,8.669713532024,1.64042,0,1.74645018712,5.3796261564,8,0,7.826,8.669713532024,1.968504,0.223694,1.823162788,0,0,-0.894776,196.9, 2.7, 3.9,0,0,834,1017,1024,942,-29,-1,0,-12,201.3,0,3.9,98,3.916,3.91,0,0,0,0,4.995,70.52,8.669713532024,1.968504,11,AutoTakeoff,"Conecta a DJI Fly en exteriores Información de ubicación no actualizada. Algunas funciones no están disponibles. Comprueba que la señal de posicionamiento por satélite sea buena y conéctate a DJI Fly. Despegando..."
8200,2025-05-20 15:37:07,-34.9287284822395,-56.1627918160142,1.968504,1.8700788,6.799634732024,8.669713532024,1.968504,0,1.84955386496,5.5399936156,8,0,7.826,8.669713532024,1.968504,0.223694,1.84955386496,0,0,-0.894776,196.9, 1.6, 3.5,0,0,834,1017,1024,942,-29,-1,0,-12,201.4,0,3.7,98,3.916,3.91,0,0,0,0,4.995,70.52,8.669713532024,1.968504,11,AutoTakeoff,"Conecta a DJI Fly en exteriores Información de ubicación no actualizada. Algunas funciones no están disponibles. Comprueba que la señal de posicionamiento por satélite sea buena y conéctate a DJI Fly. Despegando..."
8300,2025-05-20 15:37:07,-34.9287283811572,-56.1627918077678,2.296588,2.1981628,6.799634732024,8.997797532024,2.296588,0,1.87100727772,5.576935874,8,0,7.826,8.997797532024,2.296588,0.223694,1.87100727772,0,0,-0.894776,196.8, -1, 3.7,0,0,834,1017,1024,942,-29,-1,0,-12,201.5,0,4.1,99,3.916,3.91,0,0,0,0,4.995,70.52,8.997797532024,2.296588,11,AutoTakeoff,"Conecta a DJI Fly en exteriores Información de ubicación no actualizada. Algunas funciones no están disponibles. Comprueba que la señal de posicionamiento por satélite sea buena y conéctate a DJI Fly. Despegando..."
8400,2025-05-20 15:37:07,-34.9287291301284,-56.1627910557165,2.296588,2.2309712,6.766826332024,8.997797532024,2.296588,0,1.94816935368,5.9308728932,8,0,7.826,8.997797532024,2.296588,0.223694,1.94816935368,0,0,-0.894776,196.7, -1.1, 3.8,0,0,834,1017,1024,942,-29,-1,0,-12,201.3,0,4.3,99,3.916,3.91,0,0,0,0,4.995,70.52,8.997797532024,2.296588,11,AutoTakeoff,"Conecta a DJI Fly en exteriores Información de ubicación no actualizada. Algunas funciones no están disponibles. Comprueba que la señal de posicionamiento por satélite sea buena y conéctate a DJI Fly. Despegando..."
8500,2025-05-20 15:37:07,-34.9287290746278,-56.1627909600817,2.624672,2.5590552,6.766826332024,9.325881532024,2.624672,0,1.98225728128,5.9659450728,8,0,7.826,9.325881532024,2.624672,0.223694,1.98225728128,0,0,-1.11847,196.6, -1.4, 4.9,0,0,834,1017,1024,942,-29,-1,0,-12,201.5,0,6.3,99,3.916,3.91,0,0,0,0,4.995,70.52,9.325881532024,2.624672,11,AutoTakeoff,"Conecta a DJI Fly en exteriores Información de ubicación no actualizada. Algunas funciones no están disponibles. Comprueba que la señal de posicionamiento por satélite sea buena y conéctate a DJI Fly. Despegando..."
8600,2025-05-20 15:37:07,-34.9287295267762,-56.1627906170254,2.624672,2.5918636,6.734017932024,9.325881532024,2.624672,0,2.024770406,6.1602036092,8,0,7.826,9.325881532024,2.624672,0.223694,2.024770406,0,0,-1.11847,196.7, -2.8, 7.3,0,0,834,1017,1024,942,-29,-1,0,-12,202,0,8.4,99,3.916,3.91,0,0,0,0,4.995,70.52,9.325881532024,2.624672,11,AutoTakeoff,"Conecta a DJI Fly en exteriores Información de ubicación no actualizada. Algunas funciones no están disponibles. Comprueba que la señal de posicionamiento por satélite sea buena y conéctate a DJI Fly. Despegando..."
8700,2025-05-20 15:37:07,-34.9287295283413,-56.162790580922,2.952756,2.9199476,6.734017932024,9.653965532024,2.952756,0,2.03496397588,6.1710303812,8,0,7.826,9.653965532024,2.952756,0.223694,2.03496397588,0,0,-1.11847,197, -3.6, 8.2,0,0,834,1017,1024,942,-29,-1,0,-12,202.1,0,8.3,99,3.916,3.91,0,0,0,0,4.995,70.52,9.653965532024,2.952756,11,AutoTakeoff,"Conecta a DJI Fly en exteriores Información de ubicación no actualizada. Algunas funciones no están disponibles. Comprueba que la señal de posicionamiento por satélite sea buena y conéctate a DJI Fly. Despegando..."
8800,2025-05-20 15:37:08,-34.9287292875407,-56.1627908811075,2.952756,2.8871392,6.766826332024,9.653965532024,3.28084,0,1.97675859344,6.2966537448,8,0,7.826,9.653965532024,2.952756,0.223694,2.03496397588,0,0,-1.11847,196.7, -4.6, 7.4,0,0,834,1017,1024,942,-29,-1,0,-12,201.9,0,6.4,99,3.916,3.91,0,0,0,0,4.995,70.52,9.653965532024,2.952756,11,AutoTakeoff,"Conecta a DJI Fly en exteriores Información de ubicación no actualizada. Algunas funciones no están disponibles. Comprueba que la señal de posicionamiento por satélite sea buena y conéctate a DJI Fly. Despegando..."
8900,2025-05-20 15:37:08,-34.9287294044318,-56.1627908963216,3.28084,3.2152232,6.766826332024,9.982049532024,3.28084,0,1.9585302464,6.3395343236,8,0,7.826,9.982049532024,3.28084,0.223694,2.03496397588,0,0,-1.11847,196.6, -6.4, 5.5,0,0,834,1017,1024,942,-29,-1,0,-12,201.9,0,4.9,99,3.916,3.91,0,0,0,0,4.995,70.52,9.982049532024,3.28084,11,AutoTakeoff,"Conecta a DJI Fly en exteriores Información de ubicación no actualizada. Algunas funciones no están disponibles. Comprueba que la señal de posicionamiento por satélite sea buena y conéctate a DJI Fly. Despegando..."
9000,2025-05-20 15:37:08,-34.9287294406883,-56.1627909852063,3.28084,3.2152232,6.766826332024,9.982049532024,3.28084,0,1.92912407748,6.3692259256,8,0,7.813,9.982049532024,3.28084,0.223694,2.03496397588,0,0,-0.894776,196.8, -4.8, 3.8,0,0,834,1017,1024,942,-29,-1,0,-12,201.6,0,4.5,98,3.908,3.905,0,0,0,0,4.843,70.7,9.982049532024,3.28084,11,AutoTakeoff,"Conecta a DJI Fly en exteriores Información de ubicación no actualizada. Algunas funciones no están disponibles. Comprueba que la señal de posicionamiento por satélite sea buena y conéctate a DJI Fly. Despegando..."
9100,2025-05-20 15:37:08,-34.9287295290304,-56.1627909554762,3.608924,3.5761156,6.734017932024,10.310133532024,3.608924,0,1.92769363124,6.4026904936,8,0,7.813,10.310133532024,3.608924,0.223694,2.03496397588,0,0,-0.894776,196.8, -0.9, 6.7,0,0,845,1058,1047,887,-27,5,3,-21,201.4,-1.6,8.6,98,3.908,3.905,0,0,0,0,4.843,70.7,10.310133532024,3.608924,11,AutoTakeoff,"Conecta a DJI Fly en exteriores Información de ubicación no actualizada. Algunas funciones no están disponibles. Comprueba que la señal de posicionamiento por satélite sea buena y conéctate a DJI Fly. Despegando..."
9200,2025-05-20 15:37:08,-34.928729734542,-56.1627905550372,3.608924,3.5761156,6.734017932024,10.310133532024,3.937008,0,2.02246069464,6.5439962724,8,0,7.813,10.310133532024,3.608924,0.223694,2.03496397588,0,0,-0.894776,196.1, 0.7, 8.3,0,0,845,1062,1157,1009,-27,6,20,-2,201.8,-15.3,8.7,98,3.908,3.905,0,0,0,0,4.843,70.7,10.310133532024,3.608924,11,AutoTakeoff,"Conecta a DJI Fly en exteriores Información de ubicación no actualizada. Algunas funciones no están disponibles. Comprueba que la señal de posicionamiento por satélite sea buena y conéctate a DJI Fly. Despegando..."
9300,2025-05-20 15:37:08,-34.9287297160347,-56.1627903961021,3.937008,3.9041996,6.734017932024,10.638217532024,3.937008,0.223694,2.07020019748,6.5919949616,8,0,7.813,10.638217532024,3.937008,0.223694,2.07020019748,0,0.223694,-0.447388,195.3, -2.5, 8.8,0,0,847,1062,1230,1009,-27,6,31,-2,203,-26.3,8.5,98,3.908,3.905,0,0,0,0,4.843,70.7,10.638217532024,3.937008,6,P-GPS,"Conecta a DJI Fly en exteriores Información de ubicación no actualizada. Algunas funciones no están disponibles. Comprueba que la señal de posicionamiento por satélite sea buena y conéctate a DJI Fly. Despegando.... Información de ubicación no actualizada. Algunas funciones no está"
9400,2025-05-20 15:37:08,-34.928730721868,-56.1627897648462,3.937008,3.937008,6.701209532024,10.638217532024,4.265092,0.223694,2.20033143524,7.0047246336,8,0,7.813,10.638217532024,3.937008,0.223694,2.20033143524,0,0.223694,-0.223694,195.4, -8, 8.9,0,0,845,1061,1264,1007,-27,6,36,-3,204.7,-29.4,9.2,98,3.908,3.905,0,0,0,0,4.843,70.7,10.638217532024,3.937008,6,P-GPS,"Conecta a DJI Fly en exteriores Información de ubicación no actualizada. Algunas funciones no están disponibles. Comprueba que la señal de posicionamiento por satélite sea buena y conéctate a DJI Fly. Presiona ligeramente el acelerador para controlar la orientación de la aeronave. "
9500,2025-05-20 15:37:08,-34.92873072029,-56.1627896548188,3.937008,3.937008,6.701209532024,10.638217532024,3.937008,0,2.23321201372,7.0376314588,8,0,7.813,10.638217532024,3.937008,0.223694,2.23321201372,0,0,0,195.5, -15.3, 10.1,0,0,845,1061,1042,1008,-27,6,3,-2,204.9,-30.4,9.2,98,3.908,3.905,0,0,0,0,4.843,70.7,10.638217532024,3.937008,6,P-GPS,"Conecta a DJI Fly en exteriores Información de ubicación no actualizada. Algunas funciones no están disponibles. Comprueba que la señal de posicionamiento por satélite sea buena y conéctate a DJI Fly. Presiona ligeramente el acelerador para controlar la orientación de la aeronave. "
9600,2025-05-20 15:37:08,-34.9287314514312,-56.1627899498398,3.937008,3.937008,6.701209532024,10.638217532024,3.608924,0.447388,2.1441765778,7.3186025964,8,0,7.813,10.638217532024,3.937008,0.447388,2.23321201372,-0.447388,0,0.223694,196.5, -6.9, 9.2,0,0,845,1061,1024,1008,-27,6,0,-2,204.8,-30.9,8.7,98,3.908,3.905,0,0,0,0,4.843,70.7,10.638217532024,3.937008,6,P-GPS,"Conecta a DJI Fly en exteriores Información de ubicación no actualizada. Algunas funciones no están disponibles. Comprueba que la señal de posicionamiento por satélite sea buena y conéctate a DJI Fly. Presiona ligeramente el acelerador para controlar la orientación de la aeronave. "
9700,2025-05-20 15:37:08,-34.9287317008435,-56.1627899930958,3.937008,4.0026248,6.635592732024,10.638217532024,3.937008,0.447388,2.1385499372,7.4105317332,8,0,7.813,10.638217532024,3.937008,0.447388,2.23321201372,-0.447388,0,0,198, 2.9, 8.6,0,0,845,1061,1024,1007,-27,6,0,-3,204.6,-31.1,8.6,98,3.908,3.905,0,0,0,0,4.843,70.7,10.638217532024,3.937008,6,P-GPS,"Conecta a DJI Fly en exteriores Información de ubicación no actualizada. Algunas funciones no están disponibles. Comprueba que la señal de posicionamiento por satélite sea buena y conéctate a DJI Fly. Presiona ligeramente el acelerador para controlar la orientación de la aeronave. "
9800,2025-05-20 15:37:09,-34.9287319022935,-56.1627901965807,3.937008,4.0026248,6.635592732024,10.638217532024,3.937008,0,2.08694560484,7.5059713688,8,0,7.813,10.638217532024,3.937008,0.447388,2.23321201372,0,0,0,197.9, 2.2, 8.5,0,0,844,1061,1024,1007,-27,6,0,-3,204.7,-31.2,9,98,3.908,3.905,0,0,0,0,4.843,70.7,10.638217532024,3.937008,6,P-GPS,"Conecta a DJI Fly en exteriores Información de ubicación no actualizada. Algunas funciones no están disponibles. Comprueba que la señal de posicionamiento por satélite sea buena y conéctate a DJI Fly. Presiona ligeramente el acelerador para controlar la orientación de la aeronave. "
9900,2025-05-20 15:37:09,-34.9287320926786,-56.1627902487284,3.937008,4.0026248,6.635592732024,10.638217532024,3.937008,0,2.08236227136,7.5771327884,8,0,7.813,10.638217532024,3.937008,0.447388,2.23321201372,0,0,0,197.8, 0.4, 8.7,0,0,844,1061,1024,1007,-27,6,0,-3,204.9,-31.3,8.8,98,3.908,3.905,0,0,0,0,4.843,70.7,10.638217532024,3.937008,6,P-GPS,"Conecta a DJI Fly en exteriores Información de ubicación no actualizada. Algunas funciones no están disponibles. Comprueba que la señal de posicionamiento por satélite sea buena y conéctate a DJI Fly. Presiona ligeramente el acelerador para controlar la orientación de la aeronave. "
10000,2025-05-20 15:37:09,-34.9287317124708,-56.1627898771489,3.608924,3.6745408,6.635592732024,10.310133532024,3.937008,0,2.17348432152,7.7548886996,8,0,7.801,10.638217532024,3.937008,0.447388,2.23321201372,0,0,0,197.9, 0, 8,0,0,844,1060,1024,1006,-27,5,0,-3,205,-31.3,7.2,98,3.901,3.9,0,0,0,0,4.8,70.7,10.310133532024,3.608924,6,P-GPS,"Conecta a DJI Fly en exteriores Información de ubicación no actualizada. Algunas funciones no están disponibles. Comprueba que la señal de posicionamiento por satélite sea buena y conéctate a DJI Fly. Presiona ligeramente el acelerador para controlar la orientación de la aeronave. "
10100,2025-05-20 15:37:09,-34.9287316740248,-56.1627899292385,3.608924,3.6745408,6.635592732024,10.310133532024,3.937008,0,2.1565945572,7.7758532672,8,0,7.801,10.638217532024,3.937008,0.447388,2.23321201372,0,0,0,197.7, -0.9, 6.8,0,0,845,1060,1024,1006,-27,5,0,-3,204.9,-31.3,6.3,98,3.901,3.9,0,0,0,0,4.8,70.7,10.310133532024,3.608924,6,P-GPS,"Conecta a DJI Fly en exteriores Información de ubicación no actualizada. Algunas funciones no están disponibles. Comprueba que la señal de posicionamiento por satélite sea buena y conéctate a DJI Fly. Presiona ligeramente el acelerador para controlar la orientación de la aeronave. "
