time(millisecond),datetime(utc),latitude,longitude,height_above_takeoff(feet),height_above_ground_at_drone_location(feet),ground_elevation_at_drone_location(feet),altitude_above_seaLevel(feet),height_sonar(feet),speed(mph),distance(feet),mileage(feet),satellites,gpslevel,voltage(v),max_altitude(feet),max_ascent(feet),max_speed(mph),max_distance(feet), xSpeed(mph), ySpeed(mph), zSpeed(mph), compass_heading(degrees), pitch(degrees), roll(degrees),isPhoto,isVideo,rc_elevator,rc_aileron,rc_throttle,rc_rudder,rc_elevator(percent),rc_aileron(percent),rc_throttle(percent),rc_rudder(percent),gimbal_heading(degrees),gimbal_pitch(degrees),gimbal_roll(degrees),battery_percent,voltageCell1,voltageCell2,voltageCell3,voltageCell4,voltageCell5,voltageCell6,current(A),battery_temperature(f),altitude(feet),ascent(feet),flycStateRaw,flycState,message
0,2025-05-08 16:28:25,-22.9872084158138,-42.0124355734477,0,0,0.17247539922,0.17247539922,0,0,0,0,20,5,0,0.17247539922,0,0,0,0.223694,0,0,125, -12.3, 0.1,0,0,364,364,364,1684,-100,-100,-100,100,146.8,0,0,96,4.263,4.262,0,0,0,0,0,79.7,0.17247539922,0,41,Motors_Started,"Error de calibración del estabilizador. Reinicia la aeronave o contacta con la Asistencia DJI (Code: 40011)"
100,2025-05-08 16:28:25,-22.9872081452804,-42.0124355311678,0,0,0.17247539922,0.17247539922,0,0.447388,0.099720147548,0.099720147548,20,5,0,0.17247539922,0,0.447388,0.099720147548,0.447388,0,0,128.1, -9.8, -0.2,0,0,364,364,364,1684,-100,-100,-100,100,148.6,0,0,96,4.263,4.262,0,0,0,0,0,79.7,0.17247539922,0,41,Motors_Started,"Setting new Return-To-Home altitude to 100m (328 ft). Data Recorder File Index is 69. Setting new Maximum Flight Altitude to 500m (1640 ft)"
200,2025-05-08 16:28:25,-22.9872077510227,-42.0124354420015,0,0.098425199999998,0.074050199220002,0.17247539922,0.328084,0.7158208,0.246534128624,0.246649614192,20,5,0,0.17247539922,0,0.7158208,0.246534128624,0.671082,0.223694,0,131.5, -7.5, -0.8,0,0,364,364,364,1684,-100,-100,-100,100,151.6,0,0,96,4.263,4.262,0,0,0,0,0,79.7,0.17247539922,0,41,Motors_Started,
300,2025-05-08 16:28:25,-22.9872073041654,-42.0124353905558,0,0,0.17247539922,0.17247539922,0.328084,0.9171454,0.41020998688,0.410597126,20,5,0,0.17247539922,0,0.9171454,0.41020998688,0.894776,0.223694,0,134.6, -5.6, -1,0,0,1024,1024,1024,1024,0,0,0,0,155.1,0,0,96,4.263,4.262,0,0,0,0,0,79.7,0.17247539922,0,41,Motors_Started,
400,2025-05-08 16:28:25,-22.9872068681325,-42.0124353277626,0,0,0.17247539922,0.17247539922,0.328084,0.9171454,0.5706693096,0.57107613376,20,5,0,0.17247539922,0,0.9171454,0.5706693096,0.894776,0.223694,0,136.7, -5.6, -0.2,0,0,1024,1024,1024,1024,0,0,0,0,158.1,0,0,96,4.263,4.262,0,0,0,0,0,79.7,0.17247539922,0,41,Motors_Started,
500,2025-05-08 16:28:26,-22.9872064784751,-42.0124353140736,0,-0.065616799999999,0.23809219922,0.17247539922,0.328084,0.894776,0.71218506216,0.71331695196,20,5,0,0.17247539922,0,0.9171454,0.71218506216,0.894776,0,0,137.9, -6.1, -0.5,0,0,1024,1024,1024,960,0,0,0,-10,160.4,0,0,96,4.263,4.262,0,0,0,0,0,79.7,0.17247539922,0,41,Motors_Started,
600,2025-05-08 16:28:26,-22.9872061453671,-42.012435360825,0,-0.065616799999999,0.23809219922,0.17247539922,0.328084,0.671082,0.83144359616,0.83586288764,20,5,0,0.17247539922,0,0.9171454,0.83144359616,0.671082,0,0,139.6, -6.4, -0.8,0,0,1024,1024,1024,1024,0,0,0,0,162.3,0,0,96,4.263,4.262,0,0,0,0,0,79.7,0.17247539922,0,41,Motors_Started,
700,2025-05-08 16:28:26,-22.9872056775461,-42.0124350779423,0,-0.065616799999999,0.23809219922,0.17247539922,0.328084,0.447388,1.01282155472,1.03121066292,20,5,0,0.17247539922,0,0.9171454,1.01282155472,0.447388,0,0,139.5, -7, -0.3,0,0,1024,1024,1024,1024,0,0,0,0,162.7,0,0,96,4.263,4.262,0,0,0,0,0,79.7,0.17247539922,0,41,Motors_Started,
800,2025-05-08 16:28:26,-22.98720538455,-42.0124351250764,0,-0.164042,0.33651739922,0.17247539922,0.328084,0.3131716,1.11616145304,1.13927497084,20,5,0,0.17247539922,0,0.9171454,1.11616145304,0.223694,-0.223694,0,139.9, -6.9, -0.3,0,0,1024,1024,1024,1024,0,0,0,0,162.6,0,0,96,4.263,4.262,0,0,0,0,0,79.7,0.17247539922,0,41,Motors_Started,
900,2025-05-08 16:28:26,-22.9872051867673,-42.012435273834,0,-0.164042,0.33651739922,0.17247539922,0.328084,0.3131716,1.18240489348,1.22704400252,20,5,0,0.17247539922,0,0.9171454,1.18240489348,0.223694,-0.223694,0,139.8, -6.8, 0.2,0,0,1024,1024,1024,1024,0,0,0,0,162.7,0,0,96,4.263,4.262,0,0,0,0,0,79.7,0.17247539922,0,41,Motors_Started,
1000,2025-05-08 16:28:26,-22.9872050370563,-42.0124354408482,0,-0.164042,0.33651739922,0.17247539922,0.328084,0.223694,1.23354334656,1.30534124912,20,5,0,0.17247539922,0,0.9171454,1.23354334656,0,-0.223694,0,140.3, -6.4, 0.7,0,0,1024,1024,1024,1024,0,0,0,0,162.9,0,0,96,4.263,4.262,0,0,0,0,0,79.7,0.17247539922,0,41,Motors_Started,
1100,2025-05-08 16:28:26,-22.9872053922639,-42.0124355831602,0,-0.2624672,0.43494259922,0.17247539922,0.328084,0.223694,1.10314636076,1.44347445564,20,5,0,0.17247539922,0,0.9171454,1.23354334656,0,-0.223694,0,141, -5.7, -0.1,0,0,1024,1024,1664,980,0,0,97,-7,163.3,0,0,96,4.263,4.262,0,0,0,0,0,79.7,0.17247539922,0,10,Assisted_Takeoff,
1200,2025-05-08 16:28:26,-22.9872053929804,-42.0124357108828,0,-0.2624672,0.43494259922,0.17247539922,0.328084,0.223694,1.10384517968,1.48637143864,20,5,0,0.17247539922,0,0.9171454,1.23354334656,0,-0.223694,-0.223694,142.8, -4, -1,0,0,1024,1024,1684,862,0,0,100,-25,164.5,0,0,96,4.263,4.262,0,0,0,0,0,79.7,0.17247539922,0,10,Assisted_Takeoff,
1300,2025-05-08 16:28:26,-22.9872054340074,-42.0124358322123,0.328084,0.0656168,0.43494259922,0.50055939922,0.328084,0,1.09137798768,1.52978679436,20,5,0,0.50055939922,0.328084,0.9171454,1.23354334656,0,0,-0.223694,142.8, -2.8, -1.4,0,0,1024,1024,1684,863,0,0,100,-24,165.1,0,0,96,4.263,4.262,0,0,0,0,0,79.7,0.50055939922,0.328084,10,Assisted_Takeoff,
1400,2025-05-08 16:28:26,-22.9872054841326,-42.0124359038071,0.328084,0.0656168,0.43494259922,0.50055939922,0.328084,0,1.0753609268,1.55999676908,20,5,8.529,0.50055939922,0.328084,0.9171454,1.23354334656,0,0,-0.223694,142.5, -0.6, -0.6,0,0,1024,1024,1684,894,0,0,100,-20,165.1,0,0,96,4.263,4.262,0,0,0,0,1.342,79.7,0.50055939922,0.328084,6,P-GPS,
1500,2025-05-08 16:28:27,-22.9872058088948,-42.0124356935854,0.656168,0.4593176,0.36932579922,0.82864339922,0.328084,0,0.95198821944,1.69792984436,20,5,8.529,0.82864339922,0.656168,0.9171454,1.23354334656,0,0,-0.447388,142.4, 0.7, 0.1,0,0,1024,1024,1684,912,0,0,100,-17,164.8,0,0,96,4.263,4.262,0,0,0,0,1.342,79.7,0.82864339922,0.656168,6,P-GPS,
1600,2025-05-08 16:28:27,-22.9872059068392,-42.0124356167536,0.656168,0.4593176,0.36932579922,0.82864339922,0.656168,0.223694,0.91551512116,1.74200792976,20,5,8.529,0.82864339922,0.656168,0.9171454,1.23354334656,0,0.223694,-0.447388,142, 0.7, 0,0,0,1024,1024,1684,912,0,0,100,-17,164.5,0,0,96,4.263,4.262,0,0,0,0,1.342,79.7,0.82864339922,0.656168,6,P-GPS,
1700,2025-05-08 16:28:27,-22.987205962615,-42.0124354889426,0.984252,0.9186352,0.23809219922,1.15672739922,0.656168,0.223694,0.89549871632,1.7895177738,20,5,8.529,1.15672739922,0.984252,0.9171454,1.23354334656,0,0.223694,-0.447388,141.6, 0.4, 0.4,0,0,1024,1024,1684,912,0,0,100,-17,164.3,0,0,96,4.263,4.262,0,0,0,0,1.342,79.7,1.15672739922,0.984252,6,P-GPS,
1800,2025-05-08 16:28:27,-22.9872060341965,-42.0124353904982,1.312336,1.2467192,0.23809219922,1.48481139922,0.656168,0.223694,0.87110239008,1.83165360192,20,5,8.529,1.48481139922,1.312336,0.9171454,1.23354334656,-0.223694,0,-0.671082,141.2, 1.3, 1.2,0,0,1024,1024,1684,909,0,0,100,-17,164.1,0,0,96,4.263,4.262,0,0,0,0,1.342,79.7,1.48481139922,1.312336,6,P-GPS,
1900,2025-05-08 16:28:27,-22.987206103026,-42.0124350364266,1.312336,1.2467192,0.23809219922,1.48481139922,0.656168,0.223694,0.86288060504,1.9531988814,20,5,8.529,1.48481139922,1.312336,0.9171454,1.23354334656,-0.223694,0,-0.894776,140.9, 3.1, -0.6,0,0,1024,1024,1684,914,0,0,100,-17,163.9,0,0,96,4.263,4.262,0,0,0,0,1.342,79.7,1.48481139922,1.312336,6,P-GPS,
2000,2025-05-08 16:28:27,-22.9872062152632,-42.0124349270036,1.64042,1.5748032,0.23809219922,1.81289539922,0.656168,0.223694,0.83171262504,2.00822512988,20,5,8.529,1.81289539922,1.64042,0.9171454,1.23354334656,-0.223694,0,-1.11847,140.6, 2.1, -0.2,0,0,1024,1024,1684,939,0,0,100,-13,163.7,0,0,96,4.263,4.262,0,0,0,0,1.342,79.7,1.81289539922,1.64042,6,P-GPS,
2100,2025-05-08 16:28:27,-22.9872063096087,-42.0124348092389,1.968504,1.9028872,0.23809219922,2.14097939922,0.984252,0,0.81018375296,2.06065951476,20,5,8.529,2.14097939922,1.968504,0.9171454,1.23354334656,0,0,-1.789552,140.1, 2.7, -0.7,0,0,1024,1024,1684,943,0,0,100,-12,163.5,0,0,96,4.263,4.262,0,0,0,0,1.342,79.7,2.14097939922,1.968504,6,P-GPS,"Punto de origen actualizado. Altitud de RPO establecida en 100m (Code: 30213)"
2200,2025-05-08 16:28:27,-22.9872063665326,-42.0124347233129,2.296588,2.2309712,0.23809219922,2.46906339922,0.984252,0,0.80034779464,2.09621397784,20,5,8.529,2.46906339922,2.296588,0.9171454,1.23354334656,0,0,-2.23694,140.1, 2.1, -1.2,0,0,1024,1024,1684,934,0,0,100,-14,163.4,0,0,96,4.263,4.262,0,0,0,0,1.342,79.7,2.46906339922,2.296588,6,P-GPS,
2300,2025-05-08 16:28:27,-22.9872064285259,-42.0124347260814,2.952756,2.8871392,0.23809219922,3.12523139922,1.64042,0,0.7789206286,2.11885177384,20,5,8.529,3.12523139922,2.952756,0.9171454,1.23354334656,0,0,-2.908022,140.1, 1.1, -1.1,0,0,1024,1024,1684,912,0,0,100,-17,163.2,0,0,96,4.263,4.262,0,0,0,0,1.342,79.7,3.12523139922,2.952756,6,P-GPS,
2400,2025-05-08 16:28:27,-22.987206487469,-42.0124346295396,3.28084,3.2152232,0.23809219922,3.45331539922,1.968504,0,0.77168965724,2.15776253624,20,5,8.403,3.45331539922,3.28084,0.9171454,1.23354334656,0,0,-3.579104,140.2, 1.1, -1,0,0,1024,1024,1684,1024,0,0,100,0,163.1,0,0,96,4.168,4.16,0,0,0,0,2.688,79.7,3.45331539922,3.28084,6,P-GPS,
2500,2025-05-08 16:28:28,-22.9872065157649,-42.0124346915685,4.265092,4.265092,0.17247539922,4.43756739922,2.296588,0,0.75386157268,2.18101384932,20,5,8.403,4.43756739922,4.265092,0.9171454,1.23354334656,0,0,-4.47388,140, 0, -0.8,0,0,1024,1024,1684,1024,0,0,100,0,162.9,0,0,96,4.168,4.16,0,0,0,0,2.688,79.7,4.43756739922,4.265092,6,P-GPS,
2600,2025-05-08 16:28:28,-22.9872065011447,-42.0124347500373,4.92126,4.92126,0.17247539922,5.09373539922,8.530184,0.223694,0.75131892168,2.20136489984,20,5,8.403,5.09373539922,4.92126,0.9171454,1.23354334656,0.223694,0,-5.144962,140.1, -1, 0.6,0,0,1060,1081,1024,1024,5,9,0,0,162.8,0,0,96,4.168,4.16,0,0,0,0,2.688,79.7,5.09373539922,4.92126,6,P-GPS,
2700,2025-05-08 16:28:28,-22.9872063625788,-42.0124348065704,5.905512,5.8398952,0.23809219922,6.07798739922,9.186352,0.223694,0.79216866052,2.25536752624,20,5,8.403,6.07798739922,5.905512,0.9171454,1.23354334656,0.223694,0,-5.59235,140.2, -1.4, 1.4,0,0,1024,1262,1024,1024,0,36,0,0,162.7,0,0,96,4.168,4.16,0,0,0,0,2.688,79.7,6.07798739922,5.905512,6,P-GPS,
2800,2025-05-08 16:28:28,-22.9872062409177,-42.0124350094248,6.56168,6.4960632,0.23809219922,6.73415539922,9.84252,0.223694,0.81581039356,2.33668642648,20,5,8.403,6.73415539922,6.56168,0.9171454,1.23354334656,0.223694,0,-5.368656,140, -2.6, 4.5,0,0,1024,1024,1024,1024,0,0,0,0,162.7,0,0,96,4.168,4.16,0,0,0,0,2.688,79.7,6.73415539922,6.56168,6,P-GPS,
2900,2025-05-08 16:28:28,-22.9872060747399,-42.0124351239649,7.545932,7.4803152,0.23809219922,7.71840739922,10.498688,0,0.86737863668,2.40849089072,20,5,8.403,7.71840739922,7.545932,0.9171454,1.23354334656,0,0,-5.144962,139.9, -2, 2,0,0,1471,1024,1024,1024,68,0,0,0,162.7,0,0,96,4.168,4.16,0,0,0,0,2.688,79.7,7.71840739922,7.545932,6,P-GPS,
3000,2025-05-08 16:28:28,-22.9872059309467,-42.0124352567006,8.2021,8.1364832,0.23809219922,8.37457539922,11.48294,0,0.91282155152,2.47733931812,20,5,8.403,8.37457539922,8.2021,0.9171454,1.23354334656,0,0,-4.697574,139.6, -1.7, -0.1,0,0,1684,953,1024,1024,100,-11,0,0,162.7,0,0,96,4.168,4.16,0,0,0,0,2.688,79.7,8.37457539922,8.2021,6,P-GPS,
3100,2025-05-08 16:28:28,-22.9872057974403,-42.0124353842057,8.858268,8.7926512,0.23809219922,9.03074339922,11.48294,0,0.95742457132,2.54219824408,20,5,8.403,9.03074339922,8.858268,0.9171454,1.23354334656,0,0,-3.802798,139.9, -9.6, 1.1,0,0,1684,1024,1024,1024,100,0,0,0,162.7,0,0,96,4.168,4.16,0,0,0,0,2.688,79.7,9.03074339922,8.858268,6,P-GPS,
3200,2025-05-08 16:28:28,-22.9872054920875,-42.0124355331616,9.186352,8.9238848,0.43494259922,9.35882739922,12.139108,0,1.06680449608,2.66432423224,20,5,8.403,9.35882739922,9.186352,0.9171454,1.23354334656,0,0,-3.131716,139.6, -17.4, 0.4,0,0,1684,1024,1024,1024,100,0,0,0,162.7,0,0,96,4.168,4.16,0,0,0,0,2.688,79.7,9.35882739922,9.186352,6,P-GPS,
3300,2025-05-08 16:28:28,-22.987205533406,-42.0124355702307,9.514436,9.3175856,0.36932579922,9.68691139922,12.795276,0.4921268,1.05164373444,2.6838747578,20,5,8.403,9.68691139922,9.514436,0.9171454,1.23354334656,-0.447388,0.223694,-2.460634,139.3, -18.1, 0.3,0,0,1684,1024,1024,1024,100,0,0,0,162.7,0,0,96,4.168,4.16,0,0,0,0,2.688,79.7,9.68691139922,9.514436,6,P-GPS,
3400,2025-05-08 16:28:28,-22.9872056770266,-42.0124355207817,9.84252,9.6456696,0.36932579922,10.01499539922,13.12336,0.8052984,0.99940291912,2.738845232,20,5,8.298,10.01499539922,9.84252,0.9171454,1.23354334656,-0.671082,0.447388,-1.565858,139, -18.3, -0.1,0,0,1684,1024,1024,1024,100,0,0,0,162.7,0,0,95,4.188,4.191,0,0,0,0,5.493,79.7,10.01499539922,9.84252,6,P-GPS,
3500,2025-05-08 16:28:29,-22.9872059581335,-42.012435378479,9.84252,9.7769032,0.23809219922,10.01499539922,13.12336,1.11847,0.89907155108,2.85199812276,20,5,8.298,10.01499539922,9.84252,1.11847,1.23354334656,-0.894776,0.671082,-0.671082,139, -18.3, -0.1,0,0,1684,1024,1024,1024,100,0,0,0,162.7,0,0,95,4.188,4.191,0,0,0,0,5.493,79.7,10.01499539922,9.84252,6,P-GPS,
3600,2025-05-08 16:28:29,-22.9872063369568,-42.0124353018333,9.84252,9.7769032,0.23809219922,10.01499539922,13.451444,1.7448132,0.76393703232,2.9925853976,20,5,8.298,10.01499539922,9.84252,1.7448132,1.23354334656,-1.342164,1.11847,-0.223694,139.1, -18.5, 1.5,0,0,1684,1024,1024,1024,100,0,0,0,162.7,0,0,95,4.188,4.191,0,0,0,0,5.493,79.7,10.01499539922,9.84252,6,P-GPS,
3700,2025-05-08 16:28:29,-22.9872068850911,-42.0124348244577,9.84252,9.84252,0.17247539922,10.01499539922,13.451444,2.23694,0.61252954716,3.24891414596,20,5,8.298,10.01499539922,9.84252,2.23694,1.23354334656,-1.789552,1.342164,0,138.7, -19, -0.2,0,0,1684,1001,1024,1024,100,-3,0,0,162.7,0,0,95,4.188,4.191,0,0,0,0,5.493,79.7,10.01499539922,9.84252,6,P-GPS,
3800,2025-05-08 16:28:29,-22.9872075481568,-42.0124342615823,9.84252,10.0721788,-0.057183400780001,10.01499539922,13.451444,2.5501116,0.5425525108,3.555938434,20,5,8.298,10.01499539922,9.84252,2.5501116,1.23354334656,-2.013246,1.565858,0,138.9, -18.5, -0.7,0,0,1684,1002,1024,1024,100,-3,0,0,162.7,0,0,95,4.188,4.191,0,0,0,0,5.493,79.7,10.01499539922,9.84252,6,P-GPS,
3900,2025-05-08 16:28:29,-22.9872084806177,-42.0124334915317,9.84252,10.170604,-0.15560860078,10.01499539922,13.451444,3.0422384,0.69966865756,3.9833006524,20,5,8.298,10.01499539922,9.84252,3.0422384,1.23354334656,-2.460634,1.789552,0,138.8, -17.3, -0.4,0,0,1684,1008,1024,1024,100,-2,0,0,162.7,0,0,95,4.188,4.191,0,0,0,0,5.493,79.7,10.01499539922,9.84252,6,P-GPS,
4000,2025-05-08 16:28:29,-22.9872094972358,-42.012432656771,9.84252,10.2690292,-0.25403380078,10.01499539922,13.451444,3.5343652,1.05611551936,4.4482612972,20,5,8.298,10.01499539922,9.84252,3.5343652,1.23354334656,-2.908022,2.013246,0,138.9, -18.3, -1.2,0,0,1684,1024,1024,1024,100,0,0,0,162.7,0,0,95,4.188,4.191,0,0,0,0,5.493,79.7,10.01499539922,9.84252,6,P-GPS,
4100,2025-05-08 16:28:29,-22.987211012485,-42.0124312006844,9.84252,10.66273,-0.64773460078,10.01499539922,13.451444,3.8475368,1.74776252312,5.1863846804,20,5,8.298,10.01499539922,9.84252,3.8475368,1.74776252312,-3.131716,2.23694,0,139.3, -19.1, -1,0,0,1604,1024,1024,1024,88,0,0,0,162.7,0,0,95,4.188,4.191,0,0,0,0,5.493,79.7,10.01499539922,9.84252,6,P-GPS,
4200,2025-05-08 16:28:29,-22.9872123524778,-42.0124301649174,9.84252,10.8595804,-0.84458500078,10.01499539922,13.451444,4.2278166,2.31581044156,5.786417508,20,5,8.298,10.01499539922,9.84252,4.2278166,2.31581044156,-3.579104,2.23694,0,139.4, -20.4, -2,0,0,1024,1024,1024,1024,0,0,0,0,162.7,0,0,95,4.188,4.191,0,0,0,0,5.493,79.7,10.01499539922,9.84252,6,P-GPS,
4300,2025-05-08 16:28:29,-22.9872139434668,-42.0124290110987,10.170604,11.48294,-1.13986060078,10.34307939922,13.451444,4.5186188,2.98757227408,6.4843834096,20,5,8.298,10.34307939922,10.170604,4.5186188,2.98757227408,-3.802798,2.460634,0,139.2, -20.1, -3.5,0,0,1024,1024,1024,1024,0,0,0,0,162.7,0,0,95,4.188,4.191,0,0,0,0,5.493,79.7,10.34307939922,10.170604,6,P-GPS,
4400,2025-05-08 16:28:29,-22.9872155902104,-42.0124278176613,10.170604,11.811024,-1.46794460078,10.34307939922,13.451444,4.8317904,3.692913504,7.2066275272,20,5,8.298,10.34307939922,10.170604,4.8317904,3.692913504,-4.026492,2.684328,0,139.2, -17.1, -5.4,0,0,1024,1024,1024,1024,0,0,0,0,162.7,0,0,95,4.188,4.191,0,0,0,0,5.493,79.7,10.34307939922,10.170604,6,P-GPS,
4500,2025-05-08 16:28:30,-22.9872174974222,-42.0124264527182,10.170604,12.1062996,-1.76322020078,10.34307939922,13.451444,4.8317904,4.5125985696,8.0399280788,20,5,8.371,10.34307939922,10.170604,4.8317904,4.5125985696,-4.026492,2.684328,-0.223694,137, 6.5, -7.1,0,0,1024,1024,1024,1024,0,0,0,0,162.7,0,0,95,4.171,4.173,0,0,0,0,3.336,79.7,10.34307939922,10.170604,6,P-GPS,
4600,2025-05-08 16:28:30,-22.9872190351606,-42.0124252984799,10.170604,12.4343836,-2.09130420078,10.34307939922,13.779528,4.026492,5.1886156516,8.7218834812,20,5,8.371,10.34307939922,10.170604,4.8317904,5.1886156516,-3.35541,2.23694,-0.223694,137.1, 13.4, -6.1,0,0,1024,1024,1024,1024,0,0,0,0,162.7,0,0,95,4.171,4.173,0,0,0,0,3.336,79.7,10.34307939922,10.170604,6,P-GPS,
4700,2025-05-08 16:28:30,-22.9872203976349,-42.0124243105525,10.170604,12.631234,-2.28815460078,10.34307939922,13.779528,3.5343652,5.7811025472,9.319554104,20,5,8.371,10.34307939922,10.170604,4.8317904,5.7811025472,-2.908022,2.013246,-0.223694,137.6, 14.6, -4.8,0,0,1024,1024,1024,1024,0,0,0,0,162.7,0,0,95,4.171,4.173,0,0,0,0,3.336,79.7,10.34307939922,10.170604,6,P-GPS,
4800,2025-05-08 16:28:30,-22.9872214789034,-42.0124235389295,9.84252,12.4015752,-2.38657980078,10.01499539922,13.779528,2.7290668,6.2493112236,9.7915685548,20,5,8.371,10.34307939922,10.170604,4.8317904,6.2493112236,-2.23694,1.565858,0,137.7, 13.3, -4.6,0,0,1024,1024,1024,1024,0,0,0,0,162.7,0,0,95,4.171,4.173,0,0,0,0,3.336,79.7,10.01499539922,9.84252,6,P-GPS,
4900,2025-05-08 16:28:30,-22.9872223045247,-42.0124230094835,9.84252,12.631234,-2.61623860078,10.01499539922,12.795276,1.8119214,6.5943571664,10.1413717156,20,5,8.371,10.34307939922,10.170604,4.8317904,6.5943571664,-1.565858,0.894776,0,137.9, 11.4, -3,0,0,1024,1024,1024,1024,0,0,0,0,162.7,0,0,95,4.171,4.173,0,0,0,0,3.336,79.7,10.01499539922,9.84252,6,P-GPS,
5000,2025-05-08 16:28:30,-22.9872229706213,-42.0124225574544,9.84252,12.6968508,-2.68185540078,10.01499539922,12.139108,1.2079476,6.8783466768,10.4279202812,20,5,8.371,10.34307939922,10.170604,4.8317904,6.8783466768,-1.11847,0.447388,0,137.9, 7.9, -1.4,0,0,1024,1024,1024,1024,0,0,0,0,162.7,0,0,95,4.171,4.173,0,0,0,0,3.336,79.7,10.01499539922,9.84252,6,P-GPS,
5100,2025-05-08 16:28:30,-22.9872234565254,-42.0124223554981,9.84252,12.8280844,-2.81308900078,10.01499539922,12.139108,0.7158208,7.0585960264,10.6177496836,20,5,8.371,10.34307939922,10.170604,4.8317904,7.0585960264,-0.671082,0.223694,0,138.1, 5.5, -3.3,0,0,1024,1024,1024,1024,0,0,0,0,162.7,0,0,95,4.171,4.173,0,0,0,0,3.336,79.7,10.01499539922,9.84252,6,P-GPS,
5200,2025-05-08 16:28:30,-22.987223821538,-42.0124222555677,9.514436,12.5656172,-2.87870580078,9.68691139922,12.139108,0.447388,7.1834647968,10.755085646,20,5,8.371,10.34307939922,10.170604,4.8317904,7.1834647968,-0.447388,0,0,137.9, 4.6, -5,0,0,1024,1024,1024,1024,0,0,0,0,162.7,0,0,95,4.171,4.173,0,0,0,0,3.336,79.7,9.68691139922,9.514436,6,P-GPS,
5300,2025-05-08 16:28:30,-22.9872234564144,-42.0124228752548,9.514436,12.3687668,-2.68185540078,9.68691139922,11.811024,0.3131716,6.9500986476,11.0021985148,20,5,8.371,10.34307939922,10.170604,4.8317904,7.1834647968,-0.223694,-0.223694,0.223694,137.9, 2.5, -4.5,0,0,1024,1024,1024,1024,0,0,0,0,162.7,0,0,95,4.171,4.173,0,0,0,0,3.336,79.7,9.68691139922,9.514436,6,P-GPS,
5400,2025-05-08 16:28:30,-22.9872235185414,-42.0124230229393,9.514436,12.467192,-2.78028060078,9.68691139922,11.48294,0.223694,6.9377626892,11.0567260756,20,5,8.371,10.34307939922,10.170604,4.8317904,7.1834647968,0,-0.223694,0.223694,138.2, -0.6, -4.7,0,0,1024,1024,1024,1024,0,0,0,0,162.7,0,0,95,4.171,4.173,0,0,0,0,3.336,79.7,9.68691139922,9.514436,6,P-GPS,
5500,2025-05-08 16:28:31,-22.9872235149765,-42.0124232515619,9.514436,12.467192,-2.78028060078,9.68691139922,11.154856,0.447388,6.8903217428,11.13353054,20,5,8.402,10.34307939922,10.170604,4.8317904,7.1834647968,0,-0.447388,0.223694,138.3, -1.2, -4.7,0,0,1024,1024,1024,1024,0,0,0,0,162.7,0,0,95,4.212,4.201,0,0,0,0,3.758,79.7,9.68691139922,9.514436,6,P-GPS,
5600,2025-05-08 16:28:31,-22.987223467679,-42.0124235111663,9.84252,12.5984256,-2.58343020078,10.01499539922,11.154856,0.447388,6.8244096672,11.2224084956,20,5,8.402,10.34307939922,10.170604,4.8317904,7.1834647968,0,-0.447388,0.223694,138.5, -3.1, -4.6,0,0,1024,1024,1024,1024,0,0,0,0,162.7,0,0,95,4.212,4.201,0,0,0,0,3.758,79.7,10.01499539922,9.84252,6,P-GPS,
5700,2025-05-08 16:28:31,-22.9872234958507,-42.0124237906588,9.84252,12.5984256,-2.58343020078,10.01499539922,10.826772,0.447388,6.7774608468,11.3168638792,20,5,8.402,10.34307939922,10.170604,4.8317904,7.1834647968,0,-0.447388,0.223694,138.7, -4.1, -4.1,0,0,1024,1024,1024,1024,0,0,0,0,162.7,0,0,95,4.212,4.201,0,0,0,0,3.758,79.7,10.01499539922,9.84252,6,P-GPS,
5800,2025-05-08 16:28:31,-22.9872233610961,-42.0124243863615,9.84252,12.5984256,-2.58343020078,10.01499539922,10.826772,0.447388,6.622047456,11.5229006312,20,5,8.402,10.34307939922,10.170604,4.8317904,7.1834647968,0,-0.447388,0,138.7, -4.6, -3.9,0,0,1024,1024,1024,1024,0,0,0,0,162.7,0,0,95,4.212,4.201,0,0,0,0,3.758,79.7,10.01499539922,9.84252,6,P-GPS,
5900,2025-05-08 16:28:31,-22.987223487978,-42.0124245341565,10.170604,12.795276,-2.45219660078,10.34307939922,10.826772,0.4921268,6.6323492936,11.5907812108,20,5,8.402,10.34307939922,10.170604,4.8317904,7.1834647968,-0.223694,-0.447388,0,138.4, -4, -5.1,0,0,1024,1024,1024,1024,0,0,0,0,162.7,0,0,95,4.212,4.201,0,0,0,0,3.758,79.7,10.34307939922,10.170604,6,P-GPS,
6000,2025-05-08 16:28:31,-22.987223617725,-42.0124246657071,10.170604,12.8937012,-2.55062180078,10.34307939922,10.826772,0.3131716,6.6471786904,11.655512184,20,5,8.402,10.34307939922,10.170604,4.8317904,7.1834647968,-0.223694,-0.223694,0,138.3, -3.4, -6,0,0,1024,1024,1024,1024,0,0,0,0,162.7,0,0,95,4.212,4.201,0,0,0,0,3.758,79.7,10.34307939922,10.170604,6,P-GPS,
6100,2025-05-08 16:28:31,-22.9872237510879,-42.0124247401185,10.170604,12.8937012,-2.55062180078,10.34307939922,10.826772,0.3131716,6.6741800036,11.7102365952,20,5,8.402,10.34307939922,10.170604,4.8317904,7.1834647968,-0.223694,-0.223694,0,138, -2.4, -6.7,0,0,1024,1024,1024,1024,0,0,0,0,162.7,0,0,95,4.212,4.201,0,0,0,0,3.758,79.7,10.34307939922,10.170604,6,P-GPS,
6200,2025-05-08 16:28:31,-22.9872241124144,-42.0124244676986,10.170604,12.9921264,-2.64904700078,10.34307939922,10.826772,0.3131716,6.8345802712,11.8707024796,20,5,8.402,10.34307939922,10.170604,4.8317904,7.1834647968,-0.223694,-0.223694,0,138, -1.5, -7.6,0,0,1024,1024,1024,1024,0,0,0,0,162.7,0,0,95,4.212,4.201,0,0,0,0,3.758,79.7,10.34307939922,10.170604,6,P-GPS,
6300,2025-05-08 16:28:31,-22.9872242184582,-42.0124245536589,10.498688,13.2217852,-2.55062180078,10.67116339922,10.826772,0.223694,6.851378172,11.918963636,20,5,8.402,10.67116339922,10.498688,4.8317904,7.1834647968,0,-0.223694,0,138, -1.7, -6.6,0,0,1024,1024,1024,1024,0,0,0,0,162.7,0,0,95,4.212,4.201,0,0,0,0,3.758,79.7,10.67116339922,10.498688,6,P-GPS,
6400,2025-05-08 16:28:31,-22.9872242692063,-42.012424645906,10.498688,13.2217852,-2.55062180078,10.67116339922,10.826772,0.223694,6.8503283032,11.9550856844,20,5,8.402,10.67116339922,10.498688,4.8317904,7.1834647968,0,-0.223694,0,137.9, -2.8, -6.8,0,0,1024,1024,1024,1024,0,0,0,0,162.7,0,0,95,4.212,4.201,0,0,0,0,3.758,79.7,10.67116339922,10.498688,6,P-GPS,
6500,2025-05-08 16:28:32,-22.9872243224885,-42.0124247769474,10.498688,13.2217852,-2.55062180078,10.67116339922,13.12336,0.223694,6.843340114,12.0031827988,20,5,8.351,10.67116339922,10.498688,4.8317904,7.1834647968,0,-0.223694,0,137.9, -3.4, -6.7,0,0,1024,1024,1024,1024,0,0,0,0,162.7,0,0,95,4.186,4.187,0,0,0,0,3.39,79.7,10.67116339922,10.498688,6,P-GPS,
6600,2025-05-08 16:28:32,-22.9872246461829,-42.0124248294202,10.170604,12.959318,-2.61623860078,10.34307939922,13.12336,0.223694,6.9345802744,12.1226053748,20,5,8.351,10.67116339922,10.498688,4.8317904,7.1834647968,0,-0.223694,0,137.8, -4.9, -7.2,0,0,1024,1024,1024,1024,0,0,0,0,162.7,0,0,95,4.186,4.187,0,0,0,0,3.39,79.7,10.34307939922,10.170604,6,P-GPS,
6700,2025-05-08 16:28:32,-22.9872245964417,-42.0124249107747,10.170604,12.959318,-2.61623860078,10.34307939922,13.12336,0.3131716,6.9048886724,12.1553809664,20,5,8.351,10.67116339922,10.498688,4.8317904,7.1834647968,0.223694,-0.223694,0,138, -4.7, -5.9,0,0,1024,1024,1024,1024,0,0,0,0,162.7,0,0,95,4.186,4.187,0,0,0,0,3.39,79.7,10.34307939922,10.170604,6,P-GPS,
6800,2025-05-08 16:28:32,-22.9872245340185,-42.0124249831946,10.170604,12.959318,-2.61623860078,10.34307939922,13.12336,0.3131716,6.8728020572,12.1887143008,20,5,8.351,10.67116339922,10.498688,4.8317904,7.1834647968,0.223694,-0.223694,0,138.1, -5.1, -5.5,0,0,1024,1024,1024,1024,0,0,0,0,162.7,0,0,95,4.186,4.187,0,0,0,0,3.39,79.7,10.34307939922,10.170604,6,P-GPS,
6900,2025-05-08 16:28:32,-22.9872244206161,-42.0124251156921,10.170604,12.8937012,-2.55062180078,10.34307939922,12.795276,0.3131716,6.8143702968,12.2494754576,20,5,8.351,10.67116339922,10.498688,4.8317904,7.1834647968,0.223694,-0.223694,0,138.1, -5.3, -5.9,0,0,1024,1024,1024,1024,0,0,0,0,162.7,0,0,95,4.186,4.187,0,0,0,0,3.39,79.7,10.34307939922,10.170604,6,P-GPS,
7000,2025-05-08 16:28:32,-22.987224337925,-42.0124252653387,10.170604,12.8937012,-2.55062180078,10.34307939922,12.795276,0.3131716,6.7626642584,12.3081040684,20,5,8.351,10.67116339922,10.498688,4.8317904,7.1834647968,0.223694,-0.223694,0.223694,138.3, -5.9, -5.5,0,0,1024,1024,1024,1024,0,0,0,0,162.7,0,0,95,4.186,4.187,0,0,0,0,3.39,79.7,10.34307939922,10.170604,6,P-GPS,
7100,2025-05-08 16:28:32,-22.987224206157,-42.0124253934263,10.170604,12.8937012,-2.55062180078,10.34307939922,12.795276,0.3131716,6.6993768548,12.3726053828,20,5,8.351,10.67116339922,10.498688,4.8317904,7.1834647968,0.223694,-0.223694,0.223694,138.4, -6.2, -5.8,0,0,1024,1024,1024,1024,0,0,0,0,162.7,0,0,95,4.186,4.187,0,0,0,0,3.39,79.7,10.34307939922,10.170604,6,P-GPS,
7200,2025-05-08 16:28:32,-22.9872240832394,-42.0124255053916,9.84252,12.4343836,-2.41938820078,10.01499539922,12.795276,0.3131716,6.6416012624,12.4311355684,20,5,8.351,10.67116339922,10.498688,4.8317904,7.1834647968,0.223694,-0.223694,0.223694,138.2, -5.8, -5.9,0,0,1024,1024,1024,1024,0,0,0,0,162.7,0,0,95,4.186,4.187,0,0,0,0,3.39,79.7,10.01499539922,9.84252,6,P-GPS,
7300,2025-05-08 16:28:32,-22.9872239529677,-42.0124256241444,9.84252,12.4343836,-2.41938820078,10.01499539922,12.795276,0.223694,6.5804135964,12.4932090612,20,5,8.351,10.67116339922,10.498688,4.8317904,7.1834647968,0,-0.223694,0,138.4, -7.4, -6,0,0,1024,1024,1024,1024,0,0,0,0,162.7,0,0,95,4.186,4.187,0,0,0,0,3.39,79.7,10.01499539922,9.84252,6,P-GPS,
7400,2025-05-08 16:28:32,-22.9872238472807,-42.0124257259991,9.84252,12.4343836,-2.41938820078,10.01499539922,12.795276,0.223694,6.5298230436,12.5447510576,20,5,8.351,10.67116339922,10.498688,4.8317904,7.1834647968,0,-0.223694,0.223694,138.2, -6.8, -5.4,0,0,1024,1024,1024,1024,0,0,0,0,162.7,0,0,95,4.186,4.187,0,0,0,0,3.39,79.7,10.01499539922,9.84252,6,P-GPS,
7500,2025-05-08 16:28:33,-22.987223728962,-42.0124259970568,9.84252,12.4343836,-2.41938820078,10.01499539922,12.795276,0,6.4467193664,12.645505654,20,5,8.351,10.67116339922,10.498688,4.8317904,7.1834647968,0,0,0,138, -6, -6.4,0,0,1024,1024,1024,1024,0,0,0,0,162.7,0,0,95,4.186,4.187,0,0,0,0,3.39,79.7,10.01499539922,9.84252,6,P-GPS,
7600,2025-05-08 16:28:33,-22.9872236854292,-42.0124260898501,9.84252,12.4343836,-2.41938820078,10.01499539922,12.795276,0,6.4174542736,12.6804794084,20,5,8.359,10.67116339922,10.498688,4.8317904,7.1834647968,0,0,0,138, -5.7, -6.5,0,0,1024,1024,1024,1024,0,0,0,0,162.7,0,0,95,4.179,4.17,0,0,0,0,3.382,79.88,10.01499539922,9.84252,6,P-GPS,
7700,2025-05-08 16:28:33,-22.9872236400384,-42.0124262284313,9.84252,12.4343836,-2.41938820078,10.01499539922,13.12336,0,6.3800526976,12.7298888588,20,5,8.359,10.67116339922,10.498688,4.8317904,7.1834647968,0,0,0,137.7, -4.4, -7.2,0,0,1024,1024,1024,1024,0,0,0,0,162.7,0,0,95,4.179,4.17,0,0,0,0,3.382,79.88,10.01499539922,9.84252,6,P-GPS,
7800,2025-05-08 16:28:33,-22.9872235711265,-42.0124263430974,9.84252,12.4343836,-2.41938820078,10.01499539922,13.12336,0,6.339239048,12.7758862356,20,5,8.359,10.67116339922,10.498688,4.8317904,7.1834647968,0,0,0,137.8, -4.5, -6.9,0,0,1024,1024,1024,1024,0,0,0,0,162.7,0,0,95,4.179,4.17,0,0,0,0,3.382,79.88,10.01499539922,9.84252,6,P-GPS,
7900,2025-05-08 16:28:33,-22.9872236055563,-42.0124264935141,9.84252,12.4343836,-2.41938820078,10.01499539922,13.451444,0.223694,6.3256891788,12.8279531664,20,5,8.359,10.67116339922,10.498688,4.8317904,7.1834647968,0.223694,0,0,138, -5.5, -6.5,0,0,1024,1024,1024,1024,0,0,0,0,162.7,0,0,95,4.179,4.17,0,0,0,0,3.382,79.88,10.01499539922,9.84252,6,P-GPS,
8000,2025-05-08 16:28:33,-22.9872235324524,-42.0124265003002,9.84252,12.3359584,-2.32096300078,10.01499539922,13.12336,0.223694,6.3012469208,12.8547248208,20,5,8.359,10.67116339922,10.498688,4.8317904,7.1834647968,0.223694,0,0,138.1, -6.3, -5.6,0,0,1024,1024,1024,1024,0,0,0,0,162.7,0,0,95,4.179,4.17,0,0,0,0,3.382,79.88,10.01499539922,9.84252,6,P-GPS,
8100,2025-05-08 16:28:33,-22.9872234216189,-42.0124264858996,9.514436,12.0078744,-2.32096300078,9.68691139922,13.12336,0.223694,6.268208862,12.8954400452,20,5,8.359,10.67116339922,10.498688,4.8317904,7.1834647968,0.223694,0,0,138.1, -6, -4.9,0,0,1024,1024,1024,1024,0,0,0,0,162.7,0,0,95,4.179,4.17,0,0,0,0,3.382,79.88,9.68691139922,9.514436,6,P-GPS,
8200,2025-05-08 16:28:33,-22.9872233210745,-42.0124264726972,9.514436,12.0078744,-2.32096300078,9.68691139922,12.795276,0.223694,6.2383860264,12.9323823036,20,5,8.359,10.67116339922,10.498688,4.8317904,7.1834647968,0.223694,0,0,138.1, -6, -4.9,0,0,1024,1024,1024,1024,0,0,0,0,162.7,0,0,95,4.179,4.17,0,0,0,0,3.382,79.88,9.68691139922,9.514436,6,P-GPS,
8300,2025-05-08 16:28:33,-22.9872230837971,-42.0124265359493,9.514436,11.9094492,-2.22253780078,9.68691139922,12.795276,0.223694,6.152559252,13.0215227264,20,5,8.359,10.67116339922,10.498688,4.8317904,7.1834647968,0.223694,0,0,138.1, -6.5, -5.4,0,0,1024,1024,1024,1024,0,0,0,0,162.7,0,0,95,4.179,4.17,0,0,0,0,3.382,79.88,9.68691139922,9.514436,6,P-GPS,
8400,2025-05-08 16:28:33,-22.9872229431201,-42.0124265745474,9.514436,11.9094492,-2.22253780078,9.68691139922,12.467192,0,6.10154219,13.074475484,20,5,8.359,10.67116339922,10.498688,4.8317904,7.1834647968,0,0,0,138.2, -6.4, -5.6,0,0,1024,1024,1024,1024,0,0,0,0,162.7,0,0,95,4.179,4.17,0,0,0,0,3.382,79.88,9.68691139922,9.514436,6,P-GPS,
8500,2025-05-08 16:28:34,-22.9872228362533,-42.0124265158767,9.514436,11.9094492,-2.22253780078,9.68691139922,12.467192,0,6.0775264412,13.1181434644,20,5,8.359,10.67116339922,10.498688,4.8317904,7.1834647968,0,0,0,138.1, -6.7, -5.5,0,0,1024,1024,1024,1024,0,0,0,0,162.7,0,0,95,4.179,4.17,0,0,0,0,3.382,79.88,9.68691139922,9.514436,6,P-GPS,
8600,2025-05-08 16:28:34,-22.9872227426483,-42.0124264448625,9.514436,12.0078744,-2.32096300078,9.68691139922,12.467192,0,6.0600067556,13.1598101324,20,5,8.305,10.67116339922,10.498688,4.8317904,7.1834647968,0,0,0,138, -6.4, -5.8,0,0,1024,1024,1024,1024,0,0,0,0,162.7,0,0,95,4.166,4.167,0,0,0,0,3.944,79.88,9.68691139922,9.514436,6,P-GPS,
8700,2025-05-08 16:28:34,-22.9872227391826,-42.0124264094751,9.186352,11.6797904,-2.32096300078,9.35882739922,12.467192,0,6.064960824,13.17175239,20,5,8.305,10.67116339922,10.498688,4.8317904,7.1834647968,0,0,0,138.1, -6.6, -5.4,0,0,1024,1024,1024,1024,0,0,0,0,162.7,0,0,95,4.166,4.167,0,0,0,0,3.944,79.88,9.35882739922,9.186352,6,P-GPS,
8800,2025-05-08 16:28:34,-22.9872227117665,-42.0124264003247,9.514436,12.0078744,-2.32096300078,9.68691139922,12.467192,0,6.057907018,13.1822182696,20,5,8.305,10.67116339922,10.498688,4.8317904,7.1834647968,0,0,0,137.7, -7.3, -5.7,0,0,1024,1024,1024,1024,0,0,0,0,162.7,0,0,95,4.166,4.167,0,0,0,0,3.944,79.88,9.68691139922,9.514436,6,P-GPS,
8900,2025-05-08 16:28:34,-22.9872226349872,-42.0124263580195,9.186352,11.6797904,-2.32096300078,9.35882739922,12.467192,0,6.0410763088,13.2136487168,20,5,8.305,10.67116339922,10.498688,4.8317904,7.1834647968,0,0,0.223694,138, -6.4, -5.4,0,0,1024,1024,1024,1024,0,0,0,0,162.7,0,0,95,4.166,4.167,0,0,0,0,3.944,79.88,9.35882739922,9.186352,6,P-GPS,
9000,2025-05-08 16:28:34,-22.9872225679531,-42.0124263189083,9.186352,11.6797904,-2.32096300078,9.35882739922,12.139108,0,6.0268374632,13.2414046232,20,5,8.305,10.67116339922,10.498688,4.8317904,7.1834647968,0,0,0,137.8, -6.6, -6.2,0,0,1024,1024,1024,1024,0,0,0,0,162.7,0,0,95,4.166,4.167,0,0,0,0,3.944,79.88,9.35882739922,9.186352,6,P-GPS,
9100,2025-05-08 16:28:34,-22.9872225710565,-42.0124263131255,9.186352,11.6797904,-2.32096300078,9.35882739922,12.467192,0,6.0288059672,13.2436355944,20,5,8.305,10.67116339922,10.498688,4.8317904,7.1834647968,0,0,0.223694,137.3, -3.8, -6.9,0,0,1024,1024,1024,1024,0,0,0,0,162.7,0,0,95,4.166,4.167,0,0,0,0,3.944,79.88,9.35882739922,9.186352,6,P-GPS,
9200,2025-05-08 16:28:34,-22.9872225306666,-42.012426393737,9.186352,11.6797904,-2.32096300078,9.35882739922,12.467192,0,6.0022311632,13.2744754904,20,5,8.305,10.67116339922,10.498688,4.8317904,7.1834647968,0,0,0,137.9, -6.2, -5.9,0,0,1024,1024,1024,1024,0,0,0,0,162.7,0,0,95,4.166,4.167,0,0,0,0,3.944,79.88,9.35882739922,9.186352,6,P-GPS,
9300,2025-05-08 16:28:34,-22.987222448397,-42.0124263892751,9.186352,11.6141736,-2.25534620078,9.35882739922,12.139108,0.223694,5.9772639708,13.3045279848,20,5,8.305,10.67116339922,10.498688,4.8317904,7.1834647968,0.223694,0,0,137.8, -7, -5.1,0,0,1024,1024,1024,1024,0,0,0,0,162.7,0,0,95,4.166,4.167,0,0,0,0,3.944,79.88,9.35882739922,9.186352,6,P-GPS,
9400,2025-05-08 16:28:34,-22.9872223587394,-42.0124263739868,9.186352,11.6141736,-2.25534620078,9.35882739922,12.139108,0.223694,5.951935886,13.3376316604,20,5,8.305,10.67116339922,10.498688,4.8317904,7.1834647968,0.223694,0,0,137.7, -6.7, -4.4,0,0,1024,1024,1024,1024,0,0,0,0,162.7,0,0,95,4.166,4.167,0,0,0,0,3.944,79.88,9.35882739922,9.186352,6,P-GPS,
9500,2025-05-08 16:28:34,-22.9872222301804,-42.0124263507068,8.858268,11.2860896,-2.25534620078,9.03074339922,12.139108,0.223694,5.916010688,13.3852038404,20,5,8.305,10.67116339922,10.498688,4.8317904,7.1834647968,0.223694,0,0,137.7, -7.1, -2.7,0,0,1024,1024,1024,1024,0,0,0,0,162.7,0,0,95,4.166,4.167,0,0,0,0,3.944,79.88,9.03074339922,8.858268,6,P-GPS,
9600,2025-05-08 16:28:35,-22.9872221358807,-42.0124264157782,8.858268,11.2860896,-2.25534620078,9.03074339922,12.139108,0,5.8752298468,13.4259518732,20,5,8.342,10.67116339922,10.498688,4.8317904,7.1834647968,0,0,0,137.9, -6.6, -3.5,0,0,1024,1024,1024,1024,0,0,0,0,162.7,0,0,95,4.144,4.152,0,0,0,0,3.872,79.88,9.03074339922,8.858268,6,P-GPS,
9700,2025-05-08 16:28:35,-22.9872220732669,-42.0124263850909,8.858268,11.2860896,-2.25534620078,9.03074339922,12.139108,0,5.86122066,13.4510174908,20,5,8.342,10.67116339922,10.498688,4.8317904,7.1834647968,0,0,0,137.7, -6.2, -4.4,0,0,1024,1024,1024,1024,0,0,0,0,162.7,0,0,95,4.144,4.152,0,0,0,0,3.872,79.88,9.03074339922,8.858268,6,P-GPS,
9800,2025-05-08 16:28:35,-22.9872220142455,-42.0124263489808,8.858268,11.2860896,-2.25534620078,9.03074339922,10.498688,0,5.8493440192,13.475722216,20,5,8.342,10.67116339922,10.498688,4.8317904,7.1834647968,0,0,0,137.8, -5.7, -3.5,0,0,1024,1024,1024,1024,0,0,0,0,162.7,0,0,95,4.144,4.152,0,0,0,0,3.872,79.88,9.03074339922,8.858268,6,P-GPS,
9900,2025-05-08 16:28:35,-22.9872219703783,-42.0124263048156,8.530184,10.9580056,-2.25534620078,8.70265939922,10.170604,0,5.843668166,13.497539802,20,5,8.342,10.67116339922,10.498688,4.8317904,7.1834647968,0,0,0,137.7, -6, -3.4,0,0,1024,1024,1024,1024,0,0,0,0,162.7,0,0,95,4.144,4.152,0,0,0,0,3.872,79.88,8.70265939922,8.530184,6,P-GPS,
10000,2025-05-08 16:28:35,-22.9872219311075,-42.0124263080639,8.530184,10.9580056,-2.25534620078,8.70265939922,10.170604,0,5.8309385068,13.5119098812,20,5,8.342,10.67116339922,10.498688,4.8317904,7.1834647968,0,0,0,137.3, -5.1, -4.3,0,0,1024,1024,1024,1024,0,0,0,0,162.7,0,0,95,4.144,4.152,0,0,0,0,3.872,79.88,8.70265939922,8.530184,6,P-GPS,
10100,2025-05-08 16:28:35,-22.9872219454711,-42.012426211783,8.530184,10.9580056,-2.25534620078,8.70265939922,9.84252,0,5.852690476,13.5446854728,20,5,8.342,10.67116339922,10.498688,4.8317904,7.1834647968,0,0,0,137.3, -5, -3.7,0,0,1024,1024,1024,1024,0,0,0,0,162.7,0,0,95,4.144,4.152,0,0,0,0,3.872,79.88,8.70265939922,8.530184,6,P-GPS,
10200,2025-05-08 16:28:35,-22.9872219557162,-42.0124261155288,8.2021,10.6299216,-2.25534620078,8.37457539922,9.84252,0,5.8732613428,13.5772314056,20,5,8.342,10.67116339922,10.498688,4.8317904,7.1834647968,0,0,0,137.7, -6.2, -3.1,0,0,1024,1024,1024,1024,0,0,0,0,162.7,0,0,95,4.144,4.152,0,0,0,0,3.872,79.88,8.37457539922,8.2021,6,P-GPS,
10300,2025-05-08 16:28:35,-22.9872219232763,-42.012425975326,8.2021,10.6299216,-2.25534620078,8.37457539922,9.84252,0,5.8889765664,13.6257878376,20,5,8.342,10.67116339922,10.498688,4.8317904,7.1834647968,0,0,0,137.8, -6.2, -3.1,0,0,1024,1024,1024,1024,0,0,0,0,162.7,0,0,95,4.144,4.152,0,0,0,0,3.872,79.88,8.37457539922,8.2021,6,P-GPS,
10400,2025-05-08 16:28:35,-22.9872219730211,-42.0124257216276,8.2021,10.6299216,-2.25534620078,8.37457539922,9.514436,0,5.951115676,13.7128941396,20,5,8.342,10.67116339922,10.498688,4.8317904,7.1834647968,0,0,0,137.5, -5.5, -3.4,0,0,1024,1024,1024,1024,0,0,0,0,162.7,0,0,95,4.144,4.152,0,0,0,0,3.872,79.88,8.37457539922,8.2021,6,P-GPS,
10500,2025-05-08 16:28:36,-22.9872219228789,-42.0124255833069,8.2021,10.6299216,-2.25534620078,8.37457539922,9.514436,0,5.961942448,13.7628285244,20,5,8.342,10.67116339922,10.498688,4.8317904,7.1834647968,0,0,0,138, -6.2, -3.1,0,0,1024,1024,1024,1024,0,0,0,0,162.7,0,0,95,4.144,4.152,0,0,0,0,3.872,79.88,8.37457539922,8.2021,6,P-GPS,
10600,2025-05-08 16:28:36,-22.9872218881108,-42.0124254554171,8.2021,10.7283468,-2.35377140078,8.37457539922,9.514436,0,5.9757875928,13.8076119904,20,5,8.337,10.67116339922,10.498688,4.8317904,7.1834647968,0,0,0,137.9, -5.5, -2.9,0,0,1024,1024,1024,1024,0,0,0,0,162.7,0,0,95,4.168,4.163,0,0,0,0,4.042,79.88,8.37457539922,8.2021,6,P-GPS,
10700,2025-05-08 16:28:36,-22.9872219133969,-42.0124253658556,8.2021,10.7283468,-2.35377140078,8.37457539922,9.514436,0,6.0005251264,13.839075246,20,5,8.337,10.67116339922,10.498688,4.8317904,7.1834647968,0,0,0,138, -6.6, -2.8,0,0,1024,1024,1024,1024,0,0,0,0,162.7,0,0,95,4.168,4.163,0,0,0,0,4.042,79.88,8.37457539922,8.2021,6,P-GPS,
10800,2025-05-08 16:28:36,-22.9872219600876,-42.0124252860093,8.2021,10.7283468,-2.35377140078,8.37457539922,9.186352,0,6.0298230276,13.8708665856,20,5,8.337,10.67116339922,10.498688,4.8317904,7.1834647968,0,0,0,137.6, -4.6, -3.1,0,0,1024,1024,1024,1024,0,0,0,0,162.7,0,0,95,4.168,4.163,0,0,0,0,4.042,79.88,8.37457539922,8.2021,6,P-GPS,
10900,2025-05-08 16:28:36,-22.9872219737923,-42.012425303353,8.2021,10.7283468,-2.35377140078,8.37457539922,9.186352,0,6.0305776208,13.8785437512,20,5,8.337,10.67116339922,10.498688,4.8317904,7.1834647968,0,0,0,137.6, -4.9, -3.3,0,0,1024,1024,1024,1024,0,0,0,0,162.7,0,0,95,4.168,4.163,0,0,0,0,4.042,79.88,8.37457539922,8.2021,6,P-GPS,
11000,2025-05-08 16:28:36,-22.9872219873323,-42.0124252883945,8.2021,10.7283468,-2.35377140078,8.37457539922,9.186352,0,6.0375330016,13.8855975572,20,5,8.337,10.67116339922,10.498688,4.8317904,7.1834647968,0,0,0,137.5, -4.8, -3.4,0,0,1024,1024,1024,1024,0,0,0,0,162.7,0,0,95,4.168,4.163,0,0,0,0,4.042,79.88,8.37457539922,8.2021,6,P-GPS,
11100,2025-05-08 16:28:36,-22.9872220678318,-42.0124252527073,8.2021,10.7283468,-2.35377140078,8.37457539922,9.186352,0,6.0684713228,13.9172904716,20,5,8.337,10.67116339922,10.498688,4.8317904,7.1834647968,0,0,0,137.5, -5.1, -3.1,0,0,1024,1024,1024,1024,0,0,0,0,162.7,0,0,95,4.168,4.163,0,0,0,0,4.042,79.88,8.37457539922,8.2021,6,P-GPS,
11200,2025-05-08 16:28:36,-22.98722213604,-42.012425228877,8.2021,10.7283468,-2.35377140078,8.37457539922,9.186352,0,6.0934713236,13.9434387664,20,5,8.337,10.67116339922,10.498688,4.8317904,7.1834647968,0,0,0,137.6, -5.8, -2.7,0,0,1024,1024,1024,1024,0,0,0,0,162.7,0,0,95,4.168,4.163,0,0,0,0,4.042,79.88,8.37457539922,8.2021,6,P-GPS,
11300,2025-05-08 16:28:36,-22.9872222312411,-42.0124251440616,8.2021,10.7283468,-2.35377140078,8.37457539922,9.186352,0,6.1382547896,13.988353466,20,5,8.337,10.67116339922,10.498688,4.8317904,7.1834647968,0,0,0,137.5, -5.3, -2.8,0,0,1024,1024,1024,1024,0,0,0,0,162.7,0,0,95,4.168,4.163,0,0,0,0,4.042,79.88,8.37457539922,8.2021,6,P-GPS,
11400,2025-05-08 16:28:36,-22.9872222336605,-42.0124250992735,8.2021,10.7283468,-2.35377140078,8.37457539922,9.186352,0,6.1475723752,14.00344533,20,5,8.337,10.67116339922,10.498688,4.8317904,7.1834647968,0,0,0,137.6, -6.4, -3.1,0,0,1024,1024,1024,1024,0,0,0,0,162.7,0,0,95,4.168,4.163,0,0,0,0,4.042,79.88,8.37457539922,8.2021,6,P-GPS,
11500,2025-05-08 16:28:37,-22.9872222481068,-42.0124250886306,8.2021,10.7283468,-2.35377140078,8.37457539922,9.186352,0,6.1539372048,14.0098101596,20,5,8.337,10.67116339922,10.498688,4.8317904,7.1834647968,0,0,0,137.7, -6.3, -2.9,0,0,1024,1024,1024,1024,0,0,0,0,162.7,0,0,95,4.168,4.163,0,0,0,0,4.042,79.88,8.37457539922,8.2021,6,P-GPS,
11600,2025-05-08 16:28:37,-22.987222268416,-42.0124250808485,8.2021,10.7283468,-2.35377140078,8.37457539922,8.858268,0,6.1615159452,14.0176513672,20,5,8.33,10.67116339922,10.498688,4.8317904,7.1834647968,0,0,0,137.8, -5.9, -2.4,0,0,1024,1024,1024,1024,0,0,0,0,162.7,0,0,95,4.163,4.156,0,0,0,0,3.847,79.88,8.37457539922,8.2021,6,P-GPS,
11700,2025-05-08 16:28:37,-22.987222241742,-42.012425062263,8.2021,10.7283468,-2.35377140078,8.37457539922,8.858268,0,6.1571196196,14.0292327324,20,5,8.33,10.67116339922,10.498688,4.8317904,7.1834647968,0,0,0,137.8, -6, -3.3,0,0,1024,1024,1024,1024,0,0,0,0,162.7,0,0,95,4.163,4.156,0,0,0,0,3.847,79.88,8.37457539922,8.2021,6,P-GPS,
11800,2025-05-08 16:28:37,-22.9872222652488,-42.0124250572224,8.2021,10.7283468,-2.35377140078,8.37457539922,8.858268,0,6.1650920608,14.0379597668,20,5,8.33,10.67116339922,10.498688,4.8317904,7.1834647968,0,0,0,137.9, -6.1, -3.6,0,0,1026,1024,1024,1024,0,0,0,0,162.7,0,0,95,4.163,4.156,0,0,0,0,3.847,79.88,8.37457539922,8.2021,6,P-GPS,
11900,2025-05-08 16:28:37,-22.9872222517961,-42.0124250352019,8.2021,10.7283468,-2.35377140078,8.37457539922,9.186352,0,6.1653217196,14.0468508432,20,5,8.33,10.67116339922,10.498688,4.8317904,7.1834647968,0,0,0,137.8, -5.4, -3.9,0,0,1024,1024,1024,1024,0,0,0,0,162.7,0,0,95,4.163,4.156,0,0,0,0,3.847,79.88,8.37457539922,8.2021,6,P-GPS,
12000,2025-05-08 16:28:37,-22.9872222303992,-42.0124250207509,8.2021,10.7283468,-2.35377140078,8.37457539922,9.186352,0,6.161745604,14.0560371952,20,5,8.33,10.67116339922,10.498688,4.8317904,7.1834647968,0,0,0,137.7, -5.2, -4.1,0,0,1024,1024,1024,1024,0,0,0,0,162.7,0,0,95,4.163,4.156,0,0,0,0,3.847,79.88,8.37457539922,8.2021,6,P-GPS,
12100,2025-05-08 16:28:37,-22.9872221151277,-42.0124250412723,8.2021,10.7283468,-2.35377140078,8.37457539922,9.186352,0,6.1233925844,14.0986553068,20,5,8.33,10.67116339922,10.498688,4.8317904,7.1834647968,0,0,0,137.7, -5.4, -4.2,0,0,1024,1024,1024,1024,0,0,0,0,162.7,0,0,95,4.163,4.156,0,0,0,0,3.847,79.88,8.37457539922,8.2021,6,P-GPS,
12200,2025-05-08 16:28:37,-22.9872220913903,-42.0124250694615,8.2021,10.7283468,-2.35377140078,8.37457539922,9.186352,0,6.1108597756,14.1114833912,20,5,8.33,10.67116339922,10.498688,4.8317904,7.1834647968,0,0,0,137.7, -6.2, -3.9,0,0,1024,1024,1024,1024,0,0,0,0,162.7,0,0,95,4.163,4.156,0,0,0,0,3.847,79.88,8.37457539922,8.2021,6,P-GPS,
12300,2025-05-08 16:28:37,-22.9872220965746,-42.0124250489404,8.2021,10.7283468,-2.35377140078,8.37457539922,9.186352,0,6.1163715868,14.1186356224,20,5,8.33,10.67116339922,10.498688,4.8317904,7.1834647968,0,0,0,137.8, -6.9, -3.4,0,0,1024,1024,1024,1024,0,0,0,0,162.7,0,0,95,4.163,4.156,0,0,0,0,3.847,79.88,8.37457539922,8.2021,6,P-GPS,
12400,2025-05-08 16:28:37,-22.9872221099697,-42.0124250249086,8.2021,10.7283468,-2.35377140078,8.37457539922,9.186352,0,6.1250330044,14.1280516332,20,5,8.33,10.67116339922,10.498688,4.8317904,7.1834647968,0,0,0,137.7, -6.6, -3.9,0,0,1024,1024,1024,1024,0,0,0,0,162.7,0,0,95,4.163,4.156,0,0,0,0,3.847,79.88,8.37457539922,8.2021,6,P-GPS,
12500,2025-05-08 16:28:38,-22.9872220666489,-42.0124250278606,8.2021,10.7283468,-2.35377140078,8.37457539922,9.186352,0,6.1115815604,14.1438980904,20,5,8.33,10.67116339922,10.498688,4.8317904,7.1834647968,0,0,0,137.8, -6.9, -3.5,0,0,1024,1024,1024,1024,0,0,0,0,162.7,0,0,95,4.163,4.156,0,0,0,0,3.847,79.88,8.37457539922,8.2021,6,P-GPS,
12600,2025-05-08 16:28:38,-22.9872220405588,-42.0124249567357,8.2021,10.7283468,-2.35377140078,8.37457539922,9.186352,0,6.1177167312,14.169619876,20,5,8.33,10.67116339922,10.498688,4.8317904,7.1834647968,0,0,0,138.1, -8.3, -3,0,0,1024,1024,1024,1024,0,0,0,0,162.7,0,0,95,4.163,4.156,0,0,0,0,3.847,79.88,8.37457539922,8.2021,6,P-GPS,
12700,2025-05-08 16:28:38,-22.9872219763533,-42.0124249479672,8.2021,10.7283468,-2.35377140078,8.37457539922,8.858268,0,6.1004267044,14.193241924,20,5,8.315,10.67116339922,10.498688,4.8317904,7.1834647968,0,0,0,137.9, -7, -3.1,0,0,1024,1024,1024,1024,0,0,0,0,162.7,0,0,95,4.163,4.161,0,0,0,0,3.814,80.06,8.37457539922,8.2021,6,P-GPS,
12800,2025-05-08 16:28:38,-22.987221928626,-42.0124249420643,8.2021,10.7283468,-2.35377140078,8.37457539922,8.858268,0,6.0874673864,14.2107616096,20,5,8.315,10.67116339922,10.498688,4.8317904,7.1834647968,0,0,0,137.8, -6.6, -3.8,0,0,1024,1024,1024,1024,0,0,0,0,162.7,0,0,95,4.163,4.161,0,0,0,0,3.814,80.06,8.37457539922,8.2021,31,Sport,
12900,2025-05-08 16:28:38,-22.9872219501355,-42.0124249382204,8.2021,10.7283468,-2.35377140078,8.37457539922,8.858268,0,6.0945868092,14.2187012424,20,5,8.315,10.67116339922,10.498688,4.8317904,7.1834647968,0,0,0,137.7, -6, -3.3,0,0,1024,1024,1024,1024,0,0,0,0,162.7,0,0,95,4.163,4.161,0,0,0,0,3.814,80.06,8.37457539922,8.2021,31,Sport,
13000,2025-05-08 16:28:38,-22.9872219084669,-42.0124249540937,8.2021,10.7283468,-2.35377140078,8.37457539922,8.858268,0,6.0791340528,14.2348101668,20,5,8.315,10.67116339922,10.498688,4.8317904,7.1834647968,0,0,0,137.7, -6.7, -3.7,0,0,1024,1024,1024,1024,0,0,0,0,162.7,0,0,95,4.163,4.161,0,0,0,0,3.814,80.06,8.37457539922,8.2021,31,Sport,
13100,2025-05-08 16:28:38,-22.9872218497554,-42.012424961191,8.530184,11.0564308,-2.35377140078,8.70265939922,8.858268,0,6.0604004564,14.2563652856,20,5,8.315,10.67116339922,10.498688,4.8317904,7.1834647968,0,0,0,138, -7.5, -3.2,0,0,1024,1024,1024,1024,0,0,0,0,162.7,0,0,95,4.163,4.161,0,0,0,0,3.814,80.06,8.70265939922,8.530184,31,Sport,
13200,2025-05-08 16:28:38,-22.9872218086077,-42.0124249777841,8.530184,11.0564308,-2.35377140078,8.70265939922,8.858268,0,6.0449805084,14.2723757848,20,5,8.315,10.67116339922,10.498688,4.8317904,7.1834647968,0,0,0,138.2, -7.1, -2.9,0,0,1024,1024,1024,1024,0,0,0,0,162.7,0,0,95,4.163,4.161,0,0,0,0,3.814,80.06,8.70265939922,8.530184,31,Sport,
13300,2025-05-08 16:28:38,-22.9872218569612,-42.0124250075725,8.530184,11.0564308,-2.35377140078,8.70265939922,8.858268,0,6.0533794588,14.2926841844,20,5,8.315,10.67116339922,10.498688,4.8317904,7.1834647968,0,0,0,137.8, -5.2, -5,0,0,1024,1024,1024,1024,0,0,0,0,162.7,0,0,95,4.163,4.161,0,0,0,0,3.814,80.06,8.70265939922,8.530184,31,Sport,
13400,2025-05-08 16:28:38,-22.9872218517526,-42.0124250392936,8.858268,11.3845148,-2.35377140078,9.03074339922,8.858268,0,6.045603868,14.303478148,20,5,8.315,10.67116339922,10.498688,4.8317904,7.1834647968,0,0,0,137.3, -4.5, -5.1,0,0,1024,1024,1024,1024,0,0,0,0,162.7,0,0,95,4.163,4.161,0,0,0,0,3.814,80.06,9.03074339922,8.858268,31,Sport,
13500,2025-05-08 16:28:39,-22.987221850876,-42.0124250691221,8.530184,11.0564308,-2.35377140078,8.70265939922,8.858268,0,6.0394686972,14.3135175184,20,5,8.315,10.67116339922,10.498688,4.8317904,7.1834647968,0,0,0,137.8, -5.9, -3.2,0,0,1024,1024,1024,1024,0,0,0,0,162.7,0,0,95,4.163,4.161,0,0,0,0,3.814,80.06,8.70265939922,8.530184,31,Sport,
13600,2025-05-08 16:28:39,-22.9872218264687,-42.0124250916725,8.530184,11.0564308,-2.35377140078,8.70265939922,8.858268,0,6.0278217152,14.3251973088,20,5,8.315,10.67116339922,10.498688,4.8317904,7.1834647968,0,0,-0.223694,138, -8.4, -2.6,0,0,1024,1024,1024,1024,0,0,0,0,162.7,0,0,95,4.163,4.161,0,0,0,0,3.814,80.06,8.70265939922,8.530184,31,Sport,
13700,2025-05-08 16:28:39,-22.9872218886551,-42.0124250723623,8.530184,11.0564308,-2.35377140078,8.70265939922,8.858268,0,6.050033002,14.3487865484,20,5,8.295,10.67116339922,10.498688,4.8317904,7.1834647968,0,0,-0.223694,137.7, -6.8, -3.9,0,0,1024,1024,1024,1024,0,0,0,0,162.7,0,0,95,4.146,4.144,0,0,0,0,3.852,80.06,8.70265939922,8.530184,31,Sport,
13800,2025-05-08 16:28:39,-22.9872221040958,-42.0124250263476,8.530184,11.0564308,-2.35377140078,8.70265939922,8.858268,0,6.1229988836,14.4289046612,20,5,8.295,10.67116339922,10.498688,4.8317904,7.1834647968,0,0,0,137.5, -6.4, -3.3,0,0,1141,1024,1024,1024,18,0,0,0,162.7,0,0,95,4.146,4.144,0,0,0,0,3.852,80.06,8.70265939922,8.530184,31,Sport,
13900,2025-05-08 16:28:39,-22.9872222082367,-42.0124250662966,8.530184,11.0564308,-2.35377140078,8.70265939922,8.858268,0,6.146325656,14.4691933764,20,5,8.295,10.67116339922,10.498688,4.8317904,7.1834647968,0,0,0,137.4, -5.6, -5.2,0,0,1119,1024,1024,1024,14,0,0,0,162.7,0,0,95,4.146,4.144,0,0,0,0,3.852,80.06,8.70265939922,8.530184,31,Sport,
14000,2025-05-08 16:28:39,-22.9872223147681,-42.0124250995128,8.530184,11.0564308,-2.35377140078,8.70265939922,9.186352,0,6.1718177828,14.5096461336,20,5,8.295,10.67116339922,10.498688,4.8317904,7.1834647968,0,0,0,137.4, -6, -5.1,0,0,1024,1024,1450,1024,0,0,65,0,162.7,0,0,95,4.146,4.144,0,0,0,0,3.852,80.06,8.70265939922,8.530184,31,Sport,
14100,2025-05-08 16:28:39,-22.9872224195801,-42.0124250275137,8.530184,11.0564308,-2.35377140078,8.70265939922,9.186352,0.223694,6.217027758,14.5548889172,20,5,8.295,10.67116339922,10.498688,4.8317904,7.1834647968,-0.223694,0,0,137.7, -7, -4.4,0,0,1024,1024,1450,1024,0,0,65,0,162.7,0,0,95,4.146,4.144,0,0,0,0,3.852,80.06,8.70265939922,8.530184,31,Sport,
14200,2025-05-08 16:28:39,-22.9872225342419,-42.0124249494637,8.530184,11.154856,-2.45219660078,8.70265939922,9.186352,0.223694,6.2663387832,14.6042655592,20,5,8.295,10.67116339922,10.498688,4.8317904,7.1834647968,-0.223694,0,0,137.8, -3.4, -3.2,0,0,1024,1024,1684,1024,0,0,100,0,162.7,0,0,95,4.146,4.144,0,0,0,0,3.852,80.06,8.70265939922,8.530184,31,Sport,
14300,2025-05-08 16:28:39,-22.9872227321169,-42.0124249520048,8.530184,11.154856,-2.45219660078,8.70265939922,9.186352,0.223694,6.3253282864,14.6764440392,20,5,8.295,10.67116339922,10.498688,4.8317904,7.1834647968,-0.223694,0,-0.671082,137.6, -2.2, -3.7,0,0,1024,1024,1684,1024,0,0,100,0,162.7,0,0,95,4.146,4.144,0,0,0,0,3.852,80.06,8.70265939922,8.530184,31,Sport,
14400,2025-05-08 16:28:39,-22.9872228630168,-42.0124249476095,8.858268,11.48294,-2.45219660078,9.03074339922,9.186352,0,6.36564981,14.724245878,20,5,8.295,10.67116339922,10.498688,4.8317904,7.1834647968,0,0,-1.565858,138.1, -4.1, -3.8,0,0,1024,1024,1596,1024,0,0,87,0,162.7,0,0,95,4.146,4.144,0,0,0,0,3.852,80.06,9.03074339922,8.858268,31,Sport,
14500,2025-05-08 16:28:40,-22.9872230398088,-42.0124250240097,9.514436,12.139108,-2.45219660078,9.68691139922,9.514436,0.223694,6.4049542732,14.7936684524,20,5,8.295,10.67116339922,10.498688,4.8317904,7.1834647968,-0.223694,0,-2.460634,138.2, -4, -4.2,0,0,1024,1024,1124,1024,0,0,15,0,162.7,0,0,95,4.146,4.144,0,0,0,0,3.852,80.06,9.68691139922,9.514436,31,Sport,
14600,2025-05-08 16:28:40,-22.9872231954133,-42.0124251405355,10.170604,12.795276,-2.45219660078,10.34307939922,10.170604,0.223694,6.4309057176,14.8626317092,20,5,8.295,10.67116339922,10.498688,4.8317904,7.1834647968,0,-0.223694,-3.35541,138.2, -5.2, -5.9,0,0,1024,1024,1024,1024,0,0,0,0,162.7,0,0,95,4.146,4.144,0,0,0,0,3.852,80.06,10.34307939922,10.170604,31,Sport,
14700,2025-05-08 16:28:40,-22.9872234300947,-42.012425347741,10.826772,13.451444,-2.45219660078,10.99924739922,10.826772,0.223694,6.4656170048,14.9729663584,20,5,8.363,10.99924739922,10.826772,4.8317904,7.1834647968,0,-0.223694,-2.684328,137.8, -5.6, -7.9,0,0,1024,1024,1024,1024,0,0,0,0,162.7,0,0,95,4.139,4.1,0,0,0,0,3.249,80.06,10.99924739922,10.826772,31,Sport,
14800,2025-05-08 16:28:40,-22.9872235066159,-42.0124254910741,10.826772,13.5498692,-2.55062180078,10.99924739922,11.154856,0.223694,6.4639437764,15.0286094048,20,5,8.363,10.99924739922,10.826772,4.8317904,7.1834647968,0,-0.223694,-2.013246,138, -7.9, -8.1,0,0,1024,1024,1427,1024,0,0,61,0,162.7,0,0,95,4.139,4.1,0,0,0,0,3.249,80.06,10.99924739922,10.826772,31,Sport,
14900,2025-05-08 16:28:40,-22.9872234640696,-42.0124256012014,11.154856,13.6482944,-2.32096300078,11.32733139922,11.154856,0.223694,6.4313978436,15.068734078,20,5,8.363,11.32733139922,11.154856,4.8317904,7.1834647968,0,-0.223694,-1.11847,138.2, -7.4, -5.5,0,0,1024,1024,1684,1024,0,0,100,0,162.7,0,0,95,4.139,4.1,0,0,0,0,3.249,80.06,11.32733139922,11.154856,31,Sport,
15000,2025-05-08 16:28:40,-22.9872233962233,-42.012425686757,11.154856,13.6482944,-2.32096300078,11.32733139922,11.48294,0.223694,6.3953086036,15.1066605884,20,5,8.363,11.32733139922,11.154856,4.8317904,7.1834647968,0,-0.223694,-1.11847,138.3, -7.4, -4.3,0,0,1024,1024,1684,1024,0,0,100,0,162.7,0,0,95,4.139,4.1,0,0,0,0,3.249,80.06,11.32733139922,11.154856,31,Sport,
15100,2025-05-08 16:28:40,-22.9872231989727,-42.0124259158983,11.154856,13.6482944,-2.32096300078,11.32733139922,12.467192,0,6.2938978392,15.2120083608,20,5,8.363,11.32733139922,11.154856,4.8317904,7.1834647968,0,0,-1.789552,138, -6.9, -3.2,0,0,1024,1024,1684,1024,0,0,100,0,162.7,0,0,95,4.139,4.1,0,0,0,0,3.249,80.06,11.32733139922,11.154856,31,Sport,
15200,2025-05-08 16:28:40,-22.9872231549742,-42.0124260716485,11.48294,13.9763784,-2.32096300078,11.65541539922,12.795276,0,6.25328104,15.266732772,20,5,8.363,11.65541539922,11.48294,4.8317904,7.1834647968,0,0,-2.684328,137.9, -6.5, -3.4,0,0,1024,1024,1684,1024,0,0,100,0,162.7,0,0,95,4.139,4.1,0,0,0,0,3.249,80.06,11.65541539922,11.48294,31,Sport,
15300,2025-05-08 16:28:40,-22.987223130222,-42.0124262038819,12.139108,14.6325464,-2.32096300078,12.31158339922,13.12336,0,6.22293327,15.3120739808,20,5,8.363,12.31158339922,12.139108,4.8317904,7.1834647968,0,0,-3.579104,137.8, -6.6, -4.7,0,0,1024,1024,1684,1024,0,0,100,0,162.7,0,0,95,4.139,4.1,0,0,0,0,3.249,80.06,12.31158339922,12.139108,31,Sport,
15400,2025-05-08 16:28:40,-22.9872230944417,-42.012426336806,12.467192,14.9606304,-2.32096300078,12.63966739922,14.107612,0,6.1891734264,15.3585634836,20,5,8.363,12.63966739922,12.467192,4.8317904,7.1834647968,0,0,-4.47388,138.2, -8.3, -5.1,0,0,1024,1024,1684,1024,0,0,100,0,162.7,0,0,95,4.139,4.1,0,0,0,0,3.249,80.06,12.63966739922,12.467192,31,Sport,
15500,2025-05-08 16:28:41,-22.9872229696446,-42.0124264834193,13.451444,15.9448824,-2.32096300078,13.62391939922,14.76378,0,6.1251314296,15.4256566616,20,5,8.363,13.62391939922,13.451444,4.8317904,7.1834647968,0,0,-5.144962,137.5, -7.7, -4.7,0,0,1024,1024,1684,1024,0,0,100,0,162.7,0,0,95,4.139,4.1,0,0,0,0,3.249,80.06,13.62391939922,13.451444,31,Sport,
15600,2025-05-08 16:28:41,-22.9872229028878,-42.012426572914,14.107612,16.5026252,-2.22253780078,14.28008739922,15.748032,0,6.0890421896,15.4643377652,20,5,8.363,14.28008739922,14.107612,4.8317904,7.1834647968,0,0,-6.263432,137.7, -8, -5.1,0,0,1024,1024,1684,1024,0,0,100,0,162.7,0,0,95,4.139,4.1,0,0,0,0,3.249,80.06,14.28008739922,14.107612,31,Sport,
15700,2025-05-08 16:28:41,-22.987222890226,-42.0124265696851,15.091864,17.4868772,-2.22253780078,15.26433939922,16.4042,0,6.0855973076,15.4690949832,20,5,8.295,15.26433939922,15.091864,4.8317904,7.1834647968,0,0,-6.934514,137.7, -8.4, -4.8,0,0,1024,1024,1684,1024,0,0,100,0,162.7,0,0,95,4.062,4.045,0,0,0,0,4.751,80.06,15.26433939922,15.091864,31,Sport,
15800,2025-05-08 16:28:41,-22.987222899213,-42.0124265559453,16.4042,18.7992132,-2.22253780078,16.57667539922,19.68504,0,6.090715418,15.474738028,20,5,8.295,16.57667539922,16.4042,4.8317904,7.1834647968,0,0,-7.82929,137.6, -7.4, -5.4,0,0,1024,1024,1684,1024,0,0,100,0,162.7,0,0,95,4.062,4.045,0,0,0,0,4.751,80.06,16.57667539922,16.4042,31,Sport,
15900,2025-05-08 16:28:41,-22.9872229141984,-42.0124266058388,17.716536,20.1115492,-2.22253780078,17.88901139922,20.997376,0,6.0871393024,15.4923561388,20,5,8.295,17.88901139922,17.716536,4.8317904,7.1834647968,0,0,-8.500372,137.6, -7.1, -4.8,0,0,1024,1024,1684,1024,0,0,100,0,162.7,0,0,95,4.062,4.045,0,0,0,0,4.751,80.06,17.88901139922,17.716536,31,Sport,
16000,2025-05-08 16:28:41,-22.9872230290985,-42.0124265184248,19.356956,21.7519692,-2.22253780078,19.52943139922,22.309712,0,6.138123556,15.5435372428,20,5,8.295,19.52943139922,19.356956,4.8317904,7.1834647968,0,0,-9.618842,137.9, -6.9, -3.9,0,0,1024,1024,1684,1024,0,0,100,0,162.7,0,0,95,4.062,4.045,0,0,0,0,4.751,80.06,19.52943139922,19.356956,31,Sport,
16100,2025-05-08 16:28:41,-22.9872230979143,-42.0124266907927,20.997376,23.3923892,-2.22253780078,21.16985139922,23.622048,0.3131716,6.131561876,15.6066606044,20,5,8.295,21.16985139922,20.997376,4.8317904,7.1834647968,-0.223694,-0.223694,-10.737312,138.2, -6.7, -8.1,0,0,1024,1024,1684,1024,0,0,100,0,162.7,0,0,95,4.062,4.045,0,0,0,0,4.751,80.06,21.16985139922,20.997376,31,Sport,
16200,2025-05-08 16:28:41,-22.9872231820929,-42.0124268946944,22.637796,25.0328092,-2.22253780078,22.81027139922,25.262468,0.223694,6.1255251304,15.6816934152,20,5,8.295,22.81027139922,22.637796,4.8317904,7.1834647968,0,-0.223694,-10.961006,138, -7.5, -8.8,0,0,1024,1024,1684,1024,0,0,100,0,162.7,0,0,95,4.062,4.045,0,0,0,0,4.751,80.06,22.81027139922,22.637796,31,Sport,
16300,2025-05-08 16:28:41,-22.9872232088256,-42.0124271567211,24.278216,26.6732292,-2.22253780078,24.45069139922,26.902888,0.223694,6.0927823472,15.7702432868,20,5,8.295,24.45069139922,24.278216,4.8317904,7.1834647968,0,-0.223694,-11.1847,138.2, -8, -9.2,0,0,1024,1024,1684,1024,0,0,100,0,162.7,0,0,95,4.062,4.045,0,0,0,0,4.751,80.06,24.45069139922,24.278216,31,Sport,
16400,2025-05-08 16:28:41,-22.9872232547243,-42.0124275429368,26.24672,28.5104996,-2.09130420078,26.41919539922,28.543308,0.223694,6.0486550492,15.9010503776,20,5,8.295,26.41919539922,26.24672,4.8317904,7.1834647968,0,-0.223694,-11.1847,138.3, -8.5, -8.9,0,0,1024,1024,1684,1024,0,0,100,0,162.7,0,0,95,4.062,4.045,0,0,0,0,4.751,80.06,26.41919539922,26.24672,31,Sport,
16500,2025-05-08 16:28:42,-22.9872232973159,-42.0124277287984,27.88714,30.1509196,-2.09130420078,28.05961539922,30.183728,0.3131716,6.0350723716,15.96538765,20,5,8.295,28.05961539922,27.88714,4.8317904,7.1834647968,-0.223694,-0.223694,-10.961006,137.9, -7.4, -10.1,0,0,1024,1024,1684,1024,0,0,100,0,162.7,0,0,95,4.062,4.045,0,0,0,0,4.751,80.06,28.05961539922,27.88714,31,Sport,
16600,2025-05-08 16:28:42,-22.9872233251806,-42.0124278579619,29.855644,32.1194236,-2.09130420078,30.02811939922,31.824148,0,6.025426702,16.0099414572,20,5,8.295,30.02811939922,29.855644,4.8317904,7.1834647968,0,0,-10.737312,137.7, -6.6, -10.5,0,0,1024,1024,1684,1024,0,0,100,0,162.7,0,0,95,4.062,4.045,0,0,0,0,4.751,80.06,30.02811939922,29.855644,31,Sport,
16700,2025-05-08 16:28:42,-22.9872233684308,-42.0124280071015,31.496064,33.7598436,-2.09130420078,31.66853939922,33.464568,0,6.0183400876,16.0624677056,20,5,7.918,31.66853939922,31.496064,4.8317904,7.1834647968,0,0,-10.737312,137.4, -5.6, -6.8,0,0,1024,1024,1684,1024,0,0,100,0,162.7,0,0,95,4.061,4.057,0,0,0,0,8.502,80.24,31.66853939922,31.496064,31,Sport,
