time(millisecond),datetime(utc),latitude,longitude,height_above_takeoff(feet),height_above_ground_at_drone_location(feet),ground_elevation_at_drone_location(feet),altitude_above_seaLevel(feet),height_sonar(feet),speed(mph),distance(feet),mileage(feet),satellites,gpslevel,voltage(v),max_altitude(feet),max_ascent(feet),max_speed(mph),max_distance(feet), xSpeed(mph), ySpeed(mph), zSpeed(mph), compass_heading(degrees), pitch(degrees), roll(degrees),isPhoto,isVideo,rc_elevator,rc_aileron,rc_throttle,rc_rudder,rc_elevator(percent),rc_aileron(percent),rc_throttle(percent),rc_rudder(percent),gimbal_heading(degrees),gimbal_pitch(degrees),gimbal_roll(degrees),battery_percent,voltageCell1,voltageCell2,voltageCell3,voltageCell4,voltageCell5,voltageCell6,current(A),battery_temperature(f),altitude(feet),ascent(feet),flycStateRaw,flycState,message
0,2025-05-23 15:34:38,0,0,0,,,3.28084E-5,0.328084,0,0,0,0,0,0,3.28084E-5,0,0,0,0,0,0,88.4, -0.8, 2.2,0,0,981,1086,1024,1073,-7,9,0,7,90.3,0,2.5,94,4.056,4.055,0,0,0,0,0,68.72,3.28084E-5,0,6,P-GPS,"Setting new Return-To-Home altitude to 30m (98 ft). Data Recorder File Index is 16. Setting new Maximum Flight Altitude to 30m (98 ft)"
100,2025-05-23 15:34:38,0,0,0,,,3.28084E-5,0.328084,0,0,0,0,0,0,3.28084E-5,0,0,0,0,0,0,88.4, -0.8, 2.2,0,0,981,1086,1024,1073,-7,9,0,7,90.3,0,2.5,94,4.056,4.055,0,0,0,0,0,68.72,3.28084E-5,0,41,Motors_Started,"Conexión por cable OTG Gafas en modo de conexión por cable OTG. Sal de este modo antes de conectarlas al ordenador. Arranque de motores..."
200,2025-05-23 15:34:38,0,0,0,,,3.28084E-5,0.328084,0,0,0,0,0,0,3.28084E-5,0,0,0,0,0,0,88.4, -0.8, 2.2,0,0,981,1086,1024,1073,-7,9,0,7,90.3,0,2.5,94,4.056,4.055,0,0,0,0,0,68.72,3.28084E-5,0,41,Motors_Started,"Conexión por cable OTG Gafas en modo de conexión por cable OTG. Sal de este modo antes de conectarlas al ordenador. Arranque de motores..."
300,2025-05-23 15:34:38,0,0,0,,,3.28084E-5,0.328084,0,0,0,0,0,0,3.28084E-5,0,0,0,0,0,0,88.4, -0.9, 2.2,0,0,981,1086,1024,1073,-7,9,0,7,90.3,0,2.5,94,4.056,4.055,0,0,0,0,0,68.72,3.28084E-5,0,41,Motors_Started,"Conexión por cable OTG Gafas en modo de conexión por cable OTG. Sal de este modo antes de conectarlas al ordenador. Arranque de motores..."
400,2025-05-23 15:34:38,0,0,0,,,3.28084E-5,0.328084,0,0,0,0,0,0,3.28084E-5,0,0,0,0,0,0,88.4, -0.9, 2.2,0,0,981,1086,1024,1073,-7,9,0,7,90.3,0,2.5,94,4.056,4.055,0,0,0,0,0,68.72,3.28084E-5,0,41,Motors_Started,"Conexión por cable OTG Gafas en modo de conexión por cable OTG. Sal de este modo antes de conectarlas al ordenador. Arranque de motores..."
500,2025-05-23 15:34:38,0,0,0,,,3.28084E-5,0.328084,0,0,0,0,0,0,3.28084E-5,0,0,0,0,0,0,88.4, -0.9, 2.2,0,0,981,1086,1024,1073,-7,9,0,7,90.3,0,2.5,94,4.056,4.055,0,0,0,0,0,68.72,3.28084E-5,0,41,Motors_Started,"Conexión por cable OTG Gafas en modo de conexión por cable OTG. Sal de este modo antes de conectarlas al ordenador. Arranque de motores..."
600,2025-05-23 15:34:38,0,0,0,,,3.28084E-5,0.328084,0,0,0,0,0,0,3.28084E-5,0,0,0,0,0,0,88.3, -0.9, 2.2,0,0,981,1086,1024,1073,-7,9,0,7,90.3,0,2.5,94,4.056,4.055,0,0,0,0,0,68.72,3.28084E-5,0,41,Motors_Started,"Conexión por cable OTG Gafas en modo de conexión por cable OTG. Sal de este modo antes de conectarlas al ordenador. Arranque de motores..."
700,2025-05-23 15:34:39,0,0,0,,,3.28084E-5,0.328084,0,0,0,0,0,0,3.28084E-5,0,0,0,0,0,0,88.3, -0.9, 2.2,0,0,981,1086,1024,1073,-7,9,0,7,90.3,0,2.5,94,4.056,4.055,0,0,0,0,0,68.72,3.28084E-5,0,41,Motors_Started,"Conexión por cable OTG Gafas en modo de conexión por cable OTG. Sal de este modo antes de conectarlas al ordenador. Arranque de motores..."
800,2025-05-23 15:34:39,0,0,0,,,3.28084E-5,0.328084,0,0,0,0,0,0,3.28084E-5,0,0,0,0,0,0,88.4, -0.9, 2.2,0,0,981,1086,1024,1073,-7,9,0,7,90.3,0,2.5,94,4.056,4.055,0,0,0,0,0,68.72,3.28084E-5,0,41,Motors_Started,"Conexión por cable OTG Gafas en modo de conexión por cable OTG. Sal de este modo antes de conectarlas al ordenador. Arranque de motores..."
900,2025-05-23 15:34:39,0,0,0,,,3.28084E-5,0.328084,0,0,0,0,0,0,3.28084E-5,0,0,0,0,0,0,88.4, -0.9, 2.2,0,0,981,1086,1024,1073,-7,9,0,7,90.3,0,2.5,94,4.056,4.055,0,0,0,0,0,68.72,3.28084E-5,0,41,Motors_Started,"Conexión por cable OTG Gafas en modo de conexión por cable OTG. Sal de este modo antes de conectarlas al ordenador. Arranque de motores..."
1000,2025-05-23 15:34:39,0,0,0,,,3.28084E-5,0.328084,0,0,0,0,0,0,3.28084E-5,0,0,0,0,0,0,88.3, -0.9, 2.2,0,0,981,1086,1024,1073,-7,9,0,7,90.3,0,2.5,94,4.056,4.055,0,0,0,0,0,68.72,3.28084E-5,0,41,Motors_Started,"Conexión por cable OTG Gafas en modo de conexión por cable OTG. Sal de este modo antes de conectarlas al ordenador. Arranque de motores..."
1100,2025-05-23 15:34:39,0,0,0,,,3.28084E-5,0.328084,0,0,0,0,0,0,3.28084E-5,0,0,0,0,0,0,88.4, -0.9, 2.2,0,0,981,1086,1024,1073,-7,9,0,7,90.3,0,2.5,94,4.056,4.055,0,0,0,0,0,68.72,3.28084E-5,0,41,Motors_Started,"Conexión por cable OTG Gafas en modo de conexión por cable OTG. Sal de este modo antes de conectarlas al ordenador. Arranque de motores..."
1200,2025-05-23 15:34:39,0,0,0,,,3.28084E-5,0.328084,0,0,0,0,0,0,3.28084E-5,0,0,0,0,0,0,88.5, -0.9, 2.2,0,0,981,1086,1024,1073,-7,9,0,7,90.3,0,2.5,94,4.056,4.055,0,0,0,0,0,68.72,3.28084E-5,0,41,Motors_Started,"Conexión por cable OTG Gafas en modo de conexión por cable OTG. Sal de este modo antes de conectarlas al ordenador. Arranque de motores..."
1300,2025-05-23 15:34:39,0,0,0,,,3.28084E-5,0.328084,0,0,0,0,0,0,3.28084E-5,0,0,0,0,0,0,88.4, -0.9, 2.2,0,0,981,1086,1024,1073,-7,9,0,7,90.3,0,2.5,94,4.056,4.055,0,0,0,0,0,68.72,3.28084E-5,0,41,Motors_Started,"Conexión por cable OTG Gafas en modo de conexión por cable OTG. Sal de este modo antes de conectarlas al ordenador. Arranque de motores..."
1400,2025-05-23 15:34:39,0,0,0,,,3.28084E-5,0.328084,0,0,0,0,0,0,3.28084E-5,0,0,0,0,0,0,88.4, -0.9, 2.2,0,0,981,1086,1024,1073,-7,9,0,7,90.3,0,2.5,94,4.056,4.055,0,0,0,0,0,68.72,3.28084E-5,0,41,Motors_Started,"Conexión por cable OTG Gafas en modo de conexión por cable OTG. Sal de este modo antes de conectarlas al ordenador. Arranque de motores..."
1500,2025-05-23 15:34:39,0,0,0,,,3.28084E-5,0.328084,0,0,0,0,0,0,3.28084E-5,0,0,0,0,0,0,88.3, -0.9, 2.2,0,0,981,1086,1024,1073,-7,9,0,7,90.3,0,2.5,94,4.056,4.055,0,0,0,0,0,68.72,3.28084E-5,0,41,Motors_Started,"Conexión por cable OTG Gafas en modo de conexión por cable OTG. Sal de este modo antes de conectarlas al ordenador. Arranque de motores..."
1600,2025-05-23 15:34:39,0,0,0,,,3.28084E-5,0.328084,0,0,0,0,0,0,3.28084E-5,0,0,0,0,0,0,88.3, -0.9, 2.2,0,0,981,1086,1024,1073,-7,9,0,7,90.3,0,2.5,94,4.056,4.055,0,0,0,0,0,68.72,3.28084E-5,0,41,Motors_Started,"Conexión por cable OTG Gafas en modo de conexión por cable OTG. Sal de este modo antes de conectarlas al ordenador. Arranque de motores..."
1700,2025-05-23 15:34:40,0,0,0,,,3.28084E-5,0.328084,0,0,0,0,0,0,3.28084E-5,0,0,0,0,0,0,88.3, -0.9, 2.2,0,0,981,1086,1024,1073,-7,9,0,7,90.3,0,2.5,94,4.056,4.055,0,0,0,0,0,68.72,3.28084E-5,0,41,Motors_Started,"Conexión por cable OTG Gafas en modo de conexión por cable OTG. Sal de este modo antes de conectarlas al ordenador. Arranque de motores..."
1800,2025-05-23 15:34:40,0,0,0,,,3.28084E-5,0.328084,0,0,0,0,0,0,3.28084E-5,0,0,0,0,0,0,88.4, -0.9, 2.2,0,0,981,1086,1024,1073,-7,9,0,7,90.3,0,2.5,94,4.056,4.055,0,0,0,0,0,68.72,3.28084E-5,0,41,Motors_Started,"Conexión por cable OTG Gafas en modo de conexión por cable OTG. Sal de este modo antes de conectarlas al ordenador. Arranque de motores..."
1900,2025-05-23 15:34:40,0,0,0,,,3.28084E-5,0.328084,0,0,0,0,0,0,3.28084E-5,0,0,0,0,0,0,88.4, -0.9, 2.2,0,0,981,1086,1024,1073,-7,9,0,7,90.3,0,2.5,94,4.056,4.055,0,0,0,0,0,68.72,3.28084E-5,0,41,Motors_Started,"Conexión por cable OTG Gafas en modo de conexión por cable OTG. Sal de este modo antes de conectarlas al ordenador. Arranque de motores..."
2000,2025-05-23 15:34:40,0,0,0,,,3.28084E-5,0.328084,0,0,0,0,0,0,3.28084E-5,0,0,0,0,0,0,88.5, -0.9, 2.2,0,0,981,1086,1024,1073,-7,9,0,7,90.3,0,2.5,94,4.056,4.055,0,0,0,0,0,68.72,3.28084E-5,0,41,Motors_Started,"Conexión por cable OTG Gafas en modo de conexión por cable OTG. Sal de este modo antes de conectarlas al ordenador. Arranque de motores..."
2100,2025-05-23 15:34:40,0,0,0,,,3.28084E-5,0.328084,0,0,0,0,0,0,3.28084E-5,0,0,0,0,0,0,88.7, -0.8, 2.1,0,0,981,1086,1024,1073,-7,9,0,7,90.3,0,2.4,94,4.056,4.055,0,0,0,0,0,68.72,3.28084E-5,0,41,Motors_Started,"Conexión por cable OTG Gafas en modo de conexión por cable OTG. Sal de este modo antes de conectarlas al ordenador. Arranque de motores..."
2200,2025-05-23 15:34:40,0,0,0,,,3.28084E-5,0.328084,0,0,0,0,0,0,3.28084E-5,0,0,0,0,0,0,88.7, -0.8, 2.1,0,0,981,1086,1024,1073,-7,9,0,7,90.4,0,2.4,94,4.056,4.055,0,0,0,0,0,68.72,3.28084E-5,0,10,Assisted_Takeoff,"Conexión por cable OTG Gafas en modo de conexión por cable OTG. Sal de este modo antes de conectarlas al ordenador. Arranque de motores..."
2300,2025-05-23 15:34:40,0,0,0,,,3.28084E-5,0.328084,0,0,0,0,0,0,3.28084E-5,0,0,0,0,0,0,88.7, -0.7, 2.1,0,0,981,1086,1024,1073,-7,9,0,7,90.3,0,2.4,94,4.056,4.055,0,0,0,0,0,68.72,3.28084E-5,0,10,Assisted_Takeoff,"Conexión por cable OTG Gafas en modo de conexión por cable OTG. Sal de este modo antes de conectarlas al ordenador. Arranque de motores..."
2400,2025-05-23 15:34:40,0,0,0,,,3.28084E-5,0.328084,0,0,0,0,0,0,3.28084E-5,0,0,0,0,0,0,88.6, -0.8, 2.3,0,0,981,1086,1024,1073,-7,9,0,7,90.4,0,2.4,94,4.056,4.055,0,0,0,0,0,68.72,3.28084E-5,0,10,Assisted_Takeoff,"Conexión por cable OTG Gafas en modo de conexión por cable OTG. Sal de este modo antes de conectarlas al ordenador. Arranque de motores..."
2500,2025-05-23 15:34:40,0,0,0,,,3.28084E-5,0.328084,0,0,0,0,0,0,3.28084E-5,0,0,0,0,0,0,88.6, -0.8, 2.3,0,0,981,1086,1024,1073,-7,9,0,7,90.3,0,2.4,94,4.056,4.055,0,0,0,0,0,68.72,3.28084E-5,0,10,Assisted_Takeoff,"Conexión por cable OTG Gafas en modo de conexión por cable OTG. Sal de este modo antes de conectarlas al ordenador. Arranque de motores..."
2600,2025-05-23 15:34:40,0,0,0,,,3.28084E-5,0.328084,0,0,0,0,0,0,3.28084E-5,0,0,0,0,0,0,88.6, -0.8, 2.3,0,0,981,1086,1024,1073,-7,9,0,7,90.4,0,2.4,94,4.056,4.055,0,0,0,0,0,68.72,3.28084E-5,0,10,Assisted_Takeoff,"Conexión por cable OTG Gafas en modo de conexión por cable OTG. Sal de este modo antes de conectarlas al ordenador. Arranque de motores..."
2700,2025-05-23 15:34:40,0,0,0,,,3.28084E-5,0.328084,0,0,0,0,0,0,3.28084E-5,0,0,0,0,0,0,88.6, -0.8, 2.3,0,0,981,1086,1024,1073,-7,9,0,7,90.4,0,2.4,94,4.056,4.055,0,0,0,0,0,68.72,3.28084E-5,0,10,Assisted_Takeoff,"Conexión por cable OTG Gafas en modo de conexión por cable OTG. Sal de este modo antes de conectarlas al ordenador. Arranque de motores..."
2800,2025-05-23 15:34:41,0,0,0,,,3.28084E-5,0.328084,0,0,0,0,0,0,3.28084E-5,0,0,0,0,0,0,88.6, -0.8, 2.2,0,0,981,1086,1024,1073,-7,9,0,7,90.4,0,2.4,94,4.056,4.055,0,0,0,0,0,68.72,3.28084E-5,0,10,Assisted_Takeoff,"Conexión por cable OTG Gafas en modo de conexión por cable OTG. Sal de este modo antes de conectarlas al ordenador. Arranque de motores..."
2900,2025-05-23 15:34:41,0,0,0,,,3.28084E-5,0.328084,0,0,0,0,0,0,3.28084E-5,0,0,0,0,0,0,88.5, -0.8, 2.2,0,0,981,1086,1024,1073,-7,9,0,7,90.4,0,2.4,94,4.056,4.055,0,0,0,0,0,68.72,3.28084E-5,0,10,Assisted_Takeoff,"Conexión por cable OTG Gafas en modo de conexión por cable OTG. Sal de este modo antes de conectarlas al ordenador. Arranque de motores..."
3000,2025-05-23 15:34:41,0,0,0,,,3.28084E-5,0.328084,0,0,0,0,0,0,3.28084E-5,0,0,0,0,0,0,88.5, -0.8, 2.2,0,0,981,1086,1024,1073,-7,9,0,7,90.4,0,2.4,94,4.056,4.055,0,0,0,0,0,68.72,3.28084E-5,0,10,Assisted_Takeoff,"Conexión por cable OTG Gafas en modo de conexión por cable OTG. Sal de este modo antes de conectarlas al ordenador. Arranque de motores.... Gafas en modo de conexión por cable OTG. Sal de este modo antes de conectarlas al ordenador. Motores iniciándose. Mantén presionado e"
3100,2025-05-23 15:34:41,0,0,0,,,3.28084E-5,0.328084,0,0,0,0,0,8.111,3.28084E-5,0,0,0,0,0,0,88.4, -0.8, 2.2,0,0,981,1086,1024,1073,-7,9,0,7,90.4,0,2.4,94,4.056,4.055,0,0,0,0,1.023,68.72,3.28084E-5,0,10,Assisted_Takeoff,"Conexión por cable OTG Gafas en modo de conexión por cable OTG. Sal de este modo antes de conectarlas al ordenador. Motores iniciándose. Mantén presionado el botón Bloqueo para despegar"
3200,2025-05-23 15:34:41,0,0,0,,,3.28084E-5,0.328084,0,0,0,0,0,8.111,3.28084E-5,0,0,0,0,0,0,88.3, -0.8, 2.2,0,0,981,1086,1024,1073,-7,9,0,7,90.4,0,2.4,94,4.056,4.055,0,0,0,0,1.023,68.72,3.28084E-5,0,10,Assisted_Takeoff,"Conexión por cable OTG Gafas en modo de conexión por cable OTG. Sal de este modo antes de conectarlas al ordenador. Motores iniciándose. Mantén presionado el botón Bloqueo para despegar"
3300,2025-05-23 15:34:41,0,0,0,,,3.28084E-5,0.328084,0,0,0,0,0,8.111,3.28084E-5,0,0,0,0,0,0,88.3, -0.8, 2.3,0,0,981,1086,1024,1073,-7,9,0,7,90.4,0,2.5,94,4.056,4.055,0,0,0,0,1.023,68.72,3.28084E-5,0,10,Assisted_Takeoff,"Conexión por cable OTG Gafas en modo de conexión por cable OTG. Sal de este modo antes de conectarlas al ordenador. Motores iniciándose. Mantén presionado el botón Bloqueo para despegar"
3400,2025-05-23 15:34:41,0,0,0,,,3.28084E-5,0.328084,0,0,0,0,0,8.111,3.28084E-5,0,0,0,0,0,0,88.2, -0.8, 2.3,0,0,981,1086,1024,1073,-7,9,0,7,90.4,0,2.5,94,4.056,4.055,0,0,0,0,1.023,68.72,3.28084E-5,0,41,Motors_Started,"Conexión por cable OTG Gafas en modo de conexión por cable OTG. Sal de este modo antes de conectarlas al ordenador. Motores iniciándose. Mantén presionado el botón Bloqueo para despegar"
3500,2025-05-23 15:34:41,0,0,0,,,3.28084E-5,0.328084,0,0,0,0,0,8.111,3.28084E-5,0,0,0,0,0,0,88.2, -0.8, 2.3,0,0,981,1086,1024,1073,-7,9,0,7,90.4,0,2.5,94,4.056,4.055,0,0,0,0,1.023,68.72,3.28084E-5,0,41,Motors_Started,"Conexión por cable OTG Gafas en modo de conexión por cable OTG. Sal de este modo antes de conectarlas al ordenador. Motores iniciándose. Mantén presionado el botón Bloqueo para despegar"
3600,2025-05-23 15:34:41,0,0,0,,,3.28084E-5,0.328084,0,0,0,0,0,8.111,3.28084E-5,0,0,0,0,0,0,88.1, -0.8, 2.2,0,0,981,1086,1024,1073,-7,9,0,7,90.4,0,2.5,94,4.056,4.055,0,0,0,0,1.023,68.72,3.28084E-5,0,41,Motors_Started,"Conexión por cable OTG Gafas en modo de conexión por cable OTG. Sal de este modo antes de conectarlas al ordenador. Motores iniciándose. Mantén presionado el botón Bloqueo para despegar"
3700,2025-05-23 15:34:41,0,0,0,,,3.28084E-5,0.328084,0,0,0,0,0,8.111,3.28084E-5,0,0,0,0,0,0,88.1, -0.8, 2.2,0,0,981,1086,1024,1073,-7,9,0,7,90.4,0,2.5,94,4.056,4.055,0,0,0,0,1.023,68.72,3.28084E-5,0,41,Motors_Started,"Conexión por cable OTG Gafas en modo de conexión por cable OTG. Sal de este modo antes de conectarlas al ordenador. Motores iniciándose. Mantén presionado el botón Bloqueo para despegar"
3800,2025-05-23 15:34:42,0,0,0,,,3.28084E-5,0.328084,0,0,0,0,0,8.111,3.28084E-5,0,0,0,0,0,0,88, -0.8, 2.3,0,0,981,1086,1024,1073,-7,9,0,7,90.3,0,2.5,94,4.056,4.055,0,0,0,0,1.023,68.72,3.28084E-5,0,41,Motors_Started,"Conexión por cable OTG Gafas en modo de conexión por cable OTG. Sal de este modo antes de conectarlas al ordenador. Motores iniciándose. Mantén presionado el botón Bloqueo para despegar"
3900,2025-05-23 15:34:42,0,0,0,,,3.28084E-5,0.328084,0,0,0,0,0,8.111,3.28084E-5,0,0,0,0,0,0,87.9, -0.8, 2.3,0,0,981,1086,1024,1073,-7,9,0,7,90.4,0,2.5,94,4.056,4.055,0,0,0,0,1.023,68.72,3.28084E-5,0,41,Motors_Started,"Conexión por cable OTG Gafas en modo de conexión por cable OTG. Sal de este modo antes de conectarlas al ordenador. Motores iniciándose. Mantén presionado el botón Bloqueo para despegar"
4000,2025-05-23 15:34:42,0,0,0,,,3.28084E-5,0.328084,0,0,0,0,0,8.111,3.28084E-5,0,0,0,0,0,0,87.9, -0.8, 2.3,0,0,981,1086,1024,1073,-7,9,0,7,90.3,0,2.5,94,4.056,4.055,0,0,0,0,1.023,68.72,3.28084E-5,0,41,Motors_Started,"Conexión por cable OTG Gafas en modo de conexión por cable OTG. Sal de este modo antes de conectarlas al ordenador. Motores iniciándose. Mantén presionado el botón Bloqueo para despegar"
4100,2025-05-23 15:34:42,0,0,0,,,3.28084E-5,0.328084,0,0,0,0,0,8.116,3.28084E-5,0,0,0,0,0,0,87.8, -0.9, 2.3,0,0,981,1086,1024,1073,-7,9,0,7,90.3,0,2.5,94,4.058,4.058,0,0,0,0,0.968,68.9,3.28084E-5,0,41,Motors_Started,"Conexión por cable OTG Gafas en modo de conexión por cable OTG. Sal de este modo antes de conectarlas al ordenador. Motores iniciándose. Mantén presionado el botón Bloqueo para despegar"
4200,2025-05-23 15:34:42,0,0,0,,,3.28084E-5,0.328084,0,0,0,0,0,8.116,3.28084E-5,0,0,0,0,0,0,87.8, -0.9, 2.3,0,0,981,1086,1024,1073,-7,9,0,7,90.3,0,2.5,94,4.058,4.058,0,0,0,0,0.968,68.9,3.28084E-5,0,41,Motors_Started,"Conexión por cable OTG Gafas en modo de conexión por cable OTG. Sal de este modo antes de conectarlas al ordenador. Motores iniciándose. Mantén presionado el botón Bloqueo para despegar"
4300,2025-05-23 15:34:42,0,0,0,,,3.28084E-5,0.328084,0,0,0,0,0,8.116,3.28084E-5,0,0,0,0,0,0,87.8, -0.9, 2.3,0,0,981,1086,1024,1073,-7,9,0,7,90.3,0,2.5,94,4.058,4.058,0,0,0,0,0.968,68.9,3.28084E-5,0,41,Motors_Started,"Conexión por cable OTG Gafas en modo de conexión por cable OTG. Sal de este modo antes de conectarlas al ordenador. Motores iniciándose. Mantén presionado el botón Bloqueo para despegar"
4400,2025-05-23 15:34:42,0,0,0,,,3.28084E-5,0.328084,0,0,0,0,0,8.116,3.28084E-5,0,0,0,0,0,0,87.8, -0.9, 2.3,0,0,981,1086,1024,1073,-7,9,0,7,90.3,0,2.5,94,4.058,4.058,0,0,0,0,0.968,68.9,3.28084E-5,0,41,Motors_Started,"Conexión por cable OTG Gafas en modo de conexión por cable OTG. Sal de este modo antes de conectarlas al ordenador. Motores iniciándose. Mantén presionado el botón Bloqueo para despegar"
4500,2025-05-23 15:34:42,0,0,0,,,3.28084E-5,0.328084,0,0,0,0,0,8.116,3.28084E-5,0,0,0,0,0,0,87.9, -0.9, 2.3,0,0,981,1086,1024,1073,-7,9,0,7,90.3,0,2.5,94,4.058,4.058,0,0,0,0,0.968,68.9,3.28084E-5,0,41,Motors_Started,"Conexión por cable OTG Gafas en modo de conexión por cable OTG. Sal de este modo antes de conectarlas al ordenador. Motores iniciándose. Mantén presionado el botón Bloqueo para despegar"
4600,2025-05-23 15:34:42,0,0,0,,,3.28084E-5,0.328084,0,0,0,0,0,8.116,3.28084E-5,0,0,0,0,0,0,88, -0.9, 2.3,0,0,981,1086,1024,1073,-7,9,0,7,90.3,0,2.5,94,4.058,4.058,0,0,0,0,0.968,68.9,3.28084E-5,0,41,Motors_Started,"Conexión por cable OTG Gafas en modo de conexión por cable OTG. Sal de este modo antes de conectarlas al ordenador. Motores iniciándose. Mantén presionado el botón Bloqueo para despegar"
4700,2025-05-23 15:34:43,0,0,0,,,3.28084E-5,0.328084,0,0,0,0,0,8.116,3.28084E-5,0,0,0,0,0,0,88, -0.9, 2.3,0,0,981,1086,1024,1073,-7,9,0,7,90.3,0,2.6,94,4.058,4.058,0,0,0,0,0.968,68.9,3.28084E-5,0,41,Motors_Started,"Conexión por cable OTG Gafas en modo de conexión por cable OTG. Sal de este modo antes de conectarlas al ordenador. Motores iniciándose. Mantén presionado el botón Bloqueo para despegar"
4800,2025-05-23 15:34:43,0,0,0,,,3.28084E-5,0.328084,0,0,0,0,0,8.116,3.28084E-5,0,0,0,0,0,0,88.1, -0.9, 2.3,0,0,981,1086,1024,1073,-7,9,0,7,90.3,0,2.6,94,4.058,4.058,0,0,0,0,0.968,68.9,3.28084E-5,0,41,Motors_Started,"Conexión por cable OTG Gafas en modo de conexión por cable OTG. Sal de este modo antes de conectarlas al ordenador. Motores iniciándose. Mantén presionado el botón Bloqueo para despegar"
4900,2025-05-23 15:34:43,0,0,0,,,3.28084E-5,0.328084,0,0,0,0,0,8.116,3.28084E-5,0,0,0,0,0,0,88.3, -0.9, 2.3,0,0,981,1086,1024,1073,-7,9,0,7,90.3,0,2.6,94,4.058,4.058,0,0,0,0,0.968,68.9,3.28084E-5,0,41,Motors_Started,"Conexión por cable OTG Gafas en modo de conexión por cable OTG. Sal de este modo antes de conectarlas al ordenador. Motores iniciándose. Mantén presionado el botón Bloqueo para despegar"
5000,2025-05-23 15:34:43,0,0,0,,,3.28084E-5,0.328084,0,0,0,0,0,8.116,3.28084E-5,0,0,0,0,0,0,88.3, -0.9, 2.2,0,0,981,1086,1024,1073,-7,9,0,7,90.3,0,2.6,94,4.058,4.058,0,0,0,0,0.968,68.9,3.28084E-5,0,41,Motors_Started,"Conexión por cable OTG Gafas en modo de conexión por cable OTG. Sal de este modo antes de conectarlas al ordenador. Motores iniciándose. Mantén presionado el botón Bloqueo para despegar"
5100,2025-05-23 15:34:43,0,0,0,,,3.28084E-5,0.328084,0,0,0,0,0,8.114,3.28084E-5,0,0,0,0,0,0,88.4, -0.9, 2.3,0,0,981,1086,1024,1073,-7,9,0,7,90.3,0,2.6,94,4.058,4.056,0,0,0,0,0.968,68.9,3.28084E-5,0,41,Motors_Started,"Conexión por cable OTG Gafas en modo de conexión por cable OTG. Sal de este modo antes de conectarlas al ordenador. Motores iniciándose. Mantén presionado el botón Bloqueo para despegar"
5200,2025-05-23 15:34:43,0,0,0,,,3.28084E-5,0.328084,0,0,0,0,0,8.114,3.28084E-5,0,0,0,0,0,0,88.5, -0.9, 2.2,0,0,981,1086,1024,1073,-7,9,0,7,90.3,0,2.6,94,4.058,4.056,0,0,0,0,0.968,68.9,3.28084E-5,0,41,Motors_Started,"Conexión por cable OTG Gafas en modo de conexión por cable OTG. Sal de este modo antes de conectarlas al ordenador. Motores iniciándose. Mantén presionado el botón Bloqueo para despegar"
5300,2025-05-23 15:34:43,0,0,0,,,3.28084E-5,0.328084,0,0,0,0,0,8.114,3.28084E-5,0,0,0,0,0,0,88.6, -0.8, 2.2,0,0,981,1086,1024,1073,-7,9,0,7,90.3,0,2.3,94,4.058,4.056,0,0,0,0,0.968,68.9,3.28084E-5,0,41,Motors_Started,"Conexión por cable OTG Gafas en modo de conexión por cable OTG. Sal de este modo antes de conectarlas al ordenador. Motores iniciándose. Mantén presionado el botón Bloqueo para despegar"
5400,2025-05-23 15:34:43,0,0,0,,,3.28084E-5,0.328084,0,0,0,0,0,8.114,3.28084E-5,0,0,0,0,0,0,88.6, -0.7, 1.8,0,0,981,1086,1024,1073,-7,9,0,7,90.4,0,1.8,94,4.058,4.056,0,0,0,0,0.968,68.9,3.28084E-5,0,11,AutoTakeoff,"Conexión por cable OTG Gafas en modo de conexión por cable OTG. Sal de este modo antes de conectarlas al ordenador. Motores iniciándose. Mantén presionado el botón Bloqueo para despegar. Gafas en modo de conexión por cable OTG. Sal de este modo antes de conectarlas al orde"
5500,2025-05-23 15:34:43,0,0,0,,,3.28084E-5,0.328084,0,0,0,0,0,8.114,3.28084E-5,0,0,0,0,0,0,88.8, -0.4, 0.9,0,0,981,1086,1024,1073,-7,9,0,7,90.6,0,0.6,94,4.058,4.056,0,0,0,0,0.968,68.9,3.28084E-5,0,11,AutoTakeoff,"Conexión por cable OTG Gafas en modo de conexión por cable OTG. Sal de este modo antes de conectarlas al ordenador. Despegando..."
5600,2025-05-23 15:34:43,0,0,0,,,3.28084E-5,0.328084,0,0,0,0,0,8.114,3.28084E-5,0,0,0,0,0,-0.223694,88.8, -0.4, 0.1,0,0,981,1086,1024,1073,-7,9,0,7,90.1,0,0.5,94,4.058,4.056,0,0,0,0,0.968,68.9,3.28084E-5,0,11,AutoTakeoff,"Conexión por cable OTG Gafas en modo de conexión por cable OTG. Sal de este modo antes de conectarlas al ordenador. Despegando..."
5700,2025-05-23 15:34:43,0,0,0,,,3.28084E-5,0.328084,0,0,0,1,0,8.114,3.28084E-5,0,0,0,0,0,-0.447388,88.4, -0.3, -0.1,0,0,981,1086,1024,1073,-7,9,0,7,90.1,0,-0.8,94,4.058,4.056,0,0,0,0,0.968,68.9,3.28084E-5,0,11,AutoTakeoff,"Conexión por cable OTG Gafas en modo de conexión por cable OTG. Sal de este modo antes de conectarlas al ordenador. Despegando..."
5800,2025-05-23 15:34:44,0,0,0,,,3.28084E-5,0,0,0,0,1,0,8.114,3.28084E-5,0,0,0,0,0,-0.671082,88.6, 0.1, -1.6,0,0,981,1086,1024,1073,-7,9,0,7,90.2,0,-1.4,94,4.058,4.056,0,0,0,0,0.968,68.9,3.28084E-5,0,11,AutoTakeoff,"Conexión por cable OTG Gafas en modo de conexión por cable OTG. Sal de este modo antes de conectarlas al ordenador. Despegando..."
5900,2025-05-23 15:34:44,0,0,0.328084,,,0.3281168084,0.328084,0,0,0,1,0,8.114,0.3281168084,0.328084,0,0,0,0,-0.671082,88.6, 0, -1.5,0,0,981,1086,1024,1073,-7,9,0,7,90.1,0,-0.7,94,4.058,4.056,0,0,0,0,0.968,68.9,0.3281168084,0.328084,11,AutoTakeoff,"Conexión por cable OTG Gafas en modo de conexión por cable OTG. Sal de este modo antes de conectarlas al ordenador. Despegando..."
6000,2025-05-23 15:34:44,0,0,0.328084,,,0.3281168084,0.328084,0,0,0,1,0,8.114,0.3281168084,0.328084,0,0,0,0,-0.671082,88.5, 0.2, -0.9,0,0,981,1086,1024,1073,-7,9,0,7,90.1,0,-0.5,94,4.058,4.056,0,0,0,0,0.968,68.9,0.3281168084,0.328084,11,AutoTakeoff,"Conexión por cable OTG Gafas en modo de conexión por cable OTG. Sal de este modo antes de conectarlas al ordenador. Despegando..."
6100,2025-05-23 15:34:44,0,0,0.328084,,,0.3281168084,0.328084,0,0,0,1,0,7.747,0.3281168084,0.328084,0,0,0,0,-0.671082,88.5, 0.4, -0.8,0,0,981,1086,1024,1073,-7,9,0,7,90.1,0,-0.2,94,3.873,3.874,0,0,0,0,5.062,68.9,0.3281168084,0.328084,11,AutoTakeoff,"Conexión por cable OTG Gafas en modo de conexión por cable OTG. Sal de este modo antes de conectarlas al ordenador. Despegando..."
6200,2025-05-23 15:34:44,0,0,0.656168,,,0.6562008084,0.656168,0,0,0,1,0,7.747,0.6562008084,0.656168,0,0,0,0,-0.671082,88.5, 0.6, -0.4,0,0,981,1086,1024,1073,-7,9,0,7,90.1,0,0,94,3.873,3.874,0,0,0,0,5.062,68.9,0.6562008084,0.656168,11,AutoTakeoff,"Conexión por cable OTG Gafas en modo de conexión por cable OTG. Sal de este modo antes de conectarlas al ordenador. Despegando..."
6300,2025-05-23 15:34:44,0,0,0.656168,,,0.6562008084,0.656168,0,0,0,1,0,7.747,0.6562008084,0.656168,0,0,0,0,-0.894776,88.6, 0.7, -0.1,0,0,981,1086,1024,1073,-7,9,0,7,90.1,0,0.3,94,3.873,3.874,0,0,0,0,5.062,68.9,0.6562008084,0.656168,11,AutoTakeoff,"Conexión por cable OTG Gafas en modo de conexión por cable OTG. Sal de este modo antes de conectarlas al ordenador. Despegando..."
6400,2025-05-23 15:34:44,0,0,0.984252,,,0.9842848084,0.984252,0,0,0,1,0,7.747,0.9842848084,0.984252,0,0,0,0,-0.894776,88.5, 0.6, 0.1,0,0,981,1086,1024,1073,-7,9,0,7,90.1,0,0.4,94,3.873,3.874,0,0,0,0,5.062,68.9,0.9842848084,0.984252,11,AutoTakeoff,"Conexión por cable OTG Gafas en modo de conexión por cable OTG. Sal de este modo antes de conectarlas al ordenador. Despegando..."
6500,2025-05-23 15:34:44,0,0,0.984252,,,0.9842848084,0.984252,0,0,0,1,0,7.747,0.9842848084,0.984252,0,0,0,0,-0.894776,88.5, 0.2, 0,0,0,981,1086,1024,1073,-7,9,0,7,90,0,0.3,94,3.873,3.874,0,0,0,0,5.062,68.9,0.9842848084,0.984252,11,AutoTakeoff,"Conexión por cable OTG Gafas en modo de conexión por cable OTG. Sal de este modo antes de conectarlas al ordenador. Despegando..."
6600,2025-05-23 15:34:44,0,0,1.312336,,,1.3123688084,1.312336,0,0,0,1,0,7.747,1.3123688084,1.312336,0,0,0,0,-0.894776,88.5, -0.4, 0,0,0,981,1086,1024,1073,-7,9,0,7,90.1,0,0,94,3.873,3.874,0,0,0,0,5.062,68.9,1.3123688084,1.312336,11,AutoTakeoff,"Conexión por cable OTG Gafas en modo de conexión por cable OTG. Sal de este modo antes de conectarlas al ordenador. Despegando..."
6700,2025-05-23 15:34:44,0,0,1.312336,,,1.3123688084,1.312336,0,0,0,0,0,7.747,1.3123688084,1.312336,0,0,0,0,-1.11847,88.5, -0.8, -0.3,0,0,981,1086,1024,1073,-7,9,0,7,90,0,0,94,3.873,3.874,0,0,0,0,5.062,68.9,1.3123688084,1.312336,11,AutoTakeoff,"Conexión por cable OTG Gafas en modo de conexión por cable OTG. Sal de este modo antes de conectarlas al ordenador. Despegando..."
6800,2025-05-23 15:34:45,0,0,1.64042,,,1.6404528084,1.312336,0,0,0,0,0,7.747,1.6404528084,1.64042,0,0,0,0,-1.11847,88.5, -0.6, -0.3,0,0,981,1086,1024,1073,-7,9,0,7,90,0,0,94,3.873,3.874,0,0,0,0,5.062,68.9,1.6404528084,1.64042,11,AutoTakeoff,"Conexión por cable OTG Gafas en modo de conexión por cable OTG. Sal de este modo antes de conectarlas al ordenador. Despegando..."
6900,2025-05-23 15:34:45,0,0,1.64042,,,1.6404528084,1.64042,0,0,0,0,0,7.747,1.6404528084,1.64042,0,0,0,0,-1.11847,88.5, -0.2, -0.3,0,0,981,1086,1024,1073,-7,9,0,7,90,0,0,94,3.873,3.874,0,0,0,0,5.062,68.9,1.6404528084,1.64042,11,AutoTakeoff,"Conexión por cable OTG Gafas en modo de conexión por cable OTG. Sal de este modo antes de conectarlas al ordenador. Despegando..."
7000,2025-05-23 15:34:45,0,0,1.968504,,,1.9685368084,1.968504,0,0,0,0,0,7.747,1.9685368084,1.968504,0,0,0,0,-1.11847,88.5, 0.1, -0.3,0,0,981,1086,1024,1073,-7,9,0,7,90,0,0,94,3.873,3.874,0,0,0,0,5.062,68.9,1.9685368084,1.968504,11,AutoTakeoff,"Conexión por cable OTG Gafas en modo de conexión por cable OTG. Sal de este modo antes de conectarlas al ordenador. Despegando..."
7100,2025-05-23 15:34:45,0,0,1.968504,,,1.9685368084,1.968504,0,0,0,0,0,7.723,1.9685368084,1.968504,0,0,0,0,-1.11847,88.6, 0.5, -0.4,0,0,981,1086,1024,1073,-7,9,0,7,90.1,0,-0.1,94,3.862,3.861,0,0,0,0,5.051,69.08,1.9685368084,1.968504,11,AutoTakeoff,"Conexión por cable OTG Gafas en modo de conexión por cable OTG. Sal de este modo antes de conectarlas al ordenador. Despegando..."
7200,2025-05-23 15:34:45,0,0,2.296588,,,2.2966208084,1.968504,0,0,0,0,0,7.723,2.2966208084,2.296588,0,0,0,0,-1.11847,88.6, 0.5, -0.5,0,0,981,1086,1024,1073,-7,9,0,7,90.1,0,-0.2,94,3.862,3.861,0,0,0,0,5.051,69.08,2.2966208084,2.296588,11,AutoTakeoff,"Conexión por cable OTG Gafas en modo de conexión por cable OTG. Sal de este modo antes de conectarlas al ordenador. Despegando..."
7300,2025-05-23 15:34:45,0,0,2.296588,,,2.2966208084,2.296588,0,0,0,0,0,7.723,2.2966208084,2.296588,0,0,0,0,-1.11847,88.6, 0.3, -0.6,0,0,981,1086,1024,1073,-7,9,0,7,90,0,-0.3,94,3.862,3.861,0,0,0,0,5.051,69.08,2.2966208084,2.296588,11,AutoTakeoff,"Conexión por cable OTG Gafas en modo de conexión por cable OTG. Sal de este modo antes de conectarlas al ordenador. Despegando..."
7400,2025-05-23 15:34:45,0,0,2.624672,,,2.6247048084,2.624672,0,0,0,0,0,7.723,2.6247048084,2.624672,0,0,0,0,-1.11847,88.6, 0.1, -0.6,0,0,981,1086,1024,1073,-7,9,0,7,90,0,-0.3,94,3.862,3.861,0,0,0,0,5.051,69.08,2.6247048084,2.624672,11,AutoTakeoff,"Conexión por cable OTG Gafas en modo de conexión por cable OTG. Sal de este modo antes de conectarlas al ordenador. Despegando..."
7500,2025-05-23 15:34:45,0,0,2.624672,,,2.6247048084,2.624672,0,0,0,0,0,7.723,2.6247048084,2.624672,0,0,0,0,-1.11847,88.6, 0.1, -0.5,0,0,981,1086,1024,1073,-7,9,0,7,90,0,-0.1,94,3.862,3.861,0,0,0,0,5.051,69.08,2.6247048084,2.624672,11,AutoTakeoff,"Conexión por cable OTG Gafas en modo de conexión por cable OTG. Sal de este modo antes de conectarlas al ordenador. Despegando..."
7600,2025-05-23 15:34:45,0,0,2.952756,,,2.9527888084,2.952756,0,0,0,0,0,7.723,2.9527888084,2.952756,0,0,0,0,-0.894776,88.5, 0.2, -0.4,0,0,981,1086,1024,1073,-7,9,0,7,90,0,0,94,3.862,3.861,0,0,0,0,5.051,69.08,2.9527888084,2.952756,11,AutoTakeoff,"Conexión por cable OTG Gafas en modo de conexión por cable OTG. Sal de este modo antes de conectarlas al ordenador. Despegando..."
7700,2025-05-23 15:34:46,0,0,2.952756,,,2.9527888084,2.952756,0,0,0,0,0,7.723,2.9527888084,2.952756,0,0,0,0,-0.894776,88.5, 0.5, -0.3,0,0,981,1086,1024,1073,-7,9,0,7,90,0,0,94,3.862,3.861,0,0,0,0,5.051,69.08,2.9527888084,2.952756,11,AutoTakeoff,"Conexión por cable OTG Gafas en modo de conexión por cable OTG. Sal de este modo antes de conectarlas al ordenador. Despegando..."
7800,2025-05-23 15:34:46,0,0,3.28084,,,3.2808728084,3.28084,0,0,0,0,0,7.723,3.2808728084,3.28084,0,0,0,0,-0.894776,88.5, 0.6, -0.2,0,0,981,1086,1024,1073,-7,9,0,7,90,0,0,94,3.862,3.861,0,0,0,0,5.051,69.08,3.2808728084,3.28084,11,AutoTakeoff,"Conexión por cable OTG Gafas en modo de conexión por cable OTG. Sal de este modo antes de conectarlas al ordenador. Despegando..."
7900,2025-05-23 15:34:46,0,0,3.28084,,,3.2808728084,3.28084,0,0,0,0,0,7.723,3.2808728084,3.28084,0,0,0,0,-0.894776,88.5, 0.7, -0.2,0,0,1002,1082,1024,996,-3,9,0,-4,89.9,0,0.1,94,3.862,3.861,0,0,0,0,5.051,69.08,3.2808728084,3.28084,11,AutoTakeoff,"Conexión por cable OTG Gafas en modo de conexión por cable OTG. Sal de este modo antes de conectarlas al ordenador. Despegando..."
8000,2025-05-23 15:34:46,0,0,3.608924,,,3.6089568084,3.608924,0,0,0,0,0,7.723,3.6089568084,3.608924,0,0,0,0,-0.894776,88.5, 0.7, -0.2,0,0,1001,1082,1024,1021,-3,9,0,-0,89.9,-1.6,0,94,3.862,3.861,0,0,0,0,5.051,69.08,3.6089568084,3.608924,11,AutoTakeoff,"Conexión por cable OTG Gafas en modo de conexión por cable OTG. Sal de este modo antes de conectarlas al ordenador. Despegando..."
8100,2025-05-23 15:34:46,0,0,3.608924,,,3.6089568084,3.608924,0,0,0,0,0,7.705,3.6089568084,3.608924,0,0,0,0,-0.671082,88.5, 0.5, -0.2,0,0,1001,1082,1024,1021,-3,9,0,-0,89.9,-3,0,94,3.853,3.852,0,0,0,0,5.077,69.08,3.6089568084,3.608924,6,P-GPS,"Conexión por cable OTG Gafas en modo de conexión por cable OTG. Sal de este modo antes de conectarlas al ordenador. Despegando.... Gafas en modo de conexión por cable OTG. Sal de este modo antes de conectarlas al ordenador. Presiona ligeramente el acelerador para controlar"
8200,2025-05-23 15:34:46,0,0,3.608924,,,3.6089568084,3.937008,0,0,0,0,0,7.705,3.6089568084,3.608924,0,0,0,0,-0.223694,88.5, 0.4, -0.3,0,0,1001,1083,1024,1021,-3,9,0,-0,89.9,-3.5,0,94,3.853,3.852,0,0,0,0,5.077,69.08,3.6089568084,3.608924,6,P-GPS,"Conexión por cable OTG Gafas en modo de conexión por cable OTG. Sal de este modo antes de conectarlas al ordenador. Presiona ligeramente el acelerador para controlar la orientación de la aeronave. Mantén pulsado el botón de bloqueo para que la aeronave aterrice"
8300,2025-05-23 15:34:46,0,0,3.608924,,,3.6089568084,3.937008,0,0,0,0,0,7.705,3.6089568084,3.608924,0,0,0,0,-0.223694,88.5, 0.4, -0.3,0,0,1001,1082,1024,1021,-3,9,0,-0,89.9,-3.7,0,94,3.853,3.852,0,0,0,0,5.077,69.08,3.6089568084,3.608924,6,P-GPS,"Conexión por cable OTG Gafas en modo de conexión por cable OTG. Sal de este modo antes de conectarlas al ordenador. Presiona ligeramente el acelerador para controlar la orientación de la aeronave. Mantén pulsado el botón de bloqueo para que la aeronave aterrice"
8400,2025-05-23 15:34:46,0,0,3.608924,,,3.6089568084,3.937008,0,0,0,0,0,7.705,3.6089568084,3.608924,0,0,0,0,0,88.5, 0.3, -0.3,0,0,1001,1083,1024,1022,-3,9,0,-0,89.9,-3.7,-0.1,94,3.853,3.852,0,0,0,0,5.077,69.08,3.6089568084,3.608924,6,P-GPS,"Conexión por cable OTG Gafas en modo de conexión por cable OTG. Sal de este modo antes de conectarlas al ordenador. Presiona ligeramente el acelerador para controlar la orientación de la aeronave. Mantén pulsado el botón de bloqueo para que la aeronave aterrice"
8500,2025-05-23 15:34:46,0,0,3.608924,,,3.6089568084,3.937008,0,0,0,0,0,7.705,3.6089568084,3.608924,0,0,0,0,0,88.5, 0.2, -0.4,0,0,1001,1083,1024,1021,-3,9,0,-0,89.9,-3.7,-0.2,94,3.853,3.852,0,0,0,0,5.077,69.08,3.6089568084,3.608924,6,P-GPS,"Conexión por cable OTG Gafas en modo de conexión por cable OTG. Sal de este modo antes de conectarlas al ordenador. Presiona ligeramente el acelerador para controlar la orientación de la aeronave. Mantén pulsado el botón de bloqueo para que la aeronave aterrice"
8600,2025-05-23 15:34:46,0,0,3.608924,,,3.6089568084,3.937008,0,0,0,0,0,7.705,3.6089568084,3.608924,0,0,0,0,0,88.5, 0.2, -0.5,0,0,1001,1082,1024,1021,-3,9,0,-0,89.8,-3.7,-0.2,94,3.853,3.852,0,0,0,0,5.077,69.08,3.6089568084,3.608924,6,P-GPS,"Conexión por cable OTG Gafas en modo de conexión por cable OTG. Sal de este modo antes de conectarlas al ordenador. Presiona ligeramente el acelerador para controlar la orientación de la aeronave. Mantén pulsado el botón de bloqueo para que la aeronave aterrice"
8700,2025-05-23 15:34:46,0,0,3.608924,,,3.6089568084,3.937008,0,0,0,0,0,7.705,3.6089568084,3.608924,0,0,0,0,0,88.5, 0.2, -0.6,0,0,1002,1083,1024,1021,-3,9,0,-0,89.8,-3.7,-0.4,94,3.853,3.852,0,0,0,0,5.077,69.08,3.6089568084,3.608924,6,P-GPS,"Conexión por cable OTG Gafas en modo de conexión por cable OTG. Sal de este modo antes de conectarlas al ordenador. Presiona ligeramente el acelerador para controlar la orientación de la aeronave. Mantén pulsado el botón de bloqueo para que la aeronave aterrice"
8800,2025-05-23 15:34:47,0,0,3.608924,,,3.6089568084,3.937008,0,0,0,0,0,7.705,3.6089568084,3.608924,0,0,0,0,0,88.4, 0.3, -0.7,0,0,1002,1083,1024,1021,-3,9,0,-0,89.8,-3.7,-0.5,94,3.853,3.852,0,0,0,0,5.077,69.08,3.6089568084,3.608924,6,P-GPS,"Conexión por cable OTG Gafas en modo de conexión por cable OTG. Sal de este modo antes de conectarlas al ordenador. Presiona ligeramente el acelerador para controlar la orientación de la aeronave. Mantén pulsado el botón de bloqueo para que la aeronave aterrice"
8900,2025-05-23 15:34:47,0,0,3.608924,,,3.6089568084,3.937008,0,0,0,0,0,7.705,3.6089568084,3.608924,0,0,0,0,0,88.4, 0.3, -0.8,0,0,1001,1082,1024,1022,-3,9,0,-0,89.8,-3.6,-0.6,94,3.853,3.852,0,0,0,0,5.077,69.08,3.6089568084,3.608924,6,P-GPS,"Conexión por cable OTG Gafas en modo de conexión por cable OTG. Sal de este modo antes de conectarlas al ordenador. Presiona ligeramente el acelerador para controlar la orientación de la aeronave. Mantén pulsado el botón de bloqueo para que la aeronave aterrice"
9000,2025-05-23 15:34:47,0,0,3.608924,,,3.6089568084,3.937008,0,0,0,0,0,7.705,3.6089568084,3.608924,0,0,0,0,0,88.5, 0.2, -0.9,0,0,1002,1082,1024,1021,-3,9,0,-0,89.8,-3.7,-0.8,94,3.853,3.852,0,0,0,0,5.077,69.08,3.6089568084,3.608924,6,P-GPS,"Conexión por cable OTG Gafas en modo de conexión por cable OTG. Sal de este modo antes de conectarlas al ordenador. Presiona ligeramente el acelerador para controlar la orientación de la aeronave. Mantén pulsado el botón de bloqueo para que la aeronave aterrice"
9100,2025-05-23 15:34:47,0,0,3.608924,,,3.6089568084,3.937008,0,0,0,0,0,7.711,3.6089568084,3.608924,0,0,0,0,0,88.5, 0.1, -1.1,0,0,1001,1082,1024,1021,-3,9,0,-0,89.8,-3.7,-0.8,94,3.856,3.855,0,0,0,0,4.835,69.08,3.6089568084,3.608924,6,P-GPS,"Conexión por cable OTG Gafas en modo de conexión por cable OTG. Sal de este modo antes de conectarlas al ordenador. Presiona ligeramente el acelerador para controlar la orientación de la aeronave. Mantén pulsado el botón de bloqueo para que la aeronave aterrice"
9200,2025-05-23 15:34:47,0,0,3.608924,,,3.6089568084,3.937008,0,0,0,0,0,7.711,3.6089568084,3.608924,0,0,0,0,0,88.4, 0.1, -1,0,0,1002,1080,1024,1020,-3,8,0,-1,89.8,-3.7,-0.8,94,3.856,3.855,0,0,0,0,4.835,69.08,3.6089568084,3.608924,6,P-GPS,"Conexión por cable OTG Gafas en modo de conexión por cable OTG. Sal de este modo antes de conectarlas al ordenador. Presiona ligeramente el acelerador para controlar la orientación de la aeronave. Mantén pulsado el botón de bloqueo para que la aeronave aterrice"
9300,2025-05-23 15:34:47,0,0,3.608924,,,3.6089568084,3.937008,0,0,0,0,0,7.711,3.6089568084,3.608924,0,0,0,0,0,88.4, 0, -1.1,0,0,999,1080,1024,1021,-4,8,0,-0,89.8,-3.7,-0.8,94,3.856,3.855,0,0,0,0,4.835,69.08,3.6089568084,3.608924,6,P-GPS,"Conexión por cable OTG Gafas en modo de conexión por cable OTG. Sal de este modo antes de conectarlas al ordenador. Presiona ligeramente el acelerador para controlar la orientación de la aeronave. Mantén pulsado el botón de bloqueo para que la aeronave aterrice"
9400,2025-05-23 15:34:47,0,0,3.608924,,,3.6089568084,3.937008,0,0,0,0,0,7.711,3.6089568084,3.608924,0,0,0,0,0,88.4, 0, -1.1,0,0,996,1076,1024,1021,-4,8,0,-0,89.8,-3.9,-0.9,94,3.856,3.855,0,0,0,0,4.835,69.08,3.6089568084,3.608924,6,P-GPS,"Conexión por cable OTG Gafas en modo de conexión por cable OTG. Sal de este modo antes de conectarlas al ordenador. Presiona ligeramente el acelerador para controlar la orientación de la aeronave. Mantén pulsado el botón de bloqueo para que la aeronave aterrice"
9500,2025-05-23 15:34:47,0,0,3.608924,,,3.6089568084,3.937008,0,0,0,0,0,7.711,3.6089568084,3.608924,0,0,0,0,0,88.4, 0, -1,0,0,994,1072,1024,1022,-5,7,0,-0,89.7,-4.4,-0.9,94,3.856,3.855,0,0,0,0,4.835,69.08,3.6089568084,3.608924,6,P-GPS,"Conexión por cable OTG Gafas en modo de conexión por cable OTG. Sal de este modo antes de conectarlas al ordenador. Presiona ligeramente el acelerador para controlar la orientación de la aeronave. Mantén pulsado el botón de bloqueo para que la aeronave aterrice"
9600,2025-05-23 15:34:47,0,0,3.608924,,,3.6089568084,3.937008,0,0,0,0,0,7.711,3.6089568084,3.608924,0,0,0,0,0,88.4, 0, -1.1,0,0,1008,1078,1024,1020,-2,8,0,-1,89.8,-4.6,-0.8,94,3.856,3.855,0,0,0,0,4.835,69.08,3.6089568084,3.608924,6,P-GPS,"Conexión por cable OTG Gafas en modo de conexión por cable OTG. Sal de este modo antes de conectarlas al ordenador. Presiona ligeramente el acelerador para controlar la orientación de la aeronave. Mantén pulsado el botón de bloqueo para que la aeronave aterrice"
9700,2025-05-23 15:34:47,0,0,3.608924,,,3.6089568084,3.937008,0,0,0,0,0,7.711,3.6089568084,3.608924,0,0,0,0,0,88.4, 0.1, -0.9,0,0,1011,1079,1024,1017,-2,8,0,-1,89.8,-3.5,-0.7,94,3.856,3.855,0,0,0,0,4.835,69.08,3.6089568084,3.608924,6,P-GPS,"Conexión por cable OTG Gafas en modo de conexión por cable OTG. Sal de este modo antes de conectarlas al ordenador. Presiona ligeramente el acelerador para controlar la orientación de la aeronave. Mantén pulsado el botón de bloqueo para que la aeronave aterrice"
9800,2025-05-23 15:34:48,0,0,3.608924,,,3.6089568084,3.937008,0,0,0,0,0,7.711,3.6089568084,3.608924,0,0,0,0,0,88.4, 0.1, -0.9,0,0,1012,1075,1024,1012,-2,8,0,-2,89.8,-2.5,-0.7,94,3.856,3.855,0,0,0,0,4.835,69.08,3.6089568084,3.608924,6,P-GPS,"Conexión por cable OTG Gafas en modo de conexión por cable OTG. Sal de este modo antes de conectarlas al ordenador. Presiona ligeramente el acelerador para controlar la orientación de la aeronave. Mantén pulsado el botón de bloqueo para que la aeronave aterrice"
9900,2025-05-23 15:34:48,0,0,3.608924,,,3.6089568084,3.937008,0,0,0,0,0,7.711,3.6089568084,3.608924,0,0,0,0,0,88.4, 0, -0.9,0,0,1007,1072,1024,1014,-3,7,0,-2,89.7,-2.1,-0.7,94,3.856,3.855,0,0,0,0,4.835,69.08,3.6089568084,3.608924,6,P-GPS,"Conexión por cable OTG Gafas en modo de conexión por cable OTG. Sal de este modo antes de conectarlas al ordenador. Presiona ligeramente el acelerador para controlar la orientación de la aeronave. Mantén pulsado el botón de bloqueo para que la aeronave aterrice"
10000,2025-05-23 15:34:48,0,0,3.608924,,,3.6089568084,3.937008,0,0,0,0,0,7.711,3.6089568084,3.608924,0,0,0,0,0,88.7, 0, -0.9,0,0,1003,1071,1024,1014,-3,7,0,-2,91,-2.5,-0.7,94,3.856,3.855,0,0,0,0,4.835,69.08,3.6089568084,3.608924,6,P-GPS,"Conexión por cable OTG Gafas en modo de conexión por cable OTG. Sal de este modo antes de conectarlas al ordenador. Presiona ligeramente el acelerador para controlar la orientación de la aeronave. Mantén pulsado el botón de bloqueo para que la aeronave aterrice"
10100,2025-05-23 15:34:48,0,0,3.608924,,,3.6089568084,3.937008,0,0,0,0,0,7.7,3.6089568084,3.608924,0,0,0,0,0,90.5, 0, -0.9,0,0,1001,1070,1024,1012,-3,7,0,-2,92.9,-3.1,-0.7,94,3.85,3.85,0,0,0,0,4.852,69.26,3.6089568084,3.608924,6,P-GPS,"Conexión por cable OTG Gafas en modo de conexión por cable OTG. Sal de este modo antes de conectarlas al ordenador. Presiona ligeramente el acelerador para controlar la orientación de la aeronave. Mantén pulsado el botón de bloqueo para que la aeronave aterrice"
10200,2025-05-23 15:34:48,0,0,3.608924,,,3.6089568084,3.937008,0,0,0,0,0,7.7,3.6089568084,3.608924,0,0,0,0,0,92.4, 0, -0.9,0,0,1002,1070,1024,1011,-3,7,0,-2,94.7,-3.5,-0.6,94,3.85,3.85,0,0,0,0,4.852,69.26,3.6089568084,3.608924,6,P-GPS,"Conexión por cable OTG Gafas en modo de conexión por cable OTG. Sal de este modo antes de conectarlas al ordenador. Presiona ligeramente el acelerador para controlar la orientación de la aeronave. Mantén pulsado el botón de bloqueo para que la aeronave aterrice"
10300,2025-05-23 15:34:48,0,0,3.608924,,,3.6089568084,3.937008,0,0,0,0,0,7.7,3.6089568084,3.608924,0,0,0,0,0,94.1, 0, -0.8,0,0,1006,1072,1024,1012,-3,7,0,-2,96.4,-3.6,-0.5,94,3.85,3.85,0,0,0,0,4.852,69.26,3.6089568084,3.608924,6,P-GPS,"Conexión por cable OTG Gafas en modo de conexión por cable OTG. Sal de este modo antes de conectarlas al ordenador. Presiona ligeramente el acelerador para controlar la orientación de la aeronave. Mantén pulsado el botón de bloqueo para que la aeronave aterrice"
10400,2025-05-23 15:34:48,0,0,3.608924,,,3.6089568084,3.937008,0,0,0,0,0,7.7,3.6089568084,3.608924,0,0,0,0,0,95.8, 0, -0.7,0,0,1008,1070,1024,1012,-2,7,0,-2,97.6,-3.2,-0.5,94,3.85,3.85,0,0,0,0,4.852,69.26,3.6089568084,3.608924,6,P-GPS,"Conexión por cable OTG Gafas en modo de conexión por cable OTG. Sal de este modo antes de conectarlas al ordenador. Presiona ligeramente el acelerador para controlar la orientación de la aeronave. Mantén pulsado el botón de bloqueo para que la aeronave aterrice"
10500,2025-05-23 15:34:48,0,0,3.608924,,,3.6089568084,3.937008,0,0,0,0,0,7.7,3.6089568084,3.608924,0,0,0,0,0,96.2, 0, -0.6,0,0,1008,1071,1024,1012,-2,7,0,-2,97.6,-2.8,-0.4,94,3.85,3.85,0,0,0,0,4.852,69.26,3.6089568084,3.608924,6,P-GPS,"Conexión por cable OTG Gafas en modo de conexión por cable OTG. Sal de este modo antes de conectarlas al ordenador. Presiona ligeramente el acelerador para controlar la orientación de la aeronave. Mantén pulsado el botón de bloqueo para que la aeronave aterrice"
10600,2025-05-23 15:34:48,0,0,3.608924,,,3.6089568084,3.937008,0,0,0,0,0,7.7,3.6089568084,3.608924,0,0,0,0,0,96.1, 0, -0.6,0,0,1010,1069,1024,1012,-2,7,0,-2,97.6,-2.6,-0.4,94,3.85,3.85,0,0,0,0,4.852,69.26,3.6089568084,3.608924,6,P-GPS,"Conexión por cable OTG Gafas en modo de conexión por cable OTG. Sal de este modo antes de conectarlas al ordenador. Presiona ligeramente el acelerador para controlar la orientación de la aeronave. Mantén pulsado el botón de bloqueo para que la aeronave aterrice"
10700,2025-05-23 15:34:49,0,0,3.608924,,,3.6089568084,3.937008,0,0,0,0,0,7.7,3.6089568084,3.608924,0,0,0,0,0,96.1, 0, -0.6,0,0,1009,1068,1024,1011,-2,7,0,-2,97.6,-2.4,-0.3,94,3.85,3.85,0,0,0,0,4.852,69.26,3.6089568084,3.608924,6,P-GPS,"Conexión por cable OTG Gafas en modo de conexión por cable OTG. Sal de este modo antes de conectarlas al ordenador. Presiona ligeramente el acelerador para controlar la orientación de la aeronave. Mantén pulsado el botón de bloqueo para que la aeronave aterrice"
10800,2025-05-23 15:34:49,0,0,3.608924,,,3.6089568084,3.937008,0,0,0,0,0,7.7,3.6089568084,3.608924,0,0,0,0,0,96.1, 0.1, -0.5,0,0,1009,1060,1024,1009,-2,5,0,-2,97.6,-2.4,-0.2,94,3.85,3.85,0,0,0,0,4.852,69.26,3.6089568084,3.608924,6,P-GPS,"Conexión por cable OTG Gafas en modo de conexión por cable OTG. Sal de este modo antes de conectarlas al ordenador. Presiona ligeramente el acelerador para controlar la orientación de la aeronave. Mantén pulsado el botón de bloqueo para que la aeronave aterrice"
10900,2025-05-23 15:34:49,0,0,3.608924,,,3.6089568084,3.937008,0,0,0,0,0,7.7,3.6089568084,3.608924,0,0,0,0,0,96, 0.2, -0.4,0,0,1009,1059,1024,1010,-2,5,0,-2,97.6,-2.4,-0.3,94,3.85,3.85,0,0,0,0,4.852,69.26,3.6089568084,3.608924,6,P-GPS,"Conexión por cable OTG Gafas en modo de conexión por cable OTG. Sal de este modo antes de conectarlas al ordenador. Presiona ligeramente el acelerador para controlar la orientación de la aeronave. Mantén pulsado el botón de bloqueo para que la aeronave aterrice"
11000,2025-05-23 15:34:49,0,0,3.608924,,,3.6089568084,3.937008,0,0,0,0,0,7.7,3.6089568084,3.608924,0,0,0,0,0,96, 0.2, -0.6,0,0,1009,1060,1024,1010,-2,5,0,-2,97.5,-2.4,-0.3,94,3.85,3.85,0,0,0,0,4.852,69.26,3.6089568084,3.608924,6,P-GPS,"Conexión por cable OTG Gafas en modo de conexión por cable OTG. Sal de este modo antes de conectarlas al ordenador. Presiona ligeramente el acelerador para controlar la orientación de la aeronave. Mantén pulsado el botón de bloqueo para que la aeronave aterrice"
11100,2025-05-23 15:34:49,0,0,3.608924,,,3.6089568084,3.937008,0,0,0,0,0,7.694,3.6089568084,3.608924,0,0,0,0,0,96, 0.1, -0.5,0,0,1010,1062,1024,1011,-2,6,0,-2,97.9,-2.4,-0.4,94,3.847,3.847,0,0,0,0,4.867,69.44,3.6089568084,3.608924,6,P-GPS,"Conexión por cable OTG Gafas en modo de conexión por cable OTG. Sal de este modo antes de conectarlas al ordenador. Presiona ligeramente el acelerador para controlar la orientación de la aeronave. Mantén pulsado el botón de bloqueo para que la aeronave aterrice"
11200,2025-05-23 15:34:49,0,0,3.608924,,,3.6089568084,3.937008,0,0,0,0,0,7.694,3.6089568084,3.608924,0,0,0,0,0,96.9, 0.1, -0.7,0,0,1011,1069,1024,1010,-2,7,0,-2,99.2,-2.2,-0.7,94,3.847,3.847,0,0,0,0,4.867,69.44,3.6089568084,3.608924,6,P-GPS,"Conexión por cable OTG Gafas en modo de conexión por cable OTG. Sal de este modo antes de conectarlas al ordenador. Presiona ligeramente el acelerador para controlar la orientación de la aeronave. Mantén pulsado el botón de bloqueo para que la aeronave aterrice"
11300,2025-05-23 15:34:49,0,0,3.608924,,,3.6089568084,3.937008,0,0,0,0,0,7.694,3.6089568084,3.608924,0,0,0,0,0,98.2, 0.1, -0.9,0,0,1011,1074,1024,1010,-2,8,0,-2,100,-2.1,-0.7,94,3.847,3.847,0,0,0,0,4.867,69.44,3.6089568084,3.608924,6,P-GPS,"Conexión por cable OTG Gafas en modo de conexión por cable OTG. Sal de este modo antes de conectarlas al ordenador. Presiona ligeramente el acelerador para controlar la orientación de la aeronave. Mantén pulsado el botón de bloqueo para que la aeronave aterrice"
11400,2025-05-23 15:34:49,0,0,3.608924,,,3.6089568084,3.937008,0,0,0,0,0,7.694,3.6089568084,3.608924,0,0,0,0,0,98.4, 0.1, -0.9,0,0,1011,1076,1024,1009,-2,8,0,-2,100,-2,-0.7,94,3.847,3.847,0,0,0,0,4.867,69.44,3.6089568084,3.608924,6,P-GPS,"Conexión por cable OTG Gafas en modo de conexión por cable OTG. Sal de este modo antes de conectarlas al ordenador. Presiona ligeramente el acelerador para controlar la orientación de la aeronave. Mantén pulsado el botón de bloqueo para que la aeronave aterrice"
11500,2025-05-23 15:34:49,0,0,3.608924,,,3.6089568084,3.937008,0,0,0,0,0,7.694,3.6089568084,3.608924,0,0,0,0,0,98.3, 0, -0.9,0,0,1010,1074,1024,1008,-2,8,0,-2,100,-2,-0.6,94,3.847,3.847,0,0,0,0,4.867,69.44,3.6089568084,3.608924,6,P-GPS,"Conexión por cable OTG Gafas en modo de conexión por cable OTG. Sal de este modo antes de conectarlas al ordenador. Presiona ligeramente el acelerador para controlar la orientación de la aeronave. Mantén pulsado el botón de bloqueo para que la aeronave aterrice"
11600,2025-05-23 15:34:49,0,0,3.608924,,,3.6089568084,3.937008,0,0,0,0,0,7.694,3.6089568084,3.608924,0,0,0,0,0,98.3, 0, -0.8,0,0,1010,1070,1024,1009,-2,7,0,-2,100,-2.1,-0.6,94,3.847,3.847,0,0,0,0,4.867,69.44,3.6089568084,3.608924,6,P-GPS,"Conexión por cable OTG Gafas en modo de conexión por cable OTG. Sal de este modo antes de conectarlas al ordenador. Presiona ligeramente el acelerador para controlar la orientación de la aeronave. Mantén pulsado el botón de bloqueo para que la aeronave aterrice"
11700,2025-05-23 15:34:49,0,0,3.608924,,,3.6089568084,3.937008,0,0,0,0,0,7.694,3.6089568084,3.608924,0,0,0,0,0,98.3, 0, -0.8,0,0,1011,1064,1024,1010,-2,6,0,-2,100,-2.1,-0.6,94,3.847,3.847,0,0,0,0,4.867,69.44,3.6089568084,3.608924,6,P-GPS,"Conexión por cable OTG Gafas en modo de conexión por cable OTG. Sal de este modo antes de conectarlas al ordenador. Presiona ligeramente el acelerador para controlar la orientación de la aeronave. Mantén pulsado el botón de bloqueo para que la aeronave aterrice"
11800,2025-05-23 15:34:50,0,0,3.608924,,,3.6089568084,3.937008,0,0,0,0,0,7.694,3.6089568084,3.608924,0,0,0,0,0,98.3, 0, -0.7,0,0,1013,1051,1024,1008,-2,4,0,-2,100,-2.1,-0.4,94,3.847,3.847,0,0,0,0,4.867,69.44,3.6089568084,3.608924,6,P-GPS,"Conexión por cable OTG Gafas en modo de conexión por cable OTG. Sal de este modo antes de conectarlas al ordenador. Presiona ligeramente el acelerador para controlar la orientación de la aeronave. Mantén pulsado el botón de bloqueo para que la aeronave aterrice"
11900,2025-05-23 15:34:50,0,0,3.608924,,,3.6089568084,3.937008,0,0,0,0,0,7.694,3.6089568084,3.608924,0,0,0,0,0,98.3, 0, -0.6,0,0,1014,1044,1024,1007,-2,3,0,-3,100,-1.8,-0.3,94,3.847,3.847,0,0,0,0,4.867,69.44,3.6089568084,3.608924,6,P-GPS,"Conexión por cable OTG Gafas en modo de conexión por cable OTG. Sal de este modo antes de conectarlas al ordenador. Presiona ligeramente el acelerador para controlar la orientación de la aeronave. Mantén pulsado el botón de bloqueo para que la aeronave aterrice"
12000,2025-05-23 15:34:50,0,0,3.608924,,,3.6089568084,3.937008,0,0,0,0,0,7.694,3.6089568084,3.608924,0,0,0,0,0,98.3, 0, -0.5,0,0,1016,1019,1024,997,-1,-1,0,-4,100.1,-1.6,-0.3,94,3.847,3.847,0,0,0,0,4.867,69.44,3.6089568084,3.608924,6,P-GPS,"Conexión por cable OTG Gafas en modo de conexión por cable OTG. Sal de este modo antes de conectarlas al ordenador. Presiona ligeramente el acelerador para controlar la orientación de la aeronave. Mantén pulsado el botón de bloqueo para que la aeronave aterrice"
12100,2025-05-23 15:34:50,0,0,3.608924,,,3.6089568084,3.937008,0,0,0,0,0,7.68,3.6089568084,3.608924,0,0,0,0,0,98.3, 0, -0.5,0,0,1020,999,1024,988,-1,-4,0,-5,100.1,-1.3,-0.3,94,3.84,3.84,0,0,0,0,4.981,69.44,3.6089568084,3.608924,6,P-GPS,"Conexión por cable OTG Gafas en modo de conexión por cable OTG. Sal de este modo antes de conectarlas al ordenador. Presiona ligeramente el acelerador para controlar la orientación de la aeronave. Mantén pulsado el botón de bloqueo para que la aeronave aterrice"
12200,2025-05-23 15:34:50,0,0,3.608924,,,3.6089568084,3.937008,0,0,0,0,0,7.68,3.6089568084,3.608924,0,0,0,0,0,98.3, 0, -0.5,0,0,1020,991,1024,983,-1,-5,0,-6,99.8,-0.8,-0.3,94,3.84,3.84,0,0,0,0,4.981,69.44,3.6089568084,3.608924,6,P-GPS,"Conexión por cable OTG Gafas en modo de conexión por cable OTG. Sal de este modo antes de conectarlas al ordenador. Presiona ligeramente el acelerador para controlar la orientación de la aeronave. Mantén pulsado el botón de bloqueo para que la aeronave aterrice"
12300,2025-05-23 15:34:50,0,0,3.608924,,,3.6089568084,3.937008,0,0,0,0,0,7.68,3.6089568084,3.608924,0,0,0,0,0,97.7, 0, -0.4,0,0,1022,985,1024,982,-0,-6,0,-6,98.9,-0.5,-0.1,94,3.84,3.84,0,0,0,0,4.981,69.44,3.6089568084,3.608924,6,P-GPS,"Conexión por cable OTG Gafas en modo de conexión por cable OTG. Sal de este modo antes de conectarlas al ordenador. Presiona ligeramente el acelerador para controlar la orientación de la aeronave. Mantén pulsado el botón de bloqueo para que la aeronave aterrice"
12400,2025-05-23 15:34:50,0,0,3.608924,,,3.6089568084,3.937008,0,0,0,0,0,7.68,3.6089568084,3.608924,0,0,0,0,0,96.6, 0, -0.3,0,0,1022,992,1024,983,-0,-5,0,-6,97.7,-0.3,0,94,3.84,3.84,0,0,0,0,4.981,69.44,3.6089568084,3.608924,6,P-GPS,"Conexión por cable OTG Gafas en modo de conexión por cable OTG. Sal de este modo antes de conectarlas al ordenador. Presiona ligeramente el acelerador para controlar la orientación de la aeronave. Mantén pulsado el botón de bloqueo para que la aeronave aterrice"
12500,2025-05-23 15:34:50,0,0,3.608924,,,3.6089568084,3.937008,0,0,0,0,0,7.68,3.6089568084,3.608924,0,0,0,0,0,95.4, 0, -0.2,0,0,1022,999,1024,984,-0,-4,0,-6,96.7,-0.2,0,94,3.84,3.84,0,0,0,0,4.981,69.44,3.6089568084,3.608924,6,P-GPS,"Conexión por cable OTG Gafas en modo de conexión por cable OTG. Sal de este modo antes de conectarlas al ordenador. Presiona ligeramente el acelerador para controlar la orientación de la aeronave. Mantén pulsado el botón de bloqueo para que la aeronave aterrice"
12600,2025-05-23 15:34:50,0,0,3.608924,,,3.6089568084,3.937008,0,0,0,0,0,7.68,3.6089568084,3.608924,0,0,0,0,0,94.8, 0, -0.1,0,0,1021,1000,1024,985,-0,-4,0,-6,96.7,-0.1,0,94,3.84,3.84,0,0,0,0,4.981,69.44,3.6089568084,3.608924,6,P-GPS,"Conexión por cable OTG Gafas en modo de conexión por cable OTG. Sal de este modo antes de conectarlas al ordenador. Presiona ligeramente el acelerador para controlar la orientación de la aeronave. Mantén pulsado el botón de bloqueo para que la aeronave aterrice"
12700,2025-05-23 15:34:50,0,0,3.608924,,,3.6089568084,3.937008,0,0,0,0,0,7.68,3.6089568084,3.608924,0,0,0,0,0,94.9, 0, -0.1,0,0,1021,1000,1024,984,-0,-4,0,-6,96.7,-0.2,0.1,94,3.84,3.84,0,0,0,0,4.981,69.44,3.6089568084,3.608924,6,P-GPS,"Conexión por cable OTG Gafas en modo de conexión por cable OTG. Sal de este modo antes de conectarlas al ordenador. Presiona ligeramente el acelerador para controlar la orientación de la aeronave. Mantén pulsado el botón de bloqueo para que la aeronave aterrice"
12800,2025-05-23 15:34:51,0,0,3.608924,,,3.6089568084,3.937008,0,0,0,0,0,7.68,3.6089568084,3.608924,0,0,0,0,0,94.9, 0, 0,0,0,1021,1004,1024,985,-0,-3,0,-6,96.5,-0.2,0.1,94,3.84,3.84,0,0,0,0,4.981,69.44,3.6089568084,3.608924,6,P-GPS,"Conexión por cable OTG Gafas en modo de conexión por cable OTG. Sal de este modo antes de conectarlas al ordenador. Presiona ligeramente el acelerador para controlar la orientación de la aeronave. Mantén pulsado el botón de bloqueo para que la aeronave aterrice"
12900,2025-05-23 15:34:51,0,0,3.608924,,,3.6089568084,3.937008,0,0,0,0,0,7.68,3.6089568084,3.608924,0,0,0,0,0,94.4, 0, 0,0,0,1022,1006,1024,985,-0,-3,0,-6,96,-0.2,0,94,3.84,3.84,0,0,0,0,4.981,69.44,3.6089568084,3.608924,6,P-GPS,"Conexión por cable OTG Gafas en modo de conexión por cable OTG. Sal de este modo antes de conectarlas al ordenador. Presiona ligeramente el acelerador para controlar la orientación de la aeronave. Mantén pulsado el botón de bloqueo para que la aeronave aterrice"
13000,2025-05-23 15:34:51,0,0,3.608924,,,3.6089568084,3.937008,0,0,0,0,0,7.68,3.6089568084,3.608924,0,0,0,0,0,94, 0, -0.1,0,0,1022,1012,1024,986,-0,-2,0,-6,95.6,-0.1,0.1,94,3.84,3.84,0,0,0,0,4.981,69.44,3.6089568084,3.608924,6,P-GPS,"Conexión por cable OTG Gafas en modo de conexión por cable OTG. Sal de este modo antes de conectarlas al ordenador. Presiona ligeramente el acelerador para controlar la orientación de la aeronave. Mantén pulsado el botón de bloqueo para que la aeronave aterrice"
13100,2025-05-23 15:34:51,0,0,3.608924,,,3.6089568084,3.937008,0,0,0,0,0,7.681,3.6089568084,3.608924,0,0,0,0,0,93.7, 0, 0,0,0,1022,1015,1024,986,-0,-1,0,-6,95.5,-0.1,0.1,94,3.84,3.841,0,0,0,0,4.867,69.8,3.6089568084,3.608924,6,P-GPS,"Conexión por cable OTG Gafas en modo de conexión por cable OTG. Sal de este modo antes de conectarlas al ordenador"
13200,2025-05-23 15:34:51,0,0,3.937008,,,3.9370408084,3.937008,0,0,0,0,0,7.681,3.9370408084,3.937008,0,0,0,0,0,93.7, 0, 0,0,0,1022,1011,1024,986,-0,-2,0,-6,95.6,-0.1,0.1,94,3.84,3.841,0,0,0,0,4.867,69.8,3.9370408084,3.937008,6,P-GPS,"Conexión por cable OTG Gafas en modo de conexión por cable OTG. Sal de este modo antes de conectarlas al ordenador"
13300,2025-05-23 15:34:51,0,0,3.937008,,,3.9370408084,3.937008,0,0,0,0,0,7.681,3.9370408084,3.937008,0,0,0,0,0,93.7, 0, 0,0,0,1022,1005,1024,984,-0,-3,0,-6,95.6,-0.1,0.1,94,3.84,3.841,0,0,0,0,4.867,69.8,3.9370408084,3.937008,6,P-GPS,"Conexión por cable OTG Gafas en modo de conexión por cable OTG. Sal de este modo antes de conectarlas al ordenador"
13400,2025-05-23 15:34:51,0,0,3.937008,,,3.9370408084,3.937008,0,0,0,0,0,7.681,3.9370408084,3.937008,0,0,0,0,0,93.7, -0.1, 0,0,0,1025,990,1024,978,0,-5,0,-7,95.3,0,0,94,3.84,3.841,0,0,0,0,4.867,69.8,3.9370408084,3.937008,6,P-GPS,"Conexión por cable OTG Gafas en modo de conexión por cable OTG. Sal de este modo antes de conectarlas al ordenador"
13500,2025-05-23 15:34:51,0,0,3.937008,,,3.9370408084,3.937008,0,0,0,0,0,7.681,3.9370408084,3.937008,0,0,0,0,0,93, -0.1, 0,0,0,1026,989,1024,978,0,-5,0,-7,94.3,0.1,0,94,3.84,3.841,0,0,0,0,4.867,69.8,3.9370408084,3.937008,6,P-GPS,"Conexión por cable OTG Gafas en modo de conexión por cable OTG. Sal de este modo antes de conectarlas al ordenador"
13600,2025-05-23 15:34:51,0,0,3.937008,,,3.9370408084,3.937008,0,0,0,0,0,7.681,3.9370408084,3.937008,0,0,0,0,0,92.1, -0.1, -0.1,0,0,1027,991,1024,977,0,-5,0,-7,94,0.3,0,94,3.84,3.841,0,0,0,0,4.867,69.8,3.9370408084,3.937008,6,P-GPS,"Conexión por cable OTG Gafas en modo de conexión por cable OTG. Sal de este modo antes de conectarlas al ordenador"
13700,2025-05-23 15:34:52,0,0,3.937008,,,3.9370408084,3.937008,0,0,0,0,0,7.681,3.9370408084,3.937008,0,0,0,0,0,92.1, 0, -0.1,0,0,1026,993,1024,978,0,-5,0,-7,94.1,0.5,0,94,3.84,3.841,0,0,0,0,4.867,69.8,3.9370408084,3.937008,6,P-GPS,"Conexión por cable OTG Gafas en modo de conexión por cable OTG. Sal de este modo antes de conectarlas al ordenador"
13800,2025-05-23 15:34:52,0,0,3.937008,,,3.9370408084,3.937008,0,0,0,0,0,7.681,3.9370408084,3.937008,0,0,0,0,0,92.1, 0, -0.1,0,0,1026,991,1024,977,0,-5,0,-7,94.1,0.5,0,94,3.84,3.841,0,0,0,0,4.867,69.8,3.9370408084,3.937008,6,P-GPS,"Conexión por cable OTG Gafas en modo de conexión por cable OTG. Sal de este modo antes de conectarlas al ordenador"
13900,2025-05-23 15:34:52,0,0,3.937008,,,3.9370408084,3.937008,0,0,0,0,0,7.681,3.9370408084,3.937008,0,0,0,0,0,92.1, 0, -0.1,0,0,1026,988,1024,976,0,-5,0,-7,93.8,0.4,0,94,3.84,3.841,0,0,0,0,4.867,69.8,3.9370408084,3.937008,6,P-GPS,"Conexión por cable OTG Gafas en modo de conexión por cable OTG. Sal de este modo antes de conectarlas al ordenador"
14000,2025-05-23 15:34:52,0,0,3.937008,,,3.9370408084,3.937008,0,0,0,0,0,7.681,3.9370408084,3.937008,0,0,0,0,0,91.3, 0.1, 0,0,0,1027,991,1024,976,0,-5,0,-7,92.7,0.4,0.1,94,3.84,3.841,0,0,0,0,4.867,69.8,3.9370408084,3.937008,6,P-GPS,"Conexión por cable OTG Gafas en modo de conexión por cable OTG. Sal de este modo antes de conectarlas al ordenador"
