time(millisecond),datetime(utc),latitude,longitude,height_above_takeoff(feet),height_above_ground_at_drone_location(feet),ground_elevation_at_drone_location(feet),altitude_above_seaLevel(feet),height_sonar(feet),speed(mph),distance(feet),mileage(feet),satellites,gpslevel,voltage(v),max_altitude(feet),max_ascent(feet),max_speed(mph),max_distance(feet), xSpeed(mph), ySpeed(mph), zSpeed(mph), compass_heading(degrees), pitch(degrees), roll(degrees),isPhoto,isVideo,rc_elevator,rc_aileron,rc_throttle,rc_rudder,rc_elevator(percent),rc_aileron(percent),rc_throttle(percent),rc_rudder(percent),gimbal_heading(degrees),gimbal_pitch(degrees),gimbal_roll(degrees),battery_percent,voltageCell1,voltageCell2,voltageCell3,voltageCell4,voltageCell5,voltageCell6,current(A),battery_temperature(f),altitude(feet),ascent(feet),flycStateRaw,flycState,message
0,2025-05-20 04:34:01,0,0,0,,,3.28084E-5,0.328084,0,0,0,0,0,0,3.28084E-5,0,0,0,0,0,0,210.5, 0, -0.1,0,0,880,1049,1024,1970,-22,4,0,100,212.5,0,0.1,99,4.115,4.115,0,0,0,0,0,71.96,3.28084E-5,0,6,P-GPS,
100,2025-05-20 04:34:02,0,0,0,,,3.28084E-5,0.328084,0,0,0,0,0,0,3.28084E-5,0,0,0,0,0,0,210.5, 0, -0.1,0,0,880,1049,1024,1970,-22,4,0,100,212.5,0,0.1,99,4.115,4.115,0,0,0,0,0,71.96,3.28084E-5,0,41,Motors_Started,"Conecta a DJI Fly en exteriores Información de ubicación no actualizada. Algunas funciones no están disponibles. Comprueba que la señal de posicionamiento por satélite sea buena y conéctate a DJI Fly. Velocidad limitada en modo Principiante. Desactiva el modo en Configuración > Con"
200,2025-05-20 04:34:02,0,0,0,,,3.28084E-5,0.328084,0,0,0,0,0,0,3.28084E-5,0,0,0,0,0,0,210.5, 0, -0.1,0,0,880,1049,1024,1970,-22,4,0,100,212.5,0,0,99,4.115,4.115,0,0,0,0,0,71.96,3.28084E-5,0,41,Motors_Started,"Conecta a DJI Fly en exteriores Información de ubicación no actualizada. Algunas funciones no están disponibles. Comprueba que la señal de posicionamiento por satélite sea buena y conéctate a DJI Fly. Velocidad limitada en modo Principiante. Desactiva el modo en Configuración > Con"
300,2025-05-20 04:34:02,0,0,0,,,3.28084E-5,0.328084,0,0,0,0,0,0,3.28084E-5,0,0,0,0,0,0,210.5, 0, -0.1,0,0,880,1049,1024,1970,-22,4,0,100,212.5,0,0,99,4.115,4.115,0,0,0,0,0,71.96,3.28084E-5,0,41,Motors_Started,"Setting new Return-To-Home altitude to 30m (98 ft). Data Recorder File Index is 2. Setting new Maximum Flight Altitude to 30m (98 ft). Conecta a DJI Fly en exteriores Información de ubicación no actualizada. Algunas funciones no están disponibles. Comprueba que la señal de posicionamiento por satélite sea buena y conéctate a DJI Fly. Velocidad limitada en modo Principiante. Desactiva el modo en Configuración > Con"
400,2025-05-20 04:34:02,0,0,0,,,3.28084E-5,0.328084,0,0,0,0,0,0,3.28084E-5,0,0,0,0,0,0,210.6, 0, -0.1,0,0,880,1049,1024,1970,-22,4,0,100,212.5,0,0,99,4.115,4.115,0,0,0,0,0,71.96,3.28084E-5,0,41,Motors_Started,"Conecta a DJI Fly en exteriores Información de ubicación no actualizada. Algunas funciones no están disponibles. Comprueba que la señal de posicionamiento por satélite sea buena y conéctate a DJI Fly. Velocidad limitada en modo Principiante. Desactiva el modo en Configuración > Con"
500,2025-05-20 04:34:02,0,0,0,,,3.28084E-5,0.328084,0,0,0,0,0,0,3.28084E-5,0,0,0,0,0,0,210.5, 0, -0.1,0,0,880,1049,1024,1970,-22,4,0,100,212.5,0,0,99,4.115,4.115,0,0,0,0,0,71.96,3.28084E-5,0,41,Motors_Started,"Conecta a DJI Fly en exteriores Información de ubicación no actualizada. Algunas funciones no están disponibles. Comprueba que la señal de posicionamiento por satélite sea buena y conéctate a DJI Fly. Velocidad limitada en modo Principiante. Desactiva el modo en Configuración > Con"
600,2025-05-20 04:34:02,0,0,0,,,3.28084E-5,0.328084,0,0,0,0,0,0,3.28084E-5,0,0,0,0,0,0,210.5, 0, -0.1,0,0,880,1049,1024,1970,-22,4,0,100,212.5,0,0,99,4.115,4.115,0,0,0,0,0,71.96,3.28084E-5,0,41,Motors_Started,"Conecta a DJI Fly en exteriores Información de ubicación no actualizada. Algunas funciones no están disponibles. Comprueba que la señal de posicionamiento por satélite sea buena y conéctate a DJI Fly. Velocidad limitada en modo Principiante. Desactiva el modo en Configuración > Con"
700,2025-05-20 04:34:02,0,0,0,,,3.28084E-5,0.328084,0,0,0,0,0,0,3.28084E-5,0,0,0,0,0,0,210.6, 0, -0.1,0,0,880,1049,1024,1970,-22,4,0,100,212.5,0,0,99,4.115,4.115,0,0,0,0,0,71.96,3.28084E-5,0,41,Motors_Started,"Conecta a DJI Fly en exteriores Información de ubicación no actualizada. Algunas funciones no están disponibles. Comprueba que la señal de posicionamiento por satélite sea buena y conéctate a DJI Fly. Velocidad limitada en modo Principiante. Desactiva el modo en Configuración > Con"
800,2025-05-20 04:34:02,0,0,0,,,3.28084E-5,0.328084,0,0,0,0,0,0,3.28084E-5,0,0,0,0,0,0,210.5, 0, -0.1,0,0,880,1049,1024,1970,-22,4,0,100,212.5,0,0,99,4.115,4.115,0,0,0,0,0,71.96,3.28084E-5,0,41,Motors_Started,"Conecta a DJI Fly en exteriores Información de ubicación no actualizada. Algunas funciones no están disponibles. Comprueba que la señal de posicionamiento por satélite sea buena y conéctate a DJI Fly. Velocidad limitada en modo Principiante. Desactiva el modo en Configuración > Con"
900,2025-05-20 04:34:02,0,0,0,,,3.28084E-5,0.328084,0,0,0,0,0,0,3.28084E-5,0,0,0,0,0,0,210.5, 0, -0.1,0,0,880,1049,1024,1970,-22,4,0,100,212.5,0,0,99,4.115,4.115,0,0,0,0,0,71.96,3.28084E-5,0,41,Motors_Started,"Conecta a DJI Fly en exteriores Información de ubicación no actualizada. Algunas funciones no están disponibles. Comprueba que la señal de posicionamiento por satélite sea buena y conéctate a DJI Fly. Velocidad limitada en modo Principiante. Desactiva el modo en Configuración > Con"
1000,2025-05-20 04:34:02,0,0,0,,,3.28084E-5,0.328084,0,0,0,0,0,0,3.28084E-5,0,0,0,0,0,0,210.5, 0, -0.1,0,0,880,1049,1024,1970,-22,4,0,100,212.5,0,0,99,4.115,4.115,0,0,0,0,0,71.96,3.28084E-5,0,41,Motors_Started,"Conecta a DJI Fly en exteriores Información de ubicación no actualizada. Algunas funciones no están disponibles. Comprueba que la señal de posicionamiento por satélite sea buena y conéctate a DJI Fly. Velocidad limitada en modo Principiante. Desactiva el modo en Configuración > Con"
1100,2025-05-20 04:34:03,0,0,0,,,3.28084E-5,0.328084,0,0,0,0,0,0,3.28084E-5,0,0,0,0,0,0,210.6, 0, -0.1,0,0,880,1049,1024,1970,-22,4,0,100,212.5,0,0,99,4.115,4.115,0,0,0,0,0,71.96,3.28084E-5,0,41,Motors_Started,"Conecta a DJI Fly en exteriores Información de ubicación no actualizada. Algunas funciones no están disponibles. Comprueba que la señal de posicionamiento por satélite sea buena y conéctate a DJI Fly. Velocidad limitada en modo Principiante. Desactiva el modo en Configuración > Con"
1200,2025-05-20 04:34:03,0,0,0,,,3.28084E-5,0.328084,0,0,0,0,0,0,3.28084E-5,0,0,0,0,0,0,210.6, 0, -0.1,0,0,880,1049,1024,1970,-22,4,0,100,212.5,0,0,99,4.115,4.115,0,0,0,0,0,71.96,3.28084E-5,0,41,Motors_Started,"Conecta a DJI Fly en exteriores Información de ubicación no actualizada. Algunas funciones no están disponibles. Comprueba que la señal de posicionamiento por satélite sea buena y conéctate a DJI Fly. Velocidad limitada en modo Principiante. Desactiva el modo en Configuración > Con"
1300,2025-05-20 04:34:03,0,0,0,,,3.28084E-5,0.328084,0,0,0,0,0,0,3.28084E-5,0,0,0,0,0,0,210.6, 0, -0.1,0,0,880,1049,1024,1970,-22,4,0,100,212.5,0,0,99,4.115,4.115,0,0,0,0,0,71.96,3.28084E-5,0,41,Motors_Started,"Conecta a DJI Fly en exteriores Información de ubicación no actualizada. Algunas funciones no están disponibles. Comprueba que la señal de posicionamiento por satélite sea buena y conéctate a DJI Fly. Velocidad limitada en modo Principiante. Desactiva el modo en Configuración > Con"
1400,2025-05-20 04:34:03,0,0,0,,,3.28084E-5,0.328084,0,0,0,0,0,0,3.28084E-5,0,0,0,0,0,0,210.6, 0, -0.1,0,0,880,1049,1024,1970,-22,4,0,100,212.5,0,0,99,4.115,4.115,0,0,0,0,0,71.96,3.28084E-5,0,41,Motors_Started,"Conecta a DJI Fly en exteriores Información de ubicación no actualizada. Algunas funciones no están disponibles. Comprueba que la señal de posicionamiento por satélite sea buena y conéctate a DJI Fly. Velocidad limitada en modo Principiante. Desactiva el modo en Configuración > Con"
1500,2025-05-20 04:34:03,0,0,0,,,3.28084E-5,0.328084,0,0,0,0,0,0,3.28084E-5,0,0,0,0,0,0,210.6, 0, -0.1,0,0,880,1049,1024,1970,-22,4,0,100,212.5,0,0,99,4.115,4.115,0,0,0,0,0,71.96,3.28084E-5,0,41,Motors_Started,"Conecta a DJI Fly en exteriores Información de ubicación no actualizada. Algunas funciones no están disponibles. Comprueba que la señal de posicionamiento por satélite sea buena y conéctate a DJI Fly. Velocidad limitada en modo Principiante. Desactiva el modo en Configuración > Con"
1600,2025-05-20 04:34:03,0,0,0,,,3.28084E-5,0.328084,0,0,0,0,0,0,3.28084E-5,0,0,0,0,0,0,210.6, 0, -0.1,0,0,880,1049,1024,1970,-22,4,0,100,212.5,0,0,99,4.115,4.115,0,0,0,0,0,71.96,3.28084E-5,0,41,Motors_Started,"Conecta a DJI Fly en exteriores Información de ubicación no actualizada. Algunas funciones no están disponibles. Comprueba que la señal de posicionamiento por satélite sea buena y conéctate a DJI Fly. Velocidad limitada en modo Principiante. Desactiva el modo en Configuración > Con"
1700,2025-05-20 04:34:03,0,0,0,,,3.28084E-5,0.328084,0,0,0,0,0,0,3.28084E-5,0,0,0,0,0,0,210.6, 0, -0.1,0,0,880,1049,1024,1970,-22,4,0,100,212.5,0,0,99,4.115,4.115,0,0,0,0,0,71.96,3.28084E-5,0,41,Motors_Started,"Conecta a DJI Fly en exteriores Información de ubicación no actualizada. Algunas funciones no están disponibles. Comprueba que la señal de posicionamiento por satélite sea buena y conéctate a DJI Fly. Velocidad limitada en modo Principiante. Desactiva el modo en Configuración > Con"
1800,2025-05-20 04:34:03,0,0,0,,,3.28084E-5,0.328084,0,0,0,0,0,0,3.28084E-5,0,0,0,0,0,0,210.6, 0, -0.1,0,0,880,1049,1024,1970,-22,4,0,100,212.5,0,0,99,4.115,4.115,0,0,0,0,0,71.96,3.28084E-5,0,41,Motors_Started,"Conecta a DJI Fly en exteriores Información de ubicación no actualizada. Algunas funciones no están disponibles. Comprueba que la señal de posicionamiento por satélite sea buena y conéctate a DJI Fly. Velocidad limitada en modo Principiante. Desactiva el modo en Configuración > Con"
1900,2025-05-20 04:34:03,0,0,0,,,3.28084E-5,0.328084,0,0,0,0,0,0,3.28084E-5,0,0,0,0,0,0,210.6, 0, -0.1,0,0,880,1049,1024,1970,-22,4,0,100,212.5,0,0,99,4.115,4.115,0,0,0,0,0,71.96,3.28084E-5,0,41,Motors_Started,"Conecta a DJI Fly en exteriores Información de ubicación no actualizada. Algunas funciones no están disponibles. Comprueba que la señal de posicionamiento por satélite sea buena y conéctate a DJI Fly. Velocidad limitada en modo Principiante. Desactiva el modo en Configuración > Con"
2000,2025-05-20 04:34:03,0,0,0,,,3.28084E-5,0.328084,0,0,0,0,0,0,3.28084E-5,0,0,0,0,0,0,210.6, 0, -0.1,0,0,880,1049,1024,1970,-22,4,0,100,212.5,0,0,99,4.115,4.115,0,0,0,0,0,71.96,3.28084E-5,0,41,Motors_Started,"Conecta a DJI Fly en exteriores Información de ubicación no actualizada. Algunas funciones no están disponibles. Comprueba que la señal de posicionamiento por satélite sea buena y conéctate a DJI Fly. Velocidad limitada en modo Principiante. Desactiva el modo en Configuración > Con"
2100,2025-05-20 04:34:04,0,0,0,,,3.28084E-5,0.328084,0,0,0,0,0,0,3.28084E-5,0,0,0,0,0,0,210.6, 0, -0.1,0,0,880,1049,1024,1970,-22,4,0,100,212.5,0,0,99,4.115,4.115,0,0,0,0,0,71.96,3.28084E-5,0,10,Assisted_Takeoff,"Conecta a DJI Fly en exteriores Información de ubicación no actualizada. Algunas funciones no están disponibles. Comprueba que la señal de posicionamiento por satélite sea buena y conéctate a DJI Fly. Velocidad limitada en modo Principiante. Desactiva el modo en Configuración > Con"
2200,2025-05-20 04:34:04,0,0,0,,,3.28084E-5,0.328084,0,0,0,0,0,0,3.28084E-5,0,0,0,0,0,0,210.6, 0, -0.1,0,0,880,1049,1024,1970,-22,4,0,100,212.5,0,0,99,4.115,4.115,0,0,0,0,0,71.96,3.28084E-5,0,10,Assisted_Takeoff,"Conecta a DJI Fly en exteriores Información de ubicación no actualizada. Algunas funciones no están disponibles. Comprueba que la señal de posicionamiento por satélite sea buena y conéctate a DJI Fly. Velocidad limitada en modo Principiante. Desactiva el modo en Configuración > Con"
2300,2025-05-20 04:34:04,0,0,0,,,3.28084E-5,0.328084,0,0,0,0,0,0,3.28084E-5,0,0,0,0,0,0,210.6, 0, -0.1,0,0,880,1049,1024,1970,-22,4,0,100,212.5,0,0,99,4.115,4.115,0,0,0,0,0,71.96,3.28084E-5,0,10,Assisted_Takeoff,"Conecta a DJI Fly en exteriores Información de ubicación no actualizada. Algunas funciones no están disponibles. Comprueba que la señal de posicionamiento por satélite sea buena y conéctate a DJI Fly. Velocidad limitada en modo Principiante. Desactiva el modo en Configuración > Con"
2400,2025-05-20 04:34:04,0,0,0,,,3.28084E-5,0.328084,0,0,0,0,0,0,3.28084E-5,0,0,0,0,0,0,210.6, 0, -0.1,0,0,880,1049,1024,1970,-22,4,0,100,212.5,0,0,99,4.115,4.115,0,0,0,0,0,71.96,3.28084E-5,0,10,Assisted_Takeoff,"Conecta a DJI Fly en exteriores Información de ubicación no actualizada. Algunas funciones no están disponibles. Comprueba que la señal de posicionamiento por satélite sea buena y conéctate a DJI Fly. Velocidad limitada en modo Principiante. Desactiva el modo en Configuración > Con"
2500,2025-05-20 04:34:04,0,0,0,,,3.28084E-5,0.328084,0,0,0,0,0,0,3.28084E-5,0,0,0,0,0,0,210.6, 0, -0.1,0,0,880,1049,1024,1970,-22,4,0,100,212.5,0,0,99,4.115,4.115,0,0,0,0,0,71.96,3.28084E-5,0,10,Assisted_Takeoff,"Conecta a DJI Fly en exteriores Información de ubicación no actualizada. Algunas funciones no están disponibles. Comprueba que la señal de posicionamiento por satélite sea buena y conéctate a DJI Fly. Velocidad limitada en modo Principiante. Desactiva el modo en Configuración > Con"
2600,2025-05-20 04:34:04,0,0,0,,,3.28084E-5,0.328084,0,0,0,0,0,0,3.28084E-5,0,0,0,0,0,0,210.6, 0, -0.1,0,0,880,1049,1024,1970,-22,4,0,100,212.5,0,0.1,99,4.115,4.115,0,0,0,0,0,71.96,3.28084E-5,0,10,Assisted_Takeoff,"Conecta a DJI Fly en exteriores Información de ubicación no actualizada. Algunas funciones no están disponibles. Comprueba que la señal de posicionamiento por satélite sea buena y conéctate a DJI Fly. Velocidad limitada en modo Principiante. Desactiva el modo en Configuración > Con"
2700,2025-05-20 04:34:04,0,0,0,,,3.28084E-5,0.328084,0,0,0,0,0,0,3.28084E-5,0,0,0,0,0,0,210.6, 0, -0.1,0,0,880,1049,1024,1970,-22,4,0,100,212.5,0,0.1,99,4.115,4.115,0,0,0,0,0,71.96,3.28084E-5,0,10,Assisted_Takeoff,"Conecta a DJI Fly en exteriores Información de ubicación no actualizada. Algunas funciones no están disponibles. Comprueba que la señal de posicionamiento por satélite sea buena y conéctate a DJI Fly. Velocidad limitada en modo Principiante. Desactiva el modo en Configuración > Con"
2800,2025-05-20 04:34:04,0,0,0,,,3.28084E-5,0.328084,0,0,0,0,0,0,3.28084E-5,0,0,0,0,0,0,210.6, 0, -0.1,0,0,880,1049,1024,1970,-22,4,0,100,212.5,0,0,99,4.115,4.115,0,0,0,0,0,71.96,3.28084E-5,0,10,Assisted_Takeoff,"Conecta a DJI Fly en exteriores Información de ubicación no actualizada. Algunas funciones no están disponibles. Comprueba que la señal de posicionamiento por satélite sea buena y conéctate a DJI Fly. Velocidad limitada en modo Principiante. Desactiva el modo en Configuración > Con"
2900,2025-05-20 04:34:04,0,0,0,,,3.28084E-5,0.328084,0,0,0,0,0,0,3.28084E-5,0,0,0,0,0,0,210.6, 0, -0.1,0,0,880,1049,1024,1970,-22,4,0,100,212.5,0,0,99,4.115,4.115,0,0,0,0,0,71.96,3.28084E-5,0,10,Assisted_Takeoff,"Conecta a DJI Fly en exteriores Información de ubicación no actualizada. Algunas funciones no están disponibles. Comprueba que la señal de posicionamiento por satélite sea buena y conéctate a DJI Fly. Velocidad limitada en modo Principiante. Desactiva el modo en Configuración > Con"
3000,2025-05-20 04:34:04,0,0,0,,,3.28084E-5,0.328084,0,0,0,0,0,0,3.28084E-5,0,0,0,0,0,0,210.6, 0, -0.1,0,0,880,1049,1024,1970,-22,4,0,100,212.5,0,0,99,4.115,4.115,0,0,0,0,0,71.96,3.28084E-5,0,10,Assisted_Takeoff,"Conecta a DJI Fly en exteriores Información de ubicación no actualizada. Algunas funciones no están disponibles. Comprueba que la señal de posicionamiento por satélite sea buena y conéctate a DJI Fly. Velocidad limitada en modo Principiante. Desactiva el modo en Configuración > Con"
3100,2025-05-20 04:34:04,0,0,0,,,3.28084E-5,0.328084,0,0,0,0,0,8.23,3.28084E-5,0,0,0,0,0,0,210.6, 0, -0.1,0,0,880,1049,1024,1970,-22,4,0,100,212.5,0,0.1,99,4.115,4.115,0,0,0,0,0.957,71.96,3.28084E-5,0,10,Assisted_Takeoff,"Conecta a DJI Fly en exteriores Información de ubicación no actualizada. Algunas funciones no están disponibles. Comprueba que la señal de posicionamiento por satélite sea buena y conéctate a DJI Fly. Velocidad limitada en modo Principiante. Desactiva el modo en Configuración > Con"
3200,2025-05-20 04:34:05,0,0,0,,,3.28084E-5,0.328084,0,0,0,0,0,8.23,3.28084E-5,0,0,0,0,0,0,210.6, 0, -0.1,0,0,880,1049,1024,1970,-22,4,0,100,212.5,0,0.1,99,4.115,4.115,0,0,0,0,0.957,71.96,3.28084E-5,0,10,Assisted_Takeoff,"Conecta a DJI Fly en exteriores Información de ubicación no actualizada. Algunas funciones no están disponibles. Comprueba que la señal de posicionamiento por satélite sea buena y conéctate a DJI Fly. Velocidad limitada en modo Principiante. Desactiva el modo en Configuración > Con"
3300,2025-05-20 04:34:05,0,0,0,,,3.28084E-5,0.328084,0,0,0,0,0,8.23,3.28084E-5,0,0,0,0,0,0,210.6, 0, -0.1,0,0,880,1049,1024,1970,-22,4,0,100,212.5,0,0.1,99,4.115,4.115,0,0,0,0,0.957,71.96,3.28084E-5,0,10,Assisted_Takeoff,"Conecta a DJI Fly en exteriores Información de ubicación no actualizada. Algunas funciones no están disponibles. Comprueba que la señal de posicionamiento por satélite sea buena y conéctate a DJI Fly. Velocidad limitada en modo Principiante. Desactiva el modo en Configuración > Con"
3400,2025-05-20 04:34:05,0,0,0,,,3.28084E-5,0.328084,0,0,0,0,0,8.23,3.28084E-5,0,0,0,0,0,0,210.6, 0, -0.1,0,0,880,1049,1024,1970,-22,4,0,100,212.5,0,0.1,99,4.115,4.115,0,0,0,0,0.957,71.96,3.28084E-5,0,41,Motors_Started,"Conecta a DJI Fly en exteriores Información de ubicación no actualizada. Algunas funciones no están disponibles. Comprueba que la señal de posicionamiento por satélite sea buena y conéctate a DJI Fly. Velocidad limitada en modo Principiante. Desactiva el modo en Configuración > Con"
3500,2025-05-20 04:34:05,0,0,0,,,3.28084E-5,0.328084,0,0,0,0,0,8.23,3.28084E-5,0,0,0,0,0,0,210.6, 0, -0.1,0,0,880,1049,1024,1970,-22,4,0,100,212.5,0,0.1,99,4.115,4.115,0,0,0,0,0.957,71.96,3.28084E-5,0,41,Motors_Started,"Conecta a DJI Fly en exteriores Información de ubicación no actualizada. Algunas funciones no están disponibles. Comprueba que la señal de posicionamiento por satélite sea buena y conéctate a DJI Fly. Velocidad limitada en modo Principiante. Desactiva el modo en Configuración > Con"
3600,2025-05-20 04:34:05,0,0,0,,,3.28084E-5,0.328084,0,0,0,0,0,8.23,3.28084E-5,0,0,0,0,0,0,210.6, 0, -0.1,0,0,880,1049,1024,1970,-22,4,0,100,212.5,0,0.1,99,4.115,4.115,0,0,0,0,0.957,71.96,3.28084E-5,0,41,Motors_Started,"Conecta a DJI Fly en exteriores Información de ubicación no actualizada. Algunas funciones no están disponibles. Comprueba que la señal de posicionamiento por satélite sea buena y conéctate a DJI Fly. Velocidad limitada en modo Principiante. Desactiva el modo en Configuración > Con"
3700,2025-05-20 04:34:05,0,0,0,,,3.28084E-5,0.328084,0,0,0,0,0,8.23,3.28084E-5,0,0,0,0,0,0,210.6, 0, -0.1,0,0,880,1049,1024,1970,-22,4,0,100,212.5,0,0,99,4.115,4.115,0,0,0,0,0.957,71.96,3.28084E-5,0,41,Motors_Started,"Conecta a DJI Fly en exteriores Información de ubicación no actualizada. Algunas funciones no están disponibles. Comprueba que la señal de posicionamiento por satélite sea buena y conéctate a DJI Fly. Velocidad limitada en modo Principiante. Desactiva el modo en Configuración > Con"
3800,2025-05-20 04:34:05,0,0,0,,,3.28084E-5,0.328084,0,0,0,0,0,8.23,3.28084E-5,0,0,0,0,0,0,210.6, 0, -0.1,0,0,880,1049,1024,1970,-22,4,0,100,212.5,0,0,99,4.115,4.115,0,0,0,0,0.957,71.96,3.28084E-5,0,41,Motors_Started,"Conecta a DJI Fly en exteriores Información de ubicación no actualizada. Algunas funciones no están disponibles. Comprueba que la señal de posicionamiento por satélite sea buena y conéctate a DJI Fly. Velocidad limitada en modo Principiante. Desactiva el modo en Configuración > Con"
3900,2025-05-20 04:34:05,0,0,0,,,3.28084E-5,0.328084,0,0,0,0,0,8.23,3.28084E-5,0,0,0,0,0,0,210.6, 0, -0.1,0,0,880,1049,1024,1970,-22,4,0,100,212.5,0,0,99,4.115,4.115,0,0,0,0,0.957,71.96,3.28084E-5,0,41,Motors_Started,"Conecta a DJI Fly en exteriores Información de ubicación no actualizada. Algunas funciones no están disponibles. Comprueba que la señal de posicionamiento por satélite sea buena y conéctate a DJI Fly. Velocidad limitada en modo Principiante. Desactiva el modo en Configuración > Con"
4000,2025-05-20 04:34:05,0,0,0,,,3.28084E-5,0.328084,0,0,0,0,0,8.228,3.28084E-5,0,0,0,0,0,0,210.6, 0, -0.1,0,0,880,1049,1024,1970,-22,4,0,100,212.5,0,0,99,4.114,4.114,0,0,0,0,0.957,71.96,3.28084E-5,0,41,Motors_Started,"Conecta a DJI Fly en exteriores Información de ubicación no actualizada. Algunas funciones no están disponibles. Comprueba que la señal de posicionamiento por satélite sea buena y conéctate a DJI Fly. Velocidad limitada en modo Principiante. Desactiva el modo en Configuración > Con"
4100,2025-05-20 04:34:06,0,0,0,,,3.28084E-5,0.328084,0,0,0,0,0,8.228,3.28084E-5,0,0,0,0,0,0,210.6, 0, -0.1,0,0,880,1049,1024,1970,-22,4,0,100,212.5,0,0.1,99,4.114,4.114,0,0,0,0,0.957,71.96,3.28084E-5,0,41,Motors_Started,"Conecta a DJI Fly en exteriores Información de ubicación no actualizada. Algunas funciones no están disponibles. Comprueba que la señal de posicionamiento por satélite sea buena y conéctate a DJI Fly. Velocidad limitada en modo Principiante. Desactiva el modo en Configuración > Con"
4200,2025-05-20 04:34:06,0,0,0,,,3.28084E-5,0.328084,0,0,0,0,0,8.228,3.28084E-5,0,0,0,0,0,0,210.6, 0, -0.1,0,0,880,1049,1024,1970,-22,4,0,100,212.5,0,0.1,99,4.114,4.114,0,0,0,0,0.957,71.96,3.28084E-5,0,41,Motors_Started,"Conecta a DJI Fly en exteriores Información de ubicación no actualizada. Algunas funciones no están disponibles. Comprueba que la señal de posicionamiento por satélite sea buena y conéctate a DJI Fly. Velocidad limitada en modo Principiante. Desactiva el modo en Configuración > Con"
4300,2025-05-20 04:34:06,0,0,0,,,3.28084E-5,0.328084,0,0,0,0,0,8.228,3.28084E-5,0,0,0,0,0,0,210.6, 0, -0.1,0,0,880,1049,1024,1970,-22,4,0,100,212.5,0,0.1,99,4.114,4.114,0,0,0,0,0.957,71.96,3.28084E-5,0,41,Motors_Started,"Conecta a DJI Fly en exteriores Información de ubicación no actualizada. Algunas funciones no están disponibles. Comprueba que la señal de posicionamiento por satélite sea buena y conéctate a DJI Fly. Velocidad limitada en modo Principiante. Desactiva el modo en Configuración > Con"
4400,2025-05-20 04:34:06,0,0,0,,,3.28084E-5,0.328084,0,0,0,0,0,8.228,3.28084E-5,0,0,0,0,0,0,210.6, 0, -0.1,0,0,880,1049,1024,1970,-22,4,0,100,212.5,0,0.1,99,4.114,4.114,0,0,0,0,0.957,71.96,3.28084E-5,0,41,Motors_Started,"Conecta a DJI Fly en exteriores Información de ubicación no actualizada. Algunas funciones no están disponibles. Comprueba que la señal de posicionamiento por satélite sea buena y conéctate a DJI Fly. Velocidad limitada en modo Principiante. Desactiva el modo en Configuración > Con"
4500,2025-05-20 04:34:06,0,0,0,,,3.28084E-5,0.328084,0,0,0,0,0,8.228,3.28084E-5,0,0,0,0,0,0,210.6, 0, -0.1,0,0,880,1049,1024,1970,-22,4,0,100,212.5,0,0.1,99,4.114,4.114,0,0,0,0,0.957,71.96,3.28084E-5,0,41,Motors_Started,"Conecta a DJI Fly en exteriores Información de ubicación no actualizada. Algunas funciones no están disponibles. Comprueba que la señal de posicionamiento por satélite sea buena y conéctate a DJI Fly. Velocidad limitada en modo Principiante. Desactiva el modo en Configuración > Con"
4600,2025-05-20 04:34:06,0,0,0,,,3.28084E-5,0.328084,0,0,0,0,0,8.228,3.28084E-5,0,0,0,0,0,0,210.6, 0, -0.1,0,0,880,1049,1024,1970,-22,4,0,100,212.5,0,0.1,99,4.114,4.114,0,0,0,0,0.957,71.96,3.28084E-5,0,41,Motors_Started,"Conecta a DJI Fly en exteriores Información de ubicación no actualizada. Algunas funciones no están disponibles. Comprueba que la señal de posicionamiento por satélite sea buena y conéctate a DJI Fly. Velocidad limitada en modo Principiante. Desactiva el modo en Configuración > Con"
4700,2025-05-20 04:34:06,0,0,0,,,3.28084E-5,0.328084,0,0,0,0,0,8.228,3.28084E-5,0,0,0,0,0,0,210.6, 0, -0.1,0,0,880,1049,1024,1970,-22,4,0,100,212.5,0,0.1,99,4.114,4.114,0,0,0,0,0.957,71.96,3.28084E-5,0,41,Motors_Started,"Conecta a DJI Fly en exteriores Información de ubicación no actualizada. Algunas funciones no están disponibles. Comprueba que la señal de posicionamiento por satélite sea buena y conéctate a DJI Fly. Velocidad limitada en modo Principiante. Desactiva el modo en Configuración > Con"
4800,2025-05-20 04:34:06,0,0,0,,,3.28084E-5,0.328084,0,0,0,0,0,8.228,3.28084E-5,0,0,0,0,0,0,210.6, 0, -0.1,0,0,880,1049,1024,1970,-22,4,0,100,212.5,0,0.1,99,4.114,4.114,0,0,0,0,0.957,71.96,3.28084E-5,0,41,Motors_Started,"Conecta a DJI Fly en exteriores Información de ubicación no actualizada. Algunas funciones no están disponibles. Comprueba que la señal de posicionamiento por satélite sea buena y conéctate a DJI Fly. Velocidad limitada en modo Principiante. Desactiva el modo en Configuración > Con"
4900,2025-05-20 04:34:06,0,0,0,,,3.28084E-5,0.328084,0,0,0,0,0,8.228,3.28084E-5,0,0,0,0,0,0,210.6, 0, -0.1,0,0,880,1049,1024,1970,-22,4,0,100,212.5,0,0.1,99,4.114,4.114,0,0,0,0,0.957,71.96,3.28084E-5,0,41,Motors_Started,"Conecta a DJI Fly en exteriores Información de ubicación no actualizada. Algunas funciones no están disponibles. Comprueba que la señal de posicionamiento por satélite sea buena y conéctate a DJI Fly. Velocidad limitada en modo Principiante. Desactiva el modo en Configuración > Con"
5000,2025-05-20 04:34:06,0,0,0,,,3.28084E-5,0.328084,0,0,0,0,0,8.227,3.28084E-5,0,0,0,0,0,0,210.6, 0, -0.1,0,0,880,1049,1024,1970,-22,4,0,100,212.5,0,0.1,99,4.113,4.113,0,0,0,0,0.95,71.96,3.28084E-5,0,41,Motors_Started,"Conecta a DJI Fly en exteriores Información de ubicación no actualizada. Algunas funciones no están disponibles. Comprueba que la señal de posicionamiento por satélite sea buena y conéctate a DJI Fly. Velocidad limitada en modo Principiante. Desactiva el modo en Configuración > Con"
5100,2025-05-20 04:34:07,0,0,0,,,3.28084E-5,0.328084,0,0,0,0,0,8.227,3.28084E-5,0,0,0,0,0,0,210.6, 0, -0.1,0,0,880,1049,1024,1970,-22,4,0,100,212.5,0,0,99,4.113,4.113,0,0,0,0,0.95,71.96,3.28084E-5,0,41,Motors_Started,"Conecta a DJI Fly en exteriores Información de ubicación no actualizada. Algunas funciones no están disponibles. Comprueba que la señal de posicionamiento por satélite sea buena y conéctate a DJI Fly. Velocidad limitada en modo Principiante. Desactiva el modo en Configuración > Con"
5200,2025-05-20 04:34:07,0,0,0,,,3.28084E-5,0.328084,0,0,0,0,0,8.227,3.28084E-5,0,0,0,0,0,0,210.6, 0, -0.1,0,0,880,1049,1024,1970,-22,4,0,100,212.5,0,0.1,99,4.113,4.113,0,0,0,0,0.95,71.96,3.28084E-5,0,41,Motors_Started,"Conecta a DJI Fly en exteriores Información de ubicación no actualizada. Algunas funciones no están disponibles. Comprueba que la señal de posicionamiento por satélite sea buena y conéctate a DJI Fly. Velocidad limitada en modo Principiante. Desactiva el modo en Configuración > Con"
5300,2025-05-20 04:34:07,0,0,0,,,3.28084E-5,0.328084,0,0,0,0,0,8.227,3.28084E-5,0,0,0,0,0,0,210.6, 0, -0.1,0,0,880,1049,1024,1970,-22,4,0,100,212.5,0,0.1,99,4.113,4.113,0,0,0,0,0.95,71.96,3.28084E-5,0,41,Motors_Started,"Conecta a DJI Fly en exteriores Información de ubicación no actualizada. Algunas funciones no están disponibles. Comprueba que la señal de posicionamiento por satélite sea buena y conéctate a DJI Fly. Velocidad limitada en modo Principiante. Desactiva el modo en Configuración > Con"
5400,2025-05-20 04:34:07,0,0,0,,,3.28084E-5,0.328084,0,0,0,0,0,8.227,3.28084E-5,0,0,0,0,0,0,210.6, 0, -0.1,0,0,880,1049,1024,1970,-22,4,0,100,212.5,0,0,99,4.113,4.113,0,0,0,0,0.95,71.96,3.28084E-5,0,11,AutoTakeoff,"Conecta a DJI Fly en exteriores Información de ubicación no actualizada. Algunas funciones no están disponibles. Comprueba que la señal de posicionamiento por satélite sea buena y conéctate a DJI Fly. Velocidad limitada en modo Principiante. Desactiva el modo en Configuración > Con"
5500,2025-05-20 04:34:07,0,0,0,,,3.28084E-5,0.328084,0,0,0,0,0,8.227,3.28084E-5,0,0,0,0,0,0,210.6, 0, -0.1,0,0,880,1049,1024,1970,-22,4,0,100,212.5,0,-0.1,99,4.113,4.113,0,0,0,0,0.95,71.96,3.28084E-5,0,11,AutoTakeoff,"Conecta a DJI Fly en exteriores Información de ubicación no actualizada. Algunas funciones no están disponibles. Comprueba que la señal de posicionamiento por satélite sea buena y conéctate a DJI Fly. Velocidad limitada en modo Principiante. Desactiva el modo en Configuración > Con"
5600,2025-05-20 04:34:07,0,0,0,,,3.28084E-5,0.328084,0,0,0,0,0,8.227,3.28084E-5,0,0,0,0,0,0,210.4, -0.2, -0.3,0,0,880,1049,1024,1970,-22,4,0,100,212.4,0,0,99,4.113,4.113,0,0,0,0,0.95,71.96,3.28084E-5,0,11,AutoTakeoff,"Conecta a DJI Fly en exteriores Información de ubicación no actualizada. Algunas funciones no están disponibles. Comprueba que la señal de posicionamiento por satélite sea buena y conéctate a DJI Fly. Velocidad limitada en modo Principiante. Desactiva el modo en Configuración > Con"
5700,2025-05-20 04:34:07,0,0,0,,,3.28084E-5,0.328084,0,0,0,0,0,8.227,3.28084E-5,0,0,0,0,0,-0.447388,210.5, -0.1, 0,0,0,880,1049,1024,1970,-22,4,0,100,212.6,0,0.4,99,4.113,4.113,0,0,0,0,0.95,71.96,3.28084E-5,0,11,AutoTakeoff,"Conecta a DJI Fly en exteriores Información de ubicación no actualizada. Algunas funciones no están disponibles. Comprueba que la señal de posicionamiento por satélite sea buena y conéctate a DJI Fly. Velocidad limitada en modo Principiante. Desactiva el modo en Configuración > Con"
5800,2025-05-20 04:34:07,0,0,0,,,3.28084E-5,0,0,0,0,0,0,8.227,3.28084E-5,0,0,0,0,0,-0.671082,210.7, -0.1, 0,0,0,880,1049,1024,1970,-22,4,0,100,212.6,0,0.3,99,4.113,4.113,0,0,0,0,0.95,71.96,3.28084E-5,0,11,AutoTakeoff,"Conecta a DJI Fly en exteriores Información de ubicación no actualizada. Algunas funciones no están disponibles. Comprueba que la señal de posicionamiento por satélite sea buena y conéctate a DJI Fly. Velocidad limitada en modo Principiante. Desactiva el modo en Configuración > Con"
5900,2025-05-20 04:34:07,0,0,0,,,3.28084E-5,0,0,0,0,0,0,8.227,3.28084E-5,0,0,0,0,0,-0.671082,210.7, -0.1, 0.1,0,0,880,1049,1024,1970,-22,4,0,100,212.6,0,-0.1,99,4.113,4.113,0,0,0,0,0.95,71.96,3.28084E-5,0,11,AutoTakeoff,"Conecta a DJI Fly en exteriores Información de ubicación no actualizada. Algunas funciones no están disponibles. Comprueba que la señal de posicionamiento por satélite sea buena y conéctate a DJI Fly. Velocidad limitada en modo Principiante. Desactiva el modo en Configuración > Con"
6000,2025-05-20 04:34:07,0,0,0.328084,,,0.3281168084,0.328084,0,0,0,0,0,8.227,0.3281168084,0.328084,0,0,0,0,-0.671082,210.7, 0, -0.7,0,0,880,1049,1024,1970,-22,4,0,100,212.6,0,-0.8,99,4.113,4.113,0,0,0,0,0.95,71.96,0.3281168084,0.328084,11,AutoTakeoff,"Conecta a DJI Fly en exteriores Información de ubicación no actualizada. Algunas funciones no están disponibles. Comprueba que la señal de posicionamiento por satélite sea buena y conéctate a DJI Fly. Velocidad limitada en modo Principiante. Desactiva el modo en Configuración > Con"
6100,2025-05-20 04:34:08,0,0,0.328084,,,0.3281168084,0.328084,0,0,0,0,0,7.887,0.3281168084,0.328084,0,0,0,0,-0.671082,210.6, 0.1, -1.1,0,0,880,1049,1024,1970,-22,4,0,100,212.6,0,-1,98,3.944,3.943,0,0,0,0,4.929,71.96,0.3281168084,0.328084,11,AutoTakeoff,"Conecta a DJI Fly en exteriores Información de ubicación no actualizada. Algunas funciones no están disponibles. Comprueba que la señal de posicionamiento por satélite sea buena y conéctate a DJI Fly. Velocidad limitada en modo Principiante. Desactiva el modo en Configuración > Con"
6200,2025-05-20 04:34:08,0,0,0.328084,,,0.3281168084,0.656168,0,0,0,0,0,7.887,0.3281168084,0.328084,0,0,0,0,-0.894776,210.6, 0.4, -1.3,0,0,880,1049,1024,1970,-22,4,0,100,212.6,0,-1.2,99,3.944,3.943,0,0,0,0,4.929,71.96,0.3281168084,0.328084,11,AutoTakeoff,"Conecta a DJI Fly en exteriores Información de ubicación no actualizada. Algunas funciones no están disponibles. Comprueba que la señal de posicionamiento por satélite sea buena y conéctate a DJI Fly. Velocidad limitada en modo Principiante. Desactiva el modo en Configuración > Con"
6300,2025-05-20 04:34:08,0,0,0.656168,,,0.6562008084,0.656168,0,0,0,0,0,7.887,0.6562008084,0.656168,0,0,0,0,-0.894776,210.6, 0.5, -1.4,0,0,880,1049,1024,1970,-22,4,0,100,212.6,0,-1.2,99,3.944,3.943,0,0,0,0,4.929,71.96,0.6562008084,0.656168,11,AutoTakeoff,"Conecta a DJI Fly en exteriores Información de ubicación no actualizada. Algunas funciones no están disponibles. Comprueba que la señal de posicionamiento por satélite sea buena y conéctate a DJI Fly. Velocidad limitada en modo Principiante. Desactiva el modo en Configuración > Con"
6400,2025-05-20 04:34:08,0,0,0.656168,,,0.6562008084,0.984252,0,0,0,0,0,7.887,0.6562008084,0.656168,0,0,0,0,-0.894776,210.6, 0.5, -1.2,0,0,880,1049,1024,1970,-22,4,0,100,212.6,0,-0.7,99,3.944,3.943,0,0,0,0,4.929,71.96,0.6562008084,0.656168,11,AutoTakeoff,"Conecta a DJI Fly en exteriores Información de ubicación no actualizada. Algunas funciones no están disponibles. Comprueba que la señal de posicionamiento por satélite sea buena y conéctate a DJI Fly. Velocidad limitada en modo Principiante. Desactiva el modo en Configuración > Con"
6500,2025-05-20 04:34:08,0,0,0.984252,,,0.9842848084,0.984252,0,0,0,0,0,7.887,0.9842848084,0.984252,0,0,0,0,-0.894776,210.6, 0, -0.5,0,0,880,1049,1024,1970,-22,4,0,100,212.6,0,0,99,3.944,3.943,0,0,0,0,4.929,71.96,0.9842848084,0.984252,11,AutoTakeoff,"Conecta a DJI Fly en exteriores Información de ubicación no actualizada. Algunas funciones no están disponibles. Comprueba que la señal de posicionamiento por satélite sea buena y conéctate a DJI Fly. Velocidad limitada en modo Principiante. Desactiva el modo en Configuración > Con"
6600,2025-05-20 04:34:08,0,0,0.984252,,,0.9842848084,1.312336,0,0,0,0,0,7.887,0.9842848084,0.984252,0,0,0,0,-0.894776,210.6, -0.4, 0,0,0,880,1049,1024,1970,-22,4,0,100,212.5,0,0.1,99,3.944,3.943,0,0,0,0,4.929,71.96,0.9842848084,0.984252,11,AutoTakeoff,"Conecta a DJI Fly en exteriores Información de ubicación no actualizada. Algunas funciones no están disponibles. Comprueba que la señal de posicionamiento por satélite sea buena y conéctate a DJI Fly. Velocidad limitada en modo Principiante. Desactiva el modo en Configuración > Con"
6700,2025-05-20 04:34:08,0,0,1.312336,,,1.3123688084,1.312336,0,0,0,0,0,7.887,1.3123688084,1.312336,0,0,0,0,-0.894776,210.6, -0.4, 0,0,0,880,1049,1024,1970,-22,4,0,100,212.5,0,0.1,99,3.944,3.943,0,0,0,0,4.929,71.96,1.3123688084,1.312336,11,AutoTakeoff,"Conecta a DJI Fly en exteriores Información de ubicación no actualizada. Algunas funciones no están disponibles. Comprueba que la señal de posicionamiento por satélite sea buena y conéctate a DJI Fly. Velocidad limitada en modo Principiante. Desactiva el modo en Configuración > Con"
6800,2025-05-20 04:34:08,0,0,1.312336,,,1.3123688084,1.64042,0,0,0,0,0,7.887,1.3123688084,1.312336,0,0,0,0,-1.11847,210.6, -0.1, 0,0,0,880,1049,1024,1970,-22,4,0,100,212.5,0,-0.1,99,3.944,3.943,0,0,0,0,4.929,71.96,1.3123688084,1.312336,11,AutoTakeoff,"Conecta a DJI Fly en exteriores Información de ubicación no actualizada. Algunas funciones no están disponibles. Comprueba que la señal de posicionamiento por satélite sea buena y conéctate a DJI Fly. Velocidad limitada en modo Principiante. Desactiva el modo en Configuración > Con"
6900,2025-05-20 04:34:08,0,0,1.64042,,,1.6404528084,1.64042,0,0,0,0,0,7.887,1.6404528084,1.64042,0,0,0,0,-1.11847,210.6, 0.1, -0.4,0,0,880,1049,1024,1970,-22,4,0,100,212.5,0,0.1,99,3.944,3.943,0,0,0,0,4.929,71.96,1.6404528084,1.64042,11,AutoTakeoff,"Conecta a DJI Fly en exteriores Información de ubicación no actualizada. Algunas funciones no están disponibles. Comprueba que la señal de posicionamiento por satélite sea buena y conéctate a DJI Fly. Velocidad limitada en modo Principiante. Desactiva el modo en Configuración > Con"
7000,2025-05-20 04:34:08,0,0,1.64042,,,1.6404528084,1.968504,0,0,0,0,0,7.856,1.6404528084,1.64042,0,0,0,0,-1.11847,210.5, 0.4, 0.2,0,0,880,1049,1024,1970,-22,4,0,100,212.5,0,0.4,98,3.93,3.926,0,0,0,0,5.104,71.96,1.6404528084,1.64042,11,AutoTakeoff,"Conecta a DJI Fly en exteriores Información de ubicación no actualizada. Algunas funciones no están disponibles. Comprueba que la señal de posicionamiento por satélite sea buena y conéctate a DJI Fly. Velocidad limitada en modo Principiante. Desactiva el modo en Configuración > Con"
7100,2025-05-20 04:34:08,0,0,1.968504,,,1.9685368084,1.968504,0,0,0,0,0,7.856,1.9685368084,1.968504,0,0,0,0,-1.11847,210.6, 0.5, 0.2,0,0,880,1049,1024,1970,-22,4,0,100,212.6,0,0.5,98,3.93,3.926,0,0,0,0,5.104,71.96,1.9685368084,1.968504,11,AutoTakeoff,"Conecta a DJI Fly en exteriores Información de ubicación no actualizada. Algunas funciones no están disponibles. Comprueba que la señal de posicionamiento por satélite sea buena y conéctate a DJI Fly. Velocidad limitada en modo Principiante. Desactiva el modo en Configuración > Con"
7200,2025-05-20 04:34:09,0,0,1.968504,,,1.9685368084,2.296588,0,0,0,0,0,7.856,1.9685368084,1.968504,0,0,0,0,-1.11847,210.6, 0.5, 0.4,0,0,880,1049,1024,1970,-22,4,0,100,212.6,0,0.5,98,3.93,3.926,0,0,0,0,5.104,71.96,1.9685368084,1.968504,11,AutoTakeoff,"Conecta a DJI Fly en exteriores Información de ubicación no actualizada. Algunas funciones no están disponibles. Comprueba que la señal de posicionamiento por satélite sea buena y conéctate a DJI Fly. Velocidad limitada en modo Principiante. Desactiva el modo en Configuración > Con"
7300,2025-05-20 04:34:09,0,0,2.296588,,,2.2966208084,2.296588,0,0,0,0,0,7.856,2.2966208084,2.296588,0,0,0,0,-1.11847,210.6, 0.4, 0.4,0,0,880,1049,1024,1970,-22,4,0,100,212.6,0,0.8,98,3.93,3.926,0,0,0,0,5.104,71.96,2.2966208084,2.296588,11,AutoTakeoff,"Conecta a DJI Fly en exteriores Información de ubicación no actualizada. Algunas funciones no están disponibles. Comprueba que la señal de posicionamiento por satélite sea buena y conéctate a DJI Fly. Velocidad limitada en modo Principiante. Desactiva el modo en Configuración > Con"
7400,2025-05-20 04:34:09,0,0,2.296588,,,2.2966208084,2.624672,0,0,0,0,0,7.856,2.2966208084,2.296588,0,0,0,0,-1.11847,210.6, 0.4, 0.7,0,0,880,1049,1024,1970,-22,4,0,100,212.5,0,1,98,3.93,3.926,0,0,0,0,5.104,71.96,2.2966208084,2.296588,11,AutoTakeoff,"Conecta a DJI Fly en exteriores Información de ubicación no actualizada. Algunas funciones no están disponibles. Comprueba que la señal de posicionamiento por satélite sea buena y conéctate a DJI Fly. Velocidad limitada en modo Principiante. Desactiva el modo en Configuración > Con"
7500,2025-05-20 04:34:09,0,0,2.624672,,,2.6247048084,2.624672,0,0,0,0,0,7.856,2.6247048084,2.624672,0,0,0,0,-1.11847,210.6, 0.4, 0.8,0,0,880,1049,1024,1970,-22,4,0,100,212.5,0,0.8,98,3.93,3.926,0,0,0,0,5.104,71.96,2.6247048084,2.624672,11,AutoTakeoff,"Conecta a DJI Fly en exteriores Información de ubicación no actualizada. Algunas funciones no están disponibles. Comprueba que la señal de posicionamiento por satélite sea buena y conéctate a DJI Fly. Velocidad limitada en modo Principiante. Desactiva el modo en Configuración > Con"
7600,2025-05-20 04:34:09,0,0,2.624672,,,2.6247048084,2.952756,0,0,0,0,0,7.856,2.6247048084,2.624672,0,0,0,0,-1.11847,210.6, 0.4, 0.3,0,0,880,1049,1024,1970,-22,4,0,100,212.6,0,0.1,98,3.93,3.926,0,0,0,0,5.104,71.96,2.6247048084,2.624672,11,AutoTakeoff,"Conecta a DJI Fly en exteriores Información de ubicación no actualizada. Algunas funciones no están disponibles. Comprueba que la señal de posicionamiento por satélite sea buena y conéctate a DJI Fly. Velocidad limitada en modo Principiante. Desactiva el modo en Configuración > Con"
7700,2025-05-20 04:34:09,0,0,2.952756,,,2.9527888084,2.952756,0,0,0,0,0,7.856,2.9527888084,2.952756,0,0,0,0,-1.11847,210.6, 0.2, -0.2,0,0,880,1049,1024,1970,-22,4,0,100,212.6,0,-0.2,98,3.93,3.926,0,0,0,0,5.104,71.96,2.9527888084,2.952756,11,AutoTakeoff,"Conecta a DJI Fly en exteriores Información de ubicación no actualizada. Algunas funciones no están disponibles. Comprueba que la señal de posicionamiento por satélite sea buena y conéctate a DJI Fly. Velocidad limitada en modo Principiante. Desactiva el modo en Configuración > Con"
7800,2025-05-20 04:34:09,0,0,2.952756,,,2.9527888084,3.28084,0,0,0,0,0,7.856,2.9527888084,2.952756,0,0,0,0,-0.894776,210.6, 0.2, -0.4,0,0,880,1049,1024,1970,-22,4,0,100,212.6,0,-0.3,98,3.93,3.926,0,0,0,0,5.104,71.96,2.9527888084,2.952756,11,AutoTakeoff,"Conecta a DJI Fly en exteriores Información de ubicación no actualizada. Algunas funciones no están disponibles. Comprueba que la señal de posicionamiento por satélite sea buena y conéctate a DJI Fly. Velocidad limitada en modo Principiante. Desactiva el modo en Configuración > Con"
7900,2025-05-20 04:34:09,0,0,3.28084,,,3.2808728084,3.28084,0,0,0,0,0,7.856,3.2808728084,3.28084,0,0,0,0,-0.894776,210.6, 0.2, -0.4,0,0,845,1061,1024,1015,-27,6,0,-1,212.6,0,-0.2,98,3.93,3.926,0,0,0,0,5.104,71.96,3.2808728084,3.28084,11,AutoTakeoff,"Conecta a DJI Fly en exteriores Información de ubicación no actualizada. Algunas funciones no están disponibles. Comprueba que la señal de posicionamiento por satélite sea buena y conéctate a DJI Fly. Velocidad limitada en modo Principiante. Desactiva el modo en Configuración > Con"
8000,2025-05-20 04:34:09,0,0,3.28084,,,3.2808728084,3.608924,0,0,0,0,0,7.844,3.2808728084,3.28084,0,0,0,0,-0.894776,210.6, 0.1, -0.5,0,0,844,1063,1024,1012,-27,6,0,-2,212.5,-9.5,-0.7,98,3.924,3.92,0,0,0,0,4.969,72.14,3.2808728084,3.28084,11,AutoTakeoff,"Conecta a DJI Fly en exteriores Información de ubicación no actualizada. Algunas funciones no están disponibles. Comprueba que la señal de posicionamiento por satélite sea buena y conéctate a DJI Fly. Velocidad limitada en modo Principiante. Desactiva el modo en Configuración > Con"
8100,2025-05-20 04:34:09,0,0,3.608924,,,3.6089568084,3.608924,0,0,0,0,0,7.844,3.6089568084,3.608924,0,0,0,0,-0.671082,210.6, 0, -0.7,0,0,843,1064,1024,1010,-27,6,0,-2,212.4,-22.9,-0.6,98,3.924,3.92,0,0,0,0,4.969,72.14,3.6089568084,3.608924,6,P-GPS,"Conecta a DJI Fly en exteriores Información de ubicación no actualizada. Algunas funciones no están disponibles. Comprueba que la señal de posicionamiento por satélite sea buena y conéctate a DJI Fly. Velocidad limitada en modo Principiante. Desactiva el modo en Configuración > Con"
8200,2025-05-20 04:34:10,0,0,3.608924,,,3.6089568084,3.937008,0,0,0,0,0,7.844,3.6089568084,3.608924,0,0,0,0,-0.223694,210.6, 0, -0.5,0,0,843,1064,1024,1010,-27,6,0,-2,212.3,-28.9,-0.5,98,3.924,3.92,0,0,0,0,4.969,72.14,3.6089568084,3.608924,6,P-GPS,"Conecta a DJI Fly en exteriores Información de ubicación no actualizada. Algunas funciones no están disponibles. Comprueba que la señal de posicionamiento por satélite sea buena y conéctate a DJI Fly. Velocidad limitada en modo Principiante. Desactiva el modo en Configuración > Con"
8300,2025-05-20 04:34:10,0,0,3.608924,,,3.6089568084,3.937008,0,0,0,0,0,7.844,3.6089568084,3.608924,0,0,0,0,-0.223694,210.6, 0, -0.3,0,0,842,1063,1024,1011,-28,6,0,-2,212.3,-30.7,-0.3,98,3.924,3.92,0,0,0,0,4.969,72.14,3.6089568084,3.608924,6,P-GPS,"Conecta a DJI Fly en exteriores Información de ubicación no actualizada. Algunas funciones no están disponibles. Comprueba que la señal de posicionamiento por satélite sea buena y conéctate a DJI Fly. Velocidad limitada en modo Principiante. Desactiva el modo en Configuración > Con"
8400,2025-05-20 04:34:10,0,0,3.608924,,,3.6089568084,3.937008,0,0,0,0,0,7.844,3.6089568084,3.608924,0,0,0,0,0,210.6, 0.1, -0.2,0,0,843,1062,1024,1011,-27,6,0,-2,212.3,-31.3,-0.2,98,3.924,3.92,0,0,0,0,4.969,72.14,3.6089568084,3.608924,6,P-GPS,"Conecta a DJI Fly en exteriores Información de ubicación no actualizada. Algunas funciones no están disponibles. Comprueba que la señal de posicionamiento por satélite sea buena y conéctate a DJI Fly. Velocidad limitada en modo Principiante. Desactiva el modo en Configuración > Con"
8500,2025-05-20 04:34:10,0,0,3.608924,,,3.6089568084,3.937008,0,0,0,0,0,7.844,3.6089568084,3.608924,0,0,0,0,0,210.6, 0.2, -0.2,0,0,843,1062,1024,1011,-27,6,0,-2,212.3,-31.4,-0.2,98,3.924,3.92,0,0,0,0,4.969,72.14,3.6089568084,3.608924,6,P-GPS,"Conecta a DJI Fly en exteriores Información de ubicación no actualizada. Algunas funciones no están disponibles. Comprueba que la señal de posicionamiento por satélite sea buena y conéctate a DJI Fly. Velocidad limitada en modo Principiante. Desactiva el modo en Configuración > Con"
8600,2025-05-20 04:34:10,0,0,3.608924,,,3.6089568084,3.937008,0,0,0,0,0,7.844,3.6089568084,3.608924,0,0,0,0,0,210.6, 0.3, -0.1,0,0,843,1062,1024,1011,-27,6,0,-2,212.2,-31.5,-0.2,98,3.924,3.92,0,0,0,0,4.969,72.14,3.6089568084,3.608924,6,P-GPS,"Conecta a DJI Fly en exteriores Información de ubicación no actualizada. Algunas funciones no están disponibles. Comprueba que la señal de posicionamiento por satélite sea buena y conéctate a DJI Fly. Velocidad limitada en modo Principiante. Desactiva el modo en Configuración > Con"
8700,2025-05-20 04:34:10,0,0,3.608924,,,3.6089568084,3.937008,0,0,0,0,0,7.844,3.6089568084,3.608924,0,0,0,0,0,210.5, 0.5, -0.1,0,0,844,1062,1024,1011,-27,6,0,-2,212.2,-31.5,-0.2,98,3.924,3.92,0,0,0,0,4.969,72.14,3.6089568084,3.608924,6,P-GPS,"Conecta a DJI Fly en exteriores Información de ubicación no actualizada. Algunas funciones no están disponibles. Comprueba que la señal de posicionamiento por satélite sea buena y conéctate a DJI Fly. Velocidad limitada en modo Principiante. Desactiva el modo en Configuración > Con"
8800,2025-05-20 04:34:10,0,0,3.608924,,,3.6089568084,3.937008,0,0,0,0,0,7.844,3.6089568084,3.608924,0,0,0,0,0,210.5, 0.6, -0.2,0,0,844,1062,1024,1011,-27,6,0,-2,212.2,-31.4,-0.3,98,3.924,3.92,0,0,0,0,4.969,72.14,3.6089568084,3.608924,6,P-GPS,"Conecta a DJI Fly en exteriores Información de ubicación no actualizada. Algunas funciones no están disponibles. Comprueba que la señal de posicionamiento por satélite sea buena y conéctate a DJI Fly. Velocidad limitada en modo Principiante. Desactiva el modo en Configuración > Con"
8900,2025-05-20 04:34:10,0,0,3.608924,,,3.6089568084,3.937008,0,0,0,0,0,7.844,3.6089568084,3.608924,0,0,0,0,0,210.5, 0.7, -0.3,0,0,846,1062,1024,1011,-27,6,0,-2,212.2,-31.4,-0.3,98,3.924,3.92,0,0,0,0,4.969,72.14,3.6089568084,3.608924,6,P-GPS,"Conecta a DJI Fly en exteriores Información de ubicación no actualizada. Algunas funciones no están disponibles. Comprueba que la señal de posicionamiento por satélite sea buena y conéctate a DJI Fly. Velocidad limitada en modo Principiante. Desactiva el modo en Configuración > Con"
9000,2025-05-20 04:34:10,0,0,3.608924,,,3.6089568084,3.937008,0,0,0,0,0,7.844,3.6089568084,3.608924,0,0,0,0,0,210.5, 0.8, -0.2,0,0,847,1063,1024,1011,-27,6,0,-2,212.2,-31.2,-0.3,98,3.924,3.92,0,0,0,0,4.969,72.14,3.6089568084,3.608924,6,P-GPS,"Conecta a DJI Fly en exteriores Información de ubicación no actualizada. Algunas funciones no están disponibles. Comprueba que la señal de posicionamiento por satélite sea buena y conéctate a DJI Fly. Velocidad limitada en modo Principiante. Desactiva el modo en Configuración > Con"
9100,2025-05-20 04:34:11,0,0,3.608924,,,3.6089568084,3.937008,0,0,0,0,0,7.841,3.6089568084,3.608924,0,0,0,0,0,210.5, 0.9, -0.2,0,0,848,1065,1024,1010,-27,6,0,-2,212.2,-30.9,-0.2,98,3.918,3.916,0,0,0,0,4.794,72.14,3.6089568084,3.608924,6,P-GPS,"Conecta a DJI Fly en exteriores Información de ubicación no actualizada. Algunas funciones no están disponibles. Comprueba que la señal de posicionamiento por satélite sea buena y conéctate a DJI Fly. Velocidad limitada en modo Principiante. Desactiva el modo en Configuración > Con"
9200,2025-05-20 04:34:11,0,0,3.608924,,,3.6089568084,3.937008,0,0,0,0,0,7.841,3.6089568084,3.608924,0,0,0,0,0,210.5, 0.9, -0.2,0,0,850,1067,1024,1009,-26,7,0,-2,212.2,-30.7,-0.3,98,3.918,3.916,0,0,0,0,4.794,72.14,3.6089568084,3.608924,6,P-GPS,"Conecta a DJI Fly en exteriores Información de ubicación no actualizada. Algunas funciones no están disponibles. Comprueba que la señal de posicionamiento por satélite sea buena y conéctate a DJI Fly. Velocidad limitada en modo Principiante. Desactiva el modo en Configuración > Con"
9300,2025-05-20 04:34:11,0,0,3.608924,,,3.6089568084,3.937008,0,0,0,0,0,7.841,3.6089568084,3.608924,0,0,0,0,0,210.5, 0.8, -0.2,0,0,853,1072,1024,1007,-26,7,0,-3,212.2,-30.4,-0.2,98,3.918,3.916,0,0,0,0,4.794,72.14,3.6089568084,3.608924,6,P-GPS,"Conecta a DJI Fly en exteriores Información de ubicación no actualizada. Algunas funciones no están disponibles. Comprueba que la señal de posicionamiento por satélite sea buena y conéctate a DJI Fly. Velocidad limitada en modo Principiante. Desactiva el modo en Configuración > Con"
9400,2025-05-20 04:34:11,0,0,3.608924,,,3.6089568084,3.937008,0,0,0,0,0,7.841,3.6089568084,3.608924,0,0,0,0,0,210.5, 0.7, -0.2,0,0,857,1075,1024,1006,-25,8,0,-3,212.3,-30.1,-0.2,98,3.918,3.916,0,0,0,0,4.794,72.14,3.6089568084,3.608924,6,P-GPS,"Conecta a DJI Fly en exteriores Información de ubicación no actualizada. Algunas funciones no están disponibles. Comprueba que la señal de posicionamiento por satélite sea buena y conéctate a DJI Fly. Velocidad limitada en modo Principiante. Desactiva el modo en Configuración > Con"
9500,2025-05-20 04:34:11,0,0,3.608924,,,3.6089568084,3.937008,0,0,0,0,0,7.841,3.6089568084,3.608924,0,0,0,0,0,210.5, 0.6, -0.2,0,0,864,1077,1024,1007,-24,8,0,-3,212.3,-29.4,-0.3,98,3.918,3.916,0,0,0,0,4.794,72.14,3.6089568084,3.608924,6,P-GPS,"Conecta a DJI Fly en exteriores Información de ubicación no actualizada. Algunas funciones no están disponibles. Comprueba que la señal de posicionamiento por satélite sea buena y conéctate a DJI Fly. Velocidad limitada en modo Principiante. Desactiva el modo en Configuración > Con"
9600,2025-05-20 04:34:11,0,0,3.608924,,,3.6089568084,3.937008,0,0,0,0,0,7.841,3.6089568084,3.608924,0,0,0,0,0,210.5, 0.6, -0.2,0,0,868,1077,1024,1006,-24,8,0,-3,212.3,-28.4,-0.3,98,3.918,3.916,0,0,0,0,4.794,72.14,3.6089568084,3.608924,6,P-GPS,"Conecta a DJI Fly en exteriores Información de ubicación no actualizada. Algunas funciones no están disponibles. Comprueba que la señal de posicionamiento por satélite sea buena y conéctate a DJI Fly. Velocidad limitada en modo Principiante. Desactiva el modo en Configuración > Con"
9700,2025-05-20 04:34:11,0,0,3.608924,,,3.6089568084,3.937008,0,0,0,0,0,7.841,3.6089568084,3.608924,0,0,0,0,0,210.5, 0.5, -0.3,0,0,870,1075,1024,1006,-23,8,0,-3,212.3,-27.7,-0.3,98,3.918,3.916,0,0,0,0,4.794,72.14,3.6089568084,3.608924,6,P-GPS,"Conecta a DJI Fly en exteriores Información de ubicación no actualizada. Algunas funciones no están disponibles. Comprueba que la señal de posicionamiento por satélite sea buena y conéctate a DJI Fly. Velocidad limitada en modo Principiante. Desactiva el modo en Configuración > Con"
9800,2025-05-20 04:34:11,0,0,3.608924,,,3.6089568084,3.937008,0,0,0,0,0,7.841,3.6089568084,3.608924,0,0,0,0,0,210.5, 0.5, -0.2,0,0,872,1072,1024,1006,-23,7,0,-3,212.3,-27.1,-0.2,98,3.918,3.916,0,0,0,0,4.794,72.14,3.6089568084,3.608924,6,P-GPS,"Conecta a DJI Fly en exteriores Información de ubicación no actualizada. Algunas funciones no están disponibles. Comprueba que la señal de posicionamiento por satélite sea buena y conéctate a DJI Fly. Velocidad limitada en modo Principiante. Desactiva el modo en Configuración > Con"
9900,2025-05-20 04:34:11,0,0,3.608924,,,3.6089568084,3.937008,0,0,0,0,0,7.841,3.6089568084,3.608924,0,0,0,0,0,210.5, 0.4, -0.2,0,0,875,1063,1024,1009,-23,6,0,-2,212.3,-26.6,-0.1,98,3.918,3.916,0,0,0,0,4.794,72.14,3.6089568084,3.608924,6,P-GPS,"Conecta a DJI Fly en exteriores Información de ubicación no actualizada. Algunas funciones no están disponibles. Comprueba que la señal de posicionamiento por satélite sea buena y conéctate a DJI Fly. Velocidad limitada en modo Principiante. Desactiva el modo en Configuración > Con"
10000,2025-05-20 04:34:11,0,0,3.608924,,,3.6089568084,3.937008,0,0,0,0,0,7.826,3.6089568084,3.608924,0,0,0,0,0,210.5, 0.3, -0.1,0,0,874,1061,1024,1006,-23,6,0,-3,212.4,-26.1,-0.1,98,3.914,3.912,0,0,0,0,4.797,72.32,3.6089568084,3.608924,6,P-GPS,"Conecta a DJI Fly en exteriores Información de ubicación no actualizada. Algunas funciones no están disponibles. Comprueba que la señal de posicionamiento por satélite sea buena y conéctate a DJI Fly. Velocidad limitada en modo Principiante. Desactiva el modo en Configuración > Con"
10100,2025-05-20 04:34:12,0,0,3.608924,,,3.6089568084,3.937008,0,0,0,0,0,7.826,3.6089568084,3.608924,0,0,0,0,0,210.5, 0.2, -0.1,0,0,874,1058,1024,988,-23,5,0,-5,212.4,-26.1,-0.1,98,3.914,3.912,0,0,0,0,4.797,72.32,3.6089568084,3.608924,6,P-GPS,"Conecta a DJI Fly en exteriores Información de ubicación no actualizada. Algunas funciones no están disponibles. Comprueba que la señal de posicionamiento por satélite sea buena y conéctate a DJI Fly. Velocidad limitada en modo Principiante. Desactiva el modo en Configuración > Con"
10200,2025-05-20 04:34:12,0,0,3.608924,,,3.6089568084,3.937008,0,0,0,0,0,7.826,3.6089568084,3.608924,0,0,0,0,0,210.5, 0.2, -0.1,0,0,879,1054,1024,978,-22,5,0,-7,212.4,-26.1,-0.1,98,3.914,3.912,0,0,0,0,4.797,72.32,3.6089568084,3.608924,6,P-GPS,"Conecta a DJI Fly en exteriores Información de ubicación no actualizada. Algunas funciones no están disponibles. Comprueba que la señal de posicionamiento por satélite sea buena y conéctate a DJI Fly. Velocidad limitada en modo Principiante. Desactiva el modo en Configuración > Con"
10300,2025-05-20 04:34:12,0,0,3.608924,,,3.6089568084,3.937008,0,0,0,0,0,7.826,3.6089568084,3.608924,0,0,0,0,0,210.5, 0.2, -0.1,0,0,889,1052,1024,982,-20,4,0,-6,212.4,-25.4,-0.1,98,3.914,3.912,0,0,0,0,4.797,72.32,3.6089568084,3.608924,6,P-GPS,"Conecta a DJI Fly en exteriores Información de ubicación no actualizada. Algunas funciones no están disponibles. Comprueba que la señal de posicionamiento por satélite sea buena y conéctate a DJI Fly. Velocidad limitada en modo Principiante. Desactiva el modo en Configuración > Con"
10400,2025-05-20 04:34:12,0,0,3.608924,,,3.6089568084,3.937008,0,0,0,0,0,7.826,3.6089568084,3.608924,0,0,0,0,0,210.5, 0.2, -0.1,0,0,888,1056,1024,988,-21,5,0,-5,212.4,-24.4,-0.1,98,3.914,3.912,0,0,0,0,4.797,72.32,3.6089568084,3.608924,6,P-GPS,"Conecta a DJI Fly en exteriores Información de ubicación no actualizada. Algunas funciones no están disponibles. Comprueba que la señal de posicionamiento por satélite sea buena y conéctate a DJI Fly. Velocidad limitada en modo Principiante. Desactiva el modo en Configuración > Con"
10500,2025-05-20 04:34:12,0,0,3.608924,,,3.6089568084,3.937008,0,0,0,0,0,7.826,3.6089568084,3.608924,0,0,0,0,0,210.5, 0.2, -0.1,0,0,887,1058,1024,992,-21,5,0,-5,212.4,-24,-0.1,98,3.914,3.912,0,0,0,0,4.797,72.32,3.6089568084,3.608924,6,P-GPS,"Conecta a DJI Fly en exteriores Información de ubicación no actualizada. Algunas funciones no están disponibles. Comprueba que la señal de posicionamiento por satélite sea buena y conéctate a DJI Fly. Velocidad limitada en modo Principiante. Desactiva el modo en Configuración > Con"
10600,2025-05-20 04:34:12,0,0,3.608924,,,3.6089568084,3.937008,0,0,0,0,0,7.826,3.6089568084,3.608924,0,0,0,0,0,210.5, 0.2, -0.2,0,0,888,1058,1024,993,-21,5,0,-5,212.4,-23.9,-0.2,98,3.914,3.912,0,0,0,0,4.797,72.32,3.6089568084,3.608924,6,P-GPS,"Conecta a DJI Fly en exteriores Información de ubicación no actualizada. Algunas funciones no están disponibles. Comprueba que la señal de posicionamiento por satélite sea buena y conéctate a DJI Fly. Velocidad limitada en modo Principiante. Desactiva el modo en Configuración > Con"
10700,2025-05-20 04:34:12,0,0,3.608924,,,3.6089568084,3.937008,0,0,0,0,0,7.826,3.6089568084,3.608924,0,0,0,0,0,210.5, 0.3, -0.3,0,0,889,1060,1024,996,-20,5,0,-4,212.4,-23.7,-0.2,98,3.914,3.912,0,0,0,0,4.797,72.32,3.6089568084,3.608924,6,P-GPS,"Conecta a DJI Fly en exteriores Información de ubicación no actualizada. Algunas funciones no están disponibles. Comprueba que la señal de posicionamiento por satélite sea buena y conéctate a DJI Fly. Velocidad limitada en modo Principiante. Desactiva el modo en Configuración > Con"
10800,2025-05-20 04:34:12,0,0,3.608924,,,3.6089568084,3.937008,0,0,0,0,0,7.826,3.6089568084,3.608924,0,0,0,0,0,210.5, 0.4, -0.3,0,0,889,1061,1024,996,-20,6,0,-4,212.4,-23.5,-0.3,98,3.914,3.912,0,0,0,0,4.797,72.32,3.6089568084,3.608924,6,P-GPS,"Conecta a DJI Fly en exteriores Información de ubicación no actualizada. Algunas funciones no están disponibles. Comprueba que la señal de posicionamiento por satélite sea buena y conéctate a DJI Fly. Velocidad limitada en modo Principiante. Desactiva el modo en Configuración > Con"
10900,2025-05-20 04:34:12,0,0,3.608924,,,3.6089568084,3.937008,0,0,0,0,0,7.826,3.6089568084,3.608924,0,0,0,0,0,210.5, 0.5, -0.3,0,0,886,1062,1024,993,-21,6,0,-5,212.4,-23.5,-0.2,98,3.914,3.912,0,0,0,0,4.797,72.32,3.6089568084,3.608924,6,P-GPS,"Conecta a DJI Fly en exteriores Información de ubicación no actualizada. Algunas funciones no están disponibles. Comprueba que la señal de posicionamiento por satélite sea buena y conéctate a DJI Fly. Velocidad limitada en modo Principiante. Desactiva el modo en Configuración > Con"
11000,2025-05-20 04:34:12,0,0,3.608924,,,3.6089568084,3.937008,0,0,0,0,0,7.826,3.6089568084,3.608924,0,0,0,0,0,210.5, 0.5, -0.3,0,0,884,1062,1024,989,-21,6,0,-5,212.4,-23.8,-0.2,98,3.914,3.912,0,0,0,0,4.797,72.32,3.6089568084,3.608924,6,P-GPS,"Conecta a DJI Fly en exteriores Información de ubicación no actualizada. Algunas funciones no están disponibles. Comprueba que la señal de posicionamiento por satélite sea buena y conéctate a DJI Fly. Velocidad limitada en modo Principiante. Desactiva el modo en Configuración > Con"
11100,2025-05-20 04:34:13,0,0,3.608924,,,3.6089568084,3.937008,0,0,0,0,0,7.81,3.6089568084,3.608924,0,0,0,0,0,210.5, 0.4, -0.3,0,0,884,1061,1024,985,-21,6,0,-6,212.4,-24.1,-0.2,98,3.906,3.904,0,0,0,0,4.845,72.32,3.6089568084,3.608924,6,P-GPS,"Conecta a DJI Fly en exteriores Información de ubicación no actualizada. Algunas funciones no están disponibles. Comprueba que la señal de posicionamiento por satélite sea buena y conéctate a DJI Fly. Velocidad limitada en modo Principiante. Desactiva el modo en Configuración > Con"
11200,2025-05-20 04:34:13,0,0,3.608924,,,3.6089568084,3.937008,0,0,0,0,0,7.81,3.6089568084,3.608924,0,0,0,0,0,210.5, 0.4, -0.2,0,0,883,1061,1024,986,-21,6,0,-6,212.4,-24.3,-0.2,98,3.906,3.904,0,0,0,0,4.845,72.32,3.6089568084,3.608924,6,P-GPS,"Conecta a DJI Fly en exteriores Información de ubicación no actualizada. Algunas funciones no están disponibles. Comprueba que la señal de posicionamiento por satélite sea buena y conéctate a DJI Fly. Velocidad limitada en modo Principiante. Desactiva el modo en Configuración > Con"
11300,2025-05-20 04:34:13,0,0,3.608924,,,3.6089568084,3.937008,0,0,0,0,0,7.81,3.6089568084,3.608924,0,0,0,0,0,210.5, 0.4, -0.3,0,0,882,1062,1024,985,-22,6,0,-6,212.4,-24.5,-0.2,98,3.906,3.904,0,0,0,0,4.845,72.32,3.6089568084,3.608924,6,P-GPS,"Conecta a DJI Fly en exteriores Información de ubicación no actualizada. Algunas funciones no están disponibles. Comprueba que la señal de posicionamiento por satélite sea buena y conéctate a DJI Fly. Velocidad limitada en modo Principiante. Desactiva el modo en Configuración > Con"
11400,2025-05-20 04:34:13,0,0,3.608924,,,3.6089568084,3.937008,0,0,0,0,0,7.81,3.6089568084,3.608924,0,0,0,0,0,210.4, 0.3, -0.3,0,0,887,1060,1024,984,-21,5,0,-6,212.4,-24.6,-0.3,98,3.906,3.904,0,0,0,0,4.845,72.32,3.6089568084,3.608924,6,P-GPS,"Conecta a DJI Fly en exteriores Información de ubicación no actualizada. Algunas funciones no están disponibles. Comprueba que la señal de posicionamiento por satélite sea buena y conéctate a DJI Fly. Velocidad limitada en modo Principiante. Desactiva el modo en Configuración > Con"
