time(millisecond),datetime(utc),latitude,longitude,height_above_takeoff(feet),height_above_ground_at_drone_location(feet),ground_elevation_at_drone_location(feet),altitude_above_seaLevel(feet),height_sonar(feet),speed(mph),distance(feet),mileage(feet),satellites,gpslevel,voltage(v),max_altitude(feet),max_ascent(feet),max_speed(mph),max_distance(feet), xSpeed(mph), ySpeed(mph), zSpeed(mph), compass_heading(degrees), pitch(degrees), roll(degrees),isPhoto,isVideo,rc_elevator,rc_aileron,rc_throttle,rc_rudder,rc_elevator(percent),rc_aileron(percent),rc_throttle(percent),rc_rudder(percent),gimbal_heading(degrees),gimbal_pitch(degrees),gimbal_roll(degrees),battery_percent,voltageCell1,voltageCell2,voltageCell3,voltageCell4,voltageCell5,voltageCell6,current(A),battery_temperature(f),altitude(feet),ascent(feet),flycStateRaw,flycState,message
486400,2025-05-20 15:59:27,-34.9287424539418,-56.1627900311866,0,0,6.530210510804,6.792677710804,0,0,0,0,24,5,0,6.792677710804,0,0,0,0,0,0.223694,210.5, -0.6, 4.6,0,0,903,776,1024,1190,-18,-38,0,25,207.4,0,4.7,33,3.601,3.594,0,0,0,0,0,109.76,6.792677710804,0,6,P-GPS,
486500,2025-05-20 15:59:27,-34.9287424968709,-56.1627900827641,0,0,6.530210510804,6.792677710804,0,0,0.0219852041156,0.0219852041156,24,5,0,6.792677710804,0,0,0.0219852041156,0,0,0.223694,210.5, -0.6, 4.6,0,0,903,776,1024,1190,-18,-38,0,25,207.4,0,4.7,33,3.601,3.594,0,0,0,0,0,109.76,6.792677710804,0,6,P-GPS,"Zona de altitud restringida 150m Arranque de motores..."
486600,2025-05-20 15:59:27,-34.9287425401855,-56.1627903122115,0,0.032808399999999,6.497402110804,6.792677710804,0,0,0.089758204972,0.092415029204,23,5,0,6.792677710804,0,0,0.089758204972,0,0,0.223694,210.5, -0.5, 4.6,0,0,903,776,1024,1190,-18,-38,0,25,207.4,0,4.7,33,3.601,3.594,0,0,0,0,0,109.76,6.792677710804,0,41,Motors_Started,"Zona de altitud restringida 150m Arranque de motores..."
486700,2025-05-20 15:59:27,-34.9287425328522,-56.1627903627493,0,0.032808399999999,6.497402110804,6.792677710804,0,0,0.103273625352,0.1077673919,23,5,0,6.792677710804,0,0,0.103273625352,0,0,0.223694,210.5, -0.5, 4.6,0,0,903,776,1024,1190,-18,-38,0,25,207.4,0,4.7,33,3.601,3.594,0,0,0,0,0,109.76,6.792677710804,0,41,Motors_Started,"Zona de altitud restringida 150m Arranque de motores..."
486800,2025-05-20 15:59:28,-34.9287423688717,-56.1627903080658,0,0,6.530210510804,6.792677710804,0.328084,0,0.088446853224,0.169791344016,23,5,0,6.792677710804,0,0,0.103273625352,0,0,0,210.5, -0.4, 4.6,0,0,903,776,1024,1190,-18,-38,0,25,207.4,0,4.7,33,3.601,3.594,0,0,0,0,0,109.76,6.792677710804,0,41,Motors_Started,"Zona de altitud restringida 150m Arranque de motores..."
486900,2025-05-20 15:59:28,-34.9287421876716,-56.162790213965,0,0,6.530210510804,6.792677710804,0.328084,0,0.111476709604,0.241645020856,23,5,0,6.792677710804,0,0,0.111476709604,0,0,0,210.5, -0.4, 4.6,0,0,903,776,1024,1190,-18,-38,0,25,207.3,0,4.7,33,3.601,3.594,0,0,0,0,0,109.76,6.792677710804,0,41,Motors_Started,"Zona de altitud restringida 150m Arranque de motores..."
487000,2025-05-20 15:59:28,-34.9287421953819,-56.1627903416915,0,0,6.530210510804,6.792677710804,0.328084,0,0.132385502924,0.279954733368,23,5,0,6.792677710804,0,0,0.132385502924,0,0,0,210.5, -0.4, 4.6,0,0,903,776,1024,1190,-18,-38,0,25,207.4,0,4.7,33,3.601,3.594,0,0,0,0,0,109.76,6.792677710804,0,41,Motors_Started,"Setting new Return-To-Home altitude to 30m (98 ft). Data Recorder File Index is 5. Setting new Maximum Flight Altitude to 120m (394 ft). Zona de altitud restringida 150m Arranque de motores..."
487100,2025-05-20 15:59:28,-34.9287421377861,-56.1627903115114,0,0,6.530210510804,6.792677710804,0.328084,0,3.06271991428,0.302825797092,23,5,0,6.792677710804,0,0,3.06271991428,0,0,0,210.5, -0.4, 4.6,0,0,903,776,1024,1190,-18,-38,0,25,207.4,0,4.8,33,3.601,3.594,0,0,0,0,0,109.76,6.792677710804,0,41,Motors_Started,"Zona de altitud restringida 150m Arranque de motores..."
487200,2025-05-20 15:59:28,-34.9287425054722,-56.1627906498452,0,0.032808399999999,6.497402110804,6.792677710804,0.328084,0,3.20868448588,0.47086943764,23,5,0,6.792677710804,0,0,3.20868448588,0,0,0,210.5, -0.4, 4.6,0,0,903,776,1024,1190,-18,-38,0,25,207.3,0,4.8,33,3.601,3.594,0,0,0,0,0,109.76,6.792677710804,0,41,Motors_Started,"Zona de altitud restringida 150m Arranque de motores..."
487300,2025-05-20 15:59:28,-34.9287424861279,-56.1627906370476,0,0,6.530210510804,6.792677710804,0.328084,0,3.20115823892,0.47889765312,23,5,0,6.792677710804,0,0,3.20868448588,0,0,0,210.5, -0.4, 4.6,0,0,903,776,1024,1190,-18,-38,0,25,207.4,0,4.8,33,3.601,3.594,0,0,0,0,0,109.76,6.792677710804,0,41,Motors_Started,"Zona de altitud restringida 150m Arranque de motores..."
487400,2025-05-20 15:59:28,-34.9287424694309,-56.1627908797733,0,0,6.530210510804,6.792677710804,0.328084,0,3.20609590312,0.55175854784,23,5,0,6.792677710804,0,0,3.20868448588,0,0,0,210.5, -0.4, 4.6,0,0,903,776,1024,1190,-18,-38,0,25,207.4,0,4.8,33,3.601,3.594,0,0,0,0,0,109.76,6.792677710804,0,41,Motors_Started,"Zona de altitud restringida 150m Arranque de motores..."
487500,2025-05-20 15:59:28,-34.9287424629114,-56.1627908767195,0,0,6.530210510804,6.792677710804,0.328084,0,3.20359918388,0.55430776052,23,5,0,6.792677710804,0,0,3.20868448588,0,0,0,210.5, -0.4, 4.6,0,0,903,776,1024,1190,-18,-38,0,25,207.4,0,4.8,33,3.601,3.594,0,0,0,0,0,109.76,6.792677710804,0,41,Motors_Started,"Zona de altitud restringida 150m Arranque de motores..."
487600,2025-05-20 15:59:28,-34.9287426878545,-56.1627908954785,0,0.032808399999999,6.497402110804,6.792677710804,0.328084,0,3.2854987928,0.63656826184,23,5,0,6.792677710804,0,0,3.2854987928,0,0,0,210.5, -0.3, 4.6,0,0,903,776,1024,1190,-18,-38,0,25,207.4,0,4.8,33,3.601,3.594,0,0,0,0,0,109.76,6.792677710804,0,41,Motors_Started,"Zona de altitud restringida 150m Arranque de motores..."
487700,2025-05-20 15:59:28,-34.9287426829028,-56.1627908946191,0,0.032808399999999,6.497402110804,6.792677710804,0.328084,0,3.2836943308,0.63839568972,23,5,0,6.792677710804,0,0,3.2854987928,0,0,0,210.5, -0.3, 4.6,0,0,903,776,1024,1190,-18,-38,0,25,207.4,0,4.8,33,3.601,3.594,0,0,0,0,0,109.76,6.792677710804,0,41,Motors_Started,"Zona de altitud restringida 150m Arranque de motores..."
487800,2025-05-20 15:59:29,-34.9287426787136,-56.1627911026167,0,0.032808399999999,6.497402110804,6.792677710804,0.328084,0,3.2926838324,0.70062994368,23,5,0,6.792677710804,0,0,3.2926838324,0,0,0,210.4, -0.4, 4.6,0,0,903,776,1024,1190,-18,-38,0,25,207.4,0,4.8,33,3.601,3.594,0,0,0,0,0,109.76,6.792677710804,0,41,Motors_Started,"Zona de altitud restringida 150m Arranque de motores..."
487900,2025-05-20 15:59:29,-34.9287426663771,-56.1627911080138,0,0.032808399999999,6.497402110804,6.792677710804,0.328084,0,3.288549974,0.7054134084,23,5,0,6.792677710804,0,0,3.2926838324,0,0,0,210.3, -0.4, 4.6,0,0,903,776,1024,1190,-18,-38,0,25,207.4,0,4.8,33,3.601,3.594,0,0,0,0,0,109.76,6.792677710804,0,41,Motors_Started,"Zona de altitud restringida 150m Arranque de motores..."
488000,2025-05-20 15:59:29,-34.9287425825921,-56.1627911002813,0,0.032808399999999,6.497402110804,6.792677710804,0.328084,0,3.2580545662,0.73606957736,23,5,0,6.792677710804,0,0,3.2926838324,0,0,0,210.2, -0.3, 4.6,0,0,903,776,1024,1190,-18,-38,0,25,207.4,0,4.7,33,3.601,3.594,0,0,0,0,0,109.76,6.792677710804,0,41,Motors_Started,"Zona de altitud restringida 150m Arranque de motores..."
488100,2025-05-20 15:59:29,-34.9287425848367,-56.1627910967495,0,0.032808399999999,6.497402110804,6.792677710804,0.328084,0,3.25867136412,0.73740487924,23,5,0,6.792677710804,0,0,3.2926838324,0,0,0,210.2, -0.3, 4.6,0,0,903,776,1024,1190,-18,-38,0,25,207.4,0,4.7,33,3.601,3.594,0,0,0,0,0,109.76,6.792677710804,0,41,Motors_Started,"Zona de altitud restringida 150m Arranque de motores..."
488200,2025-05-20 15:59:29,-34.9287425972159,-56.1627910988629,0,0.032808399999999,6.497402110804,6.792677710804,0.328084,0,3.26322845088,0.74196524684,22,5,0,6.792677710804,0,0,3.2926838324,0,0,0,210.3, -0.3, 4.6,0,0,903,776,1024,1190,-18,-38,0,25,207.4,0,4.7,33,3.601,3.594,0,0,0,0,0,109.76,6.792677710804,0,41,Motors_Started,"Zona de altitud restringida 150m Arranque de motores..."
488300,2025-05-20 15:59:29,-34.9287425897198,-56.1627910981026,0,0.032808399999999,6.497402110804,6.792677710804,0.328084,0,3.26049551116,0.74471130992,22,5,0,6.792677710804,0,0,3.2926838324,0,0,0,210.2, -0.3, 4.6,0,0,903,776,1024,1190,-18,-38,0,25,207.4,0,4.7,33,3.601,3.594,0,0,0,0,0,109.76,6.792677710804,0,41,Motors_Started,"Zona de altitud restringida 150m Arranque de motores..."
488400,2025-05-20 15:59:29,-34.9287426870664,-56.1627912987466,0,0.032808399999999,6.497402110804,6.792677710804,0.328084,0,3.3066274024,0.81444884496,21,5,0,6.792677710804,0,0,3.3066274024,0,0,0,210.3, -0.3, 4.6,0,0,903,776,1024,1190,-18,-38,0,25,207.4,0,4.7,33,3.601,3.594,0,0,0,0,0,109.76,6.792677710804,0,41,Motors_Started,"Zona de altitud restringida 150m Arranque de motores..."
488500,2025-05-20 15:59:29,-34.9287426896536,-56.1627912925633,0.328084,0.3608924,6.497402110804,7.120761710804,0.328084,0,3.3071851452,0.81652561668,21,5,0,7.120761710804,0.328084,0,3.3071851452,0,0,0,210.3, -0.3, 4.6,0,0,903,776,1024,1190,-18,-38,0,25,207.4,0,4.7,33,3.601,3.594,0,0,0,0,0,109.76,7.120761710804,0.328084,41,Motors_Started,"Zona de altitud restringida 150m Arranque de motores..."
488600,2025-05-20 15:59:29,-34.9287427036178,-56.1627913901959,0.328084,0.3608924,6.497402110804,7.120761710804,0.328084,0,3.3179791088,0.84617128692,21,5,0,7.120761710804,0.328084,0,3.3179791088,0,0,0,210.3, -0.3, 4.6,0,0,903,776,1024,1190,-18,-38,0,25,207.3,0,4.7,33,3.601,3.594,0,0,0,0,0,109.76,7.120761710804,0.328084,10,Assisted_Takeoff,"Zona de altitud restringida 150m Arranque de motores..."
488700,2025-05-20 15:59:29,-34.9287427036178,-56.162791391698,0.328084,0.3608924,6.497402110804,7.120761710804,0.328084,0,3.318077534,0.846620762,21,5,0,7.120761710804,0.328084,0,3.318077534,0,0,0,210.4, -0.3, 4.6,0,0,903,776,1024,1190,-18,-38,0,25,207.4,0,4.7,33,3.601,3.594,0,0,0,0,0,109.76,7.120761710804,0.328084,10,Assisted_Takeoff,"Zona de altitud restringida 150m Arranque de motores..."
488800,2025-05-20 15:59:30,-34.9287428009301,-56.1627914001358,0.328084,0.3608924,6.497402110804,7.120761710804,0.328084,0,3.353346564,0.88221459516,21,5,0,7.120761710804,0.328084,0,3.353346564,0,0,0,210.4, -0.3, 4.6,0,0,903,776,1024,1190,-18,-38,0,25,207.3,0,4.7,33,3.601,3.594,0,0,0,0,0,109.76,7.120761710804,0.328084,10,Assisted_Takeoff,"Zona de altitud restringida 150m Arranque de motores..."
488900,2025-05-20 15:59:30,-34.9287428060017,-56.1627913801568,0.328084,0.3608924,6.497402110804,7.120761710804,0.328084,0,3.3539699236,0.88847115704,21,5,0,7.120761710804,0.328084,0,3.3539699236,0,0,0,210.2, -0.3, 4.8,0,0,903,776,1024,1190,-18,-38,0,25,207.3,0,4.7,33,3.601,3.594,0,0,0,0,0,109.76,7.120761710804,0.328084,10,Assisted_Takeoff,"Zona de altitud restringida 150m Arranque de motores..."
489000,2025-05-20 15:59:30,-34.9287428057961,-56.1627913900601,0.328084,0.3608924,6.497402110804,7.120761710804,0.328084,0,3.354494858,0.89143375556,21,5,0,7.120761710804,0.328084,0,3.354494858,0,0,0,210.3, -0.3, 4.8,0,0,903,776,1024,1190,-18,-38,0,25,207.3,0,4.7,33,3.601,3.594,0,0,0,0,0,109.76,7.120761710804,0.328084,10,Assisted_Takeoff,"Zona de altitud restringida 150m Arranque de motores..."
489100,2025-05-20 15:59:30,-34.9287428027291,-56.1627914064968,0.328084,0.3608924,6.497402110804,7.120761710804,0.328084,0,3.3543964328,0.89647640664,21,5,0,7.120761710804,0.328084,0,3.354494858,0,0,0,210.4, -0.3, 4.8,0,0,903,776,1024,1190,-18,-38,0,25,207.3,0,4.7,33,3.601,3.594,0,0,0,0,0,109.76,7.120761710804,0.328084,41,Motors_Started,"Zona de altitud restringida 150m Arranque de motores..."
489200,2025-05-20 15:59:30,-34.9287426933631,-56.1627915375618,0.328084,0.3608924,6.497402110804,7.120761710804,0.328084,0,3.3235565368,0.95241800948,22,5,0,7.120761710804,0.328084,0,3.354494858,0,0,0,210.3, -0.3, 4.8,0,0,903,776,1024,1190,-18,-38,0,25,207.3,0,4.7,33,3.601,3.594,0,0,0,0,0,109.76,7.120761710804,0.328084,41,Motors_Started,"Zona de altitud restringida 150m Arranque de motores..."
489300,2025-05-20 15:59:30,-34.9287426918468,-56.1627915523788,0.328084,0.3608924,6.497402110804,7.120761710804,0.328084,0,3.3239502376,0.95688323272,22,5,0,7.120761710804,0.328084,0,3.354494858,0,0,0,210.3, -0.3, 4.8,0,0,903,776,1024,1190,-18,-38,0,25,207.3,0,4.7,33,3.601,3.594,0,0,0,0,0,109.76,7.120761710804,0.328084,41,Motors_Started,"Zona de altitud restringida 150m Arranque de motores..."
489400,2025-05-20 15:59:30,-34.9287425987665,-56.1627915286512,0.328084,0.3608924,6.497402110804,7.120761710804,0.328084,0,3.2892717588,0.99157811572,23,5,0,7.120761710804,0.328084,0,3.354494858,0,0,0,210.3, -0.3, 4.7,0,0,903,776,1024,1190,-18,-38,0,25,207.4,0,4.7,33,3.601,3.594,0,0,0,0,0,109.76,7.120761710804,0.328084,41,Motors_Started,"Zona de altitud restringida 150m Arranque de motores.... Motores iniciándose. Mantén presionado el botón Bloqueo para despegar"
489500,2025-05-20 15:59:30,-34.9287425996318,-56.1627915381626,0.328084,0.3608924,6.497402110804,7.120761710804,0.328084,0,3.290190394,0.9944390082,23,5,7.195,7.120761710804,0.328084,0,3.354494858,0,0,0,210.3, -0.3, 4.7,0,0,903,776,1024,1190,-18,-38,0,25,207.3,0,4.8,33,3.601,3.594,0,0,0,0,1.102,109.76,7.120761710804,0.328084,41,Motors_Started,"Zona de altitud restringida 150m Motores iniciándose. Mantén presionado el botón Bloqueo para despegar"
489600,2025-05-20 15:59:30,-34.9287425010345,-56.1627915185703,0.328084,0.3608924,6.497402110804,7.120761710804,0.328084,0,3.25381572092,1.03088585976,23,5,7.195,7.120761710804,0.328084,0,3.354494858,0,0,0,210.3, -0.3, 4.7,0,0,903,776,1024,1190,-18,-38,0,25,207.3,0,4.8,33,3.601,3.594,0,0,0,0,1.102,109.76,7.120761710804,0.328084,41,Motors_Started,"Zona de altitud restringida 150m Motores iniciándose. Mantén presionado el botón Bloqueo para despegar"
489700,2025-05-20 15:59:30,-34.9287425012401,-56.1627915284762,0.328084,0.3608924,6.497402110804,7.120761710804,0.328084,0,3.25453750572,1.03385173912,23,5,7.195,7.120761710804,0.328084,0,3.354494858,0,0,0,210.3, -0.3, 4.7,0,0,903,776,1024,1190,-18,-38,0,25,207.3,0,4.8,33,3.601,3.594,0,0,0,0,1.102,109.76,7.120761710804,0.328084,41,Motors_Started,"Zona de altitud restringida 150m Motores iniciándose. Mantén presionado el botón Bloqueo para despegar"
489800,2025-05-20 15:59:31,-34.9287424995866,-56.1627917179342,0.328084,0.328084,6.530210510804,7.120761710804,0.328084,0,3.26685049824,1.09052825012,23,5,7.195,7.120761710804,0.328084,0,3.354494858,0,0,0,210.3, -0.3, 4.7,0,0,903,776,1024,1190,-18,-38,0,25,207.3,0,4.8,33,3.601,3.594,0,0,0,0,1.102,109.76,7.120761710804,0.328084,41,Motors_Started,"Zona de altitud restringida 150m Motores iniciándose. Mantén presionado el botón Bloqueo para despegar"
489900,2025-05-20 15:59:31,-34.9287425006747,-56.162791726871,0.328084,0.3608924,6.497402110804,7.120761710804,0.328084,0,3.26786755864,1.09322838144,23,5,7.195,7.120761710804,0.328084,0,3.354494858,0,0,0,210.3, -0.3, 4.7,0,0,903,776,1024,1190,-18,-38,0,25,207.3,0,4.8,33,3.601,3.594,0,0,0,0,1.102,109.76,7.120761710804,0.328084,41,Motors_Started,"Zona de altitud restringida 150m Motores iniciándose. Mantén presionado el botón Bloqueo para despegar"
490000,2025-05-20 15:59:31,-34.9287425029449,-56.1627918176854,0.656168,0.6889764,6.497402110804,7.448845710804,0.328084,0,3.27520351688,1.12040686,23,5,7.195,7.448845710804,0.656168,0,3.354494858,0,0,0,210.4, -0.3, 4.7,0,0,903,776,1024,1190,-18,-38,0,25,207.3,0,4.8,33,3.601,3.594,0,0,0,0,1.102,109.76,7.448845710804,0.656168,41,Motors_Started,"Zona de altitud restringida 150m Motores iniciándose. Mantén presionado el botón Bloqueo para despegar"
490100,2025-05-20 15:59:31,-34.928742503536,-56.1627918290725,0.656168,0.6889764,6.497402110804,7.448845710804,0.328084,0,3.276246824,1.1238189336,23,5,7.195,7.448845710804,0.656168,0,3.354494858,0,0,0,210.4, -0.3, 4.7,0,0,903,776,1024,1190,-18,-38,0,25,207.3,0,4.8,33,3.601,3.594,0,0,0,0,1.102,109.76,7.448845710804,0.656168,41,Motors_Started,"Zona de altitud restringida 150m Motores iniciándose. Mantén presionado el botón Bloqueo para despegar"
490200,2025-05-20 15:59:31,-34.9287424010578,-56.1627918264785,0.656168,0.656168,6.530210510804,7.448845710804,0.328084,0,3.23982293832,1.16121722876,23,5,7.195,7.448845710804,0.656168,0,3.354494858,0,0,0,210.4, -0.3, 4.7,0,0,903,776,1024,1190,-18,-38,0,25,207.3,0,4.8,33,3.601,3.594,0,0,0,0,1.102,109.76,7.448845710804,0.656168,41,Motors_Started,"Zona de altitud restringida 150m Motores iniciándose. Mantén presionado el botón Bloqueo para despegar"
490300,2025-05-20 15:59:31,-34.928742399413,-56.1627918297073,0.656168,0.656168,6.530210510804,7.448845710804,0.328084,0,3.23948173096,1.16235568024,23,5,7.195,7.448845710804,0.656168,0,3.354494858,0,0,0,210.4, -0.3, 4.7,0,0,903,776,1024,1190,-18,-38,0,25,207.3,0,4.8,33,3.601,3.594,0,0,0,0,1.102,109.76,7.448845710804,0.656168,41,Motors_Started,"Zona de altitud restringida 150m Motores iniciándose. Mantén presionado el botón Bloqueo para despegar"
490400,2025-05-20 15:59:31,-34.9287421976949,-56.1627919109294,0.656168,0.656168,6.530210510804,7.448845710804,0.328084,0,3.1744915714,1.23985896356,23,5,7.194,7.448845710804,0.656168,0,3.354494858,0,0,0,210.4, -0.3, 4.7,0,0,903,776,1024,1190,-18,-38,0,25,207.3,0,4.8,33,3.6,3.594,0,0,0,0,1.106,109.76,7.448845710804,0.656168,41,Motors_Started,"Zona de altitud restringida 150m Motores iniciándose. Mantén presionado el botón Bloqueo para despegar"
490500,2025-05-20 15:59:31,-34.9287421973608,-56.1627919180897,0.656168,0.656168,6.530210510804,7.448845710804,0.328084,0,3.1749344848,1.24200135208,23,5,7.194,7.448845710804,0.656168,0,3.354494858,0,0,0,210.4, -0.3, 4.7,0,0,903,776,1024,1190,-18,-38,0,25,207.3,0,4.8,33,3.6,3.594,0,0,0,0,1.106,109.76,7.448845710804,0.656168,41,Motors_Started,"Zona de altitud restringida 150m Motores iniciándose. Mantén presionado el botón Bloqueo para despegar"
490600,2025-05-20 15:59:31,-34.9287421992284,-56.1627920150223,0.656168,0.656168,6.530210510804,7.448845710804,0.328084,0,3.18329734596,1.27100725852,23,5,7.194,7.448845710804,0.656168,0,3.354494858,0,0,0,210.4, -0.3, 4.7,0,0,903,776,1024,1190,-18,-38,0,25,207.3,0,4.8,33,3.6,3.594,0,0,0,0,1.106,109.76,7.448845710804,0.656168,41,Motors_Started,"Zona de altitud restringida 150m Motores iniciándose. Mantén presionado el botón Bloqueo para despegar"
490700,2025-05-20 15:59:31,-34.9287421992627,-56.162792025448,0.656168,0.656168,6.530210510804,7.448845710804,0.328084,0,3.18415036436,1.27412405652,23,5,7.194,7.448845710804,0.656168,0,3.354494858,0,0,0,210.4, -0.3, 4.7,0,0,903,776,1024,1190,-18,-38,0,25,207.3,0,4.8,33,3.6,3.594,0,0,0,0,1.106,109.76,7.448845710804,0.656168,41,Motors_Started,"Zona de altitud restringida 150m Motores iniciándose. Mantén presionado el botón Bloqueo para despegar"
490800,2025-05-20 15:59:32,-34.9287423000446,-56.1627919211931,0.656168,0.656168,6.530210510804,7.448845710804,0.328084,0,3.21134852796,1.32233928116,23,5,7.194,7.448845710804,0.656168,0,3.354494858,0,0,0,210.3, -0.3, 4.7,0,0,903,776,1024,1190,-18,-38,0,25,207.3,0,4.8,33,3.6,3.594,0,0,0,0,1.106,109.76,7.448845710804,0.656168,41,Motors_Started,"Zona de altitud restringida 150m Motores iniciándose. Mantén presionado el botón Bloqueo para despegar"
490900,2025-05-20 15:59:32,-34.928742299899,-56.1627919298556,0.656168,0.656168,6.530210510804,7.448845710804,0.328084,0,3.21196860672,1.32493114476,23,5,7.194,7.448845710804,0.656168,0,3.354494858,0,0,0,210.3, -0.3, 4.7,0,0,903,776,1024,1190,-18,-38,0,25,207.3,0,4.8,33,3.6,3.594,0,0,0,0,1.106,109.76,7.448845710804,0.656168,41,Motors_Started,"Zona de altitud restringida 150m Motores iniciándose. Mantén presionado el botón Bloqueo para despegar"
491000,2025-05-20 15:59:32,-34.9287423010898,-56.1627919176482,0.656168,0.656168,6.530210510804,7.448845710804,0.328084,0,3.21144367232,1.3286089664,23,5,7.194,7.448845710804,0.656168,0,3.354494858,0,0,0,210.3, -0.3, 4.7,0,0,903,776,1024,1190,-18,-38,0,25,207.3,0,4.8,33,3.6,3.594,0,0,0,0,1.106,109.76,7.448845710804,0.656168,41,Motors_Started,"Zona de altitud restringida 150m Motores iniciándose. Mantén presionado el botón Bloqueo para despegar"
491100,2025-05-20 15:59:32,-34.9287422993164,-56.1627919225097,0.656168,0.656168,6.530210510804,7.448845710804,0.328084,0,3.21119432848,1.3302001738,23,5,7.194,7.448845710804,0.656168,0,3.354494858,0,0,0,210.3, -0.3, 4.7,0,0,903,776,1024,1190,-18,-38,0,25,207.3,0,4.8,33,3.6,3.594,0,0,0,0,1.106,109.76,7.448845710804,0.656168,41,Motors_Started,"Zona de altitud restringida 150m Motores iniciándose. Mantén presionado el botón Bloqueo para despegar"
491200,2025-05-20 15:59:32,-34.9287421960672,-56.162791813268,0.656168,0.656168,6.530210510804,7.448845710804,0.328084,0,3.166420705,1.3800689418,22,5,7.194,7.448845710804,0.656168,0,3.354494858,0,0,0,210.4, -0.2, 4.7,0,0,903,776,1024,1190,-18,-38,0,25,207.4,0,4.7,33,3.6,3.594,0,0,0,0,1.106,109.76,7.448845710804,0.656168,11,AutoTakeoff,"Zona de altitud restringida 150m Motores iniciándose. Mantén presionado el botón Bloqueo para despegar. Despegando..."
491300,2025-05-20 15:59:32,-34.928742194448,-56.1627918187696,0.656168,0.656168,6.530210510804,7.448845710804,0.328084,0,3.16626322468,1.38181762952,22,5,7.194,7.448845710804,0.656168,0,3.354494858,0,0,0,210.5, 0.1, 4.5,0,0,903,776,1024,1190,-18,-38,0,25,207.5,0,4.4,33,3.6,3.594,0,0,0,0,1.106,109.76,7.448845710804,0.656168,11,AutoTakeoff,"Zona de altitud restringida 150m Despegando..."
491400,2025-05-20 15:59:32,-34.9287419916249,-56.1627917155152,0.656168,0.656168,6.530210510804,7.448845710804,0.328084,0,3.08688002004,1.46200135912,23,5,7.169,7.448845710804,0.656168,0,3.354494858,0,0,0,210.7, 1.7, 3.9,0,0,903,776,1024,1190,-18,-38,0,25,207.6,0,3.2,33,3.588,3.581,0,0,0,0,1.907,109.76,7.448845710804,0.656168,11,AutoTakeoff,"Zona de altitud restringida 150m Despegando..."
491500,2025-05-20 15:59:32,-34.9287419901342,-56.1627917326938,0.656168,0.656168,6.530210510804,7.448845710804,0.328084,0,3.08763789408,1.46716868212,23,5,7.169,7.448845710804,0.656168,0,3.354494858,0,0,-0.223694,210.5, 2, 1,0,0,903,776,1024,1190,-18,-38,0,25,207.3,0,-0.6,33,3.588,3.581,0,0,0,0,1.907,109.76,7.448845710804,0.656168,11,AutoTakeoff,"Zona de altitud restringida 150m Despegando..."
491600,2025-05-20 15:59:32,-34.9287419844629,-56.1627916443532,0.984252,0.984252,6.530210510804,7.776929710804,0.328084,0,3.07910442924,1.49367458848,23,5,7.169,7.776929710804,0.984252,0,3.354494858,0,0,-0.447388,210.2, 0.1, -1.1,0,0,903,776,1024,1190,-18,-38,0,25,207.3,0,-1.5,33,3.588,3.581,0,0,0,0,1.907,109.76,7.776929710804,0.984252,11,AutoTakeoff,"Zona de altitud restringida 150m Despegando..."
491700,2025-05-20 15:59:32,-34.9287419413196,-56.1627916337969,0.984252,0.984252,6.530210510804,7.776929710804,0,0,3.06306768332,1.50973101944,23,5,7.169,7.776929710804,0.984252,0,3.354494858,0,0,-0.223694,210.5, -2.2, -1.9,0,0,903,776,1024,1190,-18,-38,0,25,207.6,0,-2.2,33,3.588,3.581,0,0,0,0,1.907,109.76,7.776929710804,0.984252,11,AutoTakeoff,"Zona de altitud restringida 150m Despegando..."
491800,2025-05-20 15:59:33,-34.9287421250298,-56.1627913868678,0.984252,0.984252,6.530210510804,7.776929710804,0,0,3.11134852476,1.60947183628,23,5,7.169,7.776929710804,0.984252,0,3.354494858,0,0,-0.223694,210.7, -1.5, -2.6,0,0,903,776,1024,1190,-18,-38,0,25,207.7,0,-2.7,33,3.588,3.581,0,0,0,0,1.907,109.76,7.776929710804,0.984252,11,AutoTakeoff,"Zona de altitud restringida 150m Despegando..."
491900,2025-05-20 15:59:33,-34.9287421157347,-56.1627913957889,0.984252,0.984252,6.530210510804,7.776929710804,0.328084,0,3.10861558504,1.61378614088,23,5,7.169,7.776929710804,0.984252,0,3.354494858,0,0,-0.223694,210.7, -1.6, -2.5,0,0,903,776,1024,1190,-18,-38,0,25,207.7,0,-2.5,33,3.588,3.581,0,0,0,0,1.907,109.76,7.776929710804,0.984252,11,AutoTakeoff,"Zona de altitud restringida 150m Despegando..."
492000,2025-05-20 15:59:33,-34.9287428085118,-56.1627914272803,1.312336,1.3451444,6.497402110804,8.105013710804,0.328084,0,3.3577100812,1.86672250068,23,5,7.169,8.105013710804,1.312336,0,3.3577100812,0,0,-0.223694,210.7, -0.7, -2.3,0,0,903,776,1024,1190,-18,-38,0,25,207.7,0,-2.3,33,3.588,3.581,0,0,0,0,1.907,109.76,8.105013710804,1.312336,11,AutoTakeoff,"Zona de altitud restringida 150m Despegando.... Punto de origen actualizado. Altitud de RPO establecida en 30m"
492100,2025-05-20 15:59:33,-34.9287428507128,-56.1627914673062,1.312336,1.3451444,6.497402110804,8.105013710804,0.328084,0,3.3752297668,1.88622709448,23,5,7.169,8.105013710804,1.312336,0,3.3752297668,0,0,-0.223694,210.6, 1, -2,0,0,903,776,1024,1190,-18,-38,0,25,207.7,0,-2.6,33,3.588,3.581,0,0,0,0,1.907,109.76,8.105013710804,1.312336,11,AutoTakeoff,"Zona de altitud restringida 150m Punto de origen actualizado. Altitud de RPO establecida en 30m"
492200,2025-05-20 15:59:33,-34.9287439326021,-56.1627908113333,1.312336,1.4107612,6.431785310804,8.105013710804,0.328084,0,3.7310696732,2.3270341952,23,5,7.169,8.105013710804,1.312336,0,3.7310696732,0,0,-0.447388,210.5, 1.5, -3.3,0,0,903,776,1024,1190,-18,-38,0,25,207.5,0,-3.5,33,3.588,3.581,0,0,0,0,1.907,109.76,8.105013710804,1.312336,11,AutoTakeoff,"Zona de altitud restringida 150m Punto de origen actualizado. Altitud de RPO establecida en 30m"
492300,2025-05-20 15:59:33,-34.9287439101394,-56.162790763784,1.64042,1.7388452,6.431785310804,8.433097710804,0.656168,0,3.7210631112,2.34344823772,23,5,7.169,8.433097710804,1.64042,0,3.7310696732,0,0,-0.671082,210.4, -0.2, -3.3,0,0,903,776,1024,1190,-18,-38,0,25,207.4,0,-2.8,33,3.588,3.581,0,0,0,0,1.907,109.76,8.433097710804,1.64042,11,AutoTakeoff,"Zona de altitud restringida 150m Punto de origen actualizado. Altitud de RPO establecida en 30m"
492400,2025-05-20 15:59:33,-34.9287447481269,-56.1627892942111,1.64042,1.7716536,6.398976910804,8.433097710804,0.656168,0,3.9953085268,2.87890757244,23,5,7.042,8.433097710804,1.64042,0,3.9953085268,0,0,-0.894776,210.3, -1.1, -2.5,0,0,903,776,1024,1190,-18,-38,0,25,207.1,0,-1.9,33,3.522,3.52,0,0,0,0,6.615,109.58,8.433097710804,1.64042,11,AutoTakeoff,"Zona de altitud restringida 150m Punto de origen actualizado. Altitud de RPO establecida en 30m"
492500,2025-05-20 15:59:33,-34.9287447141246,-56.1627892297418,1.968504,2.0997376,6.398976910804,8.761181710804,0.656168,0,3.9827429096,2.9018373632,23,5,7.042,8.761181710804,1.968504,0,3.9953085268,0,0,-1.11847,209.9, -1.9, -1.6,0,0,903,776,1024,1190,-18,-38,0,25,206.7,0,-0.6,33,3.522,3.52,0,0,0,0,6.615,109.58,8.761181710804,1.968504,11,AutoTakeoff,"Zona de altitud restringida 150m Punto de origen actualizado. Altitud de RPO establecida en 30m"
492600,2025-05-20 15:59:33,-34.9287453420326,-56.1627881618931,1.968504,2.0997376,6.398976910804,8.761181710804,0.984252,0,4.2219161456,3.2949148036,24,5,7.042,8.761181710804,1.968504,0,4.2219161456,0,0,-1.11847,209.5, -2.3, 0,0,0,903,776,1024,1190,-18,-38,0,25,206.6,0,0.2,33,3.522,3.52,0,0,0,0,6.615,109.58,8.761181710804,1.968504,11,AutoTakeoff,"Zona de altitud restringida 150m Punto de origen actualizado. Altitud de RPO establecida en 30m"
492700,2025-05-20 15:59:33,-34.9287453411245,-56.1627880925283,2.296588,2.4278216,6.398976910804,9.089265710804,0.984252,0,4.223097248,3.3156825208,24,5,7.042,9.089265710804,2.296588,0,4.223097248,0,0,-1.11847,209.8, -3.1, 0.3,0,0,903,776,1024,1190,-18,-38,0,25,207.3,0,1.4,33,3.522,3.52,0,0,0,0,6.615,109.58,9.089265710804,2.296588,11,AutoTakeoff,"Zona de altitud restringida 150m Punto de origen actualizado. Altitud de RPO establecida en 30m"
492800,2025-05-20 15:59:34,-34.9287462208674,-56.1627868442995,2.296588,2.46063,6.366168510804,9.089265710804,1.312336,0,4.5841864984,3.8080381796,24,5,7.042,9.089265710804,2.296588,0,4.5841864984,0,0,-1.11847,210.3, -3.5, 2.7,0,0,903,776,1024,1190,-18,-38,0,25,207.5,0,3.7,33,3.522,3.52,0,0,0,0,6.615,109.58,9.089265710804,2.296588,11,AutoTakeoff,"Zona de altitud restringida 150m Punto de origen actualizado. Altitud de RPO establecida en 30m"
492900,2025-05-20 15:59:34,-34.9287462693736,-56.1627867678657,2.624672,2.788714,6.366168510804,9.417349710804,1.312336,0,4.605151066,3.8369751884,24,5,7.042,9.417349710804,2.624672,0,4.605151066,0,0,-1.11847,210.2, -3.6, 4.5,0,0,903,776,1024,1190,-18,-38,0,25,207.6,0,5.1,33,3.522,3.52,0,0,0,0,6.615,109.58,9.417349710804,2.624672,11,AutoTakeoff,"Zona de altitud restringida 150m Punto de origen actualizado. Altitud de RPO establecida en 30m"
493000,2025-05-20 15:59:34,-34.9287472007583,-56.162785452051,2.624672,2.8215224,6.333360110804,9.417349710804,1.64042,0,5.0129266696,4.35695552,24,5,7.042,9.417349710804,2.624672,0,5.0129266696,0,0,-1.11847,210.2, -2.9, 4.9,0,0,903,776,1024,1190,-18,-38,0,25,207.5,0,5.2,33,3.522,3.52,0,0,0,0,6.615,109.58,9.417349710804,2.624672,11,AutoTakeoff,"Zona de altitud restringida 150m Punto de origen actualizado. Altitud de RPO establecida en 30m"
493100,2025-05-20 15:59:34,-34.9287472599818,-56.1627854242299,2.952756,3.1496064,6.333360110804,9.745433710804,1.64042,0,5.0358269328,4.3801182504,24,5,7.042,9.745433710804,2.952756,0,5.0358269328,0,0,-1.11847,210.2, -1.7, 5.5,0,0,903,776,1024,1190,-18,-38,0,25,207.4,0,5.6,33,3.522,3.52,0,0,0,0,6.615,109.58,9.745433710804,2.952756,11,AutoTakeoff,"Zona de altitud restringida 150m Punto de origen actualizado. Altitud de RPO establecida en 30m"
493200,2025-05-20 15:59:34,-34.9287484020712,-56.1627843875932,3.28084,3.5104988,6.300551710804,10.073517710804,1.968504,0,5.5147311476,4.8995080308,24,5,7.042,10.073517710804,3.28084,0,5.5147311476,0,0,-1.11847,210.4, 0.9, 5.3,0,0,903,776,1024,1190,-18,-38,0,25,207.3,0,5.1,33,3.522,3.52,0,0,0,0,6.615,109.58,10.073517710804,3.28084,11,AutoTakeoff,"Zona de altitud restringida 150m Punto de origen actualizado. Altitud de RPO establecida en 30m"
493300,2025-05-20 15:59:34,-34.9287483896491,-56.1627844162268,3.28084,3.5104988,6.300551710804,10.073517710804,2.296588,0,5.5081366592,4.9092193172,24,5,7.042,10.073517710804,3.28084,0,5.5147311476,0,0,-1.11847,210.4, 0.2, 4.6,0,0,903,776,1024,1190,-18,-38,0,25,207.6,0,4.5,33,3.522,3.52,0,0,0,0,6.615,109.58,10.073517710804,3.28084,11,AutoTakeoff,"Zona de altitud restringida 150m Punto de origen actualizado. Altitud de RPO establecida en 30m"
493400,2025-05-20 15:59:34,-34.9287492224364,-56.1627831687476,3.608924,3.8713912,6.267743310804,10.401601710804,2.296588,0,5.9043308976,5.39042012,24,5,7.042,10.401601710804,3.608924,0,5.9043308976,0,0,-1.11847,210.5, -1.8, 3.3,0,0,903,776,1024,1190,-18,-38,0,25,207.8,0,1.1,33,3.522,3.52,0,0,0,0,6.615,109.58,10.401601710804,3.608924,11,AutoTakeoff,"Zona de altitud restringida 150m Punto de origen actualizado. Altitud de RPO establecida en 30m"
493500,2025-05-20 15:59:34,-34.9287491182877,-56.1627832176527,3.608924,3.8713912,6.267743310804,10.401601710804,2.624672,0,5.86368129,5.4311353444,24,5,7.054,10.401601710804,3.608924,0,5.9043308976,0.223694,0,-1.11847,210.7, -3.4, -1.2,0,0,903,776,1024,1190,-18,-38,0,25,207.5,0,-2.4,33,3.528,3.526,0,0,0,0,5.439,109.58,10.401601710804,3.608924,11,AutoTakeoff,"Zona de altitud restringida 150m Punto de origen actualizado. Altitud de RPO establecida en 30m"
493600,2025-05-20 15:59:34,-34.9287493009699,-56.1627824838642,3.937008,4.1994752,6.267743310804,10.729685710804,2.952756,0,5.99655531,5.6605316772,23,5,7.054,10.729685710804,3.937008,0,5.99655531,0,0,-1.11847,210.6, -4.8, -2.3,0,0,903,776,1024,1190,-18,-38,0,25,207.5,0,-1.6,33,3.528,3.526,0,0,0,0,5.439,109.58,10.729685710804,3.937008,11,AutoTakeoff,"Zona de altitud restringida 150m Punto de origen actualizado. Altitud de RPO establecida en 30m"
493700,2025-05-20 15:59:34,-34.9287492596771,-56.1627825046686,3.937008,4.1994752,6.267743310804,10.729685710804,2.952756,0,5.9802823436,5.676837452,23,5,7.054,10.729685710804,3.937008,0,5.99655531,0,0,-1.11847,210.4, -4.5, -1.7,0,0,903,776,1024,1190,-18,-38,0,25,207.1,0,-1.6,33,3.528,3.526,0,0,0,0,5.439,109.58,10.729685710804,3.937008,11,AutoTakeoff,"Zona de altitud restringida 150m Punto de origen actualizado. Altitud de RPO establecida en 30m"
493800,2025-05-20 15:59:35,-34.9287496635586,-56.1627822940743,4.265092,4.5603676,6.234934910804,11.057769710804,3.28084,0,6.1401904852,5.8370736776,23,5,7.054,11.057769710804,4.265092,0,6.1401904852,0,0,-1.11847,210.2, -5.2, -0.8,0,0,903,776,1024,1190,-18,-38,0,25,207.3,0,1,33,3.528,3.526,0,0,0,0,5.439,109.58,11.057769710804,4.265092,11,AutoTakeoff,"Zona de altitud restringida 150m Punto de origen actualizado. Altitud de RPO establecida en 30m"
493900,2025-05-20 15:59:35,-34.9287497373289,-56.1627821973769,4.265092,4.5603676,6.234934910804,11.057769710804,3.608924,0.223694,6.1752298564,5.8766077996,23,5,7.054,11.057769710804,4.265092,0.223694,6.1752298564,-0.223694,0,-0.894776,210, -5, 2.9,0,0,877,1006,1025,1033,-22,-3,0,1,207.5,-0.4,5.3,33,3.528,3.526,0,0,0,0,5.439,109.58,11.057769710804,4.265092,11,AutoTakeoff,"Zona de altitud restringida 150m Punto de origen actualizado. Altitud de RPO establecida en 30m"
494000,2025-05-20 15:59:35,-34.9287500085166,-56.1627818786406,4.593176,4.8884516,6.234934910804,11.385853710804,3.608924,0.223694,6.3007547948,6.0140093788,23,5,7.054,11.385853710804,4.593176,0.223694,6.3007547948,-0.223694,0,-0.894776,210, -1.3, 4.9,0,0,870,1027,1070,1019,-23,0,7,-1,207,-12.7,6.4,33,3.528,3.526,0,0,0,0,5.439,109.58,11.385853710804,4.593176,11,AutoTakeoff,"Zona de altitud restringida 150m Punto de origen actualizado. Altitud de RPO establecida en 30m"
494100,2025-05-20 15:59:35,-34.9287501230399,-56.1627817026255,4.593176,4.8884516,6.234934910804,11.385853710804,3.937008,0.3131716,6.3582023032,6.081200982,23,5,7.054,11.385853710804,4.593176,0.3131716,6.3582023032,-0.223694,0.223694,-0.671082,210.2, 1.1, 7.5,0,0,868,1025,1097,1019,-24,0,11,-1,207,-22.2,7.9,33,3.528,3.526,0,0,0,0,5.439,109.58,11.385853710804,4.593176,6,P-GPS,"Zona de altitud restringida 150m Punto de origen actualizado. Altitud de RPO establecida en 30m"
494200,2025-05-20 15:59:35,-34.9287500523623,-56.1627817574371,4.92126,5.2165356,6.234934910804,11.713937710804,3.937008,0.447388,6.3283138508,6.1117784108,23,5,7.054,11.713937710804,4.92126,0.447388,6.3582023032,0,0.447388,-0.223694,209.8, -2.2, 7.9,0,0,866,1008,1138,1024,-24,-2,17,0,207.2,-25.5,8.2,33,3.528,3.526,0,0,0,0,5.439,109.58,11.713937710804,4.92126,6,P-GPS,"Zona de altitud restringida 150m Punto de origen actualizado. Altitud de RPO establecida en 30m"
494300,2025-05-20 15:59:35,-34.9287500058179,-56.1627814266294,4.92126,5.2165356,6.234934910804,11.713937710804,3.937008,0.671082,6.3477036152,6.2121721148,23,5,7.054,11.713937710804,4.92126,0.671082,6.3582023032,0,0.671082,0,209.3, -6, 8.9,0,0,869,1001,1156,1026,-23,-3,20,0,207.4,-26.8,9.3,33,3.528,3.526,0,0,0,0,5.439,109.58,11.713937710804,4.92126,6,P-GPS,"Zona de altitud restringida 150m Punto de origen actualizado. Altitud de RPO establecida en 30m"
494400,2025-05-20 15:59:35,-34.9287498731326,-56.1627814667832,4.92126,5.2165356,6.234934910804,11.713937710804,3.937008,0.671082,6.2982613564,6.2620408828,23,5,7.05,11.713937710804,4.92126,0.671082,6.3582023032,0,0.671082,0,208.9, -8.9, 10.1,0,0,877,989,1026,1031,-22,-5,0,1,207.2,-26.8,9.5,33,3.525,3.525,0,0,0,0,5.012,109.58,11.713937710804,4.92126,6,P-GPS,"Zona de altitud restringida 150m Punto de origen actualizado. Altitud de RPO establecida en 30m"
494500,2025-05-20 15:59:35,-34.9287497849099,-56.1627810944005,4.92126,5.2165356,6.234934910804,11.713937710804,3.937008,0.671082,6.3099411468,6.3779857684,23,5,7.05,11.713937710804,4.92126,0.671082,6.3582023032,0,0.671082,0,208.7, -6.4, 9.4,0,0,884,979,1024,1035,-21,-7,0,2,206.5,-26.1,9.4,33,3.525,3.525,0,0,0,0,5.012,109.58,11.713937710804,4.92126,6,P-GPS,"Zona de altitud restringida 150m Punto de origen actualizado. Altitud de RPO establecida en 30m"
494600,2025-05-20 15:59:35,-34.9287493865968,-56.1627808086395,4.92126,5.1837272,6.267743310804,11.713937710804,3.937008,0.7158208,6.2096786764,6.546588136,24,5,7.05,11.713937710804,4.92126,0.7158208,6.3582023032,0.223694,0.671082,0,207.9, -6.7, 10.2,0,0,896,966,1024,1040,-19,-9,0,2,205.6,-24.8,10.8,33,3.525,3.525,0,0,0,0,5.012,109.58,11.713937710804,4.92126,6,P-GPS,"Zona de altitud restringida 150m Punto de origen actualizado. Altitud de RPO establecida en 30m"
494700,2025-05-20 15:59:35,-34.9287492576895,-56.1627804640178,4.92126,5.1837272,6.267743310804,11.713937710804,3.937008,0.4921268,6.2090225084,6.6599083496,24,5,7.05,11.713937710804,4.92126,0.7158208,6.3582023032,0.223694,0.447388,0,206.8, -7.8, 11.3,0,0,902,963,1024,1041,-18,-9,0,3,205.4,-23.4,10.5,33,3.525,3.525,0,0,0,0,5.012,109.58,11.713937710804,4.92126,6,P-GPS,"Zona de altitud restringida 150m Punto de origen actualizado. Altitud de RPO establecida en 30m"
494800,2025-05-20 15:59:36,-34.9287490116117,-56.1627801008043,4.92126,5.1837272,6.267743310804,11.713937710804,3.937008,0.3131716,6.174376838,6.800853236,25,5,7.05,11.713937710804,4.92126,0.7158208,6.3582023032,0.223694,0.223694,0,206.9, -7.8, 9.6,0,0,920,961,1024,1040,-16,-10,0,2,205.4,-21.8,8.6,33,3.525,3.525,0,0,0,0,5.012,109.58,11.713937710804,4.92126,6,P-GPS,"Zona de altitud restringida 150m Punto de origen actualizado. Altitud de RPO establecida en 30m"
494900,2025-05-20 15:59:36,-34.9287488550159,-56.1627799910583,4.92126,5.1837272,6.267743310804,11.713937710804,3.608924,0.223694,6.13763143,6.8667325032,25,5,7.05,11.713937710804,4.92126,0.7158208,6.3582023032,0.223694,0,0,207, -7.3, 8.1,0,0,934,959,1024,1042,-14,-10,0,3,205.1,-19.5,7,33,3.525,3.525,0,0,0,0,5.012,109.58,11.713937710804,4.92126,6,P-GPS,"Zona de altitud restringida 150m Punto de origen actualizado. Altitud de RPO establecida en 30m"
495000,2025-05-20 15:59:36,-34.9287486655315,-56.1627800399922,4.92126,5.1837272,6.267743310804,11.713937710804,3.608924,0.223694,6.0692587244,6.9374017968,25,5,7.05,11.713937710804,4.92126,0.7158208,6.3582023032,0.223694,0,0,206.8, -7.8, 5.9,0,0,937,965,1057,1043,-13,-9,5,3,204.1,-17.1,4.9,33,3.525,3.525,0,0,0,0,5.012,109.58,11.713937710804,4.92126,6,P-GPS,"Zona de altitud restringida 150m Punto de origen actualizado. Altitud de RPO establecida en 30m. Presiona ligeramente el acelerador para controlar la orientación de la aeronave. Mantén pulsado el botón de bloqueo para que la aeronave aterrice"
495100,2025-05-20 15:59:36,-34.9287485452511,-56.1627800130227,4.92126,5.1837272,6.267743310804,11.713937710804,3.608924,0.223694,6.0337272272,6.9820212208,25,5,7.05,11.713937710804,4.92126,0.7158208,6.3582023032,0.223694,0,0,204.9, -8, 4.6,0,0,935,969,1164,1042,-13,-8,21,3,201.6,-15.7,4.8,33,3.525,3.525,0,0,0,0,5.012,109.58,11.713937710804,4.92126,6,P-GPS,"Zona de altitud restringida 150m Presiona ligeramente el acelerador para controlar la orientación de la aeronave. Mantén pulsado el botón de bloqueo para que la aeronave aterrice"
495200,2025-05-20 15:59:36,-34.9287483288322,-56.1627799125243,4.92126,5.1509188,6.300551710804,11.713937710804,3.608924,0,5.9772311624,7.0665028508,25,5,7.05,11.713937710804,4.92126,0.7158208,6.3582023032,0,0,0,202.5, -9.5, 5.7,0,0,932,973,1299,1039,-14,-8,42,2,200.3,-15.5,6.7,33,3.525,3.525,0,0,0,0,5.012,109.58,11.713937710804,4.92126,6,P-GPS,"Zona de altitud restringida 150m Presiona ligeramente el acelerador para controlar la orientación de la aeronave. Mantén pulsado el botón de bloqueo para que la aeronave aterrice"
495300,2025-05-20 15:59:36,-34.9287484106896,-56.1627798474699,4.92126,5.1509188,6.300551710804,11.713937710804,2.952756,0.223694,6.0127298512,7.1021655816,25,5,7.05,11.713937710804,4.92126,0.7158208,6.3582023032,-0.223694,0,0,200.1, -17.9, 7.8,0,0,933,975,1369,1039,-14,-7,52,2,199.4,-15.7,7,33,3.525,3.525,0,0,0,0,5.012,109.58,11.713937710804,4.92126,6,P-GPS,"Zona de altitud restringida 150m Presiona ligeramente el acelerador para controlar la orientación de la aeronave. Mantén pulsado el botón de bloqueo para que la aeronave aterrice"
495400,2025-05-20 15:59:36,-34.9287484837231,-56.1627798483424,4.92126,5.1509188,6.300551710804,11.713937710804,1.968504,0.894776,6.0362206656,7.1288060024,25,5,7.038,11.713937710804,4.92126,0.894776,6.3582023032,-0.894776,0,0.223694,198.1, -26.5, 7,0,0,936,973,1451,1039,-13,-8,65,2,197.5,-15.7,4.6,33,3.52,3.518,0,0,0,0,5.192,109.76,11.713937710804,4.92126,6,P-GPS,"Zona de altitud restringida 150m Presiona ligeramente el acelerador para controlar la orientación de la aeronave. Mantén pulsado el botón de bloqueo para que la aeronave aterrice"
495500,2025-05-20 15:59:36,-34.9287491405789,-56.1627800157787,4.92126,5.1837272,6.267743310804,11.713937710804,1.64042,1.8342908,6.2278217216,7.3736550916,25,5,7.038,11.713937710804,4.92126,1.8342908,6.3582023032,-1.789552,-0.447388,0.223694,196.8, -26.7, 5.9,0,0,937,973,1493,1039,-13,-8,71,2,196.1,-15.4,4.9,33,3.52,3.518,0,0,0,0,5.192,109.76,11.713937710804,4.92126,6,P-GPS,"Zona de altitud restringida 150m Presiona ligeramente el acelerador para controlar la orientación de la aeronave. Mantén pulsado el botón de bloqueo para que la aeronave aterrice"
495600,2025-05-20 15:59:36,-34.9287502333397,-56.1627803811839,4.92126,5.2165356,6.234934910804,11.713937710804,1.64042,2.7738056,6.543963464,7.7870409316,26,5,7.038,11.713937710804,4.92126,2.7738056,6.543963464,-2.684328,-0.671082,0.223694,195.3, -27, 5.6,0,0,938,974,1543,1038,-13,-8,79,2,194.2,-15.2,3.7,33,3.52,3.518,0,0,0,0,5.192,109.76,11.713937710804,4.92126,6,P-GPS,"Zona de altitud restringida 150m Presiona ligeramente el acelerador para controlar la orientación de la aeronave. Mantén pulsado el botón de bloqueo para que la aeronave aterrice"
495700,2025-05-20 15:59:36,-34.9287516522368,-56.1627808561078,4.593176,4.9540684,6.169318110804,11.385853710804,2.624672,3.9593838,6.9695868372,8.3238847808,26,5,7.038,11.713937710804,4.92126,3.9593838,6.9695868372,-3.802798,-1.11847,0.223694,194.2, -26.9, 3.9,0,0,941,976,1568,1039,-13,-7,82,2,192.3,-15,2.4,33,3.52,3.518,0,0,0,0,5.192,109.76,11.385853710804,4.593176,6,P-GPS,"Zona de altitud restringida 150m Presiona ligeramente el acelerador para controlar la orientación de la aeronave. Mantén pulsado el botón de bloqueo para que la aeronave aterrice"
495800,2025-05-20 15:59:37,-34.9287535265886,-56.1627818197408,4.593176,5.0196852,6.103701310804,11.385853710804,3.28084,4.8317904,7.5237207132,9.0659779804,26,5,7.038,11.713937710804,4.92126,4.8317904,7.5237207132,-4.697574,-1.11847,0.223694,192.8, -26.5, 2.9,0,0,958,977,1598,1038,-10,-7,87,2,190.9,-14.4,2.1,33,3.52,3.518,0,0,0,0,5.192,109.76,11.385853710804,4.593176,6,P-GPS,"Zona de altitud restringida 150m Presiona ligeramente el acelerador para controlar la orientación de la aeronave. Mantén pulsado el botón de bloqueo para que la aeronave aterrice"
495900,2025-05-20 15:59:37,-34.928755650745,-56.1627824784096,4.593176,5.085302,6.038084510804,11.385853710804,3.608924,5.480503,8.2182417328,9.865649922,26,5,7.038,11.713937710804,4.92126,5.480503,8.2182417328,-5.368656,-1.11847,0.223694,191.5, -26.9, 2.7,0,0,972,977,1614,1038,-8,-7,89,2,189.2,-12.7,1.6,33,3.52,3.518,0,0,0,0,5.192,109.76,11.385853710804,4.593176,6,P-GPS,"Zona de altitud restringida 150m Presiona ligeramente el acelerador para controlar la orientación de la aeronave. Mantén pulsado el botón de bloqueo para que la aeronave aterrice"
496000,2025-05-20 15:59:37,-34.9287579788724,-56.1627838454649,4.593176,5.1837272,5.939659310804,11.385853710804,3.608924,6.151585,8.963418922,10.8083664876,26,5,7.038,11.713937710804,4.92126,6.151585,8.963418922,-6.039738,-1.11847,0.223694,190, -27.8, 2.6,0,0,986,980,1632,1036,-6,-7,92,2,188.3,-10.1,2.4,33,3.52,3.518,0,0,0,0,5.192,109.76,11.385853710804,4.593176,6,P-GPS,"Zona de altitud restringida 150m Presiona ligeramente el acelerador para controlar la orientación de la aeronave. Mantén pulsado el botón de bloqueo para que la aeronave aterrice"
496100,2025-05-20 15:59:37,-34.9287606255972,-56.1627844176478,4.593176,5.2821524,5.841234110804,11.385853710804,3.608924,6.7779282,9.889436012,11.7890751804,26,5,7.038,11.713937710804,4.92126,6.7779282,9.889436012,-6.71082,-0.894776,0.447388,188.7, -27.9, 3,0,0,987,982,1641,1036,-6,-6,93,2,186.7,-7.9,2,33,3.52,3.518,0,0,0,0,5.192,109.76,11.385853710804,4.593176,6,P-GPS,"Zona de altitud restringida 150m Presiona ligeramente el acelerador para controlar la orientación de la aeronave. Mantén pulsado el botón de bloqueo para que la aeronave aterrice"
496200,2025-05-20 15:59:37,-34.9287628397582,-56.1627854190053,4.593176,5.3477692,5.775617310804,11.385853710804,3.608924,7.4266408,10.6541341992,12.6506565728,26,5,7.038,11.713937710804,4.92126,7.4266408,10.6541341992,-7.381902,-0.894776,0.447388,187.3, -26.9, 2.4,0,0,991,983,1652,1038,-5,-6,95,2,185.3,-6.7,2,33,3.52,3.518,0,0,0,0,5.192,109.76,11.385853710804,4.593176,6,P-GPS,"Zona de altitud restringida 150m Presiona ligeramente el acelerador para controlar la orientación de la aeronave. Mantén pulsado el botón de bloqueo para que la aeronave aterrice"
496300,2025-05-20 15:59:37,-34.9287659832649,-56.1627857871822,4.265092,5.1181104,5.677192110804,11.057769710804,3.608924,7.8516594,11.7854662564,13.802821964,26,5,7.038,11.713937710804,4.92126,7.8516594,11.7854662564,-7.82929,-0.671082,0.447388,185.9, -27.1, 4.1,0,0,993,984,1658,1037,-5,-6,96,2,185,-6.1,3.7,33,3.52,3.518,0,0,0,0,5.192,109.76,11.057769710804,4.265092,6,P-GPS,"Zona de altitud restringida 150m Presiona ligeramente el acelerador para controlar la orientación de la aeronave. Mantén pulsado el botón de bloqueo para que la aeronave aterrice"
496400,2025-05-20 15:59:37,-34.9287692392045,-56.1627864883482,4.265092,5.249344,5.545958510804,11.057769710804,3.608924,8.5227414,12.9549544828,15.0091212152,26,5,7.038,11.713937710804,4.92126,8.5227414,12.9549544828,-8.500372,-0.447388,0.447388,184.7, -27.9, 4.7,0,0,994,987,1665,1036,-5,-6,97,2,184,-5.5,4,33,3.52,3.518,0,0,0,0,5.192,109.76,11.057769710804,4.265092,6,P-GPS,"Zona de altitud restringida 150m Presiona ligeramente el acelerador para controlar la orientación de la aeronave. Mantén pulsado el botón de bloqueo para que la aeronave aterrice"
496500,2025-05-20 15:59:37,-34.9287727875009,-56.1627867393915,4.265092,5.3805776,5.414724910804,11.057769710804,3.28084,8.94776,14.2433403508,16.3059060336,26,5,7.01,11.713937710804,4.92126,8.94776,14.2433403508,-8.94776,-0.447388,0.671082,183.8, -27.9, 4.5,0,0,995,991,1668,1035,-4,-5,98,2,182.7,-5.2,3.3,33,3.506,3.504,0,0,0,0,5.972,109.94,11.057769710804,4.265092,6,P-GPS,"Zona de altitud restringida 150m Presiona ligeramente el acelerador para controlar la orientación de la aeronave. Mantén pulsado el botón de bloqueo para que la aeronave aterrice"
496600,2025-05-20 15:59:37,-34.9287767163167,-56.1627875480124,4.265092,5.5118112,5.283491310804,11.057769710804,3.28084,9.618842,15.6658797664,17.7595806208,24,5,7.01,11.713937710804,4.92126,9.618842,15.6658797664,-9.618842,-0.447388,0.447388,182.9, -27.3, 3.3,0,0,996,988,1672,1036,-4,-5,98,2,181.2,-4.9,2.3,33,3.506,3.504,0,0,0,0,5.972,109.94,11.057769710804,4.265092,6,P-GPS,"Zona de altitud restringida 150m Presiona ligeramente el acelerador para controlar la orientación de la aeronave. Mantén pulsado el botón de bloqueo para que la aeronave aterrice"
496700,2025-05-20 15:59:37,-34.9287807247625,-56.162787791804,3.937008,5.3149608,5.152257710804,10.729685710804,3.28084,9.618842,17.1258535664,19.2238851296,24,5,7.01,11.713937710804,4.92126,9.618842,17.1258535664,-10.06623,-0.447388,0.447388,181.8, -28.1, 3.7,0,0,999,988,1674,1035,-4,-5,98,2,180.3,-4.7,2.6,33,3.506,3.504,0,0,0,0,5.972,109.94,10.729685710804,3.937008,6,P-GPS,"Zona de altitud restringida 150m Presiona ligeramente el acelerador para controlar la orientación de la aeronave. Mantén pulsado el botón de bloqueo para que la aeronave aterrice"
496800,2025-05-20 15:59:38,-34.9287846555402,-56.1627884755902,3.937008,5.4790028,4.988215710804,10.729685710804,3.28084,10.737312,18.5563326148,20.6725400316,23,5,7.01,11.713937710804,4.92126,10.737312,18.5563326148,-10.737312,-0.223694,0.447388,180.9, -27.6, 2.8,0,0,1012,989,1677,1036,-2,-5,99,2,179.1,-4.3,1.7,33,3.506,3.504,0,0,0,0,5.972,109.94,10.729685710804,3.937008,6,P-GPS,"Zona de altitud restringida 150m Presiona ligeramente el acelerador para controlar la orientación de la aeronave. Mantén pulsado el botón de bloqueo para que la aeronave aterrice"
496900,2025-05-20 15:59:38,-34.9287890172196,-56.1627885641686,3.937008,5.6102364,4.856982110804,10.729685710804,3.28084,11.1847,20.1473431644,22.264108324,23,5,7.01,11.713937710804,4.92126,11.1847,20.1473431644,-11.1847,0,0.447388,180.1, -27.4, 3.3,0,0,1024,989,1678,1037,0,-5,99,2,178.8,-3,2.9,33,3.506,3.504,0,0,0,0,5.972,109.94,10.729685710804,3.937008,6,P-GPS,"Zona de altitud restringida 150m Presiona ligeramente el acelerador para controlar la orientación de la aeronave. Mantén pulsado el botón de bloqueo para que la aeronave aterrice"
497000,2025-05-20 15:59:38,-34.9287934106054,-56.1627893590252,3.937008,5.74147,4.725748510804,10.729685710804,3.28084,11.632088,21.7496398036,23.8845808168,22,5,7.01,11.713937710804,4.92126,11.632088,21.7496398036,-11.632088,0,0.447388,179.2, -26.5, 3.7,0,0,1033,990,1679,1039,1,-5,99,2,177.8,-0.9,2.4,33,3.506,3.504,0,0,0,0,5.972,109.94,10.729685710804,3.937008,6,P-GPS,"Zona de altitud restringida 150m Presiona ligeramente el acelerador para controlar la orientación de la aeronave. Mantén pulsado el botón de bloqueo para que la aeronave aterrice"
497100,2025-05-20 15:59:38,-34.928798246647,-56.1627893914832,3.608924,5.6102364,4.528898110804,10.401601710804,3.28084,12.079476,23.5140755556,25.6490493772,22,5,7.01,11.713937710804,4.92126,12.079476,23.5140755556,-12.079476,0,0,178.4, -27.7, 2.6,0,0,1035,990,1680,1039,2,-5,99,2,176.4,0.6,1.2,33,3.506,3.504,0,0,0,0,5.972,109.94,10.401601710804,3.608924,6,P-GPS,"Zona de altitud restringida 150m Presiona ligeramente el acelerador para controlar la orientación de la aeronave. Mantén pulsado el botón de bloqueo para que la aeronave aterrice"
497200,2025-05-20 15:59:38,-34.9288034739767,-56.1627902984029,3.608924,5.7742784,4.364856110804,10.401601710804,3.28084,12.750558,25.4234916272,27.5754273916,22,5,7.01,11.713937710804,4.92126,12.750558,25.4234916272,-12.750558,0,0,177.5, -28.6, 1.7,0,0,1039,992,1681,1042,2,-5,100,3,175.7,1.6,1.4,33,3.506,3.504,0,0,0,0,5.972,109.94,10.401601710804,3.608924,6,P-GPS,"Zona de altitud restringida 150m Presiona ligeramente el acelerador para controlar la orientación de la aeronave. Mantén pulsado el botón de bloqueo para que la aeronave aterrice"
497300,2025-05-20 15:59:38,-34.9288085791584,-56.1627902041453,3.937008,6.3320212,4.135197310804,10.729685710804,3.28084,13.197946,27.2856307944,29.4382555352,22,5,7.01,11.713937710804,4.92126,13.197946,27.2856307944,-13.197946,0.223694,-0.223694,176.9, -27.8, 1.9,0,0,1042,994,1681,1042,3,-5,100,3,174.7,2.3,0.7,33,3.506,3.504,0,0,0,0,5.972,109.94,10.729685710804,3.937008,6,P-GPS,"Zona de altitud restringida 150m Presiona ligeramente el acelerador para controlar la orientación de la aeronave. Mantén pulsado el botón de bloqueo para que la aeronave aterrice"
497400,2025-05-20 15:59:38,-34.9288141574943,-56.1627907960591,3.937008,6.4960632,3.971155310804,10.729685710804,3.28084,13.42164,29.3231964764,31.4812017948,22,5,7.01,11.713937710804,4.92126,13.42164,29.3231964764,-13.42164,0.447388,-0.223694,176.2, -28.2, 0.6,0,0,1031,1021,1682,1043,1,-0,100,3,174,2.8,0.6,33,3.483,3.482,0,0,0,0,5.972,109.94,10.729685710804,3.937008,6,P-GPS,"Zona de altitud restringida 150m Presiona ligeramente el acelerador para controlar la orientación de la aeronave. Mantén pulsado el botón de bloqueo para que la aeronave aterrice"
497500,2025-05-20 15:59:38,-34.9288196906307,-56.1627904658652,3.937008,6.725722,3.741496510804,10.729685710804,3.608924,13.8913974,31.3402897168,33.50229766,22,5,7.01,11.713937710804,4.92126,13.8913974,31.3402897168,-13.869028,0.671082,-0.447388,175.9, -27.2, 1.4,0,0,1023,1046,1682,1046,-0,3,100,3,174.5,2.2,1.6,33,3.483,3.482,0,0,0,0,5.972,109.94,10.729685710804,3.937008,6,P-GPS,"Zona de altitud restringida 150m Presiona ligeramente el acelerador para controlar la orientación de la aeronave. Mantén pulsado el botón de bloqueo para que la aeronave aterrice"
497600,2025-05-20 15:59:38,-34.9288256075079,-56.1627907124729,3.937008,6.9225724,3.544646110804,10.729685710804,3.608924,14.092722,33.500001072,35.662402716,23,5,7.01,11.713937710804,4.92126,14.092722,33.500001072,-14.092722,0.447388,-0.671082,176.1, -22.6, 1,0,0,1015,1068,1683,1050,-1,7,100,4,174.1,0.7,0.6,33,3.483,3.482,0,0,0,0,5.972,109.94,10.729685710804,3.937008,6,P-GPS,"Zona de altitud restringida 150m Presiona ligeramente el acelerador para controlar la orientación de la aeronave. Mantén pulsado el botón de bloqueo para que la aeronave aterrice"
497700,2025-05-20 15:59:38,-34.9288310542035,-56.162790369207,4.265092,7.4146984,3.380604110804,11.057769710804,3.608924,13.8913974,35.48556544,37.652232176,23,5,7.01,11.713937710804,4.92126,14.092722,35.48556544,-13.869028,0.671082,-0.447388,176.8, -17.1, 1.5,0,0,1016,1071,1683,1049,-1,7,100,4,176.1,-0.5,3.1,33,3.483,3.482,0,0,0,0,5.972,109.94,11.057769710804,4.265092,6,P-GPS,"Zona de altitud restringida 150m Presiona ligeramente el acelerador para controlar la orientación de la aeronave. Mantén pulsado el botón de bloqueo para que la aeronave aterrice"
497800,2025-05-20 15:59:39,-34.9288365587263,-56.1627904557791,4.265092,7.6443572,3.150945310804,11.057769710804,3.608924,13.4440094,37.494095688,39.660762424,23,5,7.01,11.713937710804,4.92126,14.092722,37.494095688,-13.42164,0.671082,-0.223694,178.4, -15.4, 4.9,0,0,1016,1076,1683,1048,-1,8,100,4,178.5,-1,5.8,33,3.483,3.482,0,0,0,0,5.972,109.94,11.057769710804,4.265092,6,P-GPS,"Zona de altitud restringida 150m Presiona ligeramente el acelerador para controlar la orientación de la aeronave. Mantén pulsado el botón de bloqueo para que la aeronave aterrice"
497900,2025-05-20 15:59:39,-34.928841655204,-56.1627900734774,4.265092,7.8083992,2.986903310804,11.057769710804,3.608924,12.9966214,39.352363464,41.523623376,23,5,7.01,11.713937710804,4.92126,14.092722,39.352363464,-12.974252,0.671082,0,179.8, -18.1, 7.6,0,0,1016,1081,1683,1048,-1,9,100,4,181.6,-1.2,8.6,33,3.483,3.482,0,0,0,0,5.972,109.94,11.057769710804,4.265092,6,P-GPS,"Zona de altitud restringida 150m Presiona ligeramente el acelerador para controlar la orientación de la aeronave. Mantén pulsado el botón de bloqueo para que la aeronave aterrice"
498000,2025-05-20 15:59:39,-34.928847096511,-56.1627906834683,4.265092,8.0052496,2.790052910804,11.057769710804,3.608924,12.7729274,41.339240168,43.517389844,23,5,7.01,11.713937710804,4.92126,14.092722,41.339240168,-12.750558,0.671082,0,181.4, -21.1, 10.5,0,0,1021,1078,1683,1047,-0,8,100,3,184.5,-1.2,10.6,33,3.483,3.482,0,0,0,0,5.972,109.94,11.057769710804,4.265092,6,P-GPS,"Zona de altitud restringida 150m Presiona ligeramente el acelerador para controlar la orientación de la aeronave. Mantén pulsado el botón de bloqueo para que la aeronave aterrice"
498100,2025-05-20 15:59:39,-34.928852147875,-56.1627902843669,4.265092,8.1692916,2.626010910804,11.057769710804,3.28084,12.5492334,43.181103744,45.36417468,23,5,7.01,11.713937710804,4.92126,14.092722,43.181103744,-12.526864,0.671082,0.223694,183.4, -23.3, 12.1,0,0,1021,1082,1683,1047,-0,9,100,3,186.9,-0.8,10.3,33,3.483,3.482,0,0,0,0,5.972,109.94,11.057769710804,4.265092,6,P-GPS,"Zona de altitud restringida 150m Presiona ligeramente el acelerador para controlar la orientación de la aeronave. Mantén pulsado el botón de bloqueo para que la aeronave aterrice"
498200,2025-05-20 15:59:39,-34.9288578751991,-56.1627909329234,4.265092,8.3989504,2.396352110804,11.057769710804,3.28084,12.30317,45.272639244,47.462928028,24,5,7.01,11.713937710804,4.92126,14.092722,45.272639244,-12.30317,0.447388,0,185.4, -23.6, 12,0,0,1025,1072,1683,1045,0,7,100,3,189.3,-0.5,11,33,3.483,3.482,0,0,0,0,5.972,109.94,11.057769710804,4.265092,6,P-GPS,"Zona de altitud restringida 150m Presiona ligeramente el acelerador para controlar la orientación de la aeronave. Mantén pulsado el botón de bloqueo para que la aeronave aterrice"
498300,2025-05-20 15:59:39,-34.9288628455538,-56.1627906436071,4.265092,8.5629924,2.232310110804,11.057769710804,3.28084,12.30317,47.08497526,49.2782168,24,5,7.01,11.713937710804,4.92126,14.092722,47.08497526,-12.30317,0.447388,0,187.3, -23.7, 12.8,0,0,1027,1066,1683,1043,0,6,100,3,191.2,0,11.3,33,3.483,3.482,0,0,0,0,5.972,109.94,11.057769710804,4.265092,6,P-GPS,"Zona de altitud restringida 150m Presiona ligeramente el acelerador para controlar la orientación de la aeronave. Mantén pulsado el botón de bloqueo para que la aeronave aterrice"
498400,2025-05-20 15:59:39,-34.9288682810953,-56.162790955823,3.937008,8.3989504,2.068268110804,10.729685710804,2.952756,12.079476,49.068899208,51.263781168,24,5,7.01,11.713937710804,4.92126,14.092722,49.068899208,-12.079476,0.223694,0,188.9, -23.4, 13,0,0,1026,1065,1683,1044,0,6,100,3,192.5,0.3,11.3,33,3.483,3.482,0,0,0,0,5.972,109.94,10.729685710804,3.937008,6,P-GPS,"Zona de altitud restringida 150m Presiona ligeramente el acelerador para controlar la orientación de la aeronave. Mantén pulsado el botón de bloqueo para que la aeronave aterrice"
498500,2025-05-20 15:59:39,-34.9288731394452,-56.1627908083866,3.937008,8.5958008,1.871417710804,10.729685710804,2.952756,11.855782,50.840880892,53.036747104,24,5,7.001,11.713937710804,4.92126,14.092722,50.840880892,-11.855782,0.223694,0,190.3, -22.7, 12.9,0,0,1028,1062,1683,1044,1,6,100,3,193.9,0.4,11.5,32,3.501,3.5,0,0,0,0,5.402,110.12,10.729685710804,3.937008,6,P-GPS,"Zona de altitud restringida 150m Presiona ligeramente el acelerador para controlar la orientación de la aeronave. Mantén pulsado el botón de bloqueo para que la aeronave aterrice"
498600,2025-05-20 15:59:39,-34.9288779471643,-56.1627913857158,4.265092,9.0879268,1.707375710804,11.057769710804,2.952756,11.855782,52.59678646,54.799214352,24,5,7.001,11.713937710804,4.92126,14.092722,52.59678646,-11.855782,0,0,191.2, -23.9, 13.4,0,0,1038,1050,1683,1046,2,4,100,3,195,0.7,11.8,32,3.501,3.5,0,0,0,0,5.402,110.12,11.057769710804,4.265092,6,P-GPS,"Zona de altitud restringida 150m Presiona ligeramente el acelerador para controlar la orientación de la aeronave. Mantén pulsado el botón de bloqueo para que la aeronave aterrice"
498700,2025-05-20 15:59:39,-34.9288826821927,-56.1627914057523,4.265092,9.2847772,1.510525310804,11.057769710804,3.608924,11.632088,54.324476804,56.526904696,24,5,7.001,11.713937710804,4.92126,14.092722,54.324476804,-11.632088,0,0,192.2, -22.8, 13.5,0,0,1042,1050,1683,1047,3,4,100,3,195.5,1.7,11.9,32,3.501,3.5,0,0,0,0,5.402,110.12,11.057769710804,4.265092,6,P-GPS,"Zona de altitud restringida 150m Presiona ligeramente el acelerador para controlar la orientación de la aeronave. Mantén pulsado el botón de bloqueo para que la aeronave aterrice"
498800,2025-05-20 15:59:40,-34.9288871882514,-56.1627918272596,4.265092,9.4160108,1.379291710804,11.057769710804,4.593176,11.408394,55.970146148,58.17585488,24,5,7.001,11.713937710804,4.92126,14.092722,55.970146148,-11.408394,-0.223694,-0.223694,192.6, -22.6, 13.6,0,0,1049,1050,1683,1051,4,4,100,4,196,2.7,12.1,32,3.501,3.5,0,0,0,0,5.402,110.12,11.057769710804,4.265092,6,P-GPS,"Zona de altitud restringida 150m Presiona ligeramente el acelerador para controlar la orientación de la aeronave. Mantén pulsado el botón de bloqueo para que la aeronave aterrice"
498900,2025-05-20 15:59:40,-34.9288918026481,-56.1627920211403,4.265092,9.4816276,1.313674910804,11.057769710804,5.249344,11.408394,57.65420132,59.860238136,24,5,7.001,11.713937710804,4.92126,14.092722,57.65420132,-11.408394,-0.447388,-0.447388,193, -22.7, 13.9,0,0,1053,1050,1683,1051,4,4,100,4,196.6,3.7,12.4,32,3.501,3.5,0,0,0,0,5.402,110.12,11.057769710804,4.265092,6,P-GPS,"Zona de altitud restringida 150m Presiona ligeramente el acelerador para controlar la orientación de la aeronave. Mantén pulsado el botón de bloqueo para que la aeronave aterrice"
