time(millisecond),datetime(utc),latitude,longitude,height_above_takeoff(feet),height_above_ground_at_drone_location(feet),ground_elevation_at_drone_location(feet),altitude_above_seaLevel(feet),height_sonar(feet),speed(mph),distance(feet),mileage(feet),satellites,gpslevel,voltage(v),max_altitude(feet),max_ascent(feet),max_speed(mph),max_distance(feet), xSpeed(mph), ySpeed(mph), zSpeed(mph), compass_heading(degrees), pitch(degrees), roll(degrees),isPhoto,isVideo,rc_elevator,rc_aileron,rc_throttle,rc_rudder,rc_elevator(percent),rc_aileron(percent),rc_throttle(percent),rc_rudder(percent),gimbal_heading(degrees),gimbal_pitch(degrees),gimbal_roll(degrees),battery_percent,voltageCell1,voltageCell2,voltageCell3,voltageCell4,voltageCell5,voltageCell6,current(A),battery_temperature(f),altitude(feet),ascent(feet),flycStateRaw,flycState,message
0,2025-05-05 13:44:05,0,0,0,,,100.88701897642,0.656168,0,0,0,9,2,0,100.88701897642,0,0,0,0,0,0,208.2, -3.6, 4.8,0,0,364,364,364,1684,-100,-100,-100,100,230.1,0,0,100,4.345,4.342,0,0,0,0,0,92.3,100.88701897642,0,41,Motors_Started,"Error de calibración del estabilizador. Reinicia la aeronave o contacta con la Asistencia DJI (Code: 40011). Señal de posicionamiento por satélite débil. Vuelo estacionario inestable. Vuela con cuidado (Code: 30008). Señal de posicionamiento por saté"
100,2025-05-05 13:44:05,0,0,0,,,100.88701897642,0.656168,0,0,0,9,2,0,100.88701897642,0,0,0,0,0,0,208.2, -3.5, 4.7,0,0,477,364,364,1684,-83,-100,-100,100,230.2,0,0,100,4.345,4.342,0,0,0,0,0,92.3,100.88701897642,0,41,Motors_Started,"Setting new Return-To-Home altitude to 100m (328 ft). Data Recorder File Index is 65. Setting new Maximum Flight Altitude to 500m (1640 ft)"
200,2025-05-05 13:44:05,0,0,0,,,100.88701897642,0.328084,0,0,0,9,2,0,100.88701897642,0,0,0,0,0,0,208.5, -3.5, 4.7,0,0,476,364,364,1684,-83,-100,-100,100,230.3,0,0,100,4.345,4.342,0,0,0,0,0,92.3,100.88701897642,0,41,Motors_Started,
300,2025-05-05 13:44:05,0,0,0,,,100.88701897642,0.328084,0,0,0,9,2,0,100.88701897642,0,0,0,0,0,0,209.1, -3.9, 4.5,0,0,567,364,364,1684,-69,-100,-100,100,230.7,0,0,100,4.345,4.342,0,0,0,0,0,92.3,100.88701897642,0,41,Motors_Started,
400,2025-05-05 13:44:05,0,0,0,,,100.88701897642,0.328084,0,0,0,9,2,0,100.88701897642,0,0,0,0,0,0,208.9, -3.6, 4.3,0,0,1024,1024,1024,1024,0,0,0,0,231.1,0,0,100,4.345,4.342,0,0,0,0,0,92.3,100.88701897642,0,41,Motors_Started,
500,2025-05-05 13:44:05,0,0,0,,,100.88701897642,0.328084,0,0,0,9,2,0,100.88701897642,0,0,0,0,0,0,209.7, -3.5, 2.6,0,0,1024,1024,1024,1024,0,0,0,0,231.4,0,0,100,4.345,4.342,0,0,0,0,0,92.3,100.88701897642,0,41,Motors_Started,
600,2025-05-05 13:44:05,0,0,0,,,100.88701897642,0.328084,0,0,0,9,2,0,100.88701897642,0,0,0,0,0,0,210.5, -3.7, 0.6,0,0,1024,1024,1024,1024,0,0,0,0,232,0,0,100,4.345,4.342,0,0,0,0,0,92.3,100.88701897642,0,41,Motors_Started,
700,2025-05-05 13:44:05,0,0,0,,,100.88701897642,0.328084,0,0,0,9,2,0,100.88701897642,0,0,0,0,0,0,210.8, -3.2, -0.1,0,0,1024,1024,1024,1024,0,0,0,0,232.6,0,0,100,4.345,4.342,0,0,0,0,0,92.3,100.88701897642,0,41,Motors_Started,
800,2025-05-05 13:44:05,0,0,0,,,100.88701897642,0.328084,0,0,0,9,2,0,100.88701897642,0,0,0,0,0,0,210.4, -2.1, 0.9,0,0,1024,1024,1024,1024,0,0,0,0,232.8,0,0,100,4.345,4.342,0,0,0,0,0,92.3,100.88701897642,0,41,Motors_Started,
900,2025-05-05 13:44:06,0,0,-0.328084,,,100.55893497642,0.328084,0.223694,0,0,9,2,0,100.88701897642,0,0.223694,0,-0.223694,0,0,210.7, -2.5, 0.6,0,0,1024,1024,1024,1024,0,0,0,0,232.8,0,0,100,4.345,4.342,0,0,0,0,0,92.3,100.55893497642,-0.328084,41,Motors_Started,
1000,2025-05-05 13:44:06,0,0,-0.328084,,,100.55893497642,0.328084,0.223694,0,0,9,2,0,100.88701897642,0,0.223694,0,-0.223694,0,0,209.5, -2, 0.8,0,0,1024,1024,1024,1024,0,0,0,0,232.6,0,0,100,4.345,4.342,0,0,0,0,0,92.3,100.55893497642,-0.328084,41,Motors_Started,
1100,2025-05-05 13:44:06,0,0,-0.328084,,,100.55893497642,0.328084,0.223694,0,0,9,2,0,100.88701897642,0,0.223694,0,-0.223694,0,0,209.3, -3.1, -0.2,0,0,1024,1024,1024,1024,0,0,0,0,232,0,0,100,4.345,4.342,0,0,0,0,0,92.3,100.55893497642,-0.328084,10,Assisted_Takeoff,
1200,2025-05-05 13:44:06,0,0,-0.328084,,,100.55893497642,0.328084,0.223694,0,0,9,2,0,100.88701897642,0,0.223694,0,-0.223694,0,0,208.2, -3.5, -0.1,0,0,1024,1024,1024,1024,0,0,0,0,231.6,0,0,100,4.345,4.342,0,0,0,0,0,92.3,100.55893497642,-0.328084,10,Assisted_Takeoff,
1300,2025-05-05 13:44:06,0,0,-0.328084,,,100.55893497642,0.328084,0.223694,0,0,9,2,8.718,100.88701897642,0,0.223694,0,-0.223694,0,-0.223694,207.4, -3.4, 0.2,0,0,1024,1024,1069,1013,0,0,7,-2,230.2,0,0,100,4.345,4.342,0,0,0,0,0.553,92.3,100.55893497642,-0.328084,10,Assisted_Takeoff,
1400,2025-05-05 13:44:06,0,0,-0.328084,,,100.55893497642,0.328084,0.223694,0,0,9,2,8.718,100.88701897642,0,0.223694,0,-0.223694,0,0,207.4, -4.5, 0,0,0,1024,1024,1538,713,0,0,78,-47,230,0,0,100,4.345,4.342,0,0,0,0,0.553,92.3,100.55893497642,-0.328084,10,Assisted_Takeoff,
1500,2025-05-05 13:44:06,0,0,-0.328084,,,100.55893497642,0.328084,0.223694,0,0,9,2,8.718,100.88701897642,0,0.223694,0,-0.223694,0,0,207.3, -5.6, 0.2,0,0,1024,1024,1538,713,0,0,78,-47,229.9,0,0,100,4.345,4.342,0,0,0,0,0.553,92.3,100.55893497642,-0.328084,10,Assisted_Takeoff,
1600,2025-05-05 13:44:06,0,0,-0.328084,,,100.55893497642,0.328084,0.223694,0,0,13,2,8.718,100.88701897642,0,0.223694,0,-0.223694,0,-0.223694,206.1, -5.2, 0,0,0,1024,1024,1684,389,0,0,100,-96,229.2,0,0,100,4.345,4.342,0,0,0,0,0.553,92.3,100.55893497642,-0.328084,10,Assisted_Takeoff,
1700,2025-05-05 13:44:06,0,0,0,,,100.88701897642,0.328084,0.223694,0,0,13,2,8.718,100.88701897642,0,0.223694,0,-0.223694,0,-0.223694,205.2, -4.8, -0.6,0,0,1024,1024,1684,364,0,0,100,-100,228.1,0,0,100,4.345,4.342,0,0,0,0,0.553,92.3,100.88701897642,0,10,Assisted_Takeoff,
1800,2025-05-05 13:44:07,0,0,0,,,100.88701897642,0.328084,0.223694,0,0,13,2,8.718,100.88701897642,0,0.223694,0,-0.223694,0,-0.447388,202.7, -4.6, 0.4,0,0,1024,1024,1684,427,0,0,100,-90,226.3,0,0,100,4.345,4.342,0,0,0,0,0.553,92.3,100.88701897642,0,6,P-GPS,
1900,2025-05-05 13:44:07,0,0,0,,,100.88701897642,0.656168,0.671082,0,0,13,2,8.718,100.88701897642,0,0.671082,0,-0.671082,0,-0.671082,197.3, -0.2, 1.6,0,0,1024,1024,1684,364,0,0,100,-100,221.6,0,0,100,4.345,4.342,0,0,0,0,0.553,92.3,100.88701897642,0,6,P-GPS,
2000,2025-05-05 13:44:07,0,0,0,,,100.88701897642,0.656168,0.671082,0,0,13,2,8.718,100.88701897642,0,0.671082,0,-0.671082,-0.223694,-0.447388,191.2, 4.2, 0.5,0,0,1024,1024,1684,364,0,0,100,-100,215.5,0,0,100,4.345,4.342,0,0,0,0,0.553,92.3,100.88701897642,0,6,P-GPS,
2100,2025-05-05 13:44:07,0,0,0,,,100.88701897642,0.656168,0.7158208,0,0,13,2,8.718,100.88701897642,0,0.7158208,0,-0.671082,-0.223694,-0.447388,184.3, 4.7, -0.7,0,0,1024,1024,1684,364,0,0,100,-100,208.8,0,0,100,4.345,4.342,0,0,0,0,0.553,92.3,100.88701897642,0,6,P-GPS,
2200,2025-05-05 13:44:07,0,0,0,,,100.88701897642,0.984252,0.4921268,0,0,13,2,8.718,100.88701897642,0,0.7158208,0,-0.447388,-0.223694,-0.671082,177.6, 4.3, -1.7,0,0,1024,1024,1684,364,0,0,100,-100,202.3,0,0,100,4.345,4.342,0,0,0,0,0.553,92.3,100.88701897642,0,6,P-GPS,
2300,2025-05-05 13:44:07,0,0,0,,,100.88701897642,0.984252,0.3131716,0,0,13,2,8.673,100.88701897642,0,0.7158208,0,-0.223694,-0.223694,-1.11847,171.1, 3.2, -2.1,0,0,1024,1024,1647,879,0,0,94,-22,195.9,0,0,100,4.342,4.343,0,0,0,0,1.416,92.3,100.88701897642,0,6,P-GPS,
2400,2025-05-05 13:44:07,0,0,0.328084,,,101.21510297642,1.312336,0.3131716,0,0,13,2,8.673,101.21510297642,0.328084,0.7158208,0,-0.223694,-0.223694,-1.565858,164.8, 1.7, -2.6,0,0,1024,1024,1647,879,0,0,94,-22,189.5,0,0,100,4.342,4.343,0,0,0,0,1.416,92.3,101.21510297642,0.328084,6,P-GPS,
2500,2025-05-05 13:44:07,0,0,0.656168,,,101.54318697642,1.312336,0,0,0,13,2,8.673,101.54318697642,0.656168,0.7158208,0,0,0,-2.23694,163.5, 1, -2.3,0,0,1024,1024,1024,1024,0,0,0,0,186.7,0,0,100,4.342,4.343,0,0,0,0,1.416,92.3,101.54318697642,0.656168,6,P-GPS,
2600,2025-05-05 13:44:07,-22.7563336040265,-41.9081419913269,0.984252,0.984252,100.88701897642,101.87127097642,6.233596,0,0,0,13,2,8.673,101.87127097642,0.984252,0.7158208,0,0,0,-2.460634,163.9, 1, -1.9,0,0,1024,1024,1024,1024,0,0,0,0,186.7,0,0,100,4.342,4.343,0,0,0,0,1.416,92.3,101.87127097642,0.984252,6,P-GPS,
2700,2025-05-05 13:44:07,-22.7563340720218,-41.9081441560841,1.312336,1.1154856,101.08386937642,102.19935497642,6.56168,0,0.74807745176,0.74807745176,13,2,8.673,102.19935497642,1.312336,0.7158208,0.74807745176,0,0,-2.460634,163.8, 1.8, -1.8,0,0,1024,1024,1024,1024,0,0,0,0,186.7,0,0,100,4.342,4.343,0,0,0,0,1.416,92.3,102.19935497642,1.312336,6,P-GPS,"Error de calibración del estabilizador. Reinicia la aeronave o contacta con la Asistencia DJI (Code: 40011)"
2800,2025-05-05 13:44:07,-22.7563447050315,-41.9080166239641,1.64042,12.139108,90.388330976416,102.52743897642,6.889764,0,42.37368902,43.831038148,13,2,8.673,102.52743897642,1.64042,0.7158208,42.37368902,0,0,-2.013246,163.8, 2.1, -1.4,0,0,1024,1024,1024,1024,0,0,0,0,186.7,0,0,100,4.342,4.343,0,0,0,0,1.416,92.3,102.52743897642,1.64042,6,P-GPS,
2900,2025-05-05 13:44:08,-22.7563749884962,-41.9076394741681,1.968504,38.4186364,64.436886576416,102.85552297642,7.217848,0,169.74409992,171.202761384,13,2,8.673,102.85552297642,1.968504,0.7158208,169.74409992,0,0,-1.342164,163.7, 2.3, -0.8,0,0,1024,1024,1024,1024,0,0,0,0,186.7,0,0,100,4.342,4.343,0,0,0,0,1.416,92.3,102.85552297642,1.968504,6,P-GPS,
3000,2025-05-05 13:44:08,-22.7563940285333,-41.9074001309049,1.968504,45.8333348,57.022188176416,102.85552297642,7.217848,0.223694,250.569889908,252.028551372,13,2,8.673,102.85552297642,1.968504,0.7158208,250.569889908,-0.223694,0,-0.894776,163.5, 2.5, -0.4,0,0,1024,1024,1119,1024,0,0,14,0,186.7,0,0,100,4.342,4.343,0,0,0,0,1.416,92.3,102.85552297642,1.968504,6,P-GPS,
3100,2025-05-05 13:44:08,-22.7563935995727,-41.9073998597566,1.968504,45.8333348,57.022188176416,102.85552297642,7.217848,0.223694,250.646989648,252.209981824,13,2,8.673,102.85552297642,1.968504,0.7158208,250.646989648,-0.223694,0,-0.223694,163.5, 2.8, -0.7,0,0,1024,1024,1684,1024,0,0,100,0,186.7,0,0,100,4.342,4.343,0,0,0,0,1.416,92.3,102.85552297642,1.968504,6,P-GPS,
3200,2025-05-05 13:44:08,-22.7563933729386,-41.9073996767662,2.296588,46.2270356,56.956571376416,103.18360697642,7.217848,0.223694,250.701123508,252.3130002,13,2,8.673,103.18360697642,2.296588,0.7158208,250.701123508,-0.223694,0,0,163.5, 3, -1.2,0,0,1024,1024,1684,1024,0,0,100,0,186.7,0,0,100,4.342,4.343,0,0,0,0,1.416,92.3,103.18360697642,2.296588,6,P-GPS,
3300,2025-05-05 13:44:08,-22.7563913135755,-41.9073990280873,2.296588,46.2926524,56.890954576416,103.18360697642,7.545932,0.3131716,250.854338736,253.09548054,13,2,8.632,103.18360697642,2.296588,0.7158208,250.854338736,-0.223694,-0.223694,-0.447388,163.6, 3, -1.6,0,0,1024,1024,1639,1024,0,0,93,0,186.7,0,0,100,4.258,4.255,0,0,0,0,1.974,92.3,103.18360697642,2.296588,6,P-GPS,
3400,2025-05-05 13:44:08,-22.7563914362837,-41.9073989882126,2.296588,46.2926524,56.890954576416,103.18360697642,7.545932,0.3131716,250.871399104,253.142068468,13,2,8.632,103.18360697642,2.296588,0.7158208,250.871399104,-0.223694,-0.223694,-0.894776,163.4, 3.7, -3.4,0,0,1024,1024,1639,1024,0,0,93,0,186.7,0,0,100,4.258,4.255,0,0,0,0,1.974,92.3,103.18360697642,2.296588,6,P-GPS,
3500,2025-05-05 13:44:08,-22.7563914820384,-41.9073989183899,2.624672,46.6207364,56.890954576416,103.51169097642,7.874016,0,250.896333488,253.17093986,13,2,8.632,103.51169097642,2.624672,0.7158208,250.896333488,0,0,-1.565858,163.7, 3.4, -3.1,0,0,1024,1024,1684,1024,0,0,100,0,186.7,0,0,100,4.258,4.255,0,0,0,0,1.974,92.3,103.51169097642,2.624672,6,P-GPS,
3600,2025-05-05 13:44:08,-22.7563914833206,-41.907398811863,2.952756,46.9488204,56.890954576416,103.83977497642,8.2021,0,250.932094644,253.206701016,15,2,8.632,103.83977497642,2.952756,0.7158208,250.932094644,0,0,-2.23694,163.9, 3.2, -2.9,0,0,1024,1024,1684,1024,0,0,100,0,186.7,0,0,100,4.258,4.255,0,0,0,0,1.974,92.3,103.83977497642,2.952756,6,P-GPS,
3700,2025-05-05 13:44:08,-22.7563914408735,-41.9073986426721,3.28084,47.2769044,56.890954576416,104.16785897642,8.530184,0,250.98754084,253.265756136,15,2,8.632,104.16785897642,3.28084,0.7158208,250.98754084,0,0,-3.131716,164.2, 3.1, -2.5,0,0,1024,1024,1684,1024,0,0,100,0,186.7,0,0,100,4.258,4.255,0,0,0,0,1.974,92.3,104.16785897642,3.28084,6,P-GPS,
3800,2025-05-05 13:44:08,-22.7563912855381,-41.907398455106,3.937008,47.9330724,56.890954576416,104.82402697642,8.858268,0,251.045611708,253.350401808,15,4,8.632,104.82402697642,3.937008,0.7158208,251.045611708,0,0,-3.802798,164.5, 2.8, -1.8,0,0,1024,1024,1684,1024,0,0,100,0,186.7,0,0,100,4.258,4.255,0,0,0,0,1.974,92.3,104.82402697642,3.937008,6,P-GPS,
3900,2025-05-05 13:44:09,-22.7563913009259,-41.9073982579482,4.593176,48.5892404,56.890954576416,105.48019497642,9.514436,0,251.11221276,253.41700286,15,4,8.632,105.48019497642,4.593176,0.7158208,251.11221276,0,0,-4.697574,164.6, 2.7, -1.5,0,0,1089,1024,1661,1024,10,0,97,0,186.7,0,0,100,4.258,4.255,0,0,0,0,1.974,92.3,105.48019497642,4.593176,6,P-GPS,
4000,2025-05-05 13:44:09,-22.7563913299102,-41.907398066665,5.249344,49.2454084,56.890954576416,106.13636297642,10.498688,0,251.177173392,253.482291576,15,4,8.632,106.13636297642,5.249344,0.7158208,251.177173392,0,0,-5.368656,164.8, 2.3, -1.3,0,0,1024,1024,1024,1024,0,0,0,0,186.7,0,0,100,4.258,4.255,0,0,0,0,1.974,92.3,106.13636297642,5.249344,6,P-GPS,
4100,2025-05-05 13:44:09,-22.7563913780402,-41.9073978677551,6.233596,50.2296604,56.890954576416,107.12061497642,11.154856,0,251.245414864,253.5515173,15,4,8.632,107.12061497642,6.233596,0.7158208,251.245414864,0,0,-5.816044,165, 2.1, -0.9,0,0,1024,1024,1024,1024,0,0,0,0,186.7,0,0,100,4.258,4.255,0,0,0,0,1.974,92.3,107.12061497642,6.233596,6,P-GPS,
4200,2025-05-05 13:44:09,-22.756391697839,-41.9073977126787,6.889764,50.85302,56.923762976416,107.77678297642,12.139108,0,251.307094656,253.67947006,15,4,8.632,107.77678297642,6.889764,0.7158208,251.307094656,0,0,-5.368656,165.1, 1.9, -0.2,0,0,1024,1024,1024,1024,0,0,0,0,186.7,0,0,100,4.258,4.255,0,0,0,0,1.974,92.3,107.77678297642,6.889764,6,P-GPS,"Punto de origen actualizado. Altitud de RPO establecida en 100m (Code: 30213)"
4300,2025-05-05 13:44:09,-22.7563917292893,-41.9073975033461,7.545932,51.509188,56.923762976416,108.43295097642,12.795276,0,251.378288884,253.750664288,15,4,8.581,108.43295097642,7.545932,0.7158208,251.378288884,0,0,-4.921268,165.3, 1.6, 0,0,0,1024,1024,1024,1024,0,0,0,0,186.7,0,0,100,4.256,4.255,0,0,0,0,4.248,92.3,108.43295097642,7.545932,6,P-GPS,
4400,2025-05-05 13:44:09,-22.756391793723,-41.9073973373498,8.2021,52.165356,56.923762976416,109.08911897642,13.451444,0,251.435703584,253.811359828,15,4,8.581,109.08911897642,8.2021,0.7158208,251.435703584,0,0,-4.250186,165.5, 1.5, -0.2,0,0,1024,1024,1024,1024,0,0,0,0,186.7,0,0,100,4.256,4.255,0,0,0,0,4.248,92.3,109.08911897642,8.2021,6,P-GPS,
4500,2025-05-05 13:44:09,-22.7563919269286,-41.9073972144693,8.858268,52.821524,56.923762976416,109.74528697642,14.107612,0,251.48130726,253.875008124,15,4,8.581,109.74528697642,8.858268,0.7158208,251.48130726,0,0,-3.35541,165.6, 1.5, -0.2,0,0,1024,1024,1024,1024,0,0,0,0,186.7,0,0,100,4.256,4.255,0,0,0,0,4.248,92.3,109.74528697642,8.858268,6,P-GPS,
4600,2025-05-05 13:44:09,-22.7563921136096,-41.9073971221512,9.186352,53.149608,56.923762976416,110.07337097642,14.435696,0,251.518052668,253.949811276,16,4,8.581,110.07337097642,9.186352,0.7158208,251.518052668,0,0,-2.684328,165.8, 1.6, -0.1,0,0,1024,1024,1024,1024,0,0,0,0,186.7,0,0,100,4.256,4.255,0,0,0,0,4.248,92.3,110.07337097642,9.186352,6,P-GPS,
4700,2025-05-05 13:44:09,-22.7563924151406,-41.9073970613276,9.514436,53.477692,56.923762976416,110.40145497642,14.76378,0.223694,251.547580228,254.062016004,16,4,8.581,110.40145497642,9.514436,0.7158208,251.547580228,-0.223694,0,-1.789552,165.9, 2.5, -0.3,0,0,1024,1024,1024,1024,0,0,0,0,186.7,0,0,100,4.256,4.255,0,0,0,0,4.248,92.3,110.40145497642,9.514436,6,P-GPS,
4800,2025-05-05 13:44:10,-22.7563926820953,-41.9073970364311,9.514436,53.4448836,56.956571376416,110.40145497642,14.76378,0.223694,251.564312512,254.159456952,16,4,8.581,110.40145497642,9.514436,0.7158208,251.564312512,-0.223694,0,-0.894776,166.1, 2.7, -0.4,0,0,1024,1024,1024,1093,0,0,0,10,186.7,0,0,100,4.256,4.255,0,0,0,0,4.248,92.3,110.40145497642,9.514436,6,P-GPS,
4900,2025-05-05 13:44:10,-22.7563928749621,-41.9073970555396,9.84252,53.7729676,56.956571376416,110.72953897642,15.091864,0.223694,251.563984428,254.230323096,16,4,8.581,110.72953897642,9.84252,0.7158208,251.564312512,-0.223694,0,-0.447388,166.2, 2.8, -0.7,0,0,1024,1024,1024,1096,0,0,0,11,186.7,0,0,100,4.256,4.255,0,0,0,0,4.248,92.3,110.72953897642,9.84252,6,P-GPS,
5000,2025-05-05 13:44:10,-22.7563927896143,-41.9073972983424,9.84252,53.7729676,56.956571376416,110.72953897642,15.091864,0.223694,251.479994924,254.31759344,16,4,8.581,110.72953897642,9.84252,0.7158208,251.564312512,-0.223694,0,0,166.4, 2.8, -1,0,0,1024,1024,1024,1024,0,0,0,0,186.8,0,0,100,4.256,4.255,0,0,0,0,4.248,92.3,110.72953897642,9.84252,6,P-GPS,
5100,2025-05-05 13:44:10,-22.7563927514658,-41.9073973510046,9.84252,53.7729676,56.956571376416,110.72953897642,15.091864,0.223694,251.460966052,254.340231236,16,4,8.581,110.72953897642,9.84252,0.7158208,251.564312512,-0.223694,0,0,166.5, 3.4, -1.5,0,0,1024,1024,1024,1024,0,0,0,0,186.9,0,0,100,4.256,4.255,0,0,0,0,4.248,92.3,110.72953897642,9.84252,6,P-GPS,
5200,2025-05-05 13:44:10,-22.7563927004468,-41.9073974345069,9.84252,53.7729676,56.956571376416,110.72953897642,15.091864,0,251.431438492,254.374023888,16,4,8.581,110.72953897642,9.84252,0.7158208,251.564312512,0,0,0,166.7, 3.6, -2.2,0,0,1024,1024,1024,1024,0,0,0,0,186.9,0,0,100,4.256,4.255,0,0,0,0,4.248,92.3,110.72953897642,9.84252,6,P-GPS,
5300,2025-05-05 13:44:10,-22.7563926323396,-41.9073975672574,9.84252,53.7729676,56.956571376416,110.72953897642,15.091864,0,251.384850564,254.425204992,16,4,8.444,110.72953897642,9.84252,0.7158208,251.564312512,0,0,0,166.8, 3.6, -2.6,0,0,1024,1024,1024,1024,0,0,0,0,186.9,0,0,100,4.275,4.281,0,0,0,0,5.547,92.3,110.72953897642,9.84252,6,P-GPS,
5400,2025-05-05 13:44:10,-22.756392563842,-41.9073977180606,10.170604,54.1010516,56.956571376416,111.05762297642,15.091864,0,251.33202904,254.48163544,16,4,8.444,111.05762297642,10.170604,0.7158208,251.564312512,0,0,0,166.8, 3.2, -2.8,0,0,1024,1024,1024,1024,0,0,0,0,186.9,0,0,100,4.275,4.281,0,0,0,0,5.547,92.3,111.05762297642,10.170604,6,P-GPS,
5500,2025-05-05 13:44:10,-22.7563922623533,-41.9073982262056,10.170604,54.13386,56.923762976416,111.05762297642,15.091864,0,251.152239008,254.68504752,16,4,8.444,111.05762297642,10.170604,0.7158208,251.564312512,0,0,0,167.1, 2.1, -3,0,0,1024,1024,1024,1024,0,0,0,0,186.9,0,0,100,4.275,4.281,0,0,0,0,5.547,92.3,111.05762297642,10.170604,6,P-GPS,
5600,2025-05-05 13:44:10,-22.756392218654,-41.9073984051695,10.170604,54.13386,56.923762976416,111.05762297642,15.091864,0,251.0908873,254.747055396,19,4,8.444,111.05762297642,10.170604,0.7158208,251.564312512,0,0,0,167.2, 1.8, -3,0,0,1024,1024,1024,1024,0,0,0,0,186.9,0,0,100,4.275,4.281,0,0,0,0,5.547,92.3,111.05762297642,10.170604,6,P-GPS,
5700,2025-05-05 13:44:10,-22.7563922077595,-41.9073985572199,10.170604,54.13386,56.923762976416,111.05762297642,15.091864,0,251.039706196,254.798564584,19,4,8.444,111.05762297642,10.170604,0.7158208,251.564312512,0,0,0,167.3, 1.8, -3.3,0,0,1024,1024,1024,1024,0,0,0,0,186.9,0,0,100,4.275,4.281,0,0,0,0,5.547,92.3,111.05762297642,10.170604,6,P-GPS,
5800,2025-05-05 13:44:10,-22.7563922191857,-41.9073986751057,10.170604,54.13386,56.923762976416,111.05762297642,15.091864,0,251.0006642,254.838262748,19,4,8.444,111.05762297642,10.170604,0.7158208,251.564312512,0,0,0,167.3, 2, -3.4,0,0,1024,1024,1024,1024,0,0,0,0,186.9,0,0,100,4.275,4.281,0,0,0,0,5.547,92.3,111.05762297642,10.170604,6,P-GPS,
5900,2025-05-05 13:44:11,-22.7563923561193,-41.9073987717166,10.170604,54.13386,56.923762976416,111.05762297642,15.091864,0,250.972448976,254.897974036,19,4,8.444,111.05762297642,10.170604,0.7158208,251.564312512,0,0,0,167.3, 1.6, -3.8,0,0,1024,1024,1024,1024,0,0,0,0,186.9,0,0,100,4.275,4.281,0,0,0,0,5.547,92.3,111.05762297642,10.170604,6,P-GPS,
6000,2025-05-05 13:44:11,-22.7563924076573,-41.9073988166859,10.498688,54.461944,56.923762976416,111.38570697642,15.091864,0,250.958997532,254.922252252,19,4,8.444,111.38570697642,10.498688,0.7158208,251.564312512,0,0,0,167.5, 2.1, -3.8,0,0,1024,1024,1024,1024,0,0,0,0,186.9,0,0,100,4.275,4.281,0,0,0,0,5.547,92.3,111.38570697642,10.498688,6,P-GPS,
6100,2025-05-05 13:44:11,-22.756392428981,-41.9073988610636,10.498688,54.461944,56.923762976416,111.38570697642,15.091864,0,250.94488992,254.938984536,19,4,8.444,111.38570697642,10.498688,0.7158208,251.564312512,0,0,0,167.6, 2.2, -4.1,0,0,1024,1024,1024,1024,0,0,0,0,186.9,0,0,100,4.275,4.281,0,0,0,0,5.547,92.3,111.38570697642,10.498688,6,P-GPS,
6200,2025-05-05 13:44:11,-22.7563924778225,-41.9073988722296,10.498688,54.461944,56.923762976416,111.38570697642,15.091864,0,250.942593332,254.957029156,19,4,8.444,111.38570697642,10.498688,0.7158208,251.564312512,0,0,0,167.6, 2, -3.6,0,0,1024,1024,1024,1024,0,0,0,0,186.9,0,0,100,4.275,4.281,0,0,0,0,5.547,92.3,111.38570697642,10.498688,6,P-GPS,
6300,2025-05-05 13:44:11,-22.7563926244494,-41.9073988725602,10.498688,54.4291356,56.956571376416,111.38570697642,15.091864,0,250.946858424,255.010506848,19,4,8.576,111.38570697642,10.498688,0.7158208,251.564312512,0,0,0,167.7, 1.6, -3.6,0,0,1024,1024,1024,1024,0,0,0,0,186.9,0,0,100,4.27,4.268,0,0,0,0,3.06,92.48,111.38570697642,10.498688,6,P-GPS,
6400,2025-05-05 13:44:11,-22.7563927435365,-41.9073988376391,10.498688,54.4291356,56.956571376416,111.38570697642,15.091864,0,250.962606456,255.05578244,19,4,8.576,111.38570697642,10.498688,0.7158208,251.564312512,0,0,0,167.8, 2, -3.4,0,0,1024,1024,1024,1024,0,0,0,0,186.9,0,0,100,4.27,4.268,0,0,0,0,3.06,92.48,111.38570697642,10.498688,6,P-GPS,
6500,2025-05-05 13:44:11,-22.7563928891599,-41.907398793318,10.498688,54.4291356,56.956571376416,111.38570697642,15.091864,0,250.981963412,255.110900552,19,4,8.576,111.38570697642,10.498688,0.7158208,251.564312512,0,0,0,167.9, 2.3, -3.6,0,0,1024,1024,1024,1024,0,0,0,0,186.9,0,0,100,4.27,4.268,0,0,0,0,3.06,92.48,111.38570697642,10.498688,6,P-GPS,
6600,2025-05-05 13:44:11,-22.7563930282791,-41.9073987408345,10.498688,54.4291356,56.956571376416,111.38570697642,15.091864,0,251.00394504,255.164706328,19,5,8.576,111.38570697642,10.498688,0.7158208,251.564312512,0,0,0,167.9, 2.6, -3.6,0,0,1024,1024,1024,1024,0,0,0,0,186.9,0,0,100,4.27,4.268,0,0,0,0,3.06,92.48,111.38570697642,10.498688,6,P-GPS,
6700,2025-05-05 13:44:11,-22.756393303068,-41.9073987511075,10.498688,54.4291356,56.956571376416,111.38570697642,15.091864,0,251.009194384,255.264771948,19,5,8.576,111.38570697642,10.498688,0.7158208,251.564312512,0,0,0,168, 2.5, -3.6,0,0,1024,1024,1024,1024,0,0,0,0,186.9,0,0,100,4.27,4.268,0,0,0,0,3.06,92.48,111.38570697642,10.498688,6,P-GPS,
6800,2025-05-05 13:44:11,-22.7563934665972,-41.9073986704017,10.826772,54.7572196,56.956571376416,111.71379097642,15.091864,0,251.041346616,255.330388748,19,5,8.576,111.71379097642,10.826772,0.7158208,251.564312512,0,0,0,168, 2.7, -3.7,0,0,1024,1024,1024,1024,0,0,0,0,186.9,0,0,100,4.27,4.268,0,0,0,0,3.06,92.48,111.71379097642,10.826772,6,P-GPS,
6900,2025-05-05 13:44:12,-22.7563936269741,-41.9073985630477,10.826772,54.6916028,57.022188176416,111.71379097642,15.091864,0,251.082357116,255.399286388,19,5,8.576,111.71379097642,10.826772,0.7158208,251.564312512,0,0,0,168, 2.9, -3.4,0,0,1024,1024,1024,1024,0,0,0,0,186.9,0,0,100,4.27,4.268,0,0,0,0,3.06,92.48,111.71379097642,10.826772,6,P-GPS,
7000,2025-05-05 13:44:12,-22.7563937728806,-41.9073984609609,10.826772,54.6916028,57.022188176416,111.71379097642,15.091864,0,251.121399112,255.4626066,19,5,8.576,111.71379097642,10.826772,0.7158208,251.564312512,0,0,0,168.1, 3.3, -3,0,0,1024,1024,1024,1024,0,0,0,0,186.9,0,0,100,4.27,4.268,0,0,0,0,3.06,92.48,111.71379097642,10.826772,6,P-GPS,
7100,2025-05-05 13:44:12,-22.7563939054575,-41.9073983679342,10.826772,54.6916028,57.022188176416,111.71379097642,15.091864,0,251.156832184,255.520349384,19,5,8.576,111.71379097642,10.826772,0.7158208,251.564312512,0,0,0,168.1, 3.4, -3.1,0,0,1024,1024,1024,1024,0,0,0,0,186.9,0,0,100,4.27,4.268,0,0,0,0,3.06,92.48,111.71379097642,10.826772,6,P-GPS,
7200,2025-05-05 13:44:12,-22.7563940235059,-41.9073983725275,10.826772,54.6916028,57.022188176416,111.71379097642,15.091864,0,251.158800688,255.563328388,19,5,8.576,111.71379097642,10.826772,0.7158208,251.564312512,0,0,0,168.2, 3.5, -3.2,0,0,1201,1024,1024,1024,27,0,0,0,186.9,0,0,100,4.27,4.268,0,0,0,0,3.06,92.48,111.71379097642,10.826772,6,P-GPS,
7300,2025-05-05 13:44:12,-22.7563942172398,-41.9073983230417,10.826772,54.6916028,57.022188176416,111.71379097642,15.091864,0,251.181766568,255.635834952,19,5,8.537,111.71379097642,10.826772,0.7158208,251.564312512,0,0,0,168.2, 3.2, -3.1,0,0,1684,1024,1024,1024,100,0,0,0,186.9,0,0,100,4.266,4.266,0,0,0,0,3.896,92.48,111.71379097642,10.826772,6,P-GPS,
7400,2025-05-05 13:44:12,-22.7563943986693,-41.9073982596196,10.826772,54.6916028,57.022188176416,111.71379097642,15.091864,0,251.208669456,255.70538876,19,5,8.537,111.71379097642,10.826772,0.7158208,251.564312512,0,0,0,168.4, 0, -2.7,0,0,1684,1024,1024,1024,100,0,0,0,186.9,0,0,100,4.266,4.266,0,0,0,0,3.896,92.48,111.71379097642,10.826772,6,P-GPS,
7500,2025-05-05 13:44:12,-22.756394619413,-41.907398138774,10.826772,54.6587944,57.054996576416,111.71379097642,15.091864,0.223694,251.25656972,255.79561186,19,5,8.537,111.71379097642,10.826772,0.7158208,251.564312512,-0.223694,0,0,168.9, -12.1, -2.8,0,0,1684,1024,1024,1024,100,0,0,0,186.9,0,0,100,4.266,4.266,0,0,0,0,3.896,92.48,111.71379097642,10.826772,6,P-GPS,
7600,2025-05-05 13:44:12,-22.7563950853825,-41.9073981055577,10.826772,54.6587944,57.054996576416,111.71379097642,15.091864,0.9171454,251.28281644,255.96621554,19,5,8.537,111.71379097642,10.826772,0.9171454,251.564312512,-0.894776,0.223694,0,169, -17.9, -2.7,0,0,1684,1024,1024,1024,100,0,0,0,186.9,0,0,100,4.266,4.266,0,0,0,0,3.896,92.48,111.71379097642,10.826772,6,P-GPS,
7700,2025-05-05 13:44:12,-22.7563957179039,-41.9073979405412,10.826772,54.625986,57.087804976416,111.71379097642,15.091864,1.8119214,251.358603844,256.203420272,19,5,8.537,111.71379097642,10.826772,1.8119214,251.564312512,-1.789552,0.223694,0,168.7, -18.1, -2.8,0,0,1684,1024,1024,1024,100,0,0,0,186.9,0,0,100,4.266,4.266,0,0,0,0,3.896,92.48,111.71379097642,10.826772,6,P-GPS,
7800,2025-05-05 13:44:12,-22.7563966240418,-41.9073977025283,11.154856,54.8884532,57.153421776416,112.04187497642,15.091864,2.5053728,251.468511984,256.54364338,19,5,8.537,112.04187497642,11.154856,2.5053728,251.564312512,-2.460634,0.447388,0,168.6, -17.4, -2.8,0,0,1684,1024,1024,1024,100,0,0,0,186.9,0,0,100,4.266,4.266,0,0,0,0,3.896,92.48,112.04187497642,11.154856,6,P-GPS,
7900,2025-05-05 13:44:13,-22.7563979145328,-41.9073973269994,11.154856,54.8556448,57.186230176416,112.04187497642,15.091864,3.4225182,251.637803328,257.031176204,19,5,8.537,112.04187497642,11.154856,3.4225182,251.637803328,-3.35541,0.671082,0,168.5, -17, -2.7,0,0,1684,1024,1024,1024,100,0,0,0,186.9,0,0,100,4.266,4.266,0,0,0,0,3.896,92.48,112.04187497642,11.154856,6,P-GPS,
8000,2025-05-05 13:44:13,-22.7563993260167,-41.907396881612,10.826772,54.4947524,57.219038576416,111.71379097642,15.091864,4.0712308,251.835309896,257.56726546,19,5,8.537,112.04187497642,11.154856,4.0712308,251.835309896,-4.026492,0.671082,0,168.6, -16.8, -2.7,0,0,1684,1024,1024,1024,100,0,0,0,186.9,0,0,100,4.266,4.266,0,0,0,0,3.896,92.48,111.71379097642,10.826772,6,P-GPS,
8100,2025-05-05 13:44:13,-22.7564012058021,-41.9073963783852,10.826772,54.3963272,57.317463776416,111.71379097642,15.091864,5.0107456,252.07021804,258.273958396,19,5,8.537,112.04187497642,11.154856,5.0107456,252.07021804,-4.921268,0.894776,0,168.6, -16.7, -3.1,0,0,1684,1024,1452,1024,100,0,65,0,186.9,0,0,100,4.266,4.266,0,0,0,0,3.896,92.48,111.71379097642,10.826772,6,P-GPS,
8200,2025-05-05 13:44:13,-22.7564032799626,-41.9073958283363,10.826772,54.3307104,57.383080576416,111.71379097642,15.091864,5.704197,252.3294044,259.052829812,19,5,8.537,112.04187497642,11.154856,5.704197,252.3294044,-5.59235,1.11847,0,168.7, -16.3, -3.1,0,0,1684,1024,1684,1024,100,0,100,0,186.9,0,0,100,4.266,4.266,0,0,0,0,3.896,92.48,111.71379097642,10.826772,6,P-GPS,
8300,2025-05-05 13:44:13,-22.7564058662224,-41.9073951363821,10.826772,54.1994768,57.514314176416,111.71379097642,15.091864,6.3529096,252.657816484,260.024942704,19,5,8.536,112.04187497642,11.154856,6.3529096,252.657816484,-6.263432,1.11847,-0.447388,168.6, -15.5, -2.8,0,0,1684,1024,1684,1024,100,0,100,0,186.9,0,0,100,4.265,4.265,0,0,0,0,3.849,92.48,111.71379097642,10.826772,6,P-GPS,
8400,2025-05-05 13:44:13,-22.7564091837618,-41.9073938351725,11.154856,54.3963272,57.645547776416,112.04187497642,15.091864,7.0687304,253.222120964,261.312016236,19,5,8.536,112.04187497642,11.154856,7.0687304,253.222120964,-6.934514,1.342164,-1.11847,168.5, -14.2, -2.8,0,0,1684,1024,1684,1024,100,0,100,0,186.9,0,0,100,4.265,4.265,0,0,0,0,3.849,92.48,112.04187497642,11.154856,6,P-GPS,
8500,2025-05-05 13:44:13,-22.7564123457896,-41.9073928538832,11.154856,54.2650936,57.776781376416,112.04187497642,15.419948,7.7621818,253.678485808,262.511819424,19,5,8.536,112.04187497642,11.154856,7.7621818,253.678485808,-7.605596,1.565858,-2.013246,168.5, -13.1, -2.8,0,0,1684,1024,1684,1024,100,0,100,0,186.9,0,0,100,4.265,4.265,0,0,0,0,3.849,92.48,112.04187497642,11.154856,6,P-GPS,
8600,2025-05-05 13:44:13,-22.756415557415,-41.9073918489863,11.48294,54.4291356,57.940823376416,112.36995897642,15.748032,8.4332638,254.149614432,263.731307652,19,5,8.536,112.36995897642,11.48294,8.4332638,254.149614432,-8.276678,1.565858,-2.908022,168.6, -13.1, -2.8,0,0,1684,1024,1684,1024,100,0,100,0,186.9,0,0,100,4.265,4.265,0,0,0,0,3.849,92.48,112.36995897642,11.48294,6,P-GPS,
8700,2025-05-05 13:44:13,-22.7564190739519,-41.9073907218146,12.139108,54.95407,58.072056976416,113.02612697642,16.4042,8.4332638,254.68012626,265.069234204,19,5,8.536,113.02612697642,12.139108,8.4332638,254.68012626,-8.724066,1.789552,-3.579104,168.6, -12.4, -3.2,0,0,1684,1024,1684,1024,100,0,100,0,186.9,0,0,100,4.265,4.265,0,0,0,0,3.849,92.48,113.02612697642,12.139108,6,P-GPS,
8800,2025-05-05 13:44:13,-22.7564226431005,-41.9073895375072,12.795276,55.446196,58.236098976416,113.68229497642,16.732284,9.395148,255.23786906,266.431110888,19,5,8.536,113.68229497642,12.795276,9.395148,255.23786906,-9.171454,2.013246,-4.47388,168.6, -12.2, -2.4,0,0,1684,1024,1684,1024,100,0,100,0,186.9,0,0,100,4.265,4.265,0,0,0,0,3.849,92.48,113.68229497642,12.795276,6,P-GPS,
8900,2025-05-05 13:44:14,-22.756426710895,-41.907387558882,13.451444,55.938322,58.400140976416,114.33846297642,17.388452,9.8201666,256.09088746,268.05775136,19,5,8.536,114.33846297642,13.451444,9.8201666,256.09088746,-9.618842,2.013246,-5.144962,168.8, -12.3, -2.2,0,0,1684,1024,1684,1024,100,0,100,0,186.9,0,0,100,4.265,4.265,0,0,0,0,3.849,92.48,114.33846297642,13.451444,6,P-GPS,
9000,2025-05-05 13:44:14,-22.7564306604319,-41.9073861760025,14.107612,56.430448,58.564182976416,114.99463097642,18.04462,10.3122934,256.746727376,269.57185902,19,5,8.536,114.99463097642,14.107612,10.3122934,256.746727376,-10.06623,2.23694,-5.816044,168.7, -12.7, -2,0,0,1684,1024,1684,1024,100,0,100,0,186.9,0,0,100,4.265,4.265,0,0,0,0,3.849,92.48,114.99463097642,14.107612,6,P-GPS,
9100,2025-05-05 13:44:14,-22.7564348928262,-41.9073846701782,14.76378,56.8897656,58.761033376416,115.65079897642,19.028872,10.7596814,257.46555942,271.197187156,19,5,8.536,115.65079897642,14.76378,10.7596814,257.46555942,-10.513618,2.23694,-6.263432,168.9, -13.4, -1.1,0,0,1684,1024,1684,1024,100,0,100,0,186.9,0,0,100,4.265,4.265,0,0,0,0,3.849,92.48,115.65079897642,14.76378,6,P-GPS,
9200,2025-05-05 13:44:14,-22.7564390569986,-41.9073831960101,15.748032,57.7099756,58.925075376416,116.63505097642,19.68504,11.1847,258.178485952,272.79528432,19,5,8.536,116.63505097642,15.748032,11.1847,258.178485952,-10.737312,3.131716,-6.487126,164.6, -13.5, -1.1,0,0,1684,1024,1684,1024,100,0,100,0,186.9,0,0,100,4.265,4.265,0,0,0,0,3.849,92.48,116.63505097642,15.748032,6,P-GPS,
9300,2025-05-05 13:44:14,-22.7564431964869,-41.9073807749989,16.732284,58.5301856,59.089117376416,117.61930297642,20.669292,11.6768268,259.21260672,274.51116364,19,5,8.51,117.61930297642,16.732284,11.6768268,259.21260672,-11.1847,3.35541,-6.487126,164.6, -13.7, -1.5,0,0,1684,1024,1684,1024,100,0,100,0,186.9,0,0,100,4.217,4.22,0,0,0,0,4.074,92.48,117.61930297642,16.732284,6,P-GPS,
9400,2025-05-05 13:44:14,-22.756447660205,-41.9073791229508,17.716536,59.3175872,59.285967776416,118.60355497642,21.32546,11.9005208,260.017724856,276.23196422,19,5,8.51,118.60355497642,17.716536,11.9005208,260.017724856,-11.408394,3.35541,-6.487126,164.7, -13.9, -1.8,0,0,1684,1024,1684,1024,100,0,100,0,186.9,0,0,100,4.217,4.22,0,0,0,0,4.074,92.48,118.60355497642,17.716536,6,P-GPS,
9500,2025-05-05 13:44:14,-22.7564526346454,-41.9073773613566,18.700788,60.1049888,59.482818176416,119.58780697642,22.309712,12.3255394,260.898630396,278.1414131,19,5,8.51,119.58780697642,18.700788,12.3255394,260.898630396,-11.855782,3.35541,-6.487126,164.7, -13.9, -2,0,0,1684,1024,1684,1024,100,0,100,0,186.9,0,0,100,4.217,4.22,0,0,0,0,4.074,92.48,119.58780697642,18.700788,6,P-GPS,
9600,2025-05-05 13:44:14,-22.7564574090348,-41.9073756896332,19.68504,60.9251988,59.646860176416,120.57205897642,22.96588,12.5939722,261.748367956,279.971793736,19,5,8.51,120.57205897642,19.68504,12.5939722,261.748367956,-12.079476,3.579104,-6.487126,164.8, -14.3, -2.1,0,0,1684,1024,1684,1024,100,0,100,0,186.9,0,0,100,4.217,4.22,0,0,0,0,4.074,92.48,120.57205897642,19.68504,6,P-GPS,
9700,2025-05-05 13:44:14,-22.7564621077666,-41.9073738332677,20.669292,61.7126004,59.843710576416,121.55631097642,23.950132,12.8176662,262.6640504,281.79626886,19,5,8.51,121.55631097642,20.669292,12.8176662,262.6640504,-12.30317,3.579104,-6.487126,164.8, -14.5, -2.1,0,0,1684,1024,1684,1024,100,0,100,0,186.9,0,0,100,4.217,4.22,0,0,0,0,4.074,92.48,121.55631097642,20.669292,6,P-GPS,
9800,2025-05-05 13:44:14,-22.7564669522572,-41.907372179465,21.653544,62.4671936,60.073369376416,122.54056297642,24.934384,13.2426848,263.532160664,283.649287292,19,5,8.51,122.54056297642,21.653544,13.2426848,263.532160664,-12.750558,3.579104,-6.487126,164.8, -14.7, -2.1,0,0,1684,1024,1684,1024,100,0,100,0,186.9,0,0,100,4.217,4.22,0,0,0,0,4.074,92.48,122.54056297642,21.653544,6,P-GPS,
9900,2025-05-05 13:44:15,-22.7564722929087,-41.9073703965684,22.637796,63.2545952,60.270219776416,123.52481497642,25.918636,13.4663788,264.487541272,285.688329352,19,5,8.51,123.52481497642,22.637796,13.4663788,264.487541272,-12.974252,3.579104,-6.487126,164.9, -14.8, -2.1,0,0,1684,1024,1684,1024,100,0,100,0,186.9,0,0,100,4.217,4.22,0,0,0,0,4.074,92.48,123.52481497642,22.637796,6,P-GPS,
10000,2025-05-05 13:44:15,-22.7564775224482,-41.9073686813368,23.622048,64.0091884,60.499878576416,124.50906697642,26.24672,13.9585056,265.42487726,287.681439652,19,5,8.51,124.50906697642,23.622048,13.9585056,265.42487726,-13.42164,3.802798,-6.487126,164.8, -14.7, -2.3,0,0,1684,1024,1684,1024,100,0,100,0,186.9,0,0,100,4.217,4.22,0,0,0,0,4.074,92.48,124.50906697642,23.622048,6,P-GPS,
10100,2025-05-05 13:44:15,-22.756483291895,-41.9073668862376,24.6063,64.79659,60.696728976416,125.49331897642,25.918636,14.1598302,266.44029724,289.871400352,19,5,8.51,125.49331897642,24.6063,14.1598302,266.44029724,-13.645334,3.802798,-6.487126,164.9, -14.6, -2.4,0,0,1684,1024,1684,1024,100,0,100,0,186.9,0,0,100,4.217,4.22,0,0,0,0,4.074,92.48,125.49331897642,24.6063,6,P-GPS,
10200,2025-05-05 13:44:15,-22.7564887517615,-41.9073651218448,25.262468,65.1902908,60.959196176416,126.14948697642,26.902888,14.4506324,267.43603218,291.950140576,19,5,8.51,126.14948697642,25.262468,14.4506324,267.43603218,-13.869028,4.026492,-6.487126,165.1, -15.2, -1.9,0,0,1684,1024,1684,1024,100,0,100,0,186.9,0,0,100,4.217,4.22,0,0,0,0,4.074,92.48,126.14948697642,25.262468,6,P-GPS,
10300,2025-05-05 13:44:15,-22.756494487467,-41.9073632389721,26.24672,65.9776924,61.156046576416,127.13373897642,27.88714,14.651957,268.504929852,294.136492352,19,5,8.383,127.13373897642,26.24672,14.651957,268.504929852,-14.092722,4.026492,-6.487126,164.9, -15.1, -1.9,0,0,1684,1024,1684,1024,100,0,100,0,186.9,0,0,100,4.22,4.219,0,0,0,0,6.208,92.48,127.13373897642,26.24672,6,P-GPS,
10400,2025-05-05 13:44:15,-22.7565001245864,-41.9073613998747,27.230972,66.7322856,61.385705376416,128.11799097642,28.543308,15.0769756,269.564641172,296.284130216,19,5,8.383,128.11799097642,27.230972,15.0769756,269.564641172,-14.54011,4.026492,-6.487126,164.9, -14.9, -1.9,0,0,1684,1024,1684,1024,100,0,100,0,186.9,0,0,100,4.22,4.219,0,0,0,0,6.208,92.48,128.11799097642,27.230972,6,P-GPS,
10500,2025-05-05 13:44:15,-22.7565063301436,-41.9073593908161,28.215224,67.4868788,61.615364176416,129.10224297642,29.52756,15.3006696,270.74147848,298.646991184,19,5,8.383,129.10224297642,28.215224,15.3006696,270.74147848,-14.763804,4.026492,-6.487126,164.9, -14.9, -2.1,0,0,1684,1024,1684,1024,100,0,100,0,186.9,0,0,100,4.22,4.219,0,0,0,0,6.208,92.48,129.10224297642,28.215224,6,P-GPS,
10600,2025-05-05 13:44:15,-22.7565123670981,-41.9073573738144,29.199476,68.241472,61.845022976416,130.08649497642,30.511812,15.5691024,271.921268544,300.951781284,20,5,8.383,130.08649497642,29.199476,15.5691024,271.921268544,-14.987498,4.250186,-6.487126,164.9, -14.8, -2.1,0,0,1684,1024,1684,1024,100,0,100,0,186.9,0,0,100,4.22,4.219,0,0,0,0,6.208,92.48,130.08649497642,29.199476,6,P-GPS,
10700,2025-05-05 13:44:15,-22.7565187514454,-41.9073553383949,30.183728,68.9304484,62.140298576416,131.07074697642,31.496064,15.7927964,273.15289588,303.379930968,20,5,8.383,131.07074697642,30.183728,15.7927964,273.15289588,-15.211192,4.250186,-6.487126,164.8, -14.5, -2.1,0,0,1684,1024,1684,1024,100,0,100,0,186.9,0,0,100,4.22,4.219,0,0,0,0,6.208,92.48,131.07074697642,30.183728,6,P-GPS,
10800,2025-05-05 13:44:15,-22.7565248902493,-41.9073534057618,31.16798,69.6850416,62.369957376416,132.05499897642,31.824148,15.7927964,274.344168884,305.71195204,20,5,8.383,132.05499897642,31.16798,15.7927964,274.344168884,-15.434886,4.250186,-6.487126,164.8, -14.6, -2.6,0,0,1684,1024,1684,1024,100,0,100,0,186.9,0,0,100,4.22,4.219,0,0,0,0,6.208,92.48,132.05499897642,31.16798,6,P-GPS,
10900,2025-05-05 13:44:16,-22.7565313819176,-41.9073514068248,32.152232,70.4396348,62.599616176416,133.03925097642,28.215224,16.2849232,275.604995696,308.17422246,20,5,8.383,133.03925097642,32.152232,16.2849232,275.604995696,-15.65858,4.47388,-6.487126,164.8, -14.8, -2,0,0,1684,1024,1684,1024,100,0,100,0,186.9,0,0,100,4.22,4.219,0,0,0,0,6.208,92.48,133.03925097642,32.152232,6,P-GPS,
11000,2025-05-05 13:44:16,-22.7565377810641,-41.9073495855343,33.136484,71.1286112,62.894891776416,134.02350297642,29.199476,16.5086172,276.815625656,310.587936448,20,5,8.383,134.02350297642,33.136484,16.5086172,276.815625656,-15.882274,4.47388,-6.487126,164.8, -15, -1.7,0,0,1684,1024,1684,1024,100,0,100,0,186.9,0,0,100,4.22,4.219,0,0,0,0,6.208,92.48,134.02350297642,33.136484,6,P-GPS,
11100,2025-05-05 13:44:16,-22.7565445866442,-41.9073475225834,34.120736,71.850396,63.157358976416,135.00775497642,30.511812,16.7099418,278.16109814,313.16602052,20,5,8.383,135.00775497642,34.120736,16.7099418,278.16109814,-16.105968,4.47388,-6.487126,164.8, -14.9, -1.9,0,0,1684,1024,1684,1024,100,0,100,0,186.9,0,0,99,4.22,4.219,0,0,0,0,6.208,92.48,135.00775497642,34.120736,6,P-GPS,
11200,2025-05-05 13:44:16,-22.7565511391902,-41.9073455355796,35.104988,72.6049892,63.387017776416,135.99200697642,31.496064,16.9336358,279.473106056,315.648632148,20,5,8.383,135.99200697642,35.104988,16.9336358,279.473106056,-16.329662,4.47388,-6.487126,164.7, -15.3, -1.7,0,0,1684,1024,1684,1024,100,0,100,0,186.9,0,0,99,4.22,4.219,0,0,0,0,6.208,92.48,135.99200697642,35.104988,6,P-GPS,
11300,2025-05-05 13:44:16,-22.7565581201212,-41.9073434121869,36.08924,73.326774,63.649484976416,136.97625897642,32.480316,17.2020686,280.890428936,318.293645356,20,5,8.442,136.97625897642,36.08924,17.2020686,280.890428936,-16.553356,4.697574,-6.487126,164.7, -15.4, -1.7,0,0,1684,1024,1658,1024,100,0,96,0,186.9,0,0,99,4.218,4.218,0,0,0,0,5.331,92.48,136.97625897642,36.08924,6,P-GPS,
11400,2025-05-05 13:44:16,-22.7565650633895,-41.9073414037182,37.073492,74.0485588,63.911952176416,137.96051097642,33.464568,17.4257626,282.284129768,320.915692684,20,5,8.442,137.96051097642,37.073492,17.4257626,282.284129768,-16.77705,4.697574,-6.487126,164.8, -15.6, -1.8,0,0,1543,1024,1318,1024,79,0,45,0,186.9,0,0,99,4.218,4.218,0,0,0,0,5.331,92.48,137.96051097642,37.073492,6,P-GPS,
11500,2025-05-05 13:44:16,-22.756572170805,-41.9073392277803,38.057744,74.7703436,64.174419376416,138.94476297642,34.44882,17.4257626,283.767397532,323.610246576,20,5,8.442,138.94476297642,38.057744,17.4257626,283.767397532,-16.77705,4.697574,-6.263432,164.8, -15.8, -2.1,0,0,1142,1024,1024,1024,18,0,0,0,186.9,0,0,99,4.218,4.218,0,0,0,0,5.331,92.48,138.94476297642,38.057744,6,P-GPS,
11600,2025-05-05 13:44:16,-22.756578953639,-41.9073371516885,39.041996,75.45932,64.469694976416,139.92901497642,35.104988,17.6270872,285.199484192,326.181440884,20,5,8.442,139.92901497642,39.041996,17.6270872,285.199484192,-17.000744,4.697574,-5.59235,164.7, -10.3, -1.9,0,0,1024,1024,1024,1024,0,0,0,0,186.9,0,0,99,4.218,4.218,0,0,0,0,5.331,92.48,139.92901497642,39.041996,6,P-GPS,
11700,2025-05-05 13:44:16,-22.7565860119797,-41.9073349854402,39.698164,75.8530208,64.732162176416,140.58518297642,36.08924,17.4257626,286.708342508,328.85827824,20,5,8.442,140.58518297642,39.698164,17.6270872,286.708342508,-16.77705,4.697574,-5.144962,164.2, 0.4, -2.1,0,0,1024,1024,1024,1024,0,0,0,0,186.9,0,0,99,4.218,4.218,0,0,0,0,5.331,92.48,140.58518297642,39.698164,6,P-GPS,
11800,2025-05-05 13:44:16,-22.7565923086776,-41.9073328727869,40.354332,76.27953,64.961820976416,141.24135097642,36.745408,16.7099418,288.125993472,331.26313396,20,5,8.442,141.24135097642,40.354332,17.6270872,288.125993472,-16.105968,4.47388,-4.47388,163.8, 23.6, -0.3,0,0,1024,1024,1024,1024,0,0,0,0,186.9,0,0,99,4.218,4.218,0,0,0,0,5.331,92.48,141.24135097642,40.354332,6,P-GPS,
11900,2025-05-05 13:44:17,-22.7565987631261,-41.9073308718525,40.682416,76.3451468,65.224288176416,141.56943497642,37.401576,15.7256882,289.540363596,333.7106406,20,5,8.442,141.56943497642,40.682416,17.6270872,289.540363596,-15.211192,4.026492,-4.250186,164.3, 22.8, 0,0,0,1024,1024,1024,1024,0,0,0,0,186.9,0,0,99,4.218,4.218,0,0,0,0,5.331,92.48,141.56943497642,40.682416,6,P-GPS,
12000,2025-05-05 13:44:17,-22.7566045615071,-41.9073291090947,41.338584,76.8044644,65.421138576416,142.22560297642,38.057744,15.0322368,290.811689096,335.9088034,20,5,8.442,142.22560297642,41.338584,17.6270872,290.811689096,-14.54011,3.802798,-3.35541,164.6, 20.5, -0.3,0,0,1024,1024,1024,1024,0,0,0,0,186.9,0,0,99,4.218,4.218,0,0,0,0,5.331,92.48,142.22560297642,41.338584,6,P-GPS,
12100,2025-05-05 13:44:17,-22.7566103866467,-41.9073274162269,41.338584,76.607614,65.617988976416,142.22560297642,38.385828,14.316416,292.075468664,338.11024704,20,5,8.442,142.22560297642,41.338584,17.6270872,292.075468664,-13.869028,3.579104,-2.460634,164.7, 19.7, -0.2,0,0,1024,1024,1024,1024,0,0,0,0,186.9,0,0,99,4.218,4.218,0,0,0,0,5.331,92.48,142.22560297642,41.338584,6,P-GPS,
12200,2025-05-05 13:44:17,-22.7566156588709,-41.9073259181088,41.666668,76.7060392,65.847647776416,142.55368697642,38.385828,13.6229646,293.217857152,340.09843608,20,5,8.442,142.55368697642,41.666668,17.6270872,293.217857152,-13.197946,3.35541,-1.565858,164.8, 19.7, 0.3,0,0,1024,1024,1024,1024,0,0,0,0,186.9,0,0,99,4.218,4.218,0,0,0,0,5.331,92.48,142.55368697642,41.666668,6,P-GPS,
12300,2025-05-05 13:44:17,-22.7566201195829,-41.9073248992842,41.666668,76.5748056,65.978881376416,142.55368697642,38.385828,13.1308378,294.113526472,341.76182196,20,5,8.433,142.55368697642,41.666668,17.6270872,294.113526472,-12.750558,3.131716,-0.894776,164.7, 19.8, 0.7,0,0,1024,1024,1024,1024,0,0,0,0,186.9,0,0,99,4.213,4.214,0,0,0,0,5.428,92.66,142.55368697642,41.666668,6,P-GPS,
12400,2025-05-05 13:44:17,-22.7566246943902,-41.9073236984235,41.666668,76.3779552,66.175731776416,142.55368697642,38.385828,12.2136924,295.087935952,343.47770128,20,5,8.433,142.55368697642,41.666668,17.6270872,295.087935952,-11.855782,2.908022,-0.223694,164.4, 20.1, 0.9,0,0,1024,1024,1024,1024,0,0,0,0,186.9,0,0,99,4.213,4.214,0,0,0,0,5.428,92.66,142.55368697642,41.666668,6,P-GPS,
12500,2025-05-05 13:44:17,-22.7566290583595,-41.9073226025974,41.666668,76.2139132,66.339773776416,142.55368697642,38.385828,11.4531328,296.007883488,345.1115596,20,5,8.433,142.55368697642,41.666668,17.6270872,296.007883488,-11.1847,2.460634,0,164.1, 20.5, 0.3,0,0,1024,1024,1024,1024,0,0,0,0,186.9,0,0,99,4.213,4.214,0,0,0,0,5.428,92.66,142.55368697642,41.666668,6,P-GPS,
12600,2025-05-05 13:44:17,-22.7566329127692,-41.9073217060964,41.666668,76.0826796,66.471007376416,142.55368697642,38.385828,10.5359874,296.803487188,346.55184836,20,5,8.433,142.55368697642,41.666668,17.6270872,296.803487188,-10.289924,2.23694,0,163.8, 21.6, -1.3,0,0,1024,1024,1024,1024,0,0,0,0,186.9,0,0,99,4.213,4.214,0,0,0,0,5.428,92.66,142.55368697642,41.666668,6,P-GPS,
12700,2025-05-05 13:44:17,-22.7566357580387,-41.9073213763327,41.666668,75.951446,66.602240976416,142.55368697642,38.385828,9.7754278,297.29003576,347.59515548,20,5,8.433,142.55368697642,41.666668,17.6270872,297.29003576,-9.618842,1.789552,0,163.5, 22, -2.5,0,0,1024,1024,1024,1024,0,0,0,0,186.9,0,0,99,4.213,4.214,0,0,0,0,5.428,92.66,142.55368697642,41.666668,6,P-GPS,
12800,2025-05-05 13:44:18,-22.7566389864484,-41.9073207339828,41.666668,75.8530208,66.700666176416,142.55368697642,38.385828,8.6345884,297.929143392,348.79266208,20,5,8.433,142.55368697642,41.666668,17.6270872,297.929143392,-8.500372,1.565858,0,163.5, 21.2, -3.2,0,0,1024,1024,1024,1024,0,0,0,0,186.9,0,0,99,4.213,4.214,0,0,0,0,5.428,92.66,142.55368697642,41.666668,6,P-GPS,
12900,2025-05-05 13:44:18,-22.7566420358596,-41.9073201348136,41.994752,76.0826796,66.799091376416,142.88177097642,38.385828,7.941137,298.533802204,349.92455188,20,5,8.433,142.88177097642,41.994752,17.6270872,298.533802204,-7.82929,1.342164,0,163.6, 19.2, -2.1,0,0,1024,1024,1024,1024,0,0,0,0,186.9,0,0,99,4.213,4.214,0,0,0,0,5.428,92.66,142.88177097642,41.994752,6,P-GPS,
13000,2025-05-05 13:44:18,-22.7566446084885,-41.9073196808218,41.994752,75.951446,66.930324976416,142.88177097642,38.385828,7.0016222,299.030193296,350.87271464,20,5,8.433,142.88177097642,41.994752,17.6270872,299.030193296,-6.934514,0.894776,0,163.6, 17.9, -2.2,0,0,1024,1024,1024,1024,0,0,0,0,186.9,0,0,99,4.213,4.214,0,0,0,0,5.428,92.66,142.88177097642,41.994752,6,P-GPS,
13100,2025-05-05 13:44:18,-22.7566464627781,-41.9073195868146,42.322836,76.2467216,66.963133376416,143.20985497642,38.385828,7.0016222,299.316610628,351.55184852,20,5,8.433,143.20985497642,42.322836,17.6270872,299.316610628,-6.263432,0.671082,0,163.6, 17.9, -2.2,0,0,1024,1024,1024,1024,0,0,0,0,186.9,0,0,99,4.213,4.214,0,0,0,0,5.428,92.66,143.20985497642,42.322836,6,P-GPS,
13200,2025-05-05 13:44:18,-22.756648407479,-41.907319354384,42.65092,76.5091888,67.028750176416,143.53793897642,38.385828,5.6147194,299.660114576,352.2637908,20,5,8.433,143.53793897642,42.65092,17.6270872,299.660114576,-5.59235,0.447388,0,163.7, 17.4, -2.7,0,0,1024,1024,1024,1024,0,0,0,0,186.9,0,0,99,4.213,4.214,0,0,0,0,5.428,92.66,143.53793897642,42.65092,6,P-GPS,
13300,2025-05-05 13:44:18,-22.7566502276625,-41.9073191563827,42.65092,76.4107636,67.127175376416,143.53793897642,38.385828,4.921268,299.976715636,352.93308216,20,5,8.552,143.53793897642,42.65092,17.6270872,299.976715636,-4.921268,0.223694,0,163.9, 17, -2.8,0,0,1024,1024,1024,1024,0,0,0,0,186.9,0,0,99,4.271,4.272,0,0,0,0,3.071,92.66,143.53793897642,42.65092,6,P-GPS,
13400,2025-05-05 13:44:18,-22.7566516844815,-41.9073190503819,42.979004,76.6732308,67.192792176416,143.86602297642,31.496064,4.250186,300.21490462,353.46457824,20,5,8.552,143.86602297642,42.979004,17.6270872,300.21490462,-4.250186,0,0,164, 16.5, -3.7,0,0,1024,1024,1024,1024,0,0,0,0,186.9,0,0,99,4.271,4.272,0,0,0,0,3.071,92.66,143.86602297642,42.979004,6,P-GPS,
13500,2025-05-05 13:44:18,-22.7566526806202,-41.9073190924292,42.979004,76.6404224,67.225600576416,143.86602297642,31.16798,3.579104,300.342529296,353.82875148,20,5,8.552,143.86602297642,42.979004,17.6270872,300.342529296,-3.579104,0,0,164, 16.2, -4.7,0,0,1024,1024,1024,1024,0,0,0,0,186.9,0,0,99,4.271,4.272,0,0,0,0,3.071,92.66,143.86602297642,42.979004,6,P-GPS,
13600,2025-05-05 13:44:18,-22.7566536029188,-41.907319112561,43.307088,76.9028896,67.291217376416,144.19410697642,30.839896,2.908022,300.466873132,354.166678,20,5,8.552,144.19410697642,43.307088,17.6270872,300.466873132,-2.908022,0,0,163.9, 16.1, -5.5,0,0,1024,1024,1024,1024,0,0,0,0,186.9,0,0,99,4.271,4.272,0,0,0,0,3.071,92.66,144.19410697642,43.307088,6,P-GPS,
13700,2025-05-05 13:44:18,-22.7566543410078,-41.9073191602845,43.307088,76.9028896,67.291217376416,144.19410697642,30.839896,2.23694,300.556768148,354.43570688,20,5,8.552,144.19410697642,43.307088,17.6270872,300.556768148,-2.23694,0,0,164, 16.2, -6.6,0,0,1024,1024,1024,1024,0,0,0,0,186.9,0,0,99,4.271,4.272,0,0,0,0,3.071,92.66,144.19410697642,43.307088,6,P-GPS,
13800,2025-05-05 13:44:18,-22.7566548596868,-41.9073192019509,43.307088,76.8700812,67.324025776416,144.19410697642,30.839896,1.565858,300.617463688,354.6259956,20,5,8.552,144.19410697642,43.307088,17.6270872,300.617463688,-1.565858,0,0,164.3, 14.3, -6.5,0,0,1024,1024,1024,1024,0,0,0,0,186.9,0,0,99,4.271,4.272,0,0,0,0,3.071,92.66,144.19410697642,43.307088,6,P-GPS,
13900,2025-05-05 13:44:19,-22.7566552898044,-41.9073192160441,43.307088,76.8700812,67.324025776416,144.19410697642,30.839896,1.11847,300.674550304,354.78347592,20,5,8.552,144.19410697642,43.307088,17.6270872,300.674550304,-1.11847,0,0,164.6, 11, -5.6,0,0,1024,1024,1024,1024,0,0,0,0,186.9,0,0,99,4.271,4.272,0,0,0,0,3.071,92.66,144.19410697642,43.307088,6,P-GPS,
14000,2025-05-05 13:44:19,-22.7566556388386,-41.9073192643251,43.635172,77.1653568,67.356834176416,144.52219097642,28.543308,0.894776,300.709327208,354.91142868,20,5,8.552,144.52219097642,43.635172,17.6270872,300.709327208,-0.894776,0,0,164.8, 8.6, -4.9,0,0,1024,1024,1024,1024,0,0,0,0,186.9,0,0,99,4.271,4.272,0,0,0,0,3.071,92.66,144.52219097642,43.635172,6,P-GPS,
14100,2025-05-05 13:44:19,-22.7566558304478,-41.9073192734016,43.635172,77.1653568,67.356834176416,144.52219097642,28.871392,0.671082,300.733605424,354.98032632,20,5,8.552,144.52219097642,43.635172,17.6270872,300.733605424,-0.671082,0,0,164.8, 6.9, -4.4,0,0,1024,1024,1024,1024,0,0,0,0,186.9,0,0,99,4.271,4.272,0,0,0,0,3.071,92.66,144.52219097642,43.635172,6,P-GPS,
14200,2025-05-05 13:44:19,-22.756655950171,-41.907319268803,43.635172,77.1653568,67.356834176416,144.52219097642,28.871392,0.447388,300.752306212,355.02297724,20,5,8.552,144.52219097642,43.635172,17.6270872,300.752306212,-0.447388,0,0,164.8, 5.5, -4,0,0,1024,1024,1024,1024,0,0,0,0,186.9,0,0,99,4.271,4.272,0,0,0,0,3.071,92.66,144.52219097642,43.635172,6,P-GPS,
14300,2025-05-05 13:44:19,-22.7566560337558,-41.9073192402729,43.635172,77.1653568,67.356834176416,144.52219097642,28.871392,0.223694,300.772975504,355.05578564,20,5,8.486,144.52219097642,43.635172,17.6270872,300.772975504,-0.223694,0,0,164.7, 4.7, -3.8,0,0,1024,1024,1024,1024,0,0,0,0,186.9,0,0,99,4.238,4.238,0,0,0,0,3.86,92.66,144.52219097642,43.635172,6,P-GPS,
14400,2025-05-05 13:44:19,-22.7566563379491,-41.9073190937948,43.963256,77.4934408,67.356834176416,144.85027497642,28.871392,0.223694,300.861886268,355.17717672,20,5,8.486,144.85027497642,43.963256,17.6270872,300.861886268,-0.223694,0,0,164.6, 4.4, -3.3,0,0,1024,1024,1024,1024,0,0,0,0,186.9,0,0,99,4.238,4.238,0,0,0,0,3.86,92.66,144.85027497642,43.963256,6,P-GPS,
14500,2025-05-05 13:44:19,-22.7566563718989,-41.9073190356291,43.963256,77.4934408,67.356834176416,144.85027497642,28.871392,0.223694,300.884524064,355.2001426,20,5,8.486,144.85027497642,43.963256,17.6270872,300.884524064,-0.223694,0,0,164.6, 4.2, -3,0,0,1024,1024,1024,1024,0,0,0,0,186.9,0,0,99,4.238,4.238,0,0,0,0,3.86,92.66,144.85027497642,43.963256,6,P-GPS,
14600,2025-05-05 13:44:19,-22.7566564017841,-41.907318985425,43.963256,77.4934408,67.356834176416,144.85027497642,30.511812,0.223694,300.904537188,355.21982764,20,5,8.486,144.85027497642,43.963256,17.6270872,300.904537188,-0.223694,0,0,164.7, 3.9, -3,0,0,1024,1024,1024,1024,0,0,0,0,186.9,0,0,99,4.238,4.238,0,0,0,0,3.86,92.66,144.85027497642,43.963256,6,P-GPS,
14700,2025-05-05 13:44:19,-22.756656455145,-41.9073189476512,44.29134,77.8215248,67.356834176416,145.17835897642,30.839896,0.223694,300.923894144,355.24279352,20,5,8.486,145.17835897642,44.29134,17.6270872,300.923894144,-0.223694,0,0,164.6, 3.7, -3.2,0,0,1024,1024,1024,1024,0,0,0,0,186.9,0,0,99,4.238,4.238,0,0,0,0,3.86,92.66,145.17835897642,44.29134,6,P-GPS,
14800,2025-05-05 13:44:20,-22.7566567167903,-41.9073188663344,44.29134,77.7887164,67.389642576416,145.17835897642,30.511812,0,300.986230104,355.34449956,20,5,8.486,145.17835897642,44.29134,17.6270872,300.986230104,0,0,0,164.6, 3.6, -3.2,0,0,1024,1024,1024,1024,0,0,0,0,186.9,0,0,99,4.238,4.238,0,0,0,0,3.86,92.66,145.17835897642,44.29134,6,P-GPS,
14900,2025-05-05 13:44:20,-22.7566567777332,-41.9073188549261,44.29134,77.7887164,67.389642576416,145.17835897642,30.511812,0,300.998697296,355.36746544,20,5,8.486,145.17835897642,44.29134,17.6270872,300.998697296,0,0,0,164.5, 3, -3.3,0,0,1024,1024,1024,1024,0,0,0,0,186.9,0,0,99,4.238,4.238,0,0,0,0,3.86,92.66,145.17835897642,44.29134,6,P-GPS,
15000,2025-05-05 13:44:20,-22.7566568360446,-41.9073188350544,44.29134,77.7887164,67.389642576416,145.17835897642,30.511812,0,301.013132992,355.38715048,20,5,8.486,145.17835897642,44.29134,17.6270872,301.013132992,0,0,0,164.5, 2.9, -3.1,0,0,1024,1024,1024,1024,0,0,0,0,186.9,0,0,99,4.238,4.238,0,0,0,0,3.86,92.66,145.17835897642,44.29134,6,P-GPS,
15100,2025-05-05 13:44:20,-22.7566568992021,-41.9073187905731,44.29134,77.7887164,67.389642576416,145.17835897642,30.511812,0,301.035770788,355.41667804,20,5,8.486,145.17835897642,44.29134,17.6270872,301.035770788,0,0,0,164.4, 2.8, -3.3,0,0,1024,1024,1024,1024,0,0,0,0,186.9,0,0,99,4.238,4.238,0,0,0,0,3.86,92.66,145.17835897642,44.29134,6,P-GPS,
15200,2025-05-05 13:44:20,-22.7566573740564,-41.9073188197907,44.29134,77.7887164,67.389642576416,145.17835897642,30.511812,0,301.094825908,355.59056256,20,5,8.486,145.17835897642,44.29134,17.6270872,301.094825908,0,0,0,164.4, 2.6, -3.4,0,0,1024,1024,1024,1024,0,0,0,0,186.9,0,0,99,4.238,4.238,0,0,0,0,3.86,92.66,145.17835897642,44.29134,6,P-GPS,
15300,2025-05-05 13:44:20,-22.7566574661612,-41.9073188119498,44.29134,77.7887164,67.389642576416,145.17835897642,30.511812,0,301.110245856,355.62337096,20,5,8.484,145.17835897642,44.29134,17.6270872,301.110245856,0,0,0,164.4, 2.5, -3.5,0,0,1024,1024,1024,1024,0,0,0,0,186.9,0,0,99,4.243,4.242,0,0,0,0,4.025,92.66,145.17835897642,44.29134,6,P-GPS,
15400,2025-05-05 13:44:20,-22.756657539819,-41.9073187901458,44.29134,77.755908,67.422450976416,145.17835897642,30.511812,0,301.127634308,355.64961768,20,5,8.484,145.17835897642,44.29134,17.6270872,301.127634308,0,0,0,164.3, 2.6, -3.3,0,0,1024,1024,1024,1024,0,0,0,0,186.9,0,0,99,4.243,4.242,0,0,0,0,4.025,92.66,145.17835897642,44.29134,6,P-GPS,
15500,2025-05-05 13:44:20,-22.7566575582399,-41.9073187359377,44.29134,77.755908,67.422450976416,145.17835897642,30.511812,0,301.146991264,355.66930272,20,5,8.484,145.17835897642,44.29134,17.6270872,301.146991264,0,0,0,164.3, 2.7, -3.4,0,0,1024,1024,1024,1024,0,0,0,0,186.9,0,0,99,4.243,4.242,0,0,0,0,4.025,92.66,145.17835897642,44.29134,6,P-GPS,
15600,2025-05-05 13:44:20,-22.7566575693915,-41.907318678478,44.29134,77.755908,67.422450976416,145.17835897642,30.839896,0,301.16634822,355.68898776,20,5,8.484,145.17835897642,44.29134,17.6270872,301.16634822,0,0,0,164.3, 2.8, -3.2,0,0,1024,1024,1024,1024,0,0,0,0,186.9,0,0,99,4.243,4.242,0,0,0,0,4.025,92.66,145.17835897642,44.29134,6,P-GPS,
15700,2025-05-05 13:44:20,-22.7566574641549,-41.9073185336257,44.29134,77.7887164,67.389642576416,145.17835897642,30.839896,0,301.196203864,355.75132372,20,5,8.484,145.17835897642,44.29134,17.6270872,301.196203864,0,0,0,164.4, 2.8, -3.1,0,0,1024,1024,1024,1024,0,0,0,0,186.9,0,0,99,4.243,4.242,0,0,0,0,4.025,92.66,145.17835897642,44.29134,6,P-GPS,
15800,2025-05-05 13:44:20,-22.7566574571722,-41.9073184720598,44.29134,77.7887164,67.389642576416,145.17835897642,30.839896,0,301.214248484,355.7742896,20,5,8.484,145.17835897642,44.29134,17.6270872,301.214248484,0,0,0,164.3, 2.7, -3.3,0,0,1024,1024,1024,1024,0,0,0,0,186.9,0,0,99,4.243,4.242,0,0,0,0,4.025,92.66,145.17835897642,44.29134,6,P-GPS,
15900,2025-05-05 13:44:21,-22.7566574470889,-41.9073184116366,44.29134,77.7887164,67.389642576416,145.17835897642,30.839896,0,301.231636936,355.79397464,20,5,8.484,145.17835897642,44.29134,17.6270872,301.231636936,0,0,0,164.3, 2.9, -3.4,0,0,1024,1024,1024,1024,0,0,0,0,186.9,0,0,99,4.243,4.242,0,0,0,0,4.025,92.66,145.17835897642,44.29134,6,P-GPS,
16000,2025-05-05 13:44:21,-22.7566574577975,-41.9073183721069,44.29134,77.7887164,67.389642576416,145.17835897642,30.839896,0,301.24508838,355.807098,20,5,8.484,145.17835897642,44.29134,17.6270872,301.24508838,0,0,0,164.3, 3, -3.3,0,0,1024,1024,1024,1024,0,0,0,0,186.9,0,0,99,4.243,4.242,0,0,0,0,4.025,92.66,145.17835897642,44.29134,6,P-GPS,
16100,2025-05-05 13:44:21,-22.7566576123043,-41.9073184324279,44.29134,77.755908,67.422450976416,145.17835897642,30.839896,0,301.248697304,355.86615312,20,5,8.484,145.17835897642,44.29134,17.6270872,301.248697304,0,0,0,164.4, 2.9, -3.3,0,0,1024,1024,1024,1024,0,0,0,0,186.9,0,0,99,4.243,4.242,0,0,0,0,4.025,92.66,145.17835897642,44.29134,6,P-GPS,
16200,2025-05-05 13:44:21,-22.7566576715275,-41.9073184415323,44.29134,77.755908,67.422450976416,145.17835897642,30.511812,0,301.254274732,355.889119,20,5,8.484,145.17835897642,44.29134,17.6270872,301.254274732,0,0,0,164.4, 3, -3.3,0,0,1024,1024,1024,1024,0,0,0,0,186.9,0,0,99,4.243,4.242,0,0,0,0,4.025,92.66,145.17835897642,44.29134,6,P-GPS,
16300,2025-05-05 13:44:21,-22.7566576764259,-41.9073184354194,44.29134,77.755908,67.422450976416,145.17835897642,30.839896,0,301.256899404,355.89239984,20,5,8.492,145.17835897642,44.29134,17.6270872,301.256899404,0,0,0,164.5, 2.4, -3.4,0,0,1024,1024,1024,1024,0,0,0,0,186.9,0,0,99,4.245,4.244,0,0,0,0,3.856,92.84,145.17835897642,44.29134,6,P-GPS,
16400,2025-05-05 13:44:21,-22.7566576869521,-41.9073184285818,44.29134,77.755908,67.422450976416,145.17835897642,30.839896,0,301.260508328,355.89568068,20,5,8.492,145.17835897642,44.29134,17.6270872,301.260508328,0,0,0,164.4, 2.5, -3.6,0,0,1024,1024,1024,1024,0,0,0,0,186.9,0,0,99,4.245,4.244,0,0,0,0,3.856,92.84,145.17835897642,44.29134,6,P-GPS,
16500,2025-05-05 13:44:21,-22.7566577190781,-41.9073183780991,44.29134,77.755908,67.422450976416,145.17835897642,30.839896,0,301.280849536,355.91864656,20,5,8.492,145.17835897642,44.29134,17.6270872,301.280849536,0,0,0,164.3, 2.5, -3.5,0,0,1024,1024,1024,1024,0,0,0,0,186.9,0,0,99,4.245,4.244,0,0,0,0,3.856,92.84,145.17835897642,44.29134,6,P-GPS,
16600,2025-05-05 13:44:21,-22.7566577695989,-41.907318363625,44.29134,77.755908,67.422450976416,145.17835897642,30.839896,0,301.29266056,355.93505076,20,5,8.492,145.17835897642,44.29134,17.6270872,301.29266056,0,0,0,164.3, 2.4, -3.5,0,0,1024,1024,1024,1024,0,0,0,0,186.9,0,0,99,4.245,4.244,0,0,0,0,3.856,92.84,145.17835897642,44.29134,6,P-GPS,
16700,2025-05-05 13:44:21,-22.7566578704582,-41.907318377105,44.29134,77.755908,67.422450976416,145.17835897642,30.839896,0,301.302831164,355.97442084,20,5,8.492,145.17835897642,44.29134,17.6270872,301.302831164,0,0,0,164.3, 2.4, -3.9,0,0,1024,1024,1024,1024,0,0,0,0,186.9,0,0,99,4.245,4.244,0,0,0,0,3.856,92.84,145.17835897642,44.29134,6,P-GPS,
