time(millisecond),datetime(utc),latitude,longitude,height_above_takeoff(feet),height_above_ground_at_drone_location(feet),ground_elevation_at_drone_location(feet),altitude_above_seaLevel(feet),height_sonar(feet),speed(mph),distance(feet),mileage(feet),satellites,gpslevel,voltage(v),max_altitude(feet),max_ascent(feet),max_speed(mph),max_distance(feet), xSpeed(mph), ySpeed(mph), zSpeed(mph), compass_heading(degrees), pitch(degrees), roll(degrees),isPhoto,isVideo,rc_elevator,rc_aileron,rc_throttle,rc_rudder,rc_elevator(percent),rc_aileron(percent),rc_throttle(percent),rc_rudder(percent),gimbal_heading(degrees),gimbal_pitch(degrees),gimbal_roll(degrees),battery_percent,voltageCell1,voltageCell2,voltageCell3,voltageCell4,voltageCell5,voltageCell6,current(A),battery_temperature(f),altitude(feet),ascent(feet),flycStateRaw,flycState,message
0,2022-10-27 20:58:07,-34.9108333285174,-56.143839484661,0,0,38.629280435612,38.629280435612,0.328084,0,0,0,20,5,0,38.629280435612,0,0,0,0,0,0,144.6, -6, 3.9,0,0,364,364,364,1684,-100,-100,-100,100,155.4,0,0,96,4.29,4.288,0,0,0,0,0,84.56,38.629280435612,0,41,Motors_Started,"Aeronave en Zona de altitud restringida (150). Vuela con precaución (Code: 190001). Error de calibración del estabilizador. Reinicia la aeronave o contacta con la Asistencia DJI (Code: 40011)"
100,2022-10-27 20:58:07,-34.9108332899208,-56.1438395826008,0,-0.065616799999999,38.694897235612,38.629280435612,0.328084,0,0.0325108934288,0.0325108934288,20,5,0,38.629280435612,0,0,0.0325108934288,0,0,0,145, -6.2, 3.6,0,0,364,364,364,1684,-100,-100,-100,100,155.2,0,0,96,4.29,4.288,0,0,0,0,0,84.56,38.629280435612,0,41,Motors_Started,
200,2022-10-27 20:58:07,-34.910833244889,-56.1438396122518,0,-0.065616799999999,38.694897235612,38.629280435612,0.328084,0,0.048869424136,0.05118274442,20,5,0,38.629280435612,0,0,0.048869424136,0,0,0,145.1, -6, 3.9,0,0,364,364,364,1684,-100,-100,-100,100,155.1,0,0,96,4.29,4.288,0,0,0,0,0,84.56,38.629280435612,0,41,Motors_Started,
300,2022-10-27 20:58:08,-34.9108332247383,-56.1438396343765,0,-0.065616799999999,38.694897235612,38.629280435612,0.328084,0,0.058652560932,0.061075789356,20,5,0,38.629280435612,0,0,0.058652560932,0,0,0,145.9, -5.6, 3.5,0,0,364,364,364,1684,-100,-100,-100,100,155.5,0,0,96,4.29,4.288,0,0,0,0,0,84.56,38.629280435612,0,41,Motors_Started,
400,2022-10-27 20:58:08,-34.9108332153173,-56.1438396530254,0,-0.065616799999999,38.694897235612,38.629280435612,0.328084,0,0.065140093948,0.067628939172,21,5,0,38.629280435612,0,0,0.065140093948,0,0,0,145.7, -5.8, 3.2,0,0,376,364,364,1682,-98,-100,-100,100,155.8,0,0,96,4.29,4.288,0,0,0,0,0,84.56,38.629280435612,0,41,Motors_Started,
500,2022-10-27 20:58:08,-34.910833225526,-56.1438394797457,0,0,38.629280435612,38.629280435612,0.328084,0,0.03760498808,0.119606631124,21,5,0,38.629280435612,0,0,0.065140093948,0,0,0,146.1, -5.9, 2.8,0,0,1024,1024,787,1158,0,0,-36,20,156,0,0,96,4.29,4.288,0,0,0,0,0,84.56,38.629280435612,0,41,Motors_Started,
600,2022-10-27 20:58:08,-34.9108332290687,-56.1438394643699,0,0,38.629280435612,38.629280435612,0.328084,0,0.03678805892,0.124385174584,21,5,0,38.629280435612,0,0,0.065140093948,0,0,0,146.1, -5.4, 3.2,0,0,1024,1024,1176,1024,0,0,23,0,156.2,0,0,96,4.29,4.288,0,0,0,0,0,84.56,38.629280435612,0,41,Motors_Started,
700,2022-10-27 20:58:08,-34.910833204362,-56.1438394648784,0,0,38.629280435612,38.629280435612,0.328084,0,0.045683072328,0.13340059482,21,5,0,38.629280435612,0,0,0.065140093948,0,0,0,145.9, -5.7, 3.9,0,0,1024,1024,1547,1024,0,0,79,0,156.4,0,0,96,4.29,4.288,0,0,0,0,0,84.56,38.629280435612,0,41,Motors_Started,
800,2022-10-27 20:58:08,-34.9108331665523,-56.1438394618185,0,0,38.629280435612,38.629280435612,0.328084,0,0.059486878544,0.147225726496,21,5,0,38.629280435612,0,0,0.065140093948,0,0,0,145.7, -6.3, 3.8,0,0,1024,1024,1684,1024,0,0,100,0,156.4,0,0,96,4.29,4.288,0,0,0,0,0,84.56,38.629280435612,0,41,Motors_Started,
900,2022-10-27 20:58:08,-34.9108331354429,-56.1438393995864,-0.328084,-0.328084,38.629280435612,38.301196435612,0.328084,0,0.074900592948,0.16903215764,21,5,0,38.629280435612,0,0,0.074900592948,0,0,0,145.5, -6.3, 3.3,0,0,1024,1024,1684,1024,0,0,100,0,156.2,0,0,96,4.29,4.288,0,0,0,0,0,84.56,38.301196435612,-0.328084,41,Motors_Started,"Setting new Return-To-Home altitude to 100m (328 ft). Data Recorder File Index is 59. Setting new Maximum Flight Altitude to 120m (394 ft)"
1000,2022-10-27 20:58:08,-34.9108331356941,-56.1438393891771,-0.328084,-0.328084,38.629280435612,38.301196435612,0.328084,0,0.075930776708,0.172147643304,20,5,0,38.629280435612,0,0,0.075930776708,0,0,0,145, -6.4, 3.7,0,0,1024,1024,1684,1024,0,0,100,0,156,0,0,96,4.29,4.288,0,0,0,0,0,84.56,38.301196435612,-0.328084,41,Motors_Started,
1100,2022-10-27 20:58:08,-34.9108331460897,-56.143839414124,-0.328084,-0.328084,38.629280435612,38.301196435612,0.328084,0,0.0698244773,0.1805200189,20,5,0,38.629280435612,0,0,0.075930776708,0,0,0,144.2, -7, 3.6,0,0,1024,1024,1684,1024,0,0,100,0,155.3,0,0,96,4.29,4.288,0,0,0,0,0,84.56,38.301196435612,-0.328084,10,Assisted_Takeoff,
1200,2022-10-27 20:58:08,-34.9108331614862,-56.1438394469597,-0.328084,-0.328084,38.629280435612,38.301196435612,0.328084,0,0.061976379936,0.191836948396,21,5,0,38.629280435612,0,0,0.075930776708,0,0,0,144.9, -6.8, 2.2,0,0,1024,1024,1684,1024,0,0,100,0,155.1,0,0,96,4.29,4.288,0,0,0,0,0,84.56,38.301196435612,-0.328084,10,Assisted_Takeoff,
1300,2022-10-27 20:58:09,-34.9108331941716,-56.1438394761087,-0.328084,-0.328084,38.629280435612,38.301196435612,0.328084,0,0.049082678736,0.206610899,21,5,8.582,38.629280435612,0,0,0.075930776708,0,0,0,145.9, -4.7, 1.3,0,0,1024,1024,1684,1024,0,0,100,0,155.6,0,0,96,4.29,4.288,0,0,0,0,1.286,84.56,38.301196435612,-0.328084,10,Assisted_Takeoff,
1400,2022-10-27 20:58:09,-34.9108331646072,-56.1438394748589,-0.328084,-0.328084,38.629280435612,38.301196435612,0.328084,0,0.059874345748,0.217403878348,21,5,8.582,38.629280435612,0,0,0.075930776708,0,0,0,146.6, -4.1, 0.9,0,0,1024,1024,1672,1024,0,0,98,0,156.3,0,0,96,4.29,4.288,0,0,0,0,1.286,84.56,38.301196435612,-0.328084,10,Assisted_Takeoff,
1500,2022-10-27 20:58:09,-34.9108331725613,-56.1438394559996,-0.328084,-0.328084,38.629280435612,38.301196435612,0.328084,0,0.057542980844,0.223749022908,21,5,8.582,38.629280435612,0,0,0.075930776708,0,0,0,145.7, -5.5, 0,0,0,1024,1024,1542,1024,0,0,78,0,156.5,0,0,96,4.29,4.288,0,0,0,0,1.286,84.56,38.301196435612,-0.328084,10,Assisted_Takeoff,
1600,2022-10-27 20:58:09,-34.9108331814343,-56.1438394102352,0,0,38.629280435612,38.629280435612,0.328084,0,0.058099739392,0.237818905248,21,5,8.582,38.629280435612,0,0,0.075930776708,0,0,0,143.5, -6, -0.4,0,0,1024,1024,1684,1024,0,0,100,0,154.7,0,0,96,4.29,4.288,0,0,0,0,1.286,84.56,38.629280435612,0,10,Assisted_Takeoff,
1700,2022-10-27 20:58:09,-34.9108331933785,-56.1438393045984,0,0,38.629280435612,38.629280435612,0.328084,0,0.07302985798,0.269723761912,21,5,8.582,38.629280435612,0,0,0.075930776708,0,0,0,142.4, -6, -1.5,0,0,1024,1024,1684,1024,0,0,100,0,153.3,0,0,96,4.29,4.288,0,0,0,0,1.286,84.56,38.629280435612,0,10,Assisted_Takeoff,
1800,2022-10-27 20:58:09,-34.9108332577924,-56.1438389909743,0,0,38.629280435612,38.629280435612,0.328084,0.4921268,0.14994423052,0.36645670464,21,5,8.582,38.629280435612,0,0.4921268,0.14994423052,-0.223694,0.447388,-0.223694,141, -5.7, -2.1,0,0,1024,1024,1655,1024,0,0,96,0,151.9,0,0,96,4.29,4.288,0,0,0,0,1.286,84.56,38.629280435612,0,10,Assisted_Takeoff,"Error de calibración del estabilizador. Reinicia la aeronave o contacta con la Asistencia DJI (Code: 40011)"
1900,2022-10-27 20:58:09,-34.9108333847068,-56.1438386795056,0,0,38.629280435612,38.629280435612,0.328084,0.7158208,0.241767068104,0.47051510692,21,5,8.582,38.629280435612,0,0.7158208,0.241767068104,-0.223694,0.671082,-0.671082,141, -0.8, 0,0,0,1024,1024,1024,1024,0,0,0,0,151.7,0,0,96,4.29,4.288,0,0,0,0,1.286,84.56,38.629280435612,0,6,P-GPS,
2000,2022-10-27 20:58:09,-34.9108335578149,-56.1438382960929,0,0.065616799999999,38.563663635612,38.629280435612,0.984252,0.7158208,0.36531825316,0.60146655468,21,5,8.582,38.629280435612,0,0.7158208,0.36531825316,-0.223694,0.671082,-1.565858,141.1, 2.7, 1,0,0,1024,1024,1024,1024,0,0,0,0,151.7,0,0,96,4.29,4.288,0,0,0,0,1.286,84.56,38.629280435612,0,6,P-GPS,"Error de calibración del estabilizador. Reinicia la aeronave o contacta con la Asistencia DJI (Code: 40011)"
2100,2022-10-27 20:58:09,-34.9108336651908,-56.1438379574043,0.328084,0.3937008,38.563663635612,38.957364435612,1.312336,0.7158208,0.47316602564,0.71010829044,21,5,8.582,38.957364435612,0.328084,0.7158208,0.47316602564,-0.223694,0.671082,-2.013246,141.2, 3.8, 1.4,0,0,1024,1024,1024,1024,0,0,0,0,151.7,0,0,96,4.29,4.288,0,0,0,0,1.286,84.56,38.957364435612,0.328084,6,P-GPS,
2200,2022-10-27 20:58:10,-34.9108336704047,-56.1438376640271,0.656168,0.7217848,38.563663635612,39.285448435612,1.968504,0.4921268,0.55881891552,0.79790684968,22,5,8.582,39.285448435612,0.656168,0.7158208,0.55881891552,-0.223694,0.447388,-2.013246,141.3, 4, 1.8,0,0,1024,1024,1024,1024,0,0,0,0,151.7,0,0,96,4.29,4.288,0,0,0,0,1.286,84.56,39.285448435612,0.656168,6,P-GPS,
2300,2022-10-27 20:58:10,-34.9108336945301,-56.1438373901409,0.984252,1.148294,38.465238435612,39.613532435612,2.296588,0.447388,0.64073492864,0.88032155048,22,5,8.582,39.613532435612,0.984252,0.7158208,0.64073492864,0,0.447388,-1.789552,141.4, 3.8, 1.7,0,0,1024,1024,1024,1024,0,0,0,0,151.7,0,0,96,4.29,4.288,0,0,0,0,1.286,84.56,39.613532435612,0.984252,6,P-GPS,
2400,2022-10-27 20:58:10,-34.9108337022852,-56.1438371193546,0.984252,1.148294,38.465238435612,39.613532435612,2.624672,0.223694,0.7207021228,0.96138782604,22,5,8.477,39.613532435612,0.984252,0.7158208,0.7207021228,0,0.223694,-1.342164,141.5, 3.4, 1.3,0,0,1024,1024,1024,1024,0,0,0,0,151.7,0,0,96,4.199,4.2,0,0,0,0,3.049,84.56,39.613532435612,0.984252,6,P-GPS,
2500,2022-10-27 20:58:10,-34.9108336709751,-56.1438368699447,1.312336,1.476378,38.465238435612,39.941616435612,2.952756,0.223694,0.79221787312,1.03687995444,22,5,8.477,39.941616435612,1.312336,0.7158208,0.79221787312,0,0.223694,-0.894776,141.5, 3, 1.2,0,0,1024,1024,1024,1024,0,0,0,0,151.7,0,0,96,4.199,4.2,0,0,0,0,3.049,84.56,39.941616435612,1.312336,6,P-GPS,
2600,2022-10-27 20:58:10,-34.9108334444695,-56.1438364465537,1.312336,1.5748032,38.366813235612,39.941616435612,3.28084,0.223694,0.90996393988,1.18812667844,22,5,8.477,39.941616435612,1.312336,0.7158208,0.90996393988,0,0.223694,-0.447388,141.4, 2.7, 1,0,0,1024,1024,1024,1024,0,0,0,0,151.7,0,0,96,4.199,4.2,0,0,0,0,3.049,84.56,39.941616435612,1.312336,6,P-GPS,
2700,2022-10-27 20:58:10,-34.9108333075353,-56.1438362474198,1.312336,1.5748032,38.366813235612,39.941616435612,3.28084,0.223694,0.96858926984,1.26588258644,22,5,8.477,39.941616435612,1.312336,0.7158208,0.96858926984,0,0.223694,-0.223694,141.3, 2.3, 1.4,0,0,1024,1024,1024,1024,0,0,0,0,151.7,0,0,96,4.199,4.2,0,0,0,0,3.049,84.56,39.941616435612,1.312336,6,P-GPS,
2800,2022-10-27 20:58:10,-34.9108331231885,-56.143836064346,1.312336,1.5748032,38.366813235612,39.941616435612,3.28084,0.223694,1.02606958664,1.3526247152,22,5,8.477,39.941616435612,1.312336,0.7158208,1.02606958664,0,0.223694,0,141.2, 2.5, 1.6,0,0,1024,1024,1024,1024,0,0,0,0,151.7,0,0,96,4.199,4.2,0,0,0,0,3.049,84.56,39.941616435612,1.312336,6,P-GPS,
2900,2022-10-27 20:58:10,-34.910833048883,-56.1438359599396,1.312336,1.5748032,38.366813235612,39.941616435612,3.28084,0.223694,1.05949478456,1.39398298424,22,5,8.477,39.941616435612,1.312336,0.7158208,1.05949478456,0,0.223694,0,141.3, 2.6, 1.8,0,0,1024,1024,1024,1024,0,0,0,0,151.7,0,0,96,4.199,4.2,0,0,0,0,3.049,84.56,39.941616435612,1.312336,6,P-GPS,
3000,2022-10-27 20:58:10,-34.9108329526916,-56.1438360163851,1.312336,1.5748032,38.366813235612,39.941616435612,3.28084,0.223694,1.0467027894,1.43293311672,22,5,8.477,39.941616435612,1.312336,0.7158208,1.05949478456,0,0.223694,0,141.2, 2.2, 1.8,0,0,1024,1024,1024,1024,0,0,0,0,151.7,0,0,96,4.199,4.2,0,0,0,0,3.049,84.56,39.941616435612,1.312336,6,P-GPS,
3100,2022-10-27 20:58:10,-34.9108329220411,-56.1438359658268,1.312336,1.5748032,38.366813235612,39.941616435612,3.28084,0,1.06320213376,1.45174217244,22,5,8.477,39.941616435612,1.312336,0.7158208,1.06320213376,0,0,0,140.6, 2.4, 1.9,0,0,1024,1024,1024,1024,0,0,0,0,151.7,0,0,96,4.199,4.2,0,0,0,0,3.049,84.56,39.941616435612,1.312336,6,P-GPS,
3200,2022-10-27 20:58:11,-34.910832881034,-56.1438359273795,1.312336,1.5748032,38.366813235612,39.941616435612,3.28084,0,1.07676184548,1.47061684496,22,5,8.477,39.941616435612,1.312336,0.7158208,1.07676184548,0,0,0,139.8, 1.9, 2,0,0,1024,1024,1024,1024,0,0,0,0,151.7,0,0,96,4.199,4.2,0,0,0,0,3.049,84.56,39.941616435612,1.312336,6,P-GPS,
3300,2022-10-27 20:58:11,-34.9108328563741,-56.1438358869685,1.312336,1.5748032,38.366813235612,39.941616435612,3.28084,0,1.09009846008,1.48568574308,22,5,8.477,39.941616435612,1.312336,0.7158208,1.09009846008,0,0,0,139.1, 1.6, 1.7,0,0,1024,1024,1024,1024,0,0,0,0,151.7,0,0,96,4.199,4.2,0,0,0,0,3.049,84.56,39.941616435612,1.312336,6,P-GPS,
3400,2022-10-27 20:58:11,-34.9108328394093,-56.1438358440869,1.312336,1.5748032,38.366813235612,39.941616435612,3.28084,0,1.10375331616,1.49993115036,22,5,8.478,39.941616435612,1.312336,0.7158208,1.10375331616,0,0,0,138.2, 1.4, 1.1,0,0,1024,1024,1024,1024,0,0,0,0,151.7,0,0,96,4.234,4.233,0,0,0,0,4.156,84.56,39.941616435612,1.312336,6,P-GPS,
3500,2022-10-27 20:58:11,-34.9108330636558,-56.1438358745892,1.312336,1.5748032,38.366813235612,39.941616435612,3.28084,0,1.08441932604,1.58225398764,22,5,8.478,39.941616435612,1.312336,0.7158208,1.10375331616,0,0,0,137.3, 1.3, 1.4,0,0,1024,1024,1024,1024,0,0,0,0,151.7,0,0,96,4.234,4.233,0,0,0,0,4.156,84.56,39.941616435612,1.312336,6,P-GPS,
3600,2022-10-27 20:58:11,-34.91083302414,-56.1438359499695,1.312336,1.5748032,38.366813235612,39.941616435612,3.28084,0,1.06336617576,1.6090223612,22,5,8.478,39.941616435612,1.312336,0.7158208,1.10375331616,0,0,0,136.4, 0.9, 1.5,0,0,1024,1024,1024,1024,0,0,0,0,151.7,0,0,96,4.234,4.233,0,0,0,0,4.156,84.56,39.941616435612,1.312336,6,P-GPS,
3700,2022-10-27 20:58:11,-34.9108329791799,-56.1438360121677,1.312336,1.5748032,38.366813235612,39.941616435612,3.28084,0,1.04673231696,1.63382879244,22,5,8.478,39.941616435612,1.312336,0.7158208,1.10375331616,0,0,0,135.7, 0.3, 1.1,0,0,1024,1024,1024,1024,0,0,0,0,151.7,0,0,96,4.234,4.233,0,0,0,0,4.156,84.56,39.941616435612,1.312336,6,P-GPS,
3800,2022-10-27 20:58:11,-34.9108329282072,-56.1438360560159,1.312336,1.5748032,38.366813235612,39.941616435612,3.28084,0,1.036171293,1.65658797952,22,5,8.478,39.941616435612,1.312336,0.7158208,1.10375331616,0,0,0,134.9, 0.6, 1.4,0,0,1024,1024,1024,1024,0,0,0,0,151.7,0,0,96,4.234,4.233,0,0,0,0,4.156,84.56,39.941616435612,1.312336,6,P-GPS,
3900,2022-10-27 20:58:11,-34.9108329813844,-56.1438362773558,1.312336,1.5748032,38.366813235612,39.941616435612,3.28084,0,0.96792325932,1.72559388724,22,5,8.478,39.941616435612,1.312336,0.7158208,1.10375331616,0,0,0,134.2, 1.2, 1.7,0,0,1024,1024,1024,1024,0,0,0,0,151.7,0,0,96,4.234,4.233,0,0,0,0,4.156,84.56,39.941616435612,1.312336,6,P-GPS,
4000,2022-10-27 20:58:11,-34.9108329799917,-56.1438363537109,1.312336,1.5748032,38.366813235612,39.941616435612,3.28084,0,0.94534779928,1.74844493784,22,5,8.478,39.941616435612,1.312336,0.7158208,1.10375331616,0,0,0,133.6, 1, 1.5,0,0,1024,1024,1024,1024,0,0,0,0,151.7,0,0,96,4.234,4.233,0,0,0,0,4.156,84.56,39.941616435612,1.312336,6,P-GPS,
4100,2022-10-27 20:58:11,-34.9108329561452,-56.1438363947674,1.312336,1.5748032,38.366813235612,39.941616435612,3.28084,0,0.93440291704,1.76349743176,22,5,8.478,39.941616435612,1.312336,0.7158208,1.10375331616,0,0,0,133, 0.8, 1.9,0,0,1024,1024,1024,1024,0,0,0,0,151.7,0,0,96,4.234,4.233,0,0,0,0,4.156,84.56,39.941616435612,1.312336,6,P-GPS,
4200,2022-10-27 20:58:11,-34.9108329214467,-56.1438364258882,1.312336,1.5748032,38.366813235612,39.941616435612,3.28084,0,0.92713585644,1.77921265536,22,5,8.478,39.941616435612,1.312336,0.7158208,1.10375331616,0,0,0,132.6, 0.8, 1.9,0,0,1024,1024,1024,1024,0,0,0,0,151.7,0,0,96,4.234,4.233,0,0,0,0,4.156,84.56,39.941616435612,1.312336,6,P-GPS,
4300,2022-10-27 20:58:12,-34.9108328403644,-56.1438364281234,1.312336,1.5748032,38.366813235612,39.941616435612,3.28084,0,0.93167325816,1.80880583216,22,5,8.478,39.941616435612,1.312336,0.7158208,1.10375331616,0,0,0,132.1, 0.6, 1.2,0,0,1024,1024,1024,1024,0,0,0,0,151.7,0,0,96,4.234,4.233,0,0,0,0,4.156,84.56,39.941616435612,1.312336,6,P-GPS,
4400,2022-10-27 20:58:12,-34.9108327966668,-56.1438364945793,1.312336,1.5748032,38.366813235612,39.941616435612,3.28084,0,0.91541341512,1.83429139728,22,5,8.454,39.941616435612,1.312336,0.7158208,1.10375331616,0,0,0,131.5, 0.5, 0.6,0,0,1024,1024,1024,1024,0,0,0,0,151.7,0,0,96,4.229,4.228,0,0,0,0,4.117,84.56,39.941616435612,1.312336,6,P-GPS,
4500,2022-10-27 20:58:12,-34.9108327137733,-56.1438365304817,1.312336,1.476378,38.465238435612,39.941616435612,3.28084,0,0.91188323128,1.86638457416,22,5,8.454,39.941616435612,1.312336,0.7158208,1.10375331616,0,0,0,130.9, 0.4, 1.2,0,0,1024,1024,1024,1024,0,0,0,0,151.7,0,0,96,4.229,4.228,0,0,0,0,4.117,84.56,39.941616435612,1.312336,6,P-GPS,
4600,2022-10-27 20:58:12,-34.9108325979372,-56.1438365510244,1.312336,1.476378,38.465238435612,39.941616435612,3.28084,0,0.91730317896,1.90909126844,22,5,8.454,39.941616435612,1.312336,0.7158208,1.10375331616,0,0,0,130.6, 0.4, 2.2,0,0,1024,1024,1024,1024,0,0,0,0,151.7,0,0,96,4.229,4.228,0,0,0,0,4.117,84.56,39.941616435612,1.312336,6,P-GPS,
4700,2022-10-27 20:58:12,-34.9108323872067,-56.1438365457719,1.312336,1.5419948,38.399621635612,39.941616435612,3.28084,0,0.94398296984,1.98599415804,22,5,8.454,39.941616435612,1.312336,0.7158208,1.10375331616,0,0,0,130.3, 0, 2,0,0,1024,1024,1024,1024,0,0,0,0,151.7,0,0,96,4.229,4.228,0,0,0,0,4.117,84.56,39.941616435612,1.312336,6,P-GPS,
4800,2022-10-27 20:58:12,-34.9108323211937,-56.1438366089558,1.312336,1.5419948,38.399621635612,39.941616435612,3.28084,0,0.9355971428,2.01661095692,22,5,8.454,39.941616435612,1.312336,0.7158208,1.10375331616,0,0,0,130, -0.6, 1.3,0,0,1024,1024,1024,1024,0,0,0,0,151.7,0,0,96,4.229,4.228,0,0,0,0,4.117,84.56,39.941616435612,1.312336,6,P-GPS,
4900,2022-10-27 20:58:12,-34.9108322769546,-56.1438366558329,1.312336,1.5419948,38.399621635612,39.941616435612,3.28084,0,0.92926184076,2.0379921912,22,5,8.454,39.941616435612,1.312336,0.7158208,1.10375331616,0,0,0,129.6, 0, 1.5,0,0,1024,1024,1024,1024,0,0,0,0,151.7,0,0,96,4.229,4.228,0,0,0,0,4.117,84.56,39.941616435612,1.312336,6,P-GPS,
5000,2022-10-27 20:58:12,-34.9108322456392,-56.1438366960995,1.312336,1.5419948,38.399621635612,39.941616435612,3.28084,0,0.92313651248,2.05459652244,22,5,8.454,39.941616435612,1.312336,0.7158208,1.10375331616,0,0,0,129.2, 0.2, 1.5,0,0,1024,1024,1024,1024,0,0,0,0,151.7,0,0,96,4.229,4.228,0,0,0,0,4.117,84.56,39.941616435612,1.312336,6,P-GPS,"Error de calibración del estabilizador. Reinicia la aeronave o contacta con la Asistencia DJI (Code: 40011)"
5100,2022-10-27 20:58:12,-34.9108322026531,-56.1438367341727,1.312336,1.5419948,38.399621635612,39.941616435612,3.28084,0,0.9197506856,2.07397972516,22,5,8.454,39.941616435612,1.312336,0.7158208,1.10375331616,0,0,0,128.9, 0.4, 1,0,0,1024,1024,1024,1024,0,0,0,0,151.7,0,0,96,4.229,4.228,0,0,0,0,4.117,84.56,39.941616435612,1.312336,31,Sport,"Error de calibración del estabilizador. Reinicia la aeronave o contacta con la Asistencia DJI (Code: 40011)"
5200,2022-10-27 20:58:12,-34.9108321153563,-56.1438367837858,1.312336,1.5419948,38.399621635612,39.941616435612,3.28084,0,0.92136157804,2.1091208024,22,5,8.454,39.941616435612,1.312336,0.7158208,1.10375331616,0,0,0,128.4, 0, 1.1,0,0,1024,1024,1024,1024,0,0,0,0,151.7,0,0,96,4.229,4.228,0,0,0,0,4.117,84.56,39.941616435612,1.312336,31,Sport,
5300,2022-10-27 20:58:13,-34.9108320925064,-56.1438368461097,1.312336,1.5419948,38.399621635612,39.941616435612,3.28084,0,0.90916013408,2.12954731224,22,5,8.454,39.941616435612,1.312336,0.7158208,1.10375331616,0,0,0,128, -0.2, 1,0,0,1024,1024,1024,1024,0,0,0,0,151.7,0,0,96,4.229,4.228,0,0,0,0,4.117,84.56,39.941616435612,1.312336,31,Sport,
5400,2022-10-27 20:58:13,-34.9108320843609,-56.1438369143468,1.312336,1.5419948,38.399621635612,39.941616435612,3.28084,0,0.8929954354,2.15017723416,22,5,8.447,39.941616435612,1.312336,0.7158208,1.10375331616,0,0,0,127.6, -0.1, 1,0,0,1024,1024,1024,1024,0,0,0,0,151.7,0,0,96,4.229,4.225,0,0,0,0,4.044,84.56,39.941616435612,1.312336,31,Sport,
5500,2022-10-27 20:58:13,-34.9108321083813,-56.143836946773,1.312336,1.5419948,38.399621635612,39.941616435612,3.28084,0,0.88019031688,2.16325138156,22,5,8.447,39.941616435612,1.312336,0.7158208,1.10375331616,0,0,0,127.4, 0.3, 1.6,0,0,1024,1024,1024,1024,0,0,0,0,151.7,0,0,96,4.229,4.225,0,0,0,0,4.044,84.56,39.941616435612,1.312336,31,Sport,
5600,2022-10-27 20:58:13,-34.9108322359043,-56.1438370344052,1.312336,1.5419948,38.399621635612,39.941616435612,3.28084,0,0.83447509232,2.21665689508,22,5,8.447,39.941616435612,1.312336,0.7158208,1.10375331616,0,0,0,127.1, 1.1, 0.6,0,0,1430,1024,1024,1024,62,0,0,0,151.7,0,0,96,4.229,4.225,0,0,0,0,4.044,84.56,39.941616435612,1.312336,31,Sport,
5700,2022-10-27 20:58:13,-34.9108322806202,-56.1438370252476,1.312336,1.5419948,38.399621635612,39.941616435612,3.28084,0,0.82923559084,2.23319889036,22,5,8.447,39.941616435612,1.312336,0.7158208,1.10375331616,0,0,0,126.8, -1.5, 0.4,0,0,1605,1024,1024,1024,88,0,0,0,151.7,0,0,96,4.229,4.225,0,0,0,0,4.044,84.56,39.941616435612,1.312336,31,Sport,
5800,2022-10-27 20:58:13,-34.9108323455015,-56.1438369513893,1.312336,1.5419948,38.399621635612,39.941616435612,3.28084,0.223694,0.83851052552,2.265584062,22,5,8.447,39.941616435612,1.312336,0.7158208,1.10375331616,0,0.223694,0,126.7, -11.9, 1.3,0,0,1592,1024,1024,1024,86,0,0,0,151.7,0,0,96,4.229,4.225,0,0,0,0,4.044,84.56,39.941616435612,1.312336,31,Sport,
5900,2022-10-27 20:58:13,-34.9108324925614,-56.1438366732603,1.312336,1.5419948,38.399621635612,39.941616435612,3.28084,0.8052984,0.89473756144,2.36459653236,22,5,8.447,39.941616435612,1.312336,0.8052984,1.10375331616,-0.447388,0.671082,0,126.4, -19.8, 1,0,0,1510,1024,1024,1024,74,0,0,0,151.7,0,0,96,4.229,4.225,0,0,0,0,4.044,84.56,39.941616435612,1.312336,31,Sport,
6000,2022-10-27 20:58:13,-34.9108328433433,-56.1438359931934,1.312336,1.5748032,38.366813235612,39.941616435612,3.28084,1.8119214,1.05951118876,2.6049705558,22,5,8.447,39.941616435612,1.312336,1.8119214,1.10375331616,-0.894776,1.565858,0,126.2, -20.6, 0.8,0,0,1460,1024,1070,1024,66,0,7,0,151.7,0,0,96,4.229,4.225,0,0,0,0,4.044,84.56,39.941616435612,1.312336,31,Sport,
6100,2022-10-27 20:58:13,-34.9108333101852,-56.1438350727489,1.312336,1.64042,38.301196435612,39.941616435612,3.28084,2.6172198,1.32002628896,2.92877634044,22,5,8.447,39.941616435612,1.312336,2.6172198,1.32002628896,-1.342164,2.23694,0,126.2, -17.6, 0.9,0,0,1320,1024,1150,1024,45,0,19,0,151.7,0,0,96,4.229,4.225,0,0,0,0,4.044,84.56,39.941616435612,1.312336,31,Sport,
6200,2022-10-27 20:58:13,-34.9108339558266,-56.1438338061961,1.312336,1.7060368,38.235579635612,39.941616435612,3.28084,3.2211936,1.71430123596,3.3749672996,22,5,8.447,39.941616435612,1.312336,3.2211936,1.71430123596,-1.789552,2.684328,0,126.1, -14.7, 0.9,0,0,1320,1024,1150,1024,45,0,19,0,151.7,0,0,96,4.229,4.225,0,0,0,0,4.044,84.56,39.941616435612,1.312336,31,Sport,
6300,2022-10-27 20:58:14,-34.9108347155775,-56.1438322960825,1.312336,1.8700788,38.071537635612,39.941616435612,3.28084,4.026492,2.20950466388,3.9050526184,22,5,8.447,39.941616435612,1.312336,4.026492,2.20950466388,-2.23694,3.35541,-0.223694,126, -9.5, 1,0,0,1214,1024,1112,1024,29,0,13,0,151.7,0,0,96,4.229,4.225,0,0,0,0,4.044,84.56,39.941616435612,1.312336,31,Sport,
6400,2022-10-27 20:58:14,-34.9108356258708,-56.1438303134472,1.64042,2.3622048,37.907495635612,40.269700435612,3.608924,4.2278166,2.86912410756,4.5848754748,22,5,8.447,40.269700435612,1.64042,4.2278166,2.86912410756,-2.23694,3.579104,-0.447388,126, -3.2, 1.5,0,0,1211,1024,1089,1024,28,0,10,0,151.7,0,0,96,4.229,4.225,0,0,0,0,4.044,84.56,40.269700435612,1.64042,31,Sport,
6500,2022-10-27 20:58:14,-34.9108365541483,-56.1438284595288,1.64042,2.5262468,37.743453635612,40.269700435612,3.608924,4.5186188,3.5022967,5.2347770704,22,5,8.442,40.269700435612,1.64042,4.5186188,3.5022967,-2.460634,3.802798,-0.447388,126, -1, 1.7,0,0,1083,1024,1053,1024,9,0,4,0,151.7,0,0,96,4.215,4.214,0,0,0,0,4.039,84.74,40.269700435612,1.64042,31,Sport,
6600,2022-10-27 20:58:14,-34.9108375628317,-56.1438264523568,1.64042,2.6902888,37.579411635612,40.269700435612,3.937008,4.5186188,4.194061814,5.9391078016,22,5,8.442,40.269700435612,1.64042,4.5186188,4.194061814,-2.460634,3.802798,-0.223694,125.8, 0, 1.9,0,0,1024,1024,1024,1024,0,0,0,0,151.7,0,0,96,4.215,4.214,0,0,0,0,4.039,84.74,40.269700435612,1.64042,31,Sport,
6700,2022-10-27 20:58:14,-34.9108385013753,-56.1438245732814,1.64042,2.7559056,37.513794835612,40.269700435612,3.937008,4.2278166,4.84416026,6.5973755392,22,5,8.442,40.269700435612,1.64042,4.5186188,4.84416026,-2.23694,3.579104,0,125.7, 12, 1.9,0,0,1024,1024,1024,1024,0,0,0,0,151.7,0,0,96,4.215,4.214,0,0,0,0,4.039,84.74,40.269700435612,1.64042,31,Sport,
6800,2022-10-27 20:58:14,-34.9108394095522,-56.1438227511762,1.64042,2.9199476,37.349752835612,40.269700435612,3.937008,3.7133204,5.4761156608,7.2353348772,22,5,8.442,40.269700435612,1.64042,4.5186188,5.4761156608,-2.013246,3.131716,0,125.5, 17.8, 0.7,0,0,1024,1024,1024,1024,0,0,0,0,151.7,0,0,96,4.215,4.214,0,0,0,0,4.039,84.74,40.269700435612,1.64042,31,Sport,
6900,2022-10-27 20:58:14,-34.9108403025295,-56.1438208573809,1.64042,3.0839896,37.185710835612,40.269700435612,4.265092,2.908022,6.1265093824,7.888943822,22,5,8.442,40.269700435612,1.64042,4.5186188,6.1265093824,-1.565858,2.460634,0,125.4, 17.6, 0.4,0,0,1024,1024,1024,1024,0,0,0,0,151.7,0,0,96,4.215,4.214,0,0,0,0,4.039,84.74,40.269700435612,1.64042,31,Sport,
7000,2022-10-27 20:58:14,-34.9108409991174,-56.1438196195949,1.64042,3.1496064,37.120094035612,40.269700435612,4.265092,2.3040482,6.5694227824,8.338090818,22,5,8.442,40.269700435612,1.64042,4.5186188,6.5694227824,-1.11847,2.013246,0,125.3, 15.3, 1,0,0,1024,1024,1024,1024,0,0,0,0,151.7,0,0,96,4.215,4.214,0,0,0,0,4.039,84.74,40.269700435612,1.64042,6,P-GPS,"Error de calibración del estabilizador. Reinicia la aeronave o contacta con la Asistencia DJI (Code: 40011)"
7100,2022-10-27 20:58:14,-34.9108414270027,-56.1438187358815,1.64042,3.2480316,37.021668835612,40.269700435612,4.265092,1.6105968,6.8751970704,8.6451446336,22,5,8.442,40.269700435612,1.64042,4.5186188,6.8751970704,-0.894776,1.342164,0,125.2, 12.7, 1.1,0,0,1024,1024,1024,1024,0,0,0,0,151.7,0,0,96,4.215,4.214,0,0,0,0,4.039,84.74,40.269700435612,1.64042,6,P-GPS,
7200,2022-10-27 20:58:15,-34.9108417140021,-56.1438180347699,1.64042,3.3136484,36.956052035612,40.269700435612,4.265092,1.006623,7.10958028,8.87959346,22,5,8.442,40.269700435612,1.64042,4.5186188,7.10958028,-0.447388,0.894776,0,125.2, 10.4, 1.1,0,0,1024,1024,1024,1024,0,0,0,0,151.7,0,0,96,4.215,4.214,0,0,0,0,4.039,84.74,40.269700435612,1.64042,6,P-GPS,
7300,2022-10-27 20:58:15,-34.9108416963147,-56.1438180770163,1.64042,3.3136484,36.956052035612,40.269700435612,4.265092,0.4921268,7.0954070512,8.8937994972,22,5,8.442,40.269700435612,1.64042,4.5186188,7.10958028,-0.223694,0.447388,0,125, 8.1, 1.2,0,0,1024,1024,1024,1024,0,0,0,0,151.7,0,0,96,4.215,4.214,0,0,0,0,4.039,84.74,40.269700435612,1.64042,6,P-GPS,
7400,2022-10-27 20:58:15,-34.9108417932531,-56.1438178159626,1.64042,3.3136484,36.956052035612,40.269700435612,4.265092,0.223694,7.1811354004,8.9795278464,22,5,8.442,40.269700435612,1.64042,4.5186188,7.1811354004,0,0.223694,0,124.8, 6.5, 1.1,0,0,1024,1024,1024,1024,0,0,0,0,151.7,0,0,96,4.215,4.214,0,0,0,0,4.039,84.74,40.269700435612,1.64042,6,P-GPS,
7500,2022-10-27 20:58:15,-34.9108417889394,-56.1438176692905,1.64042,3.3136484,36.956052035612,40.269700435612,4.265092,0,7.2201117796,9.0234254856,22,5,8.438,40.269700435612,1.64042,4.5186188,7.2201117796,0,0,0,124.8, 4.6, 1.7,0,0,1024,1024,1024,1024,0,0,0,0,151.7,0,0,96,4.216,4.216,0,0,0,0,4.245,84.74,40.269700435612,1.64042,6,P-GPS,
7600,2022-10-27 20:58:15,-34.9108417433373,-56.1438175651143,1.64042,3.3136484,36.956052035612,40.269700435612,4.265092,0,7.2412075808,9.0587601324,22,5,8.438,40.269700435612,1.64042,4.5186188,7.2412075808,0,0,0,124.6, 3.9, 1.3,0,0,1024,1024,1024,1024,0,0,0,0,151.7,0,0,96,4.216,4.216,0,0,0,0,4.245,84.74,40.269700435612,1.64042,6,P-GPS,
7700,2022-10-27 20:58:15,-34.9108414429268,-56.1438179614645,1.64042,3.3136484,36.956052035612,40.269700435612,4.265092,0,7.0875330352,9.2202430772,22,5,8.438,40.269700435612,1.64042,4.5186188,7.2412075808,0,0,0,124.6, 3.4, 1,0,0,1024,1024,1024,1024,0,0,0,0,151.7,0,0,96,4.216,4.216,0,0,0,0,4.245,84.74,40.269700435612,1.64042,6,P-GPS,
7800,2022-10-27 20:58:15,-34.9108413978197,-56.1438179634691,1.64042,3.3136484,36.956052035612,40.269700435612,4.265092,0,7.0801183368,9.236712894,21,5,8.438,40.269700435612,1.64042,4.5186188,7.2412075808,0,0,0,124.6, 2.9, 1.1,0,0,1024,1024,1024,1024,0,0,0,0,151.7,0,0,96,4.216,4.216,0,0,0,0,4.245,84.74,40.269700435612,1.64042,6,P-GPS,
7900,2022-10-27 20:58:15,-34.9108413697547,-56.1438179401305,1.64042,3.3136484,36.956052035612,40.269700435612,4.265092,0,7.0822180744,9.2491144692,21,5,8.438,40.269700435612,1.64042,4.5186188,7.2412075808,0,0,0,124.5, 2.9, 1.3,0,0,1024,1024,1024,1024,0,0,0,0,151.7,0,0,96,4.216,4.216,0,0,0,0,4.245,84.74,40.269700435612,1.64042,6,P-GPS,
8000,2022-10-27 20:58:15,-34.910841343404,-56.1438179050821,1.64042,3.3136484,36.956052035612,40.269700435612,4.265092,0,7.0877955024,9.2633205064,21,5,8.438,40.269700435612,1.64042,4.5186188,7.2412075808,0,0,0,124.4, 3.3, 1,0,0,1528,1024,1024,1024,76,0,0,0,151.7,0,0,96,4.216,4.216,0,0,0,0,4.245,84.74,40.269700435612,1.64042,6,P-GPS,
8100,2022-10-27 20:58:15,-34.9108415944983,-56.1438177024728,1.64042,3.3136484,36.956052035612,40.269700435612,4.265092,0,7.1810369752,9.373195838,21,5,8.438,40.269700435612,1.64042,4.5186188,7.2412075808,0,0,0,124.4, 3.3, 1.4,0,0,1684,1024,1024,1024,100,0,0,0,151.7,0,0,96,4.216,4.216,0,0,0,0,4.245,84.74,40.269700435612,1.64042,6,P-GPS,"Error de calibración del estabilizador. Reinicia la aeronave o contacta con la Asistencia DJI (Code: 40011)"
8200,2022-10-27 20:58:15,-34.9108416539963,-56.143817595455,1.64042,3.3136484,36.956052035612,40.269700435612,4.265092,0,7.2192259528,9.4118769416,21,5,8.438,40.269700435612,1.64042,4.5186188,7.2412075808,0,0,0,124.3, -3.4, 1.7,0,0,1684,1024,1024,1024,100,0,0,0,151.7,0,0,96,4.216,4.216,0,0,0,0,4.245,84.74,40.269700435612,1.64042,6,P-GPS,
8300,2022-10-27 20:58:16,-34.9108417315355,-56.1438174259236,1.64042,3.4120736,36.857626835612,40.269700435612,4.265092,0.3131716,7.2771327788,9.4699478096,21,5,8.438,40.269700435612,1.64042,4.5186188,7.2771327788,-0.223694,0.223694,0,124.3, -12, 1.5,0,0,1684,1024,1024,1024,100,0,0,0,151.7,0,0,96,4.216,4.216,0,0,0,0,4.245,84.74,40.269700435612,1.64042,6,P-GPS,
8400,2022-10-27 20:58:16,-34.9108419007223,-56.1438170665545,1.968504,3.7401576,36.857626835612,40.597784435612,4.265092,1.006623,7.4006564048,9.5939307532,21,5,8.438,40.597784435612,1.968504,4.5186188,7.4006564048,-0.447388,0.894776,0,124.1, -14.8, 1.2,0,0,1684,1024,1024,1024,100,0,0,0,151.7,0,0,96,4.216,4.216,0,0,0,0,4.245,84.74,40.597784435612,1.968504,6,P-GPS,
8500,2022-10-27 20:58:16,-34.9108422357848,-56.1438164608045,1.968504,3.8057744,36.792010035612,40.597784435612,4.265092,1.6105968,7.6166669104,9.8125331224,21,5,8.425,40.597784435612,1.968504,4.5186188,7.6166669104,-0.894776,1.342164,0,124, -14.6, 1.2,0,0,1684,1024,1024,1024,100,0,0,0,151.7,0,0,95,4.21,4.21,0,0,0,0,4.16,84.74,40.597784435612,1.968504,6,P-GPS,
8600,2022-10-27 20:58:16,-34.9108429539604,-56.1438153654908,1.968504,3.8713912,36.726393235612,40.597784435612,4.265092,2.1027236,8.025426766,10.23211975,21,5,8.425,40.597784435612,1.968504,4.5186188,8.025426766,-1.11847,1.789552,0,124.1, -14.4, 1.5,0,0,1684,1024,1058,1024,100,0,5,0,151.7,0,0,95,4.21,4.21,0,0,0,0,4.16,84.74,40.597784435612,1.968504,6,P-GPS,
8700,2022-10-27 20:58:16,-34.9108435359687,-56.1438142990214,1.968504,3.9698164,36.627968035612,40.597784435612,4.265092,2.908022,8.4054136548,10.6153874788,21,5,8.425,40.597784435612,1.968504,4.5186188,8.4054136548,-1.565858,2.460634,0,124.1, -14, 1.2,0,0,1684,1024,1024,1024,100,0,0,0,151.7,0,0,95,4.21,4.21,0,0,0,0,4.16,84.74,40.597784435612,1.968504,6,P-GPS,
8800,2022-10-27 20:58:16,-34.9108442562332,-56.1438129675532,1.64042,3.7073492,36.562351235612,40.269700435612,4.265092,3.5343652,8.8791669508,11.0926512736,22,5,8.425,40.597784435612,1.968504,4.5186188,8.8791669508,-2.013246,2.908022,0,124.1, -13.7, 1,0,0,1684,1024,1024,1024,100,0,0,0,151.7,0,0,95,4.21,4.21,0,0,0,0,4.16,84.74,40.269700435612,1.64042,6,P-GPS,
8900,2022-10-27 20:58:16,-34.9108451199745,-56.1438113943778,1.64042,3.8713912,36.398309235612,40.269700435612,4.265092,4.026492,9.4415029268,11.6590882996,22,5,8.425,40.597784435612,1.968504,4.5186188,9.4415029268,-2.23694,3.35541,0,124.1, -13.4, 1,0,0,1684,1024,1024,1024,100,0,0,0,151.7,0,0,95,4.21,4.21,0,0,0,0,4.16,84.74,40.269700435612,1.64042,6,P-GPS,
9000,2022-10-27 20:58:16,-34.9108463031506,-56.1438092007496,1.968504,4.3635172,36.234267235612,40.597784435612,4.265092,4.6528352,10.222769356,12.4446198208,22,5,8.425,40.597784435612,1.968504,4.6528352,10.222769356,-2.684328,3.802798,0,124.1, -13.3, 0.7,0,0,1684,1024,1024,1024,100,0,0,0,151.7,0,0,95,4.21,4.21,0,0,0,0,4.16,84.74,40.597784435612,1.968504,6,P-GPS,
9100,2022-10-27 20:58:16,-34.9108474156515,-56.1438071561271,1.968504,4.4947508,36.103033635612,40.597784435612,4.265092,5.144962,10.9532155736,13.1787733876,22,5,8.425,40.597784435612,1.968504,5.144962,10.9532155736,-2.908022,4.250186,0,124.1, -13.2, 0.7,0,0,1684,1024,1069,1024,100,0,7,0,151.7,0,0,95,4.21,4.21,0,0,0,0,4.16,84.74,40.597784435612,1.968504,6,P-GPS,
9200,2022-10-27 20:58:16,-34.910848698998,-56.14380478321,1.968504,4.6587928,35.938991635612,40.597784435612,4.265092,5.6370888,11.8001316112,14.0292327324,22,5,8.425,40.597784435612,1.968504,5.6370888,11.8001316112,-3.131716,4.697574,0,124.1, -12.5, 0.8,0,0,1684,1024,1069,1024,100,0,7,0,151.7,0,0,95,4.21,4.21,0,0,0,0,4.16,84.74,40.597784435612,1.968504,6,P-GPS,
9300,2022-10-27 20:58:17,-34.9108499912099,-56.1438023750917,1.968504,4.8884516,35.709332835612,40.597784435612,4.265092,5.9502604,12.6583337384,14.8902891904,22,5,8.425,40.597784435612,1.968504,5.9502604,12.6583337384,-3.35541,4.921268,0,124, -12.1, 1.1,0,0,1684,1024,1060,1024,100,0,5,0,151.7,0,0,95,4.21,4.21,0,0,0,0,4.16,84.74,40.597784435612,1.968504,6,P-GPS,
9400,2022-10-27 20:58:17,-34.9108515123402,-56.1437993784048,1.968504,5.1181104,35.479674035612,40.597784435612,4.593176,6.4423872,13.7113849532,15.944718358,22,5,8.425,40.597784435612,1.968504,6.4423872,13.7113849532,-3.579104,5.368656,0,124.1, -12, 0.4,0,0,1684,1024,1024,1024,100,0,0,0,151.7,0,0,95,4.21,4.21,0,0,0,0,4.16,84.74,40.597784435612,1.968504,6,P-GPS,
9500,2022-10-27 20:58:17,-34.9108529561781,-56.1437966490176,1.968504,5.2821524,35.315632035612,40.597784435612,4.593176,6.7555588,14.681102832,16.916503166,22,5,8.411,40.597784435612,1.968504,6.7555588,14.681102832,-3.802798,5.59235,0,124.1, -12.2, 0.6,0,0,1684,1024,1024,1024,100,0,0,0,151.7,0,0,95,4.203,4.201,0,0,0,0,4.326,84.74,40.597784435612,1.968504,6,P-GPS,
9600,2022-10-27 20:58:17,-34.9108545522063,-56.143793625414,1.968504,5.5118112,35.085973235612,40.597784435612,4.593176,7.2476856,15.7549873808,17.9923562188,22,5,8.411,40.597784435612,1.968504,7.2476856,15.7549873808,-4.026492,6.039738,0,123.9, -12.9, 0.2,0,0,1684,1024,1024,930,100,0,0,-14,151.7,0,0,95,4.203,4.201,0,0,0,0,4.326,84.74,40.597784435612,1.968504,6,P-GPS,
9700,2022-10-27 20:58:17,-34.9108561498108,-56.1437905877592,1.968504,5.74147,34.856314435612,40.597784435612,4.593176,7.5608572,16.8330714048,19.0720478544,22,5,8.411,40.597784435612,1.968504,7.5608572,16.8330714048,-4.250186,6.263432,0,124, -12.8, 0.2,0,0,1684,1024,1024,743,100,0,0,-43,151.7,0,0,95,4.203,4.201,0,0,0,0,4.326,84.74,40.597784435612,1.968504,6,P-GPS,
9800,2022-10-27 20:58:17,-34.9108578366166,-56.1437870956022,1.968504,6.0367456,34.561038835612,40.597784435612,4.593176,8.0753534,18.0455714436,20.2846791268,22,5,8.411,40.597784435612,1.968504,8.0753534,18.0455714436,-4.47388,6.71082,0,123.9, -12.7, 0.6,0,0,1684,1024,1024,732,100,0,0,-44,151.4,0,0,95,4.203,4.201,0,0,0,0,4.326,84.74,40.597784435612,1.968504,6,P-GPS,
9900,2022-10-27 20:58:17,-34.9108595539606,-56.1437837323613,1.968504,6.2664044,34.331380035612,40.597784435612,4.593176,8.3661556,19.2301187256,21.4700466188,22,5,8.411,40.597784435612,1.968504,8.3661556,19.2301187256,-4.697574,6.934514,0,123.2, -11.5, 1.2,0,0,1684,1024,1024,735,100,0,0,-44,150.5,0,0,95,4.203,4.201,0,0,0,0,4.326,84.74,40.597784435612,1.968504,6,P-GPS,
10000,2022-10-27 20:58:17,-34.9108614248034,-56.1437800551826,1.968504,6.5944884,34.003296035612,40.597784435612,4.593176,8.6345884,20.52411483,22.764764508,22,5,8.411,40.597784435612,1.968504,8.6345884,20.52411483,-4.47388,7.381902,0,119.5, -12.1, 0.9,0,0,1684,1024,1061,840,100,0,6,-28,149.4,0,0,95,4.203,4.201,0,0,0,0,4.326,84.74,40.597784435612,1.968504,6,P-GPS,"Error de calibración del estabilizador. Reinicia la aeronave o contacta con la Asistencia DJI (Code: 40011)"
10100,2022-10-27 20:58:17,-34.9108632421469,-56.1437764709248,1.968504,6.889764,33.708020435612,40.597784435612,4.593176,8.94776,21.7843838992,24.02559132,22,5,8.411,40.597784435612,1.968504,8.94776,21.7843838992,-4.697574,7.605596,0,118.5, -12.7, -0.2,0,0,1684,1024,1061,840,100,0,6,-28,148.3,0,0,95,4.203,4.201,0,0,0,0,4.326,84.74,40.597784435612,1.968504,6,P-GPS,
10200,2022-10-27 20:58:18,-34.9108651977958,-56.1437725763283,1.968504,7.1194228,33.478361635612,40.597784435612,4.593176,9.1267152,23.1503288248,25.3919299464,22,5,8.411,40.597784435612,1.968504,9.1267152,23.1503288248,-4.697574,7.82929,0,117.6, -12.7, 0.7,0,0,1684,1024,1413,956,100,0,59,-10,147.4,0,0,95,4.203,4.201,0,0,0,0,4.326,84.74,40.597784435612,1.968504,6,P-GPS,
10300,2022-10-27 20:58:18,-34.9108667592961,-56.1437685328828,1.968504,7.4146984,33.183086035612,40.597784435612,4.593176,9.618842,24.4828419908,26.7291347136,22,5,8.411,40.597784435612,1.968504,9.618842,24.4828419908,-4.921268,8.276678,-0.223694,116.8, -13.2, 0.1,0,0,1684,1024,1549,1019,100,0,80,-1,147.1,0,0,95,4.203,4.201,0,0,0,0,4.326,84.74,40.597784435612,1.968504,6,P-GPS,
10400,2022-10-27 20:58:18,-34.9108688091195,-56.1437642268885,1.968504,7.7755908,32.822193635612,40.597784435612,4.92126,9.8201666,25.9724745844,28.2188001156,22,5,8.411,40.597784435612,1.968504,9.8201666,25.9724745844,-4.921268,8.500372,-0.894776,116.5, -12.2, 0.3,0,0,1684,1024,1623,1024,100,0,91,0,147,0,0,95,4.203,4.201,0,0,0,0,4.326,84.74,40.597784435612,1.968504,6,P-GPS,
10500,2022-10-27 20:58:18,-34.9108708601871,-56.1437599229469,2.296588,8.3989504,32.526918035612,40.925868435612,4.92126,10.3122934,27.4618447108,29.7081374336,22,5,8.411,40.925868435612,2.296588,10.3122934,27.4618447108,-5.144962,8.94776,-1.565858,116.4, -11, 1.1,0,0,1684,1024,1651,1024,100,0,95,0,146.9,0,0,95,4.203,4.201,0,0,0,0,4.326,84.74,40.925868435612,2.296588,6,P-GPS,
10600,2022-10-27 20:58:18,-34.9108731078762,-56.1437552215752,2.624672,9.1207352,32.133217235612,41.253952435612,5.249344,10.8267896,29.0900271776,31.3363527088,22,5,8.411,41.253952435612,2.624672,10.8267896,29.0900271776,-5.368656,9.395148,-2.23694,116.6, -10.4, 1.8,0,0,1684,1024,1657,1024,100,0,96,0,146.9,0,0,95,4.203,4.201,0,0,0,0,4.326,84.74,41.253952435612,2.624672,6,P-GPS,
10700,2022-10-27 20:58:18,-34.9108752728599,-56.1437508210511,3.28084,10.0721788,31.837941635612,41.910120435612,5.905512,10.9386366,30.625165022,32.871720212,22,5,8.406,41.910120435612,3.28084,10.9386366,30.625165022,-5.59235,9.395148,-3.35541,116.4, -9.4, 0.8,0,0,1684,1024,1656,1024,100,0,96,0,146.9,0,0,95,4.171,4.167,0,0,0,0,4.426,84.74,41.910120435612,3.28084,6,P-GPS,
10800,2022-10-27 20:58:18,-34.9108776597973,-56.1437459251666,3.937008,11.0892392,31.477049235612,42.566288435612,6.56168,11.4307634,32.3291677012,34.575788508,22,5,8.406,42.566288435612,3.937008,11.4307634,32.3291677012,-5.816044,9.842536,-4.026492,116.4, -11, -0.4,0,0,1684,1024,1656,1003,100,0,96,-3,146.9,0,0,95,4.171,4.167,0,0,0,0,4.426,84.74,42.566288435612,3.937008,6,P-GPS,
10900,2022-10-27 20:58:18,-34.9108800514344,-56.1437410421946,4.593176,12.1062996,31.116156835612,43.222456435612,7.217848,11.632088,34.030840984,36.277560216,22,5,8.406,43.222456435612,4.593176,11.632088,34.030840984,-5.816044,10.06623,-4.921268,116.6, -9.6, -0.2,0,0,1684,1024,1654,1001,100,0,95,-3,146.9,0,0,95,4.171,4.167,0,0,0,0,4.426,84.74,43.222456435612,4.593176,6,P-GPS,
11000,2022-10-27 20:58:18,-34.9108826411326,-56.1437357252644,5.577428,13.451444,30.755264435612,44.206708435612,7.874016,12.0123678,35.88090666,38.127953976,22,5,8.406,44.206708435612,5.577428,12.0123678,35.88090666,-5.816044,10.513618,-5.368656,116.5, -9.7, -0.1,0,0,1684,1024,1654,1001,100,0,95,-3,146.9,0,0,95,4.171,4.167,0,0,0,0,4.426,84.74,44.206708435612,5.577428,6,P-GPS,
11100,2022-10-27 20:58:18,-34.9108853443529,-56.1437306084153,6.233596,14.4685044,30.394372035612,44.862876435612,8.858268,12.0123678,37.70013244,39.948820176,22,5,8.406,44.862876435612,6.233596,12.0123678,37.70013244,-6.039738,10.737312,-5.816044,116.4, -10.2, 0,0,0,1684,1024,1654,1001,100,0,95,-3,146.9,0,0,95,4.171,4.167,0,0,0,0,4.426,84.74,44.862876435612,6.233596,6,P-GPS,
11200,2022-10-27 20:58:19,-34.9108879400438,-56.1437251865031,7.217848,15.8792656,29.967862835612,45.847128435612,9.84252,12.5044946,39.57841334,41.82742916,22,5,8.406,45.847128435612,7.217848,12.5044946,39.57841334,-6.039738,10.961006,-5.816044,116.5, -9.5, 0.1,0,0,1684,1024,1654,1003,100,0,95,-3,146.9,0,0,95,4.171,4.167,0,0,0,0,4.426,84.74,45.847128435612,7.217848,6,P-GPS,
11300,2022-10-27 20:58:19,-34.9108903858657,-56.1437198931623,8.2021,17.22441,29.606970435612,46.831380435612,10.826772,12.7058192,41.3959987,43.64501452,22,5,8.406,46.831380435612,8.2021,12.7058192,41.3959987,-6.039738,11.1847,-6.039738,116.5, -9.2, 0.3,0,0,1684,1024,1654,1003,100,0,95,-3,146.9,0,0,95,4.171,4.167,0,0,0,0,4.426,84.74,46.831380435612,8.2021,6,P-GPS,
11400,2022-10-27 20:58:19,-34.9108929519156,-56.1437142139822,9.186352,18.6351712,29.180461235612,47.815632435612,11.48294,12.7058192,43.335631308,45.585303296,22,5,8.406,47.815632435612,9.186352,12.7058192,43.335631308,-6.039738,11.408394,-6.039738,116.6, -9.3, 1.1,0,0,1684,1024,1654,1003,100,0,95,-3,146.9,0,0,95,4.171,4.167,0,0,0,0,4.426,84.74,47.815632435612,9.186352,6,P-GPS,
11500,2022-10-27 20:58:19,-34.9108953866543,-56.1437082681946,10.170604,20.0459324,28.753952035612,48.799884435612,12.467192,13.2203154,45.320211424,47.573492336,22,5,8.406,48.799884435612,10.170604,13.2203154,45.320211424,-6.263432,11.632088,-6.263432,116.4, -9.1, 0.9,0,0,1684,1024,1654,1003,100,0,95,-3,146.9,0,0,95,4.171,4.167,0,0,0,0,4.426,84.74,48.799884435612,10.170604,6,P-GPS,
11600,2022-10-27 20:58:19,-34.9108980577454,-56.1437022522031,11.154856,21.4566936,28.327442835612,49.784136435612,13.451444,13.2203154,47.366471332,49.620408412,22,5,8.406,49.784136435612,11.154856,13.2203154,47.366471332,-6.263432,11.632088,-6.263432,116.4, -9.1, 1.1,0,0,1684,1024,1654,1003,100,0,95,-3,146.9,0,0,95,4.171,4.167,0,0,0,0,4.426,84.74,49.784136435612,11.154856,6,P-GPS,
11700,2022-10-27 20:58:19,-34.910900551968,-56.1436966348379,12.139108,22.7690296,27.999358835612,50.768388435612,14.435696,13.3992706,49.276904464,51.531497712,22,5,8.295,50.768388435612,12.139108,13.3992706,49.276904464,-6.263432,11.855782,-6.263432,116.3, -9, 0.6,0,0,1684,1024,1654,1003,100,0,95,-3,146.9,0,0,95,4.169,4.163,0,0,0,0,6.584,84.74,50.768388435612,12.139108,6,P-GPS,
11800,2022-10-27 20:58:19,-34.9109031572895,-56.1436907323427,13.12336,24.1797908,27.572849635612,51.752640435612,15.419948,13.3992706,51.281825788,53.537075204,22,5,8.295,51.752640435612,13.12336,13.3992706,51.281825788,-6.263432,11.855782,-6.263432,116.3, -9.1, 0.7,0,0,1684,1024,1661,1001,100,0,97,-3,146.9,0,0,95,4.169,4.163,0,0,0,0,6.584,84.74,51.752640435612,13.12336,6,P-GPS,
11900,2022-10-27 20:58:19,-34.9109056508932,-56.1436850801263,14.107612,25.5577436,27.179148835612,52.736892435612,16.4042,13.6005952,53.201445272,55.457350856,22,5,8.295,52.736892435612,14.107612,13.6005952,53.201445272,-6.263432,12.079476,-6.263432,116.3, -9.2, 1.3,0,0,1684,1024,1665,1001,100,0,97,-3,146.9,0,0,95,4.169,4.163,0,0,0,0,6.584,84.74,52.736892435612,14.107612,6,P-GPS,
12000,2022-10-27 20:58:19,-34.9109081051928,-56.1436794955439,15.091864,26.9685048,26.752639635612,53.721144435612,17.388452,13.6005952,55.096458456,57.353020208,22,5,8.295,53.721144435612,15.091864,13.6005952,55.096458456,-6.263432,12.079476,-6.263432,116.2, -10.2, 1.7,0,0,1684,1024,1665,1001,100,0,97,-3,146.9,0,0,95,4.169,4.163,0,0,0,0,6.584,84.74,53.721144435612,15.091864,6,P-GPS,
12100,2022-10-27 20:58:19,-34.91091063685,-56.1436737331429,16.076116,28.2808408,26.424555635612,54.705396435612,18.372704,13.8019198,57.051839096,59.309057016,22,5,8.295,54.705396435612,16.076116,13.8019198,57.051839096,-6.263432,12.30317,-6.039738,116.2, -11, 1.6,0,0,1684,1024,1678,1000,100,0,99,-4,146.9,0,0,95,4.169,4.163,0,0,0,0,6.584,84.74,54.705396435612,16.076116,6,P-GPS,
12200,2022-10-27 20:58:19,-34.9109133253785,-56.1436675880891,17.060368,29.691602,25.998046435612,55.689648435612,19.356956,13.9137668,59.134844412,61.393046584,22,5,8.295,55.689648435612,17.060368,13.9137668,59.134844412,-6.487126,12.30317,-6.263432,116.2, -11, 1.7,0,0,1684,1024,1684,1002,100,0,100,-3,146.9,0,0,95,4.169,4.163,0,0,0,0,6.584,84.74,55.689648435612,17.060368,6,P-GPS,
12300,2022-10-27 20:58:20,-34.9109158775931,-56.143661675617,18.04462,31.0695548,25.604345635612,56.673900435612,20.341208,14.1150914,61.132875972,63.392062396,22,5,8.295,56.673900435612,18.04462,14.1150914,61.132875972,-6.487126,12.526864,-6.263432,116.2, -10.7, 1.9,0,0,1684,1024,1684,1001,100,0,100,-3,146.9,0,0,95,4.169,4.163,0,0,0,0,6.584,84.74,56.673900435612,18.04462,6,P-GPS,
12400,2022-10-27 20:58:20,-34.9109185113082,-56.1436555004758,19.356956,32.7755916,25.210644835612,57.986236435612,20.997376,14.1150914,63.214240868,65.474411544,22,5,8.295,57.986236435612,19.356956,14.1150914,63.214240868,-6.487126,12.526864,-6.487126,116.3, -10, 1.7,0,0,1684,1024,1684,1003,100,0,100,-3,146.9,0,0,95,4.169,4.163,0,0,0,0,6.584,84.74,57.986236435612,19.356956,6,P-GPS,
12500,2022-10-27 20:58:20,-34.9109211057517,-56.1436495659918,20.341208,34.1863528,24.784135635612,58.970488435612,21.981628,14.4058936,65.225723872,67.486550716,22,5,8.295,58.970488435612,20.341208,14.4058936,65.225723872,-6.71082,12.750558,-6.487126,116.4, -10.6, 1.6,0,0,1684,1024,1684,1003,100,0,100,-3,146.8,0,0,95,4.169,4.163,0,0,0,0,6.584,84.74,58.970488435612,20.341208,6,P-GPS,
12600,2022-10-27 20:58:20,-34.9109238604927,-56.1436433343532,21.32546,35.6299224,24.324818035612,59.954740435612,22.96588,14.4058936,67.343506092,69.60466102,22,5,8.295,59.954740435612,21.32546,14.4058936,67.343506092,-6.71082,12.750558,-6.487126,116.2, -11.1, 0.5,0,0,1684,1024,1684,1002,100,0,100,-3,146.8,0,0,95,4.169,4.163,0,0,0,0,6.584,84.74,59.954740435612,21.32546,6,P-GPS,
12700,2022-10-27 20:58:20,-34.9109264781187,-56.1436372864983,22.309712,37.0078752,23.931117235612,60.938992435612,23.950132,14.4058936,69.388781748,71.650592844,22,5,8.295,60.938992435612,22.309712,14.4058936,69.388781748,-6.71082,12.750558,-6.487126,116.1, -12.2, 0.2,0,0,1684,1024,1684,999,100,0,100,-4,146.8,0,0,95,4.169,4.163,0,0,0,0,6.584,84.74,60.938992435612,22.309712,6,P-GPS,
12800,2022-10-27 20:58:20,-34.9109291075607,-56.1436309322536,23.293964,38.385828,23.537416435612,61.923244435612,24.934384,14.6072182,71.516078404,73.780186088,22,5,8.349,61.923244435612,23.293964,14.6072182,71.516078404,-6.71082,12.974252,-6.487126,116.2, -12, 1.1,0,0,1684,1024,1684,999,100,0,100,-4,146.8,0,0,95,4.17,4.171,0,0,0,0,5.711,84.92,61.923244435612,23.293964,6,P-GPS,
12900,2022-10-27 20:58:20,-34.9109317772709,-56.1436246876398,24.278216,39.7637808,23.143715635612,62.907496435612,25.918636,14.6072182,73.622377684,75.887141536,22,5,8.349,62.907496435612,24.278216,14.6072182,73.622377684,-6.71082,12.974252,-6.487126,116.2, -11.8, 1.3,0,0,1684,1024,1684,999,100,0,100,-4,146.8,0,0,95,4.17,4.171,0,0,0,0,5.711,84.92,62.907496435612,24.278216,6,P-GPS,
13000,2022-10-27 20:58:20,-34.9109346313274,-56.1436180543975,25.262468,41.174542,22.717206435612,63.891748435612,26.902888,14.8085428,75.86286332,78.12828334,22,5,8.349,63.891748435612,25.262468,14.8085428,75.86286332,-6.71082,13.197946,-6.487126,116.2, -11.3, 1,0,0,1684,1024,1684,1003,100,0,100,-3,146.8,0,0,95,4.17,4.171,0,0,0,0,5.711,84.92,63.891748435612,25.262468,6,P-GPS,
13100,2022-10-27 20:58:20,-34.9109374098046,-56.1436116814109,26.574804,42.8805788,22.323505635612,65.204084435612,27.88714,14.8980204,78.02165604,80.287732228,22,5,8.349,65.204084435612,26.574804,14.8980204,78.02165604,-6.934514,13.197946,-6.487126,116.1, -11.6, 0.5,0,0,1684,1024,1684,1003,100,0,100,-3,146.8,0,0,95,4.17,4.171,0,0,0,0,5.711,84.92,65.204084435612,26.574804,6,P-GPS,
13200,2022-10-27 20:58:20,-34.9109404541677,-56.1436048338377,27.559056,44.3569568,21.831379635612,66.188336435612,28.543308,15.099345,80.352036692,82.618440964,23,5,8.349,66.188336435612,27.559056,15.099345,80.352036692,-6.934514,13.42164,-6.487126,116.2, -11.2, 1,0,0,1684,1024,1684,1003,100,0,100,-3,146.8,0,0,95,4.17,4.171,0,0,0,0,5.711,84.92,66.188336435612,27.559056,6,P-GPS,
13300,2022-10-27 20:58:21,-34.9109432438485,-56.1435983333768,28.543308,45.8333348,21.339253635612,67.172588435612,29.855644,15.099345,82.546590568,84.813322924,23,5,8.349,67.172588435612,28.543308,15.099345,82.546590568,-6.934514,13.42164,-6.487126,116.2, -11.1, 0.8,0,0,1684,1024,1684,1003,100,0,100,-3,146.8,0,0,95,4.17,4.171,0,0,0,0,5.711,84.92,67.172588435612,28.543308,6,P-GPS,
13400,2022-10-27 20:58:21,-34.9109461705663,-56.1435914431799,29.52756,47.3097128,20.847127635612,68.156840435612,30.839896,15.3006696,84.8671287,87.135173392,23,5,8.349,68.156840435612,29.52756,15.3006696,84.8671287,-6.934514,13.645334,-6.487126,116.2, -11, 0.5,0,0,1684,1024,1684,1003,100,0,100,-3,146.8,0,0,95,4.17,4.171,0,0,0,0,5.711,84.92,68.156840435612,29.52756,6,P-GPS,
13500,2022-10-27 20:58:21,-34.9109489867713,-56.1435848670826,30.839896,49.048558,20.420618435612,69.469176435612,31.824148,15.3006696,87.085960792,89.354661652,23,5,8.349,69.469176435612,30.839896,15.3006696,87.085960792,-6.934514,13.645334,-6.487126,116.2, -11.2, 0.9,0,0,1684,1024,1684,1004,100,0,100,-3,146.8,0,0,95,4.17,4.171,0,0,0,0,5.711,84.92,69.469176435612,30.839896,6,P-GPS,
13600,2022-10-27 20:58:21,-34.9109519722693,-56.1435779165647,31.824148,50.524936,19.928492435612,70.453428435612,32.8084,15.5019942,89.433073728,91.702430756,23,5,8.349,70.453428435612,31.824148,15.5019942,89.433073728,-6.934514,13.869028,-6.487126,116.2, -10.7, 1,0,0,1684,1024,1684,989,100,0,100,-5,146.8,0,0,95,4.17,4.171,0,0,0,0,5.711,84.92,70.453428435612,31.824148,6,P-GPS,
13700,2022-10-27 20:58:21,-34.9109548113897,-56.1435713747545,32.8084,52.0341224,19.403558035612,71.437680435612,33.792652,15.5019942,91.64698456,93.916669672,23,5,8.349,71.437680435612,32.8084,15.5019942,91.64698456,-6.934514,13.869028,-6.487126,116.1, -10.9, 0.8,0,0,1684,1024,1684,983,100,0,100,-6,146.8,0,0,95,4.17,4.171,0,0,0,0,5.711,84.92,71.437680435612,32.8084,6,P-GPS,
13800,2022-10-27 20:58:21,-34.910957766755,-56.1435643674049,34.120736,53.8385844,18.911432035612,72.750016435612,34.776904,15.5019942,94.003611932,96.274281296,23,5,8.319,72.750016435612,34.120736,15.5019942,94.003611932,-6.934514,13.869028,-6.487126,116.2, -11.5, 1.3,0,0,1684,1024,1684,983,100,0,100,-6,146.8,0,0,95,4.156,4.155,0,0,0,0,5.87,84.92,72.750016435612,34.120736,6,P-GPS,
13900,2022-10-27 20:58:21,-34.9109605775406,-56.1435576296924,35.104988,55.2493456,18.484922835612,73.734268435612,35.761156,15.8151658,96.264110692,98.536092392,23,5,8.319,73.734268435612,35.104988,15.8151658,96.264110692,-7.158208,14.092722,-6.487126,116.2, -10.8, 1.8,0,0,1684,1024,1684,980,100,0,100,-7,146.7,0,0,95,4.156,4.155,0,0,0,0,5.87,84.92,73.734268435612,35.104988,6,P-GPS,
14000,2022-10-27 20:58:21,-34.9109635459465,-56.1435504879734,36.08924,56.8569572,17.861563235612,74.718520435612,36.745408,15.8151658,98.658467724,100.93176176,23,5,8.319,74.718520435612,36.08924,15.8151658,98.658467724,-7.158208,14.092722,-6.71082,116, -10.5, 1.4,0,0,1684,1024,1684,981,100,0,100,-7,146.7,0,0,95,4.156,4.155,0,0,0,0,5.87,84.92,74.718520435612,36.08924,6,P-GPS,
14100,2022-10-27 20:58:21,-34.9109665111476,-56.1435434164583,37.073492,58.3333352,17.369437235612,75.702772435612,37.72966,16.0164904,101.0334678,103.307746088,23,5,8.319,75.702772435612,37.073492,16.0164904,101.0334678,-7.158208,14.316416,-6.71082,116, -10.4, 1.9,0,0,1684,1024,1657,982,100,0,96,-6,146.7,0,0,95,4.156,4.155,0,0,0,0,5.87,84.92,75.702772435612,37.073492,6,P-GPS,
14200,2022-10-27 20:58:22,-34.9109696031458,-56.1435360396608,38.057744,59.8425216,16.844502835612,76.687024435612,38.713912,16.0164904,103.511158168,105.786420708,23,5,8.319,76.687024435612,38.057744,16.0164904,103.511158168,-7.158208,14.316416,-6.71082,116, -11.3, 2.5,0,0,1684,1024,1544,1024,100,0,79,0,146.6,0,0,95,4.156,4.155,0,0,0,0,5.87,84.92,76.687024435612,38.057744,6,P-GPS,
14300,2022-10-27 20:58:22,-34.9109724861301,-56.143529215865,39.041996,61.3845164,16.286760035612,77.671276435612,39.698164,16.105968,105.80709,108.083336792,23,5,8.319,77.671276435612,39.041996,16.105968,105.80709,-7.381902,14.316416,-6.263432,116.1, -10.9, 1.4,0,0,1684,1024,1318,1024,100,0,45,0,146.6,0,0,95,4.156,4.155,0,0,0,0,5.87,84.92,77.671276435612,39.041996,6,P-GPS,
14400,2022-10-27 20:58:22,-34.910975502321,-56.1435221052572,40.026248,62.8937028,15.761825635612,78.655528435612,40.354332,16.105968,108.201775116,110.478349992,23,5,8.319,78.655528435612,40.026248,16.105968,108.201775116,-7.381902,14.316416,-5.816044,116.1, -10.2, 1,0,0,1684,1024,1175,1024,100,0,23,0,146.6,0,0,95,4.156,4.155,0,0,0,0,5.87,84.92,78.655528435612,40.026248,6,P-GPS,
14500,2022-10-27 20:58:22,-34.9109780805517,-56.1435157796791,40.682416,64.0091884,15.302508035612,79.311696435612,41.338584,16.105968,110.313651824,112.59186712,23,5,8.319,79.311696435612,40.682416,16.105968,110.313651824,-7.381902,14.316416,-5.144962,116.1, -10.6, 0.4,0,0,1684,1024,1103,1024,100,0,12,0,146.6,0,0,95,4.156,4.155,0,0,0,0,5.87,84.92,79.311696435612,40.682416,6,P-GPS,
14600,2022-10-27 20:58:22,-34.9109810670268,-56.1435085896531,41.338584,65.1902908,14.777573635612,79.967864435612,41.338584,16.105968,112.724084972,115.00328452,23,5,8.319,79.967864435612,41.338584,16.105968,112.724084972,-7.381902,14.316416,-4.47388,116.1, -11.2, 0.3,0,0,1684,1024,1103,1024,100,0,12,0,146.6,0,0,95,4.156,4.155,0,0,0,0,5.87,84.92,79.967864435612,41.338584,6,P-GPS,
14700,2022-10-27 20:58:22,-34.91098392066,-56.1435018044068,41.994752,66.4042016,14.219830835612,80.624032435612,41.338584,16.105968,115.00492494,117.284780656,23,5,8.319,80.624032435612,41.994752,16.105968,115.00492494,-7.381902,14.316416,-3.579104,116.1, -12.4, 0.2,0,0,1684,1024,1029,998,100,0,1,-4,146.6,0,0,95,4.156,4.155,0,0,0,0,5.87,84.92,80.624032435612,41.994752,6,P-GPS,
14800,2022-10-27 20:58:22,-34.9109869205404,-56.1434946963899,42.322836,67.25722,13.694896435612,80.952116435612,41.338584,16.0164904,117.396001132,119.676513016,24,5,8.315,80.952116435612,42.322836,16.105968,117.396001132,-7.158208,14.316416,-2.684328,116.1, -12.6, 0.1,0,0,1434,1024,1024,555,62,0,0,-71,146.6,0,0,95,4.201,4.199,0,0,0,0,6.059,84.92,80.952116435612,42.322836,6,P-GPS,
14900,2022-10-27 20:58:22,-34.9109897578109,-56.1434880242428,42.65092,68.1430468,13.137153635612,81.280200435612,41.338584,16.0164904,119.644360784,121.925200752,24,5,8.315,81.280200435612,42.65092,16.105968,119.644360784,-7.158208,14.316416,-1.789552,116.1, -11.6, 0.6,0,0,1024,1024,1024,390,0,0,0,-96,146,0,0,95,4.201,4.199,0,0,0,0,6.059,84.92,81.280200435612,42.65092,6,P-GPS,
15000,2022-10-27 20:58:22,-34.9109927542261,-56.1434808606478,42.65092,68.7007896,12.579410835612,81.280200435612,41.338584,16.0164904,122.049544588,124.331368808,23,5,8.315,81.280200435612,42.65092,16.105968,122.049544588,-7.158208,14.316416,-1.11847,114.8, -2, 0.6,0,0,1024,1024,1024,364,0,0,0,-100,143.4,0,0,95,4.201,4.199,0,0,0,0,6.059,84.92,81.280200435612,42.65092,6,P-GPS,
15100,2022-10-27 20:58:22,-34.9109954965648,-56.1434742893144,42.979004,69.5866164,12.021668035612,81.608284435612,41.338584,15.5019942,124.254925236,126.537405624,23,5,8.315,81.608284435612,42.979004,16.105968,124.254925236,-6.934514,13.869028,-0.671082,111.3, 22.7, -1.3,0,0,1024,1024,1024,364,0,0,0,-100,139.2,0,0,95,4.201,4.199,0,0,0,0,6.059,84.92,81.608284435612,42.979004,6,P-GPS,
15200,2022-10-27 20:58:23,-34.9109981868325,-56.143467825209,42.979004,70.0787424,11.529542035612,81.608284435612,41.338584,14.316416,126.422904308,128.706040864,24,5,8.315,81.608284435612,42.979004,16.105968,126.422904308,-6.487126,12.750558,-0.671082,106.4, 21.2, -4.3,0,0,1024,1024,1024,364,0,0,0,-100,134.4,0,0,95,4.201,4.199,0,0,0,0,6.059,84.92,81.608284435612,42.979004,6,P-GPS,
15300,2022-10-27 20:58:23,-34.9110005535609,-56.1434620518178,42.65092,70.209976,11.070224435612,81.280200435612,41.338584,14.316416,128.35302248,130.637143288,24,5,8.315,81.608284435612,42.979004,16.105968,128.35302248,-6.039738,12.079476,-0.223694,101.5, 20, -5.1,0,0,1024,1024,1024,440,0,0,0,-88,129.6,0,0,95,4.201,4.199,0,0,0,0,6.059,84.92,81.280200435612,42.65092,6,P-GPS,
15400,2022-10-27 20:58:23,-34.9110026673724,-56.143456709888,42.65092,70.6036768,10.676523635612,81.280200435612,41.338584,12.5044946,130.125660332,132.411749644,24,5,8.315,81.608284435612,42.979004,16.105968,130.125660332,-5.59235,11.1847,0,96.6, 21.2, -6.7,0,0,1024,1024,1024,1024,0,0,0,0,124.8,0,0,95,4.201,4.199,0,0,0,0,6.059,84.92,81.280200435612,42.65092,6,P-GPS,
15500,2022-10-27 20:58:23,-34.9110047900947,-56.1434515360295,42.65092,71.030186,10.250014435612,81.280200435612,41.338584,11.408394,131.855975348,134.142720828,24,5,8.315,81.608284435612,42.979004,16.105968,131.855975348,-4.921268,10.289924,0,92.3, 20.1, -7.1,0,0,1024,1024,1024,1024,0,0,0,0,121,0,0,95,4.201,4.199,0,0,0,0,6.059,84.92,81.280200435612,42.65092,6,P-GPS,
15600,2022-10-27 20:58:23,-34.9110068924159,-56.1434464508453,42.979004,71.850396,9.757888435612,81.608284435612,41.338584,10.401771,133.559059392,135.846789124,24,5,8.315,81.608284435612,42.979004,16.105968,133.559059392,-4.47388,9.395148,0,89.7, 16, -9.7,0,0,1024,1024,1024,1024,0,0,0,0,119.6,0,0,95,4.201,4.199,0,0,0,0,6.059,84.92,81.608284435612,42.979004,6,P-GPS,
15700,2022-10-27 20:58:23,-34.9110086421595,-56.1434421192244,42.979004,72.17848,9.429804435612,81.608284435612,41.338584,9.618842,135.002957076,137.291342976,24,5,8.315,81.608284435612,42.979004,16.105968,135.002957076,-4.026492,8.724066,0,88.4, 15.5, -10.2,0,0,1024,1024,1024,1008,0,0,0,-2,119,0,0,95,4.201,4.199,0,0,0,0,6.059,84.92,81.608284435612,42.979004,6,P-GPS,
15800,2022-10-27 20:58:23,-34.9110104216449,-56.1434379043175,43.307088,72.834648,9.101720435612,81.936368435612,41.338584,8.8135436,136.420936124,138.709650108,24,5,8.422,81.936368435612,43.307088,16.105968,136.420936124,-3.579104,8.052984,0,87.9, 14.8, -10,0,0,1024,1024,1024,1009,0,0,0,-2,119,0,0,95,4.196,4.195,0,0,0,0,3.503,84.92,81.936368435612,43.307088,6,P-GPS,
15900,2022-10-27 20:58:23,-34.9110116651247,-56.1434343535894,43.307088,73.162732,8.773636435612,81.936368435612,41.338584,8.0082452,137.571526712,139.864833872,24,5,8.422,81.936368435612,43.307088,16.105968,137.571526712,-3.131716,7.381902,0,88, 14.7, -8.7,0,0,1024,1024,1024,1010,0,0,0,-2,119,0,0,95,4.196,4.195,0,0,0,0,3.503,84.92,81.936368435612,43.307088,6,P-GPS,
16000,2022-10-27 20:58:23,-34.9110127585663,-56.1434309677568,43.307088,73.4251992,8.511169235612,81.936368435612,41.338584,7.2253162,138.652891576,140.953744668,24,5,8.422,81.936368435612,43.307088,16.105968,138.652891576,-2.684328,6.71082,0,87.8, 15.3, -7.9,0,0,1024,1024,1024,1010,0,0,0,-2,119,0,0,95,4.196,4.195,0,0,0,0,3.503,84.92,81.936368435612,43.307088,6,P-GPS,
