time(millisecond),datetime(utc),latitude,longitude,height_above_takeoff(feet),height_above_ground_at_drone_location(feet),ground_elevation_at_drone_location(feet),altitude_above_seaLevel(feet),height_sonar(feet),speed(mph),distance(feet),mileage(feet),satellites,gpslevel,voltage(v),max_altitude(feet),max_ascent(feet),max_speed(mph),max_distance(feet), xSpeed(mph), ySpeed(mph), zSpeed(mph), compass_heading(degrees), pitch(degrees), roll(degrees),isPhoto,isVideo,rc_elevator,rc_aileron,rc_throttle,rc_rudder,rc_elevator(percent),rc_aileron(percent),rc_throttle(percent),rc_rudder(percent),gimbal_heading(degrees),gimbal_pitch(degrees),gimbal_roll(degrees),battery_percent,voltageCell1,voltageCell2,voltageCell3,voltageCell4,voltageCell5,voltageCell6,current(A),battery_temperature(f),altitude(feet),ascent(feet),flycStateRaw,flycState,message
0,2022-10-28 01:53:48,-34.9065699959483,-56.1631484300639,0,0,118.55421179898,118.55421179898,0.328084,0,0,0,18,5,0,118.55421179898,0,0,0,0,0,0,208.2, -7.2, 1.3,0,0,364,364,364,1684,-100,-100,-100,100,219.1,0,0,82,4.172,4.167,0,0,0,0,0,80.78,118.55421179898,0,41,Motors_Started,"Aeronave en Zona de altitud restringida (150). Vuela con precauci贸n (Code: 190001). Error de calibraci贸n del estabilizador. Reinicia la aeronave o contacta con la Asistencia DJI (Code: 40011)"
100,2022-10-28 01:53:48,-34.9065700739825,-56.1631484475995,0,0,118.55421179898,118.55421179898,0.328084,0,0.0289501649684,0.0289501649684,18,5,0,118.55421179898,0,0,0.0289501649684,0,0,0,207.8, -7.4, 1.5,0,0,364,364,364,1684,-100,-100,-100,100,218.8,0,0,82,4.172,4.167,0,0,0,0,0,80.78,118.55421179898,0,41,Motors_Started,
200,2022-10-28 01:53:48,-34.9065701660458,-56.1631484743096,0,0,118.55421179898,118.55421179898,0.328084,0,0.06345636686,0.063477036152,18,5,0,118.55421179898,0,0,0.06345636686,0,0,0,206.6, -7.6, 2.3,0,0,1024,935,594,1490,0,-13,-65,71,218.1,0,0,82,4.172,4.167,0,0,0,0,0,80.78,118.55421179898,0,41,Motors_Started,
300,2022-10-28 01:53:48,-34.9065702867664,-56.1631485116659,0,0.032808399999993,118.52140339898,118.55421179898,0.328084,0,0.108877628156,0.108917982488,18,5,0,118.55421179898,0,0,0.108877628156,0,0,0,205.4, -8, 2.6,0,0,1024,1024,802,1320,0,0,-34,45,217.2,0,0,82,4.172,4.167,0,0,0,0,0,80.78,118.55421179898,0,41,Motors_Started,"Setting new Return-To-Home altitude to 100m (328 ft). Data Recorder File Index is 65. Setting new Maximum Flight Altitude to 120m (394 ft)"
400,2022-10-28 01:53:48,-34.9065703623995,-56.1631485186938,0,0.032808399999993,118.52140339898,118.55421179898,0.328084,0,0.13630413822,0.13659285214,18,5,0,118.55421179898,0,0,0.13630413822,0,0,0,204.9, -7.6, 1.8,0,0,1024,1024,802,1320,0,0,-34,45,216.2,0,0,82,4.172,4.167,0,0,0,0,0,80.78,118.55421179898,0,41,Motors_Started,
500,2022-10-28 01:53:48,-34.9065704276977,-56.1631485451232,0,0.032808399999993,118.52140339898,118.55421179898,0.328084,0,0.161241474976,0.161694887064,17,5,0,118.55421179898,0,0,0.161241474976,0,0,0,204.5, -6.8, 1.2,0,0,1024,1024,933,1206,0,0,-14,28,215.6,0,0,82,4.172,4.167,0,0,0,0,0,80.78,118.55421179898,0,41,Motors_Started,
600,2022-10-28 01:53:48,-34.9065704449877,-56.1631485922874,0,0.032808399999993,118.52140339898,118.55421179898,0.328084,0,0.170870740376,0.177152564724,17,5,0,118.55421179898,0,0,0.170870740376,0,0,0,204.1, -5.9, 1,0,0,1024,1024,1024,1024,0,0,0,0,215.1,0,0,82,4.172,4.167,0,0,0,0,0,80.78,118.55421179898,0,41,Motors_Started,
700,2022-10-28 01:53:48,-34.9065704673535,-56.1631486579025,0,0.032808399999993,118.52140339898,118.55421179898,0.328084,0,0.185009520356,0.198413392176,17,5,0,118.55421179898,0,0,0.185009520356,0,0,0,203.8, -5.3, 0.3,0,0,1024,1024,1024,1024,0,0,0,0,214.7,0,0,82,4.172,4.167,0,0,0,0,0,80.78,118.55421179898,0,41,Motors_Started,
800,2022-10-28 01:53:49,-34.9065704826902,-56.1631486609594,0,0.032808399999993,118.52140339898,118.55421179898,0.328084,0,0.190552171452,0.204083339864,17,5,0,118.55421179898,0,0,0.190552171452,0,0,0,204, -5.6, -1.1,0,0,1024,1024,1024,1024,0,0,0,0,214.4,0,0,82,4.172,4.167,0,0,0,0,0,80.78,118.55421179898,0,41,Motors_Started,
900,2022-10-28 01:53:49,-34.9065703701794,-56.1631486758351,0,0.032808399999993,118.52140339898,118.55421179898,0.328084,0.223694,0.155081369792,0.245373367432,17,5,0,118.55421179898,0,0.223694,0.190552171452,-0.223694,0,-0.223694,203.7, -5.1, -2.4,0,0,1024,1024,1024,1024,0,0,0,0,214.3,0,0,82,4.172,4.167,0,0,0,0,0,80.78,118.55421179898,0,41,Motors_Started,
1000,2022-10-28 01:53:49,-34.9065704855717,-56.1631486115832,0,0.032808399999993,118.52140339898,118.55421179898,0.328084,0.447388,0.1867126044,0.291655849228,17,5,0,118.55421179898,0,0.447388,0.190552171452,-0.447388,0,-0.223694,200.5, -6.7, -3.6,0,0,1024,1024,1090,1024,0,0,10,0,212.2,0,0,82,4.172,4.167,0,0,0,0,0,80.78,118.55421179898,0,41,Motors_Started,
1100,2022-10-28 01:53:49,-34.9065706618793,-56.1631486369249,0,0.065616799999987,118.48859499898,118.55421179898,0.328084,0.447388,0.250724417472,0.35642717676,17,5,0,118.55421179898,0,0.447388,0.250724417472,-0.447388,0,-0.223694,197.3, -9.9, -3,0,0,1024,1024,1614,1024,0,0,89,0,208.7,0,0,82,4.172,4.167,0,0,0,0,0,80.78,118.55421179898,0,10,Assisted_Takeoff,
1200,2022-10-28 01:53:49,-34.9065707682273,-56.1631486807371,0,0.065616799999987,118.48859499898,118.55421179898,0.328084,0.223694,0.291577437152,0.39738190248,17,5,0,118.55421179898,0,0.447388,0.291577437152,-0.223694,0,-0.223694,193.4, -10.9, 0,0,0,1024,1024,1684,1024,0,0,100,0,205.5,0,0,82,4.172,4.167,0,0,0,0,0,80.78,118.55421179898,0,10,Assisted_Takeoff,
1300,2022-10-28 01:53:49,-34.9065707221847,-56.1631486252301,0,0.065616799999987,118.48859499898,118.55421179898,0.328084,0,0.271325468,0.42100395048,16,5,0,118.55421179898,0,0.447388,0.291577437152,0,0,0,192.6, -6.5, 1.6,0,0,1024,1024,1684,1024,0,0,100,0,203.9,0,0,82,4.172,4.167,0,0,0,0,0,80.78,118.55421179898,0,10,Assisted_Takeoff,
1400,2022-10-28 01:53:49,-34.906570708623,-56.1631486438338,0,0.065616799999987,118.48859499898,118.55421179898,0.328084,0,0.267770349776,0.42845145728,16,5,0,118.55421179898,0,0.447388,0.291577437152,0,0,0,192.1, -5.1, 1.1,0,0,1024,1024,1578,1024,0,0,84,0,203.5,0,0,82,4.172,4.167,0,0,0,0,0,80.78,118.55421179898,0,10,Assisted_Takeoff,
1500,2022-10-28 01:53:49,-34.9065706621203,-56.1631486562755,0,0.065616799999987,118.48859499898,118.55421179898,0.328084,0,0.252300861092,0.44582350508,16,5,8.374,118.55421179898,0,0.447388,0.291577437152,0,0,0,191, -3.7, 0.6,0,0,1024,1024,1024,1024,0,0,0,0,202.8,0,0,82,4.172,4.167,0,0,0,0,0.608,80.78,118.55421179898,0,10,Assisted_Takeoff,
1600,2022-10-28 01:53:49,-34.9065705770765,-56.1631486831763,0,0.065616799999987,118.48859499898,118.55421179898,0.328084,0,0.225144036076,0.47787731188,16,5,8.374,118.55421179898,0,0.447388,0.291577437152,0,0,0,190, -3, 0.3,0,0,1024,1024,1024,1024,0,0,0,0,201.8,0,0,82,4.172,4.167,0,0,0,0,0.608,80.78,118.55421179898,0,10,Assisted_Takeoff,
1700,2022-10-28 01:53:49,-34.9065702354778,-56.1631488489895,0,0.032808399999993,118.52140339898,118.55421179898,0.328084,0,0.152803810664,0.61202101696,17,5,8.374,118.55421179898,0,0.447388,0.291577437152,0,0,0,189.6, -3.3, 0.5,0,0,1024,1024,1024,1024,0,0,0,0,201.3,0,0,82,4.172,4.167,0,0,0,0,0.608,80.78,118.55421179898,0,10,Assisted_Takeoff,
1800,2022-10-28 01:53:50,-34.9065701354042,-56.1631488683506,0,0.032808399999993,118.52140339898,118.55421179898,0.328084,0,0.140663390328,0.64898952208,17,5,8.374,118.55421179898,0,0.447388,0.291577437152,0,0,0,189.2, -3.6, 1,0,0,1024,1024,1291,1024,0,0,40,0,201,0,0,82,4.172,4.167,0,0,0,0,0.608,80.78,118.55421179898,0,10,Assisted_Takeoff,
1900,2022-10-28 01:53:50,-34.9065700564499,-56.1631488593366,0,0.032808399999993,118.52140339898,118.55421179898,0.328084,0,0.13032480732,0.67792325004,17,5,8.374,118.55421179898,0,0.447388,0.291577437152,0,0,0,188.5, -4.7, -0.5,0,0,1024,1024,1560,1024,0,0,81,0,200.4,0,0,82,4.172,4.167,0,0,0,0,0.608,80.78,118.55421179898,0,10,Assisted_Takeoff,
2000,2022-10-28 01:53:50,-34.9065700144499,-56.1631488113354,0,0.032808399999993,118.52140339898,118.55421179898,0.328084,0,0.114278875048,0.69892390688,17,5,8.374,118.55421179898,0,0.447388,0.291577437152,0,0,0,188.1, -4.2, 0,0,0,1024,1024,1684,1024,0,0,100,0,199.7,0,0,82,4.172,4.167,0,0,0,0,0.608,80.78,118.55421179898,0,10,Assisted_Takeoff,
2100,2022-10-28 01:53:50,-34.9065699722658,-56.1631487128532,0,0.032808399999993,118.52140339898,118.55421179898,0.328084,0,0.085052824244,0.7321686586,17,5,8.374,118.55421179898,0,0.447388,0.291577437152,0,0,0,187.7, -3.5, -0.4,0,0,1024,1024,1684,1024,0,0,100,0,199.3,0,0,82,4.172,4.167,0,0,0,0,0.608,80.78,118.55421179898,0,10,Assisted_Takeoff,"Error de calibraci贸n del estabilizador. Reinicia la aeronave o contacta con la Asistencia DJI (Code: 40011)"
2200,2022-10-28 01:53:50,-34.9065700234853,-56.163148590347,0,0.032808399999993,118.52140339898,118.55421179898,0.328084,0,0.048999017316,0.77331367304,17,5,8.374,118.55421179898,0,0.447388,0.291577437152,0,0,0,187.6, -2.6, -0.6,0,0,1024,1024,1684,1024,0,0,100,0,199.3,0,0,82,4.172,4.167,0,0,0,0,0.608,80.78,118.55421179898,0,6,P-GPS,
2300,2022-10-28 01:53:50,-34.9065701224059,-56.1631485975719,0,0.032808399999993,118.52140339898,118.55421179898,0.328084,0,0.068122705592,0.80946852984,16,5,8.374,118.55421179898,0,0.447388,0.291577437152,0,0,0,187.5, -1.7, -0.2,0,0,1024,1024,1684,1024,0,0,100,0,199.3,0,0,82,4.172,4.167,0,0,0,0,0.608,80.78,118.55421179898,0,6,P-GPS,
2400,2022-10-28 01:53:50,-34.9065702306543,-56.1631485934626,0,0.032808399999993,118.52140339898,118.55421179898,0.328084,0,0.098605974284,0.8489829668,16,5,8.374,118.55421179898,0,0.447388,0.291577437152,0,0,0,187.8, -0.8, 0.4,0,0,1024,1024,1609,1024,0,0,89,0,199.3,0,0,82,4.172,4.167,0,0,0,0,0.608,80.78,118.55421179898,0,6,P-GPS,"Error de calibraci贸n del estabilizador. Reinicia la aeronave o contacta con la Asistencia DJI (Code: 40011)"
2500,2022-10-28 01:53:50,-34.9065703606017,-56.1631485872705,0,0.032808399999993,118.52140339898,118.55421179898,0.328084,0,0.14111384966,0.89643047488,16,5,8.333,118.55421179898,0,0.447388,0.291577437152,0,0,-0.223694,188, -0.2, 0.4,0,0,1024,1024,1024,1024,0,0,0,0,199.3,0,0,82,4.141,4.139,0,0,0,0,1.489,80.6,118.55421179898,0,6,P-GPS,
2600,2022-10-28 01:53:50,-34.9065708457819,-56.1631486802748,0,0.065616799999987,118.48859499898,118.55421179898,0.328084,0.223694,0.3189714669,1.07562011316,16,5,8.333,118.55421179898,0,0.447388,0.3189714669,-0.223694,0,-0.671082,188.1, 0.9, 0.2,0,0,1024,1024,1024,1024,0,0,0,0,199.3,0,0,82,4.141,4.139,0,0,0,0,1.489,80.6,118.55421179898,0,6,P-GPS,
2700,2022-10-28 01:53:50,-34.9065709398213,-56.1631485865536,0,0.065616799999987,118.48859499898,118.55421179898,0.656168,0.223694,0.3475393812,1.11993441904,16,5,8.333,118.55421179898,0,0.447388,0.3475393812,-0.223694,0,-0.894776,188.1, 1.4, 0.4,0,0,1024,1024,1024,1024,0,0,0,0,199.3,0,0,82,4.141,4.139,0,0,0,0,1.489,80.6,118.55421179898,0,6,P-GPS,
2800,2022-10-28 01:53:51,-34.9065710197364,-56.1631485165,0.328084,0.39370079999999,118.48859499898,118.88229579898,0.984252,0.223694,0.37442258416,1.15584321284,16,5,8.333,118.88229579898,0.328084,0.447388,0.37442258416,-0.223694,0,-0.894776,188.2, 1.5, 0.6,0,0,1024,1024,1024,1024,0,0,0,0,199.3,0,0,82,4.141,4.139,0,0,0,0,1.489,80.6,118.88229579898,0.328084,6,P-GPS,
2900,2022-10-28 01:53:51,-34.906571098895,-56.1631484647825,0.328084,0.36089239999999,118.52140339898,118.88229579898,1.312336,0,0.4025426638,1.18860896192,16,5,8.333,118.88229579898,0.328084,0.447388,0.4025426638,0,0,-1.11847,188.1, 1.8, 0,0,0,1024,1024,1024,1024,0,0,0,0,199.3,0,0,82,4.141,4.139,0,0,0,0,1.489,80.6,118.88229579898,0.328084,6,P-GPS,
3000,2022-10-28 01:53:51,-34.9065710097899,-56.1631481570549,0.656168,0.68897639999999,118.52140339898,119.21037979898,1.64042,0.223694,0.37881234808,1.286253322,16,5,8.333,119.21037979898,0.656168,0.447388,0.4025426638,-0.223694,0,-0.894776,188.2, 2.2, 0.6,0,0,1024,1024,1024,1024,0,0,0,0,199.3,0,0,82,4.141,4.139,0,0,0,0,1.489,80.6,119.21037979898,0.656168,6,P-GPS,
3100,2022-10-28 01:53:51,-34.9065710437429,-56.1631480672185,0.984252,1.0170604,118.52140339898,119.53846379898,1.968504,0.223694,0.39740486836,1.31584977964,16,5,8.333,119.53846379898,0.984252,0.447388,0.4025426638,-0.223694,0,-0.671082,188.4, 2.9, 1.6,0,0,1024,1024,1024,1024,0,0,0,0,199.3,0,0,82,4.141,4.139,0,0,0,0,1.489,80.6,119.53846379898,0.984252,6,P-GPS,
3200,2022-10-28 01:53:51,-34.9065711282526,-56.1631480629172,0.984252,1.0170604,118.52140339898,119.53846379898,2.296588,0,0.4274770478,1.34670936068,16,5,8.333,119.53846379898,0.984252,0.447388,0.4274770478,0,0,-0.447388,188.4, 2.9, 1.4,0,0,1024,1024,1024,1024,0,0,0,0,199.3,0,0,82,4.141,4.139,0,0,0,0,1.489,80.6,119.53846379898,0.984252,6,P-GPS,
3300,2022-10-28 01:53:51,-34.906571253585,-56.1631481293628,0.984252,1.0170604,118.52140339898,119.53846379898,2.296588,0,0.4675853168,1.396571567,17,5,8.333,119.53846379898,0.984252,0.447388,0.4675853168,0,0,-0.223694,188.5, 3, 1,0,0,1024,1024,1024,1024,0,0,0,0,199.3,0,0,82,4.141,4.139,0,0,0,0,1.489,80.6,119.53846379898,0.984252,6,P-GPS,
3400,2022-10-28 01:53:51,-34.9065715095666,-56.163148328833,0.984252,1.0826772,118.45578659898,119.53846379898,2.296588,0,0.55307416468,1.50740818472,17,5,8.333,119.53846379898,0.984252,0.447388,0.55307416468,0,0,0,188.4, 2.8, 0.2,0,0,1024,1024,1024,1024,0,0,0,0,199.3,0,0,82,4.141,4.139,0,0,0,0,1.489,80.6,119.53846379898,0.984252,6,P-GPS,
3500,2022-10-28 01:53:51,-34.9065715953327,-56.1631483418348,0.984252,1.0826772,118.45578659898,119.53846379898,2.296588,0,0.58413059612,1.53894033796,17,5,8.315,119.53846379898,0.984252,0.447388,0.58413059612,0,0,0,188.4, 2.5, 0.4,0,0,1024,1024,1024,1024,0,0,0,0,199.3,0,0,82,4.113,4.112,0,0,0,0,2.206,80.78,119.53846379898,0.984252,6,P-GPS,
3600,2022-10-28 01:53:51,-34.9065716271916,-56.1631483562039,0.984252,1.0826772,118.45578659898,119.53846379898,2.296588,0,0.59556760436,1.55133535148,17,5,8.315,119.53846379898,0.984252,0.447388,0.59556760436,0,0,0,188.5, 2.2, 0.2,0,0,1024,1024,1024,1024,0,0,0,0,199.3,0,0,82,4.113,4.112,0,0,0,0,2.206,80.78,119.53846379898,0.984252,6,P-GPS,
3700,2022-10-28 01:53:52,-34.9065716170594,-56.1631483680893,0.984252,1.0826772,118.45578659898,119.53846379898,2.624672,0,0.59175198744,1.5564633044,17,5,8.315,119.53846379898,0.984252,0.447388,0.59556760436,0,0,0,188.6, 2.4, 0.7,0,0,1024,1024,1024,1024,0,0,0,0,199.3,0,0,82,4.113,4.112,0,0,0,0,2.206,80.78,119.53846379898,0.984252,6,P-GPS,
3800,2022-10-28 01:53:52,-34.9065716139418,-56.1631483093439,0.984252,1.0826772,118.45578659898,119.53846379898,2.624672,0,0.59142718428,1.57407813436,17,5,8.315,119.53846379898,0.984252,0.447388,0.59556760436,0,0,0,188.6, 2.2, 1.2,0,0,1024,1024,1024,1024,0,0,0,0,199.3,0,0,82,4.113,4.112,0,0,0,0,2.206,80.78,119.53846379898,0.984252,6,P-GPS,
3900,2022-10-28 01:53:52,-34.9065715476551,-56.163148083541,0.984252,1.0826772,118.45578659898,119.53846379898,2.624672,0,0.57555448036,1.64583666684,17,5,8.315,119.53846379898,0.984252,0.447388,0.59556760436,0,0,0,188.5, 2.8, 0.8,0,0,1024,1024,1024,1024,0,0,0,0,199.3,0,0,82,4.113,4.112,0,0,0,0,2.206,80.78,119.53846379898,0.984252,6,P-GPS,
4000,2022-10-28 01:53:52,-34.9065715621963,-56.1631479749623,0.984252,1.0826772,118.45578659898,119.53846379898,2.624672,0,0.58744424452,1.6787566154,17,5,8.315,119.53846379898,0.984252,0.447388,0.59556760436,0,0,0,188.4, 2.2, 0.5,0,0,1024,1024,1024,1024,0,0,0,0,199.3,0,0,82,4.113,4.112,0,0,0,0,2.206,80.78,119.53846379898,0.984252,6,P-GPS,
4100,2022-10-28 01:53:52,-34.906571585523,-56.1631478586338,0.984252,1.0826772,118.45578659898,119.53846379898,2.624672,0,0.60463256528,1.71458666904,17,5,8.315,119.53846379898,0.984252,0.447388,0.60463256528,0,0,0,188.4, 1.6, 0.4,0,0,1024,1024,1024,1024,0,0,0,0,199.3,0,0,82,4.113,4.112,0,0,0,0,2.206,80.78,119.53846379898,0.984252,6,P-GPS,
4200,2022-10-28 01:53:52,-34.9065715753086,-56.1631477196522,0.984252,1.0826772,118.45578659898,119.53846379898,2.624672,0,0.61418309052,1.75633863888,17,5,8.315,119.53846379898,0.984252,0.447388,0.61418309052,0,0,0,188.5, 1.3, 0.9,0,0,1024,1024,1024,1024,0,0,0,0,199.3,0,0,82,4.113,4.112,0,0,0,0,2.206,80.78,119.53846379898,0.984252,6,P-GPS,
4300,2022-10-28 01:53:52,-34.9065715794301,-56.1631473620379,0.984252,1.0498688,118.48859499898,119.53846379898,2.624672,0,0.66022311824,1.86334979716,18,5,8.315,119.53846379898,0.984252,0.447388,0.66022311824,0,0,0,188.6, 1.4, 1.6,0,0,1024,1024,1024,1024,0,0,0,0,199.3,0,0,82,4.113,4.112,0,0,0,0,2.206,80.78,119.53846379898,0.984252,6,P-GPS,
4400,2022-10-28 01:53:52,-34.9065715543464,-56.1631472504925,1.312336,1.3779528,118.48859499898,119.86654779898,2.296588,0,0.66921590068,1.89795609748,18,5,8.315,119.86654779898,1.312336,0.447388,0.66921590068,0,0,0,188.7, 1.5, 1.7,0,0,1024,879,1024,1024,0,-22,0,0,199.3,0,0,82,4.113,4.112,0,0,0,0,2.206,80.78,119.86654779898,1.312336,6,P-GPS,
4500,2022-10-28 01:53:52,-34.9065715330024,-56.1631471739987,1.312336,1.3779528,118.48859499898,119.86654779898,2.296588,0,0.67507876176,1.92213260744,18,5,8.315,119.86654779898,1.312336,0.447388,0.67507876176,0,0,0,188.6, 1.7, 1.3,0,0,1024,879,1024,1024,0,-22,0,0,199.3,0,0,82,4.113,4.112,0,0,0,0,2.206,80.78,119.86654779898,1.312336,6,P-GPS,
4600,2022-10-28 01:53:52,-34.9065715282815,-56.1631470690881,1.312336,1.3779528,118.48859499898,119.86654779898,2.624672,0,0.69165356544,1.95356961632,18,5,8.315,119.86654779898,1.312336,0.447388,0.69165356544,0,0,0,188.6, 1.5, 0.5,0,0,1024,364,1024,1024,0,-100,0,0,199.3,0,0,82,4.113,4.112,0,0,0,0,2.206,80.78,119.86654779898,1.312336,6,P-GPS,
4700,2022-10-28 01:53:52,-34.9065715420924,-56.1631468526438,1.312336,1.3779528,118.48859499898,119.86654779898,2.624672,0,0.7355151154,2.01852696748,18,5,8.201,119.86654779898,1.312336,0.447388,0.7355151154,0,0,0,188.2, 1.8, -7.3,0,0,939,364,1024,1024,-13,-100,0,0,199.3,0,0,82,4.1,4.098,0,0,0,0,4.193,80.78,119.86654779898,1.312336,6,P-GPS,
4800,2022-10-28 01:53:53,-34.906571605302,-56.1631465972867,1.312336,1.3779528,118.48859499898,119.86654779898,2.624672,0.447388,0.80342522256,2.09833668132,18,5,8.201,119.86654779898,1.312336,0.447388,0.80342522256,0,0.447388,0,187.9, 1.7, -14.2,0,0,839,377,1024,1024,-28,-98,0,0,199.3,0,0,82,4.1,4.098,0,0,0,0,4.193,80.78,119.86654779898,1.312336,6,P-GPS,
4900,2022-10-28 01:53:53,-34.9065717253583,-56.1631460924028,1.312336,1.3451444,118.52140339898,119.86654779898,2.624672,1.11847,0.9419947808,2.2556267126,18,5,8.201,119.86654779898,1.312336,1.11847,0.9419947808,0,1.11847,0,187.7, 3.2, -16.3,0,0,1024,1024,1024,1024,0,0,0,0,199.3,0,0,82,4.1,4.098,0,0,0,0,4.193,80.78,119.86654779898,1.312336,6,P-GPS,
5000,2022-10-28 01:53:53,-34.9065718608098,-56.1631453082631,1.312336,1.312336,118.55421179898,119.86654779898,2.624672,1.789552,1.15560371152,2.49539378064,18,5,8.201,119.86654779898,1.312336,1.789552,1.15560371152,0,1.789552,0,188.2, 3, -12.3,0,0,1024,1024,1024,1024,0,0,0,0,199.3,0,0,82,4.1,4.098,0,0,0,0,4.193,80.78,119.86654779898,1.312336,6,P-GPS,
5100,2022-10-28 01:53:53,-34.9065721943184,-56.1631442467641,1.312336,1.2795276,118.58702019898,119.86654779898,2.624672,2.013246,1.4866142208,2.8355151826,18,5,8.201,119.86654779898,1.312336,2.013246,1.4866142208,0,2.013246,0,189.4, 1.2, 3.3,0,0,1024,958,1024,1024,0,-10,0,0,199.3,0,0,82,4.1,4.098,0,0,0,0,4.193,80.78,119.86654779898,1.312336,6,P-GPS,
5200,2022-10-28 01:53:53,-34.9065723013308,-56.1631431916689,1.312336,1.2467192,118.61982859898,119.86654779898,2.624672,1.789552,1.77879926952,3.15361230564,18,5,8.201,119.86654779898,1.312336,2.013246,1.77879926952,0,1.789552,0,189.5, 1, 10.1,0,0,1024,364,1024,1024,0,-100,0,0,199.3,0,0,82,4.1,4.098,0,0,0,0,4.193,80.78,119.86654779898,1.312336,6,P-GPS,
5300,2022-10-28 01:53:53,-34.9065723753712,-56.1631422262128,1.312336,1.2467192,118.61982859898,119.86654779898,2.624672,1.565858,2.04921594484,3.443733706,18,5,8.201,119.86654779898,1.312336,2.013246,2.04921594484,0,1.565858,0,189.1, 1.1, 7.8,0,0,1024,364,1024,1024,0,-100,0,0,199.3,0,0,82,4.1,4.098,0,0,0,0,4.193,80.78,119.86654779898,1.312336,6,P-GPS,
5400,2022-10-28 01:53:53,-34.9065723679203,-56.1631414028691,1.312336,1.2139108,118.65263699898,119.86654779898,2.624672,1.342164,2.27372710688,3.69012479,18,5,8.201,119.86654779898,1.312336,2.013246,2.27372710688,0,1.342164,0,188.4, 0.6, -4.8,0,0,1024,364,1024,1024,0,-100,0,0,199.3,0,0,82,4.1,4.098,0,0,0,0,4.193,80.78,119.86654779898,1.312336,6,P-GPS,
5500,2022-10-28 01:53:53,-34.9065723333028,-56.1631404751167,1.312336,1.1811024,118.68544539898,119.86654779898,2.296588,1.565858,2.52834325676,3.9679791296,18,5,8.201,119.86654779898,1.312336,2.013246,2.52834325676,0,1.565858,0,188.2, 0.7, -12.6,0,0,1024,728,1024,1024,0,-45,0,0,199.3,0,0,82,4.1,4.098,0,0,0,0,4.193,80.78,119.86654779898,1.312336,6,P-GPS,
5600,2022-10-28 01:53:53,-34.9065720078379,-56.1631392726867,1.312336,1.148294,118.71825379898,119.86654779898,2.296588,2.013246,2.8365814556,4.3468505328,18,5,8.201,119.86654779898,1.312336,2.013246,2.8365814556,0,2.013246,0,188.5, 1, -11.6,0,0,1024,706,1024,1024,0,-48,0,0,199.3,0,0,82,4.1,4.098,0,0,0,0,4.193,80.78,119.86654779898,1.312336,6,P-GPS,
5700,2022-10-28 01:53:53,-34.9065719177532,-56.1631379285573,1.312336,1.1154856,118.75106219898,119.86654779898,2.296588,2.23694,3.21941611352,4.7503610444,18,5,8.184,119.86654779898,1.312336,2.23694,3.21941611352,-0.223694,2.23694,0,189, 1.1, -5.2,0,0,1024,844,1024,1024,0,-27,0,0,199.3,0,0,82,4.094,4.096,0,0,0,0,4.355,80.78,119.86654779898,1.312336,6,P-GPS,
5800,2022-10-28 01:53:54,-34.9065719776816,-56.163136674747,1.312336,1.0826772,118.78387059898,119.86654779898,2.296588,2.460634,3.5908465716,5.126148458,18,5,8.184,119.86654779898,1.312336,2.460634,3.5908465716,-0.223694,2.460634,0,188.9, 0.7, -4.8,0,0,1024,1024,1024,1024,0,0,0,0,199.3,0,0,82,4.094,4.096,0,0,0,0,4.355,80.78,119.86654779898,1.312336,6,P-GPS,
5900,2022-10-28 01:53:54,-34.9065721621029,-56.1631353948589,1.312336,1.0498688,118.81667899898,119.86654779898,2.296588,2.684328,3.979494878,5.5149608064,18,5,8.184,119.86654779898,1.312336,2.684328,3.979494878,-0.223694,2.684328,0,189, 0.5, 0,0,0,1024,1024,1024,1024,0,0,0,0,199.3,0,0,82,4.094,4.096,0,0,0,0,4.355,80.78,119.86654779898,1.312336,6,P-GPS,"Punto de origen actualizado. Altitud de RPO establecida en 100m (Code: 3000001)"
6000,2022-10-28 01:53:54,-34.9065721050609,-56.1631343973172,1.312336,1.0170604,118.84948739898,119.86654779898,2.296588,2.460634,4.2686353072,5.8141734144,18,5,8.184,119.86654779898,1.312336,2.684328,4.2686353072,-0.223694,2.460634,0,189.4, 0.4, 9.7,0,0,1024,1024,1024,1024,0,0,0,0,199.3,0,0,82,4.094,4.096,0,0,0,0,4.355,80.78,119.86654779898,1.312336,6,P-GPS,
6100,2022-10-28 01:53:54,-34.9065720658586,-56.1631332735274,1.312336,0.984252,118.88229579898,119.86654779898,2.296588,2.013246,4.5974082836,6.1507219816,18,5,8.184,119.86654779898,1.312336,2.684328,4.5974082836,0,2.013246,0,189, 0, 11.5,0,0,1024,1024,1024,1024,0,0,0,0,199.3,0,0,82,4.094,4.096,0,0,0,0,4.355,80.78,119.86654779898,1.312336,6,P-GPS,
6200,2022-10-28 01:53:54,-34.9065720136214,-56.1631323079372,1.312336,0.9514436,118.91510419898,119.86654779898,2.296588,1.565858,4.8797245656,6.4402561116,18,5,8.184,119.86654779898,1.312336,2.684328,4.8797245656,0,1.565858,0,188.8, 0.2, 10.3,0,0,1024,1024,1024,1024,0,0,0,0,199.3,0,0,82,4.094,4.096,0,0,0,0,4.355,80.78,119.86654779898,1.312336,6,P-GPS,
6300,2022-10-28 01:53:54,-34.9065719485821,-56.1631314187599,1.312336,0.91863520000001,118.94791259898,119.86654779898,2.296588,1.11847,5.1395342852,6.7073821044,18,5,8.184,119.86654779898,1.312336,2.684328,5.1395342852,0,1.11847,0,188.7, 0.4, 8.7,0,0,1024,1024,1024,1024,0,0,0,0,199.3,0,0,82,4.094,4.096,0,0,0,0,4.355,80.78,119.86654779898,1.312336,6,P-GPS,
6400,2022-10-28 01:53:54,-34.9065718956398,-56.1631305814705,1.312336,0.91863520000001,118.94791259898,119.86654779898,2.296588,0.894776,5.3852363928,6.9586288316,18,5,8.184,119.86654779898,1.312336,2.684328,5.3852363928,0,0.894776,0,188.8, 0.3, 6.8,0,0,1024,1024,1024,1024,0,0,0,0,199.3,0,0,82,4.094,4.096,0,0,0,0,4.355,80.78,119.86654779898,1.312336,6,P-GPS,
6500,2022-10-28 01:53:54,-34.906571989947,-56.1631300190602,1.312336,0.88582679999999,118.98072099898,119.86654779898,2.296588,0.671082,5.5565618576,7.1303808056,18,5,8.184,119.86654779898,1.312336,2.684328,5.5565618576,0,0.671082,0,188.8, 0.1, 5.3,0,0,1024,1024,1024,1024,0,0,0,0,199.3,0,0,82,4.094,4.096,0,0,0,0,4.355,80.78,119.86654779898,1.312336,6,P-GPS,
6600,2022-10-28 01:53:54,-34.9065719493296,-56.1631297380729,1.312336,0.88582679999999,118.98072099898,119.86654779898,2.296588,0.447388,5.6380251148,7.2157810708,18,5,8.184,119.86654779898,1.312336,2.684328,5.6380251148,0,0.447388,0,188.9, 0, 4.4,0,0,1024,1024,1024,1024,0,0,0,0,199.3,0,0,82,4.094,4.096,0,0,0,0,4.355,80.78,119.86654779898,1.312336,6,P-GPS,
6700,2022-10-28 01:53:54,-34.9065718011233,-56.1631296542075,1.312336,0.88582679999999,118.98072099898,119.86654779898,2.296588,0.223694,5.6563650104,7.2753939336,18,5,8.185,119.86654779898,1.312336,2.684328,5.6563650104,0,0.223694,0,188.9, -0.1, 3.1,0,0,1024,1024,1024,1024,0,0,0,0,199.3,0,0,82,4.092,4.092,0,0,0,0,4.312,80.78,119.86654779898,1.312336,6,P-GPS,
6800,2022-10-28 01:53:55,-34.9065714373557,-56.163130609109,1.312336,0.88582679999999,118.98072099898,119.86654779898,2.296588,0.223694,5.3580382292,7.5904201904,18,5,8.185,119.86654779898,1.312336,2.684328,5.6563650104,0,0.223694,0,188.9, 0.2, 2.4,0,0,1024,1024,1024,1024,0,0,0,0,199.3,0,0,82,4.092,4.092,0,0,0,0,4.312,80.78,119.86654779898,1.312336,6,P-GPS,
6900,2022-10-28 01:53:55,-34.9065713565141,-56.1631308320986,1.312336,0.88582679999999,118.98072099898,119.86654779898,2.296588,0.223694,5.2888125052,7.6633532636,18,5,8.185,119.86654779898,1.312336,2.684328,5.6563650104,0,0.223694,0,189, 0.7, 2.2,0,0,1024,1024,1024,1024,0,0,0,0,199.3,0,0,82,4.092,4.092,0,0,0,0,4.312,80.78,119.86654779898,1.312336,6,P-GPS,
7000,2022-10-28 01:53:55,-34.9065713178858,-56.1631309975173,1.312336,0.88582679999999,118.98072099898,119.86654779898,2.296588,0,5.2382219524,7.7148296432,18,5,8.185,119.86654779898,1.312336,2.684328,5.6563650104,0,0,0,188.9, 0.7, 1.9,0,0,1024,956,1024,1024,0,-10,0,0,199.3,0,0,82,4.092,4.092,0,0,0,0,4.312,80.78,119.86654779898,1.312336,6,P-GPS,
7100,2022-10-28 01:53:55,-34.9065713052995,-56.163131120534,1.312336,0.88582679999999,118.98072099898,119.86654779898,2.296588,0,5.2011484604,7.7519031352,18,5,8.185,119.86654779898,1.312336,2.684328,5.6563650104,0,0,0,188.9, 0.7, 1.6,0,0,1024,487,1024,1024,0,-81,0,0,199.3,0,0,82,4.092,4.092,0,0,0,0,4.312,80.78,119.86654779898,1.312336,6,P-GPS,
7200,2022-10-28 01:53:55,-34.9065712558347,-56.1631312587801,1.312336,0.88582679999999,118.98072099898,119.86654779898,2.296588,0,5.15830069,7.7970474936,18,5,8.185,119.86654779898,1.312336,2.684328,5.6563650104,0,0,0,188.9, 0.5, 0.9,0,0,1024,495,1024,1024,0,-80,0,0,199.3,0,0,82,4.092,4.092,0,0,0,0,4.312,80.78,119.86654779898,1.312336,6,P-GPS,
7300,2022-10-28 01:53:55,-34.9065712019682,-56.1631315090849,1.312336,0.91863520000001,118.94791259898,119.86654779898,2.296588,0,5.0819883516,7.8744753176,18,5,8.185,119.86654779898,1.312336,2.684328,5.6563650104,0,0,0,188.6, 0.7, -6.4,0,0,1024,979,1024,1024,0,-7,0,0,199.3,0,0,82,4.092,4.092,0,0,0,0,4.312,80.78,119.86654779898,1.312336,6,P-GPS,
7400,2022-10-28 01:53:55,-34.9065711208766,-56.1631314716213,1.312336,0.88582679999999,118.98072099898,119.86654779898,2.296588,0.447388,5.0906825776,7.9061026152,18,5,8.185,119.86654779898,1.312336,2.684328,5.6563650104,0,0.447388,0,188.6, 0.6, -11.3,0,0,1024,979,1024,1024,0,-7,0,0,199.3,0,0,82,4.092,4.092,0,0,0,0,4.312,80.78,119.86654779898,1.312336,6,P-GPS,
7500,2022-10-28 01:53:55,-34.9065710505604,-56.1631311837053,1.312336,0.88582679999999,118.98072099898,119.86654779898,2.296588,0.894776,5.1745736564,7.9959976312,18,5,8.185,119.86654779898,1.312336,2.684328,5.6563650104,0,0.894776,0,188.9, 0.8, -6.7,0,0,1024,1024,1024,1024,0,0,0,0,199.3,0,0,82,4.092,4.092,0,0,0,0,4.312,80.78,119.86654779898,1.312336,6,P-GPS,
7600,2022-10-28 01:53:55,-34.9065709991374,-56.1631307711351,1.312336,0.88582679999999,118.98072099898,119.86654779898,2.296588,0.894776,5.2963584372,8.1208664016,18,5,8.185,119.86654779898,1.312336,2.684328,5.6563650104,0,0.894776,0,189.5, 1.1, 3.8,0,0,1024,1024,1024,1024,0,0,0,0,199.3,0,0,82,4.092,4.092,0,0,0,0,4.312,80.78,119.86654779898,1.312336,6,P-GPS,
7700,2022-10-28 01:53:56,-34.906570791308,-56.1631300321378,1.312336,0.8530184,119.01352939898,119.86654779898,2.296588,0.671082,5.5124345596,8.3546262516,18,5,8.185,119.86654779898,1.312336,2.684328,5.6563650104,0,0.671082,0,189.2, 1.1, 5.4,0,0,1024,1024,1024,1024,0,0,0,0,199.3,0,0,82,4.092,4.092,0,0,0,0,4.312,80.78,119.86654779898,1.312336,6,P-GPS,
7800,2022-10-28 01:53:56,-34.9065707001013,-56.1631296682974,1.312336,0.8530184,119.01352939898,119.86654779898,2.296588,0.671082,5.6195539856,8.4684385912,18,5,8.185,119.86654779898,1.312336,2.684328,5.6563650104,0,0.671082,0,189.1, 1.2, 5.1,0,0,1024,999,1024,1024,0,-4,0,0,199.3,0,0,82,4.092,4.092,0,0,0,0,4.312,80.78,119.86654779898,1.312336,6,P-GPS,
7900,2022-10-28 01:53:56,-34.9065705733042,-56.1631293389621,1.312336,0.82021,119.04633779898,119.86654779898,2.296588,0.447388,5.7160762984,8.5772968624,18,5,8.185,119.86654779898,1.312336,2.684328,5.7160762984,0,0.447388,0,189, 1.2, 4.5,0,0,1024,653,1024,1024,0,-56,0,0,199.3,0,0,82,4.092,4.092,0,0,0,0,4.312,80.78,119.86654779898,1.312336,6,P-GPS,
8000,2022-10-28 01:53:56,-34.9065704113074,-56.1631290513596,1.64042,1.1154856,119.07914619898,120.19463179898,2.296588,0.223694,5.8002298444,8.6816931912,18,5,8.185,120.19463179898,1.64042,2.684328,5.8002298444,0,0.223694,0,188.9, 0.9, 2.7,0,0,1024,503,1024,1024,0,-79,0,0,199.3,0,0,82,4.092,4.092,0,0,0,0,4.312,80.78,120.19463179898,1.64042,6,P-GPS,
8100,2022-10-28 01:53:56,-34.9065699655184,-56.1631282914627,1.64042,1.0826772,119.11195459898,120.19463179898,2.296588,0.223694,6.0256563608,8.9612535676,18,5,8.185,120.19463179898,1.64042,2.684328,6.0256563608,0,0.223694,0,188.6, 1.1, -3.7,0,0,1024,739,1024,1024,0,-43,0,0,199.3,0,0,82,4.092,4.092,0,0,0,0,4.312,80.78,120.19463179898,1.64042,6,P-GPS,
8200,2022-10-28 01:53:56,-34.9065698608314,-56.1631280658354,1.64042,1.0826772,119.11195459898,120.19463179898,2.296588,0.447388,6.09334009,9.0388126252,18,5,8.185,120.19463179898,1.64042,2.684328,6.09334009,0,0.447388,0,188.5, 1.2, -9,0,0,1024,1024,1024,1024,0,0,0,0,199.3,0,0,82,4.092,4.092,0,0,0,0,4.312,80.78,120.19463179898,1.64042,6,P-GPS,
8300,2022-10-28 01:53:56,-34.9065698191913,-56.1631277392631,1.64042,1.0826772,119.11195459898,120.19463179898,2.296588,0.894776,6.1911747388,9.1376971428,18,5,8.185,120.19463179898,1.64042,2.684328,6.1911747388,0,0.894776,0,188.8, 0.9, -8.6,0,0,1024,1024,1024,1024,0,0,0,0,199.3,0,0,82,4.092,4.092,0,0,0,0,4.312,80.78,120.19463179898,1.64042,6,P-GPS,
8400,2022-10-28 01:53:56,-34.9065697806192,-56.163127390032,1.64042,1.0498688,119.14476299898,120.19463179898,2.296588,1.11847,6.2958335348,9.2431433404,18,5,8.185,120.19463179898,1.64042,2.684328,6.2958335348,0,1.11847,0,189.3, 1, 1.3,0,0,1024,1024,1024,1024,0,0,0,0,199.3,0,0,82,4.092,4.092,0,0,0,0,4.312,80.78,120.19463179898,1.64042,6,P-GPS,
8500,2022-10-28 01:53:56,-34.9065698245187,-56.1631274215527,1.64042,1.0498688,119.14476299898,120.19463179898,2.296588,0.894776,6.2862206736,9.2617457032,18,5,8.179,120.19463179898,1.64042,2.684328,6.2958335348,0,0.894776,0,189.3, 1.2, 5.1,0,0,1024,1024,1024,1024,0,0,0,0,199.3,0,0,82,4.087,4.087,0,0,0,0,4.214,80.78,120.19463179898,1.64042,6,P-GPS,
8600,2022-10-28 01:53:56,-34.9065697625247,-56.1631271402565,1.64042,1.0498688,119.14476299898,120.19463179898,2.296588,0.671082,6.3706366868,9.3488848136,18,5,8.179,120.19463179898,1.64042,2.684328,6.3706366868,0,0.671082,0,189.1, 1.1, 5.5,0,0,1024,1024,1024,1024,0,0,0,0,199.3,0,0,82,4.087,4.087,0,0,0,0,4.214,80.78,120.19463179898,1.64042,6,P-GPS,
8700,2022-10-28 01:53:56,-34.9065696820649,-56.1631268859532,1.64042,1.0498688,119.14476299898,120.19463179898,2.296588,0.671082,6.447178684,9.430446496,17,5,8.179,120.19463179898,1.64042,2.684328,6.447178684,0,0.671082,0,189, 0.7, 4.7,0,0,1024,1024,1024,1024,0,0,0,0,199.3,0,0,82,4.087,4.087,0,0,0,0,4.214,80.78,120.19463179898,1.64042,6,P-GPS,
8800,2022-10-28 01:53:57,-34.9065696146644,-56.1631265968163,1.64042,1.0498688,119.14476299898,120.19463179898,2.296588,0.447388,6.5341537524,9.5203743204,17,5,8.179,120.19463179898,1.64042,2.684328,6.5341537524,0,0.447388,0,188.9, 0.5, 4.1,0,0,1024,1024,1024,1024,0,0,0,0,199.3,0,0,82,4.087,4.087,0,0,0,0,4.214,80.78,120.19463179898,1.64042,6,P-GPS,
8900,2022-10-28 01:53:57,-34.9065695539609,-56.163126257254,1.64042,1.0170604,119.17757139898,120.19463179898,2.296588,0.223694,6.6362534932,9.6243769484,17,5,8.179,120.19463179898,1.64042,2.684328,6.6362534932,0,0.223694,0,188.9, 0.6, 3.6,0,0,1024,1024,1024,1024,0,0,0,0,199.3,0,0,82,4.087,4.087,0,0,0,0,4.214,80.78,120.19463179898,1.64042,6,P-GPS,
9000,2022-10-28 01:53:57,-34.9065695654146,-56.1631255521851,1.64042,1.0170604,119.17757139898,120.19463179898,2.296588,0.223694,6.8470474632,9.8353677688,17,5,8.179,120.19463179898,1.64042,2.684328,6.8470474632,0,0.223694,0,188.9, 0.7, 3.3,0,0,1024,1024,1024,1024,0,0,0,0,199.3,0,0,82,4.087,4.087,0,0,0,0,4.214,80.78,120.19463179898,1.64042,6,P-GPS,
9100,2022-10-28 01:53:57,-34.90656953465,-56.1631252353019,1.312336,0.68897640000001,119.17757139898,119.86654779898,2.296588,0.223694,6.942093398,9.9308402128,17,5,8.179,120.19463179898,1.64042,2.684328,6.942093398,0,0.223694,0,188.9, 0.7, 3,0,0,1024,1024,1024,1024,0,0,0,0,199.3,0,0,82,4.087,4.087,0,0,0,0,4.214,80.78,119.86654779898,1.312336,6,P-GPS,
9200,2022-10-28 01:53:57,-34.906569633464,-56.1631250469186,1.312336,0.68897640000001,119.17757139898,119.86654779898,2.296588,0,6.9976708276,9.9977693488,17,5,8.179,120.19463179898,1.64042,2.684328,6.9976708276,0,0,0,188.9, 1.1, 3,0,0,1024,1024,1024,1024,0,0,0,0,199.3,0,0,82,4.087,4.087,0,0,0,0,4.214,80.78,119.86654779898,1.312336,6,P-GPS,
9300,2022-10-28 01:53:57,-34.9065698329663,-56.163124964802,1.312336,0.68897640000001,119.17757139898,119.86654779898,2.296588,0,7.0212600672,10.0745738132,17,5,8.179,120.19463179898,1.64042,2.684328,7.0212600672,0,0,0,189, 1.2, 1.8,0,0,1024,1024,1024,1024,0,0,0,0,199.3,0,0,82,4.087,4.087,0,0,0,0,4.214,80.78,119.86654779898,1.312336,6,P-GPS,
9400,2022-10-28 01:53:57,-34.9065704474197,-56.1631245405755,1.64042,1.0170604,119.17757139898,120.19463179898,2.296588,0,7.1498361868,10.3322181784,17,5,8.179,120.19463179898,1.64042,2.684328,7.1498361868,0,0,0,188.8, 1.2, 0.6,0,0,1024,1024,1024,1024,0,0,0,0,199.3,0,0,82,4.087,4.087,0,0,0,0,4.214,80.78,120.19463179898,1.64042,6,P-GPS,
9500,2022-10-28 01:53:57,-34.9065705248751,-56.1631244799825,1.64042,1.0170604,119.17757139898,120.19463179898,2.296588,0,7.1686682084,10.3657811716,17,5,8.175,120.19463179898,1.64042,2.684328,7.1686682084,0,0,0,188.9, 1.4, 1.3,0,0,1024,1024,1024,1024,0,0,0,0,199.3,0,0,82,4.083,4.084,0,0,0,0,4.217,80.78,120.19463179898,1.64042,6,P-GPS,
9600,2022-10-28 01:53:57,-34.9065706218855,-56.1631244108671,1.64042,1.0170604,119.17757139898,120.19463179898,2.296588,0,7.1903545608,10.4067588632,17,5,8.175,120.19463179898,1.64042,2.684328,7.1903545608,0,0,0,188.8, 1.4, 1.9,0,0,1024,1024,1024,1024,0,0,0,0,199.3,0,0,82,4.083,4.084,0,0,0,0,4.217,80.78,120.19463179898,1.64042,6,P-GPS,
9700,2022-10-28 01:53:57,-34.9065707371232,-56.1631243420155,1.64042,1.0170604,119.17757139898,120.19463179898,2.296588,0,7.2124018056,10.45357645,17,5,8.175,120.19463179898,1.64042,2.684328,7.2124018056,0,0,0,188.8, 1.3, 1.9,0,0,1024,1024,1107,1024,0,0,13,0,199.3,0,0,82,4.083,4.084,0,0,0,0,4.217,80.78,120.19463179898,1.64042,6,P-GPS,
9800,2022-10-28 01:53:58,-34.9065712258485,-56.163124317964,1.64042,1.0170604,119.17757139898,120.19463179898,2.296588,0,7.2284779216,10.632054146,17,5,8.175,120.19463179898,1.64042,2.684328,7.2284779216,0,0,0,188.8, 1.3, 2.3,0,0,1024,1024,1400,1024,0,0,57,0,199.3,0,0,82,4.083,4.084,0,0,0,0,4.217,80.78,120.19463179898,1.64042,6,P-GPS,
9900,2022-10-28 01:53:58,-34.9065714029369,-56.1631243311715,1.64042,1.0170604,119.17757139898,120.19463179898,2.296588,0,7.228838814,10.6967851192,17,5,8.175,120.19463179898,1.64042,2.684328,7.228838814,0,0,0,188.7, 1, 2.4,0,0,1024,1024,1485,1024,0,0,70,0,199.3,0,0,82,4.083,4.084,0,0,0,0,4.217,80.78,120.19463179898,1.64042,6,P-GPS,
10000,2022-10-28 01:53:58,-34.9065715282148,-56.1631243328135,1.64042,1.0498688,119.14476299898,120.19463179898,2.296588,0,7.2317259532,10.7424872204,17,5,8.175,120.19463179898,1.64042,2.684328,7.2317259532,0,0,-0.671082,188.7, 1, 1.9,0,0,1024,1024,1459,1024,0,0,66,0,199.3,0,0,82,4.083,4.084,0,0,0,0,4.217,80.78,120.19463179898,1.64042,6,P-GPS,
10100,2022-10-28 01:53:58,-34.9065716265777,-56.1631243306616,1.968504,1.3779528,119.14476299898,120.52271579898,2.624672,0,7.235236452,10.77837961,17,5,8.175,120.52271579898,1.968504,2.684328,7.235236452,0,0,-1.342164,188.7, 1.8, 1.8,0,0,1024,1024,1394,1024,0,0,56,0,199.3,0,0,82,4.083,4.084,0,0,0,0,4.217,80.78,120.52271579898,1.968504,6,P-GPS,
10200,2022-10-28 01:53:58,-34.9065714721507,-56.1631239518319,2.296588,1.6732284,119.17757139898,120.85079979898,2.952756,0,7.3438650644,10.9049544172,17,5,8.175,120.85079979898,2.296588,2.684328,7.3438650644,0,0,-2.23694,188.7, 2.2, 1.1,0,0,1024,1024,1249,1024,0,0,34,0,199.3,0,0,82,4.083,4.084,0,0,0,0,4.217,80.78,120.85079979898,2.296588,6,P-GPS,
10300,2022-10-28 01:53:58,-34.9065714594855,-56.1631238458609,2.624672,2.0013124,119.17757139898,121.17888379898,3.28084,0,7.3751314696,10.937008224,17,5,8.175,121.17888379898,2.624672,2.684328,7.3751314696,0,0,-2.460634,188.8, 2.1, 1.4,0,0,1024,1024,1249,1024,0,0,34,0,199.3,0,0,82,4.083,4.084,0,0,0,0,4.217,80.78,121.17888379898,2.624672,6,P-GPS,
10400,2022-10-28 01:53:58,-34.9065714479349,-56.1631237965611,2.952756,2.3293964,119.17757139898,121.50696779898,3.608924,0,7.3895671656,10.9523625552,17,5,8.175,121.50696779898,2.952756,2.684328,7.3895671656,0,0,-2.460634,188.9, 2.2, 1.4,0,0,1024,1024,1055,1024,0,0,5,0,199.3,0,0,82,4.083,4.084,0,0,0,0,4.217,80.78,121.50696779898,2.952756,6,P-GPS,
10500,2022-10-28 01:53:58,-34.9065714433655,-56.1631237941839,3.28084,2.6574804,119.17757139898,121.83505179898,3.937008,0,7.3901577168,10.9541670172,17,5,8.169,121.83505179898,3.28084,2.684328,7.3901577168,0,0,-1.789552,188.9, 2.2, 1.4,0,0,1024,1024,1024,1024,0,0,0,0,199.3,0,0,82,4.08,4.08,0,0,0,0,4.144,80.78,121.83505179898,3.28084,6,P-GPS,
10600,2022-10-28 01:53:58,-34.906571474845,-56.1631237894928,3.28084,2.6574804,119.17757139898,121.83505179898,4.265092,0,7.392388688,10.965715574,17,5,8.169,121.83505179898,3.28084,2.684328,7.392388688,0,0,-1.11847,189, 1.8, 1.1,0,0,1024,1024,1024,1024,0,0,0,0,199.3,0,0,82,4.08,4.08,0,0,0,0,4.144,80.78,121.83505179898,3.28084,6,P-GPS,
10700,2022-10-28 01:53:59,-34.9065715246843,-56.1631237343547,3.608924,3.0183728,119.14476299898,122.16313579898,4.265092,0,7.4101708408,10.9902890656,16,5,8.169,122.16313579898,3.608924,2.684328,7.4101708408,0,0,-0.447388,189, 1.7, 0.5,0,0,1024,1024,1024,1024,0,0,0,0,199.3,0,0,82,4.08,4.08,0,0,0,0,4.144,80.78,122.16313579898,3.608924,6,P-GPS,
10800,2022-10-28 01:53:59,-34.9065715787315,-56.1631237525243,3.608924,3.0183728,119.14476299898,122.16313579898,4.265092,0,7.4062666412,11.0107286988,16,5,8.169,122.16313579898,3.608924,2.684328,7.4101708408,0,0,-0.223694,189.1, 1.5, 0.9,0,0,1185,1024,1024,1024,24,0,0,0,199.3,0,0,82,4.08,4.08,0,0,0,0,4.144,80.78,122.16313579898,3.608924,6,P-GPS,
10900,2022-10-28 01:53:59,-34.9065716321241,-56.1631237924393,3.608924,3.0183728,119.14476299898,122.16313579898,4.265092,0,7.3958991868,11.0335961536,16,5,8.169,122.16313579898,3.608924,2.684328,7.4101708408,0,0,0,189.3, 1.4, 1.3,0,0,1475,1024,1024,1024,68,0,0,0,199.3,0,0,82,4.08,4.08,0,0,0,0,4.144,80.78,122.16313579898,3.608924,6,P-GPS,
11000,2022-10-28 01:53:59,-34.9065716375802,-56.1631238595457,3.608924,3.0183728,119.14476299898,122.16313579898,4.265092,0,7.3760501048,11.0537733196,16,5,8.169,122.16313579898,3.608924,2.684328,7.4101708408,0,0,0,189.3, -0.4, 1.6,0,0,1531,1024,1024,1024,77,0,0,0,199.3,0,0,82,4.08,4.08,0,0,0,0,4.144,80.78,122.16313579898,3.608924,6,P-GPS,
11100,2022-10-28 01:53:59,-34.9065714994825,-56.16312420325,3.608924,2.9855644,119.17757139898,122.16313579898,4.265092,0.223694,7.2695868468,11.1682746356,17,5,8.169,122.16313579898,3.608924,2.684328,7.4101708408,-0.223694,0,0,189.4, -6.2, 1.5,0,0,1528,1024,1024,1024,76,0,0,0,199.3,0,0,82,4.08,4.08,0,0,0,0,4.144,80.78,122.16313579898,3.608924,6,P-GPS,
11200,2022-10-28 01:53:59,-34.9065716166035,-56.1631242949917,3.608924,3.0183728,119.14476299898,122.16313579898,4.265092,0.447388,7.245571098,11.2190620388,17,5,8.169,122.16313579898,3.608924,2.684328,7.4101708408,-0.447388,0,0,189.4, -9.8, 1.5,0,0,1528,1024,1024,1024,76,0,0,0,199.3,0,0,82,4.08,4.08,0,0,0,0,4.144,80.78,122.16313579898,3.608924,6,P-GPS,
11300,2022-10-28 01:53:59,-34.9065719273277,-56.1631243910607,3.608924,3.0183728,119.14476299898,122.16313579898,4.265092,0.894776,7.2270999688,11.3360239848,17,5,8.169,122.16313579898,3.608924,2.684328,7.4101708408,-0.894776,0,0,189.6, -10.8, 1.6,0,0,1508,1024,1024,1024,73,0,0,0,199.3,0,0,82,4.08,4.08,0,0,0,0,4.144,80.78,122.16313579898,3.608924,6,P-GPS,
11400,2022-10-28 01:53:59,-34.9065724082658,-56.1631245453045,3.608924,3.0511812,119.11195459898,122.16313579898,4.265092,1.3645334,7.2004923564,11.5174544368,17,5,8.169,122.16313579898,3.608924,2.684328,7.4101708408,-1.342164,-0.223694,0,189.7, -10.7, 1.4,0,0,1492,1024,1024,1024,71,0,0,0,199.3,0,0,82,4.08,4.08,0,0,0,0,4.144,80.78,122.16313579898,3.608924,6,P-GPS,
11500,2022-10-28 01:53:59,-34.906573160155,-56.1631247570172,3.608924,3.116798,119.04633779898,122.16313579898,4.265092,1.5882274,7.1766406496,11.7990161256,17,5,8.082,122.16313579898,3.608924,2.684328,7.4101708408,-1.565858,-0.223694,0,189.9, -10.2, 1.1,0,0,1453,1024,1024,1024,65,0,0,0,199.3,0,0,82,4.089,4.088,0,0,0,0,4.922,80.78,122.16313579898,3.608924,6,P-GPS,
11600,2022-10-28 01:53:59,-34.9065739835264,-56.1631250085013,3.608924,3.1496064,119.01352939898,122.16313579898,4.265092,2.0579848,7.1573493104,12.1086946132,17,5,8.082,122.16313579898,3.608924,2.684328,7.4101708408,-2.013246,-0.447388,0,190, -9.4, 1.3,0,0,1383,1024,1024,1024,54,0,0,0,199.3,0,0,82,4.089,4.088,0,0,0,0,4.922,80.78,122.16313579898,3.608924,6,P-GPS,
11700,2022-10-28 01:53:59,-34.9065750131981,-56.1631253125628,3.608924,3.1824148,118.98072099898,122.16313579898,4.265092,2.5053728,7.1550527224,12.495243182,16,5,8.082,122.16313579898,3.608924,2.684328,7.4101708408,-2.460634,-0.447388,0,190.1, -8.1, 1.4,0,0,1104,1024,1024,1024,12,0,0,0,199.3,0,0,82,4.089,4.088,0,0,0,0,4.922,80.78,122.16313579898,3.608924,6,P-GPS,
11800,2022-10-28 01:54:00,-34.9065761510978,-56.1631256008594,3.608924,3.2480316,118.91510419898,122.16313579898,4.265092,2.7290668,7.1903545608,12.9192589436,16,5,8.082,122.16313579898,3.608924,2.7290668,7.4101708408,-2.684328,-0.447388,0,190.3, -5.5, 1.4,0,0,1083,1024,1024,1024,9,0,0,0,199.3,0,0,82,4.089,4.088,0,0,0,0,4.922,80.78,122.16313579898,3.608924,6,P-GPS,
11900,2022-10-28 01:54:00,-34.9065776448251,-56.1631258380013,3.608924,3.3464568,118.81667899898,122.16313579898,4.265092,2.7290668,7.3131235936,13.468832452,18,5,8.082,122.16313579898,3.608924,2.7290668,7.4101708408,-2.684328,-0.447388,0,190.4, -0.5, 1.2,0,0,1082,1024,1024,1024,9,0,0,0,199.3,0,0,82,4.089,4.088,0,0,0,0,4.922,80.78,122.16313579898,3.608924,6,P-GPS,
12000,2022-10-28 01:54:00,-34.906578809844,-56.1631260613297,3.608924,3.3792652,118.78387059898,122.16313579898,4.265092,2.7290668,7.42536113,13.899114618,18,5,8.082,122.16313579898,3.608924,2.7290668,7.42536113,-2.684328,-0.447388,0,190.5, 1.7, 1.6,0,0,1082,1024,1024,1024,9,0,0,0,199.3,0,0,82,4.089,4.088,0,0,0,0,4.922,80.78,122.16313579898,3.608924,6,P-GPS,
12100,2022-10-28 01:54:00,-34.9065799395455,-56.163126247565,3.608924,3.444882,118.71825379898,122.16313579898,4.265092,2.7290668,7.56397662,14.3150267048,18,5,8.082,122.16313579898,3.608924,2.7290668,7.56397662,-2.684328,-0.447388,0,190.5, 1.9, 1.6,0,0,1082,1024,1024,1024,9,0,0,0,199.3,0,0,82,4.089,4.088,0,0,0,0,4.922,80.78,122.16313579898,3.608924,6,P-GPS,
12200,2022-10-28 01:54:00,-34.9065809629218,-56.1631264412831,3.608924,3.4776904,118.68544539898,122.16313579898,4.593176,2.7290668,7.7004267556,14.6928810476,18,5,8.082,122.16313579898,3.608924,2.7290668,7.7004267556,-2.684328,-0.447388,0,190.5, 1.7, 1.3,0,0,1080,1024,1024,1024,8,0,0,0,199.3,0,0,82,4.089,4.088,0,0,0,0,4.922,80.78,122.16313579898,3.608924,6,P-GPS,
12300,2022-10-28 01:54:00,-34.9065820006472,-56.1631266654459,3.608924,3.5433072,118.61982859898,122.16313579898,4.593176,2.5053728,7.8480317472,15.0773954956,18,5,8.082,122.16313579898,3.608924,2.7290668,7.8480317472,-2.460634,-0.447388,0,190.5, 1.8, 1.4,0,0,1054,1024,1024,1024,5,0,0,0,199.3,0,0,82,4.089,4.088,0,0,0,0,4.922,80.78,122.16313579898,3.608924,6,P-GPS,
12400,2022-10-28 01:54:00,-34.9065826452744,-56.1631266086338,3.608924,3.608924,118.55421179898,122.16313579898,4.593176,2.5053728,7.9955383136,15.3132222748,18,5,8.082,122.16313579898,3.608924,2.7290668,7.9955383136,-2.460634,-0.447388,0,190.6, 1.7, 1.5,0,0,1024,1024,1024,1024,0,0,0,0,199.3,0,0,82,4.089,4.088,0,0,0,0,4.922,80.78,122.16313579898,3.608924,6,P-GPS,
12500,2022-10-28 01:54:00,-34.9065836432621,-56.1631269002648,3.608924,3.6417324,118.52140339898,122.16313579898,4.593176,2.2816788,8.141896586,15.6876317356,18,5,8.154,122.16313579898,3.608924,2.7290668,8.141896586,-2.23694,-0.447388,0,190.7, 6.6, 1.3,0,0,1024,1024,1024,1024,0,0,0,0,199.3,0,0,82,4.073,4.072,0,0,0,0,3.855,80.78,122.16313579898,3.608924,6,P-GPS,
12600,2022-10-28 01:54:00,-34.9065844117291,-56.1631270021623,3.608924,3.6417324,118.52140339898,122.16313579898,4.593176,2.0579848,8.2927168008,15.969652742,18,5,8.154,122.16313579898,3.608924,2.7290668,8.2927168008,-2.013246,-0.447388,0,190.7, 10.3, 1,0,0,1024,1024,1024,1024,0,0,0,0,199.3,0,0,82,4.073,4.072,0,0,0,0,3.855,80.78,122.16313579898,3.608924,6,P-GPS,
12700,2022-10-28 01:54:00,-34.9065850077619,-56.1631269517277,3.608924,3.6745408,118.48859499898,122.16313579898,4.593176,1.5882274,8.4437994828,16.1876317516,18,5,8.154,122.16313579898,3.608924,2.7290668,8.4437994828,-1.565858,-0.223694,0,190.7, 10.5, 1,0,0,1024,1024,1024,1024,0,0,0,0,199.3,0,0,82,4.073,4.072,0,0,0,0,3.855,80.78,122.16313579898,3.608924,6,P-GPS,
12800,2022-10-28 01:54:01,-34.9065850972313,-56.1631264916968,3.608924,3.6745408,118.48859499898,122.16313579898,4.593176,1.3645334,8.5699805892,16.3291015724,18,5,8.154,122.16313579898,3.608924,2.7290668,8.5699805892,-1.342164,-0.223694,0,190.8, 9.4, 0.9,0,0,1024,1024,1024,1024,0,0,0,0,199.3,0,0,82,4.073,4.072,0,0,0,0,3.855,80.78,122.16313579898,3.608924,6,P-GPS,
12900,2022-10-28 01:54:01,-34.9065855032559,-56.1631263247854,3.608924,3.7073492,118.45578659898,122.16313579898,4.593176,0.9171454,8.7038388612,16.4854335984,18,5,8.154,122.16313579898,3.608924,2.7290668,8.7038388612,-0.894776,-0.223694,0,190.7, 8.1, 0.6,0,0,1024,1024,1024,1024,0,0,0,0,199.3,0,0,82,4.073,4.072,0,0,0,0,3.855,80.78,122.16313579898,3.608924,6,P-GPS,
13000,2022-10-28 01:54:01,-34.9065857637954,-56.1631262526204,3.608924,3.7073492,118.45578659898,122.16313579898,4.593176,0.671082,8.7822509372,16.5829073548,18,5,8.154,122.16313579898,3.608924,2.7290668,8.7822509372,-0.671082,0,0,190.8, 6.7, 0.9,0,0,1024,1024,1024,1024,0,0,0,0,199.3,0,0,82,4.073,4.072,0,0,0,0,3.855,80.78,122.16313579898,3.608924,6,P-GPS,
13100,2022-10-28 01:54:01,-34.9065859335582,-56.1631262536395,3.608924,3.7073492,118.45578659898,122.16313579898,4.593176,0.447388,8.8227036944,16.644849614,18,5,8.154,122.16313579898,3.608924,2.7290668,8.8227036944,-0.447388,0,0,190.8, 5.7, 1.2,0,0,1024,1024,1024,1024,0,0,0,0,199.3,0,0,82,4.073,4.072,0,0,0,0,3.855,80.78,122.16313579898,3.608924,6,P-GPS,
13200,2022-10-28 01:54:01,-34.9065858047737,-56.1631260179621,3.608924,3.7073492,118.45578659898,122.16313579898,4.593176,0.447388,8.84514464,16.7295937112,18,5,8.154,122.16313579898,3.608924,2.7290668,8.84514464,-0.447388,0,0,190.8, 4.7, 1.5,0,0,1024,1024,1024,1024,0,0,0,0,199.3,0,0,82,4.073,4.072,0,0,0,0,3.855,80.78,122.16313579898,3.608924,6,P-GPS,
13300,2022-10-28 01:54:01,-34.9065857958545,-56.1631259297161,3.608924,3.7073492,118.45578659898,122.16313579898,4.92126,0.223694,8.8630908348,16.7562013236,18,5,8.154,122.16313579898,3.608924,2.7290668,8.8630908348,-0.223694,0,0,190.7, 4, 1.4,0,0,1024,1024,1024,1024,0,0,0,0,199.3,0,0,82,4.073,4.072,0,0,0,0,3.855,80.78,122.16313579898,3.608924,6,P-GPS,
13400,2022-10-28 01:54:01,-34.9065857132548,-56.1631258045499,3.608924,3.7073492,118.45578659898,122.16313579898,4.92126,0.223694,8.872047528,16.8042656296,18,5,8.154,122.16313579898,3.608924,2.7290668,8.872047528,-0.223694,0,0,190.8, 3.3, 0.8,0,0,1024,1024,1024,1024,0,0,0,0,199.3,0,0,82,4.073,4.072,0,0,0,0,3.855,80.78,122.16313579898,3.608924,6,P-GPS,
13500,2022-10-28 01:54:01,-34.9065855709117,-56.1631256324631,3.608924,3.7073492,118.45578659898,122.16313579898,4.92126,0,8.8780514652,16.8773955532,18,5,8.144,122.16313579898,3.608924,2.7290668,8.8780514652,0,0,0,190.8, 2.8, 0.8,0,0,1024,1024,1024,1024,0,0,0,0,199.3,0,0,82,4.069,4.068,0,0,0,0,4.348,80.96,122.16313579898,3.608924,6,P-GPS,
13600,2022-10-28 01:54:01,-34.9065852115137,-56.1631254871712,3.608924,3.6417324,118.52140339898,122.16313579898,4.92126,0,8.8284779728,17.0155517256,18,5,8.144,122.16313579898,3.608924,2.7290668,8.8780514652,0,0,0,190.8, 2.7, 1.2,0,0,1024,1024,1024,1024,0,0,0,0,199.3,0,0,82,4.069,4.068,0,0,0,0,4.348,80.96,122.16313579898,3.608924,6,P-GPS,
13700,2022-10-28 01:54:01,-34.9065850666725,-56.1631253862446,3.608924,3.6417324,118.52140339898,122.16313579898,4.92126,0,8.8189307284,17.0764113076,18,5,8.144,122.16313579898,3.608924,2.7290668,8.8780514652,0,0,0,190.8, 2.7, 1,0,0,1024,1024,1024,1024,0,0,0,0,199.3,0,0,82,4.069,4.068,0,0,0,0,4.348,80.96,122.16313579898,3.608924,6,P-GPS,
13800,2022-10-28 01:54:02,-34.9065849209534,-56.1631252352653,3.608924,3.6417324,118.52140339898,122.16313579898,4.92126,0,8.8213913584,17.146161966,18,5,8.144,122.16313579898,3.608924,2.7290668,8.8780514652,0,0,0,190.8, 2.6, 1.4,0,0,1024,1024,1024,1024,0,0,0,0,199.3,0,0,82,4.069,4.068,0,0,0,0,4.348,80.96,122.16313579898,3.608924,6,P-GPS,
13900,2022-10-28 01:54:02,-34.9065847605362,-56.1631250341224,3.608924,3.6417324,118.52140339898,122.16313579898,4.92126,0,8.8329727236,17.2301186616,18,5,8.144,122.16313579898,3.608924,2.7290668,8.8780514652,0,0,0,191, 2.2, 1.7,0,0,1024,1024,1024,1024,0,0,0,0,199.3,0,0,82,4.069,4.068,0,0,0,0,4.348,80.96,122.16313579898,3.608924,6,P-GPS,
14000,2022-10-28 01:54:02,-34.9065846777665,-56.1631248622843,3.608924,3.6417324,118.52140339898,122.16313579898,4.92126,0,8.855479286,17.2897643328,18,5,8.144,122.16313579898,3.608924,2.7290668,8.8780514652,0,0,0,191, 2.1, 1.7,0,0,1024,1024,1024,1024,0,0,0,0,199.3,0,0,82,4.069,4.068,0,0,0,0,4.348,80.96,122.16313579898,3.608924,6,P-GPS,
14100,2022-10-28 01:54:02,-34.9065848236916,-56.1631246317302,3.608924,3.6417324,118.52140339898,122.16313579898,4.92126,0,8.9426183964,17.3769034432,18,5,8.144,122.16313579898,3.608924,2.7290668,8.9426183964,0,0,0,191.1, 2.2, 2,0,0,1024,1024,1024,1024,0,0,0,0,199.3,0,0,82,4.069,4.068,0,0,0,0,4.348,80.96,122.16313579898,3.608924,6,P-GPS,
14200,2022-10-28 01:54:02,-34.9065848129276,-56.1631245050669,3.608924,3.6417324,118.52140339898,122.16313579898,4.92126,0,8.970472728,17.4149939956,18,5,8.144,122.16313579898,3.608924,2.7290668,8.970472728,0,0,0,191, 2.2, 1.7,0,0,1024,1024,1024,1024,0,0,0,0,199.3,0,0,82,4.069,4.068,0,0,0,0,4.348,80.96,122.16313579898,3.608924,6,P-GPS,
14300,2022-10-28 01:54:02,-34.9065848079828,-56.1631243904947,3.608924,3.608924,118.55421179898,122.16313579898,4.92126,0,8.9967522564,17.449311582,18,5,8.144,122.16313579898,3.608924,2.7290668,8.9967522564,0,0,0,191, 2.3, 1.7,0,0,1024,1024,1024,1024,0,0,0,0,199.3,0,0,82,4.069,4.068,0,0,0,0,4.348,80.96,122.16313579898,3.608924,6,P-GPS,
14400,2022-10-28 01:54:02,-34.9065847853725,-56.1631243245517,3.608924,3.608924,118.55421179898,122.16313579898,4.92126,0,9.0076118368,17.4707026588,18,5,8.144,122.16313579898,3.608924,2.7290668,9.0076118368,0,0,0,191, 2.1, 1.7,0,0,1024,1024,1024,1024,0,0,0,0,199.3,0,0,82,4.069,4.068,0,0,0,0,4.348,80.96,122.16313579898,3.608924,6,P-GPS,
14500,2022-10-28 01:54:02,-34.9065850046927,-56.1631245370251,3.608924,3.6417324,118.52140339898,122.16313579898,4.92126,0,9.0052168236,17.5729008248,17,5,8.144,122.16313579898,3.608924,2.7290668,9.0076118368,0,0,0,191.1, 1.8, 1.9,0,0,1024,1024,1024,1024,0,0,0,0,199.3,0,0,82,4.069,4.068,0,0,0,0,4.348,80.96,122.16313579898,3.608924,6,P-GPS,
14600,2022-10-28 01:54:02,-34.9065849380686,-56.1631244880477,3.608924,3.608924,118.55421179898,122.16313579898,4.92126,0,9.0021000256,17.6012800908,17,5,8.144,122.16313579898,3.608924,2.7290668,9.0076118368,0,0,0,191.1, 1.7, 2.2,0,0,1024,1024,1024,1024,0,0,0,0,199.3,0,0,82,4.069,4.068,0,0,0,0,4.348,80.96,122.16313579898,3.608924,6,P-GPS,
14700,2022-10-28 01:54:02,-34.9065848442989,-56.1631244265667,3.608924,3.608924,118.55421179898,122.16313579898,4.92126,0,8.9960960884,17.6401252364,17,5,8.144,122.16313579898,3.608924,2.7290668,9.0076118368,0,0,0,191.1, 2, 2.2,0,0,1024,1024,1024,1024,0,0,0,0,199.3,0,0,82,4.069,4.068,0,0,0,0,4.348,80.96,122.16313579898,3.608924,6,P-GPS,
14800,2022-10-28 01:54:03,-34.9065847166006,-56.1631243332536,3.608924,3.608924,118.55421179898,122.16313579898,4.92126,0,8.9905186604,17.6944559468,17,5,8.144,122.16313579898,3.608924,2.7290668,9.0076118368,0,0,0,191.2, 1.8, 2.2,0,0,1024,1024,1024,1024,0,0,0,0,199.3,0,0,82,4.069,4.068,0,0,0,0,4.348,80.96,122.16313579898,3.608924,6,P-GPS,
14900,2022-10-28 01:54:03,-34.9065843780473,-56.1631241897122,3.608924,3.5761156,118.58702019898,122.16313579898,4.92126,0,8.9520344072,17.8252302292,17,5,8.144,122.16313579898,3.608924,2.7290668,9.0076118368,0,0,0,191.2, 2, 2.1,0,0,1024,1024,1024,1024,0,0,0,0,199.3,0,0,82,4.069,4.068,0,0,0,0,4.348,80.96,122.16313579898,3.608924,6,P-GPS,
15000,2022-10-28 01:54:03,-34.9065842177257,-56.16312399195,3.608924,3.5761156,118.58702019898,122.16313579898,4.92126,0,8.966043594,17.9084323316,17,5,8.144,122.16313579898,3.608924,2.7290668,9.0076118368,0,0,0,191.2, 2.4, 2.2,0,0,1024,1024,1024,1231,0,0,0,31,199.3,0,0,82,4.069,4.068,0,0,0,0,4.348,80.96,122.16313579898,3.608924,6,P-GPS,
15100,2022-10-28 01:54:03,-34.9065840434618,-56.1631237247062,3.937008,3.9041996,118.58702019898,122.49121979898,4.92126,0,8.9950134112,18.0105976892,17,5,8.137,122.49121979898,3.937008,2.7290668,9.0076118368,0,0,0,191.3, 2.3, 2.5,0,0,1024,1024,1024,1646,0,0,0,94,199.3,0,0,82,4.07,4.07,0,0,0,0,4.244,80.96,122.49121979898,3.937008,6,P-GPS,
15200,2022-10-28 01:54:03,-34.9065838139657,-56.1631234401415,3.937008,3.8713912,118.61982859898,122.49121979898,4.92126,0,9.018044908,18.1299874568,17,5,8.137,122.49121979898,3.937008,2.7290668,9.018044908,0,0,0,191.3, 2, 2.2,0,0,1024,1024,1024,1684,0,0,0,100,200,0,0,82,4.07,4.07,0,0,0,0,4.244,80.96,122.49121979898,3.937008,6,P-GPS,
15300,2022-10-28 01:54:03,-34.9065831971071,-56.1631226744573,3.937008,3.8057744,118.68544539898,122.49121979898,4.92126,0,9.0876315244,18.4511488844,17,5,8.137,122.49121979898,3.937008,2.7290668,9.0876315244,0,0,0,192.7, 2, 2.7,0,0,1024,1024,1024,1684,0,0,0,100,202.3,0,0,82,4.07,4.07,0,0,0,0,4.244,80.96,122.49121979898,3.937008,6,P-GPS,
15400,2022-10-28 01:54:03,-34.9065828991473,-56.1631223976668,3.937008,3.8057744,118.68544539898,122.49121979898,4.593176,0,9.1012470104,18.5878286788,17,5,8.137,122.49121979898,3.937008,2.7290668,9.1012470104,0,0,0,195.5, 1.6, 2.9,0,0,1024,1024,1024,1684,0,0,0,100,205.4,0,0,82,4.07,4.07,0,0,0,0,4.244,80.96,122.49121979898,3.937008,6,P-GPS,
15500,2022-10-28 01:54:03,-34.9065825719913,-56.1631221400859,3.937008,3.8057744,118.68544539898,122.49121979898,4.593176,0,9.1065619712,18.7298890508,17,5,8.137,122.49121979898,3.937008,2.7290668,9.1065619712,0,0,0,198.5, 1.3, 3.2,0,0,1024,1024,1024,1684,0,0,0,100,208.6,0,0,82,4.07,4.07,0,0,0,0,4.244,80.96,122.49121979898,3.937008,6,P-GPS,
15600,2022-10-28 01:54:03,-34.9065822618169,-56.1631219059624,3.937008,3.7401576,118.75106219898,122.49121979898,4.593176,0,9.1110239136,18.8629927296,17,5,8.137,122.49121979898,3.937008,2.7290668,9.1110239136,0,0,0,201.5, 0.6, 2.3,0,0,1024,1024,1024,1684,0,0,0,100,211.8,0,0,82,4.07,4.07,0,0,0,0,4.244,80.96,122.49121979898,3.937008,6,P-GPS,
15700,2022-10-28 01:54:03,-34.9065819545027,-56.1631216710476,3.937008,3.7401576,118.75106219898,122.49121979898,4.593176,0,9.1181433364,18.9953090068,18,5,8.137,122.49121979898,3.937008,2.7290668,9.1181433364,0,0,0,204.6, 0.8, 2.1,0,0,1024,1024,1024,1684,0,0,0,100,214.9,0,0,82,4.07,4.07,0,0,0,0,4.244,80.96,122.49121979898,3.937008,6,P-GPS,
15800,2022-10-28 01:54:04,-34.9065814550521,-56.1631213561747,3.937008,3.6745408,118.81667899898,122.49121979898,4.593176,0,9.115977982,19.200459932,18,5,8.137,122.49121979898,3.937008,2.7290668,9.1181433364,0,0,0,208.1, 0.4, 3,0,0,1024,1024,1024,1684,0,0,0,100,218.2,0,0,82,4.07,4.07,0,0,0,0,4.244,80.96,122.49121979898,3.937008,6,P-GPS,
15900,2022-10-28 01:54:04,-34.9065812944683,-56.1631211944983,3.937008,3.6745408,118.81667899898,122.49121979898,4.593176,0,9.1324149904,19.2764441864,18,5,8.137,122.49121979898,3.937008,2.7290668,9.1324149904,0,0,0,211.4, 0.8, 3,0,0,1024,1024,1024,1684,0,0,0,100,221.4,0,0,82,4.07,4.07,0,0,0,0,4.244,80.96,122.49121979898,3.937008,6,P-GPS,
16000,2022-10-28 01:54:04,-34.9065812096568,-56.1631210602555,3.937008,3.6745408,118.81667899898,122.49121979898,4.593176,0,9.1543966184,19.3271331644,18,5,8.137,122.49121979898,3.937008,2.7290668,9.1543966184,0,0,0,214.6, 0.9, 2.8,0,0,1024,1024,1024,1684,0,0,0,100,224.6,0,0,82,4.07,4.07,0,0,0,0,4.244,80.96,122.49121979898,3.937008,6,P-GPS,
16100,2022-10-28 01:54:04,-34.9065811618212,-56.1631209301925,3.937008,3.6745408,118.81667899898,122.49121979898,4.593176,0,9.1814635484,19.3697840844,18,5,8.129,122.49121979898,3.937008,2.7290668,9.1814635484,0,0,0,217.7, 1, 2.4,0,0,1024,1024,1024,1684,0,0,0,100,227.8,0,0,81,4.062,4.062,0,0,0,0,4.242,80.96,122.49121979898,3.937008,6,P-GPS,
16200,2022-10-28 01:54:04,-34.9065815819734,-56.1631209159332,3.937008,3.7073492,118.78387059898,122.49121979898,4.593176,0,9.2542981964,19.523130546,18,5,8.129,122.49121979898,3.937008,2.7290668,9.2542981964,0,0,0,220.8, 0.4, 1.3,0,0,1024,1024,1024,1684,0,0,0,100,231,0,0,81,4.062,4.062,0,0,0,0,4.242,80.96,122.49121979898,3.937008,6,P-GPS,
16300,2022-10-28 01:54:04,-34.9065816971656,-56.1631208333896,3.937008,3.7073492,118.78387059898,122.49121979898,4.593176,0,9.2955055468,19.5718838284,18,5,8.129,122.49121979898,3.937008,2.7290668,9.2955055468,0,0,0,223.9, -0.2, 1.2,0,0,1024,1024,1024,1684,0,0,0,100,234.2,0,0,81,4.062,4.062,0,0,0,0,4.242,80.96,122.49121979898,3.937008,6,P-GPS,
16400,2022-10-28 01:54:04,-34.9065818632911,-56.1631207715456,3.937008,3.7073492,118.78387059898,122.49121979898,4.593176,0,9.339895312,19.6352696572,18,5,8.129,122.49121979898,3.937008,2.7290668,9.339895312,0,0,0,227.2, -0.1, 1.5,0,0,1024,1024,1024,1684,0,0,0,100,237.4,0,0,81,4.062,4.062,0,0,0,0,4.242,80.96,122.49121979898,3.937008,6,P-GPS,
16500,2022-10-28 01:54:04,-34.9065820643561,-56.1631207179712,3.937008,3.7073492,118.78387059898,122.49121979898,4.593176,0,9.388287702,19.7103680848,18,5,8.129,122.49121979898,3.937008,2.7290668,9.388287702,0,0,0,230.4, -0.9, 2.1,0,0,1024,1024,1024,1684,0,0,0,100,240.6,0,0,81,4.062,4.062,0,0,0,0,4.242,80.96,122.49121979898,3.937008,6,P-GPS,
16600,2022-10-28 01:54:04,-34.9065833975249,-56.1631210330335,3.937008,3.772966,118.71825379898,122.49121979898,4.593176,0,9.5449150036,20.2058077332,18,5,8.129,122.49121979898,3.937008,2.7290668,9.5449150036,0,0,0,233.7, -1.1, 1.5,0,0,1024,1024,1024,1657,0,0,0,96,243.7,0,0,81,4.062,4.062,0,0,0,0,4.242,80.96,122.49121979898,3.937008,6,P-GPS,
16700,2022-10-28 01:54:04,-34.9065836655077,-56.1631209890724,3.937008,3.8057744,118.68544539898,122.49121979898,4.593176,0,9.6065947956,20.304462592,17,5,8.129,122.49121979898,3.937008,2.7290668,9.6065947956,0,0,0,236.8, -1.3, 1.1,0,0,1024,1024,1024,1684,0,0,0,100,246.9,0,0,81,4.062,4.062,0,0,0,0,4.242,80.96,122.49121979898,3.937008,6,P-GPS,
