time(millisecond),datetime(utc),latitude,longitude,height_above_takeoff(feet),height_above_ground_at_drone_location(feet),ground_elevation_at_drone_location(feet),altitude_above_seaLevel(feet),height_sonar(feet),speed(mph),distance(feet),mileage(feet),satellites,gpslevel,voltage(v),max_altitude(feet),max_ascent(feet),max_speed(mph),max_distance(feet), xSpeed(mph), ySpeed(mph), zSpeed(mph), compass_heading(degrees), pitch(degrees), roll(degrees),isPhoto,isVideo,rc_elevator,rc_aileron,rc_throttle,rc_rudder,rc_elevator(percent),rc_aileron(percent),rc_throttle(percent),rc_rudder(percent),gimbal_heading(degrees),gimbal_pitch(degrees),gimbal_roll(degrees),battery_percent,voltageCell1,voltageCell2,voltageCell3,voltageCell4,voltageCell5,voltageCell6,current(A),battery_temperature(f),altitude(feet),ascent(feet),flycStateRaw,flycState,message
0,2023-10-20 19:06:34,-34.9182372645452,-56.1685667122522,0,0,25.969954243112,25.969954243112,0,0,0,0,17,5,0,25.969954243112,0,0,0,0,0,0.447388,270.6, -9.2, 1.4,0,0,1024,1024,1024,1024,0,0,0,0,281.1,0,0,99,4.305,4.304,0,0,0,0,0,75.38,25.969954243112,0,41,Motors_Started,"Aeronave en Zona de altitud restringida (150). Vuela con precaución (Code: 190001). Error de calibración del estabilizador. Reinicia la aeronave o contacta con la Asistencia DJI (Code: 40011)"
100,2023-10-20 19:06:34,-34.9182372564931,-56.1685667126544,0,0,25.969954243112,25.969954243112,0,0,0.00294024615708,0.00294024615708,17,5,0,25.969954243112,0,0,0.00294024615708,0,0,0.223694,270.4, -9.2, 2,0,0,364,364,364,1684,-100,-100,-100,100,281,0,0,99,4.305,4.304,0,0,0,0,0,75.38,25.969954243112,0,41,Motors_Started,
200,2023-10-20 19:06:34,-34.9182372652393,-56.1685667273546,0,0,25.969954243112,25.969954243112,0,0,0.0045251969952,0.0083737863572,17,5,0,25.969954243112,0,0,0.0045251969952,0,0,0.223694,269.6, -9.8, 1,0,0,364,364,364,1684,-100,-100,-100,100,280.5,0,0,99,4.305,4.304,0,0,0,0,0,75.38,25.969954243112,0,41,Motors_Started,
300,2023-10-20 19:06:34,-34.918237295805,-56.1685667388995,0,0,25.969954243112,25.969954243112,0.328084,0,0.0139150595004,0.020048228988,17,5,0,25.969954243112,0,0,0.0139150595004,0,0,0.223694,269, -8.4, 1.3,0,0,364,364,364,1684,-100,-100,-100,100,279.9,0,0,99,4.305,4.304,0,0,0,0,0,75.38,25.969954243112,0,41,Motors_Started,
400,2023-10-20 19:06:34,-34.918237430072,-56.168566778241,0,0,25.969954243112,25.969954243112,0.328084,0,0.063537075524,0.070429464196,17,5,0,25.969954243112,0,0,0.063537075524,0,0,0.447388,268.7, -9, 0.8,0,0,364,364,364,1684,-100,-100,-100,100,279.3,0,0,99,4.305,4.304,0,0,0,0,0,75.38,25.969954243112,0,41,Motors_Started,
500,2023-10-20 19:06:35,-34.9182374799207,-56.1685667956654,0,0,25.969954243112,25.969954243112,0.328084,0,0.082446853032,0.089349084224,17,5,0,25.969954243112,0,0,0.082446853032,0,0,0.447388,267.8, -8.4, 1.1,0,0,364,364,364,1684,-100,-100,-100,100,278.8,0,0,99,4.305,4.304,0,0,0,0,0,75.38,25.969954243112,0,41,Motors_Started,"Setting new Return-To-Home altitude to 100m (328 ft). Data Recorder File Index is 16. Setting new Maximum Flight Altitude to 120m (394 ft)"
600,2023-10-20 19:06:35,-34.9182375315593,-56.1685668079417,0,0.032808399999999,25.937145843112,25.969954243112,0.328084,0,0.101539045244,0.108543966728,17,5,0,25.969954243112,0,0,0.101539045244,0,0,0.223694,267.2, -8.7, 0.9,0,0,364,364,364,1684,-100,-100,-100,100,277.9,0,0,99,4.305,4.304,0,0,0,0,0,75.38,25.969954243112,0,41,Motors_Started,
700,2023-10-20 19:06:35,-34.9182375611868,-56.1685668860474,-0.328084,-0.2952756,25.937145843112,25.641870243112,0.328084,0,0.1200705419,0.13428970246,17,5,0,25.969954243112,0,0,0.1200705419,0,0,0.223694,266.5, -8.5, 0.6,0,0,364,364,364,1684,-100,-100,-100,100,277.4,0,0,99,4.305,4.304,0,0,0,0,0,75.38,25.641870243112,-0.328084,41,Motors_Started,
800,2023-10-20 19:06:35,-34.9182376386238,-56.1685670135272,-0.328084,-0.2952756,25.937145843112,25.641870243112,0.328084,0,0.163557419932,0.181752302404,17,5,0,25.969954243112,0,0,0.163557419932,0,0,0.223694,265.7, -8.5, -0.1,0,0,364,364,364,1684,-100,-100,-100,100,276.4,0,0,99,4.305,4.304,0,0,0,0,0,75.38,25.641870243112,-0.328084,41,Motors_Started,
900,2023-10-20 19:06:35,-34.9182377160181,-56.1685671019815,-0.328084,-0.2952756,25.937145843112,25.641870243112,0.328084,0,0.201808405408,0.22045112254,17,5,0,25.969954243112,0,0,0.201808405408,0,0,0.223694,265.3, -7.6, 0.2,0,0,364,364,364,1684,-100,-100,-100,100,275.8,0,0,99,4.305,4.304,0,0,0,0,0,75.38,25.641870243112,-0.328084,41,Motors_Started,
1000,2023-10-20 19:06:35,-34.9182378236548,-56.1685672416879,-0.328084,-0.2952756,25.937145843112,25.641870243112,0.328084,0.3131716,0.258262147372,0.27780184616,17,5,0,25.969954243112,0,0.3131716,0.258262147372,-0.223694,-0.223694,0.223694,263.7, -7.3, -1,0,0,364,364,364,1684,-100,-100,-100,100,274.7,0,0,99,4.305,4.304,0,0,0,0,0,75.38,25.641870243112,-0.328084,41,Motors_Started,
1100,2023-10-20 19:06:35,-34.9182379077991,-56.1685674410778,0,0.032808399999999,25.937145843112,25.969954243112,0.328084,0.223694,0.320345154608,0.34488846248,17,5,0,25.969954243112,0,0.3131716,0.320345154608,0,-0.223694,0.223694,262.9, -8.5, -2.1,0,0,364,364,364,1684,-100,-100,-100,100,273.5,0,0,99,4.305,4.304,0,0,0,0,0,75.38,25.969954243112,0,10,Assisted_Takeoff,
1200,2023-10-20 19:06:35,-34.9182379866936,-56.1685676336661,0,0.065616799999999,25.904337443112,25.969954243112,0,0,0.38131890984,0.40929463252,17,5,8.616,25.969954243112,0,0.3131716,0.38131890984,0,0,0.447388,260.3, -7.8, -1.3,0,0,364,364,364,1684,-100,-100,-100,100,271.5,0,0,99,4.305,4.304,0,0,0,0,1.098,75.38,25.969954243112,0,10,Assisted_Takeoff,
1300,2023-10-20 19:06:35,-34.9182380466355,-56.1685676621705,-0.328084,-0.2624672,25.904337443112,25.641870243112,0,0,0.40271654832,0.43276904272,17,5,8.616,25.969954243112,0,0.3131716,0.40271654832,0,0,0.447388,258.8, -7.5, -0.8,0,0,364,364,364,1684,-100,-100,-100,100,269.4,0,0,99,4.305,4.304,0,0,0,0,1.098,75.38,25.641870243112,-0.328084,10,Assisted_Takeoff,
1400,2023-10-20 19:06:35,-34.9182380925879,-56.1685676860831,-0.328084,-0.2624672,25.904337443112,25.641870243112,0,0,0.419701457,0.45099738976,17,5,8.616,25.969954243112,0,0.3131716,0.419701457,0,0,0.447388,258.8, -7.3, 0.2,0,0,364,364,364,1684,-100,-100,-100,100,269,0,0,99,4.305,4.304,0,0,0,0,1.098,75.38,25.641870243112,-0.328084,10,Assisted_Takeoff,
1500,2023-10-20 19:06:36,-34.9182381307312,-56.1685677410598,-0.328084,-0.2624672,25.904337443112,25.641870243112,0,0,0.44113846556,0.47254266604,17,5,8.616,25.969954243112,0,0.3131716,0.44113846556,0,0,0.447388,257.4, -6.6, 1.2,0,0,364,364,364,1684,-100,-100,-100,100,268.3,0,0,99,4.305,4.304,0,0,0,0,1.098,75.38,25.641870243112,-0.328084,10,Assisted_Takeoff,
1600,2023-10-20 19:06:36,-34.9182381839447,-56.1685677973008,-0.328084,-0.2624672,25.904337443112,25.641870243112,0,0,0.46678807268,0.49823164324,17,5,8.616,25.969954243112,0,0.3131716,0.46678807268,0,0,0.447388,257.6, -7.5, 0.7,0,0,364,364,364,1684,-100,-100,-100,100,267.8,0,0,99,4.305,4.304,0,0,0,0,1.098,75.38,25.641870243112,-0.328084,10,Assisted_Takeoff,
1700,2023-10-20 19:06:36,-34.9182381136381,-56.1685675839891,-0.328084,-0.2624672,25.904337443112,25.641870243112,0,0,0.40494751952,0.567011173,17,5,8.616,25.969954243112,0,0.3131716,0.46678807268,0,0,0.223694,257.6, -6.2, 1.6,0,0,364,364,364,1684,-100,-100,-100,100,267.8,0,0,99,4.305,4.304,0,0,0,0,1.098,75.38,25.641870243112,-0.328084,10,Assisted_Takeoff,
1800,2023-10-20 19:06:36,-34.9182380644787,-56.1685675110028,-0.328084,-0.2624672,25.904337443112,25.641870243112,0,0,0.37720145564,0.59526576708,17,5,8.616,25.969954243112,0,0.3131716,0.46678807268,0,0,0.223694,257.5, -6.9, 1.4,0,0,364,364,364,1684,-100,-100,-100,100,267.8,0,0,99,4.305,4.304,0,0,0,0,1.098,75.38,25.641870243112,-0.328084,10,Assisted_Takeoff,
1900,2023-10-20 19:06:36,-34.9182379977864,-56.1685675035091,0,0.065616799999999,25.904337443112,25.969954243112,0,0,0.35721457836,0.6197014634,17,5,8.616,25.969954243112,0,0.3131716,0.46678807268,0,0,0,257.1, -8.8, 1.1,0,0,364,364,364,1684,-100,-100,-100,100,267.5,0,0,99,4.305,4.304,0,0,0,0,1.098,75.38,25.969954243112,0,10,Assisted_Takeoff,
2000,2023-10-20 19:06:36,-34.9182378942467,-56.16856753094,0,0.065616799999999,25.904337443112,25.969954243112,0.328084,0,0.33581365904,0.65835960112,17,5,8.616,25.969954243112,0,0.3131716,0.46678807268,0,0,-0.447388,257.9, -4.2, 2.8,0,0,1024,1024,831,1314,0,0,-29,44,268,0,0,99,4.305,4.304,0,0,0,0,1.098,75.38,25.969954243112,0,6,P-GPS,
2100,2023-10-20 19:06:36,-34.9182378357433,-56.1685675536328,0,0.065616799999999,25.904337443112,25.969954243112,0.328084,0,0.326787412032,0.6807578958,17,5,8.616,25.969954243112,0,0.3131716,0.46678807268,0,0,-0.671082,259.1, 4.2, -3.2,0,0,1024,1024,1024,1008,0,0,0,-2,271.5,0,0,99,4.305,4.304,0,0,0,0,1.098,75.38,25.969954243112,0,6,P-GPS,
2200,2023-10-20 19:06:36,-34.9182378659269,-56.1685675508876,0,0.065616799999999,25.904337443112,25.969954243112,0.328084,0,0.3333005356,0.69180120324,17,5,8.62,25.969954243112,0,0.3131716,0.46678807268,0,0,0,261.9, 7.2, -4.4,0,0,1024,1024,1024,1008,0,0,0,-2,274.1,0,0,99,4.312,4.313,0,0,0,0,1.366,75.38,25.969954243112,0,6,P-GPS,
2300,2023-10-20 19:06:36,-34.9182378995232,-56.1685675224171,0,0.065616799999999,25.904337443112,25.969954243112,0.328084,0,0.3352854438,0.70672902524,17,5,8.62,25.969954243112,0,0.3131716,0.46678807268,0,0,0.671082,264.7, 2.4, -1.5,0,0,1024,1024,1150,710,0,0,19,-48,275.2,0,0,99,4.312,4.313,0,0,0,0,1.366,75.38,25.969954243112,0,6,P-GPS,
2400,2023-10-20 19:06:36,-34.9182379032687,-56.1685674782461,0,0.032808399999999,25.937145843112,25.969954243112,0.328084,0,0.32683399996,0.7200131464,17,5,8.62,25.969954243112,0,0.3131716,0.46678807268,0,0,0.894776,265.8, 0.4, -1.1,0,0,1024,1024,1684,1024,0,0,100,0,275.1,0,0,99,4.312,4.313,0,0,0,0,1.366,75.38,25.969954243112,0,6,P-GPS,
2500,2023-10-20 19:06:37,-34.9182379791888,-56.1685675166055,0,0.065616799999999,25.904337443112,25.969954243112,0,0,0.35480972264,0.74999674316,17,5,8.62,25.969954243112,0,0.3131716,0.46678807268,0,0,0.671082,264.8, 0.5, -2,0,0,1024,1024,1684,1024,0,0,100,0,274.7,0,0,99,4.312,4.313,0,0,0,0,1.366,75.38,25.969954243112,0,6,P-GPS,
2600,2023-10-20 19:06:37,-34.918237953199,-56.1685675104099,0,0.065616799999999,25.904337443112,25.969954243112,0,0,0.346620746,0.75965881696,17,5,8.62,25.969954243112,0,0.3131716,0.46678807268,0,0,0.223694,264.4, -1, -1.5,0,0,1024,1024,1684,1024,0,0,100,0,274.6,0,0,99,4.312,4.313,0,0,0,0,1.366,75.38,25.969954243112,0,6,P-GPS,
2700,2023-10-20 19:06:37,-34.9182379226729,-56.1685675748576,0,0.065616799999999,25.904337443112,25.969954243112,0,0,0.3524934496,0.7819225972,17,5,8.62,25.969954243112,0,0.3131716,0.46678807268,0,0,0,264.7, -0.2, -0.1,0,0,1024,1024,1684,1024,0,0,100,0,274.6,0,0,99,4.312,4.313,0,0,0,0,1.366,75.38,25.969954243112,0,6,P-GPS,
2800,2023-10-20 19:06:37,-34.918237890808,-56.1685676686535,0,0.065616799999999,25.904337443112,25.969954243112,0.328084,0,0.36616142904,0.81229661392,17,5,8.62,25.969954243112,0,0.3131716,0.46678807268,0,0,-0.223694,264.8, 0.5, -1.4,0,0,1024,1024,1684,1024,0,0,100,0,274.6,0,0,99,4.312,4.313,0,0,0,0,1.366,75.38,25.969954243112,0,6,P-GPS,
2900,2023-10-20 19:06:37,-34.9182378504051,-56.1685677601089,0,0.065616799999999,25.904337443112,25.969954243112,0.328084,0,0.37942258432,0.84337601124,17,5,8.62,25.969954243112,0,0.3131716,0.46678807268,0,0,-0.894776,264.5, 0.2, -1.8,0,0,1024,1024,984,1024,0,0,-6,0,274.6,0,0,99,4.312,4.313,0,0,0,0,1.366,75.38,25.969954243112,0,6,P-GPS,
3000,2023-10-20 19:06:37,-34.9182377966087,-56.1685678163969,0.328084,0.3937008,25.904337443112,26.298038243112,0.656168,0,0.38313977604,0.86923887296,17,5,8.62,26.298038243112,0.328084,0.3131716,0.46678807268,0,0,-1.565858,264.6, 1.7, -1.4,0,0,1024,1024,1024,1024,0,0,0,0,274.6,0,0,99,4.312,4.313,0,0,0,0,1.366,75.38,26.298038243112,0.328084,6,P-GPS,
3100,2023-10-20 19:06:37,-34.918237738329,-56.168567947523,0.656168,0.7217848,25.904337443112,26.626122243112,0.984252,0,0.40797901568,0.91385829696,17,5,8.62,26.626122243112,0.656168,0.3131716,0.46678807268,0,0,-2.013246,264.4, 1, -2,0,0,1024,1024,1024,1024,0,0,0,0,274.6,0,0,99,4.312,4.313,0,0,0,0,1.366,75.38,26.626122243112,0.656168,6,P-GPS,
3200,2023-10-20 19:06:37,-34.918237684597,-56.1685680899693,0.984252,1.0498688,25.904337443112,26.954206243112,1.312336,0,0.43973426604,0.96076446644,17,5,8.442,26.954206243112,0.984252,0.3131716,0.46678807268,0,0,-2.013246,264.3, 1.5, -2.5,0,0,1024,1024,1024,1024,0,0,0,0,274.6,0,0,99,4.197,4.185,0,0,0,0,2.982,75.38,26.954206243112,0.984252,6,P-GPS,
3300,2023-10-20 19:06:37,-34.9182376595964,-56.1685682525121,1.312336,1.3779528,25.904337443112,27.282290243112,1.312336,0,0.4828084144,1.01023953364,17,5,8.442,27.282290243112,1.312336,0.3131716,0.4828084144,0,0,-1.565858,264.3, 1.9, -2,0,0,1024,1024,1024,1024,0,0,0,0,274.6,0,0,99,4.197,4.185,0,0,0,0,2.982,75.38,27.282290243112,1.312336,6,P-GPS,
3400,2023-10-20 19:06:37,-34.9182376150588,-56.1685686335802,1.64042,1.7716536,25.838720643112,27.610374243112,3.608924,0,0.58884844404,1.12539701764,17,5,8.442,27.610374243112,1.64042,0.3131716,0.58884844404,0,0,-1.11847,264.2, 2.8, -1.3,0,0,1024,1024,1024,1024,0,0,0,0,274.6,0,0,99,4.197,4.185,0,0,0,0,2.982,75.38,27.610374243112,1.64042,6,P-GPS,
3500,2023-10-20 19:06:37,-34.9182375683691,-56.1685687184535,1.64042,1.7716536,25.838720643112,27.610374243112,3.608924,0,0.61033794604,1.1559711656,17,5,8.442,27.610374243112,1.64042,0.3131716,0.61033794604,0,0,-0.447388,264, 2.7, -2.5,0,0,1024,1024,1024,1024,0,0,0,0,274.6,0,0,99,4.197,4.185,0,0,0,0,2.982,75.38,27.610374243112,1.64042,6,P-GPS,
3600,2023-10-20 19:06:38,-34.9182374917467,-56.1685687866442,1.968504,2.0341208,25.904337443112,27.938458243112,3.937008,0.223694,0.6260991014,1.19058074676,17,5,8.442,27.938458243112,1.968504,0.3131716,0.6260991014,0,-0.223694,-0.223694,263.8, 3.3, -2.8,0,0,1024,1024,1024,1024,0,0,0,0,274.6,0,0,99,4.197,4.185,0,0,0,0,2.982,75.38,27.938458243112,1.968504,6,P-GPS,
3700,2023-10-20 19:06:38,-34.9182373303046,-56.1685687781292,1.968504,2.0341208,25.904337443112,27.938458243112,3.937008,0.223694,0.6185039568,1.24953744156,17,5,8.442,27.938458243112,1.968504,0.3131716,0.6260991014,0.223694,0,0,263.7, 2.9, -3.5,0,0,1024,1024,1024,1024,0,0,0,0,274.6,0,0,99,4.197,4.185,0,0,0,0,2.982,75.38,27.938458243112,1.968504,6,P-GPS,
3800,2023-10-20 19:06:38,-34.9182370581259,-56.1685685657526,2.296588,2.3622048,25.904337443112,28.266542243112,3.937008,0.223694,0.55959319376,1.36742786528,17,5,8.442,28.266542243112,2.296588,0.3131716,0.6260991014,0.223694,0,0,263.9, 3, -4.1,0,0,1024,1024,1024,1024,0,0,0,0,274.6,0,0,99,4.197,4.185,0,0,0,0,2.982,75.38,28.266542243112,2.296588,6,P-GPS,
3900,2023-10-20 19:06:38,-34.9182369936049,-56.1685685526274,2.296588,2.3622048,25.904337443112,28.266542243112,3.937008,0.223694,0.55937993916,1.39129269544,17,5,8.442,28.266542243112,2.296588,0.3131716,0.6260991014,0.223694,0,0,264, 2.1, -4.5,0,0,1024,1024,1024,1024,0,0,0,0,274.6,0,0,99,4.197,4.185,0,0,0,0,2.982,75.38,28.266542243112,2.296588,6,P-GPS,
4000,2023-10-20 19:06:38,-34.918236937069,-56.1685685123979,2.624672,2.6902888,25.904337443112,28.594626243112,3.937008,0.223694,0.55163715676,1.4151739298,17,5,8.442,28.594626243112,2.624672,0.3131716,0.6260991014,0.223694,0,0,264, 1.2, -4.8,0,0,1024,1024,1024,1024,0,0,0,0,274.6,0,0,99,4.197,4.185,0,0,0,0,2.982,75.38,28.594626243112,2.624672,6,P-GPS,
4100,2023-10-20 19:06:38,-34.9182367754907,-56.1685684554674,2.624672,2.6574804,25.937145843112,28.594626243112,3.937008,0.223694,0.55119096252,1.47653548032,17,5,8.442,28.594626243112,2.624672,0.3131716,0.6260991014,0.223694,0,0,264, 0.5, -5.1,0,0,1024,1024,1024,1024,0,0,0,0,274.6,0,0,99,4.197,4.185,0,0,0,0,2.982,75.38,28.594626243112,2.624672,6,P-GPS,
4200,2023-10-20 19:06:38,-34.918236625789,-56.1685684749161,2.624672,2.6574804,25.937145843112,28.594626243112,3.937008,0.223694,0.57652888984,1.5314633036,17,5,8.442,28.594626243112,2.624672,0.3131716,0.6260991014,0.223694,0,0,264, 0.1, -5.3,0,0,1024,1024,1281,1024,0,0,39,0,274.6,0,0,99,4.197,4.185,0,0,0,0,2.982,75.38,28.594626243112,2.624672,6,P-GPS,
4300,2023-10-20 19:06:38,-34.9182364803621,-56.1685683786076,2.952756,2.952756,25.969954243112,28.922710243112,3.937008,0.223694,0.57478348296,1.59184060212,17,5,8.475,28.922710243112,2.952756,0.3131716,0.6260991014,0.223694,0,0,264.2, 0.5, -4.9,0,0,1024,1024,1582,1024,0,0,85,0,274.6,0,0,99,4.226,4.219,0,0,0,0,4.183,75.38,28.922710243112,2.952756,6,P-GPS,
4400,2023-10-20 19:06:38,-34.9182363429804,-56.1685682922846,2.952756,2.952756,25.969954243112,28.922710243112,3.937008,0,0.58007547788,1.64822511836,17,5,8.475,28.922710243112,2.952756,0.3131716,0.6260991014,0,0,0,263.9, 0, -4.8,0,0,1024,1024,1582,1024,0,0,85,0,274.6,0,0,99,4.226,4.219,0,0,0,0,4.183,75.38,28.922710243112,2.952756,6,P-GPS,
4500,2023-10-20 19:06:39,-34.9182362521778,-56.1685681866696,3.28084,3.28084,25.969954243112,29.250794243112,4.265092,0,0.57531825988,1.69400595972,17,5,8.475,29.250794243112,3.28084,0.3131716,0.6260991014,0,0,-0.447388,263.6, 0.6, -4.6,0,0,1024,1024,1684,1024,0,0,100,0,274.6,0,0,99,4.226,4.219,0,0,0,0,4.183,75.38,29.250794243112,3.28084,6,P-GPS,
4600,2023-10-20 19:06:39,-34.9182360899451,-56.168567905418,3.608924,3.608924,25.969954243112,29.578878243112,4.265092,0,0.55773951916,1.7968832596,16,5,8.475,29.578878243112,3.608924,0.3131716,0.6260991014,0,0,-1.11847,263.6, 0.1, -4.6,0,0,1024,1024,1024,1024,0,0,0,0,274.6,0,0,99,4.226,4.219,0,0,0,0,4.183,75.38,29.578878243112,3.608924,6,P-GPS,
4700,2023-10-20 19:06:39,-34.9182360776456,-56.1685678383244,3.608924,3.608924,25.969954243112,29.578878243112,4.593176,0,0.54864503068,1.81745084556,16,5,8.475,29.578878243112,3.608924,0.3131716,0.6260991014,0,0,-1.789552,263.4, -0.1, -4.5,0,0,1024,1024,1024,1024,0,0,0,0,274.6,0,0,99,4.226,4.219,0,0,0,0,4.183,75.38,29.578878243112,3.608924,6,P-GPS,
4800,2023-10-20 19:06:39,-34.9182360914638,-56.1685677583224,3.937008,3.937008,25.969954243112,29.906962243112,4.92126,0,0.53020670988,1.84190950776,17,5,8.475,29.906962243112,3.937008,0.3131716,0.6260991014,0,0,-1.789552,263.7, -0.3, -6.3,0,0,1365,1024,1024,1024,52,0,0,0,274.6,0,0,99,4.226,4.219,0,0,0,0,4.183,75.38,29.906962243112,3.937008,6,P-GPS,
4900,2023-10-20 19:06:39,-34.9182361312013,-56.1685676960269,4.265092,4.265092,25.969954243112,30.235046243112,5.249344,0.223694,0.507545948,1.86552171324,17,5,8.475,30.235046243112,4.265092,0.3131716,0.6260991014,0,0.223694,-1.342164,263.7, 0.2, -5.6,0,0,1684,1024,1024,1024,100,0,0,0,274.6,0,0,99,4.226,4.219,0,0,0,0,4.183,75.38,30.235046243112,4.265092,6,P-GPS,
5000,2023-10-20 19:06:39,-34.9182362084758,-56.168567622197,4.265092,4.265092,25.969954243112,30.235046243112,5.249344,0,0.4717683878,1.90133536268,17,5,8.475,30.235046243112,4.265092,0.3131716,0.6260991014,0,0,-0.894776,264.3, -7.6, -4,0,0,1684,1024,1137,1024,100,0,17,0,274.6,0,0,99,4.226,4.219,0,0,0,0,4.183,75.38,30.235046243112,4.265092,6,P-GPS,
5100,2023-10-20 19:06:39,-34.9182363116133,-56.1685677589414,4.265092,4.265092,25.969954243112,30.235046243112,5.249344,0.223694,0.46790027744,1.95691935396,17,5,8.475,30.235046243112,4.265092,0.3131716,0.6260991014,-0.223694,0,-0.447388,264.5, -16.5, -2.5,0,0,1684,1024,1024,1024,100,0,0,0,274.6,0,0,99,4.226,4.219,0,0,0,0,4.183,75.38,30.235046243112,4.265092,6,P-GPS,
5200,2023-10-20 19:06:39,-34.9182364182599,-56.1685679805095,4.265092,4.265092,25.969954243112,30.235046243112,4.92126,0.7158208,0.48917980568,2.03378287348,17,5,8.475,30.235046243112,4.265092,0.7158208,0.6260991014,-0.223694,-0.671082,-0.223694,264.1, -18.7, -0.8,0,0,1684,1024,1024,1024,100,0,0,0,274.6,0,0,99,4.207,4.218,0,0,0,0,4.183,75.38,30.235046243112,4.265092,6,P-GPS,
5300,2023-10-20 19:06:39,-34.9182366145457,-56.1685684890521,4.265092,4.2979004,25.937145843112,30.235046243112,4.92126,1.3645334,0.58206038608,2.20193248516,17,5,8.475,30.235046243112,4.265092,1.3645334,0.6260991014,-0.223694,-1.342164,0,264.1, -18.5, -1.2,0,0,1684,1024,1024,1024,100,0,0,0,274.6,0,0,99,4.207,4.218,0,0,0,0,4.183,75.38,30.235046243112,4.265092,6,P-GPS,
5400,2023-10-20 19:06:39,-34.9182368172782,-56.1685693388354,4.265092,4.3307088,25.904337443112,30.235046243112,4.92126,2.0356154,0.80254923828,2.466699554,17,5,8.475,30.235046243112,4.265092,2.0356154,0.80254923828,-0.223694,-2.013246,0,264, -18.1, -1.8,0,0,1684,1024,1024,1024,100,0,0,0,274.6,0,0,99,4.207,4.218,0,0,0,0,4.183,75.38,30.235046243112,4.265092,6,P-GPS,"Punto de origen actualizado. Altitud de RPO establecida en 100m (Code: 3000001)"
5500,2023-10-20 19:06:40,-34.9182371130553,-56.1685705594321,4.265092,4.429134,25.805912243112,30.235046243112,4.92126,2.684328,1.15227037808,2.8474738444,17,5,8.475,30.235046243112,4.265092,2.684328,1.15227037808,-0.223694,-2.684328,0,263.9, -18.2, -3,0,0,1684,1024,1204,1024,100,0,27,0,274.6,0,0,99,4.207,4.218,0,0,0,0,4.183,75.38,30.235046243112,4.265092,6,P-GPS,
5600,2023-10-20 19:06:40,-34.9182372985691,-56.1685720944328,4.265092,4.4619424,25.773103843112,30.235046243112,4.92126,3.35541,1.61021002528,3.3116470876,17,5,8.475,30.235046243112,4.265092,3.35541,1.61021002528,-0.223694,-3.35541,0,263.9, -17.1, -3,0,0,1684,1024,1549,1024,100,0,80,0,274.6,0,0,99,4.207,4.218,0,0,0,0,4.183,75.38,30.235046243112,4.265092,6,P-GPS,
5700,2023-10-20 19:06:40,-34.9182374737099,-56.1685739840267,4.265092,4.5275592,25.707487043112,30.235046243112,5.249344,4.250186,2.17680125076,3.8805447436,17,5,8.475,30.235046243112,4.265092,4.250186,2.17680125076,-0.223694,-4.250186,-0.447388,263.7, -15.5, -3.4,0,0,1684,1024,1684,1024,100,0,100,0,274.6,0,0,99,4.207,4.218,0,0,0,0,4.183,75.38,30.235046243112,4.265092,6,P-GPS,
5800,2023-10-20 19:06:40,-34.9182376976818,-56.1685763025111,4.265092,4.6259844,25.609061843112,30.235046243112,5.577428,4.9436374,2.87342200796,4.5789699628,17,5,8.475,30.235046243112,4.265092,4.9436374,2.87342200796,-0.447388,-4.921268,-1.11847,263.6, -14.3, -3.4,0,0,1684,1024,1684,1024,100,0,100,0,274.6,0,0,99,4.207,4.218,0,0,0,0,4.183,75.38,30.235046243112,4.265092,6,P-GPS,
5900,2023-10-20 19:06:40,-34.9182378912005,-56.1685794768973,4.593176,5.0524936,25.510636643112,30.563130243112,5.905512,5.3910254,3.8255906736,5.5312337728,17,5,8.475,30.563130243112,4.593176,5.3910254,3.8255906736,-0.447388,-5.368656,-2.013246,263.5, -12.8, -4.2,0,0,1684,1024,1684,1024,100,0,100,0,274.6,0,0,99,4.207,4.218,0,0,0,0,4.183,75.38,30.563130243112,4.593176,6,P-GPS,
6000,2023-10-20 19:06:40,-34.918238208363,-56.1685824781322,4.92126,5.5118112,25.379403043112,30.891214243112,6.233596,6.0844768,4.729166818,6.4365487624,17,5,8.475,30.891214243112,4.92126,6.0844768,4.729166818,-0.671082,-6.039738,-2.684328,263.5, -12.7, -3.6,0,0,1684,1024,1684,1024,100,0,100,0,274.6,0,0,99,4.207,4.218,0,0,0,0,4.183,75.38,30.891214243112,4.92126,6,P-GPS,
6100,2023-10-20 19:06:40,-34.9182386124978,-56.1685856556975,5.249344,6.0039372,25.215361043112,31.219298243112,6.889764,6.5542342,5.6885172424,7.3985238588,17,5,8.475,31.219298243112,5.249344,6.5542342,5.6885172424,-0.894776,-6.487126,-3.579104,263.6, -12.5, -3.4,0,0,1684,1024,1684,1024,100,0,100,0,274.6,0,0,99,4.207,4.218,0,0,0,0,4.183,75.38,31.219298243112,5.249344,6,P-GPS,
6200,2023-10-20 19:06:40,-34.918239079281,-56.168589233355,5.905512,6.7585304,25.116935843112,31.875466243112,7.545932,7.0016222,6.7699805316,8.4823165444,17,5,8.343,31.875466243112,5.905512,7.0016222,6.7699805316,-0.894776,-6.934514,-4.47388,263.4, -12, -2.4,0,0,1684,1024,1684,1024,100,0,100,0,274.6,0,0,99,4.133,4.123,0,0,0,0,4.59,75.38,31.875466243112,5.905512,6,P-GPS,
6300,2023-10-20 19:06:40,-34.9182397331741,-56.1685933805443,6.56168,7.6115488,24.920085443112,32.531634243112,8.2021,7.4266408,8.0289044564,9.74573522,17,5,8.343,32.531634243112,6.56168,7.4266408,8.0289044564,-0.894776,-7.381902,-5.144962,263.4, -11.2, -3.1,0,0,1684,1024,1684,1024,100,0,100,0,274.6,0,0,99,4.133,4.123,0,0,0,0,4.59,75.38,32.531634243112,6.56168,6,P-GPS,
6400,2023-10-20 19:06:40,-34.9182402576105,-56.1685973805997,7.545932,8.7270344,24.788851843112,33.515886243112,9.186352,7.8740288,9.23966565,10.9576118992,17,5,8.343,33.515886243112,7.545932,7.8740288,9.23966565,-0.894776,-7.82929,-5.59235,263.4, -10.9, -3.8,0,0,1684,1024,1684,1024,100,0,100,0,274.6,0,0,99,4.133,4.123,0,0,0,0,4.59,75.38,33.515886243112,7.545932,6,P-GPS,
6500,2023-10-20 19:06:41,-34.918240833798,-56.1686012511926,8.530184,9.8753284,24.624809843112,34.500138243112,10.170604,8.1200922,10.4146000708,12.1344820156,17,5,8.343,34.500138243112,8.530184,8.1200922,10.4146000708,-1.11847,-8.052984,-6.039738,263.4, -11.3, -2.4,0,0,1684,1024,1684,1024,100,0,100,0,274.6,0,0,99,4.133,4.123,0,0,0,0,4.59,75.38,34.500138243112,8.530184,6,P-GPS,
6600,2023-10-20 19:06:41,-34.9182414631558,-56.1686054951064,9.514436,11.0236224,24.460767843112,35.484390243112,10.826772,8.5674802,11.7031827892,13.424705154,17,5,8.343,35.484390243112,9.514436,8.5674802,11.7031827892,-1.11847,-8.500372,-6.487126,263.4, -11.1, -2.2,0,0,1684,1024,1684,1024,100,0,100,0,274.6,0,0,99,4.133,4.123,0,0,0,0,4.59,75.38,35.484390243112,9.514436,6,P-GPS,
6700,2023-10-20 19:06:41,-34.9182420496434,-56.1686095776103,10.498688,12.2047248,24.263917443112,36.468642243112,11.811024,8.7911742,12.9421263984,14.6646658236,17,5,8.343,36.468642243112,10.498688,8.7911742,12.9421263984,-1.11847,-8.724066,-6.487126,263.6, -11.6, -2.5,0,0,1684,1024,1684,1024,100,0,100,0,274.6,0,0,99,4.133,4.123,0,0,0,0,4.59,75.38,36.468642243112,10.498688,6,P-GPS,
6800,2023-10-20 19:06:41,-34.9182428228021,-56.1686137539035,11.811024,13.8123364,23.968641843112,37.780978243112,12.795276,9.0148682,14.2186028172,15.9455057596,17,5,8.343,37.780978243112,11.811024,9.0148682,14.2186028172,-1.11847,-8.94776,-6.487126,263.4, -11.1, -2.7,0,0,1684,1024,1684,1024,100,0,100,0,274.6,0,0,99,4.133,4.123,0,0,0,0,4.59,75.38,37.780978243112,11.811024,6,P-GPS,
6900,2023-10-20 19:06:41,-34.9182433870694,-56.1686181161664,12.795276,15.0590556,23.706174643112,38.765230243112,13.779528,9.4622562,15.5396658516,17.2667000276,17,5,8.343,38.765230243112,12.795276,9.4622562,15.5396658516,-1.11847,-9.395148,-6.487126,263.5, -11, -3.2,0,0,1684,1024,1684,1024,100,0,100,0,274.6,0,0,99,4.133,4.123,0,0,0,0,4.59,75.38,38.765230243112,12.795276,6,P-GPS,
7000,2023-10-20 19:06:41,-34.9182439876965,-56.1686228538344,13.779528,16.4370084,23.312473843112,39.749482243112,14.76378,9.7754278,16.9737866324,18.7008864252,17,5,8.343,39.749482243112,13.779528,9.7754278,16.9737866324,-1.789552,-9.618842,-6.487126,259.5, -11.8, -3.5,0,0,1684,1024,1684,1024,100,0,100,0,274.6,0,0,99,4.133,4.123,0,0,0,0,4.59,75.38,39.749482243112,13.779528,6,P-GPS,
7100,2023-10-20 19:06:41,-34.9182446383206,-56.1686274601257,15.091864,18.0774284,22.984389843112,41.061818243112,15.748032,10.0438606,18.371719748,20.0992132416,17,5,8.343,41.061818243112,15.091864,10.0438606,18.371719748,-2.013246,-9.842536,-6.487126,259.4, -11.9, -3.1,0,0,1684,1024,1684,1024,100,0,100,0,274.6,0,0,99,4.133,4.123,0,0,0,0,4.59,75.38,41.061818243112,15.091864,6,P-GPS,
7200,2023-10-20 19:06:41,-34.9182455851565,-56.1686321430521,15.748032,19.1272972,22.590689043112,41.717986243112,16.732284,10.2675546,19.8086292428,21.542159482,17,5,8.401,41.717986243112,15.748032,10.2675546,19.8086292428,-2.013246,-10.06623,-6.487126,259.5, -11.7, -2.1,0,0,1684,1024,1684,1024,100,0,100,0,274.6,0,0,99,4.129,4.124,0,0,0,0,4.261,75.38,41.717986243112,15.748032,6,P-GPS,
7300,2023-10-20 19:06:41,-34.9182463347326,-56.1686369970521,17.060368,20.8005256,22.229796643112,43.030322243112,17.716536,10.4912486,21.285597794,23.0198170096,17,5,8.401,43.030322243112,17.060368,10.4912486,21.285597794,-2.013246,-10.289924,-6.487126,259.5, -11.9, -1.1,0,0,1684,963,1684,1024,100,-9,100,0,274.6,0,0,99,4.129,4.124,0,0,0,0,4.261,75.38,43.030322243112,17.060368,6,P-GPS,
7400,2023-10-20 19:06:41,-34.9182471331049,-56.1686422531073,18.04462,22.14567,21.868904243112,44.014574243112,18.700788,10.7149426,22.8842527008,24.6189968508,17,5,8.401,44.014574243112,18.04462,10.7149426,22.8842527008,-2.013246,-10.513618,-6.487126,259.4, -11.2, -1.4,0,0,1684,885,1684,1024,100,-21,100,0,274.6,0,0,99,4.129,4.124,0,0,0,0,4.261,75.38,44.014574243112,18.04462,6,P-GPS,
7500,2023-10-20 19:06:42,-34.9182478554086,-56.1686472638776,19.028872,23.5236228,21.475203443112,44.998826243112,19.68504,11.1399612,24.4061031432,26.1410441436,17,5,8.401,44.998826243112,19.028872,11.1399612,24.4061031432,-2.013246,-10.961006,-6.487126,259.5, -11.6, -2,0,0,1684,885,1684,1024,100,-21,100,0,274.6,0,0,99,4.129,4.124,0,0,0,0,4.261,75.38,44.998826243112,19.028872,6,P-GPS,
7600,2023-10-20 19:06:42,-34.9182485967984,-56.1686521844358,20.013124,24.9015756,21.081502643112,45.983078243112,20.341208,11.1399612,25.9024286504,27.6377633516,17,5,8.401,45.983078243112,20.013124,11.1399612,25.9024286504,-2.013246,-10.961006,-6.487126,259.6, -11.3, -4.1,0,0,1684,1024,1684,1024,100,0,100,0,274.6,0,0,99,4.129,4.124,0,0,0,0,4.261,75.38,45.983078243112,20.013124,6,P-GPS,
7700,2023-10-20 19:06:42,-34.9182493928437,-56.1686574353036,20.997376,26.24672,20.720610243112,46.967330243112,21.32546,11.408394,27.4995415624,29.235237156,17,5,8.401,46.967330243112,20.997376,11.408394,27.4995415624,-2.23694,-11.1847,-6.487126,259.8, -11.4, -3.1,0,0,1684,717,1684,1024,100,-47,100,0,274.6,0,0,99,4.129,4.124,0,0,0,0,4.261,75.38,46.967330243112,20.997376,6,P-GPS,
7800,2023-10-20 19:06:42,-34.918250273459,-56.1686630608479,21.981628,27.6902896,20.261292643112,47.951582243112,22.309712,11.632088,29.2123368928,30.9486230376,17,5,8.401,47.951582243112,21.981628,11.632088,29.2123368928,-2.23694,-11.408394,-6.487126,259.8, -11.8, -4.4,0,0,1684,1024,1684,1024,100,0,100,0,274.6,0,0,99,4.129,4.124,0,0,0,0,4.261,75.38,47.951582243112,21.981628,6,P-GPS,
7900,2023-10-20 19:06:42,-34.9182511094818,-56.168668589415,22.96588,29.1338592,19.801975043112,48.935834243112,23.293964,11.9005208,30.8938986264,32.6304472384,17,5,8.401,48.935834243112,22.96588,11.9005208,30.8938986264,-2.460634,-11.632088,-6.487126,259.8, -12.3, -5,0,0,1684,1024,1684,1024,100,0,100,0,274.6,0,0,99,4.129,4.124,0,0,0,0,4.261,75.38,48.935834243112,22.96588,6,P-GPS,
8000,2023-10-20 19:06:42,-34.9182519841468,-56.1686744186982,23.950132,30.511812,19.408274243112,49.920086243112,24.278216,11.9005208,32.6665364784,34.403216324,17,5,8.401,49.920086243112,23.950132,11.9005208,32.6665364784,-2.460634,-11.632088,-6.487126,259.9, -12.1, -2.5,0,0,1684,1024,1684,1024,100,0,100,0,274.6,0,0,99,4.129,4.124,0,0,0,0,4.261,75.38,49.920086243112,23.950132,6,P-GPS,
8100,2023-10-20 19:06:42,-34.9182528942727,-56.1686801520855,24.934384,31.9553816,18.948956643112,50.904338243112,25.262468,12.1018454,34.413058844,36.150263624,17,5,8.401,50.904338243112,24.934384,12.1018454,34.413058844,-2.460634,-11.855782,-6.71082,259.8, -12.8, -1.4,0,0,1684,1024,1684,1023,100,0,100,-0,274.6,0,0,99,4.129,4.124,0,0,0,0,4.261,75.38,50.904338243112,24.934384,6,P-GPS,
8200,2023-10-20 19:06:42,-34.9182538645705,-56.1686862816771,25.918636,33.3989512,18.489639043112,51.888590243112,26.24672,12.3255394,36.280184888,38.018045836,17,5,8.224,51.888590243112,25.918636,12.3255394,36.280184888,-2.460634,-12.079476,-6.487126,259.6, -13.1, -2,0,0,1684,1024,1684,1024,100,0,100,0,274.6,0,0,99,4.127,4.117,0,0,0,0,7.042,75.56,51.888590243112,25.918636,6,P-GPS,
8300,2023-10-20 19:06:42,-34.9182548407136,-56.1686921912261,26.902888,34.8425208,18.030321443112,52.872842243112,26.902888,12.5492334,38.082678384,39.821523584,17,5,8.224,52.872842243112,26.902888,12.5492334,38.082678384,-2.460634,-12.30317,-6.487126,259.6, -13.4, -1.7,0,0,1684,1024,1684,1024,100,0,100,0,274.6,0,0,99,4.127,4.117,0,0,0,0,7.042,75.56,52.872842243112,26.902888,6,P-GPS,
8400,2023-10-20 19:06:42,-34.9182558934147,-56.1686985019108,27.88714,36.3517072,17.505387043112,53.857094243112,27.88714,12.7729274,40.008531464,41.748032832,17,5,8.224,53.857094243112,27.88714,12.7729274,40.008531464,-2.460634,-12.526864,-6.487126,259.6, -13.7, -0.6,0,0,1684,1024,1684,1024,100,0,100,0,274.6,0,0,99,4.127,4.117,0,0,0,0,7.042,75.56,53.857094243112,27.88714,6,P-GPS,
8500,2023-10-20 19:06:42,-34.9182567922197,-56.168704440787,28.871392,37.72966,17.111686243112,54.841346243112,29.199476,13.0189908,41.814961968,43.55479142,17,5,8.224,54.841346243112,28.871392,13.0189908,41.814961968,-2.684328,-12.750558,-6.487126,259.4, -12.9, -0.7,0,0,1684,1024,1684,1024,100,0,100,0,274.6,0,0,98,4.127,4.117,0,0,0,0,7.042,75.56,54.841346243112,28.871392,6,P-GPS,
8600,2023-10-20 19:06:43,-34.918257896847,-56.1687109204661,29.855644,39.2388464,16.586751843112,55.825598243112,30.183728,13.2426848,43.793964656,45.53477836,17,5,8.224,55.825598243112,29.855644,13.2426848,43.793964656,-2.684328,-12.974252,-6.487126,259.6, -12.7, -1.4,0,0,1684,1024,1684,1024,100,0,100,0,274.6,0,0,98,4.127,4.117,0,0,0,0,7.042,75.56,55.825598243112,29.855644,6,P-GPS,
8700,2023-10-20 19:06:43,-34.9182589439788,-56.1687171817637,30.839896,40.682416,16.127434243112,56.809850243112,31.16798,13.4663788,45.705053956,47.446523828,17,5,8.224,56.809850243112,30.839896,13.4663788,45.705053956,-2.684328,-13.197946,-6.71082,259.7, -12.6, -1.3,0,0,1684,1024,1684,1024,100,0,100,0,274.6,0,0,98,4.127,4.117,0,0,0,0,7.042,75.56,56.809850243112,30.839896,6,P-GPS,
8800,2023-10-20 19:06:43,-34.9182600606745,-56.1687238560973,31.824148,42.2244108,15.569691443112,57.794102243112,32.152232,13.4663788,47.742127512,49.484253552,17,5,8.224,57.794102243112,31.824148,13.4663788,47.742127512,-2.684328,-13.197946,-6.71082,259.8, -13, -0.2,0,0,1684,1024,1684,1024,100,0,100,0,274.6,0,0,98,4.127,4.117,0,0,0,0,7.042,75.56,57.794102243112,31.824148,6,P-GPS,
8900,2023-10-20 19:06:43,-34.918261050516,-56.1687302382455,32.8084,43.6679804,15.110373843112,58.778354243112,33.136484,13.9137668,49.68504096,51.427495084,17,5,8.224,58.778354243112,32.8084,13.9137668,49.68504096,-2.684328,-13.645334,-6.71082,259.5, -12.4, -1.9,0,0,1684,1024,1684,1024,100,0,100,0,274.6,0,0,98,4.127,4.117,0,0,0,0,7.042,75.56,58.778354243112,32.8084,6,P-GPS,
9000,2023-10-20 19:06:43,-34.9182621603039,-56.1687371401338,33.792652,45.1771668,14.585439443112,59.762606243112,34.120736,13.9137668,51.789043652,53.53182586,17,5,8.224,59.762606243112,33.792652,13.9137668,51.789043652,-2.684328,-13.645334,-6.71082,259.5, -12.6, -2.1,0,0,1684,1024,1684,1024,100,0,100,0,274.6,0,0,98,4.127,4.117,0,0,0,0,7.042,75.56,59.762606243112,33.792652,6,P-GPS,
9100,2023-10-20 19:06:43,-34.9182632361778,-56.1687437956089,34.776904,46.6863532,14.060505043112,60.746858243112,35.104988,14.1374608,53.817915108,55.5610254,17,5,8.224,60.746858243112,34.776904,14.1374608,53.817915108,-2.684328,-13.869028,-6.71082,259.6, -11.6, -1.7,0,0,1684,1024,1684,1024,100,0,100,0,274.6,0,0,98,4.127,4.117,0,0,0,0,7.042,75.56,60.746858243112,34.776904,6,P-GPS,
9200,2023-10-20 19:06:43,-34.9182643695373,-56.1687508830933,35.761156,48.1955396,13.535570643112,61.731110243112,36.08924,14.3387854,55.978020164,57.72145854,17,5,8.256,61.731110243112,35.761156,14.3387854,55.978020164,-2.684328,-14.092722,-6.71082,259.6, -11.6, -2.8,0,0,1684,1024,1684,1024,100,0,100,0,274.6,0,0,98,4.139,4.134,0,0,0,0,6.469,75.56,61.731110243112,35.761156,6,P-GPS,
9300,2023-10-20 19:06:43,-34.9182653790325,-56.1687575789181,36.745408,49.704726,13.010636243112,62.715362243112,37.073492,14.3387854,58.014765636,59.758204012,17,5,8.256,62.715362243112,36.745408,14.3387854,58.014765636,-2.684328,-14.092722,-6.487126,259.5, -11.9, -3,0,0,1684,1024,1684,1024,100,0,100,0,274.6,0,0,98,4.139,4.134,0,0,0,0,6.469,75.56,62.715362243112,36.745408,6,P-GPS,
9400,2023-10-20 19:06:43,-34.9182665032061,-56.1687647978576,37.72966,51.2795292,12.420085043112,63.699614243112,38.057744,14.5624794,60.212928436,61.956366812,17,5,8.256,63.699614243112,37.72966,14.5624794,60.212928436,-2.684328,-14.316416,-6.487126,259.4, -11.7, -2.3,0,0,1684,1024,1684,1024,100,0,100,0,274.6,0,0,98,4.139,4.134,0,0,0,0,6.469,75.56,63.699614243112,37.72966,6,P-GPS,
9500,2023-10-20 19:06:44,-34.9182675775818,-56.1687717451106,38.713912,52.7887156,11.895150643112,64.683866243112,39.041996,14.8309122,62.3277579,64.07152436,17,5,8.256,64.683866243112,38.713912,14.8309122,62.3277579,-2.908022,-14.54011,-6.487126,259.5, -11.2, -2.2,0,0,1684,1024,1684,1024,100,0,100,0,274.6,0,0,98,4.139,4.134,0,0,0,0,6.469,75.56,64.683866243112,38.713912,6,P-GPS,
9600,2023-10-20 19:06:44,-34.918268732813,-56.168779128458,39.698164,54.297902,11.370216243112,65.668118243112,40.026248,14.8309122,64.576445636,66.320212096,17,5,8.256,65.668118243112,39.698164,14.8309122,64.576445636,-2.908022,-14.54011,-6.71082,259.5, -10.9, -2.4,0,0,1684,1024,1684,1024,100,0,100,0,274.6,0,0,98,4.139,4.134,0,0,0,0,6.469,75.56,65.668118243112,39.698164,6,P-GPS,
9700,2023-10-20 19:06:44,-34.9182696864135,-56.1687861617596,40.682416,55.8070884,10.845281843112,66.652370243112,41.0105,15.0546062,66.708991636,68.452758096,17,5,8.256,66.652370243112,40.682416,15.0546062,66.708991636,-2.908022,-14.763804,-6.487126,259.5, -10, -1.8,0,0,1684,1024,1684,1024,100,0,100,0,274.6,0,0,98,4.139,4.134,0,0,0,0,6.469,75.56,66.652370243112,40.682416,6,P-GPS,
9800,2023-10-20 19:06:44,-34.9182708433936,-56.1687936556037,41.666668,57.4147,10.221922243112,67.636622243112,41.666668,15.0546062,68.990159688,70.733926148,17,5,8.256,67.636622243112,41.666668,15.0546062,68.990159688,-2.908022,-14.763804,-6.71082,259.4, -10.6, -2,0,0,1684,1024,1684,1024,100,0,100,0,274.6,0,0,98,4.139,4.134,0,0,0,0,6.469,75.56,67.636622243112,41.666668,6,P-GPS,
9900,2023-10-20 19:06:44,-34.9182719878576,-56.168800835322,42.65092,58.9238864,9.696987843112,68.620874243112,41.666668,15.2559308,71.178151884,72.922246428,17,5,8.256,68.620874243112,42.65092,15.2559308,71.178151884,-2.908022,-14.987498,-6.71082,259.5, -11.6, -2.8,0,0,1684,1024,1684,1024,100,0,100,0,274.6,0,0,98,4.139,4.134,0,0,0,0,6.469,75.56,68.620874243112,42.65092,6,P-GPS,
10000,2023-10-20 19:06:44,-34.9182732147533,-56.1688084246179,43.635172,60.4330728,9.172053443112,69.605126243112,41.666668,15.2559308,73.491800252,75.23622288,17,5,8.256,69.605126243112,43.635172,15.2559308,73.491800252,-2.908022,-14.987498,-6.487126,259.5, -11.5, -2.2,0,0,1684,1024,1684,1024,100,0,100,0,274.6,0,0,98,4.139,4.134,0,0,0,0,6.469,75.56,69.605126243112,43.635172,6,P-GPS,
10100,2023-10-20 19:06:44,-34.9182744187792,-56.1688156271961,44.619424,62.007876,8.581502243112,70.589378243112,41.666668,15.2559308,75.69061922,77.435369932,17,5,8.256,70.589378243112,44.619424,15.2559308,75.69061922,-2.908022,-14.987498,-6.487126,259.5, -11.3, -1.3,0,0,1684,1024,1684,1024,100,0,100,0,274.6,0,0,98,4.139,4.134,0,0,0,0,6.469,75.56,70.589378243112,44.619424,6,P-GPS,
10200,2023-10-20 19:06:44,-34.9182757354804,-56.1688230997892,45.603676,63.5826792,7.990951043112,71.573630243112,41.666668,15.2559308,77.976052364,79.722115412,17,5,8.256,71.573630243112,45.603676,15.2559308,77.976052364,-2.908022,-14.987498,-6.263432,259.5, -12.1, -1.9,0,0,1684,1024,1684,1024,100,0,100,0,274.6,0,0,98,4.139,4.134,0,0,0,0,6.469,75.56,71.573630243112,45.603676,6,P-GPS,
10300,2023-10-20 19:06:44,-34.918276835693,-56.1688302678058,46.916012,65.4199496,7.466016643112,72.885966243112,41.666668,15.4796248,80.15748288,81.903545928,17,5,8.256,72.885966243112,46.916012,15.4796248,80.15748288,-2.908022,-15.211192,-6.487126,259.6, -12.3, -2.5,0,0,1684,1024,1684,1024,100,0,100,0,274.6,0,0,98,4.139,4.134,0,0,0,0,6.469,75.56,72.885966243112,46.916012,6,P-GPS,
10400,2023-10-20 19:06:44,-34.9182779794046,-56.1688378333014,47.900264,66.9947528,6.875465443112,73.870218243112,41.666668,15.4796248,82.45899214,84.205055188,17,5,8.254,73.870218243112,47.900264,15.4796248,82.45899214,-2.908022,-15.211192,-6.487126,259.4, -13.5, -3.3,0,0,1684,1024,1684,1024,100,0,100,0,274.6,0,0,98,4.137,4.122,0,0,0,0,5.79,75.74,73.870218243112,47.900264,6,P-GPS,
10500,2023-10-20 19:06:45,-34.9182791322615,-56.1688450982116,48.884516,68.5367476,6.317722643112,74.854470243112,41.666668,15.4796248,84.672574888,86.41896602,17,5,8.254,74.854470243112,48.884516,15.4796248,84.672574888,-2.908022,-15.211192,-6.487126,259.5, -13.9, -2.2,0,0,1684,1024,1684,1024,100,0,100,0,274.6,0,0,98,4.137,4.122,0,0,0,0,5.79,75.74,74.854470243112,48.884516,6,P-GPS,
10600,2023-10-20 19:06:45,-34.9182803186253,-56.1688526518176,49.868768,70.1115508,5.727171443112,75.838722243112,41.666668,15.7480576,86.97342798,88.719819112,17,5,8.254,75.838722243112,49.868768,15.7480576,86.97342798,-3.131716,-15.434886,-6.487126,259.6, -13.7, -1.8,0,0,1684,1024,1684,1024,100,0,100,0,274.6,0,0,98,4.137,4.122,0,0,0,0,5.79,75.74,75.838722243112,49.868768,6,P-GPS,
10700,2023-10-20 19:06:45,-34.9182815832684,-56.1688599921615,51.181104,71.9816296,5.169428643112,77.151058243112,41.666668,15.9717516,89.216866372,90.963585588,17,5,8.254,77.151058243112,51.181104,15.9717516,89.216866372,-3.131716,-15.65858,-6.71082,259.4, -13.3, -1.2,0,0,1684,1024,1684,1024,100,0,100,0,274.6,0,0,98,4.137,4.122,0,0,0,0,5.79,75.74,77.151058243112,51.181104,6,P-GPS,
10800,2023-10-20 19:06:45,-34.9182829264579,-56.1688677632922,52.165356,73.5892412,4.546069043112,78.135310243112,41.666668,15.9717516,91.591866448,93.339569916,17,5,8.254,78.135310243112,52.165356,15.9717516,91.591866448,-3.131716,-15.65858,-6.71082,259.4, -12.8, -1.1,0,0,1684,1024,1684,1024,100,0,100,0,274.6,0,0,98,4.137,4.122,0,0,0,0,5.79,75.74,78.135310243112,52.165356,6,P-GPS,
10900,2023-10-20 19:06:45,-34.918284148706,-56.1688751668875,53.149608,75.0984276,4.021134643112,79.119562243112,41.666668,16.1954456,93.851052872,95.599084424,17,5,8.254,79.119562243112,53.149608,16.1954456,93.851052872,-3.131716,-15.882274,-6.71082,259.3, -11.9, -1,0,0,1684,1024,1684,1024,100,0,100,0,274.6,0,0,98,4.137,4.122,0,0,0,0,5.79,75.74,79.119562243112,53.149608,6,P-GPS,
11000,2023-10-20 19:06:45,-34.9182855054572,-56.168882817199,54.13386,76.7060392,3.397775043112,80.103814243112,41.666668,16.1954456,96.191604128,97.940619932,17,5,8.254,80.103814243112,54.13386,16.1954456,96.191604128,-3.131716,-15.882274,-6.71082,259.7, -11.8, -1,0,0,1684,1024,1684,1024,100,0,100,0,274.6,0,0,98,4.137,4.122,0,0,0,0,5.79,75.74,80.103814243112,54.13386,6,P-GPS,
11100,2023-10-20 19:06:45,-34.9182867615575,-56.1688903008251,55.118112,78.2808424,2.807223843112,81.088066243112,41.666668,16.3967702,98.476381104,100.225724992,17,5,8.254,81.088066243112,55.118112,16.3967702,98.476381104,-3.131716,-16.105968,-6.71082,259.5, -12.3, -1.5,0,0,1684,1024,1684,1024,100,0,100,0,274.6,0,0,98,4.137,4.122,0,0,0,0,5.79,75.74,81.088066243112,55.118112,6,P-GPS,
11200,2023-10-20 19:06:45,-34.9182880839224,-56.1688981968498,56.430448,80.4790052,1.921397043112,82.400402243112,41.666668,16.3967702,100.887142336,102.636814308,17,5,8.254,82.400402243112,56.430448,16.3967702,100.887142336,-3.131716,-16.105968,-6.71082,259.9, -13.1, -0.4,0,0,1684,1024,1684,1024,100,0,100,0,274.6,0,0,98,4.137,4.122,0,0,0,0,5.79,75.74,82.400402243112,56.430448,6,P-GPS,
11300,2023-10-20 19:06:45,-34.9182892681887,-56.168905771644,57.4147,82.349084,1.035570243112,83.384654243112,41.666668,16.6204642,103.194229024,104.943900996,17,5,8.254,83.384654243112,57.4147,16.6204642,103.194229024,-3.131716,-16.329662,-6.71082,259.5, -12.2, -2.3,0,0,1684,1024,1684,1024,100,0,100,0,274.6,0,0,98,4.137,4.122,0,0,0,0,5.79,75.74,83.384654243112,57.4147,6,P-GPS,
11400,2023-10-20 19:06:45,-34.9182905202081,-56.168913795676,58.398952,84.2519712,0.116935043112,84.368906243112,41.666668,16.5757254,105.637798656,107.387470628,17,5,8.183,84.368906243112,58.398952,16.6204642,105.637798656,-2.908022,-16.329662,-6.71082,259.4, -10.9, -3.4,0,0,1684,1024,1684,1024,100,0,100,0,274.6,0,0,98,4.097,4.097,0,0,0,0,6.925,75.74,84.368906243112,58.398952,6,P-GPS,
11500,2023-10-20 19:06:46,-34.9182916142326,-56.1689214646892,59.383204,85.9908164,-0.637658156888,85.353158243112,41.666668,16.5757254,107.966210804,109.71621086,17,5,8.183,85.353158243112,59.383204,16.6204642,107.966210804,-2.908022,-16.329662,-6.71082,259.4, -10.9, -3.7,0,0,1684,1024,1684,1024,100,0,100,0,274.6,0,0,98,4.097,4.097,0,0,0,0,6.925,75.74,85.353158243112,59.383204,6,P-GPS,
11600,2023-10-20 19:06:46,-34.9182927454182,-56.1689295610415,60.039372,87.6640448,-1.654718556888,86.009326243112,41.666668,16.553356,110.422903796,112.173231936,17,5,8.183,86.009326243112,60.039372,16.6204642,110.422903796,-2.684328,-16.329662,-6.71082,259.2, -9.4, -6.3,0,0,1684,1024,1684,1024,100,0,100,0,274.6,0,0,98,4.097,4.097,0,0,0,0,6.925,75.74,86.009326243112,60.039372,6,P-GPS,
11700,2023-10-20 19:06:46,-34.918293825018,-56.1689374352928,61.023624,89.40289,-2.409311756888,86.993578243112,41.666668,16.7994194,112.811027232,114.561683456,17,5,8.183,86.993578243112,61.023624,16.7994194,112.811027232,-2.908022,-16.553356,-6.71082,259.9, -10.1, -4.1,0,0,1684,1024,1684,1024,100,0,100,0,274.6,0,0,98,4.097,4.097,0,0,0,0,6.925,75.74,86.993578243112,61.023624,6,P-GPS,
11800,2023-10-20 19:06:46,-34.9182949948856,-56.1689457439041,62.007876,91.4042024,-3.426372156888,87.977830243112,41.666668,16.5757254,115.332680856,117.083665164,17,5,8.183,87.977830243112,62.007876,16.7994194,115.332680856,-2.908022,-16.329662,-6.71082,259.5, -9.6, -3.3,0,0,1684,1024,1684,1024,100,0,100,0,274.6,0,0,98,4.097,4.097,0,0,0,0,6.925,75.74,87.977830243112,62.007876,6,P-GPS,
11900,2023-10-20 19:06:46,-34.9182959711313,-56.1689536642305,62.992128,93.2742812,-4.312198956888,88.962082243112,41.666668,16.6204642,117.727365972,119.479662616,17,5,8.183,88.962082243112,62.992128,16.7994194,117.727365972,-3.131716,-16.329662,-6.71082,259.1, -10.3, -3.4,0,0,1684,1024,1684,1024,100,0,100,0,274.6,0,0,98,4.097,4.097,0,0,0,0,6.925,75.74,88.962082243112,62.992128,6,P-GPS,
12000,2023-10-20 19:06:46,-34.9182972193206,-56.1689619322623,63.648296,94.816276,-5.198025756888,89.618250243112,41.666668,16.6204642,120.242457916,121.99475456,17,5,8.183,89.618250243112,63.648296,16.7994194,120.242457916,-3.131716,-16.329662,-6.71082,259.9, -10.6, -0.8,0,0,1684,1024,1684,1024,100,0,100,0,274.6,0,0,98,4.097,4.097,0,0,0,0,6.925,75.74,89.618250243112,63.648296,6,P-GPS,
12100,2023-10-20 19:06:46,-34.9182984568664,-56.1689697754834,64.632548,96.6863548,-6.083852556888,90.602502243112,41.666668,16.8441582,122.631893688,124.384190332,17,5,8.183,90.602502243112,64.632548,16.8441582,122.631893688,-3.131716,-16.553356,-6.71082,259.5, -10.2, -1.3,0,0,1684,1024,1684,1024,100,0,100,0,274.6,0,0,98,4.097,4.097,0,0,0,0,6.925,75.74,90.602502243112,64.632548,6,P-GPS,
12200,2023-10-20 19:06:46,-34.9182997376311,-56.1689780862678,65.6168,98.589242,-7.002487756888,91.586754243112,41.666668,16.7994194,125.161749412,126.914046056,17,5,8.183,91.586754243112,65.6168,16.8441582,125.161749412,-2.908022,-16.553356,-6.71082,259.4, -9, -3.3,0,0,1684,1024,1684,1024,100,0,100,0,274.6,0,0,98,4.097,4.097,0,0,0,0,6.925,75.74,91.586754243112,65.6168,6,P-GPS,
12300,2023-10-20 19:06:46,-34.9183011087223,-56.1689857484481,66.272968,100.1312368,-7.888314556888,92.242922243112,41.666668,16.7994194,127.506893844,129.26017474,17,5,8.183,92.242922243112,66.272968,16.8441582,127.506893844,-2.908022,-16.553356,-6.487126,259.6, -8.7, -3,0,0,1684,1024,1684,1024,100,0,100,0,274.6,0,0,98,4.097,4.097,0,0,0,0,6.925,75.74,92.242922243112,66.272968,6,P-GPS,
12400,2023-10-20 19:06:46,-34.9183024159264,-56.168994056349,67.25722,102.0013156,-8.774141356888,93.227174243112,41.666668,16.8441582,130.03773382,131.791014716,17,5,8.211,93.227174243112,67.25722,16.8441582,130.03773382,-3.131716,-16.553356,-6.487126,259.8, -10.2, -2.9,0,0,1684,1024,1684,1024,100,0,100,0,274.6,0,0,98,4.113,4.111,0,0,0,0,6.529,75.74,93.227174243112,67.25722,6,P-GPS,
12500,2023-10-20 19:06:47,-34.9183036976942,-56.1690020494762,67.913388,103.5761188,-9.692776556888,93.883342243112,41.666668,16.8441582,132.474085604,134.227694584,17,5,8.211,93.883342243112,67.913388,16.8441582,132.474085604,-3.131716,-16.553356,-6.487126,259.8, -10.6, -2.7,0,0,1684,1024,1684,1024,100,0,100,0,274.6,0,0,98,4.113,4.111,0,0,0,0,6.529,75.74,93.883342243112,67.913388,6,P-GPS,
12600,2023-10-20 19:06:47,-34.9183050473616,-56.1690104815814,68.89764,105.4461976,-10.578603356888,94.867594243112,41.666668,16.8441582,135.04429566,136.79790464,17,5,8.211,94.867594243112,68.89764,16.8441582,135.04429566,-3.131716,-16.553356,-6.487126,259.7, -10.7, -2.6,0,0,1684,1024,1684,1024,100,0,100,0,274.6,0,0,98,4.113,4.111,0,0,0,0,6.529,75.74,94.867594243112,68.89764,6,P-GPS,
12700,2023-10-20 19:06:47,-34.9183063732081,-56.1690188285991,69.881892,107.4147016,-11.562855356888,95.851846243112,41.666668,17.0678522,137.587602828,139.341539892,17,5,8.211,95.851846243112,69.881892,17.0678522,137.587602828,-3.131716,-16.77705,-6.487126,259.5, -10.8, -2.7,0,0,1684,1024,1684,1024,100,0,100,0,274.6,0,0,98,4.113,4.111,0,0,0,0,6.529,75.74,95.851846243112,69.881892,6,P-GPS,
12800,2023-10-20 19:06:47,-34.9183076646033,-56.169027367022,70.53806,108.9895048,-12.481490556888,96.508014243112,41.666668,17.0678522,140.185043856,141.93898092,17,5,8.211,96.508014243112,70.53806,17.0678522,140.185043856,-3.131716,-16.77705,-6.487126,259.5, -10.8, -3.2,0,0,1684,1024,1684,1024,100,0,100,0,274.6,0,0,98,4.113,4.111,0,0,0,0,6.529,75.74,96.508014243112,70.53806,6,P-GPS,
12900,2023-10-20 19:06:47,-34.9183089445017,-56.1690354134751,71.522312,110.8595836,-13.367317356888,97.492266243112,41.666668,17.0678522,142.637143672,144.391080736,17,5,8.211,97.492266243112,71.522312,17.0678522,142.637143672,-3.131716,-16.77705,-6.487126,259.5, -10.9, -2.6,0,0,1684,1024,1684,1024,100,0,100,0,274.6,0,0,98,4.113,4.111,0,0,0,0,6.529,75.74,97.492266243112,71.522312,6,P-GPS,
13000,2023-10-20 19:06:47,-34.9183103036597,-56.1690438755031,72.506564,112.8280876,-14.351569356888,98.476518243112,41.666668,17.0231134,145.216868164,146.970805228,17,5,8.211,98.476518243112,72.506564,17.0678522,145.216868164,-2.908022,-16.77705,-6.487126,259.7, -11.9, -1.8,0,0,1684,1024,1684,1024,100,0,100,0,274.6,0,0,98,4.113,4.111,0,0,0,0,6.529,75.74,98.476518243112,72.506564,6,P-GPS,
13100,2023-10-20 19:06:47,-34.918311328446,-56.1690513718547,73.490816,114.5997412,-15.138970956888,99.460770243112,41.666668,17.0231134,147.489834116,149.244099264,17,5,8.211,99.460770243112,73.490816,17.0678522,147.489834116,-2.908022,-16.77705,-6.487126,259.8, -11.3, -3.2,0,0,1684,1024,1684,1024,100,0,100,0,274.6,0,0,98,4.113,4.111,0,0,0,0,6.529,75.74,99.460770243112,73.490816,6,P-GPS,
13200,2023-10-20 19:06:47,-34.918312546939,-56.1690596924184,74.146984,116.2729696,-16.156031356888,100.11693824311,41.666668,17.0231134,150.018377504,151.772970736,17,5,8.211,100.11693824311,74.146984,17.0678522,150.018377504,-3.131716,-17.000744,-6.487126,259.7, -10.2, -3.2,0,0,1684,1024,1684,1024,100,0,100,0,274.6,0,0,98,4.113,4.111,0,0,0,0,6.529,75.74,100.11693824311,74.146984,6,P-GPS,
13300,2023-10-20 19:06:47,-34.918313764025,-56.1690677031816,75.131236,118.1430484,-17.041858156888,101.10119024311,41.666668,17.0678522,152.45571354,154.210306772,17,5,8.211,101.10119024311,75.131236,17.0678522,152.45571354,-3.131716,-16.77705,-6.71082,259.5, -10.3, -3.2,0,0,1684,1024,1684,1024,100,0,100,0,274.6,0,0,98,4.113,4.111,0,0,0,0,6.529,75.74,101.10119024311,75.131236,6,P-GPS,
13400,2023-10-20 19:06:47,-34.9183150716329,-56.1690761320689,76.115488,120.0131272,-17.927684956888,102.08544224311,41.666668,17.2915462,155.021986588,156.77657982,17,5,8.211,102.08544224311,76.115488,17.2915462,155.021986588,-3.131716,-17.000744,-6.71082,259.6, -10.9, -2,0,0,1684,1024,1684,1024,100,0,100,0,274.6,0,0,98,4.113,4.111,0,0,0,0,6.529,75.74,102.08544224311,76.115488,6,P-GPS,
13500,2023-10-20 19:06:47,-34.9183163904511,-56.1690842654484,76.771656,121.555122,-18.813511756888,102.74161024311,41.666668,17.336285,157.502301628,159.25689486,17,5,8.268,102.74161024311,76.771656,17.336285,157.502301628,-3.35541,-17.000744,-6.71082,259.3, -11.2, -1.7,0,0,1684,1024,1684,1024,100,0,100,0,274.6,0,0,98,4.131,4.132,0,0,0,0,5.444,75.74,102.74161024311,76.771656,6,P-GPS,
13600,2023-10-20 19:06:48,-34.9183178462084,-56.1690929882971,77.755908,123.5892428,-19.863380556888,103.72586224311,41.666668,17.336285,160.165031372,161.919952688,17,5,8.268,103.72586224311,77.755908,17.336285,160.165031372,-3.35541,-17.000744,-6.71082,259.3, -11.5, -1.7,0,0,1684,1024,1684,1024,100,0,100,0,274.6,0,0,98,4.131,4.132,0,0,0,0,5.444,75.74,103.72586224311,77.755908,6,P-GPS,
13700,2023-10-20 19:06:48,-34.9183191885934,-56.1691012241912,78.74016,125.4593216,-20.749207356888,104.71011424311,41.666668,17.336285,162.676842476,164.432091876,17,5,8.268,104.71011424311,78.74016,17.336285,162.676842476,-3.35541,-17.000744,-6.487126,259.3, -11.7, -1.4,0,0,1684,1024,1684,1024,100,0,100,0,274.6,0,0,98,4.131,4.132,0,0,0,0,5.444,75.74,104.71011424311,78.74016,6,P-GPS,
13800,2023-10-20 19:06:48,-34.9183206134493,-56.1691099144844,79.724412,127.460634,-21.766267756888,105.69436624311,41.666668,17.336285,165.32808928,167.08333868,17,5,8.268,105.69436624311,79.724412,17.336285,165.32808928,-3.35541,-17.000744,-6.487126,259.3, -10.1, -0.3,0,0,1684,1024,1684,1024,100,0,100,0,274.6,0,0,98,4.131,4.132,0,0,0,0,5.444,75.74,105.69436624311,79.724412,6,P-GPS,
13900,2023-10-20 19:06:48,-34.9183220597551,-56.1691181858594,80.708664,129.3307128,-22.652094556888,106.67861824311,41.666668,17.5376096,167.857288836,169.613522488,17,5,8.268,106.67861824311,80.708664,17.5376096,167.857288836,-3.35541,-17.224438,-6.487126,259.4, -9.9, -0.2,0,0,1684,1024,1684,1024,100,0,100,0,274.6,0,0,98,4.131,4.132,0,0,0,0,5.444,75.74,106.67861824311,80.708664,6,P-GPS,
14000,2023-10-20 19:06:48,-34.9183238125667,-56.1691271912606,81.692916,131.3320252,-23.669154956888,107.66287024311,41.666668,17.5823484,170.62336504,172.382551448,17,5,8.268,107.66287024311,81.692916,17.5823484,170.62336504,-3.579104,-17.224438,-6.487126,259.4, -10.1, -0.5,0,0,1684,1024,1684,1024,100,0,100,0,274.6,0,0,98,4.131,4.132,0,0,0,0,5.444,75.74,107.66287024311,81.692916,6,P-GPS,
14100,2023-10-20 19:06:48,-34.9183253344062,-56.1691358451533,82.677168,133.3333376,-24.686215356888,108.64712224311,41.666668,17.5823484,173.270346752,175.030189328,17,5,8.268,108.64712224311,82.677168,17.5823484,173.270346752,-3.579104,-17.224438,-6.71082,259.3, -9.6, -0.3,0,0,1488,1024,1024,1024,70,0,0,0,274.6,0,0,98,4.131,4.132,0,0,0,0,5.444,75.74,108.64712224311,82.677168,6,P-GPS,
14200,2023-10-20 19:06:48,-34.9183269139708,-56.1691449353076,83.66142,135.33465,-25.703275756888,109.63137424311,41.666668,17.5376096,176.049546316,177.81004506,17,5,8.268,109.63137424311,83.66142,17.5823484,176.049546316,-3.35541,-17.224438,-6.71082,259.5, -10.8, 0,0,0,1488,1024,1024,1024,70,0,0,0,274.6,0,0,98,4.131,4.132,0,0,0,0,5.444,75.74,109.63137424311,83.66142,6,P-GPS,
14300,2023-10-20 19:06:48,-34.9183282513923,-56.1691531090577,84.645672,137.2047288,-26.589102556888,110.61562624311,41.666668,17.5376096,178.542984716,180.303811544,17,5,8.268,110.61562624311,84.645672,17.5823484,178.542984716,-3.35541,-17.224438,-6.263432,259.5, -10.5, -0.7,0,0,1024,1024,1024,1024,0,0,0,0,274.6,0,0,98,4.131,4.132,0,0,0,0,5.444,75.74,110.61562624311,84.645672,6,P-GPS,
14400,2023-10-20 19:06:48,-34.9183297109276,-56.1691618780025,85.30184,138.8779572,-27.606162956888,111.27179424311,41.666668,17.336285,181.219493988,182.9806489,17,5,8.268,111.27179424311,85.30184,17.5823484,181.219493988,-3.35541,-17.000744,-5.816044,258.8, 12.2, -0.8,0,0,1024,1024,1024,1024,0,0,0,0,274.6,0,0,98,4.131,4.132,0,0,0,0,5.444,75.74,111.27179424311,85.30184,6,P-GPS,
14500,2023-10-20 19:06:49,-34.9183309079512,-56.169169755618,86.286092,140.5183772,-28.262330956888,112.25604624311,41.666668,16.3967702,183.616147608,185.37730252,17,5,8.256,112.25604624311,86.286092,17.5823484,183.616147608,-3.131716,-16.105968,-5.59235,258.7, 23.4, -0.3,0,0,1024,1024,1024,1024,0,0,0,0,274.6,0,0,98,4.15,4.136,0,0,0,0,5.265,75.74,112.25604624311,86.286092,6,P-GPS,
14600,2023-10-20 19:06:49,-34.9183321322284,-56.1691779916792,86.94226,141.5026292,-28.590414956888,112.91221424311,41.666668,15.4796248,186.12041278,187.881567692,17,5,8.256,112.91221424311,86.94226,17.5823484,186.12041278,-2.908022,-15.211192,-4.697574,259.2, 19.3, -0.1,0,0,1024,1024,1024,1024,0,0,0,0,274.6,0,0,98,4.15,4.136,0,0,0,0,5.265,75.74,112.91221424311,86.94226,6,P-GPS,
14700,2023-10-20 19:06:49,-34.918333066571,-56.1691845454234,87.270344,142.0931804,-28.852882156888,113.24029824311,41.666668,14.7861734,188.11024224,189.871397152,17,5,8.256,113.24029824311,87.270344,17.5823484,188.11024224,-2.684328,-14.54011,-3.802798,259.1, 19.5, -0.9,0,0,1024,1024,1024,1024,0,0,0,0,274.6,0,0,98,4.15,4.136,0,0,0,0,5.265,75.74,113.24029824311,87.270344,6,P-GPS,
14800,2023-10-20 19:06:49,-34.9183337188084,-56.1691909941037,87.926512,142.9790072,-29.082540956888,113.89646624311,41.666668,14.092722,190.049874848,191.815294852,17,5,8.256,113.89646624311,87.926512,17.5823484,190.049874848,-2.460634,-13.869028,-2.908022,258.9, 20.1, -1.6,0,0,1024,1024,1024,1024,0,0,0,0,274.6,0,0,98,4.15,4.136,0,0,0,0,5.265,75.74,113.89646624311,87.926512,6,P-GPS,
14900,2023-10-20 19:06:49,-34.9183345373751,-56.1691976023857,88.254596,143.5039416,-29.279391356888,114.22455024311,41.666668,13.6005952,192.048234492,193.814638748,17,5,8.256,114.22455024311,88.254596,17.5823484,192.048234492,-2.23694,-13.42164,-2.013246,259.2, 19.6, -0.3,0,0,1024,1024,1024,1024,0,0,0,0,274.6,0,0,98,4.15,4.136,0,0,0,0,5.265,75.74,114.22455024311,88.254596,6,P-GPS,
15000,2023-10-20 19:06:49,-34.9183353542156,-56.1692043120122,88.254596,143.7336004,-29.509050156888,114.22455024311,41.666668,12.9518826,194.075793612,195.844166372,17,5,8.256,114.22455024311,88.254596,17.5823484,194.075793612,-2.23694,-12.750558,-0.894776,259.3, 21.9, -0.3,0,0,1024,1024,1024,1024,0,0,0,0,274.6,0,0,98,4.15,4.136,0,0,0,0,5.265,75.74,114.22455024311,88.254596,6,P-GPS,
15100,2023-10-20 19:06:49,-34.9183361077943,-56.1692100993837,88.58268,144.2257264,-29.673092156888,114.55263424311,41.666668,12.2360618,195.82841834,197.597119184,17,5,8.256,114.55263424311,88.58268,17.5823484,195.82841834,-2.013246,-12.079476,-0.223694,258.7, 23.2, -1,0,0,1024,1024,1024,1024,0,0,0,0,274.6,0,0,98,4.15,4.136,0,0,0,0,5.265,75.74,114.55263424311,88.58268,6,P-GPS,
15200,2023-10-20 19:06:49,-34.9183368441441,-56.1692157552791,88.58268,144.4225768,-29.869942556888,114.55263424311,41.666668,11.3189164,197.54101682,199.310373832,17,5,8.256,114.55263424311,88.58268,17.5823484,197.54101682,-1.789552,-11.1847,0,258.8, 20.2, 0.3,0,0,1024,1024,1024,1024,0,0,0,0,274.6,0,0,98,4.15,4.136,0,0,0,0,5.265,75.74,114.55263424311,88.58268,6,P-GPS,
15300,2023-10-20 19:06:49,-34.9183373604,-56.1692203476224,88.910764,144.8818944,-30.001176156888,114.88071824311,41.666668,10.625465,198.925859384,200.6971849,17,5,8.256,114.88071824311,88.910764,17.5823484,198.925859384,-1.565858,-10.513618,0,258.6, 16.4, 1.3,0,0,1024,1024,1024,1024,0,0,0,0,274.6,0,0,98,4.15,4.136,0,0,0,0,5.265,75.74,114.88071824311,88.910764,6,P-GPS,
15400,2023-10-20 19:06:49,-34.9183377983342,-56.1692247967045,89.238848,145.341212,-30.132409756888,115.20880224311,41.666668,9.9096442,200.263785936,202.037736124,17,5,8.256,115.20880224311,89.238848,17.5823484,200.263785936,-1.11847,-9.842536,0,258.7, 17.4, -0.2,0,0,1024,1024,1024,1024,0,0,0,0,274.6,0,0,98,4.15,4.136,0,0,0,0,5.265,75.74,115.20880224311,89.238848,6,P-GPS,
15500,2023-10-20 19:06:50,-34.9183382140694,-56.1692290515814,89.566932,145.833338,-30.296451756888,115.53688624311,41.666668,9.2385622,201.542985452,203.319560312,17,5,8.408,115.53688624311,89.566932,17.5823484,201.542985452,-1.11847,-9.171454,0,258.7, 16.9, -1.2,0,0,1024,1024,1024,1024,0,0,0,0,274.6,0,0,98,4.174,4.17,0,0,0,0,3.364,75.92,115.53688624311,89.566932,6,P-GPS,
15600,2023-10-20 19:06:50,-34.9183386092276,-56.1692332800879,89.566932,145.9317632,-30.394876956888,115.53688624311,41.666668,8.5451108,202.812998616,204.592854316,17,5,8.408,115.53688624311,89.566932,17.5823484,202.812998616,-0.894776,-8.500372,0,258.8, 16.7, -1.5,0,0,1024,1024,1024,1024,0,0,0,0,274.6,0,0,98,4.174,4.17,0,0,0,0,3.364,75.92,115.53688624311,89.566932,6,P-GPS,
