time(millisecond),datetime(utc),latitude,longitude,height_above_takeoff(feet),height_above_ground_at_drone_location(feet),ground_elevation_at_drone_location(feet),altitude_above_seaLevel(feet),height_sonar(feet),speed(mph),distance(feet),mileage(feet),satellites,gpslevel,voltage(v),max_altitude(feet),max_ascent(feet),max_speed(mph),max_distance(feet), xSpeed(mph), ySpeed(mph), zSpeed(mph), compass_heading(degrees), pitch(degrees), roll(degrees),isPhoto,isVideo,rc_elevator,rc_aileron,rc_throttle,rc_rudder,rc_elevator(percent),rc_aileron(percent),rc_throttle(percent),rc_rudder(percent),gimbal_heading(degrees),gimbal_pitch(degrees),gimbal_roll(degrees),battery_percent,voltageCell1,voltageCell2,voltageCell3,voltageCell4,voltageCell5,voltageCell6,current(A),battery_temperature(f),altitude(feet),ascent(feet),flycStateRaw,flycState,message
0,2022-10-21 19:10:06,-34.9540224397604,-54.9407334542134,0,0,16.504038585872,16.504038585872,0,0,0,0,25,5,0,16.504038585872,0,0,0,0,0,0,253.7, 0.5, 5.7,0,0,364,364,364,1684,-100,-100,-100,100,265,0,0,95,4.284,4.278,0,0,0,0,0,76.64,16.504038585872,0,41,Motors_Started,
100,2022-10-21 19:10:06,-34.9540224437271,-54.940733453093,0,0,16.504038585872,16.504038585872,0,0,0.0014855151394,0.0014855151394,25,5,0,16.504038585872,0,0,0.0014855151394,0,0,0,253.7, 0.5, 5.6,0,0,364,364,364,1684,-100,-100,-100,100,265,0,0,95,4.284,4.278,0,0,0,0,0,76.64,16.504038585872,0,41,Motors_Started,
200,2022-10-21 19:10:06,-34.9540224471834,-54.9407334602667,0,0,16.504038585872,16.504038585872,0,0,0.00325753291264,0.00397391745,25,5,0,16.504038585872,0,0,0.00325753291264,0,0,0,253.7, 0.6, 5.6,0,0,1024,813,892,1087,0,-32,-20,10,265,0,0,95,4.284,4.278,0,0,0,0,0,76.64,16.504038585872,0,41,Motors_Started,"En vuelo. Setting new Return-To-Home altitude to 100m (328 ft). Data Recorder File Index is 15. Setting new Maximum Flight Altitude to 120m (394 ft)"
300,2022-10-21 19:10:07,-34.9540224542856,-54.9407335230255,0,0.032808400000002,16.471230185872,16.504038585872,0,0,0.021248688344,0.0229189967964,25,5,0,16.504038585872,0,0,0.021248688344,0,0,0,253.7, 0.5, 5.6,0,0,1024,813,892,1087,0,-32,-20,10,265,0,0,95,4.284,4.278,0,0,0,0,0,76.64,16.504038585872,0,41,Motors_Started,
400,2022-10-21 19:10:07,-34.9540224447073,-54.9407335598013,0,0.032808400000002,16.471230185872,16.504038585872,0,0,0.0316260180724,0.034458006352,25,5,0,16.504038585872,0,0,0.0316260180724,0,0,0,253.6, 0.5, 5.7,0,0,1024,1024,1024,1024,0,0,0,0,265,0,0,95,4.284,4.278,0,0,0,0,0,76.64,16.504038585872,0,41,Motors_Started,
500,2022-10-21 19:10:07,-34.9540223924074,-54.9407336113347,0,0.032808400000002,16.471230185872,16.504038585872,0,0,0.050060369056,0.058985238108,25,5,0,16.504038585872,0,0,0.050060369056,0,0,0,253.7, 0.5, 5.7,0,0,1024,1024,1024,1024,0,0,0,0,265,0,0,95,4.284,4.278,0,0,0,0,0,76.64,16.504038585872,0,41,Motors_Started,
600,2022-10-21 19:10:07,-34.9540223475166,-54.9407336610638,0,0.032808400000002,16.471230185872,16.504038585872,0,0,0.070418637424,0.081107614144,25,5,0,16.504038585872,0,0,0.070418637424,0,0,0,253.7, 0.5, 5.7,0,0,1024,1024,1024,1024,0,0,0,0,265,0,0,95,4.284,4.278,0,0,0,0,0,76.64,16.504038585872,0,41,Motors_Started,
700,2022-10-21 19:10:07,-34.9540222518874,-54.9407338210895,0,0.032808400000002,16.471230185872,16.504038585872,0,0,0.12936188078,0.1403297289,25,5,0,16.504038585872,0,0,0.12936188078,0,0,0,253.7, 0.5, 5.7,0,0,1024,1024,1326,1024,0,0,46,0,265,0,0,95,4.284,4.278,0,0,0,0,0,76.64,16.504038585872,0,41,Motors_Started,
800,2022-10-21 19:10:07,-34.9540222385932,-54.9407338708317,0,0.032808400000002,16.471230185872,16.504038585872,0,0,0.144595805152,0.155975070608,26,5,0,16.504038585872,0,0,0.144595805152,0,0,0,253.6, 0.5, 5.7,0,0,1024,1024,1258,1024,0,0,35,0,265,0,0,95,4.284,4.278,0,0,0,0,0,76.64,16.504038585872,0,41,Motors_Started,
900,2022-10-21 19:10:07,-34.9540222374577,-54.940733920434,0,0.032808400000002,16.471230185872,16.504038585872,0,0,0.15774934888,0.17081365376,26,5,0,16.504038585872,0,0,0.15774934888,0,0,0,253.6, 0.5, 5.7,0,0,1024,1024,1024,1024,0,0,0,0,265,0,0,95,4.284,4.278,0,0,0,0,0,76.64,16.504038585872,0,41,Motors_Started,
1000,2022-10-21 19:10:07,-34.9540222383594,-54.9407339660918,0,0.032808400000002,16.471230185872,16.504038585872,0,0,0.16979331252,0.184471134512,26,5,0,16.504038585872,0,0,0.16979331252,0,0,0,253.7, 0.5, 5.8,0,0,1024,1024,1024,1024,0,0,0,0,265,0,0,95,4.284,4.278,0,0,0,0,0,76.64,16.504038585872,0,41,Motors_Started,
1100,2022-10-21 19:10:07,-34.9540222964921,-54.9407340636339,0,0.032808400000002,16.471230185872,16.504038585872,0,0,0.189586292156,0.220535440128,26,5,0,16.504038585872,0,0,0.189586292156,0,0,0,253.7, 0.5, 5.7,0,0,1024,1024,1024,1024,0,0,0,0,265,0,0,95,4.284,4.278,0,0,0,0,0,76.64,16.504038585872,0,10,Assisted_Takeoff,
1200,2022-10-21 19:10:07,-34.9540223018269,-54.94073410729,0,0.032808400000002,16.471230185872,16.504038585872,0,0,0.201672578632,0.233734587532,26,5,8.572,16.504038585872,0,0,0.201672578632,0,0,0,253.7, 0.5, 5.7,0,0,1024,1024,1024,1024,0,0,0,0,265,0,0,95,4.284,4.278,0,0,0,0,1.099,76.64,16.504038585872,0,10,Assisted_Takeoff,
1300,2022-10-21 19:10:08,-34.9540223062866,-54.9407341523416,0,0.032808400000002,16.471230185872,16.504038585872,0,0,0.214369429432,0.247304469856,26,5,8.572,16.504038585872,0,0,0.214369429432,0,0,0,253.7, 0.5, 5.7,0,0,1024,1024,1024,1024,0,0,0,0,265,0,0,95,4.284,4.278,0,0,0,0,1.099,76.64,16.504038585872,0,10,Assisted_Takeoff,
1400,2022-10-21 19:10:08,-34.9540222997876,-54.9407341836664,0,0.032808400000002,16.471230185872,16.504038585872,0,0,0.224030190896,0.256967199824,25,5,8.572,16.504038585872,0,0,0.224030190896,0,0,0,253.7, 0.5, 5.7,0,0,1024,1024,1044,1024,0,0,3,0,265,0,0,95,4.284,4.278,0,0,0,0,1.099,76.64,16.504038585872,0,10,Assisted_Takeoff,
1500,2022-10-21 19:10:08,-34.9540222502577,-54.9407341750424,0,0.032808400000002,16.471230185872,16.504038585872,0,0,0.226370085984,0.275221137416,25,5,8.572,16.504038585872,0,0,0.226370085984,0,0,0,253.7, 0.5, 5.7,0,0,1024,1024,1180,1024,0,0,24,0,265,0,0,95,4.284,4.278,0,0,0,0,1.099,76.64,16.504038585872,0,10,Assisted_Takeoff,
1600,2022-10-21 19:10:08,-34.9540221574941,-54.9407341204203,0,0.032808400000002,16.471230185872,16.504038585872,0,0,0.22426345862,0.312801191112,25,5,8.572,16.504038585872,0,0,0.226370085984,0,0,0,253.7, 0.5, 5.3,0,0,1024,1024,1534,1024,0,0,77,0,265,0,0,95,4.284,4.278,0,0,0,0,1.099,76.64,16.504038585872,0,10,Assisted_Takeoff,
1700,2022-10-21 19:10:08,-34.9540221478009,-54.9407341468403,0,0.032808400000002,16.471230185872,16.504038585872,0,0,0.232906175432,0.321457359368,25,5,8.572,16.504038585872,0,0,0.232906175432,0,0,0,253.6, 0.3, 4.9,0,0,1024,1024,1672,1024,0,0,98,0,265,0,0,95,4.284,4.278,0,0,0,0,1.099,76.64,16.504038585872,0,10,Assisted_Takeoff,
1800,2022-10-21 19:10:08,-34.954022141904,-54.9407341775452,0,0.032808400000002,16.471230185872,16.504038585872,0,0,0.242066280712,0.3308891182,25,5,8.572,16.504038585872,0,0,0.242066280712,0,0,0,253.5, 0, 4.3,0,0,1024,1024,1339,1024,0,0,48,0,265,0,0,95,4.284,4.278,0,0,0,0,1.099,76.64,16.504038585872,0,10,Assisted_Takeoff,
1900,2022-10-21 19:10:08,-34.9540221496649,-54.9407342267307,0,0.032808400000002,16.471230185872,16.504038585872,0,0,0.254102042252,0.3458661528,25,5,8.572,16.504038585872,0,0,0.254102042252,0,0,0,253, -0.2, 3.7,0,0,1024,1024,1244,1024,0,0,33,0,264.8,0,0,95,4.284,4.278,0,0,0,0,1.099,76.64,16.504038585872,0,10,Assisted_Takeoff,
2000,2022-10-21 19:10:08,-34.9540221831345,-54.9407343431395,0,0.032808400000002,16.471230185872,16.504038585872,0,0,0.281827764924,0.38275591776,25,5,8.572,16.504038585872,0,0,0.281827764924,0,0,0,251.9, -0.6, 2.6,0,0,1024,1024,1684,1024,0,0,100,0,264,0,0,95,4.284,4.278,0,0,0,0,1.099,76.64,16.504038585872,0,10,Assisted_Takeoff,
2100,2022-10-21 19:10:08,-34.9540221650691,-54.9407343826624,0,0.032808400000002,16.471230185872,16.504038585872,0.328084,0,0.295173565876,0.39628938276,25,5,8.572,16.504038585872,0,0,0.295173565876,0,0,0,250.6, -1.6, 0.8,0,0,1024,1024,1684,1024,0,0,100,0,262.8,0,0,95,4.284,4.278,0,0,0,0,1.099,76.64,16.504038585872,0,10,Assisted_Takeoff,
2200,2022-10-21 19:10:09,-34.9540221276593,-54.9407344640978,0,0.032808400000002,16.471230185872,16.504038585872,0.328084,0,0.322745745236,0.42420605032,25,5,8.58,16.504038585872,0,0,0.322745745236,0,0,0,249.2, -2.7, 0,0,0,1024,1024,1684,1024,0,0,100,0,261.4,0,0,95,4.256,4.245,0,0,0,0,1.373,76.64,16.504038585872,0,10,Assisted_Takeoff,
2300,2022-10-21 19:10:09,-34.9540220790595,-54.9407346345773,0,0.065616800000002,16.438421785872,16.504038585872,0.328084,0.223694,0.3767060488,0.47817914916,25,5,8.58,16.504038585872,0,0.223694,0.3767060488,0,-0.223694,-0.223694,248.1, -2.9, -0.6,0,0,1024,1024,1684,1024,0,0,100,0,260.2,0,0,95,4.256,4.245,0,0,0,0,1.373,76.64,16.504038585872,0,6,P-GPS,
2400,2022-10-21 19:10:09,-34.9540220791244,-54.9407348455963,0,0.065616800000002,16.438421785872,16.504038585872,0.328084,0.223694,0.43638124756,0.54128282572,25,5,8.58,16.504038585872,0,0.223694,0.43638124756,0,-0.223694,-0.894776,248.4, 0, -0.5,0,0,1024,1024,1659,1024,0,0,96,0,260.2,0,0,95,4.256,4.245,0,0,0,0,1.373,76.64,16.504038585872,0,6,P-GPS,
2500,2022-10-21 19:10:09,-34.9540220572014,-54.9407350921746,0.328084,0.3937008,16.438421785872,16.832122585872,0.656168,0.223694,0.50930775908,0.61544949476,25,5,8.58,16.832122585872,0.328084,0.223694,0.50930775908,0,-0.223694,-1.565858,248.4, 1.3, -0.5,0,0,1024,1024,1024,1024,0,0,0,0,260.2,0,0,95,4.256,4.245,0,0,0,0,1.373,76.64,16.832122585872,0.328084,6,P-GPS,
2600,2022-10-21 19:10:09,-34.9540220081657,-54.9407353068297,0.656168,0.7217848,16.438421785872,17.160206585872,0.984252,0.223694,0.57594161948,0.682086636,25,5,8.58,17.160206585872,0.656168,0.223694,0.57594161948,0,-0.223694,-2.23694,248.4, 1.2, -1,0,0,1024,1024,1024,1024,0,0,0,0,260.2,0,0,95,4.256,4.245,0,0,0,0,1.373,76.64,17.160206585872,0.656168,6,P-GPS,
2700,2022-10-21 19:10:09,-34.9540218903781,-54.9407355109336,0.984252,1.0826772,16.405613385872,17.488290585872,1.312336,0.223694,0.64687009944,0.75673230768,25,5,8.58,17.488290585872,0.984252,0.223694,0.64687009944,0,-0.223694,-2.460634,248.5, 0.9, -1.1,0,0,1024,1024,1024,1024,0,0,0,0,260.2,0,0,95,4.256,4.245,0,0,0,0,1.373,76.64,17.488290585872,0.984252,6,P-GPS,
2800,2022-10-21 19:10:09,-34.9540216584747,-54.9407357604073,1.312336,1.4107612,16.405613385872,17.816374585872,1.64042,0,0.74622377716,0.86953414856,25,5,8.58,17.816374585872,1.312336,0.223694,0.74622377716,0,0,-2.013246,248.6, 1, -1.2,0,0,1024,1024,1024,1024,0,0,0,0,260.2,0,0,95,4.256,4.245,0,0,0,0,1.373,76.64,17.816374585872,1.312336,6,P-GPS,
2900,2022-10-21 19:10:09,-34.9540215921845,-54.9407358897445,1.64042,1.7388452,16.405613385872,18.144458585872,1.968504,0,0.7912401828,0.91514766708,25,5,8.58,18.144458585872,1.64042,0.223694,0.7912401828,0,0,-1.789552,248.6, 1.2, -1.5,0,0,1024,1024,1024,1024,0,0,0,0,260.2,0,0,95,4.256,4.245,0,0,0,0,1.373,76.64,18.144458585872,1.64042,6,P-GPS,
3000,2022-10-21 19:10:09,-34.9540215360734,-54.940735987544,1.64042,1.7388452,16.405613385872,18.144458585872,2.296588,0,0.82619425216,0.95084648712,26,5,8.58,18.144458585872,1.64042,0.223694,0.82619425216,0,0,-1.11847,248.6, 1.3, -1.3,0,0,1024,1024,1024,1024,0,0,0,0,260.2,0,0,95,4.256,4.245,0,0,0,0,1.373,76.64,18.144458585872,1.64042,6,P-GPS,
3100,2022-10-21 19:10:09,-34.9540214866661,-54.9407360464726,1.968504,2.0341208,16.438421785872,18.472542585872,2.624672,0,0.84959976472,0.97605646168,26,5,8.58,18.472542585872,1.968504,0.223694,0.84959976472,0,0,-0.671082,248.7, 1.1, -1.4,0,0,1024,1024,1024,1024,0,0,0,0,260.2,0,0,95,4.256,4.245,0,0,0,0,1.373,76.64,18.472542585872,1.968504,6,P-GPS,
3200,2022-10-21 19:10:09,-34.9540214359613,-54.9407360838892,1.968504,2.0341208,16.438421785872,18.472542585872,2.624672,0,0.86746721936,0.99767719728,26,5,8.343,18.472542585872,1.968504,0.223694,0.86746721936,0,0,-0.223694,248.7, 1, -1.2,0,0,1024,1024,1024,1024,0,0,0,0,260.2,0,0,95,4.225,4.221,0,0,0,0,4.238,76.64,18.472542585872,1.968504,6,P-GPS,
3300,2022-10-21 19:10:10,-34.9540213119218,-54.9407360081838,1.968504,2.0341208,16.438421785872,18.472542585872,2.624672,0,0.86752627448,1.0482775926,26,5,8.343,18.472542585872,1.968504,0.223694,0.86752627448,0,0,0,248.7, 1.6, -0.8,0,0,1024,1024,1024,1024,0,0,0,0,260.2,0,0,95,4.225,4.221,0,0,0,0,4.238,76.64,18.472542585872,1.968504,6,P-GPS,"Punto de origen actualizado. Altitud de RPO establecida en 100m (Code: 3000001)"
3400,2022-10-21 19:10:10,-34.9540212283644,-54.940736005909,1.968504,2.0341208,16.438421785872,18.472542585872,2.624672,0,0.881807771,1.0787730004,26,5,8.343,18.472542585872,1.968504,0.223694,0.881807771,0,0,0,248.7, 1.3, -0.5,0,0,1024,1024,1024,1024,0,0,0,0,260.2,0,0,95,4.225,4.221,0,0,0,0,4.238,76.64,18.472542585872,1.968504,6,P-GPS,
3500,2022-10-21 19:10:10,-34.9540211234703,-54.9407359860859,1.968504,2.0341208,16.438421785872,18.472542585872,2.624672,0,0.89658467436,1.11750003576,26,5,8.343,18.472542585872,1.968504,0.223694,0.89658467436,0,0,0,248.7, 1, -0.8,0,0,1024,1024,1024,1024,0,0,0,0,260.2,0,0,95,4.225,4.221,0,0,0,0,4.238,76.64,18.472542585872,1.968504,6,P-GPS,
3600,2022-10-21 19:10:10,-34.9540210285731,-54.9407359611593,1.968504,2.0341208,16.438421785872,18.472542585872,2.624672,0,0.90944556716,1.15291670356,26,5,8.343,18.472542585872,1.968504,0.223694,0.90944556716,0,0,0,249, 0.8, -0.8,0,0,1024,1024,1024,1024,0,0,0,0,260.2,0,0,95,4.225,4.221,0,0,0,0,4.238,76.64,18.472542585872,1.968504,6,P-GPS,
3700,2022-10-21 19:10:10,-34.9540209552345,-54.9407359764003,1.968504,2.0341208,16.438421785872,18.472542585872,2.624672,0,0.92855317932,1.18005909288,26,5,8.343,18.472542585872,1.968504,0.223694,0.92855317932,0,0,0,249.4, 0.7, -0.7,0,0,1024,1024,1024,1024,0,0,0,0,260.2,0,0,95,4.225,4.221,0,0,0,0,4.238,76.64,18.472542585872,1.968504,6,P-GPS,
3800,2022-10-21 19:10:10,-34.954020905816,-54.940735954226,1.968504,2.0341208,16.438421785872,18.472542585872,2.624672,0,0.93386814012,1.19926841108,26,5,8.343,18.472542585872,1.968504,0.223694,0.93386814012,0,0,0,249.9, 0.4, -0.6,0,0,1024,1024,1024,1024,0,0,0,0,260.2,0,0,95,4.225,4.221,0,0,0,0,4.238,76.64,18.472542585872,1.968504,6,P-GPS,
3900,2022-10-21 19:10:10,-34.9540208640954,-54.9407358825702,1.968504,2.0341208,16.438421785872,18.472542585872,2.624672,0,0.92617457032,1.22555450116,26,5,8.343,18.472542585872,1.968504,0.223694,0.93386814012,0,0,0,250.4, 0.2, -0.8,0,0,1024,1024,1024,1024,0,0,0,0,260.2,0,0,95,4.225,4.221,0,0,0,0,4.238,76.64,18.472542585872,1.968504,6,P-GPS,
4000,2022-10-21 19:10:10,-34.9540208264659,-54.9407358167136,1.968504,2.0341208,16.438421785872,18.472542585872,2.624672,0,0.91954399268,1.24956040744,26,5,8.343,18.472542585872,1.968504,0.223694,0.93386814012,0,0,0,250.9, 0.1, -1,0,0,1024,1024,1024,1024,0,0,0,0,260.2,0,0,95,4.225,4.221,0,0,0,0,4.238,76.64,18.472542585872,1.968504,6,P-GPS,
4100,2022-10-21 19:10:10,-34.9540208784483,-54.940735711489,1.968504,2.0341208,16.438421785872,18.472542585872,2.624672,0,0.88324805976,1.28629925376,26,5,8.343,18.472542585872,1.968504,0.223694,0.93386814012,0,0,0,251.5, 0.2, -1.1,0,0,1024,1024,1024,1024,0,0,0,0,260.2,0,0,95,4.225,4.221,0,0,0,0,4.238,76.64,18.472542585872,1.968504,6,P-GPS,
4200,2022-10-21 19:10:10,-34.9540208527556,-54.9407356720406,1.968504,2.0341208,16.438421785872,18.472542585872,2.952756,0,0.88040029064,1.30136815188,26,5,8.427,18.472542585872,1.968504,0.223694,0.93386814012,0,0,0,251.9, 0.4, -1.1,0,0,1024,1024,1024,1024,0,0,0,0,260.2,0,0,95,4.208,4.202,0,0,0,0,3.649,76.64,18.472542585872,1.968504,6,P-GPS,
4300,2022-10-21 19:10:11,-34.954020823706,-54.9407356633578,1.968504,2.0341208,16.438421785872,18.472542585872,2.952756,0,0.88546918844,1.31228022572,26,5,8.427,18.472542585872,1.968504,0.223694,0.93386814012,0,0,0,252.3, 0.6, -1.1,0,0,1024,1024,1024,1024,0,0,0,0,260.2,0,0,95,4.208,4.202,0,0,0,0,3.649,76.64,18.472542585872,1.968504,6,P-GPS,
4400,2022-10-21 19:10:11,-34.9540208077505,-54.9407356565565,1.968504,2.0341208,16.438421785872,18.472542585872,2.952756,0,0.8878445166,1.31844492408,26,5,8.427,18.472542585872,1.968504,0.223694,0.93386814012,0,0,0,252.7, 0.5, -1,0,0,1024,1024,1024,1024,0,0,0,0,260.2,0,0,95,4.208,4.202,0,0,0,0,3.649,76.64,18.472542585872,1.968504,6,P-GPS,
4500,2022-10-21 19:10:11,-34.9540209049943,-54.9407357928512,1.968504,2.0341208,16.438421785872,18.472542585872,2.952756,0,0.89589241712,1.37248035888,26,5,8.427,18.472542585872,1.968504,0.223694,0.93386814012,0,0,0,253.1, 0.3, -1,0,0,1024,1024,1024,1024,0,0,0,0,260.2,0,0,95,4.208,4.202,0,0,0,0,3.649,76.64,18.472542585872,1.968504,6,P-GPS,
4600,2022-10-21 19:10:11,-34.9540209170476,-54.940735794666,1.968504,2.0341208,16.438421785872,18.472542585872,2.952756,0,0.89357614408,1.37691277372,26,5,8.427,18.472542585872,1.968504,0.223694,0.93386814012,0,0,0,253.4, 0.4, -1.1,0,0,1024,1024,1024,1024,0,0,0,0,260.2,0,0,95,4.208,4.202,0,0,0,0,3.649,76.64,18.472542585872,1.968504,6,P-GPS,
4700,2022-10-21 19:10:11,-34.9540208988425,-54.940735791461,1.968504,2.0341208,16.438421785872,18.472542585872,2.952756,0,0.89697181348,1.38362209152,26,5,8.427,18.472542585872,1.968504,0.223694,0.93386814012,0,0,0,253.8, 0.3, -1,0,0,1024,1024,1024,1024,0,0,0,0,260.2,0,0,95,4.208,4.202,0,0,0,0,3.649,76.64,18.472542585872,1.968504,6,P-GPS,
4800,2022-10-21 19:10:11,-34.9540208885171,-54.9407357835753,1.968504,2.0341208,16.438421785872,18.472542585872,2.952756,0,0.8975065904,1.38806762972,26,5,8.427,18.472542585872,1.968504,0.223694,0.93386814012,0,0,0,254.2, 0.2, -0.8,0,0,1024,1024,1024,1024,0,0,0,0,260.2,0,0,95,4.208,4.202,0,0,0,0,3.649,76.64,18.472542585872,1.968504,6,P-GPS,
4900,2022-10-21 19:10:11,-34.9540208979969,-54.940735767042,1.968504,2.0341208,16.438421785872,18.472542585872,2.952756,0,0.89148952984,1.39410109448,26,5,8.427,18.472542585872,1.968504,0.223694,0.93386814012,0,0,0,254.4, 0.1, -0.8,0,0,1024,1024,1024,1024,0,0,0,0,260.2,0,0,95,4.208,4.202,0,0,0,0,3.649,76.64,18.472542585872,1.968504,6,P-GPS,
5000,2022-10-21 19:10:11,-34.9540209018041,-54.9407358274104,1.968504,2.0341208,16.438421785872,18.472542585872,2.952756,0,0.90470475336,1.41220805044,26,5,8.427,18.472542585872,1.968504,0.223694,0.93386814012,0,0,0,254.7, 0.3, -0.9,0,0,1024,1024,1024,1024,0,0,0,0,260.2,0,0,95,4.208,4.202,0,0,0,0,3.649,76.64,18.472542585872,1.968504,6,P-GPS,
5100,2022-10-21 19:10:11,-34.954020859553,-54.9407358097927,1.968504,2.0341208,16.438421785872,18.472542585872,2.952756,0,0.91026249632,1.42849742104,26,5,8.427,18.472542585872,1.968504,0.223694,0.93386814012,0,0,0,254.9, 0.3, -1.1,0,0,1024,1024,1024,1024,0,0,0,0,260.2,0,0,95,4.208,4.202,0,0,0,0,3.649,76.64,18.472542585872,1.968504,6,P-GPS,
5200,2022-10-21 19:10:12,-34.9540208259754,-54.9407357797516,1.968504,2.0341208,16.438421785872,18.472542585872,2.624672,0,0.91119425488,1.44369099108,26,5,8.408,18.472542585872,1.968504,0.223694,0.93386814012,0,0,0,255.2, 0.1, -1.2,0,0,1024,1024,1024,1024,0,0,0,0,260.2,0,0,95,4.206,4.198,0,0,0,0,4.073,76.64,18.472542585872,1.968504,6,P-GPS,
5300,2022-10-21 19:10:12,-34.954020817949,-54.9407357116013,1.968504,2.0341208,16.438421785872,18.472542585872,2.624672,0,0.89766735156,1.46427826208,26,5,8.408,18.472542585872,1.968504,0.223694,0.93386814012,0,0,0,255.5, 0, -1.1,0,0,1024,1024,1024,1024,0,0,0,0,260.2,0,0,95,4.206,4.198,0,0,0,0,4.073,76.64,18.472542585872,1.968504,6,P-GPS,
5400,2022-10-21 19:10:12,-34.9540207574231,-54.9407356322878,1.968504,2.0341208,16.438421785872,18.472542585872,2.624672,0,0.89496722024,1.49668311876,26,5,8.408,18.472542585872,1.968504,0.223694,0.93386814012,0,0,0,255.7, 0.2, -0.9,0,0,1024,1024,1024,1024,0,0,0,0,260.2,0,0,95,4.206,4.198,0,0,0,0,4.073,76.64,18.472542585872,1.968504,6,P-GPS,
5500,2022-10-21 19:10:12,-34.9540207142269,-54.9407356080497,1.968504,2.0341208,16.438421785872,18.472542585872,2.624672,0,0.90065291596,1.51403220068,26,5,8.408,18.472542585872,1.968504,0.223694,0.93386814012,0,0,0,255.9, 0, -0.6,0,0,1024,1024,1024,1024,0,0,0,0,260.2,0,0,95,4.206,4.198,0,0,0,0,4.073,76.64,18.472542585872,1.968504,6,P-GPS,
5600,2022-10-21 19:10:12,-34.9540206800704,-54.940735592923,1.968504,2.0341208,16.438421785872,18.472542585872,2.624672,0,0.90621065892,1.52729007512,26,5,8.408,18.472542585872,1.968504,0.223694,0.93386814012,0,0,0,256.1, 0, -0.7,0,0,1024,1024,1024,1024,0,0,0,0,260.2,0,0,95,4.206,4.198,0,0,0,0,4.073,76.64,18.472542585872,1.968504,6,P-GPS,
5700,2022-10-21 19:10:12,-34.9540206752766,-54.9407356039635,1.968504,2.0341208,16.438421785872,18.472542585872,2.624672,0,0.90978021284,1.53102367104,26,5,8.408,18.472542585872,1.968504,0.223694,0.93386814012,0,0,0,256.3, 0.3, -1.1,0,0,1024,1024,1024,1024,0,0,0,0,260.2,0,0,95,4.206,4.198,0,0,0,0,4.073,76.64,18.472542585872,1.968504,6,P-GPS,
5800,2022-10-21 19:10:12,-34.9540206493387,-54.9407357128288,1.968504,2.0341208,16.438421785872,18.472542585872,2.624672,0,0.93961945264,1.5649278716,26,5,8.408,18.472542585872,1.968504,0.223694,0.93961945264,0,0,0,256.4, 0.6, -1,0,0,1024,1024,1024,1024,0,0,0,0,260.2,0,0,95,4.206,4.198,0,0,0,0,4.073,76.64,18.472542585872,1.968504,6,P-GPS,
5900,2022-10-21 19:10:12,-34.954020661537,-54.9407357333817,1.968504,2.0341208,16.438421785872,18.472542585872,2.624672,0,0.94097443956,1.57251645452,26,5,8.408,18.472542585872,1.968504,0.223694,0.94097443956,0,0,0,256.5, 0.5, -0.6,0,0,1024,1024,1024,1024,0,0,0,0,260.2,0,0,95,4.206,4.198,0,0,0,0,4.073,76.64,18.472542585872,1.968504,6,P-GPS,
6000,2022-10-21 19:10:12,-34.9540206705779,-54.9407357384982,1.968504,2.0341208,16.438421785872,18.472542585872,2.624672,0,0.9398130222,1.57615162524,26,5,8.408,18.472542585872,1.968504,0.223694,0.94097443956,0,0,0,256.7, 0.3, -0.6,0,0,1024,1024,1024,1024,0,0,0,0,260.2,0,0,95,4.206,4.198,0,0,0,0,4.073,76.64,18.472542585872,1.968504,6,P-GPS,
6100,2022-10-21 19:10:12,-34.9540206713754,-54.9407356965844,1.968504,2.0341208,16.438421785872,18.472542585872,2.624672,0,0.93054136836,1.58868771488,26,5,8.408,18.472542585872,1.968504,0.223694,0.94097443956,0,0,0,256.8, 0.4, -0.8,0,0,1024,1024,1024,1024,0,0,0,0,260.2,0,0,95,4.206,4.198,0,0,0,0,4.073,76.64,18.472542585872,1.968504,6,P-GPS,
6200,2022-10-21 19:10:13,-34.9540207332612,-54.940735666082,1.968504,2.0341208,16.438421785872,18.472542585872,2.624672,0,0.90836945164,1.6130413902,26,5,8.408,18.472542585872,1.968504,0.223694,0.94097443956,0,0,0,256.9, 0.4, -1,0,0,1024,1024,1024,1024,0,0,0,0,260.2,0,0,95,4.206,4.198,0,0,0,0,4.073,76.64,18.472542585872,1.968504,6,P-GPS,
6300,2022-10-21 19:10:13,-34.9540207225761,-54.9407356347846,1.968504,2.0341208,16.438421785872,18.472542585872,2.624672,0,0.90427496332,1.6231791858,26,5,8.399,18.472542585872,1.968504,0.223694,0.94097443956,0,0,0,257, 0.3, -1.1,0,0,1024,1024,1024,1024,0,0,0,0,260.2,0,0,95,4.202,4.194,0,0,0,0,4.08,76.64,18.472542585872,1.968504,6,P-GPS,
6400,2022-10-21 19:10:13,-34.9540207120669,-54.9407356023832,1.968504,2.0341208,16.438421785872,18.472542585872,2.624672,0,0.89999346712,1.63359913364,26,5,8.399,18.472542585872,1.968504,0.223694,0.94097443956,0,0,0,257.1, 0.1, -1.1,0,0,1024,1024,1024,1024,0,0,0,0,260.2,0,0,95,4.202,4.194,0,0,0,0,4.08,76.64,18.472542585872,1.968504,6,P-GPS,
6500,2022-10-21 19:10:13,-34.9540206986611,-54.9407355732762,1.968504,2.0341208,16.438421785872,18.472542585872,2.624672,0,0.89725724656,1.64358272976,26,5,8.399,18.472542585872,1.968504,0.223694,0.94097443956,0,0,0,257.2, 0.1, -1.1,0,0,1024,1024,1024,1024,0,0,0,0,260.2,0,0,95,4.202,4.194,0,0,0,0,4.08,76.64,18.472542585872,1.968504,6,P-GPS,
6600,2022-10-21 19:10:13,-34.9540206890338,-54.9407355460455,1.968504,2.0341208,16.438421785872,18.472542585872,2.624672,0,0.89403218084,1.65245084028,26,5,8.399,18.472542585872,1.968504,0.223694,0.94097443956,0,0,0,257.3, 0, -1,0,0,1024,1024,1024,1024,0,0,0,0,260.2,0,0,95,4.202,4.194,0,0,0,0,4.08,76.64,18.472542585872,1.968504,6,P-GPS,
6700,2022-10-21 19:10:13,-34.954020695466,-54.9407355857781,1.968504,2.0341208,16.438421785872,18.472542585872,2.624672,0,0.90072509444,1.66456370156,26,5,8.399,18.472542585872,1.968504,0.223694,0.94097443956,0,0,0,257.4, 0, -1,0,0,1024,1024,1024,1024,0,0,0,0,260.2,0,0,95,4.202,4.194,0,0,0,0,4.08,76.64,18.472542585872,1.968504,6,P-GPS,
6800,2022-10-21 19:10:13,-34.9540206942315,-54.9407355706122,1.968504,2.0341208,16.438421785872,18.472542585872,2.624672,0,0.89784123608,1.66912078832,26,5,8.399,18.472542585872,1.968504,0.223694,0.94097443956,0,0,0,257.4, 0.1, -0.8,0,0,1024,1024,1024,1024,0,0,0,0,260.2,0,0,95,4.202,4.194,0,0,0,0,4.08,76.64,18.472542585872,1.968504,6,P-GPS,
6900,2022-10-21 19:10:13,-34.9540206999935,-54.9407355631295,1.968504,2.0341208,16.438421785872,18.472542585872,2.624672,0,0.89477365068,1.67219165456,26,5,8.399,18.472542585872,1.968504,0.223694,0.94097443956,0,0,0,257.5, 0, -0.8,0,0,1024,1024,1185,1024,0,0,24,0,260.2,0,0,95,4.202,4.194,0,0,0,0,4.08,76.64,18.472542585872,1.968504,6,P-GPS,
7000,2022-10-21 19:10:13,-34.9540207041081,-54.9407355478159,1.968504,2.0341208,16.438421785872,18.472542585872,2.624672,0,0.89048231196,1.67700792768,26,5,8.399,18.472542585872,1.968504,0.223694,0.94097443956,0,0,0,257.6, 0, -0.9,0,0,1024,1024,1586,1024,0,0,85,0,260.2,0,0,95,4.202,4.194,0,0,0,0,4.08,76.64,18.472542585872,1.968504,6,P-GPS,
7100,2022-10-21 19:10:13,-34.9540207434691,-54.9407355114628,1.968504,2.0341208,16.438421785872,18.472542585872,2.624672,0,0.87263126152,1.69501973928,26,5,8.399,18.472542585872,1.968504,0.223694,0.94097443956,0,0,-0.223694,257.7, -0.1, -0.7,0,0,1024,1024,1637,1024,0,0,93,0,260.2,0,0,95,4.202,4.194,0,0,0,0,4.08,76.64,18.472542585872,1.968504,6,P-GPS,
7200,2022-10-21 19:10:13,-34.9540207458808,-54.9407354767651,1.968504,2.0013124,16.471230185872,18.472542585872,2.952756,0,0.86471787544,1.70543312544,26,5,8.399,18.472542585872,1.968504,0.223694,0.94097443956,0,0,-0.894776,257.6, 0, -0.9,0,0,1024,1024,1435,1024,0,0,62,0,260.2,0,0,95,4.202,4.194,0,0,0,0,4.08,76.64,18.472542585872,1.968504,6,P-GPS,
7300,2022-10-21 19:10:14,-34.9540207474255,-54.9407354668535,2.296588,2.3293964,16.471230185872,18.800626585872,3.28084,0,0.86224412208,1.70845149824,26,5,8.391,18.800626585872,2.296588,0.223694,0.94097443956,0,0,-1.789552,257.5, 0.2, -1.3,0,0,1024,1024,1024,1024,0,0,0,0,260.2,0,0,95,4.198,4.19,0,0,0,0,4.115,76.64,18.800626585872,2.296588,6,P-GPS,
7400,2022-10-21 19:10:14,-34.9540207594953,-54.940735438279,2.624672,2.6574804,16.471230185872,19.128710585872,3.608924,0,0.8531332294,1.71806435944,26,5,8.391,19.128710585872,2.624672,0.223694,0.94097443956,0,0,-2.23694,257.8, 0, -1.1,0,0,1024,1024,1024,1024,0,0,0,0,260.2,0,0,95,4.198,4.19,0,0,0,0,4.115,76.64,19.128710585872,2.624672,6,P-GPS,
7500,2022-10-21 19:10:14,-34.9540207818793,-54.9407353685073,2.952756,2.9855644,16.471230185872,19.456794585872,3.608924,0,0.83280514476,1.7404692158,26,5,8.391,19.456794585872,2.952756,0.223694,0.94097443956,0,0,-1.789552,258, 0.2, -0.5,0,0,1024,1024,1024,1024,0,0,0,0,260.2,0,0,95,4.198,4.19,0,0,0,0,4.115,76.64,19.456794585872,2.952756,6,P-GPS,
7600,2022-10-21 19:10:14,-34.9540207980886,-54.9407352862402,2.952756,2.9855644,16.471230185872,19.456794585872,3.937008,0,0.81171918608,1.76577105388,26,5,8.391,19.456794585872,2.952756,0.223694,0.94097443956,0,0,-1.11847,258.2, -0.1, -0.1,0,0,1641,1024,1024,1024,93,0,0,0,260.2,0,0,95,4.198,4.19,0,0,0,0,4.115,76.64,19.456794585872,2.952756,6,P-GPS,
7700,2022-10-21 19:10:14,-34.9540208077598,-54.9407352151031,3.28084,3.3136484,16.471230185872,19.784878585872,3.937008,0,0.79486879184,1.78733273436,26,5,8.391,19.784878585872,3.28084,0.223694,0.94097443956,0,0,-0.671082,258.3, -3.9, 0,0,0,1684,1024,1024,1024,100,0,0,0,260.2,0,0,95,4.198,4.19,0,0,0,0,4.115,76.64,19.784878585872,3.28084,6,P-GPS,
7800,2022-10-21 19:10:14,-34.9540208132394,-54.9407351794053,3.28084,3.3136484,16.471230185872,19.784878585872,4.265092,0,0.78632876532,1.7981955956,26,5,8.391,19.784878585872,3.28084,0.223694,0.94097443956,0,0,-0.447388,258.4, -13.6, 0,0,0,1684,1024,1024,1024,100,0,0,0,260.2,0,0,95,4.198,4.19,0,0,0,0,4.115,76.64,19.784878585872,3.28084,6,P-GPS,
7900,2022-10-21 19:10:14,-34.9540208324355,-54.9407351898989,3.28084,3.3136484,16.471230185872,19.784878585872,3.937008,0.447388,0.78312994632,1.80586948036,26,5,8.391,19.784878585872,3.28084,0.447388,0.94097443956,0,-0.447388,-0.223694,258.4, -18.1, -0.4,0,0,1684,1024,1024,1024,100,0,0,0,260.2,0,0,95,4.198,4.19,0,0,0,0,4.115,76.64,19.784878585872,3.28084,6,P-GPS,
8000,2022-10-21 19:10:14,-34.9540208913845,-54.9407355584964,3.28084,3.3464568,16.438421785872,19.784878585872,3.937008,1.1408394,0.84563651,1.91817263356,26,5,8.391,19.784878585872,3.28084,1.1408394,0.94097443956,-0.223694,-1.11847,0,258.2, -18.6, -1.2,0,0,1684,1024,1024,1024,100,0,0,0,260.2,0,0,95,4.198,4.19,0,0,0,0,4.115,76.64,19.784878585872,3.28084,6,P-GPS,
8100,2022-10-21 19:10:14,-34.9540210353987,-54.9407363547069,3.28084,3.3464568,16.438421785872,19.784878585872,3.937008,1.8119214,1.00738520284,2.16199481984,26,5,8.391,19.784878585872,3.28084,1.8119214,1.00738520284,-0.223694,-1.789552,0,258.2, -18.1, -1.4,0,0,1684,1024,1024,1024,100,0,0,0,260.2,0,0,95,4.198,4.19,0,0,0,0,4.115,76.64,19.784878585872,3.28084,6,P-GPS,
8200,2022-10-21 19:10:14,-34.9540212253813,-54.9407374008555,3.28084,3.4120736,16.372804985872,19.784878585872,3.937008,2.5053728,1.26061027656,2.48241805844,26,5,8.391,19.784878585872,3.28084,2.5053728,1.26061027656,-0.447388,-2.460634,0,258.4, -17.4, -0.8,0,0,1684,1024,1024,1024,100,0,0,0,260.2,0,0,95,4.198,4.19,0,0,0,0,4.115,76.64,19.784878585872,3.28084,6,P-GPS,
8300,2022-10-21 19:10:15,-34.9540214531374,-54.940738817847,3.28084,3.4776904,16.307188185872,19.784878585872,3.937008,3.1540854,1.64381238856,2.91421925336,26,5,8.391,19.784878585872,3.28084,3.1540854,1.64381238856,-0.447388,-3.131716,0,258.5, -16.5, -0.1,0,0,1684,1024,1024,1024,100,0,0,0,260.2,0,0,95,4.198,4.19,0,0,0,0,4.115,76.64,19.784878585872,3.28084,6,P-GPS,
8400,2022-10-21 19:10:15,-34.9540217397198,-54.9407406404032,3.28084,3.5433072,16.241571385872,19.784878585872,3.937008,3.8699062,2.16404862568,3.469160216,26,5,8.442,19.784878585872,3.28084,3.8699062,2.16404862568,-0.671082,-3.802798,0,258.4, -16.3, -0.6,0,0,1684,1024,1024,1024,100,0,0,0,260.2,0,0,95,4.196,4.186,0,0,0,0,4.5,76.64,19.784878585872,3.28084,6,P-GPS,
8500,2022-10-21 19:10:15,-34.9540220491977,-54.9407427135854,3.28084,3.608924,16.175954585872,19.784878585872,3.937008,4.5186188,2.7725394588,4.0993111548,26,5,8.442,19.784878585872,3.28084,4.5186188,2.7725394588,-0.671082,-4.47388,0,258.5, -15.7, -1.1,0,0,1684,1024,1024,1024,100,0,0,0,260.2,0,0,95,4.196,4.186,0,0,0,0,4.5,76.64,19.784878585872,3.28084,6,P-GPS,
8600,2022-10-21 19:10:15,-34.9540223900981,-54.9407449373895,3.28084,3.7073492,16.077529385872,19.784878585872,4.265092,5.0107456,3.4339239944,4.7758531712,26,5,8.442,19.784878585872,3.28084,5.0107456,3.4339239944,-0.894776,-4.921268,0,258.5, -15.4, -1.3,0,0,1684,1024,1024,1024,100,0,0,0,260.2,0,0,95,4.196,4.186,0,0,0,0,4.5,76.64,19.784878585872,3.28084,6,P-GPS,
8700,2022-10-21 19:10:15,-34.9540228432393,-54.9407475755109,3.28084,3.8057744,15.979104185872,19.784878585872,4.265092,5.4357642,4.2253282192,5.581857134,26,5,8.442,19.784878585872,3.28084,5.4357642,4.2253282192,-0.894776,-5.368656,0,258.6, -15.5, -1.5,0,0,1684,1024,1024,1024,100,0,0,0,260.2,0,0,95,4.196,4.186,0,0,0,0,4.5,76.64,19.784878585872,3.28084,6,P-GPS,
8800,2022-10-21 19:10:15,-34.9540234619742,-54.9407507732329,3.28084,3.9041996,15.880678985872,19.784878585872,4.265092,5.927891,5.1923886176,6.5644030972,26,5,8.442,19.784878585872,3.28084,5.927891,5.1923886176,-1.11847,-5.816044,0,258.6, -15.6, -1.4,0,0,1684,1024,1024,1024,100,0,0,0,260.2,0,0,95,4.196,4.186,0,0,0,0,4.5,76.64,19.784878585872,3.28084,6,P-GPS,
8900,2022-10-21 19:10:15,-34.9540239554426,-54.9407537849083,3.28084,4.0354332,15.749445385872,19.784878585872,4.265092,6.151585,6.1046917964,7.4828086384,26,5,8.442,19.784878585872,3.28084,6.151585,6.1046917964,-1.11847,-6.039738,0,258.7, -15.9, -1.3,0,0,1684,1024,1024,1024,100,0,0,0,260.2,0,0,95,4.196,4.186,0,0,0,0,4.5,76.64,19.784878585872,3.28084,6,P-GPS,
9000,2022-10-21 19:10:15,-34.9540244472229,-54.9407568373144,3.28084,4.1338584,15.651020185872,19.784878585872,4.265092,6.5766036,7.0306104612,8.413058012,26,5,8.442,19.784878585872,3.28084,6.5766036,7.0306104612,-1.11847,-6.487126,0,258.7, -16.1, -1.3,0,0,1684,1024,1024,1024,100,0,0,0,260.2,0,0,95,4.196,4.186,0,0,0,0,4.5,76.64,19.784878585872,3.28084,6,P-GPS,
9100,2022-10-21 19:10:15,-34.9540249687813,-54.9407602396519,3.28084,4.265092,15.519786585872,19.784878585872,4.593176,7.0687304,8.0627627252,9.4480974152,26,5,8.442,19.784878585872,3.28084,7.0687304,8.0627627252,-1.342164,-6.934514,0,258.8, -16, -1.3,0,0,1684,1024,1024,1024,100,0,0,0,260.2,0,0,95,4.196,4.186,0,0,0,0,4.5,76.64,19.784878585872,3.28084,6,P-GPS,
9200,2022-10-21 19:10:16,-34.9540254765029,-54.9407638167969,3.28084,4.3963256,15.388552985872,19.784878585872,4.593176,7.493749,9.146817878,10.5337273712,26,5,8.442,19.784878585872,3.28084,7.493749,9.146817878,-1.342164,-7.381902,0,258.7, -15.8, -1.2,0,0,1684,1024,1024,1024,100,0,0,0,260.2,0,0,95,4.196,4.186,0,0,0,0,4.5,76.64,19.784878585872,3.28084,6,P-GPS,
9300,2022-10-21 19:10:16,-34.9540260376264,-54.9407675675004,3.28084,4.5603676,15.224510985872,19.784878585872,4.593176,7.717443,10.2851709328,11.6738520796,26,5,8.369,19.784878585872,3.28084,7.717443,10.2851709328,-1.342164,-7.605596,0,258.8, -15.9, -0.9,0,0,1684,1024,1024,1024,100,0,0,0,260.2,0,0,95,4.192,4.184,0,0,0,0,4.226,76.64,19.784878585872,3.28084,6,P-GPS,
9400,2022-10-21 19:10:16,-34.9540266088952,-54.9407712831698,3.28084,4.6587928,15.126085785872,19.784878585872,4.593176,8.2095698,11.4139767432,12.8043311184,26,5,8.369,19.784878585872,3.28084,8.2095698,11.4139767432,-1.565858,-8.052984,0,258.8, -16.6, -0.9,0,0,1684,1024,1024,1024,100,0,0,0,260.2,0,0,95,4.192,4.184,0,0,0,0,4.226,76.64,19.784878585872,3.28084,6,P-GPS,
9500,2022-10-21 19:10:16,-34.9540272938745,-54.940775338331,3.28084,4.8228348,14.962043785872,19.784878585872,4.92126,8.4332638,12.6494098536,14.0424545176,26,5,8.369,19.784878585872,3.28084,8.4332638,12.6494098536,-1.565858,-8.276678,0,258.8, -17.1, -0.9,0,0,1684,1024,1024,1024,100,0,0,0,260.2,0,0,95,4.192,4.184,0,0,0,0,4.226,76.64,19.784878585872,3.28084,6,P-GPS,
9600,2022-10-21 19:10:16,-34.9540279184609,-54.9407791961857,2.952756,4.6259844,14.830810185872,19.456794585872,4.92126,8.6345884,13.8237209148,15.2183731904,26,5,8.369,19.784878585872,3.28084,8.6345884,13.8237209148,-1.565858,-8.500372,0,259.3, -16.9, -0.7,0,0,1684,1024,1024,1024,100,0,0,0,260.2,0,0,95,4.192,4.184,0,0,0,0,4.226,76.64,19.456794585872,2.952756,6,P-GPS,
9700,2022-10-21 19:10:16,-34.9540286178406,-54.9407835037956,2.952756,4.8228348,14.633959785872,19.456794585872,4.92126,9.0819764,15.1353679384,16.5315294004,26,5,8.369,19.784878585872,3.28084,9.0819764,15.1353679384,-1.565858,-8.94776,0,259.3, -17.3, -0.4,0,0,1684,1024,1024,1024,100,0,0,0,260.2,0,0,95,4.192,4.184,0,0,0,0,4.226,76.64,19.456794585872,2.952756,6,P-GPS,
9800,2022-10-21 19:10:16,-34.9540293014369,-54.9407877413582,2.952756,4.9540684,14.502726185872,19.456794585872,5.249344,9.1267152,16.4256566936,17.8230320664,26,5,8.369,19.784878585872,3.28084,9.1267152,16.4256566936,-1.789552,-8.94776,0,259.2, -17.4, -0.8,0,0,1684,1024,1024,1024,100,0,0,0,260.2,0,0,95,4.192,4.184,0,0,0,0,4.226,76.64,19.456794585872,2.952756,6,P-GPS,
9900,2022-10-21 19:10:16,-34.9540300548724,-54.9407923334903,2.952756,5.1181104,14.338684185872,19.456794585872,5.249344,9.3504092,17.8248365284,19.2234914288,26,5,8.369,19.784878585872,3.28084,9.3504092,17.8248365284,-1.789552,-9.171454,0,259.2, -18, -0.7,0,0,1684,1024,1024,1024,100,0,0,0,260.2,0,0,95,4.192,4.184,0,0,0,0,4.226,76.64,19.456794585872,2.952756,6,P-GPS,
10000,2022-10-21 19:10:16,-34.954030783816,-54.9407968642506,2.952756,5.3149608,14.141833785872,19.456794585872,5.249344,9.5741032,19.2046594072,20.6042001344,26,5,8.369,19.784878585872,3.28084,9.5741032,19.2046594072,-1.789552,-9.395148,0,259.2, -18.1, -0.8,0,0,1684,1024,1024,1024,100,0,0,0,260.2,0,0,95,4.192,4.184,0,0,0,0,4.226,76.64,19.456794585872,2.952756,6,P-GPS,
10100,2022-10-21 19:10:16,-34.9540315020754,-54.940801850489,2.952756,5.5118112,13.944983385872,19.456794585872,5.577428,9.9991218,20.7184061748,22.118110944,26,5,8.369,19.784878585872,3.28084,9.9991218,20.7184061748,-1.789552,-9.842536,0,259.2, -18.1, -0.8,0,0,1684,1024,1024,1024,100,0,0,0,260.2,0,0,95,4.192,4.184,0,0,0,0,4.226,76.64,19.456794585872,2.952756,6,P-GPS,
10200,2022-10-21 19:10:17,-34.9540322654631,-54.9408067224344,2.952756,5.6758532,13.780941385872,19.456794585872,5.577428,10.2675546,22.201116196,23.601378708,26,5,8.369,19.784878585872,3.28084,10.2675546,22.201116196,-2.013246,-10.06623,0,259.2, -18.1, -0.4,0,0,1684,1024,1024,1024,100,0,0,0,260.2,0,0,95,4.192,4.184,0,0,0,0,4.226,76.64,19.456794585872,2.952756,6,P-GPS,
10300,2022-10-21 19:10:17,-34.9540331119267,-54.9408118445082,2.952756,5.8727036,13.584090985872,19.456794585872,5.577428,10.4912486,23.762631994,25.163878758,26,5,8.372,19.784878585872,3.28084,10.4912486,23.762631994,-2.013246,-10.289924,0,259.2, -18.2, 0,0,0,1684,1024,1024,1024,100,0,0,0,260.2,0,0,95,4.189,4.181,0,0,0,0,4.095,76.82,19.456794585872,2.952756,6,P-GPS,
10400,2022-10-21 19:10:17,-34.9540339454075,-54.9408168968481,2.952756,6.069554,13.387240585872,19.456794585872,5.905512,10.9162672,25.3029207572,26.7049877312,26,5,8.372,19.784878585872,3.28084,10.9162672,25.3029207572,-2.013246,-10.737312,0,259.2, -17.9, 0,0,0,1684,1024,1024,1024,100,0,0,0,260.2,0,0,95,4.189,4.181,0,0,0,0,4.095,76.82,19.456794585872,2.952756,6,P-GPS,
10500,2022-10-21 19:10:17,-34.954034972336,-54.9408224198431,2.952756,6.233596,13.223198585872,19.456794585872,5.905512,11.1399612,26.99393131,28.3985245308,26,5,8.372,19.784878585872,3.28084,11.1399612,26.99393131,-2.013246,-10.961006,0,259.2, -17.8, 0,0,0,1684,1024,1024,1024,100,0,0,0,260.2,0,0,95,4.189,4.181,0,0,0,0,4.095,76.82,19.456794585872,2.952756,6,P-GPS,
10600,2022-10-21 19:10:17,-34.9540358569345,-54.9408279314134,2.952756,6.4632548,12.993539785872,19.456794585872,5.905512,11.1399612,28.6729667968,30.0779865268,26,5,8.372,19.784878585872,3.28084,11.1399612,28.6729667968,-2.013246,-11.1847,0,259.2, -18.2, -0.5,0,0,1684,1024,1024,1024,100,0,0,0,260.2,0,0,95,4.189,4.181,0,0,0,0,4.095,76.82,19.456794585872,2.952756,6,P-GPS,
10700,2022-10-21 19:10:17,-34.954036761825,-54.9408339092383,2.952756,6.6929136,12.763880985872,19.456794585872,6.233596,11.5873492,30.490650582,31.8958015456,26,5,8.372,19.784878585872,3.28084,11.5873492,30.490650582,-2.013246,-11.408394,0,259.2, -18.5, -1.1,0,0,1684,1024,1257,1024,100,0,35,0,260.2,0,0,95,4.189,4.181,0,0,0,0,4.095,76.82,19.456794585872,2.952756,6,P-GPS,
10800,2022-10-21 19:10:17,-34.9540376348712,-54.9408396487777,2.952756,6.7913388,12.665455785872,19.456794585872,6.233596,11.8110432,32.2361886956,33.641405276,26,5,8.372,19.784878585872,3.28084,11.8110432,32.2361886956,-2.013246,-11.632088,0,259.4, -18.3, -1,0,0,1684,1024,1579,1024,100,0,84,0,260.2,0,0,95,4.189,4.181,0,0,0,0,4.095,76.82,19.456794585872,2.952756,6,P-GPS,
10900,2022-10-21 19:10:17,-34.954038509756,-54.9408456836523,2.952756,6.9225724,12.534222185872,19.456794585872,6.233596,11.8110432,34.068898728,35.4740825,26,5,8.372,19.784878585872,3.28084,11.8110432,34.068898728,-2.23694,-11.855782,0,259.3, -17.2, -0.7,0,0,1684,1024,1579,1024,100,0,84,0,260.2,0,0,95,4.189,4.181,0,0,0,0,4.095,76.82,19.456794585872,2.952756,6,P-GPS,
11000,2022-10-21 19:10:17,-34.9540393999954,-54.9408514738758,2.952756,6.9881892,12.468605385872,19.456794585872,6.56168,12.2808006,35.830381724,37.23589358,26,5,8.372,19.784878585872,3.28084,12.2808006,35.830381724,-2.23694,-12.079476,-0.671082,259.3, -16.7, -0.8,0,0,1684,1024,1684,1024,100,0,100,0,260.2,0,0,95,4.189,4.181,0,0,0,0,4.095,76.82,19.456794585872,2.952756,6,P-GPS,
11100,2022-10-21 19:10:17,-34.9540403711229,-54.9408576878436,3.28084,7.4475068,12.337371785872,19.784878585872,6.889764,12.5044946,37.721785984,39.12729784,26,5,8.372,19.784878585872,3.28084,12.5044946,37.721785984,-2.23694,-12.30317,-1.342164,259.3, -17.7, -1.5,0,0,1684,1024,1684,1024,100,0,100,0,260.2,0,0,95,4.189,4.181,0,0,0,0,4.095,76.82,19.784878585872,3.28084,6,P-GPS,
11200,2022-10-21 19:10:17,-34.9540412952193,-54.940863711325,3.608924,7.9068244,12.206138185872,20.112962585872,7.217848,12.9518826,39.554135124,40.959975064,26,5,8.372,20.112962585872,3.608924,12.9518826,39.554135124,-2.23694,-12.750558,-2.013246,259.5, -17.6, -2,0,0,1684,1024,1684,1024,100,0,100,0,260.2,0,0,95,4.189,4.181,0,0,0,0,4.095,76.82,20.112962585872,3.608924,6,P-GPS,
11300,2022-10-21 19:10:18,-34.9540422313254,-54.940870033821,4.265092,8.6614176,12.107712985872,20.769130585872,7.874016,13.1755766,41.475395028,42.881234968,26,5,8.372,20.769130585872,4.265092,13.1755766,41.475395028,-2.23694,-12.974252,-2.908022,259.4, -16.8, -1.3,0,0,1684,1024,1684,1024,100,0,100,0,260.2,0,0,95,4.189,4.181,0,0,0,0,4.095,76.82,20.769130585872,4.265092,6,P-GPS,
11400,2022-10-21 19:10:18,-34.9540431543894,-54.9408763576863,4.92126,9.4488192,11.976479385872,21.425298585872,8.530184,13.3769012,43.396326848,44.802166788,26,5,8.365,21.425298585872,4.92126,13.3769012,43.396326848,-2.23694,-13.197946,-3.802798,259.4, -15.5, -1.6,0,0,1684,1024,1684,1024,100,0,100,0,260.2,0,0,95,4.142,4.133,0,0,0,0,4.105,76.82,21.425298585872,4.92126,6,P-GPS,
11500,2022-10-21 19:10:18,-34.9540441042054,-54.9408831911003,5.577428,10.2362208,11.845245785872,22.081466585872,9.186352,13.6005952,45.468833476,46.874673416,26,5,8.365,22.081466585872,5.577428,13.6005952,45.468833476,-2.23694,-13.42164,-4.47388,259.6, -15.8, -1.6,0,0,1684,1024,1684,1024,100,0,100,0,260.2,0,0,95,4.142,4.133,0,0,0,0,4.105,76.82,22.081466585872,5.577428,6,P-GPS,
11600,2022-10-21 19:10:18,-34.9540450129015,-54.9408897400706,6.56168,11.3517064,11.714012185872,23.065718585872,10.170604,13.8242892,47.455054012,48.860893952,26,5,8.365,23.065718585872,6.56168,13.8242892,47.455054012,-2.23694,-13.645334,-5.368656,259.5, -16, -2.4,0,0,1684,1024,1684,1024,100,0,100,0,260.2,0,0,95,4.142,4.133,0,0,0,0,4.105,76.82,23.065718585872,6.56168,6,P-GPS,
11700,2022-10-21 19:10:18,-34.9540460274466,-54.9408966090232,7.545932,12.4343836,11.615586985872,24.049970585872,10.826772,14.0479832,49.54232442,50.947836276,26,5,8.365,24.049970585872,7.545932,14.0479832,49.54232442,-2.23694,-13.869028,-5.816044,259.4, -16.3, -2.7,0,0,1684,1024,1684,1024,100,0,100,0,260.2,0,0,95,4.142,4.133,0,0,0,0,4.105,76.82,24.049970585872,7.545932,6,P-GPS,
11800,2022-10-21 19:10:18,-34.9540469351999,-54.9409032556929,8.858268,13.8779532,11.484353385872,25.362306585872,11.811024,14.0479832,51.557088264,52.962928204,26,5,8.365,25.362306585872,8.858268,14.0479832,51.557088264,-2.23694,-13.869028,-6.039738,259.5, -16.6, -3.2,0,0,1684,1024,1684,1024,100,0,100,0,260.2,0,0,95,4.142,4.133,0,0,0,0,4.105,76.82,25.362306585872,8.858268,6,P-GPS,
11900,2022-10-21 19:10:18,-34.9540479379322,-54.9409103405,9.84252,14.9934388,11.353119785872,26.346558585872,12.795276,14.2716772,53.707022716,55.112862656,26,5,8.365,26.346558585872,9.84252,14.2716772,53.707022716,-2.23694,-14.092722,-6.263432,259.6, -17, -3.2,0,0,1684,1024,1684,1024,100,0,100,0,260.2,0,0,95,4.142,4.133,0,0,0,0,4.105,76.82,26.346558585872,9.84252,6,P-GPS,
12000,2022-10-21 19:10:18,-34.9540488896258,-54.9409171170002,11.154856,16.4370084,11.221886185872,27.658894585872,13.779528,14.2716772,55.76279706,57.168965084,26,5,8.365,27.658894585872,11.154856,14.2716772,55.76279706,-2.23694,-14.092722,-6.487126,259.7, -17.2, -3.8,0,0,1684,1024,1684,1024,100,0,100,0,260.2,0,0,95,4.142,4.133,0,0,0,0,4.105,76.82,27.658894585872,11.154856,6,P-GPS,
12100,2022-10-21 19:10:18,-34.9540498726491,-54.9409242383074,12.139108,17.5196856,11.123460985872,28.643146585872,14.76378,14.4953712,57.922574032,59.328413972,26,5,8.365,28.643146585872,12.139108,14.4953712,57.922574032,-2.23694,-14.316416,-6.263432,259.9, -17.9, -5.1,0,0,1684,1024,1684,1024,100,0,100,0,260.2,0,0,95,4.142,4.133,0,0,0,0,4.105,76.82,28.643146585872,12.139108,6,P-GPS,
12200,2022-10-21 19:10:18,-34.9540508024515,-54.9409311015006,13.451444,18.9632552,10.992227385872,29.955482585872,15.748032,14.4953712,60.002626592,61.408466532,26,5,8.365,29.955482585872,13.451444,14.4953712,60.002626592,-2.23694,-14.316416,-6.263432,260.1, -18.1, -5.3,0,0,1684,1024,1684,1024,100,0,100,0,260.2,0,0,95,4.142,4.133,0,0,0,0,4.105,76.82,29.955482585872,13.451444,6,P-GPS,
12300,2022-10-21 19:10:19,-34.9540516591922,-54.940938272499,14.76378,20.4068248,10.860993785872,31.267818585872,16.732284,14.7190652,62.16863716,63.575461352,26,5,8.365,31.267818585872,14.76378,14.7190652,62.16863716,-2.23694,-14.54011,-6.487126,260, -17.2, -5.7,0,0,1684,1024,1684,1024,100,0,100,0,260.2,0,0,95,4.142,4.133,0,0,0,0,4.105,76.82,31.267818585872,14.76378,6,P-GPS,
12400,2022-10-21 19:10:19,-34.9540524889919,-54.940945170729,15.748032,21.5223104,10.729760185872,32.252070585872,17.716536,14.9427592,64.252954812,65.660435172,26,5,8.208,32.252070585872,15.748032,14.9427592,64.252954812,-2.23694,-14.763804,-6.487126,259.6, -16.5, -5.8,0,0,1684,1024,1684,1024,100,0,100,0,260.2,0,0,95,4.108,4.108,0,0,0,0,6.638,76.82,32.252070585872,15.748032,6,P-GPS,
12500,2022-10-21 19:10:19,-34.9540534187227,-54.9409525241652,17.060368,22.96588,10.598526585872,33.564406585872,19.028872,14.9427592,66.477364332,67.88550086,26,5,8.208,33.564406585872,17.060368,14.9427592,66.477364332,-2.23694,-14.763804,-6.487126,259.6, -15.5, -5.1,0,0,1684,1024,1684,1024,100,0,100,0,260.2,0,0,95,4.108,4.108,0,0,0,0,6.638,76.82,33.564406585872,17.060368,6,P-GPS,
12600,2022-10-21 19:10:19,-34.9540541687677,-54.9409594795495,18.372704,24.3766412,10.500101385872,34.876742585872,20.013124,14.9427592,68.573821092,69.983269956,26,5,8.208,34.876742585872,18.372704,14.9427592,68.573821092,-2.23694,-14.763804,-6.71082,259.9, -15.9, -5.1,0,0,1684,1024,1684,1024,100,0,100,0,260.2,0,0,95,4.108,4.108,0,0,0,0,6.638,76.82,34.876742585872,18.372704,6,P-GPS,
12700,2022-10-21 19:10:19,-34.9540551294552,-54.9409668428111,19.356956,25.4921268,10.368867785872,35.860994585872,20.997376,15.1888226,70.803151872,72.21292882,26,5,8.208,35.860994585872,19.356956,15.1888226,70.803151872,-2.460634,-14.987498,-6.487126,259.9, -17.5, -4.4,0,0,1684,1024,1684,1024,100,0,100,0,260.2,0,0,95,4.108,4.108,0,0,0,0,6.638,76.82,35.860994585872,19.356956,6,P-GPS,
12800,2022-10-21 19:10:19,-34.9540560491189,-54.9409739222247,20.669292,26.9356964,10.237634185872,37.173330585872,22.309712,15.4125166,72.946524644,74.356301592,26,5,8.208,37.173330585872,20.669292,15.4125166,72.946524644,-2.460634,-15.211192,-6.71082,260.1, -17.3, -4.4,0,0,1684,1024,1684,1024,100,0,100,0,260.2,0,0,95,4.108,4.108,0,0,0,0,6.638,76.82,37.173330585872,20.669292,6,P-GPS,
12900,2022-10-21 19:10:19,-34.9540570085721,-54.940981538374,21.653544,28.051182,10.106400585872,38.157582585872,23.293964,15.6362106,75.250330492,76.660435524,26,5,8.208,38.157582585872,21.653544,15.6362106,75.250330492,-2.460634,-15.434886,-6.263432,259.3, -15.7, -6.3,0,0,1684,1024,1684,1024,100,0,100,0,260.2,0,0,95,4.108,4.108,0,0,0,0,6.638,76.82,38.157582585872,21.653544,6,P-GPS,
13000,2022-10-21 19:10:19,-34.9540578645799,-54.9409887660458,22.96588,29.4947516,9.975166985872,39.469918585872,24.278216,15.8599046,77.433401428,78.844162628,26,5,8.208,39.469918585872,22.96588,15.8599046,77.433401428,-2.460634,-15.65858,-6.263432,259.9, -15.2, -5.4,0,0,1684,1024,1684,1024,100,0,100,0,260.2,0,0,95,4.108,4.108,0,0,0,0,6.638,76.82,39.469918585872,22.96588,6,P-GPS,
13100,2022-10-21 19:10:19,-34.9540589140437,-54.940996458791,23.950132,30.5774288,9.876741785872,40.454170585872,25.262468,15.882274,79.7654225,81.176511784,26,5,8.208,40.454170585872,23.950132,15.882274,79.7654225,-2.684328,-15.65858,-6.263432,259.5, -12.4, -4.4,0,0,1684,1024,1684,1024,100,0,100,0,260.2,0,0,95,4.108,4.108,0,0,0,0,6.638,76.82,40.454170585872,23.950132,6,P-GPS,
13200,2022-10-21 19:10:20,-34.9540599240633,-54.9410038831161,25.262468,32.0538068,9.712699785872,41.766506585872,26.24672,16.0612292,82.01607874,83.42683994,26,5,8.208,41.766506585872,25.262468,16.0612292,82.01607874,-2.460634,-15.882274,-6.71082,259.5, -11.8, -4.4,0,0,1684,1024,1684,1024,100,0,100,0,260.2,0,0,95,4.108,4.108,0,0,0,0,6.638,76.82,41.766506585872,25.262468,6,P-GPS,
13300,2022-10-21 19:10:20,-34.9540609667918,-54.9410118580369,26.24672,33.1692924,9.581466185872,42.750758585872,27.230972,16.0612292,84.43077698,85.841866264,26,5,8.208,42.750758585872,26.24672,16.0612292,84.43077698,-2.460634,-15.882274,-6.71082,259.7, -12.6, -4.9,0,0,1684,1024,1684,1024,100,0,100,0,260.2,0,0,95,4.108,4.108,0,0,0,0,6.638,76.82,42.750758585872,26.24672,6,P-GPS,
13400,2022-10-21 19:10:20,-34.9540619192231,-54.9410193642887,27.230972,34.2519696,9.483040985872,43.735010585872,28.215224,15.8599046,86.702102512,88.113191796,26,5,8.176,43.735010585872,27.230972,16.0612292,86.702102512,-2.460634,-15.65858,-6.71082,259.9, -13.8, -6.1,0,0,1684,1024,1535,1024,100,0,77,0,260.2,0,0,95,4.076,4.071,0,0,0,0,7.208,76.82,43.735010585872,27.230972,6,P-GPS,
13500,2022-10-21 19:10:20,-34.954062711891,-54.9410272086787,28.215224,35.3674552,9.351807385872,44.719262585872,29.52756,16.0612292,89.06332306,90.476708932,26,5,8.176,44.719262585872,28.215224,16.0612292,89.06332306,-2.460634,-15.882274,-6.71082,260.1, -14.5, -5.9,0,0,1273,1024,1024,1024,38,0,0,0,260.2,0,0,95,4.076,4.071,0,0,0,0,7.208,76.82,44.719262585872,28.215224,6,P-GPS,
13600,2022-10-21 19:10:20,-34.9540636401236,-54.9410345536903,29.199476,36.4829408,9.220573785872,45.703514585872,30.511812,15.8599046,91.285435992,92.699149948,26,5,8.176,45.703514585872,29.199476,16.0612292,91.285435992,-2.460634,-15.65858,-6.263432,259.8, -13.5, -5.9,0,0,1024,1024,1024,1024,0,0,0,0,260.2,0,0,95,4.076,4.071,0,0,0,0,7.208,76.82,45.703514585872,29.199476,6,P-GPS,
13700,2022-10-21 19:10:20,-34.9540646841745,-54.9410422780438,30.183728,37.5984264,9.089340185872,46.687766585872,31.16798,15.8599046,93.626315332,95.040029288,26,5,8.176,46.687766585872,30.183728,16.0612292,93.626315332,-2.460634,-15.65858,-5.59235,259, -2, -5.8,0,0,1024,1024,1024,1024,0,0,0,0,260.2,0,0,95,4.076,4.071,0,0,0,0,7.208,76.82,46.687766585872,30.183728,6,P-GPS,
13800,2022-10-21 19:10:20,-34.9540656437351,-54.9410494452584,30.839896,38.385828,8.958106585872,47.343934585872,32.152232,15.1440838,95.798231412,97.211617284,26,5,8.176,47.343934585872,30.839896,16.0612292,95.798231412,-2.23694,-14.987498,-5.144962,257.7, 20.6, -3.2,0,0,1024,1024,1024,1024,0,0,0,0,260.2,0,0,95,4.076,4.071,0,0,0,0,7.208,76.82,47.343934585872,30.839896,6,P-GPS,
13900,2022-10-21 19:10:20,-34.9540666190656,-54.9410561791124,31.16798,38.8123372,8.859681385872,47.672018585872,32.8084,14.0032444,97.8428509,99.256564856,26,5,8.176,47.672018585872,31.16798,16.0612292,97.8428509,-2.013246,-13.869028,-4.697574,258.3, 20.9, -2.4,0,0,1024,1024,1024,1024,0,0,0,0,260.2,0,0,95,4.076,4.071,0,0,0,0,7.208,76.82,47.672018585872,31.16798,6,P-GPS,
14000,2022-10-21 19:10:20,-34.9540674042133,-54.9410624196086,31.824148,39.5669304,8.761256185872,48.328186585872,33.464568,13.086099,99.730646236,101.144688276,26,5,8.176,48.328186585872,31.824148,16.0612292,99.730646236,-1.789552,-12.974252,-4.026492,258.6, 20.7, -2.2,0,0,1024,1024,1024,1024,0,0,0,0,260.2,0,0,95,4.076,4.071,0,0,0,0,7.208,76.82,48.328186585872,31.824148,6,P-GPS,
14100,2022-10-21 19:10:20,-34.9540681809811,-54.9410686107272,32.152232,39.9934396,8.662830985872,48.656270585872,33.792652,12.191323,101.603349708,103.017391748,26,5,8.176,48.656270585872,32.152232,16.0612292,101.603349708,-1.565858,-12.079476,-3.131716,258.8, 20, -1.7,0,0,1024,1024,1024,1024,0,0,0,0,260.2,0,0,95,4.076,4.071,0,0,0,0,7.208,76.82,48.656270585872,32.152232,6,P-GPS,
14200,2022-10-21 19:10:21,-34.9540688120813,-54.941074132426,32.480316,40.4199488,8.564405785872,48.984354585872,34.120736,11.2741776,103.270016428,104.684714636,26,5,8.176,48.984354585872,32.480316,16.0612292,103.270016428,-1.342164,-11.1847,-2.23694,258.9, 19.4, -1.5,0,0,1024,1024,1024,1366,0,0,0,52,260.2,0,0,95,4.076,4.071,0,0,0,0,7.208,76.82,48.984354585872,32.480316,6,P-GPS,
14300,2022-10-21 19:10:21,-34.9540691159555,-54.941079002328,32.480316,40.4855656,8.498788985872,48.984354585872,34.44882,10.8044202,104.724740884,106.14501652,26,5,8.176,48.984354585872,32.480316,16.0612292,104.724740884,-1.11847,-10.737312,-1.342164,258.9, 19.6, -1.5,0,0,1024,1024,1024,1684,0,0,0,100,260.7,0,0,95,4.076,4.071,0,0,0,0,7.208,76.82,48.984354585872,32.480316,6,P-GPS,
14400,2022-10-21 19:10:21,-34.9540694136644,-54.941083712265,32.8084,40.9120748,8.400363785872,49.312438585872,34.776904,9.8649054,106.132221244,107.557746224,26,5,8.287,49.312438585872,32.8084,16.0612292,106.132221244,-0.671082,-9.842536,-0.671082,260, 20.3, -0.9,0,0,1024,1024,1024,1684,0,0,0,100,263.8,0,0,95,4.201,4.189,0,0,0,0,5.692,77,49.312438585872,32.8084,6,P-GPS,
14500,2022-10-21 19:10:21,-34.9540696048763,-54.9410883962381,32.8084,40.9776916,8.334746985872,49.312438585872,34.776904,8.94776,107.525922076,108.960305324,26,5,8.287,49.312438585872,32.8084,16.0612292,107.525922076,-0.447388,-8.94776,-0.223694,263.7, 20.2, 0.2,0,0,1024,1024,1024,1684,0,0,0,100,268.4,0,0,95,4.201,4.189,0,0,0,0,5.692,77,49.312438585872,32.8084,6,P-GPS,
14600,2022-10-21 19:10:21,-34.9540696952419,-54.9410924023457,32.8084,41.0433084,8.269130185872,49.312438585872,34.776904,8.94776,108.71391424,110.158468092,26,5,8.287,49.312438585872,32.8084,16.0612292,108.71391424,-0.223694,-8.052984,0,268.3, 19.3, 1.3,0,0,1024,1024,1024,1684,0,0,0,100,273.1,0,0,95,4.201,4.189,0,0,0,0,5.692,77,49.312438585872,32.8084,6,P-GPS,
14700,2022-10-21 19:10:21,-34.9540695319806,-54.9410957575137,33.136484,41.4370092,8.203513385872,49.640522585872,34.776904,7.158208,109.695213484,111.163717468,26,5,8.287,49.640522585872,33.136484,16.0612292,109.695213484,0,-7.158208,0,273.2, 18.4, 2.6,0,0,1024,1024,1024,1684,0,0,0,100,277.9,0,0,95,4.201,4.189,0,0,0,0,5.692,77,49.640522585872,33.136484,6,P-GPS,
14800,2022-10-21 19:10:21,-34.954069467416,-54.9410987981451,33.136484,41.4698176,8.170704985872,49.640522585872,34.776904,6.263432,110.589570468,112.073166316,26,5,8.287,49.640522585872,33.136484,16.0612292,110.589570468,0,-6.263432,0,277.7, 17.6, 3.9,0,0,1024,1024,1024,1684,0,0,0,100,282.7,0,0,95,4.201,4.189,0,0,0,0,5.692,77,49.640522585872,33.136484,6,P-GPS,
14900,2022-10-21 19:10:21,-34.9540692648702,-54.941101549535,33.464568,41.8635184,8.105088185872,49.968606585872,34.776904,5.59235,111.39107968,112.899281828,26,5,8.287,49.968606585872,33.464568,16.0612292,111.39107968,0.223694,-5.59235,0,282.5, 17.6, 4.1,0,0,1024,1024,1024,1684,0,0,0,100,287.5,0,0,95,4.201,4.189,0,0,0,0,5.692,77,49.968606585872,33.464568,6,P-GPS,
15000,2022-10-21 19:10:21,-34.9540690009385,-54.9411038100338,33.792652,42.2244108,8.072279785872,50.296690585872,34.776904,4.7199434,112.044623008,113.582024632,26,5,8.287,50.296690585872,33.792652,16.0612292,112.044623008,0.447388,-4.697574,0,287.5, 16.9, 4.6,0,0,1024,1024,1024,1684,0,0,0,100,292.4,0,0,95,4.201,4.189,0,0,0,0,5.692,77,50.296690585872,33.792652,6,P-GPS,
15100,2022-10-21 19:10:21,-34.9540686953349,-54.9411058505703,33.792652,42.2572192,8.039471385872,50.296690585872,34.776904,3.8699062,112.630909116,114.202431476,26,5,8.287,50.296690585872,33.792652,16.0612292,112.630909116,0.671082,-3.802798,0,292.3, 16.6, 4.8,0,0,1024,1024,1024,1684,0,0,0,100,297.2,0,0,95,4.201,4.189,0,0,0,0,5.692,77,50.296690585872,33.792652,6,P-GPS,
15200,2022-10-21 19:10:21,-34.9540683064071,-54.9411070736379,34.120736,42.5853032,8.039471385872,50.624774585872,34.776904,3.1988242,112.971460308,114.59481994,26,5,8.287,50.624774585872,34.120736,16.0612292,112.971460308,0.671082,-3.131716,0,297.3, 17.1, 4.8,0,0,1024,1024,1024,1684,0,0,0,100,302,0,0,95,4.201,4.189,0,0,0,0,5.692,77,50.624774585872,34.120736,6,P-GPS,
15300,2022-10-21 19:10:22,-34.9540679139033,-54.9411083917396,34.120736,42.5853032,8.039471385872,50.624774585872,34.776904,2.5501116,113.340226724,115.014111292,26,5,8.287,50.624774585872,34.120736,16.0612292,113.340226724,0.671082,-2.460634,0,302.3, 17.2, 4.5,0,0,1024,1024,1024,1684,0,0,0,100,302,0,0,95,4.201,4.189,0,0,0,0,5.692,77,50.624774585872,34.120736,6,P-GPS,
15400,2022-10-21 19:10:22,-34.9540675307988,-54.9411093347221,34.44882,42.9461956,8.006662985872,50.952858585872,34.776904,1.901399,113.599085,115.328743848,26,5,8.346,50.952858585872,34.44882,16.0612292,113.599085,0.671082,-1.789552,0,307.3, 17.1, 4.6,0,0,1024,1024,1024,1659,0,0,0,96,306.8,0,0,95,4.162,4.153,0,0,0,0,3.39,77,50.952858585872,34.44882,6,P-GPS,
15500,2022-10-21 19:10:22,-34.9540670961866,-54.9411100012151,34.44882,42.9461956,8.006662985872,50.952858585872,34.776904,1.4987498,113.773297604,115.583665116,26,5,8.346,50.952858585872,34.44882,16.0612292,113.773297604,0.671082,-1.342164,0,311.8, 13.6, 2.7,0,0,1024,1024,1024,1684,0,0,0,100,316.3,0,0,95,4.162,4.153,0,0,0,0,3.39,77,50.952858585872,34.44882,6,P-GPS,
15600,2022-10-21 19:10:22,-34.954066590545,-54.9411102743598,34.44882,42.9461956,8.006662985872,50.952858585872,34.776904,1.11847,113.828087632,115.785108692,26,5,8.346,50.952858585872,34.44882,16.0612292,113.828087632,0.671082,-0.894776,0,316.3, 11.1, 1,0,0,1024,1024,1024,1684,0,0,0,100,320.9,0,0,95,4.162,4.153,0,0,0,0,3.39,77,50.952858585872,34.44882,6,P-GPS,
15700,2022-10-21 19:10:22,-34.9540662872017,-54.9411106146931,34.44882,42.979004,7.973854585872,50.952858585872,34.776904,0.8052984,113.913061388,115.935699248,26,5,8.346,50.952858585872,34.44882,16.0612292,113.913061388,0.447388,-0.671082,0,320.8, 9.1, 0.6,0,0,1024,1024,1024,1684,0,0,0,100,325.6,0,0,95,4.162,4.153,0,0,0,0,3.39,77,50.952858585872,34.44882,6,P-GPS,
15800,2022-10-21 19:10:22,-34.9540660191663,-54.9411108609121,34.44882,42.979004,7.973854585872,50.952858585872,34.776904,0.6263432,113.972444592,116.05807458,26,5,8.346,50.952858585872,34.44882,16.0612292,113.972444592,0.447388,-0.447388,0,325.5, 8, 0.5,0,0,1024,1024,1024,1669,0,0,0,98,330.4,0,0,95,4.162,4.153,0,0,0,0,3.39,77,50.952858585872,34.44882,6,P-GPS,
15900,2022-10-21 19:10:22,-34.9540657405591,-54.9411110779478,34.44882,42.979004,7.973854585872,50.952858585872,34.776904,0.6263432,114.02231336,116.178481408,26,5,8.346,50.952858585872,34.44882,16.0612292,114.02231336,0.447388,-0.447388,0,330.2, 7.6, 0.6,0,0,1024,1024,1024,1295,0,0,0,41,335.2,0,0,95,4.162,4.153,0,0,0,0,3.39,77,50.952858585872,34.44882,6,P-GPS,
16000,2022-10-21 19:10:22,-34.9540655528646,-54.941111375384,34.44882,42.979004,7.973854585872,50.952858585872,34.776904,0.8052984,114.10105352,116.29101422,26,5,8.346,50.952858585872,34.44882,16.0612292,114.10105352,0.671082,-0.447388,0,334.9, 7.4, 0.5,0,0,1024,1024,1024,1024,0,0,0,0,339.5,0,0,95,4.162,4.153,0,0,0,0,3.39,77,50.952858585872,34.44882,6,P-GPS,
16100,2022-10-21 19:10:22,-34.9540653411213,-54.9411115217608,34.44882,42.979004,7.973854585872,50.952858585872,34.776904,0.9171454,114.13386192,116.3795969,26,5,8.346,50.952858585872,34.44882,16.0612292,114.13386192,0.894776,-0.223694,0,338.7, 7.5, 0.5,0,0,1024,1024,1024,1024,0,0,0,0,341.5,0,0,95,4.162,4.153,0,0,0,0,3.39,77,50.952858585872,34.44882,6,P-GPS,
16200,2022-10-21 19:10:22,-34.9540651622498,-54.941111635693,34.44882,42.979004,7.973854585872,50.952858585872,34.776904,0.7158208,114.15846822,116.4534158,26,5,8.346,50.952858585872,34.44882,16.0612292,114.15846822,0.671082,-0.223694,0,340.3, 7.7, 0.2,0,0,1024,1024,1024,1024,0,0,0,0,342.3,0,0,95,4.162,4.153,0,0,0,0,3.39,77,50.952858585872,34.44882,6,P-GPS,
16300,2022-10-21 19:10:23,-34.9540650126316,-54.9411117710319,34.776904,43.307088,7.973854585872,51.280942585872,34.776904,0.4921268,114.19127662,116.521329188,26,5,8.346,51.280942585872,34.776904,16.0612292,114.19127662,0.447388,-0.223694,0,341.1, 7.2, 0.5,0,0,1024,1024,1024,1024,0,0,0,0,342.5,0,0,95,4.162,4.153,0,0,0,0,3.39,77,51.280942585872,34.776904,6,P-GPS,
16400,2022-10-21 19:10:23,-34.954065011267,-54.9411122952874,34.776904,43.307088,7.973854585872,51.280942585872,34.776904,0.4921268,114.346460352,116.67815334,26,5,8.346,51.280942585872,34.776904,16.0612292,114.346460352,0.447388,-0.223694,0,341.2, 6.9, 1,0,0,1024,1024,1024,1024,0,0,0,0,342.5,0,0,95,4.162,4.153,0,0,0,0,3.39,77,51.280942585872,34.776904,6,P-GPS,
