time(millisecond),datetime(utc),latitude,longitude,height_above_takeoff(feet),height_above_ground_at_drone_location(feet),ground_elevation_at_drone_location(feet),altitude_above_seaLevel(feet),height_sonar(feet),speed(mph),distance(feet),mileage(feet),satellites,gpslevel,voltage(v),max_altitude(feet),max_ascent(feet),max_speed(mph),max_distance(feet), xSpeed(mph), ySpeed(mph), zSpeed(mph), compass_heading(degrees), pitch(degrees), roll(degrees),isPhoto,isVideo,rc_elevator,rc_aileron,rc_throttle,rc_rudder,rc_elevator(percent),rc_aileron(percent),rc_throttle(percent),rc_rudder(percent),gimbal_heading(degrees),gimbal_pitch(degrees),gimbal_roll(degrees),battery_percent,voltageCell1,voltageCell2,voltageCell3,voltageCell4,voltageCell5,voltageCell6,current(A),battery_temperature(f),altitude(feet),ascent(feet),flycStateRaw,flycState,message
0,2022-09-06 17:46:08,-34.911626743659,-55.0437292672459,0,0,33.169112938052,33.169112938052,0,0,0,0,17,5,0,33.169112938052,0,0,0,0,0,0,39.6, -8.4, 1.3,0,0,364,364,364,1684,-100,-100,-100,100,51.1,0,0,21,3.757,3.754,0,0,0,0,0,95,33.169112938052,0,41,Motors_Started,"En vuelo"
100,2022-09-06 17:46:08,-34.911626794402,-55.0437292732869,0,0,33.169112938052,33.169112938052,0,0,0.0186015753984,0.0186015753984,17,5,0,33.169112938052,0,0,0.0186015753984,0,0,0,39.8, -8.4, 1.1,0,0,364,364,364,1684,-100,-100,-100,100,51.2,0,0,21,3.757,3.754,0,0,0,0,0,95,33.169112938052,0,41,Motors_Started,
200,2022-09-06 17:46:09,-34.9116268542549,-55.0437292578501,0,0,33.169112938052,33.169112938052,0.328084,0,0.040448820192,0.04092191732,17,5,0,33.169112938052,0,0,0.040448820192,0,0,0,39.5, -7.5, 1.7,0,0,364,364,364,1684,-100,-100,-100,100,51.2,0,0,21,3.757,3.754,0,0,0,0,0,95,33.169112938052,0,41,Motors_Started,
300,2022-09-06 17:46:09,-34.9116268875711,-55.0437292591553,0,0,33.169112938052,33.169112938052,0.328084,0,0.052562009556,0.053083663116,17,5,0,33.169112938052,0,0,0.052562009556,0,0,0,39.8, -7.7, 1.2,0,0,364,364,364,1684,-100,-100,-100,100,51.2,0,0,21,3.757,3.754,0,0,0,0,0,95,33.169112938052,0,41,Motors_Started,
400,2022-09-06 17:46:09,-34.91162680781,-55.0437291707866,0,0,33.169112938052,33.169112938052,0.328084,0,0.037157809588,0.092401249676,17,5,0,33.169112938052,0,0,0.052562009556,0,0,0,39.5, -7.7, 1.4,0,0,364,364,364,1684,-100,-100,-100,100,51.1,0,0,21,3.757,3.754,0,0,0,0,0,95,33.169112938052,0,41,Motors_Started,
500,2022-09-06 17:46:09,-34.9116268297448,-55.0437291738554,0,0,33.169112938052,33.169112938052,0.328084,0,0.042038059088,0.100456696128,17,5,0,33.169112938052,0,0,0.052562009556,0,0,0,39, -7.5, 2.4,0,0,1024,1024,566,1555,0,0,-69,80,51,0,0,21,3.757,3.754,0,0,0,0,0,95,33.169112938052,0,41,Motors_Started,"Setting new Return-To-Home altitude to 60m (197 ft). Data Recorder File Index is 60. Setting new Maximum Flight Altitude to 120m (394 ft)"
600,2022-09-06 17:46:09,-34.9116268403128,-55.0437291592047,0,0,33.169112938052,33.169112938052,0.328084,0,0.047837599956,0.106294622824,17,5,0,33.169112938052,0,0,0.052562009556,0,0,0,38.7, -7.7, 2,0,0,1024,1024,1024,1024,0,0,0,0,50.6,0,0,21,3.757,3.754,0,0,0,0,0,95,33.169112938052,0,41,Motors_Started,
700,2022-09-06 17:46:09,-34.9116268441303,-55.0437290849115,0,0,33.169112938052,33.169112938052,0.328084,0,0.065724411552,0.128565948996,17,5,0,33.169112938052,0,0,0.065724411552,0,0,0,37.9, -7.4, 2.3,0,0,1024,1024,1361,1024,0,0,51,0,50.2,0,0,21,3.757,3.754,0,0,0,0,0,95,33.169112938052,0,41,Motors_Started,
800,2022-09-06 17:46:09,-34.9116267731359,-55.0437285819689,0,0,33.169112938052,33.169112938052,0.328084,0,0.205309717856,0.281254274092,17,5,0,33.169112938052,0,0,0.205309717856,0,0,0,38, -7, 2.1,0,0,1024,1024,1684,1024,0,0,100,0,49.6,0,0,21,3.757,3.754,0,0,0,0,0,95,33.169112938052,0,41,Motors_Started,
900,2022-09-06 17:46:09,-34.9116267731088,-55.0437284799883,0,0.098425200000004,33.070687738052,33.169112938052,0.328084,0,0.23578412828,0.311765758008,17,5,0,33.169112938052,0,0,0.23578412828,0,0,0,38, -7, 1.7,0,0,1024,1024,1684,1024,0,0,100,0,49.6,0,0,21,3.757,3.754,0,0,0,0,0,95,33.169112938052,0,41,Motors_Started,
1000,2022-09-06 17:46:09,-34.9116268014488,-55.043728393169,-0.328084,-0.2296588,33.070687738052,32.841028938052,0.328084,0,0.262363197372,0.33972442032,17,5,0,33.169112938052,0,0,0.262363197372,0,0,0,37.6, -6.5, 1.4,0,0,1024,1024,1565,1024,0,0,82,0,49.5,0,0,21,3.757,3.754,0,0,0,0,0,95,32.841028938052,-0.328084,41,Motors_Started,
1100,2022-09-06 17:46:09,-34.9116267900019,-55.0437282942729,-0.328084,-0.2296588,33.070687738052,32.841028938052,0.328084,0,0.291593841352,0.36960631104,18,5,0,33.169112938052,0,0,0.291593841352,0,0,0,36.5, -6.5, 2.6,0,0,1024,1024,1055,1024,0,0,5,0,48.9,0,0,21,3.757,3.754,0,0,0,0,0,95,32.841028938052,-0.328084,10,Assisted_Takeoff,
1200,2022-09-06 17:46:10,-34.9116267293604,-55.0437281541448,-0.328084,-0.2296588,33.070687738052,32.841028938052,0.328084,0,0.33306759596,0.4170111682,18,5,7.519,33.169112938052,0,0,0.33306759596,0,0,0.223694,36.1, -7.3, 2,0,0,1024,1024,1055,1024,0,0,5,0,48.1,0,0,21,3.757,3.754,0,0,0,0,1.081,95,32.841028938052,-0.328084,10,Assisted_Takeoff,
1300,2022-09-06 17:46:10,-34.9116266641095,-55.0437279137493,-0.328084,-0.2296588,33.070687738052,32.841028938052,0.328084,0,0.40599082664,0.49277232548,18,5,7.519,33.169112938052,0,0,0.40599082664,0,0,0,36.8, -5.7, 2.6,0,0,1024,1024,1137,1024,0,0,17,0,48,0,0,21,3.757,3.754,0,0,0,0,1.081,95,32.841028938052,-0.328084,10,Assisted_Takeoff,
1400,2022-09-06 17:46:10,-34.9116266904117,-55.0437279081255,-0.328084,-0.2296588,33.070687738052,32.841028938052,0.328084,0,0.40709975056,0.50251313944,18,5,7.519,33.169112938052,0,0,0.40709975056,0,0,0,37, -5.2, 2.3,0,0,1024,1024,1541,1024,0,0,78,0,48.3,0,0,21,3.757,3.754,0,0,0,0,1.081,95,32.841028938052,-0.328084,10,Assisted_Takeoff,
1500,2022-09-06 17:46:10,-34.9116266885604,-55.0437278900436,-0.328084,-0.2296588,33.070687738052,32.841028938052,0.328084,0,0.41253610244,0.50796589552,18,5,7.519,33.169112938052,0,0,0.41253610244,0,0,0,37, -5.2, 1.5,0,0,1024,1024,1684,1024,0,0,100,0,48.4,0,0,21,3.757,3.754,0,0,0,0,1.081,95,32.841028938052,-0.328084,10,Assisted_Takeoff,
1600,2022-09-06 17:46:10,-34.9116266843173,-55.0437278522284,-0.328084,-0.2296588,33.070687738052,32.841028938052,0.328084,0,0.42391077472,0.51938649956,18,5,7.519,33.169112938052,0,0,0.42391077472,0,0,0,37.4, -3.8, 1.5,0,0,1024,1024,1684,1024,0,0,100,0,48.6,0,0,21,3.757,3.754,0,0,0,0,1.081,95,32.841028938052,-0.328084,10,Assisted_Takeoff,
1700,2022-09-06 17:46:10,-34.9116267599248,-55.0437280071366,-0.328084,-0.2296588,33.070687738052,32.841028938052,0.328084,0,0.37705709868,0.57332022832,18,5,7.519,33.169112938052,0,0,0.42391077472,0,0,0.223694,37.1, -3.2, 1.5,0,0,1024,1024,1684,1024,0,0,100,0,48.7,0,0,21,3.757,3.754,0,0,0,0,1.081,95,32.841028938052,-0.328084,10,Assisted_Takeoff,
1800,2022-09-06 17:46:10,-34.9116267469729,-55.0437281274387,-0.328084,-0.2296588,33.070687738052,32.841028938052,0.328084,0,0.34102035212,0.60962272292,18,5,7.519,33.169112938052,0,0,0.42391077472,0,0,0.223694,37.1, -3, 1.6,0,0,1024,1024,1444,1024,0,0,64,0,48.7,0,0,21,3.757,3.754,0,0,0,0,1.081,95,32.841028938052,-0.328084,10,Assisted_Takeoff,
1900,2022-09-06 17:46:10,-34.9116267544717,-55.0437281927944,-0.328084,-0.2296588,33.070687738052,32.841028938052,0.328084,0,0.321488855432,0.62936681804,18,5,7.519,33.169112938052,0,0,0.42391077472,0,0,0,36.2, -2.6, 0.9,0,0,1024,1024,1585,1024,0,0,85,0,48.4,0,0,21,3.757,3.754,0,0,0,0,1.081,95,32.841028938052,-0.328084,10,Assisted_Takeoff,
2000,2022-09-06 17:46:10,-34.9116268176184,-55.0437282321793,-0.328084,-0.2296588,33.070687738052,32.841028938052,0.328084,0,0.31085466874,0.65524608396,18,5,7.519,33.169112938052,0,0,0.42391077472,0,0,0,35.1, -0.6, 0.4,0,0,1024,1024,1585,1024,0,0,85,0,47.3,0,0,21,3.757,3.754,0,0,0,0,1.081,95,32.841028938052,-0.328084,10,Assisted_Takeoff,
2100,2022-09-06 17:46:10,-34.9116269525985,-55.0437283897541,-0.328084,-0.2296588,33.070687738052,32.841028938052,0.328084,0,0.273379930008,0.72341865832,18,5,7.519,33.169112938052,0,0,0.42391077472,0,0,0,35.3, 0.6, 0,0,0,1024,1024,1684,1024,0,0,100,0,47,0,0,21,3.757,3.754,0,0,0,0,1.081,95,32.841028938052,-0.328084,6,P-GPS,
2200,2022-09-06 17:46:11,-34.9116270234428,-55.0437284826973,-0.328084,-0.2296588,33.070687738052,32.841028938052,0.328084,0,0.255964247036,0.7613845388,18,5,7.519,33.169112938052,0,0,0.42391077472,0,0,-0.447388,35.7, -0.3, 0.5,0,0,1024,1024,1464,1024,0,0,67,0,47,0,0,21,3.757,3.754,0,0,0,0,1.081,95,32.841028938052,-0.328084,6,P-GPS,
2300,2022-09-06 17:46:11,-34.9116270872536,-55.0437285823221,-0.328084,-0.328084,33.169112938052,32.841028938052,0.328084,0,0.240225401388,0.79920606232,18,5,7.519,33.169112938052,0,0,0.42391077472,0,0,-0.894776,35.8, -1, 0.7,0,0,1024,1024,1024,1024,0,0,0,0,47,0,0,21,3.757,3.754,0,0,0,0,1.081,95,32.841028938052,-0.328084,6,P-GPS,
2400,2022-09-06 17:46:11,-34.9116271456131,-55.0437286805392,0,0,33.169112938052,33.169112938052,0.656168,0,0.228735899708,0.83549543356,18,5,7.519,33.169112938052,0,0,0.42391077472,0,0,-1.342164,35.7, -1, 0.9,0,0,1024,1024,1024,1024,0,0,0,0,47,0,0,21,3.757,3.754,0,0,0,0,1.081,95,33.169112938052,0,6,P-GPS,
2500,2022-09-06 17:46:11,-34.9116272530295,-55.0437286985846,0,0,33.169112938052,33.169112938052,0.656168,0,0.251961622236,0.87505580228,18,5,7.519,33.169112938052,0,0,0.42391077472,0,0,-1.565858,35.7, -1, 1,0,0,1024,1024,1024,1024,0,0,0,0,47,0,0,21,3.757,3.754,0,0,0,0,1.081,95,33.169112938052,0,6,P-GPS,
2600,2022-09-06 17:46:11,-34.9116273299603,-55.0437287629745,0,0,33.169112938052,33.169112938052,0.984252,0,0.261764772156,0.90910107896,18,5,7.519,33.169112938052,0,0,0.42391077472,0,0,-1.565858,35.7, -1.3, 0.9,0,0,534,1366,1024,1024,-74,52,0,0,47,0,0,21,3.757,3.754,0,0,0,0,1.081,95,33.169112938052,0,6,P-GPS,
2700,2022-09-06 17:46:11,-34.9116273873359,-55.0437288155652,0.328084,0.328084,33.169112938052,33.497196938052,1.312336,0,0.270951124156,0.93528874384,17,5,7.519,33.497196938052,0.328084,0,0.42391077472,0,0,-1.565858,35.6, -1.4, 1.1,0,0,1024,1024,1024,1024,0,0,0,0,47,0,0,21,3.757,3.754,0,0,0,0,1.081,95,33.497196938052,0.328084,6,P-GPS,
2800,2022-09-06 17:46:11,-34.9116274324523,-55.0437288603552,0.656168,0.656168,33.169112938052,33.825280938052,1.312336,0,0.279239510248,0.9565124978,17,5,7.519,33.825280938052,0.656168,0,0.42391077472,0,0,-1.342164,35.6, 1.2, 2.3,0,0,1024,1024,1024,1024,0,0,0,0,47,0,0,21,3.757,3.754,0,0,0,0,1.081,95,33.825280938052,0.656168,6,P-GPS,
2900,2022-09-06 17:46:11,-34.9116274880311,-55.0437288654429,0.656168,0.656168,33.169112938052,33.825280938052,3.28084,0,0.297000665672,0.97684714412,17,5,7.519,33.825280938052,0.656168,0,0.42391077472,0,0,-0.894776,35.4, -1.2, 0.4,0,0,1024,1024,1024,1024,0,0,0,0,47,0,0,21,3.757,3.754,0,0,0,0,1.081,95,33.825280938052,0.656168,6,P-GPS,
3000,2022-09-06 17:46:11,-34.9116274960882,-55.0437286415219,0.984252,0.984252,33.169112938052,34.153364938052,3.608924,0,0.33228019436,1.04390751372,17,5,7.519,34.153364938052,0.984252,0,0.42391077472,0,0,-0.671082,35.6, -1.3, 0.4,0,0,1024,1024,1024,1024,0,0,0,0,47,0,0,21,3.757,3.754,0,0,0,0,1.081,95,34.153364938052,0.984252,6,P-GPS,
3100,2022-09-06 17:46:11,-34.9116275487948,-55.0437286570567,0.984252,1.0498688,33.103496138052,34.153364938052,3.608924,0,0.34586287196,1.06369097892,17,5,7.508,34.153364938052,0.984252,0,0.42391077472,0,0,-0.223694,35.6, -1.3, 0.5,0,0,1024,1024,1024,1024,0,0,0,0,47,0,0,21,3.731,3.726,0,0,0,0,1.776,95,34.153364938052,0.984252,6,P-GPS,
3200,2022-09-06 17:46:12,-34.9116276038414,-55.0437287274995,0.984252,1.0498688,33.103496138052,34.153364938052,3.608924,0,0.35294620552,1.09280515308,17,5,7.508,34.153364938052,0.984252,0,0.42391077472,0,0,0,35.6, -1, 0.2,0,0,1024,1024,1024,1024,0,0,0,0,47,0,0,21,3.731,3.726,0,0,0,0,1.776,95,34.153364938052,0.984252,6,P-GPS,
3300,2022-09-06 17:46:12,-34.9116276516568,-55.0437287525098,0.984252,1.0498688,33.103496138052,34.153364938052,3.608924,0,0.36532809568,1.11178481248,17,5,7.508,34.153364938052,0.984252,0,0.42391077472,0,0,0,35.6, -0.9, -0.3,0,0,1024,1024,1024,1024,0,0,0,0,47,0,0,21,3.731,3.726,0,0,0,0,1.776,95,34.153364938052,0.984252,6,P-GPS,
3400,2022-09-06 17:46:12,-34.9116276856724,-55.0437286488897,0.984252,1.0498688,33.103496138052,34.153364938052,3.608924,0,0.3903215348,1.14518048284,17,5,7.508,34.153364938052,0.984252,0,0.42391077472,0,0,0,35.6, -0.7, -0.3,0,0,1024,1024,1024,1024,0,0,0,0,47,0,0,21,3.731,3.726,0,0,0,0,1.776,95,34.153364938052,0.984252,6,P-GPS,
3500,2022-09-06 17:46:12,-34.9116277095821,-55.0437286746561,0.984252,1.0498688,33.103496138052,34.153364938052,3.608924,0,0.39450132496,1.15682090316,17,5,7.508,34.153364938052,0.984252,0,0.42391077472,0,0,0,35.7, -0.7, 0.3,0,0,1024,1024,1024,1024,0,0,0,0,47,0,0,21,3.731,3.726,0,0,0,0,1.776,95,34.153364938052,0.984252,6,P-GPS,
3600,2022-09-06 17:46:12,-34.9116277229334,-55.04372875101,0.984252,1.0498688,33.103496138052,34.153364938052,3.608924,0,0.38924213844,1.18018048396,17,5,7.508,34.153364938052,0.984252,0,0.42391077472,0,0,0,35.7, -0.6, 0.9,0,0,1024,1024,1024,1024,0,0,0,0,47,0,0,21,3.731,3.726,0,0,0,0,1.776,95,34.153364938052,0.984252,6,P-GPS,
3700,2022-09-06 17:46:12,-34.9116277136251,-55.0437287885418,0.984252,1.0498688,33.103496138052,34.153364938052,3.608924,0,0.3817749466,1.1919127678,17,5,7.508,34.153364938052,0.984252,0,0.42391077472,0,0,0,35.7, -0.3, 1.2,0,0,1024,1024,1024,1024,0,0,0,0,47,0,0,21,3.731,3.726,0,0,0,0,1.776,95,34.153364938052,0.984252,6,P-GPS,
3800,2022-09-06 17:46:12,-34.911627577268,-55.0437286924554,0.984252,1.0498688,33.103496138052,34.153364938052,3.608924,0,0.3493930558,1.24937011872,17,5,7.508,34.153364938052,0.984252,0,0.42391077472,0,0,0,35.6, -0.2, 0.9,0,0,1024,1024,1024,1024,0,0,0,0,47,0,0,21,3.731,3.726,0,0,0,0,1.776,95,34.153364938052,0.984252,6,P-GPS,
3900,2022-09-06 17:46:12,-34.9116275743902,-55.0437286876046,0.984252,1.0498688,33.103496138052,34.153364938052,3.608924,0,0.34919948624,1.25116145736,17,5,7.508,34.153364938052,0.984252,0,0.42391077472,0,0,0,35.6, -0.4, 0.8,0,0,1024,1024,1024,1024,0,0,0,0,47,0,0,21,3.731,3.726,0,0,0,0,1.776,95,34.153364938052,0.984252,6,P-GPS,
4000,2022-09-06 17:46:12,-34.9116276026217,-55.043728693489,0.984252,1.0498688,33.103496138052,34.153364938052,3.608924,0,0.35732612692,1.26161093276,17,5,7.508,34.153364938052,0.984252,0,0.42391077472,0,0,0,35.7, -0.5, 1,0,0,1024,1024,1024,1024,0,0,0,0,47,0,0,21,3.731,3.726,0,0,0,0,1.776,95,34.153364938052,0.984252,6,P-GPS,
4100,2022-09-06 17:46:12,-34.9116276279954,-55.0437286678694,0.984252,1.0498688,33.103496138052,34.153364938052,3.608924,0,0.36913387008,1.27362864968,18,5,7.419,34.153364938052,0.984252,0,0.42391077472,0,0,0,35.7, -0.6, 1.1,0,0,1024,1024,1024,1024,0,0,0,0,47,0,0,21,3.719,3.716,0,0,0,0,4.941,95,34.153364938052,0.984252,6,P-GPS,
4200,2022-09-06 17:46:13,-34.9116276735293,-55.0437284010011,0.984252,1.148294,33.005070938052,34.153364938052,3.608924,0,0.42692914752,1.3551837704,18,5,7.419,34.153364938052,0.984252,0,0.42692914752,0,0,0,35.8, -0.7, 1.2,0,0,1024,1024,1024,1024,0,0,0,0,47,0,0,21,3.719,3.716,0,0,0,0,4.941,95,34.153364938052,0.984252,6,P-GPS,
4300,2022-09-06 17:46:13,-34.9116277025102,-55.0437283274999,0.984252,1.148294,33.005070938052,34.153364938052,3.608924,0,0.448818912,1.37958337748,18,5,7.419,34.153364938052,0.984252,0,0.448818912,0,0,0,35.7, -0.1, 1,0,0,1024,1024,1024,1024,0,0,0,0,47,0,0,21,3.719,3.716,0,0,0,0,4.941,95,34.153364938052,0.984252,6,P-GPS,
4400,2022-09-06 17:46:13,-34.9116277371382,-55.0437282537186,0.984252,1.148294,33.005070938052,34.153364938052,3.608924,0,0.47258531696,1.40501973,18,5,7.419,34.153364938052,0.984252,0,0.47258531696,0,0,0,35.6, 0.1, 0.2,0,0,1024,1024,1024,1024,0,0,0,0,47,0,0,21,3.719,3.716,0,0,0,0,4.941,95,34.153364938052,0.984252,6,P-GPS,
4500,2022-09-06 17:46:13,-34.9116277727341,-55.0437281649699,0.984252,1.148294,33.005070938052,34.153364938052,3.608924,0,0.49972770628,1.43457681756,18,5,7.419,34.153364938052,0.984252,0,0.49972770628,0,0,0,35.7, 0.1, -0.3,0,0,1024,1024,1024,1024,0,0,0,0,47,0,0,21,3.719,3.716,0,0,0,0,4.941,95,34.153364938052,0.984252,6,P-GPS,
4600,2022-09-06 17:46:13,-34.911627806573,-55.0437280587347,0.984252,1.148294,33.005070938052,34.153364938052,3.608924,0,0.53021327156,1.46867458768,18,5,7.419,34.153364938052,0.984252,0,0.53021327156,0,0,0,35.7, 0.2, -0.5,0,0,1024,1024,1024,1024,0,0,0,0,47,0,0,21,3.719,3.716,0,0,0,0,4.941,95,34.153364938052,0.984252,6,P-GPS,
4700,2022-09-06 17:46:13,-34.9116278069131,-55.0437278540657,0.984252,1.148294,33.005070938052,34.153364938052,3.608924,0,0.57380907348,1.52991146628,18,5,7.419,34.153364938052,0.984252,0,0.57380907348,0,0,0,35.6, 0.5, -1.2,0,0,1024,1024,1024,1024,0,0,0,0,47,0,0,21,3.719,3.716,0,0,0,0,4.941,95,34.153364938052,0.984252,6,P-GPS,
4800,2022-09-06 17:46:13,-34.9116278734089,-55.0437277701508,0.984252,1.148294,33.005070938052,34.153364938052,3.608924,0,0.6087106494,1.56482288472,18,5,7.419,34.153364938052,0.984252,0,0.6087106494,0,0,0,35.6, 0.4, -1.2,0,0,1024,1024,1024,1024,0,0,0,0,47,0,0,21,3.719,3.716,0,0,0,0,4.941,95,34.153364938052,0.984252,6,P-GPS,
4900,2022-09-06 17:46:13,-34.9116279317671,-55.0437276990753,0.984252,1.148294,33.005070938052,34.153364938052,3.608924,0,0.63877626716,1.5949147492,18,5,7.419,34.153364938052,0.984252,0,0.63877626716,0,0,0,35.6, 0.6, -1.2,0,0,1024,1024,1024,1024,0,0,0,0,47,0,0,21,3.719,3.716,0,0,0,0,4.941,95,34.153364938052,0.984252,6,P-GPS,
5000,2022-09-06 17:46:13,-34.9116279885911,-55.0437276371932,0.984252,1.148294,33.005070938052,34.153364938052,3.608924,0,0.66645015256,1.62271330652,18,5,7.419,34.153364938052,0.984252,0,0.66645015256,0,0,0,35.7, 0.7, -1.1,0,0,1024,1024,1103,1024,0,0,12,0,47,0,0,21,3.719,3.716,0,0,0,0,4.941,95,34.153364938052,0.984252,6,P-GPS,
5100,2022-09-06 17:46:13,-34.9116280962194,-55.0437275389893,0.984252,1.148294,33.005070938052,34.153364938052,3.608924,0,0.71476708324,1.67175530284,18,5,7.417,34.153364938052,0.984252,0,0.71476708324,0,0,0,35.6, 0.7, -1.2,0,0,1024,1024,1207,1024,0,0,28,0,47,0,0,21,3.709,3.706,0,0,0,0,4.303,95,34.153364938052,0.984252,6,P-GPS,
5200,2022-09-06 17:46:14,-34.9116281348374,-55.043727575797,0.984252,1.148294,33.005070938052,34.153364938052,3.608924,0,0.7167487106,1.68963916168,18,5,7.417,34.153364938052,0.984252,0,0.7167487106,0,0,0,35.6, 0.5, -1,0,0,1024,1024,1207,1024,0,0,28,0,47,0,0,21,3.709,3.706,0,0,0,0,4.303,95,34.153364938052,0.984252,6,P-GPS,
5300,2022-09-06 17:46:14,-34.911628144989,-55.0437276323732,0.984252,1.148294,33.005070938052,34.153364938052,3.608924,0,0.70757220112,1.70696527772,18,5,7.417,34.153364938052,0.984252,0,0.7167487106,0,0,-0.223694,35.6, 0.3, -0.5,0,0,1024,1024,1354,1024,0,0,50,0,47,0,0,21,3.709,3.706,0,0,0,0,4.303,95,34.153364938052,0.984252,6,P-GPS,
5400,2022-09-06 17:46:14,-34.9116281265187,-55.0437277049322,1.312336,1.476378,33.005070938052,34.481448938052,3.608924,0,0.68778217424,1.72969821808,18,5,7.417,34.481448938052,1.312336,0,0.7167487106,0,0,-0.447388,35.6, 0.5, -0.3,0,0,1024,1024,1261,1024,0,0,36,0,47,0,0,21,3.709,3.706,0,0,0,0,4.303,95,34.481448938052,1.312336,6,P-GPS,
5500,2022-09-06 17:46:14,-34.911628064586,-55.0437277064516,1.312336,1.476378,33.005070938052,34.481448938052,3.937008,0,0.67106629444,1.752296644,18,5,7.417,34.481448938052,1.312336,0,0.7167487106,0,0,-1.11847,35.5, 0.1, -0.6,0,0,1024,1024,1024,1024,0,0,0,0,47,0,0,21,3.709,3.706,0,0,0,0,4.303,95,34.481448938052,1.312336,6,P-GPS,
5600,2022-09-06 17:46:14,-34.9116280968794,-55.043727691983,1.64042,1.804462,33.005070938052,34.809532938052,3.937008,0,0.68255907696,1.76484913784,18,5,7.417,34.809532938052,1.64042,0,0.7167487106,0,0,-0.894776,35.6, 0.5, -1,0,0,1024,1024,1024,1024,0,0,0,0,47,0,0,21,3.709,3.706,0,0,0,0,4.303,95,34.809532938052,1.64042,6,P-GPS,
5700,2022-09-06 17:46:14,-34.9116281408272,-55.0437277007246,1.64042,1.804462,33.005070938052,34.809532938052,4.265092,0,0.69247377544,1.78109585752,18,5,7.417,34.809532938052,1.64042,0,0.7167487106,0,0,-0.671082,35.6, 0.4, -0.9,0,0,1024,1024,1024,1024,0,0,0,0,47,0,0,21,3.709,3.706,0,0,0,0,4.303,95,34.809532938052,1.64042,6,P-GPS,
5800,2022-09-06 17:46:14,-34.9116282039076,-55.0437277401911,1.64042,1.804462,33.005070938052,34.809532938052,4.265092,0,0.70184385448,1.80696200008,18,5,7.417,34.809532938052,1.64042,0,0.7167487106,0,0,-0.447388,35.6, 0.7, -0.9,0,0,1024,1024,1024,1024,0,0,0,0,47,0,0,21,3.709,3.706,0,0,0,0,4.303,95,34.809532938052,1.64042,6,P-GPS,
5900,2022-09-06 17:46:14,-34.9116282617094,-55.043727521888,1.64042,1.804462,33.005070938052,34.809532938052,4.265092,0,0.76121393512,1.87559717288,17,5,7.417,34.809532938052,1.64042,0,0.76121393512,0,0,-0.223694,35.7, 0.6, -0.7,0,0,1062,1024,1024,1024,6,0,0,0,47,0,0,21,3.709,3.706,0,0,0,0,4.303,95,34.809532938052,1.64042,6,P-GPS,
6000,2022-09-06 17:46:14,-34.9116283033577,-55.0437274630396,1.64042,1.9028872,32.906645738052,34.809532938052,4.265092,0,0.7843504188,1.89885504764,17,5,7.417,34.809532938052,1.64042,0,0.7843504188,0,0,0,35.7, 0.2, -1.1,0,0,1491,1024,1024,1024,71,0,0,0,47,0,0,21,3.709,3.706,0,0,0,0,4.303,95,34.809532938052,1.64042,6,P-GPS,
6100,2022-09-06 17:46:14,-34.9116283623644,-55.0437274344531,1.64042,1.9028872,32.906645738052,34.809532938052,4.265092,0,0.80590225676,1.92202105888,17,5,7.407,34.809532938052,1.64042,0,0.80590225676,0,0,0,35.8, -0.8, -1.1,0,0,1570,1024,1024,1024,83,0,0,0,47,0,0,21,3.703,3.702,0,0,0,0,4.631,95,34.809532938052,1.64042,6,P-GPS,
6200,2022-09-06 17:46:15,-34.9116284288862,-55.0437274318837,1.64042,1.9028872,32.906645738052,34.809532938052,4.265092,0,0.82436682428,1.94630255572,17,5,7.407,34.809532938052,1.64042,0,0.82436682428,0,0,0,36, -7.4, -1.3,0,0,1570,1024,1024,1024,83,0,0,0,47,0,0,21,3.703,3.702,0,0,0,0,4.631,95,34.809532938052,1.64042,6,P-GPS,
6300,2022-09-06 17:46:15,-34.911628399204,-55.0437273743059,1.64042,1.9028872,32.906645738052,34.809532938052,4.265092,0.3131716,0.82800855668,1.9666503254,17,5,7.407,34.809532938052,1.64042,0.3131716,0.82800855668,0.223694,0.223694,0,36.2, -12.2, -1.4,0,0,1570,1024,1024,1024,83,0,0,0,47,0,0,21,3.703,3.702,0,0,0,0,4.631,95,34.809532938052,1.64042,6,P-GPS,
6400,2022-09-06 17:46:15,-34.9116281714607,-55.0437271821199,1.64042,1.9028872,32.906645738052,34.809532938052,4.265092,0.6263432,0.812746089,2.06769691656,17,5,7.407,34.809532938052,1.64042,0.6263432,0.82800855668,0.447388,0.447388,0,36.3, -13.4, -1.5,0,0,1553,1024,1024,1024,80,0,0,0,47,0,0,21,3.703,3.702,0,0,0,0,4.631,95,34.809532938052,1.64042,6,P-GPS,
6500,2022-09-06 17:46:15,-34.9116278587247,-55.0437268811241,1.64042,1.9028872,32.906645738052,34.809532938052,4.265092,1.11847,0.821686378,2.21305453276,17,5,7.407,34.809532938052,1.64042,1.11847,0.82800855668,0.894776,0.671082,0,36.3, -13.7, -1.4,0,0,1565,1024,1024,1024,82,0,0,0,47,0,0,21,3.703,3.702,0,0,0,0,4.631,95,34.809532938052,1.64042,6,P-GPS,
6600,2022-09-06 17:46:15,-34.9116273984901,-55.0437264120549,1.64042,1.9356956,32.873837338052,34.809532938052,4.265092,1.7448132,0.8870243066,2.43189640328,17,5,7.407,34.809532938052,1.64042,1.7448132,0.8870243066,1.342164,1.11847,0,36.4, -12.7, -1.2,0,0,1539,1024,1024,1024,78,0,0,0,47,0,0,21,3.703,3.702,0,0,0,0,4.631,95,34.809532938052,1.64042,6,P-GPS,
6700,2022-09-06 17:46:15,-34.9116267856858,-55.0437258389169,1.64042,1.9356956,32.873837338052,34.809532938052,4.265092,2.23694,1.02583336616,2.713664785,17,5,7.407,34.809532938052,1.64042,2.23694,1.02583336616,1.789552,1.342164,0,36.6, -12.4, -1.1,0,0,1539,1024,1024,1024,78,0,0,0,47,0,0,21,3.703,3.702,0,0,0,0,4.631,95,34.809532938052,1.64042,6,P-GPS,
6800,2022-09-06 17:46:15,-34.9116259788954,-55.0437250537859,1.64042,1.968504,32.841028938052,34.809532938052,4.265092,2.7290668,1.29113193108,3.09026256608,17,5,7.407,34.809532938052,1.64042,2.7290668,1.29113193108,2.23694,1.565858,0,36.7, -11.9, -0.9,0,0,1473,1024,1041,1024,68,0,3,0,47,0,0,21,3.703,3.702,0,0,0,0,4.631,95,34.809532938052,1.64042,6,P-GPS,
6900,2022-09-06 17:46:15,-34.9116250541177,-55.0437241982944,1.64042,2.0341208,32.775412138052,34.809532938052,4.265092,3.1764548,1.63706698152,3.51377964,17,5,7.407,34.809532938052,1.64042,3.1764548,1.63706698152,2.460634,2.013246,0,36.8, -11.3, -1.4,0,0,1340,1024,1073,1024,48,0,7,0,47,0,0,21,3.703,3.702,0,0,0,0,4.631,95,34.809532938052,1.64042,6,P-GPS,
7000,2022-09-06 17:46:15,-34.9116239347406,-55.043723149836,1.64042,2.0669292,32.742603738052,34.809532938052,4.265092,3.35541,2.0976542666,4.0287402864,17,5,7.407,34.809532938052,1.64042,3.35541,2.0976542666,2.684328,2.013246,0,37, -9.5, -0.9,0,0,1024,1024,1024,1024,0,0,0,0,47,0,0,21,3.703,3.702,0,0,0,0,4.631,95,34.809532938052,1.64042,6,P-GPS,
7100,2022-09-06 17:46:15,-34.9116227514863,-55.0437220029137,1.64042,2.0997376,32.709795338052,34.809532938052,4.265092,3.6685816,2.6163386664,4.580216682,17,5,7.409,34.809532938052,1.64042,3.6685816,2.6163386664,2.908022,2.23694,0,37.2, -7, -0.5,0,0,1024,1024,1024,1024,0,0,0,0,47,0,0,21,3.706,3.701,0,0,0,0,4.876,95,34.809532938052,1.64042,6,P-GPS,
7200,2022-09-06 17:46:16,-34.9116211463376,-55.0437201607844,1.64042,2.1981628,32.611370138052,34.809532938052,4.265092,3.8475368,3.4049541772,5.3844161828,17,5,7.409,34.809532938052,1.64042,3.8475368,3.4049541772,3.131716,2.23694,0,37.2, 5.2, -0.2,0,0,1024,1024,1024,1024,0,0,0,0,47,0,0,21,3.706,3.701,0,0,0,0,4.876,95,34.809532938052,1.64042,6,P-GPS,
7300,2022-09-06 17:46:16,-34.9116199628004,-55.0437189319334,1.64042,2.2309712,32.578561738052,34.809532938052,4.265092,3.35541,3.9601051136,5.9515421852,18,5,7.409,34.809532938052,1.64042,3.8475368,3.9601051136,2.684328,2.013246,0,37.2, 14.3, 0,0,0,1024,1024,1024,1024,0,0,0,0,47,0,0,21,3.706,3.701,0,0,0,0,4.876,95,34.809532938052,1.64042,6,P-GPS,
7400,2022-09-06 17:46:16,-34.9116189292832,-55.0437178088317,1.64042,2.2637796,32.545753338052,34.809532938052,4.593176,2.7290668,4.4588584104,6.4565946948,18,5,7.409,34.809532938052,1.64042,3.8475368,4.4588584104,2.23694,1.565858,0,37.4, 14.7, 0.5,0,0,1024,1024,1024,1024,0,0,0,0,47,0,0,21,3.706,3.701,0,0,0,0,4.876,95,34.809532938052,1.64042,6,P-GPS,
7500,2022-09-06 17:46:16,-34.9116181611632,-55.0437168943742,1.64042,2.3293964,32.480136538052,34.809532938052,4.593176,1.9237684,4.848589394,6.848261374,18,5,7.409,34.809532938052,1.64042,3.8475368,4.848589394,1.565858,1.11847,0,37.6, 12.3, 0.2,0,0,1024,1024,1024,1024,0,0,0,0,47,0,0,21,3.706,3.701,0,0,0,0,4.876,95,34.809532938052,1.64042,38,Tripod,
7600,2022-09-06 17:46:16,-34.9116175463857,-55.0437155799158,1.64042,2.4278216,32.381711338052,34.809532938052,4.593176,1.4316416,5.2943571248,7.301017294,18,5,7.409,34.809532938052,1.64042,3.8475368,5.2943571248,1.11847,0.894776,0,37.6, 9.6, 0.3,0,0,1024,1024,1024,1024,0,0,0,0,47,0,0,21,3.706,3.701,0,0,0,0,4.876,95,34.809532938052,1.64042,38,Tripod,
7700,2022-09-06 17:46:16,-34.9116171816924,-55.0437150079349,1.968504,2.788714,32.348902938052,35.137616938052,4.593176,0.8052984,5.5110566068,7.5177823928,18,5,7.409,35.137616938052,1.968504,3.8475368,5.5110566068,0.671082,0.447388,0,37.7, 7.6, 0.3,0,0,1024,1024,1024,1024,0,0,0,0,47,0,0,21,3.706,3.701,0,0,0,0,4.876,95,35.137616938052,1.968504,38,Tripod,
7800,2022-09-06 17:46:16,-34.9116170038077,-55.0437146059073,1.968504,2.788714,32.348902938052,35.137616938052,4.593176,0.4921268,5.6453085796,7.6544621872,18,5,7.409,35.137616938052,1.968504,3.8475368,5.6453085796,0.447388,0.223694,0,37.7, 5.8, 0.2,0,0,1444,901,1024,1024,64,-19,0,0,47,0,0,21,3.706,3.701,0,0,0,0,4.876,95,35.137616938052,1.968504,38,Tripod,
7900,2022-09-06 17:46:16,-34.9116169545424,-55.0437143427659,1.968504,2.8871392,32.250477738052,35.137616938052,4.593176,0,5.7179135688,7.7352036596,18,5,7.409,35.137616938052,1.968504,3.8475368,5.7179135688,0,0,0,37.8, 4.2, -0.8,0,0,1684,1024,1024,1024,100,0,0,0,47,0,0,21,3.706,3.701,0,0,0,0,4.876,95,35.137616938052,1.968504,38,Tripod,
8000,2022-09-06 17:46:16,-34.9116169880525,-55.0437141825258,1.968504,2.8871392,32.250477738052,35.137616938052,4.593176,0,5.7478348296,7.7846787268,18,5,7.409,35.137616938052,1.968504,3.8475368,5.7478348296,0,0,0,38.2, -1.1, -1.5,0,0,1684,1024,1024,1024,100,0,0,0,47,0,0,21,3.706,3.701,0,0,0,0,4.876,95,35.137616938052,1.968504,38,Tripod,
8100,2022-09-06 17:46:16,-34.9116176060584,-55.043714422122,1.968504,2.952756,32.184860938052,35.137616938052,4.593176,0.223694,5.5535106764,8.0212929076,18,5,7.385,35.137616938052,1.968504,3.8475368,5.7478348296,0.223694,0,0,38.4, -7.3, -0.9,0,0,1684,1024,1024,1024,100,0,0,0,47,0,0,21,3.693,3.689,0,0,0,0,4.799,95,35.137616938052,1.968504,38,Tripod,
8200,2022-09-06 17:46:17,-34.9116175770998,-55.0437143049918,1.968504,2.952756,32.184860938052,35.137616938052,4.593176,0.4921268,5.5878938796,8.0578742736,18,5,7.385,35.137616938052,1.968504,3.8475368,5.7478348296,0.447388,0.223694,0,38.4, -9.1, 0,0,0,1684,1024,1024,1024,100,0,0,0,47,0,0,21,3.693,3.689,0,0,0,0,4.799,95,35.137616938052,1.968504,38,Tripod,
8300,2022-09-06 17:46:17,-34.9116174177574,-55.0437141098924,1.968504,2.8871392,32.250477738052,35.137616938052,4.593176,0.8052984,5.669455562,8.140256166,18,5,7.385,35.137616938052,1.968504,3.8475368,5.7478348296,0.671082,0.447388,0,38.5, -9.9, 0.2,0,0,1185,1024,1024,1024,24,0,0,0,47,0,0,21,3.693,3.689,0,0,0,0,4.799,95,35.137616938052,1.968504,38,Tripod,
8400,2022-09-06 17:46:17,-34.9116170896626,-55.0437137917679,1.968504,2.8871392,32.250477738052,35.137616938052,4.593176,1.4316416,5.817585488,8.2932089268,18,5,7.385,35.137616938052,1.968504,3.8475368,5.817585488,1.11847,0.894776,0,38.4, -8.3, -0.3,0,0,1024,1024,1024,1024,0,0,0,0,47,0,0,21,3.693,3.689,0,0,0,0,4.799,95,35.137616938052,1.968504,38,Tripod,
8500,2022-09-06 17:46:17,-34.9116167777325,-55.0437137225951,1.968504,2.8871392,32.250477738052,35.137616938052,4.593176,1.6105968,5.9034778792,8.4088585368,18,5,7.385,35.137616938052,1.968504,3.8475368,5.9034778792,1.342164,0.894776,0,38.4, 1.9, -0.3,0,0,1024,1024,1024,1024,0,0,0,0,47,0,0,21,3.693,3.689,0,0,0,0,4.799,95,35.137616938052,1.968504,38,Tripod,
8600,2022-09-06 17:46:17,-34.9116162514137,-55.0437132571458,1.968504,2.9199476,32.217669338052,35.137616938052,4.593176,1.4316416,6.1317915348,8.6460960772,18,5,7.385,35.137616938052,1.968504,3.8475368,6.1317915348,1.11847,0.894776,0,38.6, 5.9, -0.1,0,0,1024,1024,1024,1024,0,0,0,0,47,0,0,21,3.693,3.689,0,0,0,0,4.799,95,35.137616938052,1.968504,38,Tripod,
8700,2022-09-06 17:46:17,-34.9116157280179,-55.0437128246284,1.968504,2.9199476,32.217669338052,35.137616938052,4.593176,1.4316416,6.3524608332,8.8767719376,18,5,7.385,35.137616938052,1.968504,3.8475368,6.3524608332,1.11847,0.894776,0,38.6, 6.9, -0.1,0,0,1024,1024,1024,1024,0,0,0,0,47,0,0,21,3.693,3.689,0,0,0,0,4.799,95,35.137616938052,1.968504,38,Tripod,
8800,2022-09-06 17:46:17,-34.9116151746816,-55.043712393012,1.968504,2.9855644,32.152052538052,35.137616938052,4.593176,1.11847,6.5806104468,9.1164044912,18,5,7.385,35.137616938052,1.968504,3.8475368,6.5806104468,0.894776,0.671082,0,38.6, 6.4, 0.3,0,0,1024,1024,1024,1024,0,0,0,0,47,0,0,21,3.693,3.689,0,0,0,0,4.799,95,35.137616938052,1.968504,38,Tripod,
8900,2022-09-06 17:46:17,-34.9116140116567,-55.0437113691473,2.296588,3.3464568,32.119244138052,35.465700938052,4.593176,0.8052984,7.0889766048,9.639764088,18,5,7.385,35.465700938052,2.296588,3.8475368,7.0889766048,0.671082,0.447388,0,38.6, 5.9, 0.1,0,0,1097,1024,1024,1024,11,0,0,0,47,0,0,21,3.693,3.689,0,0,0,0,4.799,95,35.465700938052,2.296588,38,Tripod,
9000,2022-09-06 17:46:17,-34.9116136740974,-55.0437109240541,2.296588,3.3464568,32.119244138052,35.465700938052,4.593176,0.4921268,7.2702758232,9.8211289232,18,5,7.385,35.465700938052,2.296588,3.8475368,7.2702758232,0.447388,0.223694,0,38.6, 5, 0.2,0,0,1193,1024,1024,1024,26,0,0,0,47,0,0,21,3.693,3.689,0,0,0,0,4.799,95,35.465700938052,2.296588,38,Tripod,
9100,2022-09-06 17:46:17,-34.9116134556172,-55.0437105536107,2.296588,3.28084,32.184860938052,35.465700938052,4.593176,0.3131716,7.4062338328,9.957677484,18,5,7.381,35.465700938052,2.296588,3.8475368,7.4062338328,0.223694,0.223694,0,38.4, 3, 0.3,0,0,1193,1024,1024,1024,26,0,0,0,47,0,0,21,3.691,3.686,0,0,0,0,4.956,95,35.465700938052,2.296588,38,Tripod,
9200,2022-09-06 17:46:18,-34.9116133268121,-55.0437102155245,2.296588,3.3792652,32.086435738052,35.465700938052,4.593176,0.223694,7.5135173008,10.0691932356,18,5,7.381,35.465700938052,2.296588,3.8475368,7.5135173008,0,0.223694,0,38.4, 1.2, 0.2,0,0,1264,1024,1024,1024,36,0,0,0,47,0,0,21,3.691,3.686,0,0,0,0,4.956,95,35.465700938052,2.296588,38,Tripod,
9300,2022-09-06 17:46:18,-34.911613474087,-55.0437099618325,2.296588,3.3792652,32.086435738052,35.465700938052,4.593176,0.223694,7.5366472228,10.1622050496,18,5,7.381,35.465700938052,2.296588,3.8475368,7.5366472228,0,0.223694,0,38.5, 0.1, 0.7,0,0,1279,1024,1045,1024,39,0,3,0,47,0,0,21,3.691,3.686,0,0,0,0,4.956,95,35.465700938052,2.296588,38,Tripod,
9400,2022-09-06 17:46:18,-34.911613457086,-55.0437098437281,2.296588,3.3792652,32.086435738052,35.465700938052,4.593176,0.223694,7.5677167776,10.1980646308,18,5,7.381,35.465700938052,2.296588,3.8475368,7.5677167776,0,0.223694,0,38.5, -0.5, 1,0,0,1288,1024,1041,1024,40,0,3,0,47,0,0,21,3.691,3.686,0,0,0,0,4.956,95,35.465700938052,2.296588,38,Tripod,
9500,2022-09-06 17:46:18,-34.9116134531305,-55.0437097236649,2.296588,3.3792652,32.086435738052,35.465700938052,4.593176,0.223694,7.5962600856,10.2340226372,18,5,7.381,35.465700938052,2.296588,3.8475368,7.5962600856,0,0.223694,0,38.3, -1.4, 0.3,0,0,1288,1024,1037,1024,40,0,2,0,47,0,0,21,3.691,3.686,0,0,0,0,4.956,95,35.465700938052,2.296588,38,Tripod,
9600,2022-09-06 17:46:18,-34.9116134436204,-55.0437095772541,2.296588,3.3792652,32.086435738052,35.465700938052,4.593176,0.223694,7.6322509004,10.2779530848,18,5,7.381,35.465700938052,2.296588,3.8475368,7.6322509004,0,0.223694,0,38.2, -1.5, -0.2,0,0,1150,1024,1024,1189,19,0,0,25,47,0,0,21,3.691,3.686,0,0,0,0,4.956,95,35.465700938052,2.296588,38,Tripod,
9700,2022-09-06 17:46:18,-34.9116134150022,-55.0437093898489,2.296588,3.4776904,31.988010538052,35.465700938052,4.593176,0.4921268,7.6822180936,10.3350068924,18,5,7.381,35.465700938052,2.296588,3.8475368,7.6822180936,0.223694,0.447388,0,38.1, -1.4, -0.7,0,0,1024,1024,1024,1341,0,0,0,48,47,0,0,21,3.691,3.686,0,0,0,0,4.956,95,35.465700938052,2.296588,38,Tripod,
9800,2022-09-06 17:46:18,-34.9116134572521,-55.0437092543136,2.296588,3.4776904,31.988010538052,35.465700938052,4.593176,0.4921268,7.7039372544,10.3783795972,18,5,7.381,35.465700938052,2.296588,3.8475368,7.7039372544,0.223694,0.447388,0,38.2, 0, -1.2,0,0,1024,1024,1024,1279,0,0,0,39,47,0,0,21,3.691,3.686,0,0,0,0,4.956,95,35.465700938052,2.296588,38,Tripod,
9900,2022-09-06 17:46:18,-34.9116133714999,-55.0437089830522,2.296588,3.4776904,31.988010538052,35.465700938052,4.593176,0.4921268,7.786745656,10.4653546656,18,5,7.381,35.465700938052,2.296588,3.8475368,7.786745656,0.223694,0.447388,0,38.1, 2.2, -1.8,0,0,1024,1024,1024,1024,0,0,0,0,47.1,0,0,21,3.691,3.686,0,0,0,0,4.956,95,35.465700938052,2.296588,38,Tripod,
10000,2022-09-06 17:46:18,-34.9116132604889,-55.0437086780755,2.296588,3.4776904,31.988010538052,35.465700938052,4.593176,0.4921268,7.8833007772,10.5651906268,18,5,7.381,35.465700938052,2.296588,3.8475368,7.8833007772,0.223694,0.447388,0,38.4, 2.6, -2,0,0,1024,1024,1024,1024,0,0,0,0,47.2,0,0,21,3.691,3.686,0,0,0,0,4.956,95,35.465700938052,2.296588,38,Tripod,
10100,2022-09-06 17:46:19,-34.9116131607678,-55.0437084434573,2.296588,3.5761156,31.889585338052,35.465700938052,4.593176,0.3131716,7.9608598348,10.6442588708,18,5,7.381,35.465700938052,2.296588,3.8475368,7.9608598348,0.223694,0.223694,0,38.8, 2.5, -2.2,0,0,1024,1024,1024,1024,0,0,0,0,47.4,0,0,21,3.694,3.69,0,0,0,0,4.78,95,35.465700938052,2.296588,38,Tripod,
10200,2022-09-06 17:46:19,-34.9116128996664,-55.0437080572492,2.296588,3.5761156,31.889585338052,35.465700938052,4.593176,0.3131716,8.1105973724,10.7939964084,18,5,7.381,35.465700938052,2.296588,3.8475368,8.1105973724,0.223694,0.223694,0,39.2, 2.3, -1.4,0,0,1024,1024,1024,1024,0,0,0,0,47.6,0,0,21,3.694,3.69,0,0,0,0,4.78,95,35.465700938052,2.296588,38,Tripod,
10300,2022-09-06 17:46:19,-34.9116128197098,-55.0437079167828,2.296588,3.5761156,31.889585338052,35.465700938052,4.593176,0,8.1616472428,10.8451775124,18,5,7.381,35.465700938052,2.296588,3.8475368,8.1616472428,0,0,0,39.5, 1.9, -1.2,0,0,1024,1024,1024,1024,0,0,0,0,47.7,0,0,21,3.694,3.69,0,0,0,0,4.78,95,35.465700938052,2.296588,38,Tripod,
10400,2022-09-06 17:46:19,-34.9116127585878,-55.0437077886518,2.296588,3.5761156,31.889585338052,35.465700938052,4.593176,0,8.2055120736,10.8895344692,18,5,7.381,35.465700938052,2.296588,3.8475368,8.2055120736,0,0,0,39.6, 2.6, -1,0,0,1024,1024,1024,1024,0,0,0,0,47.9,0,0,21,3.694,3.69,0,0,0,0,4.78,95,35.465700938052,2.296588,38,Tripod,
10500,2022-09-06 17:46:19,-34.9116126940933,-55.0437077132969,2.296588,3.5761156,31.889585338052,35.465700938052,4.593176,0,8.2378283476,10.9221132104,18,5,7.381,35.465700938052,2.296588,3.8475368,8.2378283476,0,0,0,39.7, 2, 0,0,0,1024,1024,1024,1072,0,0,0,7,48,0,0,21,3.694,3.69,0,0,0,0,4.78,95,35.465700938052,2.296588,38,Tripod,
10600,2022-09-06 17:46:19,-34.9116125203643,-55.0437074670015,2.296588,3.6745408,31.791160138052,35.465700938052,4.593176,0,8.3349412116,11.0193244996,18,5,7.381,35.465700938052,2.296588,3.8475368,8.3349412116,0,0,0,39.8, 1.6, 0.9,0,0,1024,1024,1024,1605,0,0,0,88,48.1,0,0,21,3.694,3.69,0,0,0,0,4.78,95,35.465700938052,2.296588,38,Tripod,
10700,2022-09-06 17:46:19,-34.9116124768181,-55.0437074618015,2.296588,3.6417324,31.823968538052,35.465700938052,4.593176,0,8.3460632592,11.035269382,18,5,7.381,35.465700938052,2.296588,3.8475368,8.3460632592,0,0,0,39.9, 1, 0.8,0,0,1024,1024,1024,1684,0,0,0,100,48.2,0,0,21,3.694,3.69,0,0,0,0,4.78,95,35.465700938052,2.296588,38,Tripod,
10800,2022-09-06 17:46:19,-34.9116124591413,-55.0437074939132,2.296588,3.6417324,31.823968538052,35.465700938052,4.593176,0,8.3425855688,11.0468507472,18,5,7.381,35.465700938052,2.296588,3.8475368,8.3460632592,0,0,0,40, 0.6, 0.7,0,0,1024,1024,1024,1684,0,0,0,100,48.5,0,0,21,3.694,3.69,0,0,0,0,4.78,95,35.465700938052,2.296588,38,Tripod,
10900,2022-09-06 17:46:19,-34.9116124467619,-55.0437075192265,2.296588,3.5433072,31.922393738052,35.465700938052,4.593176,0,8.3395015792,11.0556762068,18,5,7.381,35.465700938052,2.296588,3.8475368,8.3460632592,0,0,0,40.2, 0.8, 0.5,0,0,1024,1024,1024,1684,0,0,0,100,49,0,0,21,3.694,3.69,0,0,0,0,4.78,95,35.465700938052,2.296588,38,Tripod,
11000,2022-09-06 17:46:19,-34.9116123443719,-55.0437075465169,2.296588,3.5433072,31.922393738052,35.465700938052,4.593176,0,8.3565619472,11.0938979928,18,5,7.381,35.465700938052,2.296588,3.8475368,8.3565619472,0,0,0,40.9, 0.6, 0.5,0,0,1024,1024,1024,1684,0,0,0,100,49.8,0,0,21,3.694,3.69,0,0,0,0,4.78,95,35.465700938052,2.296588,38,Tripod,
11100,2022-09-06 17:46:19,-34.9116123561048,-55.0437075651728,2.296588,3.5433072,31.922393738052,35.465700938052,4.593176,0,8.3495081412,11.1009189904,18,5,7.381,35.465700938052,2.296588,3.8475368,8.3565619472,0,0,0,41.7, 0.6, 0.2,0,0,1024,1024,1024,1684,0,0,0,100,50.9,0,0,21,3.691,3.688,0,0,0,0,4.597,95.18,35.465700938052,2.296588,38,Tripod,
11200,2022-09-06 17:46:20,-34.9116123927676,-55.043707605018,2.296588,3.5433072,31.922393738052,35.465700938052,4.593176,0,8.331857222,11.1188651852,18,5,7.381,35.465700938052,2.296588,3.8475368,8.3565619472,0,0,0,43, 0.6, 0.5,0,0,1024,1024,1024,1684,0,0,0,100,52.3,0,0,21,3.691,3.688,0,0,0,0,4.597,95.18,35.465700938052,2.296588,38,Tripod,
11300,2022-09-06 17:46:20,-34.9116124415688,-55.043707624212,2.296588,3.5433072,31.922393738052,35.465700938052,4.593176,0,8.3162076152,11.1375659732,18,5,7.381,35.465700938052,2.296588,3.8475368,8.3565619472,0,0,0,44.5, 0.6, 0.4,0,0,1024,1024,1024,1684,0,0,0,100,53.9,0,0,21,3.691,3.688,0,0,0,0,4.597,95.18,35.465700938052,2.296588,38,Tripod,
11400,2022-09-06 17:46:20,-34.9116125097094,-55.043707620545,2.296588,3.5761156,31.889585338052,35.465700938052,4.593176,0,8.3014766436,11.1624347404,18,5,7.381,35.465700938052,2.296588,3.8475368,8.3565619472,0,0,0,46.1, 0.5, 0.3,0,0,1024,1024,1024,1684,0,0,0,100,55.7,0,0,21,3.691,3.688,0,0,0,0,4.597,95.18,35.465700938052,2.296588,38,Tripod,
11500,2022-09-06 17:46:20,-34.9116125762297,-55.043707574745,2.296588,3.5761156,31.889585338052,35.465700938052,4.593176,0,8.2970147012,11.1903218804,18,5,7.381,35.465700938052,2.296588,3.8475368,8.3565619472,0,0,0,47.9, 0.3, 0.1,0,0,1024,1024,1024,1646,0,0,0,94,57.7,0,0,21,3.691,3.688,0,0,0,0,4.597,95.18,35.465700938052,2.296588,38,Tripod,
11600,2022-09-06 17:46:20,-34.9116126365945,-55.0437076138798,2.296588,3.5761156,31.889585338052,35.465700938052,4.593176,0,8.2741472464,11.2152562644,18,5,7.381,35.465700938052,2.296588,3.8475368,8.3565619472,0,0,0,49.8, 0, -0.3,0,0,1024,1024,1024,1684,0,0,0,100,59.8,0,0,21,3.691,3.688,0,0,0,0,4.597,95.18,35.465700938052,2.296588,38,Tripod,
11700,2022-09-06 17:46:20,-34.9116126829547,-55.0437076642243,2.296588,3.5761156,31.889585338052,35.465700938052,4.593176,0,8.2518375344,11.2378940604,18,5,7.381,35.465700938052,2.296588,3.8475368,8.3565619472,0,0,0,51.9, -0.6, -0.1,0,0,1024,1024,1024,1684,0,0,0,100,61.9,0,0,21,3.691,3.688,0,0,0,0,4.597,95.18,35.465700938052,2.296588,38,Tripod,
11800,2022-09-06 17:46:20,-34.911612714939,-55.0437077263166,2.296588,3.5761156,31.889585338052,35.465700938052,4.593176,0,8.2300199484,11.25984288,18,5,7.381,35.465700938052,2.296588,3.8475368,8.3565619472,0,0,0,54.1, -0.5, 0,0,0,1024,1024,1024,1684,0,0,0,100,64.1,0,0,21,3.691,3.688,0,0,0,0,4.597,95.18,35.465700938052,2.296588,38,Tripod,
11900,2022-09-06 17:46:20,-34.9116126768024,-55.0437078027554,2.296588,3.5761156,31.889585338052,35.465700938052,4.593176,0,8.220800788,11.2866145344,18,5,7.381,35.465700938052,2.296588,3.8475368,8.3565619472,0,0,0,56.3, -0.3, -0.1,0,0,1024,1024,1024,1684,0,0,0,100,66.4,0,0,21,3.691,3.688,0,0,0,0,4.597,95.18,35.465700938052,2.296588,38,Tripod,
12000,2022-09-06 17:46:20,-34.9116127279893,-55.0437079577615,2.296588,3.5761156,31.889585338052,35.465700938052,4.593176,0,8.1729333324,11.336614536,18,5,7.381,35.465700938052,2.296588,3.8475368,8.3565619472,0,0,0,58.5, -0.4, -0.2,0,0,1024,1024,1024,1684,0,0,0,100,68.6,0,0,21,3.691,3.688,0,0,0,0,4.597,95.18,35.465700938052,2.296588,38,Tripod,
12100,2022-09-06 17:46:20,-34.9116127694251,-55.0437080709636,2.296588,3.5761156,31.889585338052,35.465700938052,4.593176,0,8.1370737512,11.373688028,18,5,7.382,35.465700938052,2.296588,3.8475368,8.3565619472,0,0,0,60.7, -0.1, -0.2,0,0,1024,1024,1024,1684,0,0,0,100,71,0,0,21,3.69,3.688,0,0,0,0,4.49,95,35.465700938052,2.296588,38,Tripod,
12200,2022-09-06 17:46:21,-34.9116128041191,-55.0437081464882,2.296588,3.5761156,31.889585338052,35.465700938052,4.593176,0,8.1115160076,11.399606664,18,5,7.382,35.465700938052,2.296588,3.8475368,8.3565619472,0,0,0,63.2, -0.1, -0.2,0,0,1024,1024,1024,1684,0,0,0,100,73.3,0,0,21,3.69,3.688,0,0,0,0,4.49,95,35.465700938052,2.296588,38,Tripod,
12300,2022-09-06 17:46:21,-34.9116128064999,-55.0437082355627,2.296588,3.5761156,31.889585338052,35.465700938052,4.593176,0,8.090223356,11.4262798932,18,5,7.382,35.465700938052,2.296588,3.8475368,8.3565619472,0,0,0,65.6, -0.1, -0.1,0,0,1024,1024,1024,1684,0,0,0,100,75.6,0,0,21,3.69,3.688,0,0,0,0,4.49,95,35.465700938052,2.296588,38,Tripod,
12400,2022-09-06 17:46:21,-34.9116128202293,-55.0437083259823,2.296588,3.5761156,31.889585338052,35.465700938052,4.593176,0,8.0660435652,11.4537733324,18,5,7.382,35.465700938052,2.296588,3.8475368,8.3565619472,0,0,0,67.9, -0.3, 0,0,0,1024,1024,1024,1684,0,0,0,100,78,0,0,21,3.69,3.688,0,0,0,0,4.49,95,35.465700938052,2.296588,38,Tripod,
12500,2022-09-06 17:46:21,-34.9116128078156,-55.0437083933008,2.296588,3.5761156,31.889585338052,35.465700938052,4.593176,0,8.0532810976,11.474409816,18,5,7.382,35.465700938052,2.296588,3.8475368,8.3565619472,0,0,0,70.3, -0.6, 0,0,0,1024,1024,1024,1684,0,0,0,100,80.4,0,0,21,3.69,3.688,0,0,0,0,4.49,95,35.465700938052,2.296588,38,Tripod,
12600,2022-09-06 17:46:21,-34.9116127640219,-55.0437084408716,2.296588,3.5761156,31.889585338052,35.465700938052,4.593176,0,8.0523624624,11.4958337012,18,5,7.382,35.465700938052,2.296588,3.8475368,8.3565619472,0,0,0,72.6, -0.8, 0.2,0,0,1024,1024,1024,1684,0,0,0,100,82.8,0,0,21,3.69,3.688,0,0,0,0,4.49,95,35.465700938052,2.296588,38,Tripod,
12700,2022-09-06 17:46:21,-34.9116125830936,-55.0437083256715,2.296588,3.5761156,31.889585338052,35.465700938052,4.593176,0,8.12089921,11.5702759608,18,5,7.382,35.465700938052,2.296588,3.8475368,8.3565619472,0,0,0,75, -0.9, 0.3,0,0,1024,1024,1024,1684,0,0,0,100,85.1,0,0,21,3.69,3.688,0,0,0,0,4.49,95,35.465700938052,2.296588,38,Tripod,
12800,2022-09-06 17:46:21,-34.9116125299624,-55.043708391133,2.296588,3.5761156,31.889585338052,35.465700938052,4.593176,0,8.1181761128,11.5978350168,18,5,7.382,35.465700938052,2.296588,3.8475368,8.3565619472,0,0,0,77.4, -0.8, 0.5,0,0,1024,1024,1024,1684,0,0,0,100,87.5,0,0,21,3.69,3.688,0,0,0,0,4.49,95,35.465700938052,2.296588,38,Tripod,
12900,2022-09-06 17:46:21,-34.9116125074149,-55.0437084483439,2.296588,3.5761156,31.889585338052,35.465700938052,4.593176,0,8.1102692884,11.6168310804,18,5,7.382,35.465700938052,2.296588,3.8475368,8.3565619472,0,0,0,79.8, -1, 0.8,0,0,1024,1024,1024,1684,0,0,0,100,89.9,0,0,21,3.69,3.688,0,0,0,0,4.49,95,35.465700938052,2.296588,38,Tripod,
13000,2022-09-06 17:46:21,-34.9116125281157,-55.0437085008588,2.296588,3.4776904,31.988010538052,35.465700938052,4.593176,0,8.0933729624,11.6342851492,18,5,7.382,35.465700938052,2.296588,3.8475368,8.3565619472,0,0,0,82.1, -1.3, 0.6,0,0,1024,1024,1024,1684,0,0,0,100,92.3,0,0,21,3.69,3.688,0,0,0,0,4.49,95,35.465700938052,2.296588,38,Tripod,
13100,2022-09-06 17:46:21,-34.9116125229829,-55.0437085332448,2.296588,3.4776904,31.988010538052,35.465700938052,4.593176,0,8.0871393664,11.6441276692,18,5,7.378,35.465700938052,2.296588,3.8475368,8.3565619472,0,0,0,84.6, -1.2, 0.2,0,0,1024,1024,1024,1684,0,0,0,100,94.7,0,0,21,3.688,3.686,0,0,0,0,4.465,95.18,35.465700938052,2.296588,38,Tripod,
13200,2022-09-06 17:46:22,-34.9116124867288,-55.0437084747333,2.296588,3.5433072,31.922393738052,35.465700938052,4.593176,0,8.1090553776,11.6660764888,18,5,7.378,35.465700938052,2.296588,3.8475368,8.3565619472,0,0,0,87.1, -1, 0.3,0,0,1024,1024,1024,1678,0,0,0,99,97.1,0,0,21,3.688,3.686,0,0,0,0,4.465,95.18,35.465700938052,2.296588,38,Tripod,
13300,2022-09-06 17:46:22,-34.9116124618836,-55.0437085066178,2.296588,3.4120736,32.053627338052,35.465700938052,4.593176,0,8.1075461912,11.6792326572,18,5,7.378,35.465700938052,2.296588,3.8475368,8.3565619472,0,0,0,89.6, -0.8, 0.1,0,0,1024,1024,1024,1678,0,0,0,99,99.5,0,0,21,3.688,3.686,0,0,0,0,4.465,95.18,35.465700938052,2.296588,38,Tripod,
13400,2022-09-06 17:46:22,-34.9116124555669,-55.0437085627761,2.296588,3.4120736,32.053627338052,35.465700938052,4.593176,0,8.0961616764,11.6961946,18,5,7.378,35.465700938052,2.296588,3.8475368,8.3565619472,0,0,0,91.9, -0.7, 0,0,0,1024,1024,1024,1683,0,0,0,100,101.9,0,0,21,3.688,3.686,0,0,0,0,4.465,95.18,35.465700938052,2.296588,38,Tripod,
13500,2022-09-06 17:46:22,-34.9116124560229,-55.0437086028799,2.296588,3.4120736,32.053627338052,35.465700938052,4.593176,0,8.0868768992,11.7082024744,18,5,7.378,35.465700938052,2.296588,3.8475368,8.3565619472,0,0,0,94.3, -0.6, -0.1,0,0,1024,1024,1024,1638,0,0,0,93,104.3,0,0,21,3.688,3.686,0,0,0,0,4.465,95.18,35.465700938052,2.296588,38,Tripod,
13600,2022-09-06 17:46:22,-34.9116124858153,-55.0437086668161,2.296588,3.4120736,32.053627338052,35.465700938052,4.593176,0,8.0652561636,11.7301841024,18,5,7.378,35.465700938052,2.296588,3.8475368,8.3565619472,0,0,0,96.6, -0.3, 0,0,0,1024,1024,1024,1483,0,0,0,70,106.7,0,0,21,3.688,3.686,0,0,0,0,4.465,95.18,35.465700938052,2.296588,38,Tripod,
13700,2022-09-06 17:46:22,-34.9116124908146,-55.0437086932577,2.296588,3.4120736,32.053627338052,35.465700938052,4.593176,0,8.0580383156,11.7383205856,18,5,7.378,35.465700938052,2.296588,3.8475368,8.3565619472,0,0,0,99, -0.3, -0.2,0,0,1024,1024,1024,1279,0,0,0,39,109.1,0,0,21,3.688,3.686,0,0,0,0,4.465,95.18,35.465700938052,2.296588,38,Tripod,
13800,2022-09-06 17:46:22,-34.9116124941627,-55.0437087245807,2.296588,3.4120736,32.053627338052,35.465700938052,4.593176,0,8.0500986828,11.7477694048,18,5,7.378,35.465700938052,2.296588,3.8475368,8.3565619472,0,0,0,101.3, -0.2, -0.2,0,0,1024,1024,1024,1150,0,0,0,19,111.4,0,0,21,3.688,3.686,0,0,0,0,4.465,95.18,35.465700938052,2.296588,38,Tripod,
13900,2022-09-06 17:46:22,-34.9116124947619,-55.0437087598449,2.296588,3.4120736,32.053627338052,35.465700938052,4.593176,0,8.0418965828,11.7583337096,18,5,7.378,35.465700938052,2.296588,3.8475368,8.3565619472,0,0,0,103.4, -0.4, -0.4,0,0,1024,1024,1024,1024,0,0,0,0,113.5,0,0,21,3.688,3.686,0,0,0,0,4.465,95.18,35.465700938052,2.296588,38,Tripod,
14000,2022-09-06 17:46:22,-34.9116124871148,-55.043708841165,2.296588,3.4120736,32.053627338052,35.465700938052,4.593176,0,8.0251642988,11.782808776,18,5,7.378,35.465700938052,2.296588,3.8475368,8.3565619472,0,0,0,105.4, -0.3, -0.3,0,0,1024,1024,1024,1024,0,0,0,0,115.3,0,0,21,3.688,3.686,0,0,0,0,4.465,95.18,35.465700938052,2.296588,38,Tripod,
14100,2022-09-06 17:46:22,-34.9116124800424,-55.0437088697848,2.296588,3.4120736,32.053627338052,35.465700938052,4.593176,0,8.0203086556,11.7917654692,18,5,7.371,35.465700938052,2.296588,3.8475368,8.3565619472,0,0,0,107.2, 0, -0.4,0,0,1024,1024,1024,1024,0,0,0,0,116.9,0,0,21,3.686,3.683,0,0,0,0,4.52,95.18,35.465700938052,2.296588,38,Tripod,
14200,2022-09-06 17:46:23,-34.9116124667592,-55.0437088845257,2.296588,3.4120736,32.053627338052,35.465700938052,4.593176,0,8.0201118052,11.7982943408,18,5,7.371,35.465700938052,2.296588,3.8475368,8.3565619472,0,0,0,108.8, -0.2, -0.6,0,0,1024,1024,1024,1024,0,0,0,0,118.4,0,0,21,3.686,3.683,0,0,0,0,4.52,95.18,35.465700938052,2.296588,38,Tripod,
14300,2022-09-06 17:46:23,-34.9116124487356,-55.0437088963701,1.968504,3.0839896,32.053627338052,35.137616938052,4.593176,0,8.0216866084,11.805774656,18,5,7.371,35.465700938052,2.296588,3.8475368,8.3565619472,0,0,0,110.4, -0.3, -0.5,0,0,1024,1024,1024,1024,0,0,0,0,119.9,0,0,21,3.686,3.683,0,0,0,0,4.52,95.18,35.137616938052,1.968504,38,Tripod,
14400,2022-09-06 17:46:23,-34.9116124060117,-55.0437088036338,1.968504,3.0839896,32.053627338052,35.137616938052,4.593176,0,8.0528873968,11.837598804,18,5,7.371,35.465700938052,2.296588,3.8475368,8.3565619472,0,0,0,111.7, -0.3, -0.6,0,0,1024,1024,1024,1024,0,0,0,0,121.1,0,0,21,3.686,3.683,0,0,0,0,4.52,95.18,35.137616938052,1.968504,38,Tripod,
14500,2022-09-06 17:46:23,-34.9116123883008,-55.0437087929256,1.968504,3.0839896,32.053627338052,35.137616938052,4.593176,0,8.059547502,11.844816652,18,5,7.371,35.465700938052,2.296588,3.8475368,8.3565619472,0,0,0,112.8, -0.6, -0.9,0,0,1024,1024,1024,1024,0,0,0,0,122.3,0,0,21,3.686,3.683,0,0,0,0,4.52,95.18,35.137616938052,1.968504,38,Tripod,
14600,2022-09-06 17:46:23,-34.9116123656296,-55.0437087544463,1.968504,3.0839896,32.053627338052,35.137616938052,4.593176,0,8.073655114,11.8589898808,18,5,7.371,35.465700938052,2.296588,3.8475368,8.3565619472,0,0,0,113.9, -0.7, -1.2,0,0,1024,1108,1024,1024,0,13,0,0,123.4,0,0,21,3.686,3.683,0,0,0,0,4.52,95.18,35.137616938052,1.968504,38,Tripod,
14700,2022-09-06 17:46:23,-34.9116123316537,-55.0437087260172,1.968504,3.0839896,32.053627338052,35.137616938052,4.593176,0,8.0881892352,11.874016128,18,5,7.371,35.465700938052,2.296588,3.8475368,8.3565619472,0,0,0,115, -0.9, -0.9,0,0,1024,1410,1024,1024,0,58,0,0,124.4,0,0,21,3.686,3.683,0,0,0,0,4.52,95.18,35.137616938052,1.968504,38,Tripod,
14800,2022-09-06 17:46:23,-34.911612282631,-55.043708711373,1.968504,3.0839896,32.053627338052,35.137616938052,4.593176,0,8.1031498656,11.8924544488,18,5,7.371,35.465700938052,2.296588,3.8475368,8.3565619472,0,0,0,116.2, -1, 0.8,0,0,1024,1395,1024,1024,0,56,0,0,125.2,0,0,21,3.686,3.683,0,0,0,0,4.52,95.18,35.137616938052,1.968504,38,Tripod,
14900,2022-09-06 17:46:23,-34.9116122725982,-55.0437085821868,1.968504,3.0839896,32.053627338052,35.137616938052,4.593176,0,8.1349083968,11.931266786,18,5,7.371,35.465700938052,2.296588,3.8475368,8.3565619472,0,0,0,117.1, -0.9, 4,0,0,1024,1207,1024,1024,0,28,0,0,125.9,0,0,21,3.686,3.683,0,0,0,0,4.52,95.18,35.137616938052,1.968504,38,Tripod,
15000,2022-09-06 17:46:23,-34.9116123376464,-55.0437086790053,1.968504,3.0839896,32.053627338052,35.137616938052,4.593176,0,8.097441204,11.9687011704,18,5,7.371,35.465700938052,2.296588,3.8475368,8.3565619472,0,0,0,117.9, -1.2, 4.4,0,0,1024,1063,1024,1024,0,6,0,0,126.5,0,0,21,3.686,3.683,0,0,0,0,4.52,95.18,35.137616938052,1.968504,38,Tripod,
15100,2022-09-06 17:46:23,-34.9116124305573,-55.043708800996,1.968504,3.0839896,32.053627338052,35.137616938052,4.593176,0.3131716,8.0476708612,12.01853713,18,5,7.368,35.465700938052,2.296588,3.8475368,8.3565619472,-0.223694,-0.223694,0,118.5, -1, 2.8,0,0,1024,1063,1024,1024,0,6,0,0,127,0,0,21,3.684,3.681,0,0,0,0,4.533,95.18,35.137616938052,1.968504,38,Tripod,
15200,2022-09-06 17:46:24,-34.911612539523,-55.0437089456542,1.968504,3.1496064,31.988010538052,35.137616938052,4.593176,0.3131716,7.9889438252,12.0772969744,18,5,7.368,35.465700938052,2.296588,3.8475368,8.3565619472,-0.223694,-0.223694,0,118.6, -1.1, 0,0,0,1024,1173,1024,1024,0,23,0,0,127.4,0,0,21,3.684,3.681,0,0,0,0,4.533,95.18,35.137616938052,1.968504,38,Tripod,
15300,2022-09-06 17:46:24,-34.9116127267012,-55.0437091478003,1.968504,3.1496064,31.988010538052,35.137616938052,4.593176,0.3131716,7.8986551084,12.1685043264,18,5,7.368,35.465700938052,2.296588,3.8475368,8.3565619472,-0.223694,-0.223694,0,118.9, -0.9, -0.7,0,0,1024,1186,1024,1024,0,25,0,0,127.7,0,0,21,3.684,3.681,0,0,0,0,4.533,95.18,35.137616938052,1.968504,38,Tripod,
15400,2022-09-06 17:46:24,-34.9116129061818,-55.0437092922705,1.968504,3.1496064,31.988010538052,35.137616938052,4.593176,0.4921268,7.823327022,12.2469820192,18,5,7.368,35.465700938052,2.296588,3.8475368,8.3565619472,-0.447388,-0.223694,0,119.3, -1.3, -0.4,0,0,1024,1214,1024,1024,0,29,0,0,127.8,0,0,21,3.684,3.681,0,0,0,0,4.533,95.18,35.137616938052,1.968504,38,Tripod,
15500,2022-09-06 17:46:24,-34.9116130906861,-55.0437094572327,1.968504,3.1496064,31.988010538052,35.137616938052,4.593176,0.4921268,7.7422246572,12.3304465888,18,5,7.368,35.465700938052,2.296588,3.8475368,8.3565619472,-0.447388,-0.223694,0,119.4, -1.1, -0.1,0,0,1024,1188,1024,1024,0,25,0,0,127.9,0,0,21,3.684,3.681,0,0,0,0,4.533,95.18,35.137616938052,1.968504,38,Tripod,
15600,2022-09-06 17:46:24,-34.9116133014866,-55.0437096694366,1.968504,3.0511812,32.086435738052,35.137616938052,4.593176,0.4921268,7.6441603496,12.4301841248,18,5,7.368,35.465700938052,2.296588,3.8475368,8.3565619472,-0.447388,-0.223694,0,119.4, -1.2, -0.2,0,0,1024,1238,1024,1024,0,32,0,0,127.9,0,0,21,3.684,3.681,0,0,0,0,4.533,95.18,35.137616938052,1.968504,38,Tripod,
15700,2022-09-06 17:46:24,-34.9116137207523,-55.043709933607,1.968504,3.116798,32.020818938052,35.137616938052,4.593176,0.4921268,7.4856629692,12.602362608,18,5,7.368,35.465700938052,2.296588,3.8475368,8.3565619472,-0.223694,-0.223694,0,119.3, -1.6, -0.5,0,0,1024,1024,1024,1024,0,0,0,0,127.9,0,0,21,3.684,3.681,0,0,0,0,4.533,95.18,35.137616938052,1.968504,38,Tripod,
15800,2022-09-06 17:46:24,-34.9116139590286,-55.0437101359489,1.968504,3.116798,32.020818938052,35.137616938052,4.593176,0.3131716,7.3837600788,12.7083009316,18,5,7.368,35.465700938052,2.296588,3.8475368,8.3565619472,-0.223694,-0.223694,0,119.3, -1.4, 0.1,0,0,1024,1024,1024,1024,0,0,0,0,127.9,0,0,21,3.684,3.681,0,0,0,0,4.533,95.18,35.137616938052,1.968504,38,Tripod,
15900,2022-09-06 17:46:24,-34.9116141388935,-55.043710308911,1.968504,3.116798,32.020818938052,35.137616938052,4.593176,0.3131716,7.3022312048,12.7918639264,18,5,7.368,35.465700938052,2.296588,3.8475368,8.3565619472,-0.223694,-0.223694,0,119.5, -1.2, -0.8,0,0,1024,1024,1024,1024,0,0,0,0,127.9,0,0,21,3.684,3.681,0,0,0,0,4.533,95.18,35.137616938052,1.968504,38,Tripod,
16000,2022-09-06 17:46:24,-34.9116142606401,-55.043710468459,1.968504,3.116798,32.020818938052,35.137616938052,4.593176,0.3131716,7.2371721476,12.8570870256,18,5,7.368,35.465700938052,2.296588,3.8475368,8.3565619472,-0.223694,-0.223694,0,119.7, -1.2, -0.9,0,0,1024,1024,1024,1024,0,0,0,0,127.9,0,0,21,3.684,3.681,0,0,0,0,4.533,95.18,35.137616938052,1.968504,38,Tripod,
16100,2022-09-06 17:46:24,-34.9116142067581,-55.0437106218171,1.968504,3.0183728,32.119244138052,35.137616938052,4.593176,0.3131716,7.2140094172,12.906988602,18,5,7.365,35.465700938052,2.296588,3.8475368,8.3565619472,0,-0.223694,0,119.7, -1.1, -0.8,0,0,1024,1024,1024,1024,0,0,0,0,127.9,0,0,20,3.685,3.682,0,0,0,0,4.501,95.18,35.137616938052,1.968504,38,Tripod,
16200,2022-09-06 17:46:25,-34.9116142588561,-55.0437108097107,2.296588,3.3464568,32.119244138052,35.465700938052,4.593176,0.223694,7.1585304128,12.9663389976,18,5,7.365,35.465700938052,2.296588,3.8475368,8.3565619472,0,-0.223694,0,119.7, -1.5, -0.7,0,0,1024,1356,1024,1024,0,50,0,0,127.9,0,0,20,3.685,3.682,0,0,0,0,4.501,95.18,35.465700938052,2.296588,38,Tripod,
16300,2022-09-06 17:46:25,-34.911614310144,-55.0437109813172,2.296588,3.3464568,32.119244138052,35.465700938052,4.593176,0.223694,7.1070212248,13.0209649836,18,5,7.365,35.465700938052,2.296588,3.8475368,8.3565619472,0,-0.223694,0,119.8, -1.3, 1.5,0,0,1024,1469,1024,1024,0,67,0,0,127.9,0,0,20,3.685,3.682,0,0,0,0,4.501,95.18,35.465700938052,2.296588,38,Tripod,
16400,2022-09-06 17:46:25,-34.9116144044056,-55.0437111678657,1.968504,3.0183728,32.119244138052,35.137616938052,4.593176,0.3131716,7.0421262096,13.0865489752,18,5,7.365,35.465700938052,2.296588,3.8475368,8.3565619472,-0.223694,-0.223694,0,119.6, -1.6, 2.9,0,0,1024,1565,1024,1024,0,82,0,0,127.9,0,0,20,3.685,3.682,0,0,0,0,4.501,95.18,35.137616938052,1.968504,38,Tripod,
16500,2022-09-06 17:46:25,-34.9116145637888,-55.0437113747286,1.968504,3.0839896,32.053627338052,35.137616938052,4.593176,0.3131716,6.957349304,13.1714571144,18,5,7.365,35.465700938052,2.296588,3.8475368,8.3565619472,-0.223694,-0.223694,0,119.6, -1.8, 4.1,0,0,1024,1422,1024,1024,0,60,0,0,127.9,0,0,20,3.685,3.682,0,0,0,0,4.501,95.18,35.137616938052,1.968504,38,Tripod,
16600,2022-09-06 17:46:25,-34.9116148547421,-55.043711571369,1.968504,2.9855644,32.152052538052,35.137616938052,4.593176,0.6263432,6.8444227912,13.292815386,18,5,7.365,35.465700938052,2.296588,3.8475368,8.3565619472,-0.447388,-0.447388,0,119.6, -1.7, 4.5,0,0,1024,1426,1024,1024,0,61,0,0,127.9,0,0,20,3.685,3.682,0,0,0,0,4.501,95.18,35.137616938052,1.968504,38,Tripod,
16700,2022-09-06 17:46:25,-34.9116151526651,-55.0437118691268,1.968504,2.9855644,32.152052538052,35.137616938052,4.593176,0.8052984,6.706693128,13.4333665716,18,5,7.365,35.465700938052,2.296588,3.8475368,8.3565619472,-0.671082,-0.447388,0,119.5, -1.9, 3.1,0,0,1024,1378,1024,1024,0,54,0,0,127.9,0,0,20,3.685,3.682,0,0,0,0,4.501,95.18,35.137616938052,1.968504,38,Tripod,
16800,2022-09-06 17:46:25,-34.9116154927974,-55.043712222202,1.968504,2.9855644,32.152052538052,35.137616938052,4.593176,1.11847,6.5465225192,13.5963258944,18,5,7.365,35.465700938052,2.296588,3.8475368,8.3565619472,-0.894776,-0.671082,0,119.5, -1.8, 2.4,0,0,1024,1378,1024,1024,0,54,0,0,127.9,0,0,20,3.685,3.682,0,0,0,0,4.501,95.18,35.137616938052,1.968504,38,Tripod,
16900,2022-09-06 17:46:25,-34.9116158840831,-55.0437125962157,1.968504,2.9199476,32.217669338052,35.137616938052,4.593176,1.11847,6.3699805188,13.777723538,18,5,7.365,35.465700938052,2.296588,3.8475368,8.3565619472,-0.894776,-0.671082,0,119.6, -2, 2,0,0,1024,1387,1024,860,0,55,0,-25,127.9,0,0,20,3.685,3.682,0,0,0,0,4.501,95.18,35.137616938052,1.968504,38,Tripod,
17000,2022-09-06 17:46:25,-34.9116163718387,-55.0437130122712,1.968504,2.9199476,32.217669338052,35.137616938052,4.593176,1.2974252,6.1621064964,13.994915146,18,5,7.365,35.465700938052,2.296588,3.8475368,8.3565619472,-1.11847,-0.671082,0,119.7, -1.9, 1.4,0,0,1024,1370,1024,944,0,52,0,-12,127.9,0,0,20,3.685,3.682,0,0,0,0,4.501,95.18,35.137616938052,1.968504,38,Tripod,
17100,2022-09-06 17:46:25,-34.9116168922398,-55.0437134181068,1.968504,2.9855644,32.152052538052,35.137616938052,4.593176,1.2974252,5.9501642324,14.2202760456,18,5,7.366,35.465700938052,2.296588,3.8475368,8.3565619472,-1.11847,-0.671082,0,119.7, -1.9, 1.5,0,0,1024,1267,1024,1024,0,37,0,0,127.8,0,0,20,3.683,3.68,0,0,0,0,4.392,95.18,35.137616938052,1.968504,38,Tripod,
