time(millisecond),datetime(utc),latitude,longitude,height_above_takeoff(feet),height_above_ground_at_drone_location(feet),ground_elevation_at_drone_location(feet),altitude_above_seaLevel(feet),height_sonar(feet),speed(mph),distance(feet),mileage(feet),satellites,gpslevel,voltage(v),max_altitude(feet),max_ascent(feet),max_speed(mph),max_distance(feet), xSpeed(mph), ySpeed(mph), zSpeed(mph), compass_heading(degrees), pitch(degrees), roll(degrees),isPhoto,isVideo,rc_elevator,rc_aileron,rc_throttle,rc_rudder,rc_elevator(percent),rc_aileron(percent),rc_throttle(percent),rc_rudder(percent),gimbal_heading(degrees),gimbal_pitch(degrees),gimbal_roll(degrees),battery_percent,voltageCell1,voltageCell2,voltageCell3,voltageCell4,voltageCell5,voltageCell6,current(A),battery_temperature(f),altitude(feet),ascent(feet),flycStateRaw,flycState,message
0,2022-09-03 18:58:34,-34.8660416312617,-55.2577530625453,0,0,411.28875758381,411.28875758381,0.328084,0,0,0,10,4,0,411.28875758381,0,0,0,0,0.223694,0,4.9, -4.4, 6.1,0,0,364,364,364,1684,-100,-100,-100,100,17.1,0,0,68,3.987,3.982,0,0,0,0,0,77.54,411.28875758381,0,41,Motors_Started,"En vuelo"
100,2022-09-03 18:58:34,-34.866041565795,-55.2577521552399,0,-0.065616799999987,411.35437438381,411.28875758381,0.328084,0,0.272655192452,0.272655192452,10,4,0,411.28875758381,0,0,0.272655192452,0,0,0,4.7, -4.1, 5,0,0,364,364,364,1684,-100,-100,-100,100,16.9,0,0,68,3.987,3.982,0,0,0,0,0,77.54,411.28875758381,0,41,Motors_Started,
200,2022-09-03 18:58:34,-34.8660414971626,-55.2577516296232,0,-0.13123359999997,411.41999118381,411.28875758381,0.328084,0,0.43173557812,0.43198164112,10,4,0,411.28875758381,0,0,0.43173557812,0,0,0,4.5, -3.9, 4.8,0,0,364,364,364,1684,-100,-100,-100,100,16.6,0,0,68,3.987,3.982,0,0,0,0,0,77.54,411.28875758381,0,41,Motors_Started,
300,2022-09-03 18:58:34,-34.8660414776343,-55.2577512241084,0,-0.16404199999999,411.45279958381,411.28875758381,0.328084,0,0.55319227492,0.55358269488,10,4,0,411.28875758381,0,0,0.55319227492,0,0,0,4.4, -4.3, 4.4,0,0,364,367,364,1684,-100,-100,-100,100,16.4,0,0,68,3.987,3.982,0,0,0,0,0,77.54,411.28875758381,0,41,Motors_Started,
400,2022-09-03 18:58:34,-34.8660414622357,-55.2577508567029,0,-0.16404199999999,411.45279958381,411.28875758381,0.328084,0,0.6632054018,0.66371065116,9,4,0,411.28875758381,0,0,0.6632054018,0,0,0,3.9, -4, 3.7,0,0,364,367,364,1684,-100,-100,-100,100,16,0,0,68,3.987,3.982,0,0,0,0,0,77.54,411.28875758381,0,41,Motors_Started,
500,2022-09-03 18:58:34,-34.8660414915868,-55.2577504430964,0,-0.22965879999998,411.51841638381,411.28875758381,0.328084,0,0.78580055008,0.78798887036,9,4,0,411.28875758381,0,0,0.78580055008,0,0,0,4.2, -3.6, 2.3,0,0,1024,1024,1024,1024,0,0,0,0,15.7,0,0,68,3.987,3.982,0,0,0,0,0,77.54,411.28875758381,0,41,Motors_Started,
600,2022-09-03 18:58:34,-34.8660414617146,-55.2577500992247,0,-0.22965879999998,411.51841638381,411.28875758381,0.328084,0,0.88924215444,0.89150593404,9,4,0,411.28875758381,0,0,0.88924215444,0,0,0,3, -3, 0.6,0,0,1024,1024,1024,1024,0,0,0,0,15.3,0,0,68,3.987,3.982,0,0,0,0,0,77.54,411.28875758381,0,41,Motors_Started,
700,2022-09-03 18:58:34,-34.8660414545723,-55.257749690066,0,-0.22965879999998,411.51841638381,411.28875758381,0.328084,0,1.01162732896,1.01401578048,9,4,0,411.28875758381,0,0,1.01162732896,0,0,0,1.6, -1.8, -0.8,0,0,1024,1024,1024,1024,0,0,0,0,13.9,0,0,68,3.987,3.982,0,0,0,0,0,77.54,411.28875758381,0,41,Motors_Started,
800,2022-09-03 18:58:35,-34.8660414539014,-55.2577492494697,0,-0.26246719999999,411.55122478381,411.28875758381,0.328084,0,1.14329728068,1.14591211016,8,4,0,411.28875758381,0,0,1.14329728068,0,0,0,359.3, -0.9, 0.6,0,0,1024,1024,1024,1024,0,0,0,0,11.8,0,0,68,3.987,3.982,0,0,0,0,0,77.54,411.28875758381,0,41,Motors_Started,"Setting new Return-To-Home altitude to 60m (197 ft). Data Recorder File Index is 51. Setting new Maximum Flight Altitude to 120m (394 ft)"
900,2022-09-03 18:58:35,-34.8660414728727,-55.2577485281484,0,-0.26246719999999,411.55122478381,411.28875758381,0.328084,0,1.35862537156,1.36195542416,8,4,0,411.28875758381,0,0,1.35862537156,0,0,0,0.3, -0.9, 2.4,0,0,1024,1024,1024,1024,0,0,0,0,11.1,0,0,68,3.987,3.982,0,0,0,0,0,77.54,411.28875758381,0,41,Motors_Started,
1000,2022-09-03 18:58:35,-34.8660414740843,-55.2577480269112,0,-0.32808399999998,411.61684158381,411.28875758381,0.328084,0,1.50853679368,1.51200136072,9,4,0,411.28875758381,0,0,1.50853679368,0,0,0.223694,359.3, -1.6, 4.5,0,0,1024,1024,1024,1024,0,0,0,0,11.2,0,0,68,3.987,3.982,0,0,0,0,0,77.54,411.28875758381,0,41,Motors_Started,
1100,2022-09-03 18:58:35,-34.8660415023183,-55.257747595931,0,-0.26246719999999,411.55122478381,411.28875758381,0.328084,0,1.63713916,1.64143049872,9,4,0,411.28875758381,0,0,1.63713916,0,0,0,359.4, -3.4, 7.3,0,0,1024,1024,1024,1024,0,0,0,0,10.9,0,0,68,3.987,3.982,0,0,0,0,0,77.54,411.28875758381,0,10,Assisted_Takeoff,
1200,2022-09-03 18:58:35,-34.866041507272,-55.2577472427043,0,-0.29527559999996,411.58403318381,411.28875758381,0.328084,0,1.74278876968,1.74718509528,10,4,7.978,411.28875758381,0,0,1.74278876968,0,0,0,0, -3.8, 8.3,0,0,1024,1024,1024,1024,0,0,0,0,11.5,0,0,68,3.987,3.982,0,0,0,0,1.081,77.54,411.28875758381,0,10,Assisted_Takeoff,
1300,2022-09-03 18:58:35,-34.8660414922252,-55.2577469118629,0,-0.3608924,411.64964998381,411.28875758381,0.328084,0,1.84193903532,1.84637801184,10,4,7.978,411.28875758381,0,0,1.84193903532,0,0,0,359, -3.3, 8.6,0,0,1024,1024,1275,1024,0,0,38,0,11.2,0,0,68,3.987,3.982,0,0,0,0,1.081,77.54,411.28875758381,0,10,Assisted_Takeoff,
1400,2022-09-03 18:58:35,-34.8660416099161,-55.2577468699844,0,-0.29527559999996,411.58403318381,411.28875758381,0.328084,0,1.85379271024,1.8911089844,9,4,7.978,411.28875758381,0,0,1.85379271024,0,0,0,358.9, -3.3, 9,0,0,1024,1024,1684,1024,0,0,100,0,10.9,0,0,68,3.987,3.982,0,0,0,0,1.081,77.54,411.28875758381,0,10,Assisted_Takeoff,
1500,2022-09-03 18:58:35,-34.8660414282273,-55.2577464173079,0,-0.42650919999999,411.71526678381,411.28875758381,0.328084,0,1.9906660742,2.04196528844,9,4,7.978,411.28875758381,0,0,1.9906660742,0,0,0,0.5, -3.4, 7.6,0,0,1024,1024,1684,1024,0,0,100,0,11.5,0,0,68,3.987,3.982,0,0,0,0,1.081,77.54,411.28875758381,0,10,Assisted_Takeoff,
1600,2022-09-03 18:58:35,-34.8660412600742,-55.2577460286029,0,-0.42650919999999,411.71526678381,411.28875758381,0.328084,0,2.11000006752,2.1735072874,10,4,7.978,411.28875758381,0,0,2.11000006752,0,0,0,1.6, -3.1, 6,0,0,1024,1024,1684,1024,0,0,100,0,12.6,0,0,68,3.987,3.982,0,0,0,0,1.081,77.54,411.28875758381,0,10,Assisted_Takeoff,
1700,2022-09-03 18:58:35,-34.8660410877229,-55.2577457782506,0,-0.42650919999999,411.71526678381,411.28875758381,0.328084,0,2.18959324592,2.27133865536,10,4,7.978,411.28875758381,0,0,2.18959324592,0,0,0,2.5, -2, 5,0,0,1024,1024,1684,1024,0,0,100,0,13.6,0,0,68,3.987,3.982,0,0,0,0,1.081,77.54,411.28875758381,0,10,Assisted_Takeoff,
1800,2022-09-03 18:58:36,-34.8660404696112,-55.2577456168758,0,-0.49212599999997,411.78088358381,411.28875758381,0.328084,0,2.26884193612,2.50197186484,10,4,7.978,411.28875758381,0,0,2.26884193612,0,0,0,3.7, -1.3, 3.8,0,0,1024,1024,1684,1024,0,0,100,0,14.3,0,0,68,3.987,3.982,0,0,0,0,1.081,77.54,411.28875758381,0,10,Assisted_Takeoff,
1900,2022-09-03 18:58:36,-34.8660402999176,-55.2577453522194,0,-0.52493439999999,411.81369198381,411.28875758381,0.328084,0,2.35868773952,2.60252304916,10,4,7.978,411.28875758381,0,0,2.35868773952,0,0,-0.223694,4.4, 0.2, 2.9,0,0,1024,1024,1684,1024,0,0,100,0,15.2,0,0,68,3.987,3.982,0,0,0,0,1.081,77.54,411.28875758381,0,10,Assisted_Takeoff,
2000,2022-09-03 18:58:36,-34.8660400791005,-55.2577450825827,0,-0.52493439999999,411.81369198381,411.28875758381,0.328084,0.223694,2.455052572,2.71656504756,11,4,7.978,411.28875758381,0,0.223694,2.455052572,0.223694,0,0,4, 2.5, 1,0,0,1024,1024,1684,1024,0,0,100,0,15.5,0,0,68,3.987,3.982,0,0,0,0,1.081,77.54,411.28875758381,0,10,Assisted_Takeoff,
2100,2022-09-03 18:58:36,-34.8660398154099,-55.2577448512119,0,-0.52493439999999,411.81369198381,411.28875758381,0.328084,0.223694,2.54582357228,2.83511163928,11,4,7.978,411.28875758381,0,0.223694,2.54582357228,0.223694,0,0,4.1, 1.8, 0.2,0,0,1024,1024,1684,1024,0,0,100,0,15.5,0,0,68,3.987,3.982,0,0,0,0,1.081,77.54,411.28875758381,0,6,P-GPS,
2200,2022-09-03 18:58:36,-34.8660396000253,-55.2577446852744,0,-0.52493439999999,411.81369198381,411.28875758381,0.328084,0.223694,2.614993522,2.92807752152,9,4,7.986,411.28875758381,0,0.223694,2.614993522,0.223694,0,0,4.2, 1.1, 0.1,0,0,1024,1024,1684,1024,0,0,100,0,15.5,0,0,68,3.958,3.951,0,0,0,0,1.449,77.54,411.28875758381,0,6,P-GPS,
2300,2022-09-03 18:58:36,-34.8660394603863,-55.2577446703125,0,-0.59055119999998,411.87930878381,411.28875758381,0.328084,0,2.63415690844,2.97922253628,9,4,7.986,411.28875758381,0,0.223694,2.63415690844,0,0,-0.447388,4.2, 0.5, 0,0,0,1024,1024,1684,1024,0,0,100,0,15.5,0,0,68,3.958,3.951,0,0,0,0,1.449,77.54,411.28875758381,0,6,P-GPS,
2400,2022-09-03 18:58:36,-34.8660393460207,-55.257744567386,0,-0.59055119999998,411.87930878381,411.28875758381,0.656168,0,2.67626648984,3.03109261668,10,4,7.986,411.28875758381,0,0.223694,2.67626648984,0,0,-0.894776,4.2, 0, 0,0,0,1024,1024,1024,1024,0,0,0,0,15.5,0,0,68,3.958,3.951,0,0,0,0,1.449,77.54,411.28875758381,0,6,P-GPS,
2500,2022-09-03 18:58:36,-34.8660392156702,-55.2577441205355,0,-0.65616799999996,411.94492558381,411.28875758381,0.656168,0,2.8181923474,3.17306112516,10,4,7.986,411.28875758381,0,0.223694,2.8181923474,0,0,-1.342164,4.2, -0.3, 0.1,0,0,1024,1024,1024,1024,0,0,0,0,15.5,0,0,68,3.958,3.951,0,0,0,0,1.449,77.54,411.28875758381,0,6,P-GPS,
2600,2022-09-03 18:58:36,-34.8660390961522,-55.2577433047553,0.328084,-0.36089239999998,411.97773398381,411.61684158381,0.984252,0,3.06398959936,3.4211287184,11,4,7.986,411.61684158381,0.328084,0.223694,3.06398959936,0,0,-1.789552,4.2, -0.1, -0.2,0,0,1024,1024,1024,1024,0,0,0,0,15.5,0,0,68,3.958,3.951,0,0,0,0,1.449,77.54,411.61684158381,0.328084,6,P-GPS,
2700,2022-09-03 18:58:37,-34.8660390480154,-55.2577429288404,0.656168,-0.032808399999979,411.97773398381,411.94492558381,1.312336,0,3.17662083656,3.5350394832,11,4,7.986,411.94492558381,0.656168,0.223694,3.17662083656,0,0,-1.789552,4.2, 0.3, -0.8,0,0,1024,1024,1024,1024,0,0,0,0,15.5,0,0,68,3.958,3.951,0,0,0,0,1.449,77.54,411.94492558381,0.656168,6,P-GPS,
2800,2022-09-03 18:58:37,-34.8660389872288,-55.257742569652,0.984252,0.29527560000002,411.97773398381,412.27300958381,5.905512,0,3.2858924936,3.6448163896,10,4,7.986,412.27300958381,0.984252,0.223694,3.2858924936,0,0,-1.565858,4.3, 0.5, -0.6,0,0,1024,1024,1024,1024,0,0,0,0,15.5,0,0,68,3.958,3.951,0,0,0,0,1.449,77.54,412.27300958381,0.984252,6,P-GPS,
2900,2022-09-03 18:58:37,-34.8660388232185,-55.2577421012515,0.984252,0.22965880000003,412.04335078381,412.27300958381,6.233596,0,3.4375329184,3.7972770244,10,4,7.986,412.27300958381,0.984252,0.223694,3.4375329184,0,0,-1.11847,4.2, 0.6, -1.2,0,0,1024,1024,1024,1024,0,0,0,0,15.5,0,0,68,3.958,3.951,0,0,0,0,1.449,77.54,412.27300958381,0.984252,6,P-GPS,
3000,2022-09-03 18:58:37,-34.8660386792933,-55.2577417214109,1.312336,0.55774280000003,412.04335078381,412.60109358381,6.233596,0,3.5617783292,3.9225066872,10,4,7.986,412.60109358381,1.312336,0.223694,3.5617783292,0,0,-0.671082,4.3, 0.5, -0.9,0,0,1024,1024,1024,1024,0,0,0,0,15.5,0,0,68,3.958,3.951,0,0,0,0,1.449,77.54,412.60109358381,1.312336,6,P-GPS,
3100,2022-09-03 18:58:37,-34.8660381442225,-55.2577410130363,1.312336,0.45931760000003,412.14177598381,412.60109358381,6.233596,0,3.8248688888,4.2107612896,10,4,7.986,412.60109358381,1.312336,0.223694,3.8248688888,0,0,-0.447388,4.2, 0.9, -1.4,0,0,1024,1024,1024,1024,0,0,0,0,15.5,0,0,68,3.958,3.951,0,0,0,0,1.449,77.54,412.60109358381,1.312336,6,P-GPS,
3200,2022-09-03 18:58:37,-34.8660379893933,-55.2577406707621,1.312336,0.45931760000003,412.14177598381,412.60109358381,6.56168,0,3.9403544568,4.327756044,12,4,7.794,412.60109358381,1.312336,0.223694,3.9403544568,0,0,0,4.2, 0.5, -1.1,0,0,1024,1024,1024,1024,0,0,0,0,15.5,0,0,68,3.933,3.929,0,0,0,0,4.394,77.54,412.60109358381,1.312336,6,P-GPS,
3300,2022-09-03 18:58:37,-34.8660378355021,-55.2577402735687,1.312336,0.3937008,412.20739278381,412.60109358381,6.56168,0,4.0712271644,4.4592521112,12,4,7.794,412.60109358381,1.312336,0.223694,4.0712271644,0,0,0,4.2, 0.2, -0.8,0,0,1024,1024,1024,1024,0,0,0,0,15.5,0,0,68,3.933,3.929,0,0,0,0,4.394,77.54,412.60109358381,1.312336,6,P-GPS,
3400,2022-09-03 18:58:37,-34.8660376870498,-55.2577399356379,1.64042,0.7217848,412.20739278381,412.92917758381,6.56168,0,4.1848098452,4.573983086,13,4,7.794,412.92917758381,1.64042,0.223694,4.1848098452,0,0,0,4.2, 0, -0.6,0,0,1024,1024,1024,1024,0,0,0,0,15.5,0,0,68,3.933,3.929,0,0,0,0,4.394,77.54,412.92917758381,1.64042,6,P-GPS,
3500,2022-09-03 18:58:37,-34.8660371632315,-55.257739505305,1.64042,0.68897640000003,412.24020118381,412.92917758381,6.233596,0,4.3735893788,4.804462096,13,4,7.794,412.92917758381,1.64042,0.223694,4.3735893788,0,0,0,4.2, -0.1, -0.5,0,0,1024,1024,1024,1024,0,0,0,0,15.5,0,0,68,3.933,3.929,0,0,0,0,4.394,77.54,412.92917758381,1.64042,6,P-GPS,
3600,2022-09-03 18:58:37,-34.8660369994361,-55.2577392982408,1.64042,0.62335959999999,412.30581798381,412.92917758381,6.233596,0,4.4535106412,4.890584146,14,4,7.794,412.92917758381,1.64042,0.223694,4.4535106412,0,0,0,4.2, -0.2, -0.4,0,0,1024,1024,1024,1024,0,0,0,0,15.5,0,0,68,3.933,3.929,0,0,0,0,4.394,77.54,412.92917758381,1.64042,6,P-GPS,
3700,2022-09-03 18:58:37,-34.8660368779574,-55.2577393441181,1.64042,0.62335959999999,412.30581798381,412.92917758381,6.233596,0,4.45784135,4.9369752236,14,4,7.794,412.92917758381,1.64042,0.223694,4.45784135,0,0,0,4.2, -0.4, -0.2,0,0,1024,1024,1024,1024,0,0,0,0,15.5,0,0,68,3.933,3.929,0,0,0,0,4.394,77.54,412.92917758381,1.64042,6,P-GPS,
3800,2022-09-03 18:58:38,-34.8660367502842,-55.2577393430114,1.64042,0.62335959999999,412.30581798381,412.92917758381,6.233596,0,4.4764765212,4.9835631516,14,4,7.794,412.92917758381,1.64042,0.223694,4.4764765212,0,0,0,4.2, -0.4, -0.1,0,0,1024,1024,1024,1024,0,0,0,0,15.5,0,0,68,3.933,3.929,0,0,0,0,4.394,77.54,412.92917758381,1.64042,6,P-GPS,"Punto de origen actualizado. Altitud de RPO establecida en 60m (Code: 3000001)"
3900,2022-09-03 18:58:38,-34.8660365654232,-55.2577391987179,1.64042,0.62335959999999,412.30581798381,412.92917758381,6.233596,0,4.5431759984,5.063648456,14,4,7.794,412.92917758381,1.64042,0.223694,4.5431759984,0,0,0,4.2, -0.4, -0.1,0,0,1024,1024,1024,1024,0,0,0,0,15.5,0,0,68,3.933,3.929,0,0,0,0,4.394,77.54,412.92917758381,1.64042,6,P-GPS,
4000,2022-09-03 18:58:38,-34.8660364487094,-55.2577388988338,1.64042,0.55774280000001,412.37143478381,412.92917758381,6.233596,0,4.6424870252,5.1629922912,13,4,7.794,412.92917758381,1.64042,0.223694,4.6424870252,0,0,0,4.2, -0.4, -0.2,0,0,1024,1024,1024,1024,0,0,0,0,15.5,0,0,68,3.933,3.929,0,0,0,0,4.394,77.54,412.92917758381,1.64042,6,P-GPS,
4100,2022-09-03 18:58:38,-34.8660363946385,-55.257738566395,1.64042,0.55774280000001,412.37143478381,412.92917758381,6.233596,0,4.741469968,5.2644686724,13,4,7.794,412.92917758381,1.64042,0.223694,4.741469968,0,0,0,4.2, -0.4, 0,0,0,1024,1024,1024,1024,0,0,0,0,15.5,0,0,68,3.933,3.929,0,0,0,0,4.394,77.54,412.92917758381,1.64042,6,P-GPS,
4200,2022-09-03 18:58:38,-34.8660363446909,-55.2577382897524,1.64042,0.52493440000004,412.40424318381,412.92917758381,6.233596,0,4.824639262,5.349245578,11,4,7.841,412.92917758381,1.64042,0.223694,4.824639262,0,0,0,4.1, -0.4, 0,0,0,1033,1024,1024,1024,1,0,0,0,15.5,0,0,68,3.917,3.911,0,0,0,0,3.999,77.54,412.92917758381,1.64042,6,P-GPS,
4300,2022-09-03 18:58:38,-34.8660364017027,-55.257737751899,1.64042,0.52493440000004,412.40424318381,412.92917758381,6.233596,0,4.9645998964,5.5116143496,11,4,7.841,412.92917758381,1.64042,0.223694,4.9645998964,0,0,0,4.2, -0.4, 0,0,0,1488,1024,1024,1024,70,0,0,0,15.5,0,0,68,3.917,3.911,0,0,0,0,3.999,77.54,412.92917758381,1.64042,6,P-GPS,
4400,2022-09-03 18:58:38,-34.8660363567088,-55.2577375034677,1.64042,0.52493440000004,412.40424318381,412.92917758381,6.233596,0,5.0395998988,5.587762646,11,4,7.841,412.92917758381,1.64042,0.223694,5.0395998988,0,0,0,4.2, -0.9, 0,0,0,1600,1024,1024,1024,87,0,0,0,15.5,0,0,68,3.917,3.911,0,0,0,0,3.999,77.54,412.92917758381,1.64042,6,P-GPS,
4500,2022-09-03 18:58:38,-34.8660364038523,-55.2577372564356,1.64042,0.4593176,412.46985998381,412.92917758381,6.233596,0,5.1015749664,5.6636812836,11,4,7.841,412.92917758381,1.64042,0.223694,5.1015749664,0,0,0,4.2, -7.9, 0.2,0,0,1566,1024,1024,1024,82,0,0,0,15.5,0,0,68,3.917,3.911,0,0,0,0,3.999,77.54,412.92917758381,1.64042,6,P-GPS,
4600,2022-09-03 18:58:38,-34.8660363661505,-55.2577370212435,1.64042,0.4593176,412.46985998381,412.92917758381,6.233596,0.223694,5.1720146012,5.7354332544,11,4,7.841,412.92917758381,1.64042,0.223694,5.1720146012,0.223694,0,0,4.2, -13.2, 0.1,0,0,1566,1024,1024,1024,82,0,0,0,15.5,0,0,68,3.917,3.911,0,0,0,0,3.999,77.54,412.92917758381,1.64042,6,P-GPS,
4700,2022-09-03 18:58:38,-34.8660361420766,-55.2577367954691,1.64042,0.4593176,412.46985998381,412.92917758381,6.56168,0.671082,5.2653873076,5.8415028116,11,4,7.841,412.92917758381,1.64042,0.671082,5.2653873076,0.671082,0,0,4.2, -13.9, 0,0,0,1684,1024,1024,1024,100,0,0,0,15.5,0,0,68,3.917,3.911,0,0,0,0,3.999,77.54,412.92917758381,1.64042,6,P-GPS,
4800,2022-09-03 18:58:39,-34.866036079362,-55.257736566458,1.64042,0.4593176,412.46985998381,412.92917758381,6.56168,1.342164,5.3375001708,5.9137797168,11,4,7.841,412.92917758381,1.64042,1.342164,5.3375001708,1.342164,0,0,4.2, -15.9, 0,0,0,1684,1024,1024,1024,100,0,0,0,15.5,0,0,68,3.917,3.911,0,0,0,0,3.999,77.54,412.92917758381,1.64042,6,P-GPS,
4900,2022-09-03 18:58:39,-34.8660353558769,-55.2577361551484,1.64042,0.3608924,412.56828518381,412.92917758381,6.56168,2.013246,5.5550854796,6.205052692,11,4,7.841,412.92917758381,1.64042,2.013246,5.5550854796,2.013246,0,0,4.2, -17.1, 0,0,0,1653,1024,1024,1024,95,0,0,0,15.5,0,0,68,3.917,3.911,0,0,0,0,3.999,77.54,412.92917758381,1.64042,6,P-GPS,
5000,2022-09-03 18:58:39,-34.8660344498693,-55.2577357622775,1.64042,0.29527560000001,412.63390198381,412.92917758381,6.56168,2.460634,5.8040028104,6.5559057216,11,4,7.841,412.92917758381,1.64042,2.460634,5.8040028104,2.460634,0,0,4.2, -16.8, 0,0,0,1564,1024,1024,1024,82,0,0,0,15.5,0,0,68,3.917,3.911,0,0,0,0,3.999,77.54,412.92917758381,1.64042,6,P-GPS,
5100,2022-09-03 18:58:39,-34.866033255715,-55.2577353802443,1.64042,0.16404200000004,412.76513558381,412.92917758381,6.56168,3.131716,6.112040878,7.0063322452,11,4,7.841,412.92917758381,1.64042,3.131716,6.112040878,3.131716,0,0,4.2, -15.7, 0.2,0,0,1199,1024,1024,1024,27,0,0,0,15.5,0,0,68,3.917,3.911,0,0,0,0,3.999,77.54,412.92917758381,1.64042,6,P-GPS,
5200,2022-09-03 18:58:39,-34.8660317947793,-55.2577348064115,1.64042,0.13123360000002,412.79794398381,412.92917758381,6.56168,3.579104,6.5380907604,7.5663716332,7,3,7.841,412.92917758381,1.64042,3.579104,6.5380907604,3.579104,0,0,4.2, -12.2, 0,0,0,1024,1024,1024,1024,0,0,0,0,15.5,0,0,68,3.907,3.901,0,0,0,0,3.999,77.54,412.92917758381,1.64042,6,P-GPS,
5300,2022-09-03 18:58:39,-34.8660299255014,-55.2577344971932,1.64042,-0.065616799999987,412.99479438381,412.92917758381,6.56168,4.026492,7.0090881508,8.2546262484,7,3,7.841,412.92917758381,1.64042,4.026492,7.0090881508,4.026492,0,0,4.2, -4.6, 0,0,0,1024,1024,1024,1024,0,0,0,0,15.5,0,0,68,3.907,3.901,0,0,0,0,3.999,77.54,412.92917758381,1.64042,6,P-GPS,
5400,2022-09-03 18:58:39,-34.8660281460095,-55.2577342238917,1.64042,-0.16404199999999,413.09321958381,412.92917758381,6.233596,3.802798,7.4840225492,8.9089897864,9,3,7.841,412.92917758381,1.64042,4.026492,7.4840225492,3.802798,0,0,4.2, 11.1, 0.6,0,0,1024,1024,1024,1024,0,0,0,0,15.5,0,0,68,3.907,3.901,0,0,0,0,3.999,77.54,412.92917758381,1.64042,6,P-GPS,
5500,2022-09-03 18:58:39,-34.8660266114681,-55.2577339874885,1.312336,-0.55774279999998,413.15883638381,412.60109358381,6.233596,3.35541,7.9143375236,9.4733270748,9,3,7.841,412.92917758381,1.64042,4.026492,7.9143375236,3.35541,0,0,4.3, 15.5, 0.7,0,0,1024,1024,1024,1024,0,0,0,0,15.5,0,0,68,3.907,3.901,0,0,0,0,3.999,77.54,412.60109358381,1.312336,6,P-GPS,
5600,2022-09-03 18:58:39,-34.8660248956678,-55.2577341343713,1.312336,-0.6889764,413.29006998381,412.60109358381,6.233596,2.460634,8.3300199516,10.10088615,10,3,7.841,412.92917758381,1.64042,4.026492,8.3300199516,2.460634,0,0,4.3, 14.2, 0.7,0,0,1024,1024,1024,1024,0,0,0,0,15.5,0,0,68,3.907,3.901,0,0,0,0,3.999,77.54,412.60109358381,1.312336,6,P-GPS,
5700,2022-09-03 18:58:39,-34.8660238336488,-55.2577343191964,1.64042,-0.42650919999999,413.35568678381,412.92917758381,6.233596,2.013246,8.5817916132,10.492290362,10,3,7.841,412.92917758381,1.64042,4.026492,8.5817916132,2.013246,0,0,4.3, 11.3, 0.7,0,0,1024,1684,1024,1024,0,100,0,0,15.5,0,0,68,3.907,3.901,0,0,0,0,3.999,77.54,412.92917758381,1.64042,6,P-GPS,
5800,2022-09-03 18:58:40,-34.8660230200195,-55.2577345328176,1.64042,-0.42650919999999,413.35568678381,412.92917758381,6.233596,1.342164,8.7679464748,10.7959649124,10,3,7.841,412.92917758381,1.64042,4.026492,8.7679464748,1.342164,0,0,4.5, 6.4, 8.6,0,0,1207,1315,1024,1024,28,44,0,0,15.5,0,0,68,3.907,3.901,0,0,0,0,3.999,77.54,412.92917758381,1.64042,6,P-GPS,
5900,2022-09-03 18:58:40,-34.8660223616983,-55.2577345833517,1.64042,-0.49212599999997,413.42130358381,412.92917758381,5.905512,0.9171454,8.9458992364,11.0366145264,10,3,7.841,412.92917758381,1.64042,4.026492,8.9458992364,0.894776,0.223694,0,4.5, 2.9, 14.8,0,0,1257,1024,1024,1024,35,0,0,0,15.5,0,0,68,3.907,3.901,0,0,0,0,3.999,77.54,412.92917758381,1.64042,6,P-GPS,
6000,2022-09-03 18:58:40,-34.8660223969378,-55.2577362760125,1.64042,-0.42650919999999,413.35568678381,412.92917758381,5.905512,1.11847,8.6312994888,11.543471498,10,3,7.841,412.92917758381,1.64042,4.026492,8.9458992364,0.671082,0.894776,0,3.8, -0.5, 8.4,0,0,1590,1024,1024,1024,86,0,0,0,15.5,0,0,68,3.907,3.901,0,0,0,0,3.999,77.54,412.92917758381,1.64042,6,P-GPS,
6100,2022-09-03 18:58:40,-34.8660222368227,-55.2577361838401,1.64042,-0.42650919999999,413.35568678381,412.92917758381,5.905512,1.2079476,8.6948493596,11.608104046,10,3,7.841,412.92917758381,1.64042,4.026492,8.9458992364,0.447388,1.11847,0,3.7, -5, 1.6,0,0,1684,1024,1024,1024,100,0,0,0,15.5,0,0,68,3.907,3.901,0,0,0,0,3.999,77.54,412.92917758381,1.64042,6,P-GPS,
6200,2022-09-03 18:58:40,-34.8660220389341,-55.2577359918733,1.64042,-0.42650919999999,413.35568678381,412.92917758381,5.905512,1.2974252,8.7870081552,11.7003612668,9,3,7.825,412.92917758381,1.64042,4.026492,8.9458992364,0.671082,1.11847,0,4, -12, -0.4,0,0,1684,1024,1024,1024,100,0,0,0,15.5,0,0,68,3.904,3.896,0,0,0,0,4.433,77.54,412.92917758381,1.64042,6,P-GPS,
6300,2022-09-03 18:58:40,-34.8660216059244,-55.2577355136375,1.64042,-0.42650919999999,413.35568678381,412.92917758381,5.905512,1.7448132,8.9988191856,11.9135830584,9,3,7.825,412.92917758381,1.64042,4.026492,8.9988191856,1.342164,1.11847,0,4.3, -16.9, -0.6,0,0,1684,1024,1024,1024,100,0,0,0,15.5,0,0,68,3.904,3.896,0,0,0,0,4.433,77.54,412.92917758381,1.64042,6,P-GPS,
6400,2022-09-03 18:58:40,-34.8660209870505,-55.2577349746564,1.64042,-0.55774280000001,413.48692038381,412.92917758381,5.905512,2.3040482,9.2763454412,12.1910765056,12,3,7.825,412.92917758381,1.64042,4.026492,9.2763454412,2.013246,1.11847,0,4.4, -17.7, -0.7,0,0,1645,1024,1024,1024,94,0,0,0,15.5,0,0,68,3.904,3.896,0,0,0,0,4.433,77.54,412.92917758381,1.64042,6,P-GPS,
6500,2022-09-03 18:58:40,-34.8660202897052,-55.2577331727418,1.64042,-0.7217848,413.65096238381,412.92917758381,5.905512,2.908022,9.8020672428,12.7875004092,12,3,7.825,412.92917758381,1.64042,4.026492,9.8020672428,2.684328,1.11847,0,4.5, -17.2, -0.7,0,0,1645,1024,1024,1024,94,0,0,0,15.5,0,0,68,3.904,3.896,0,0,0,0,4.433,77.54,412.92917758381,1.64042,6,P-GPS,
6600,2022-09-03 18:58:40,-34.8660191055984,-55.2577322410778,1.64042,-0.82021,413.74938758381,412.92917758381,5.905512,3.5343652,10.3147313012,13.3017064624,11,3,7.825,412.92917758381,1.64042,4.026492,10.3147313012,3.35541,1.11847,0,4.5, -16, -0.5,0,0,1208,1024,1024,1024,28,0,0,0,15.5,0,0,68,3.904,3.896,0,0,0,0,4.433,77.54,412.92917758381,1.64042,6,P-GPS,
6700,2022-09-03 18:58:41,-34.8660173994321,-55.257731168002,1.312336,-1.312336,413.91342958381,412.60109358381,5.905512,4.1830778,11.0055121632,14.0021986108,11,3,7.825,412.92917758381,1.64042,4.1830778,11.0055121632,4.026492,1.11847,0,4.6, -9.1, -0.2,0,0,1024,1024,1024,1024,0,0,0,0,15.5,0,0,68,3.904,3.896,0,0,0,0,4.433,77.54,412.60109358381,1.312336,6,P-GPS,
6800,2022-09-03 18:58:41,-34.8660156371756,-55.2577301317199,1.312336,-1.4435696,414.04466318381,412.60109358381,5.905512,4.3396636,11.707513498,14.7160765864,12,3,7.825,412.92917758381,1.64042,4.3396636,11.707513498,4.250186,0.894776,0,4.5, 2, -0.2,0,0,1260,1024,1024,1024,36,0,0,0,15.5,0,0,68,3.904,3.896,0,0,0,0,4.433,77.54,412.60109358381,1.312336,6,P-GPS,
6900,2022-09-03 18:58:41,-34.8660128542234,-55.2577278128963,1.312336,-1.7388452,414.33993878381,412.60109358381,5.905512,3.914645,12.9370739048,15.9460635024,12,3,7.825,412.92917758381,1.64042,4.3396636,12.9370739048,3.802798,0.894776,0,4.3, 11.1, -1.4,0,0,1074,1024,1024,1024,8,0,0,0,15.5,0,0,68,3.904,3.896,0,0,0,0,4.433,77.54,412.60109358381,1.312336,6,P-GPS,
7000,2022-09-03 18:58:41,-34.8660111822413,-55.2577268158722,1.312336,-1.9028872,414.50398078381,412.60109358381,5.905512,3.4225182,13.6069886244,16.625164574,13,3,7.825,412.92917758381,1.64042,4.3396636,13.6069886244,3.35541,0.671082,0,4.5, 3, -0.4,0,0,1024,1024,1024,1024,0,0,0,0,15.5,0,0,68,3.904,3.896,0,0,0,0,4.433,77.54,412.60109358381,1.312336,6,P-GPS,
7100,2022-09-03 18:58:41,-34.8660094449912,-55.2577258297065,1.312336,-2.0669292,414.66802278381,412.60109358381,5.905512,3.4225182,14.2955057068,17.3243771948,13,3,7.825,412.92917758381,1.64042,4.3396636,14.2955057068,3.131716,0.671082,0,4.4, 6.7, -0.7,0,0,1027,1186,1024,1024,0,25,0,0,15.4,0,0,68,3.904,3.896,0,0,0,0,4.433,77.54,412.60109358381,1.312336,6,P-GPS,
7200,2022-09-03 18:58:41,-34.8660079203117,-55.2577248917362,1.312336,-2.1981628,414.79925638381,412.60109358381,5.905512,2.7290668,14.9128285612,17.947507136,13,3,7.809,412.92917758381,1.64042,4.3396636,14.9128285612,2.684328,0.447388,0,4.2, 11.8, -1.8,0,0,1024,1095,1024,1024,0,11,0,0,15.4,0,0,68,3.901,3.903,0,0,0,0,4.552,77.54,412.60109358381,1.312336,6,P-GPS,
7300,2022-09-03 18:58:41,-34.8660059223933,-55.2577231203508,1.312336,-2.4278216,415.02891518381,412.60109358381,5.577428,2.7290668,15.8139112672,18.848917926,13,3,7.809,412.92917758381,1.64042,4.3396636,15.8139112672,2.013246,0.447388,0,4.3, 8.7, 0.2,0,0,1024,1024,1024,1024,0,0,0,0,15.5,0,0,68,3.901,3.903,0,0,0,0,4.552,77.54,412.60109358381,1.312336,6,P-GPS,
7400,2022-09-03 18:58:41,-34.8660048474899,-55.257722209506,1.312336,-2.5262468,415.12734038381,412.60109358381,5.577428,1.6329662,16.2915687628,19.3265754216,11,3,7.809,412.92917758381,1.64042,4.3396636,16.2915687628,1.565858,0.447388,0,4.6, 5.1, 3.1,0,0,1024,1024,1024,1024,0,0,0,0,15.5,0,0,68,3.901,3.903,0,0,0,0,4.552,77.54,412.60109358381,1.312336,6,P-GPS,
7500,2022-09-03 18:58:41,-34.8660042277628,-55.2577216891515,1.312336,-2.5918636,415.19295718381,412.60109358381,5.577428,1.4092722,16.5661422624,19.6011489212,11,3,7.809,412.92917758381,1.64042,4.3396636,16.5661422624,1.342164,0.447388,0,4.2, 6.2, -1.5,0,0,1024,1024,1024,1024,0,0,0,0,15.5,0,0,68,3.901,3.903,0,0,0,0,4.552,77.54,412.60109358381,1.312336,6,P-GPS,
7600,2022-09-03 18:58:41,-34.8660037100414,-55.2577212200828,1.312336,-2.624672,415.22576558381,412.60109358381,5.577428,0.9171454,16.801345682,19.8365163828,12,3,7.809,412.92917758381,1.64042,4.3396636,16.801345682,0.894776,0.223694,0,4.2, 6.2, -2.1,0,0,1024,1024,1024,1024,0,0,0,0,15.5,0,0,68,3.901,3.903,0,0,0,0,4.552,77.54,412.60109358381,1.312336,6,P-GPS,
7700,2022-09-03 18:58:41,-34.866003889561,-55.2577220782428,1.64042,-2.2637796,415.19295718381,412.92917758381,5.577428,0.7158208,16.6025923948,20.1016410632,12,3,7.809,412.92917758381,1.64042,4.3396636,16.801345682,0.671082,0.223694,0,4.3, 3.7, -0.8,0,0,1024,1024,1024,1024,0,0,0,0,15.4,0,0,68,3.901,3.903,0,0,0,0,4.552,77.54,412.92917758381,1.64042,6,P-GPS,
7800,2022-09-03 18:58:42,-34.8660035766913,-55.2577219045477,1.64042,-2.2637796,415.19295718381,412.92917758381,5.577428,0.4921268,16.7263128712,20.2270675764,12,3,7.809,412.92917758381,1.64042,4.3396636,16.801345682,0.447388,0.223694,0,4.3, 3.6, -1.4,0,0,1024,1024,1024,1024,0,0,0,0,15.5,0,0,68,3.901,3.903,0,0,0,0,4.552,77.54,412.92917758381,1.64042,6,P-GPS,
7900,2022-09-03 18:58:42,-34.8660033862676,-55.2577215576795,1.64042,-2.3293964,415.25857398381,412.92917758381,5.577428,0.4921268,16.8419624812,20.3520019636,12,3,7.809,412.92917758381,1.64042,4.3396636,16.8419624812,0.447388,0.223694,0,4.3, 3.3, -1.4,0,0,1024,1024,1024,1024,0,0,0,0,15.5,0,0,68,3.901,3.903,0,0,0,0,4.552,77.54,412.92917758381,1.64042,6,P-GPS,
8000,2022-09-03 18:58:42,-34.8660033047542,-55.2577212838559,1.64042,-2.3622048,415.29138238381,412.92917758381,5.577428,0.223694,16.912566158,20.4392066908,13,3,7.809,412.92917758381,1.64042,4.3396636,16.912566158,0.223694,0,0,4.3, 2.8, -1.1,0,0,1090,1024,1024,1024,10,0,0,0,15.5,0,0,68,3.901,3.903,0,0,0,0,4.552,77.54,412.92917758381,1.64042,6,P-GPS,
8100,2022-09-03 18:58:42,-34.8660034098149,-55.257721113314,1.64042,-2.3622048,415.29138238381,412.92917758381,5.577428,0.223694,16.9097118272,20.5030518372,13,3,7.809,412.92917758381,1.64042,4.3396636,16.912566158,0.223694,0,0,4.3, 2.2, -0.8,0,0,1494,1024,1024,1024,71,0,0,0,15.5,0,0,68,3.901,3.903,0,0,0,0,4.552,77.54,412.92917758381,1.64042,6,P-GPS,
8200,2022-09-03 18:58:42,-34.8660042005873,-55.257721252742,1.64042,-2.296588,415.22576558381,412.92917758381,5.577428,0,16.6486881968,20.7945544712,12,3,7.798,412.92917758381,1.64042,4.3396636,16.912566158,0,0,0,4.3, 0.4, -0.4,0,0,1678,1024,1024,1024,99,0,0,0,15.5,0,0,68,3.902,3.897,0,0,0,0,4.612,77.54,412.92917758381,1.64042,6,P-GPS,
8300,2022-09-03 18:58:42,-34.8660039581055,-55.257720712508,1.64042,-2.296588,415.22576558381,412.92917758381,5.577428,0.223694,16.8139441076,20.9789048708,12,3,7.798,412.92917758381,1.64042,4.3396636,16.912566158,0.223694,0,0,4.3, -6.5, -0.3,0,0,1281,1024,1024,1024,39,0,0,0,15.5,0,0,68,3.902,3.897,0,0,0,0,4.612,77.54,412.92917758381,1.64042,6,P-GPS,
8400,2022-09-03 18:58:42,-34.8660036726979,-55.2577202168985,1.64042,-2.3622048,415.29138238381,412.92917758381,5.577428,0.447388,16.9846462128,21.1601384724,11,3,7.798,412.92917758381,1.64042,4.3396636,16.9846462128,0.447388,0,0,4.3, -12.8, -0.2,0,0,1281,1024,1024,1024,39,0,0,0,15.5,0,0,68,3.902,3.897,0,0,0,0,4.612,77.54,412.92917758381,1.64042,6,P-GPS,
8500,2022-09-03 18:58:42,-34.8660032836691,-55.2577198028952,1.64042,-2.4278216,415.35699918381,412.92917758381,5.577428,0.894776,17.1721134104,21.348589922,11,3,7.798,412.92917758381,1.64042,4.3396636,17.1721134104,0.894776,0,0,4.3, -11.9, -0.1,0,0,1049,1024,1024,1024,4,0,0,0,15.5,0,0,68,3.902,3.897,0,0,0,0,4.612,77.54,412.92917758381,1.64042,6,P-GPS,
8600,2022-09-03 18:58:42,-34.8660023584003,-55.2577188771198,1.64042,-2.5262468,415.45542438381,412.92917758381,5.577428,1.342164,17.6078745792,21.7853353428,10,3,7.798,412.92917758381,1.64042,4.3396636,17.6078745792,1.342164,0,0,4.2, -4.1, 0,0,0,1047,1024,1024,1024,3,0,0,0,15.5,0,0,68,3.902,3.897,0,0,0,0,4.612,77.54,412.92917758381,1.64042,6,P-GPS,
8700,2022-09-03 18:58:42,-34.8660016600844,-55.257718513567,1.64042,-2.5262468,415.45542438381,412.92917758381,5.577428,1.565858,17.8785766876,22.0624022808,10,3,7.798,412.92917758381,1.64042,4.3396636,17.8785766876,1.565858,0,0,4.2, 0.2, 0,0,0,1588,1024,1024,1024,85,0,0,0,15.5,0,0,68,3.902,3.897,0,0,0,0,4.612,77.54,412.92917758381,1.64042,6,P-GPS,
8800,2022-09-03 18:58:43,-34.8660009718258,-55.2577181699564,1.64042,-2.6574804,415.58665798381,412.92917758381,5.577428,1.565858,18.1430123916,22.3337605572,10,3,7.798,412.92917758381,1.64042,4.3396636,18.1430123916,1.565858,0,0,4.3, -0.2, 0,0,0,1397,1024,1024,1024,57,0,0,0,15.5,0,0,67,3.902,3.897,0,0,0,0,4.612,77.54,412.92917758381,1.64042,6,P-GPS,
8900,2022-09-03 18:58:43,-34.8660001375023,-55.2577178055266,1.64042,-2.7230972,415.65227478381,412.92917758381,5.577428,1.565858,18.4549218504,22.6571201476,10,3,7.798,412.92917758381,1.64042,4.3396636,18.4549218504,1.565858,0,0,4.3, -8.6, 0,0,0,1201,1024,1024,1024,27,0,0,0,15.5,0,0,67,3.902,3.897,0,0,0,0,4.612,77.54,412.92917758381,1.64042,6,P-GPS,
9000,2022-09-03 18:58:43,-34.8659987321877,-55.2577174632733,1.64042,-2.8215224,415.75069998381,412.92917758381,5.577428,2.013246,18.9352696348,23.1799876184,9,3,7.798,412.92917758381,1.64042,4.3396636,18.9352696348,2.013246,0,0,4.3, -8.9, 0,0,0,1024,1024,1024,1024,0,0,0,0,15.5,0,0,67,3.902,3.897,0,0,0,0,4.612,77.54,412.92917758381,1.64042,6,P-GPS,
9100,2022-09-03 18:58:43,-34.8659976365575,-55.2577169260045,1.64042,-2.8871392,415.81631678381,412.92917758381,5.577428,2.013246,19.3564310656,23.6108603356,9,3,7.798,412.92917758381,1.64042,4.3396636,19.3564310656,2.013246,0,0,4.3, -4.7, 0,0,0,1027,1400,1024,1024,0,57,0,0,15.5,0,0,67,3.902,3.897,0,0,0,0,4.612,77.54,412.92917758381,1.64042,6,P-GPS,
9200,2022-09-03 18:58:43,-34.8659965604883,-55.257716450191,1.64042,-2.9855644,415.91474198381,412.92917758381,5.577428,2.013246,19.7618444644,24.0285112676,9,3,7.795,412.92917758381,1.64042,4.3396636,19.7618444644,2.013246,0,0,4.3, 5.3, 0,0,0,1027,1400,1024,1024,0,57,0,0,15.5,0,0,67,3.896,3.891,0,0,0,0,4.439,77.54,412.92917758381,1.64042,6,P-GPS,
9300,2022-09-03 18:58:43,-34.8659956042464,-55.2577161357314,1.64042,-3.0511812,415.98035878381,412.92917758381,5.577428,1.789552,20.1046922444,24.3898629852,9,3,7.795,412.92917758381,1.64042,4.3396636,20.1046922444,1.789552,0,0,4.3, 5.9, 1.7,0,0,1024,1582,1024,1024,0,85,0,0,15.5,0,0,67,3.896,3.891,0,0,0,0,4.439,77.54,412.92917758381,1.64042,6,P-GPS,
9400,2022-09-03 18:58:43,-34.8659948181704,-55.2577159648971,1.64042,-3.116798,416.04597558381,412.92917758381,5.577428,1.5882274,20.372704064,24.6812015772,9,3,7.795,412.92917758381,1.64042,4.3396636,20.372704064,1.565858,0.223694,0,4.7, 3.5, 10.5,0,0,1024,1024,1024,1024,0,0,0,0,15.5,0,0,67,3.896,3.891,0,0,0,0,4.439,77.54,412.92917758381,1.64042,6,P-GPS,
9500,2022-09-03 18:58:43,-34.8659942676065,-55.257715519926,1.64042,-3.1824148,416.11159238381,412.92917758381,5.577428,1.4987498,20.6137145704,24.9222120836,9,3,7.795,412.92917758381,1.64042,4.3396636,20.6137145704,1.342164,0.671082,0,4.5, 2.2, 6.6,0,0,1024,1510,1024,1024,0,74,0,0,15.4,0,0,67,3.896,3.891,0,0,0,0,4.439,77.54,412.92917758381,1.64042,6,P-GPS,
9600,2022-09-03 18:58:43,-34.8659938154658,-55.2577150093025,1.64042,-3.2480316,416.17720918381,412.92917758381,5.577428,1.2974252,20.8353681208,25.1471136656,9,3,7.795,412.92917758381,1.64042,4.3396636,20.8353681208,1.11847,0.671082,0,3.9, 4.3, -1.1,0,0,1024,1648,1024,1024,0,95,0,0,15.5,0,0,67,3.896,3.891,0,0,0,0,4.439,77.54,412.92917758381,1.64042,6,P-GPS,
9700,2022-09-03 18:58:43,-34.8659934813352,-55.2577147226575,1.64042,-3.3136484,416.24282598381,412.92917758381,5.577428,1.11847,20.9843510652,25.2961950352,9,3,7.795,412.92917758381,1.64042,4.3396636,20.9843510652,0.894776,0.671082,0,4.5, 2.2, 8.9,0,0,1024,1101,1024,1024,0,12,0,0,15.5,0,0,67,3.896,3.891,0,0,0,0,4.439,77.54,412.92917758381,1.64042,6,P-GPS,
9800,2022-09-03 18:58:44,-34.8659931611375,-55.257714318051,1.64042,-3.3464568,416.27563438381,412.92917758381,5.249344,1.2974252,21.148458682,25.4644693188,11,3,7.795,412.92917758381,1.64042,4.3396636,21.148458682,0.671082,1.11847,0,4.6, 1.1, 12,0,0,1024,1024,1024,1024,0,0,0,0,15.5,0,0,67,3.896,3.891,0,0,0,0,4.439,77.54,412.92917758381,1.64042,6,P-GPS,
9900,2022-09-03 18:58:44,-34.8659925889934,-55.2577137991791,1.64042,-3.3464568,416.27563438381,412.92917758381,5.249344,1.6329662,21.4082027848,25.7246727392,11,3,7.795,412.92917758381,1.64042,4.3396636,21.4082027848,0.447388,1.565858,0,4.2, 0.5, 4.5,0,0,1024,1024,1024,1024,0,0,0,0,15.5,0,0,67,3.896,3.891,0,0,0,0,4.439,77.54,412.92917758381,1.64042,6,P-GPS,
10000,2022-09-03 18:58:44,-34.8659920717801,-55.2577128057049,1.64042,-3.4776904,416.40686798381,412.92917758381,5.249344,1.6329662,21.7296922964,26.0769037216,11,3,7.795,412.92917758381,1.64042,4.3396636,21.7296922964,0.447388,1.565858,0,4.1, 1.2, -2.6,0,0,1024,1024,1024,1024,0,0,0,0,15.5,0,0,67,3.896,3.891,0,0,0,0,4.439,77.54,412.92917758381,1.64042,6,P-GPS,
10100,2022-09-03 18:58:44,-34.8659915206169,-55.2577117074246,1.64042,-3.5104988,416.43967638381,412.92917758381,5.249344,1.4092722,22.0799547748,26.4623039964,11,3,7.795,412.92917758381,1.64042,4.3396636,22.0799547748,0.447388,1.342164,0,3.9, 2.8, -5.8,0,0,1024,1024,1024,1024,0,0,0,0,15.5,0,0,67,3.896,3.891,0,0,0,0,4.439,77.54,412.92917758381,1.64042,6,P-GPS,
10200,2022-09-03 18:58:44,-34.8659910060677,-55.2577107312614,1.64042,-3.6417324,416.57090998381,412.92917758381,5.249344,1.1408394,22.3996398244,26.8096137188,12,3,7.788,412.92917758381,1.64042,4.3396636,22.3996398244,0.223694,1.11847,0,4.1, 3, -5.9,0,0,1024,1024,1024,1024,0,0,0,0,15.5,0,0,67,3.896,3.89,0,0,0,0,4.427,77.54,412.92917758381,1.64042,6,P-GPS,
10300,2022-09-03 18:58:44,-34.8659897909098,-55.2577090362618,1.64042,-3.8057744,416.73495198381,412.92917758381,5.249344,0.9171454,23.0528878768,27.483432638,12,3,7.788,412.92917758381,1.64042,4.3396636,23.0528878768,0.223694,0.894776,0,4.2, 2.6, -5.2,0,0,1024,1024,1024,1024,0,0,0,0,15.5,0,0,67,3.896,3.89,0,0,0,0,4.427,77.54,412.92917758381,1.64042,6,P-GPS,
10400,2022-09-03 18:58:44,-34.8659893026436,-55.2577082240419,1.64042,-3.9041996,416.83337718381,412.92917758381,5.249344,0.447388,23.33825534,27.7848434088,12,4,7.788,412.92917758381,1.64042,4.3396636,23.33825534,0,0.447388,0,4.3, 2, -4.3,0,0,1024,1024,1024,1024,0,0,0,0,15.5,0,0,67,3.896,3.89,0,0,0,0,4.427,77.54,412.92917758381,1.64042,6,P-GPS,
10500,2022-09-03 18:58:44,-34.8659888210346,-55.2577076280952,1.64042,-3.9041996,416.83337718381,412.92917758381,5.249344,0.223694,23.584646424,28.035269926,12,4,7.788,412.92917758381,1.64042,4.3396636,23.584646424,0,0.223694,0,4.3, 1.4, -3.3,0,0,1079,1024,1024,1024,8,0,0,0,15.5,0,0,67,3.896,3.89,0,0,0,0,4.427,77.54,412.92917758381,1.64042,6,P-GPS,
10600,2022-09-03 18:58:44,-34.8659883623149,-55.257707117931,1.64042,-4.0354332,416.96461078381,412.92917758381,5.249344,0,23.8094823892,28.261811928,11,4,7.788,412.92917758381,1.64042,4.3396636,23.8094823892,0,0,0,4.3, 0.9, -2.4,0,0,1440,1024,1024,1024,63,0,0,0,15.5,0,0,67,3.896,3.89,0,0,0,0,4.427,77.54,412.92917758381,1.64042,6,P-GPS,
10700,2022-09-03 18:58:45,-34.8659872605423,-55.2577065889106,1.64042,-4.10105,417.03022758381,412.92917758381,5.249344,0,24.2292986756,28.6938657476,11,4,7.788,412.92917758381,1.64042,4.3396636,24.2292986756,0,0,0,4.4, -0.8, -1.3,0,0,1684,1024,1024,1024,100,0,0,0,15.5,0,0,67,3.896,3.89,0,0,0,0,4.427,77.54,412.92917758381,1.64042,6,P-GPS,
10800,2022-09-03 18:58:45,-34.8659867569297,-55.2577060562984,1.64042,-4.1338584,417.06303598381,412.92917758381,5.577428,0,24.471293434,28.9371400336,10,4,7.788,412.92917758381,1.64042,4.3396636,24.471293434,0,0,0,4.4, -7.4, -0.6,0,0,1553,1024,1024,1024,80,0,0,0,15.5,0,0,67,3.896,3.89,0,0,0,0,4.427,77.54,412.92917758381,1.64042,6,P-GPS,
10900,2022-09-03 18:58:45,-34.8659862609969,-55.257705256002,1.64042,-4.265092,417.19426958381,412.92917758381,5.577428,0.223694,24.7572842568,29.237369702,10,4,7.788,412.92917758381,1.64042,4.3396636,24.7572842568,0.223694,0,0,4.4, -14.5, -0.2,0,0,1115,1024,1024,1024,14,0,0,0,15.5,0,0,67,3.896,3.89,0,0,0,0,4.427,77.54,412.92917758381,1.64042,6,P-GPS,
11000,2022-09-03 18:58:45,-34.8659857109801,-55.2577045729363,1.64042,-4.265092,417.19426958381,412.92917758381,5.577428,0.894776,25.0392724548,29.5238854592,9,4,7.788,412.92917758381,1.64042,4.3396636,25.0392724548,0.894776,0,0,4.3, -14.7, 0,0,0,1684,1024,1024,1024,100,0,0,0,15.5,0,0,67,3.896,3.89,0,0,0,0,4.427,77.54,412.92917758381,1.64042,6,P-GPS,
11100,2022-09-03 18:58:45,-34.8659857942262,-55.2577039346203,1.64042,-4.2979004,417.22707798381,412.92917758381,5.577428,1.342164,25.1258866308,29.717356594,9,4,7.788,412.92917758381,1.64042,4.3396636,25.1258866308,1.342164,0,0,4.3, -6.8, 0.1,0,0,1684,1024,1024,1024,100,0,0,0,15.5,0,0,67,3.896,3.89,0,0,0,0,4.427,77.54,412.92917758381,1.64042,6,P-GPS,
11200,2022-09-03 18:58:45,-34.8659852336115,-55.2577036042487,1.64042,-4.3635172,417.29269478381,412.92917758381,5.577428,1.342164,25.3496399188,29.944554764,9,4,7.782,412.92917758381,1.64042,4.3396636,25.3496399188,1.565858,0,0,4.2, -8.4, 0.1,0,0,1631,1024,1024,1024,92,0,0,0,15.5,0,0,67,3.887,3.881,0,0,0,0,4.451,77.54,412.92917758381,1.64042,6,P-GPS,
11300,2022-09-03 18:58:45,-34.8659845904022,-55.2577033685554,1.64042,-4.429134,417.35831158381,412.92917758381,5.577428,2.013246,25.5814640732,30.1896007036,9,4,7.782,412.92917758381,1.64042,4.3396636,25.5814640732,2.013246,0,0,4.2, -14.6, 0.1,0,0,1373,1024,1024,1024,53,0,0,0,15.5,0,0,67,3.887,3.881,0,0,0,0,4.451,77.54,412.92917758381,1.64042,6,P-GPS,
11400,2022-09-03 18:58:45,-34.8659838438193,-55.2577031625143,1.64042,-4.4947508,417.42392838381,412.92917758381,5.577428,2.460634,25.8391740552,30.4688986128,11,4,7.782,412.92917758381,1.64042,4.3396636,25.8391740552,2.460634,0,0,4.3, -13, 0.1,0,0,1525,1024,1024,1024,76,0,0,0,15.5,0,0,67,3.887,3.881,0,0,0,0,4.451,77.54,412.92917758381,1.64042,6,P-GPS,
11500,2022-09-03 18:58:45,-34.8659829021162,-55.2577029847264,1.64042,-4.5603676,417.48954518381,412.92917758381,5.577428,2.908022,26.15075543,30.8165692276,11,4,7.782,412.92917758381,1.64042,4.3396636,26.15075543,2.908022,0.223694,0,4.2, -7.7, 0,0,0,1595,1024,1024,1024,87,0,0,0,15.5,0,0,67,3.887,3.881,0,0,0,0,4.451,77.54,412.92917758381,1.64042,6,P-GPS,
11600,2022-09-03 18:58:45,-34.8659827135358,-55.2577036691286,1.64042,-4.4947508,417.42392838381,412.92917758381,5.577428,3.131716,26.0904863992,31.0326781584,11,4,7.782,412.92917758381,1.64042,4.3396636,26.15075543,3.131716,0.223694,0,4.3, -9.7, 0,0,0,1024,1024,1024,1024,0,0,0,0,15.5,0,0,67,3.887,3.881,0,0,0,0,4.451,77.54,412.92917758381,1.64042,6,P-GPS,
11700,2022-09-03 18:58:45,-34.8659814141483,-55.2577037236302,1.64042,-4.6259844,417.55516198381,412.92917758381,5.249344,3.579104,26.4733604272,31.507054814,11,4,7.782,412.92917758381,1.64042,4.3396636,26.4733604272,3.579104,0.223694,0,4.2, -12.4, 0,0,0,1024,1024,1024,1024,0,0,0,0,15.5,0,0,67,3.887,3.881,0,0,0,0,4.451,77.54,412.92917758381,1.64042,6,P-GPS,
11800,2022-09-03 18:58:46,-34.8659800437866,-55.2577037497116,1.64042,-4.6916012,417.62077878381,412.92917758381,5.249344,3.802798,26.8854339312,32.0070876384,10,4,7.782,412.92917758381,1.64042,4.3396636,26.8854339312,3.802798,0.223694,0,4.2, -0.6, -0.1,0,0,1024,1024,1024,1024,0,0,0,0,15.5,0,0,67,3.887,3.881,0,0,0,0,4.451,77.54,412.92917758381,1.64042,6,P-GPS,
11900,2022-09-03 18:58:46,-34.8659785280244,-55.2577035076702,1.312336,-5.085302,417.68639558381,412.60109358381,5.249344,3.35541,27.3885179368,32.5648304384,10,4,7.782,412.92917758381,1.64042,4.3396636,27.3885179368,3.35541,0.223694,0,4.2, 13.2, 0,0,0,1024,1024,1024,1024,0,0,0,0,15.5,0,0,67,3.887,3.881,0,0,0,0,4.451,77.54,412.60109358381,1.312336,6,P-GPS,
12000,2022-09-03 18:58:46,-34.865977211245,-55.2577039689082,1.312336,-5.1837272,417.78482078381,412.60109358381,5.249344,2.684328,27.7201124356,33.064633604,11,4,7.782,412.92917758381,1.64042,4.3396636,27.7201124356,2.684328,0,0,4.2, 15.1, -0.1,0,0,1024,1325,1024,1024,0,46,0,0,15.5,0,0,67,3.887,3.881,0,0,0,0,4.451,77.54,412.60109358381,1.312336,6,P-GPS,
12100,2022-09-03 18:58:46,-34.8659760156545,-55.2577039962008,1.64042,-4.92126,417.85043758381,412.92917758381,5.249344,2.23694,28.0866478804,33.500985324,11,4,7.782,412.92917758381,1.64042,4.3396636,28.0866478804,2.23694,0,0,4.3, 9.4, 1.6,0,0,1024,1684,1024,1024,0,100,0,0,15.5,0,0,67,3.887,3.881,0,0,0,0,4.451,77.54,412.92917758381,1.64042,6,P-GPS,
12200,2022-09-03 18:58:46,-34.8659750610215,-55.2577040010036,1.64042,-4.9868768,417.91605438381,412.92917758381,5.249344,1.8119214,28.38336705,33.849410532,13,4,7.782,412.92917758381,1.64042,4.3396636,28.38336705,1.789552,0.223694,0,4.6, 5.5, 10.8,0,0,1024,1197,1024,1024,0,26,0,0,15.5,0,0,67,3.888,3.879,0,0,0,0,4.448,77.54,412.92917758381,1.64042,6,P-GPS,
12300,2022-09-03 18:58:46,-34.8659742051895,-55.2577037932502,1.64042,-5.0524936,417.98167118381,412.92917758381,5.249344,1.4987498,28.6829733588,34.167652012,13,4,7.782,412.92917758381,1.64042,4.3396636,28.6829733588,1.342164,0.671082,0,4.7, 3.1, 14.4,0,0,1024,1024,1024,1024,0,0,0,0,15.5,0,0,67,3.888,3.879,0,0,0,0,4.448,77.54,412.92917758381,1.64042,6,P-GPS,
12400,2022-09-03 18:58:46,-34.8659731709713,-55.2577038015821,1.64042,-5.1181104,418.04728798381,412.92917758381,5.249344,1.5882274,29.0059720568,34.544948612,13,4,7.782,412.92917758381,1.64042,4.3396636,29.0059720568,1.11847,1.11847,0,4.1, 1.8, 5.5,0,0,1024,1024,1024,1024,0,0,0,0,15.5,0,0,67,3.888,3.879,0,0,0,0,4.448,77.54,412.92917758381,1.64042,6,P-GPS,
12500,2022-09-03 18:58:46,-34.865972731096,-55.2577032344314,1.64042,-5.1837272,418.11290478381,412.92917758381,5.249344,1.4316416,29.2305455548,34.77854442,13,4,7.782,412.92917758381,1.64042,4.3396636,29.2305455548,0.894776,1.11847,0,3.8, 4, -3.6,0,0,1024,1024,1024,1024,0,0,0,0,15.5,0,0,67,3.888,3.879,0,0,0,0,4.448,77.54,412.92917758381,1.64042,6,P-GPS,
12600,2022-09-03 18:58:46,-34.8659724332992,-55.2577027680356,1.64042,-5.249344,418.17852158381,412.92917758381,5.249344,1.11847,29.3953093396,34.95570978,13,4,7.782,412.92917758381,1.64042,4.3396636,29.3953093396,0.671082,0.894776,0,4, 4.8, -5,0,0,1024,1024,1024,1024,0,0,0,0,15.5,0,0,67,3.888,3.879,0,0,0,0,4.448,77.54,412.92917758381,1.64042,6,P-GPS,
12700,2022-09-03 18:58:46,-34.8659723176275,-55.2577024668777,1.64042,-5.2821524,418.21132998381,412.92917758381,5.249344,1.006623,29.4777896572,35.055119232,13,4,7.782,412.92917758381,1.64042,4.3396636,29.4777896572,0.447388,0.894776,0,4.2, 4.4, -4.8,0,0,1024,1024,1024,1024,0,0,0,0,15.5,0,0,67,3.888,3.879,0,0,0,0,4.448,77.54,412.92917758381,1.64042,6,P-GPS,
12800,2022-09-03 18:58:47,-34.8659728880128,-55.2577020517259,1.64042,-5.2165356,418.14571318381,412.92917758381,5.249344,0.7158208,29.3638788924,35.297573308,10,4,7.782,412.92917758381,1.64042,4.3396636,29.4777896572,0.223694,0.671082,0,4.2, 3.7, -4.2,0,0,1205,1024,1024,1024,27,0,0,0,15.4,0,0,67,3.888,3.879,0,0,0,0,4.448,77.54,412.92917758381,1.64042,6,P-GPS,
12900,2022-09-03 18:58:47,-34.8659727355905,-55.2577016023279,1.64042,-5.2165356,418.14571318381,412.92917758381,4.92126,0.4921268,29.481464198,35.44291452,10,4,7.782,412.92917758381,1.64042,4.3396636,29.481464198,0.223694,0.447388,0,4.3, 3, -3.4,0,0,1684,1024,1024,1024,100,0,0,0,15.5,0,0,67,3.888,3.879,0,0,0,0,4.448,77.54,412.92917758381,1.64042,6,P-GPS,
13000,2022-09-03 18:58:47,-34.8659726822687,-55.25770130472,1.64042,-5.2821524,418.21132998381,412.92917758381,4.92126,0.223694,29.5446859848,35.534121872,10,4,7.782,412.92917758381,1.64042,4.3396636,29.5446859848,0,0.223694,0,4.3, 1.3, -2.5,0,0,1684,1024,1024,1024,100,0,0,0,15.5,0,0,67,3.888,3.879,0,0,0,0,4.448,77.54,412.92917758381,1.64042,6,P-GPS,
13100,2022-09-03 18:58:47,-34.8659727719895,-55.2577012994369,1.64042,-5.2821524,418.21132998381,412.92917758381,5.249344,0.223694,29.5176518632,35.566930272,10,4,7.782,412.92917758381,1.64042,4.3396636,29.5446859848,0.223694,0,0,4.5, -8.5, -1.5,0,0,1519,1024,1024,1024,75,0,0,0,15.5,0,0,67,3.888,3.879,0,0,0,0,4.448,77.54,412.92917758381,1.64042,6,P-GPS,
13200,2022-09-03 18:58:47,-34.8659727421173,-55.2577013369824,1.64042,-5.2821524,418.21132998381,412.92917758381,5.249344,0.447388,29.5210311284,35.582678304,10,4,7.782,412.92917758381,1.64042,4.3396636,29.5446859848,0.447388,0,0,4.6, -14.8, -0.9,0,0,1071,1024,1024,1024,7,0,0,0,15.5,0,0,67,3.888,3.879,0,0,0,0,4.448,77.54,412.92917758381,1.64042,6,P-GPS,
13300,2022-09-03 18:58:47,-34.8659726799759,-55.257702067972,1.64042,-5.2165356,418.14571318381,412.92917758381,5.249344,1.11847,29.4262148524,35.802822668,10,4,7.782,412.92917758381,1.64042,4.3396636,29.5446859848,1.11847,0,0,4.4, -9.2, -0.4,0,0,1162,1024,1024,1024,21,0,0,0,15.5,0,0,67,3.888,3.879,0,0,0,0,4.448,77.54,412.92917758381,1.64042,6,P-GPS,
13400,2022-09-03 18:58:47,-34.8659721589129,-55.2577021506641,1.64042,-5.2821524,418.21132998381,412.92917758381,5.249344,1.342164,29.5761492404,35.994423724,10,4,7.768,412.92917758381,1.64042,4.3396636,29.5761492404,1.342164,0,0,4.3, -1.8, -0.2,0,0,1504,1024,1024,1024,73,0,0,0,15.5,0,0,67,3.888,3.881,0,0,0,0,4.529,77.54,412.92917758381,1.64042,6,P-GPS,
13500,2022-09-03 18:58:47,-34.8659712706162,-55.2577020639836,1.64042,-5.3477692,418.27694678381,412.92917758381,5.249344,1.342164,29.867619066,36.319554968,10,4,7.768,412.92917758381,1.64042,4.3396636,29.867619066,1.342164,0,0,4.2, -1.2, 0,0,0,1249,1024,1024,1024,34,0,0,0,15.5,0,0,67,3.888,3.881,0,0,0,0,4.529,77.54,412.92917758381,1.64042,6,P-GPS,
13600,2022-09-03 18:58:47,-34.8659704270822,-55.2577019914609,1.64042,-5.413386,418.34256358381,412.92917758381,5.249344,1.565858,30.1435705184,36.627953928,10,4,7.768,412.92917758381,1.64042,4.3396636,30.1435705184,1.565858,0,0,4.3, -7, 0,0,0,1024,1024,1024,1024,0,0,0,0,15.5,0,0,67,3.888,3.881,0,0,0,0,4.529,77.54,412.92917758381,1.64042,6,P-GPS,
13700,2022-09-03 18:58:47,-34.8659683788254,-55.2577017629928,1.64042,-5.5446196,418.47379718381,412.92917758381,5.249344,1.789552,30.8239511176,37.37861012,10,4,7.768,412.92917758381,1.64042,4.3396636,30.8239511176,1.789552,0,0,4.3, -5.2, 0,0,0,1024,1024,1024,1024,0,0,0,0,15.5,0,0,67,3.888,3.881,0,0,0,0,4.529,77.54,412.92917758381,1.64042,6,P-GPS,
13800,2022-09-03 18:58:48,-34.8659673383669,-55.2577017044401,1.64042,-5.6102364,418.53941398381,412.92917758381,5.249344,1.789552,31.1623369552,37.758531392,10,4,7.768,412.92917758381,1.64042,4.3396636,31.1623369552,1.789552,0,0,4.2, 2.9, 0,0,0,1024,1024,1024,1024,0,0,0,0,15.4,0,0,67,3.888,3.881,0,0,0,0,4.529,77.54,412.92917758381,1.64042,6,P-GPS,
13900,2022-09-03 18:58:48,-34.8659663608836,-55.2577016418572,1.64042,-5.6758532,418.60503078381,412.92917758381,5.249344,1.565858,31.4821860468,38.115486784,10,4,7.768,412.92917758381,1.64042,4.3396636,31.4821860468,1.565858,0,0,4.2, 7.5, -0.1,0,0,1024,1024,1024,1024,0,0,0,0,15.5,0,0,67,3.888,3.881,0,0,0,0,4.529,77.54,412.92917758381,1.64042,6,P-GPS,
14000,2022-09-03 18:58:48,-34.8659655569534,-55.2577016052931,1.64042,-5.6758532,418.60503078381,412.92917758381,5.249344,1.342164,31.7436689948,38.409121964,9,4,7.768,412.92917758381,1.64042,4.3396636,31.7436689948,1.342164,0,0,4.2, 7.8, 0,0,0,1024,1024,1024,1024,0,0,0,0,15.5,0,0,67,3.888,3.881,0,0,0,0,4.529,77.54,412.92917758381,1.64042,6,P-GPS,
14100,2022-09-03 18:58:48,-34.86596487969,-55.2577016481427,1.64042,-5.7086616,418.63783918381,412.92917758381,4.92126,0.894776,31.9537739884,38.6564973,9,4,7.768,412.92917758381,1.64042,4.3396636,31.9537739884,0.894776,0,0,4.2, 6.8, 0,0,0,1024,1024,1024,1024,0,0,0,0,15.5,0,0,67,3.888,3.881,0,0,0,0,4.529,77.54,412.92917758381,1.64042,6,P-GPS,
14200,2022-09-03 18:58:48,-34.8659644398799,-55.2577017147557,1.64042,-5.7742784,418.70345598381,412.92917758381,4.92126,0.671082,32.0849419716,38.818242712,10,4,7.768,412.92917758381,1.64042,4.3396636,32.0849419716,0.671082,0,0,4.2, 5.6, 0,0,0,1024,1024,1024,1024,0,0,0,0,15.5,0,0,67,3.888,3.881,0,0,0,0,4.529,77.54,412.92917758381,1.64042,6,P-GPS,
14300,2022-09-03 18:58:48,-34.8659641220988,-55.257701882228,1.64042,-5.7742784,418.70345598381,412.92917758381,4.92126,0.223694,32.1628291132,38.944555052,10,4,7.768,412.92917758381,1.64042,4.3396636,32.1628291132,0.223694,0,0,4.2, 4.3, 0,0,0,1024,1024,1024,1024,0,0,0,0,15.5,0,0,67,3.888,3.881,0,0,0,0,4.529,77.54,412.92917758381,1.64042,6,P-GPS,
14400,2022-09-03 18:58:48,-34.8659639243145,-55.2577020530415,1.64042,-5.7742784,418.70345598381,412.92917758381,4.92126,0,32.2020351512,39.033137732,11,4,7.764,412.92917758381,1.64042,4.3396636,32.2020351512,0,0,0,4.2, 3.2, 0,0,0,1024,1024,1024,1024,0,0,0,0,15.5,0,0,67,3.883,3.878,0,0,0,0,4.486,77.72,412.92917758381,1.64042,6,P-GPS,
14500,2022-09-03 18:58:48,-34.8659644111671,-55.2577026800813,1.64042,-5.74147,418.67064758381,412.92917758381,4.92126,0,31.9567267444,39.29133984,11,4,7.764,412.92917758381,1.64042,4.3396636,32.2020351512,0,0,0,4.2, 2.2, 0,0,0,1024,1365,1024,1024,0,52,0,0,15.5,0,0,67,3.883,3.878,0,0,0,0,4.486,77.72,412.92917758381,1.64042,6,P-GPS,
14600,2022-09-03 18:58:48,-34.8659644336397,-55.2577028809437,1.64042,-5.74147,418.67064758381,412.92917758381,4.92126,0,31.9211624388,39.35203538,11,4,7.764,412.92917758381,1.64042,4.3396636,32.2020351512,0,0,0,4.3, 1.5, 0.1,0,0,1024,1684,1024,1024,0,100,0,0,15.5,0,0,67,3.883,3.878,0,0,0,0,4.486,77.72,412.92917758381,1.64042,6,P-GPS,
14700,2022-09-03 18:58:48,-34.8659644253672,-55.2577030518824,1.64042,-5.74147,418.67064758381,412.92917758381,4.92126,0,31.899771362,39.403544568,11,4,7.764,412.92917758381,1.64042,4.3396636,32.2020351512,0,0,0,4.4, 0.8, 6.1,0,0,1024,1444,1024,1024,0,64,0,0,15.5,0,0,67,3.883,3.878,0,0,0,0,4.486,77.72,412.92917758381,1.64042,6,P-GPS,
14800,2022-09-03 18:58:49,-34.8659644279206,-55.2577031126903,1.64042,-5.74147,418.67064758381,412.92917758381,4.92126,0.223694,31.890420968,39.421589188,11,4,7.764,412.92917758381,1.64042,4.3396636,32.2020351512,0,0.223694,0,4.5, 0.3, 14.1,0,0,1024,1024,1024,1024,0,0,0,0,15.5,0,0,67,3.883,3.878,0,0,0,0,4.486,77.72,412.92917758381,1.64042,6,P-GPS,
14900,2022-09-03 18:58:49,-34.8659643994684,-55.2577028668693,1.64042,-5.74147,418.67064758381,412.92917758381,4.92126,0.7158208,31.9341545652,39.496064256,11,4,7.764,412.92917758381,1.64042,4.3396636,32.2020351512,-0.223694,0.671082,0,4.5, 0.1, 14.5,0,0,1024,1024,1024,1024,0,0,0,0,15.5,0,0,67,3.883,3.878,0,0,0,0,4.486,77.72,412.92917758381,1.64042,6,P-GPS,
15000,2022-09-03 18:58:49,-34.8659644248461,-55.2577023302479,1.64042,-5.7742784,418.70345598381,412.92917758381,4.92126,1.1408394,32.0019039112,39.656825416,11,4,7.764,412.92917758381,1.64042,4.3396636,32.2020351512,-0.223694,1.11847,0,4, 0.1, -0.3,0,0,1024,1024,1024,1024,0,0,0,0,15.5,0,0,67,3.883,3.878,0,0,0,0,4.486,77.72,412.92917758381,1.64042,6,P-GPS,
15100,2022-09-03 18:58:49,-34.8659643572852,-55.2577016529872,1.64042,-5.7742784,418.70345598381,412.92917758381,4.92126,1.1408394,32.12024381,39.861221748,11,4,7.764,412.92917758381,1.64042,4.3396636,32.2020351512,-0.223694,1.11847,0,3.9, 0, -5.6,0,0,1024,1024,1024,1024,0,0,0,0,15.5,0,0,67,3.883,3.878,0,0,0,0,4.486,77.72,412.92917758381,1.64042,6,P-GPS,
15200,2022-09-03 18:58:49,-34.8659642767098,-55.2577010614674,1.64042,-5.8398952,418.76907278381,412.92917758381,4.92126,0.9171454,32.2312018188,40.040683696,11,4,7.764,412.92917758381,1.64042,4.3396636,32.2312018188,-0.223694,0.894776,0,4.1, 0.1, -5.7,0,0,1024,1024,1024,1024,0,0,0,0,15.5,0,0,67,3.883,3.878,0,0,0,0,4.486,77.72,412.92917758381,1.64042,6,P-GPS,
15300,2022-09-03 18:58:49,-34.8659641646989,-55.2577005035465,1.64042,-5.8398952,418.76907278381,412.92917758381,4.92126,0.7158208,32.3479012976,40.212599712,11,4,7.764,412.92917758381,1.64042,4.3396636,32.3479012976,-0.223694,0.671082,0,4.2, 0.1, -4.9,0,0,1043,1024,1024,1024,3,0,0,0,15.5,0,0,67,3.883,3.878,0,0,0,0,4.486,77.72,412.92917758381,1.64042,6,P-GPS,
15400,2022-09-03 18:58:49,-34.8659638216835,-55.2576994893157,1.64042,-5.9383204,418.86749798381,412.92917758381,4.92126,0.447388,32.6055784712,40.541011796,12,4,7.764,412.92917758381,1.64042,4.3396636,32.6055784712,0,0.447388,0,4.3, 0.1, -4.3,0,0,1545,1024,1024,1024,79,0,0,0,15.5,0,0,67,3.883,3.878,0,0,0,0,4.486,77.72,412.92917758381,1.64042,6,P-GPS,
15500,2022-09-03 18:58:49,-34.8659638668369,-55.2576991108115,1.64042,-5.9383204,418.86749798381,412.92917758381,4.92126,0.223694,32.6471139056,40.655513112,12,4,7.764,412.92917758381,1.64042,4.3396636,32.6471139056,0,0.223694,0,4.3, -1, -2.9,0,0,1684,1024,1024,1024,100,0,0,0,15.5,0,0,67,3.883,3.878,0,0,0,0,4.486,77.72,412.92917758381,1.64042,6,P-GPS,
15600,2022-09-03 18:58:49,-34.8659638918629,-55.257698818612,1.64042,-5.9383204,418.86749798381,412.92917758381,5.249344,0.223694,32.6825469776,40.743439624,12,4,7.764,412.92917758381,1.64042,4.3396636,32.6825469776,0,0,0,4.6, -9, -1.7,0,0,1684,1024,1024,1024,100,0,0,0,15.5,0,0,67,3.883,3.878,0,0,0,0,4.486,77.72,412.92917758381,1.64042,6,P-GPS,
15700,2022-09-03 18:58:49,-34.8659638807373,-55.2576986038005,1.64042,-5.9383204,418.86749798381,412.92917758381,4.92126,0.223694,32.7180784748,40.807744088,12,4,7.764,412.92917758381,1.64042,4.3396636,32.7180784748,0.223694,0,0,4.6, -15.3, -0.9,0,0,1600,1024,1024,1024,87,0,0,0,15.5,0,0,67,3.883,3.878,0,0,0,0,4.486,77.72,412.92917758381,1.64042,6,P-GPS,
15800,2022-09-03 18:58:50,-34.8659640160676,-55.2576983521118,1.64042,-6.0039372,418.93311478381,412.92917758381,5.249344,0.894776,32.712927556,40.897967188,12,4,7.764,412.92917758381,1.64042,4.3396636,32.7180784748,0.894776,0,0,4.5, -17.2, -0.3,0,0,1269,1024,1024,1024,37,0,0,0,15.5,0,0,67,3.883,3.878,0,0,0,0,4.486,77.72,412.92917758381,1.64042,6,P-GPS,
15900,2022-09-03 18:58:50,-34.8659633443539,-55.2576983005336,1.64042,-6.069554,418.99873158381,412.92917758381,5.249344,1.565858,32.93307192,41.14337402,12,4,7.764,412.92917758381,1.64042,4.3396636,32.93307192,1.565858,0,0,4.4, -16.5, 0.1,0,0,1269,1024,1024,1024,37,0,0,0,15.5,0,0,67,3.883,3.878,0,0,0,0,4.486,77.72,412.92917758381,1.64042,6,P-GPS,
16000,2022-09-03 18:58:50,-34.8659624801843,-55.2576982439021,1.64042,-6.1351708,419.06434838381,412.92917758381,5.249344,1.565858,33.21522416,41.459318912,12,4,7.764,412.92917758381,1.64042,4.3396636,33.21522416,2.013246,0,0,4.3, -11.4, 0.3,0,0,1024,1024,1024,1024,0,0,0,0,15.5,0,0,67,3.883,3.878,0,0,0,0,4.486,77.72,412.92917758381,1.64042,6,P-GPS,
16100,2022-09-03 18:58:50,-34.8659614205102,-55.2576981856835,1.64042,-6.2007876,419.12996518381,412.92917758381,5.249344,2.460634,33.560368528,41.846129948,12,4,7.764,412.92917758381,1.64042,4.3396636,33.560368528,2.460634,0,0,4.3, -2.5, 0.4,0,0,1024,1024,1024,1024,0,0,0,0,15.5,0,0,67,3.883,3.878,0,0,0,0,4.486,77.72,412.92917758381,1.64042,6,P-GPS,
16200,2022-09-03 18:58:50,-34.8659597093413,-55.2576984764004,1.64042,-6.2664044,419.19558198381,412.92917758381,5.249344,2.460634,34.064305552,42.476707396,12,4,7.756,412.92917758381,1.64042,4.3396636,34.064305552,2.460634,0,0,4.2, 8.9, 0,0,0,1075,1024,1024,1024,8,0,0,0,15.5,0,0,67,3.874,3.87,0,0,0,0,4.514,77.72,412.92917758381,1.64042,6,P-GPS,
16300,2022-09-03 18:58:50,-34.865958494991,-55.2576983084478,1.64042,-6.3648296,419.29400718381,412.92917758381,4.92126,2.013246,34.477691392,42.922573552,12,4,7.756,412.92917758381,1.64042,4.3396636,34.477691392,2.013246,0,0,4.1, 11.1, -0.4,0,0,1576,1024,1024,1024,84,0,0,0,15.4,0,0,67,3.874,3.87,0,0,0,0,4.514,77.72,412.92917758381,1.64042,6,P-GPS,
16400,2022-09-03 18:58:50,-34.8659574931983,-55.2576981589339,1.64042,-6.4304464,419.35962398381,412.92917758381,4.593176,1.565858,34.820867256,43.2906838,11,4,7.756,412.92917758381,1.64042,4.3396636,34.820867256,1.565858,0,0,4.2, 6, -0.3,0,0,1684,1024,1024,1024,100,0,0,0,15.5,0,0,67,3.874,3.87,0,0,0,0,4.514,77.72,412.92917758381,1.64042,6,P-GPS,
16500,2022-09-03 18:58:50,-34.8659565515799,-55.2576979908351,1.64042,-6.4304464,419.35962398381,412.92917758381,4.265092,1.565858,35.14763892,43.637796672,11,4,7.756,412.92917758381,1.64042,4.3396636,35.14763892,1.565858,0,0,4.3, -5.4, -0.2,0,0,1684,1024,1024,1024,100,0,0,0,15.5,0,0,67,3.874,3.87,0,0,0,0,4.514,77.72,412.92917758381,1.64042,6,P-GPS,
16600,2022-09-03 18:58:50,-34.8659555547116,-55.2576977994322,1.64042,-6.4960632,419.42524078381,412.92917758381,4.593176,1.565858,35.495736044,44.006235004,12,4,7.756,412.92917758381,1.64042,4.3396636,35.495736044,1.565858,0,0,4.3, -13.2, -0.1,0,0,1284,1024,1024,1024,39,0,0,0,15.5,0,0,67,3.874,3.87,0,0,0,0,4.514,77.72,412.92917758381,1.64042,6,P-GPS,
16700,2022-09-03 18:58:50,-34.8659534431799,-55.2576971949865,1.64042,-6.725722,419.65489958381,412.92917758381,4.593176,2.013246,36.262468352,44.797573612,12,4,7.756,412.92917758381,1.64042,4.3396636,36.262468352,2.013246,0,0,4.3, -15.4, 0,0,0,1024,1024,1024,1024,0,0,0,0,15.5,0,0,67,3.874,3.87,0,0,0,0,4.514,77.72,412.92917758381,1.64042,6,P-GPS,
