time(millisecond),datetime(utc),latitude,longitude,height_above_takeoff(feet),height_above_ground_at_drone_location(feet),ground_elevation_at_drone_location(feet),altitude_above_seaLevel(feet),height_sonar(feet),speed(mph),distance(feet),mileage(feet),satellites,gpslevel,voltage(v),max_altitude(feet),max_ascent(feet),max_speed(mph),max_distance(feet), xSpeed(mph), ySpeed(mph), zSpeed(mph), compass_heading(degrees), pitch(degrees), roll(degrees),isPhoto,isVideo,rc_elevator,rc_aileron,rc_throttle,rc_rudder,rc_elevator(percent),rc_aileron(percent),rc_throttle(percent),rc_rudder(percent),gimbal_heading(degrees),gimbal_pitch(degrees),gimbal_roll(degrees),battery_percent,voltageCell1,voltageCell2,voltageCell3,voltageCell4,voltageCell5,voltageCell6,current(A),battery_temperature(f),altitude(feet),ascent(feet),flycStateRaw,flycState,message
0,2022-09-06 17:50:24,-34.9116712483758,-55.0436856592912,0,0,28.93381326184,28.93381326184,2.952756,0,0,0,15,5,0,28.93381326184,0,0,0,0,-0.223694,-0.223694,107.4, 0.4, -6,0,0,364,364,364,1684,-100,-100,-100,100,117.4,0,0,100,4.345,4.342,0,0,0,0,0,83.66,28.93381326184,0,41,Motors_Started,
100,2022-09-06 17:50:24,-34.9116713279931,-55.043685838238,0,0,28.93381326184,28.93381326184,2.952756,0.223694,0.060911747356,0.060911747356,15,5,0,28.93381326184,0,0.223694,0.060911747356,0,-0.223694,-0.223694,108.9, -1.6, -4.9,0,0,364,364,364,1684,-100,-100,-100,100,118.6,0.1,0,100,4.345,4.342,0,0,0,0,0,83.66,28.93381326184,0,41,Motors_Started,
200,2022-09-06 17:50:25,-34.9116714223704,-55.0436860673015,0,0,28.93381326184,28.93381326184,0.328084,0.223694,0.137592196004,0.137608928288,15,5,0,28.93381326184,0,0.223694,0.137592196004,0,-0.223694,-0.223694,110.5, -0.6, -5.1,0,0,364,364,364,1684,-100,-100,-100,100,120.2,0,0,100,4.345,4.342,0,0,0,0,0,83.66,28.93381326184,0,41,Motors_Started,
300,2022-09-06 17:50:25,-34.9116714738634,-55.0436861959849,0,0,28.93381326184,28.93381326184,0.328084,0,0.1804215937,0.180449152756,15,5,0,28.93381326184,0,0.223694,0.1804215937,0,0,-0.223694,111.5, -0.6, -5.2,0,0,364,364,364,1684,-100,-100,-100,100,121.3,0,0,100,4.345,4.342,0,0,0,0,0,83.66,28.93381326184,0,41,Motors_Started,
400,2022-09-06 17:50:25,-34.9116715961017,-55.0436864098677,0,0,28.93381326184,28.93381326184,0.328084,0,0.257923564684,0.258448499084,15,5,0,28.93381326184,0,0.223694,0.257923564684,0,0,-0.223694,112.4, -0.7, -5,0,0,364,364,364,1684,-100,-100,-100,100,122.6,0,0,100,4.345,4.342,0,0,0,0,0,83.66,28.93381326184,0,41,Motors_Started,
500,2022-09-06 17:50:25,-34.9116716845324,-55.0436864632122,0,0,28.93381326184,28.93381326184,0.328084,0,0.28840059978,0.294444235144,15,5,0,28.93381326184,0,0.223694,0.28840059978,0,0,-0.223694,111.6, 0.3, -4.1,0,0,1024,1024,364,1192,0,0,-100,25,122.8,0,0,100,4.345,4.342,0,0,0,0,0,83.66,28.93381326184,0,41,Motors_Started,
600,2022-09-06 17:50:25,-34.9116718048835,-55.0436865273041,0,-0.098425199999998,29.03223846184,28.93381326184,0.328084,0,0.32965224152,0.34235893484,15,5,0,28.93381326184,0,0.223694,0.32965224152,0,0,-0.447388,111.8, 1.1, -2.8,0,0,1024,1024,1024,1024,0,0,0,0,122.8,0,0,100,4.345,4.342,0,0,0,0,0,83.66,28.93381326184,0,41,Motors_Started,
700,2022-09-06 17:50:25,-34.9116719117569,-55.0436866023854,0,-0.098425199999998,29.03223846184,28.93381326184,0.328084,0,0.37174869956,0.38735893628,15,5,0,28.93381326184,0,0.223694,0.37174869956,0,0,-0.447388,111.2, 2.4, -3.5,0,0,1024,1024,1024,1024,0,0,0,0,122.6,0,0,100,4.345,4.342,0,0,0,0,0,83.66,28.93381326184,0,41,Motors_Started,
800,2022-09-06 17:50:25,-34.9116720385652,-55.0436867122022,0,-0.098425199999998,29.03223846184,28.93381326184,0.328084,0,0.42703085356,0.44410434492,15,5,0,28.93381326184,0,0.223694,0.42703085356,0,0,-0.447388,112.9, 2.3, -5.1,0,0,1024,1024,1024,1024,0,0,0,0,123.3,0,0,100,4.345,4.342,0,0,0,0,0,83.66,28.93381326184,0,41,Motors_Started,
900,2022-09-06 17:50:25,-34.9116720272716,-55.0436867453012,0,-0.098425199999998,29.03223846184,28.93381326184,0.328084,0,0.43166339964,0.45482941088,15,5,0,28.93381326184,0,0.223694,0.43166339964,0,0,-0.223694,113.2, 2.9, -5.8,0,0,1024,1024,1024,1024,0,0,0,0,124.3,0,0,100,4.345,4.342,0,0,0,0,0,83.66,28.93381326184,0,41,Motors_Started,"Setting new Return-To-Home altitude to 60m (197 ft). Data Recorder File Index is 61. Setting new Maximum Flight Altitude to 120m (394 ft)"
1000,2022-09-06 17:50:25,-34.9116720003894,-55.0436867978885,0,-0.098425199999998,29.03223846184,28.93381326184,0.328084,0,0.43740815048,0.47336943772,15,5,0,28.93381326184,0,0.223694,0.43740815048,0,0,-0.223694,113.5, 3, -5.8,0,0,1024,1024,1024,1024,0,0,0,0,124.6,0,0,100,4.345,4.342,0,0,0,0,0,83.66,28.93381326184,0,41,Motors_Started,"Punto de origen actualizado. Altitud de RPO establecida en 60m (Code: 3000001)"
1100,2022-09-06 17:50:26,-34.9116720438964,-55.0436869466336,0,-0.098425199999998,29.03223846184,28.93381326184,0.328084,0,0.48227691832,0.5206200954,15,5,8.699,28.93381326184,0,0.223694,0.48227691832,0,0,-0.223694,114.2, 2.8, -6.6,0,0,1024,1024,1024,1024,0,0,0,0,125.2,0,0,100,4.345,4.342,0,0,0,0,0.927,83.66,28.93381326184,0,10,Assisted_Takeoff,
1200,2022-09-06 17:50:26,-34.9116721792256,-55.0436871464128,0,-0.098425199999998,29.03223846184,28.93381326184,0.328084,0,0.55973755072,0.5981463446,15,5,8.699,28.93381326184,0,0.223694,0.55973755072,0,0,-0.223694,114.9, 2.9, -5.7,0,0,1024,1024,1024,1024,0,0,0,0,125.8,0,0,100,4.345,4.342,0,0,0,0,0.927,83.66,28.93381326184,0,10,Assisted_Takeoff,
1300,2022-09-06 17:50:26,-34.911672253771,-55.0436873029955,0,-0.098425199999998,29.03223846184,28.93381326184,0.328084,0.223694,0.61351708,0.65231957468,15,5,8.699,28.93381326184,0,0.223694,0.61351708,-0.223694,0,-0.223694,115.5, 2.3, -4.6,0,0,1024,1024,1024,1011,0,0,0,-2,126.3,0,0,100,4.345,4.342,0,0,0,0,0.927,83.66,28.93381326184,0,10,Assisted_Takeoff,
1400,2022-09-06 17:50:26,-34.9116723049172,-55.0436874301376,0,-0.098425199999998,29.03223846184,28.93381326184,0.328084,0,0.65520999472,0.69468834244,15,5,8.699,28.93381326184,0,0.223694,0.65520999472,0,0,-0.223694,115.1, 2.6, -4.5,0,0,1024,1024,1024,997,0,0,0,-4,126.5,0,0,100,4.345,4.342,0,0,0,0,0.927,83.66,28.93381326184,0,10,Assisted_Takeoff,
1500,2022-09-06 17:50:26,-34.9116724042566,-55.0436875121418,0,-0.1968504,29.13066366184,28.93381326184,0.328084,0,0.69653217452,0.73845474804,15,5,8.699,28.93381326184,0,0.223694,0.69653217452,0,0,-0.223694,115.3, 1.2, -4.4,0,0,1024,1024,1024,1024,0,0,0,0,126.5,0,0,100,4.345,4.342,0,0,0,0,0.927,83.66,28.93381326184,0,10,Assisted_Takeoff,
1600,2022-09-06 17:50:26,-34.9116724903597,-55.043687593446,0,-0.1968504,29.13066366184,28.93381326184,0.328084,0,0.73498361932,0.77818572044,15,5,8.699,28.93381326184,0,0.223694,0.73498361932,0,0,0,114.5, 0.8, -3,0,0,1024,1024,1325,1024,0,0,46,0,126.2,0,0,100,4.345,4.342,0,0,0,0,0.927,83.66,28.93381326184,0,10,Assisted_Takeoff,
1700,2022-09-06 17:50:26,-34.9116725838951,-55.0436876816936,0,-0.1968504,29.13066366184,28.93381326184,0.328084,0,0.77688322696,0.82133532812,15,5,8.699,28.93381326184,0,0.223694,0.77688322696,0,0,0,114.6, 0.8, -1.6,0,0,1024,1024,1325,1024,0,0,46,0,126,0,0,100,4.345,4.342,0,0,0,0,0.927,83.66,28.93381326184,0,10,Assisted_Takeoff,
1800,2022-09-06 17:50:26,-34.9116726999995,-55.0436877910116,0,-0.1968504,29.13066366184,28.93381326184,0.328084,0,0.82902233624,0.8748523902,15,5,8.699,28.93381326184,0,0.223694,0.82902233624,0,0,-0.223694,114.1, 1, -1.1,0,0,1024,1024,1602,1024,0,0,88,0,125.5,0,0,100,4.345,4.342,0,0,0,0,0.927,83.66,28.93381326184,0,10,Assisted_Takeoff,
1900,2022-09-06 17:50:26,-34.9116727501177,-55.0436878059536,0,-0.1968504,29.13066366184,28.93381326184,0.328084,0,0.84421590628,0.89367785012,15,5,8.699,28.93381326184,0,0.223694,0.84421590628,0,0,-0.223694,114.6, 1.2, -1,0,0,1024,1024,1411,1024,0,0,59,0,125.6,0,0,100,4.345,4.342,0,0,0,0,0.927,83.66,28.93381326184,0,10,Assisted_Takeoff,
2000,2022-09-06 17:50:26,-34.9116727831478,-55.0436877981186,0.328084,0.1312336,29.13066366184,29.26189726184,0.328084,0,0.85032154952,0.9059547534,15,5,8.699,29.26189726184,0.328084,0.223694,0.85032154952,0,0,-0.223694,115, 0.6, -0.3,0,0,1024,1024,1024,1024,0,0,0,0,125.8,0,0,100,4.345,4.342,0,0,0,0,0.927,83.66,29.26189726184,0.328084,10,Assisted_Takeoff,
2100,2022-09-06 17:50:27,-34.9116727809519,-55.0436876724325,0.328084,0.1312336,29.13066366184,29.26189726184,0.328084,0,0.82185042,0.94356630316,15,5,8.694,29.26189726184,0.328084,0.223694,0.85032154952,0,0,-0.223694,114.9, 0.2, 0,0,0,1024,1024,1024,1024,0,0,0,0,126,0,0,100,4.348,4.343,0,0,0,0,1.418,83.66,29.26189726184,0.328084,10,Assisted_Takeoff,
2200,2022-09-06 17:50:27,-34.9116728324144,-55.04368769934,0.656168,0.4593176,29.13066366184,29.58998126184,0.328084,0,0.84056433136,0.96399609384,15,5,8.694,29.58998126184,0.656168,0.223694,0.85032154952,0,0,-0.223694,114.9, -0.4, 1.1,0,0,1024,1024,1190,1024,0,0,25,0,126,0,0,100,4.348,4.343,0,0,0,0,1.418,83.66,29.58998126184,0.656168,10,Assisted_Takeoff,
2300,2022-09-06 17:50:27,-34.9116729331479,-55.0436876857059,0.656168,0.4593176,29.13066366184,29.58998126184,0.328084,0,0.86337601188,1.00097444148,15,5,8.694,29.58998126184,0.656168,0.223694,0.86337601188,0,0,-0.223694,116, -0.9, 2.3,0,0,1024,1024,1526,1024,0,0,76,0,126.7,0,0,100,4.348,4.343,0,0,0,0,1.418,83.66,29.58998126184,0.656168,10,Assisted_Takeoff,"En vuelo"
2400,2022-09-06 17:50:27,-34.9116730306559,-55.0436876575846,0.984252,0.7874016,29.13066366184,29.91806526184,0.328084,0,0.88333992328,1.03752956076,15,5,8.694,29.91806526184,0.984252,0.223694,0.88333992328,0,0,-0.223694,116.5, -1.4, 2.6,0,0,1024,1024,1659,1024,0,0,96,0,127.1,0,0,100,4.348,4.343,0,0,0,0,1.418,83.66,29.91806526184,0.984252,10,Assisted_Takeoff,
2500,2022-09-06 17:50:27,-34.911672865416,-55.0436873536564,0.984252,0.8858268,29.03223846184,29.91806526184,0.328084,0,0.7778543556,1.14663389496,15,5,8.694,29.91806526184,0.984252,0.223694,0.88333992328,0,0,-0.223694,117.4, -0.8, 2.6,0,0,1024,1024,1655,1024,0,0,96,0,127.8,0,0,100,4.348,4.343,0,0,0,0,1.418,83.66,29.91806526184,0.984252,10,Assisted_Takeoff,
2600,2022-09-06 17:50:27,-34.9116728537083,-55.043687387458,1.312336,1.2139108,29.03223846184,30.24614926184,0.328084,0,0.78127299088,1.1576115856,15,5,8.694,30.24614926184,1.312336,0.223694,0.88333992328,0,0,-0.223694,118.7, 1, 3.9,0,0,1024,1024,1655,1024,0,0,96,0,128.9,0,0,100,4.348,4.343,0,0,0,0,1.418,83.66,30.24614926184,1.312336,10,Assisted_Takeoff,
2700,2022-09-06 17:50:27,-34.91167294243,-55.0436873848569,1.312336,1.2139108,29.03223846184,30.24614926184,0.656168,0,0.80532810976,1.18999019556,15,5,8.694,30.24614926184,1.312336,0.223694,0.88333992328,0,0,-0.447388,118.6, 1.2, 5.7,0,0,1024,1024,1645,1024,0,0,94,0,129.2,0,0,100,4.348,4.343,0,0,0,0,1.418,83.66,30.24614926184,1.312336,10,Assisted_Takeoff,
2800,2022-09-06 17:50:27,-34.9116730310035,-55.0436874248347,1.64042,1.5419948,29.03223846184,30.57423326184,0.656168,0.223694,0.8378773234,1.22444885808,15,5,8.694,30.57423326184,1.64042,0.223694,0.88333992328,0,-0.223694,-0.447388,119.7, 3.1, 6.5,0,0,1024,1024,1635,1024,0,0,93,0,129.9,0,0,100,4.348,4.343,0,0,0,0,1.418,83.66,30.57423326184,1.64042,10,Assisted_Takeoff,
2900,2022-09-06 17:50:27,-34.9116730039653,-55.0436873351526,1.968504,1.8700788,29.03223846184,30.90231726184,0.656168,0.223694,0.8134350654,1.25303809784,15,5,8.694,30.90231726184,1.968504,0.223694,0.88333992328,0,-0.223694,-0.671082,118.9, 3, 10.2,0,0,1024,1024,1632,1024,0,0,92,0,130,0,0,100,4.348,4.343,0,0,0,0,1.418,83.66,30.90231726184,1.968504,10,Assisted_Takeoff,
3000,2022-09-06 17:50:27,-34.9116730848537,-55.0436875507754,2.296588,2.0997376,29.13066366184,31.23040126184,0.656168,0.8052984,0.87704399132,1.32397970116,15,5,8.694,31.23040126184,2.296588,0.8052984,0.88333992328,-0.447388,-0.671082,-1.11847,118.3, 2, 4.1,0,0,1024,1024,1618,1024,0,0,90,0,130,0,0,100,4.348,4.343,0,0,0,0,1.418,83.66,31.23040126184,2.296588,6,P-GPS,
3100,2022-09-06 17:50:27,-34.9116733133375,-55.04368796899,2.624672,2.4278216,29.13066366184,31.55848526184,0.656168,0.8052984,1.02232286736,1.47433075584,15,5,8.694,31.55848526184,2.624672,0.8052984,1.02232286736,-0.671082,-0.894776,-1.789552,118.2, -2, -3,0,0,1024,1024,1593,1024,0,0,86,0,130,0,0,100,4.348,4.343,0,0,0,0,1.418,83.66,31.55848526184,2.624672,6,P-GPS,
3200,2022-09-06 17:50:28,-34.9116735969318,-55.0436884508196,2.952756,2.788714,29.09785526184,31.88656926184,1.312336,0.9395148,1.19656827976,1.65177826808,15,5,8.669,31.88656926184,2.952756,0.9395148,1.19656827976,-0.671082,-0.671082,-2.684328,118.7, -3.2, -5.6,0,0,1024,1024,1474,1024,0,0,68,0,130,0,0,100,4.295,4.29,0,0,0,0,1.826,83.66,31.88656926184,2.952756,6,P-GPS,
3300,2022-09-06 17:50:28,-34.9116740526295,-55.0436889031635,3.28084,3.0183728,29.19628046184,32.21465326184,1.64042,0.9395148,1.41022314224,1.8661581962,15,5,8.669,32.21465326184,3.28084,0.9395148,1.41022314224,-0.671082,-0.671082,-3.579104,118.9, -3, -7.3,0,0,1024,1024,1419,1024,0,0,60,0,130,0,0,100,4.295,4.29,0,0,0,0,1.826,83.66,32.21465326184,3.28084,6,P-GPS,
3400,2022-09-06 17:50:28,-34.9116743805891,-55.0436892059464,3.608924,3.3464568,29.19628046184,32.54273726184,1.968504,0.9395148,1.55946855384,2.01623694116,15,5,8.669,32.54273726184,3.608924,0.9395148,1.55946855384,-0.671082,-0.447388,-3.802798,118.8, -1.9, -7.3,0,0,1024,1024,1087,1024,0,0,10,0,130,0,0,100,4.295,4.29,0,0,0,0,1.826,83.66,32.54273726184,3.608924,6,P-GPS,
3500,2022-09-06 17:50:28,-34.9116746682721,-55.0436894895309,4.265092,4.0026248,29.19628046184,33.19890526184,4.92126,0.4921268,1.69414047416,2.15120085624,15,5,8.669,33.19890526184,4.265092,0.9395148,1.69414047416,-0.447388,-0.223694,-4.026492,118.7, -1.3, -6.8,0,0,1024,1024,1087,1024,0,0,10,0,130,0,0,100,4.295,4.29,0,0,0,0,1.826,83.66,33.19890526184,4.265092,6,P-GPS,
3600,2022-09-06 17:50:28,-34.911674935205,-55.0436897687328,4.593176,4.2322836,29.29470566184,33.52698926184,5.577428,0.4921268,1.82237866724,2.2795112278,15,5,8.669,33.52698926184,4.593176,0.9395148,1.82237866724,-0.447388,-0.223694,-3.802798,118.8, -1, -6.3,0,0,1024,1024,1428,1024,0,0,61,0,130,0,0,100,4.295,4.29,0,0,0,0,1.826,83.66,33.52698926184,4.593176,6,P-GPS,
3700,2022-09-06 17:50:28,-34.9116752215559,-55.0436899854363,4.92126,4.5603676,29.29470566184,33.85507326184,5.905512,0.4921268,1.94336948476,2.40246726848,15,5,8.669,33.85507326184,4.92126,0.9395148,1.94336948476,-0.447388,-0.223694,-3.579104,119, -1.1, -5.7,0,0,1024,1024,1413,1024,0,0,59,0,130,0,0,100,4.295,4.29,0,0,0,0,1.826,83.66,33.85507326184,4.92126,6,P-GPS,
3800,2022-09-06 17:50:28,-34.9116757792206,-55.0436903207306,5.249344,4.92126,29.26189726184,34.18315726184,6.56168,0.3131716,2.16280190648,2.62931766944,15,5,8.669,34.18315726184,5.249344,0.9395148,2.16280190648,-0.223694,-0.223694,-3.35541,118.9, -1.2, -5,0,0,1024,1024,1024,1024,0,0,0,0,130,0,0,100,4.295,4.29,0,0,0,0,1.826,83.66,34.18315726184,5.249344,6,P-GPS,
3900,2022-09-06 17:50:28,-34.9116759923066,-55.0436904718655,5.249344,4.92126,29.26189726184,34.18315726184,6.889764,0.3131716,2.25143707992,2.71925533636,15,5,8.669,34.18315726184,5.249344,0.9395148,2.25143707992,-0.223694,-0.223694,-3.131716,118.9, -1.5, -4.9,0,0,1024,1024,1024,1024,0,0,0,0,130,0,0,100,4.295,4.29,0,0,0,0,1.826,83.66,34.18315726184,5.249344,6,P-GPS,
4000,2022-09-06 17:50:28,-34.9116761995269,-55.0436906339235,5.577428,5.1509188,29.36032246184,34.51124126184,7.217848,0.3131716,2.34059390692,2.8090716122,15,5,8.669,34.51124126184,5.577428,0.9395148,2.34059390692,-0.223694,-0.223694,-2.684328,118.9, -1.5, -4.8,0,0,1024,1024,1024,1024,0,0,0,0,130,0,0,100,4.295,4.29,0,0,0,0,1.826,83.66,34.51124126184,5.577428,6,P-GPS,
4100,2022-09-06 17:50:28,-34.9116763030674,-55.0436908056783,5.905512,5.4790028,29.36032246184,34.83932526184,7.545932,0.3131716,2.402477111,2.8728511418,15,5,8.669,34.83932526184,5.905512,0.9395148,2.402477111,-0.223694,-0.223694,-2.013246,118.9, -2.4, -5.7,0,0,1024,1024,1024,1024,0,0,0,0,130,0,0,100,4.295,4.29,0,0,0,0,1.826,83.66,34.83932526184,5.905512,6,P-GPS,
4200,2022-09-06 17:50:29,-34.9116762989515,-55.043690829591,5.905512,5.4790028,29.36032246184,34.83932526184,7.545932,0.3131716,2.40591871216,2.88016085332,15,5,8.505,34.83932526184,5.905512,0.9395148,2.40591871216,-0.223694,-0.223694,-1.11847,118.9, -2.3, -6.3,0,0,1024,1024,1024,1024,0,0,0,0,130,0,0,100,4.267,4.273,0,0,0,0,4.863,83.66,34.83932526184,5.905512,6,P-GPS,
4300,2022-09-06 17:50:29,-34.9116764476268,-55.0436910436305,5.905512,5.4790028,29.36032246184,34.83932526184,7.545932,0.4921268,2.48867790116,2.96408474052,15,5,8.505,34.83932526184,5.905512,0.9395148,2.48867790116,-0.223694,-0.447388,-0.447388,118.7, -2.1, -6.6,0,0,1024,1024,1024,1024,0,0,0,0,130,0,0,100,4.267,4.273,0,0,0,0,4.863,83.66,34.83932526184,5.905512,6,P-GPS,
4400,2022-09-06 17:50:29,-34.9116765961645,-55.0436912662581,5.905512,5.4790028,29.36032246184,34.83932526184,7.545932,0.4921268,2.57314968864,3.04995416584,15,5,8.505,34.83932526184,5.905512,0.9395148,2.57314968864,-0.223694,-0.447388,-0.223694,118.3, -0.2, -5.8,0,0,1024,1024,1024,1024,0,0,0,0,130,0,0,100,4.267,4.273,0,0,0,0,4.863,83.66,34.83932526184,5.905512,6,P-GPS,
4500,2022-09-06 17:50:29,-34.9116767333805,-55.043691436331,5.905512,5.4790028,29.36032246184,34.83932526184,7.545932,0.3131716,2.6442914232,3.12133868256,15,5,8.505,34.83932526184,5.905512,0.9395148,2.6442914232,-0.223694,-0.223694,-0.223694,118.4, -3.4, -7.2,0,0,1024,1024,1024,1024,0,0,0,0,130,0,0,100,4.267,4.273,0,0,0,0,4.863,83.66,34.83932526184,5.905512,6,P-GPS,
4600,2022-09-06 17:50:29,-34.9116769652449,-55.0436915421594,5.905512,5.3805776,29.45874766184,34.83932526184,7.545932,0.3131716,2.72918971988,3.2116634886,15,5,8.505,34.83932526184,5.905512,0.9395148,2.72918971988,-0.223694,-0.223694,0,118.9, -4.4, -6.7,0,0,1024,1024,1024,1024,0,0,0,0,130,0,0,100,4.267,4.273,0,0,0,0,4.863,83.66,34.83932526184,5.905512,6,P-GPS,
4700,2022-09-06 17:50:29,-34.9116771058634,-55.0436916021192,6.233596,5.7086616,29.45874766184,35.16740926184,7.545932,0.223694,2.7800361782,3.26601388404,15,5,8.505,35.16740926184,6.233596,0.9395148,2.7800361782,0,-0.223694,0.223694,119, -3.3, -6.4,0,0,1024,1024,1024,1024,0,0,0,0,130,0,0,100,4.267,4.273,0,0,0,0,4.863,83.66,35.16740926184,6.233596,6,P-GPS,
4800,2022-09-06 17:50:29,-34.9116772565662,-55.0436916357497,6.233596,5.7086616,29.45874766184,35.16740926184,7.545932,0,2.8288714816,3.3219161168,15,5,8.505,35.16740926184,6.233596,0.9395148,2.8288714816,0,0,0.223694,118.8, -2.5, -6.9,0,0,1024,1024,1024,1024,0,0,0,0,130,0,0,100,4.267,4.273,0,0,0,0,4.863,83.66,35.16740926184,6.233596,6,P-GPS,
4900,2022-09-06 17:50:29,-34.9116773612035,-55.0436916467139,6.233596,5.7086616,29.45874766184,35.16740926184,7.545932,0,2.86061032776,3.360236328,15,5,8.505,35.16740926184,6.233596,0.9395148,2.86061032776,0,0,0.223694,118.8, -2.7, -6.4,0,0,1024,1024,1024,1024,0,0,0,0,130,0,0,100,4.267,4.273,0,0,0,0,4.863,83.66,35.16740926184,6.233596,6,P-GPS,
5000,2022-09-06 17:50:29,-34.9116774990757,-55.0436914806906,5.905512,5.4790028,29.36032246184,34.83932526184,7.217848,0,2.86958014432,3.43093843,15,5,8.505,35.16740926184,6.233596,0.9395148,2.86958014432,0,0,0,118.8, -2.7, -6.2,0,0,1024,1024,1024,1024,0,0,0,0,130,0,0,100,4.267,4.273,0,0,0,0,4.863,83.66,34.83932526184,5.905512,6,P-GPS,
5100,2022-09-06 17:50:29,-34.9116775464707,-55.0436914727502,5.905512,5.4790028,29.36032246184,34.83932526184,7.217848,0,2.88190954104,3.4483924988,15,5,8.505,35.16740926184,6.233596,0.9395148,2.88190954104,0,0,0,118.6, -2.9, -6.1,0,0,1024,1024,1024,1024,0,0,0,0,130,0,0,100,4.267,4.273,0,0,0,0,4.863,83.66,34.83932526184,5.905512,6,P-GPS,
5200,2022-09-06 17:50:30,-34.9116775850249,-55.0436914658936,5.905512,5.4790028,29.36032246184,34.83932526184,7.217848,0,2.89190297968,3.462598536,15,5,8.599,35.16740926184,6.233596,0.9395148,2.89190297968,0,0,0,118.7, -3.3, -6.2,0,0,1024,1024,1024,1024,0,0,0,0,130,0,0,100,4.283,4.282,0,0,0,0,3.399,83.66,34.83932526184,5.905512,6,P-GPS,
5300,2022-09-06 17:50:30,-34.9116776102137,-55.0436914153826,5.905512,5.4790028,29.36032246184,34.83932526184,7.217848,0,2.89022647044,3.4802822636,15,5,8.599,35.16740926184,6.233596,0.9395148,2.89190297968,0,0,0,118.7, -3.3, -6.1,0,0,1024,1024,1024,1024,0,0,0,0,130,0,0,100,4.283,4.282,0,0,0,0,3.399,83.66,34.83932526184,5.905512,6,P-GPS,
5400,2022-09-06 17:50:30,-34.9116776340769,-55.0436913415451,5.905512,5.4790028,29.36032246184,34.83932526184,7.217848,0,2.88414707392,3.5040355452,15,5,8.599,35.16740926184,6.233596,0.9395148,2.89190297968,0,0,0,118.8, -3.6, -6,0,0,1024,1024,1024,1024,0,0,0,0,130,0,0,100,4.283,4.282,0,0,0,0,3.399,83.66,34.83932526184,5.905512,6,P-GPS,
5500,2022-09-06 17:50:30,-34.9116776197474,-55.0436911705026,5.905512,5.4790028,29.36032246184,34.83932526184,7.217848,0,2.85001321456,3.5554791164,15,5,8.599,35.16740926184,6.233596,0.9395148,2.89190297968,0,0,-0.223694,118.8, -2.6, -5.9,0,0,1024,1024,1024,1024,0,0,0,0,130,0,0,100,4.283,4.282,0,0,0,0,3.399,83.66,34.83932526184,5.905512,6,P-GPS,
5600,2022-09-06 17:50:30,-34.9116776834432,-55.0436911909097,6.233596,5.8070868,29.36032246184,35.16740926184,7.217848,0,2.87251321528,3.5794948652,15,5,8.599,35.16740926184,6.233596,0.9395148,2.89190297968,0,0,-0.223694,118.8, -2, -6.3,0,0,1024,1024,1024,1024,0,0,0,0,130,0,0,100,4.283,4.282,0,0,0,0,3.399,83.66,35.16740926184,6.233596,6,P-GPS,
5700,2022-09-06 17:50:30,-34.9116777386751,-55.0436911596977,6.233596,5.8070868,29.36032246184,35.16740926184,7.217848,0,2.88366807128,3.601706152,15,5,8.599,35.16740926184,6.233596,0.9395148,2.89190297968,0,0,-0.223694,118.6, -1.9, -6.1,0,0,1024,1024,1024,1024,0,0,0,0,130,0,0,100,4.283,4.282,0,0,0,0,3.399,83.66,35.16740926184,6.233596,6,P-GPS,
5800,2022-09-06 17:50:30,-34.9116777971045,-55.0436911288331,6.233596,5.8070868,29.36032246184,35.16740926184,7.217848,0,2.89597122128,3.6249344992,15,5,8.599,35.16740926184,6.233596,0.9395148,2.89597122128,0,0,-0.223694,118.6, -1.2, -6,0,0,1024,1024,1024,1024,0,0,0,0,130,0,0,100,4.283,4.282,0,0,0,0,3.399,83.66,35.16740926184,6.233596,6,P-GPS,
5900,2022-09-06 17:50:30,-34.9116778852685,-55.0436912048044,6.56168,6.1351708,29.36032246184,35.49549326184,7.217848,0,2.93535442464,3.6643373876,15,5,8.599,35.49549326184,6.56168,0.9395148,2.93535442464,0,0,-0.223694,118.6, -1.8, -6.2,0,0,1024,1024,1024,1024,0,0,0,0,130,0,0,100,4.283,4.282,0,0,0,0,3.399,83.66,35.49549326184,6.56168,6,P-GPS,
6000,2022-09-06 17:50:30,-34.9116779444616,-55.0436912158489,6.56168,6.1351708,29.36032246184,35.49549326184,7.217848,0,2.955052588,3.6861549736,15,5,8.599,35.49549326184,6.56168,0.9395148,2.955052588,0,0,-0.223694,118.5, -2.1, -6.5,0,0,1024,1024,1024,1024,0,0,0,0,130,0,0,100,4.283,4.282,0,0,0,0,3.399,83.66,35.49549326184,6.56168,6,P-GPS,
6100,2022-09-06 17:50:31,-34.9116779443826,-55.0436912245285,6.56168,6.1351708,29.36032246184,35.49549326184,7.545932,0,2.95648959592,3.6887796456,15,5,8.599,35.49549326184,6.56168,0.9395148,2.95648959592,0,0,-0.223694,118.6, -2.7, -6.8,0,0,1024,1024,1024,1024,0,0,0,0,130,0,0,100,4.283,4.282,0,0,0,0,3.399,83.66,35.49549326184,6.56168,6,P-GPS,
6200,2022-09-06 17:50:31,-34.9116779369928,-55.0436912327033,6.56168,6.1351708,29.36032246184,35.49549326184,7.545932,0,2.9556431392,3.692421378,15,5,8.549,35.49549326184,6.56168,0.9395148,2.95648959592,0,0,0,118.6, -2.3, -6.6,0,0,1024,1024,1024,1024,0,0,0,0,130,0,0,100,4.275,4.274,0,0,0,0,4.268,83.66,35.49549326184,6.56168,6,P-GPS,
6300,2022-09-06 17:50:31,-34.9116778528584,-55.0436913190029,6.889764,6.4632548,29.36032246184,35.82357726184,7.545932,0,2.94511820448,3.7325132428,15,5,8.549,35.82357726184,6.889764,0.9395148,2.95648959592,0,0,-0.223694,118.9, -2.9, -6.8,0,0,1024,1024,1024,1024,0,0,0,0,130,0,0,100,4.275,4.274,0,0,0,0,4.268,83.66,35.82357726184,6.889764,6,P-GPS,
6400,2022-09-06 17:50:31,-34.9116778731162,-55.0436913759938,6.889764,6.4632548,29.36032246184,35.82357726184,7.545932,0,2.96098434672,3.7511156056,15,5,8.549,35.82357726184,6.889764,0.9395148,2.96098434672,0,0,0,118.9, -2.1, -7.2,0,0,1024,1024,1024,1024,0,0,0,0,130,0,0,100,4.275,4.274,0,0,0,0,4.268,83.66,35.82357726184,6.889764,6,P-GPS,
6500,2022-09-06 17:50:31,-34.9116779064073,-55.0436914441865,6.889764,6.4632548,29.36032246184,35.82357726184,7.545932,0,2.98270022668,3.7748360788,15,5,8.549,35.82357726184,6.889764,0.9395148,2.98270022668,0,0,0,118.8, -1.7, -7,0,0,1024,1024,1024,1024,0,0,0,0,130,0,0,100,4.275,4.274,0,0,0,0,4.268,83.66,35.82357726184,6.889764,6,P-GPS,
6600,2022-09-06 17:50:31,-34.9116779356794,-55.0436915190746,7.217848,6.725722,29.42593926184,36.15166126184,7.545932,0,3.00442594916,3.7996720376,15,5,8.549,36.15166126184,7.217848,0.9395148,3.00442594916,0,0,0,118.8, -1.9, -7.6,0,0,1024,1024,1024,1024,0,0,0,0,130,0,0,100,4.275,4.274,0,0,0,0,4.268,83.66,36.15166126184,7.217848,6,P-GPS,
6700,2022-09-06 17:50:31,-34.9116779204111,-55.0436916541261,7.217848,6.725722,29.42593926184,36.15166126184,7.545932,0,3.02369432248,3.8404528788,15,5,8.549,36.15166126184,7.217848,0.9395148,3.02369432248,0,0,0,118.6, -2.4, -7,0,0,1024,1024,1024,1024,0,0,0,0,130,0,0,100,4.275,4.274,0,0,0,0,4.268,83.66,36.15166126184,7.217848,6,P-GPS,
6800,2022-09-06 17:50:31,-34.9116779196775,-55.0436916792965,7.217848,6.725722,29.42593926184,36.15166126184,7.545932,0,3.0279528528,3.8479988108,19,5,8.549,36.15166126184,7.217848,0.9395148,3.0279528528,0,0,0,118.6, -1.4, -6.9,0,0,1024,1024,1024,1024,0,0,0,0,130,0,0,100,4.275,4.274,0,0,0,0,4.268,83.66,36.15166126184,7.217848,6,P-GPS,
6900,2022-09-06 17:50:31,-34.9116779586486,-55.0436916348584,7.217848,6.725722,29.42593926184,36.15166126184,7.545932,0,3.03153224924,3.867454192,19,5,8.549,36.15166126184,7.217848,0.9395148,3.03153224924,0,0,0,118.6, -1.4, -7,0,0,1024,1024,1024,1024,0,0,0,0,130,0,0,100,4.275,4.274,0,0,0,0,4.268,83.66,36.15166126184,7.217848,6,P-GPS,
7000,2022-09-06 17:50:31,-34.9116780091906,-55.0436915666461,7.217848,6.725722,29.42593926184,36.15166126184,7.217848,0,3.0345145328,3.8949804396,19,5,8.549,36.15166126184,7.217848,0.9395148,3.0345145328,0,0,0,118.5, -0.6, -7.2,0,0,1024,1024,1024,1024,0,0,0,0,130,0,0,100,4.275,4.274,0,0,0,0,4.268,83.66,36.15166126184,7.217848,6,P-GPS,
7100,2022-09-06 17:50:32,-34.9116780646481,-55.0436913782673,7.217848,6.7913388,29.36032246184,36.15166126184,7.217848,0,3.0186844798,3.9548557696,19,5,8.549,36.15166126184,7.217848,0.9395148,3.0345145328,0,0,0,118.3, -0.3, -6.7,0,0,1024,1024,1024,1024,0,0,0,0,130,0,0,100,4.275,4.274,0,0,0,0,4.268,83.66,36.15166126184,7.217848,6,P-GPS,
7200,2022-09-06 17:50:32,-34.9116782054141,-55.0436907756984,7.217848,6.7913388,29.36032246184,36.15166126184,7.217848,0,2.96413395312,4.1422901588,19,5,8.556,36.15166126184,7.217848,0.9395148,3.0345145328,0,0,0,118.5, 0, -6.6,0,0,1024,1024,1024,1024,0,0,0,0,130,0,0,100,4.274,4.272,0,0,0,0,3.996,83.66,36.15166126184,7.217848,6,P-GPS,
7300,2022-09-06 17:50:32,-34.91167826669,-55.0436905071323,7.217848,6.7913388,29.36032246184,36.15166126184,7.217848,0,2.9428806716,4.22572192,19,5,8.556,36.15166126184,7.217848,0.9395148,3.0345145328,0,0,0,118.5, 0, -7,0,0,1024,1024,1024,1024,0,0,0,0,130,0,0,100,4.274,4.272,0,0,0,0,3.996,83.66,36.15166126184,7.217848,6,P-GPS,
7400,2022-09-06 17:50:32,-34.9116783262283,-55.0436902530752,7.217848,6.889764,29.26189726184,36.15166126184,7.217848,0,2.9253281776,4.3047573556,19,5,8.556,36.15166126184,7.217848,0.9395148,3.0345145328,0,0,0,118.5, -0.3, -7.2,0,0,1024,1024,1024,1024,0,0,0,0,130,0,0,100,4.274,4.272,0,0,0,0,3.996,83.66,36.15166126184,7.217848,6,P-GPS,
7500,2022-09-06 17:50:32,-34.9116783572534,-55.0436900049671,7.217848,6.889764,29.26189726184,36.15166126184,7.217848,0,2.90130914796,4.3798557832,19,5,8.556,36.15166126184,7.217848,0.9395148,3.0345145328,0,0,0,118.7, -1, -7.2,0,0,1024,1024,1024,1024,0,0,0,0,130,0,0,100,4.274,4.272,0,0,0,0,3.996,83.66,36.15166126184,7.217848,6,P-GPS,
7600,2022-09-06 17:50:32,-34.9116784185236,-55.0436892479183,7.217848,6.9881892,29.16347206184,36.15166126184,7.217848,0,2.82778552356,4.607447654,19,5,8.556,36.15166126184,7.217848,0.9395148,3.0345145328,0,0,0,118.6, -1.2, -7,0,0,1024,1024,1024,1024,0,0,0,0,130,0,0,100,4.274,4.272,0,0,0,0,3.996,83.66,36.15166126184,7.217848,6,P-GPS,
7700,2022-09-06 17:50:32,-34.911678379511,-55.0436890792045,7.217848,6.9881892,29.16347206184,36.15166126184,7.217848,0,2.79575796348,4.6599082856,19,5,8.556,36.15166126184,7.217848,0.9395148,3.0345145328,0,0,0,118.6, -0.8, -6.9,0,0,1024,1024,1024,1024,0,0,0,0,130,0,0,100,4.274,4.272,0,0,0,0,3.996,83.66,36.15166126184,7.217848,6,P-GPS,
7800,2022-09-06 17:50:32,-34.9116783286751,-55.043688932988,7.217848,6.9881892,29.16347206184,36.15166126184,7.217848,0,2.76269365796,4.7074148488,19,5,8.556,36.15166126184,7.217848,0.9395148,3.0345145328,0,0,0,118.8, -1.5, -6.5,0,0,1024,1024,1024,1024,0,0,0,0,130,0,0,100,4.274,4.272,0,0,0,0,3.996,83.66,36.15166126184,7.217848,6,P-GPS,
7900,2022-09-06 17:50:32,-34.9116783100709,-55.0436888525636,7.217848,6.9881892,29.16347206184,36.15166126184,7.217848,0,2.74789050788,4.7324148496,19,5,8.556,36.15166126184,7.217848,0.9395148,3.0345145328,0,0,0,118.7, -1.6, -7,0,0,1024,1024,1024,1024,0,0,0,0,130,0,0,100,4.274,4.272,0,0,0,0,3.996,83.66,36.15166126184,7.217848,6,P-GPS,
8000,2022-09-06 17:50:32,-34.9116782721949,-55.0436887660685,7.217848,6.9881892,29.16347206184,36.15166126184,7.217848,0,2.72600402424,4.7617455592,19,5,8.556,36.15166126184,7.217848,0.9395148,3.0345145328,0,0,0,118.8, -1.5, -6.9,0,0,1024,1024,1024,1024,0,0,0,0,130,0,0,100,4.274,4.272,0,0,0,0,3.996,83.66,36.15166126184,7.217848,6,P-GPS,
8100,2022-09-06 17:50:32,-34.9116782762041,-55.0436887761725,6.889764,6.6601052,29.16347206184,35.82357726184,7.217848,0,2.7284121608,4.7651248244,19,5,8.556,36.15166126184,7.217848,0.9395148,3.0345145328,0,0,0,118.6, -2.5, -6.5,0,0,1024,1024,1024,1024,0,0,0,0,130,0,0,100,4.274,4.272,0,0,0,0,3.996,83.66,35.82357726184,6.889764,6,P-GPS,
8200,2022-09-06 17:50:33,-34.9116782810203,-55.0436887829928,6.889764,6.6601052,29.16347206184,35.82357726184,7.545932,0,2.73076124224,4.7678151132,19,5,8.556,36.15166126184,7.217848,0.9395148,3.0345145328,0,0,0,118.7, -2.8, -6.8,0,0,1024,1024,1024,1024,0,0,0,0,130,0,0,100,4.274,4.272,0,0,0,0,3.996,83.66,35.82357726184,6.889764,6,P-GPS,
8300,2022-09-06 17:50:33,-34.9116782572165,-55.0436887352558,6.889764,6.6601052,29.16347206184,35.82357726184,7.545932,0,2.7177330266,4.7845145888,19,5,8.55,36.15166126184,7.217848,0.9395148,3.0345145328,0,0,0,118.6, -2.6, -6,0,0,1024,1024,1024,1024,0,0,0,0,130,0,0,100,4.273,4.272,0,0,0,0,4.132,83.84,35.82357726184,6.889764,6,P-GPS,
8400,2022-09-06 17:50:33,-34.9116782954051,-55.0436888425928,6.56168,6.3320212,29.16347206184,35.49549326184,7.545932,0,2.74183407724,4.8195211516,19,5,8.55,36.15166126184,7.217848,0.9395148,3.0345145328,0,0,0,118.6, -2.2, -5.4,0,0,1024,1024,1024,1024,0,0,0,0,130,0,0,100,4.273,4.272,0,0,0,0,4.132,83.84,35.49549326184,6.56168,6,P-GPS,
8500,2022-09-06 17:50:33,-34.9116782609008,-55.0436887700678,6.56168,6.3320212,29.16347206184,35.49549326184,7.545932,0,2.7225394572,4.8446195776,19,5,8.55,36.15166126184,7.217848,0.9395148,3.0345145328,0,0,0,118.4, -1.8, -5.5,0,0,1024,1024,1024,1024,0,0,0,0,130,0,0,100,4.273,4.272,0,0,0,0,4.132,83.84,35.49549326184,6.56168,6,P-GPS,
8600,2022-09-06 17:50:33,-34.9116782158125,-55.043688700244,6.233596,6.0039372,29.16347206184,35.16740926184,7.545932,0,2.69997712052,4.8711943816,19,5,8.55,36.15166126184,7.217848,0.9395148,3.0345145328,0,0,0,118.6, -2.2, -5,0,0,1024,1024,1024,1024,0,0,0,0,130,0,0,100,4.273,4.272,0,0,0,0,4.132,83.84,35.16740926184,6.233596,6,P-GPS,
8700,2022-09-06 17:50:33,-34.9116781406012,-55.0436886335827,6.233596,6.0039372,29.16347206184,35.16740926184,7.545932,0.223694,2.6674377494,4.9051182672,19,5,8.55,36.15166126184,7.217848,0.9395148,3.0345145328,0.223694,0,0,118.6, -2.6, -4.8,0,0,1024,1024,1024,1024,0,0,0,0,130,0,0,100,4.273,4.272,0,0,0,0,4.132,83.84,35.16740926184,6.233596,6,P-GPS,
8800,2022-09-06 17:50:33,-34.9116780570376,-55.043688562008,5.905512,5.6758532,29.16347206184,34.83932526184,7.545932,0.223694,2.63156832568,4.9423886096,19,5,8.55,36.15166126184,7.217848,0.9395148,3.0345145328,0.223694,0,0,118.7, -3, -4.8,0,0,1024,1024,1024,1024,0,0,0,0,130,0,0,100,4.273,4.272,0,0,0,0,4.132,83.84,34.83932526184,5.905512,6,P-GPS,
8900,2022-09-06 17:50:33,-34.9116779128494,-55.0436885157966,5.905512,5.6758532,29.16347206184,34.83932526184,7.874016,0,2.57735244468,4.9967849368,19,5,8.55,36.15166126184,7.217848,0.9395148,3.0345145328,0,0,0,118.7, -2.7, -4.2,0,0,1024,1024,1024,1024,0,0,0,0,130,0,0,100,4.273,4.272,0,0,0,0,4.132,83.84,34.83932526184,5.905512,6,P-GPS,
9000,2022-09-06 17:50:33,-34.9116778552717,-55.0436884078265,5.577428,5.4461944,29.06504686184,34.51124126184,7.874016,0,2.54692921536,5.0353019984,19,5,8.55,36.15166126184,7.217848,0.9395148,3.0345145328,0,0,0,118.6, -2.8, -4.3,0,0,1024,1024,1024,1024,0,0,0,0,130,0,0,100,4.273,4.272,0,0,0,0,4.132,83.84,34.51124126184,5.577428,6,P-GPS,
9100,2022-09-06 17:50:33,-34.9116777843489,-55.0436882981604,5.577428,5.4461944,29.06504686184,34.51124126184,7.874016,0,2.51194889928,5.0770999,19,5,8.55,36.15166126184,7.217848,0.9395148,3.0345145328,0,0,0,118.6, -2.8, -4.2,0,0,1024,1024,1024,1024,0,0,0,0,130,0,0,100,4.273,4.272,0,0,0,0,4.132,83.84,34.51124126184,5.577428,6,P-GPS,
9200,2022-09-06 17:50:34,-34.9116777224151,-55.0436881798777,5.577428,5.4461944,29.06504686184,34.51124126184,7.874016,0,2.47951451504,5.119094652,19,5,8.55,36.15166126184,7.217848,0.9395148,3.0345145328,0,0,0,118.6, -2.1, -4.3,0,0,1024,1024,1024,1024,0,0,0,0,130,0,0,100,4.273,4.272,0,0,0,0,4.132,83.84,34.51124126184,5.577428,6,P-GPS,
9300,2022-09-06 17:50:34,-34.9116776553086,-55.0436880665254,5.577428,5.4461944,29.06504686184,34.51124126184,7.874016,0,2.44600401528,5.160925362,19,5,8.528,36.15166126184,7.217848,0.9395148,3.0345145328,0,0,0,118.6, -2, -5.4,0,0,1024,1024,1024,1024,0,0,0,0,130,0,0,100,4.265,4.262,0,0,0,0,4.284,83.84,34.51124126184,5.577428,6,P-GPS,
9400,2022-09-06 17:50:34,-34.9116776444672,-55.0436879782425,5.249344,5.1181104,29.06504686184,34.18315726184,8.2021,0,2.4345637262,5.1876313996,19,5,8.528,36.15166126184,7.217848,0.9395148,3.0345145328,0,0,0,118.8, -3, -4.5,0,0,1024,1024,1024,1024,0,0,0,0,130,0,0,100,4.265,4.262,0,0,0,0,4.284,83.84,34.18315726184,5.249344,6,P-GPS,
9500,2022-09-06 17:50:34,-34.9116776895523,-55.0436878475615,5.249344,5.1181104,29.06504686184,34.18315726184,8.2021,0,2.43955388384,5.2300526608,19,5,8.528,36.15166126184,7.217848,0.9395148,3.0345145328,0,0,0,118.6, -2, -3.6,0,0,1024,1024,1024,1024,0,0,0,0,130,0,0,100,4.265,4.262,0,0,0,0,4.284,83.84,34.18315726184,5.249344,6,P-GPS,
9600,2022-09-06 17:50:34,-34.9116777545973,-55.0436876964615,5.249344,5.1181104,29.06504686184,34.18315726184,8.2021,0,2.45079076084,5.2811025312,19,5,8.528,36.15166126184,7.217848,0.9395148,3.0345145328,0,0,0,118.5, -1.3, -4.3,0,0,1024,1024,1024,1024,0,0,0,0,130,0,0,100,4.265,4.262,0,0,0,0,4.284,83.84,34.18315726184,5.249344,6,P-GPS,
9700,2022-09-06 17:50:34,-34.9116778326917,-55.0436875078601,5.249344,5.1181104,29.06504686184,34.18315726184,8.2021,0,2.46512803164,5.3442915096,19,5,8.528,36.15166126184,7.217848,0.9395148,3.0345145328,0,0,0,118.5, -0.7, -4,0,0,1024,1024,1024,1024,0,0,0,0,130,0,0,100,4.265,4.262,0,0,0,0,4.284,83.84,34.18315726184,5.249344,6,P-GPS,
9800,2022-09-06 17:50:34,-34.9116778159017,-55.0436873548147,5.249344,5.2165356,28.96662166184,34.18315726184,8.2021,0,2.44926845108,5.3905185452,19,5,8.528,36.15166126184,7.217848,0.9395148,3.0345145328,0,0,0,118.6, -1.5, -3.2,0,0,1024,1024,1024,1024,0,0,0,0,130,0,0,100,4.265,4.262,0,0,0,0,4.284,83.84,34.18315726184,5.249344,6,P-GPS,
9900,2022-09-06 17:50:34,-34.9116778151045,-55.0436871794404,5.249344,5.2165356,28.96662166184,34.18315726184,8.2021,0,2.43865493368,5.4429791768,19,5,8.528,36.15166126184,7.217848,0.9395148,3.0345145328,0,0,0,118.6, -0.7, -3.3,0,0,1024,1024,1024,1024,0,0,0,0,130,0,0,100,4.265,4.262,0,0,0,0,4.284,83.84,34.18315726184,5.249344,6,P-GPS,
10000,2022-09-06 17:50:34,-34.9116778229764,-55.0436869905964,4.92126,4.8884516,28.96662166184,33.85507326184,8.2021,0,2.43158472348,5.4995408584,19,5,8.528,36.15166126184,7.217848,0.9395148,3.0345145328,0,0,0,118.7, -0.6, -3.1,0,0,1024,1024,1024,1024,0,0,0,0,130,0,0,100,4.265,4.262,0,0,0,0,4.284,83.84,33.85507326184,4.92126,6,P-GPS,
10100,2022-09-06 17:50:34,-34.9116778323693,-55.0436867520847,4.92126,4.8884516,28.96662166184,33.85507326184,8.2021,0,2.42431438204,5.5709975536,19,5,8.528,36.15166126184,7.217848,0.9395148,3.0345145328,0,0,0,118.5, -0.5, -2.8,0,0,1024,1024,1024,1024,0,0,0,0,130,0,0,100,4.265,4.262,0,0,0,0,4.284,83.84,33.85507326184,4.92126,6,P-GPS,
10200,2022-09-06 17:50:35,-34.9116778530505,-55.0436866100678,4.92126,4.8884516,28.96662166184,33.85507326184,8.2021,0,2.4264436472,5.6141405996,19,5,8.528,36.15166126184,7.217848,0.9395148,3.0345145328,0,0,0,118.5, -0.1, -2.9,0,0,1024,1024,1024,1024,0,0,0,0,130,0,0,100,4.265,4.262,0,0,0,0,4.284,83.84,33.85507326184,4.92126,6,P-GPS,
10300,2022-09-06 17:50:35,-34.9116778329409,-55.0436864677452,4.92126,4.9868768,28.86819646184,33.85507326184,8.2021,0,2.41452107464,5.6573492624,19,5,8.531,36.15166126184,7.217848,0.9395148,3.0345145328,0,0,0,118.5, -0.5, -2.9,0,0,1024,1024,1024,1024,0,0,0,0,130,0,0,100,4.265,4.263,0,0,0,0,4.356,83.84,33.85507326184,4.92126,6,P-GPS,
10400,2022-09-06 17:50:35,-34.9116778112166,-55.0436863477567,4.92126,4.9868768,28.86819646184,33.85507326184,8.2021,0,2.40329075932,5.6941274788,19,5,8.531,36.15166126184,7.217848,0.9395148,3.0345145328,0,0,0,118.6, -0.7, -3.4,0,0,1024,1024,1024,1024,0,0,0,0,130,0,0,100,4.265,4.263,0,0,0,0,4.356,83.84,33.85507326184,4.92126,6,P-GPS,
10500,2022-09-06 17:50:35,-34.911677861722,-55.0436862579915,5.249344,5.3149608,28.86819646184,34.18315726184,8.2021,0,2.41951451312,5.7266734116,19,5,8.531,36.15166126184,7.217848,0.9395148,3.0345145328,0,0,0,118.6, -1.8, -3.2,0,0,1024,1024,1024,1024,0,0,0,0,130,0,0,100,4.265,4.263,0,0,0,0,4.356,83.84,34.18315726184,5.249344,6,P-GPS,
10600,2022-09-06 17:50:35,-34.9116779427021,-55.0436860508073,5.249344,5.3149608,28.86819646184,34.18315726184,8.530184,0,2.44522973704,5.7953742012,19,5,8.531,36.15166126184,7.217848,0.9395148,3.0345145328,0,0,0,118.5, -1.3, -4.1,0,0,1024,1024,1024,1024,0,0,0,0,130,0,0,100,4.265,4.263,0,0,0,0,4.356,83.84,34.18315726184,5.249344,6,P-GPS,
10700,2022-09-06 17:50:35,-34.9116780161726,-55.0436860640603,5.577428,5.6430448,28.86819646184,34.51124126184,8.530184,0,2.472194961,5.8224411312,19,5,8.531,36.15166126184,7.217848,0.9395148,3.0345145328,0,0,0,118.6, -2.2, -4.8,0,0,1024,1024,1024,1024,0,0,0,0,130,0,0,100,4.265,4.263,0,0,0,0,4.356,83.84,34.51124126184,5.577428,6,P-GPS,
10800,2022-09-06 17:50:35,-34.9116781076105,-55.0436860884214,5.577428,5.6430448,28.86819646184,34.51124126184,8.530184,0,2.50587934528,5.8565946756,19,5,8.531,36.15166126184,7.217848,0.9395148,3.0345145328,0,0,0,118.5, -1.6, -5.5,0,0,1024,1024,1024,1024,0,0,0,0,130,0,0,100,4.265,4.263,0,0,0,0,4.356,83.84,34.51124126184,5.577428,6,P-GPS,
10900,2022-09-06 17:50:35,-34.9116781425276,-55.0436860486511,5.905512,5.9711288,28.86819646184,34.83932526184,8.530184,0,2.51802173412,5.8740487444,19,5,8.531,36.15166126184,7.217848,0.9395148,3.0345145328,0,0,0,118.6, -1, -5.9,0,0,1024,1024,1024,1024,0,0,0,0,130,0,0,100,4.265,4.263,0,0,0,0,4.356,83.84,34.83932526184,5.905512,6,P-GPS,
11000,2022-09-06 17:50:35,-34.9116780388772,-55.0436860192078,5.905512,5.9711288,28.86819646184,34.83932526184,8.530184,0,2.47984916072,5.9128610816,19,5,8.531,36.15166126184,7.217848,0.9395148,3.0345145328,0,0,0,118.6, -1.2, -5.7,0,0,1024,1024,1024,1024,0,0,0,0,130,0,0,100,4.265,4.263,0,0,0,0,4.356,83.84,34.83932526184,5.905512,6,P-GPS,
11100,2022-09-06 17:50:36,-34.9116780451605,-55.0436859810653,5.905512,5.9711288,28.86819646184,34.83932526184,8.530184,0,2.48167002692,5.9245080636,19,5,8.531,36.15166126184,7.217848,0.9395148,3.0345145328,0,0,0,118.8, -1.3, -5.5,0,0,1024,1024,1024,1024,0,0,0,0,130,0,0,100,4.265,4.263,0,0,0,0,4.356,83.84,34.83932526184,5.905512,6,P-GPS,
11200,2022-09-06 17:50:36,-34.9116780475454,-55.0436859416482,6.233596,6.2992128,28.86819646184,35.16740926184,8.530184,0,2.48210965948,5.9363190876,19,5,8.531,36.15166126184,7.217848,0.9395148,3.0345145328,0,0,0,118.7, -1.5, -5.9,0,0,1024,1024,1024,1024,0,0,0,0,130,0,0,100,4.265,4.263,0,0,0,0,4.356,83.84,35.16740926184,6.233596,6,P-GPS,
11300,2022-09-06 17:50:36,-34.9116780977951,-55.0436858329536,6.233596,6.2992128,28.86819646184,35.16740926184,8.530184,0,2.49954732408,5.9736550468,19,5,8.534,36.15166126184,7.217848,0.9395148,3.0345145328,0,0,0,118.6, -1.3, -5.3,0,0,1024,1024,1024,1024,0,0,0,0,130,0,0,100,4.269,4.265,0,0,0,0,4.061,83.84,35.16740926184,6.233596,6,P-GPS,
11400,2022-09-06 17:50:36,-34.9116781575793,-55.0436855753965,6.233596,6.2992128,28.86819646184,35.16740926184,8.530184,0,2.52094496256,6.0537403512,19,5,8.534,36.15166126184,7.217848,0.9395148,3.0345145328,0,0,0,118.5, -0.3, -5.3,0,0,1024,1024,1024,1024,0,0,0,0,130,0,0,100,4.269,4.265,0,0,0,0,4.061,83.84,35.16740926184,6.233596,6,P-GPS,
11500,2022-09-06 17:50:36,-34.9116781621813,-55.0436854529061,6.233596,6.3648296,28.80257966184,35.16740926184,8.530184,0,2.52325467392,6.0904201424,19,5,8.534,36.15166126184,7.217848,0.9395148,3.0345145328,0,0,0,118.5, -1.1, -5,0,0,1024,1024,1024,1024,0,0,0,0,130,0,0,100,4.269,4.265,0,0,0,0,4.061,83.84,35.16740926184,6.233596,6,P-GPS,
11600,2022-09-06 17:50:36,-34.911678139616,-55.0436853472709,6.233596,6.3648296,28.80257966184,35.16740926184,8.2021,0,2.51599745584,6.1230973088,19,5,8.534,36.15166126184,7.217848,0.9395148,3.0345145328,0,0,0,118.5, -1.8, -4.8,0,0,1024,1024,1024,1024,0,0,0,0,130,0,0,100,4.269,4.265,0,0,0,0,4.061,83.84,35.16740926184,6.233596,6,P-GPS,
11700,2022-09-06 17:50:36,-34.9116781045165,-55.0436852591392,6.233596,6.3648296,28.80257966184,35.16740926184,8.2021,0,2.50432094628,6.15239521,19,5,8.534,36.15166126184,7.217848,0.9395148,3.0345145328,0,0,0,118.7, -2, -4.4,0,0,1024,1024,1024,1024,0,0,0,0,130,0,0,100,4.269,4.265,0,0,0,0,4.061,83.84,35.16740926184,6.233596,6,P-GPS,
11800,2022-09-06 17:50:36,-34.9116780578445,-55.0436850323421,6.233596,6.3648296,28.80257966184,35.16740926184,8.530184,0,2.4915027044,6.2223755272,19,5,8.534,36.15166126184,7.217848,0.9395148,3.0345145328,0,0,0,118.6, -1.9, -4.5,0,0,1024,1024,1024,1024,0,0,0,0,130,0,0,100,4.269,4.265,0,0,0,0,4.061,83.84,35.16740926184,6.233596,6,P-GPS,
11900,2022-09-06 17:50:36,-34.9116780310834,-55.0436849807128,6.233596,6.3648296,28.80257966184,35.16740926184,8.530184,0,2.48298236292,6.240649806,19,5,8.534,36.15166126184,7.217848,0.9395148,3.0345145328,0,0,0,118.7, -2.9, -3.8,0,0,1024,1024,1024,1024,0,0,0,0,130,0,0,100,4.269,4.265,0,0,0,0,4.061,83.84,35.16740926184,6.233596,6,P-GPS,
12000,2022-09-06 17:50:36,-34.911678010872,-55.0436849199569,6.233596,6.3648296,28.80257966184,35.16740926184,8.530184,0,2.47718839948,6.2602692292,19,5,8.534,36.15166126184,7.217848,0.9395148,3.0345145328,0,0,0,118.7, -3.2, -4.1,0,0,1024,1024,1024,1024,0,0,0,0,130,0,0,100,4.269,4.265,0,0,0,0,4.061,83.84,35.16740926184,6.233596,6,P-GPS,
12100,2022-09-06 17:50:37,-34.911677995734,-55.0436848893744,6.233596,6.3648296,28.80257966184,35.16740926184,8.530184,0,2.472523045,6.2709319592,19,5,8.534,36.15166126184,7.217848,0.9395148,3.0345145328,0,0,0,118.7, -3.4, -3.8,0,0,1024,1024,991,1024,0,0,-5,0,130,0,0,100,4.269,4.265,0,0,0,0,4.061,83.84,35.16740926184,6.233596,6,P-GPS,
12200,2022-09-06 17:50:37,-34.9116780018822,-55.0436848626109,6.56168,6.6929136,28.80257966184,35.49549326184,8.530184,0,2.47551517108,6.2792652928,19,5,8.534,36.15166126184,7.217848,0.9395148,3.0345145328,0,0,0,118.9, -3.6, -4.1,0,0,1024,1024,847,1024,0,0,-27,0,130,0,0,100,4.269,4.265,0,0,0,0,4.061,83.84,35.49549326184,6.56168,6,P-GPS,
12300,2022-09-06 17:50:37,-34.9116781266666,-55.0436849113101,6.56168,6.6929136,28.80257966184,35.49549326184,8.530184,0,2.51949811212,6.3270671316,19,5,8.528,36.15166126184,7.217848,0.9395148,3.0345145328,0,0,0,118.9, -3, -4.9,0,0,1024,1024,862,1024,0,0,-25,0,130,0,0,100,4.266,4.261,0,0,0,0,4.016,83.84,35.49549326184,6.56168,6,P-GPS,
12400,2022-09-06 17:50:37,-34.911678219343,-55.043684907652,6.56168,6.6929136,28.80257966184,35.49549326184,8.530184,0,2.55327435992,6.360892592,19,5,8.528,36.15166126184,7.217848,0.9395148,3.0345145328,0,0,0.223694,118.7, -2.3, -6.2,0,0,1024,1024,860,1024,0,0,-25,0,130,0,0,100,4.266,4.261,0,0,0,0,4.016,83.84,35.49549326184,6.56168,6,P-GPS,
12500,2022-09-06 17:50:37,-34.9116783266021,-55.0436849074264,6.56168,6.6929136,28.80257966184,35.49549326184,8.530184,0,2.59226386248,6.4000330132,19,5,8.528,36.15166126184,7.217848,0.9395148,3.0345145328,0,0,0.447388,118.7, -1.6, -6.9,0,0,1024,1024,860,1024,0,0,-25,0,130,0,0,100,4.266,4.261,0,0,0,0,4.016,83.84,35.49549326184,6.56168,6,P-GPS,
12600,2022-09-06 17:50:37,-34.9116784335802,-55.0436849057804,6.56168,6.6929136,28.80257966184,35.49549326184,8.530184,0,2.63119430992,6.4390750092,19,5,8.528,36.15166126184,7.217848,0.9395148,3.0345145328,0,0,0.671082,118.9, -2.8, -6.8,0,0,1024,1024,915,1024,0,0,-17,0,130,0,0,100,4.266,4.261,0,0,0,0,4.016,83.84,35.49549326184,6.56168,6,P-GPS,
12700,2022-09-06 17:50:37,-34.9116787233887,-55.0436851124885,6.56168,6.725722,28.76977126184,35.49549326184,8.2021,0,2.73215559924,6.5615487664,19,5,8.528,36.15166126184,7.217848,0.9395148,3.0345145328,0,0,0.671082,118.9, -2.5, -6.4,0,0,1024,1024,905,1024,0,0,-18,0,130,0,0,100,4.266,4.261,0,0,0,0,4.016,83.84,35.49549326184,6.56168,6,P-GPS,
12800,2022-09-06 17:50:37,-34.9116788516124,-55.043685113755,6.56168,6.725722,28.76977126184,35.49549326184,8.2021,0,2.77883539076,6.6083335448,19,5,8.528,36.15166126184,7.217848,0.9395148,3.0345145328,0,0,0.671082,118.8, -2.5, -6.5,0,0,1024,1024,923,1024,0,0,-15,0,130,0,0,100,4.266,4.261,0,0,0,0,4.016,83.84,35.49549326184,6.56168,6,P-GPS,
12900,2022-09-06 17:50:37,-34.9116789709423,-55.0436850669225,6.56168,6.725722,28.76977126184,35.49549326184,7.874016,0,2.82314313496,6.6540684544,19,5,8.528,36.15166126184,7.217848,0.9395148,3.0345145328,0,0,0.447388,118.7, -2.3, -6.9,0,0,1024,1024,936,1024,0,0,-13,0,130,0,0,100,4.266,4.261,0,0,0,0,4.016,83.84,35.49549326184,6.56168,6,P-GPS,
13000,2022-09-06 17:50:37,-34.9116790886862,-55.0436849998077,6.56168,6.725722,28.76977126184,35.49549326184,7.874016,0,2.86732948808,6.7015094008,19,5,8.528,36.15166126184,7.217848,0.9395148,3.0345145328,0,0,0.447388,118.7, -2.1, -6.7,0,0,1024,1024,903,1024,0,0,-18,0,130,0,0,100,4.266,4.261,0,0,0,0,4.016,83.84,35.49549326184,6.56168,6,P-GPS,
13100,2022-09-06 17:50:38,-34.9116790864552,-55.0436848161576,6.56168,6.725722,28.76977126184,35.49549326184,7.874016,0,2.87082358268,6.7564634708,19,5,8.528,36.15166126184,7.217848,0.9395148,3.0345145328,0,0,0.447388,118.8, -1.8, -7.1,0,0,1024,1024,896,1024,0,0,-19,0,130,0,0,100,4.266,4.261,0,0,0,0,4.016,83.84,35.49549326184,6.56168,6,P-GPS,
13200,2022-09-06 17:50:38,-34.9116791106294,-55.0436847012846,6.56168,6.725722,28.76977126184,35.49549326184,7.545932,0,2.88282161456,6.7919293512,19,5,8.528,36.15166126184,7.217848,0.9395148,3.0345145328,0,0,0.447388,118.6, -1.2, -7,0,0,1024,918,818,1024,0,-16,-31,0,130,0,0,100,4.266,4.261,0,0,0,0,4.016,83.84,35.49549326184,6.56168,6,P-GPS,
13300,2022-09-06 17:50:38,-34.9116791391419,-55.0436846233605,6.56168,6.725722,28.76977126184,35.49549326184,7.545932,0,2.89557752048,6.8174542864,19,5,8.528,36.15166126184,7.217848,0.9395148,3.0345145328,0,0,0.447388,118.5, -1, -6.3,0,0,1024,918,818,1024,0,-16,-31,0,130,0,0,100,4.262,4.26,0,0,0,0,4.016,83.84,35.49549326184,6.56168,6,P-GPS,
13400,2022-09-06 17:50:38,-34.9116791487505,-55.043684546324,6.233596,6.397638,28.76977126184,35.16740926184,7.217848,0,2.90161754692,6.8407810588,19,5,8.528,36.15166126184,7.217848,0.9395148,3.0345145328,0,0,0.447388,118.5, -1.2, -6.9,0,0,1024,832,830,1024,0,-29,-29,0,130,0,0,100,4.262,4.26,0,0,0,0,4.016,83.84,35.16740926184,6.233596,6,P-GPS,
13500,2022-09-06 17:50:38,-34.9116790528246,-55.0436843833072,6.233596,6.4960632,28.67134606184,35.16740926184,7.217848,0,2.87292660112,6.9007876224,19,5,8.528,36.15166126184,7.217848,0.9395148,3.0345145328,0,0,0.894776,118.6, -1.3, -7.5,0,0,1024,805,831,1024,0,-33,-29,0,130,0,0,100,4.262,4.26,0,0,0,0,4.016,83.84,35.16740926184,6.233596,6,P-GPS,
13600,2022-09-06 17:50:38,-34.9116789683547,-55.0436842291981,5.905512,6.1679792,28.67134606184,34.83932526184,6.889764,0.223694,2.84894366072,6.9562666268,19,5,8.528,36.15166126184,7.217848,0.9395148,3.0345145328,0.223694,0,0.894776,118.7, -1.8, -7.1,0,0,1024,1000,931,1024,0,-4,-14,0,130,0,0,100,4.262,4.26,0,0,0,0,4.016,83.84,34.83932526184,5.905512,6,P-GPS,
13700,2022-09-06 17:50:38,-34.911678815719,-55.0436841156595,5.577428,5.8398952,28.67134606184,34.51124126184,6.889764,0.223694,2.79930127068,7.021489726,19,5,8.528,36.15166126184,7.217848,0.9395148,3.0345145328,0.223694,0,0.894776,118.7, -2.3, -7.5,0,0,1024,1024,1017,1024,0,0,-1,0,130,0,0,100,4.262,4.26,0,0,0,0,4.016,83.84,34.51124126184,5.577428,6,P-GPS,
13800,2022-09-06 17:50:38,-34.9116786213618,-55.0436839769017,5.577428,5.8398952,28.67134606184,34.51124126184,6.889764,0.3131716,2.73671924768,7.103674768,19,5,8.528,36.15166126184,7.217848,0.9395148,3.0345145328,0.223694,0.223694,0.671082,118.8, -1.8, -5.2,0,0,1024,778,1024,1024,0,-37,0,0,130,0,0,100,4.262,4.26,0,0,0,0,4.016,83.84,34.51124126184,5.577428,6,P-GPS,
13900,2022-09-06 17:50:38,-34.9116784403456,-55.0436837869291,5.249344,5.4790028,28.70415446184,34.18315726184,6.56168,0.223694,2.68311688376,7.1908138784,19,5,8.528,36.15166126184,7.217848,0.9395148,3.0345145328,0.223694,0,0.447388,118.7, -1.6, -3.1,0,0,1024,926,972,1024,0,-15,-8,0,130,0,0,100,4.262,4.26,0,0,0,0,4.016,83.84,34.18315726184,5.249344,6,P-GPS,
14000,2022-09-06 17:50:38,-34.9116781550837,-55.0436835742655,5.249344,5.4790028,28.70415446184,34.18315726184,6.56168,0.223694,2.59597449252,7.3127955096,19,5,8.528,36.15166126184,7.217848,0.9395148,3.0345145328,0.223694,0,0.223694,118.7, -2, -5.8,0,0,1024,967,861,1024,0,-9,-25,0,130,0,0,100,4.262,4.26,0,0,0,0,4.016,83.84,34.18315726184,5.249344,6,P-GPS,
14100,2022-09-06 17:50:38,-34.9116779583563,-55.04368338102,4.92126,5.249344,28.60572926184,33.85507326184,6.56168,0.4921268,2.541256643,7.4049543052,19,5,8.528,36.15166126184,7.217848,0.9395148,3.0345145328,0.447388,0.223694,0,118.6, -2.1, -6,0,0,1024,967,861,1024,0,-9,-25,0,130,0,0,100,4.262,4.26,0,0,0,0,4.016,83.84,33.85507326184,4.92126,6,P-GPS,
14200,2022-09-06 17:50:39,-34.9116777361022,-55.0436831635658,4.92126,5.249344,28.60572926184,33.85507326184,6.56168,0.4921268,2.48202435764,7.5089241248,19,5,8.528,36.15166126184,7.217848,0.9395148,3.0345145328,0.447388,0.223694,0.223694,118.7, -1.9, -5.2,0,0,1024,960,847,1024,0,-10,-27,0,130,0,0,100,4.262,4.26,0,0,0,0,4.016,83.84,33.85507326184,4.92126,6,P-GPS,
14300,2022-09-06 17:50:39,-34.9116775270222,-55.0436830611909,4.593176,4.92126,28.60572926184,33.52698926184,6.56168,0.4921268,2.41905191468,7.5911091668,19,5,8.567,36.15166126184,7.217848,0.9395148,3.0345145328,0.447388,0.223694,0.447388,118.7, -2, -4.4,0,0,1024,1000,779,1024,0,-4,-37,0,130,0,0,100,4.247,4.245,0,0,0,0,3.812,83.84,33.52698926184,4.593176,6,P-GPS,
14400,2022-09-06 17:50:39,-34.9116772553106,-55.0436830703747,4.265092,4.593176,28.60572926184,33.19890526184,6.56168,0.3131716,2.32447842084,7.69028896,19,5,8.567,36.15166126184,7.217848,0.9395148,3.0345145328,0.223694,0.223694,0.671082,118.7, -1.8, -5.1,0,0,1024,1024,816,1024,0,0,-32,0,130,0,0,100,4.247,4.245,0,0,0,0,3.812,83.84,33.19890526184,4.265092,6,P-GPS,
14500,2022-09-06 17:50:39,-34.9116770946581,-55.0436829692014,4.265092,4.593176,28.60572926184,33.19890526184,6.56168,0.3131716,2.2798065034,7.7562666524,19,5,8.567,36.15166126184,7.217848,0.9395148,3.0345145328,0.223694,0.223694,1.11847,118.6, -1.7, -3.6,0,0,1024,1024,831,1024,0,0,-29,0,130,0,0,100,4.247,4.245,0,0,0,0,3.812,83.84,33.19890526184,4.265092,6,P-GPS,
14600,2022-09-06 17:50:39,-34.9116769412839,-55.0436828649422,3.937008,4.265092,28.60572926184,32.87082126184,6.233596,0.223694,2.23899941548,7.8203086492,19,5,8.567,36.15166126184,7.217848,0.9395148,3.0345145328,0.223694,0,1.11847,118.7, -1.8, -2.5,0,0,1024,1024,879,1024,0,0,-22,0,130,0,0,100,4.247,4.245,0,0,0,0,3.812,83.84,32.87082126184,3.937008,6,P-GPS,
14700,2022-09-06 17:50:39,-34.9116767996989,-55.0436827643859,3.937008,4.265092,28.60572926184,32.87082126184,6.233596,0.223694,2.20281831196,7.880085554,19,5,8.567,36.15166126184,7.217848,0.9395148,3.0345145328,0.223694,0,1.11847,118.6, -1.4, -1.9,0,0,1024,1024,896,1024,0,0,-19,0,130,0,0,100,4.247,4.245,0,0,0,0,3.812,83.84,32.87082126184,3.937008,6,P-GPS,
14800,2022-09-06 17:50:39,-34.9116767052923,-55.0436827048729,3.937008,4.265092,28.60572926184,32.87082126184,6.233596,0,2.17835308808,7.9188650828,19,5,8.567,36.15166126184,7.217848,0.9395148,3.0345145328,0,0,0.894776,118.5, -1.7, -2.6,0,0,1024,1024,881,1024,0,0,-22,0,130,0,0,100,4.247,4.245,0,0,0,0,3.812,83.84,32.87082126184,3.937008,6,P-GPS,
14900,2022-09-06 17:50:39,-34.9116766099265,-55.0436826855361,3.937008,4.265092,28.60572926184,32.87082126184,6.233596,0,2.14898957008,7.9541341128,19,5,8.567,36.15166126184,7.217848,0.9395148,3.0345145328,0,0,0.671082,118.6, -1.9, -3,0,0,1024,1024,881,1024,0,0,-22,0,130,0,0,100,4.247,4.245,0,0,0,0,3.812,83.84,32.87082126184,3.937008,6,P-GPS,
15000,2022-09-06 17:50:39,-34.9116765252531,-55.0436826901949,3.937008,4.265092,28.60572926184,32.87082126184,5.905512,0,2.12032159016,7.985072434,19,5,8.567,36.15166126184,7.217848,0.9395148,3.0345145328,0,0,0.447388,118.6, -1.8, -2.9,0,0,1024,1024,933,1024,0,0,-14,0,130,0,0,100,4.247,4.245,0,0,0,0,3.812,83.84,32.87082126184,3.937008,6,P-GPS,
15100,2022-09-06 17:50:39,-34.9116764408753,-55.0436826144782,3.937008,4.265092,28.60572926184,32.87082126184,5.905512,0,2.10212605152,8.02329422,19,5,8.567,36.15166126184,7.217848,0.9395148,3.0345145328,0,0,0.447388,118.6, -1.8, -3.1,0,0,775,1024,930,1024,-38,0,-14,0,130,0,0,100,4.247,4.245,0,0,0,0,3.812,83.84,32.87082126184,3.937008,6,P-GPS,
15200,2022-09-06 17:50:40,-34.9116763042887,-55.0436824678266,3.937008,4.3307088,28.54011246184,32.87082126184,5.905512,0,2.07712933156,8.0896984216,19,5,8.567,36.15166126184,7.217848,0.9395148,3.0345145328,0,0,0.223694,118.6, -0.5, -3.7,0,0,727,1024,936,1024,-45,0,-13,0,130,0,0,100,4.247,4.245,0,0,0,0,3.812,83.84,32.87082126184,3.937008,6,P-GPS,
15300,2022-09-06 17:50:40,-34.9116763140513,-55.0436824603384,3.937008,4.3307088,28.54011246184,32.87082126184,5.905512,0,2.08132224508,8.0938978968,19,5,8.522,36.15166126184,7.217848,0.9395148,3.0345145328,0,0,0.223694,118.6, 2.2, -3.4,0,0,692,1024,935,1024,-50,0,-13,0,130,0,0,100,4.247,4.25,0,0,0,0,4.123,84.02,32.87082126184,3.937008,6,P-GPS,
15400,2022-09-06 17:50:40,-34.911676329962,-55.0436825215507,3.608924,3.937008,28.60572926184,32.54273726184,5.577428,0,2.07814311112,8.1131236192,19,5,8.522,36.15166126184,7.217848,0.9395148,3.0345145328,0,0,0.223694,118.5, 3.4, -3.9,0,0,781,1024,928,1024,-37,0,-15,0,130,0,0,100,4.247,4.25,0,0,0,0,4.123,84.02,32.54273726184,3.608924,6,P-GPS,
15500,2022-09-06 17:50:40,-34.9116761853553,-55.0436825644061,3.608924,3.937008,28.60572926184,32.54273726184,5.577428,0.223694,2.02531830628,8.1674215212,19,5,8.522,36.15166126184,7.217848,0.9395148,3.0345145328,0,-0.223694,0.223694,118.4, 4.2, -4.3,0,0,931,1024,920,1024,-14,0,-16,0,130,0,0,100,4.247,4.25,0,0,0,0,4.123,84.02,32.54273726184,3.608924,6,P-GPS,
15600,2022-09-06 17:50:40,-34.9116759776432,-55.0436826735412,3.608924,3.937008,28.60572926184,32.54273726184,5.577428,0.4921268,1.94299874984,8.2499346472,19,5,8.522,36.15166126184,7.217848,0.9395148,3.0345145328,0.223694,-0.447388,0.223694,118.7, 3.3, -4.1,0,0,822,1024,916,1024,-31,0,-16,0,130,0,0,100,4.247,4.25,0,0,0,0,4.123,84.02,32.54273726184,3.608924,6,P-GPS,
15700,2022-09-06 17:50:40,-34.9116758423464,-55.0436828043981,3.608924,3.937008,28.60572926184,32.54273726184,5.249344,0.4921268,1.8812008476,8.3129267752,19,5,8.522,36.15166126184,7.217848,0.9395148,3.0345145328,0.223694,-0.447388,0.223694,118.9, 1.3, -3.6,0,0,784,1024,913,1024,-36,0,-17,0,130,0,0,100,4.247,4.25,0,0,0,0,4.123,84.02,32.54273726184,3.608924,6,P-GPS,
15800,2022-09-06 17:50:40,-34.9116757510681,-55.0436830815947,3.28084,3.608924,28.60572926184,32.21465326184,5.249344,0.4921268,1.81482289272,8.4022968568,19,5,8.522,36.15166126184,7.217848,0.9395148,3.0345145328,0.223694,-0.447388,0.223694,118.6, 1.6, -3.8,0,0,784,1024,913,1024,-36,0,-17,0,130,0,0,100,4.247,4.25,0,0,0,0,4.123,84.02,32.21465326184,3.28084,6,P-GPS,
15900,2022-09-06 17:50:40,-34.9116755772508,-55.0436833611023,3.28084,3.608924,28.60572926184,32.21465326184,5.249344,0.6263432,1.7225722336,8.5072509284,19,5,8.522,36.15166126184,7.217848,0.9395148,3.0345145328,0.447388,-0.447388,0.223694,118.5, 2.8, -3.4,0,0,912,1024,901,1024,-17,0,-19,0,130,0,0,100,4.247,4.25,0,0,0,0,4.123,84.02,32.21465326184,3.28084,6,P-GPS,
16000,2022-09-06 17:50:40,-34.9116753635452,-55.0436836970411,3.28084,3.4776904,28.73696286184,32.21465326184,5.249344,0.8052984,1.61211619332,8.6344490952,19,5,8.522,36.15166126184,7.217848,0.9395148,3.0345145328,0.447388,-0.671082,0.447388,118.5, 1.9, -3.2,0,0,1024,1024,855,1024,0,0,-26,0,130,0,0,100,4.247,4.25,0,0,0,0,4.123,84.02,32.21465326184,3.28084,6,P-GPS,
16100,2022-09-06 17:50:41,-34.9116752211268,-55.043684182056,3.28084,3.4776904,28.73696286184,32.21465326184,5.249344,0.8052984,1.51534125584,8.7885829584,19,5,8.522,36.15166126184,7.217848,0.9395148,3.0345145328,0.447388,-0.671082,0.447388,118.6, -1.6, -3.3,0,0,1024,936,812,1024,0,-13,-32,0,130,0,0,100,4.247,4.25,0,0,0,0,4.123,84.02,32.21465326184,3.28084,6,P-GPS,
16200,2022-09-06 17:50:41,-34.9116750278769,-55.0436845638507,3.28084,3.4120736,28.80257966184,32.21465326184,5.249344,0.7158208,1.41736225008,8.9228349312,19,5,8.522,36.15166126184,7.217848,0.9395148,3.0345145328,0.223694,-0.671082,0.671082,118.6, -2.5, -4.3,0,0,1024,960,779,1024,0,-10,-37,0,130,0,0,100,4.247,4.25,0,0,0,0,4.123,84.02,32.21465326184,3.28084,6,P-GPS,
16300,2022-09-06 17:50:41,-34.9116749245476,-55.0436848607522,3.28084,3.4120736,28.80257966184,32.21465326184,5.249344,0.4921268,1.36236224832,9.0193244356,19,5,8.527,36.15166126184,7.217848,0.9395148,3.0345145328,0.223694,-0.447388,0.894776,118.4, -1.8, -5.2,0,0,1024,1024,715,1024,0,0,-47,0,130,0,0,100,4.259,4.263,0,0,0,0,4.172,84.02,32.21465326184,3.28084,6,P-GPS,
16400,2022-09-06 17:50:41,-34.9116748409108,-55.0436851464573,3.28084,3.4120736,28.80257966184,32.21465326184,5.249344,0.4921268,1.3196850816,9.1101052784,19,5,8.527,36.15166126184,7.217848,0.9395148,3.0345145328,0.223694,-0.447388,0.894776,118.6, -1.5, -4.9,0,0,1024,1024,782,1024,0,0,-37,0,130,0,0,100,4.259,4.263,0,0,0,0,4.172,84.02,32.21465326184,3.28084,6,P-GPS,
16500,2022-09-06 17:50:41,-34.9116749205079,-55.0436853556928,3.28084,3.4120736,28.80257966184,32.21465326184,5.249344,0.4921268,1.34285109284,9.1791013436,19,5,8.527,36.15166126184,7.217848,0.9395148,3.0345145328,0.223694,-0.447388,1.11847,118.5, -3.2, -4.8,0,0,1024,1024,818,1024,0,0,-31,0,130,0,0,100,4.259,4.263,0,0,0,0,4.172,84.02,32.21465326184,3.28084,6,P-GPS,
16600,2022-09-06 17:50:41,-34.9116748860911,-55.0436856069275,3.608924,3.6417324,28.90100486184,32.54273726184,5.249344,0.223694,1.32730975376,9.2553152568,19,5,8.527,36.15166126184,7.217848,0.9395148,3.0345145328,0,-0.223694,1.11847,118.6, -3.4, -4.9,0,0,1024,1024,818,1024,0,0,-31,0,130,0,0,100,4.259,4.263,0,0,0,0,4.172,84.02,32.54273726184,3.608924,6,P-GPS,
16700,2022-09-06 17:50:41,-34.9116748322356,-55.043685820306,3.608924,3.6417324,28.90100486184,32.54273726184,4.92126,0.223694,1.30845476628,9.3221131592,19,5,8.527,36.15166126184,7.217848,0.9395148,3.0345145328,0,-0.223694,1.11847,118.5, -2.9, -4.9,0,0,1024,1024,844,1024,0,0,-27,0,130,0,0,100,4.259,4.263,0,0,0,0,4.172,84.02,32.54273726184,3.608924,6,P-GPS,
16800,2022-09-06 17:50:41,-34.9116747845251,-55.0436860286703,3.28084,3.3136484,28.90100486184,32.21465326184,4.92126,0.223694,1.29488521204,9.3868441324,19,5,8.527,36.15166126184,7.217848,0.9395148,3.0345145328,0,-0.223694,0.894776,118.6, -3.4, -4.9,0,0,1024,861,866,1024,0,-25,-24,0,130,0,0,100,4.259,4.263,0,0,0,0,4.172,84.02,32.21465326184,3.28084,6,P-GPS,
