time(millisecond),datetime(utc),latitude,longitude,height_above_takeoff(feet),height_above_ground_at_drone_location(feet),ground_elevation_at_drone_location(feet),altitude_above_seaLevel(feet),height_sonar(feet),speed(mph),distance(feet),mileage(feet),satellites,gpslevel,voltage(v),max_altitude(feet),max_ascent(feet),max_speed(mph),max_distance(feet), xSpeed(mph), ySpeed(mph), zSpeed(mph), compass_heading(degrees), pitch(degrees), roll(degrees),isPhoto,isVideo,rc_elevator,rc_aileron,rc_throttle,rc_rudder,rc_elevator(percent),rc_aileron(percent),rc_throttle(percent),rc_rudder(percent),gimbal_heading(degrees),gimbal_pitch(degrees),gimbal_roll(degrees),battery_percent,voltageCell1,voltageCell2,voltageCell3,voltageCell4,voltageCell5,voltageCell6,current(A),battery_temperature(f),altitude(feet),ascent(feet),flycStateRaw,flycState,message
0,2022-08-11 20:11:42,-34.9287625497368,-56.1628158699782,0,0,6.107061875216,6.107061875216,0.328084,0,0,0,20,5,0,6.107061875216,0,0,0,0,0,0,193.5, -3.4, 0.3,0,0,364,364,364,1684,-100,-100,-100,100,204.1,0,0,100,4.351,4.35,0,0,0,0,0,66.74,6.107061875216,0,6,P-GPS,"Baja velocidad de la tarjeta SD. Puede afectar a su uso normal. Sustituye la tarjeta SD (Code: 10028)"
100,2022-08-11 20:11:42,-34.9287625541983,-56.1628159130716,0,0,6.107061875216,6.107061875216,0.328084,0,0.012992782568,0.012992782568,20,5,0,6.107061875216,0,0,0.012992782568,0,0,0,193.5, -3.4, 0.3,0,0,364,364,364,1684,-100,-100,-100,100,204.1,0,0,100,4.351,4.35,0,0,0,0,0,66.74,6.107061875216,0,41,Motors_Started,"Setting new Return-To-Home altitude to 40m (131 ft). Data Recorder File Index is 16. Setting new Maximum Flight Altitude to 120m (394 ft)"
200,2022-08-11 20:11:42,-34.9287625584405,-56.1628159609006,0,0,6.107061875216,6.107061875216,0.328084,0,0.0273821202988,0.027383202976,20,5,0,6.107061875216,0,0,0.0273821202988,0,0,0,193.5, -3.4, 0.3,0,0,364,364,364,1684,-100,-100,-100,100,204.1,0,0,100,4.351,4.35,0,0,0,0,0,66.74,6.107061875216,0,41,Motors_Started,
300,2022-08-11 20:11:42,-34.9287625824282,-56.1628159826007,0,0,6.107061875216,6.107061875216,0.328084,0,0.035737533952,0.038279528784,20,5,0,6.107061875216,0,0,0.035737533952,0,0,0,193.5, -3.4, 0.3,0,0,364,364,364,1684,-100,-100,-100,100,204.1,0,0,100,4.351,4.35,0,0,0,0,0,66.74,6.107061875216,0,41,Motors_Started,
400,2022-08-11 20:11:42,-34.9287626269559,-56.162815991107,0,0,6.107061875216,6.107061875216,0.328084,0,0.04589731118,0.054723426948,20,5,0,6.107061875216,0,0,0.04589731118,0,0,0,193.5, -3.4, 0.3,0,0,837,635,1024,1024,-28,-59,0,0,204.1,0,0,100,4.351,4.35,0,0,0,0,0,66.74,6.107061875216,0,41,Motors_Started,
500,2022-08-11 20:11:42,-34.9287626263307,-56.1628161259087,0,0,6.107061875216,6.107061875216,0.328084,0,0.081496721768,0.095046919052,20,5,0,6.107061875216,0,0,0.081496721768,0,0,0,193.5, -3.4, 0.3,0,0,1024,1024,1024,1024,0,0,0,0,204.1,0,0,100,4.351,4.35,0,0,0,0,0,66.74,6.107061875216,0,41,Motors_Started,
600,2022-08-11 20:11:42,-34.9287626335399,-56.1628161727468,0,0,6.107061875216,6.107061875216,0.328084,0,0.095588257652,0.109302168852,20,5,0,6.107061875216,0,0,0.095588257652,0,0,0,193.5, -3.4, 0.3,0,0,1024,1024,1024,1024,0,0,0,0,204.1,0,0,100,4.351,4.35,0,0,0,0,0,66.74,6.107061875216,0,41,Motors_Started,
700,2022-08-11 20:11:42,-34.9287626308509,-56.1628162250035,0,0,6.107061875216,6.107061875216,0.328084,0,0.110244098016,0.124964570928,20,5,0,6.107061875216,0,0,0.110244098016,0,0,0,193.5, -3.4, 0.3,0,0,1024,1024,1024,1024,0,0,0,0,204.1,0,0,100,4.351,4.35,0,0,0,0,0,66.74,6.107061875216,0,41,Motors_Started,
800,2022-08-11 20:11:42,-34.9287626218895,-56.1628162842462,0,0,6.107061875216,6.107061875216,0.328084,0,0.126684059172,0.142984584628,20,5,0,6.107061875216,0,0,0.126684059172,0,0,0,193.5, -3.4, 0.3,0,0,1024,1024,1024,1024,0,0,0,0,204.1,0,0,100,4.351,4.35,0,0,0,0,0,66.74,6.107061875216,0,41,Motors_Started,
900,2022-08-11 20:11:43,-34.9287626468812,-56.1628163123252,0,0,6.107061875216,6.107061875216,0.328084,0,0.136982615932,0.155381566652,20,5,0,6.107061875216,0,0,0.136982615932,0,0,0,193.5, -3.4, 0.2,0,0,1024,1024,1024,1024,0,0,0,0,204.1,0,0,100,4.351,4.35,0,0,0,0,0,66.74,6.107061875216,0,41,Motors_Started,
1000,2022-08-11 20:11:43,-34.9287626892723,-56.1628163210384,0,0,6.107061875216,6.107061875216,0.328084,0,0.1442093222,0.17106627844,20,5,8.702,6.107061875216,0,0,0.1442093222,0,0,0,193.5, -3.4, 0.3,0,0,1024,1024,1024,1024,0,0,0,0,204.1,0,0,100,4.351,4.35,0,0,0,0,0.522,66.74,6.107061875216,0,41,Motors_Started,
1100,2022-08-11 20:11:43,-34.9287627109954,-56.1628163451046,0,0,6.107061875216,6.107061875216,0.328084,0,0.153819886812,0.18177329978,20,5,8.702,6.107061875216,0,0,0.153819886812,0,0,0,193.5, -3.4, 0.3,0,0,1024,1024,1024,1024,0,0,0,0,204.1,0,0,100,4.351,4.35,0,0,0,0,0.522,66.74,6.107061875216,0,41,Motors_Started,
1200,2022-08-11 20:11:43,-34.9287627184757,-56.1628163860651,0,0,6.107061875216,6.107061875216,0.328084,0,0.166198496132,0.19432579362,20,5,8.702,6.107061875216,0,0,0.166198496132,0,0,0,193.5, -3.4, 0.3,0,0,1024,1024,1024,1024,0,0,0,0,204.1,0,0,100,4.351,4.35,0,0,0,0,0.522,66.74,6.107061875216,0,10,Assisted_Takeoff,
1300,2022-08-11 20:11:43,-34.9287626560496,-56.1628163760274,0,0,6.107061875216,6.107061875216,0.328084,0,0.156263456444,0.217298891468,20,5,8.702,6.107061875216,0,0,0.166198496132,0,0,0,193.5, -3.4, 0.3,0,0,1024,1024,1024,1024,0,0,0,0,204.1,0,0,100,4.351,4.35,0,0,0,0,0.522,66.74,6.107061875216,0,10,Assisted_Takeoff,
1400,2022-08-11 20:11:43,-34.9287626478527,-56.1628163772839,0,0,6.107061875216,6.107061875216,0.328084,0,0.155914046984,0.220312999176,20,5,8.702,6.107061875216,0,0,0.166198496132,0,0,0,193.5, -3.4, 0.3,0,0,1024,1024,1285,1024,0,0,40,0,204.1,0,0,100,4.351,4.35,0,0,0,0,0.522,66.74,6.107061875216,0,10,Assisted_Takeoff,
1500,2022-08-11 20:11:43,-34.9287626088161,-56.1628163991288,0,0,6.107061875216,6.107061875216,0.328084,0,0.1597440996,0.235983275268,20,5,8.702,6.107061875216,0,0,0.166198496132,0,0,0,193.5, -3.4, 0.3,0,0,1024,1024,1684,1024,0,0,100,0,204.1,0,0,100,4.351,4.35,0,0,0,0,0.522,66.74,6.107061875216,0,10,Assisted_Takeoff,
1600,2022-08-11 20:11:43,-34.9287625458967,-56.1628164384555,0,0,6.107061875216,6.107061875216,0.328084,0,0.170052826964,0.261777895516,20,5,8.702,6.107061875216,0,0,0.170052826964,0,0,0,193.6, -3.4, 0.3,0,0,1024,1024,1684,1024,0,0,100,0,204.1,0,0,100,4.351,4.35,0,0,0,0,0.522,66.74,6.107061875216,0,10,Assisted_Takeoff,
1700,2022-08-11 20:11:43,-34.9287625338088,-56.1628164557463,0,0,6.107061875216,6.107061875216,0.328084,0,0.175315294324,0.268575139828,20,5,8.702,6.107061875216,0,0,0.175315294324,0,0,0,193.7, -3.4, 0.3,0,0,1024,1024,1684,1024,0,0,100,0,204.1,0,0,100,4.351,4.35,0,0,0,0,0.522,66.74,6.107061875216,0,10,Assisted_Takeoff,
1800,2022-08-11 20:11:43,-34.9287625350542,-56.16281645105,0,0,6.107061875216,6.107061875216,0.328084,0,0.173896987192,0.270051517828,20,5,8.702,6.107061875216,0,0,0.175315294324,0,0,0,193.8, -3.3, 0.2,0,0,1024,1024,1279,1024,0,0,39,0,204.1,0,0,100,4.351,4.35,0,0,0,0,0.522,66.74,6.107061875216,0,10,Assisted_Takeoff,
1900,2022-08-11 20:11:44,-34.9287625277367,-56.162816445105,0,0,6.107061875216,6.107061875216,0.328084,0,0.172223102624,0.273259195096,20,5,8.702,6.107061875216,0,0,0.175315294324,0,0,0,193.9, -3, 0,0,0,1024,1024,1190,1024,0,0,25,0,204.2,0,0,100,4.351,4.35,0,0,0,0,0.522,66.74,6.107061875216,0,10,Assisted_Takeoff,
2000,2022-08-11 20:11:44,-34.9287624988591,-56.1628164306136,0,-0.032808400000001,6.139870275216,6.107061875216,0.328084,0,0.1687253991,0.28465224008,20,5,8.633,6.107061875216,0,0,0.175315294324,0,0,0,193.8, -2.3, -0.7,0,0,1024,1024,1684,1024,0,0,100,0,204.2,0,0,100,4.314,4.31,0,0,0,0,1.324,66.74,6.107061875216,0,10,Assisted_Takeoff,
2100,2022-08-11 20:11:44,-34.9287625060395,-56.1628164089142,0,0,6.107061875216,6.107061875216,0.328084,0,0.161996724344,0.291651584136,20,5,8.633,6.107061875216,0,0,0.175315294324,0,0,-0.223694,193.5, -1.3, -1.8,0,0,1024,1024,1684,1024,0,0,100,0,204.2,0,0,100,4.314,4.31,0,0,0,0,1.324,66.74,6.107061875216,0,10,Assisted_Takeoff,"Baja velocidad de la tarjeta SD. Puede afectar a su uso normal. Sustituye la tarjeta SD (Code: 10028)"
2200,2022-08-11 20:11:44,-34.9287625020341,-56.1628163017094,0,0,6.107061875216,6.107061875216,0.328084,0,0.13031004354,0.323752963116,20,5,8.633,6.107061875216,0,0,0.175315294324,0,0,-0.447388,193.8, -1.2, -0.7,0,0,1024,1024,1024,1024,0,0,0,0,204.2,0,0,100,4.314,4.31,0,0,0,0,1.324,66.74,6.107061875216,0,6,P-GPS,"Baja velocidad de la tarjeta SD. Puede afectar a su uso normal. Sustituye la tarjeta SD (Code: 10028)"
2300,2022-08-11 20:11:44,-34.9287625835381,-56.1628162669763,0,0,6.107061875216,6.107061875216,0.656168,0,0.11939140802,0.35525263604,20,5,8.633,6.107061875216,0,0,0.175315294324,0,0,-0.894776,194, -0.3, 0.9,0,0,1024,1024,1024,1024,0,0,0,0,204.2,0,0,100,4.314,4.31,0,0,0,0,1.324,66.74,6.107061875216,0,6,P-GPS,
2400,2022-08-11 20:11:44,-34.9287626847535,-56.1628162713771,0.328084,0.328084,6.107061875216,6.435145875216,0.656168,0,0.129781500216,0.39220473696,21,5,8.633,6.435145875216,0.328084,0,0.175315294324,0,0,-1.11847,194.1, 0.6, 0.8,0,0,1024,1024,1024,1024,0,0,0,0,204.2,0,0,100,4.314,4.31,0,0,0,0,1.324,66.74,6.435145875216,0.328084,6,P-GPS,
2500,2022-08-11 20:11:44,-34.9287628056994,-56.1628162778481,0.328084,0.328084,6.107061875216,6.435145875216,0.656168,0,0.153644033788,0.43637468588,21,5,8.633,6.435145875216,0.328084,0,0.175315294324,0,0,-1.11847,194, 1.2, 0.2,0,0,1024,1024,1024,1024,0,0,0,0,204.2,0,0,100,4.314,4.31,0,0,0,0,1.324,66.74,6.435145875216,0.328084,6,P-GPS,
2600,2022-08-11 20:11:44,-34.9287630543234,-56.1628163508706,0.656168,0.656168,6.107061875216,6.763229875216,0.984252,0,0.233632881492,0.5296752138,21,5,8.633,6.763229875216,0.656168,0,0.233632881492,0,0,-1.11847,193.8, 1, 0.1,0,0,1024,1024,1024,1024,0,0,0,0,204.2,0,0,100,4.314,4.31,0,0,0,0,1.324,66.74,6.763229875216,0.656168,6,P-GPS,
2700,2022-08-11 20:11:44,-34.9287631771186,-56.1628163846923,0.656168,0.656168,6.107061875216,6.763229875216,0.984252,0,0.27586286972,0.5756069738,21,5,8.633,6.763229875216,0.656168,0,0.27586286972,0,0,-1.11847,193.5, 0.7, -0.3,0,0,1024,1024,1024,1024,0,0,0,0,204.2,0,0,100,4.314,4.31,0,0,0,0,1.324,66.74,6.763229875216,0.656168,6,P-GPS,
2800,2022-08-11 20:11:44,-34.9287633078973,-56.162816438487,0.656168,0.656168,6.107061875216,6.763229875216,1.312336,0,0.324707031388,0.62596130612,21,5,8.633,6.763229875216,0.656168,0,0.324707031388,0,0,-1.11847,193.4, 1.1, 0,0,0,1024,1024,1024,1024,0,0,0,0,204.2,0,0,100,4.314,4.31,0,0,0,0,1.324,66.74,6.763229875216,0.656168,6,P-GPS,
2900,2022-08-11 20:11:45,-34.9287634801056,-56.1628164792304,0.984252,0.984252,6.107061875216,7.091313875216,1.312336,0,0.38527232204,0.68996393284,21,5,8.633,7.091313875216,0.984252,0,0.38527232204,0,0,-0.894776,193.6, 1.1, 1.3,0,0,1024,1024,1024,1024,0,0,0,0,204.2,0,0,100,4.314,4.31,0,0,0,0,1.324,66.74,7.091313875216,0.984252,6,P-GPS,
3000,2022-08-11 20:11:45,-34.9287638873689,-56.1628166468647,0.984252,1.0170604,6.074253475216,7.091313875216,1.312336,0,0.54053807504,0.846784804,21,5,8.575,7.091313875216,0.984252,0,0.54053807504,0,0,-0.671082,193.7, 1.3, 0.7,0,0,1024,1024,1024,1024,0,0,0,0,204.2,0,0,100,4.207,4.205,0,0,0,0,1.781,66.74,7.091313875216,0.984252,6,P-GPS,
3100,2022-08-11 20:11:45,-34.9287640474345,-56.1628166469744,0.984252,1.0170604,6.074253475216,7.091313875216,1.312336,0,0.59380907412,0.905183756,21,5,8.575,7.091313875216,0.984252,0,0.59380907412,0,0,-0.447388,193.6, 1.8, 0.8,0,0,1024,1024,1024,1024,0,0,0,0,204.2,0,0,100,4.207,4.205,0,0,0,0,1.781,66.74,7.091313875216,0.984252,6,P-GPS,
3200,2022-08-11 20:11:45,-34.9287641878227,-56.1628166127573,1.312336,1.3451444,6.074253475216,7.419397875216,1.64042,0,0.63761813064,0.95741800964,21,5,8.575,7.419397875216,1.312336,0,0.63761813064,0,0,-0.447388,193.5, 2.2, 0.5,0,0,1544,1024,1024,1024,79,0,0,0,204.2,0,0,100,4.207,4.205,0,0,0,0,1.781,66.74,7.419397875216,1.312336,6,P-GPS,
3300,2022-08-11 20:11:45,-34.9287643083989,-56.1628165566946,1.312336,1.3451444,6.074253475216,7.419397875216,1.64042,0,0.67372705568,1.00449806364,21,5,8.575,7.419397875216,1.312336,0,0.67372705568,0,0,-0.223694,193.5, 1.4, 0.3,0,0,1684,1024,1024,1024,100,0,0,0,204.2,0,0,100,4.207,4.205,0,0,0,0,1.781,66.74,7.419397875216,1.312336,6,P-GPS,
3400,2022-08-11 20:11:45,-34.9287644439813,-56.1628164855092,1.312336,1.3451444,6.074253475216,7.419397875216,1.64042,0.223694,0.71521983916,1.05835305224,21,5,8.575,7.419397875216,1.312336,0.223694,0.71521983916,-0.223694,0,0,193.3, -10, 0.9,0,0,1684,1024,1024,1024,100,0,0,0,204.2,0,0,100,4.207,4.205,0,0,0,0,1.781,66.74,7.419397875216,1.312336,6,P-GPS,
3500,2022-08-11 20:11:45,-34.9287647579213,-56.1628163368485,1.312336,1.3779528,6.041445075216,7.419397875216,1.64042,0.671082,0.81767062984,1.18122379108,21,5,8.575,7.419397875216,1.312336,0.671082,0.81767062984,-0.671082,0,0,193.2, -18.4, 1.2,0,0,1684,1024,1024,1024,100,0,0,0,204.2,0,0,100,4.207,4.205,0,0,0,0,1.781,66.74,7.419397875216,1.312336,6,P-GPS,
3600,2022-08-11 20:11:45,-34.9287652614186,-56.1628165493973,1.312336,1.3779528,6.041445075216,7.419397875216,1.64042,1.5882274,1.01001315568,1.37561684192,21,5,8.575,7.419397875216,1.312336,1.5882274,1.01001315568,-1.565858,-0.223694,0,193.3, -20.2, 0.9,0,0,1684,1024,1139,1024,100,0,17,0,204.2,0,0,100,4.207,4.205,0,0,0,0,1.781,66.74,7.419397875216,1.312336,6,P-GPS,
3700,2022-08-11 20:11:45,-34.9287659723637,-56.1628167829484,1.312336,1.4107612,6.008636675216,7.419397875216,1.64042,2.2816788,1.27825791492,1.64424874028,21,5,8.575,7.419397875216,1.312336,2.2816788,1.27825791492,-2.23694,-0.447388,0,193.4, -19.7, 1.2,0,0,1684,1024,1139,1024,100,0,17,0,204.2,0,0,100,4.207,4.205,0,0,0,0,1.781,66.74,7.419397875216,1.312336,6,P-GPS,
3800,2022-08-11 20:11:46,-34.9287670568142,-56.1628171124659,1.312336,1.4435696,5.975828275216,7.419397875216,1.64042,3.1988242,1.68588259988,2.052001378,20,5,8.575,7.419397875216,1.312336,3.1988242,1.68588259988,-3.131716,-0.671082,0,193.4, -19.2, 0.8,0,0,1684,1024,1684,1024,100,0,100,0,204.2,0,0,100,4.207,4.205,0,0,0,0,1.781,66.74,7.419397875216,1.312336,6,P-GPS,
3900,2022-08-11 20:11:46,-34.9287683956463,-56.1628176562483,1.312336,1.476378,5.943019875216,7.419397875216,1.64042,4.1159696,2.1987861596,2.56684391416,20,5,8.442,7.419397875216,1.312336,4.1159696,2.1987861596,-4.026492,-0.894776,-0.223694,193.4, -18, 0.8,0,0,1684,1024,1684,1024,100,0,100,0,204.2,0,0,100,4.23,4.223,0,0,0,0,4.127,66.74,7.419397875216,1.312336,6,P-GPS,
4000,2022-08-11 20:11:46,-34.9287702031076,-56.1628181477719,1.312336,1.5748032,5.844594675216,7.419397875216,1.64042,5.0554844,2.87425206048,3.2424869804,20,5,8.442,7.419397875216,1.312336,5.0554844,2.87425206048,-4.921268,-1.11847,-0.671082,193.6, -15.8, 1.3,0,0,1684,1024,1684,1024,100,0,100,0,204.2,0,0,100,4.23,4.223,0,0,0,0,4.127,66.74,7.419397875216,1.312336,6,P-GPS,
4100,2022-08-11 20:11:46,-34.9287723288397,-56.1628187951566,1.64042,1.968504,5.778977875216,7.747481875216,1.968504,5.9726298,3.6736221648,4.0418636464,20,5,8.442,7.747481875216,1.64042,5.9726298,3.6736221648,-5.816044,-1.342164,-1.565858,193.8, -14.5, 1.2,0,0,1684,1024,1684,1024,100,0,100,0,204.2,0,0,100,4.23,4.223,0,0,0,0,4.127,66.74,7.747481875216,1.64042,6,P-GPS,
4200,2022-08-11 20:11:46,-34.928775050875,-56.1628196772938,1.968504,2.3950132,5.680552675216,8.075565875216,2.296588,6.6660812,4.7010828276,5.0694555428,20,5,8.442,8.075565875216,1.968504,6.6660812,4.7010828276,-6.487126,-1.565858,-2.23694,193.8, -13.3, 1.2,0,0,1684,1024,1684,1024,100,0,100,0,204.2,0,0,100,4.23,4.223,0,0,0,0,4.127,66.74,8.075565875216,1.968504,6,P-GPS,
4300,2022-08-11 20:11:46,-34.9287782842532,-56.1628209331191,2.296588,2.8215224,5.582127475216,8.403649875216,2.952756,7.1134692,5.9371392976,6.3075133252,20,5,8.442,8.403649875216,2.296588,7.1134692,5.9371392976,-6.934514,-1.565858,-3.131716,193.7, -13.1, 1,0,0,1684,1024,1684,1024,100,0,100,0,204.2,0,0,100,4.23,4.223,0,0,0,0,4.127,66.74,8.403649875216,2.296588,6,P-GPS,
4400,2022-08-11 20:11:46,-34.9287813939136,-56.1628219394643,2.952756,3.5761156,5.483702275216,9.059817875216,3.28084,7.605596,7.1109582328,7.4813322604,21,5,8.442,9.059817875216,2.952756,7.605596,7.1109582328,-7.381902,-1.789552,-4.026492,193.5, -13.5, 0.9,0,0,1684,1024,1684,1024,100,0,100,0,204.2,0,0,100,4.23,4.223,0,0,0,0,4.127,66.74,9.059817875216,2.952756,6,P-GPS,
4500,2022-08-11 20:11:46,-34.9287846115886,-56.1628229853756,3.608924,4.3963256,5.319660275216,9.715985875216,4.265092,8.3661556,8.3258860932,8.6962601208,21,5,8.442,9.715985875216,3.608924,8.3661556,8.3258860932,-8.052984,-2.23694,-4.921268,194.2, -13.2, 1.8,0,0,1684,1024,1684,1024,100,0,100,0,204.2,0,0,100,4.23,4.223,0,0,0,0,4.127,66.74,9.715985875216,3.608924,6,P-GPS,
4600,2022-08-11 20:11:46,-34.9287882247183,-56.1628241949096,4.265092,5.1509188,5.221235075216,10.372153875216,4.92126,8.7016966,9.6928480792,10.0632877236,21,5,8.442,10.372153875216,4.265092,8.7016966,9.6928480792,-8.276678,-2.684328,-5.59235,194.1, -13.1, 1.4,0,0,1684,1024,1684,1024,100,0,100,0,204.2,0,0,100,4.23,4.223,0,0,0,0,4.127,66.74,10.372153875216,4.265092,6,P-GPS,
4700,2022-08-11 20:11:46,-34.9287921760937,-56.1628262068483,5.249344,6.2664044,5.090001475216,11.356405875216,5.905512,9.1938234,11.2427168952,11.625492498,21,5,8.442,11.356405875216,5.249344,9.1938234,11.2427168952,-8.724066,-2.908022,-6.039738,193.9, -13.5, 0.1,0,0,1684,1024,1684,1024,100,0,100,0,204.2,0,0,100,4.23,4.223,0,0,0,0,4.127,66.74,11.356405875216,5.249344,6,P-GPS,
4800,2022-08-11 20:11:47,-34.9287961199408,-56.1628276460731,6.233596,7.4146984,4.925959475216,12.340657875216,6.56168,9.618842,12.7445542136,13.1274282416,21,5,8.442,12.340657875216,6.233596,9.618842,12.7445542136,-9.171454,-2.908022,-6.487126,194.2, -14.1, 0.7,0,0,1684,1024,1684,1024,100,0,100,0,204.2,0,0,100,4.23,4.223,0,0,0,0,4.127,66.74,12.340657875216,6.233596,6,P-GPS,
4900,2022-08-11 20:11:47,-34.9287999137854,-56.1628290362529,7.217848,8.530184,4.794725875216,13.324909875216,7.545932,10.1109688,14.1897642336,14.5727366868,21,5,8.385,13.324909875216,7.217848,10.1109688,14.1897642336,-9.618842,-3.131716,-6.71082,194.6, -13.9, 1.1,0,0,1684,1024,1684,1024,100,0,100,0,204.2,0,0,100,4.134,4.122,0,0,0,0,4.427,66.74,13.324909875216,7.217848,6,P-GPS,
5000,2022-08-11 20:11:47,-34.9288039615988,-56.1628305278991,8.2021,9.6456696,4.663492275216,14.309161875216,8.530184,10.5359874,15.7324152016,16.1155188884,21,5,8.385,14.309161875216,8.2021,10.5359874,15.7324152016,-10.06623,-3.131716,-6.71082,194.9, -14.6, 1.3,0,0,1684,1024,1684,1024,100,0,100,0,204.2,0,0,100,4.134,4.122,0,0,0,0,4.427,66.74,14.309161875216,8.2021,6,P-GPS,
5100,2022-08-11 20:11:47,-34.9288080019638,-56.1628319943038,9.186352,10.7939636,4.499450275216,15.293413875216,9.514436,10.5359874,17.2704073768,17.6535110636,21,5,8.385,15.293413875216,9.186352,10.5359874,17.2704073768,-10.513618,-3.35541,-6.71082,195, -15.2, 2,0,0,1684,1024,1684,1024,100,0,100,0,204.2,0,0,100,4.134,4.122,0,0,0,0,4.427,66.74,15.293413875216,9.186352,6,P-GPS,
5200,2022-08-11 20:11:47,-34.9288124180694,-56.1628336413556,10.170604,11.9094492,4.368216675216,16.277665875216,10.498688,11.4531328,18.9551187168,19.3383536372,21,5,8.385,16.277665875216,10.170604,11.4531328,18.9551187168,-11.1847,-2.460634,-6.487126,191.8, -15.1, 0.7,0,0,1684,1024,1684,1024,100,0,100,0,204.2,0,0,100,4.134,4.122,0,0,0,0,4.427,66.74,16.277665875216,10.170604,6,P-GPS,
5300,2022-08-11 20:11:47,-34.9288166266266,-56.1628351700419,11.154856,13.0577432,4.204174675216,17.261917875216,11.154856,11.9005208,20.5572185056,20.9404862344,21,5,8.385,17.261917875216,11.154856,11.9005208,20.5572185056,-11.632088,-2.460634,-6.487126,191.9, -13.7, 0.2,0,0,1684,1024,1684,1024,100,0,100,0,204.2,0,0,100,4.134,4.122,0,0,0,0,4.427,66.74,17.261917875216,11.154856,6,P-GPS,
5400,2022-08-11 20:11:47,-34.9288214771555,-56.1628369020033,12.139108,14.2060372,4.040132675216,18.246169875216,12.139108,11.9452596,22.4012146276,22.7844823564,22,5,8.385,18.246169875216,12.139108,11.9452596,22.4012146276,-11.632088,-2.684328,-6.487126,191.9, -14.6, 0.2,0,0,1684,1024,1684,1024,100,0,100,0,204.2,0,0,100,4.134,4.122,0,0,0,0,4.427,66.74,18.246169875216,12.139108,6,P-GPS,
5500,2022-08-11 20:11:47,-34.9288262818535,-56.1628385658862,13.12336,15.3543312,3.876090675216,19.230421875216,13.12336,12.3702782,24.223425972,24.6067593176,22,5,8.385,19.230421875216,13.12336,12.3702782,24.223425972,-12.079476,-2.684328,-6.487126,192, -15, -0.1,0,0,1684,1024,1684,1024,100,0,100,0,204.2,0,0,100,4.134,4.122,0,0,0,0,4.427,66.74,19.230421875216,13.12336,6,P-GPS,
5600,2022-08-11 20:11:47,-34.9288320165884,-56.1628396259943,14.107612,16.568242,3.646431875216,20.214673875216,13.779528,12.8176662,26.3222777452,26.7229667344,22,5,8.385,20.214673875216,14.107612,12.8176662,26.3222777452,-12.526864,-2.684328,-6.487126,191.8, -15.5, -1,0,0,1684,1024,1684,1024,100,0,100,0,204.2,0,0,100,4.134,4.122,0,0,0,0,4.427,66.74,20.214673875216,14.107612,6,P-GPS,
5700,2022-08-11 20:11:47,-34.9288372690628,-56.1628412916876,15.419948,18.04462,3.482389875216,21.527009875216,14.76378,13.2426848,28.3020350264,28.7030520996,22,5,8.385,21.527009875216,15.419948,13.2426848,28.3020350264,-12.974252,-2.684328,-6.487126,191.9, -14.4, 0.1,0,0,1684,1024,1684,1024,100,0,100,0,204.2,0,0,100,4.134,4.122,0,0,0,0,4.427,66.74,21.527009875216,15.419948,6,P-GPS,
5800,2022-08-11 20:11:47,-34.9288430039801,-56.1628430976833,16.4042,19.2257224,3.285539475216,22.511261875216,15.748032,13.6900728,30.4626322084,30.8640429824,22,5,8.385,22.511261875216,16.4042,13.6900728,30.4626322084,-13.42164,-2.684328,-6.487126,191.9, -14.2, 1.1,0,0,1024,1024,1684,1024,0,0,100,0,204.2,0,0,100,4.134,4.122,0,0,0,0,4.427,66.74,22.511261875216,16.4042,6,P-GPS,
5900,2022-08-11 20:11:48,-34.9288485038999,-56.1628447580397,17.388452,20.4396332,3.055880675216,23.495513875216,16.732284,13.9585056,32.5290692824,32.931103416,22,5,8.299,23.495513875216,17.388452,13.9585056,32.5290692824,-13.645334,-2.908022,-6.487126,191.9, -13.7, 1.4,0,0,1024,1024,1684,1024,0,0,100,0,204.2,0,0,100,4.167,4.154,0,0,0,0,6.191,66.74,23.495513875216,17.388452,6,P-GPS,
6000,2022-08-11 20:11:48,-34.9288544961048,-56.1628465728468,18.372704,21.5879272,2.891838675216,24.479765875216,17.388452,14.1598302,34.781169092,35.18372816,22,5,8.299,24.479765875216,18.372704,14.1598302,34.781169092,-13.869028,-2.908022,-6.487126,191.9, -4.6, 1.6,0,0,1024,1024,1684,1024,0,0,100,0,204.2,0,0,100,4.167,4.154,0,0,0,0,6.191,66.74,24.479765875216,18.372704,6,P-GPS,
6100,2022-08-11 20:11:48,-34.9288599754085,-56.1628482140157,19.356956,22.801838,2.662179875216,25.464017875216,18.372704,13.9585056,36.83891194,37.24245526,22,5,8.299,25.464017875216,19.356956,14.1598302,36.83891194,-13.645334,-2.908022,-6.487126,191.9, 17.6, 0.4,0,0,1024,1024,1684,1024,0,0,100,0,204.2,0,0,100,4.167,4.154,0,0,0,0,6.191,66.74,25.464017875216,19.356956,6,P-GPS,
6200,2022-08-11 20:11:48,-34.92886563786,-56.1628499345207,20.341208,23.9829404,2.465329475216,26.448269875216,19.356956,12.8176662,38.967520932,39.371392336,22,5,8.299,26.448269875216,20.341208,14.1598302,38.967520932,-12.526864,-2.684328,-6.71082,191.8, 20.6, 0.1,0,0,1024,1024,1684,1024,0,0,100,0,204.2,0,0,100,4.167,4.154,0,0,0,0,6.191,66.74,26.448269875216,20.341208,6,P-GPS,
6300,2022-08-11 20:11:48,-34.9288701119317,-56.1628512380133,21.32546,25.1312344,2.301287475216,27.432521875216,20.341208,11.9005208,40.645014424,41.04987008,22,5,8.299,27.432521875216,21.32546,14.1598302,40.645014424,-11.632088,-2.460634,-6.71082,191.9, 20.1, 0,0,0,1024,1024,1684,1024,0,0,100,0,204.2,0,0,100,4.167,4.154,0,0,0,0,6.191,66.74,27.432521875216,21.32546,6,P-GPS,
6400,2022-08-11 20:11:48,-34.9288745110299,-56.1628523539309,22.309712,26.2795284,2.137245475216,28.416773875216,21.653544,10.9162672,42.2818255,42.688977744,22,5,8.299,28.416773875216,22.309712,14.1598302,42.2818255,-10.737312,-2.013246,-6.71082,192, 19.4, 0.4,0,0,1024,1024,1024,1024,0,0,0,0,204.2,0,0,100,4.167,4.154,0,0,0,0,6.191,66.74,28.416773875216,22.309712,6,P-GPS,
6500,2022-08-11 20:11:48,-34.928878754768,-56.1628534786102,23.293964,27.395014,2.006011875216,29.401025875216,22.309712,9.9991218,43.864502716,44.273623464,22,5,8.299,29.401025875216,23.293964,14.1598302,43.864502716,-9.842536,-1.789552,-6.487126,191.9, 19.2, 1.2,0,0,1024,1024,1024,1024,0,0,0,0,204.2,0,0,100,4.167,4.154,0,0,0,0,6.191,66.74,29.401025875216,23.293964,6,P-GPS,
6600,2022-08-11 20:11:48,-34.9288830799543,-56.1628546163799,24.278216,28.543308,1.841969875216,30.385277875216,23.293964,9.3504092,45.477035576,45.887796744,23,5,8.299,30.385277875216,24.278216,14.1598302,45.477035576,-9.171454,-1.789552,-5.816044,191.9, 19.1, 1,0,0,1024,1024,1024,1024,0,0,0,0,204.2,0,0,100,4.167,4.154,0,0,0,0,6.191,66.74,30.385277875216,24.278216,31,Sport,"Baja velocidad de la tarjeta SD. Puede afectar a su uso normal. Sustituye la tarjeta SD (Code: 10028)"
6700,2022-08-11 20:11:48,-34.9288866390294,-56.1628555529147,24.934384,29.3307096,1.710736275216,31.041445875216,24.278216,8.6345884,46.804135356,47.21620886,23,5,8.299,31.041445875216,24.934384,14.1598302,46.804135356,-8.500372,-1.565858,-4.921268,192.2, 26.1, 1,0,0,1024,1024,1024,1024,0,0,0,0,204.2,0,0,100,4.167,4.154,0,0,0,0,6.191,66.74,31.041445875216,24.934384,31,Sport,
6800,2022-08-11 20:11:48,-34.928889865029,-56.1628563956334,25.590552,30.0524944,1.645119475216,31.697613875216,24.6063,7.941137,48.006563216,48.419949056,23,5,8.299,31.697613875216,25.590552,14.1598302,48.006563216,-7.82929,-1.342164,-3.802798,192.1, 26.6, 0.8,0,0,1024,1024,1024,1024,0,0,0,0,204.2,0,0,100,4.167,4.154,0,0,0,0,6.191,66.74,31.697613875216,25.590552,31,Sport,
6900,2022-08-11 20:11:49,-34.9288923243443,-56.1628568526822,25.918636,30.3805784,1.645119475216,32.025697875216,25.262468,7.4713796,48.909450384,49.327757484,23,5,8.267,32.025697875216,25.918636,14.1598302,48.909450384,-7.381902,-1.11847,-2.684328,192.1, 27.1, 0.8,0,0,1024,1024,1247,1024,0,0,34,0,204.2,0,0,100,4.216,4.203,0,0,0,0,5.572,66.92,32.025697875216,25.918636,31,Sport,
7000,2022-08-11 20:11:49,-34.9288945553516,-56.1628572234121,26.24672,30.7414708,1.612311075216,32.353781875216,25.590552,6.8002976,49.725395292,50.148951736,23,5,8.267,32.353781875216,26.24672,14.1598302,49.725395292,-6.71082,-1.11847,-1.789552,192.2, 26.9, 0.5,0,0,1024,1024,1247,1024,0,0,34,0,204.2,0,0,100,4.216,4.203,0,0,0,0,5.572,66.92,32.353781875216,26.24672,31,Sport,
7100,2022-08-11 20:11:49,-34.9288966589104,-56.1628575210859,26.574804,31.0695548,1.612311075216,32.681865875216,25.590552,6.1068462,50.490815264,50.921589556,23,5,8.267,32.681865875216,26.574804,14.1598302,50.490815264,-6.039738,-0.894776,-1.11847,192.2, 26.7, 0.5,0,0,1046,1024,1559,1024,3,0,81,0,204.2,0,0,100,4.216,4.203,0,0,0,0,5.572,66.92,32.681865875216,26.574804,31,Sport,
7200,2022-08-11 20:11:49,-34.9288983700533,-56.1628576986819,26.902888,31.3976388,1.612311075216,33.009949875216,25.918636,4.7199434,51.109253604,51.548229996,24,5,8.267,33.009949875216,26.902888,14.1598302,51.109253604,-4.697574,-0.447388,-1.565858,192.2, 27.7, 1.5,0,0,1024,1024,1684,1024,0,0,100,0,204.2,0,0,100,4.216,4.203,0,0,0,0,5.572,66.92,33.009949875216,26.902888,31,Sport,
7300,2022-08-11 20:11:49,-34.9288991147212,-56.1628575349286,27.230972,31.7257228,1.612311075216,33.338033875216,25.918636,3.35541,51.360894032,51.824476724,24,5,8.267,33.338033875216,27.230972,14.1598302,51.360894032,-3.35541,-0.223694,-2.460634,192.1, 25.4, 2,0,0,1024,1024,1684,1024,0,0,100,0,204.2,0,0,100,4.216,4.203,0,0,0,0,5.572,66.92,33.338033875216,27.230972,31,Sport,
7400,2022-08-11 20:11:49,-34.928899167079,-56.162857070325,27.559056,32.0538068,1.612311075216,33.666117875216,25.918636,2.013246,51.345802168,51.964568592,23,5,8.267,33.666117875216,27.559056,14.1598302,51.360894032,-2.013246,0,-3.35541,191.9, 17.5, 2.7,0,0,1024,1024,1684,1024,0,0,100,0,204.2,0,0,100,4.216,4.203,0,0,0,0,5.572,66.92,33.666117875216,27.559056,31,Sport,
7500,2022-08-11 20:11:49,-34.9288991892649,-56.1628567016953,28.543308,33.0380588,1.612311075216,34.650369875216,25.918636,1.342164,51.32710138,52.0751329,23,5,8.267,34.650369875216,28.543308,14.1598302,51.360894032,-1.342164,0,-4.47388,191.8, 11.7, 2.1,0,0,1024,1024,1684,1024,0,0,100,0,204.2,0,0,100,4.216,4.203,0,0,0,0,5.572,66.92,34.650369875216,28.543308,31,Sport,
7600,2022-08-11 20:11:49,-34.9288994022393,-56.1628564411582,29.199476,33.6942268,1.612311075216,35.306537875216,25.918636,0.671082,51.384187996,52.185369124,23,5,8.267,35.306537875216,29.199476,14.1598302,51.384187996,-0.671082,0,-5.59235,191.7, 8.7, 2.2,0,0,1024,1024,1610,1024,0,0,89,0,204.2,0,0,100,4.216,4.203,0,0,0,0,5.572,66.92,35.306537875216,29.199476,31,Sport,
7700,2022-08-11 20:11:49,-34.9288989791305,-56.1628554510839,30.511812,35.0065628,1.612311075216,36.618873875216,25.918636,0.4921268,51.165027884,52.519358636,23,5,8.267,36.618873875216,30.511812,14.1598302,51.384187996,-0.447388,0.223694,-6.487126,192, 6.7, 2.1,0,0,1024,1024,1024,1024,0,0,0,0,204.2,0,0,100,4.216,4.203,0,0,0,0,5.572,66.92,36.618873875216,30.511812,31,Sport,
7800,2022-08-11 20:11:49,-34.9288988164033,-56.1628549967545,31.496064,35.9908148,1.612311075216,37.603125875216,25.918636,0.3131716,51.075789036,52.667652604,22,5,8.267,37.603125875216,31.496064,14.1598302,51.384187996,-0.223694,0.223694,-7.381902,191.9, 5.9, 2.3,0,0,1024,1024,1024,1024,0,0,0,0,204.2,0,0,100,4.216,4.203,0,0,0,0,5.572,66.92,37.603125875216,31.496064,31,Sport,
7900,2022-08-11 20:11:50,-34.9288985721237,-56.1628544958971,32.8084,37.3031508,1.612311075216,38.915461875216,25.918636,0.3131716,50.955054124,52.841865208,22,5,8.45,38.915461875216,32.8084,14.1598302,51.384187996,-0.223694,0.223694,-7.158208,192.1, 7.1, 3,0,0,1081,1024,1024,1024,9,0,0,0,204.2,0,0,100,4.091,4.079,0,0,0,0,4.346,66.92,38.915461875216,32.8084,31,Sport,
8000,2022-08-11 20:11:50,-34.9288982374459,-56.1628538976211,33.792652,38.2874028,1.612311075216,39.899713875216,25.918636,0.3131716,50.7956053,53.058400648,23,5,8.45,39.899713875216,33.792652,14.1598302,51.384187996,-0.223694,0.223694,-6.487126,192.1, 6.7, 3.5,0,0,1081,1024,1024,1024,9,0,0,0,204.2,0,0,100,4.091,4.079,0,0,0,0,4.346,66.92,39.899713875216,33.792652,31,Sport,
8100,2022-08-11 20:11:50,-34.928897918349,-56.1628525944028,34.776904,39.2716548,1.612311075216,40.883965875216,25.918636,0.4921268,50.596130228,53.465224808,23,5,8.45,40.883965875216,34.776904,14.1598302,51.384187996,-0.223694,0.447388,-5.368656,192.1, 5.5, 3.6,0,0,1679,1024,1024,1024,99,0,0,0,204.2,0,0,100,4.091,4.079,0,0,0,0,4.346,66.92,40.883965875216,34.776904,31,Sport,
8200,2022-08-11 20:11:50,-34.9288979137763,-56.1628519944836,35.433072,39.9278228,1.612311075216,41.540133875216,25.918636,0.4921268,50.555775896,53.644686756,23,5,8.45,41.540133875216,35.433072,14.1598302,51.384187996,-0.223694,0.447388,-4.47388,191.7, -3.8, 4.4,0,0,1684,927,1024,1024,100,-15,0,0,204.2,0,0,100,4.091,4.079,0,0,0,0,4.346,66.92,41.540133875216,35.433072,31,Sport,
8300,2022-08-11 20:11:50,-34.9288980696771,-56.1628515288533,36.08924,40.5839908,1.612311075216,42.196301875216,25.918636,0.8052984,50.581694532,53.795277312,23,5,8.45,42.196301875216,36.08924,14.1598302,51.384187996,-0.671082,0.447388,-3.35541,190.6, -24.6, 3.7,0,0,1684,895,1024,1024,100,-20,0,0,204.2,-0.2,0,100,4.091,4.079,0,0,0,0,4.346,66.92,42.196301875216,36.08924,31,Sport,"El ángulo de posición de vuelo es mayor en el modo Sport. El estabilizador rotará cuando la aeronave comience a moverse o se detenga. Si es necesario, usa el modo Normal para una captura estable (Code: 40022). Baja velocidad de la tarjeta SD. Puede a"
8400,2022-08-11 20:11:50,-34.9288985132652,-56.1628511083142,36.417324,40.9120748,1.612311075216,42.524385875216,25.918636,1.3645334,50.7135843,54.000329812,23,5,8.45,42.524385875216,36.417324,14.1598302,51.384187996,-1.342164,0.223694,-2.460634,190.7, -33.1, 2.6,0,0,1684,799,1024,1024,100,-34,0,0,204.2,-9,0,100,4.091,4.079,0,0,0,0,4.346,66.92,42.524385875216,36.417324,31,Sport,
8500,2022-08-11 20:11:50,-34.9288993185503,-56.16285085889,36.745408,41.2401588,1.612311075216,42.852469875216,25.918636,2.013246,50.98589402,54.303479428,23,5,8.45,42.852469875216,36.745408,14.1598302,51.384187996,-2.013246,0,-1.342164,191.4, -36.3, 0.3,0,0,1684,710,1024,1024,100,-48,0,0,204.2,-12.1,0,100,4.091,4.079,0,0,0,0,4.346,66.92,42.852469875216,36.745408,31,Sport,
8600,2022-08-11 20:11:50,-34.9289014194124,-56.1628509946653,37.073492,41.5682428,1.612311075216,43.180553875216,25.918636,3.35541,51.744424228,55.070867904,23,5,8.45,43.180553875216,37.073492,14.1598302,51.744424228,-3.35541,0,-0.671082,192.3, -37.2, -4.3,0,0,1684,696,1024,1024,100,-50,0,0,204.2,-13.4,0,100,4.091,4.079,0,0,0,0,4.346,66.92,43.180553875216,37.073492,31,Sport,
8700,2022-08-11 20:11:50,-34.9289033138009,-56.1628509619982,37.073492,41.5682428,1.612311075216,43.180553875216,25.918636,4.47388,52.419293016,55.762140892,23,5,8.45,43.180553875216,37.073492,14.1598302,52.419293016,-4.47388,0,-0.223694,193.2, -32.7, -8.5,0,0,1684,696,1024,1024,100,-50,0,0,204.2,-13.4,0,100,4.091,4.079,0,0,0,0,4.346,66.92,43.180553875216,37.073492,31,Sport,
8800,2022-08-11 20:11:51,-34.9289059204968,-56.1628508935555,37.073492,41.6010512,1.579502675216,43.180553875216,25.918636,6.039738,53.347442652,56.713584492,24,5,8.45,43.180553875216,37.073492,14.1598302,53.347442652,-6.039738,0.223694,0,193.9, -30.2, -10.2,0,0,1684,698,1024,1024,100,-49,0,0,204.2,-13.4,0,100,4.091,4.079,0,0,0,0,4.346,66.92,43.180553875216,37.073492,31,Sport,
8900,2022-08-11 20:11:51,-34.9289091621946,-56.1628507201784,37.073492,41.6010512,1.579502675216,43.180553875216,25.918636,7.1805774,54.497705156,57.897311564,24,5,8.423,43.180553875216,37.073492,14.1598302,54.497705156,-7.158208,0.447388,0,194.3, -28.7, -9,0,0,1684,698,1024,1024,100,-49,0,0,204.2,-13.4,0,100,4.22,4.2,0,0,0,0,5.336,66.92,43.180553875216,37.073492,31,Sport,
9000,2022-08-11 20:11:51,-34.928914280824,-56.1628510886121,37.073492,41.6010512,1.579502675216,43.180553875216,25.918636,8.5227414,56.352364008,59.768046532,24,5,8.423,43.180553875216,37.073492,14.1598302,56.352364008,-8.500372,0.671082,0,194.2, -27.6, -7.9,0,0,1684,698,1024,1024,100,-49,0,0,204.2,-13.4,0,100,4.22,4.2,0,0,0,0,5.336,66.92,43.180553875216,37.073492,31,Sport,
9100,2022-08-11 20:11:51,-34.928918370355,-56.1628508079184,37.073492,41.6338596,1.546694275216,43.180553875216,32.480316,9.6412114,57.803807624,61.262469152,24,5,8.423,43.180553875216,37.073492,14.1598302,57.803807624,-9.618842,0.671082,0,193.6, -25, -6.4,0,0,1684,698,1024,1024,100,-49,0,0,204.2,-13.4,0,100,4.22,4.2,0,0,0,0,5.336,66.92,43.180553875216,37.073492,31,Sport,
9200,2022-08-11 20:11:51,-34.9289232973882,-56.1628504573373,37.073492,41.6338596,1.546694275216,43.180553875216,32.480316,10.5583568,59.554135764,63.063322228,23,5,8.423,43.180553875216,37.073492,14.1598302,59.554135764,-10.513618,0.894776,0,193.1, -20.1, -4.6,0,0,1684,699,1024,1024,100,-49,0,0,204.2,-13.4,0,100,4.22,4.2,0,0,0,0,5.336,66.92,43.180553875216,37.073492,31,Sport,
9300,2022-08-11 20:11:51,-34.9289277782407,-56.1628500414586,36.745408,41.338584,1.513885875216,42.852469875216,32.480316,11.0057448,61.144030828,64.702757976,23,5,8.423,43.180553875216,37.073492,14.1598302,61.144030828,-10.961006,0.894776,0,193, -18.7, -4,0,0,1684,790,1024,1024,100,-35,0,0,204.2,-13.4,0,100,4.22,4.2,0,0,0,0,5.336,66.92,42.852469875216,36.745408,31,Sport,
9400,2022-08-11 20:11:51,-34.9289337731423,-56.1628495906141,36.745408,41.338584,1.513885875216,42.852469875216,32.480316,11.4531328,63.279857668,66.894031012,23,5,8.423,43.180553875216,37.073492,14.1598302,63.279857668,-11.408394,0.894776,0,193, -18.9, -4.1,0,0,1518,1024,1024,1024,75,0,0,0,204.2,-13.4,0,100,4.22,4.2,0,0,0,0,5.336,66.92,42.852469875216,36.745408,31,Sport,
9500,2022-08-11 20:11:51,-34.9289389114433,-56.1628490199476,36.745408,41.3713924,1.481077475216,42.852469875216,32.480316,12.1242148,65.10498896,68.776577004,23,5,8.423,43.180553875216,37.073492,14.1598302,65.10498896,-12.079476,1.11847,0,192.6, -19.2, -0.8,0,0,1405,1024,1024,1024,58,0,0,0,204.2,-13.4,0,100,4.22,4.2,0,0,0,0,5.336,66.92,42.852469875216,36.745408,31,Sport,
9600,2022-08-11 20:11:51,-34.928944512991,-56.1628484477164,36.745408,41.3713924,1.481077475216,42.852469875216,32.480316,12.5492334,67.100723932,70.827430088,23,5,8.423,43.180553875216,37.073492,14.1598302,67.100723932,-12.526864,0.894776,0,192.4, -14.3, 4.5,0,0,1540,1024,1024,1024,78,0,0,0,204.2,-13.4,0,100,4.22,4.2,0,0,0,0,5.336,66.92,42.852469875216,36.745408,31,Sport,"Baja velocidad de la tarjeta SD. Puede afectar a su uso normal. Sustituye la tarjeta SD (Code: 10028)"
9700,2022-08-11 20:11:51,-34.928949838055,-56.162847998259,36.417324,41.0761168,1.448269075216,42.524385875216,32.480316,12.7729274,69.004595384,72.774936712,23,5,8.423,43.180553875216,37.073492,14.1598302,69.004595384,-12.750558,0.894776,0,192.1, -8.3, 6.1,0,0,1540,1024,1024,1024,78,0,0,0,204.2,-13.4,0,100,4.22,4.2,0,0,0,0,5.336,66.92,42.524385875216,36.417324,31,Sport,
9800,2022-08-11 20:11:52,-34.928955119594,-56.1628478377711,36.417324,41.0761168,1.448269075216,42.524385875216,32.480316,12.7729274,70.906826416,74.702430212,23,5,8.423,43.180553875216,37.073492,14.1598302,70.906826416,-12.750558,0.671082,0,191.9, -9.5, 5.4,0,0,1684,1024,1024,1024,100,0,0,0,204.2,-13.4,0,100,4.22,4.2,0,0,0,0,5.336,66.92,42.524385875216,36.417324,31,Sport,
9900,2022-08-11 20:11:52,-34.9289603347445,-56.1628475691777,36.417324,41.0761168,1.448269075216,42.524385875216,32.480316,12.974252,72.78215456,76.606957832,23,5,8.356,43.180553875216,37.073492,14.1598302,72.78215456,-12.974252,0.447388,0,191.1, -19.2, 4.1,0,0,1684,1023,1024,1024,100,-0,0,0,204.2,-13.4,0,100,4.192,4.189,0,0,0,0,3.876,66.92,42.524385875216,36.417324,31,Sport,
10000,2022-08-11 20:11:52,-34.9289659355757,-56.1628473683634,36.417324,41.1089252,1.415460675216,42.524385875216,32.480316,13.645334,74.800855412,78.651249236,23,5,8.356,43.180553875216,37.073492,14.1598302,74.800855412,-13.645334,0.223694,0,190.7, -22.6, 4.8,0,0,1684,1024,1024,1024,100,0,0,0,204.2,-13.4,0,100,4.192,4.189,0,0,0,0,3.876,66.92,42.524385875216,36.417324,31,Sport,
10100,2022-08-11 20:11:52,-34.9289714439243,-56.1628473787788,36.08924,40.7808412,1.415460675216,42.196301875216,32.480316,14.092722,76.795606132,80.66109182,23,5,8.356,43.180553875216,37.073492,14.1598302,76.795606132,-14.092722,0,0,190.7, -22.3, 4.6,0,0,1684,1024,1024,1024,100,0,0,0,204.2,-13.4,0,100,4.192,4.189,0,0,0,0,3.876,66.92,42.196301875216,36.08924,31,Sport,
10200,2022-08-11 20:11:52,-34.9289777456638,-56.1628476000213,36.08924,40.8136496,1.382652275216,42.196301875216,32.480316,14.763804,79.085632452,82.961288744,23,5,8.356,43.180553875216,37.073492,14.763804,79.085632452,-14.763804,-0.223694,0,190.6, -22.1, 5,0,0,1684,1024,1024,1024,100,0,0,0,204.2,-13.4,0,100,4.192,4.189,0,0,0,0,3.876,66.92,42.196301875216,36.08924,31,Sport,
10300,2022-08-11 20:11:52,-34.9289825233101,-56.1628483004678,36.08924,40.846458,1.349843875216,42.196301875216,32.480316,15.434886,80.84153802,84.716866228,23,5,8.356,43.180553875216,37.073492,15.434886,80.84153802,-15.434886,-0.223694,0,190.7, -21.1, 5.2,0,0,1684,1024,1024,1024,100,0,0,0,204.2,-13.4,0,100,4.192,4.189,0,0,0,0,3.876,66.92,42.196301875216,36.08924,31,Sport,
10400,2022-08-11 20:11:52,-34.9289891266896,-56.1628486771852,36.08924,40.846458,1.349843875216,42.196301875216,32.480316,15.882274,83.247049908,87.128611712,23,5,8.356,43.180553875216,37.073492,15.882274,83.247049908,-15.882274,-0.447388,0,190.7, -20.6, 4.3,0,0,1684,1024,1024,1024,100,0,0,0,204.2,-13.4,0,100,4.192,4.189,0,0,0,0,3.876,66.92,42.196301875216,36.08924,31,Sport,
10500,2022-08-11 20:11:52,-34.9289956250931,-56.1628491757516,36.08924,40.8792664,1.317035475216,42.196301875216,32.480316,16.3520314,85.619097228,89.504267956,23,5,8.356,43.180553875216,37.073492,16.3520314,85.619097228,-16.329662,-0.671082,0,190.9, -20.9, 4.3,0,0,1684,1024,1024,1024,100,0,0,0,204.2,-13.4,0,100,4.192,4.189,0,0,0,0,3.876,66.92,42.196301875216,36.08924,31,Sport,
10600,2022-08-11 20:11:52,-34.9290026711227,-56.1628498223999,36.08924,40.9120748,1.284227075216,42.196301875216,32.480316,16.7994194,88.194884712,92.082352028,23,5,8.356,43.180553875216,37.073492,16.7994194,88.194884712,-16.77705,-0.894776,0,190.9, -21.6, 4.2,0,0,1684,1024,1024,1024,100,0,0,0,204.2,-13.4,0,100,4.192,4.189,0,0,0,0,3.876,66.92,42.196301875216,36.08924,31,Sport,
10700,2022-08-11 20:11:52,-34.9290097192628,-56.1628510740641,36.08924,40.9120748,1.284227075216,42.196301875216,32.480316,17.2691768,90.79232574,94.681105392,23,5,8.356,43.180553875216,37.073492,17.2691768,90.79232574,-17.224438,-1.11847,0,190.9, -21.2, 4,0,0,1684,1024,1024,1024,100,0,0,0,204.2,-13.4,0,100,4.192,4.189,0,0,0,0,3.876,66.92,42.196301875216,36.08924,31,Sport,
10800,2022-08-11 20:11:52,-34.9290171933518,-56.1628519109468,35.761156,40.6167992,1.251418675216,41.868217875216,32.480316,17.2691768,93.529858636,97.419294456,23,5,8.356,43.180553875216,37.073492,17.2691768,93.529858636,-17.671826,-1.342164,0,191.1, -21.7, 4,0,0,1684,1024,1024,1024,100,0,0,0,204.2,-13.4,0,100,4.192,4.189,0,0,0,0,3.876,66.92,41.868217875216,35.761156,31,Sport,
10900,2022-08-11 20:11:53,-34.9290243396936,-56.1628527728738,35.761156,40.6496076,1.218610275216,41.868217875216,32.480316,18.1863222,96.149609376,100.03937328,23,5,8.366,43.180553875216,37.073492,18.1863222,96.149609376,-18.119214,-1.565858,0,191.1, -22.8, 3.7,0,0,1684,1024,1024,1024,100,0,0,0,204.2,-13.4,0,100,4.194,4.187,0,0,0,0,4.038,66.92,41.868217875216,35.761156,31,Sport,
11000,2022-08-11 20:11:53,-34.9290319304052,-56.1628537445888,35.761156,40.682416,1.185801875216,41.868217875216,32.480316,18.6560796,98.934058284,102.824150272,23,5,8.366,43.180553875216,37.073492,18.6560796,98.934058284,-18.566602,-1.789552,0,191.1, -22.9, 3.6,0,0,1684,1024,1024,1024,100,0,0,0,204.2,-13.4,0,100,4.194,4.187,0,0,0,0,4.038,66.92,41.868217875216,35.761156,31,Sport,
11100,2022-08-11 20:11:53,-34.9290393022278,-56.1628550265245,35.761156,40.7152244,1.152993475216,41.868217875216,32.480316,19.125837,101.649937636,105.541013876,23,5,8.366,43.180553875216,37.073492,19.125837,101.649937636,-19.01399,-2.013246,0,191.2, -23.4, 3.2,0,0,1684,1024,1024,1024,100,0,0,0,204.2,-13.4,0,100,4.194,4.187,0,0,0,0,4.038,66.92,41.868217875216,35.761156,31,Sport,
11200,2022-08-11 20:11:53,-34.9290474804039,-56.162856267985,35.433072,40.4199488,1.120185075216,41.540133875216,32.480316,19.5955944,104.656827496,108.547903736,23,5,8.366,43.180553875216,37.073492,19.5955944,104.656827496,-19.461378,-2.23694,0.223694,191.2, -24, 2.9,0,0,1684,1024,1367,1024,100,0,52,0,204.2,-13.4,0,100,4.194,4.187,0,0,0,0,4.038,66.92,41.540133875216,35.433072,31,Sport,
11300,2022-08-11 20:11:53,-34.9290555579811,-56.1628575031576,35.433072,40.4527572,1.087376675216,41.540133875216,32.480316,20.0429824,107.626971948,111.518048188,23,5,8.366,43.180553875216,37.073492,20.0429824,107.626971948,-19.908766,-2.23694,0.223694,191.2, -24.4, 3,0,0,1684,1024,1684,1024,100,0,100,0,204.2,-13.4,0,100,4.194,4.187,0,0,0,0,4.038,66.92,41.540133875216,35.433072,31,Sport,
11400,2022-08-11 20:11:53,-34.9290643141375,-56.1628588621071,35.433072,40.4855656,1.054568275216,41.540133875216,32.480316,20.7364338,110.847116408,114.738520732,23,5,8.366,43.180553875216,37.073492,20.7364338,110.847116408,-20.579848,-2.460634,0,191.1, -23.2, 2.5,0,0,1684,1024,1684,1024,100,0,100,0,204.2,-13.4,0,100,4.194,4.187,0,0,0,0,4.038,66.92,41.540133875216,35.433072,31,Sport,
11500,2022-08-11 20:11:53,-34.9290727505978,-56.1628601946879,35.433072,40.5511824,0.988951475216,41.540133875216,32.480316,21.4298852,113.950462964,117.842195372,23,5,8.366,43.180553875216,37.073492,21.4298852,113.950462964,-21.25093,-2.684328,-0.894776,191.2, -21.5, 2.7,0,0,1684,1024,1684,1024,100,0,100,0,204.2,-13.4,0,100,4.194,4.187,0,0,0,0,4.038,66.92,41.540133875216,35.433072,31,Sport,
11600,2022-08-11 20:11:53,-34.9290816969044,-56.1628616881353,35.761156,40.9120748,0.956143075216,41.868217875216,32.480316,21.8996426,117.244426324,121.136486816,23,5,8.366,43.180553875216,37.073492,21.8996426,117.244426324,-21.698318,-2.908022,-1.789552,191.3, -20.7, 2.9,0,0,1684,1024,1684,1024,100,0,100,0,204.2,-13.4,0,100,4.194,4.187,0,0,0,0,4.038,66.92,41.868217875216,35.761156,31,Sport,
11700,2022-08-11 20:11:53,-34.929090465489,-56.1628631879359,36.417324,41.6010512,0.923334675216,42.524385875216,32.480316,22.5483552,120.47408522,124.367129964,23,5,8.366,43.180553875216,37.073492,22.5483552,120.47408522,-22.3694,-2.908022,-2.684328,191.2, -20.9, 2.7,0,0,1684,1024,1684,1024,100,0,100,0,204.2,-13.4,0,100,4.194,4.187,0,0,0,0,4.038,66.92,42.524385875216,36.417324,31,Sport,
11800,2022-08-11 20:11:53,-34.9290999494687,-56.162864839763,37.073492,42.322836,0.857717875216,43.180553875216,32.480316,23.040482,123.968507904,127.8625369,23,5,8.366,43.180553875216,37.073492,23.040482,123.968507904,-22.816788,-3.131716,-3.579104,191.1, -21.2, 2.6,0,0,1684,1024,1684,1024,100,0,100,0,204.2,-13.4,0,100,4.194,4.187,0,0,0,0,4.038,66.92,43.180553875216,37.073492,31,Sport,
11900,2022-08-11 20:11:54,-34.9291091819124,-56.1628665309526,37.72966,43.0118124,0.824909475216,43.836721875216,32.480316,23.5102394,127.373363656,131.268704988,23,5,8.366,43.836721875216,37.72966,23.5102394,127.373363656,-23.264176,-3.35541,-4.47388,191.2, -20.6, 2.5,0,0,1684,1024,1684,1024,100,0,100,0,204.2,-13.4,0,100,4.194,4.187,0,0,0,0,4.038,66.92,43.836721875216,37.72966,31,Sport,
12000,2022-08-11 20:11:54,-34.9291190465311,-56.1628684611798,38.713912,44.0616812,0.759292675216,44.820973875216,32.480316,24.158952,131.01542414,134.913718228,23,5,8.366,44.820973875216,38.713912,24.158952,131.01542414,-23.935258,-3.35541,-5.368656,191.1, -20.1, 3.2,0,0,1684,1024,1684,1024,100,0,100,0,204.2,-13.4,0,100,4.082,4.058,0,0,0,0,4.038,66.92,44.820973875216,38.713912,31,Sport,
12100,2022-08-11 20:11:54,-34.9291287692016,-56.1628703017105,39.698164,45.11155,0.693675875216,45.805225875216,32.480316,24.6510788,134.603350764,138.503613356,23,5,8.366,45.805225875216,39.698164,24.6510788,134.603350764,-24.382646,-3.579104,-6.263432,191.3, -20.6, 3.2,0,0,1684,1024,1684,1024,100,0,100,0,204.2,-13.4,0,100,4.082,4.058,0,0,0,0,4.038,66.92,45.805225875216,39.698164,31,Sport,
12200,2022-08-11 20:11:54,-34.9291397820426,-56.1628724022192,40.682416,46.1614188,0.628059075216,46.789477875216,32.480316,25.0760974,138.66798344,142.57054262,23,5,8.366,46.789477875216,40.682416,25.0760974,138.66798344,-24.830034,-3.579104,-7.158208,191.5, -20.3, 3.2,0,0,1684,1024,1684,1024,100,0,100,0,204.2,-13.4,0,100,4.082,4.058,0,0,0,0,4.038,66.92,46.789477875216,40.682416,31,Sport,
12300,2022-08-11 20:11:54,-34.9291493904354,-56.1628743146147,42.322836,47.8346472,0.595250675216,48.429897875216,32.480316,25.5682242,142.217196152,146.122380004,23,5,8.366,48.429897875216,42.322836,25.5682242,142.217196152,-25.277422,-3.802798,-8.052984,191.6, -20.6, 3.5,0,0,1684,1024,1684,1024,100,0,100,0,204.2,-13.4,0,100,4.082,4.058,0,0,0,0,4.038,66.92,48.429897875216,42.322836,31,Sport,
12400,2022-08-11 20:11:54,-34.929160454084,-56.1628766134246,43.635172,49.2454084,0.496825475216,49.742233875216,32.480316,25.9932428,146.307747464,150.217196408,23,5,8.366,49.742233875216,43.635172,25.9932428,146.307747464,-25.72481,-3.802798,-8.94776,191.5, -20.1, 3.8,0,0,1684,1024,1684,1024,100,0,100,0,204.2,-13.4,0,100,4.082,4.058,0,0,0,0,4.038,66.92,49.742233875216,43.635172,31,Sport,
12500,2022-08-11 20:11:54,-34.9291708004876,-56.1628787632956,45.603676,51.2795292,0.431208675216,51.710737875216,32.480316,26.4853696,150.133534988,154.046264772,23,5,8.366,51.710737875216,45.603676,26.4853696,150.133534988,-26.172198,-4.026492,-9.618842,191.7, -19.6, 3.8,0,0,1684,1024,1684,1024,100,0,100,0,204.2,-13.4,0,100,4.082,4.058,0,0,0,0,4.038,66.92,51.710737875216,45.603676,31,Sport,
12600,2022-08-11 20:11:54,-34.9291817330268,-56.1628810708881,47.244096,52.985566,0.365591875216,53.351157875216,32.480316,26.7090636,154.177170288,158.094493248,23,5,8.366,53.351157875216,47.244096,26.7090636,154.177170288,-26.395892,-4.026492,-10.289924,191.8, -19.7, 3.6,0,0,1684,1024,1638,881,100,0,93,-22,204.2,-13.4,0,100,4.082,4.058,0,0,0,0,4.038,66.92,53.351157875216,47.244096,31,Sport,
12700,2022-08-11 20:11:54,-34.929193061786,-56.1628835092742,49.2126,55.0524952,0.267166675216,55.319661875216,32.480316,26.9327576,158.369755724,162.29167186,23,5,8.366,55.319661875216,49.2126,26.9327576,158.369755724,-26.619586,-4.026492,-10.513618,191.7, -20.4, 4.1,0,0,1684,1024,1500,364,100,0,72,-100,204.2,-13.4,0,100,4.082,4.058,0,0,0,0,4.038,66.92,55.319661875216,49.2126,31,Sport,
12800,2022-08-11 20:11:54,-34.9292042336935,-56.1628860398438,51.181104,57.086616,0.201549875216,57.288165875216,32.480316,27.178821,162.509191552,166.437341284,23,5,8.366,57.288165875216,51.181104,27.178821,162.509191552,-26.84328,-4.250186,-10.737312,191.2, -21.4, 4.3,0,0,1684,1024,1399,364,100,0,57,-100,202.6,-13.4,0,100,4.082,4.058,0,0,0,0,4.038,66.92,57.288165875216,51.181104,31,Sport,
12900,2022-08-11 20:11:55,-34.9292151287915,-56.1628884178958,52.821524,58.8254612,0.103124675216,58.928585875216,32.480316,27.178821,166.542984332,170.475399156,23,5,8.366,58.928585875216,52.821524,27.178821,166.542984332,-26.84328,-4.250186,-10.289924,186.8, -23.3, 6.6,0,0,1684,1024,1374,364,100,0,53,-100,194.1,-13.4,0,100,4.082,4.058,0,0,0,0,4.038,66.92,58.928585875216,52.821524,31,Sport,
13000,2022-08-11 20:11:55,-34.9292264573423,-56.1628909109943,54.790028,60.859582,0.037507875216,60.897089875216,32.480316,27.402515,170.738522524,174.675530524,23,5,8.37,60.897089875216,54.790028,27.402515,170.738522524,-27.066974,-4.250186,-9.395148,176, -24.8, 8.8,0,0,1684,1024,1374,364,100,0,53,-100,183.7,-13.4,0,100,3.93,3.91,0,0,0,0,4.115,66.92,60.897089875216,54.790028,31,Sport,
13100,2022-08-11 20:11:55,-34.929237482768,-56.1628933469614,56.430448,62.5984272,-0.060917324784,62.537509875216,32.480316,27.402515,174.821855988,178.763457164,23,5,8.37,62.537509875216,56.430448,27.402515,174.821855988,-27.066974,-4.250186,-8.724066,165.5, -27.3, 7.6,0,0,1684,1024,1389,364,100,0,55,-100,173.2,-13.4,0,100,3.93,3.91,0,0,0,0,4.115,66.92,62.537509875216,56.430448,31,Sport,
13200,2022-08-11 20:11:55,-34.9292500855175,-56.1628960056235,57.742784,64.0091884,-0.159342524784,63.849845875216,32.480316,27.8051642,179.48491388,183.429795896,23,5,8.37,63.849845875216,57.742784,27.8051642,179.48491388,-27.514362,-4.026492,-7.605596,155.7, -28.6, 5.1,0,0,1684,1024,1393,364,100,0,56,-100,162.8,-13.4,0,100,3.93,3.91,0,0,0,0,4.115,66.92,63.849845875216,57.742784,31,Sport,
13300,2022-08-11 20:11:55,-34.9292607120396,-56.1628981814193,59.05512,65.4199496,-0.257767724784,65.162181875216,32.480316,27.738056,183.414375948,187.361226468,23,5,8.37,65.162181875216,59.05512,27.8051642,183.414375948,-27.514362,-3.579104,-6.71082,145.8, -30.1, 2.2,0,0,1684,1024,1407,364,100,0,58,-100,152.4,-13.4,0,100,3.93,3.91,0,0,0,0,4.115,66.92,65.162181875216,59.05512,31,Sport,
13400,2022-08-11 20:11:55,-34.9292725290714,-56.1629002989916,60.367456,66.8307108,-0.356192924784,66.474517875216,32.480316,28.1183358,187.771659552,191.718838156,24,5,8.37,66.474517875216,60.367456,28.1183358,187.771659552,-27.96175,-2.908022,-6.263432,135.6, -31.2, 0,0,0,1684,1024,1257,981,100,0,35,-7,142,-13.4,0,100,3.93,3.91,0,0,0,0,4.115,66.92,66.474517875216,60.367456,31,Sport,
13500,2022-08-11 20:11:55,-34.9292837474091,-56.1629018431807,61.351708,67.913388,-0.454618124784,67.458769875216,32.480316,28.0288582,191.88976992,195.837932776,24,5,8.37,67.458769875216,61.351708,28.1183358,191.88976992,-27.96175,-2.013246,-6.039738,125.9, -30.5, -3,0,0,1684,1024,1143,1024,100,0,18,0,132.6,-13.4,0,100,3.93,3.91,0,0,0,0,4.115,66.92,67.458769875216,61.351708,31,Sport,
13600,2022-08-11 20:11:55,-34.9292954487041,-56.1629029156267,62.007876,68.6351728,-0.520234924784,68.114937875216,32.480316,27.9841194,196.163720188,200.119100892,22,5,8.37,68.114937875216,62.007876,28.1183358,196.163720188,-27.96175,-0.894776,-5.59235,119.7, -31.8, -7,0,0,1684,1024,1194,1024,100,0,26,0,130.2,-13.4,0,100,3.93,3.91,0,0,0,0,4.115,66.92,68.114937875216,62.007876,31,Sport,
13700,2022-08-11 20:11:55,-34.9293061786649,-56.1629033721034,62.33596,69.0288736,-0.585851724784,68.443021875216,32.480316,27.514362,200.06234236,204.036423852,22,5,8.37,68.443021875216,62.33596,28.1183358,200.06234236,-27.514362,0,-5.144962,119.8, -32.3, -10.7,0,0,1684,1024,1194,1024,100,0,26,0,130.1,-13.4,0,100,3.93,3.91,0,0,0,0,4.115,66.92,68.443021875216,62.33596,31,Sport,
13800,2022-08-11 20:11:55,-34.9293181692759,-56.1629033035771,62.664044,69.4225744,-0.651468524784,68.771105875216,32.480316,27.0893434,204.397644336,208.411095908,23,5,8.37,68.771105875216,62.664044,28.1183358,204.397644336,-27.066974,0.894776,-4.250186,120.5, -32.9, -11.8,0,0,1684,1024,1204,1024,100,0,27,0,130.1,-13.4,0,100,3.93,3.91,0,0,0,0,4.115,66.92,68.771105875216,62.664044,31,Sport,
13900,2022-08-11 20:11:56,-34.9293285218024,-56.1629025889718,62.992128,69.7834668,-0.684276924784,69.099189875216,32.480316,26.6866942,208.117460728,212.194232512,23,5,8.37,69.099189875216,62.992128,28.1183358,208.117460728,-26.619586,2.013246,-3.35541,120.8, -33.3, -12.1,0,0,1684,1024,1146,1024,100,0,18,0,130.1,-13.4,0,100,3.93,3.91,0,0,0,0,4.115,66.92,69.099189875216,62.992128,31,Sport,
14000,2022-08-11 20:11:56,-34.9293399545215,-56.1629011968981,62.992128,69.8162752,-0.717085324784,69.099189875216,32.480316,26.3287838,212.20637162,216.386489864,23,5,7.864,69.099189875216,62.992128,28.1183358,212.20637162,-26.172198,2.908022,-2.460634,120.9, -33.9, -11.2,0,0,1684,1024,1024,1024,100,0,0,0,130.1,-13.4,0,100,4.124,4.139,0,0,0,0,11.273,67.1,69.099189875216,62.992128,31,Sport,
14100,2022-08-11 20:11:56,-34.929350073907,-56.1628977186939,62.664044,69.4881912,-0.717085324784,68.771105875216,32.480316,25.9708734,215.751647324,220.222119908,23,5,7.864,69.099189875216,62.992128,28.1183358,215.751647324,-25.72481,3.579104,-1.565858,121.2, -35.2, -12.1,0,0,1684,1024,1024,1024,100,0,0,0,130.1,-13.4,0,100,4.124,4.139,0,0,0,0,11.273,67.1,68.771105875216,62.664044,31,Sport,
14200,2022-08-11 20:11:56,-34.9293610842728,-56.1628949985116,62.33596,69.1601072,-0.717085324784,68.443021875216,32.480316,25.9261346,219.65387842,224.32087332,23,5,7.864,69.099189875216,62.992128,28.1183358,219.65387842,-25.501116,4.697574,-0.671082,121, -35.6, -12.6,0,0,1684,1024,1024,1024,100,0,0,0,130.1,-13.4,0,100,4.124,4.139,0,0,0,0,11.273,67.1,68.443021875216,62.33596,31,Sport,
14300,2022-08-11 20:11:56,-34.9293703190354,-56.1628920868829,62.007876,68.7992148,-0.684276924784,68.114937875216,32.480316,25.72481,222.913064876,227.800860308,23,5,7.864,69.099189875216,62.992128,28.1183358,222.913064876,-25.053728,5.816044,-0.447388,120.4, -35.1, -12,0,0,1505,1024,1024,1024,73,0,0,0,130.1,-13.4,0,100,4.124,4.139,0,0,0,0,11.273,67.1,68.114937875216,62.007876,31,Sport,
14400,2022-08-11 20:11:56,-34.9293803879782,-56.1628882579017,61.679792,68.4383224,-0.651468524784,67.786853875216,32.480316,25.7695488,226.455387824,231.648957544,23,5,7.864,69.099189875216,62.992128,28.1183358,226.455387824,-24.830034,6.934514,0,119.8, -33.5, -11,0,0,1183,1024,1024,1024,24,0,0,0,130.1,-13.4,0,100,4.124,4.139,0,0,0,0,11.273,67.1,67.786853875216,61.679792,31,Sport,
14500,2022-08-11 20:11:56,-34.9293893360305,-56.1628830780534,61.023624,67.7165376,-0.585851724784,67.130685875216,32.480316,25.8813958,229.564639892,235.262802804,23,5,7.864,69.099189875216,62.992128,28.1183358,229.564639892,-24.60634,8.052984,0,118.5, -24.8, -9.3,0,0,1024,1024,1024,1024,0,0,0,0,130.1,-13.4,0,100,4.124,4.139,0,0,0,0,11.273,67.1,67.130685875216,61.023624,31,Sport,
14600,2022-08-11 20:11:56,-34.9293992995022,-56.1628783575606,60.69554,67.3228368,-0.520234924784,66.802601875216,32.480316,25.612963,233.068577012,239.162409228,23,5,7.864,69.099189875216,62.992128,28.1183358,233.068577012,-24.158952,8.500372,0,116.8, -6.8, -8.4,0,0,1024,1024,1024,1024,0,0,0,0,130.1,-13.4,0,100,4.124,4.139,0,0,0,0,11.273,67.1,66.802601875216,60.69554,31,Sport,
14700,2022-08-11 20:11:56,-34.9294084795491,-56.1628738732424,60.367456,66.9619444,-0.487426524784,66.474517875216,32.480316,24.9866198,236.304797588,242.770348976,23,5,7.864,69.099189875216,62.992128,28.1183358,236.304797588,-23.48787,8.500372,-0.223694,114.7, 15.5, -15.2,0,0,1024,1024,1024,1024,0,0,0,0,130.1,-13.4,0,100,4.124,4.139,0,0,0,0,11.273,67.1,66.474517875216,60.367456,31,Sport,
14800,2022-08-11 20:11:57,-34.9294176651197,-56.1628694510922,59.711288,66.2401596,-0.421809724784,65.818349875216,32.480316,23.5549782,239.555125776,246.373367464,21,5,7.864,69.099189875216,62.992128,28.1183358,239.555125776,-22.145706,8.052984,-0.447388,113.7, 19, -19.5,0,0,1024,1024,1024,1024,0,0,0,0,130.1,-13.4,0,100,4.124,4.139,0,0,0,0,11.273,67.1,65.818349875216,59.711288,31,Sport,
14900,2022-08-11 20:11:57,-34.9294260392822,-56.1628655069338,59.383204,65.8464588,-0.356192924784,65.490265875216,32.480316,22.3694,242.528551068,249.648630036,21,5,8.135,69.099189875216,62.992128,28.1183358,242.528551068,-21.027236,7.605596,-0.223694,113.6, 20.3, -20.7,0,0,1024,1024,1024,1024,0,0,0,0,130.1,-13.4,0,100,4.153,4.144,0,0,0,0,8.398,67.1,65.490265875216,59.383204,31,Sport,
15000,2022-08-11 20:11:57,-34.9294343903599,-56.1628613481628,59.05512,65.452758,-0.290576124784,65.162181875216,32.480316,20.8706502,245.497711268,252.93964064,22,5,8.135,69.099189875216,62.992128,28.1183358,245.497711268,-19.685072,6.934514,0,113.6, 20.5, -21,0,0,1024,1024,1024,1024,0,0,0,0,130.1,-13.4,0,100,4.153,4.144,0,0,0,0,8.398,67.1,65.162181875216,59.05512,31,Sport,
15100,2022-08-11 20:11:57,-34.9294421762503,-56.1628576673079,58.727036,65.0918656,-0.257767724784,64.834097875216,32.480316,19.461378,248.276254664,255.986228664,22,5,8.135,69.099189875216,62.992128,28.1183358,248.276254664,-18.342908,6.487126,0,113.9, 20.7, -20.8,0,0,1069,1024,1130,1024,7,0,16,0,130.1,-13.4,0,99,4.153,4.144,0,0,0,0,8.398,67.1,64.834097875216,58.727036,31,Sport,
15200,2022-08-11 20:11:57,-34.9294504503612,-56.1628539169679,58.070868,64.3700808,-0.192150924784,64.177929875216,32.480316,18.2534304,251.238197016,259.206701208,22,5,8.135,69.099189875216,62.992128,28.1183358,251.238197016,-17.224438,6.039738,0,114, 21.2, -20,0,0,1444,1024,1608,1024,64,0,88,0,130.1,-13.4,0,99,4.153,4.144,0,0,0,0,8.398,67.1,64.177929875216,58.070868,31,Sport,
15300,2022-08-11 20:11:57,-34.9294567955607,-56.1628510363057,57.742784,64.0419968,-0.192150924784,63.849845875216,32.480316,16.8441582,253.513459556,261.676845644,22,5,8.135,69.099189875216,62.992128,28.1183358,253.513459556,-15.882274,5.59235,0,110.8, 31.2, -24.9,0,0,1684,1024,1684,1024,100,0,100,0,130.1,-13.4,0,99,4.153,4.144,0,0,0,0,8.398,67.1,63.849845875216,57.742784,31,Sport,
15400,2022-08-11 20:11:57,-34.9294639045395,-56.1628486246175,57.4147,63.7467212,-0.224959324784,63.521761875216,32.480316,14.651957,256.076451764,264.369102948,23,5,8.135,69.099189875216,62.992128,28.1183358,256.076451764,-13.869028,4.697574,-0.223694,110.7, 28, -24.9,0,0,1684,1024,1684,1024,100,0,100,0,130.1,-13.4,0,99,4.153,4.144,0,0,0,0,8.398,67.1,63.521761875216,57.4147,31,Sport,
15500,2022-08-11 20:11:57,-34.9294688219192,-56.1628464835238,57.4147,63.7139128,-0.192150924784,63.521761875216,32.480316,12.526864,257.845808776,266.273958652,23,5,8.135,69.099189875216,62.992128,28.1183358,257.845808776,-11.855782,4.026492,-1.11847,117.2, 7.4, -27.3,0,0,1684,1024,1684,1024,100,0,100,0,130.1,-13.4,0,99,4.153,4.144,0,0,0,0,8.398,67.1,63.521761875216,57.4147,31,Sport,
15600,2022-08-11 20:11:57,-34.9294731708287,-56.1628442791414,57.4147,63.7139128,-0.192150924784,63.521761875216,32.480316,11.520241,259.408800952,267.992462644,23,5,8.135,69.099189875216,62.992128,28.1183358,259.408800952,-10.513618,4.697574,-2.013246,120.9, -6.1, -26.8,0,0,1684,1024,1684,1024,100,0,100,0,130.1,-13.4,0,99,4.153,4.144,0,0,0,0,8.398,67.1,63.521761875216,57.4147,31,Sport,
