time(millisecond),datetime(utc),latitude,longitude,height_above_takeoff(feet),height_above_ground_at_drone_location(feet),ground_elevation_at_drone_location(feet),altitude_above_seaLevel(feet),height_sonar(feet),speed(mph),distance(feet),mileage(feet),satellites,gpslevel,voltage(v),max_altitude(feet),max_ascent(feet),max_speed(mph),max_distance(feet), xSpeed(mph), ySpeed(mph), zSpeed(mph), compass_heading(degrees), pitch(degrees), roll(degrees),isPhoto,isVideo,rc_elevator,rc_aileron,rc_throttle,rc_rudder,rc_elevator(percent),rc_aileron(percent),rc_throttle(percent),rc_rudder(percent),gimbal_heading(degrees),gimbal_pitch(degrees),gimbal_roll(degrees),battery_percent,voltageCell1,voltageCell2,voltageCell3,voltageCell4,voltageCell5,voltageCell6,current(A),battery_temperature(f),altitude(feet),ascent(feet),flycStateRaw,flycState,message
0,2022-08-15 23:44:08,0,0,0,,,3.28084E-5,0,0,0,0,0,0,0,3.28084E-5,0,0,0,0,0,0,30.5, 3.4, -0.2,0,0,364,364,364,1684,-100,-100,-100,100,30.5,0,0,75,4.102,4.095,0,0,0,0,0,96.8,3.28084E-5,0,6,P-GPS,"Sin señal GPS. La aeronave no puede hacer vuelo estacionario. Vuela con cuidado (Code: 30008). Señal débil del GPS. Vuelo estacionario inestable. Vuela con cuidado (Code: 30002)"
100,2022-08-15 23:44:08,0,0,0,,,3.28084E-5,0,0,0,0,0,0,0,3.28084E-5,0,0,0,0,0,0,30.5, 3.4, -0.2,0,0,364,364,364,1684,-100,-100,-100,100,30.5,0,0,75,4.102,4.095,0,0,0,0,0,96.8,3.28084E-5,0,41,Motors_Started,
200,2022-08-15 23:44:08,0,0,0,,,3.28084E-5,0.328084,0,0,0,0,0,0,3.28084E-5,0,0,0,0,0,0,30.6, 3.4, -0.2,0,0,364,364,364,1684,-100,-100,-100,100,30.5,0,0,75,4.102,4.095,0,0,0,0,0,96.8,3.28084E-5,0,41,Motors_Started,
300,2022-08-15 23:44:08,0,0,0,,,3.28084E-5,0.328084,0,0,0,0,0,0,3.28084E-5,0,0,0,0,0,0,30.6, 3.4, -0.2,0,0,1024,890,1024,1050,0,-20,0,4,30.6,0,0,75,4.102,4.095,0,0,0,0,0,96.8,3.28084E-5,0,41,Motors_Started,
400,2022-08-15 23:44:08,0,0,0,,,3.28084E-5,0.328084,0,0,0,0,0,0,3.28084E-5,0,0,0,0,0,0,30.6, 3.4, -0.2,0,0,1024,1024,1024,1024,0,0,0,0,30.6,0,0,75,4.102,4.095,0,0,0,0,0,96.8,3.28084E-5,0,41,Motors_Started,
500,2022-08-15 23:44:08,0,0,0,,,3.28084E-5,0.328084,0,0,0,0,0,0,3.28084E-5,0,0,0,0,0,0,30.6, 3.4, -0.2,0,0,1024,1024,1024,1024,0,0,0,0,30.6,0,0,75,4.102,4.095,0,0,0,0,0,96.8,3.28084E-5,0,41,Motors_Started,
600,2022-08-15 23:44:08,0,0,0,,,3.28084E-5,0.328084,0,0,0,0,0,0,3.28084E-5,0,0,0,0,0,0,30.6, 3.4, -0.2,0,0,1024,1024,1024,1024,0,0,0,0,30.6,0,0,75,4.102,4.095,0,0,0,0,0,96.8,3.28084E-5,0,41,Motors_Started,
700,2022-08-15 23:44:08,0,0,0,,,3.28084E-5,0.328084,0,0,0,0,0,0,3.28084E-5,0,0,0,0,0,0,30.6, 3.4, -0.1,0,0,1024,1024,1024,1024,0,0,0,0,30.6,0,0,75,4.102,4.095,0,0,0,0,0,96.8,3.28084E-5,0,41,Motors_Started,
800,2022-08-15 23:44:09,0,0,0,,,3.28084E-5,0.328084,0,0,0,0,0,0,3.28084E-5,0,0,0,0,0,0,30.6, 3.4, -0.1,0,0,1024,1024,1024,1024,0,0,0,0,30.6,0,0,75,4.102,4.095,0,0,0,0,0,96.8,3.28084E-5,0,41,Motors_Started,"Setting new Return-To-Home altitude to 15m (49 ft). Data Recorder File Index is 75. Setting new Maximum Flight Altitude to 30m (98 ft)"
900,2022-08-15 23:44:09,0,0,0,,,3.28084E-5,0.328084,0,0,0,0,0,0,3.28084E-5,0,0,0,0,0,0,30.6, 3.5, -0.2,0,0,1024,1024,1024,1024,0,0,0,0,30.6,0,0,75,4.102,4.095,0,0,0,0,0,96.8,3.28084E-5,0,41,Motors_Started,
1000,2022-08-15 23:44:09,0,0,0,,,3.28084E-5,0.328084,0,0,0,0,0,0,3.28084E-5,0,0,0,0,0,0,30.6, 3.4, -0.1,0,0,1024,1024,1024,1024,0,0,0,0,30.6,0,0,75,4.102,4.095,0,0,0,0,0,96.8,3.28084E-5,0,41,Motors_Started,
1100,2022-08-15 23:44:09,0,0,0,,,3.28084E-5,0.328084,0,0,0,0,0,0,3.28084E-5,0,0,0,0,0,0,30.6, 3.5, -0.2,0,0,1024,1024,1024,1024,0,0,0,0,30.6,0,0,75,4.102,4.095,0,0,0,0,0,96.8,3.28084E-5,0,41,Motors_Started,
1200,2022-08-15 23:44:09,0,0,0,,,3.28084E-5,0.328084,0,0,0,0,0,0,3.28084E-5,0,0,0,0,0,0,30.6, 3.5, -0.2,0,0,1024,1024,1024,1024,0,0,0,0,30.6,0,0,75,4.102,4.095,0,0,0,0,0,96.8,3.28084E-5,0,10,Assisted_Takeoff,
1300,2022-08-15 23:44:09,0,0,0,,,3.28084E-5,0.328084,0,0,0,0,0,0,3.28084E-5,0,0,0,0,0,0,30.7, 3.4, -0.2,0,0,1024,1024,1186,1024,0,0,25,0,30.6,0,0,75,4.102,4.095,0,0,0,0,0,96.8,3.28084E-5,0,10,Assisted_Takeoff,
1400,2022-08-15 23:44:09,0,0,0,,,3.28084E-5,0.328084,0,0,0,0,0,0,3.28084E-5,0,0,0,0,0,0,30.7, 3.5, -0.2,0,0,1024,1024,1450,1024,0,0,65,0,30.6,0,0,75,4.102,4.095,0,0,0,0,0,96.8,3.28084E-5,0,10,Assisted_Takeoff,
1500,2022-08-15 23:44:09,0,0,0,,,3.28084E-5,0.328084,0,0,0,0,0,8.191,3.28084E-5,0,0,0,0,0,0,30.7, 3.4, -0.2,0,0,1024,1024,1539,1024,0,0,78,0,30.7,0,0,75,4.102,4.095,0,0,0,0,1.281,96.8,3.28084E-5,0,10,Assisted_Takeoff,
1600,2022-08-15 23:44:09,0,0,0,,,3.28084E-5,0.328084,0,0,0,0,0,8.191,3.28084E-5,0,0,0,0,0,0,30.8, 3.4, -0.2,0,0,1024,1024,1539,1024,0,0,78,0,30.7,0,0,75,4.102,4.095,0,0,0,0,1.281,96.8,3.28084E-5,0,10,Assisted_Takeoff,
1700,2022-08-15 23:44:09,0,0,0,,,3.28084E-5,0.328084,0,0,0,0,0,8.191,3.28084E-5,0,0,0,0,0,0,30.7, 3.4, -0.2,0,0,1024,1024,1356,1024,0,0,50,0,30.7,0,0,75,4.102,4.095,0,0,0,0,1.281,96.8,3.28084E-5,0,10,Assisted_Takeoff,
1800,2022-08-15 23:44:10,0,0,0,,,3.28084E-5,0.328084,0,0,0,0,0,8.191,3.28084E-5,0,0,0,0,0,0,31, 3.4, -0.2,0,0,1024,1024,1117,1024,0,0,14,0,30.7,0,0,75,4.102,4.095,0,0,0,0,1.281,96.8,3.28084E-5,0,10,Assisted_Takeoff,
1900,2022-08-15 23:44:10,0,0,0,,,3.28084E-5,0.328084,0,0,0,0,0,8.191,3.28084E-5,0,0,0,0,0,0,31.6, 2, -0.2,0,0,1024,1024,1273,1024,0,0,38,0,31,0,0,75,4.102,4.095,0,0,0,0,1.281,96.8,3.28084E-5,0,10,Assisted_Takeoff,
2000,2022-08-15 23:44:10,0,0,0,,,3.28084E-5,0.328084,0,0,0,0,0,8.191,3.28084E-5,0,0,0,0,0,0,32.3, -1.1, 0.2,0,0,1024,1024,1376,1024,0,0,53,0,31.7,0,0,75,4.102,4.095,0,0,0,0,1.281,96.8,3.28084E-5,0,10,Assisted_Takeoff,"Vuela con cuidado (sin GPS)"
2100,2022-08-15 23:44:10,0,0,0,,,3.28084E-5,0.328084,0,0,0,0,0,8.191,3.28084E-5,0,0,0,0,0,-0.223694,32.8, -1.1, 0.4,0,0,1024,1024,1232,1024,0,0,32,0,32.3,0,0,75,4.102,4.095,0,0,0,0,1.281,96.8,3.28084E-5,0,6,P-GPS,"Señal débil del GPS. Vuelo estacionario inestable. Vuela con cuidado (Code: 30002)"
2200,2022-08-15 23:44:10,0,0,0,,,3.28084E-5,0.328084,0,0,0,0,0,8.191,3.28084E-5,0,0,0,0,0,-0.671082,32.6, -0.9, 0,0,0,1024,1024,1024,1024,0,0,0,0,32.3,0,0,75,4.102,4.095,0,0,0,0,1.281,96.8,3.28084E-5,0,6,P-GPS,
2300,2022-08-15 23:44:10,0,0,0,,,3.28084E-5,0.656168,0,0,0,0,0,8.191,3.28084E-5,0,0,0,0,0,-0.894776,32.5, 0, -0.1,0,0,1024,1024,1024,1024,0,0,0,0,32.3,0,0,75,4.102,4.095,0,0,0,0,1.281,96.8,3.28084E-5,0,6,P-GPS,
2400,2022-08-15 23:44:10,0,0,0,,,3.28084E-5,0.656168,0,0,0,0,0,8.191,3.28084E-5,0,0,0,0,0,-0.894776,32.4, 0, -0.1,0,0,1024,1024,1024,1024,0,0,0,0,32.3,0,0,75,4.102,4.095,0,0,0,0,1.281,96.8,3.28084E-5,0,6,P-GPS,
2500,2022-08-15 23:44:10,0,0,0.328084,,,0.3281168084,0.656168,0,0,0,0,0,8.176,0.3281168084,0.328084,0,0,0,0,-0.894776,32.4, 0.1, -0.3,0,0,1024,1024,1024,1024,0,0,0,0,32.3,0,0,75,4.059,4.05,0,0,0,0,1.708,96.8,0.3281168084,0.328084,6,P-GPS,
2600,2022-08-15 23:44:10,0,0,0.328084,,,0.3281168084,0.984252,0,0,0,0,0,8.176,0.3281168084,0.328084,0,0,0,0,-0.894776,32.4, 0.3, -0.2,0,0,1024,1024,1024,1024,0,0,0,0,32.3,0,0,75,4.059,4.05,0,0,0,0,1.708,96.8,0.3281168084,0.328084,6,P-GPS,
2700,2022-08-15 23:44:10,0,0,0.328084,,,0.3281168084,0.984252,0,0,0,0,0,8.176,0.3281168084,0.328084,0,0,0,0,-0.894776,32.4, 0.2, 0,0,0,1024,1024,1024,1024,0,0,0,0,32.3,0,0,75,4.059,4.05,0,0,0,0,1.708,96.8,0.3281168084,0.328084,6,P-GPS,
2800,2022-08-15 23:44:11,0,0,0.328084,,,0.3281168084,0.984252,0,0,0,0,0,8.176,0.3281168084,0.328084,0,0,0,0,-0.894776,32.3, 0.1, 0.1,0,0,1024,1024,1024,1024,0,0,0,0,32.3,0,0,75,4.059,4.05,0,0,0,0,1.708,96.8,0.3281168084,0.328084,6,P-GPS,
2900,2022-08-15 23:44:11,0,0,0.656168,,,0.6562008084,1.312336,0,0,0,0,0,8.176,0.6562008084,0.656168,0,0,0,0,-0.894776,32.3, 0.2, 0.1,0,0,1024,1024,1024,1024,0,0,0,0,32.3,0,0,75,4.059,4.05,0,0,0,0,1.708,96.8,0.6562008084,0.656168,6,P-GPS,
3000,2022-08-15 23:44:11,0,0,0.656168,,,0.6562008084,1.312336,0,0,0,0,0,8.176,0.6562008084,0.656168,0,0,0,0,-0.671082,32.3, 0.2, 0.2,0,0,1024,1024,1024,1024,0,0,0,0,32.3,0,0,75,4.059,4.05,0,0,0,0,1.708,96.8,0.6562008084,0.656168,6,P-GPS,
3100,2022-08-15 23:44:11,0,0,0.656168,,,0.6562008084,1.312336,0,0,0,0,0,8.176,0.6562008084,0.656168,0,0,0,0,-0.447388,32.3, 0.2, 0.3,0,0,1024,1024,1024,1024,0,0,0,0,32.3,0,0,75,4.059,4.05,0,0,0,0,1.708,96.8,0.6562008084,0.656168,6,P-GPS,
3200,2022-08-15 23:44:11,0,0,0.656168,,,0.6562008084,1.64042,0,0,0,0,0,8.176,0.6562008084,0.656168,0,0,0,0,-0.447388,32.3, 0.3, 0.3,0,0,1024,1024,1024,1024,0,0,0,0,32.3,0,0,75,4.059,4.05,0,0,0,0,1.708,96.8,0.6562008084,0.656168,6,P-GPS,
3300,2022-08-15 23:44:11,0,0,0.984252,,,0.9842848084,1.64042,0,0,0,0,0,8.176,0.9842848084,0.984252,0,0,0,0,-0.223694,32.3, 0.4, 0.3,0,0,1024,1024,1024,1024,0,0,0,0,32.3,0,0,75,4.059,4.05,0,0,0,0,1.708,96.8,0.9842848084,0.984252,6,P-GPS,
3400,2022-08-15 23:44:11,0,0,0.984252,,,0.9842848084,1.64042,0,0,0,0,0,8.176,0.9842848084,0.984252,0,0,0,0,0,32.3, 0.4, 0.3,0,0,1024,1024,1024,1024,0,0,0,0,32.3,0,0,75,4.059,4.05,0,0,0,0,1.708,96.8,0.9842848084,0.984252,6,P-GPS,
3500,2022-08-15 23:44:11,0,0,0.984252,,,0.9842848084,1.64042,0,0,0,0,0,8.106,0.9842848084,0.984252,0,0,0,0,0,32.3, 0.4, 0.2,0,0,1024,1024,1024,1024,0,0,0,0,32.3,0,0,75,4.06,4.051,0,0,0,0,4.192,96.8,0.9842848084,0.984252,6,P-GPS,
3600,2022-08-15 23:44:11,0,0,0.984252,,,0.9842848084,1.64042,0,0,0,0,0,8.106,0.9842848084,0.984252,0,0,0,0,0,32.3, 0.4, 0.1,0,0,1024,1024,1024,1024,0,0,0,0,32.3,0,0,75,4.06,4.051,0,0,0,0,4.192,96.8,0.9842848084,0.984252,6,P-GPS,
3700,2022-08-15 23:44:12,0,0,0.984252,,,0.9842848084,1.64042,0,0,0,0,0,8.106,0.9842848084,0.984252,0,0,0,0,0,32.3, 0.3, 0.1,0,0,1024,1024,1024,1024,0,0,0,0,32.3,0,0,75,4.06,4.051,0,0,0,0,4.192,96.8,0.9842848084,0.984252,6,P-GPS,
3800,2022-08-15 23:44:12,0,0,0.984252,,,0.9842848084,1.64042,0,0,0,0,0,8.106,0.9842848084,0.984252,0,0,0,0,0,32.3, 0.3, 0.1,0,0,1024,1024,1024,1024,0,0,0,0,32.3,0,0,75,4.06,4.051,0,0,0,0,4.192,96.8,0.9842848084,0.984252,6,P-GPS,
3900,2022-08-15 23:44:12,0,0,1.312336,,,1.3123688084,1.64042,0,0,0,0,0,8.106,1.3123688084,1.312336,0,0,0,0,0,32.3, 0.3, 0.1,0,0,1024,1024,1024,1024,0,0,0,0,32.3,0,0,75,4.06,4.051,0,0,0,0,4.192,96.8,1.3123688084,1.312336,6,P-GPS,
4000,2022-08-15 23:44:12,0,0,1.312336,,,1.3123688084,1.64042,0,0,0,0,0,8.106,1.3123688084,1.312336,0,0,0,0,0,32.3, 0.3, 0.1,0,0,1024,1024,1024,1024,0,0,0,0,32.3,0,0,75,4.06,4.051,0,0,0,0,4.192,96.8,1.3123688084,1.312336,6,P-GPS,
4100,2022-08-15 23:44:12,0,0,1.312336,,,1.3123688084,1.64042,0,0,0,0,0,8.106,1.3123688084,1.312336,0,0,0,0,0,32.3, 0.3, 0.1,0,0,1024,1024,1024,1024,0,0,0,0,32.3,0,0,75,4.06,4.051,0,0,0,0,4.192,96.8,1.3123688084,1.312336,6,P-GPS,
4200,2022-08-15 23:44:12,0,0,1.312336,,,1.3123688084,1.64042,0,0,0,0,0,8.106,1.3123688084,1.312336,0,0,0,0,0,32.3, 0.3, 0.2,0,0,1024,1024,1024,1024,0,0,0,0,32.3,0,0,75,4.06,4.051,0,0,0,0,4.192,96.8,1.3123688084,1.312336,6,P-GPS,
4300,2022-08-15 23:44:12,0,0,1.312336,,,1.3123688084,1.64042,0,0,0,0,0,8.106,1.3123688084,1.312336,0,0,0,0,0,32.3, 0.3, 0.2,0,0,1024,1024,1024,1024,0,0,0,0,32.3,0,0,75,4.06,4.051,0,0,0,0,4.192,96.8,1.3123688084,1.312336,6,P-GPS,
4400,2022-08-15 23:44:12,0,0,1.312336,,,1.3123688084,1.64042,0,0,0,0,0,8.106,1.3123688084,1.312336,0,0,0,0,0,32.3, 0.3, 0.1,0,0,1024,1024,1024,1024,0,0,0,0,32.3,0,0,75,4.06,4.051,0,0,0,0,4.192,96.8,1.3123688084,1.312336,6,P-GPS,
4500,2022-08-15 23:44:12,0,0,1.312336,,,1.3123688084,1.64042,0,0,0,0,0,8.101,1.3123688084,1.312336,0,0,0,0,0,32.3, 0.4, 0,0,0,1024,1024,1024,1024,0,0,0,0,32.3,0,0,75,4.052,4.042,0,0,0,0,4.055,96.8,1.3123688084,1.312336,6,P-GPS,
4600,2022-08-15 23:44:12,0,0,1.312336,,,1.3123688084,1.64042,0,0,0,0,0,8.101,1.3123688084,1.312336,0,0,0,0,0,32.3, 0.4, 0,0,0,1024,1024,1024,1024,0,0,0,0,32.3,0,0,75,4.052,4.042,0,0,0,0,4.055,96.8,1.3123688084,1.312336,6,P-GPS,
4700,2022-08-15 23:44:13,0,0,1.312336,,,1.3123688084,1.64042,0,0,0,0,0,8.101,1.3123688084,1.312336,0,0,0,0,0,32.3, 0.4, 0,0,0,1024,1024,1024,1024,0,0,0,0,32.3,0,0,75,4.052,4.042,0,0,0,0,4.055,96.8,1.3123688084,1.312336,6,P-GPS,
4800,2022-08-15 23:44:13,0,0,1.64042,,,1.6404528084,1.64042,0,0,0,0,0,8.101,1.6404528084,1.64042,0,0,0,0,0,32.3, 0.4, 0,0,0,1024,1024,1024,1024,0,0,0,0,32.3,0,0,75,4.052,4.042,0,0,0,0,4.055,96.8,1.6404528084,1.64042,6,P-GPS,
4900,2022-08-15 23:44:13,0,0,1.64042,,,1.6404528084,1.64042,0,0,0,0,0,8.101,1.6404528084,1.64042,0,0,0,0,0,32.3, 0.4, 0,0,0,1024,1024,1024,1024,0,0,0,0,32.3,0,0,75,4.052,4.042,0,0,0,0,4.055,96.8,1.6404528084,1.64042,6,P-GPS,
5000,2022-08-15 23:44:13,0,0,1.64042,,,1.6404528084,1.64042,0,0,0,0,0,8.101,1.6404528084,1.64042,0,0,0,0,0,32.3, 0.4, 0,0,0,1024,1024,1024,1024,0,0,0,0,32.3,0,0,75,4.052,4.042,0,0,0,0,4.055,96.8,1.6404528084,1.64042,6,P-GPS,"En vuelo"
5100,2022-08-15 23:44:13,0,0,1.64042,,,1.6404528084,1.64042,0,0,0,0,0,8.101,1.6404528084,1.64042,0,0,0,0,0,32.3, 0.4, 0,0,0,1024,1024,1024,1024,0,0,0,0,32.3,0,0,75,4.052,4.042,0,0,0,0,4.055,96.8,1.6404528084,1.64042,6,P-GPS,
5200,2022-08-15 23:44:13,0,0,1.64042,,,1.6404528084,1.64042,0,0,0,0,0,8.101,1.6404528084,1.64042,0,0,0,0,0,32.3, 0.5, 0,0,0,1024,1024,1024,1024,0,0,0,0,32.3,0,0,75,4.052,4.042,0,0,0,0,4.055,96.8,1.6404528084,1.64042,6,P-GPS,
5300,2022-08-15 23:44:13,0,0,1.64042,,,1.6404528084,1.64042,0,0,0,0,0,8.101,1.6404528084,1.64042,0,0,0,0,0,32.3, 0.6, 0,0,0,1024,1024,1024,1024,0,0,0,0,32.3,0,0,75,4.052,4.042,0,0,0,0,4.055,96.8,1.6404528084,1.64042,6,P-GPS,
5400,2022-08-15 23:44:13,0,0,1.64042,,,1.6404528084,1.64042,0,0,0,0,0,8.101,1.6404528084,1.64042,0,0,0,0,0,32.3, 0.6, 0,0,0,1024,1024,1024,1024,0,0,0,0,32.3,0,0,75,4.052,4.042,0,0,0,0,4.055,96.8,1.6404528084,1.64042,6,P-GPS,
5500,2022-08-15 23:44:13,0,0,1.64042,,,1.6404528084,1.64042,0,0,0,0,0,8.09,1.6404528084,1.64042,0,0,0,0,0,32.3, 0.4, 0,0,0,1024,1024,1024,1024,0,0,0,0,32.3,0,0,75,4.048,4.038,0,0,0,0,4.241,96.8,1.6404528084,1.64042,6,P-GPS,
5600,2022-08-15 23:44:13,0,0,1.64042,,,1.6404528084,1.64042,0,0,0,0,0,8.09,1.6404528084,1.64042,0,0,0,0,0,32.3, 0.4, 0,0,0,1024,1024,1024,1024,0,0,0,0,32.3,0,0,75,4.048,4.038,0,0,0,0,4.241,96.8,1.6404528084,1.64042,6,P-GPS,
5700,2022-08-15 23:44:13,0,0,1.64042,,,1.6404528084,1.64042,0,0,0,0,0,8.09,1.6404528084,1.64042,0,0,0,0,0,32.3, 0.4, 0,0,0,1024,1024,1024,1024,0,0,0,0,32.3,0,0,75,4.048,4.038,0,0,0,0,4.241,96.8,1.6404528084,1.64042,6,P-GPS,
5800,2022-08-15 23:44:14,0,0,1.64042,,,1.6404528084,1.64042,0,0,0,0,0,8.09,1.6404528084,1.64042,0,0,0,0,0,32.4, 0.4, 0,0,0,1024,1024,1024,1024,0,0,0,0,32.3,0,0,75,4.048,4.038,0,0,0,0,4.241,96.8,1.6404528084,1.64042,6,P-GPS,
5900,2022-08-15 23:44:14,0,0,1.64042,,,1.6404528084,1.64042,0,0,0,0,0,8.09,1.6404528084,1.64042,0,0,0,0,0,32.4, 0.4, 0.1,0,0,1024,1024,1024,1024,0,0,0,0,32.3,0,0,75,4.048,4.038,0,0,0,0,4.241,96.8,1.6404528084,1.64042,6,P-GPS,
6000,2022-08-15 23:44:14,0,0,1.64042,,,1.6404528084,1.64042,0,0,0,0,0,8.09,1.6404528084,1.64042,0,0,0,0,0,32.3, 0.3, -0.1,0,0,1024,1024,1024,1024,0,0,0,0,32.3,0,0,75,4.048,4.038,0,0,0,0,4.241,96.8,1.6404528084,1.64042,6,P-GPS,
6100,2022-08-15 23:44:14,0,0,1.64042,,,1.6404528084,1.64042,0,0,0,0,0,8.09,1.6404528084,1.64042,0,0,0,0,0,32.3, 0.2, 0.1,0,0,1024,1024,1024,1024,0,0,0,0,32.3,0,0,75,4.048,4.038,0,0,0,0,4.241,96.8,1.6404528084,1.64042,6,P-GPS,
6200,2022-08-15 23:44:14,0,0,1.64042,,,1.6404528084,1.64042,0,0,0,0,0,8.09,1.6404528084,1.64042,0,0,0,0,0,32.3, 0.3, 0.3,0,0,1024,1024,1024,1024,0,0,0,0,32.3,0,0,75,4.048,4.038,0,0,0,0,4.241,96.8,1.6404528084,1.64042,6,P-GPS,
6300,2022-08-15 23:44:14,0,0,1.64042,,,1.6404528084,1.64042,0,0,0,0,0,8.09,1.6404528084,1.64042,0,0,0,0,0,32.3, 0.4, 0.3,0,0,1024,1024,1024,1024,0,0,0,0,32.3,0,0,75,4.048,4.038,0,0,0,0,4.241,96.8,1.6404528084,1.64042,6,P-GPS,
6400,2022-08-15 23:44:14,0,0,1.64042,,,1.6404528084,1.64042,0,0,0,0,0,8.09,1.6404528084,1.64042,0,0,0,0,0,32.3, 0.2, 0.1,0,0,1024,1024,1024,1024,0,0,0,0,32.3,0,0,75,4.048,4.038,0,0,0,0,4.241,96.8,1.6404528084,1.64042,6,P-GPS,
6500,2022-08-15 23:44:14,0,0,1.64042,,,1.6404528084,1.64042,0,0,0,0,0,8.09,1.6404528084,1.64042,0,0,0,0,0,32.3, 0.2, -0.1,0,0,1024,1024,1024,1024,0,0,0,0,32.3,0,0,75,4.048,4.038,0,0,0,0,4.241,96.8,1.6404528084,1.64042,6,P-GPS,
6600,2022-08-15 23:44:14,0,0,1.64042,,,1.6404528084,1.64042,0,0,0,0,0,8.082,1.6404528084,1.64042,0,0,0,0,0,32.3, 0.3, -0.2,0,0,1024,1024,1024,1024,0,0,0,0,32.3,0,0,75,4.044,4.034,0,0,0,0,4.264,96.8,1.6404528084,1.64042,6,P-GPS,
6700,2022-08-15 23:44:14,0,0,1.64042,,,1.6404528084,1.64042,0,0,0,0,0,8.082,1.6404528084,1.64042,0,0,0,0,0,32.3, 0.4, -0.4,0,0,1024,1024,1024,1024,0,0,0,0,32.3,0,0,75,4.044,4.034,0,0,0,0,4.264,96.8,1.6404528084,1.64042,6,P-GPS,
6800,2022-08-15 23:44:15,0,0,1.64042,,,1.6404528084,1.64042,0,0,0,0,0,8.082,1.6404528084,1.64042,0,0,0,0,0,32.4, 0.4, -0.2,0,0,1024,1024,1024,1024,0,0,0,0,32.3,0,0,75,4.044,4.034,0,0,0,0,4.264,96.8,1.6404528084,1.64042,6,P-GPS,
6900,2022-08-15 23:44:15,0,0,1.64042,,,1.6404528084,1.64042,0,0,0,0,0,8.082,1.6404528084,1.64042,0,0,0,0,0,32.3, 0.2, 0,0,0,1024,1024,1024,1024,0,0,0,0,32.3,0,0,75,4.044,4.034,0,0,0,0,4.264,96.8,1.6404528084,1.64042,6,P-GPS,
7000,2022-08-15 23:44:15,0,0,1.64042,,,1.6404528084,1.64042,0,0,0,0,0,8.082,1.6404528084,1.64042,0,0,0,0,0,32.3, 0.1, 0.1,0,0,1024,1024,1024,1024,0,0,0,0,32.3,0,0,75,4.044,4.034,0,0,0,0,4.264,96.8,1.6404528084,1.64042,6,P-GPS,
7100,2022-08-15 23:44:15,0,0,1.64042,,,1.6404528084,1.64042,0,0,0,0,0,8.082,1.6404528084,1.64042,0,0,0,0,0,32.3, 0.1, 0.3,0,0,1024,1024,1024,1024,0,0,0,0,32.3,0,0,75,4.044,4.034,0,0,0,0,4.264,96.8,1.6404528084,1.64042,6,P-GPS,
7200,2022-08-15 23:44:15,0,0,1.64042,,,1.6404528084,1.64042,0,0,0,0,0,8.082,1.6404528084,1.64042,0,0,0,0,0,32.3, 0.2, 0,0,0,1024,1024,1024,1024,0,0,0,0,32.3,0,0,75,4.044,4.034,0,0,0,0,4.264,96.8,1.6404528084,1.64042,6,P-GPS,
7300,2022-08-15 23:44:15,0,0,1.64042,,,1.6404528084,1.64042,0,0,0,0,0,8.082,1.6404528084,1.64042,0,0,0,0,0,32.3, 0, -0.2,0,0,1024,1024,1024,1024,0,0,0,0,32.3,0,0,75,4.044,4.034,0,0,0,0,4.264,96.8,1.6404528084,1.64042,6,P-GPS,
7400,2022-08-15 23:44:15,0,0,1.64042,,,1.6404528084,1.64042,0,0,0,0,0,8.082,1.6404528084,1.64042,0,0,0,0,0,32.3, 0, -0.3,0,0,1024,1024,1024,1024,0,0,0,0,32.3,0,0,75,4.044,4.034,0,0,0,0,4.264,96.8,1.6404528084,1.64042,6,P-GPS,
7500,2022-08-15 23:44:15,0,0,1.64042,,,1.6404528084,1.64042,0,0,0,0,0,8.082,1.6404528084,1.64042,0,0,0,0,0,32.4, 0.1, -0.3,0,0,1024,1024,1024,1024,0,0,0,0,32.3,0,0,75,4.044,4.034,0,0,0,0,4.264,96.8,1.6404528084,1.64042,6,P-GPS,
7600,2022-08-15 23:44:15,0,0,1.64042,,,1.6404528084,1.64042,0,0,0,0,0,8.074,1.6404528084,1.64042,0,0,0,0,0,32.4, 0.1, -0.2,0,0,1024,1024,1024,1024,0,0,0,0,32.3,0,0,75,4.04,4.031,0,0,0,0,4.285,96.8,1.6404528084,1.64042,6,P-GPS,
7700,2022-08-15 23:44:15,0,0,1.64042,,,1.6404528084,1.64042,0,0,0,0,0,8.074,1.6404528084,1.64042,0,0,0,0,0,32.3, 0, 0,0,0,1024,1024,1024,1024,0,0,0,0,32.3,0,0,75,4.04,4.031,0,0,0,0,4.285,96.8,1.6404528084,1.64042,6,P-GPS,
7800,2022-08-15 23:44:16,0,0,1.64042,,,1.6404528084,1.64042,0,0,0,0,0,8.074,1.6404528084,1.64042,0,0,0,0,0,32.3, 0, 0.1,0,0,1024,1024,1024,1024,0,0,0,0,32.3,0,0,75,4.04,4.031,0,0,0,0,4.285,96.8,1.6404528084,1.64042,6,P-GPS,
7900,2022-08-15 23:44:16,0,0,1.64042,,,1.6404528084,1.64042,0,0,0,0,0,8.074,1.6404528084,1.64042,0,0,0,0,0,32.3, 0, 0,0,0,1024,1024,1024,1024,0,0,0,0,32.3,0,0,75,4.04,4.031,0,0,0,0,4.285,96.8,1.6404528084,1.64042,6,P-GPS,
8000,2022-08-15 23:44:16,0,0,1.64042,,,1.6404528084,1.64042,0,0,0,0,0,8.074,1.6404528084,1.64042,0,0,0,0,0,32.3, 0.2, 0.1,0,0,1024,1024,1024,1024,0,0,0,0,32.3,0,0,75,4.04,4.031,0,0,0,0,4.285,96.8,1.6404528084,1.64042,6,P-GPS,
8100,2022-08-15 23:44:16,0,0,1.64042,,,1.6404528084,1.64042,0,0,0,0,0,8.074,1.6404528084,1.64042,0,0,0,0,0,32.2, 0.3, 0.1,0,0,1024,1024,1024,1024,0,0,0,0,32.3,0,0,75,4.04,4.031,0,0,0,0,4.285,96.8,1.6404528084,1.64042,6,P-GPS,
8200,2022-08-15 23:44:16,0,0,1.64042,,,1.6404528084,1.64042,0,0,0,0,0,8.074,1.6404528084,1.64042,0,0,0,0,0,32.2, 0.3, 0.1,0,0,1024,1024,1024,1024,0,0,0,0,32.3,0,0,75,4.04,4.031,0,0,0,0,4.285,96.8,1.6404528084,1.64042,6,P-GPS,
8300,2022-08-15 23:44:16,0,0,1.64042,,,1.6404528084,1.64042,0,0,0,0,0,8.074,1.6404528084,1.64042,0,0,0,0,0,32.2, 0.1, 0,0,0,1024,1024,1024,1024,0,0,0,0,32.3,0,0,75,4.04,4.031,0,0,0,0,4.285,96.8,1.6404528084,1.64042,6,P-GPS,
8400,2022-08-15 23:44:16,0,0,1.64042,,,1.6404528084,1.64042,0,0,0,0,0,8.074,1.6404528084,1.64042,0,0,0,0,0,32.2, 0.1, 0,0,0,1024,1024,1024,1024,0,0,0,0,32.3,0,0,75,4.04,4.031,0,0,0,0,4.285,96.8,1.6404528084,1.64042,6,P-GPS,
8500,2022-08-15 23:44:16,0,0,1.64042,,,1.6404528084,1.64042,0,0,0,0,0,8.074,1.6404528084,1.64042,0,0,0,0,0,32.3, 0.1, 0,0,0,1024,1024,1024,1024,0,0,0,0,32.3,0,0,75,4.04,4.031,0,0,0,0,4.285,96.8,1.6404528084,1.64042,6,P-GPS,
8600,2022-08-15 23:44:16,0,0,1.64042,,,1.6404528084,1.64042,0,0,0,0,0,8.067,1.6404528084,1.64042,0,0,0,0,0,32.3, 0.2, 0,0,0,1024,1024,1024,1024,0,0,0,0,32.3,0,0,75,4.038,4.029,0,0,0,0,4.276,96.8,1.6404528084,1.64042,6,P-GPS,
8700,2022-08-15 23:44:16,0,0,1.64042,,,1.6404528084,1.64042,0,0,0,0,0,8.067,1.6404528084,1.64042,0,0,0,0,0,32.2, 0.3, 0,0,0,1024,1024,1024,1024,0,0,0,0,32.3,0,0,75,4.038,4.029,0,0,0,0,4.276,96.8,1.6404528084,1.64042,6,P-GPS,
8800,2022-08-15 23:44:17,0,0,1.64042,,,1.6404528084,1.64042,0,0,0,0,0,8.067,1.6404528084,1.64042,0,0,0,0,0,32.2, 0.2, 0.2,0,0,1024,1024,1024,1024,0,0,0,0,32.3,0,0,75,4.038,4.029,0,0,0,0,4.276,96.8,1.6404528084,1.64042,6,P-GPS,
8900,2022-08-15 23:44:17,0,0,1.64042,,,1.6404528084,1.64042,0,0,0,0,0,8.067,1.6404528084,1.64042,0,0,0,0,0,32.2, 0.2, 0.2,0,0,1024,1024,1024,1024,0,0,0,0,32.3,0,0,75,4.038,4.029,0,0,0,0,4.276,96.8,1.6404528084,1.64042,6,P-GPS,
9000,2022-08-15 23:44:17,0,0,1.64042,,,1.6404528084,1.64042,0,0,0,0,0,8.067,1.6404528084,1.64042,0,0,0,0,0,32.2, 0.1, 0,0,0,1024,1024,1024,1024,0,0,0,0,32.3,0,0,75,4.038,4.029,0,0,0,0,4.276,96.8,1.6404528084,1.64042,6,P-GPS,
9100,2022-08-15 23:44:17,0,0,1.64042,,,1.6404528084,1.64042,0,0,0,0,0,8.067,1.6404528084,1.64042,0,0,0,0,0,32.2, 0.2, 0,0,0,1024,1024,1024,1024,0,0,0,0,32.3,0,0,75,4.038,4.029,0,0,0,0,4.276,96.8,1.6404528084,1.64042,6,P-GPS,
9200,2022-08-15 23:44:17,0,0,1.64042,,,1.6404528084,1.64042,0,0,0,0,0,8.067,1.6404528084,1.64042,0,0,0,0,0,32.2, 0.3, 0,0,0,1024,1024,1024,1024,0,0,0,0,32.3,0,0,75,4.038,4.029,0,0,0,0,4.276,96.8,1.6404528084,1.64042,6,P-GPS,
9300,2022-08-15 23:44:17,0,0,1.64042,,,1.6404528084,1.64042,0,0,0,0,0,8.067,1.6404528084,1.64042,0,0,0,0,0,32.3, 0.2, 0,0,0,1024,1024,1024,1024,0,0,0,0,32.3,0,0,75,4.038,4.029,0,0,0,0,4.276,96.8,1.6404528084,1.64042,6,P-GPS,
9400,2022-08-15 23:44:17,0,0,1.64042,,,1.6404528084,1.64042,0,0,0,0,0,8.067,1.6404528084,1.64042,0,0,0,0,0,32.3, 0.2, 0,0,0,1024,1024,1024,1024,0,0,0,0,32.3,0,0,75,4.038,4.029,0,0,0,0,4.276,96.8,1.6404528084,1.64042,6,P-GPS,
9500,2022-08-15 23:44:17,0,0,1.64042,,,1.6404528084,1.64042,0,0,0,0,0,8.067,1.6404528084,1.64042,0,0,0,0,0,32.3, 0.2, 0,0,0,1024,1024,1024,1024,0,0,0,0,32.3,0,0,75,4.038,4.029,0,0,0,0,4.276,96.8,1.6404528084,1.64042,6,P-GPS,
9600,2022-08-15 23:44:17,0,0,1.64042,,,1.6404528084,1.64042,0,0,0,0,0,8.064,1.6404528084,1.64042,0,0,0,0,0,32.3, 0.3, 0.1,0,0,1024,1024,1024,1024,0,0,0,0,32.3,0,0,75,4.035,4.026,0,0,0,0,4.244,96.8,1.6404528084,1.64042,6,P-GPS,
9700,2022-08-15 23:44:18,0,0,1.64042,,,1.6404528084,1.64042,0,0,0,0,0,8.064,1.6404528084,1.64042,0,0,0,0,0,32.3, 0.3, 0.4,0,0,1024,1024,1024,1024,0,0,0,0,32.3,0,0,75,4.035,4.026,0,0,0,0,4.244,96.8,1.6404528084,1.64042,6,P-GPS,
9800,2022-08-15 23:44:18,0,0,1.64042,,,1.6404528084,1.64042,0,0,0,0,0,8.064,1.6404528084,1.64042,0,0,0,0,0,32.3, 0.2, 0.4,0,0,1024,1024,1024,1024,0,0,0,0,32.3,0,0,75,4.035,4.026,0,0,0,0,4.244,96.8,1.6404528084,1.64042,6,P-GPS,
9900,2022-08-15 23:44:18,0,0,1.64042,,,1.6404528084,1.64042,0,0,0,0,0,8.064,1.6404528084,1.64042,0,0,0,0,0,32.3, 0.3, 0.1,0,0,1024,1024,1024,1024,0,0,0,0,32.3,0,0,75,4.035,4.026,0,0,0,0,4.244,96.8,1.6404528084,1.64042,6,P-GPS,
10000,2022-08-15 23:44:18,0,0,1.64042,,,1.6404528084,1.64042,0,0,0,0,0,8.064,1.6404528084,1.64042,0,0,0,0,0,32.4, 0.3, 0.1,0,0,1024,1024,1024,1024,0,0,0,0,32.3,0,0,75,4.035,4.026,0,0,0,0,4.244,96.8,1.6404528084,1.64042,6,P-GPS,
10100,2022-08-15 23:44:18,0,0,1.64042,,,1.6404528084,1.64042,0,0,0,0,0,8.064,1.6404528084,1.64042,0,0,0,0,0,32.3, 0.3, 0.1,0,0,1024,1024,1024,1024,0,0,0,0,32.3,0,0,75,4.035,4.026,0,0,0,0,4.244,96.8,1.6404528084,1.64042,6,P-GPS,
10200,2022-08-15 23:44:18,0,0,1.64042,,,1.6404528084,1.64042,0,0,0,0,0,8.064,1.6404528084,1.64042,0,0,0,0,0,32.3, 0.4, 0,0,0,1024,1024,1024,1024,0,0,0,0,32.3,0,0,75,4.035,4.026,0,0,0,0,4.244,96.8,1.6404528084,1.64042,6,P-GPS,
10300,2022-08-15 23:44:18,0,0,1.64042,,,1.6404528084,1.64042,0,0,0,0,0,8.064,1.6404528084,1.64042,0,0,0,0,0,32.3, 0.3, 0,0,0,1024,1024,1024,1024,0,0,0,0,32.3,0,0,75,4.035,4.026,0,0,0,0,4.244,96.8,1.6404528084,1.64042,6,P-GPS,
10400,2022-08-15 23:44:18,0,0,1.64042,,,1.6404528084,1.64042,0,0,0,0,0,8.064,1.6404528084,1.64042,0,0,0,0,0,32.3, 0.2, 0.2,0,0,1024,1024,1024,1024,0,0,0,0,32.3,0,0,75,4.035,4.026,0,0,0,0,4.244,96.8,1.6404528084,1.64042,6,P-GPS,
10500,2022-08-15 23:44:18,0,0,1.64042,,,1.6404528084,1.64042,0,0,0,0,0,8.064,1.6404528084,1.64042,0,0,0,0,0,32.3, 0, 0.2,0,0,1024,1024,1024,1024,0,0,0,0,32.3,0,0,75,4.035,4.026,0,0,0,0,4.244,96.8,1.6404528084,1.64042,6,P-GPS,
10600,2022-08-15 23:44:18,0,0,1.64042,,,1.6404528084,1.64042,0,0,0,0,0,8.059,1.6404528084,1.64042,0,0,0,0,0,32.3, 0, 0.3,0,0,1024,1024,1024,1024,0,0,0,0,32.3,0,0,75,4.033,4.023,0,0,0,0,4.257,96.98,1.6404528084,1.64042,6,P-GPS,
10700,2022-08-15 23:44:19,0,0,1.64042,,,1.6404528084,1.64042,0,0,0,0,0,8.059,1.6404528084,1.64042,0,0,0,0,0,32.3, 0, 0.1,0,0,1024,1024,1024,1024,0,0,0,0,32.3,0,0,75,4.033,4.023,0,0,0,0,4.257,96.98,1.6404528084,1.64042,6,P-GPS,
10800,2022-08-15 23:44:19,0,0,1.64042,,,1.6404528084,1.64042,0,0,0,0,0,8.059,1.6404528084,1.64042,0,0,0,0,0,32.4, 0.1, 0,0,0,1024,1024,1024,1024,0,0,0,0,32.3,0,0,75,4.033,4.023,0,0,0,0,4.257,96.98,1.6404528084,1.64042,6,P-GPS,
10900,2022-08-15 23:44:19,0,0,1.64042,,,1.6404528084,1.64042,0,0,0,0,0,8.059,1.6404528084,1.64042,0,0,0,0,0,32.3, 0.2, 0,0,0,1024,1024,1024,1024,0,0,0,0,32.3,0,0,75,4.033,4.023,0,0,0,0,4.257,96.98,1.6404528084,1.64042,6,P-GPS,
11000,2022-08-15 23:44:19,0,0,1.64042,,,1.6404528084,1.64042,0,0,0,0,0,8.059,1.6404528084,1.64042,0,0,0,0,0,32.3, 0.2, 0,0,0,1024,1024,1024,1024,0,0,0,0,32.3,0,0,75,4.033,4.023,0,0,0,0,4.257,96.98,1.6404528084,1.64042,6,P-GPS,
11100,2022-08-15 23:44:19,0,0,1.64042,,,1.6404528084,1.64042,0,0,0,0,0,8.059,1.6404528084,1.64042,0,0,0,0,0,32.4, 0.2, 0.1,0,0,1024,1024,1024,1024,0,0,0,0,32.3,0,0,75,4.033,4.023,0,0,0,0,4.257,96.98,1.6404528084,1.64042,6,P-GPS,
11200,2022-08-15 23:44:19,0,0,1.64042,,,1.6404528084,1.64042,0,0,0,0,0,8.059,1.6404528084,1.64042,0,0,0,0,0,32.3, 0.1, 0,0,0,1024,1024,1024,1024,0,0,0,0,32.3,0,0,75,4.033,4.023,0,0,0,0,4.257,96.98,1.6404528084,1.64042,6,P-GPS,
11300,2022-08-15 23:44:19,0,0,1.64042,,,1.6404528084,1.64042,0,0,0,0,0,8.059,1.6404528084,1.64042,0,0,0,0,0,32.3, 0, -0.1,0,0,1024,1024,1024,1024,0,0,0,0,32.3,0,0,75,4.033,4.023,0,0,0,0,4.257,96.98,1.6404528084,1.64042,6,P-GPS,
11400,2022-08-15 23:44:19,0,0,1.64042,,,1.6404528084,1.64042,0,0,0,0,0,8.059,1.6404528084,1.64042,0,0,0,0,0,32.3, 0, 0,0,0,1024,1024,1024,1024,0,0,0,0,32.3,0,0,75,4.033,4.023,0,0,0,0,4.257,96.98,1.6404528084,1.64042,6,P-GPS,
11500,2022-08-15 23:44:19,0,0,1.312336,,,1.3123688084,1.64042,0,0,0,0,0,8.059,1.6404528084,1.64042,0,0,0,0,0,32.3, -0.1, -0.3,0,0,1024,1024,1024,1024,0,0,0,0,32.3,0,0,75,4.033,4.023,0,0,0,0,4.257,96.98,1.3123688084,1.312336,6,P-GPS,
11600,2022-08-15 23:44:19,0,0,1.312336,,,1.3123688084,1.64042,0,0,0,0,0,8.059,1.6404528084,1.64042,0,0,0,0,0,32.3, -0.2, -0.4,0,0,1024,1024,1024,1024,0,0,0,0,32.3,0,0,75,4.033,4.023,0,0,0,0,4.257,96.98,1.3123688084,1.312336,6,P-GPS,
11700,2022-08-15 23:44:19,0,0,1.312336,,,1.3123688084,1.64042,0,0,0,0,0,8.051,1.6404528084,1.64042,0,0,0,0,0,32.3, -0.3, -0.2,0,0,1024,1024,1024,1024,0,0,0,0,32.3,0,0,74,4.031,4.021,0,0,0,0,4.268,96.98,1.3123688084,1.312336,6,P-GPS,
11800,2022-08-15 23:44:20,0,0,1.312336,,,1.3123688084,1.64042,0,0,0,0,0,8.051,1.6404528084,1.64042,0,0,0,0,0,32.3, -0.3, 0.2,0,0,1024,1024,1024,1024,0,0,0,0,32.3,0,0,74,4.031,4.021,0,0,0,0,4.268,96.98,1.3123688084,1.312336,6,P-GPS,
11900,2022-08-15 23:44:20,0,0,1.312336,,,1.3123688084,1.64042,0,0,0,0,0,8.051,1.6404528084,1.64042,0,0,0,0,0,32.3, -0.2, 0,0,0,1024,1024,1024,1024,0,0,0,0,32.3,0,0,74,4.031,4.021,0,0,0,0,4.268,96.98,1.3123688084,1.312336,6,P-GPS,
12000,2022-08-15 23:44:20,0,0,1.312336,,,1.3123688084,1.64042,0,0,0,0,0,8.051,1.6404528084,1.64042,0,0,0,0,0,32.3, -0.1, 0,0,0,1024,1024,1024,1024,0,0,0,0,32.3,0,0,74,4.031,4.021,0,0,0,0,4.268,96.98,1.3123688084,1.312336,6,P-GPS,
12100,2022-08-15 23:44:20,0,0,1.64042,,,1.6404528084,1.64042,0,0,0,0,0,8.051,1.6404528084,1.64042,0,0,0,0,0,32.3, -0.1, 0.6,0,0,1024,1024,1024,1024,0,0,0,0,32.3,0,0,74,4.031,4.021,0,0,0,0,4.268,96.98,1.6404528084,1.64042,6,P-GPS,
12200,2022-08-15 23:44:20,0,0,1.64042,,,1.6404528084,1.64042,0,0,0,0,0,8.051,1.6404528084,1.64042,0,0,0,0,0,32.3, 0, 0.5,0,0,1024,1024,1024,1024,0,0,0,0,32.3,0,0,74,4.031,4.021,0,0,0,0,4.268,96.98,1.6404528084,1.64042,6,P-GPS,
12300,2022-08-15 23:44:20,0,0,1.64042,,,1.6404528084,1.64042,0,0,0,0,0,8.051,1.6404528084,1.64042,0,0,0,0,0,32.3, 0, 0.3,0,0,1024,1024,1024,1024,0,0,0,0,32.3,0,0,74,4.031,4.021,0,0,0,0,4.268,96.98,1.6404528084,1.64042,6,P-GPS,
12400,2022-08-15 23:44:20,0,0,1.64042,,,1.6404528084,1.64042,0,0,0,0,0,8.051,1.6404528084,1.64042,0,0,0,0,0,32.3, 0.1, 0.1,0,0,1024,1024,1024,1024,0,0,0,0,32.3,0,0,74,4.031,4.021,0,0,0,0,4.268,96.98,1.6404528084,1.64042,6,P-GPS,
12500,2022-08-15 23:44:20,0,0,1.64042,,,1.6404528084,1.64042,0,0,0,0,0,8.051,1.6404528084,1.64042,0,0,0,0,0,32.4, 0, -0.3,0,0,1024,1024,1024,1024,0,0,0,0,32.3,0,0,74,4.031,4.021,0,0,0,0,4.268,96.98,1.6404528084,1.64042,6,P-GPS,
12600,2022-08-15 23:44:20,0,0,1.64042,,,1.6404528084,1.64042,0,0,0,0,0,8.051,1.6404528084,1.64042,0,0,0,0,0,32.4, -0.1, -0.7,0,0,1024,1024,1024,1024,0,0,0,0,32.3,0,0,74,4.031,4.021,0,0,0,0,4.268,96.98,1.6404528084,1.64042,6,P-GPS,
12700,2022-08-15 23:44:20,0,0,1.64042,,,1.6404528084,1.64042,0,0,0,0,0,8.046,1.6404528084,1.64042,0,0,0,0,0,32.4, -0.1, -0.4,0,0,1024,1024,1024,1024,0,0,0,0,32.3,0,0,74,4.027,4.017,0,0,0,0,4.286,96.98,1.6404528084,1.64042,6,P-GPS,
12800,2022-08-15 23:44:21,0,0,1.64042,,,1.6404528084,1.64042,0,0,0,0,0,8.046,1.6404528084,1.64042,0,0,0,0,0,32.3, -0.1, -0.2,0,0,1024,1024,1024,1024,0,0,0,0,32.3,0,0,74,4.027,4.017,0,0,0,0,4.286,96.98,1.6404528084,1.64042,6,P-GPS,
12900,2022-08-15 23:44:21,0,0,1.64042,,,1.6404528084,1.64042,0,0,0,0,0,8.046,1.6404528084,1.64042,0,0,0,0,0,32.3, -0.1, 0,0,0,1024,1024,1024,1024,0,0,0,0,32.3,0,0,74,4.027,4.017,0,0,0,0,4.286,96.98,1.6404528084,1.64042,6,P-GPS,
13000,2022-08-15 23:44:21,0,0,1.64042,,,1.6404528084,1.64042,0,0,0,0,0,8.046,1.6404528084,1.64042,0,0,0,0,0,32.3, 0, 0.5,0,0,1024,1024,1024,1024,0,0,0,0,32.3,0,0,74,4.027,4.017,0,0,0,0,4.286,96.98,1.6404528084,1.64042,6,P-GPS,
13100,2022-08-15 23:44:21,0,0,1.64042,,,1.6404528084,1.64042,0,0,0,0,0,8.046,1.6404528084,1.64042,0,0,0,0,0,32.3, 0, 0.4,0,0,1024,1024,1024,1024,0,0,0,0,32.3,0,0,74,4.027,4.017,0,0,0,0,4.286,96.98,1.6404528084,1.64042,6,P-GPS,
13200,2022-08-15 23:44:21,0,0,1.64042,,,1.6404528084,1.64042,0,0,0,0,0,8.046,1.6404528084,1.64042,0,0,0,0,0,32.3, 0, 0.2,0,0,1024,1024,1024,1024,0,0,0,0,32.3,0,0,74,4.027,4.017,0,0,0,0,4.286,96.98,1.6404528084,1.64042,6,P-GPS,
13300,2022-08-15 23:44:21,0,0,1.64042,,,1.6404528084,1.64042,0,0,0,0,0,8.046,1.6404528084,1.64042,0,0,0,0,0,32.3, 0, 0,0,0,1024,1024,1024,1024,0,0,0,0,32.3,0,0,74,4.027,4.017,0,0,0,0,4.286,96.98,1.6404528084,1.64042,6,P-GPS,
13400,2022-08-15 23:44:21,0,0,1.64042,,,1.6404528084,1.64042,0,0,0,0,0,8.046,1.6404528084,1.64042,0,0,0,0,0,32.2, 0, -0.3,0,0,1024,1024,1024,1024,0,0,0,0,32.3,0,0,74,4.027,4.017,0,0,0,0,4.286,96.98,1.6404528084,1.64042,6,P-GPS,
13500,2022-08-15 23:44:21,0,0,1.64042,,,1.6404528084,1.64042,0,0,0,0,0,8.046,1.6404528084,1.64042,0,0,0,0,0,32.2, -0.2, -0.1,0,0,1024,1024,1024,1024,0,0,0,0,32.3,0,0,74,4.027,4.017,0,0,0,0,4.286,96.98,1.6404528084,1.64042,6,P-GPS,
13600,2022-08-15 23:44:21,0,0,1.64042,,,1.6404528084,1.64042,0,0,0,0,0,8.046,1.6404528084,1.64042,0,0,0,0,0,32.2, -0.5, 0,0,0,1024,1024,1024,1024,0,0,0,0,32.3,0,0,74,4.027,4.017,0,0,0,0,4.286,96.98,1.6404528084,1.64042,6,P-GPS,
13700,2022-08-15 23:44:21,0,0,1.64042,,,1.6404528084,1.64042,0,0,0,0,0,8.041,1.6404528084,1.64042,0,0,0,0,0,32.2, -0.1, 0.3,0,0,1024,1024,1024,1024,0,0,0,0,32.3,0,0,74,4.024,4.015,0,0,0,0,4.334,96.98,1.6404528084,1.64042,6,P-GPS,
13800,2022-08-15 23:44:22,0,0,1.64042,,,1.6404528084,1.64042,0,0,0,0,0,8.041,1.6404528084,1.64042,0,0,0,0,0,32.1, 0, 0.7,0,0,1024,1024,1024,1024,0,0,0,0,32.3,0,0,74,4.024,4.015,0,0,0,0,4.334,96.98,1.6404528084,1.64042,6,P-GPS,
13900,2022-08-15 23:44:22,0,0,1.64042,,,1.6404528084,1.64042,0,0,0,0,0,8.041,1.6404528084,1.64042,0,0,0,0,0,32.1, 0.1, 0.9,0,0,1024,1024,1024,1024,0,0,0,0,32.3,0,0,74,4.024,4.015,0,0,0,0,4.334,96.98,1.6404528084,1.64042,6,P-GPS,
14000,2022-08-15 23:44:22,0,0,1.64042,,,1.6404528084,1.64042,0,0,0,0,0,8.041,1.6404528084,1.64042,0,0,0,0,0,32.2, 0.1, 0.6,0,0,1024,1024,1024,1024,0,0,0,0,32.3,0,0,74,4.024,4.015,0,0,0,0,4.334,96.98,1.6404528084,1.64042,6,P-GPS,
14100,2022-08-15 23:44:22,0,0,1.64042,,,1.6404528084,1.64042,0,0,0,0,0,8.041,1.6404528084,1.64042,0,0,0,0,0,32.2, 0.1, 0.5,0,0,1024,1024,1024,1024,0,0,0,0,32.3,0,0,74,4.024,4.015,0,0,0,0,4.334,96.98,1.6404528084,1.64042,6,P-GPS,
14200,2022-08-15 23:44:22,0,0,1.64042,,,1.6404528084,1.64042,0,0,0,0,0,8.041,1.6404528084,1.64042,0,0,0,0,0,32.2, 0.1, 0.3,0,0,1024,1024,1024,1024,0,0,0,0,32.3,0,0,74,4.024,4.015,0,0,0,0,4.334,96.98,1.6404528084,1.64042,6,P-GPS,
14300,2022-08-15 23:44:22,0,0,1.64042,,,1.6404528084,1.64042,0,0,0,0,0,8.041,1.6404528084,1.64042,0,0,0,0,0,32.1, -0.1, 0.1,0,0,1024,1024,1024,1024,0,0,0,0,32.3,0,0,74,4.024,4.015,0,0,0,0,4.334,96.98,1.6404528084,1.64042,6,P-GPS,
14400,2022-08-15 23:44:22,0,0,1.64042,,,1.6404528084,1.64042,0,0,0,0,0,8.041,1.6404528084,1.64042,0,0,0,0,0,32.1, 0, 0.3,0,0,1024,1024,1024,1024,0,0,0,0,32.3,0,0,74,4.024,4.015,0,0,0,0,4.334,96.98,1.6404528084,1.64042,6,P-GPS,
14500,2022-08-15 23:44:22,0,0,1.64042,,,1.6404528084,1.64042,0,0,0,0,0,8.041,1.6404528084,1.64042,0,0,0,0,0,32.1, 0, 0.5,0,0,1024,1024,1024,1024,0,0,0,0,32.3,0,0,74,4.024,4.015,0,0,0,0,4.334,96.98,1.6404528084,1.64042,6,P-GPS,
14600,2022-08-15 23:44:22,0,0,1.968504,,,1.9685368084,1.64042,0,0,0,0,0,8.041,1.9685368084,1.968504,0,0,0,0,0,32.2, 0.1, 0.5,0,0,1024,1024,1024,1024,0,0,0,0,32.3,0,0,74,4.024,4.015,0,0,0,0,4.334,96.98,1.9685368084,1.968504,6,P-GPS,
14700,2022-08-15 23:44:22,0,0,1.968504,,,1.9685368084,1.64042,0,0,0,0,0,8.036,1.9685368084,1.968504,0,0,0,0,0,32.1, 0.2, 0.4,0,0,1024,1024,1024,1024,0,0,0,0,32.3,0,0,74,4.022,4.013,0,0,0,0,4.32,96.98,1.9685368084,1.968504,6,P-GPS,
14800,2022-08-15 23:44:23,0,0,1.968504,,,1.9685368084,1.64042,0,0,0,0,0,8.036,1.9685368084,1.968504,0,0,0,0,0,32.1, 0.2, 0.2,0,0,1024,1024,1024,1024,0,0,0,0,32.3,0,0,74,4.022,4.013,0,0,0,0,4.32,96.98,1.9685368084,1.968504,6,P-GPS,
14900,2022-08-15 23:44:23,0,0,1.968504,,,1.9685368084,1.64042,0,0,0,0,0,8.036,1.9685368084,1.968504,0,0,0,0,0,32.2, 0.1, 0,0,0,1024,1024,1024,1024,0,0,0,0,32.3,0,0,74,4.022,4.013,0,0,0,0,4.32,96.98,1.9685368084,1.968504,6,P-GPS,
15000,2022-08-15 23:44:23,0,0,1.968504,,,1.9685368084,1.64042,0,0,0,0,0,8.036,1.9685368084,1.968504,0,0,0,0,0,32.2, 0, 0,0,0,1024,1024,1024,1024,0,0,0,0,32.3,0,0,74,4.022,4.013,0,0,0,0,4.32,96.98,1.9685368084,1.968504,6,P-GPS,
15100,2022-08-15 23:44:23,0,0,1.968504,,,1.9685368084,1.64042,0,0,0,0,0,8.036,1.9685368084,1.968504,0,0,0,0,0,32.2, 0, 0.1,0,0,1024,1024,1024,1024,0,0,0,0,32.3,0,0,74,4.022,4.013,0,0,0,0,4.32,96.98,1.9685368084,1.968504,6,P-GPS,
15200,2022-08-15 23:44:23,0,0,1.968504,,,1.9685368084,1.64042,0,0,0,0,0,8.036,1.9685368084,1.968504,0,0,0,0,0,32.2, 0.2, 0.3,0,0,1024,1024,1024,1024,0,0,0,0,32.3,0,0,74,4.022,4.013,0,0,0,0,4.32,96.98,1.9685368084,1.968504,6,P-GPS,
15300,2022-08-15 23:44:23,0,0,1.968504,,,1.9685368084,1.64042,0,0,0,0,0,8.036,1.9685368084,1.968504,0,0,0,0,0,32.2, 0.3, 0.6,0,0,1024,1024,1024,1024,0,0,0,0,32.3,0,0,74,4.022,4.013,0,0,0,0,4.32,96.98,1.9685368084,1.968504,6,P-GPS,
15400,2022-08-15 23:44:23,0,0,1.968504,,,1.9685368084,1.64042,0,0,0,0,0,8.036,1.9685368084,1.968504,0,0,0,0,0,32.2, 0.3, 0.8,0,0,1024,1024,1024,1024,0,0,0,0,32.3,0,0,74,4.022,4.013,0,0,0,0,4.32,96.98,1.9685368084,1.968504,6,P-GPS,
15500,2022-08-15 23:44:23,0,0,1.968504,,,1.9685368084,1.64042,0,0,0,0,0,8.036,1.9685368084,1.968504,0,0,0,0,0,32.2, 0, 0.8,0,0,1024,1024,1024,1024,0,0,0,0,32.3,0,0,74,4.022,4.013,0,0,0,0,4.32,96.98,1.9685368084,1.968504,6,P-GPS,
15600,2022-08-15 23:44:23,0,0,1.968504,,,1.9685368084,1.64042,0,0,0,0,0,8.036,1.9685368084,1.968504,0,0,0,0,0,32.3, 0, 0.7,0,0,1024,1024,1024,1024,0,0,0,0,32.3,0,0,74,4.022,4.013,0,0,0,0,4.32,96.98,1.9685368084,1.968504,6,P-GPS,
15700,2022-08-15 23:44:24,0,0,1.968504,,,1.9685368084,1.64042,0,0,0,0,0,8.034,1.9685368084,1.968504,0,0,0,0,0,32.3, 0, 0.5,0,0,1024,1024,1024,1024,0,0,0,0,32.3,0,0,74,4.021,4.011,0,0,0,0,4.291,96.98,1.9685368084,1.968504,6,P-GPS,
15800,2022-08-15 23:44:24,0,0,1.968504,,,1.9685368084,1.64042,0,0,0,0,0,8.034,1.9685368084,1.968504,0,0,0,0,0,32.3, 0.2, 0.4,0,0,1024,1024,1024,1024,0,0,0,0,32.3,0,0,74,4.021,4.011,0,0,0,0,4.291,96.98,1.9685368084,1.968504,6,P-GPS,
15900,2022-08-15 23:44:24,0,0,1.968504,,,1.9685368084,1.64042,0,0,0,0,0,8.034,1.9685368084,1.968504,0,0,0,0,0,32.3, 0.2, 0.1,0,0,1024,1024,1024,1024,0,0,0,0,32.3,0,0,74,4.021,4.011,0,0,0,0,4.291,96.98,1.9685368084,1.968504,6,P-GPS,
16000,2022-08-15 23:44:24,0,0,1.968504,,,1.9685368084,1.64042,0,0,0,0,0,8.034,1.9685368084,1.968504,0,0,0,0,0,32.3, 0.3, 0,0,0,1024,1024,1024,1024,0,0,0,0,32.3,0,0,74,4.021,4.011,0,0,0,0,4.291,96.98,1.9685368084,1.968504,6,P-GPS,
16100,2022-08-15 23:44:24,0,0,1.968504,,,1.9685368084,1.64042,0,0,0,0,0,8.034,1.9685368084,1.968504,0,0,0,0,0,32.3, 0.2, 0.1,0,0,1024,1024,1024,1024,0,0,0,0,32.3,0,0,74,4.021,4.011,0,0,0,0,4.291,96.98,1.9685368084,1.968504,6,P-GPS,
16200,2022-08-15 23:44:24,0,0,1.968504,,,1.9685368084,1.64042,0,0,0,0,0,8.034,1.9685368084,1.968504,0,0,0,0,0,32.3, 0.2, 0,0,0,1024,1024,1024,1024,0,0,0,0,32.3,0,0,74,4.021,4.011,0,0,0,0,4.291,96.98,1.9685368084,1.968504,6,P-GPS,
16300,2022-08-15 23:44:24,0,0,1.968504,,,1.9685368084,1.64042,0,0,0,0,0,8.034,1.9685368084,1.968504,0,0,0,0,0,32.3, 0.1, 0,0,0,1024,1024,1024,1024,0,0,0,0,32.3,0,0,74,4.021,4.011,0,0,0,0,4.291,96.98,1.9685368084,1.968504,6,P-GPS,
16400,2022-08-15 23:44:24,0,0,1.968504,,,1.9685368084,1.64042,0,0,0,0,0,8.034,1.9685368084,1.968504,0,0,0,0,0,32.3, 0.2, 0,0,0,1024,1024,1024,1024,0,0,0,0,32.3,0,0,74,4.021,4.011,0,0,0,0,4.291,96.98,1.9685368084,1.968504,6,P-GPS,
16500,2022-08-15 23:44:24,0,0,1.968504,,,1.9685368084,1.64042,0,0,0,0,0,8.034,1.9685368084,1.968504,0,0,0,0,0,32.3, 0.1, -0.1,0,0,1024,1024,1024,1024,0,0,0,0,32.3,0,0,74,4.021,4.011,0,0,0,0,4.291,96.98,1.9685368084,1.968504,6,P-GPS,
16600,2022-08-15 23:44:24,0,0,1.968504,,,1.9685368084,1.64042,0,0,0,0,0,8.034,1.9685368084,1.968504,0,0,0,0,0,32.3, 0.4, 0,0,0,1024,1024,1024,1024,0,0,0,0,32.3,0,0,74,4.021,4.011,0,0,0,0,4.291,96.98,1.9685368084,1.968504,6,P-GPS,
16700,2022-08-15 23:44:25,0,0,1.968504,,,1.9685368084,1.64042,0,0,0,0,0,8.034,1.9685368084,1.968504,0,0,0,0,0,32.3, 0.4, 0.1,0,0,1024,1024,1024,1024,0,0,0,0,32.3,0,0,74,4.021,4.011,0,0,0,0,4.291,96.98,1.9685368084,1.968504,6,P-GPS,
16800,2022-08-15 23:44:25,0,0,1.968504,,,1.9685368084,1.64042,0,0,0,0,0,8.028,1.9685368084,1.968504,0,0,0,0,0,32.3, 0.1, -0.1,0,0,1024,1024,1024,1024,0,0,0,0,32.3,0,0,74,4.02,4.009,0,0,0,0,4.311,96.98,1.9685368084,1.968504,6,P-GPS,
16900,2022-08-15 23:44:25,0,0,1.968504,,,1.9685368084,1.64042,0,0,0,0,0,8.028,1.9685368084,1.968504,0,0,0,0,0,32.3, 0, -0.1,0,0,1024,1024,1024,1024,0,0,0,0,32.3,0,0,74,4.02,4.009,0,0,0,0,4.311,96.98,1.9685368084,1.968504,6,P-GPS,
17000,2022-08-15 23:44:25,0,0,1.968504,,,1.9685368084,1.64042,0,0,0,0,0,8.028,1.9685368084,1.968504,0,0,0,0,0,32.3, 0.1, 0,0,0,1024,1024,1024,1024,0,0,0,0,32.3,0,0,74,4.02,4.009,0,0,0,0,4.311,96.98,1.9685368084,1.968504,6,P-GPS,
17100,2022-08-15 23:44:25,0,0,1.968504,,,1.9685368084,1.64042,0,0,0,0,0,8.028,1.9685368084,1.968504,0,0,0,0,0,32.3, 0.2, 0.3,0,0,1024,1024,1024,1024,0,0,0,0,32.3,0,0,74,4.02,4.009,0,0,0,0,4.311,96.98,1.9685368084,1.968504,6,P-GPS,
17200,2022-08-15 23:44:25,0,0,1.968504,,,1.9685368084,1.64042,0,0,0,0,0,8.028,1.9685368084,1.968504,0,0,0,0,0,32.3, 0, 0.4,0,0,1024,1024,1024,1024,0,0,0,0,32.3,0,0,74,4.02,4.009,0,0,0,0,4.311,96.98,1.9685368084,1.968504,6,P-GPS,
17300,2022-08-15 23:44:25,0,0,1.968504,,,1.9685368084,1.64042,0,0,0,0,0,8.028,1.9685368084,1.968504,0,0,0,0,0,32.2, 0.2, 0.6,0,0,1024,1024,1024,1024,0,0,0,0,32.3,0,0,74,4.02,4.009,0,0,0,0,4.311,96.98,1.9685368084,1.968504,6,P-GPS,
17400,2022-08-15 23:44:25,0,0,1.968504,,,1.9685368084,1.64042,0,0,0,0,0,8.028,1.9685368084,1.968504,0,0,0,0,0,32.1, 0, 0.9,0,0,1024,1024,1024,1024,0,0,0,0,32.3,0,0,74,4.02,4.009,0,0,0,0,4.311,96.98,1.9685368084,1.968504,6,P-GPS,
17500,2022-08-15 23:44:25,0,0,1.968504,,,1.9685368084,1.64042,0,0,0,0,0,8.028,1.9685368084,1.968504,0,0,0,0,0,32.1, -0.1, 1.5,0,0,1024,1024,1024,1024,0,0,0,0,32.3,0,0,74,4.02,4.009,0,0,0,0,4.311,96.98,1.9685368084,1.968504,6,P-GPS,
17600,2022-08-15 23:44:25,0,0,1.968504,,,1.9685368084,1.64042,0,0,0,0,0,8.028,1.9685368084,1.968504,0,0,0,0,0,32, -0.1, 1,0,0,1024,1024,1024,1024,0,0,0,0,32.3,0,0,74,4.02,4.009,0,0,0,0,4.311,96.98,1.9685368084,1.968504,6,P-GPS,
17700,2022-08-15 23:44:25,0,0,1.968504,,,1.9685368084,1.64042,0,0,0,0,0,8.028,1.9685368084,1.968504,0,0,0,0,0,32.1, 0, 0.6,0,0,1024,1024,1024,1024,0,0,0,0,32.3,0,0,74,4.02,4.009,0,0,0,0,4.311,96.98,1.9685368084,1.968504,6,P-GPS,
17800,2022-08-15 23:44:26,0,0,1.968504,,,1.9685368084,1.64042,0,0,0,0,0,8.027,1.9685368084,1.968504,0,0,0,0,0,32.2, 0, 0.1,0,0,1024,1024,1024,1024,0,0,0,0,32.3,0,0,74,4.019,4.007,0,0,0,0,4.287,96.98,1.9685368084,1.968504,6,P-GPS,
17900,2022-08-15 23:44:26,0,0,1.968504,,,1.9685368084,1.64042,0,0,0,0,0,8.027,1.9685368084,1.968504,0,0,0,0,0,32.2, 0, 0,0,0,1024,1024,1024,1024,0,0,0,0,32.3,0,0,74,4.019,4.007,0,0,0,0,4.287,96.98,1.9685368084,1.968504,6,P-GPS,
18000,2022-08-15 23:44:26,0,0,1.968504,,,1.9685368084,1.64042,0,0,0,0,0,8.027,1.9685368084,1.968504,0,0,0,0,0,32.3, 0.1, 0,0,0,1024,1024,1024,1024,0,0,0,0,32.3,0,0,74,4.019,4.007,0,0,0,0,4.287,96.98,1.9685368084,1.968504,6,P-GPS,
18100,2022-08-15 23:44:26,0,0,1.968504,,,1.9685368084,1.64042,0,0,0,0,0,8.027,1.9685368084,1.968504,0,0,0,0,0,32.3, 0.3, 0,0,0,1024,1024,1024,1024,0,0,0,0,32.3,0,0,74,4.019,4.007,0,0,0,0,4.287,96.98,1.9685368084,1.968504,6,P-GPS,
18200,2022-08-15 23:44:26,0,0,1.968504,,,1.9685368084,1.64042,0,0,0,0,0,8.027,1.9685368084,1.968504,0,0,0,0,0,32.3, 0.2, 0.4,0,0,1024,1024,1024,1024,0,0,0,0,32.3,0,0,74,4.019,4.007,0,0,0,0,4.287,96.98,1.9685368084,1.968504,6,P-GPS,
18300,2022-08-15 23:44:26,0,0,1.968504,,,1.9685368084,1.64042,0,0,0,0,0,8.027,1.9685368084,1.968504,0,0,0,0,0,32.3, 0.1, 0.9,0,0,1024,1024,1024,1024,0,0,0,0,32.3,0,0,74,4.019,4.007,0,0,0,0,4.287,96.98,1.9685368084,1.968504,6,P-GPS,
18400,2022-08-15 23:44:26,0,0,1.968504,,,1.9685368084,1.64042,0,0,0,0,0,8.027,1.9685368084,1.968504,0,0,0,0,0,32.3, 0.1, 1.1,0,0,1024,1024,1024,1024,0,0,0,0,32.3,0,0,74,4.019,4.007,0,0,0,0,4.287,96.98,1.9685368084,1.968504,6,P-GPS,
18500,2022-08-15 23:44:26,0,0,1.968504,,,1.9685368084,1.64042,0,0,0,0,0,8.027,1.9685368084,1.968504,0,0,0,0,0,32.2, 0.1, 0.5,0,0,1024,1024,1024,1024,0,0,0,0,32.3,0,0,74,4.019,4.007,0,0,0,0,4.287,96.98,1.9685368084,1.968504,6,P-GPS,
18600,2022-08-15 23:44:26,0,0,1.968504,,,1.9685368084,1.64042,0,0,0,0,0,8.027,1.9685368084,1.968504,0,0,0,0,0,32.2, 0.1, 0.4,0,0,1024,1024,1024,1024,0,0,0,0,32.3,0,0,74,4.019,4.007,0,0,0,0,4.287,96.98,1.9685368084,1.968504,6,P-GPS,
18700,2022-08-15 23:44:26,0,0,1.968504,,,1.9685368084,1.64042,0,0,0,0,0,8.027,1.9685368084,1.968504,0,0,0,0,0,32.2, 0, 0.4,0,0,1024,1024,1024,1024,0,0,0,0,32.3,0,0,74,4.019,4.007,0,0,0,0,4.287,96.98,1.9685368084,1.968504,6,P-GPS,
18800,2022-08-15 23:44:27,0,0,1.968504,,,1.9685368084,1.64042,0,0,0,0,0,8.022,1.9685368084,1.968504,0,0,0,0,0,32.2, 0, 0.2,0,0,1024,1024,1024,1024,0,0,0,0,32.3,0,0,74,4.015,4.006,0,0,0,0,4.307,96.98,1.9685368084,1.968504,6,P-GPS,
18900,2022-08-15 23:44:27,0,0,1.968504,,,1.9685368084,1.64042,0,0,0,0,0,8.022,1.9685368084,1.968504,0,0,0,0,0,32.3, 0, -0.1,0,0,1024,1024,1024,1024,0,0,0,0,32.3,0,0,74,4.015,4.006,0,0,0,0,4.307,96.98,1.9685368084,1.968504,6,P-GPS,
19000,2022-08-15 23:44:27,0,0,1.968504,,,1.9685368084,1.64042,0,0,0,0,0,8.022,1.9685368084,1.968504,0,0,0,0,0,32.3, 0, 0.1,0,0,1024,1024,1024,1024,0,0,0,0,32.3,0,0,74,4.015,4.006,0,0,0,0,4.307,96.98,1.9685368084,1.968504,6,P-GPS,
19100,2022-08-15 23:44:27,0,0,1.64042,,,1.6404528084,1.64042,0,0,0,0,0,8.022,1.9685368084,1.968504,0,0,0,0,0,32.4, -0.1, 0.1,0,0,1024,1024,1024,1024,0,0,0,0,32.3,0,0,74,4.015,4.006,0,0,0,0,4.307,96.98,1.6404528084,1.64042,6,P-GPS,
19200,2022-08-15 23:44:27,0,0,1.64042,,,1.6404528084,1.64042,0,0,0,0,0,8.022,1.9685368084,1.968504,0,0,0,0,0,32.4, 0, 0.2,0,0,1024,1024,1024,1024,0,0,0,0,32.3,0,0,74,4.015,4.006,0,0,0,0,4.307,96.98,1.6404528084,1.64042,6,P-GPS,
19300,2022-08-15 23:44:27,0,0,1.64042,,,1.6404528084,1.64042,0,0,0,0,0,8.022,1.9685368084,1.968504,0,0,0,0,0,32.4, 0, 0.5,0,0,1024,1024,1024,1024,0,0,0,0,32.3,0,0,74,4.015,4.006,0,0,0,0,4.307,96.98,1.6404528084,1.64042,6,P-GPS,
19400,2022-08-15 23:44:27,0,0,1.64042,,,1.6404528084,1.64042,0,0,0,0,0,8.022,1.9685368084,1.968504,0,0,0,0,0,32.4, 0, 0.6,0,0,1024,1024,1024,1024,0,0,0,0,32.3,0,0,74,4.015,4.006,0,0,0,0,4.307,96.98,1.6404528084,1.64042,6,P-GPS,
19500,2022-08-15 23:44:27,0,0,1.64042,,,1.6404528084,1.64042,0,0,0,0,0,8.022,1.9685368084,1.968504,0,0,0,0,0,32.4, -0.1, 0.3,0,0,1024,1024,1024,1024,0,0,0,0,32.3,0,0,74,4.015,4.006,0,0,0,0,4.307,96.98,1.6404528084,1.64042,6,P-GPS,
19600,2022-08-15 23:44:27,0,0,1.64042,,,1.6404528084,1.64042,0,0,0,0,0,8.022,1.9685368084,1.968504,0,0,0,0,0,32.3, -0.4, 0.3,0,0,1024,1024,1024,1024,0,0,0,0,32.3,0,0,74,4.015,4.006,0,0,0,0,4.307,96.98,1.6404528084,1.64042,6,P-GPS,
19700,2022-08-15 23:44:27,0,0,1.64042,,,1.6404528084,1.64042,0,0,0,0,0,8.022,1.9685368084,1.968504,0,0,0,0,0,32.3, -0.5, 0.2,0,0,1024,1024,1024,1024,0,0,0,0,32.3,0,0,74,4.015,4.006,0,0,0,0,4.307,96.98,1.6404528084,1.64042,6,P-GPS,
19800,2022-08-15 23:44:28,0,0,1.64042,,,1.6404528084,1.64042,0,0,0,0,0,8.02,1.9685368084,1.968504,0,0,0,0,0,32.3, -0.2, 0.4,0,0,1024,1024,1024,1024,0,0,0,0,32.3,0,0,74,4.014,4.004,0,0,0,0,4.279,97.16,1.6404528084,1.64042,6,P-GPS,
19900,2022-08-15 23:44:28,0,0,1.64042,,,1.6404528084,1.64042,0,0,0,0,0,8.02,1.9685368084,1.968504,0,0,0,0,0,32.3, -0.3, 0.5,0,0,1024,1024,1024,1024,0,0,0,0,32.3,0,0,74,4.014,4.004,0,0,0,0,4.279,97.16,1.6404528084,1.64042,6,P-GPS,
20000,2022-08-15 23:44:28,0,0,1.64042,,,1.6404528084,1.64042,0,0,0,0,0,8.02,1.9685368084,1.968504,0,0,0,0,0,32.4, -0.3, 0.2,0,0,1024,1024,1024,1024,0,0,0,0,32.3,0,0,74,4.014,4.004,0,0,0,0,4.279,97.16,1.6404528084,1.64042,6,P-GPS,
20100,2022-08-15 23:44:28,0,0,1.64042,,,1.6404528084,1.64042,0,0,0,0,0,8.02,1.9685368084,1.968504,0,0,0,0,0,32.3, -0.3, -0.1,0,0,1024,1024,1024,1024,0,0,0,0,32.3,0,0,74,4.014,4.004,0,0,0,0,4.279,97.16,1.6404528084,1.64042,6,P-GPS,
20200,2022-08-15 23:44:28,0,0,1.64042,,,1.6404528084,1.64042,0,0,0,0,0,8.02,1.9685368084,1.968504,0,0,0,0,0,32.2, -0.3, 0,0,0,1024,1024,1024,1024,0,0,0,0,32.3,0,0,74,4.014,4.004,0,0,0,0,4.279,97.16,1.6404528084,1.64042,6,P-GPS,
20300,2022-08-15 23:44:28,0,0,1.64042,,,1.6404528084,1.64042,0,0,0,0,0,8.02,1.9685368084,1.968504,0,0,0,0,0,32.2, -0.4, 0.3,0,0,1024,1024,1024,1049,0,0,0,4,32.3,0,0,74,4.014,4.004,0,0,0,0,4.279,97.16,1.6404528084,1.64042,6,P-GPS,
20400,2022-08-15 23:44:28,0,0,1.64042,,,1.6404528084,1.64042,0,0,0,0,0,8.02,1.9685368084,1.968504,0,0,0,0,0,32.2, -0.4, 0.4,0,0,1024,1024,1024,1517,0,0,0,75,32.3,0,0,74,4.014,4.004,0,0,0,0,4.279,97.16,1.6404528084,1.64042,6,P-GPS,
20500,2022-08-15 23:44:28,0,0,1.64042,,,1.6404528084,1.64042,0,0,0,0,0,8.02,1.9685368084,1.968504,0,0,0,0,0,32.2, -0.2, 0.5,0,0,1024,1024,1024,1684,0,0,0,100,32.4,0,0,74,4.014,4.004,0,0,0,0,4.279,97.16,1.6404528084,1.64042,6,P-GPS,
20600,2022-08-15 23:44:28,0,0,1.64042,,,1.6404528084,1.64042,0,0,0,0,0,8.02,1.9685368084,1.968504,0,0,0,0,0,32.7, -0.2, 0.4,0,0,1024,1024,1024,1684,0,0,0,100,34,0,0,74,4.014,4.004,0,0,0,0,4.279,97.16,1.6404528084,1.64042,6,P-GPS,
20700,2022-08-15 23:44:28,0,0,1.64042,,,1.6404528084,1.64042,0,0,0,0,0,8.02,1.9685368084,1.968504,0,0,0,0,0,35.4, -0.2, 0.4,0,0,1024,1024,1024,1684,0,0,0,100,38,0,0,74,4.014,4.004,0,0,0,0,4.279,97.16,1.6404528084,1.64042,6,P-GPS,
20800,2022-08-15 23:44:29,0,0,1.64042,,,1.6404528084,1.64042,0,0,0,0,0,8.015,1.9685368084,1.968504,0,0,0,0,0,39.8, -0.1, 0.5,0,0,1024,1024,1024,1315,0,0,0,44,42.7,0,0,74,4.012,4.003,0,0,0,0,4.311,97.16,1.6404528084,1.64042,6,P-GPS,
20900,2022-08-15 23:44:29,0,0,1.312336,,,1.3123688084,1.64042,0,0,0,0,0,8.015,1.9685368084,1.968504,0,0,0,0,0,44.2, 0, 0.4,0,0,1024,1024,1024,1684,0,0,0,100,46.4,0,0,74,4.012,4.003,0,0,0,0,4.311,97.16,1.3123688084,1.312336,6,P-GPS,
21100,2022-08-15 23:44:29,0,0,1.312336,,,1.3123688084,1.64042,0,0,0,0,0,8.015,1.9685368084,1.968504,0,0,0,0,0,47.7, -0.2, 0,0,0,1024,1024,1024,1684,0,0,0,100,49.3,0,0,74,4.012,4.003,0,0,0,0,4.311,97.16,1.3123688084,1.312336,6,P-GPS,
21200,2022-08-15 23:44:29,0,0,1.312336,,,1.3123688084,1.64042,0,0,0,0,0,8.015,1.9685368084,1.968504,0,0,0,0,0,50.4, -0.2, -0.1,0,0,1024,1024,1024,1684,0,0,0,100,53.2,0,0,74,4.012,4.003,0,0,0,0,4.311,97.16,1.3123688084,1.312336,6,P-GPS,
21300,2022-08-15 23:44:29,0,0,1.312336,,,1.3123688084,1.64042,0,0,0,0,0,8.015,1.9685368084,1.968504,0,0,0,0,0,54.9, 0, 0.3,0,0,1024,1024,1024,1684,0,0,0,100,57.9,0,0,74,4.012,4.003,0,0,0,0,4.311,97.16,1.3123688084,1.312336,6,P-GPS,
21400,2022-08-15 23:44:29,0,0,1.312336,,,1.3123688084,1.64042,0,0,0,0,0,8.015,1.9685368084,1.968504,0,0,0,0,0,59.6, -0.5, 0.6,0,0,1024,1024,1024,1684,0,0,0,100,62.8,0,0,74,4.012,4.003,0,0,0,0,4.311,97.16,1.3123688084,1.312336,6,P-GPS,
21500,2022-08-15 23:44:29,0,0,1.312336,,,1.3123688084,1.64042,0,0,0,0,0,8.015,1.9685368084,1.968504,0,0,0,0,0,64.3, -0.7, 0.6,0,0,1024,1024,1024,1684,0,0,0,100,67.5,0,0,74,4.012,4.003,0,0,0,0,4.311,97.16,1.3123688084,1.312336,6,P-GPS,
21600,2022-08-15 23:44:29,0,0,1.312336,,,1.3123688084,1.64042,0,0,0,0,0,8.015,1.9685368084,1.968504,0,0,0,0,0,69, -0.7, 0.5,0,0,1024,1024,1024,1684,0,0,0,100,72.3,0,0,74,4.012,4.003,0,0,0,0,4.311,97.16,1.3123688084,1.312336,6,P-GPS,
21700,2022-08-15 23:44:30,0,0,1.312336,,,1.3123688084,1.64042,0,0,0,0,0,8.015,1.9685368084,1.968504,0,0,0,0,0,73.9, -0.3, 0.3,0,0,1024,1024,1024,1684,0,0,0,100,77.1,0,0,74,4.012,4.003,0,0,0,0,4.311,97.16,1.3123688084,1.312336,6,P-GPS,
21800,2022-08-15 23:44:30,0,0,1.312336,,,1.3123688084,1.64042,0,0,0,0,0,8.015,1.9685368084,1.968504,0,0,0,0,0,78.7, -0.2, 0.5,0,0,1024,1024,1024,1684,0,0,0,100,81.9,0,0,74,4.012,4.003,0,0,0,0,4.311,97.16,1.3123688084,1.312336,6,P-GPS,
21900,2022-08-15 23:44:30,0,0,1.312336,,,1.3123688084,1.64042,0,0,0,0,0,8.012,1.9685368084,1.968504,0,0,0,0,0,83.5, -0.1, 0.6,0,0,1024,1024,1024,1684,0,0,0,100,86.7,0,0,74,4.011,4.001,0,0,0,0,4.305,97.16,1.3123688084,1.312336,6,P-GPS,
22000,2022-08-15 23:44:30,0,0,1.312336,,,1.3123688084,1.64042,0,0,0,0,0,8.012,1.9685368084,1.968504,0,0,0,0,0,88.4, -0.2, 0.7,0,0,1024,1024,1024,1684,0,0,0,100,91.6,0,0,74,4.011,4.001,0,0,0,0,4.305,97.16,1.3123688084,1.312336,6,P-GPS,
22100,2022-08-15 23:44:30,0,0,1.312336,,,1.3123688084,1.64042,0,0,0,0,0,8.012,1.9685368084,1.968504,0,0,0,0,0,93.1, -0.2, 0.5,0,0,1024,1024,1024,1684,0,0,0,100,96.3,0,0,74,4.011,4.001,0,0,0,0,4.305,97.16,1.3123688084,1.312336,6,P-GPS,
22200,2022-08-15 23:44:30,0,0,1.312336,,,1.3123688084,1.64042,0,0,0,0,0,8.012,1.9685368084,1.968504,0,0,0,0,0,97.9, -0.3, 0.3,0,0,1024,1024,1024,1684,0,0,0,100,101.1,0,0,74,4.011,4.001,0,0,0,0,4.305,97.16,1.3123688084,1.312336,6,P-GPS,
22300,2022-08-15 23:44:30,0,0,1.312336,,,1.3123688084,1.64042,0,0,0,0,0,8.012,1.9685368084,1.968504,0,0,0,0,0,102.7, -0.4, 0.3,0,0,1024,1024,1024,1684,0,0,0,100,106,0,0,74,4.011,4.001,0,0,0,0,4.305,97.16,1.3123688084,1.312336,6,P-GPS,
22400,2022-08-15 23:44:30,0,0,1.312336,,,1.3123688084,1.64042,0,0,0,0,0,8.012,1.9685368084,1.968504,0,0,0,0,0,107.5, -0.4, 0,0,0,1024,1024,1024,1482,0,0,0,69,110.7,0,0,74,4.011,4.001,0,0,0,0,4.305,97.16,1.3123688084,1.312336,6,P-GPS,
22500,2022-08-15 23:44:30,0,0,1.312336,,,1.3123688084,1.64042,0,0,0,0,0,8.012,1.9685368084,1.968504,0,0,0,0,0,112.3, -0.2, 0,0,0,1024,1024,1024,1024,0,0,0,0,115.5,0,0,74,4.011,4.001,0,0,0,0,4.305,97.16,1.3123688084,1.312336,6,P-GPS,
22600,2022-08-15 23:44:30,0,0,1.312336,,,1.3123688084,1.64042,0,0,0,0,0,8.012,1.9685368084,1.968504,0,0,0,0,0,116.7, -0.2, -0.2,0,0,1024,1024,1024,1024,0,0,0,0,118.8,0,0,74,4.011,4.001,0,0,0,0,4.305,97.16,1.3123688084,1.312336,6,P-GPS,
22700,2022-08-15 23:44:30,0,0,1.312336,,,1.3123688084,1.64042,0,0,0,0,0,8.012,1.9685368084,1.968504,0,0,0,0,0,119, 0, -0.6,0,0,1024,1024,1024,1024,0,0,0,0,120.3,0,0,74,4.011,4.001,0,0,0,0,4.305,97.16,1.3123688084,1.312336,6,P-GPS,
22800,2022-08-15 23:44:31,0,0,1.312336,,,1.3123688084,1.64042,0,0,0,0,0,8.012,1.9685368084,1.968504,0,0,0,0,0,120.1, 0, -0.5,0,0,1024,1024,1024,1024,0,0,0,0,120.5,0,0,74,4.011,4.001,0,0,0,0,4.305,97.16,1.3123688084,1.312336,6,P-GPS,
22900,2022-08-15 23:44:31,0,0,1.312336,,,1.3123688084,1.64042,0,0,0,0,0,8.011,1.9685368084,1.968504,0,0,0,0,0,120.2, 0.1, -0.5,0,0,1024,1024,1024,1024,0,0,0,0,120.5,0,0,74,4.009,3.999,0,0,0,0,4.28,97.16,1.3123688084,1.312336,6,P-GPS,
23000,2022-08-15 23:44:31,0,0,1.312336,,,1.3123688084,1.64042,0,0,0,0,0,8.011,1.9685368084,1.968504,0,0,0,0,0,120.3, 0.1, -0.6,0,0,1024,1024,1024,1024,0,0,0,0,120.5,0,0,74,4.009,3.999,0,0,0,0,4.28,97.16,1.3123688084,1.312336,6,P-GPS,
23100,2022-08-15 23:44:31,0,0,1.312336,,,1.3123688084,1.64042,0,0,0,0,0,8.011,1.9685368084,1.968504,0,0,0,0,0,120.4, 0.2, -0.3,0,0,1024,1024,1024,1024,0,0,0,0,120.5,0,0,74,4.009,3.999,0,0,0,0,4.28,97.16,1.3123688084,1.312336,6,P-GPS,
23200,2022-08-15 23:44:31,0,0,1.312336,,,1.3123688084,1.64042,0,0,0,0,0,8.011,1.9685368084,1.968504,0,0,0,0,0,120.5, 0, 0.1,0,0,1024,1024,1024,1024,0,0,0,0,120.5,0,0,74,4.009,3.999,0,0,0,0,4.28,97.16,1.3123688084,1.312336,6,P-GPS,
23300,2022-08-15 23:44:31,0,0,1.64042,,,1.6404528084,1.64042,0,0,0,0,0,8.011,1.9685368084,1.968504,0,0,0,0,0,120.5, -0.3, 0.3,0,0,1024,1024,1024,1024,0,0,0,0,120.5,0,0,74,4.009,3.999,0,0,0,0,4.28,97.16,1.6404528084,1.64042,6,P-GPS,
23400,2022-08-15 23:44:31,0,0,1.64042,,,1.6404528084,1.64042,0,0,0,0,0,8.011,1.9685368084,1.968504,0,0,0,0,0,120.6, -0.3, -0.1,0,0,1024,1024,1024,1024,0,0,0,0,120.5,0,0,74,4.009,3.999,0,0,0,0,4.28,97.16,1.6404528084,1.64042,6,P-GPS,
23500,2022-08-15 23:44:31,0,0,1.64042,,,1.6404528084,1.64042,0,0,0,0,0,8.011,1.9685368084,1.968504,0,0,0,0,0,120.6, -0.2, -0.5,0,0,1024,1024,1024,1024,0,0,0,0,120.5,0,0,74,4.009,3.999,0,0,0,0,4.28,97.16,1.6404528084,1.64042,6,P-GPS,
23600,2022-08-15 23:44:31,0,0,1.64042,,,1.6404528084,1.64042,0,0,0,0,0,8.011,1.9685368084,1.968504,0,0,0,0,0,120.5, 0, -0.5,0,0,1024,1024,1024,1024,0,0,0,0,120.5,0,0,74,4.009,3.999,0,0,0,0,4.28,97.16,1.6404528084,1.64042,6,P-GPS,
23700,2022-08-15 23:44:31,0,0,1.64042,,,1.6404528084,1.64042,0,0,0,0,0,8.011,1.9685368084,1.968504,0,0,0,0,0,120.5, 0, -0.4,0,0,1024,1024,1024,1024,0,0,0,0,120.5,0,0,74,4.009,3.999,0,0,0,0,4.28,97.16,1.6404528084,1.64042,6,P-GPS,
23800,2022-08-15 23:44:32,0,0,1.64042,,,1.6404528084,1.64042,0,0,0,0,0,8.011,1.9685368084,1.968504,0,0,0,0,0,120.5, -0.1, -0.2,0,0,1024,1024,1024,1024,0,0,0,0,120.5,0,0,74,4.009,3.999,0,0,0,0,4.28,97.16,1.6404528084,1.64042,6,P-GPS,
23900,2022-08-15 23:44:32,0,0,1.64042,,,1.6404528084,1.64042,0,0,0,0,0,8.008,1.9685368084,1.968504,0,0,0,0,0,120.5, 0, -0.2,0,0,1024,1024,1024,1024,0,0,0,0,120.5,0,0,74,4.008,3.998,0,0,0,0,4.311,97.34,1.6404528084,1.64042,6,P-GPS,
24000,2022-08-15 23:44:32,0,0,1.64042,,,1.6404528084,1.64042,0,0,0,0,0,8.008,1.9685368084,1.968504,0,0,0,0,0,120.5, 0, -0.2,0,0,1024,1024,1024,1024,0,0,0,0,120.5,0,0,74,4.008,3.998,0,0,0,0,4.311,97.34,1.6404528084,1.64042,6,P-GPS,
24100,2022-08-15 23:44:32,0,0,1.64042,,,1.6404528084,1.64042,0,0,0,0,0,8.008,1.9685368084,1.968504,0,0,0,0,0,120.4, 0.2, -0.7,0,0,1024,1024,1024,1024,0,0,0,0,120.5,0,0,74,4.008,3.998,0,0,0,0,4.311,97.34,1.6404528084,1.64042,6,P-GPS,
24200,2022-08-15 23:44:32,0,0,1.64042,,,1.6404528084,1.64042,0,0,0,0,0,8.008,1.9685368084,1.968504,0,0,0,0,0,120.5, 0.3, -0.6,0,0,1024,1024,1024,1024,0,0,0,0,120.5,0,0,74,4.008,3.998,0,0,0,0,4.311,97.34,1.6404528084,1.64042,6,P-GPS,
24300,2022-08-15 23:44:32,0,0,1.64042,,,1.6404528084,1.64042,0,0,0,0,0,8.008,1.9685368084,1.968504,0,0,0,0,0,120.5, 0.3, -0.2,0,0,1024,1024,1024,1024,0,0,0,0,120.5,0,0,74,4.008,3.998,0,0,0,0,4.311,97.34,1.6404528084,1.64042,6,P-GPS,
24400,2022-08-15 23:44:32,0,0,1.64042,,,1.6404528084,1.64042,0,0,0,0,0,8.008,1.9685368084,1.968504,0,0,0,0,0,120.4, 0.4, -0.3,0,0,1024,1024,1024,1024,0,0,0,0,120.5,0,0,74,4.008,3.998,0,0,0,0,4.311,97.34,1.6404528084,1.64042,6,P-GPS,
24500,2022-08-15 23:44:32,0,0,1.968504,,,1.9685368084,1.64042,0,0,0,0,0,8.008,1.9685368084,1.968504,0,0,0,0,0,120.4, 0.4, -0.3,0,0,1024,1024,1024,1024,0,0,0,0,120.5,0,0,74,4.008,3.998,0,0,0,0,4.311,97.34,1.9685368084,1.968504,6,P-GPS,
24600,2022-08-15 23:44:32,0,0,1.968504,,,1.9685368084,1.64042,0,0,0,0,0,8.008,1.9685368084,1.968504,0,0,0,0,0,120.4, 0.2, -0.2,0,0,1024,1024,1024,1024,0,0,0,0,120.5,0,0,74,4.008,3.998,0,0,0,0,4.311,97.34,1.9685368084,1.968504,6,P-GPS,
24700,2022-08-15 23:44:32,0,0,1.968504,,,1.9685368084,1.64042,0,0,0,0,0,8.008,1.9685368084,1.968504,0,0,0,0,0,120.5, 0.1, -0.1,0,0,1024,1024,1024,1024,0,0,0,0,120.5,0,0,74,4.008,3.998,0,0,0,0,4.311,97.34,1.9685368084,1.968504,6,P-GPS,
24800,2022-08-15 23:44:33,0,0,1.968504,,,1.9685368084,1.64042,0,0,0,0,0,8.008,1.9685368084,1.968504,0,0,0,0,0,120.5, 0, -0.1,0,0,1024,1024,1024,1024,0,0,0,0,120.5,0,0,74,4.008,3.998,0,0,0,0,4.311,97.34,1.9685368084,1.968504,6,P-GPS,
24900,2022-08-15 23:44:33,0,0,1.968504,,,1.9685368084,1.64042,0,0,0,0,0,8.003,1.9685368084,1.968504,0,0,0,0,0,120.5, 0, -0.4,0,0,1024,1024,1024,1024,0,0,0,0,120.5,0,0,74,4.007,3.997,0,0,0,0,4.347,97.34,1.9685368084,1.968504,6,P-GPS,
25000,2022-08-15 23:44:33,0,0,1.968504,,,1.9685368084,1.64042,0,0,0,0,0,8.003,1.9685368084,1.968504,0,0,0,0,0,120.5, 0, -0.5,0,0,1024,1024,1024,1024,0,0,0,0,120.5,0,0,74,4.007,3.997,0,0,0,0,4.347,97.34,1.9685368084,1.968504,6,P-GPS,
25100,2022-08-15 23:44:33,0,0,1.968504,,,1.9685368084,1.64042,0,0,0,0,0,8.003,1.9685368084,1.968504,0,0,0,0,0,120.5, 0, -0.5,0,0,1024,1024,1024,1024,0,0,0,0,120.5,0,0,74,4.007,3.997,0,0,0,0,4.347,97.34,1.9685368084,1.968504,6,P-GPS,
25200,2022-08-15 23:44:33,0,0,1.968504,,,1.9685368084,1.64042,0,0,0,0,0,8.003,1.9685368084,1.968504,0,0,0,0,0,120.5, 0.1, -0.4,0,0,1024,1024,1024,1024,0,0,0,0,120.5,0,0,74,4.007,3.997,0,0,0,0,4.347,97.34,1.9685368084,1.968504,6,P-GPS,
25300,2022-08-15 23:44:33,0,0,1.968504,,,1.9685368084,1.64042,0,0,0,0,0,8.003,1.9685368084,1.968504,0,0,0,0,0,120.5, 0.2, -0.3,0,0,1024,1024,1024,1024,0,0,0,0,120.5,0,0,74,4.007,3.997,0,0,0,0,4.347,97.34,1.9685368084,1.968504,6,P-GPS,
25400,2022-08-15 23:44:33,0,0,1.968504,,,1.9685368084,1.64042,0,0,0,0,0,8.003,1.9685368084,1.968504,0,0,0,0,0,120.4, 0.2, -0.2,0,0,1024,1024,1024,1024,0,0,0,0,120.5,0,0,74,4.007,3.997,0,0,0,0,4.347,97.34,1.9685368084,1.968504,6,P-GPS,
25500,2022-08-15 23:44:33,0,0,1.968504,,,1.9685368084,1.64042,0,0,0,0,0,8.003,1.9685368084,1.968504,0,0,0,0,0,120.3, 0.4, -0.1,0,0,1024,1024,1024,1024,0,0,0,0,120.5,0,0,74,4.007,3.997,0,0,0,0,4.347,97.34,1.9685368084,1.968504,6,P-GPS,
25600,2022-08-15 23:44:33,0,0,1.968504,,,1.9685368084,1.64042,0,0,0,0,0,8.003,1.9685368084,1.968504,0,0,0,0,0,120.4, 0.4, -0.1,0,0,1024,1024,1024,1024,0,0,0,0,120.5,0,0,74,4.007,3.997,0,0,0,0,4.347,97.34,1.9685368084,1.968504,6,P-GPS,
25700,2022-08-15 23:44:33,0,0,1.968504,,,1.9685368084,1.64042,0,0,0,0,0,8.003,1.9685368084,1.968504,0,0,0,0,0,120.4, 0.2, 0,0,0,1024,1024,1024,1024,0,0,0,0,120.5,0,0,74,4.007,3.997,0,0,0,0,4.347,97.34,1.9685368084,1.968504,6,P-GPS,
