time(millisecond),datetime(utc),latitude,longitude,height_above_takeoff(feet),height_above_ground_at_drone_location(feet),ground_elevation_at_drone_location(feet),altitude_above_seaLevel(feet),height_sonar(feet),speed(mph),distance(feet),mileage(feet),satellites,gpslevel,voltage(v),max_altitude(feet),max_ascent(feet),max_speed(mph),max_distance(feet), xSpeed(mph), ySpeed(mph), zSpeed(mph), compass_heading(degrees), pitch(degrees), roll(degrees),isPhoto,isVideo,rc_elevator,rc_aileron,rc_throttle,rc_rudder,rc_elevator(percent),rc_aileron(percent),rc_throttle(percent),rc_rudder(percent),gimbal_heading(degrees),gimbal_pitch(degrees),gimbal_roll(degrees),battery_percent,voltageCell1,voltageCell2,voltageCell3,voltageCell4,voltageCell5,voltageCell6,current(A),battery_temperature(f),altitude(feet),ascent(feet),flycStateRaw,flycState,message
36800,2022-09-03 19:00:12,-34.8658268261355,-55.2575221090116,0,0,438.86516496232,438.86516496232,0,0,0,0,12,3,0,438.86516496232,0,0,0,0.447388,0,0,75.7, -14.1, -2.4,0,0,364,364,364,1684,-100,-100,-100,100,99,0,0,65,3.972,3.967,0,0,0,0,0,79.34,438.86516496232,0,41,Motors_Started,
36900,2022-09-03 19:00:12,-34.8658269213148,-55.2575218336637,0,0,438.86516496232,438.86516496232,0,0,0.089443572416,0.089443572416,12,3,0,438.86516496232,0,0,0.089443572416,0.447388,0,0,75.1, -13, -1.3,0,0,364,364,364,1684,-100,-100,-100,100,96.8,0,0,65,3.972,3.967,0,0,0,0,0,79.34,438.86516496232,0,41,Motors_Started,
37000,2022-09-03 19:00:13,-34.8658269681879,-55.2575215732254,0,0,438.86516496232,438.86516496232,0.328084,0.447388,0.168556763924,0.169260832188,13,3,7.937,438.86516496232,0,0.447388,0.168556763924,0.447388,0,0,73.7, -12.8, -0.5,0,0,364,364,364,1684,-100,-100,-100,100,95.1,0,0,65,3.972,3.967,0,0,0,0,0.62,79.34,438.86516496232,0,41,Motors_Started,
37100,2022-09-03 19:00:13,-34.8658281012983,-55.2575205521871,0,0.03280839999997,438.83235656232,438.86516496232,0.328084,0.671082,0.65852036228,0.683398972,13,3,7.937,438.86516496232,0,0.671082,0.65852036228,0.671082,0,0,68.1, -12.8, 0.7,0,0,364,364,364,1684,-100,-100,-100,100,91.9,0,0,65,3.972,3.967,0,0,0,0,0.62,79.34,438.86516496232,0,41,Motors_Started,
37200,2022-09-03 19:00:13,-34.8658281625539,-55.2575204130306,0,-0.03280839999997,438.89797336232,438.86516496232,0.328084,0.447388,0.70392390704,0.73067259556,12,3,7.937,438.86516496232,0,0.671082,0.70392390704,0.447388,0,0,59.6, -9.7, 1.7,0,0,364,364,364,1684,-100,-100,-100,100,84.6,0,0,65,3.972,3.967,0,0,0,0,0.62,79.34,438.86516496232,0,41,Motors_Started,"Setting new Return-To-Home altitude to 60m (197 ft). Data Recorder File Index is 51. Setting new Maximum Flight Altitude to 120m (394 ft)"
37300,2022-09-03 19:00:13,-34.8658279329824,-55.2575202666071,0,-0.03280839999997,438.89797336232,438.86516496232,0.328084,0.4921268,0.68357285652,0.82520671932,12,3,7.937,438.86516496232,0,0.671082,0.70392390704,0.447388,-0.223694,0,55.6, -10, 1.5,0,0,364,364,364,1684,-100,-100,-100,100,78.8,0,0,65,3.972,3.967,0,0,0,0,0.62,79.34,438.86516496232,0,41,Motors_Started,
37400,2022-09-03 19:00:13,-34.8658277354847,-55.2575201413161,0,-0.03280839999997,438.89797336232,438.86516496232,0.328084,0.223694,0.6760498904,0.90644031772,11,3,7.937,438.86516496232,0,0.671082,0.70392390704,0.223694,0,0,51.7, -9.3, 1.8,0,0,364,364,364,1684,-100,-100,-100,100,74.7,0,0,65,3.972,3.967,0,0,0,0,0.62,79.34,438.86516496232,0,41,Motors_Started,
37500,2022-09-03 19:00:13,-34.8658275641984,-55.2575196650432,0,-0.03280839999997,438.89797336232,438.86516496232,0.328084,0.223694,0.77959976248,1.06210961404,11,3,7.937,438.86516496232,0,0.671082,0.77959976248,0.223694,0,0,48.4, -9.8, 2.3,0,0,364,364,364,1684,-100,-100,-100,100,71.7,0,0,65,3.972,3.967,0,0,0,0,0.62,79.34,438.86516496232,0,41,Motors_Started,
37600,2022-09-03 19:00:13,-34.8658275090137,-55.2575194830371,0,-0.098425200000004,438.96359016232,438.86516496232,0.328084,0,0.824639134,1.12019688624,13,3,7.937,438.86516496232,0,0.671082,0.824639134,0,0,0,43.7, -8.6, 2.9,0,0,364,364,364,1684,-100,-100,-100,100,67.7,0,0,65,3.972,3.967,0,0,0,0,0.62,79.34,438.86516496232,0,41,Motors_Started,
37700,2022-09-03 19:00:13,-34.8658276307692,-55.2575192632349,0,-0.098425200000004,438.96359016232,438.86516496232,0.328084,0,0.9010663018,1.19958665256,13,3,7.937,438.86516496232,0,0.671082,0.9010663018,0,0,0,39.5, -9.1, 3.2,0,0,364,364,364,1684,-100,-100,-100,100,63.1,0,0,65,3.972,3.967,0,0,0,0,0.62,79.34,438.86516496232,0,41,Motors_Started,
37800,2022-09-03 19:00:13,-34.8658277094817,-55.2575190889551,0,-0.098425200000004,438.96359016232,438.86516496232,0.328084,0,0.95979989948,1.25914046024,13,3,7.937,438.86516496232,0,0.671082,0.95979989948,0,0,0,34.1, -8.6, 3.2,0,0,364,364,364,1684,-100,-100,-100,100,58,0,0,65,3.972,3.967,0,0,0,0,0.62,79.34,438.86516496232,0,41,Motors_Started,
37900,2022-09-03 19:00:13,-34.8658282603648,-55.2575190253907,0,-0.098425200000004,438.96359016232,438.86516496232,0.328084,0.223694,1.06110239616,1.46103023048,13,3,7.937,438.86516496232,0,0.671082,1.06110239616,0,-0.223694,0,29.4, -6.1, 2.8,0,0,364,364,364,1684,-100,-100,-100,100,52.8,0,0,65,3.972,3.967,0,0,0,0,0.62,79.34,438.86516496232,0,10,Assisted_Takeoff,
38000,2022-09-03 19:00:14,-34.8658283733657,-55.2575190617669,0,-0.098425200000004,438.96359016232,438.86516496232,0.328084,0.223694,1.072752659,1.50367130796,13,3,7.906,438.86516496232,0,0.671082,1.072752659,0,-0.223694,0,26, -5, 2,0,0,457,368,364,1684,-86,-99,-100,100,48.8,0,0,65,3.952,3.946,0,0,0,0,1.105,79.34,438.86516496232,0,10,Assisted_Takeoff,
38100,2022-09-03 19:00:14,-34.8658282386869,-55.2575195518219,0,-0.03280839999997,438.89797336232,438.86516496232,0.328084,0.447388,0.92282811352,1.658382599,13,3,7.906,438.86516496232,0,0.671082,1.072752659,0,-0.447388,0,21.3, -2.9, 1.8,0,0,581,629,522,1583,-67,-60,-76,85,44.4,0,0,65,3.952,3.946,0,0,0,0,1.105,79.34,438.86516496232,0,10,Assisted_Takeoff,
38200,2022-09-03 19:00:14,-34.8658281047637,-55.2575200488513,0,-0.03280839999997,438.89797336232,438.86516496232,0.328084,0.447388,0.77328742632,1.81499021556,13,4,7.906,438.86516496232,0,0.671082,1.072752659,0,-0.447388,0,15.8, -2.1, 2.2,0,0,1024,1024,1024,1024,0,0,0,0,38.8,0,0,65,3.952,3.946,0,0,0,0,1.105,79.34,438.86516496232,0,10,Assisted_Takeoff,
38300,2022-09-03 19:00:14,-34.8658276974442,-55.2575207347779,0,0.03280839999997,438.83235656232,438.86516496232,0.328084,0.447388,0.51990159144,2.06846135228,13,4,7.906,438.86516496232,0,0.671082,1.072752659,0,-0.447388,-0.223694,13.4, -1.7, 2.1,0,0,1024,1024,1024,1024,0,0,0,0,35.9,0,0,65,3.952,3.946,0,0,0,0,1.105,79.34,438.86516496232,0,10,Assisted_Takeoff,
38400,2022-09-03 19:00:14,-34.8658263896083,-55.2575226588721,0,-0.03280839999997,438.89797336232,438.86516496232,0.328084,0.223694,0.229042330164,2.81642397464,14,4,7.906,438.86516496232,0,0.671082,1.072752659,0,-0.223694,-0.223694,10.2, -0.9, 2.2,0,0,1024,1024,1024,1024,0,0,0,0,33.1,0,0,65,3.952,3.946,0,0,0,0,1.105,79.34,438.86516496232,0,10,Assisted_Takeoff,
38500,2022-09-03 19:00:14,-34.8658263823129,-55.2575232112802,0,-0.03280839999997,438.89797336232,438.86516496232,0.328084,0.223694,0.36756234772,2.98181439988,14,4,7.906,438.86516496232,0,0.671082,1.072752659,0,-0.223694,0,6.8, 0.3, 2.8,0,0,1024,1024,1024,1024,0,0,0,0,29.8,0,0,65,3.952,3.946,0,0,0,0,1.105,79.34,438.86516496232,0,10,Assisted_Takeoff,
38600,2022-09-03 19:00:14,-34.865826396565,-55.2575237482776,0,0.03280839999997,438.83235656232,438.86516496232,0.328084,0.223694,0.51514437344,3.1426510192,13,4,7.906,438.86516496232,0,0.671082,1.072752659,0,-0.223694,0,5.4, 1.7, 1.4,0,0,1024,1024,1024,1024,0,0,0,0,27.9,0,0,65,3.952,3.946,0,0,0,0,1.105,79.34,438.86516496232,0,10,Assisted_Takeoff,
38700,2022-09-03 19:00:14,-34.8658262750701,-55.2575243388994,0,0.03280839999997,438.83235656232,438.86516496232,0.328084,0,0.69715225328,3.3249344896,13,4,7.906,438.86516496232,0,0.671082,1.072752659,0,0,0,4.1, 2, 1.8,0,0,1024,1024,1024,1024,0,0,0,0,26.6,0,0,65,3.952,3.946,0,0,0,0,1.105,79.34,438.86516496232,0,10,Assisted_Takeoff,
38800,2022-09-03 19:00:14,-34.8658260367961,-55.2575253977339,0,0.065616800000034,438.79954816232,438.86516496232,0.328084,0,1.02575790684,3.6536090408,13,4,7.906,438.86516496232,0,0.671082,1.072752659,0,0,0,2, 0.9, 3.8,0,0,1024,1024,1024,1024,0,0,0,0,24.6,0,0,65,3.952,3.946,0,0,0,0,1.105,79.34,438.86516496232,0,10,Assisted_Takeoff,"Señal del GPS débil Señal del GPS débil. La precisión del posicionamiento se verá afectada. Vuela con cuidado (Code: 30049)"
38900,2022-09-03 19:00:14,-34.8658257713728,-55.2575257494258,0,0.13123359999997,438.73393136232,438.86516496232,0.328084,0,1.15573166428,3.7966536648,13,4,7.906,438.86516496232,0,0.671082,1.15573166428,0,0,0,0.3, 1.8, 4.4,0,0,1024,1024,1024,1024,0,0,0,0,22.6,0,0,65,3.952,3.946,0,0,0,0,1.105,79.34,438.86516496232,0,10,Assisted_Takeoff,
39000,2022-09-03 19:00:15,-34.865825416372,-55.2575261437166,0,0.03280839999997,438.83235656232,438.86516496232,0.328084,0,1.31277235172,3.9718833292,12,4,7.908,438.86516496232,0,0.671082,1.31277235172,0,0,0,359.3, 0.7, 5.2,0,0,1024,1024,1024,1024,0,0,0,0,21.5,0,0,65,3.959,3.954,0,0,0,0,1.441,79.34,438.86516496232,0,10,Assisted_Takeoff,
39100,2022-09-03 19:00:15,-34.8658242830792,-55.2575272570109,0,0,438.86516496232,438.86516496232,0.328084,0.223694,1.79883864024,4.5029529,12,4,7.908,438.86516496232,0,0.671082,1.79883864024,0.223694,0,0,359.2, 0.2, 4,0,0,1024,1024,1080,951,0,0,8,-11,20.9,0,0,65,3.959,3.954,0,0,0,0,1.441,79.34,438.86516496232,0,10,Assisted_Takeoff,
39200,2022-09-03 19:00:15,-34.8658213697277,-55.2575292875607,0,-0.13123359999997,438.99639856232,438.86516496232,0.328084,0.447388,2.92935376828,5.7274280048,12,4,7.908,438.86516496232,0,0.671082,2.92935376828,0.447388,0,0,1.2, -4.4, 5.4,0,0,1024,1024,1684,1024,0,0,100,0,22.4,0,0,65,3.959,3.954,0,0,0,0,1.441,79.34,438.86516496232,0,10,Assisted_Takeoff,
39300,2022-09-03 19:00:15,-34.8658197515234,-55.2575305434361,0,-0.13123359999997,438.99639856232,438.86516496232,0.328084,0.223694,3.6107612704,6.4273624104,12,4,7.908,438.86516496232,0,0.671082,3.6107612704,0.223694,0,0,0.1, -4.7, 4.8,0,0,1024,1024,1684,1024,0,0,100,0,22.9,0,0,65,3.959,3.954,0,0,0,0,1.441,79.34,438.86516496232,0,10,Assisted_Takeoff,
39400,2022-09-03 19:00:15,-34.8658182220106,-55.2575317617242,0,-0.22965879999998,439.09482376232,438.86516496232,0.328084,0.223694,4.2666668032,7.09399629,12,4,7.908,438.86516496232,0,0.671082,4.2666668032,0.223694,0,0,359.5, -3.8, 4.3,0,0,1024,1024,1024,1024,0,0,0,0,21.7,0,0,65,3.959,3.954,0,0,0,0,1.441,79.34,438.86516496232,0,10,Assisted_Takeoff,
39500,2022-09-03 19:00:15,-34.8658168263429,-55.2575329630145,0,-0.26246720000004,439.12763216232,438.86516496232,0.328084,0.223694,4.8855316524,7.7173886984,12,4,7.908,438.86516496232,0,0.671082,4.8855316524,0.223694,0,0,359.2, -2.8, 3.1,0,0,1024,1024,1024,1024,0,0,0,0,21.4,0,0,65,3.959,3.954,0,0,0,0,1.441,79.34,438.86516496232,0,10,Assisted_Takeoff,"Señal del GPS débil. La precisión del posicionamiento se verá afectada. Vuela con cuidado (Code: 30049)"
39600,2022-09-03 19:00:15,-34.8658128106782,-55.2575358846759,0,-0.45931759999996,439.32448256232,438.86516496232,0.328084,0.223694,6.5691931236,9.423720774,11,4,7.908,438.86516496232,0,0.671082,6.5691931236,0.223694,0,-0.223694,359.4, -1.7, 2.7,0,0,1024,1024,1024,1005,0,0,0,-3,21.2,0,0,65,3.959,3.954,0,0,0,0,1.441,79.34,438.86516496232,0,6,P-GPS,
39700,2022-09-03 19:00:15,-34.8658113641249,-55.2575371375443,0,-0.59055120000002,439.45571616232,438.86516496232,0.328084,0.223694,7.215551412,10.071194548,11,4,7.908,438.86516496232,0,0.671082,7.215551412,0.223694,0,-0.223694,359.5, -0.2, 1.9,0,0,1024,1024,1362,1024,0,0,51,0,21.2,0,0,65,3.959,3.954,0,0,0,0,1.441,79.34,438.86516496232,0,6,P-GPS,
39800,2022-09-03 19:00:15,-34.8658100249968,-55.2575383170758,0,-0.62335959999999,439.48852456232,438.86516496232,0.328084,0,7.817749594,10.6740160896,11,4,7.908,438.86516496232,0,0.671082,7.817749594,0,0,-0.223694,359.5, 0.7, 1.3,0,0,1024,1024,1471,1024,0,0,68,0,21.2,0,0,65,3.959,3.954,0,0,0,0,1.441,79.34,438.86516496232,0,6,P-GPS,
39900,2022-09-03 19:00:15,-34.8658088976706,-55.2575395887796,0,-0.59055120000002,439.45571616232,438.86516496232,0.328084,0,8.376640688,11.2344491784,11,4,7.908,438.86516496232,0,0.671082,8.376640688,0,0,-0.447388,359.6, 1.6, 0.4,0,0,1024,1024,1024,1024,0,0,0,0,21.2,0,0,65,3.959,3.954,0,0,0,0,1.441,79.34,438.86516496232,0,6,P-GPS,
40000,2022-09-03 19:00:16,-34.8658078516363,-55.2575408051466,0,-0.59055120000002,439.45571616232,438.86516496232,0.328084,0,8.902231256,11.7619426336,12,4,7.914,438.86516496232,0,0.671082,8.902231256,0,0,-0.447388,0.1, 1.8, 1.2,0,0,1024,1024,1024,1024,0,0,0,0,21.2,0,0,65,3.947,3.94,0,0,0,0,1.179,79.34,438.86516496232,0,6,P-GPS,
40100,2022-09-03 19:00:16,-34.8658078497864,-55.2575422424852,0,-0.55774279999996,439.42290776232,438.86516496232,0.656168,0.223694,9.1793638108,12.1921919912,12,4,7.914,438.86516496232,0,0.671082,9.1793638108,0,-0.223694,-0.447388,0.5, 1.3, 1.8,0,0,1024,1024,1279,1024,0,0,39,0,21.2,0,0,65,3.947,3.94,0,0,0,0,1.179,79.34,438.86516496232,0,6,P-GPS,
40200,2022-09-03 19:00:16,-34.8658071894459,-55.2575432537091,0,-0.59055120000002,439.45571616232,438.86516496232,0.656168,0,9.5601052928,12.5791014524,12,4,7.914,438.86516496232,0,0.671082,9.5601052928,0,0,-0.447388,0.3, 1.5, 1.8,0,0,1024,1024,1279,1024,0,0,39,0,21.2,0,0,65,3.947,3.94,0,0,0,0,1.179,79.34,438.86516496232,0,6,P-GPS,"Señal del GPS débil. La precisión del posicionamiento se verá afectada. Vuela con cuidado (Code: 30049)"
40300,2022-09-03 19:00:16,-34.8658068757424,-55.2575437998944,0.328084,-0.19685039999999,439.39009936232,439.19324896232,0.656168,0,9.7542325956,12.7786749496,12,4,7.914,439.19324896232,0.328084,0.671082,9.7542325956,0,0,-0.447388,0.1, 2.1, 2.9,0,0,1024,1024,1530,1024,0,0,77,0,21.2,0,0,65,3.947,3.94,0,0,0,0,1.179,79.34,439.19324896232,0.328084,6,P-GPS,
40400,2022-09-03 19:00:16,-34.8658066440083,-55.2575442223757,0.328084,-0.19685039999999,439.39009936232,439.19324896232,0.656168,0,9.9016079284,12.9308075004,12,4,7.914,439.19324896232,0.328084,0.671082,9.9016079284,0,0,-0.671082,359.9, 1.2, 1.7,0,0,1024,1024,1024,1024,0,0,0,0,21.2,0,0,65,3.947,3.94,0,0,0,0,1.179,79.34,439.19324896232,0.328084,6,P-GPS,
40500,2022-09-03 19:00:16,-34.8658083042656,-55.2575427155841,0.656168,0.16404199999998,439.35729096232,439.52133296232,0.656168,0,9.1498362508,13.6860568684,12,4,7.914,439.52133296232,0.656168,0.671082,9.9016079284,0,0,-1.11847,0, 2.3, 1.9,0,0,1024,1024,1024,1024,0,0,0,0,21.2,0,0,65,3.947,3.94,0,0,0,0,1.179,79.34,439.52133296232,0.656168,6,P-GPS,
40600,2022-09-03 19:00:16,-34.8658082253447,-55.2575429356369,0.656168,0.16404199999998,439.35729096232,439.52133296232,0.984252,0,9.215551476,13.7579400728,12,4,7.914,439.52133296232,0.656168,0.671082,9.9016079284,0,0,-1.11847,0, 1.4, 1,0,0,1024,1024,1024,1024,0,0,0,0,21.2,0,0,65,3.947,3.94,0,0,0,0,1.179,79.34,439.52133296232,0.656168,6,P-GPS,
40700,2022-09-03 19:00:16,-34.8658078596874,-55.2575434427315,0.984252,0.49212599999998,439.35729096232,439.84941696232,0.984252,0.3131716,9.4165357344,13.9600398168,12,4,7.914,439.84941696232,0.984252,0.671082,9.9016079284,-0.223694,0.223694,-1.11847,0, 2, 1.6,0,0,1024,1024,1024,1024,0,0,0,0,21.2,0,0,65,3.947,3.94,0,0,0,0,1.179,79.34,439.84941696232,0.984252,6,P-GPS,
40800,2022-09-03 19:00:16,-34.8658076053374,-55.2575438689297,1.312336,0.88582680000002,439.29167416232,440.17750096232,1.312336,0.3131716,9.5712929572,14.1178154124,12,4,7.914,440.17750096232,1.312336,0.671082,9.9016079284,-0.223694,0.223694,-1.11847,0, 1.2, 0.7,0,0,1024,1024,1024,1024,0,0,0,0,21.2,0,0,65,3.947,3.94,0,0,0,0,1.179,79.34,440.17750096232,1.312336,6,P-GPS,
40900,2022-09-03 19:00:16,-34.8658090532717,-55.2575434104064,1.312336,0.91863519999999,439.25886576232,440.17750096232,1.312336,0.3131716,9.0945212884,14.6636159548,12,4,7.914,440.17750096232,1.312336,0.671082,9.9016079284,-0.223694,0.223694,-0.894776,0, 2.1, 1.6,0,0,1024,1024,1024,1024,0,0,0,0,21.2,0,0,65,3.947,3.94,0,0,0,0,1.179,79.34,440.17750096232,1.312336,6,P-GPS,
41000,2022-09-03 19:00:17,-34.8658094734623,-55.2575434796088,1.64042,1.2467192,439.25886576232,440.50558496232,1.312336,0.3131716,9.0005580308,14.8183075608,12,4,7.786,440.50558496232,1.64042,0.671082,9.9016079284,-0.223694,0.223694,-0.671082,0, 1.2, 0.9,0,0,1024,1024,1024,1024,0,0,0,0,21.2,0,0,65,3.872,3.873,0,0,0,0,3.679,79.52,440.50558496232,1.64042,6,P-GPS,
41100,2022-09-03 19:00:17,-34.8658103219989,-55.2575432702057,1.64042,1.3451444,439.16044056232,440.50558496232,6.233596,0.4921268,8.739993718,15.134186836,12,4,7.786,440.50558496232,1.64042,0.671082,9.9016079284,-0.447388,0.223694,-0.447388,0, 1.7, 1.6,0,0,1024,1024,1024,1024,0,0,0,0,21.2,0,0,65,3.872,3.873,0,0,0,0,3.679,79.52,440.50558496232,1.64042,6,P-GPS,
41200,2022-09-03 19:00:17,-34.8658110896344,-55.2575430759211,1.64042,1.4435696,439.06201536232,440.50558496232,6.233596,0.4921268,8.5064635268,15.4202432756,12,4,7.786,440.50558496232,1.64042,0.671082,9.9016079284,-0.447388,0.223694,-0.223694,0, 0.7, 0.8,0,0,1024,1024,1024,1024,0,0,0,0,21.2,0,0,65,3.872,3.873,0,0,0,0,3.679,79.52,440.50558496232,1.64042,6,P-GPS,"Punto de origen actualizado. Altitud de RPO establecida en 60m (Code: 3000001)"
41300,2022-09-03 19:00:17,-34.8658119889784,-55.2575424512201,1.968504,1.7716536,439.06201536232,440.83366896232,6.233596,0.4921268,8.1478349064,15.797900768,12,4,7.786,440.83366896232,1.968504,0.671082,9.9016079284,-0.447388,0.223694,0,0, 0, 0.1,0,0,1177,1024,1024,1024,23,0,0,0,21.2,0,0,65,3.872,3.873,0,0,0,0,3.679,79.52,440.83366896232,1.968504,6,P-GPS,
41400,2022-09-03 19:00:17,-34.865811961855,-55.2575426149754,1.968504,1.8372704,438.99639856232,440.83366896232,6.233596,0.4921268,8.1910763776,15.847933578,12,4,7.786,440.83366896232,1.968504,0.671082,9.9016079284,-0.447388,0.223694,0,0, -0.8, -0.2,0,0,1212,1024,1024,1024,28,0,0,0,21.2,0,0,65,3.872,3.873,0,0,0,0,3.679,79.52,440.83366896232,1.968504,6,P-GPS,
41500,2022-09-03 19:00:17,-34.8658117205848,-55.2575430491923,1.968504,1.8372704,438.99639856232,440.83366896232,6.233596,0.4921268,8.346785044,16.004921772,12,4,7.786,440.83366896232,1.968504,0.671082,9.9016079284,-0.447388,0.223694,0,0, -3.2, -0.1,0,0,1024,1024,1024,1024,0,0,0,0,21.2,0,0,65,3.872,3.873,0,0,0,0,3.679,79.52,440.83366896232,1.968504,6,P-GPS,
41600,2022-09-03 19:00:17,-34.8658114225926,-55.2575434706713,1.968504,1.7716536,439.06201536232,440.83366896232,6.233596,0.3131716,8.5133532908,16.1714572104,12,4,7.786,440.83366896232,1.968504,0.671082,9.9016079284,-0.223694,0.223694,0,0, -1.5, -0.4,0,0,1094,1024,1024,1024,11,0,0,0,21.2,0,0,65,3.872,3.873,0,0,0,0,3.679,79.52,440.83366896232,1.968504,6,P-GPS,
41700,2022-09-03 19:00:17,-34.8658109212142,-55.2575438029849,1.968504,1.804462,439.02920696232,440.83366896232,6.233596,0.3131716,8.7091210136,16.3796921252,12,4,7.786,440.83366896232,1.968504,0.671082,9.9016079284,-0.223694,0.223694,0,359.9, -1.2, -1,0,0,1421,1024,1024,1024,60,0,0,0,21.2,0,0,65,3.872,3.873,0,0,0,0,3.679,79.52,440.83366896232,1.968504,6,P-GPS,
41800,2022-09-03 19:00:17,-34.8658091111661,-55.2575446486158,1.968504,1.7060368,439.12763216232,440.83366896232,6.233596,0.3131716,9.343504236,17.086942804,11,4,7.786,440.83366896232,1.968504,0.671082,9.9016079284,-0.223694,0.223694,0,0, -3.3, -0.6,0,0,1505,1024,1024,1024,73,0,0,0,21.2,0,0,65,3.872,3.873,0,0,0,0,3.679,79.52,440.83366896232,1.968504,6,P-GPS,"En vuelo"
41900,2022-09-03 19:00:17,-34.8658087049931,-55.2575449225437,1.968504,1.7060368,439.12763216232,440.83366896232,6.233596,0.223694,9.5053808816,17.2562997648,11,4,7.786,440.83366896232,1.968504,0.671082,9.9016079284,0,0.223694,0,0, -7.9, -0.2,0,0,1402,1024,1024,1024,57,0,0,0,21.2,0,0,65,3.872,3.873,0,0,0,0,3.679,79.52,440.83366896232,1.968504,6,P-GPS,
42000,2022-09-03 19:00:18,-34.8658082365223,-55.257545202778,1.968504,1.6076116,439.22605736232,440.83366896232,6.233596,0.3131716,9.6847444044,17.4467197184,11,4,7.782,440.83366896232,1.968504,0.671082,9.9016079284,0.223694,0.223694,0,0, -10.2, 0,0,0,1387,1024,1024,1024,55,0,0,0,21.2,0,0,65,3.891,3.883,0,0,0,0,4.269,79.34,440.83366896232,1.968504,6,P-GPS,
42100,2022-09-03 19:00:18,-34.8658077613815,-55.2575455525487,1.968504,1.6732284,439.16044056232,440.83366896232,6.233596,0.447388,9.8810370616,17.6492131632,11,4,7.782,440.83366896232,1.968504,0.671082,9.9016079284,0.447388,0,0,0, -9.2, 0,0,0,1387,1024,1024,1024,55,0,0,0,21.2,0,0,65,3.891,3.883,0,0,0,0,4.269,79.34,440.83366896232,1.968504,6,P-GPS,
42200,2022-09-03 19:00:18,-34.8658071445008,-55.2575457642488,2.296588,1.9028872,439.25886576232,441.16175296232,6.233596,0.894776,10.085138118,17.88303863,10,4,7.782,441.16175296232,2.296588,0.894776,10.085138118,0.894776,0,0,0, -8.1, 0.2,0,0,1329,1024,1024,1024,46,0,0,0,21.2,0,0,65,3.891,3.883,0,0,0,0,4.269,79.34,441.16175296232,2.296588,6,P-GPS,
42300,2022-09-03 19:00:18,-34.8658065489854,-55.2575460627755,2.296588,1.9028872,439.25886576232,441.16175296232,6.233596,1.11847,10.3029530856,18.1179795824,10,4,7.782,441.16175296232,2.296588,1.11847,10.3029530856,1.11847,0,0,359.9, -6.4, 0.2,0,0,1182,1024,1024,1024,24,0,0,0,21.2,0,0,65,3.891,3.883,0,0,0,0,4.269,79.34,441.16175296232,2.296588,6,P-GPS,
42400,2022-09-03 19:00:18,-34.865805894872,-55.2575463606758,2.296588,1.804462,439.35729096232,441.16175296232,6.233596,1.342164,10.5368769776,18.3727696168,10,4,7.782,441.16175296232,2.296588,1.342164,10.5368769776,1.342164,0,0,359.8, -3.5, 0.3,0,0,1146,1024,1024,1024,18,0,0,0,21.2,0,0,65,3.891,3.883,0,0,0,0,4.269,79.34,441.16175296232,2.296588,6,P-GPS,
42500,2022-09-03 19:00:18,-34.8658050312755,-55.2575467608136,2.296588,1.7716536,439.39009936232,441.16175296232,6.233596,1.342164,10.8485567776,18.7098431184,10,4,7.782,441.16175296232,2.296588,1.342164,10.8485567776,1.342164,0,0,359.9, -1.8, 0.4,0,0,1150,1024,1024,1024,19,0,0,0,21.2,0,0,65,3.891,3.883,0,0,0,0,4.269,79.34,441.16175296232,2.296588,6,P-GPS,
42600,2022-09-03 19:00:18,-34.8658044533994,-55.2575470942965,2.296588,1.7060368,439.45571616232,441.16175296232,6.233596,1.342164,11.0712273884,18.9431108424,11,4,7.782,441.16175296232,2.296588,1.342164,11.0712273884,1.342164,0,0,0, -0.9, 0.5,0,0,1317,1024,1024,1024,44,0,0,0,21.2,0,0,65,3.891,3.883,0,0,0,0,4.269,79.34,441.16175296232,2.296588,6,P-GPS,
42700,2022-09-03 19:00:18,-34.8658036142427,-55.2575474433991,2.296588,1.7060368,439.45571616232,441.16175296232,6.233596,1.342164,11.3683074504,19.2666344748,11,4,7.782,441.16175296232,2.296588,1.342164,11.3683074504,1.342164,0,0,359.9, -1.1, 0.3,0,0,1550,1024,1024,1024,80,0,0,0,21.2,0,0,65,3.891,3.883,0,0,0,0,4.269,79.34,441.16175296232,2.296588,6,P-GPS,
42800,2022-09-03 19:00:18,-34.8658028269356,-55.2575477954251,2.296588,1.6732284,439.48852456232,441.16175296232,6.233596,1.342164,11.6531499792,19.5726056132,10,4,7.782,441.16175296232,2.296588,1.342164,11.6531499792,1.342164,0,0,0, -4.4, 0.1,0,0,1535,1024,1024,1024,77,0,0,0,21.2,0,0,65,3.891,3.883,0,0,0,0,4.269,79.34,441.16175296232,2.296588,6,P-GPS,
42900,2022-09-03 19:00:18,-34.8658020684976,-55.2575483779448,2.296588,1.5748032,439.58694976232,441.16175296232,6.233596,1.565858,11.9762471024,19.8996725528,10,4,7.782,441.16175296232,2.296588,1.565858,11.9762471024,1.565858,0,0,0, -9.8, 0,0,0,1149,1024,1024,1024,19,0,0,0,21.2,0,0,65,3.891,3.883,0,0,0,0,4.269,79.34,441.16175296232,2.296588,6,P-GPS,
43000,2022-09-03 19:00:19,-34.865802820526,-55.2575486107773,2.296588,1.7388452,439.42290776232,441.16175296232,6.233596,1.789552,11.8173560212,20.1827762364,11,4,7.761,441.16175296232,2.296588,1.789552,11.9762471024,1.789552,0,0,0, -12.6, -0.1,0,0,1149,1024,1024,1024,19,0,0,0,21.2,0,0,65,3.886,3.877,0,0,0,0,4.413,79.34,441.16175296232,2.296588,6,P-GPS,
43100,2022-09-03 19:00:19,-34.8658024945506,-55.2575486983139,2.296588,1.64042,439.52133296232,441.16175296232,6.233596,2.23694,11.9232615364,20.3045610172,11,4,7.761,441.16175296232,2.296588,2.23694,11.9762471024,2.23694,0,0,0, -7.7, 0,0,0,1024,1024,1024,1024,0,0,0,0,21.2,0,0,65,3.886,3.877,0,0,0,0,4.413,79.34,441.16175296232,2.296588,6,P-GPS,
43200,2022-09-03 19:00:19,-34.8658021659176,-55.2575487860176,1.968504,1.312336,439.52133296232,440.83366896232,6.233596,2.23694,12.0302169204,20.4272972416,11,4,7.761,441.16175296232,2.296588,2.23694,12.0302169204,2.23694,0,0,359.9, 4.7, 0,0,0,1024,947,1024,1024,0,-12,0,0,21.2,0,0,65,3.886,3.877,0,0,0,0,4.413,79.34,440.83366896232,1.968504,6,P-GPS,
43300,2022-09-03 19:00:19,-34.8658022802474,-55.2575489544088,1.968504,1.312336,439.52133296232,440.83366896232,6.233596,2.013246,12.032644742,20.4927171912,11,4,7.761,441.16175296232,2.296588,2.23694,12.032644742,2.013246,0,0,0, 9, -0.1,0,0,1024,364,1024,1024,0,-100,0,0,21.2,0,0,65,3.886,3.877,0,0,0,0,4.413,79.34,440.83366896232,1.968504,6,P-GPS,
43400,2022-09-03 19:00:19,-34.8658024629718,-55.2575491343684,1.968504,1.312336,439.52133296232,440.83366896232,5.905512,1.789552,12.0193245316,20.5784455404,12,4,7.761,441.16175296232,2.296588,2.23694,12.032644742,1.789552,0,0,359.8, 5.3, -6.1,0,0,1024,775,1024,1024,0,-38,0,0,21.2,0,0,65,3.886,3.877,0,0,0,0,4.413,79.34,440.83366896232,1.968504,6,P-GPS,
43500,2022-09-03 19:00:19,-34.8658030084354,-55.2575493886257,1.968504,1.4107612,439.42290776232,440.83366896232,5.905512,1.3645334,11.924869148,20.79150329,12,4,7.761,441.16175296232,2.296588,2.23694,12.032644742,1.342164,-0.223694,0,359.5, 3, -13.5,0,0,1024,364,1024,1024,0,-100,0,0,21.2,0,0,65,3.886,3.877,0,0,0,0,4.413,79.34,440.83366896232,1.968504,6,P-GPS,
43600,2022-09-03 19:00:19,-34.8658025402513,-55.257550014162,1.968504,1.476378,439.35729096232,440.83366896232,5.905512,1.2974252,12.1776250616,21.0449809884,12,4,7.761,441.16175296232,2.296588,2.23694,12.1776250616,1.11847,-0.671082,0,0, 1.8, -7.9,0,0,1024,1024,1024,1024,0,0,0,0,21.2,0,0,65,3.886,3.877,0,0,0,0,4.413,79.34,440.83366896232,1.968504,6,P-GPS,
43700,2022-09-03 19:00:19,-34.86580183606,-55.257550921979,1.968504,1.4435696,439.39009936232,440.83366896232,5.905512,1.4316416,12.5509846536,21.41896394,12,4,7.761,441.16175296232,2.296588,2.23694,12.5509846536,0.894776,-1.11847,0,359.9, 0.8, -12.1,0,0,1024,1024,1024,1024,0,0,0,0,21.2,0,0,65,3.886,3.877,0,0,0,0,4.413,79.34,440.83366896232,1.968504,6,P-GPS,
43800,2022-09-03 19:00:19,-34.8658011706126,-55.2575519978112,2.296588,1.7388452,439.42290776232,441.16175296232,5.905512,1.6105968,12.9488521204,21.8222776012,12,4,7.761,441.16175296232,2.296588,2.23694,12.9488521204,0.894776,-1.342164,0,359.9, 0.3, -6.5,0,0,1211,1488,1024,1024,28,70,0,0,21.2,0,0,65,3.886,3.877,0,0,0,0,4.413,79.34,441.16175296232,2.296588,6,P-GPS,
43900,2022-09-03 19:00:19,-34.8657991415193,-55.257554097647,2.296588,1.6732284,439.48852456232,441.16175296232,5.905512,1.7000744,13.918471574,22.793471858,12,4,7.761,441.16175296232,2.296588,2.23694,13.918471574,0.671082,-1.565858,0,0.3, 3, 5.1,0,0,1211,1488,1024,1024,28,70,0,0,21.2,0,0,65,3.886,3.877,0,0,0,0,4.413,79.34,441.16175296232,2.296588,6,P-GPS,
44000,2022-09-03 19:00:20,-34.8657984829244,-55.2575554425208,2.296588,1.64042,439.52133296232,441.16175296232,5.905512,1.4987498,14.370407284,23.262303894,11,4,7.751,441.16175296232,2.296588,2.23694,14.370407284,0.671082,-1.342164,0,359.9, 1, 7.1,0,0,1024,1024,1024,1024,0,0,0,0,21.2,0,0,65,3.878,3.87,0,0,0,0,4.494,79.34,441.16175296232,2.296588,6,P-GPS,
44100,2022-09-03 19:00:20,-34.8657980201076,-55.2575565216106,2.296588,1.7716536,439.39009936232,441.16175296232,5.905512,1.11847,14.716699946,23.626805218,11,4,7.751,441.16175296232,2.296588,2.23694,14.716699946,0.671082,-0.894776,0,0, 0.1, 10.6,0,0,1024,1024,1024,1024,0,0,0,0,21.2,0,0,65,3.878,3.87,0,0,0,0,4.494,79.34,441.16175296232,2.296588,6,P-GPS,
44200,2022-09-03 19:00:20,-34.865797557838,-55.2575574065411,2.296588,1.7716536,439.39009936232,441.16175296232,5.905512,0.9395148,15.0227367012,23.9408472228,9,3,7.751,441.16175296232,2.296588,2.23694,15.0227367012,0.671082,-0.671082,0,359.7, 2.3, 4.1,0,0,1024,1024,1024,1024,0,0,0,0,21.2,0,0,65,3.878,3.87,0,0,0,0,4.494,79.34,441.16175296232,2.296588,6,P-GPS,
44300,2022-09-03 19:00:20,-34.8657958795766,-55.2575589285346,2.296588,1.7060368,439.45571616232,441.16175296232,5.905512,0.6263432,15.7788062792,24.704069032,9,3,7.751,441.16175296232,2.296588,2.23694,15.7788062792,0.447388,-0.447388,0,359.9, 2.7, 3.6,0,0,1032,1353,1024,1024,1,50,0,0,21.2,0,0,65,3.878,3.87,0,0,0,0,4.494,79.34,441.16175296232,2.296588,6,P-GPS,
44400,2022-09-03 19:00:20,-34.8657950359645,-55.2575598844634,2.296588,1.7060368,439.45571616232,441.16175296232,5.905512,0.4921268,16.1989506496,25.124344636,10,3,7.751,441.16175296232,2.296588,2.23694,16.1989506496,0.447388,-0.223694,0,359.9, 1.6, 4.5,0,0,1024,1024,1024,1024,0,0,0,0,21.2,0,0,65,3.878,3.87,0,0,0,0,4.494,79.34,441.16175296232,2.296588,6,P-GPS,
44500,2022-09-03 19:00:20,-34.8657938710408,-55.257560668284,2.296588,1.6732284,439.48852456232,441.16175296232,5.905512,0.223694,16.6675858352,25.6098433392,10,3,7.751,441.16175296232,2.296588,2.23694,16.6675858352,0.223694,0,0,0, 0.8, 7.7,0,0,1161,1024,1024,1024,21,0,0,0,21.2,0,0,65,3.878,3.87,0,0,0,0,4.494,79.34,441.16175296232,2.296588,6,P-GPS,
44600,2022-09-03 19:00:20,-34.8657928150795,-55.2575612749431,2.296588,1.5748032,439.58694976232,441.16175296232,5.905512,0.223694,17.0718181316,26.035761988,10,3,7.751,441.16175296232,2.296588,2.23694,17.0718181316,0.223694,0,0,359.8, 0.9, 0.4,0,0,1684,1024,1024,1024,100,0,0,0,21.2,0,0,65,3.878,3.87,0,0,0,0,4.494,79.34,441.16175296232,2.296588,6,P-GPS,
44700,2022-09-03 19:00:20,-34.8657904753572,-55.2575613627304,2.296588,1.312336,439.84941696232,441.16175296232,5.905512,0.3131716,17.7194231392,26.8898302568,10,3,7.751,441.16175296232,2.296588,2.23694,17.7194231392,0.223694,0.223694,0,359.9, -1.1, -0.5,0,0,1684,1024,1024,1024,100,0,0,0,21.2,0,0,65,3.878,3.87,0,0,0,0,4.494,79.34,441.16175296232,2.296588,6,P-GPS,
44800,2022-09-03 19:00:20,-34.8657897137926,-55.2575616807607,2.296588,1.3779528,439.78380016232,441.16175296232,5.905512,0.447388,17.9908798408,27.1835310536,10,3,7.751,441.16175296232,2.296588,2.23694,17.9908798408,0.447388,0,0,0, -11.1, -0.5,0,0,1684,1024,1024,1024,100,0,0,0,21.2,0,0,65,3.878,3.87,0,0,0,0,4.494,79.34,441.16175296232,2.296588,6,P-GPS,
44900,2022-09-03 19:00:20,-34.8657896414897,-55.2575617688821,2.296588,1.3779528,439.78380016232,441.16175296232,5.905512,0.894776,18.0281173748,27.2208342044,10,3,7.751,441.16175296232,2.296588,2.23694,18.0281173748,0.894776,0,0,0, -16.3, -0.5,0,0,1604,1024,1024,1024,88,0,0,0,21.2,0,0,65,3.878,3.87,0,0,0,0,4.494,79.34,441.16175296232,2.296588,6,P-GPS,
45000,2022-09-03 19:00:21,-34.8657893686406,-55.2575618703261,2.296588,1.2795276,439.88222536232,441.16175296232,5.905512,1.565858,18.1230648844,27.3249024492,11,3,7.748,441.16175296232,2.296588,2.23694,18.1230648844,1.565858,0,0,0, -16.6, -0.6,0,0,1434,1024,1024,1024,62,0,0,0,21.2,0,0,65,3.877,3.869,0,0,0,0,4.567,79.52,441.16175296232,2.296588,6,P-GPS,
45100,2022-09-03 19:00:21,-34.8657886024382,-55.2575621920734,2.296588,1.2795276,439.88222536232,441.16175296232,5.905512,2.013246,18.397474342,27.6206045584,11,3,7.748,441.16175296232,2.296588,2.23694,18.397474342,2.013246,0,0,0, -11.8, -0.6,0,0,1024,1024,1024,1024,0,0,0,0,21.2,0,0,65,3.877,3.869,0,0,0,0,4.567,79.52,441.16175296232,2.296588,6,P-GPS,
45200,2022-09-03 19:00:21,-34.8657892659054,-55.257561799119,2.296588,1.2795276,439.88222536232,441.16175296232,5.905512,2.460634,18.1373693468,27.8897318636,9,3,7.748,441.16175296232,2.296588,2.460634,18.397474342,2.460634,0,0,0, -6.9, -0.2,0,0,1024,1024,1024,1024,0,0,0,0,21.2,0,0,65,3.877,3.869,0,0,0,0,4.567,79.52,441.16175296232,2.296588,6,P-GPS,
45300,2022-09-03 19:00:21,-34.865787814115,-55.257562290218,2.296588,1.1811024,439.98065056232,441.16175296232,5.905512,2.684328,18.6354008588,28.4394366056,9,3,7.748,441.16175296232,2.296588,2.684328,18.6354008588,2.684328,0,0,0, 6, 0,0,0,1032,1024,1024,1024,1,0,0,0,21.2,0,0,65,3.877,3.869,0,0,0,0,4.567,79.52,441.16175296232,2.296588,6,P-GPS,
45400,2022-09-03 19:00:21,-34.8657864854349,-55.257562751999,1.968504,0.75459319999998,440.07907576232,440.83366896232,5.905512,2.460634,19.0959979864,28.9435376716,11,3,7.748,441.16175296232,2.296588,2.684328,19.0959979864,2.460634,0,0,0, 10.4, 0,0,0,1070,1024,1024,1024,7,0,0,0,21.2,0,0,65,3.877,3.869,0,0,0,0,4.567,79.52,440.83366896232,1.968504,6,P-GPS,
45500,2022-09-03 19:00:21,-34.8657851493553,-55.25756313777,1.968504,0.65616799999998,440.17750096232,440.83366896232,5.905512,2.013246,19.5465557436,29.4444891312,11,3,7.748,441.16175296232,2.296588,2.684328,19.5465557436,2.013246,0,0,0, 8.8, 0.3,0,0,1024,1024,1024,1024,0,0,0,0,21.2,0,0,65,3.877,3.869,0,0,0,0,4.567,79.52,440.83366896232,1.968504,6,P-GPS,
45600,2022-09-03 19:00:21,-34.865783181309,-55.2575636108272,1.968504,0.55774279999998,440.27592616232,440.83366896232,5.905512,1.565858,20.1969822736,30.17634611,13,3,7.748,441.16175296232,2.296588,2.684328,20.1969822736,1.565858,0,0,0, 5.8, 0.3,0,0,1024,1024,1024,1024,0,0,0,0,21.2,0,0,65,3.877,3.869,0,0,0,0,4.567,79.52,440.83366896232,1.968504,6,P-GPS,
45700,2022-09-03 19:00:21,-34.8657822063792,-55.2575639721665,1.968504,0.45931759999997,440.37435136232,440.83366896232,5.905512,1.11847,20.5444232296,30.5481308988,13,3,7.748,441.16175296232,2.296588,2.684328,20.5444232296,1.11847,0,0,0, 6.4, 0.4,0,0,1024,1024,1024,1024,0,0,0,0,21.2,0,0,65,3.877,3.869,0,0,0,0,4.567,79.52,440.83366896232,1.968504,6,P-GPS,
45800,2022-09-03 19:00:21,-34.8657814110992,-55.2575643273247,1.968504,0.36089239999997,440.47277656232,440.83366896232,5.905512,0.671082,20.839403554,30.8571532184,13,3,7.748,441.16175296232,2.296588,2.684328,20.839403554,0.671082,0,0,0, 5.6, 0.4,0,0,1024,1024,1024,1024,0,0,0,0,21.2,0,0,65,3.877,3.869,0,0,0,0,4.567,79.52,440.83366896232,1.968504,6,P-GPS,
45900,2022-09-03 19:00:21,-34.8657809762395,-55.2575648613151,1.968504,0.4265092,440.40715976232,440.83366896232,5.577428,0.447388,21.0625334824,31.0823828844,13,3,7.748,441.16175296232,2.296588,2.684328,21.0625334824,0.447388,0,0,0, 4.2, 0.4,0,0,559,1024,1024,1024,-70,0,0,0,21.2,0,0,65,3.877,3.869,0,0,0,0,4.567,79.52,440.83366896232,1.968504,6,P-GPS,
46000,2022-09-03 19:00:22,-34.8657809247807,-55.2575655105732,2.296588,0.82021000000004,440.34154296232,441.16175296232,5.577428,0.223694,21.1959980536,31.2776584812,13,3,7.73,441.16175296232,2.296588,2.684328,21.1959980536,0.223694,0,0,0, 4.8, 0.3,0,0,966,1024,1024,1024,-9,0,0,0,21.2,0,0,65,3.872,3.864,0,0,0,0,4.579,79.52,441.16175296232,2.296588,6,P-GPS,
46100,2022-09-03 19:00:22,-34.8657803003441,-55.2575657834988,2.296588,0.72178480000003,440.43996816232,441.16175296232,5.577428,0,21.4262145964,31.519686048,13,3,7.73,441.16175296232,2.296588,2.684328,21.4262145964,0,0,0,0, 9.8, 0.4,0,0,1024,1024,1024,1024,0,0,0,0,21.2,0,0,65,3.872,3.864,0,0,0,0,4.579,79.52,441.16175296232,2.296588,6,P-GPS,
46200,2022-09-03 19:00:22,-34.8657798248124,-55.2575660338302,2.296588,0.72178480000003,440.43996816232,441.16175296232,5.577428,0.223694,21.6094495104,31.708662432,13,3,7.73,441.16175296232,2.296588,2.684328,21.6094495104,-0.223694,0,0,0, 0.1, 0.2,0,0,1024,1024,1024,1024,0,0,0,0,21.2,0,0,65,3.872,3.864,0,0,0,0,4.579,79.52,441.16175296232,2.296588,6,P-GPS,
46300,2022-09-03 19:00:22,-34.8657794450071,-55.2575663065052,2.296588,0.656168,440.50558496232,441.16175296232,5.577428,0.223694,21.7690951848,31.8694892088,13,3,7.73,441.16175296232,2.296588,2.684328,21.7690951848,-0.223694,0,0,0, -0.8, 0.2,0,0,1024,1024,1024,1024,0,0,0,0,21.2,0,0,65,3.872,3.864,0,0,0,0,4.579,79.52,441.16175296232,2.296588,6,P-GPS,
46400,2022-09-03 19:00:22,-34.8657785462884,-55.257566360798,2.296588,0.656168,440.50558496232,441.16175296232,5.577428,0,22.0401581856,32.1978028676,13,3,7.73,441.16175296232,2.296588,2.684328,22.0401581856,0,0,0,0, -0.7, 0.2,0,0,364,1024,1024,1024,-100,0,0,0,21.2,0,0,65,3.872,3.864,0,0,0,0,4.579,79.52,441.16175296232,2.296588,6,P-GPS,
46500,2022-09-03 19:00:22,-34.8657781352952,-55.2575667672421,2.296588,0.62335960000003,440.53839336232,441.16175296232,5.577428,0,22.2331371944,32.39091311,13,3,7.73,441.16175296232,2.296588,2.684328,22.2331371944,0,0,0,0, 0.3, 0.2,0,0,575,1024,1024,1024,-68,0,0,0,21.2,0,0,65,3.872,3.864,0,0,0,0,4.579,79.52,441.16175296232,2.296588,6,P-GPS,
46600,2022-09-03 19:00:22,-34.8657777660683,-55.2575671500479,2.296588,0.62335960000003,440.53839336232,441.16175296232,5.577428,0.223694,22.4096791948,32.5677831944,13,3,7.73,441.16175296232,2.296588,2.684328,22.4096791948,-0.223694,0,0,0, 10.7, 0.2,0,0,1023,1024,1024,1024,-0,0,0,0,21.2,0,0,65,3.872,3.864,0,0,0,0,4.579,79.52,441.16175296232,2.296588,6,P-GPS,
46700,2022-09-03 19:00:22,-34.8657776549694,-55.2575675020739,2.296588,0.68897639999997,440.47277656232,441.16175296232,5.577428,0.671082,22.5055453396,32.6806768988,13,3,7.73,441.16175296232,2.296588,2.684328,22.5055453396,-0.671082,0,0,0, 12.7, 0.4,0,0,1023,1024,1024,1024,-0,0,0,0,21.2,0,0,65,3.872,3.864,0,0,0,0,4.579,79.52,441.16175296232,2.296588,6,P-GPS,
46800,2022-09-03 19:00:22,-34.8657777146616,-55.2575678278306,2.296588,0.68897639999997,440.47277656232,441.16175296232,5.577428,0.894776,22.547244816,32.7806112852,13,3,7.73,441.16175296232,2.296588,2.684328,22.547244816,-0.894776,0,0,0, 4.3, 0.3,0,0,1024,1024,1024,1024,0,0,0,0,21.2,0,0,65,3.872,3.864,0,0,0,0,4.579,79.52,441.16175296232,2.296588,6,P-GPS,
46900,2022-09-03 19:00:22,-34.8657777578349,-55.257567976551,2.296588,0.68897639999997,440.47277656232,441.16175296232,5.577428,0.894776,22.5617789372,32.827756956,13,3,7.73,441.16175296232,2.296588,2.684328,22.5617789372,-0.894776,0,0,0, -3.5, 0.1,0,0,1024,1024,1024,1024,0,0,0,0,21.2,0,0,65,3.872,3.864,0,0,0,0,4.579,79.52,441.16175296232,2.296588,6,P-GPS,
47000,2022-09-03 19:00:23,-34.8657777397527,-55.2575682240008,2.296588,0.68897639999997,440.47277656232,441.16175296232,5.577428,0.894776,22.6121726396,32.902232024,13,3,7.731,441.16175296232,2.296588,2.684328,22.6121726396,-0.894776,0,0,0, -4.5, 0.2,0,0,585,1024,1024,1024,-67,0,0,0,21.2,0,0,65,3.87,3.86,0,0,0,0,4.527,79.52,441.16175296232,2.296588,6,P-GPS,
47100,2022-09-03 19:00:23,-34.8657776101807,-55.2575684496708,1.968504,0.36089239999997,440.47277656232,440.83366896232,5.577428,0.671082,22.6908799912,32.984581108,13,3,7.731,441.16175296232,2.296588,2.684328,22.6908799912,-0.671082,0,0,0, -3.5, 0.4,0,0,364,1024,1024,1024,-100,0,0,0,21.2,0,0,65,3.87,3.86,0,0,0,0,4.527,79.52,440.83366896232,1.968504,6,P-GPS,
47200,2022-09-03 19:00:23,-34.8657774292019,-55.2575686750067,1.968504,0.328084,440.50558496232,440.83366896232,5.577428,0.671082,22.7843511228,33.0790693,13,3,7.731,441.16175296232,2.296588,2.684328,22.7843511228,-0.671082,0,0,0, 6.7, 0.5,0,0,1007,1024,1024,1024,-3,0,0,0,21.2,0,0,65,3.87,3.86,0,0,0,0,4.527,79.52,440.83366896232,1.968504,6,P-GPS,
47300,2022-09-03 19:00:23,-34.8657768818102,-55.2575690474969,1.968504,0.328084,440.50558496232,440.83366896232,5.577428,0.894776,23.0105978492,33.307743848,13,3,7.731,441.16175296232,2.296588,2.684328,23.0105978492,-0.894776,0,0,0, 13.8, 0.7,0,0,1024,1024,1024,1024,0,0,0,0,21.2,0,0,65,3.87,3.86,0,0,0,0,4.527,79.52,440.83366896232,1.968504,6,P-GPS,
47400,2022-09-03 19:00:23,-34.8657768468964,-55.2575694092747,1.968504,0.328084,440.50558496232,440.83366896232,5.577428,1.342164,23.086942996,33.416667736,13,3,7.731,441.16175296232,2.296588,2.684328,23.086942996,-1.342164,0,0,359.9, 2.6, 0.7,0,0,1024,1024,1024,1024,0,0,0,0,21.2,0,0,65,3.87,3.86,0,0,0,0,4.527,79.52,440.83366896232,1.968504,6,P-GPS,
47500,2022-09-03 19:00:23,-34.8657769685216,-55.2575698808493,1.968504,0.39370080000003,440.43996816232,440.83366896232,5.577428,1.11847,23.1388786932,33.564961704,13,3,7.731,441.16175296232,2.296588,2.684328,23.1388786932,-1.11847,0,0,359.9, -5, 0.5,0,0,1024,1024,1024,1024,0,0,0,0,21.2,0,0,65,3.87,3.86,0,0,0,0,4.527,79.52,440.83366896232,1.968504,6,P-GPS,
47600,2022-09-03 19:00:23,-34.8657770434561,-55.2575703132703,1.968504,0.39370080000003,440.43996816232,440.83366896232,5.577428,0.894776,23.1977041544,33.697179556,12,3,7.731,441.16175296232,2.296588,2.684328,23.1977041544,-0.894776,0,0,0, -5.8, 0.4,0,0,1024,1024,1024,1024,0,0,0,0,21.2,0,0,65,3.87,3.86,0,0,0,0,4.527,79.52,440.83366896232,1.968504,6,P-GPS,
47700,2022-09-03 19:00:23,-34.8657772385046,-55.2575707504943,1.968504,0.45931759999997,440.37435136232,440.83366896232,5.577428,0.894776,23.2238524492,33.846129692,12,3,7.731,441.16175296232,2.296588,2.684328,23.2238524492,-0.894776,0,0,0, -5.1, 0.4,0,0,1024,1024,1024,1024,0,0,0,0,21.2,0,0,65,3.87,3.86,0,0,0,0,4.527,79.52,440.83366896232,1.968504,6,P-GPS,
47800,2022-09-03 19:00:23,-34.865777253825,-55.2575710017028,1.968504,0.45931759999997,440.37435136232,440.83366896232,5.577428,0.671082,23.266733028,33.921589012,12,3,7.731,441.16175296232,2.296588,2.684328,23.266733028,-0.671082,0,0,0, -4.3, 0.4,0,0,1024,1038,1024,1024,0,2,0,0,21.2,0,0,65,3.87,3.86,0,0,0,0,4.527,79.52,440.83366896232,1.968504,6,P-GPS,
47900,2022-09-03 19:00:23,-34.8657775274036,-55.2575711544534,1.968504,0.55774279999998,440.27592616232,440.83366896232,5.577428,0.447388,23.2181437876,34.031169068,12,3,7.731,441.16175296232,2.296588,2.684328,23.266733028,-0.447388,0,0,0, -3.4, 0.2,0,0,1024,1024,1024,1024,0,0,0,0,21.2,0,0,65,3.87,3.86,0,0,0,0,4.527,79.52,440.83366896232,1.968504,6,P-GPS,
48000,2022-09-03 19:00:24,-34.8657777192213,-55.257571307914,1.968504,0.55774279999998,440.27592616232,440.83366896232,5.905512,0.223694,23.1931109784,34.115158572,11,3,7.731,441.16175296232,2.296588,2.684328,23.266733028,-0.223694,0,0,0, -2.5, 0.3,0,0,1024,1024,1024,1024,0,0,0,0,21.2,0,0,65,3.87,3.86,0,0,0,0,4.527,79.52,440.83366896232,1.968504,6,P-GPS,
48100,2022-09-03 19:00:24,-34.8657781021271,-55.2575713928404,1.968504,0.55774279999998,440.27592616232,440.83366896232,5.905512,0,23.1015755424,34.25689086,11,3,7.722,441.16175296232,2.296588,2.684328,23.266733028,0,0,0,0, -1.7, 0.4,0,0,1024,1269,1024,1024,0,37,0,0,21.2,0,0,65,3.866,3.858,0,0,0,0,4.621,79.52,440.83366896232,1.968504,6,P-GPS,
48200,2022-09-03 19:00:24,-34.8657779299289,-55.2575716842047,1.968504,0.62335960000001,440.21030936232,440.83366896232,5.905512,0,23.2056437872,34.364502412,10,3,7.722,441.16175296232,2.296588,2.684328,23.266733028,0,0,0,0, -1.1, 0.5,0,0,1024,1024,1024,1024,0,0,0,0,21.2,0,0,65,3.866,3.858,0,0,0,0,4.621,79.52,440.83366896232,1.968504,6,P-GPS,
48300,2022-09-03 19:00:24,-34.8657777123427,-55.2575721369229,1.968504,0.62335960000001,440.21030936232,440.83366896232,5.905512,0,23.3534128208,34.521654648,10,3,7.722,441.16175296232,2.296588,2.684328,23.3534128208,0,0,0,0, -0.6, 2.5,0,0,1024,1024,1024,1024,0,0,0,0,21.2,0,0,65,3.866,3.858,0,0,0,0,4.621,79.52,440.83366896232,1.968504,6,P-GPS,
48400,2022-09-03 19:00:24,-34.8657774875132,-55.2575725239469,1.968504,0.59055120000004,440.24311776232,440.83366896232,5.905512,0,23.4906831664,34.663386936,11,3,7.722,441.16175296232,2.296588,2.684328,23.4906831664,0,0,0,0, -0.5, 0.1,0,0,1024,1024,1024,1024,0,0,0,0,21.2,0,0,65,3.866,3.858,0,0,0,0,4.621,79.52,440.83366896232,1.968504,6,P-GPS,
48500,2022-09-03 19:00:24,-34.8657772028352,-55.2575726932359,1.968504,0.59055120000004,440.24311776232,440.83366896232,5.905512,0,23.602855086,34.779200588,11,3,7.722,441.16175296232,2.296588,2.684328,23.602855086,0,0,0,0, -0.4, -0.1,0,0,1024,1024,1024,917,0,0,0,-16,21.2,0,0,65,3.866,3.858,0,0,0,0,4.621,79.52,440.83366896232,1.968504,6,P-GPS,
48600,2022-09-03 19:00:24,-34.8657768076574,-55.2575729551151,1.968504,0.59055120000004,440.24311776232,440.83366896232,5.905512,0,23.7637474796,34.943242588,10,3,7.722,441.16175296232,2.296588,2.684328,23.7637474796,0,0,0,0, -0.4, -0.1,0,0,1024,1024,1024,1024,0,0,0,0,21.2,0,0,65,3.866,3.858,0,0,0,0,4.621,79.52,440.83366896232,1.968504,6,P-GPS,
48700,2022-09-03 19:00:24,-34.8657768652913,-55.2575730909514,1.968504,0.59055120000004,440.24311776232,440.83366896232,5.905512,0,23.7736884248,34.988846264,10,3,7.722,441.16175296232,2.296588,2.684328,23.7736884248,0,0,0,0, -0.4, 0,0,0,1024,1024,1024,1024,0,0,0,0,21.1,0,0,65,3.866,3.858,0,0,0,0,4.621,79.52,440.83366896232,1.968504,6,P-GPS,
48800,2022-09-03 19:00:24,-34.8657769310023,-55.2575732384189,1.968504,0.59055120000004,440.24311776232,440.83366896232,5.905512,0,23.7836949868,35.0393712,11,3,7.722,441.16175296232,2.296588,2.684328,23.7836949868,0,0,0,359.8, -0.3, 0,0,0,1024,1024,1024,1024,0,0,0,0,20.9,0,0,65,3.866,3.858,0,0,0,0,4.621,79.52,440.83366896232,1.968504,6,P-GPS,
48900,2022-09-03 19:00:24,-34.8657770411372,-55.2575735560943,1.968504,0.65616799999998,440.17750096232,440.83366896232,5.905512,0,23.8143380324,35.142389576,11,3,7.722,441.16175296232,2.296588,2.684328,23.8143380324,0,0,0,359.6, -0.4, -0.2,0,0,1024,1024,1024,967,0,0,0,-9,20.7,0,0,65,3.866,3.858,0,0,0,0,4.621,79.52,440.83366896232,1.968504,6,P-GPS,
49000,2022-09-03 19:00:25,-34.8657779971771,-55.2575738197275,1.968504,0.72178480000001,440.11188416232,440.83366896232,5.905512,0,23.6010834324,35.500001136,12,3,7.722,441.16175296232,2.296588,2.684328,23.8143380324,0,0,0,359.5, -0.6, 0,0,0,1024,1024,1024,1024,0,0,0,0,20.7,0,0,65,3.866,3.858,0,0,0,0,4.621,79.52,440.83366896232,1.968504,6,P-GPS,
49100,2022-09-03 19:00:25,-34.865778147463,-55.2575742434618,1.968504,0.72178480000001,440.11188416232,440.83366896232,5.905512,0,23.6432422264,35.6381245,12,3,7.723,441.16175296232,2.296588,2.684328,23.8143380324,0,0,0,359.4, -0.5, 0.2,0,0,1024,1024,1024,364,0,0,0,-100,20.6,0,0,65,3.866,3.856,0,0,0,0,4.465,79.52,440.83366896232,1.968504,6,P-GPS,
49200,2022-09-03 19:00:25,-34.8657782734654,-55.2575746584465,1.968504,0.78740160000005,440.04626736232,440.83366896232,5.905512,0,23.6910440652,35.770670436,10,3,7.723,441.16175296232,2.296588,2.684328,23.8143380324,0,0,0,359.2, -0.4, 0.3,0,0,1024,1024,1024,1024,0,0,0,0,19.8,0,0,65,3.866,3.856,0,0,0,0,4.465,79.52,440.83366896232,1.968504,6,P-GPS,
49300,2022-09-03 19:00:25,-34.8657782514489,-55.2575751386035,1.968504,0.78740160000005,440.04626736232,440.83366896232,5.905512,0,23.7927172968,35.914699312,10,3,7.723,441.16175296232,2.296588,2.684328,23.8143380324,0,0,0,357.5, -0.3, 0.5,0,0,1024,1024,1024,1024,0,0,0,0,17,0,0,65,3.866,3.856,0,0,0,0,4.465,79.52,440.83366896232,1.968504,6,P-GPS,
49400,2022-09-03 19:00:25,-34.8657785306033,-55.2575760273135,1.968504,0.95144359999999,439.88222536232,440.83366896232,5.905512,0,23.895834098,36.199476224,10,4,7.723,441.16175296232,2.296588,2.684328,23.895834098,0,0,0,355.1, -0.4, 0.3,0,0,1024,1024,1024,1024,0,0,0,0,15.3,0,0,65,3.866,3.856,0,0,0,0,4.465,79.52,440.83366896232,1.968504,6,P-GPS,
49500,2022-09-03 19:00:25,-34.865778434486,-55.2575764348226,1.968504,0.85301839999999,439.98065056232,440.83366896232,5.577428,0,24.0041674348,36.326444732,10,4,7.723,441.16175296232,2.296588,2.684328,24.0041674348,0,0,0,353.9, -0.3, 0.3,0,0,1024,1024,1024,1024,0,0,0,0,14.9,0,0,65,3.866,3.856,0,0,0,0,4.465,79.52,440.83366896232,1.968504,6,P-GPS,
49600,2022-09-03 19:00:25,-34.8657783368836,-55.2575768244359,1.968504,0.91863520000002,439.91503376232,440.83366896232,5.577428,0,24.1094823988,36.44849198,10,4,7.723,441.16175296232,2.296588,2.684328,24.1094823988,0,0,0,353.8, -0.2, 0.4,0,0,1024,1024,1024,1024,0,0,0,0,14.9,0,0,65,3.866,3.856,0,0,0,0,4.465,79.52,440.83366896232,1.968504,6,P-GPS,
49700,2022-09-03 19:00:25,-34.8657782305527,-55.2575772372072,1.968504,0.91863520000002,439.91503376232,440.83366896232,5.577428,0,24.2219824024,36.57808516,10,4,7.723,441.16175296232,2.296588,2.684328,24.2219824024,0,0,0,353.7, -0.2, 0.5,0,0,1024,1024,1024,1024,0,0,0,0,14.9,0,0,65,3.866,3.856,0,0,0,0,4.465,79.52,440.83366896232,1.968504,6,P-GPS,
49800,2022-09-03 19:00:25,-34.86577793329,-55.2575777408144,1.968504,0.98425199999996,439.84941696232,440.83366896232,5.577428,0,24.4041018308,36.763780704,11,4,7.723,441.16175296232,2.296588,2.684328,24.4041018308,0,0,0,353.7, -0.2, 0.5,0,0,1024,1024,1024,1024,0,0,0,0,14.9,0,0,65,3.866,3.856,0,0,0,0,4.465,79.52,440.83366896232,1.968504,6,P-GPS,
49900,2022-09-03 19:00:25,-34.8657778464223,-55.2575781417875,1.968504,0.98425199999996,439.84941696232,440.83366896232,5.577428,0,24.5092527528,36.887796456,11,4,7.723,441.16175296232,2.296588,2.684328,24.5092527528,0,0,0,353.6, 0, 0.7,0,0,1024,1024,1024,1024,0,0,0,0,14.9,0,0,65,3.866,3.856,0,0,0,0,4.465,79.52,440.83366896232,1.968504,6,P-GPS,
50000,2022-09-03 19:00:26,-34.8657777651043,-55.2575785178902,1.968504,1.0498688,439.78380016232,440.83366896232,5.577428,0,24.6080388452,37.004266276,11,4,7.723,441.16175296232,2.296588,2.684328,24.6080388452,0,0,0,353.6, 0, 0.6,0,0,1024,1397,1024,1024,0,57,0,0,14.9,0,0,65,3.866,3.856,0,0,0,0,4.465,79.52,440.83366896232,1.968504,6,P-GPS,
50100,2022-09-03 19:00:26,-34.8657776997581,-55.2575789080465,1.968504,1.0498688,439.78380016232,440.83366896232,5.577428,0,24.7056110268,37.123360768,11,4,7.72,441.16175296232,2.296588,2.684328,24.7056110268,0,0,0,353.6, 0, 1.2,0,0,1024,1684,1024,1024,0,100,0,0,14.9,0,0,65,3.864,3.854,0,0,0,0,4.439,79.52,440.83366896232,1.968504,6,P-GPS,
50200,2022-09-03 19:00:26,-34.8657776285235,-55.257579254685,1.968504,1.0498688,439.78380016232,440.83366896232,5.577428,0,24.7959653604,37.230316152,11,4,7.72,441.16175296232,2.296588,2.684328,24.7959653604,0,0,0,353.8, 0, 10.5,0,0,1024,1024,1024,1024,0,0,0,0,14.9,0,0,65,3.864,3.854,0,0,0,0,4.439,79.52,440.83366896232,1.968504,6,P-GPS,
50300,2022-09-03 19:00:26,-34.8657773626051,-55.2575794982925,1.968504,0.95144359999999,439.88222536232,440.83366896232,5.577428,0.447388,24.916503422,37.351707232,11,4,7.72,441.16175296232,2.296588,2.684328,24.916503422,0,0.447388,0,354, 0, 13.7,0,0,1024,1024,1024,1024,0,0,0,0,14.9,0,0,65,3.864,3.854,0,0,0,0,4.439,79.52,440.83366896232,1.968504,6,P-GPS,
50400,2022-09-03 19:00:26,-34.8657771949405,-55.2575794881857,1.968504,0.95144359999999,439.88222536232,440.83366896232,5.577428,0.894776,24.9587606412,37.41305894,13,4,7.72,441.16175296232,2.296588,2.684328,24.9587606412,0,0.894776,0,353.4, 0.1, 0.1,0,0,1024,1325,1024,1024,0,46,0,0,14.9,0,0,65,3.864,3.854,0,0,0,0,4.439,79.52,440.83366896232,1.968504,6,P-GPS,
50500,2022-09-03 19:00:26,-34.8657771912146,-55.2575793512008,1.968504,0.95144359999999,439.88222536232,440.83366896232,5.577428,0.894776,24.9315624776,37.45406944,13,4,7.72,441.16175296232,2.296588,2.684328,24.9587606412,0,0.894776,0,353.4, 0.1, -3.6,0,0,1024,1024,1024,1024,0,0,0,0,14.9,0,0,65,3.864,3.854,0,0,0,0,4.439,79.52,440.83366896232,1.968504,6,P-GPS,
50600,2022-09-03 19:00:26,-34.8657771925173,-55.2575792730819,1.968504,0.95144359999999,439.88222536232,440.83366896232,5.577428,0.671082,24.9151254692,37.477363404,13,4,7.72,441.16175296232,2.296588,2.684328,24.9587606412,0,0.671082,0,353.7, 0.1, 1,0,0,1024,1024,1024,1024,0,0,0,0,14.9,0,0,65,3.864,3.854,0,0,0,0,4.439,79.52,440.83366896232,1.968504,6,P-GPS,
50700,2022-09-03 19:00:26,-34.8657770474425,-55.2575792608242,1.968504,0.95144359999999,439.88222536232,440.83366896232,5.577428,0.671082,24.951116284,37.530513012,13,4,7.72,441.16175296232,2.296588,2.684328,24.9587606412,0,0.671082,0,353.7, 0, -0.5,0,0,1024,1024,1024,1024,0,0,0,0,14.9,0,0,65,3.864,3.854,0,0,0,0,4.439,79.52,440.83366896232,1.968504,6,P-GPS,
50800,2022-09-03 19:00:26,-34.8657769002572,-55.2575792723092,1.968504,0.95144359999999,439.88222536232,440.83366896232,5.577428,0.671082,24.9925861016,37.584318788,10,3,7.72,441.16175296232,2.296588,2.684328,24.9925861016,0,0.671082,0,353.5, -0.1, -3.2,0,0,1024,1024,1024,1024,0,0,0,0,14.9,0,0,65,3.864,3.854,0,0,0,0,4.439,79.52,440.83366896232,1.968504,6,P-GPS,
50900,2022-09-03 19:00:26,-34.8657770973902,-55.2575791380808,1.968504,0.95144359999999,439.88222536232,440.83366896232,5.577428,0.447388,24.9126648392,37.666667872,10,3,7.72,441.16175296232,2.296588,2.684328,24.9925861016,0,0.447388,0,353.6, -0.3, -3.3,0,0,1024,1492,1024,1024,0,71,0,0,14.9,0,0,65,3.864,3.854,0,0,0,0,4.439,79.52,440.83366896232,1.968504,6,P-GPS,
51000,2022-09-03 19:00:27,-34.865777259479,-55.257579089802,1.968504,0.95144359999999,439.88222536232,440.83366896232,5.577428,0.223694,24.8597120816,37.727691496,11,3,7.72,441.16175296232,2.296588,2.684328,24.9925861016,0,0.223694,0,353.6, -0.3, -2,0,0,1024,1684,1024,1024,0,100,0,0,14.9,0,0,65,3.864,3.854,0,0,0,0,4.439,79.52,440.83366896232,1.968504,6,P-GPS,
51100,2022-09-03 19:00:27,-34.8657768497103,-55.2575793718947,1.968504,0.95144359999999,439.88222536232,440.83366896232,5.577428,0.447388,25.0264443704,37.899279428,11,3,7.705,441.16175296232,2.296588,2.684328,25.0264443704,0,0.447388,0,353.8, -0.4, 7.7,0,0,1024,1024,1024,1024,0,0,0,0,14.9,0,0,65,3.861,3.852,0,0,0,0,4.499,79.52,440.83366896232,1.968504,6,P-GPS,
51200,2022-09-03 19:00:27,-34.8657765292847,-55.2575795338751,1.968504,1.0170604,439.81660856232,440.83366896232,5.577428,0.671082,25.1448826944,38.025919852,11,3,7.705,441.16175296232,2.296588,2.684328,25.1448826944,0,0.671082,0,354, -0.4, 13.2,0,0,1024,1024,1024,1024,0,0,0,0,14.9,0,0,65,3.861,3.852,0,0,0,0,4.499,79.52,440.83366896232,1.968504,6,P-GPS,
51300,2022-09-03 19:00:27,-34.8657759122217,-55.2575794133869,1.968504,0.88582679999996,439.94784216232,440.83366896232,5.577428,0.894776,25.2851714128,38.253938232,11,3,7.705,441.16175296232,2.296588,2.684328,25.2851714128,0,0.894776,0,353.5, -0.2, -0.1,0,0,1024,1024,1024,1024,0,0,0,0,14.9,0,0,65,3.861,3.852,0,0,0,0,4.499,79.52,440.83366896232,1.968504,6,P-GPS,
51400,2022-09-03 19:00:27,-34.8657753081601,-55.2575792542047,1.968504,0.78740160000005,440.04626736232,440.83366896232,5.905512,0.894776,25.4154207608,38.47933194,11,3,7.705,441.16175296232,2.296588,2.684328,25.4154207608,0,0.894776,0,353.4, -0.3, -4.8,0,0,1024,841,1024,1024,0,-28,0,0,14.9,0,0,65,3.861,3.852,0,0,0,0,4.499,79.52,440.83366896232,1.968504,6,P-GPS,
51500,2022-09-03 19:00:27,-34.8657734500664,-55.257579516042,1.968504,0.68897640000004,440.14469256232,440.83366896232,5.577428,0.671082,25.972605818,39.16174666,11,3,7.705,441.16175296232,2.296588,2.684328,25.972605818,0,0.671082,0,353.6, -0.4, -4.6,0,0,1024,841,1024,1024,0,-28,0,0,14.9,0,0,65,3.861,3.852,0,0,0,0,4.499,79.52,440.83366896232,1.968504,6,P-GPS,
51600,2022-09-03 19:00:27,-34.8657728713044,-55.2575796290128,1.968504,0.68897640000004,440.14469256232,440.83366896232,5.577428,0.671082,26.153544144,39.375657428,12,3,7.705,441.16175296232,2.296588,2.684328,26.153544144,0,0.671082,0,353.6, -0.4, -6.3,0,0,1024,1024,1024,1024,0,0,0,0,14.9,0,0,65,3.861,3.852,0,0,0,0,4.499,79.52,440.83366896232,1.968504,6,P-GPS,
51700,2022-09-03 19:00:27,-34.8657724713846,-55.2575796946444,1.968504,0.59055120000004,440.24311776232,440.83366896232,5.905512,0.447388,26.2764444104,39.522967144,12,3,7.705,441.16175296232,2.296588,2.684328,26.2764444104,0,0.447388,0,353.7, -0.4, -2.7,0,0,1024,1024,1024,1024,0,0,0,0,14.9,0,0,65,3.861,3.852,0,0,0,0,4.499,79.52,440.83366896232,1.968504,6,P-GPS,
51800,2022-09-03 19:00:27,-34.8657721001776,-55.2575797983436,1.968504,0.59055120000004,440.24311776232,440.83366896232,5.905512,0.223694,26.3990822096,39.661746676,11,3,7.705,441.16175296232,2.296588,2.684328,26.3990822096,0,0.223694,0,353.7, -0.4, -2.1,0,0,1024,471,1024,1024,0,-84,0,0,14.9,0,0,65,3.861,3.852,0,0,0,0,4.499,79.52,440.83366896232,1.968504,6,P-GPS,
51900,2022-09-03 19:00:27,-34.8657717798822,-55.2575797856474,1.968504,0.59055120000004,440.24311776232,440.83366896232,5.905512,0,26.4851058344,39.778872664,11,3,7.705,441.16175296232,2.296588,2.684328,26.4851058344,0,0,0,353.7, -0.3, -3.5,0,0,1024,1024,1024,1024,0,0,0,0,14.9,0,0,65,3.861,3.852,0,0,0,0,4.499,79.52,440.83366896232,1.968504,6,P-GPS,
52000,2022-09-03 19:00:28,-34.8657715385337,-55.2575794519766,1.968504,0.52493440000001,440.30873456232,440.83366896232,5.905512,0,26.4871071468,39.911746684,13,3,7.705,441.16175296232,2.296588,2.684328,26.4871071468,0,0,0,353.4, -0.4, -7.7,0,0,1024,1024,1024,1024,0,0,0,0,14.9,0,0,65,3.861,3.852,0,0,0,0,4.499,79.52,440.83366896232,1.968504,6,P-GPS,
52100,2022-09-03 19:00:28,-34.8657712519276,-55.2575798264088,1.968504,0.49212600000004,440.34154296232,440.83366896232,5.905512,0,26.6394037396,40.065289996,13,3,7.696,441.16175296232,2.296588,2.684328,26.6394037396,0,0,0,353.8, -0.3, 0,0,0,1024,364,1024,1024,0,-100,0,0,14.9,0,0,65,3.858,3.85,0,0,0,0,4.491,79.7,440.83366896232,1.968504,6,P-GPS,
52200,2022-09-03 19:00:28,-34.8657709773589,-55.2575801969361,1.968504,0.49212600000004,440.34154296232,440.83366896232,5.905512,0,26.7875992824,40.214568216,13,3,7.696,441.16175296232,2.296588,2.684328,26.7875992824,0,0,0,353.7, -0.2, 0.5,0,0,1024,1024,1024,1024,0,0,0,0,14.9,0,0,65,3.858,3.85,0,0,0,0,4.491,79.7,440.83366896232,1.968504,6,P-GPS,
52300,2022-09-03 19:00:28,-34.8657706127959,-55.2575804420889,1.968504,0.49212600000004,440.34154296232,440.83366896232,5.905512,0.223694,26.9364181848,40.366471108,13,3,7.696,441.16175296232,2.296588,2.684328,26.9364181848,0,-0.223694,0,353.5, -0.2, -9.1,0,0,1024,1024,1024,1024,0,0,0,0,14.9,0,0,65,3.858,3.85,0,0,0,0,4.491,79.7,440.83366896232,1.968504,6,P-GPS,
52400,2022-09-03 19:00:28,-34.8657702706663,-55.2575805965936,1.968504,0.49212600000004,440.34154296232,440.83366896232,5.905512,0.671082,27.0614838056,40.499673212,13,3,7.696,441.16175296232,2.296588,2.684328,27.0614838056,0,-0.671082,0,353.4, -0.4, -7,0,0,1024,1024,1024,1024,0,0,0,0,14.9,0,0,65,3.858,3.85,0,0,0,0,4.491,79.7,440.83366896232,1.968504,6,P-GPS,
52500,2022-09-03 19:00:28,-34.8657700055296,-55.2575809598958,1.968504,0.49212600000004,440.34154296232,440.83366896232,5.905512,0.671082,27.2056111068,40.645342508,13,3,7.696,441.16175296232,2.296588,2.684328,27.2056111068,0,-0.671082,0,353.9, -0.2, 2.4,0,0,1024,1024,1024,1024,0,0,0,0,14.9,0,0,65,3.858,3.85,0,0,0,0,4.491,79.7,440.83366896232,1.968504,6,P-GPS,
52600,2022-09-03 19:00:28,-34.8657697472453,-55.2575812863624,1.968504,0.49212600000004,440.34154296232,440.83366896232,5.905512,0.447388,27.340716098,40.781169284,13,3,7.696,441.16175296232,2.296588,2.684328,27.340716098,0,-0.447388,0,353.7, -0.2, 3.3,0,0,1024,1024,1024,1024,0,0,0,0,14.9,0,0,65,3.858,3.85,0,0,0,0,4.491,79.7,440.83366896232,1.968504,6,P-GPS,
52700,2022-09-03 19:00:28,-34.8657693267941,-55.2575814921738,1.968504,0.39370080000003,440.43996816232,440.83366896232,5.905512,0.447388,27.49754025,40.946195536,13,3,7.696,441.16175296232,2.296588,2.684328,27.49754025,0,-0.447388,0,353.7, -0.2, 2.8,0,0,1024,1024,1024,1024,0,0,0,0,14.9,0,0,65,3.858,3.85,0,0,0,0,4.491,79.7,440.83366896232,1.968504,6,P-GPS,
52800,2022-09-03 19:00:28,-34.8657687855254,-55.2575808701874,1.968504,0.39370080000003,440.43996816232,440.83366896232,5.905512,0.223694,27.5291347392,41.217849088,12,3,7.696,441.16175296232,2.296588,2.684328,27.5291347392,0,-0.223694,0,353.6, -0.3, 2.3,0,0,1024,1024,1024,1024,0,0,0,0,14.9,0,0,65,3.858,3.85,0,0,0,0,4.491,79.7,440.83366896232,1.968504,6,P-GPS,
52900,2022-09-03 19:00:28,-34.8657684488935,-55.2575809155427,1.968504,0.29527560000003,440.53839336232,440.83366896232,5.905512,0.223694,27.632382774,41.341208672,12,3,7.696,441.16175296232,2.296588,2.684328,27.632382774,0,0,0,353.6, -0.4, 1.9,0,0,1024,1024,1024,1024,0,0,0,0,14.9,0,0,65,3.858,3.85,0,0,0,0,4.491,79.7,440.83366896232,1.968504,6,P-GPS,
53000,2022-09-03 19:00:29,-34.8657681211202,-55.2575809270695,1.968504,0.29527560000003,440.53839336232,440.83366896232,5.905512,0,27.7268381576,41.460959332,12,3,7.696,441.16175296232,2.296588,2.684328,27.7268381576,0,0,0,353.6, -0.3, 1.3,0,0,1024,1024,1024,1024,0,0,0,0,14.9,0,0,65,3.858,3.85,0,0,0,0,4.491,79.7,440.83366896232,1.968504,6,P-GPS,
53100,2022-09-03 19:00:29,-34.8657676515812,-55.2575809965852,1.968504,0.29527560000003,440.53839336232,440.83366896232,5.905512,0,27.872540262,41.633531516,12,3,7.702,441.16175296232,2.296588,2.684328,27.872540262,0,0,0,353.6, -0.2, 1,0,0,1024,1024,1024,1024,0,0,0,0,14.9,0,0,65,3.857,3.848,0,0,0,0,4.541,79.7,440.83366896232,1.968504,6,P-GPS,
53200,2022-09-03 19:00:29,-34.8657669232108,-55.2575805547046,1.968504,0.2296588,440.60401016232,440.83366896232,5.905512,0,27.9960310796,41.930447536,12,3,7.702,441.16175296232,2.296588,2.684328,27.9960310796,0,0,0,353.6, -0.2, 0.5,0,0,1024,1024,1024,1024,0,0,0,0,14.9,0,0,65,3.857,3.848,0,0,0,0,4.541,79.7,440.83366896232,1.968504,6,P-GPS,
