time(millisecond),datetime(utc),latitude,longitude,height_above_takeoff(feet),height_above_ground_at_drone_location(feet),ground_elevation_at_drone_location(feet),altitude_above_seaLevel(feet),height_sonar(feet),speed(mph),distance(feet),mileage(feet),satellites,gpslevel,voltage(v),max_altitude(feet),max_ascent(feet),max_speed(mph),max_distance(feet), xSpeed(mph), ySpeed(mph), zSpeed(mph), compass_heading(degrees), pitch(degrees), roll(degrees),isPhoto,isVideo,rc_elevator,rc_aileron,rc_throttle,rc_rudder,rc_elevator(percent),rc_aileron(percent),rc_throttle(percent),rc_rudder(percent),gimbal_heading(degrees),gimbal_pitch(degrees),gimbal_roll(degrees),battery_percent,voltageCell1,voltageCell2,voltageCell3,voltageCell4,voltageCell5,voltageCell6,current(A),battery_temperature(f),altitude(feet),ascent(feet),flycStateRaw,flycState,message
547700,2022-08-12 02:28:22,-34.9064532409424,-56.163060714687,0,0,121.56438742024,122.12213022024,0,0,0,0,18,5,0,122.12213022024,0,0,0,0,0,0,141, 0.7, 0.3,0,0,364,364,364,1684,-100,-100,-100,100,154.8,0,0,41,3.805,3.8,0,0,0,0,0,95.9,122.12213022024,0,41,Motors_Started,"Aeronave en Zona de altitud restringida (150). Vuela con precaución (Code: 190001). Baja velocidad de la tarjeta SD. Puede afectar a su uso normal. Sustituye la tarjeta SD (Code: 10028)"
547800,2022-08-12 02:28:23,-34.9064532812598,-56.1630607083068,0,0,121.56438742024,122.12213022024,0,0,0.0148331369576,0.0148331369576,18,5,0,122.12213022024,0,0,0.0148331369576,0,0,0,141, 0.7, 0.3,0,0,364,364,364,1684,-100,-100,-100,100,154.8,0,0,41,3.805,3.8,0,0,0,0,0,95.9,122.12213022024,0,41,Motors_Started,
547900,2022-08-12 02:28:23,-34.9064532866108,-56.1630607027245,0,0,121.56438742024,122.12213022024,0.328084,0,0.0170422249548,0.0174024611868,18,5,0,122.12213022024,0,0,0.0170422249548,0,0,0,141, 0.7, 0.3,0,0,364,364,364,1684,-100,-100,-100,100,154.8,0,0,41,3.805,3.8,0,0,0,0,0,95.9,122.12213022024,0,41,Motors_Started,
548000,2022-08-12 02:28:23,-34.9064532739501,-56.163060662088,0,0,121.56438742024,122.12213022024,0.328084,0,0.0198170610016,0.030409121708,18,5,0,122.12213022024,0,0,0.0198170610016,0,0,0,141, 0.7, 0.3,0,0,364,364,364,1684,-100,-100,-100,100,154.8,0,0,41,3.805,3.8,0,0,0,0,0,95.9,122.12213022024,0,41,Motors_Started,
548100,2022-08-12 02:28:23,-34.9064532629247,-56.1630607098399,0,0,121.56438742024,122.12213022024,0.328084,0,0.0081503283448,0.045252298036,18,5,0,122.12213022024,0,0,0.0198170610016,0,0,0,141, 0.7, 0.3,0,0,757,364,1024,1387,-40,-100,0,55,154.7,0,0,41,3.805,3.8,0,0,0,0,0,95.9,122.12213022024,0,41,Motors_Started,
548200,2022-08-12 02:28:23,-34.9064532512667,-56.163060755774,0,0,121.56438742024,122.12213022024,0.328084,0,0.0128577103852,0.059639437604,19,5,0,122.12213022024,0,0,0.0198170610016,0,0,0,141, 0.7, 0.3,0,0,1024,977,1024,1024,0,-7,0,0,154.7,0,0,41,3.805,3.8,0,0,0,0,0,95.9,122.12213022024,0,41,Motors_Started,
548300,2022-08-12 02:28:23,-34.9064532908395,-56.1630607686165,0,0,121.56438742024,122.12213022024,0.328084,0,0.0243268708572,0.07458005488,19,5,0,122.12213022024,0,0,0.0243268708572,0,0,0,141, 0.7, 0.3,0,0,1024,1024,1024,1024,0,0,0,0,154.7,0,0,41,3.805,3.8,0,0,0,0,0,95.9,122.12213022024,0,41,Motors_Started,
548400,2022-08-12 02:28:23,-34.906453340255,-56.1630608437392,0,0,121.56438742024,122.12213022024,0.328084,0,0.052952101432,0.103394688348,19,5,0,122.12213022024,0,0,0.052952101432,0,0,0,141, 0.7, 0.3,0,0,1024,1024,1024,1024,0,0,0,0,154.7,0,0,41,3.805,3.8,0,0,0,0,0,95.9,122.12213022024,0,41,Motors_Started,"Setting new Return-To-Home altitude to 40m (131 ft). Data Recorder File Index is 36. Setting new Maximum Flight Altitude to 120m (394 ft)"
548500,2022-08-12 02:28:23,-34.906453348646,-56.1630608397918,0,0,121.56438742024,122.12213022024,0.328084,0,5.0512796892,0.106676184516,19,5,0,122.12213022024,0,0,5.0512796892,0,0,0,141, 0.7, 0.3,0,0,1024,1024,1024,1024,0,0,0,0,154.7,0,0,41,3.805,3.8,0,0,0,0,0,95.9,122.12213022024,0,41,Motors_Started,
548600,2022-08-12 02:28:23,-34.9064533561951,-56.1630608351131,0,0,121.56438742024,122.12213022024,0.328084,0,5.0500001616,0.109765751544,19,5,7.624,122.12213022024,0,0,5.0512796892,0,0,0,141, 0.7, 0.3,0,0,1024,1024,1024,1024,0,0,0,0,154.7,0,0,41,3.805,3.8,0,0,0,0,0.72,95.9,122.12213022024,0,41,Motors_Started,
548700,2022-08-12 02:28:23,-34.9064533509739,-56.1630608261618,0,0,121.56438742024,122.12213022024,0.328084,0,5.047244256,0.113052497056,19,5,7.624,122.12213022024,0,0,5.0512796892,0,0,0,141.1, 0.7, 0.2,0,0,1024,1024,1024,1024,0,0,0,0,154.8,0,0,41,3.805,3.8,0,0,0,0,0.72,95.9,122.12213022024,0,41,Motors_Started,
548800,2022-08-12 02:28:24,-34.9064532997992,-56.1630607701352,0,0,121.56438742024,122.12213022024,0.328084,0,5.0297573788,0.13814468946,19,5,7.624,122.12213022024,0,0,5.0512796892,0,0,0,141.1, 0.7, 0.2,0,0,1024,1024,1024,1024,0,0,0,0,154.8,0,0,41,3.805,3.8,0,0,0,0,0.72,95.9,122.12213022024,0,10,Assisted_Takeoff,
548900,2022-08-12 02:28:24,-34.9064532897603,-56.1630607085171,0,0,121.56438742024,122.12213022024,0.328084,0,5.0112206328,0.156941606072,19,5,7.624,122.12213022024,0,0,5.0512796892,0,0,0,141.1, 0.7, 0.3,0,0,1024,1024,1577,1024,0,0,84,0,154.8,0,0,41,3.805,3.8,0,0,0,0,0.72,95.9,122.12213022024,0,10,Assisted_Takeoff,
549000,2022-08-12 02:28:24,-34.9064532782488,-56.1630606484947,0,0,121.56438742024,122.12213022024,0.328084,0,4.993110396,0.1753855043,19,5,7.624,122.12213022024,0,0,5.0512796892,0,0,0,141.1, 0.7, 0.2,0,0,1024,1024,1684,1024,0,0,100,0,154.8,0,0,41,3.805,3.8,0,0,0,0,0.72,95.9,122.12213022024,0,10,Assisted_Takeoff,
549100,2022-08-12 02:28:24,-34.9064532161167,-56.1630606244262,0,0,121.56438742024,122.12213022024,0.328084,0,4.9851379548,0.199170610048,19,5,7.624,122.12213022024,0,0,5.0512796892,0,0,0,141.1, 0.7, 0.3,0,0,1024,1024,1684,1024,0,0,100,0,154.8,0,0,41,3.805,3.8,0,0,0,0,0.72,95.9,122.12213022024,0,10,Assisted_Takeoff,
549200,2022-08-12 02:28:24,-34.9064531542367,-56.1630606014114,0,0,121.56438742024,122.12213022024,0.328084,0,4.9775920228,0.222774285344,19,5,7.624,122.12213022024,0,0,5.0512796892,0,0,0,141.1, 0.7, 0.3,0,0,1024,1024,1684,1024,0,0,100,0,154.8,0,0,41,3.805,3.8,0,0,0,0,0.72,95.9,122.12213022024,0,10,Assisted_Takeoff,
549300,2022-08-12 02:28:24,-34.906453025007,-56.1630605554303,0,0,121.56438742024,122.12213022024,0.328084,0,4.9627954344,0.271890100564,19,5,7.624,122.12213022024,0,0,5.0512796892,0,0,0,141.3, 0.7, 0.3,0,0,1024,1024,1684,1024,0,0,100,0,154.8,0,0,41,3.805,3.8,0,0,0,0,0.72,95.9,122.12213022024,0,10,Assisted_Takeoff,
549400,2022-08-12 02:28:24,-34.9064530067184,-56.1630605525262,0,0,121.56438742024,122.12213022024,0.328084,0,4.9618111824,0.278619103404,19,5,7.624,122.12213022024,0,0,5.0512796892,0,0,0,141.7, 0.6, 0.2,0,0,1024,1024,1684,1024,0,0,100,0,155.1,0,0,41,3.805,3.8,0,0,0,0,0.72,95.9,122.12213022024,0,10,Assisted_Takeoff,
549500,2022-08-12 02:28:24,-34.9064530584251,-56.1630605068271,0,0,121.56438742024,122.12213022024,0.328084,0,4.948490972,0.301918316748,19,5,7.624,122.12213022024,0,0,5.0512796892,0,0,0,142.4, -0.6, 0.2,0,0,1024,1024,1684,1024,0,0,100,0,155.6,0,0,41,3.805,3.8,0,0,0,0,0.72,95.9,122.12213022024,0,10,Assisted_Takeoff,
549600,2022-08-12 02:28:24,-34.90645312541,-56.1630604616726,0,-0.032808399999993,121.59719582024,122.12213022024,0.328084,0,4.935531654,0.32984253024,19,5,7.624,122.12213022024,0,0,5.0512796892,0,0,0,143.2, -2.4, 0.6,0,0,1024,1024,1684,1024,0,0,100,0,156.2,0,0,41,3.805,3.8,0,0,0,0,0.72,95.9,122.12213022024,0,10,Assisted_Takeoff,
549700,2022-08-12 02:28:24,-34.906453342293,-56.1630604269592,0,-0.032808399999993,121.59719582024,122.12213022024,0.328084,0,4.9277888716,0.40965224408,19,5,7.607,122.12213022024,0,0,5.0512796892,0,0,-0.447388,143.5, -1.1, 0.2,0,0,1024,1024,1684,1024,0,0,100,0,156.8,0,0,41,3.796,3.789,0,0,0,0,1.523,95.9,122.12213022024,0,38,Tripod,"Baja velocidad de la tarjeta SD. Puede afectar a su uso normal. Sustituye la tarjeta SD (Code: 10028)"
549800,2022-08-12 02:28:25,-34.906453454012,-56.1630604156953,0,-0.032808399999993,121.59719582024,122.12213022024,0.328084,0.223694,4.9262468768,0.45055119552,19,5,7.607,122.12213022024,0,0.223694,5.0512796892,-0.223694,0,-0.671082,143.2, 0.6, 0,0,0,1024,1024,1684,1024,0,0,100,0,156.9,0,0,41,3.796,3.789,0,0,0,0,1.523,95.9,122.12213022024,0,38,Tripod,
549900,2022-08-12 02:28:25,-34.9064535484724,-56.163060392755,0,0,121.56438742024,122.12213022024,0.656168,0.223694,4.9212271916,0.48569227276,19,5,7.607,122.12213022024,0,0.223694,5.0512796892,-0.223694,0,-1.11847,142.9, 1.2, -0.3,0,0,1024,1024,1684,1024,0,0,100,0,156.8,0,0,41,3.796,3.789,0,0,0,0,1.523,95.9,122.12213022024,0,38,Tripod,
550000,2022-08-12 02:28:25,-34.9064536320742,-56.1630604008445,0.328084,0.328084,121.56438742024,122.45021422024,0.656168,0,4.9254594752,0.5162893866,19,5,7.607,122.45021422024,0.328084,0.223694,5.0512796892,0,0,-1.565858,143, 0.6, -0.6,0,0,1024,1024,1684,1024,0,0,100,0,156.9,0,0,41,3.796,3.789,0,0,0,0,1.523,95.9,122.45021422024,0.328084,38,Tripod,
550100,2022-08-12 02:28:25,-34.906453783673,-56.1630603415638,0.656168,0.656168,121.56438742024,122.77829822024,0.984252,0,4.9115487136,0.5743766588,19,5,7.607,122.77829822024,0.656168,0.223694,5.0512796892,0,0,-2.013246,142.9, -0.1, -1.4,0,0,1024,1024,1684,1024,0,0,100,0,156.8,0,0,41,3.796,3.789,0,0,0,0,1.523,95.9,122.77829822024,0.656168,38,Tripod,
550200,2022-08-12 02:28:25,-34.9064538772283,-56.1630603756869,0.984252,0.984252,121.56438742024,123.10638222024,1.312336,0,4.924376798,0.61000330036,20,5,7.607,123.10638222024,0.984252,0.223694,5.0512796892,0,0,-2.684328,142.9, -0.2, -1.4,0,0,1024,1024,1684,1024,0,0,100,0,156.8,0,0,41,3.796,3.789,0,0,0,0,1.523,95.9,123.10638222024,0.984252,38,Tripod,
550300,2022-08-12 02:28:25,-34.9064540712847,-56.1630603137711,1.312336,1.312336,121.56438742024,123.43446622024,1.64042,0,4.9121720732,0.68318899824,20,5,7.607,123.43446622024,1.312336,0.223694,5.0512796892,0,0,-3.131716,143, 0, -2.1,0,0,1024,1024,1684,1024,0,0,100,0,156.8,0,0,41,3.796,3.789,0,0,0,0,1.523,95.9,123.43446622024,1.312336,38,Tripod,
550400,2022-08-12 02:28:25,-34.9064542384881,-56.1630602509713,1.968504,1.968504,121.56438742024,124.09063422024,2.296588,0,4.8997048812,0.74702102128,20,5,7.607,124.09063422024,1.968504,0.223694,5.0512796892,0,0,-3.579104,143.2, -0.6, -2.1,0,0,1024,1024,1684,1024,0,0,100,0,156.8,0,0,41,3.796,3.789,0,0,0,0,1.523,95.9,124.09063422024,1.968504,38,Tripod,
550500,2022-08-12 02:28:25,-34.9064543392505,-56.1630597225637,2.624672,2.624672,121.56438742024,124.74680222024,2.952756,0,4.7468177372,0.90934386112,20,5,7.607,124.74680222024,2.624672,0.223694,5.0512796892,0,0,-4.026492,143.2, -0.7, -2,0,0,1024,1024,1297,1024,0,0,41,0,156.8,0,0,41,3.796,3.789,0,0,0,0,1.523,95.9,124.74680222024,2.624672,38,Tripod,"Baja velocidad de la tarjeta SD. Puede afectar a su uso normal. Sustituye la tarjeta SD (Code: 10028)"
550600,2022-08-12 02:28:25,-34.9064543311066,-56.163059573235,3.28084,3.28084,121.56438742024,125.40297022024,3.608924,0,4.702099888,0.95412076544,21,5,7.607,125.40297022024,3.28084,0.223694,5.0512796892,0,0,-4.250186,143.1, -0.4, -1.5,0,0,1024,1024,1297,1024,0,0,41,0,156.8,0,0,41,3.796,3.789,0,0,0,0,1.523,95.9,125.40297022024,3.28084,38,Tripod,
550700,2022-08-12 02:28:25,-34.9064543823428,-56.1630594429684,3.937008,3.9041996,121.59719582024,126.05913822024,3.937008,0,4.6657153724,0.99734911328,21,5,7.485,126.05913822024,3.937008,0.223694,5.0512796892,0,0,-4.250186,143.1, -0.3, -1.7,0,0,1024,1024,1024,1024,0,0,0,0,156.8,0,0,41,3.739,3.729,0,0,0,0,4.676,95.9,126.05913822024,3.937008,38,Tripod,
550800,2022-08-12 02:28:26,-34.9064544218146,-56.1630593022292,4.593176,4.5603676,121.59719582024,126.71530622024,4.593176,0,4.6257547412,1.04185370788,19,5,7.485,126.71530622024,4.593176,0.223694,5.0512796892,0,0,-4.026492,143.2, 0.3, -1,0,0,1024,1024,1024,1024,0,0,0,0,156.9,0,0,41,3.739,3.729,0,0,0,0,4.676,95.9,126.71530622024,4.593176,38,Tripod,
550900,2022-08-12 02:28:26,-34.9064545506282,-56.1630591813318,4.92126,4.9540684,121.53157902024,127.04339022024,5.249344,0,4.5962599896,1.10116145256,19,5,7.485,127.04339022024,4.92126,0.223694,5.0512796892,0,0,-3.579104,143.2, 1, -1,0,0,1024,1024,1024,1024,0,0,0,0,156.9,0,0,41,3.739,3.729,0,0,0,0,4.676,95.9,127.04339022024,4.92126,38,Tripod,
551000,2022-08-12 02:28:26,-34.9064549072147,-56.1630589704699,5.577428,5.6102364,121.53157902024,127.69955822024,5.905512,0,4.5541011956,1.2457513522,21,5,7.485,127.69955822024,5.577428,0.223694,5.0512796892,0,0,-2.908022,143.3, 2, -0.4,0,0,1024,1024,1024,1024,0,0,0,0,156.8,0,0,41,3.739,3.729,0,0,0,0,4.676,95.9,127.69955822024,5.577428,38,Tripod,
551100,2022-08-12 02:28:26,-34.906455029212,-56.1630588850392,5.905512,5.9383204,121.53157902024,128.02764222024,6.233596,0,4.5367127436,1.297080094,21,5,7.485,128.02764222024,5.905512,0.223694,5.0512796892,0,0,-2.460634,143.3, 2.1, -0.7,0,0,1024,1024,1024,1024,0,0,0,0,156.9,0,0,41,3.739,3.729,0,0,0,0,4.676,95.9,128.02764222024,5.905512,38,Tripod,
551200,2022-08-12 02:28:26,-34.9064551362537,-56.1630588118909,6.233596,6.2664044,121.53157902024,128.35572622024,6.56168,0,4.5224410896,1.34185043664,22,5,7.485,128.35572622024,6.233596,0.223694,5.0512796892,0,0,-1.789552,143.2, 2.1, -0.6,0,0,1024,1024,1024,1024,0,0,0,0,156.9,0,0,41,3.739,3.729,0,0,0,0,4.676,95.9,128.35572622024,6.233596,38,Tripod,
551300,2022-08-12 02:28:26,-34.906455081249,-56.1630586985723,6.56168,6.5944884,121.53157902024,128.68381022024,6.56168,0,4.4853675976,1.3812500442,22,5,7.485,128.68381022024,6.56168,0.223694,5.0512796892,0,0,-1.11847,143.2, 2.3, -0.6,0,0,1024,1024,1024,1024,0,0,0,0,156.9,0,0,41,3.739,3.729,0,0,0,0,4.676,95.9,128.68381022024,6.56168,38,Tripod,
551400,2022-08-12 02:28:26,-34.9064550197467,-56.1630585431429,6.56168,6.5944884,121.53157902024,128.68381022024,6.889764,0,4.4354988296,1.43288718496,21,5,7.485,128.68381022024,6.56168,0.223694,5.0512796892,0,0,-0.447388,143.1, 2.3, -0.6,0,0,1024,1024,1024,1024,0,0,0,0,156.8,0,0,41,3.739,3.729,0,0,0,0,4.676,95.9,128.68381022024,6.56168,38,Tripod,
551500,2022-08-12 02:28:26,-34.9064549956815,-56.1630585941435,6.56168,6.5944884,121.53157902024,128.68381022024,6.889764,0,4.4489174652,1.4504921724,21,5,7.485,128.68381022024,6.56168,0.223694,5.0512796892,0,0,-0.223694,143, 1.7, -0.8,0,0,1024,1024,1024,364,0,0,0,-100,156.9,0,0,41,3.739,3.729,0,0,0,0,4.676,95.9,128.68381022024,6.56168,38,Tripod,
551600,2022-08-12 02:28:26,-34.9064549501828,-56.1630586591019,6.56168,6.5944884,121.53157902024,128.68381022024,6.889764,0,4.465059198,1.476049916,21,5,7.485,128.68381022024,6.56168,0.223694,5.0512796892,0,0,0,143, 0.6, -1.1,0,0,1024,1024,1024,364,0,0,0,-100,156.8,0,0,41,3.739,3.729,0,0,0,0,4.676,95.9,128.68381022024,6.56168,38,Tripod,
551700,2022-08-12 02:28:26,-34.9064548579803,-56.1630588007276,6.56168,6.5944884,121.53157902024,128.68381022024,6.889764,0,4.500984396,1.53015752928,21,5,7.528,128.68381022024,6.56168,0.223694,5.0512796892,0,0,0,142.8, 0.3, -1.2,0,0,1024,1024,1024,364,0,0,0,-100,156.2,0,0,41,3.774,3.766,0,0,0,0,4.624,95.9,128.68381022024,6.56168,38,Tripod,
551800,2022-08-12 02:28:27,-34.9064547381895,-56.1630593491675,6.56168,6.5944884,121.53157902024,128.68381022024,6.889764,0.223694,4.6559384692,1.69997380768,22,5,7.528,128.68381022024,6.56168,0.223694,5.0512796892,0.223694,0,0,141.8, -0.5, -1.1,0,0,1024,1024,1024,364,0,0,0,-100,154.6,0,0,41,3.774,3.766,0,0,0,0,4.624,95.9,128.68381022024,6.56168,38,Tripod,
551900,2022-08-12 02:28:27,-34.9064545939868,-56.1630594061435,6.56168,6.5944884,121.53157902024,128.68381022024,6.889764,0.223694,4.6650592044,1.75527892756,22,5,7.528,128.68381022024,6.56168,0.223694,5.0512796892,0.223694,0,0,140, -0.9, -1.3,0,0,1024,1024,1024,364,0,0,0,-100,152.4,0,0,41,3.774,3.766,0,0,0,0,4.624,95.9,128.68381022024,6.56168,38,Tripod,
552000,2022-08-12 02:28:27,-34.9064544409855,-56.1630594389465,6.56168,6.5288716,121.59719582024,128.68381022024,6.889764,0.3131716,4.6672245588,1.8119587194,21,5,7.528,128.68381022024,6.56168,0.3131716,5.0512796892,0.223694,-0.223694,0,137.9, -1.6, -1.2,0,0,1024,1024,1024,364,0,0,0,-100,150.1,0,0,41,3.774,3.766,0,0,0,0,4.624,95.9,128.68381022024,6.56168,38,Tripod,
552100,2022-08-12 02:28:27,-34.9064543298938,-56.1630594272191,6.56168,6.5288716,121.59719582024,128.68381022024,6.889764,0.223694,4.6586615664,1.8526411354,21,5,7.528,128.68381022024,6.56168,0.3131716,5.0512796892,0.223694,0,0,135.6, -1.4, -0.7,0,0,1024,1024,1024,364,0,0,0,-100,147.8,0,0,41,3.774,3.766,0,0,0,0,4.624,95.9,128.68381022024,6.56168,38,Tripod,
552200,2022-08-12 02:28:27,-34.9064541569311,-56.1630594605758,6.56168,6.5288716,121.59719582024,128.68381022024,6.889764,0,4.6613846636,1.91653221356,22,5,7.528,128.68381022024,6.56168,0.3131716,5.0512796892,0,0,0,133.3, -1.6, -0.1,0,0,1024,1024,1024,364,0,0,0,-100,145.4,0,0,41,3.774,3.766,0,0,0,0,4.624,95.9,128.68381022024,6.56168,38,Tripod,
552300,2022-08-12 02:28:27,-34.906454116803,-56.1630594001238,6.56168,6.5288716,121.59719582024,128.68381022024,6.889764,0,4.6418308572,1.93980321168,22,5,7.528,128.68381022024,6.56168,0.3131716,5.0512796892,0,0,0,130.8, -1.8, -0.4,0,0,1024,1024,1024,364,0,0,0,-100,143,0,0,41,3.774,3.766,0,0,0,0,4.624,95.9,128.68381022024,6.56168,38,Tripod,
552400,2022-08-12 02:28:27,-34.9064540958974,-56.1630593191929,6.56168,6.5288716,121.59719582024,128.68381022024,6.889764,0,4.61696209,1.9651903516,22,5,7.528,128.68381022024,6.56168,0.3131716,5.0512796892,0,0,0,128.4, -1.4, -0.9,0,0,1024,1024,1024,364,0,0,0,-100,140.6,0,0,41,3.774,3.766,0,0,0,0,4.624,95.9,128.68381022024,6.56168,38,Tripod,
552500,2022-08-12 02:28:27,-34.9064541776307,-56.1630593031276,6.56168,6.5288716,121.59719582024,128.68381022024,6.889764,0,4.6153872868,1.99539704548,22,5,7.528,128.68381022024,6.56168,0.3131716,5.0512796892,0,0,0,125.9, -1.4, -1.3,0,0,1024,1024,1024,364,0,0,0,-100,138.2,0,0,41,3.774,3.766,0,0,0,0,4.624,95.9,128.68381022024,6.56168,38,Tripod,
552600,2022-08-12 02:28:27,-34.9064542676205,-56.1630592686571,6.56168,6.5288716,121.59719582024,128.68381022024,6.889764,0,4.6088584152,2.02980977624,22,5,7.528,128.68381022024,6.56168,0.3131716,5.0512796892,0,0,0,123.5, -1.3, -1.4,0,0,1024,1024,1024,364,0,0,0,-100,135.8,0,0,41,3.774,3.766,0,0,0,0,4.624,95.9,128.68381022024,6.56168,38,Tripod,
552700,2022-08-12 02:28:27,-34.9064546512184,-56.1630593686135,6.889764,6.9225724,121.53157902024,129.01189422024,6.889764,0,4.6569555296,2.17292657872,22,5,7.528,129.01189422024,6.889764,0.3131716,5.0512796892,0,0,0,121.2, -0.5, -1.4,0,0,1024,1024,1012,364,0,0,-2,-100,133.4,0,0,41,3.752,3.743,0,0,0,0,4.624,95.9,129.01189422024,6.889764,38,Tripod,
552800,2022-08-12 02:28:28,-34.9064550451602,-56.1630594693116,6.889764,6.9225724,121.53157902024,129.01189422024,6.889764,0,4.709809862,2.31978025796,21,5,7.528,129.01189422024,6.889764,0.3131716,5.0512796892,0,0,0,118.8, -0.6, -1.9,0,0,1024,1024,1012,364,0,0,-2,-100,131,0,0,41,3.752,3.743,0,0,0,0,4.624,95.9,129.01189422024,6.889764,38,Tripod,
552900,2022-08-12 02:28:28,-34.9064552235888,-56.1630594462211,6.889764,6.9225724,121.53157902024,129.01189422024,6.889764,0,4.7148295472,2.38524285848,21,5,7.528,129.01189422024,6.889764,0.3131716,5.0512796892,0,0,0,116.4, -0.9, -2.3,0,0,1024,1024,991,364,0,0,-5,-100,128.6,0,0,41,3.752,3.743,0,0,0,0,4.624,95.9,129.01189422024,6.889764,38,Tripod,
553000,2022-08-12 02:28:28,-34.9064553760991,-56.1630594047633,6.889764,6.9225724,121.53157902024,129.01189422024,6.889764,0,4.7135172112,2.44225401516,21,5,7.528,129.01189422024,6.889764,0.3131716,5.0512796892,0,0,0,114.2, -1.6, -1.8,0,0,1024,1024,983,364,0,0,-6,-100,126.2,0,0,41,3.752,3.743,0,0,0,0,4.624,95.9,129.01189422024,6.889764,38,Tripod,
553100,2022-08-12 02:28:28,-34.90645562856,-56.1630593756935,6.889764,6.9553808,121.49877062024,129.01189422024,6.889764,0,4.7243439832,2.53477370316,21,5,7.528,129.01189422024,6.889764,0.3131716,5.0512796892,0,0,0,111.8, -1.9, -0.6,0,0,1024,1024,979,364,0,0,-7,-100,123.8,0,0,41,3.752,3.743,0,0,0,0,4.624,95.9,129.01189422024,6.889764,38,Tripod,
553200,2022-08-12 02:28:28,-34.9064556904165,-56.1630592806169,6.889764,6.9553808,121.49877062024,129.01189422024,6.889764,0,4.7016405704,2.57108604028,21,5,7.528,129.01189422024,6.889764,0.3131716,5.0512796892,0,0,0,109.2, -1.5, -0.4,0,0,1024,1024,978,364,0,0,-7,-100,121.4,0,0,41,3.752,3.743,0,0,0,0,4.624,95.9,129.01189422024,6.889764,38,Tripod,"Punto de origen actualizado. Altitud de RPO establecida en 40m (Code: 3000001)"
553300,2022-08-12 02:28:28,-34.9064557209946,-56.163059249501,6.889764,6.9553808,121.49877062024,129.01189422024,6.889764,0,4.6951116988,2.58561688064,21,5,7.528,129.01189422024,6.889764,0.3131716,5.0512796892,0,0,0,106.6, -1.4, -1.2,0,0,1024,1024,978,364,0,0,-7,-100,119,0,0,41,3.752,3.743,0,0,0,0,4.624,95.9,129.01189422024,6.889764,38,Tripod,
553400,2022-08-12 02:28:28,-34.9064557573724,-56.1630592144625,6.889764,6.9553808,121.49877062024,129.01189422024,6.889764,0,4.6879594676,2.60252961084,21,5,7.528,129.01189422024,6.889764,0.3131716,5.0512796892,0,0,0,104.2, -1.2, -1.9,0,0,1024,1024,977,364,0,0,-7,-100,116.6,0,0,40,3.752,3.743,0,0,0,0,4.624,95.9,129.01189422024,6.889764,38,Tripod,
553500,2022-08-12 02:28:28,-34.9064555917482,-56.1630594163875,6.889764,6.9553808,121.49877062024,129.01189422024,6.889764,0,4.7333006764,2.68798236948,21,5,7.528,129.01189422024,6.889764,0.3131716,5.0512796892,0,0,0,101.9, -1.4, -1.8,0,0,1024,1024,976,364,0,0,-7,-100,114.2,0,0,40,3.752,3.743,0,0,0,0,4.624,95.9,129.01189422024,6.889764,38,Tripod,
553600,2022-08-12 02:28:28,-34.9064555643317,-56.1630594155283,6.889764,6.9553808,121.49877062024,129.01189422024,6.889764,0,4.7309056632,2.69798565064,21,5,7.528,129.01189422024,6.889764,0.3131716,5.0512796892,0,0,0,99.6, -1.7, -2.2,0,0,1024,1024,978,364,0,0,-7,-100,111.8,0,0,40,3.752,3.743,0,0,0,0,4.624,95.9,129.01189422024,6.889764,38,Tripod,
553700,2022-08-12 02:28:28,-34.9064555304308,-56.1630593789032,6.889764,6.9553808,121.49877062024,129.01189422024,6.889764,0,4.7175526444,2.71451124172,21,5,7.498,129.01189422024,6.889764,0.3131716,5.0512796892,0,0,0,97.3, -1.9, -1.6,0,0,1024,1024,978,364,0,0,-7,-100,109.4,0,0,40,3.752,3.744,0,0,0,0,4.194,95.9,129.01189422024,6.889764,38,Tripod,
553800,2022-08-12 02:28:29,-34.906455482899,-56.1630593403051,6.889764,6.9225724,121.53157902024,129.01189422024,6.889764,0,4.7026248224,2.73534785656,21,5,7.498,129.01189422024,6.889764,0.3131716,5.0512796892,0,0,0,95, -2.3, -0.8,0,0,1024,1024,950,364,0,0,-11,-100,107,0,0,40,3.752,3.744,0,0,0,0,4.194,95.9,129.01189422024,6.889764,38,Tripod,
553900,2022-08-12 02:28:29,-34.9064551983561,-56.1630593065018,6.56168,6.5944884,121.53157902024,128.68381022024,6.889764,0,4.6720473936,2.83965560268,21,5,7.498,129.01189422024,6.889764,0.3131716,5.0512796892,0,0,0,92.5, -2.4, -0.5,0,0,1024,1024,937,364,0,0,-13,-100,104.6,0,0,40,3.752,3.744,0,0,0,0,4.194,95.9,128.68381022024,6.56168,38,Tripod,
554000,2022-08-12 02:28:29,-34.9064550953635,-56.1630592468294,6.56168,6.5944884,121.53157902024,128.68381022024,6.889764,0,4.6475723272,2.88125665388,21,5,7.498,129.01189422024,6.889764,0.3131716,5.0512796892,0,0,0,90, -2.2, -1,0,0,1024,1024,934,364,0,0,-14,-100,102.2,0,0,40,3.752,3.744,0,0,0,0,4.194,95.9,128.68381022024,6.56168,38,Tripod,
554100,2022-08-12 02:28:29,-34.9064550866798,-56.1630590821171,6.56168,6.5944884,121.53157902024,128.68381022024,6.889764,0,4.5985237692,2.9306431384,21,5,7.498,129.01189422024,6.889764,0.3131716,5.0512796892,0,0,0,87.6, -1.5, -1.5,0,0,1024,1024,935,364,0,0,-13,-100,99.8,0,0,40,3.752,3.744,0,0,0,0,4.194,95.9,128.68381022024,6.56168,38,Tripod,
554200,2022-08-12 02:28:29,-34.9064550692579,-56.1630589171031,6.56168,6.5944884,121.53157902024,128.68381022024,6.889764,0,4.5488190432,2.98042332372,21,5,7.498,129.01189422024,6.889764,0.3131716,5.0512796892,0,0,0,85.3, -1.7, -1.3,0,0,1024,1024,1024,1024,0,0,0,0,97.4,0,0,40,3.752,3.744,0,0,0,0,4.194,95.9,128.68381022024,6.56168,38,Tripod,
554300,2022-08-12 02:28:29,-34.9064551113019,-56.1630587385715,6.56168,6.5944884,121.53157902024,128.68381022024,6.889764,0,4.499179934,3.03600075332,21,5,7.498,129.01189422024,6.889764,0.3131716,5.0512796892,0,0,0,83, -2.1, -0.4,0,0,1024,1024,1024,1024,0,0,0,0,95,0,0,40,3.752,3.744,0,0,0,0,4.194,95.9,128.68381022024,6.56168,38,Tripod,
554400,2022-08-12 02:28:29,-34.9064553817685,-56.1630582401764,6.56168,6.56168,121.56438742024,128.68381022024,6.889764,0,4.3731300612,3.21481637584,20,5,7.498,129.01189422024,6.889764,0.3131716,5.0512796892,0,0,0,80.8, -2.4, -0.1,0,0,1024,1024,1024,1024,0,0,0,0,93,0,0,40,3.752,3.744,0,0,0,0,4.194,95.9,128.68381022024,6.56168,38,Tripod,
554500,2022-08-12 02:28:29,-34.9064553705754,-56.1630581204163,6.56168,6.56168,121.56438742024,128.68381022024,6.56168,0,4.33727048,3.25088264996,20,5,7.498,129.01189422024,6.889764,0.3131716,5.0512796892,0,0,0,79, -2.3, -0.3,0,0,1024,1024,1024,1024,0,0,0,0,91.5,0,0,40,3.752,3.744,0,0,0,0,4.194,95.9,128.68381022024,6.56168,38,Tripod,
554600,2022-08-12 02:28:29,-34.9064553731459,-56.16305799007,6.56168,6.56168,121.56438742024,128.68381022024,6.56168,0,4.2994095864,3.2898951184,20,5,7.498,129.01189422024,6.889764,0.3131716,5.0512796892,0,0,0,77.5, -2.5, -1,0,0,1024,1024,1024,1024,0,0,0,0,90.5,0,0,40,3.752,3.744,0,0,0,0,4.194,95.9,128.68381022024,6.56168,38,Tripod,
554700,2022-08-12 02:28:29,-34.9064553991587,-56.1630578454357,6.56168,6.56168,121.56438742024,128.68381022024,6.56168,0,4.2593177216,3.3341864584,20,5,7.494,129.01189422024,6.889764,0.3131716,5.0512796892,0,0,0,76.7, -2.2, -1.8,0,0,1024,1024,1024,1024,0,0,0,0,90,0,0,40,3.751,3.742,0,0,0,0,4.538,95.72,128.68381022024,6.56168,38,Tripod,
554800,2022-08-12 02:28:30,-34.9064554172002,-56.1630576823008,6.56168,6.56168,121.56438742024,128.68381022024,6.56168,0,4.213254728,3.3834646752,20,5,7.494,129.01189422024,6.889764,0.3131716,5.0512796892,0,0,0,76.3, -2.2, -2.2,0,0,1024,1024,1024,1024,0,0,0,0,90,0,0,40,3.751,3.742,0,0,0,0,4.538,95.72,128.68381022024,6.56168,38,Tripod,
554900,2022-08-12 02:28:30,-34.9064553984365,-56.1630577662663,6.56168,6.56168,121.56438742024,128.68381022024,6.889764,0,4.2361877996,3.4094817364,20,5,7.494,129.01189422024,6.889764,0.3131716,5.0512796892,0,0,0,76.3, -2.3, -1.8,0,0,1024,1024,1024,1024,0,0,0,0,90,0,0,40,3.751,3.742,0,0,0,0,4.538,95.72,128.68381022024,6.56168,38,Tripod,
555000,2022-08-12 02:28:30,-34.9064553704345,-56.1630578610217,6.56168,6.56168,121.56438742024,128.68381022024,6.56168,0,4.2615486928,3.439632656,20,5,7.494,129.01189422024,6.889764,0.3131716,5.0512796892,0,0,0,76.4, -2.5, -1.2,0,0,1024,1024,1024,1024,0,0,0,0,89.9,0,0,40,3.751,3.742,0,0,0,0,4.538,95.72,128.68381022024,6.56168,38,Tripod,
555100,2022-08-12 02:28:30,-34.906455416259,-56.1630578826588,6.56168,6.56168,121.56438742024,128.68381022024,6.56168,0,4.2715880632,3.4575460424,20,5,7.494,129.01189422024,6.889764,0.3131716,5.0512796892,0,0,0,76.3, -2.5, -1,0,0,1024,1024,1024,1024,0,0,0,0,90,0,0,40,3.751,3.742,0,0,0,0,4.538,95.72,128.68381022024,6.56168,38,Tripod,
555200,2022-08-12 02:28:30,-34.9064555426287,-56.1630583189592,6.56168,6.5944884,121.53157902024,128.68381022024,6.56168,0,4.4091864928,3.5959974904,21,5,7.494,129.01189422024,6.889764,0.3131716,5.0512796892,0,0,0,76.2, -2.7, -1.5,0,0,1024,1024,1024,1024,0,0,0,0,90,0,0,40,3.751,3.742,0,0,0,0,4.538,95.72,128.68381022024,6.56168,38,Tripod,
555300,2022-08-12 02:28:30,-34.9064555983426,-56.1630582997927,6.56168,6.5944884,121.53157902024,128.68381022024,6.56168,0,4.4082678576,3.6171261,21,5,7.494,129.01189422024,6.889764,0.3131716,5.0512796892,0,0,0,76.2, -2.4, -1.6,0,0,1024,1024,1024,1024,0,0,0,0,90,0,0,40,3.751,3.742,0,0,0,0,4.538,95.72,128.68381022024,6.56168,38,Tripod,
555400,2022-08-12 02:28:30,-34.9064556486868,-56.1630582802619,6.56168,6.5944884,121.53157902024,128.68381022024,6.56168,0,4.4069227132,3.6363846308,22,5,7.494,129.01189422024,6.889764,0.3131716,5.0512796892,0,0,0,76.2, -2.6, -1.6,0,0,1024,1024,1024,1024,0,0,0,0,90,0,0,40,3.751,3.742,0,0,0,0,4.538,95.72,128.68381022024,6.56168,38,Tripod,
555500,2022-08-12 02:28:30,-34.9064556971802,-56.163058233035,6.233596,6.2664044,121.53157902024,128.35572622024,6.56168,0,4.3974410856,3.6590552352,22,5,7.494,129.01189422024,6.889764,0.3131716,5.0512796892,0,0,0,76.3, -2.5, -1.8,0,0,1024,1024,1024,1024,0,0,0,0,90,0,0,40,3.751,3.742,0,0,0,0,4.538,95.72,128.35572622024,6.233596,38,Tripod,
555600,2022-08-12 02:28:30,-34.9064558446529,-56.1630581620347,6.233596,6.2664044,121.53157902024,128.35572622024,6.56168,0,4.3901904292,3.7168964444,22,5,7.494,129.01189422024,6.889764,0.3131716,5.0512796892,0,0,0,76.3, -2.5, -1.7,0,0,1024,1024,1024,1024,0,0,0,0,90,0,0,40,3.751,3.742,0,0,0,0,4.538,95.72,128.35572622024,6.233596,38,Tripod,
555700,2022-08-12 02:28:30,-34.9064559231024,-56.1630580484001,6.233596,6.2664044,121.53157902024,128.35572622024,6.56168,0,4.3647311108,3.761319018,22,5,7.492,129.01189422024,6.889764,0.3131716,5.0512796892,0,0,0,76.3, -2.6, -1.5,0,0,1024,1024,1024,1024,0,0,0,0,90,0,0,40,3.749,3.741,0,0,0,0,4.375,95.9,128.35572622024,6.233596,38,Tripod,
555800,2022-08-12 02:28:31,-34.9064559956724,-56.1630579257267,6.233596,6.2664044,121.53157902024,128.35572622024,6.56168,0,4.3364174616,3.80659461,22,5,7.492,129.01189422024,6.889764,0.3131716,5.0512796892,0,0,0,76.3, -2.3, -1.1,0,0,1024,1024,1024,1024,0,0,0,0,90,0,0,40,3.749,3.741,0,0,0,0,4.375,95.9,128.35572622024,6.233596,38,Tripod,
555900,2022-08-12 02:28:31,-34.9064560265819,-56.1630578392958,6.233596,6.2664044,121.53157902024,128.35572622024,6.56168,0,4.3145998756,3.834809834,22,5,7.492,129.01189422024,6.889764,0.3131716,5.0512796892,0,0,0,76.2, -2.1, -1.1,0,0,1024,1024,1024,1024,0,0,0,0,90,0,0,40,3.749,3.741,0,0,0,0,4.375,95.9,128.35572622024,6.233596,38,Tripod,
556000,2022-08-12 02:28:31,-34.9064560579327,-56.1630577510159,6.233596,6.2664044,121.53157902024,128.35572622024,6.56168,0,4.2923557804,3.8635828008,22,5,7.492,129.01189422024,6.889764,0.3131716,5.0512796892,0,0,0,76.2, -1.7, -1.3,0,0,1024,1024,1024,1024,0,0,0,0,90,0,0,40,3.749,3.741,0,0,0,0,4.375,95.9,128.35572622024,6.233596,38,Tripod,
556100,2022-08-12 02:28:31,-34.9064561396781,-56.1630576461105,6.233596,6.2664044,121.53157902024,128.35572622024,6.56168,0,4.270669428,3.9068898888,22,5,7.492,129.01189422024,6.889764,0.3131716,5.0512796892,0,0,0,76.3, -1.7, -1,0,0,1024,1024,1024,1024,0,0,0,0,90,0,0,40,3.749,3.741,0,0,0,0,4.375,95.9,128.35572622024,6.233596,38,Tripod,
556200,2022-08-12 02:28:31,-34.9064562310224,-56.1630575467196,6.233596,6.2664044,121.53157902024,128.35572622024,6.56168,0,4.2519358316,3.9515421212,22,5,7.492,129.01189422024,6.889764,0.3131716,5.0512796892,0,0,0,76.2, -2.4, -1.6,0,0,1024,1024,1024,1024,0,0,0,0,90,0,0,40,3.749,3.741,0,0,0,0,4.375,95.9,128.35572622024,6.233596,38,Tripod,
556300,2022-08-12 02:28:31,-34.9064562249019,-56.1630575712947,6.233596,6.2664044,121.53157902024,128.35572622024,6.56168,0,4.2583006612,3.9592520952,22,5,7.492,129.01189422024,6.889764,0.3131716,5.0512796892,0,0,0,76.3, -2.7, -1.5,0,0,1024,1024,1024,1024,0,0,0,0,90,0,0,40,3.749,3.741,0,0,0,0,4.375,95.9,128.35572622024,6.233596,38,Tripod,
556400,2022-08-12 02:28:31,-34.9064562089024,-56.1630575948265,6.233596,6.2664044,121.53157902024,128.35572622024,6.56168,0,4.2633203464,3.9683728304,22,5,7.492,129.01189422024,6.889764,0.3131716,5.0512796892,0,0,0,76.6, -2.8, -0.5,0,0,1024,1024,1024,1024,0,0,0,0,90,0,0,40,3.749,3.741,0,0,0,0,4.375,95.9,128.35572622024,6.233596,38,Tripod,
556500,2022-08-12 02:28:31,-34.9064561024071,-56.1630577201651,6.233596,6.2664044,121.53157902024,128.35572622024,6.56168,0,4.28805788,4.0223754568,22,5,7.492,129.01189422024,6.889764,0.3131716,5.0512796892,0,0,0,76.5, -2.5, -0.5,0,0,1024,1024,1024,1024,0,0,0,0,90,0,0,40,3.749,3.741,0,0,0,0,4.375,95.9,128.35572622024,6.233596,38,Tripod,
556600,2022-08-12 02:28:31,-34.9064560936664,-56.1630576893064,6.233596,6.2664044,121.53157902024,128.35572622024,6.56168,0,4.2782809768,4.03215236,22,5,7.492,129.01189422024,6.889764,0.3131716,5.0512796892,0,0,0,76.3, -2.3, -1.2,0,0,1024,1024,1024,1024,0,0,0,0,90,0,0,40,3.749,3.741,0,0,0,0,4.375,95.9,128.35572622024,6.233596,38,Tripod,
556700,2022-08-12 02:28:32,-34.9064560873912,-56.1630576686291,6.233596,6.2664044,121.53157902024,128.35572622024,6.56168,0,4.2717192968,4.0387468484,22,5,7.491,129.01189422024,6.889764,0.3131716,5.0512796892,0,0,0,76.2, -1.8, -1.1,0,0,1024,1024,1024,1024,0,0,0,0,90,0,0,40,3.747,3.738,0,0,0,0,4.293,95.9,128.35572622024,6.233596,38,Tripod,
556800,2022-08-12 02:28:32,-34.9064560848403,-56.1630576479739,6.233596,6.2664044,121.53157902024,128.35572622024,6.56168,0,4.2655185092,4.0450132528,22,5,7.491,129.01189422024,6.889764,0.3131716,5.0512796892,0,0,0,76.2, -1.6, -1.1,0,0,1024,1024,1024,1024,0,0,0,0,90,0,0,40,3.747,3.738,0,0,0,0,4.293,95.9,128.35572622024,6.233596,38,Tripod,
556900,2022-08-12 02:28:32,-34.9064560669046,-56.1630576890387,6.233596,6.2664044,121.53157902024,128.35572622024,6.56168,0,4.2754594544,4.0589240144,22,5,7.491,129.01189422024,6.889764,0.3131716,5.0512796892,0,0,0,76.1, -2.1, -1.4,0,0,1024,1024,1024,1024,0,0,0,0,90,0,0,40,3.747,3.738,0,0,0,0,4.293,95.9,128.35572622024,6.233596,38,Tripod,
557000,2022-08-12 02:28:32,-34.9064560772582,-56.1630576702757,6.233596,6.2664044,121.53157902024,128.35572622024,6.56168,0,4.2711287456,4.0656825448,22,5,7.491,129.01189422024,6.889764,0.3131716,5.0512796892,0,0,0,76.2, -2, -1.2,0,0,1024,1024,1024,1024,0,0,0,0,90,0,0,40,3.747,3.738,0,0,0,0,4.293,95.9,128.35572622024,6.233596,38,Tripod,
557100,2022-08-12 02:28:32,-34.9064560926649,-56.1630576701359,6.233596,6.2664044,121.53157902024,128.35572622024,6.56168,0,4.2727035488,4.0713255896,22,5,7.491,129.01189422024,6.889764,0.3131716,5.0512796892,0,0,0,76.3, -1.9, -1.4,0,0,1024,1024,1024,1024,0,0,0,0,90,0,0,40,3.747,3.738,0,0,0,0,4.293,95.9,128.35572622024,6.233596,38,Tripod,
557200,2022-08-12 02:28:32,-34.9064561076881,-56.1630576774497,6.233596,6.2664044,121.53157902024,128.35572622024,6.56168,0,4.2763452812,4.0771982932,21,5,7.491,129.01189422024,6.889764,0.3131716,5.0512796892,0,0,0,76.3, -2.2, -0.9,0,0,1024,1024,1024,1024,0,0,0,0,90,0,0,40,3.747,3.738,0,0,0,0,4.293,95.9,128.35572622024,6.233596,38,Tripod,
557300,2022-08-12 02:28:32,-34.9064561187803,-56.1630578171586,6.233596,6.2664044,121.53157902024,128.35572622024,6.56168,0,4.31758544,4.1192258536,21,5,7.491,129.01189422024,6.889764,0.3131716,5.0512796892,0,0,0,76.3, -2.4, -0.8,0,0,1024,1024,1024,1024,0,0,0,0,90,0,0,40,3.747,3.738,0,0,0,0,4.293,95.9,128.35572622024,6.233596,38,Tripod,
557400,2022-08-12 02:28:32,-34.9064561401463,-56.1630578544052,6.233596,6.2664044,121.53157902024,128.35572622024,6.56168,0,4.3304791412,4.1328085312,21,5,7.491,129.01189422024,6.889764,0.3131716,5.0512796892,0,0,0,76.2, -2.5, -1,0,0,1024,1024,1024,1024,0,0,0,0,90,0,0,40,3.747,3.738,0,0,0,0,4.293,95.9,128.35572622024,6.233596,38,Tripod,
557500,2022-08-12 02:28:32,-34.9064561142019,-56.1630579321173,6.233596,6.2664044,121.53157902024,128.35572622024,6.56168,0,4.3501313728,4.1579069572,21,5,7.491,129.01189422024,6.889764,0.3131716,5.0512796892,0,0,0,76.2, -2.8, -1.2,0,0,1024,1024,1024,1024,0,0,0,0,90,0,0,40,3.747,3.738,0,0,0,0,4.293,95.9,128.35572622024,6.233596,38,Tripod,
557600,2022-08-12 02:28:32,-34.9064560926128,-56.1630580017282,6.233596,6.2664044,121.53157902024,128.35572622024,6.56168,0,4.367946334,4.1801838608,20,5,7.491,129.01189422024,6.889764,0.3131716,5.0512796892,0,0,0,76.2, -2.4, -1.4,0,0,1024,1024,1024,1024,0,0,0,0,90,0,0,40,3.747,3.738,0,0,0,0,4.293,95.9,128.35572622024,6.233596,38,Tripod,
557700,2022-08-12 02:28:32,-34.9064560526874,-56.1630580621423,6.233596,6.2664044,121.53157902024,128.35572622024,6.56168,0,4.3813321612,4.203412208,20,5,7.487,129.01189422024,6.889764,0.3131716,5.0512796892,0,0,0,76.1, -2.4, -1.5,0,0,1024,1024,1024,1024,0,0,0,0,90,0,0,40,3.744,3.737,0,0,0,0,4.254,95.72,128.35572622024,6.233596,38,Tripod,
557800,2022-08-12 02:28:33,-34.9064558345728,-56.1630582922608,6.233596,6.2664044,121.53157902024,128.35572622024,6.56168,0,4.4269686456,4.3086287468,20,5,7.487,129.01189422024,6.889764,0.3131716,5.0512796892,0,0,0,76.1, -2.7, -2,0,0,1024,1024,1024,1024,0,0,0,0,90,0,0,40,3.744,3.737,0,0,0,0,4.254,95.72,128.35572622024,6.233596,38,Tripod,
557900,2022-08-12 02:28:33,-34.9064558342081,-56.1630583400544,6.233596,6.2664044,121.53157902024,128.35572622024,6.56168,0,4.440780982,4.3229332092,20,5,7.487,129.01189422024,6.889764,0.3131716,5.0512796892,0,0,0,76.3, -2.9, -1.8,0,0,1024,1024,1024,1024,0,0,0,0,90,0,0,40,3.744,3.737,0,0,0,0,4.254,95.72,128.35572622024,6.233596,38,Tripod,
558000,2022-08-12 02:28:33,-34.9064558261481,-56.1630583901632,6.233596,6.2664044,121.53157902024,128.35572622024,6.56168,0,4.45456051,4.3382219236,20,5,7.487,129.01189422024,6.889764,0.3131716,5.0512796892,0,0,0,76.3, -3.2, -1.6,0,0,1024,1024,1024,1024,0,0,0,0,90,0,0,40,3.744,3.737,0,0,0,0,4.254,95.72,128.35572622024,6.233596,38,Tripod,
558100,2022-08-12 02:28:33,-34.9064558105826,-56.1630584304732,6.233596,6.2664044,121.53157902024,128.35572622024,6.56168,0,4.4648295392,4.351542134,20,5,7.487,129.01189422024,6.889764,0.3131716,5.0512796892,0,0,0,76.3, -2.9, -1,0,0,1024,1024,1024,1024,0,0,0,0,90,0,0,40,3.744,3.737,0,0,0,0,4.254,95.72,128.35572622024,6.233596,38,Tripod,
558200,2022-08-12 02:28:33,-34.9064558104605,-56.1630585032468,6.233596,6.2992128,121.49877062024,128.35572622024,6.56168,0,4.4859253404,4.3733269116,20,5,7.487,129.01189422024,6.889764,0.3131716,5.0512796892,0,0,0,76.2, -2.9, -1.4,0,0,1024,1024,1024,1024,0,0,0,0,90,0,0,40,3.744,3.737,0,0,0,0,4.254,95.72,128.35572622024,6.233596,38,Tripod,
558300,2022-08-12 02:28:33,-34.906455842242,-56.1630584929049,6.233596,6.2664044,121.53157902024,128.35572622024,6.56168,0,4.4857941068,4.3853019776,20,5,7.487,129.01189422024,6.889764,0.3131716,5.0512796892,0,0,0,76.2, -3.2, -1.4,0,0,1024,1024,1024,1024,0,0,0,0,90,0,0,40,3.744,3.737,0,0,0,0,4.254,95.72,128.35572622024,6.233596,38,Tripod,
558400,2022-08-12 02:28:33,-34.9064558719831,-56.1630584777302,6.233596,6.2664044,121.53157902024,128.35572622024,6.56168,0,4.4841208784,4.3970801932,20,5,7.487,129.01189422024,6.889764,0.3131716,5.0512796892,0,0,0,76.2, -3, -1.6,0,0,1024,1024,1024,1024,0,0,0,0,90,0,0,40,3.744,3.737,0,0,0,0,4.254,95.72,128.35572622024,6.233596,38,Tripod,
558500,2022-08-12 02:28:33,-34.9064558675309,-56.1630584360869,6.233596,6.2664044,121.53157902024,128.35572622024,6.56168,0,4.4716536864,4.4096458104,20,5,7.487,129.01189422024,6.889764,0.3131716,5.0512796892,0,0,0,76.2, -2.8, -1.6,0,0,1024,1024,1024,1024,0,0,0,0,90,0,0,40,3.744,3.737,0,0,0,0,4.254,95.72,128.35572622024,6.233596,38,Tripod,
558600,2022-08-12 02:28:33,-34.9064559394088,-56.1630582745281,6.233596,6.2664044,121.53157902024,128.35572622024,6.56168,0,4.43159463,4.4646326888,20,5,7.487,129.01189422024,6.889764,0.3131716,5.0512796892,0,0,0,76.2, -2.9, -1.4,0,0,1024,1024,1024,1024,0,0,0,0,90,0,0,40,3.744,3.737,0,0,0,0,4.254,95.72,128.35572622024,6.233596,38,Tripod,
558700,2022-08-12 02:28:33,-34.9064559226594,-56.1630582473909,5.905512,5.9383204,121.53157902024,128.02764222024,6.56168,0,4.4221786192,4.4748032928,20,5,7.484,129.01189422024,6.889764,0.3131716,5.0512796892,0,0,0,76.2, -3.1, -1.2,0,0,1024,1024,1024,1024,0,0,0,0,90,0,0,40,3.743,3.736,0,0,0,0,4.277,95.9,128.02764222024,5.905512,38,Tripod,
558800,2022-08-12 02:28:34,-34.9064558997839,-56.1630582205816,5.905512,5.9383204,121.53157902024,128.02764222024,6.56168,0,4.4122704824,4.486384658,20,5,7.484,129.01189422024,6.889764,0.3131716,5.0512796892,0,0,0,76.2, -3.1, -1,0,0,1024,1024,1024,1024,0,0,0,0,90,0,0,40,3.743,3.736,0,0,0,0,4.277,95.9,128.02764222024,5.905512,38,Tripod,
558900,2022-08-12 02:28:34,-34.9064559205311,-56.1630582592215,5.905512,5.9383204,121.53157902024,128.02764222024,6.56168,0,4.4253938424,4.5001969944,20,5,7.484,129.01189422024,6.889764,0.3131716,5.0512796892,0,0,0,76.3, -3.1, -1,0,0,1024,1024,1024,1024,0,0,0,0,90,0,0,40,3.743,3.736,0,0,0,0,4.277,95.9,128.02764222024,5.905512,38,Tripod,
559000,2022-08-12 02:28:34,-34.9064560218097,-56.1630583551194,5.905512,5.9383204,121.53157902024,128.02764222024,6.56168,0,4.46276261,4.5469817728,21,5,7.484,129.01189422024,6.889764,0.3131716,5.0512796892,0,0,0,76.3, -3.3, -1.1,0,0,1024,1024,1024,1024,0,0,0,0,90,0,0,40,3.743,3.736,0,0,0,0,4.277,95.9,128.02764222024,5.905512,38,Tripod,
559100,2022-08-12 02:28:34,-34.9064559611314,-56.1630583746725,5.905512,5.9383204,121.53157902024,128.02764222024,6.56168,0,4.462598568,4.569882036,21,5,7.484,129.01189422024,6.889764,0.3131716,5.0512796892,0,0,0,76.3, -3.4, -1,0,0,1024,1024,1024,1024,0,0,0,0,90,0,0,40,3.743,3.736,0,0,0,0,4.277,95.9,128.02764222024,5.905512,38,Tripod,
559200,2022-08-12 02:28:34,-34.9064558992107,-56.1630583878363,5.905512,5.9383204,121.53157902024,128.02764222024,6.56168,0,4.4605972556,4.5928151076,21,5,7.484,129.01189422024,6.889764,0.3131716,5.0512796892,0,0,0,76.3, -3.1, -0.7,0,0,1024,1024,1024,1024,0,0,0,0,90,0,0,40,3.743,3.736,0,0,0,0,4.277,95.9,128.02764222024,5.905512,38,Tripod,
559300,2022-08-12 02:28:34,-34.9064558714074,-56.1630583720374,5.905512,5.9383204,121.53157902024,128.02764222024,6.56168,0,4.4534450244,4.604002772,21,5,7.484,129.01189422024,6.889764,0.3131716,5.0512796892,0,0,0,76.3, -3.1, -0.9,0,0,1024,1024,1024,1024,0,0,0,0,90,0,0,40,3.743,3.736,0,0,0,0,4.277,95.9,128.02764222024,5.905512,38,Tripod,
559400,2022-08-12 02:28:34,-34.9064558451642,-56.1630583469543,5.905512,5.9383204,121.53157902024,128.02764222024,6.56168,0,4.4437665464,4.6161746884,20,5,7.484,129.01189422024,6.889764,0.3131716,5.0512796892,0,0,0,76.3, -3, -1.1,0,0,1024,1024,1024,1024,0,0,0,0,90,0,0,40,3.743,3.736,0,0,0,0,4.277,95.9,128.02764222024,5.905512,38,Tripod,
559500,2022-08-12 02:28:34,-34.9064556937002,-56.1630582998475,5.905512,5.9383204,121.53157902024,128.02764222024,6.56168,0,4.4165355744,4.6731956876,20,5,7.484,129.01189422024,6.889764,0.3131716,5.0512796892,0,0,0,76.3, -3.1, -1.2,0,0,1024,1024,1024,1024,0,0,0,0,90,0,0,40,3.743,3.736,0,0,0,0,4.277,95.9,128.02764222024,5.905512,38,Tripod,
559600,2022-08-12 02:28:34,-34.9064556378861,-56.163058260146,5.905512,5.9383204,121.53157902024,128.02764222024,6.56168,0,4.4001313744,4.6967849272,20,5,7.484,129.01189422024,6.889764,0.3131716,5.0512796892,0,0,0,76.3, -3, -1.4,0,0,1024,1024,1024,1024,0,0,0,0,90,0,0,40,3.743,3.736,0,0,0,0,4.277,95.9,128.02764222024,5.905512,38,Tripod,
559700,2022-08-12 02:28:34,-34.906455564449,-56.1630582139716,5.905512,5.9383204,121.53157902024,128.02764222024,6.56168,0,4.3804463344,4.7269358468,20,5,7.484,129.01189422024,6.889764,0.3131716,5.0512796892,0,0,0,76.3, -2.6, -1.3,0,0,1024,1024,1024,1024,0,0,0,0,90,0,0,40,3.743,3.736,0,0,0,0,4.277,95.9,128.02764222024,5.905512,38,Tripod,
559800,2022-08-12 02:28:35,-34.9064554823477,-56.1630581707953,5.905512,5.905512,121.56438742024,128.02764222024,6.56168,0,4.3610237616,4.7595473964,20,5,7.484,129.01189422024,6.889764,0.3131716,5.0512796892,0,0,0,76.3, -2.5, -1,0,0,1024,1024,1024,1024,0,0,0,0,90,0,0,40,3.743,3.736,0,0,0,0,4.277,95.9,128.02764222024,5.905512,38,Tripod,
559900,2022-08-12 02:28:35,-34.9064554640929,-56.1630580386588,5.905512,5.905512,121.56438742024,128.02764222024,6.56168,0,4.3209975136,4.7996392612,20,5,7.475,129.01189422024,6.889764,0.3131716,5.0512796892,0,0,0,76.4, -2.6, -0.6,0,0,1024,1024,1024,1024,0,0,0,0,90,0,0,40,3.74,3.732,0,0,0,0,4.262,95.9,128.02764222024,5.905512,38,Tripod,
560000,2022-08-12 02:28:35,-34.9064554234453,-56.1630579714428,5.905512,5.905512,121.56438742024,128.02764222024,6.56168,0,4.298064442,4.8246064536,20,5,7.475,129.01189422024,6.889764,0.3131716,5.0512796892,0,0,0,76.3, -3, -0.1,0,0,1024,1024,1024,1024,0,0,0,0,90,0,0,40,3.74,3.732,0,0,0,0,4.262,95.9,128.02764222024,5.905512,38,Tripod,
560100,2022-08-12 02:28:35,-34.9064553548381,-56.1630579561075,5.905512,5.905512,121.56438742024,128.02764222024,6.56168,0,4.28805788,4.850065772,20,5,7.475,129.01189422024,6.889764,0.3131716,5.0512796892,0,0,0,76.3, -2.9, -0.1,0,0,1024,1024,1024,1024,0,0,0,0,90,0,0,40,3.74,3.732,0,0,0,0,4.262,95.9,128.02764222024,5.905512,38,Tripod,
560200,2022-08-12 02:28:35,-34.9064552962565,-56.1630579390198,5.905512,5.905512,121.56438742024,128.02764222024,6.56168,0,4.2784122104,4.8720474,20,5,7.475,129.01189422024,6.889764,0.3131716,5.0512796892,0,0,0,76.3, -3, -0.6,0,0,1024,1024,1024,1024,0,0,0,0,90,0,0,40,3.74,3.732,0,0,0,0,4.262,95.9,128.02764222024,5.905512,38,Tripod,
560300,2022-08-12 02:28:35,-34.9064552372001,-56.1630579665108,5.905512,5.905512,121.56438742024,128.02764222024,6.56168,0,4.2819227092,4.8951117052,20,5,7.475,129.01189422024,6.889764,0.3131716,5.0512796892,0,0,0,76.2, -2.7, -0.5,0,0,1024,1024,1024,1024,0,0,0,0,90,0,0,40,3.74,3.732,0,0,0,0,4.262,95.9,128.02764222024,5.905512,38,Tripod,
560400,2022-08-12 02:28:35,-34.9064551795321,-56.1630579325835,5.905512,5.905512,121.56438742024,128.02764222024,6.56168,0,4.2676182468,4.918471286,20,5,7.475,129.01189422024,6.889764,0.3131716,5.0512796892,0,0,0,76.2, -2.6, -0.8,0,0,1024,1024,1024,1024,0,0,0,0,90,0,0,40,3.74,3.732,0,0,0,0,4.262,95.9,128.02764222024,5.905512,38,Tripod,
560500,2022-08-12 02:28:35,-34.9064551303205,-56.1630579373875,5.905512,5.905512,121.56438742024,128.02764222024,6.56168,0,4.2653872756,4.9364830976,20,5,7.475,129.01189422024,6.889764,0.3131716,5.0512796892,0,0,0,76.3, -2.6, -0.5,0,0,1024,1024,1024,1024,0,0,0,0,90,0,0,40,3.74,3.732,0,0,0,0,4.262,95.9,128.02764222024,5.905512,38,Tripod,
560600,2022-08-12 02:28:35,-34.9064550839782,-56.1630579483745,5.905512,5.905512,121.56438742024,128.02764222024,6.56168,0,4.265256042,4.9537075076,20,5,7.475,129.01189422024,6.889764,0.3131716,5.0512796892,0,0,0,76.2, -2.9, -0.4,0,0,1024,1024,1024,1024,0,0,0,0,90,0,0,40,3.74,3.732,0,0,0,0,4.262,95.9,128.02764222024,5.905512,38,Tripod,
560700,2022-08-12 02:28:36,-34.9064552065878,-56.1630580615586,5.905512,5.905512,121.56438742024,128.02764222024,6.56168,0,4.307414836,5.0098098716,20,5,7.475,129.01189422024,6.889764,0.3131716,5.0512796892,0,0,0,76.3, -2.9, -0.5,0,0,1024,1024,1024,1024,0,0,0,0,90,0,0,40,3.74,3.732,0,0,0,0,4.262,95.9,128.02764222024,5.905512,38,Tripod,
560800,2022-08-12 02:28:36,-34.9064552180065,-56.1630580621267,5.905512,5.905512,121.56438742024,128.02764222024,6.56168,0,4.3084318964,5.0139765384,20,5,7.475,129.01189422024,6.889764,0.3131716,5.0512796892,0,0,0,76.5, -3.1, -1.3,0,0,1024,1024,1024,1024,0,0,0,0,90,0,0,40,3.74,3.732,0,0,0,0,4.262,95.9,128.02764222024,5.905512,38,Tripod,
560900,2022-08-12 02:28:36,-34.9064552287046,-56.1630580522156,5.905512,5.905512,121.56438742024,128.02764222024,6.56168,0,4.3063321588,5.0188977984,20,5,7.468,129.01189422024,6.889764,0.3131716,5.0512796892,0,0,0,76.6, -2.8, -1,0,0,1024,1024,1024,1024,0,0,0,0,90,0,0,40,3.737,3.729,0,0,0,0,4.402,95.9,128.02764222024,5.905512,38,Tripod,
561000,2022-08-12 02:28:36,-34.9064552294488,-56.1630580248552,5.905512,5.905512,121.56438742024,128.02764222024,6.56168,0,4.298392526,5.02706709,20,5,7.468,129.01189422024,6.889764,0.3131716,5.0512796892,0,0,0,76.3, -2.2, 0,0,0,1024,1024,1024,1024,0,0,0,0,90,0,0,40,3.737,3.729,0,0,0,0,4.402,95.9,128.02764222024,5.905512,38,Tripod,
561100,2022-08-12 02:28:36,-34.9064552315218,-56.1630579604414,5.905512,5.905512,121.56438742024,128.02764222024,6.56168,0,4.279691738,5.0463584292,20,5,7.468,129.01189422024,6.889764,0.3131716,5.0512796892,0,0,0,76.3, -2.1, -0.6,0,0,1024,1024,1024,1024,0,0,0,0,90,0,0,40,3.737,3.729,0,0,0,0,4.402,95.9,128.02764222024,5.905512,38,Tripod,
561200,2022-08-12 02:28:36,-34.9064553644989,-56.1630579284741,5.905512,5.905512,121.56438742024,128.02764222024,6.56168,0,4.2807416068,5.095800688,20,5,7.468,129.01189422024,6.889764,0.3131716,5.0512796892,0,0,0,76.4, -1.5, -1.2,0,0,1024,1024,1024,1024,0,0,0,0,90,0,0,40,3.737,3.729,0,0,0,0,4.402,95.9,128.02764222024,5.905512,38,Tripod,
561300,2022-08-12 02:28:36,-34.9064554035791,-56.1630578350924,5.905512,5.905512,121.56438742024,128.02764222024,6.56168,0.223694,4.2566602412,5.1271983268,20,5,7.468,129.01189422024,6.889764,0.3131716,5.0512796892,0,0.223694,0,76.2, -1.5, -0.4,0,0,1024,1024,1024,1024,0,0,0,0,90,0,0,40,3.737,3.729,0,0,0,0,4.402,95.9,128.02764222024,5.905512,38,Tripod,
561400,2022-08-12 02:28:36,-34.9064554418923,-56.1630577316091,5.905512,5.905512,121.56438742024,128.02764222024,6.56168,0.223694,4.2296917364,5.1611550208,20,5,7.468,129.01189422024,6.889764,0.3131716,5.0512796892,0,0.223694,0,76.2, -0.8, -0.1,0,0,1024,1024,1024,1024,0,0,0,0,90,0,0,40,3.737,3.729,0,0,0,0,4.402,95.9,128.02764222024,5.905512,38,Tripod,
561500,2022-08-12 02:28:36,-34.906455409623,-56.1630575828798,6.233596,6.233596,121.56438742024,128.35572622024,6.56168,0.223694,4.1836615512,5.207185206,20,5,7.468,129.01189422024,6.889764,0.3131716,5.0512796892,0,0.223694,0,76.1, -0.5, -1,0,0,1024,1024,1024,1024,0,0,0,0,90,0,0,40,3.737,3.729,0,0,0,0,4.402,95.9,128.35572622024,6.233596,38,Tripod,
561600,2022-08-12 02:28:36,-34.9064554264587,-56.1630574217963,6.233596,6.2007876,121.59719582024,128.35572622024,6.56168,0.223694,4.1381891088,5.2557744464,20,5,7.468,129.01189422024,6.889764,0.3131716,5.0512796892,0,0.223694,0,76.1, -0.2, -1.6,0,0,1024,1024,1024,1024,0,0,0,0,90,0,0,40,3.737,3.729,0,0,0,0,4.402,95.9,128.35572622024,6.233596,38,Tripod,
561700,2022-08-12 02:28:36,-34.9064554766685,-56.1630573700879,6.233596,6.2007876,121.59719582024,128.35572622024,6.56168,0.223694,4.127460762,5.2797573868,20,5,7.468,129.01189422024,6.889764,0.3131716,5.0512796892,0,0.223694,0,76, 0, -2,0,0,1024,1024,1024,1024,0,0,0,0,90,0,0,40,3.737,3.729,0,0,0,0,4.402,95.9,128.35572622024,6.233596,38,Tripod,
561800,2022-08-12 02:28:37,-34.906455513026,-56.1630573389185,6.233596,6.233596,121.56438742024,128.35572622024,6.56168,0,4.1215880584,5.2959647364,20,5,7.468,129.01189422024,6.889764,0.3131716,5.0512796892,0,0,0,76.1, 0.5, -1.7,0,0,1024,1024,1024,1024,0,0,0,0,90,0,0,40,3.737,3.729,0,0,0,0,4.402,95.9,128.35572622024,6.233596,38,Tripod,
561900,2022-08-12 02:28:37,-34.9064555188721,-56.1630572359535,6.233596,6.233596,121.56438742024,128.35572622024,6.56168,0,4.0922245404,5.3268374408,20,5,7.461,129.01189422024,6.889764,0.3131716,5.0512796892,0,0,0,76.1, 0.4, -1.1,0,0,1024,1024,1024,1024,0,0,0,0,90,0,0,40,3.732,3.723,0,0,0,0,4.566,95.9,128.35572622024,6.233596,38,Tripod,
562000,2022-08-12 02:28:37,-34.9064556165397,-56.163057190547,6.233596,6.233596,121.56438742024,128.35572622024,6.56168,0,4.08792664,5.36499361,20,5,7.461,129.01189422024,6.889764,0.3131716,5.0512796892,0,0,0,76.1, -0.1, -1.1,0,0,1024,1024,1024,1024,0,0,0,0,90,0,0,40,3.732,3.723,0,0,0,0,4.566,95.9,128.35572622024,6.233596,38,Tripod,
562100,2022-08-12 02:28:37,-34.9064556492299,-56.1630572744603,6.233596,6.233596,121.56438742024,128.35572622024,6.56168,0,4.1152232288,5.3927823248,20,5,7.461,129.01189422024,6.889764,0.3131716,5.0512796892,0,0,0,76.1, -0.3, -1.4,0,0,1024,1024,1024,1024,0,0,0,0,90,0,0,40,3.732,3.723,0,0,0,0,4.566,95.9,128.35572622024,6.233596,38,Tripod,
562200,2022-08-12 02:28:37,-34.9064556783106,-56.1630573724645,6.233596,6.233596,121.56438742024,128.35572622024,6.56168,0,4.1462927836,5.4239831132,19,5,7.461,129.01189422024,6.889764,0.3131716,5.0512796892,0,0,0,76.1, -0.4, -0.9,0,0,1024,1024,1024,1024,0,0,0,0,90,0,0,40,3.732,3.723,0,0,0,0,4.566,95.9,128.35572622024,6.233596,38,Tripod,
562300,2022-08-12 02:28:37,-34.9064557159586,-56.1630574661922,6.233596,6.233596,121.56438742024,128.35572622024,6.56168,0,4.1769030208,5.4551839016,19,5,7.461,129.01189422024,6.889764,0.3131716,5.0512796892,0,0,0,76, -0.6, -0.7,0,0,1024,1024,1024,1024,0,0,0,0,90,0,0,40,3.732,3.723,0,0,0,0,4.566,95.9,128.35572622024,6.233596,38,Tripod,
562400,2022-08-12 02:28:37,-34.9064558510608,-56.1630577968129,6.233596,6.2664044,121.53157902024,128.35572622024,6.56168,0,4.2852035492,5.5657154012,19,5,7.461,129.01189422024,6.889764,0.3131716,5.0512796892,0,0,0,76, -0.7, -0.8,0,0,1024,1024,1024,1024,0,0,0,0,90,0,0,40,3.732,3.723,0,0,0,0,4.566,95.9,128.35572622024,6.233596,38,Tripod,
562500,2022-08-12 02:28:37,-34.906455913655,-56.163057943654,6.233596,6.2664044,121.53157902024,128.35572622024,6.56168,0,4.3335959392,5.6152232768,19,5,7.461,129.01189422024,6.889764,0.3131716,5.0512796892,0,0,0,76, -0.5, -1.1,0,0,1024,1024,1024,1024,0,0,0,0,90,0,0,40,3.732,3.723,0,0,0,0,4.566,95.9,128.35572622024,6.233596,38,Tripod,
562600,2022-08-12 02:28:37,-34.9064559738089,-56.1630580985963,6.233596,6.2664044,121.53157902024,128.35572622024,6.56168,0,4.3841208752,5.6665356144,19,5,7.461,129.01189422024,6.889764,0.3131716,5.0512796892,0,0,0,76.1, -0.8, -1.1,0,0,1024,1024,1024,1024,0,0,0,0,90,0,0,40,3.732,3.723,0,0,0,0,4.566,95.9,128.35572622024,6.233596,38,Tripod,
562700,2022-08-12 02:28:37,-34.906456036184,-56.1630582343839,6.233596,6.2664044,121.53157902024,128.35572622024,6.56168,0,4.4293308504,5.713090734,19,5,7.461,129.01189422024,6.889764,0.3131716,5.0512796892,0,0,0,76.2, -1.1, -1,0,0,1024,1024,1024,1024,0,0,0,0,90,0,0,40,3.732,3.723,0,0,0,0,4.566,95.9,128.35572622024,6.233596,38,Tripod,
562800,2022-08-12 02:28:38,-34.9064560913125,-56.1630583686959,6.233596,6.2664044,121.53157902024,128.35572622024,6.56168,0,4.4734581484,5.758038242,19,5,7.461,129.01189422024,6.889764,0.3131716,5.0512796892,0,0,0,76.3, -1.6, -0.9,0,0,1024,1024,1024,1024,0,0,0,0,90,0,0,40,3.732,3.723,0,0,0,0,4.566,95.9,128.35572622024,6.233596,38,Tripod,
562900,2022-08-12 02:28:38,-34.9064561525111,-56.1630586766166,6.233596,6.2992128,121.49877062024,128.35572622024,6.56168,0,4.5681759992,5.852854518,19,5,7.453,129.01189422024,6.889764,0.3131716,5.0512796892,0,0,0,76.4, -1.3, -0.8,0,0,1024,1024,1024,1024,0,0,0,0,90,0,0,40,3.731,3.722,0,0,0,0,4.703,95.9,128.35572622024,6.233596,38,Tripod,
563000,2022-08-12 02:28:38,-34.9064561505626,-56.1630588211412,6.233596,6.2992128,121.49877062024,128.35572622024,6.56168,0,4.6096786252,5.8960959892,19,5,7.453,129.01189422024,6.889764,0.3131716,5.0512796892,0,0,0,76.3, -1.4, -0.8,0,0,1024,1024,1024,1024,0,0,0,0,90,0,0,40,3.731,3.722,0,0,0,0,4.703,95.9,128.35572622024,6.233596,38,Tripod,
563100,2022-08-12 02:28:38,-34.9064561772903,-56.1630589051668,6.233596,6.2992128,121.49877062024,128.35572622024,6.56168,0,4.636483088,5.923064494,19,5,7.453,129.01189422024,6.889764,0.3131716,5.0512796892,0,0,0,76.3, -1.7, -0.9,0,0,1024,1024,1024,1024,0,0,0,0,90,0,0,40,3.731,3.722,0,0,0,0,4.703,95.9,128.35572622024,6.233596,38,Tripod,
563200,2022-08-12 02:28:38,-34.9064561988102,-56.1630589804357,6.233596,6.2992128,121.49877062024,128.35572622024,6.56168,0,4.6603019864,5.9469162008,19,5,7.453,129.01189422024,6.889764,0.3131716,5.0512796892,0,0,0,76.3, -1.8, -0.8,0,0,1024,1024,1024,1024,0,0,0,0,90,0,0,40,3.731,3.722,0,0,0,0,4.703,95.9,128.35572622024,6.233596,38,Tripod,
563300,2022-08-12 02:28:38,-34.9064561515706,-56.1630589376186,6.233596,6.2992128,121.49877062024,128.35572622024,6.56168,0,4.643372852,5.9683728944,19,5,7.453,129.01189422024,6.889764,0.3131716,5.0512796892,0,0,0,76.3, -2.1, -0.5,0,0,1024,1024,1024,1024,0,0,0,0,90,0,0,40,3.731,3.722,0,0,0,0,4.703,95.9,128.35572622024,6.233596,38,Tripod,
563400,2022-08-12 02:28:38,-34.9064561341153,-56.1630590126903,6.233596,6.2992128,121.49877062024,128.35572622024,6.56168,0,4.6633531676,5.9917324752,19,5,7.453,129.01189422024,6.889764,0.3131716,5.0512796892,0,0,0,76.3, -1.6, -0.1,0,0,1024,1024,1024,1024,0,0,0,0,90,0,0,40,3.731,3.722,0,0,0,0,4.703,95.9,128.35572622024,6.233596,38,Tripod,
563500,2022-08-12 02:28:38,-34.9064561155104,-56.1630590931876,6.233596,6.2992128,121.49877062024,128.35572622024,6.56168,0,4.6848426696,6.0167652844,19,5,7.453,129.01189422024,6.889764,0.3131716,5.0512796892,0,0,0,76.1, -1.5, -0.5,0,0,1024,1024,1024,1024,0,0,0,0,89.9,0,0,40,3.731,3.722,0,0,0,0,4.703,95.9,128.35572622024,6.233596,38,Tripod,
563600,2022-08-12 02:28:38,-34.9064560994669,-56.1630591669719,6.233596,6.2992128,121.49877062024,128.35572622024,6.56168,0,4.7046589432,6.0395999308,19,5,7.453,129.01189422024,6.889764,0.3131716,5.0512796892,0,0,0,76.1, -2.1, -1.4,0,0,1024,1024,1024,1024,0,0,0,0,90,0,0,40,3.731,3.722,0,0,0,0,4.703,95.9,128.35572622024,6.233596,38,Tripod,
563700,2022-08-12 02:28:38,-34.9064561512914,-56.1630592222986,6.233596,6.2992128,121.49877062024,128.35572622024,6.56168,0,4.7255250856,6.0647311652,19,5,7.453,129.01189422024,6.889764,0.3131716,5.0512796892,0,0,0,76.4, -2.6, -0.7,0,0,1024,1024,1024,1024,0,0,0,0,90,0,0,40,3.731,3.722,0,0,0,0,4.703,95.9,128.35572622024,6.233596,38,Tripod,
563800,2022-08-12 02:28:39,-34.9064561665482,-56.163059290336,6.233596,6.2992128,121.49877062024,128.35572622024,6.56168,0,4.7466536952,6.0858269664,19,5,7.453,129.01189422024,6.889764,0.3131716,5.0512796892,0,0,0,76.6, -2.5, -0.4,0,0,1024,1024,1024,1024,0,0,0,0,90,0,0,40,3.731,3.722,0,0,0,0,4.703,95.9,128.35572622024,6.233596,38,Tripod,
563900,2022-08-12 02:28:39,-34.9064561530151,-56.1630593550449,6.233596,6.2992128,121.49877062024,128.35572622024,6.56168,0,4.7640749556,6.105807282,19,5,7.453,129.01189422024,6.889764,0.3131716,5.0512796892,0,0,0,76.5, -2.3, -0.6,0,0,1024,1024,1024,1024,0,0,0,0,90,0,0,40,3.733,3.724,0,0,0,0,4.597,95.9,128.35572622024,6.233596,38,Tripod,
564000,2022-08-12 02:28:39,-34.9064561374765,-56.1630594016019,6.233596,6.2992128,121.49877062024,128.35572622024,6.56168,0,4.77608283,6.1208335292,19,5,7.453,129.01189422024,6.889764,0.3131716,5.0512796892,0,0,0,76.5, -1.9, -0.3,0,0,1024,1024,1024,1024,0,0,0,0,90,0,0,40,3.733,3.724,0,0,0,0,4.597,95.9,128.35572622024,6.233596,38,Tripod,
564100,2022-08-12 02:28:39,-34.9064559652962,-56.1630594792696,6.233596,6.2992128,121.49877062024,128.35572622024,6.56168,0,4.7829069772,6.187828282,19,5,7.453,129.01189422024,6.889764,0.3131716,5.0512796892,0,0,0,76.4, -1.9, 0,0,0,1024,1024,1024,1024,0,0,0,0,90,0,0,40,3.733,3.724,0,0,0,0,4.597,95.9,128.35572622024,6.233596,38,Tripod,
564200,2022-08-12 02:28:39,-34.9064558927213,-56.1630595128182,6.233596,6.3320212,121.46596222024,128.35572622024,6.56168,0,4.7863190508,6.2161419312,19,5,7.453,129.01189422024,6.889764,0.3131716,5.0512796892,0,0,0,76.4, -2, -0.2,0,0,1024,1024,1024,1024,0,0,0,0,90,0,0,40,3.733,3.724,0,0,0,0,4.597,95.9,128.35572622024,6.233596,38,Tripod,
564300,2022-08-12 02:28:39,-34.9064558695412,-56.1630595478607,6.233596,6.3320212,121.46596222024,128.35572622024,6.56168,0,4.7944883424,6.2296261836,19,5,7.453,129.01189422024,6.889764,0.3131716,5.0512796892,0,0,0,76.3, -1.8, -0.5,0,0,1024,1024,1024,1024,0,0,0,0,90,0,0,40,3.733,3.724,0,0,0,0,4.597,95.9,128.35572622024,6.233596,38,Tripod,
564400,2022-08-12 02:28:39,-34.906455849123,-56.1630595772372,6.233596,6.3320212,121.46596222024,128.35572622024,6.56168,0,4.8013124896,6.241141932,19,5,7.453,129.01189422024,6.889764,0.3131716,5.0512796892,0,0,0,76.3, -1.6, -0.6,0,0,1024,1024,1024,1024,0,0,0,0,90,0,0,40,3.733,3.724,0,0,0,0,4.597,95.9,128.35572622024,6.233596,38,Tripod,
564500,2022-08-12 02:28:39,-34.9064557550632,-56.1630595312509,6.233596,6.3320212,121.46596222024,128.35572622024,6.56168,0,4.780019838,6.2781169988,19,5,7.453,129.01189422024,6.889764,0.3131716,5.0512796892,0,0,0,76.3, -1.6, -0.2,0,0,1024,1024,1024,1024,0,0,0,0,90,0,0,40,3.733,3.724,0,0,0,0,4.597,95.9,128.35572622024,6.233596,38,Tripod,
564600,2022-08-12 02:28:39,-34.9064555827828,-56.1630594221069,6.233596,6.2992128,121.49877062024,128.35572622024,6.56168,0,4.7342849284,6.3489503344,20,5,7.453,129.01189422024,6.889764,0.3131716,5.0512796892,0,0,0,76.2, -1.8, 0.2,0,0,1024,1024,1024,975,0,0,0,-7,90,0,0,40,3.733,3.724,0,0,0,0,4.597,95.9,128.35572622024,6.233596,38,Tripod,
564700,2022-08-12 02:28:39,-34.9064555302704,-56.1630593677739,6.233596,6.2992128,121.49877062024,128.35572622024,6.56168,0,4.7143046128,6.3740815688,20,5,7.453,129.01189422024,6.889764,0.3131716,5.0512796892,0,0,0,76.2, -1.8, -0.4,0,0,1024,1024,1024,364,0,0,0,-100,90,0,0,40,3.733,3.724,0,0,0,0,4.597,95.9,128.35572622024,6.233596,38,Tripod,
564800,2022-08-12 02:28:40,-34.906455483048,-56.1630593032909,6.233596,6.2664044,121.53157902024,128.35572622024,6.56168,0,4.6917980504,6.399934588,20,5,7.453,129.01189422024,6.889764,0.3131716,5.0512796892,0,0,0,76.2, -1.7, -1.1,0,0,1024,1024,1024,364,0,0,0,-100,89.9,0,0,40,3.733,3.724,0,0,0,0,4.597,95.9,128.35572622024,6.233596,38,Tripod,
