time(millisecond),datetime(utc),latitude,longitude,height_above_takeoff(feet),height_above_ground_at_drone_location(feet),ground_elevation_at_drone_location(feet),altitude_above_seaLevel(feet),height_sonar(feet),speed(mph),distance(feet),mileage(feet),satellites,gpslevel,voltage(v),max_altitude(feet),max_ascent(feet),max_speed(mph),max_distance(feet), xSpeed(mph), ySpeed(mph), zSpeed(mph), compass_heading(degrees), pitch(degrees), roll(degrees),isPhoto,isVideo,rc_elevator,rc_aileron,rc_throttle,rc_rudder,rc_elevator(percent),rc_aileron(percent),rc_throttle(percent),rc_rudder(percent),gimbal_heading(degrees),gimbal_pitch(degrees),gimbal_roll(degrees),battery_percent,voltageCell1,voltageCell2,voltageCell3,voltageCell4,voltageCell5,voltageCell6,current(A),battery_temperature(f),altitude(feet),ascent(feet),flycStateRaw,flycState,message
303400,2025-05-20 15:55:07,-34.9287343964084,-56.1627903036039,0,0,6.759869310804,6.792677710804,0,0,0,0,23,5,0,6.792677710804,0,0,0,0,0,0,184.9, -0.4, 6.8,0,0,891,1051,1024,1002,-20,4,0,-3,181.6,0,7,57,3.834,3.833,0,0,0,0,0,104.54,6.792677710804,0,6,P-GPS,"Zona de altitud restringida 150m Arranque de motores..."
303500,2025-05-20 15:55:07,-34.9287343957702,-56.1627903058766,0,0,6.759869310804,6.792677710804,0,0,0.00071859582352,0.00071859582352,23,5,0,6.792677710804,0,0,0.00071859582352,0,0,0,184.9, -0.4, 6.8,0,0,891,1051,1024,1002,-20,4,0,-3,181.6,0,7,57,3.834,3.833,0,0,0,0,0,104.54,6.792677710804,0,41,Motors_Started,"Zona de altitud restringida 150m Arranque de motores..."
303600,2025-05-20 15:55:07,-34.928734399137,-56.1627903043772,0,0,6.759869310804,6.792677710804,0,0,0.00102205055764,0.00202629927744,21,5,0,6.792677710804,0,0,0.00102205055764,0,0,0,184.9, -0.4, 6.8,0,0,891,1051,1024,1002,-20,4,0,-3,181.6,0,7,57,3.834,3.833,0,0,0,0,0,104.54,6.792677710804,0,41,Motors_Started,"Zona de altitud restringida 150m Arranque de motores..."
303700,2025-05-20 15:55:07,-34.9287343999679,-56.1627903062267,0,0,6.759869310804,6.792677710804,0.328084,0,0.00151728351312,0.00265716215852,21,5,0,6.792677710804,0,0,0.00151728351312,0,0,0,184.9, -0.4, 6.8,0,0,891,1051,1024,1002,-20,4,0,-3,181.6,0,7,57,3.834,3.833,0,0,0,0,0,104.54,6.792677710804,0,41,Motors_Started,"Zona de altitud restringida 150m Arranque de motores..."
303800,2025-05-20 15:55:08,-34.9287345011697,-56.1627904043296,0,0.032808399999999,6.727060910804,6.792677710804,0.328084,0,0.04866962098,0.049821523904,21,5,0,6.792677710804,0,0,0.04866962098,0,0,0,184.9, -0.4, 6.8,0,0,891,1051,1024,1002,-20,4,0,-3,181.6,0,7,57,3.834,3.833,0,0,0,0,0,104.54,6.792677710804,0,41,Motors_Started,"Zona de altitud restringida 150m Arranque de motores..."
303900,2025-05-20 15:55:08,-34.9287345009897,-56.1627904051394,0,0.032808399999999,6.727060910804,6.792677710804,0.328084,0,0.048768702348,0.050072508164,21,5,0,6.792677710804,0,0,0.048768702348,0,0,0,184.9, -0.4, 6.8,0,0,891,1051,1024,1002,-20,4,0,-3,181.6,0,7,57,3.834,3.833,0,0,0,0,0,104.54,6.792677710804,0,41,Motors_Started,"Zona de altitud restringida 150m Arranque de motores..."
304000,2025-05-20 15:55:08,-34.9287345007584,-56.1627903988855,0,0.032808399999999,6.727060910804,6.792677710804,0.328084,0,0.047558400472,0.051945211636,21,5,0,6.792677710804,0,0,0.048768702348,0,0,0,184.9, -0.4, 6.8,0,0,891,1051,1024,1002,-20,4,0,-3,181.6,0,7,57,3.834,3.833,0,0,0,0,0,104.54,6.792677710804,0,41,Motors_Started,"Setting new Return-To-Home altitude to 30m (98 ft). Data Recorder File Index is 5. Setting new Maximum Flight Altitude to 120m (394 ft). Zona de altitud restringida 150m Arranque de motores..."
304100,2025-05-20 15:55:08,-34.9287345003558,-56.1627903945543,0,0.032808399999999,6.727060910804,6.792677710804,0.328084,0,0.61618440292,0.053249017452,21,5,0,6.792677710804,0,0,0.61618440292,0,0,0,184.9, -0.4, 6.8,0,0,891,1051,1024,1002,-20,4,0,-3,181.6,0,7,57,3.834,3.833,0,0,0,0,0,104.54,6.792677710804,0,41,Motors_Started,"Zona de altitud restringida 150m Arranque de motores..."
304200,2025-05-20 15:55:08,-34.9287345989231,-56.1627904915965,0,0.032808399999999,6.727060910804,6.792677710804,0.328084,0,0.66235566424,0.099464898196,22,5,0,6.792677710804,0,0,0.66235566424,0,0,0,184.9, -0.4, 6.8,0,0,891,1051,1024,1002,-20,4,0,-3,181.6,0,7,57,3.834,3.833,0,0,0,0,0,104.54,6.792677710804,0,41,Motors_Started,"Zona de altitud restringida 150m Arranque de motores..."
304300,2025-05-20 15:55:08,-34.9287345993772,-56.162790489026,0,0.032808399999999,6.727060910804,6.792677710804,0.328084,0,0.66203086108,0.100251315544,22,5,0,6.792677710804,0,0,0.66235566424,0,0,0,184.9, -0.4, 6.8,0,0,891,1051,1024,1002,-20,4,0,-3,181.6,0,7,57,3.834,3.833,0,0,0,0,0,104.54,6.792677710804,0,41,Motors_Started,"Zona de altitud restringida 150m Arranque de motores..."
304400,2025-05-20 15:55:08,-34.9287346990711,-56.1627905945948,0,0.032808399999999,6.727060910804,6.792677710804,0.328084,0,0.710055797,0.148419952256,21,5,0,6.792677710804,0,0,0.710055797,0,0,0,184.9, -0.4, 6.7,0,0,891,1051,1024,1002,-20,4,0,-3,181.6,0,7,57,3.834,3.833,0,0,0,0,0,104.54,6.792677710804,0,41,Motors_Started,"Zona de altitud restringida 150m Arranque de motores..."
304500,2025-05-20 15:55:08,-34.9287347013157,-56.1627905931999,0,0.032808399999999,6.727060910804,6.792677710804,0.328084,0,0.71046262116,0.149339243624,21,5,0,6.792677710804,0,0,0.71046262116,0,0,0,184.9, -0.4, 6.7,0,0,891,1051,1024,1002,-20,4,0,-3,181.6,0,7,57,3.834,3.833,0,0,0,0,0,104.54,6.792677710804,0,41,Motors_Started,"Zona de altitud restringida 150m Arranque de motores..."
304600,2025-05-20 15:55:08,-34.9287348058671,-56.1627904971242,0,0.032808399999999,6.727060910804,6.792677710804,0.328084,0,0.72539700484,0.197099087672,21,5,0,6.792677710804,0,0,0.72539700484,0,0,0,184.9, -0.4, 6.7,0,0,891,1051,1024,1002,-20,4,0,-3,181.6,0,7,57,3.834,3.833,0,0,0,0,0,104.54,6.792677710804,0,41,Motors_Started,"Zona de altitud restringida 150m Arranque de motores..."
304700,2025-05-20 15:55:08,-34.9287348087113,-56.162790496842,0,0.032808399999999,6.727060910804,6.792677710804,0.328084,0,0.72622377652,0.198140098204,21,5,0,6.792677710804,0,0,0.72622377652,0,0,0,184.9, -0.4, 6.7,0,0,891,1051,1024,1002,-20,4,0,-3,181.6,0,7,57,3.834,3.833,0,0,0,0,0,104.54,6.792677710804,0,41,Motors_Started,"Zona de altitud restringida 150m Arranque de motores..."
304800,2025-05-20 15:55:09,-34.9287348031856,-56.162790500562,0,0.032808399999999,6.727060910804,6.792677710804,0.328084,0,0.72513781848,0.2004429198,21,5,0,6.792677710804,0,0,0.72622377652,0,0,0,184.9, -0.4, 6.7,0,0,891,1051,1024,1002,-20,4,0,-3,181.6,0,7,57,3.834,3.833,0,0,0,0,0,104.54,6.792677710804,0,41,Motors_Started,"Zona de altitud restringida 150m Arranque de motores..."
304900,2025-05-20 15:55:09,-34.9287348037082,-56.1627905012098,0,0.032808399999999,6.727060910804,6.792677710804,0.328084,0,0.72540356652,0.200714901436,21,5,0,6.792677710804,0,0,0.72622377652,0,0,0,184.9, -0.4, 6.7,0,0,891,1051,1024,1002,-20,4,0,-3,181.6,0,7,57,3.834,3.833,0,0,0,0,0,104.54,6.792677710804,0,41,Motors_Started,"Zona de altitud restringida 150m Arranque de motores..."
305000,2025-05-20 15:55:09,-34.9287346001397,-56.1627904005365,0,0.032808399999999,6.727060910804,6.792677710804,0.328084,0,0.64691931204,0.280859260956,21,5,0,6.792677710804,0,0,0.72622377652,0,0,0,184.9, -0.4, 6.7,0,0,891,1051,1024,1002,-20,4,0,-3,181.6,0,7,57,3.834,3.833,0,0,0,0,0,104.54,6.792677710804,0,41,Motors_Started,"Zona de altitud restringida 150m Arranque de motores..."
305100,2025-05-20 15:55:09,-34.9287345985976,-56.1627903978406,0,0.032808399999999,6.727060910804,6.792677710804,0.328084,0,0.64600067684,0.281842856788,21,5,0,6.792677710804,0,0,0.72622377652,0,0,0,184.9, -0.3, 6.7,0,0,891,1051,1024,1002,-20,4,0,-3,181.6,0,7,57,3.834,3.833,0,0,0,0,0,104.54,6.792677710804,0,41,Motors_Started,"Zona de altitud restringida 150m Arranque de motores..."
305200,2025-05-20 15:55:09,-34.9287346993195,-56.1627902961014,0,0.032808399999999,6.727060910804,6.792677710804,0.328084,0,0.66070212088,0.32955709716,21,5,0,6.792677710804,0,0,0.72622377652,0,0,0,184.9, -0.4, 6.7,0,0,891,1051,1024,1002,-20,4,0,-3,181.6,0,7,57,3.834,3.833,0,0,0,0,0,104.54,6.792677710804,0,41,Motors_Started,"Zona de altitud restringida 150m Arranque de motores..."
305300,2025-05-20 15:55:09,-34.9287347028663,-56.1627902978464,0,0.032808399999999,6.727060910804,6.792677710804,0.328084,0,0.66208335452,0.33095145416,21,5,0,6.792677710804,0,0,0.72622377652,0,0,0,184.9, -0.4, 6.7,0,0,891,1051,1024,1002,-20,4,0,-3,181.6,0,7,57,3.834,3.833,0,0,0,0,0,104.54,6.792677710804,0,41,Motors_Started,"Zona de altitud restringida 150m Arranque de motores..."
305400,2025-05-20 15:55:09,-34.9287346062565,-56.1627904042669,0,0.032808399999999,6.727060910804,6.792677710804,0.328084,0,0.6493930654,0.37844817484,21,5,0,6.792677710804,0,0,0.72622377652,0,0,0,184.9, -0.4, 6.7,0,0,891,1051,1024,1002,-20,4,0,-3,181.7,0,7,57,3.834,3.833,0,0,0,0,0,104.54,6.792677710804,0,41,Motors_Started,"Zona de altitud restringida 150m Arranque de motores..."
305500,2025-05-20 15:55:09,-34.9287346077386,-56.1627904074173,0,0.032808399999999,6.727060910804,6.792677710804,0.328084,0,0.65037075572,0.37953413288,21,5,0,6.792677710804,0,0,0.72622377652,0,0,0,184.9, -0.3, 6.7,0,0,891,1051,1024,1002,-20,4,0,-3,181.6,0,7,57,3.834,3.833,0,0,0,0,0,104.54,6.792677710804,0,41,Motors_Started,"Zona de altitud restringida 150m Arranque de motores..."
305600,2025-05-20 15:55:09,-34.9287346032538,-56.1627903057095,0,0.032808399999999,6.727060910804,6.792677710804,0.328084,0,0.6322670806,0.41000001312,21,5,0,6.792677710804,0,0,0.72622377652,0,0,0,184.9, -0.4, 6.7,0,0,891,1051,1024,1002,-20,4,0,-3,181.6,0,7,57,3.834,3.833,0,0,0,0,0,104.54,6.792677710804,0,10,Assisted_Takeoff,"Zona de altitud restringida 150m Arranque de motores..."
305700,2025-05-20 15:55:09,-34.9287346057725,-56.1627903044921,0,0.032808399999999,6.727060910804,6.792677710804,0.328084,0,0.63284778928,0.4109908268,21,5,0,6.792677710804,0,0,0.72622377652,0,0,0,184.9, -0.4, 6.7,0,0,891,1051,1024,1002,-20,4,0,-3,181.6,0,7,57,3.834,3.833,0,0,0,0,0,104.54,6.792677710804,0,41,Motors_Started,"Zona de altitud restringida 150m Arranque de motores..."
305800,2025-05-20 15:55:10,-34.9287345041038,-56.1627899969444,0,0.032808399999999,6.727060910804,6.792677710804,0.328084,0,0.55547573956,0.51018374336,21,5,0,6.792677710804,0,0,0.72622377652,0,0,0,184.9, -0.4, 6.7,0,0,891,1051,1024,1002,-20,4,0,-3,181.6,0,7,57,3.834,3.833,0,0,0,0,0,104.54,6.792677710804,0,41,Motors_Started,"Zona de altitud restringida 150m Arranque de motores..."
305900,2025-05-20 15:55:10,-34.9287345048963,-56.1627899954763,0,0.032808399999999,6.727060910804,6.792677710804,0.328084,0,0.55554135636,0.51070867776,21,5,0,6.792677710804,0,0,0.72622377652,0,0,0,184.9, -0.4, 6.7,0,0,891,1051,1024,1002,-20,4,0,-3,181.6,0,7,57,3.834,3.833,0,0,0,0,0,104.54,6.792677710804,0,41,Motors_Started,"Zona de altitud restringida 150m Arranque de motores..."
306000,2025-05-20 15:55:10,-34.9287344014843,-56.1627897972069,0,0,6.759869310804,6.792677710804,0.328084,0,0.49688649884,0.58100067476,21,5,0,6.792677710804,0,0,0.72622377652,0,0,0,184.9, -0.4, 6.7,0,0,891,1051,1024,1002,-20,4,0,-3,181.6,0,7,57,3.834,3.833,0,0,0,0,0,104.54,6.792677710804,0,41,Motors_Started,"Zona de altitud restringida 150m Arranque de motores..."
306100,2025-05-20 15:55:10,-34.928734402024,-56.1627897967837,0,0,6.759869310804,6.792677710804,0.328084,0,0.49702101328,0.5812336144,21,5,0,6.792677710804,0,0,0.72622377652,0,0,0,184.9, -0.4, 6.7,0,0,891,1051,1024,1002,-20,4,0,-3,181.6,0,7,57,3.834,3.833,0,0,0,0,0,104.54,6.792677710804,0,41,Motors_Started,"Zona de altitud restringida 150m Arranque de motores..."
306200,2025-05-20 15:55:10,-34.9287343012464,-56.1627897991191,0,0,6.759869310804,6.792677710804,0.328084,0,0.46338912244,0.61800854996,21,5,0,6.792677710804,0,0,0.72622377652,0,0,0,184.9, -0.4, 6.7,0,0,891,1051,1024,1002,-20,4,0,-3,181.7,0,7,57,3.834,3.833,0,0,0,0,0,104.54,6.792677710804,0,41,Motors_Started,"Zona de altitud restringida 150m Arranque de motores..."
306300,2025-05-20 15:55:10,-34.9287343016962,-56.1627897989153,0,0,6.759869310804,6.792677710804,0.328084,0,0.4635170752,0.61818571532,21,5,0,6.792677710804,0,0,0.72622377652,0,0,0,184.9, -0.4, 6.7,0,0,891,1051,1024,1002,-20,4,0,-3,181.7,0,7,57,3.834,3.833,0,0,0,0,0,104.54,6.792677710804,0,41,Motors_Started,"Zona de altitud restringida 150m Arranque de motores..."
306400,2025-05-20 15:55:10,-34.9287342009442,-56.1627899001791,0,0,6.759869310804,6.792677710804,0.328084,0,0.4440452898,0.66581695044,21,5,7.667,6.792677710804,0,0,0.72622377652,0,0,0,184.9, -0.4, 6.7,0,0,891,1051,1024,1002,-20,4,0,-3,181.7,0,7,57,3.834,3.833,0,0,0,0,1.079,104.54,6.792677710804,0,41,Motors_Started,"Zona de altitud restringida 150m Arranque de motores.... Motores iniciándose. Mantén presionado el botón Bloqueo para despegar"
306500,2025-05-20 15:55:10,-34.9287342012483,-56.1627899008687,0,0,6.759869310804,6.792677710804,0.328084,0,0.4442421402,0.66604989008,21,5,7.667,6.792677710804,0,0,0.72622377652,0,0,0,184.9, -0.4, 6.7,0,0,891,1051,1024,1002,-20,4,0,-3,181.7,0,7,57,3.834,3.833,0,0,0,0,1.079,104.54,6.792677710804,0,41,Motors_Started,"Zona de altitud restringida 150m Motores iniciándose. Mantén presionado el botón Bloqueo para despegar"
306600,2025-05-20 15:55:10,-34.9287342006144,-56.1627897018209,0,0,6.759869310804,6.792677710804,0.328084,0,0.41824476404,0.7255905744,21,5,7.667,6.792677710804,0,0,0.72622377652,0,0,0,184.9, -0.4, 6.7,0,0,891,1051,1024,1002,-20,4,0,-3,181.7,0,7,57,3.834,3.833,0,0,0,0,1.079,104.54,6.792677710804,0,41,Motors_Started,"Zona de altitud restringida 150m Motores iniciándose. Mantén presionado el botón Bloqueo para despegar"
306700,2025-05-20 15:55:10,-34.928734201017,-56.1627897035972,0,0,6.759869310804,6.792677710804,0.328084,0,0.41858269056,0.72614175552,21,5,7.667,6.792677710804,0,0,0.72622377652,0,0,0,184.9, -0.4, 6.7,0,0,891,1051,1024,1002,-20,4,0,-3,181.7,0,7,57,3.834,3.833,0,0,0,0,1.079,104.54,6.792677710804,0,41,Motors_Started,"Zona de altitud restringida 150m Motores iniciándose. Mantén presionado el botón Bloqueo para despegar"
306800,2025-05-20 15:55:11,-34.9287341008776,-56.1627895032746,0,0,6.759869310804,6.792677710804,0.328084,0,0.36458006416,0.7963254848,21,5,7.667,6.792677710804,0,0,0.72622377652,0,0,0,184.9, -0.4, 6.7,0,0,891,1051,1024,1002,-20,4,0,-3,181.7,0,7,57,3.834,3.833,0,0,0,0,1.079,104.54,6.792677710804,0,41,Motors_Started,"Zona de altitud restringida 150m Motores iniciándose. Mantén presionado el botón Bloqueo para despegar"
306900,2025-05-20 15:55:11,-34.9287341026338,-56.1627895019579,0,0,6.759869310804,6.792677710804,0.328084,0,0.3650918752,0.79707679716,21,5,7.667,6.792677710804,0,0,0.72622377652,0,0,0,184.9, -0.4, 6.7,0,0,891,1051,1024,1002,-20,4,0,-3,181.7,0,7,57,3.834,3.833,0,0,0,0,1.079,104.54,6.792677710804,0,41,Motors_Started,"Zona de altitud restringida 150m Motores iniciándose. Mantén presionado el botón Bloqueo para despegar"
307000,2025-05-20 15:55:11,-34.9287339033446,-56.162789494471,0,0,6.759869310804,6.792677710804,0.328084,0,0.294913723348,0.86982286248,21,5,7.667,6.792677710804,0,0,0.72622377652,0,0,0,184.9, -0.4, 6.7,0,0,891,1051,1024,1002,-20,4,0,-3,181.7,0,7,57,3.834,3.833,0,0,0,0,1.079,104.54,6.792677710804,0,41,Motors_Started,"Zona de altitud restringida 150m Motores iniciándose. Mantén presionado el botón Bloqueo para despegar"
307100,2025-05-20 15:55:11,-34.9287339037001,-56.162789491352,0,0,6.759869310804,6.792677710804,0.328084,0,0.29473754224,0.87076446356,21,5,7.667,6.792677710804,0,0,0.72622377652,0,0,0,184.9, -0.4, 6.7,0,0,891,1051,1024,1002,-20,4,0,-3,181.7,0,7,57,3.834,3.833,0,0,0,0,1.079,104.54,6.792677710804,0,41,Motors_Started,"Zona de altitud restringida 150m Motores iniciándose. Mantén presionado el botón Bloqueo para despegar"
307200,2025-05-20 15:55:11,-34.9287339026549,-56.1627893973139,0,0,6.759869310804,6.792677710804,0.328084,0,0.286631242768,0.89889438572,21,5,7.667,6.792677710804,0,0,0.72622377652,0,0,0,184.9, -0.4, 6.7,0,0,891,1051,1024,1002,-20,4,0,-3,181.7,0,7,57,3.834,3.833,0,0,0,0,1.079,104.54,6.792677710804,0,41,Motors_Started,"Zona de altitud restringida 150m Motores iniciándose. Mantén presionado el botón Bloqueo para despegar"
307300,2025-05-20 15:55:11,-34.9287339032161,-56.1627894021048,0,0,6.759869310804,6.792677710804,0.328084,0,0.287163395016,0.900344517,21,5,7.667,6.792677710804,0,0,0.72622377652,0,0,0,184.9, -0.4, 6.7,0,0,891,1051,1024,1002,-20,4,0,-3,181.7,0,7,57,3.834,3.833,0,0,0,0,1.079,104.54,6.792677710804,0,41,Motors_Started,"Zona de altitud restringida 150m Motores iniciándose. Mantén presionado el botón Bloqueo para despegar"
307400,2025-05-20 15:55:11,-34.9287338943192,-56.1627893103551,0,0,6.759869310804,6.792677710804,0.328084,0,0.278778224144,0.92797903232,21,5,7.666,6.792677710804,0,0,0.72622377652,0,0,0,184.9, -0.4, 6.7,0,0,891,1051,1024,1002,-20,4,0,-3,181.7,0,7,57,3.834,3.832,0,0,0,0,1.091,104.54,6.792677710804,0,41,Motors_Started,"Zona de altitud restringida 150m Motores iniciándose. Mantén presionado el botón Bloqueo para despegar"
307500,2025-05-20 15:55:11,-34.9287338924131,-56.1627893139236,0,0,6.759869310804,6.792677710804,0.328084,0,0.278245087644,0.92925199824,21,5,7.666,6.792677710804,0,0,0.72622377652,0,0,0,184.9, -0.4, 6.7,0,0,891,1051,1024,1002,-20,4,0,-3,181.7,0,7,57,3.834,3.832,0,0,0,0,1.091,104.54,6.792677710804,0,41,Motors_Started,"Zona de altitud restringida 150m Motores iniciándose. Mantén presionado el botón Bloqueo para despegar"
307600,2025-05-20 15:55:11,-34.9287338966666,-56.1627891081464,0,0,6.759869310804,6.792677710804,0.328084,0,0.277527567936,0.99082680336,22,5,7.666,6.792677710804,0,0,0.72622377652,0,0,0,184.9, -0.4, 6.7,0,0,891,1051,1024,1002,-20,4,0,-3,181.7,0,6.9,57,3.834,3.832,0,0,0,0,1.091,104.54,6.792677710804,0,41,Motors_Started,"Zona de altitud restringida 150m Motores iniciándose. Mantén presionado el botón Bloqueo para despegar"
307700,2025-05-20 15:55:11,-34.9287338951717,-56.1627891108423,0,0,6.759869310804,6.792677710804,0.328084,0,0.276924877628,0.99180121284,22,5,7.666,6.792677710804,0,0,0.72622377652,0,0,0,184.9, -0.1, 6.5,0,0,891,1051,1024,1002,-20,4,0,-3,181.6,0,6.7,57,3.834,3.832,0,0,0,0,1.091,104.54,6.792677710804,0,41,Motors_Started,"Zona de altitud restringida 150m Motores iniciándose. Mantén presionado el botón Bloqueo para despegar"
307800,2025-05-20 15:55:12,-34.9287337981549,-56.1627891076971,0,0,6.759869310804,6.792677710804,0.328084,0,0.241710637656,1.02720803812,22,5,7.666,6.792677710804,0,0,0.72622377652,0,0,0,185, 0.2, 6.2,0,0,891,1051,1024,1002,-20,4,0,-3,181.5,0,5.7,57,3.834,3.832,0,0,0,0,1.091,104.54,6.792677710804,0,11,AutoTakeoff,"Zona de altitud restringida 150m Motores iniciándose. Mantén presionado el botón Bloqueo para despegar. Despegando..."
307900,2025-05-20 15:55:12,-34.9287337956962,-56.1627891193793,0,0,6.759869310804,6.792677710804,0.328084,0,0.24054134628,1.03081696212,22,5,7.666,6.792677710804,0,0,0.72622377652,0,0,0,184.8, 1.6, 4,0,0,891,1051,1024,1002,-20,4,0,-3,181.3,0,1.9,57,3.834,3.832,0,0,0,0,1.091,104.54,6.792677710804,0,11,AutoTakeoff,"Zona de altitud restringida 150m Despegando..."
308000,2025-05-20 15:55:12,-34.9287337965658,-56.162789061177,0,0,6.759869310804,6.792677710804,0.328084,0,0.242724417216,1.04822838,22,5,7.666,6.792677710804,0,0,0.72622377652,0,0,-0.447388,184.6, 0.5, 0.2,0,0,891,1051,1024,1002,-20,4,0,-3,181.1,0,-1.1,57,3.834,3.832,0,0,0,0,1.091,104.54,6.792677710804,0,11,AutoTakeoff,"Zona de altitud restringida 150m Despegando.... Punto de origen actualizado. Altitud de RPO establecida en 30m"
308100,2025-05-20 15:55:12,-34.9287337875404,-56.1627891167305,0,0,6.759869310804,6.792677710804,0.328084,0,0.237632225452,1.06517063776,22,5,7.666,6.792677710804,0,0,0.72622377652,0,0,-0.447388,184.4, -0.3, -1.8,0,0,891,1051,1024,1002,-20,4,0,-3,181.2,0,-1.6,57,3.834,3.832,0,0,0,0,1.091,104.54,6.792677710804,0,11,AutoTakeoff,"Zona de altitud restringida 150m Punto de origen actualizado. Altitud de RPO establecida en 30m"
308200,2025-05-20 15:55:12,-34.9287339957951,-56.1627892036265,0,0,6.759869310804,6.792677710804,0,0,0.313032162248,1.14547575844,22,5,7.666,6.792677710804,0,0,0.72622377652,0,0,-0.447388,184.7, 0.1, -2.6,0,0,891,1051,1024,1002,-20,4,0,-3,181.5,0,-2.2,57,3.834,3.832,0,0,0,0,1.091,104.54,6.792677710804,0,11,AutoTakeoff,"Zona de altitud restringida 150m Punto de origen actualizado. Altitud de RPO establecida en 30m"
308300,2025-05-20 15:55:12,-34.9287340105346,-56.1627892257893,0,0,6.759869310804,6.792677710804,0,0,0.3186433829,1.15401250412,22,5,7.666,6.792677710804,0,0,0.72622377652,0,0,-0.447388,185.1, 0.7, -2.7,0,0,891,1051,1024,1002,-20,4,0,-3,181.8,0,-2.5,57,3.834,3.832,0,0,0,0,1.091,104.54,6.792677710804,0,11,AutoTakeoff,"Zona de altitud restringida 150m Punto de origen actualizado. Altitud de RPO establecida en 30m"
308400,2025-05-20 15:55:12,-34.9287336321654,-56.1627887997627,0,0,6.759869310804,6.792677710804,0.328084,0,0.212657159036,1.34188652588,22,5,7.522,6.792677710804,0,0,0.72622377652,0,0,-0.447388,184.9, 1.5, -1.9,0,0,891,1051,1024,1002,-20,4,0,-3,181.5,0,0,57,3.764,3.758,0,0,0,0,5.582,104.54,6.792677710804,0,11,AutoTakeoff,"Zona de altitud restringida 150m Punto de origen actualizado. Altitud de RPO establecida en 30m"
308500,2025-05-20 15:55:12,-34.9287336313901,-56.162788707595,0,0,6.759869310804,6.792677710804,0.328084,0,0.22825952174,1.36945870524,22,5,7.522,6.792677710804,0,0,0.72622377652,0,0,-0.671082,184.9, 0.5, 1.2,0,0,891,1051,1024,1002,-20,4,0,-3,181.7,0,3,57,3.764,3.758,0,0,0,0,5.582,104.54,6.792677710804,0,11,AutoTakeoff,"Zona de altitud restringida 150m Punto de origen actualizado. Altitud de RPO establecida en 30m"
308600,2025-05-20 15:55:12,-34.9287334917784,-56.1627883858207,0.328084,0.2952756,6.792677710804,7.120761710804,0.328084,0.223694,0.269541347208,1.47835634652,21,5,7.522,7.120761710804,0.328084,0.223694,0.72622377652,0,0.223694,-0.671082,185.1, 0.1, 3.4,0,0,891,1051,1024,1002,-20,4,0,-3,181.9,0,4.5,57,3.764,3.758,0,0,0,0,5.582,104.54,7.120761710804,0.328084,11,AutoTakeoff,"Zona de altitud restringida 150m Punto de origen actualizado. Altitud de RPO establecida en 30m"
308700,2025-05-20 15:55:12,-34.9287334783026,-56.1627882735748,0.328084,0.2952756,6.792677710804,7.120761710804,0.656168,0,0.29736549508,1.51229007464,21,5,7.522,7.120761710804,0.328084,0.223694,0.72622377652,0,0,-0.894776,185.2, -0.3, 5,0,0,891,1051,1024,1002,-20,4,0,-3,182,0,5.7,57,3.764,3.758,0,0,0,0,5.582,104.54,7.120761710804,0.328084,11,AutoTakeoff,"Zona de altitud restringida 150m Punto de origen actualizado. Altitud de RPO establecida en 30m"
308800,2025-05-20 15:55:13,-34.9287336455556,-56.1627885242681,0.656168,0.656168,6.759869310804,7.448845710804,0.656168,0,0.269062344568,1.60896986776,21,5,7.522,7.448845710804,0.656168,0.223694,0.72622377652,0,0,-0.894776,185.1, -0.8, 5.7,0,0,891,1051,1024,1002,-20,4,0,-3,181.8,0,6.3,57,3.764,3.758,0,0,0,0,5.582,104.54,7.448845710804,0.656168,11,AutoTakeoff,"Zona de altitud restringida 150m Punto de origen actualizado. Altitud de RPO establecida en 30m"
308900,2025-05-20 15:55:13,-34.9287336189123,-56.1627884857678,0.656168,0.656168,6.759869310804,7.448845710804,0.656168,0,0.271143709464,1.62404204672,21,5,7.522,7.448845710804,0.656168,0.223694,0.72622377652,0,0,-1.11847,185, -0.6, 6.2,0,0,891,1051,1024,1002,-20,4,0,-3,181.7,0,6.8,57,3.764,3.758,0,0,0,0,5.582,104.54,7.448845710804,0.656168,11,AutoTakeoff,"Zona de altitud restringida 150m Punto de origen actualizado. Altitud de RPO establecida en 30m"
309000,2025-05-20 15:55:13,-34.9287335487017,-56.1627879292614,0.984252,0.984252,6.759869310804,7.776929710804,0.984252,0,0.40215880552,1.79246724896,20,5,7.522,7.776929710804,0.984252,0.223694,0.72622377652,0,0,-1.11847,184.8, -1.3, 6.7,0,0,891,1051,1024,1002,-20,4,0,-3,181.8,0,6.4,57,3.764,3.758,0,0,0,0,5.582,104.54,7.776929710804,0.984252,11,AutoTakeoff,"Zona de altitud restringida 150m Punto de origen actualizado. Altitud de RPO establecida en 30m"
309100,2025-05-20 15:55:13,-34.9287335201137,-56.1627879393187,0.984252,0.984252,6.759869310804,7.776929710804,0.984252,0,0.39557415964,1.80332354852,20,5,7.522,7.776929710804,0.984252,0.223694,0.72622377652,0,0,-1.11847,184.8, -2.3, 5.6,0,0,891,1051,1024,1002,-20,4,0,-3,181.6,0,4.7,57,3.764,3.758,0,0,0,0,5.582,104.54,7.776929710804,0.984252,11,AutoTakeoff,"Zona de altitud restringida 150m Punto de origen actualizado. Altitud de RPO establecida en 30m"
309200,2025-05-20 15:55:13,-34.9287333593244,-56.1627876513686,1.312336,1.2795276,6.792677710804,8.105013710804,1.312336,0,0.46342193084,1.90753615028,20,5,7.522,8.105013710804,1.312336,0.223694,0.72622377652,0,0,-1.11847,184.5, -3, 3.7,0,0,891,1051,1024,1002,-20,4,0,-3,181.5,0,4.1,57,3.764,3.758,0,0,0,0,5.582,104.54,8.105013710804,1.312336,11,AutoTakeoff,"Zona de altitud restringida 150m Punto de origen actualizado. Altitud de RPO establecida en 30m"
309300,2025-05-20 15:55:13,-34.9287333899385,-56.1627876555692,1.312336,1.2795276,6.792677710804,8.105013710804,1.64042,0,0.46426838756,1.91877630812,20,5,7.522,8.105013710804,1.312336,0.223694,0.72622377652,0,0,-1.11847,184.7, -0.8, 4.8,0,0,891,1051,1024,1002,-20,4,0,-3,181.6,0,6.3,57,3.764,3.758,0,0,0,0,5.582,104.54,8.105013710804,1.312336,11,AutoTakeoff,"Zona de altitud restringida 150m Punto de origen actualizado. Altitud de RPO establecida en 30m"
309400,2025-05-20 15:55:13,-34.9287333521452,-56.1627873727496,1.64042,1.6076116,6.792677710804,8.433097710804,1.64042,0,0.54530513556,2.00449153396,22,5,7.516,8.433097710804,1.64042,0.223694,0.72622377652,0,0,-1.11847,184.8, -0.3, 6.7,0,0,891,1051,1024,1002,-20,4,0,-3,181.7,0,7.5,57,3.761,3.755,0,0,0,0,5.292,104.54,8.433097710804,1.64042,11,AutoTakeoff,"Zona de altitud restringida 150m Punto de origen actualizado. Altitud de RPO establecida en 30m"
309500,2025-05-20 15:55:13,-34.9287333503504,-56.1627873541656,1.64042,1.6076116,6.792677710804,8.433097710804,1.968504,0,0.55071524072,2.010088647,22,5,7.516,8.433097710804,1.64042,0.223694,0.72622377652,0,0,-1.11847,184.8, -1, 6.9,0,0,891,1051,1024,1002,-20,4,0,-3,181.7,0,6.3,57,3.761,3.755,0,0,0,0,5.292,104.54,8.433097710804,1.64042,11,AutoTakeoff,"Zona de altitud restringida 150m Punto de origen actualizado. Altitud de RPO establecida en 30m"
309600,2025-05-20 15:55:13,-34.9287336858076,-56.1627866902356,1.968504,1.968504,6.759869310804,8.761181710804,1.968504,0,0.77021656008,2.2433727752,23,5,7.516,8.761181710804,1.968504,0.223694,0.77021656008,0,0,-1.11847,184.8, -2, 5.8,0,0,891,1051,1024,1002,-20,4,0,-3,181.8,0,6.4,57,3.761,3.755,0,0,0,0,5.292,104.54,8.761181710804,1.968504,11,AutoTakeoff,"Zona de altitud restringida 150m Punto de origen actualizado. Altitud de RPO establecida en 30m"
309700,2025-05-20 15:55:13,-34.9287336790782,-56.1627867118917,1.968504,1.968504,6.759869310804,8.761181710804,2.296588,0,0.76332351524,2.25030190928,23,5,7.516,8.761181710804,1.968504,0.223694,0.77021656008,0,0,-1.11847,184.8, -1.9, 6.4,0,0,891,1051,1024,1002,-20,4,0,-3,181.8,0,6.2,57,3.761,3.755,0,0,0,0,5.292,104.54,8.761181710804,1.968504,11,AutoTakeoff,"Zona de altitud restringida 150m Punto de origen actualizado. Altitud de RPO establecida en 30m"
309800,2025-05-20 15:55:14,-34.9287345914784,-56.1627859604491,2.296588,2.3293964,6.727060910804,9.089265710804,2.296588,0,1.098589274,2.65197186964,22,5,7.516,9.089265710804,2.296588,0.223694,1.098589274,0,0,-1.11847,184.8, -2.1, 5.5,0,0,891,1051,1024,1002,-20,4,0,-3,181.8,0,5.5,57,3.761,3.755,0,0,0,0,5.292,104.54,9.089265710804,2.296588,11,AutoTakeoff,"Zona de altitud restringida 150m Punto de origen actualizado. Altitud de RPO establecida en 30m"
309900,2025-05-20 15:55:14,-34.9287346198094,-56.1627860141479,2.296588,2.3293964,6.727060910804,9.089265710804,2.624672,0,1.08963914248,2.67107292012,22,5,7.516,9.089265710804,2.296588,0.223694,1.098589274,0,0,-1.11847,185, -1.4, 4.6,0,0,891,1051,1024,1002,-20,4,0,-3,181.8,0,3.9,57,3.761,3.755,0,0,0,0,5.292,104.54,9.089265710804,2.296588,11,AutoTakeoff,"Zona de altitud restringida 150m Punto de origen actualizado. Altitud de RPO establecida en 30m"
310000,2025-05-20 15:55:14,-34.9287352855321,-56.1627852071884,2.624672,2.6574804,6.727060910804,9.417349710804,2.624672,0,1.42264440248,3.01350731428,23,5,7.516,9.417349710804,2.624672,0.223694,1.42264440248,0,0,-1.11847,185.1, 1.1, 3,0,0,891,1051,1024,1002,-20,4,0,-3,181.7,0,3.1,57,3.761,3.755,0,0,0,0,5.292,104.54,9.417349710804,2.624672,11,AutoTakeoff,"Zona de altitud restringida 150m Punto de origen actualizado. Altitud de RPO establecida en 30m"
310100,2025-05-20 15:55:14,-34.9287353291295,-56.1627852086722,2.952756,2.9855644,6.727060910804,9.745433710804,2.952756,0,1.43109912716,3.02941938828,23,5,7.516,9.745433710804,2.952756,0.223694,1.43109912716,0,0,-1.11847,185, 1.6, 3.1,0,0,891,1051,1024,1002,-20,4,0,-3,181.6,0,4.4,57,3.761,3.755,0,0,0,0,5.292,104.54,9.745433710804,2.952756,11,AutoTakeoff,"Zona de altitud restringida 150m Punto de origen actualizado. Altitud de RPO establecida en 30m"
310200,2025-05-20 15:55:14,-34.9287355599624,-56.1627842609874,2.952756,3.0183728,6.694252510804,9.745433710804,2.952756,0,1.71555779768,3.32513134,23,5,7.516,9.745433710804,2.952756,0.223694,1.71555779768,0,0,-1.11847,185, 0.7, 4.8,0,0,891,1051,1024,1002,-20,4,0,-3,181.7,0,5.6,57,3.761,3.755,0,0,0,0,5.292,104.54,9.745433710804,2.952756,11,AutoTakeoff,"Zona de altitud restringida 150m Punto de origen actualizado. Altitud de RPO establecida en 30m"
310300,2025-05-20 15:55:14,-34.9287355446618,-56.1627842161758,3.28084,3.3464568,6.694252510804,10.073517710804,3.28084,0,1.72420937276,3.3396654612,23,5,7.516,10.073517710804,3.28084,0.223694,1.72420937276,0,0,-0.894776,184.9, -0.3, 5.5,0,0,891,1051,1024,1002,-20,4,0,-3,181.7,0,6.3,57,3.761,3.755,0,0,0,0,5.292,104.54,10.073517710804,3.28084,11,AutoTakeoff,"Zona de altitud restringida 150m Punto de origen actualizado. Altitud de RPO establecida en 30m"
310400,2025-05-20 15:55:14,-34.9287355639931,-56.162783531692,3.28084,3.3464568,6.694252510804,10.073517710804,3.608924,0,1.90654205576,3.5445211108,23,5,7.518,10.073517710804,3.28084,0.223694,1.90654205576,0,0,-0.894776,184.8, -0.4, 6.2,0,0,933,1096,1071,1021,-14,11,7,-0,181.6,-1.5,6.4,56,3.761,3.757,0,0,0,0,4.94,104.54,10.073517710804,3.28084,11,AutoTakeoff,"Zona de altitud restringida 150m Punto de origen actualizado. Altitud de RPO establecida en 30m"
310500,2025-05-20 15:55:14,-34.9287355648884,-56.1627835386251,3.28084,3.3464568,6.694252510804,10.073517710804,3.608924,0,1.90485898484,3.5466208484,23,5,7.518,10.073517710804,3.28084,0.223694,1.90654205576,0,0,-0.894776,185.9, 0, 5.3,0,0,934,1095,1150,1018,-14,11,19,-1,184.1,-10.3,4.7,57,3.761,3.757,0,0,0,0,4.94,104.54,10.073517710804,3.28084,11,AutoTakeoff,"Zona de altitud restringida 150m Punto de origen actualizado. Altitud de RPO establecida en 30m"
310600,2025-05-20 15:55:14,-34.9287352260259,-56.1627831154459,3.608924,3.6417324,6.727060910804,10.401601710804,3.608924,0,1.96668641464,3.723589358,22,5,7.518,10.401601710804,3.608924,0.223694,1.96668641464,0,0,-0.447388,188.9, -1.6, 4.2,0,0,936,1094,1257,1022,-13,11,35,-0,187.5,-13.7,4.6,57,3.761,3.757,0,0,0,0,4.94,104.54,10.401601710804,3.608924,6,P-GPS,"Zona de altitud restringida 150m Punto de origen actualizado. Altitud de RPO establecida en 30m"
310700,2025-05-20 15:55:14,-34.9287352886334,-56.1627830841661,3.608924,3.6417324,6.727060910804,10.401601710804,3.608924,0,1.9842356278,3.7482612748,22,5,7.518,10.401601710804,3.608924,0.223694,1.9842356278,0,0,0,191.6, -8.1, 5.2,0,0,936,1095,1317,1024,-13,11,44,0,190.9,-14.8,5.5,57,3.761,3.757,0,0,0,0,4.94,104.54,10.401601710804,3.608924,6,P-GPS,"Zona de altitud restringida 150m Punto de origen actualizado. Altitud de RPO establecida en 30m"
310800,2025-05-20 15:55:15,-34.9287354254437,-56.1627829194388,3.608924,3.6417324,6.727060910804,10.401601710804,3.608924,0.447388,2.04940295272,3.818405634,22,5,7.518,10.401601710804,3.608924,0.447388,2.04940295272,-0.447388,0,0,193.9, -17, 6.3,0,0,940,1094,1391,1024,-13,11,56,0,194.4,-15.1,6.2,57,3.761,3.757,0,0,0,0,4.94,104.54,10.401601710804,3.608924,6,P-GPS,"Zona de altitud restringida 150m Punto de origen actualizado. Altitud de RPO establecida en 30m"
310900,2025-05-20 15:55:15,-34.9287358226345,-56.1627829349037,3.608924,3.6745408,6.694252510804,10.401601710804,3.28084,1.11847,2.1084646344,3.9633859536,22,5,7.518,10.401601710804,3.608924,1.11847,2.1084646344,-1.11847,0,0.223694,196.1, -24.3, 7.4,0,0,940,1095,1432,1025,-13,11,62,0,197.1,-14.9,5.2,57,3.761,3.757,0,0,0,0,4.94,104.54,10.401601710804,3.608924,6,P-GPS,"Zona de altitud restringida 150m Punto de origen actualizado. Altitud de RPO establecida en 30m"
311000,2025-05-20 15:55:15,-34.9287367978692,-56.1627831472587,3.28084,3.3792652,6.661444110804,10.073517710804,3.28084,1.8119214,2.24411752588,4.3248360964,22,5,7.518,10.401601710804,3.608924,1.8119214,2.24411752588,-1.789552,-0.223694,0.447388,198.9, -26.3, 5.7,0,0,942,1093,1483,1025,-12,10,70,0,199.6,-14.7,4.5,57,3.761,3.757,0,0,0,0,4.94,104.54,10.073517710804,3.28084,6,P-GPS,"Zona de altitud restringida 150m Punto de origen actualizado. Altitud de RPO establecida en 30m. Presiona ligeramente el acelerador para controlar la orientación de la aeronave. Mantén pulsado el botón de bloqueo para que la aeronave aterrice"
311100,2025-05-20 15:55:15,-34.9287378017604,-56.1627834244774,3.28084,3.4120736,6.628635710804,10.073517710804,2.952756,2.7738056,2.41993774148,4.7003610428,22,5,7.518,10.401601710804,3.608924,2.7738056,2.41993774148,-2.684328,-0.671082,0.447388,201.7, -26.5, 6.3,0,0,944,1088,1511,1026,-12,10,74,0,202.8,-14.4,5.5,57,3.761,3.757,0,0,0,0,4.94,104.54,10.073517710804,3.28084,6,P-GPS,"Zona de altitud restringida 150m Presiona ligeramente el acelerador para controlar la orientación de la aeronave. Mantén pulsado el botón de bloqueo para que la aeronave aterrice"
311200,2025-05-20 15:55:15,-34.9287388855088,-56.162783959286,3.28084,3.444882,6.595827310804,10.073517710804,3.28084,3.467257,2.61401583168,5.1269030512,22,5,7.518,10.401601710804,3.608924,3.467257,2.61401583168,-3.35541,-0.894776,0.447388,204.1, -26.2, 6.7,0,0,951,1045,1546,1043,-11,3,79,3,204.8,-14,5.3,57,3.761,3.757,0,0,0,0,4.94,104.54,10.073517710804,3.28084,6,P-GPS,"Zona de altitud restringida 150m Presiona ligeramente el acelerador para controlar la orientación de la aeronave. Mantén pulsado el botón de bloqueo para que la aeronave aterrice"
311300,2025-05-20 15:55:15,-34.9287403087664,-56.1627845745121,2.952756,3.1496064,6.563018910804,9.745433710804,3.28084,4.250186,2.95633539644,5.677821704,22,5,7.518,10.401601710804,3.608924,4.250186,2.95633539644,-4.026492,-1.342164,0.447388,205.9, -26.1, 6.4,0,0,971,1019,1213,1050,-8,-1,29,4,205.3,-13.2,4.6,57,3.761,3.757,0,0,0,0,4.94,104.54,9.745433710804,2.952756,6,P-GPS,"Zona de altitud restringida 150m Presiona ligeramente el acelerador para controlar la orientación de la aeronave. Mantén pulsado el botón de bloqueo para que la aeronave aterrice"
311400,2025-05-20 15:55:15,-34.9287418565451,-56.1627853226788,2.952756,3.2152232,6.497402110804,9.745433710804,3.28084,5.033115,3.3833990584,6.28526923,22,5,7.487,10.401601710804,3.608924,5.033115,3.3833990584,-4.697574,-1.789552,0.447388,204.8, -23.9, 6.1,0,0,1029,986,1027,1055,1,-6,0,5,202.4,-10.1,5.5,56,3.745,3.742,0,0,0,0,5.718,104.54,9.745433710804,2.952756,6,P-GPS,"Zona de altitud restringida 150m Presiona ligeramente el acelerador para controlar la orientación de la aeronave. Mantén pulsado el botón de bloqueo para que la aeronave aterrice"
311500,2025-05-20 15:55:15,-34.9287439379479,-56.1627863477665,2.952756,3.3136484,6.398976910804,9.745433710804,3.28084,5.5252418,4.030183856,7.1042325108,22,5,7.487,10.401601710804,3.608924,5.5252418,4.030183856,-5.144962,-2.013246,0.223694,203.8, -12.7, 6.1,0,0,1043,983,1024,1061,3,-6,0,6,201.3,-3.8,6.1,56,3.745,3.742,0,0,0,0,5.718,104.54,9.745433710804,2.952756,6,P-GPS,"Zona de altitud restringida 150m Presiona ligeramente el acelerador para controlar la orientación de la aeronave. Mantén pulsado el botón de bloqueo para que la aeronave aterrice"
311600,2025-05-20 15:55:15,-34.9287459119037,-56.162787074601,2.952756,3.3792652,6.333360110804,9.745433710804,3.608924,5.5252418,4.702756056,7.8565291228,23,5,7.487,10.401601710804,3.608924,5.5252418,4.702756056,-5.144962,-2.013246,0,204.1, -1.9, 6.4,0,0,1039,976,1024,1067,2,-7,0,7,200.6,0.7,7.3,56,3.745,3.742,0,0,0,0,5.718,104.54,9.745433710804,2.952756,6,P-GPS,"Zona de altitud restringida 150m Presiona ligeramente el acelerador para controlar la orientación de la aeronave. Mantén pulsado el botón de bloqueo para que la aeronave aterrice"
311700,2025-05-20 15:55:15,-34.9287479838014,-56.1627881150491,2.952756,3.444882,6.267743310804,9.745433710804,3.608924,5.3239172,5.4257547668,8.6740160256,23,5,7.487,10.401601710804,3.608924,5.5252418,5.4257547668,-4.921268,-2.013246,0,204.8, 9.2, 6.8,0,0,1032,976,1070,1074,1,-7,7,8,199.5,2.1,7.1,56,3.745,3.742,0,0,0,0,5.718,104.54,9.745433710804,2.952756,6,P-GPS,"Zona de altitud restringida 150m Presiona ligeramente el acelerador para controlar la orientación de la aeronave. Mantén pulsado el botón de bloqueo para que la aeronave aterrice"
311800,2025-05-20 15:55:16,-34.9287492501763,-56.1627889244589,2.952756,3.4776904,6.234934910804,9.745433710804,3.608924,4.3172942,5.8789700044,9.1956367772,23,5,7.487,10.401601710804,3.608924,5.5252418,5.8789700044,-4.026492,-1.565858,0,204.5, 19.4, 7.3,0,0,1028,970,1229,1076,1,-8,31,8,197.5,1.8,8.2,56,3.745,3.742,0,0,0,0,5.718,104.54,9.745433710804,2.952756,6,P-GPS,"Zona de altitud restringida 150m Presiona ligeramente el acelerador para controlar la orientación de la aeronave. Mantén pulsado el botón de bloqueo para que la aeronave aterrice"
311900,2025-05-20 15:55:16,-34.9287506439807,-56.1627896588274,2.952756,3.5433072,6.169318110804,9.745433710804,3.608924,3.1988242,6.3886484984,9.7496066112,23,5,7.487,10.401601710804,3.608924,5.5252418,6.3886484984,-2.908022,-1.342164,0,202.4, 18.6, 6.6,0,0,1024,970,1312,1073,0,-8,44,7,196.2,1.3,5.4,56,3.745,3.742,0,0,0,0,5.718,104.54,9.745433710804,2.952756,6,P-GPS,"Zona de altitud restringida 150m Presiona ligeramente el acelerador para controlar la orientación de la aeronave. Mantén pulsado el botón de bloqueo para que la aeronave aterrice"
312000,2025-05-20 15:55:16,-34.9287514077352,-56.1627899656228,2.952756,3.5433072,6.169318110804,9.745433710804,3.608924,2.1922012,6.6698492948,10.042979324,23,5,7.487,10.401601710804,3.608924,5.5252418,6.6698492948,-2.013246,-0.894776,0,199.5, 8, 4.1,0,0,1016,970,1409,1071,-1,-8,58,7,194.8,0.5,3.1,56,3.745,3.742,0,0,0,0,5.718,104.54,9.745433710804,2.952756,6,P-GPS,"Zona de altitud restringida 150m Presiona ligeramente el acelerador para controlar la orientación de la aeronave. Mantén pulsado el botón de bloqueo para que la aeronave aterrice"
312100,2025-05-20 15:55:16,-34.9287521613466,-56.1627904037601,2.952756,3.5761156,6.136509710804,9.745433710804,3.608924,1.901399,6.9503283064,10.3475725096,23,5,7.487,10.401601710804,3.608924,5.5252418,6.9503283064,-1.789552,-0.671082,0,197, -3.7, 1.7,0,0,1012,968,1459,1071,-2,-8,66,7,192.9,-0.5,1.5,56,3.745,3.742,0,0,0,0,5.718,104.54,9.745433710804,2.952756,6,P-GPS,"Zona de altitud restringida 150m Presiona ligeramente el acelerador para controlar la orientación de la aeronave. Mantén pulsado el botón de bloqueo para que la aeronave aterrice"
312200,2025-05-20 15:55:16,-34.9287528523546,-56.1627905023488,2.952756,3.608924,6.103701310804,9.745433710804,3.608924,1.8342908,7.2036419628,10.6014111004,23,5,7.487,10.401601710804,3.608924,5.5252418,7.2036419628,-1.789552,-0.447388,0,194.9, -14.8, 1.6,0,0,1009,971,1517,1069,-2,-8,75,7,191.1,-1.3,1.2,56,3.745,3.742,0,0,0,0,5.718,104.54,9.745433710804,2.952756,6,P-GPS,"Zona de altitud restringida 150m Presiona ligeramente el acelerador para controlar la orientación de la aeronave. Mantén pulsado el botón de bloqueo para que la aeronave aterrice"
312300,2025-05-20 15:55:16,-34.9287536146871,-56.1627907475563,2.952756,3.6417324,6.070892910804,9.745433710804,3.608924,2.2816788,7.4856301608,10.8890423432,23,5,7.487,10.401601710804,3.608924,5.5252418,7.4856301608,-2.23694,-0.447388,0,192.7, -25, 1,0,0,1007,976,1548,1068,-3,-7,79,7,189,-2,0.3,56,3.745,3.742,0,0,0,0,5.718,104.54,9.745433710804,2.952756,6,P-GPS,"Zona de altitud restringida 150m Presiona ligeramente el acelerador para controlar la orientación de la aeronave. Mantén pulsado el botón de bloqueo para que la aeronave aterrice"
312400,2025-05-20 15:55:16,-34.9287547416987,-56.162790826307,2.952756,3.6745408,6.038084510804,9.745433710804,3.28084,3.131716,7.897474006,11.3009189968,23,5,7.484,10.401601710804,3.608924,5.5252418,7.897474006,-3.131716,-0.223694,0.223694,190.9, -27.7, 1.1,0,0,1004,992,1583,1066,-3,-5,85,6,187.5,-2.5,0.8,56,3.744,3.74,0,0,0,0,5.148,104.72,9.745433710804,2.952756,6,P-GPS,"Zona de altitud restringida 150m Presiona ligeramente el acelerador para controlar la orientación de la aeronave. Mantén pulsado el botón de bloqueo para que la aeronave aterrice"
312500,2025-05-20 15:55:16,-34.9287561953262,-56.1627910010866,2.624672,3.3792652,6.005276110804,9.417349710804,3.28084,3.802798,8.4300855716,11.833825838,23,5,7.484,10.401601710804,3.608924,5.5252418,8.4300855716,-3.802798,-0.223694,0.223694,189.3, -27.7, 1.7,0,0,1003,1008,1601,1061,-3,-2,87,6,186.9,-2.9,1.7,56,3.744,3.74,0,0,0,0,5.148,104.72,9.417349710804,2.624672,6,P-GPS,"Zona de altitud restringida 150m Presiona ligeramente el acelerador para controlar la orientación de la aeronave. Mantén pulsado el botón de bloqueo para que la aeronave aterrice"
312600,2025-05-20 15:55:16,-34.9287578560991,-56.1627909003192,2.624672,3.4776904,5.906850910804,9.417349710804,3.28084,4.697574,9.0330711552,12.4405187708,24,5,7.484,10.401601710804,3.608924,5.5252418,9.0330711552,-4.697574,-0.223694,0.447388,188.7, -27.7, 2.4,0,0,1006,1016,1623,1062,-3,-1,91,6,186.8,-3.2,2.2,56,3.744,3.74,0,0,0,0,5.148,104.72,9.417349710804,2.624672,6,P-GPS,"Zona de altitud restringida 150m Presiona ligeramente el acelerador para controlar la orientación de la aeronave. Mantén pulsado el botón de bloqueo para que la aeronave aterrice"
312700,2025-05-20 15:55:16,-34.9287599856526,-56.162790923412,2.624672,3.5433072,5.841234110804,9.417349710804,3.28084,4.697574,9.8092522824,13.217520108,24,5,7.484,10.401601710804,3.608924,5.5252418,9.8092522824,-5.59235,0,0.447388,188.4, -27.7, 3.5,0,0,1014,1024,1634,1061,-2,0,92,6,187.6,-3.1,3.7,56,3.744,3.74,0,0,0,0,5.148,104.72,9.417349710804,2.624672,6,P-GPS,"Zona de altitud restringida 150m Presiona ligeramente el acelerador para controlar la orientación de la aeronave. Mantén pulsado el botón de bloqueo para que la aeronave aterrice"
312800,2025-05-20 15:55:17,-34.9287621226336,-56.1627909299585,2.624672,3.608924,5.775617310804,9.417349710804,3.28084,6.263432,10.5879924648,13.9971789256,24,5,7.484,10.401601710804,3.608924,6.263432,10.5879924648,-6.263432,0,0.447388,188.6, -26.9, 5.3,0,0,1039,1022,1647,1064,2,-0,94,6,187.9,-1.9,4.6,56,3.744,3.74,0,0,0,0,5.148,104.72,9.417349710804,2.624672,6,P-GPS,"Zona de altitud restringida 150m Presiona ligeramente el acelerador para controlar la orientación de la aeronave. Mantén pulsado el botón de bloqueo para que la aeronave aterrice"
312900,2025-05-20 15:55:17,-34.9287648585236,-56.162791006447,2.296588,3.3792652,5.677192110804,9.089265710804,2.952756,7.158208,11.586122418,14.9956369628,24,5,7.484,10.401601710804,3.608924,7.158208,11.586122418,-7.158208,-0.223694,0.447388,188.4, -27.1, 4.8,0,0,1056,1019,1653,1064,5,-1,95,6,187.8,0.6,3.9,56,3.744,3.74,0,0,0,0,5.148,104.72,9.089265710804,2.296588,6,P-GPS,"Zona de altitud restringida 150m Presiona ligeramente el acelerador para controlar la orientación de la aeronave. Mantén pulsado el botón de bloqueo para que la aeronave aterrice"
313000,2025-05-20 15:55:17,-34.9287676367086,-56.1627915209579,2.296588,3.4776904,5.578766910804,9.089265710804,3.28084,8.052984,12.606299616,16.0208666544,24,5,7.484,10.401601710804,3.608924,8.052984,12.606299616,-8.052984,-0.223694,0,188.9, -25.2, 5.9,0,0,1058,1013,1661,1068,5,-2,97,7,188.3,3.8,5.6,56,3.744,3.74,0,0,0,0,5.148,104.72,9.089265710804,2.296588,6,P-GPS,"Zona de altitud restringida 150m Presiona ligeramente el acelerador para controlar la orientación de la aeronave. Mantén pulsado el botón de bloqueo para que la aeronave aterrice"
313100,2025-05-20 15:55:17,-34.9287709461405,-56.1627918093156,2.624672,3.937008,5.447533310804,9.417349710804,3.28084,8.5227414,13.8166999172,17.2313981892,24,5,7.484,10.401601710804,3.608924,8.5227414,13.8166999172,-8.500372,-0.671082,-0.671082,188.5, -27.2, 6.4,0,0,1062,1008,1665,1071,6,-2,97,7,187.9,5.3,5,56,3.744,3.74,0,0,0,0,5.148,104.72,9.417349710804,2.624672,6,P-GPS,"Zona de altitud restringida 150m Presiona ligeramente el acelerador para controlar la orientación de la aeronave. Mantén pulsado el botón de bloqueo para que la aeronave aterrice"
313200,2025-05-20 15:55:17,-34.928774956998,-56.1627926064841,2.624672,4.0682416,5.316299710804,9.417349710804,3.608924,9.1938234,15.2920608568,18.714075402,24,5,7.484,10.401601710804,3.608924,9.1938234,15.2920608568,-9.171454,-0.671082,-0.671082,188.1, -28.2, 5.3,0,0,1060,1005,1670,1071,5,-3,98,7,187.3,6.2,4.5,56,3.744,3.74,0,0,0,0,5.148,104.72,9.417349710804,2.624672,6,P-GPS,"Zona de altitud restringida 150m Presiona ligeramente el acelerador para controlar la orientación de la aeronave. Mantén pulsado el botón de bloqueo para que la aeronave aterrice"
313300,2025-05-20 15:55:17,-34.9287784391915,-56.1627929905883,2.624672,4.1666668,5.217874510804,9.417349710804,3.608924,9.8649054,16.5673889816,19.9897316108,24,5,7.484,10.401601710804,3.608924,9.8649054,16.5673889816,-9.842536,-0.671082,-0.894776,187.9, -27.1, 5,0,0,1051,1006,1672,1072,4,-3,98,7,186.9,6.4,4.5,56,3.744,3.74,0,0,0,0,5.148,104.72,9.417349710804,2.624672,6,P-GPS,"Zona de altitud restringida 150m Presiona ligeramente el acelerador para controlar la orientación de la aeronave. Mantén pulsado el botón de bloqueo para que la aeronave aterrice"
313400,2025-05-20 15:55:17,-34.928783303774,-56.1627933434544,2.952756,4.6916012,5.021024110804,9.745433710804,3.937008,10.3122934,18.345308986,21.7676844236,24,5,7.392,10.401601710804,3.608924,10.3122934,18.345308986,-10.289924,-0.671082,-1.11847,187.3, -27.1, 6.3,0,0,1036,1005,1675,1073,2,-3,99,7,187.3,5.2,6.1,56,3.698,3.694,0,0,0,0,7.666,105.08,9.745433710804,2.952756,6,P-GPS,"Zona de altitud restringida 150m Presiona ligeramente el acelerador para controlar la orientación de la aeronave. Mantén pulsado el botón de bloqueo para que la aeronave aterrice"
313500,2025-05-20 15:55:17,-34.928787620194,-56.162793672188,2.952756,4.8556432,4.856982110804,9.745433710804,4.265092,10.737312,19.9231961756,23.3456044216,24,5,7.392,10.401601710804,3.608924,10.737312,19.9231961756,-10.737312,-0.447388,-1.11847,187, -26.7, 7,0,0,1028,1004,1677,1074,1,-3,99,8,186.9,3.4,6,56,3.698,3.694,0,0,0,0,7.666,105.08,9.745433710804,2.952756,6,P-GPS,"Zona de altitud restringida 150m Presiona ligeramente el acelerador para controlar la orientación de la aeronave. Mantén pulsado el botón de bloqueo para que la aeronave aterrice"
313600,2025-05-20 15:55:17,-34.9287915496395,-56.162793499582,3.28084,5.3149608,4.725748510804,10.073517710804,4.265092,11.1847,21.3505912344,24.78018452,24,5,7.392,10.401601710804,3.608924,11.1847,21.3505912344,-11.1847,-0.447388,-0.894776,187, -25.7, 8.2,0,0,1020,1006,1679,1073,-1,-3,99,7,187.3,1.8,7.5,56,3.698,3.694,0,0,0,0,7.666,105.08,10.073517710804,3.28084,6,P-GPS,"Zona de altitud restringida 150m Presiona ligeramente el acelerador para controlar la orientación de la aeronave. Mantén pulsado el botón de bloqueo para que la aeronave aterrice"
313700,2025-05-20 15:55:17,-34.9287959820222,-56.1627937193246,3.28084,5.4790028,4.561706510804,10.073517710804,4.593176,11.1847,22.9687999476,26.3986885088,24,5,7.392,10.401601710804,3.608924,11.1847,22.9687999476,-11.1847,-0.447388,-0.447388,186.3, -26.6, 8.5,0,0,1016,1006,1679,1073,-1,-3,99,7,186.6,0.4,7,56,3.698,3.694,0,0,0,0,7.666,105.08,10.073517710804,3.28084,6,P-GPS,"Zona de altitud restringida 150m Presiona ligeramente el acelerador para controlar la orientación de la aeronave. Mantén pulsado el botón de bloqueo para que la aeronave aterrice"
313800,2025-05-20 15:55:18,-34.9287994535028,-56.162793335513,3.28084,5.577428,4.463281310804,10.073517710804,4.593176,11.408394,24.2271005128,27.670440518,24,5,7.392,10.401601710804,3.608924,11.408394,24.2271005128,-11.408394,-0.223694,-0.223694,186.1, -26.2, 7.9,0,0,1014,1000,1681,1075,-2,-4,100,8,186.3,-0.5,7.2,56,3.698,3.694,0,0,0,0,7.666,105.08,10.073517710804,3.28084,6,P-GPS,"Zona de altitud restringida 150m Presiona ligeramente el acelerador para controlar la orientación de la aeronave. Mantén pulsado el botón de bloqueo para que la aeronave aterrice"
313900,2025-05-20 15:55:18,-34.9288041538862,-56.1627935022518,3.28084,5.74147,4.299239310804,10.073517710804,4.593176,11.632088,25.9423564732,29.3860901792,24,5,7.392,10.401601710804,3.608924,11.632088,25.9423564732,-11.632088,-0.223694,0,185.7, -25.5, 8.8,0,0,1016,990,1681,1074,-1,-5,100,8,186,-1.1,7.5,56,3.698,3.694,0,0,0,0,7.666,105.08,10.073517710804,3.28084,6,P-GPS,"Zona de altitud restringida 150m Presiona ligeramente el acelerador para controlar la orientación de la aeronave. Mantén pulsado el botón de bloqueo para que la aeronave aterrice"
314000,2025-05-20 15:55:18,-34.9288083066771,-56.1627929353588,3.28084,5.905512,4.135197310804,10.073517710804,4.265092,12.079476,27.4482620332,30.9106965272,24,5,7.392,10.401601710804,3.608924,12.079476,27.4482620332,-12.079476,-0.223694,0,185, -25.6, 8.1,0,0,1016,985,1682,1073,-1,-6,100,7,184.7,-1.1,7,56,3.698,3.694,0,0,0,0,7.666,105.08,10.073517710804,3.28084,6,P-GPS,"Zona de altitud restringida 150m Presiona ligeramente el acelerador para controlar la orientación de la aeronave. Mantén pulsado el botón de bloqueo para que la aeronave aterrice"
314100,2025-05-20 15:55:18,-34.9288132305987,-56.162792939993,3.28084,6.069554,3.971155310804,10.073517710804,4.265092,12.30317,29.2433736392,32.707186086,24,5,7.392,10.401601710804,3.608924,12.30317,29.2433736392,-12.30317,0,0.223694,183.8, -25.3, 8.5,0,0,1021,990,1682,1073,-0,-5,100,7,184.2,-1.1,8.7,56,3.698,3.694,0,0,0,0,7.666,105.08,10.073517710804,3.28084,6,P-GPS,"Zona de altitud restringida 150m Presiona ligeramente el acelerador para controlar la orientación de la aeronave. Mantén pulsado el botón de bloqueo para que la aeronave aterrice"
314200,2025-05-20 15:55:18,-34.9288175191419,-56.1627925936002,3.28084,6.233596,3.807113310804,10.073517710804,4.265092,12.526864,30.8033474424,34.275263564,24,5,7.392,10.401601710804,3.608924,12.526864,30.8033474424,-12.526864,0.223694,0,182.9, -24.3, 10.4,0,0,1038,1002,1682,1076,2,-3,100,8,183.6,-0.4,9.3,56,3.698,3.694,0,0,0,0,7.666,105.08,10.073517710804,3.28084,6,P-GPS,"Zona de altitud restringida 150m Presiona ligeramente el acelerador para controlar la orientación de la aeronave. Mantén pulsado el botón de bloqueo para que la aeronave aterrice"
314300,2025-05-20 15:55:18,-34.9288217183486,-56.1627925396768,3.28084,6.397638,3.643071310804,10.073517710804,4.265092,12.30317,32.3340889612,35.807415844,24,5,7.392,10.401601710804,3.608924,12.526864,32.3340889612,-12.30317,0,0,182, -25.2, 10,0,0,1043,1007,1683,1078,3,-3,100,8,182.8,1.1,8.7,56,3.698,3.694,0,0,0,0,7.666,105.08,10.073517710804,3.28084,6,P-GPS,"Zona de altitud restringida 150m Presiona ligeramente el acelerador para controlar la orientación de la aeronave. Mantén pulsado el botón de bloqueo para que la aeronave aterrice"
314400,2025-05-20 15:55:18,-34.9288268408442,-56.16279250626,3.28084,6.56168,3.479029310804,10.073517710804,4.265092,12.526864,34.201772748,37.676510392,24,5,7.474,10.401601710804,3.608924,12.526864,34.201772748,-12.526864,0,-0.223694,181.6, -25, 9.9,0,0,1044,1017,1683,1083,3,-1,100,9,182.3,2.6,8.3,56,3.739,3.735,0,0,0,0,5.524,105.08,10.073517710804,3.28084,6,P-GPS,"Zona de altitud restringida 150m Presiona ligeramente el acelerador para controlar la orientación de la aeronave. Mantén pulsado el botón de bloqueo para que la aeronave aterrice"
314500,2025-05-20 15:55:18,-34.9288318588312,-56.1627924849697,3.608924,7.0866144,3.282178910804,10.401601710804,4.593176,12.526864,36.0318253,39.507219112,24,5,7.474,10.401601710804,3.608924,12.526864,36.0318253,-12.526864,0,-0.223694,181.2, -26.1, 9.2,0,0,1044,1020,1683,1085,3,-1,100,9,182.2,3.2,8.2,56,3.739,3.735,0,0,0,0,5.524,105.08,10.401601710804,3.608924,6,P-GPS,"Zona de altitud restringida 150m Presiona ligeramente el acelerador para controlar la orientación de la aeronave. Mantén pulsado el botón de bloqueo para que la aeronave aterrice"
314600,2025-05-20 15:55:18,-34.9288377385362,-56.162792197589,3.608924,7.2834648,3.085328510804,10.401601710804,4.265092,12.750558,38.17421382,41.654200808,24,5,7.474,10.401601710804,3.608924,12.750558,38.17421382,-12.750558,0.223694,-0.447388,181.3, -25, 10.2,0,0,1043,1021,1683,1086,3,-0,100,9,183,3.4,9.9,56,3.739,3.735,0,0,0,0,5.524,105.08,10.401601710804,3.608924,6,P-GPS,"Zona de altitud restringida 150m Presiona ligeramente el acelerador para controlar la orientación de la aeronave. Mantén pulsado el botón de bloqueo para que la aeronave aterrice"
314700,2025-05-20 15:55:18,-34.9288427759017,-56.1627918827686,3.608924,7.4475068,2.921286510804,10.401601710804,4.265092,12.750558,40.009515716,43.494423964,24,5,7.474,10.401601710804,3.608924,12.750558,40.009515716,-12.750558,0.447388,-0.671082,181.4, -24.2, 11.7,0,0,1043,1021,1683,1086,3,-0,100,9,183.4,3.5,10.8,56,3.739,3.735,0,0,0,0,5.524,105.08,10.401601710804,3.608924,6,P-GPS,"Zona de altitud restringida 150m Presiona ligeramente el acelerador para controlar la orientación de la aeronave. Mantén pulsado el botón de bloqueo para que la aeronave aterrice"
314800,2025-05-20 15:55:19,-34.928848876926,-56.1627920903744,3.937008,8.0052496,2.691627710804,10.729685710804,4.265092,12.7729274,42.236221824,45.721130072,24,5,7.474,10.729685710804,3.937008,12.7729274,42.236221824,-12.750558,0.671082,-0.671082,181.4, -23.9, 12.5,0,0,1042,1020,1683,1086,3,-1,100,9,183.7,3.4,11.5,56,3.739,3.735,0,0,0,0,5.524,105.08,10.729685710804,3.937008,6,P-GPS,"Zona de altitud restringida 150m Presiona ligeramente el acelerador para controlar la orientación de la aeronave. Mantén pulsado el botón de bloqueo para que la aeronave aterrice"
314900,2025-05-20 15:55:19,-34.9288542559768,-56.1627916662026,3.937008,8.1692916,2.527585710804,10.729685710804,4.265092,12.7729274,44.19619564,47.687993652,24,5,7.474,10.729685710804,3.937008,12.7729274,44.19619564,-12.750558,0.671082,-0.671082,181.3, -23.7, 13.1,0,0,1042,1020,1683,1086,3,-1,100,9,183.5,3.4,11.8,56,3.739,3.735,0,0,0,0,5.524,105.08,10.729685710804,3.937008,6,P-GPS,"Zona de altitud restringida 150m Presiona ligeramente el acelerador para controlar la orientación de la aeronave. Mantén pulsado el botón de bloqueo para que la aeronave aterrice"
315000,2025-05-20 15:55:19,-34.9288606330034,-56.1627915935019,3.937008,8.4317588,2.265118510804,10.729685710804,4.265092,12.9966214,46.521983116,50.01476538,24,5,7.474,10.729685710804,3.937008,12.9966214,46.521983116,-12.974252,0.894776,-0.671082,181.2, -23.2, 13,0,0,1042,1023,1683,1086,3,-0,100,9,183.5,3.3,12.2,56,3.739,3.735,0,0,0,0,5.524,105.08,10.729685710804,3.937008,6,P-GPS,"Zona de altitud restringida 150m Presiona ligeramente el acelerador para controlar la orientación de la aeronave. Mantén pulsado el botón de bloqueo para que la aeronave aterrice"
315100,2025-05-20 15:55:19,-34.9288659585449,-56.1627911018644,4.265092,8.9238848,2.101076510804,11.057769710804,4.265092,12.9966214,48.46292806,51.963256256,24,5,7.474,11.057769710804,4.265092,12.9966214,48.46292806,-12.974252,0.894776,-0.671082,181.1, -23.1, 13.8,0,0,1043,1025,1683,1086,3,0,100,9,183.6,3.3,12.5,56,3.739,3.735,0,0,0,0,5.524,105.08,11.057769710804,4.265092,6,P-GPS,"Zona de altitud restringida 150m Presiona ligeramente el acelerador para controlar la orientación de la aeronave. Mantén pulsado el botón de bloqueo para que la aeronave aterrice"
315200,2025-05-20 15:55:19,-34.9288714039041,-56.1627905529232,4.265092,9.1207352,1.904226110804,11.057769710804,5.249344,12.7729274,50.44783626,53.95669464,24,5,7.474,11.057769710804,4.265092,12.9966214,50.44783626,-12.750558,0.894776,-0.671082,181.3, -22.1, 13.7,0,0,1046,1043,1683,1087,3,3,100,10,183.5,3.4,12.6,56,3.739,3.735,0,0,0,0,5.524,105.08,11.057769710804,4.265092,6,P-GPS,"Zona de altitud restringida 150m Presiona ligeramente el acelerador para controlar la orientación de la aeronave. Mantén pulsado el botón de bloqueo para que la aeronave aterrice"
315300,2025-05-20 15:55:19,-34.9288760762822,-56.1627900333601,4.265092,9.2847772,1.740184110804,11.057769710804,6.233596,12.7952968,52.151576472,55.668636952,24,5,7.474,11.057769710804,4.265092,12.9966214,52.151576472,-12.750558,1.11847,-0.671082,181.2, -22.1, 14.2,0,0,1048,1062,1683,1089,4,6,100,10,183.9,3.7,13.3,56,3.739,3.735,0,0,0,0,5.524,105.08,11.057769710804,4.265092,6,P-GPS,"Zona de altitud restringida 150m Presiona ligeramente el acelerador para controlar la orientación de la aeronave. Mantén pulsado el botón de bloqueo para que la aeronave aterrice"
315400,2025-05-20 15:55:19,-34.9288818551195,-56.1627893554332,4.593176,9.84252,1.510525310804,11.385853710804,6.889764,12.8176662,54.259188088,57.786747256,24,5,7.461,11.385853710804,4.593176,12.9966214,54.259188088,-12.750558,1.342164,-0.671082,181.7, -21.7, 15.2,0,0,1044,1079,1683,1093,3,8,100,10,185.4,3.9,14.5,56,3.731,3.73,0,0,0,0,5.567,105.26,11.385853710804,4.593176,6,P-GPS,"Zona de altitud restringida 150m Presiona ligeramente el acelerador para controlar la orientación de la aeronave. Mantén pulsado el botón de bloqueo para que la aeronave aterrice"
315500,2025-05-20 15:55:19,-34.9288869778978,-56.1627887302961,4.593176,10.006562,1.346483310804,11.385853710804,7.874016,12.5716028,56.12861072,59.665028156,24,5,7.461,11.385853710804,4.593176,12.9966214,56.12861072,-12.526864,1.11847,-0.894776,183.5, -20.5, 16.3,0,0,1042,1093,1683,1094,3,10,100,11,187.8,3.7,15.6,56,3.731,3.73,0,0,0,0,5.567,105.26,11.385853710804,4.593176,6,P-GPS,"Zona de altitud restringida 150m Presiona ligeramente el acelerador para controlar la orientación de la aeronave. Mantén pulsado el botón de bloqueo para que la aeronave aterrice"
315600,2025-05-20 15:55:19,-34.9288923104128,-56.1627884658829,4.593176,10.0721788,1.280866510804,11.385853710804,8.530184,12.5492334,58.07414884,61.612206696,24,5,7.461,11.385853710804,4.593176,12.9966214,58.07414884,-12.526864,0.894776,-0.894776,185.6, -20.7, 17,0,0,1040,1109,1683,1097,2,13,100,11,190.4,3.3,15.3,56,3.731,3.73,0,0,0,0,5.567,105.26,11.385853710804,4.593176,6,P-GPS,"Zona de altitud restringida 150m"
315700,2025-05-20 15:55:20,-34.928897325607,-56.1627879594649,4.92126,10.4002628,1.280866510804,11.713937710804,9.186352,12.3255394,59.90485756,63.44816476,24,5,7.461,11.713937710804,4.92126,12.9966214,59.90485756,-12.30317,0.894776,-0.671082,189.5, -19.5, 16.6,0,0,1038,1118,1683,1100,2,14,100,12,194.6,2.9,15.4,56,3.731,3.73,0,0,0,0,5.567,105.26,11.713937710804,4.92126,6,P-GPS,"Zona de altitud restringida 150m"
315800,2025-05-20 15:55:20,-34.9289026774663,-56.1627875260507,4.92126,10.4002628,1.280866510804,11.713937710804,9.84252,12.1018454,61.858269696,65.40518582,24,5,7.461,11.713937710804,4.92126,12.9966214,61.858269696,-12.079476,0.671082,-0.671082,193.8, -19.6, 16.9,0,0,1038,1120,1683,1102,2,15,100,12,199.3,2.5,15.6,56,3.731,3.73,0,0,0,0,5.567,105.26,11.713937710804,4.92126,6,P-GPS,"Zona de altitud restringida 150m"
315900,2025-05-20 15:55:20,-34.928907550243,-56.1627871626778,4.92126,10.4002628,1.280866510804,11.713937710804,10.498688,12.1018454,63.637141144,67.186353856,24,5,7.461,11.713937710804,4.92126,12.9966214,63.637141144,-11.855782,0.671082,-0.671082,198.8, -19.2, 17.1,0,0,1038,1122,1683,1103,2,15,100,12,204.3,2.3,15.7,56,3.731,3.73,0,0,0,0,5.567,105.26,11.713937710804,4.92126,6,P-GPS,"Zona de altitud restringida 150m"
