time(millisecond),datetime(utc),latitude,longitude,height_above_takeoff(feet),height_above_ground_at_drone_location(feet),ground_elevation_at_drone_location(feet),altitude_above_seaLevel(feet),height_sonar(feet),speed(mph),distance(feet),mileage(feet),satellites,gpslevel,voltage(v),max_altitude(feet),max_ascent(feet),max_speed(mph),max_distance(feet), xSpeed(mph), ySpeed(mph), zSpeed(mph), compass_heading(degrees), pitch(degrees), roll(degrees),isPhoto,isVideo,rc_elevator,rc_aileron,rc_throttle,rc_rudder,rc_elevator(percent),rc_aileron(percent),rc_throttle(percent),rc_rudder(percent),gimbal_heading(degrees),gimbal_pitch(degrees),gimbal_roll(degrees),battery_percent,voltageCell1,voltageCell2,voltageCell3,voltageCell4,voltageCell5,voltageCell6,current(A),battery_temperature(f),altitude(feet),ascent(feet),flycStateRaw,flycState,message
0,2022-08-11 19:33:19,-34.928750046591,-56.1628160556458,0,0,6.278456893824,6.278456893824,0.328084,0,0,0,12,5,0,6.278456893824,0,0,0,0,0,0,211.7, 0.7, 0.4,0,0,364,364,364,1684,-100,-100,-100,100,222.2,0,0,98,4.296,4.295,0,0,0,0,0,70.52,6.278456893824,0,41,Motors_Started,"Baja velocidad de la tarjeta SD. Puede afectar a su uso normal. Sustituye la tarjeta SD (Code: 10028)"
100,2022-08-11 19:33:19,-34.9287500552926,-56.1628160583757,0,0,6.278456893824,6.278456893824,0.328084,0,0.00327810377944,0.00327810377944,12,5,0,6.278456893824,0,0,0.00327810377944,0,0,0,211.7, 0.7, 0.4,0,0,364,364,364,1684,-100,-100,-100,100,222.2,0,0,98,4.296,4.295,0,0,0,0,0,70.52,6.278456893824,0,41,Motors_Started,
200,2022-08-11 19:33:19,-34.9287500496997,-56.1628160593924,0,0,6.278456893824,6.278456893824,0.328084,0,0.00159448824,0.00534120752,12,5,0,6.278456893824,0,0,0.00327810377944,0,0,0,211.7, 0.7, 0.4,0,0,364,364,364,1684,-100,-100,-100,100,222.2,0,0,98,4.296,4.295,0,0,0,0,0,70.52,6.278456893824,0,41,Motors_Started,
300,2022-08-11 19:33:19,-34.9287500431347,-56.1628160599722,0,0,6.278456893824,6.278456893824,0.328084,0,0.00180693247252,0.0077427495916,12,5,0,6.278456893824,0,0,0.00327810377944,0,0,0,211.7, 0.7, 0.4,0,0,364,364,364,1684,-100,-100,-100,100,222.2,0,0,98,4.296,4.295,0,0,0,0,0,70.52,6.278456893824,0,41,Motors_Started,
400,2022-08-11 19:33:19,-34.9287499698246,-56.1628160615304,0,0,6.278456893824,6.278456893824,0.328084,0,0.0280634523416,0.034494095592,12,5,0,6.278456893824,0,0,0.0280634523416,0,0,0,211.7, 0.7, 0.5,0,0,364,364,364,1684,-100,-100,-100,100,222.2,0,0,98,4.296,4.295,0,0,0,0,0,70.52,6.278456893824,0,41,Motors_Started,
500,2022-08-11 19:33:19,-34.9287499663267,-56.1628160588461,0,0,6.278456893824,6.278456893824,0.328084,0,0.0293000665544,0.036001641572,12,5,0,6.278456893824,0,0,0.0293000665544,0,0,0,211.7, 0.7, 0.4,0,0,1024,1024,1024,1024,0,0,0,0,222.2,0,0,98,4.296,4.295,0,0,0,0,0,70.52,6.278456893824,0,41,Motors_Started,
600,2022-08-11 19:33:19,-34.9287500138569,-56.1628160062926,0,0,6.278456893824,6.278456893824,0.328084,0,0.0189889113688,0.0594078103,12,5,0,6.278456893824,0,0,0.0293000665544,0,0,0,211.7, 0.7, 0.5,0,0,1024,1024,1024,1024,0,0,0,0,222.2,0,0,98,4.296,4.295,0,0,0,0,0,70.52,6.278456893824,0,41,Motors_Started,
700,2022-08-11 19:33:19,-34.9287500615768,-56.162815957839,0,0,6.278456893824,6.278456893824,0.328084,0,0.0297631899288,0.082061682416,12,5,0,6.278456893824,0,0,0.0297631899288,0,0,0,211.8, 0.7, 0.5,0,0,1024,1024,1024,1024,0,0,0,0,222.2,0,0,98,4.296,4.295,0,0,0,0,0,70.52,6.278456893824,0,41,Motors_Started,
800,2022-08-11 19:33:20,-34.9287501285286,-56.1628159913108,0,0,6.278456893824,6.278456893824,0.328084,0,0.035553478828,0.10846128956,12,5,0,6.278456893824,0,0,0.035553478828,0,0,0,211.7, 0.7, 0.5,0,0,1024,1024,1024,1024,0,0,0,0,222.2,0,0,98,4.296,4.295,0,0,0,0,0,70.52,6.278456893824,0,41,Motors_Started,"Setting new Return-To-Home altitude to 40m (131 ft). Data Recorder File Index is 7. Setting new Maximum Flight Altitude to 30m (98 ft)"
900,2022-08-11 19:33:20,-34.9287503073635,-56.1628160307704,0,0,6.278456893824,6.278456893824,0.328084,0,0.09543307392,0.174768378296,12,5,0,6.278456893824,0,0,0.09543307392,0,0,0,211.8, 0.7, 0.5,0,0,1024,1024,1024,1024,0,0,0,0,222.2,0,0,98,4.296,4.295,0,0,0,0,0,70.52,6.278456893824,0,41,Motors_Started,
1000,2022-08-11 19:33:20,-34.9287503196396,-56.1628160456952,0,0,6.278456893824,6.278456893824,0.328084,0,0.099666013688,0.181092197396,12,5,0,6.278456893824,0,0,0.099666013688,0,0,0,211.7, 0.7, 0.5,0,0,1024,1024,1024,1024,0,0,0,0,222.2,0,0,98,4.296,4.295,0,0,0,0,0,70.52,6.278456893824,0,41,Motors_Started,
1100,2022-08-11 19:33:20,-34.9287503301984,-56.1628160577621,0,0,6.278456893824,6.278456893824,0.328084,0,0.10347605318,0.18637139704,12,5,8.606,6.278456893824,0,0,0.10347605318,0,0,0,211.8, 0.7, 0.5,0,0,1024,1024,1024,1024,0,0,0,0,222.2,0,0,98,4.296,4.295,0,0,0,0,0.99,70.52,6.278456893824,0,10,Assisted_Takeoff,
1200,2022-08-11 19:33:20,-34.9287503214984,-56.1628160568841,0,0,6.278456893824,6.278456893824,0.328084,0,0.100300528144,0.189556436512,12,5,8.606,6.278456893824,0,0,0.10347605318,0,0,0,211.7, 0.7, 0.4,0,0,1024,1024,1024,1024,0,0,0,0,222.2,0,0,98,4.296,4.295,0,0,0,0,0.99,70.52,6.278456893824,0,10,Assisted_Takeoff,
1300,2022-08-11 19:33:20,-34.9287502301134,-56.1628160764978,0,0,6.278456893824,6.278456893824,0.328084,0,0.067248033648,0.22341044022,12,5,8.606,6.278456893824,0,0,0.10347605318,0,0,0,211.8, 0.7, 0.5,0,0,1024,1024,1024,1024,0,0,0,0,222.2,0,0,98,4.296,4.295,0,0,0,0,0.99,70.52,6.278456893824,0,10,Assisted_Takeoff,
1400,2022-08-11 19:33:20,-34.9287502181924,-56.162816069065,0,0,6.278456893824,6.278456893824,0.328084,0,0.062737206732,0.228294954812,12,5,8.606,6.278456893824,0,0,0.10347605318,0,0,0,211.7, 0.7, 0.4,0,0,1024,1024,1024,1024,0,0,0,0,222.2,0,0,98,4.296,4.295,0,0,0,0,0.99,70.52,6.278456893824,0,10,Assisted_Takeoff,
1500,2022-08-11 19:33:20,-34.9287502066394,-56.1628160579301,0,0,6.278456893824,6.278456893824,0.328084,0,0.058397639664,0.233667330312,12,5,8.606,6.278456893824,0,0,0.10347605318,0,0,0,211.8, 0.7, 0.4,0,0,1024,1024,1024,1024,0,0,0,0,222.2,0,0,98,4.296,4.295,0,0,0,0,0.99,70.52,6.278456893824,0,10,Assisted_Takeoff,
1600,2022-08-11 19:33:20,-34.9287501982472,-56.1628159972199,0,0,6.278456893824,6.278456893824,0.328084,0,0.058026248576,0.252083669484,12,5,8.606,6.278456893824,0,0,0.10347605318,0,0,0,211.7, 0.7, 0.5,0,0,1024,1024,1024,1024,0,0,0,0,222.2,0,0,98,4.296,4.295,0,0,0,0,0.99,70.52,6.278456893824,0,10,Assisted_Takeoff,
1700,2022-08-11 19:33:20,-34.9287501295774,-56.1628158673994,0,0,6.278456893824,6.278456893824,0.328084,0,0.06393372908,0.29829725364,12,5,8.606,6.278456893824,0,0,0.10347605318,0,0,0,211.7, 0.7, 0.5,0,0,1024,1024,1024,1024,0,0,0,0,222.2,0,0,98,4.296,4.295,0,0,0,0,0.99,70.52,6.278456893824,0,10,Assisted_Takeoff,
1800,2022-08-11 19:33:21,-34.9287501216745,-56.1628159001172,0,0,6.278456893824,6.278456893824,0.328084,0,0.053989174956,0.308500009872,12,5,8.606,6.278456893824,0,0,0.10347605318,0,0,0,211.8, 0.6, 0.5,0,0,1024,1024,1024,1024,0,0,0,0,222.2,0,0,98,4.296,4.295,0,0,0,0,0.99,70.52,6.278456893824,0,10,Assisted_Takeoff,
1900,2022-08-11 19:33:21,-34.9287501170489,-56.1628159286942,0,0,6.278456893824,6.278456893824,0.328084,0,0.045857284932,0.317213264744,12,5,8.606,6.278456893824,0,0,0.10347605318,0,0,0,211.7, 0.6, 0.4,0,0,1024,1024,1024,1024,0,0,0,0,222.2,0,0,98,4.296,4.295,0,0,0,0,0.99,70.52,6.278456893824,0,10,Assisted_Takeoff,
2100,2022-08-11 19:33:21,-34.928750295804,-56.1628158752814,0,0,6.278456893824,6.278456893824,0.328084,0,0.105727037504,0.38436024852,12,5,8.613,6.278456893824,0,0,0.105727037504,0,0,0,211.7, 0.6, 0.4,0,0,1024,1024,1024,1024,0,0,0,0,222.2,0,0,98,4.307,4.307,0,0,0,0,1.332,70.52,6.278456893824,0,10,Assisted_Takeoff,
2200,2022-08-11 19:33:21,-34.9287503122481,-56.1628158591219,0,0,6.278456893824,6.278456893824,0.328084,0,0.113358599428,0.39206366084,12,5,8.613,6.278456893824,0,0,0.113358599428,0,0,0,211.7, 0.7, 0.5,0,0,1024,1024,1024,1024,0,0,0,0,222.2,0,0,98,4.307,4.307,0,0,0,0,1.332,70.52,6.278456893824,0,10,Assisted_Takeoff,
2300,2022-08-11 19:33:21,-34.9287503245868,-56.1628158444136,0,0,6.278456893824,6.278456893824,0.328084,0,0.119497707236,0.3983595928,12,5,8.613,6.278456893824,0,0,0.119497707236,0,0,0,211.7, 0.7, 0.5,0,0,1024,1024,1024,1024,0,0,0,0,222.2,0,0,98,4.307,4.307,0,0,0,0,1.332,70.52,6.278456893824,0,10,Assisted_Takeoff,
2400,2022-08-11 19:33:21,-34.9287502715915,-56.1628158408528,0,0,6.278456893824,6.278456893824,0.328084,0,0.10424541016,0.41772311048,12,5,8.613,6.278456893824,0,0,0.119497707236,0,0,0,211.7, 0.7, 0.5,0,0,1024,1024,1024,1024,0,0,0,0,222.2,0,0,98,4.307,4.307,0,0,0,0,1.332,70.52,6.278456893824,0,10,Assisted_Takeoff,
2500,2022-08-11 19:33:21,-34.9287502199666,-56.1628158384487,0,0,6.278456893824,6.278456893824,0.328084,0,0.090677168256,0.43657481712,12,5,8.613,6.278456893824,0,0,0.119497707236,0,0,0,211.7, 0.6, 0.5,0,0,1024,1024,1024,1024,0,0,0,0,222.2,0,0,98,4.307,4.307,0,0,0,0,1.332,70.52,6.278456893824,0,10,Assisted_Takeoff,
2600,2022-08-11 19:33:21,-34.928750064657,-56.1628159213018,0,0,6.278456893824,6.278456893824,0.328084,0,0.040722770332,0.49842193196,12,5,8.613,6.278456893824,0,0,0.119497707236,0,0,0,211.7, 0.7, 0.5,0,0,1024,1024,1134,1024,0,0,17,0,222.2,0,0,98,4.307,4.307,0,0,0,0,1.332,70.52,6.278456893824,0,10,Assisted_Takeoff,
2700,2022-08-11 19:33:22,-34.9287500458957,-56.1628159248433,0,0,6.278456893824,6.278456893824,0.328084,0,0.03912729784,0.5053477852,12,5,8.613,6.278456893824,0,0,0.119497707236,0,0,0,211.7, 0.6, 0.5,0,0,1024,1024,1522,1024,0,0,75,0,222.2,0,0,98,4.307,4.307,0,0,0,0,1.332,70.52,6.278456893824,0,10,Assisted_Takeoff,
2800,2022-08-11 19:33:22,-34.928750092816,-56.1628159286532,0,0,6.278456893824,6.278456893824,0.328084,0,0.041562665372,0.52250329756,12,5,8.613,6.278456893824,0,0,0.119497707236,0,0,0,211.8, 0.6, 0.5,0,0,1024,1024,1684,1024,0,0,100,0,222.2,0,0,98,4.307,4.307,0,0,0,0,1.332,70.52,6.278456893824,0,10,Assisted_Takeoff,
2900,2022-08-11 19:33:22,-34.9287501377815,-56.1628159320281,0,0,6.278456893824,6.278456893824,0.328084,0,0.049742127576,0.53894030596,12,5,8.613,6.278456893824,0,0,0.119497707236,0,0,0,211.7, 0.7, 0.5,0,0,1024,1024,1684,1024,0,0,100,0,222.2,0,0,98,4.307,4.307,0,0,0,0,1.332,70.52,6.278456893824,0,10,Assisted_Takeoff,
3000,2022-08-11 19:33:22,-34.9287502703612,-56.1628159374874,0,0,6.278456893824,6.278456893824,0.328084,0,0.088964569776,0.58733925764,12,5,8.613,6.278456893824,0,0,0.119497707236,0,0,0,211.8, 0.6, 0.5,0,0,1024,1024,1684,1024,0,0,100,0,222.2,0,0,98,4.307,4.307,0,0,0,0,1.332,70.52,6.278456893824,0,10,Assisted_Takeoff,
3100,2022-08-11 19:33:22,-34.9287502906248,-56.1628159362668,0,0,6.278456893824,6.278456893824,0.328084,0,0.095929793096,0.59474083268,12,5,8.613,6.278456893824,0,0,0.119497707236,0,0,0,211.9, 0.2, 0.4,0,0,1024,1024,1684,1024,0,0,100,0,222.2,0,0,98,4.307,4.307,0,0,0,0,1.332,70.52,6.278456893824,0,10,Assisted_Takeoff,
3200,2022-08-11 19:33:22,-34.9287503009857,-56.1628159346027,0,0,6.278456893824,6.278456893824,0.328084,0,0.099627955944,0.5985564496,12,5,8.616,6.278456893824,0,0,0.119497707236,0,0,0,212.1, -1.3, 0.4,0,0,1024,1024,1684,1024,0,0,100,0,222.3,0,0,98,4.302,4.297,0,0,0,0,1.078,70.52,6.278456893824,0,10,Assisted_Takeoff,
3300,2022-08-11 19:33:22,-34.9287503205173,-56.162815938946,0,0,6.278456893824,6.278456893824,0.328084,0,0.10586286428,0.60579726348,12,5,8.616,6.278456893824,0,0,0.119497707236,0,0,-0.223694,212.6, -1, 0.6,0,0,1024,1024,1684,1024,0,0,100,0,222.5,0,0,98,4.302,4.297,0,0,0,0,1.078,70.52,6.278456893824,0,10,Assisted_Takeoff,"Baja velocidad de la tarjeta SD. Puede afectar a su uso normal. Sustituye la tarjeta SD (Code: 10028)"
3400,2022-08-11 19:33:22,-34.9287503123661,-56.1628159747209,0.328084,0.328084,6.278456893824,6.606540893824,0.328084,0,0.099943572752,0.61690618772,12,5,8.616,6.606540893824,0.328084,0,0.119497707236,0,0,-0.671082,212.5, -0.1, 0.7,0,0,1024,1024,1684,1024,0,0,100,0,222.5,0,0,98,4.302,4.297,0,0,0,0,1.078,70.52,6.606540893824,0.328084,32,GPSNovice,
3500,2022-08-11 19:33:22,-34.9287503366536,-56.1628160016156,0.328084,0.328084,6.278456893824,6.606540893824,0.656168,0,0.107056105788,0.62887469204,12,5,8.616,6.606540893824,0.328084,0,0.119497707236,0,0,-0.894776,212.1, 0.4, 0.4,0,0,1024,1024,1684,1024,0,0,100,0,222.5,0,0,98,4.302,4.297,0,0,0,0,1.078,70.52,6.606540893824,0.328084,32,GPSNovice,
3600,2022-08-11 19:33:22,-34.9287503501012,-56.162815987409,0.328084,0.328084,6.278456893824,6.606540893824,0.656168,0,0.112601053472,0.63536419356,12,5,8.616,6.606540893824,0.328084,0,0.119497707236,0,0,-1.11847,212.2, 0.1, -1.1,0,0,1024,1024,1024,1024,0,0,0,0,222.5,0,0,98,4.302,4.297,0,0,0,0,1.078,70.52,6.606540893824,0.328084,32,GPSNovice,
3700,2022-08-11 19:33:23,-34.9287503707662,-56.1628159547119,0.656168,0.656168,6.278456893824,6.934624893824,0.656168,0,0.122067917292,0.64771327532,12,5,8.616,6.934624893824,0.656168,0,0.122067917292,0,0,-1.565858,212.2, 0.5, -0.6,0,0,1024,1024,1024,1024,0,0,0,0,222.5,0,0,98,4.302,4.297,0,0,0,0,1.078,70.52,6.934624893824,0.656168,32,GPSNovice,
3800,2022-08-11 19:33:23,-34.9287503677389,-56.1628159759135,0.984252,0.984252,6.278456893824,7.262708893824,0.984252,0,0.119573166556,0.6541502834,12,5,8.616,7.262708893824,0.984252,0,0.122067917292,0,0,-1.565858,212.2, 0.2, -0.1,0,0,1024,1024,1024,1024,0,0,0,0,222.5,0,0,98,4.302,4.297,0,0,0,0,1.078,70.52,7.262708893824,0.984252,32,GPSNovice,"Baja velocidad de la tarjeta SD. Puede afectar a su uso normal. Sustituye la tarjeta SD (Code: 10028)"
3900,2022-08-11 19:33:23,-34.9287504122028,-56.1628159757399,0.984252,0.984252,6.278456893824,7.262708893824,1.312336,0,0.135517720872,0.6703740372,12,5,8.616,7.262708893824,0.984252,0,0.135517720872,0,0,-1.565858,212.1, 0.2, 0.8,0,0,1024,1024,1024,1024,0,0,0,0,222.5,0,0,98,4.302,4.297,0,0,0,0,1.078,70.52,7.262708893824,0.984252,32,GPSNovice,
4000,2022-08-11 19:33:23,-34.9287505492404,-56.1628160307722,1.312336,1.3451444,6.245648493824,7.590792893824,1.312336,0,0.183542328708,0.72301183416,12,5,8.616,7.590792893824,1.312336,0,0.183542328708,0,0,-1.342164,212, 0.5, 1.5,0,0,1024,1024,1024,1024,0,0,0,0,222.5,0,0,98,4.302,4.297,0,0,0,0,1.078,70.52,7.590792893824,1.312336,32,GPSNovice,
4100,2022-08-11 19:33:23,-34.9287506856568,-56.1628160881872,1.312336,1.3451444,6.245648493824,7.590792893824,1.64042,0.223694,0.233365821116,0.77566275448,12,5,8.616,7.590792893824,1.312336,0.223694,0.233365821116,-0.223694,0,-0.894776,212, 0.8, 2,0,0,1024,1024,1024,1024,0,0,0,0,222.5,0,0,98,4.302,4.297,0,0,0,0,1.078,70.52,7.590792893824,1.312336,32,GPSNovice,
4200,2022-08-11 19:33:23,-34.928750810394,-56.1628160640552,1.64042,1.6732284,6.245648493824,7.918876893824,1.64042,0.223694,0.27868439212,0.82174215228,12,5,8.446,7.918876893824,1.64042,0.223694,0.27868439212,-0.223694,0,-0.671082,212, 1.1, 2.6,0,0,1024,1024,1024,1024,0,0,0,0,222.5,0,0,98,4.209,4.208,0,0,0,0,2.72,70.52,7.918876893824,1.64042,32,GPSNovice,
4300,2022-08-11 19:33:23,-34.9287510750479,-56.1628161377476,1.64042,1.6732284,6.245648493824,7.918876893824,1.64042,0,0.3760334766,0.9207841502,12,5,8.446,7.918876893824,1.64042,0.223694,0.3760334766,0,0,-0.447388,212, 1.5, 2.7,0,0,1024,1024,1024,1024,0,0,0,0,222.5,0,0,98,4.209,4.208,0,0,0,0,2.72,70.52,7.918876893824,1.64042,32,GPSNovice,
4400,2022-08-11 19:33:23,-34.9287511482122,-56.1628159931904,1.64042,1.6732284,6.245648493824,7.918876893824,1.64042,0,0.40235893676,0.97160108096,12,5,8.446,7.918876893824,1.64042,0.223694,0.40235893676,0,0,0,212, 2, 2.2,0,0,1024,1024,1024,1024,0,0,0,0,222.5,0,0,98,4.209,4.208,0,0,0,0,2.72,70.52,7.918876893824,1.64042,32,GPSNovice,
4500,2022-08-11 19:33:23,-34.9287512102169,-56.1628158587206,1.64042,1.6732284,6.245648493824,7.918876893824,1.64042,0,0.42861549928,1.01775265724,12,5,8.446,7.918876893824,1.64042,0.223694,0.42861549928,0,0,0,212, 2, 2.1,0,0,1024,1024,1024,1024,0,0,0,0,222.5,0,0,98,4.209,4.208,0,0,0,0,2.72,70.52,7.918876893824,1.64042,32,GPSNovice,
4600,2022-08-11 19:33:23,-34.9287513720394,-56.1628158030614,1.64042,1.6732284,6.245648493824,7.918876893824,1.64042,0,0.48945539624,1.07909452272,12,5,8.446,7.918876893824,1.64042,0.223694,0.48945539624,0,0,0,212, 1.9, 1.9,0,0,1024,1024,1024,1024,0,0,0,0,222.5,0,0,98,4.209,4.208,0,0,0,0,2.72,70.52,7.918876893824,1.64042,32,GPSNovice,
4700,2022-08-11 19:33:24,-34.9287516466651,-56.1628154801878,1.64042,1.7060368,6.212840093824,7.918876893824,1.64042,0,0.60863519008,1.21826119384,12,5,8.446,7.918876893824,1.64042,0.223694,0.60863519008,0,0,0,212.1, 1.8, 1.2,0,0,1024,1024,1308,1024,0,0,43,0,222.5,0,0,98,4.209,4.208,0,0,0,0,2.72,70.52,7.918876893824,1.64042,32,GPSNovice,
4800,2022-08-11 19:33:24,-34.9287517654609,-56.1628157032305,1.64042,1.7060368,6.212840093824,7.918876893824,1.64042,0,0.63592849804,1.29782156384,12,5,8.446,7.918876893824,1.64042,0.223694,0.63592849804,0,0,0,212.1, 1.8, 1.3,0,0,1024,1024,1572,1024,0,0,83,0,222.5,0,0,98,4.209,4.208,0,0,0,0,2.72,70.52,7.918876893824,1.64042,32,GPSNovice,"Punto de origen actualizado. Altitud de RPO establecida en 40m (Code: 3000001)"
4900,2022-08-11 19:33:24,-34.9287518623411,-56.1628159099194,1.64042,1.7060368,6.212840093824,7.918876893824,1.64042,0,0.66390750156,1.36903875772,12,5,8.446,7.918876893824,1.64042,0.223694,0.66390750156,0,0,0,212, 1.6, 1.3,0,0,1024,1024,1684,1024,0,0,100,0,222.5,0,0,98,4.209,4.208,0,0,0,0,2.72,70.52,7.918876893824,1.64042,32,GPSNovice,
5000,2022-08-11 19:33:24,-34.928751801732,-56.162815978066,1.64042,1.7060368,6.212840093824,7.918876893824,1.968504,0,0.64078414124,1.399114218,12,5,8.446,7.918876893824,1.64042,0.223694,0.66390750156,0,0,-0.447388,212, 1.4, 1.1,0,0,1024,1024,1684,1024,0,0,100,0,222.5,0,0,98,4.209,4.208,0,0,0,0,2.72,70.52,7.918876893824,1.64042,32,GPSNovice,
5100,2022-08-11 19:33:24,-34.9287516295249,-56.1628164897121,1.968504,2.0341208,6.212840093824,8.246960893824,1.968504,0,0.59194883784,1.56455713668,12,5,8.446,8.246960893824,1.968504,0.223694,0.66390750156,0,0,-0.894776,212, 1.2, 1.3,0,0,1024,1024,1684,1024,0,0,100,0,222.5,0,0,98,4.209,4.208,0,0,0,0,2.72,70.52,8.246960893824,1.968504,32,GPSNovice,
5200,2022-08-11 19:33:24,-34.9287515836297,-56.1628165187693,1.968504,2.0341208,6.212840093824,8.246960893824,2.296588,0,0.57764437544,1.58342196668,12,5,8.443,8.246960893824,1.968504,0.223694,0.66390750156,0,0,-1.342164,211.9, 1.2, 1.4,0,0,1024,1024,1684,1024,0,0,100,0,222.5,0,0,98,4.211,4.195,0,0,0,0,3.979,70.52,8.246960893824,1.968504,32,GPSNovice,
5300,2022-08-11 19:33:24,-34.9287515389924,-56.1628165515437,2.296588,2.3622048,6.212840093824,8.575044893824,2.296588,0,0.56434713092,1.60243115364,12,5,8.443,8.575044893824,2.296588,0.223694,0.66390750156,0,0,-2.013246,211.9, 1.3, 1,0,0,1024,1024,1684,1024,0,0,100,0,222.5,0,0,98,4.211,4.195,0,0,0,0,3.979,70.52,8.575044893824,2.296588,32,GPSNovice,
5400,2022-08-11 19:33:24,-34.9287514906219,-56.1628165841646,2.624672,2.6574804,6.245648493824,8.903128893824,2.952756,0,0.55006235356,1.62259847712,12,5,8.443,8.903128893824,2.624672,0.223694,0.66390750156,0,0,-2.460634,212.2, 1.5, 1.1,0,0,1024,1024,1625,1024,0,0,91,0,222.5,0,0,98,4.211,4.195,0,0,0,0,3.979,70.52,8.903128893824,2.624672,32,GPSNovice,
5500,2022-08-11 19:33:24,-34.9287513184734,-56.1628165826563,3.28084,3.3136484,6.245648493824,9.559296893824,3.28084,0,0.4900918792,1.68540687808,12,5,8.443,9.559296893824,3.28084,0.223694,0.66390750156,0,0,-2.908022,212.4, 1.8, 1,0,0,1024,1024,1024,1024,0,0,0,0,222.5,0,0,98,4.211,4.195,0,0,0,0,3.979,70.52,9.559296893824,3.28084,32,GPSNovice,
5600,2022-08-11 19:33:24,-34.928751293147,-56.1628165211708,3.608924,3.6417324,6.245648493824,9.887380893824,3.608924,0,0.47564634068,1.70599086824,12,5,8.443,9.887380893824,3.608924,0.223694,0.66390750156,0,0,-2.908022,212.6, 2, 1.2,0,0,1024,1024,1024,1024,0,0,0,0,222.5,0,0,98,4.211,4.195,0,0,0,0,3.979,70.52,9.887380893824,3.608924,32,GPSNovice,
5700,2022-08-11 19:33:25,-34.9287512700386,-56.1628164600984,3.937008,3.9698164,6.245648493824,10.215464893824,3.937008,0,0.46248032976,1.72610897912,12,5,8.443,10.215464893824,3.937008,0.223694,0.66390750156,0,0,-2.460634,212.7, 2.4, 1,0,0,1024,1024,1024,1024,0,0,0,0,222.5,0,0,98,4.211,4.195,0,0,0,0,3.979,70.52,10.215464893824,3.937008,32,GPSNovice,
5800,2022-08-11 19:33:25,-34.9287513173489,-56.1628165103548,4.265092,4.2979004,6.245648493824,10.543548893824,4.265092,0,0.48317586848,1.7489993998,12,5,8.443,10.543548893824,4.265092,0.223694,0.66390750156,0,0,-2.013246,212.9, 2.5, 0.8,0,0,1024,1024,1024,1024,0,0,0,0,222.5,0,0,98,4.211,4.195,0,0,0,0,3.979,70.52,10.543548893824,4.265092,32,GPSNovice,
5900,2022-08-11 19:33:25,-34.9287513679268,-56.1628165361795,4.593176,4.6259844,6.245648493824,10.871632893824,4.593176,0,0.50306103972,1.76900268128,12,5,8.443,10.871632893824,4.593176,0.223694,0.66390750156,0,0,-1.565858,213, 2.1, 0.9,0,0,1024,1024,1024,1024,0,0,0,0,222.5,0,0,98,4.211,4.195,0,0,0,0,3.979,70.52,10.871632893824,4.593176,32,GPSNovice,
6000,2022-08-11 19:33:25,-34.9287517999009,-56.1628161994971,4.92126,4.9868768,6.212840093824,11.199716893824,4.92126,0,0.64113847196,1.95604008884,12,5,8.443,11.199716893824,4.92126,0.223694,0.66390750156,0,0,-0.894776,213.2, 2.3, 1,0,0,1024,1024,1024,1024,0,0,0,0,222.5,0,0,98,4.211,4.195,0,0,0,0,3.979,70.52,11.199716893824,4.92126,32,GPSNovice,
6100,2022-08-11 19:33:25,-34.9287519246869,-56.1628160547398,4.92126,4.9868768,6.212840093824,11.199716893824,4.92126,0,0.68522311904,2.01887145568,12,5,8.443,11.199716893824,4.92126,0.223694,0.68522311904,0,0,-0.447388,213.4, 2.3, 1.5,0,0,1024,1024,1024,1024,0,0,0,0,222.5,0,0,98,4.211,4.195,0,0,0,0,3.979,70.52,11.199716893824,4.92126,32,GPSNovice,
6200,2022-08-11 19:33:25,-34.9287520212805,-56.162816086834,4.92126,4.9868768,6.212840093824,11.199716893824,4.92126,0,0.72052495744,2.0553970474,12,5,8.325,11.199716893824,4.92126,0.223694,0.72052495744,0,0,0,213.5, 2.3, 1.8,0,0,1024,1024,1024,1024,0,0,0,0,222.5,0,0,98,4.228,4.228,0,0,0,0,4.93,70.7,11.199716893824,4.92126,32,GPSNovice,
6300,2022-08-11 19:33:25,-34.9287521078266,-56.1628161042782,4.92126,4.9868768,6.212840093824,11.199716893824,4.92126,0,0.7521817826,2.0874016416,12,5,8.325,11.199716893824,4.92126,0.223694,0.7521817826,0,0,0,213.7, 2, 2.1,0,0,1024,1024,1024,1024,0,0,0,0,222.5,0,0,98,4.228,4.228,0,0,0,0,4.93,70.7,11.199716893824,4.92126,32,GPSNovice,
6400,2022-08-11 19:33:25,-34.9287522553042,-56.1628163064353,5.249344,5.3149608,6.212840093824,11.527800893824,4.92126,0,0.80933073456,2.16834652608,12,5,8.325,11.527800893824,5.249344,0.223694,0.80933073456,0,0,0,213.8, 2.3, 2,0,0,1024,1024,1024,1024,0,0,0,0,222.5,0,0,98,4.228,4.228,0,0,0,0,4.93,70.7,11.527800893824,5.249344,32,GPSNovice,
6500,2022-08-11 19:33:25,-34.9287523057436,-56.1628162509593,5.249344,5.3149608,6.212840093824,11.527800893824,4.92126,0,0.82631892408,2.1931267106,12,5,8.325,11.527800893824,5.249344,0.223694,0.82631892408,0,0,0,213.9, 2, 2,0,0,1024,1024,1024,1024,0,0,0,0,222.5,0,0,98,4.228,4.228,0,0,0,0,4.93,70.7,11.527800893824,5.249344,32,GPSNovice,
6600,2022-08-11 19:33:25,-34.9287523338245,-56.1628161816913,5.249344,5.3149608,6.212840093824,11.527800893824,4.92126,0,0.83534779576,2.2162402284,12,5,8.325,11.527800893824,5.249344,0.223694,0.83534779576,0,0,0,214, 1.9, 2.6,0,0,1024,1024,1024,1024,0,0,0,0,222.5,0,0,98,4.228,4.228,0,0,0,0,4.93,70.7,11.527800893824,5.249344,32,GPSNovice,
6700,2022-08-11 19:33:25,-34.9287523456226,-56.1628161170223,5.249344,5.3149608,6.212840093824,11.527800893824,4.92126,0,0.83900265152,2.236056502,12,5,8.325,11.527800893824,5.249344,0.223694,0.83900265152,0,0,0,214.1, 1.6, 2.7,0,0,1024,1024,1024,1024,0,0,0,0,222.5,0,0,98,4.228,4.228,0,0,0,0,4.93,70.7,11.527800893824,5.249344,32,GPSNovice,
6800,2022-08-11 19:33:26,-34.9287520461175,-56.1628161846821,5.249344,5.3149608,6.212840093824,11.527800893824,4.92126,0,0.73054792364,2.34718839532,12,5,8.325,11.527800893824,5.249344,0.223694,0.83900265152,0,0,0,214.2, 1.2, 2.9,0,0,1024,1024,1024,1024,0,0,0,0,222.5,0,0,98,4.228,4.228,0,0,0,0,4.93,70.7,11.527800893824,5.249344,32,GPSNovice,
6900,2022-08-11 19:33:26,-34.9287519414118,-56.1628161672981,5.249344,5.3149608,6.212840093824,11.527800893824,4.92126,0,0.69212928724,2.385744827,12,5,8.325,11.527800893824,5.249344,0.223694,0.83900265152,0,0,0,214.3, 1.3, 2.8,0,0,1024,1024,1024,1024,0,0,0,0,222.5,0,0,98,4.228,4.228,0,0,0,0,4.93,70.7,11.527800893824,5.249344,32,GPSNovice,
7000,2022-08-11 19:33:26,-34.9287519083536,-56.1628162032049,5.249344,5.3149608,6.212840093824,11.527800893824,4.92126,0,0.68069555984,2.40189312148,12,5,8.325,11.527800893824,5.249344,0.223694,0.83900265152,0,0,0,214.4, 1.2, 2.8,0,0,1024,1024,1024,1024,0,0,0,0,222.5,0,0,98,4.228,4.228,0,0,0,0,4.93,70.7,11.527800893824,5.249344,32,GPSNovice,
7100,2022-08-11 19:33:26,-34.9287518730408,-56.1628162509274,5.249344,5.3149608,6.212840093824,11.527800893824,4.92126,0,0.66893374844,2.42112540556,12,5,8.325,11.527800893824,5.249344,0.223694,0.83900265152,0,0,0,214.5, 1.3, 2.4,0,0,1024,1024,1024,1024,0,0,0,0,222.5,0,0,98,4.228,4.228,0,0,0,0,4.93,70.7,11.527800893824,5.249344,32,GPSNovice,
7200,2022-08-11 19:33:26,-34.9287518633296,-56.1628162792391,5.577428,5.6430448,6.212840093824,11.855884893824,4.92126,0,0.66620080872,2.43030519588,12,5,8.416,11.855884893824,5.577428,0.223694,0.83900265152,0,0,0,214.6, 1.3, 2.3,0,0,1024,1024,1024,1024,0,0,0,0,222.5,0,0,98,4.2,4.198,0,0,0,0,3.498,70.7,11.855884893824,5.577428,32,GPSNovice,
7300,2022-08-11 19:33:26,-34.9287518252916,-56.1628162668585,5.577428,5.6430448,6.212840093824,11.855884893824,5.249344,0,0.65202757992,2.4446687134,12,5,8.416,11.855884893824,5.577428,0.223694,0.83900265152,0,0,0,214.7, 1.4, 2.3,0,0,1024,1024,1024,1024,0,0,0,0,222.5,0,0,98,4.2,4.198,0,0,0,0,3.498,70.7,11.855884893824,5.577428,32,GPSNovice,
7400,2022-08-11 19:33:26,-34.9287517495616,-56.1628162666059,5.577428,5.6430448,6.212840093824,11.855884893824,5.249344,0,0.6245242982,2.47229666704,12,5,8.416,11.855884893824,5.577428,0.223694,0.83900265152,0,0,0,214.8, 1.5, 2,0,0,1026,1024,1024,1024,0,0,0,0,222.5,0,0,98,4.2,4.198,0,0,0,0,3.498,70.7,11.855884893824,5.577428,32,GPSNovice,
7500,2022-08-11 19:33:26,-34.9287516748103,-56.1628162623436,5.577428,5.6430448,6.212840093824,11.855884893824,5.249344,0,0.59726379864,2.49959981752,12,5,8.416,11.855884893824,5.577428,0.223694,0.83900265152,0,0,0,214.7, 1.3, 1.9,0,0,1026,1024,1024,1024,0,0,0,0,222.5,0,0,98,4.2,4.198,0,0,0,0,3.498,70.7,11.855884893824,5.577428,32,GPSNovice,
7600,2022-08-11 19:33:26,-34.9287516410836,-56.1628162345413,5.577428,5.6430448,6.212840093824,11.855884893824,5.249344,0,0.58420605544,2.5144521802,12,5,8.416,11.855884893824,5.577428,0.223694,0.83900265152,0,0,0,214.8, 1.2, 2.2,0,0,1035,1024,1024,1024,2,0,0,0,222.5,0,0,98,4.2,4.198,0,0,0,0,3.498,70.7,11.855884893824,5.577428,32,GPSNovice,
7700,2022-08-11 19:33:26,-34.9287516236706,-56.1628161268251,5.577428,5.6430448,6.212840093824,11.855884893824,5.249344,0,0.57579070084,2.5472933886,12,5,8.416,11.855884893824,5.577428,0.223694,0.83900265152,0,0,0,214.8, 1.3, 2,0,0,1277,1024,1024,1024,38,0,0,0,222.5,0,0,98,4.2,4.198,0,0,0,0,3.498,70.7,11.855884893824,5.577428,32,GPSNovice,
7800,2022-08-11 19:33:27,-34.9287515624656,-56.1628160746707,5.577428,5.6430448,6.212840093824,11.855884893824,5.249344,0,0.55309384972,2.57453420312,12,5,8.416,11.855884893824,5.577428,0.223694,0.83900265152,0,0,0,214.8, 1.1, 1.9,0,0,1507,1024,1024,1024,73,0,0,0,222.5,0,0,98,4.2,4.198,0,0,0,0,3.498,70.7,11.855884893824,5.577428,32,GPSNovice,
7900,2022-08-11 19:33:27,-34.9287515080511,-56.1628160302071,5.577428,5.6430448,6.212840093824,11.855884893824,5.249344,0,0.5332677336,2.59843184168,12,5,8.416,11.855884893824,5.577428,0.223694,0.83900265152,0,0,0,214.9, 0, 1.9,0,0,1684,1024,1024,1024,100,0,0,0,222.5,0,0,98,4.2,4.198,0,0,0,0,3.498,70.7,11.855884893824,5.577428,32,GPSNovice,
8000,2022-08-11 19:33:27,-34.928751466446,-56.1628160365756,5.577428,5.6102364,6.245648493824,11.855884893824,5.249344,0,0.51806432104,2.6137303986,12,5,8.416,11.855884893824,5.577428,0.223694,0.83900265152,0,0,0,214.9, -1.7, 1.7,0,0,1684,1024,1024,1024,100,0,0,0,222.5,0,0,98,4.2,4.198,0,0,0,0,3.498,70.7,11.855884893824,5.577428,32,GPSNovice,
8100,2022-08-11 19:33:27,-34.928751460709,-56.162815999979,5.577428,5.6102364,6.245648493824,11.855884893824,5.249344,0,0.5162073656,2.62487541208,12,5,8.416,11.855884893824,5.577428,0.223694,0.83900265152,0,0,0,215, -2.9, 1.7,0,0,1684,1024,1024,1024,100,0,0,0,222.5,0,0,98,4.2,4.198,0,0,0,0,3.498,70.7,11.855884893824,5.577428,32,GPSNovice,
8200,2022-08-11 19:33:27,-34.928751525013,-56.1628160899288,5.577428,5.6430448,6.212840093824,11.855884893824,5.249344,0.223694,0.53949804876,2.66057423212,12,5,8.416,11.855884893824,5.577428,0.223694,0.83900265152,-0.223694,0,0,215.1, -3.4, 1.8,0,0,1684,1024,1024,1024,100,0,0,0,222.5,0,0,98,4.2,4.198,0,0,0,0,3.498,70.7,11.855884893824,5.577428,32,GPSNovice,
8300,2022-08-11 19:33:27,-34.9287516436997,-56.1628162154608,5.905512,5.9711288,6.212840093824,12.183968893824,5.249344,0.4921268,0.5846620922,2.71789050692,12,5,8.401,12.183968893824,5.905512,0.4921268,0.83900265152,-0.447388,-0.223694,0,215.1, -3.3, 2,0,0,1684,1024,1024,1024,100,0,0,0,222.5,0,0,98,4.202,4.199,0,0,0,0,4.041,70.7,12.183968893824,5.905512,32,GPSNovice,
8400,2022-08-11 19:33:27,-34.9287518827504,-56.1628163934114,5.905512,5.9711288,6.212840093824,12.183968893824,5.249344,0.4921268,0.67749674084,2.82006570704,12,5,8.401,12.183968893824,5.905512,0.4921268,0.83900265152,-0.447388,-0.223694,0,215.1, -2.8, 2,0,0,1684,1024,1024,1024,100,0,0,0,222.5,0,0,98,4.202,4.199,0,0,0,0,4.041,70.7,12.183968893824,5.905512,32,GPSNovice,
8500,2022-08-11 19:33:27,-34.9287522560679,-56.1628166567709,5.905512,5.9711288,6.212840093824,12.183968893824,5.249344,0.8052984,0.82593834664,2.9774115126,12,5,8.401,12.183968893824,5.905512,0.8052984,0.83900265152,-0.671082,-0.447388,0,215.2, -2.8, 1.9,0,0,1684,1024,1106,1024,100,0,12,0,222.5,0,0,98,4.202,4.199,0,0,0,0,4.041,70.7,12.183968893824,5.905512,32,GPSNovice,
8600,2022-08-11 19:33:27,-34.9287526368551,-56.1628168916817,5.905512,6.0039372,6.180031693824,12.183968893824,5.249344,1.006623,0.97758533312,3.1331037748,12,5,8.401,12.183968893824,5.905512,1.006623,0.97758533312,-0.894776,-0.447388,0,215.2, -3, 2.2,0,0,1684,1024,1196,1024,100,0,26,0,222.5,0,0,98,4.202,4.199,0,0,0,0,4.041,70.7,12.183968893824,5.905512,32,GPSNovice,
8700,2022-08-11 19:33:28,-34.9287530475316,-56.1628171566142,5.905512,6.0039372,6.180031693824,12.183968893824,5.249344,1.11847,1.14334977412,3.3025919692,12,5,8.401,12.183968893824,5.905512,1.11847,1.14334977412,-0.894776,-0.671082,0,215.3, -2.8, 2.4,0,0,1684,1024,1159,1024,100,0,20,0,222.5,0,0,98,4.202,4.199,0,0,0,0,4.041,70.7,12.183968893824,5.905512,32,GPSNovice,
8800,2022-08-11 19:33:28,-34.9287535785053,-56.1628175187821,5.905512,6.0367456,6.147223293824,12.183968893824,5.249344,1.2974252,1.36091211704,3.5245736036,12,5,8.401,12.183968893824,5.905512,1.2974252,1.36091211704,-1.11847,-0.671082,0,215.5, -2.7, 1.6,0,0,1684,1024,1157,1024,100,0,20,0,222.5,0,0,98,4.202,4.199,0,0,0,0,4.041,70.7,12.183968893824,5.905512,32,GPSNovice,
8900,2022-08-11 19:33:28,-34.928754399842,-56.1628179028642,5.905512,6.0367456,6.147223293824,12.183968893824,5.249344,1.2974252,1.68165031628,3.8455053724,12,5,8.401,12.183968893824,5.905512,1.2974252,1.68165031628,-1.11847,-0.671082,-0.223694,215.5, -2.8, 1.7,0,0,1684,1024,1159,1024,100,0,20,0,222.5,0,0,98,4.202,4.199,0,0,0,0,4.041,70.7,12.183968893824,5.905512,32,GPSNovice,
9000,2022-08-11 19:33:28,-34.9287550105606,-56.1628183602516,5.905512,6.069554,6.114414893824,12.183968893824,5.249344,1.6105968,1.93786423524,4.106955512,12,5,8.401,12.183968893824,5.905512,1.6105968,1.93786423524,-1.342164,-0.894776,-0.223694,215.4, -2.5, 2,0,0,1684,1024,1158,1024,100,0,20,0,222.5,0,0,98,4.202,4.199,0,0,0,0,4.041,70.7,12.183968893824,5.905512,32,GPSNovice,
9100,2022-08-11 19:33:28,-34.9287556306265,-56.1628188168733,6.233596,6.4304464,6.081606493824,12.512052893824,5.249344,1.6105968,2.1983924588,4.371227174,12,5,8.401,12.512052893824,6.233596,1.6105968,2.1983924588,-1.342164,-0.894776,-0.223694,215.4, -2.5, 2.4,0,0,1684,1024,1175,1024,100,0,23,0,222.5,0,0,98,4.202,4.199,0,0,0,0,4.041,70.7,12.512052893824,6.233596,32,GPSNovice,
9200,2022-08-11 19:33:28,-34.9287563444533,-56.1628192967947,6.233596,6.4304464,6.081606493824,12.512052893824,5.249344,1.6105968,2.49393380684,4.66863532,12,5,8.401,12.512052893824,6.233596,1.6105968,2.49393380684,-1.342164,-0.894776,-0.223694,215.4, -2.6, 2.3,0,0,1684,1024,1175,1024,100,0,23,0,222.5,0,0,98,4.202,4.199,0,0,0,0,4.041,70.7,12.512052893824,6.233596,32,GPSNovice,
9300,2022-08-11 19:33:28,-34.9287570466399,-56.1628197857945,6.233596,6.4960632,6.015989693824,12.512052893824,5.577428,1.9237684,2.78706045664,4.9636156444,12,5,8.384,12.512052893824,6.233596,1.9237684,2.78706045664,-1.565858,-1.11847,-0.223694,215.4, -2.9, 2.3,0,0,1684,1024,1238,1024,100,0,32,0,222.5,0,0,97,4.193,4.188,0,0,0,0,4.173,70.7,12.512052893824,6.233596,32,GPSNovice,
9400,2022-08-11 19:33:28,-34.9287578973358,-56.1628204826082,6.233596,6.5288716,5.983181293824,12.512052893824,5.577428,1.9237684,3.15563330308,5.3375001708,12,5,8.384,12.512052893824,6.233596,1.9237684,3.15563330308,-1.565858,-1.11847,-0.223694,215.5, -3.1, 2.1,0,0,1684,1024,1232,1024,100,0,32,0,222.5,0,0,97,4.193,4.188,0,0,0,0,4.173,70.7,12.512052893824,6.233596,32,GPSNovice,
9500,2022-08-11 19:33:28,-34.9287585767064,-56.1628210788962,6.233596,6.56168,5.950372893824,12.512052893824,5.577428,1.9237684,3.4559384308,5.642880758,12,5,8.384,12.512052893824,6.233596,1.9237684,3.4559384308,-1.565858,-1.11847,-0.447388,215.5, -3, 1.5,0,0,1684,1024,1227,1024,100,0,31,0,222.5,0,0,97,4.193,4.188,0,0,0,0,4.173,70.7,12.512052893824,6.233596,32,GPSNovice,
9600,2022-08-11 19:33:28,-34.9287593596916,-56.1628216357933,6.233596,6.56168,5.950372893824,12.512052893824,5.577428,2.23694,3.7857284676,5.9735566216,12,5,8.384,12.512052893824,6.233596,2.23694,3.7857284676,-1.789552,-1.342164,-0.447388,215.4, -3.5, 1.3,0,0,1684,1024,1224,1024,100,0,30,0,222.5,0,0,97,4.193,4.188,0,0,0,0,4.173,70.7,12.512052893824,6.233596,32,GPSNovice,
9700,2022-08-11 19:33:29,-34.9287601428347,-56.1628221851717,6.56168,6.9225724,5.917564493824,12.840136893824,5.577428,2.23694,4.1146982944,6.3031826164,12,5,8.384,12.840136893824,6.56168,2.23694,4.1146982944,-1.789552,-1.342164,-0.447388,215.5, -3.3, 1.7,0,0,1684,1024,1222,1024,100,0,30,0,222.5,0,0,97,4.193,4.188,0,0,0,0,4.173,70.7,12.840136893824,6.56168,32,GPSNovice,
9800,2022-08-11 19:33:29,-34.9287610355852,-56.1628226222479,6.56168,6.9553808,5.884756093824,12.840136893824,5.905512,2.4158952,4.4646326888,6.6541668796,12,5,8.384,12.840136893824,6.56168,2.4158952,4.4646326888,-2.013246,-1.342164,-0.447388,215.6, -2.9, 1.9,0,0,1684,1024,1222,1024,100,0,30,0,222.5,0,0,97,4.193,4.188,0,0,0,0,4.173,70.7,12.840136893824,6.56168,32,GPSNovice,
9900,2022-08-11 19:33:29,-34.9287618862924,-56.1628232425112,6.56168,6.9881892,5.851947693824,12.840136893824,5.905512,2.4158952,4.8250985796,7.0157810644,12,5,8.384,12.840136893824,6.56168,2.4158952,4.8250985796,-2.013246,-1.342164,-0.447388,215.5, -2.7, 1.9,0,0,1684,1024,1222,1024,100,0,30,0,222.5,0,0,97,4.193,4.188,0,0,0,0,4.173,70.7,12.840136893824,6.56168,32,GPSNovice,
10000,2022-08-11 19:33:29,-34.9287628968836,-56.1628240158552,6.56168,7.0209976,5.819139293824,12.840136893824,5.905512,2.5501116,5.2584319268,7.4510501072,12,5,8.384,12.840136893824,6.56168,2.5501116,5.2584319268,-2.013246,-1.565858,-0.447388,215.5, -2.9, 1.7,0,0,1684,1024,1222,1024,100,0,30,0,222.5,0,0,97,4.193,4.188,0,0,0,0,4.173,70.7,12.840136893824,6.56168,32,GPSNovice,
10100,2022-08-11 19:33:29,-34.9287638845903,-56.1628247758544,6.56168,7.053806,5.786330893824,12.840136893824,5.905512,2.7290668,5.6828085808,7.877132798,12,5,8.384,12.840136893824,6.56168,2.7290668,5.6828085808,-2.23694,-1.565858,-0.447388,215.5, -2.9, 1.4,0,0,1684,1024,1218,1024,100,0,29,0,222.5,0,0,97,4.193,4.188,0,0,0,0,4.173,70.7,12.840136893824,6.56168,32,GPSNovice,
10200,2022-08-11 19:33:29,-34.9287652353781,-56.1628256870853,6.889764,7.4146984,5.753522493824,13.168220893824,5.905512,2.7290668,6.2458007248,8.4403217924,12,5,8.384,13.168220893824,6.889764,2.7290668,6.2458007248,-2.23694,-1.565858,-0.447388,215.4, -2.8, 1.1,0,0,1684,1024,1216,1024,100,0,29,0,222.5,0,0,97,4.193,4.188,0,0,0,0,4.173,70.7,13.168220893824,6.889764,32,GPSNovice,
10300,2022-08-11 19:33:29,-34.9287662976902,-56.1628264552448,6.889764,7.4475068,5.720714093824,13.168220893824,6.233596,2.7290668,6.695702314,8.8908795496,12,5,8.365,13.168220893824,6.889764,2.7290668,6.695702314,-2.23694,-1.565858,-0.447388,215.5, -2.6, 1.2,0,0,1684,1024,1204,1024,100,0,27,0,222.5,0,0,97,4.186,4.183,0,0,0,0,4.323,70.7,13.168220893824,6.889764,32,GPSNovice,
10400,2022-08-11 19:33:29,-34.9287673917929,-56.1628272737312,6.889764,7.4803152,5.687905693824,13.168220893824,6.233596,2.908022,7.1630251636,9.3591538428,12,5,8.365,13.168220893824,6.889764,2.908022,7.1630251636,-2.460634,-1.565858,-0.447388,215.7, -2.7, 1.9,0,0,1684,1024,1204,1024,100,0,27,0,222.5,0,0,97,4.186,4.183,0,0,0,0,4.323,70.7,13.168220893824,6.889764,32,GPSNovice,
10500,2022-08-11 19:33:29,-34.9287684605016,-56.1628280689321,6.889764,7.5131236,5.655097293824,13.168220893824,6.233596,3.0422384,7.6189634984,9.8159123876,12,5,8.365,13.168220893824,6.889764,3.0422384,7.6189634984,-2.460634,-1.789552,-0.447388,215.7, -2.5, 2.1,0,0,1684,1024,1197,1024,100,0,26,0,222.5,0,0,97,4.186,4.183,0,0,0,0,4.323,70.7,13.168220893824,6.889764,32,GPSNovice,
10600,2022-08-11 19:33:29,-34.9287698891746,-56.1628288204158,6.889764,7.6115488,5.556672093824,13.168220893824,6.233596,3.0422384,8.1847771648,10.3835633244,12,5,8.365,13.168220893824,6.889764,3.0422384,8.1847771648,-2.460634,-1.789552,-0.447388,215.7, -2.6, 1.9,0,0,1684,1024,1200,1024,100,0,27,0,222.5,0,0,97,4.186,4.183,0,0,0,0,4.323,70.7,13.168220893824,6.889764,32,GPSNovice,
10700,2022-08-11 19:33:30,-34.9287710990303,-56.1628296118562,7.217848,7.9724412,5.523863693824,13.496304893824,6.56168,3.0422384,8.6856630076,10.8844491672,12,5,8.365,13.496304893824,7.217848,3.0422384,8.6856630076,-2.460634,-1.789552,-0.447388,215.7, -2.3, 1.7,0,0,1684,1024,1204,1024,100,0,27,0,222.5,0,0,97,4.186,4.183,0,0,0,0,4.323,70.7,13.496304893824,7.217848,32,GPSNovice,
10800,2022-08-11 19:33:30,-34.9287721929115,-56.1628304235284,7.217848,8.0052496,5.491055293824,13.496304893824,6.56168,3.0422384,9.1520016052,11.3516079748,12,5,8.365,13.496304893824,7.217848,3.0422384,9.1520016052,-2.684328,-1.789552,-0.447388,215.8, -2.6, 1.6,0,0,1684,1024,1208,1024,100,0,28,0,222.5,0,0,97,4.186,4.183,0,0,0,0,4.323,70.7,13.496304893824,7.217848,32,GPSNovice,
10900,2022-08-11 19:33:30,-34.9287732547026,-56.1628312120751,7.217848,8.038058,5.458246893824,13.496304893824,6.56168,3.3106712,9.604823142,11.8051841048,12,5,8.365,13.496304893824,7.217848,3.3106712,9.604823142,-2.908022,-1.565858,-0.447388,210.2, -2.6, 1.6,0,0,1684,1024,1208,1024,100,0,28,0,222.5,0,0,97,4.186,4.183,0,0,0,0,4.323,70.7,13.496304893824,7.217848,32,GPSNovice,
11000,2022-08-11 19:33:30,-34.9287745509538,-56.1628321192053,7.217848,8.1036748,5.392630093824,13.496304893824,6.56168,3.3106712,10.1498362828,12.3504269044,12,5,8.365,13.496304893824,7.217848,3.3106712,10.1498362828,-2.908022,-1.565858,-0.447388,210, -2.5, 1.5,0,0,1684,1024,1229,1024,100,0,31,0,222.5,0,0,97,4.186,4.183,0,0,0,0,4.323,70.7,13.496304893824,7.217848,32,GPSNovice,
11100,2022-08-11 19:33:30,-34.9287757589043,-56.1628328864668,7.545932,8.4645672,5.359821693824,13.824388893824,6.56168,3.4225182,10.6466866924,12.8473101224,12,5,8.365,13.824388893824,7.545932,3.4225182,10.6466866924,-2.908022,-1.789552,-0.447388,210.1, -2.5, 1.4,0,0,1684,1024,1231,1024,100,0,31,0,222.5,0,0,97,4.186,4.183,0,0,0,0,4.323,70.7,13.824388893824,7.545932,32,GPSNovice,
11200,2022-08-11 19:33:30,-34.9287771147142,-56.1628338974511,7.545932,8.4973756,5.327013293824,13.824388893824,6.889764,3.4225182,11.2256237188,13.4271001672,12,5,8.365,13.824388893824,7.545932,3.4225182,11.2256237188,-2.908022,-1.789552,-0.447388,210.2, -2.5, 1.4,0,0,1684,1024,1235,1024,100,0,32,0,222.5,0,0,97,4.186,4.183,0,0,0,0,4.323,70.7,13.824388893824,7.545932,32,GPSNovice,
11300,2022-08-11 19:33:30,-34.9287784255986,-56.1628348673514,7.545932,8.530184,5.294204893824,13.824388893824,6.889764,3.4225182,11.7843507708,13.9864833872,12,5,8.372,13.824388893824,7.545932,3.4225182,11.7843507708,-2.908022,-1.789552,-0.447388,210.1, -2.5, 1.3,0,0,1684,1024,1288,1024,100,0,40,0,222.5,0,0,97,4.185,4.183,0,0,0,0,4.221,70.88,13.824388893824,7.545932,32,GPSNovice,
11400,2022-08-11 19:33:30,-34.9287797877301,-56.1628358474959,7.545932,8.5958008,5.228588093824,13.824388893824,6.889764,3.6014734,12.3610240176,14.5635175264,12,5,8.372,13.824388893824,7.545932,3.6014734,12.3610240176,-3.131716,-1.789552,-0.447388,210.1, -2.4, 1.3,0,0,1684,1024,1385,1024,100,0,55,0,222.5,0,0,97,4.185,4.183,0,0,0,0,4.221,70.88,13.824388893824,7.545932,32,GPSNovice,
11500,2022-08-11 19:33:30,-34.92878128527,-56.1628369997204,7.874016,8.9566932,5.195779693824,14.152472893824,6.889764,3.6014734,13.0057746944,15.2095149224,12,5,8.372,14.152472893824,7.874016,3.6014734,13.0057746944,-3.131716,-1.789552,-0.671082,210.2, -2.1, 1.6,0,0,1684,1024,1467,1024,100,0,67,0,222.5,0,0,97,4.185,4.183,0,0,0,0,4.221,70.88,14.152472893824,7.874016,32,GPSNovice,
11600,2022-08-11 19:33:30,-34.9287827523352,-56.1628380423595,7.874016,9.0551184,5.097354493824,14.152472893824,7.217848,3.802798,13.6250988612,15.8290031312,12,5,8.372,14.152472893824,7.874016,3.802798,13.6250988612,-3.35541,-1.789552,-0.894776,210.2, -2, 1.7,0,0,1684,1024,1520,1024,100,0,75,0,222.5,0,0,97,4.185,4.183,0,0,0,0,4.221,70.88,14.152472893824,7.874016,32,GPSNovice,
11700,2022-08-11 19:33:30,-34.9287841566923,-56.1628390466092,8.2021,9.4160108,5.064546093824,14.480556893824,7.217848,3.802798,14.218832476,16.4229335964,12,5,8.372,14.480556893824,8.2021,3.802798,14.218832476,-3.35541,-1.789552,-1.11847,210, -2.2, 1.6,0,0,1684,1024,1581,1024,100,0,84,0,222.5,0,0,97,4.185,4.183,0,0,0,0,4.221,70.88,14.480556893824,8.2021,32,GPSNovice,
11800,2022-08-11 19:33:31,-34.9287855684131,-56.1628400998503,8.2021,9.4816276,4.998929293824,14.480556893824,7.545932,3.914645,14.8220477184,17.02673939,12,5,8.372,14.480556893824,8.2021,3.914645,14.8220477184,-3.35541,-2.013246,-1.565858,210, -2, 1.5,0,0,1684,1024,1581,1024,100,0,84,0,222.5,0,0,97,4.185,4.183,0,0,0,0,4.221,70.88,14.480556893824,8.2021,32,GPSNovice,
11900,2022-08-11 19:33:31,-34.9287868838018,-56.1628411313726,8.530184,9.84252,4.966120893824,14.808640893824,7.545932,3.914645,15.3914703088,17.597277466,12,5,8.372,14.808640893824,8.530184,3.914645,15.3914703088,-3.35541,-2.013246,-2.013246,210.2, -1.8, 1.4,0,0,1684,1024,1616,1024,100,0,90,0,222.5,0,0,97,4.185,4.183,0,0,0,0,4.221,70.88,14.808640893824,8.530184,32,GPSNovice,
12000,2022-08-11 19:33:31,-34.928788394695,-56.1628420914572,8.858268,10.2034124,4.933312493824,15.136724893824,7.874016,3.914645,16.012795788,18.218832604,12,5,8.372,15.136724893824,8.858268,3.914645,16.012795788,-3.35541,-2.013246,-2.23694,210.1, -2, 1.5,0,0,1684,1024,1668,1024,100,0,98,0,222.5,0,0,97,4.185,4.183,0,0,0,0,4.221,70.88,15.136724893824,8.858268,32,GPSNovice,
12100,2022-08-11 19:33:31,-34.9287898389424,-56.1628430125111,9.186352,10.5971132,4.867695693824,15.464808893824,8.2021,3.914645,16.6071855708,18.8134520456,12,5,8.372,15.464808893824,9.186352,3.914645,16.6071855708,-3.35541,-2.013246,-2.460634,210.1, -2.1, 1.3,0,0,1684,1024,1684,1024,100,0,100,0,222.5,0,0,97,4.185,4.183,0,0,0,0,4.221,70.88,15.464808893824,9.186352,32,GPSNovice,
12200,2022-08-11 19:33:31,-34.9287914025515,-56.1628441284544,9.514436,10.9580056,4.834887293824,15.792892893824,8.858268,3.914645,17.2680123636,19.4744428804,12,5,8.372,15.792892893824,9.514436,3.914645,17.2680123636,-3.35541,-2.013246,-2.908022,210.1, -2, 1.1,0,0,1684,1024,1684,1024,100,0,100,0,222.5,0,0,97,4.185,4.183,0,0,0,0,4.221,70.88,15.792892893824,9.514436,32,GPSNovice,
12300,2022-08-11 19:33:31,-34.92879314342,-56.1628451662554,10.170604,11.6797904,4.769270493824,16.449060893824,9.186352,4.1159696,17.9740163232,20.1813982836,12,5,8.319,16.449060893824,10.170604,4.1159696,17.9740163232,-3.579104,-2.013246,-3.131716,210.1, -2.1, 1.1,0,0,1684,1024,1684,1024,100,0,100,0,222.5,0,0,97,4.155,4.153,0,0,0,0,4.521,70.88,16.449060893824,10.170604,32,GPSNovice,
12400,2022-08-11 19:33:31,-34.9287948566701,-56.1628462572041,10.498688,12.1062996,4.670845293824,16.777144893824,9.514436,4.1159696,18.6789376056,20.8865164164,12,5,8.319,16.777144893824,10.498688,4.1159696,18.6789376056,-3.579104,-2.013246,-3.131716,210, -2.3, 1.3,0,0,1684,1024,1684,1024,100,0,100,0,222.5,0,0,97,4.155,4.153,0,0,0,0,4.521,70.88,16.777144893824,10.498688,32,GPSNovice,
12500,2022-08-11 19:33:31,-34.9287965001544,-56.1628472963217,11.154856,12.8280844,4.605228493824,17.433312893824,10.170604,4.1159696,19.3541016692,21.5619101388,12,5,8.319,17.433312893824,11.154856,4.1159696,19.3541016692,-3.579104,-2.013246,-3.131716,210, -2.2, 1.3,0,0,1684,1024,1684,1024,100,0,100,0,222.5,0,0,97,4.155,4.153,0,0,0,0,4.521,70.88,17.433312893824,11.154856,32,GPSNovice,
12600,2022-08-11 19:33:31,-34.9287982429217,-56.1628484008649,11.48294,13.1889768,4.572420093824,17.761396893824,10.498688,4.1159696,20.0704730832,22.2784784032,12,5,8.319,17.761396893824,11.48294,4.1159696,20.0704730832,-3.579104,-2.013246,-3.35541,210.1, -1.9, 1.4,0,0,1684,1024,1684,1024,100,0,100,0,222.5,0,0,97,4.155,4.153,0,0,0,0,4.521,70.88,17.761396893824,11.48294,32,GPSNovice,
12700,2022-08-11 19:33:31,-34.9287999120833,-56.1628494516778,12.139108,13.9107616,4.506803293824,18.417564893824,10.826772,4.1159696,20.7555452836,22.9638130708,12,5,8.319,18.417564893824,12.139108,4.1159696,20.7555452836,-3.579104,-2.013246,-3.35541,210.2, -1.9, 1.8,0,0,1684,1024,1684,1024,100,0,100,0,222.5,0,0,97,4.155,4.153,0,0,0,0,4.521,70.88,18.417564893824,12.139108,32,GPSNovice,
12800,2022-08-11 19:33:32,-34.9288017847548,-56.1628506032558,12.467192,14.3044624,4.441186493824,18.745648893824,11.48294,4.1159696,21.5202762792,23.7289705756,12,5,8.319,18.745648893824,12.467192,4.1159696,21.5202762792,-3.579104,-2.013246,-3.35541,210.1, -2.1, 1.8,0,0,1684,1024,1684,1024,100,0,100,0,222.5,0,0,97,4.155,4.153,0,0,0,0,4.521,70.88,18.745648893824,12.467192,32,GPSNovice,
12900,2022-08-11 19:33:32,-34.9288032731852,-56.1628516463154,12.795276,14.6653548,4.408378093824,19.073732893824,11.811024,4.1159696,22.1464245932,24.3552829316,12,5,8.319,19.073732893824,12.795276,4.1159696,22.1464245932,-3.579104,-2.013246,-3.35541,210.1, -1.9, 1.8,0,0,1684,1024,1684,1024,100,0,100,0,222.5,0,0,97,4.155,4.153,0,0,0,0,4.521,70.88,19.073732893824,12.795276,32,GPSNovice,
13000,2022-08-11 19:33:32,-34.9288049011407,-56.1628527208535,13.451444,15.3871396,4.342761293824,19.729900893824,12.467192,4.2949248,22.8217855072,25.0306438456,12,5,8.319,19.729900893824,13.451444,4.2949248,22.8217855072,-3.802798,-2.013246,-3.35541,210.1, -2, 2,0,0,1684,1024,1684,1024,100,0,100,0,222.5,0,0,97,4.155,4.153,0,0,0,0,4.521,70.88,19.729900893824,13.451444,32,GPSNovice,
13100,2022-08-11 19:33:32,-34.9288064512435,-56.1628537548692,13.779528,15.748032,4.309952893824,20.057984893824,12.795276,4.2949248,23.466372142,25.6752304804,12,5,8.319,20.057984893824,13.779528,4.2949248,23.466372142,-3.802798,-2.013246,-3.131716,210.1, -1.8, 1.8,0,0,1684,1024,1684,1024,100,0,100,0,222.5,0,0,97,4.155,4.153,0,0,0,0,4.521,70.88,20.057984893824,13.779528,32,GPSNovice,
13200,2022-08-11 19:33:32,-34.9288079193379,-56.1628547485769,14.435696,16.5026252,4.211527693824,20.714152893824,13.451444,4.2949248,24.0789705868,26.2878289252,12,5,8.319,20.714152893824,14.435696,4.2949248,24.0789705868,-3.802798,-2.013246,-3.131716,210, -1.9, 1.5,0,0,1684,1024,1684,1024,100,0,100,0,222.5,0,0,97,4.155,4.153,0,0,0,0,4.521,70.88,20.714152893824,14.435696,32,GPSNovice,
13300,2022-08-11 19:33:32,-34.928809496043,-56.1628558432037,14.76378,16.8635176,4.178719293824,21.042236893824,13.779528,4.4067718,24.7407816316,26.9497383952,12,5,8.319,21.042236893824,14.76378,4.4067718,24.7407816316,-3.802798,-2.23694,-3.131716,210.1, -1.7, 1.5,0,0,1684,1024,1684,1024,100,0,100,0,222.5,0,0,97,4.155,4.153,0,0,0,0,4.521,70.88,21.042236893824,14.76378,32,GPSNovice,
13400,2022-08-11 19:33:32,-34.9288110153291,-56.1628569301346,15.419948,17.5853024,4.113102493824,21.698404893824,14.107612,4.4067718,25.3831701036,27.592356526,12,5,8.337,21.698404893824,15.419948,4.4067718,25.3831701036,-3.802798,-2.23694,-3.131716,210.1, -1.3, 1.5,0,0,1684,1024,1684,1024,100,0,100,0,222.5,0,0,97,4.173,4.17,0,0,0,0,4.703,70.88,21.698404893824,15.419948,32,GPSNovice,
13500,2022-08-11 19:33:32,-34.9288126103835,-56.1628580750224,15.748032,17.9790032,4.047485693824,22.026488893824,14.76378,4.4067718,26.0581373168,28.2676190148,12,5,8.337,22.026488893824,15.748032,4.4067718,26.0581373168,-3.802798,-2.23694,-3.131716,210.1, -1.2, 1.3,0,0,1684,1024,1684,1024,100,0,100,0,222.5,0,0,97,4.173,4.17,0,0,0,0,4.703,70.88,22.026488893824,15.748032,32,GPSNovice,
13600,2022-08-11 19:33:32,-34.9288140574514,-56.1628592991131,16.4042,18.6679796,4.014677293824,22.682656893824,15.091864,4.4067718,26.6973105656,28.910105912,12,5,8.337,22.682656893824,16.4042,4.4067718,26.6973105656,-3.802798,-2.23694,-3.131716,210.2, -1.7, 1.5,0,0,1684,1024,1684,1024,100,0,100,0,222.5,0,0,97,4.173,4.17,0,0,0,0,4.703,70.88,22.682656893824,16.4042,32,GPSNovice,
13700,2022-08-11 19:33:33,-34.9288155635015,-56.162860419884,16.732284,19.0616804,3.949060493824,23.010740893824,15.419948,4.4067718,27.3404208224,29.55380672,12,5,8.337,23.010740893824,16.732284,4.4067718,27.3404208224,-3.802798,-2.23694,-3.131716,210, -1.9, 1.3,0,0,1684,1024,1684,1024,100,0,100,0,222.5,0,0,97,4.173,4.17,0,0,0,0,4.703,70.88,23.010740893824,16.732284,32,GPSNovice,
13800,2022-08-11 19:33:33,-34.9288171776087,-56.1628616057512,17.388452,19.7506568,3.916252093824,23.666908893824,16.076116,4.4067718,28.0274943352,30.2412739336,12,5,8.337,23.666908893824,17.388452,4.4067718,28.0274943352,-3.802798,-2.23694,-3.131716,210, -1.9, 1.2,0,0,1684,1024,1684,1024,100,0,100,0,222.5,0,0,97,4.173,4.17,0,0,0,0,4.703,70.88,23.666908893824,17.388452,32,GPSNovice,
13900,2022-08-11 19:33:33,-34.9288187152311,-56.1628627373789,17.716536,20.177166,3.817826893824,23.994992893824,16.4042,4.4067718,28.6823171908,30.89649049,12,5,8.337,23.994992893824,17.716536,4.4067718,28.6823171908,-3.802798,-2.23694,-3.131716,210.1, -1.8, 1.1,0,0,1684,1024,1684,1024,100,0,100,0,222.5,0,0,97,4.173,4.17,0,0,0,0,4.703,70.88,23.994992893824,17.716536,32,GPSNovice,
14000,2022-08-11 19:33:33,-34.9288205535425,-56.1628640530523,18.372704,20.8989508,3.752210093824,24.651160893824,16.732284,4.4067718,29.4597778456,31.6741479952,12,5,8.337,24.651160893824,18.372704,4.4067718,29.4597778456,-3.802798,-2.23694,-3.131716,210.1, -1.6, 1.1,0,0,1684,1024,1684,1024,100,0,100,0,222.5,0,0,97,4.173,4.17,0,0,0,0,4.703,70.88,24.651160893824,18.372704,32,GPSNovice,
14100,2022-08-11 19:33:33,-34.9288221473267,-56.1628651872844,18.700788,21.2598432,3.719401693824,24.979244893824,17.060368,4.4067718,30.13287498,32.3473763632,11,4,8.337,24.979244893824,18.700788,4.4067718,30.13287498,-3.802798,-2.23694,-3.35541,210.2, -1.8, 0.8,0,0,1684,1024,1684,1024,100,0,100,0,222.5,0,0,97,4.173,4.17,0,0,0,0,4.703,70.88,24.979244893824,18.700788,32,GPSNovice,
14200,2022-08-11 19:33:33,-34.9288236885121,-56.1628663092648,19.356956,21.981628,3.653784893824,25.635412893824,17.716536,4.4067718,30.7874681768,33.002297644,11,4,8.337,25.635412893824,19.356956,4.4067718,30.7874681768,-3.802798,-2.23694,-3.35541,210.1, -1.9, 1.2,0,0,1684,1024,1684,1024,100,0,100,0,222.5,0,0,97,4.173,4.17,0,0,0,0,4.703,70.88,25.635412893824,19.356956,32,GPSNovice,
14300,2022-08-11 19:33:33,-34.9288251516951,-56.1628673682099,19.68504,22.3425204,3.620976493824,25.963496893824,18.372704,4.4067718,31.4080062544,33.623032572,12,4,8.337,25.963496893824,19.68504,4.4067718,31.4080062544,-3.802798,-2.23694,-3.35541,210.1, -2.2, 1.4,0,0,1684,1024,1684,1024,100,0,100,0,222.5,0,0,97,4.173,4.17,0,0,0,0,4.703,70.88,25.963496893824,19.68504,32,GPSNovice,
14400,2022-08-11 19:33:33,-34.9288266464699,-56.1628685072801,20.341208,23.0643052,3.555359693824,26.619664893824,18.700788,4.4067718,32.050361918,34.266077212,12,4,8.339,26.619664893824,20.341208,4.4067718,32.050361918,-3.802798,-2.23694,-3.35541,210.1, -2.3, 1.1,0,0,1684,1024,1684,1024,100,0,100,0,222.5,0,0,97,4.169,4.168,0,0,0,0,4.392,70.88,26.619664893824,20.341208,32,GPSNovice,
14500,2022-08-11 19:33:33,-34.9288278954083,-56.162869537124,20.669292,23.4251976,3.522551293824,26.947748893824,19.356956,4.6080964,32.5985246652,34.815945996,12,4,8.339,26.947748893824,20.669292,4.6080964,32.5985246652,-4.026492,-2.23694,-3.35541,210.1, -2.1, 1.1,0,0,1684,1024,1684,1024,100,0,100,0,222.5,0,0,97,4.169,4.168,0,0,0,0,4.392,70.88,26.947748893824,20.669292,32,GPSNovice,
14600,2022-08-11 19:33:33,-34.9288295713312,-56.1628706349195,21.32546,24.1469824,3.456934493824,27.603916893824,20.013124,4.6080964,33.2923239,35.51017174,12,4,8.339,27.603916893824,21.32546,4.6080964,33.2923239,-4.026492,-2.23694,-3.35541,209.9, -2.1, 0.5,0,0,1684,1024,1684,1024,100,0,100,0,222.5,0,0,97,4.169,4.168,0,0,0,0,4.392,70.88,27.603916893824,21.32546,32,GPSNovice,
14700,2022-08-11 19:33:34,-34.9288311783709,-56.1628716619421,21.981628,24.8359588,3.424126093824,28.260084893824,20.669292,4.6080964,33.954069328,36.171917168,12,4,8.339,28.260084893824,21.981628,4.6080964,33.954069328,-4.026492,-2.23694,-3.35541,210, -2.2, 1.2,0,0,1684,1024,1684,1024,100,0,100,0,222.5,0,0,97,4.169,4.168,0,0,0,0,4.392,70.88,28.260084893824,21.981628,32,GPSNovice,
14800,2022-08-11 19:33:34,-34.9288330868487,-56.162872733092,22.309712,25.262468,3.325700893824,28.588168893824,21.653544,4.6080964,34.718176964,36.938649476,12,4,8.339,28.588168893824,22.309712,4.6080964,34.718176964,-4.026492,-2.23694,-3.35541,210.1, -2, 1.9,0,0,1684,1024,1684,1024,100,0,100,0,222.5,0,0,97,4.169,4.168,0,0,0,0,4.392,70.88,28.588168893824,22.309712,32,GPSNovice,
14900,2022-08-11 19:33:34,-34.9288354356121,-56.1628736749739,22.96588,25.9842528,3.260084093824,29.244336893824,21.981628,4.6080964,35.604003764,37.840552392,12,4,8.339,29.244336893824,22.96588,4.6080964,35.604003764,-4.026492,-2.23694,-3.131716,210.1, -1.9, 2.1,0,0,1684,1024,1684,1024,100,0,100,0,222.5,0,0,97,4.169,4.168,0,0,0,0,4.392,70.88,29.244336893824,22.96588,32,GPSNovice,
15000,2022-08-11 19:33:34,-34.9288371912896,-56.1628747695197,23.293964,26.3779536,3.194467293824,29.572420893824,22.637796,4.6080964,36.322835808,38.560040604,12,4,8.339,29.572420893824,23.293964,4.6080964,36.322835808,-4.026492,-2.23694,-3.131716,210.1, -1.7, 2.1,0,0,1684,1024,1684,1024,100,0,100,0,222.5,0,0,97,4.169,4.168,0,0,0,0,4.392,70.88,29.572420893824,23.293964,32,GPSNovice,
15100,2022-08-11 19:33:34,-34.9288388621123,-56.1628758172946,23.950132,27.0997384,3.128850493824,30.228588893824,22.96588,4.6080964,37.008203284,39.24540808,12,4,8.339,30.228588893824,23.950132,4.6080964,37.008203284,-4.026492,-2.23694,-3.131716,210.1, -1.2, 2.2,0,0,1684,1024,1684,1024,100,0,100,0,222.5,0,0,97,4.169,4.168,0,0,0,0,4.392,70.88,30.228588893824,23.950132,32,GPSNovice,
15200,2022-08-11 19:33:34,-34.9288407270845,-56.1628769887732,24.278216,27.4934392,3.063233693824,30.556672893824,22.96588,4.6080964,37.773295172,40.010828052,12,4,8.339,30.556672893824,24.278216,4.6080964,37.773295172,-4.026492,-2.23694,-3.131716,210.2, -1.1, 2.1,0,0,1684,1024,1684,1024,100,0,100,0,222.5,0,0,97,4.169,4.168,0,0,0,0,4.392,70.88,30.556672893824,24.278216,32,GPSNovice,
15300,2022-08-11 19:33:34,-34.9288427760904,-56.1628781850688,24.934384,28.215224,2.997616893824,31.212840893824,25.918636,4.6080964,38.60072302,40.839568236,12,4,8.339,31.212840893824,24.934384,4.6080964,38.60072302,-4.026492,-2.23694,-3.131716,210.2, -1.4, 1.9,0,0,1684,1024,1684,1024,100,0,100,0,222.5,0,0,97,4.169,4.168,0,0,0,0,4.392,70.88,31.212840893824,24.934384,32,GPSNovice,
15400,2022-08-11 19:33:34,-34.9288445354418,-56.1628792914432,25.262468,28.6417332,2.899191693824,31.540924893824,26.574804,4.6080964,39.32250782,41.56168112,12,4,8.345,31.540924893824,25.262468,4.6080964,39.32250782,-4.026492,-2.23694,-3.35541,210.2, -1.9, 1.7,0,0,1684,1024,1684,1024,100,0,100,0,222.5,0,0,97,4.172,4.169,0,0,0,0,4.313,70.88,31.540924893824,25.262468,32,GPSNovice,
15500,2022-08-11 19:33:34,-34.9288462061993,-56.1628803417415,25.918636,29.3307096,2.866383293824,32.197092893824,27.230972,4.6080964,40.00820338,42.247704764,12,4,8.345,32.197092893824,25.918636,4.6080964,40.00820338,-4.026492,-2.23694,-3.35541,210.2, -2, 2,0,0,1684,1024,1684,1024,100,0,100,0,222.5,0,0,97,4.172,4.169,0,0,0,0,4.313,70.88,32.197092893824,25.918636,32,GPSNovice,
15600,2022-08-11 19:33:34,-34.9288481065478,-56.1628815215952,26.24672,29.7244104,2.800766493824,32.525176893824,27.88714,4.6080964,40.78576246,43.025591928,12,4,8.345,32.525176893824,26.24672,4.6080964,40.78576246,-4.026492,-2.23694,-3.35541,210.1, -1.7, 1.7,0,0,1684,1024,1684,1024,100,0,100,0,222.5,0,0,97,4.172,4.169,0,0,0,0,4.313,70.88,32.525176893824,26.24672,32,GPSNovice,
15700,2022-08-11 19:33:35,-34.9288501715646,-56.1628827432617,26.902888,30.4461952,2.735149693824,33.181344893824,28.543308,4.6080964,41.622048576,43.862862296,12,4,8.345,33.181344893824,26.902888,4.6080964,41.622048576,-4.026492,-2.23694,-3.131716,210, -1.9, 1.7,0,0,1684,1024,1684,1024,100,0,100,0,222.5,0,0,97,4.172,4.169,0,0,0,0,4.313,70.88,33.181344893824,26.902888,32,GPSNovice,
15800,2022-08-11 19:33:35,-34.9288519689239,-56.1628838426403,27.230972,30.839896,2.669532893824,33.509428893824,29.199476,4.6080964,42.355316316,44.59645812,12,4,8.345,33.509428893824,27.230972,4.6080964,42.355316316,-4.026492,-2.23694,-3.131716,210, -2.1, 1.6,0,0,1684,1024,1684,1024,100,0,100,0,222.5,0,0,97,4.172,4.169,0,0,0,0,4.313,70.88,33.509428893824,27.230972,32,GPSNovice,
15900,2022-08-11 19:33:35,-34.9288536811741,-56.1628848876513,27.88714,31.5616808,2.603916093824,34.165596893824,29.855644,4.6080964,43.053479068,45.294948956,12,4,8.345,34.165596893824,27.88714,4.6080964,43.053479068,-4.026492,-2.23694,-3.131716,210, -2, 1.5,0,0,1684,1024,1684,1024,100,0,100,0,222.5,0,0,97,4.172,4.169,0,0,0,0,4.313,70.88,34.165596893824,27.88714,32,GPSNovice,
16000,2022-08-11 19:33:35,-34.9288553566345,-56.1628860533044,28.215224,31.9225732,2.571107693824,34.493680893824,30.183728,4.6080964,43.757219248,45.998689136,12,4,8.345,34.493680893824,28.215224,4.6080964,43.757219248,-4.026492,-2.23694,-3.131716,210.2, -1.9, 2,0,0,1684,1024,1684,1024,100,0,100,0,222.5,0,0,97,4.172,4.169,0,0,0,0,4.313,70.88,34.493680893824,28.215224,32,GPSNovice,
16100,2022-08-11 19:33:35,-34.9288569462564,-56.1628871634876,28.871392,32.6771664,2.472682493824,35.149848893824,30.839896,4.6080964,44.425198272,46.667324328,12,4,8.345,35.149848893824,28.871392,4.6080964,44.425198272,-4.026492,-2.23694,-3.35541,210.1, -1.9, 2.1,0,0,1684,1024,1684,1024,100,0,100,0,222.5,0,0,97,4.172,4.169,0,0,0,0,4.313,70.88,35.149848893824,28.871392,32,GPSNovice,
16200,2022-08-11 19:33:35,-34.9288583538704,-56.1628881623964,29.199476,33.0380588,2.439874093824,35.477932893824,31.496064,4.6080964,45.019030312,47.261484452,12,4,8.345,35.477932893824,29.199476,4.6080964,45.019030312,-4.026492,-2.23694,-3.35541,210.1, -1.9, 2,0,0,1684,1024,1684,1024,100,0,100,0,222.5,0,0,97,4.172,4.169,0,0,0,0,4.313,70.88,35.477932893824,29.199476,32,GPSNovice,
16300,2022-08-11 19:33:35,-34.9288600600628,-56.1628892649463,29.855644,33.7598436,2.374257293824,36.134100893824,32.152232,4.6080964,45.723754744,47.9658808,12,4,8.345,36.134100893824,29.855644,4.6080964,45.723754744,-4.026492,-2.23694,-3.35541,210.1, -1.8, 1.9,0,0,1684,1024,1684,1024,100,0,100,0,222.5,0,0,97,4.172,4.169,0,0,0,0,4.313,70.88,36.134100893824,29.855644,32,GPSNovice,
16400,2022-08-11 19:33:35,-34.9288616689525,-56.1628903087975,30.183728,34.1535444,2.308640493824,36.462184893824,32.8084,4.6080964,46.388452928,48.630578984,12,4,8.334,36.462184893824,30.183728,4.6080964,46.388452928,-4.026492,-2.23694,-3.35541,210.1, -1.8, 1.7,0,0,1684,1024,1684,1024,100,0,100,0,222.5,0,0,97,4.167,4.164,0,0,0,0,4.335,71.06,36.462184893824,30.183728,32,GPSNovice,
