time(millisecond),datetime(utc),latitude,longitude,height_above_takeoff(feet),height_above_ground_at_drone_location(feet),ground_elevation_at_drone_location(feet),altitude_above_seaLevel(feet),height_sonar(feet),speed(mph),distance(feet),mileage(feet),satellites,gpslevel,voltage(v),max_altitude(feet),max_ascent(feet),max_speed(mph),max_distance(feet), xSpeed(mph), ySpeed(mph), zSpeed(mph), compass_heading(degrees), pitch(degrees), roll(degrees),isPhoto,isVideo,rc_elevator,rc_aileron,rc_throttle,rc_rudder,rc_elevator(percent),rc_aileron(percent),rc_throttle(percent),rc_rudder(percent),gimbal_heading(degrees),gimbal_pitch(degrees),gimbal_roll(degrees),battery_percent,voltageCell1,voltageCell2,voltageCell3,voltageCell4,voltageCell5,voltageCell6,current(A),battery_temperature(f),altitude(feet),ascent(feet),flycStateRaw,flycState,message
0,2022-10-24 21:58:42,-34.9204943514787,-56.1474085111513,0,0,0,0,0.328084,0,0,0,23,5,0,0,0,0,0,0,0,0,200.5, -8.6, 7,0,0,364,364,364,1684,-100,-100,-100,100,0,0,0,96,4.278,4.273,0,0,0,0,0,74.3,0,0,6,P-GPS,"Aeronave en Zona de altitud restringida (150). Vuela con precauci贸n (Code: 190001). Error de calibraci贸n del estabilizador. Reinicia la aeronave o contacta con la Asistencia DJI (Code: 40011)"
100,2022-10-24 21:58:42,-34.9204944114282,-56.1474083123672,0,0,0,0,0.328084,0,0.063362534836,0.063362534836,23,5,0,0,0,0,0.063362534836,0,0,0,203.3, -9.2, 5.7,0,0,364,364,364,1684,-100,-100,-100,100,210,0,0,96,4.278,4.273,0,0,0,0,0,74.3,0,0,41,Motors_Started,
200,2022-10-24 21:58:42,-34.9204945221542,-56.1474081594814,0,0,0,0,0.328084,0,0.122252628584,0.124386158836,23,5,0,0,0,0,0.122252628584,0,0,0,205.5, -9.9, 4.1,0,0,364,364,364,1684,-100,-100,-100,100,214.9,0,0,96,4.278,4.273,0,0,0,0,0,74.3,0,0,41,Motors_Started,
300,2022-10-24 21:58:42,-34.9204946616305,-56.1474079712802,0,0,0,0,0.328084,0.223694,0.197203418384,0.20027723738,23,5,0,0,0,0.223694,0.197203418384,0,-0.223694,0,210.3, -9.6, 3.2,0,0,364,364,364,1684,-100,-100,-100,100,218.8,0,0,96,4.278,4.273,0,0,0,0,0,74.3,0,0,41,Motors_Started,
400,2022-10-24 21:58:42,-34.9204947063671,-56.1474079275994,0,0,0,0,0.328084,0.223694,0.21735072874,0.2211860307,23,5,0,0,0,0.223694,0.21735072874,0,-0.223694,0,214.3, -9.8, 0.7,0,0,364,364,364,1684,-100,-100,-100,100,223,0,0,96,4.278,4.273,0,0,0,0,0,74.3,0,0,41,Motors_Started,"Error de calibraci贸n del estabilizador. Reinicia la aeronave o contacta con la Asistencia DJI (Code: 40011)"
500,2022-10-24 21:58:43,-34.920494737726,-56.1474079280593,0,0,0,0,0.328084,0.223694,0.224247710588,0.2326279602,23,5,0,0,0,0.223694,0.224247710588,0,-0.223694,0,216.6, -9.9, -1.2,0,0,364,364,364,1684,-100,-100,-100,100,225.6,0,0,96,4.278,4.273,0,0,0,0,0,74.3,0,0,41,Motors_Started,
600,2022-10-24 21:58:43,-34.9204947647973,-56.1474079167462,0,0,0,0,0.328084,0,0.233153550768,0.243068905416,23,5,0,0,0,0.223694,0.233153550768,0,0,0,218.1, -6.2, -0.4,0,0,1024,1024,857,1362,0,0,-25,51,227.5,0,0,96,4.278,4.273,0,0,0,0,0,74.3,0,0,41,Motors_Started,
700,2022-10-24 21:58:43,-34.920494804927,-56.1474078763609,0,0,0,0,0.328084,0,0.251859916196,0.262051189488,23,5,0,0,0,0.223694,0.251859916196,0,0,0,218.9, -5.7, 0.4,0,0,1024,1024,1024,1024,0,0,0,0,228.8,0,0,96,4.278,4.273,0,0,0,0,0,74.3,0,0,41,Motors_Started,
800,2022-10-24 21:58:43,-34.9204948140935,-56.1474079852354,0,0,0,0,0.328084,0,0.230741149116,0.294792988436,23,5,0,0,0,0.223694,0.251859916196,0,0,0,218.4, -4.2, 2,0,0,1024,1024,1024,1024,0,0,0,0,229.1,0,0,96,4.278,4.273,0,0,0,0,0,74.3,0,0,41,Motors_Started,
900,2022-10-24 21:58:43,-34.9204949334113,-56.1474079924173,0,0,0,0,0.328084,0.223694,0.2629839323,0.33837927592,23,5,0,0,0,0.223694,0.2629839323,-0.223694,0,-0.223694,218, -3.2, 2.5,0,0,1024,1024,1024,1024,0,0,0,0,228.8,0,0,96,4.278,4.273,0,0,0,0,0,74.3,0,0,41,Motors_Started,"Setting new Return-To-Home altitude to 100m (328 ft). Data Recorder File Index is 26. Setting new Maximum Flight Altitude to 120m (394 ft)"
1000,2022-10-24 21:58:43,-34.9204951159419,-56.1474080046389,0,0,0,0,0.328084,0.223694,0.317416676824,0.40507547228,23,5,0,0,0,0.223694,0.317416676824,-0.223694,0,-0.223694,217.1, -2.8, 1.1,0,0,1024,1024,1417,1024,0,0,60,0,228.8,0,0,96,4.278,4.273,0,0,0,0,0,74.3,0,0,41,Motors_Started,
1100,2022-10-24 21:58:43,-34.9204953641836,-56.1474079486038,0,0,0,0,0.328084,0.447388,0.40600723084,0.49718505528,23,5,0,0,0,0.447388,0.40600723084,-0.447388,0,-0.223694,215.2, -3.8, -0.7,0,0,1024,1024,1632,1024,0,0,92,0,228.1,0,0,96,4.278,4.273,0,0,0,0,0,74.3,0,0,41,Motors_Started,
1200,2022-10-24 21:58:43,-34.9204957606282,-56.1474078481405,0,0,0,0,0.328084,0.223694,0.55105972892,0.64491799964,23,5,0,0,0,0.447388,0.55105972892,-0.223694,0,-0.223694,215.6, -3.3, -1.9,0,0,1024,1024,1684,1024,0,0,100,0,225.8,0,0,96,4.278,4.273,0,0,0,0,0,74.3,0,0,10,Assisted_Takeoff,
1300,2022-10-24 21:58:43,-34.9204959907697,-56.1474077608628,0,0,0,0,0.328084,0.223694,0.63882547976,0.73284779248,23,5,0,0,0,0.447388,0.63882547976,-0.223694,0,-0.223694,215.1, -1.3, -1.2,0,0,1024,1024,1684,1024,0,0,100,0,225.5,0,0,96,4.278,4.273,0,0,0,0,0,74.3,0,0,10,Assisted_Takeoff,"Error de calibraci贸n del estabilizador. Reinicia la aeronave o contacta con la Asistencia DJI (Code: 40011)"
1400,2022-10-24 21:58:43,-34.9204961943562,-56.147407709357,0,0,0,0,0.328084,0,0.71387469476,0.8087106558,23,5,0,0,0,0.447388,0.71387469476,0,0,0,215.2, -0.1, -0.3,0,0,1024,1024,1684,1024,0,0,100,0,225.4,0,0,96,4.278,4.273,0,0,0,0,0,74.3,0,0,6,P-GPS,
1500,2022-10-24 21:58:44,-34.9204963480715,-56.1474076769012,0,0,0,0,0.328084,0,0.77002299052,0.86562666812,23,5,8.559,0,0,0.447388,0.77002299052,0,0,0,215.1, 0.1, 0,0,0,1024,1024,1684,1024,0,0,100,0,225.4,0,0,96,4.278,4.273,0,0,0,0,1.347,74.3,0,0,6,P-GPS,
1600,2022-10-24 21:58:44,-34.9204964348627,-56.1474077285239,0,0,0,0,0.328084,0,0.79536091784,0.90085632804,22,5,8.559,0,0,0.447388,0.79536091784,0,0,0,215.6, -0.4, -0.9,0,0,1024,1024,1684,1024,0,0,100,0,225.4,0,0,96,4.278,4.273,0,0,0,0,1.347,74.3,0,0,6,P-GPS,
1700,2022-10-24 21:58:44,-34.9204965317111,-56.1474076643671,0,0,0,0,0.328084,0,0.83481958052,0.94106958392,22,5,8.559,0,0,0.447388,0.83481958052,0,0,0,215.8, -0.8, -0.5,0,0,1024,1024,1684,1024,0,0,100,0,225.4,0,0,96,4.278,4.273,0,0,0,0,1.347,74.3,0,0,6,P-GPS,
1800,2022-10-24 21:58:44,-34.9204966238859,-56.1474075696005,0,0,0,0,0.328084,0,0.87562666844,0.98505252496,23,5,8.559,0,0,0.447388,0.87562666844,0,0,0,215.7, 0, -0.2,0,0,1024,1024,1658,1024,0,0,96,0,225.4,0,0,96,4.278,4.273,0,0,0,0,1.347,74.3,0,0,6,P-GPS,
1900,2022-10-24 21:58:44,-34.9204967225306,-56.1474075062218,0,0,0,0,0.328084,0,0.91582680096,1.02573166012,23,5,8.559,0,0,0.447388,0.91582680096,0,0,-0.447388,215.7, 1.1, 2.4,0,0,1024,1024,1024,1024,0,0,0,0,225.4,0,0,96,4.278,4.273,0,0,0,0,1.347,74.3,0,0,6,P-GPS,
2000,2022-10-24 21:58:44,-34.9204966080786,-56.1474074964465,0,0,0,0,0.656168,0,0.87749674724,1.06759189768,23,5,8.559,0,0,0.447388,0.91582680096,0,0,-1.11847,215.7, 0.7, 2,0,0,1024,1024,1024,1024,0,0,0,0,225.4,0,0,96,4.278,4.273,0,0,0,0,1.347,74.3,0,0,6,P-GPS,
2100,2022-10-24 21:58:44,-34.9204967061891,-56.1474075089004,0.328084,0.328084,0,0.328084,0.656168,0,0.90993113148,1.10358271248,23,5,8.559,0.328084,0.328084,0.447388,0.91582680096,0,0,-1.342164,215.7, 1.4, 1.4,0,0,1024,1024,1024,1024,0,0,0,0,225.4,0,0,96,4.278,4.273,0,0,0,0,1.347,74.3,0.328084,0.328084,6,P-GPS,
2200,2022-10-24 21:58:44,-34.9204968170617,-56.1474075543233,0.656168,0.656168,0,0.656168,0.984252,0,0.94400921656,1.14625331752,23,5,8.559,0.656168,0.656168,0.447388,0.94400921656,0,0,-1.342164,215.5, 1.9, 0.6,0,0,1024,1024,1024,1024,0,0,0,0,225.4,0,0,96,4.278,4.273,0,0,0,0,1.347,74.3,0.656168,0.656168,6,P-GPS,
2300,2022-10-24 21:58:44,-34.9204969412599,-56.1474076926702,0.656168,0.656168,0,0.656168,0.984252,0.223694,0.97608927008,1.20762471056,23,5,8.559,0.656168,0.656168,0.447388,0.97608927008,0,-0.223694,-1.342164,215.4, 3.2, 1.3,0,0,1024,1024,1024,1024,0,0,0,0,225.4,0,0,96,4.278,4.273,0,0,0,0,1.347,74.3,0.656168,0.656168,6,P-GPS,
2400,2022-10-24 21:58:44,-34.9204970753232,-56.1474079082131,0.984252,0.984252,0,0.984252,3.937008,0.223694,1.01002955988,1.28855975252,23,5,8.559,0.984252,0.984252,0.447388,1.01002955988,0,-0.223694,-0.894776,215.2, 3.3, -0.2,0,0,1024,1024,1024,1024,0,0,0,0,225.4,0,0,96,4.278,4.273,0,0,0,0,1.347,74.3,0.984252,0.984252,6,P-GPS,
2500,2022-10-24 21:58:45,-34.9204971404658,-56.1474083115354,0.984252,0.984252,0,0.984252,4.265092,0.223694,1.01931105624,1.41153547824,23,5,8.386,0.984252,0.984252,0.447388,1.01931105624,0,-0.223694,-0.447388,215.2, 3.8, -0.9,0,0,1024,1024,1024,1024,0,0,0,0,225.4,0,0,96,4.167,4.181,0,0,0,0,3.383,74.3,0.984252,0.984252,6,P-GPS,
2600,2022-10-24 21:58:45,-34.9204971542327,-56.1474085167531,1.312336,1.312336,0,1.312336,4.265092,0.223694,1.02258533456,1.4731299684,23,5,8.386,1.312336,1.312336,0.447388,1.02258533456,0,-0.223694,-0.223694,215.1, 3.7, -1.3,0,0,1024,1024,1024,1024,0,0,0,0,225.4,0,0,96,4.167,4.181,0,0,0,0,3.383,74.3,1.312336,1.312336,6,P-GPS,
2700,2022-10-24 21:58:45,-34.9204971818267,-56.1474086792389,1.312336,1.312336,0,1.312336,4.265092,0.223694,1.033874705,1.52277235844,23,5,8.386,1.312336,1.312336,0.447388,1.033874705,0,-0.223694,0,215.1, 4.3, -1.2,0,0,1024,1024,1024,1024,0,0,0,0,225.4,0,0,96,4.167,4.181,0,0,0,0,3.383,74.3,1.312336,1.312336,6,P-GPS,
2800,2022-10-24 21:58:45,-34.9204972195154,-56.14740881454,1.312336,1.312336,0,1.312336,4.265092,0.223694,1.05033139844,1.56552170364,23,5,8.386,1.312336,1.312336,0.447388,1.05033139844,0,-0.223694,0,215.1, 4, -1.2,0,0,1024,1024,1591,1024,0,0,86,0,225.4,0,0,96,4.167,4.181,0,0,0,0,3.383,74.3,1.312336,1.312336,6,P-GPS,
2900,2022-10-24 21:58:45,-34.9204973232619,-56.1474090844423,1.312336,1.312336,0,1.312336,4.265092,0.223694,1.09773297476,1.65469493484,23,5,8.386,1.312336,1.312336,0.447388,1.09773297476,0,-0.223694,0,215.2, 3.4, -1.6,0,0,1024,1024,1684,1024,0,0,100,0,225.4,0,0,96,4.167,4.181,0,0,0,0,3.383,74.3,1.312336,1.312336,6,P-GPS,
3000,2022-10-24 21:58:45,-34.92049747551,-56.1474092302555,1.312336,1.312336,0,1.312336,4.265092,0,1.1599245778,1.72532485836,23,5,8.386,1.312336,1.312336,0.447388,1.1599245778,0,0,-0.447388,215, 2.9, -1.9,0,0,1024,1024,1684,1024,0,0,100,0,225.4,0,0,96,4.167,4.181,0,0,0,0,3.383,74.3,1.312336,1.312336,6,P-GPS,
3100,2022-10-24 21:58:45,-34.9204975393223,-56.1474092735986,1.64042,1.64042,0,1.64042,4.593176,0,1.1852362584,1.75197184084,23,5,8.386,1.64042,1.64042,0.447388,1.1852362584,0,0,-1.11847,214.8, 2.9, -1.4,0,0,1024,1024,1413,1024,0,0,59,0,225.4,0,0,96,4.167,4.181,0,0,0,0,3.383,74.3,1.64042,1.64042,6,P-GPS,
3200,2022-10-24 21:58:45,-34.9204975526152,-56.1474092503127,1.64042,1.64042,0,1.64042,4.593176,0,1.1886811404,1.76045937392,23,5,8.386,1.64042,1.64042,0.447388,1.1886811404,0,0,-1.789552,214.9, 2.9, -1.2,0,0,1024,1024,1024,1024,0,0,0,0,225.4,0,0,96,4.167,4.181,0,0,0,0,3.383,74.3,1.64042,1.64042,6,P-GPS,
3300,2022-10-24 21:58:45,-34.9204976144212,-56.1474089869208,1.968504,1.968504,0,1.968504,4.92126,0,1.19896001212,1.84241803796,23,5,8.386,1.968504,1.968504,0.447388,1.19896001212,0,0,-2.23694,214.9, 3.4, -0.6,0,0,1684,1024,1024,1024,100,0,0,0,225.4,0,0,96,4.167,4.181,0,0,0,0,3.383,74.3,1.968504,1.968504,6,P-GPS,
3400,2022-10-24 21:58:45,-34.9204977528666,-56.1474089172159,2.296588,2.296588,0,2.296588,5.249344,0,1.24692589292,1.89706698984,23,5,8.386,2.296588,2.296588,0.447388,1.24692589292,0,0,-2.013246,215, 3.8, -0.3,0,0,1684,1024,1024,1024,100,0,0,0,225.4,0,0,96,4.167,4.181,0,0,0,0,3.383,74.3,2.296588,2.296588,6,P-GPS,
3500,2022-10-24 21:58:45,-34.920497836808,-56.1474088197004,2.624672,2.624672,0,2.624672,5.577428,0,1.2749672324,1.93936357912,23,5,8.401,2.624672,2.624672,0.447388,1.2749672324,0,0,-1.342164,215.1, -3.6, 0,0,0,1684,1024,1024,1024,100,0,0,0,225.4,0,0,96,4.165,4.158,0,0,0,0,4.194,74.3,2.624672,2.624672,6,P-GPS,
3600,2022-10-24 21:58:46,-34.9204979491381,-56.1474087519218,2.952756,2.952756,0,2.952756,5.577428,0.223694,1.31458009456,1.9850886462,23,5,8.401,2.952756,2.952756,0.447388,1.31458009456,-0.223694,0,-0.894776,215.3, -12.9, 0,0,0,1684,1024,1024,1024,100,0,0,0,225.4,0,0,96,4.165,4.158,0,0,0,0,4.194,74.3,2.952756,2.952756,6,P-GPS,
3700,2022-10-24 21:58:46,-34.9204981885747,-56.1474085881273,2.952756,2.952756,0,2.952756,5.905512,0.8052984,1.40015096344,2.08524941056,23,5,8.401,2.952756,2.952756,0.8052984,1.40015096344,-0.671082,-0.447388,-0.447388,215.1, -16, 0.2,0,0,1684,1024,1024,1024,100,0,0,0,225.4,0,0,96,4.165,4.158,0,0,0,0,4.194,74.3,2.952756,2.952756,6,P-GPS,
3800,2022-10-24 21:58:46,-34.9204987080809,-56.1474088261571,2.952756,2.952756,0,2.952756,5.905512,1.4316416,1.59229335804,2.28772645116,23,5,8.401,2.952756,2.952756,1.4316416,1.59229335804,-1.11847,-0.894776,-0.223694,215, -16, 0.3,0,0,1684,1024,1049,1024,100,0,4,0,225.4,0,0,96,4.165,4.158,0,0,0,0,4.194,74.3,2.952756,2.952756,6,P-GPS,
3900,2022-10-24 21:58:46,-34.9204993766386,-56.1474092959407,2.952756,2.952756,0,2.952756,5.905512,2.1027236,1.84839900928,2.56923892736,23,5,8.401,2.952756,2.952756,2.1027236,1.84839900928,-1.789552,-1.11847,0,215.1, -16.1, -0.5,0,0,1684,1024,1684,1024,100,0,100,0,225.4,0,0,96,4.165,4.158,0,0,0,0,4.194,74.3,2.952756,2.952756,6,P-GPS,
4000,2022-10-24 21:58:46,-34.9205002831869,-56.1474100091956,2.952756,2.952756,0,2.952756,5.249344,2.7290668,2.21009521508,2.96284786384,23,5,8.401,2.952756,2.952756,2.7290668,2.21009521508,-2.23694,-1.565858,0,214.9, -15.3, -0.3,0,0,1684,1024,1684,1024,100,0,100,0,225.4,0,0,96,4.165,4.158,0,0,0,0,4.194,74.3,2.952756,2.952756,6,P-GPS,
4100,2022-10-24 21:58:46,-34.9205014315819,-56.1474108784397,2.952756,2.952756,0,2.952756,5.577428,3.7133204,2.67849089936,3.4559712392,23,5,8.401,2.952756,2.952756,3.7133204,2.67849089936,-3.131716,-2.013246,-0.447388,215.1, -13.1, 0.2,0,0,1684,1024,1684,1024,100,0,100,0,225.4,0,0,96,4.165,4.158,0,0,0,0,4.194,74.3,2.952756,2.952756,6,P-GPS,
4200,2022-10-24 21:58:46,-34.9205029866482,-56.1474121762712,3.28084,3.28084,0,3.28084,5.905512,4.47388,3.3358924952,4.1434712612,23,5,8.401,3.28084,3.28084,4.47388,3.3358924952,-3.579104,-2.684328,-1.11847,215.1, -11.2, 0.4,0,0,1684,1024,1684,1024,100,0,100,0,225.4,0,0,96,4.165,4.158,0,0,0,0,4.194,74.3,3.28084,3.28084,6,P-GPS,
4300,2022-10-24 21:58:46,-34.9205046186292,-56.1474134843356,3.608924,3.608924,0,3.608924,6.233596,4.9660068,4.0305775568,4.855971284,23,5,8.401,3.608924,3.608924,4.9660068,4.0305775568,-4.026492,-2.908022,-2.013246,215.1, -10.4, -0.3,0,0,1684,1024,1684,1024,100,0,100,0,225.4,0,0,96,4.165,4.158,0,0,0,0,4.194,74.3,3.608924,3.608924,6,P-GPS,
4400,2022-10-24 21:58:46,-34.9205065396003,-56.1474150619984,3.937008,3.937008,0,3.937008,6.56168,5.7713052,4.8595145912,5.700951626,23,5,8.401,3.937008,3.937008,5.7713052,4.8595145912,-4.697574,-3.35541,-2.684328,215.1, -9.4, -0.4,0,0,1684,1024,1684,1024,100,0,100,0,225.4,0,0,96,4.165,4.158,0,0,0,0,4.194,74.3,3.937008,3.937008,6,P-GPS,
4500,2022-10-24 21:58:46,-34.9205086052294,-56.1474166926781,4.265092,4.265092,0,4.265092,7.217848,6.263432,5.7476379792,6.5986878752,23,5,8.401,4.265092,4.265092,6.263432,5.7476379792,-5.144962,-3.579104,-3.579104,215, -8.6, 0,0,0,1684,1024,1684,1024,100,0,100,0,225.4,0,0,96,4.165,4.158,0,0,0,0,4.194,74.3,4.265092,4.265092,6,P-GPS,
4600,2022-10-24 21:58:47,-34.9205114010723,-56.1474188249137,4.92126,4.92126,0,4.92126,7.874016,6.5766036,6.9437010096,7.8017719032,23,5,8.407,4.92126,4.92126,6.5766036,6.9437010096,-5.368656,-3.802798,-4.47388,214.9, -8.6, -0.3,0,0,1684,1024,1684,1024,100,0,100,0,225.4,0,0,96,4.132,4.127,0,0,0,0,4.374,74.3,4.92126,4.92126,6,P-GPS,
4700,2022-10-24 21:58:47,-34.9205138288413,-56.1474207014525,5.905512,5.905512,0,5.905512,8.530184,7.0687304,7.9874018304,8.8504596008,23,5,8.407,5.905512,5.905512,7.0687304,7.9874018304,-5.816044,-4.026492,-5.144962,214.9, -7.5, -0.8,0,0,1684,1024,1684,1024,100,0,100,0,225.4,0,0,96,4.132,4.127,0,0,0,0,4.374,74.3,5.905512,5.905512,6,P-GPS,
4800,2022-10-24 21:58:47,-34.92051649677,-56.1474227672086,6.889764,6.889764,0,6.889764,9.514436,7.381902,9.1361879564,10.003445202,23,5,8.407,6.889764,6.889764,7.381902,9.1361879564,-6.039738,-4.250186,-5.816044,215.2, -8.4, -0.6,0,0,1684,1024,1684,1024,100,0,100,0,225.4,0,0,96,4.132,4.127,0,0,0,0,4.374,74.3,6.889764,6.889764,6,P-GPS,
4900,2022-10-24 21:58:47,-34.9205191223005,-56.1474246967356,7.874016,7.874016,0,7.874016,10.498688,7.6950736,10.2529858924,11.1218507496,23,5,8.407,7.874016,7.874016,7.6950736,10.2529858924,-6.263432,-4.47388,-6.263432,215.2, -8.4, -0.4,0,0,1684,1024,1684,1024,100,0,100,0,225.4,0,0,96,4.132,4.127,0,0,0,0,4.374,74.3,7.874016,7.874016,6,P-GPS,
5000,2022-10-24 21:58:47,-34.9205222020431,-56.1474264219776,8.858268,8.858268,0,8.858268,11.154856,8.1872004,11.4874347508,12.3583665372,23,5,8.407,8.858268,8.858268,8.1872004,11.4874347508,-6.71082,-4.697574,-6.487126,215.1, -8.7, -0.2,0,0,1684,1024,1684,1024,100,0,100,0,225.4,0,0,96,4.132,4.127,0,0,0,0,4.374,74.3,8.858268,8.858268,6,P-GPS,
5100,2022-10-24 21:58:47,-34.9205250676485,-56.1474285040995,9.84252,9.84252,0,9.84252,12.139108,8.500372,12.7029531624,13.5753613268,23,5,8.407,9.84252,9.84252,8.500372,12.7029531624,-6.934514,-4.921268,-6.71082,215.1, -9.3, 0,0,0,1684,1024,1684,1024,100,0,100,0,225.4,0,0,96,4.132,4.127,0,0,0,0,4.374,74.3,9.84252,9.84252,6,P-GPS,
5200,2022-10-24 21:58:47,-34.9205282019473,-56.1474308619149,10.826772,10.826772,0,10.826772,13.12336,8.8135436,14.0441605544,14.9189309236,23,5,8.407,10.826772,10.826772,8.8135436,14.0441605544,-7.158208,-5.144962,-6.71082,215.1, -9.6, -0.8,0,0,1684,1024,1684,1024,100,0,100,0,225.5,0,0,96,4.132,4.127,0,0,0,0,4.374,74.3,10.826772,10.826772,6,P-GPS,
5300,2022-10-24 21:58:47,-34.9205312404772,-56.147433193624,11.811024,11.811024,0,11.811024,14.107612,8.9924988,15.3514112524,16.2287406768,23,5,8.407,11.811024,11.811024,8.9924988,15.3514112524,-7.381902,-5.144962,-6.71082,215, -10.1, -1.4,0,0,1684,1024,1684,1024,100,0,100,0,225.4,0,0,96,4.132,4.127,0,0,0,0,4.374,74.3,11.811024,11.811024,6,P-GPS,
5400,2022-10-24 21:58:47,-34.9205347070762,-56.1474355564244,12.795276,12.795276,0,12.795276,15.091864,9.4398868,16.8002630048,17.677658046,23,5,8.407,12.795276,12.795276,9.4398868,16.8002630048,-8.052984,-4.921268,-6.487126,211.1, -10.3, -1.3,0,0,1684,999,1684,1024,100,-4,100,0,225.4,0,0,96,4.132,4.127,0,0,0,0,4.374,74.3,12.795276,12.795276,6,P-GPS,
5500,2022-10-24 21:58:48,-34.9205379089619,-56.1474379290854,13.779528,13.779528,0,13.779528,16.076116,9.7530584,18.16601108,19.0445872236,23,5,8.407,13.779528,13.779528,9.7530584,18.16601108,-8.276678,-5.144962,-6.487126,211.1, -10.3, -1.3,0,0,1684,1024,1684,1024,100,0,100,0,225.4,0,0,96,4.132,4.127,0,0,0,0,4.374,74.3,13.779528,13.779528,6,P-GPS,
5600,2022-10-24 21:58:48,-34.9205413625268,-56.1474404593421,14.76378,14.76378,0,14.76378,17.060368,9.9320136,19.6350728068,20.5145019688,23,5,8.24,14.76378,14.76378,9.9320136,19.6350728068,-8.500372,-5.144962,-6.487126,211, -9.8, -1.6,0,0,1684,1024,1684,1024,100,0,100,0,225.4,0,0,96,4.159,4.152,0,0,0,0,6.598,74.3,14.76378,14.76378,6,P-GPS,
5700,2022-10-24 21:58:48,-34.9205447252832,-56.1474428973306,15.748032,15.748032,0,15.748032,17.716536,10.2451852,21.061844506,21.9417986024,23,5,8.24,15.748032,15.748032,10.2451852,21.061844506,-8.724066,-5.368656,-6.487126,211, -9.8, -1.3,0,0,1684,1024,1684,1024,100,0,100,0,225.4,0,0,96,4.159,4.152,0,0,0,0,6.598,74.3,15.748032,15.748032,6,P-GPS,
5800,2022-10-24 21:58:48,-34.9205483507207,-56.1474455279242,16.732284,16.732284,0,16.732284,18.700788,10.5583568,22.6004928492,23.4809390716,23,5,8.24,16.732284,16.732284,10.5583568,22.6004928492,-8.94776,-5.59235,-6.487126,211.2, -10.1, -1.8,0,0,1684,1024,1684,1024,100,0,100,0,225.5,0,0,96,4.159,4.152,0,0,0,0,6.598,74.3,16.732284,16.732284,6,P-GPS,
5900,2022-10-24 21:58:48,-34.920551643708,-56.1474476099626,17.716536,17.716536,0,17.716536,19.68504,10.849159,23.9530519476,24.8342527632,23,5,8.24,17.716536,17.716536,10.849159,23.9530519476,-9.171454,-5.816044,-6.487126,211.2, -9.6, -2.8,0,0,1684,1024,1684,1024,100,0,100,0,225.5,0,0,96,4.159,4.152,0,0,0,0,6.598,74.3,17.716536,17.716536,6,P-GPS,
6000,2022-10-24 21:58:48,-34.9205554274758,-56.1474505195734,18.700788,18.700788,0,18.700788,20.669292,11.0504836,25.5829732596,26.4662410044,23,5,8.24,18.700788,18.700788,11.0504836,25.5829732596,-9.395148,-5.816044,-6.487126,211.2, -9.1, -2.9,0,0,1684,1024,1684,1024,100,0,100,0,225.5,0,0,96,4.159,4.152,0,0,0,0,6.598,74.3,18.700788,18.700788,6,P-GPS,
6100,2022-10-24 21:58:48,-34.9205591682201,-56.1474533334837,19.68504,19.68504,0,19.68504,21.653544,11.3636552,27.185368324,28.0697843628,23,5,8.24,19.68504,19.68504,11.3636552,27.185368324,-9.618842,-6.039738,-6.487126,211.4, -10.1, -2.8,0,0,1684,1024,1684,1024,100,0,100,0,225.5,0,0,96,4.159,4.152,0,0,0,0,6.598,74.3,19.68504,19.68504,6,P-GPS,
6200,2022-10-24 21:58:48,-34.9205632286931,-56.1474563500399,20.669292,20.669292,0,20.669292,22.309712,11.3636552,28.9192266472,29.804462896,22,5,8.24,20.669292,20.669292,11.3636552,28.9192266472,-9.618842,-6.039738,-6.487126,211.2, -9.9, -2.8,0,0,1684,1024,1684,1024,100,0,100,0,225.5,0,0,96,4.159,4.152,0,0,0,0,6.598,74.3,20.669292,20.669292,6,P-GPS,
6300,2022-10-24 21:58:48,-34.9205670714171,-56.1474592460158,21.653544,21.653544,0,21.653544,23.293964,11.6768268,30.5663395608,31.4525600616,22,5,8.24,21.653544,21.653544,11.6768268,30.5663395608,-9.842536,-6.263432,-6.487126,211.2, -9.7, -2.7,0,0,1684,1024,1684,1024,100,0,100,0,225.4,0,0,96,4.159,4.152,0,0,0,0,6.598,74.3,21.653544,21.653544,6,P-GPS,
6400,2022-10-24 21:58:48,-34.9205711154102,-56.1474623348555,22.96588,22.96588,0,22.96588,24.278216,11.855782,32.305939354,33.193570616,23,5,8.24,22.96588,22.96588,11.855782,32.305939354,-10.06623,-6.263432,-6.487126,211.3, -10.4, -3.1,0,0,1684,1024,1684,1024,100,0,100,0,225.5,0,0,96,4.159,4.152,0,0,0,0,6.598,74.3,22.96588,22.96588,6,P-GPS,
6500,2022-10-24 21:58:49,-34.9205751872628,-56.1474654008135,23.950132,23.950132,0,23.950132,25.262468,12.1689536,34.051182192,34.93930558,23,5,8.24,23.950132,23.950132,12.1689536,34.051182192,-10.289924,-6.487126,-6.487126,211.4, -10.4, -3.2,0,0,1684,1024,1684,1024,100,0,100,0,225.5,0,0,96,4.159,4.152,0,0,0,0,6.598,74.3,23.950132,23.950132,6,P-GPS,
6600,2022-10-24 21:58:49,-34.9205796615104,-56.1474687277734,24.934384,24.934384,0,24.934384,26.24672,12.3479088,35.962599576,36.851379132,23,5,8.31,24.934384,24.934384,12.3479088,35.962599576,-10.513618,-6.487126,-6.487126,211.4, -10.3, -2.9,0,0,1684,1024,1684,1024,100,0,100,0,225.4,0,0,96,4.149,4.145,0,0,0,0,5.207,74.3,24.934384,24.934384,6,P-GPS,
6700,2022-10-24 21:58:49,-34.9205841075598,-56.1474717135935,25.918636,25.918636,0,25.918636,27.230972,12.4821252,37.813977588,38.703085228,23,5,8.31,25.918636,25.918636,12.4821252,37.813977588,-10.513618,-6.71082,-6.487126,211.3, -10.4, -2.7,0,0,1684,1024,1684,1024,100,0,100,0,225.5,0,0,96,4.149,4.145,0,0,0,0,5.207,74.3,25.918636,25.918636,6,P-GPS,
6800,2022-10-24 21:58:49,-34.9205886671444,-56.147475032409,26.902888,26.902888,0,26.902888,28.215224,12.6610804,39.750985524,40.640421248,23,5,8.31,26.902888,26.902888,12.6610804,39.750985524,-10.737312,-6.71082,-6.487126,211.4, -10.7, -3,0,0,1684,1024,1684,1024,100,0,100,0,225.4,0,0,96,4.149,4.145,0,0,0,0,5.207,74.3,26.902888,26.902888,6,P-GPS,
6900,2022-10-24 21:58:49,-34.9205930518927,-56.1474782428399,27.88714,27.88714,0,27.88714,29.199476,12.862405,41.616799232,42.506234956,23,5,8.31,27.88714,27.88714,12.862405,41.616799232,-10.961006,-6.71082,-6.487126,211.4, -10.5, -3,0,0,1684,1024,1684,1024,100,0,100,0,225.4,0,0,96,4.149,4.145,0,0,0,0,5.207,74.3,27.88714,27.88714,6,P-GPS,
7000,2022-10-24 21:58:49,-34.9205977219444,-56.1474816712833,28.871392,28.871392,0,28.871392,30.183728,13.1532072,43.604988272,44.495080164,23,5,8.31,28.871392,28.871392,13.1532072,43.604988272,-11.1847,-6.934514,-6.487126,211.3, -10.3, -3.5,0,0,1684,1024,1684,1024,100,0,100,0,225.4,0,0,96,4.149,4.145,0,0,0,0,5.207,74.3,28.871392,28.871392,6,P-GPS,
7100,2022-10-24 21:58:49,-34.9206023068871,-56.1474848663866,30.183728,30.183728,0,30.183728,31.16798,13.3545318,45.531825604,46.421917496,23,5,8.31,30.183728,30.183728,13.3545318,45.531825604,-11.408394,-6.934514,-6.487126,211.4, -11, -3.2,0,0,1684,1024,1684,1024,100,0,100,0,225.4,0,0,96,4.149,4.145,0,0,0,0,5.207,74.3,30.183728,30.183728,6,P-GPS,
7200,2022-10-24 21:58:49,-34.9206071993842,-56.1474883713581,31.16798,31.16798,0,31.16798,32.152232,13.8466586,47.602035644,48.491799452,23,5,8.31,31.16798,31.16798,13.8466586,47.602035644,-11.855782,-7.158208,-6.487126,211.5, -10, -2.6,0,0,1684,1024,1684,1024,100,0,100,0,225.4,0,0,96,4.149,4.145,0,0,0,0,5.207,74.3,31.16798,31.16798,6,P-GPS,
7300,2022-10-24 21:58:49,-34.9206121163471,-56.1474918169576,32.152232,32.152232,0,32.152232,33.136484,14.0479832,49.670933348,50.56102524,22,5,8.31,32.152232,32.152232,14.0479832,49.670933348,-12.079476,-7.158208,-6.487126,211.5, -8.8, -2,0,0,1684,1024,1684,1024,100,0,100,0,225.4,0,0,96,4.149,4.145,0,0,0,0,5.207,74.3,32.152232,32.152232,6,P-GPS,
7400,2022-10-24 21:58:49,-34.9206174573829,-56.1474955276807,33.136484,33.136484,0,33.136484,34.120736,14.1598302,51.913387488,52.80347938,23,5,8.31,33.136484,33.136484,14.1598302,51.913387488,-12.079476,-7.381902,-6.71082,211.5, -9.7, -2.3,0,0,1684,1024,1684,1024,100,0,100,0,225.4,0,0,96,4.149,4.145,0,0,0,0,5.207,74.3,33.136484,33.136484,6,P-GPS,
7500,2022-10-24 21:58:49,-34.9206222000241,-56.1474988792827,34.120736,34.120736,0,34.120736,35.104988,14.1598302,53.913387552,54.803479444,23,5,8.31,34.120736,34.120736,14.1598302,53.913387552,-12.079476,-7.381902,-6.71082,211.6, -10.4, -2.4,0,0,1684,1024,1684,1024,100,0,100,0,225.4,0,0,96,4.149,4.145,0,0,0,0,5.207,74.3,34.120736,34.120736,6,P-GPS,
7600,2022-10-24 21:58:50,-34.9206263135127,-56.1475016403511,35.104988,35.104988,0,35.104988,36.08924,14.1598302,55.625986032,56.516734092,23,5,8.275,35.104988,35.104988,14.1598302,55.625986032,-12.079476,-7.381902,-6.71082,211.4, -10.4, -1.9,0,0,1684,1024,1684,1024,100,0,100,0,225.5,0,0,96,4.139,4.139,0,0,0,0,5.558,74.48,35.104988,35.104988,6,P-GPS,
7700,2022-10-24 21:58:50,-34.9206312258508,-56.1475050989012,36.08924,36.08924,0,36.08924,37.073492,14.3387854,57.695539904,58.58595988,23,5,8.275,36.08924,36.08924,14.3387854,57.695539904,-12.30317,-7.381902,-6.71082,211.4, -9.6, -1.8,0,0,1684,1024,1684,1024,100,0,100,0,225.4,0,0,96,4.139,4.139,0,0,0,0,5.558,74.48,36.08924,36.08924,6,P-GPS,
7800,2022-10-24 21:58:50,-34.9206368340556,-56.147509019503,37.073492,37.073492,0,37.073492,38.057744,14.3387854,60.053807696,60.944555756,23,5,8.275,37.073492,37.073492,14.3387854,60.053807696,-12.30317,-7.381902,-6.487126,211.5, -10.1, -2.1,0,0,1684,1024,1684,1024,100,0,100,0,225.4,0,0,96,4.139,4.139,0,0,0,0,5.558,74.48,37.073492,37.073492,6,P-GPS,
7900,2022-10-24 21:58:50,-34.920642062846,-56.147512749665,38.057744,38.057744,0,38.057744,39.041996,14.4730018,62.264109604,63.15452958,23,5,8.275,38.057744,38.057744,14.4730018,62.264109604,-12.30317,-7.605596,-6.487126,211.4, -10.7, -2.1,0,0,1684,1024,1684,1024,100,0,100,0,225.4,0,0,96,4.139,4.139,0,0,0,0,5.558,74.48,38.057744,38.057744,6,P-GPS,
8000,2022-10-24 21:58:50,-34.9206482006208,-56.147517271583,39.041996,39.041996,0,39.041996,40.026248,14.4730018,64.879923336,65.77099948,23,5,8.275,39.041996,39.041996,14.4730018,64.879923336,-12.30317,-7.605596,-6.487126,211.5, -11.2, -2.3,0,0,1684,1024,1684,1024,100,0,100,0,225.4,0,0,96,4.139,4.139,0,0,0,0,5.558,74.48,39.041996,39.041996,6,P-GPS,
8100,2022-10-24 21:58:50,-34.9206530793738,-56.1475209414588,40.354332,40.354332,0,40.354332,41.0105,14.5848488,66.970474584,67.862206896,23,5,8.275,40.354332,40.354332,14.5848488,66.970474584,-12.30317,-7.82929,-6.487126,211.4, -11.2, -2.7,0,0,1684,1024,1684,1024,100,0,100,0,225.4,0,0,96,4.139,4.139,0,0,0,0,5.558,74.48,40.354332,40.354332,6,P-GPS,
8200,2022-10-24 21:58:50,-34.9206581058854,-56.1475247918695,41.338584,41.338584,0,41.338584,41.994752,14.5848488,69.134844732,70.02788938,23,5,8.275,41.338584,41.338584,14.5848488,69.134844732,-12.30317,-7.82929,-6.487126,211.4, -11.2, -2.8,0,0,1684,1024,1684,1024,100,0,100,0,225.4,0,0,96,4.139,4.139,0,0,0,0,5.558,74.48,41.338584,41.338584,6,P-GPS,
8300,2022-10-24 21:58:50,-34.9206629307826,-56.147528512743,42.322836,42.322836,0,42.322836,42.979004,14.763804,71.216209628,72.110566612,23,5,8.275,42.322836,42.322836,14.763804,71.216209628,-12.526864,-7.82929,-6.487126,211.4, -11, -2.4,0,0,1684,1024,1684,1024,100,0,100,0,225.4,0,0,96,4.139,4.139,0,0,0,0,5.558,74.48,42.322836,42.322836,6,P-GPS,
8400,2022-10-24 21:58:50,-34.9206671172776,-56.1475323133366,43.307088,43.307088,0,43.307088,42.979004,14.8980204,73.108926224,74.014766148,23,5,8.275,43.307088,43.307088,14.8980204,73.108926224,-12.526864,-8.052984,-6.71082,211.5, -10.8, -2.9,0,0,1684,1024,1684,1024,100,0,100,0,225.4,0,0,96,4.139,4.139,0,0,0,0,5.558,74.48,43.307088,43.307088,6,P-GPS,
8500,2022-10-24 21:58:50,-34.9206720961865,-56.1475361198751,44.29134,44.29134,0,44.29134,42.979004,15.0769756,75.251970912,76.158795088,23,5,8.275,44.29134,44.29134,15.0769756,75.251970912,-12.750558,-8.052984,-6.71082,211.4, -10.9, -3.6,0,0,1684,1024,1684,1024,100,0,100,0,225.4,0,0,96,4.139,4.139,0,0,0,0,5.558,74.48,44.29134,44.29134,6,P-GPS,
8600,2022-10-24 21:58:51,-34.9206774157008,-56.1475401406858,45.275592,45.275592,0,45.275592,42.979004,15.2783002,77.534779384,78.442259728,23,5,8.282,45.275592,45.275592,15.2783002,77.534779384,-12.974252,-8.052984,-6.71082,211.5, -10.7, -3.2,0,0,1684,1024,1684,1024,100,0,100,0,225.4,0,0,96,4.129,4.125,0,0,0,0,5.417,74.48,45.275592,45.275592,6,P-GPS,
8700,2022-10-24 21:58:51,-34.9206826120004,-56.1475439897487,46.259844,46.259844,0,46.259844,42.979004,15.2783002,79.752627224,80.660435652,23,5,8.282,46.259844,46.259844,15.2783002,79.752627224,-12.974252,-8.052984,-6.71082,211.5, -10.7, -2.8,0,0,1684,1024,1684,1024,100,0,100,0,225.4,0,0,96,4.129,4.125,0,0,0,0,5.417,74.48,46.259844,46.259844,6,P-GPS,
8800,2022-10-24 21:58:51,-34.920688259809,-56.1475480546614,47.244096,47.244096,0,47.244096,42.979004,15.4572554,82.145343836,83.05282418,23,5,8.282,47.244096,47.244096,15.4572554,82.145343836,-13.197946,-8.052984,-6.71082,211.5, -10.7, -2.6,0,0,1684,1024,1684,1024,100,0,100,0,225.4,0,0,96,4.129,4.125,0,0,0,0,5.417,74.48,47.244096,47.244096,6,P-GPS,
8900,2022-10-24 21:58:51,-34.9206935531118,-56.1475519917191,48.228348,48.228348,0,48.228348,42.979004,15.4572554,84.407154932,85.31496336,23,5,8.282,48.228348,48.228348,15.4572554,84.407154932,-13.197946,-8.052984,-6.71082,211.5, -11.2, -2.9,0,0,1684,1024,1684,1024,100,0,100,0,225.4,0,0,96,4.129,4.125,0,0,0,0,5.417,74.48,48.228348,48.228348,6,P-GPS,
9000,2022-10-24 21:58:51,-34.9206991264158,-56.1475561779775,49.2126,49.2126,0,49.2126,42.979004,15.4572554,86.794950284,87.703086796,23,5,8.282,49.2126,49.2126,15.4572554,86.794950284,-13.197946,-8.052984,-6.487126,211.5, -11.7, -2.9,0,0,1684,1024,1684,1024,100,0,100,0,225.4,0,0,96,4.129,4.125,0,0,0,0,5.417,74.48,49.2126,49.2126,6,P-GPS,
9100,2022-10-24 21:58:51,-34.9207044763884,-56.1475601072827,50.196852,50.196852,0,50.196852,42.979004,15.5691024,89.073493664,89.981630176,23,5,8.282,50.196852,50.196852,15.5691024,89.073493664,-13.197946,-8.276678,-6.487126,211.4, -11.5, -2.5,0,0,1684,1024,1684,1024,100,0,100,0,225.5,0,0,96,4.129,4.125,0,0,0,0,5.417,74.48,50.196852,50.196852,6,P-GPS,
9200,2022-10-24 21:58:51,-34.9207101418623,-56.1475642182929,51.181104,51.181104,0,51.181104,42.979004,15.770427,91.478677468,92.38681398,23,5,8.282,51.181104,51.181104,15.770427,91.478677468,-13.42164,-8.276678,-6.487126,211.5, -11.5, -3,0,0,1684,1024,1684,1024,100,0,100,0,225.4,0,0,96,4.129,4.125,0,0,0,0,5.417,74.48,51.181104,51.181104,6,P-GPS,
9300,2022-10-24 21:58:51,-34.9207155449353,-56.1475681791099,52.165356,52.165356,0,52.165356,42.979004,15.882274,93.778546308,94.687010904,23,5,8.282,52.165356,52.165356,15.882274,93.778546308,-13.42164,-8.500372,-6.487126,211.5, -11.4, -3.3,0,0,1684,1024,1684,1024,100,0,100,0,225.4,0,0,96,4.129,4.125,0,0,0,0,5.417,74.48,52.165356,52.165356,6,P-GPS,
9400,2022-10-24 21:58:51,-34.9207211953754,-56.1475724187796,53.477692,53.477692,0,53.477692,42.979004,15.882274,96.198821976,97.107286572,23,5,8.282,53.477692,53.477692,15.882274,96.198821976,-13.42164,-8.500372,-6.487126,211.6, -11, -3.4,0,0,1684,1024,1684,1024,100,0,100,0,225.4,0,0,96,4.129,4.125,0,0,0,0,5.417,74.48,53.477692,53.477692,6,P-GPS,
9500,2022-10-24 21:58:52,-34.9207265783338,-56.1475764714887,54.461944,54.461944,0,54.461944,42.979004,16.0835986,98.506564832,99.415357512,23,5,8.282,54.461944,54.461944,16.0835986,98.506564832,-13.645334,-8.500372,-6.71082,211.5, -11, -3.5,0,0,1684,1024,1684,1024,100,0,100,0,225.5,0,0,96,4.129,4.125,0,0,0,0,5.417,74.48,54.461944,54.461944,6,P-GPS,
9600,2022-10-24 21:58:52,-34.9207322569656,-56.147580741918,55.446196,55.446196,0,55.446196,42.979004,16.0835986,100.93996386,101.849412708,22,5,8.282,55.446196,55.446196,16.0835986,100.93996386,-13.645334,-8.500372,-6.487126,211.5, -11.1, -3.4,0,0,1684,1024,1684,1024,100,0,100,0,225.4,0,0,96,4.129,4.125,0,0,0,0,5.417,74.48,55.446196,55.446196,6,P-GPS,
9700,2022-10-24 21:58:52,-34.9207374572256,-56.1475849208312,56.430448,56.430448,0,56.430448,42.979004,16.0835986,103.209977056,104.121722492,22,5,8.283,56.430448,56.430448,16.0835986,103.209977056,-13.645334,-8.500372,-6.487126,211.4, -11.2, -3.3,0,0,1684,1024,1684,1024,100,0,100,0,225.4,0,0,95,4.129,4.126,0,0,0,0,5.436,74.48,56.430448,56.430448,6,P-GPS,
9800,2022-10-24 21:58:52,-34.92074322791,-56.1475892384655,57.4147,57.4147,0,57.4147,42.979004,16.0835986,105.679793408,106.591866928,23,5,8.283,57.4147,57.4147,16.0835986,105.679793408,-13.645334,-8.500372,-6.71082,211.4, -11.1, -3.4,0,0,1684,1024,1684,1024,100,0,100,0,225.4,0,0,95,4.129,4.126,0,0,0,0,5.436,74.48,57.4147,57.4147,6,P-GPS,
9900,2022-10-24 21:58:52,-34.9207487236349,-56.1475934128651,58.398952,58.398952,0,58.398952,42.979004,16.2625538,108.04134204,108.954071728,23,5,8.283,58.398952,58.398952,16.2625538,108.04134204,-13.869028,-8.500372,-6.71082,211.4, -10.8, -3.5,0,0,1684,1024,1684,1024,100,0,100,0,225.4,0,0,95,4.129,4.126,0,0,0,0,5.436,74.48,58.398952,58.398952,6,P-GPS,
10000,2022-10-24 21:58:52,-34.920754521573,-56.1475978413864,59.383204,59.383204,0,59.383204,42.979004,16.2625538,110.536748944,111.449806716,23,5,8.283,59.383204,59.383204,16.2625538,110.536748944,-13.869028,-8.500372,-6.71082,211.5, -10.5, -2.9,0,0,1684,1024,1684,1024,100,0,100,0,225.4,0,0,95,4.129,4.126,0,0,0,0,5.436,74.48,59.383204,59.383204,6,P-GPS,
10100,2022-10-24 21:58:52,-34.9207598414781,-56.1476020104157,60.367456,60.367456,0,60.367456,42.979004,16.2625538,112.842523296,113.756893404,23,5,8.283,60.367456,60.367456,16.2625538,112.842523296,-13.869028,-8.500372,-6.71082,211.5, -11, -2.7,0,0,1684,1024,1684,1024,100,0,100,0,225.4,0,0,95,4.129,4.126,0,0,0,0,5.436,74.48,60.367456,60.367456,6,P-GPS,
10200,2022-10-24 21:58:52,-34.9207656593743,-56.1476062742521,61.351708,61.351708,0,61.351708,42.979004,16.4638784,115.319229412,116.23359952,23,5,8.283,61.351708,61.351708,16.4638784,115.319229412,-14.092722,-8.500372,-6.71082,211.4, -11.2, -2.4,0,0,1684,1024,1684,1024,100,0,100,0,225.4,0,0,95,4.129,4.126,0,0,0,0,5.436,74.48,61.351708,61.351708,6,P-GPS,
10300,2022-10-24 21:58:52,-34.9207712381369,-56.1476102951673,62.33596,62.33596,0,62.33596,42.979004,16.4638784,117.683402716,118.597772824,23,5,8.283,62.33596,62.33596,16.4638784,117.683402716,-14.092722,-8.500372,-6.71082,211.4, -11.1, -2.2,0,0,1684,1024,1684,1024,100,0,100,0,225.4,0,0,95,4.129,4.126,0,0,0,0,5.436,74.48,62.33596,62.33596,6,P-GPS,
10400,2022-10-24 21:58:52,-34.9207771454282,-56.1476145200736,63.320212,63.320212,0,63.320212,42.979004,16.4638784,120.181762376,121.096132484,23,5,8.283,63.320212,63.320212,16.4638784,120.181762376,-14.092722,-8.500372,-6.71082,211.4, -11, -2.2,0,0,1684,1024,1684,1024,100,0,100,0,225.4,0,0,95,4.129,4.126,0,0,0,0,5.436,74.48,63.320212,63.320212,6,P-GPS,
10500,2022-10-24 21:58:53,-34.9207827946177,-56.1476183459205,64.304464,64.304464,0,64.304464,42.979004,16.4638784,122.538061664,123.453744108,23,5,8.283,64.304464,64.304464,16.4638784,122.538061664,-14.092722,-8.500372,-6.71082,211.5, -10.7, -2.3,0,0,1684,1024,1684,1024,100,0,100,0,225.4,0,0,95,4.129,4.126,0,0,0,0,5.436,74.48,64.304464,64.304464,6,P-GPS,
10600,2022-10-24 21:58:53,-34.9207887475315,-56.1476226581531,65.288716,65.288716,0,65.288716,42.979004,16.4638784,125.064308464,125.979990908,23,5,8.283,65.288716,65.288716,16.4638784,125.064308464,-14.092722,-8.500372,-6.71082,211.4, -11, -2.5,0,0,1684,1024,1684,1024,100,0,100,0,225.4,0,0,95,4.129,4.126,0,0,0,0,5.436,74.48,65.288716,65.288716,6,P-GPS,
10700,2022-10-24 21:58:53,-34.9207944211867,-56.1476267786189,66.272968,66.272968,0,66.272968,42.979004,16.7546806,127.47375736,128.38911172,23,5,8.255,66.272968,66.272968,16.7546806,127.47375736,-14.316416,-8.724066,-6.71082,211.3, -10.8, -2.4,0,0,1684,1024,1684,1024,100,0,100,0,225.5,0,0,95,4.135,4.132,0,0,0,0,5.547,74.48,66.272968,66.272968,6,P-GPS,
10800,2022-10-24 21:58:53,-34.9208004075813,-56.1476311270651,67.25722,67.25722,0,67.25722,42.979004,16.7546806,130.015752192,130.931434636,23,5,8.255,67.25722,67.25722,16.7546806,130.015752192,-14.316416,-8.724066,-6.71082,211.3, -11.3, -2.4,0,0,1684,1024,1684,1024,100,0,100,0,225.4,0,0,95,4.135,4.132,0,0,0,0,5.547,74.48,67.25722,67.25722,6,P-GPS,
10900,2022-10-24 21:58:53,-34.9208061324088,-56.1476353541237,68.241472,68.241472,0,68.241472,42.979004,16.7546806,132.45735332,133.373035764,23,5,8.255,68.241472,68.241472,16.7546806,132.45735332,-14.316416,-8.724066,-6.487126,211.4, -11, -2.5,0,0,1684,1024,1684,1024,100,0,100,0,225.4,0,0,95,4.135,4.132,0,0,0,0,5.547,74.48,68.241472,68.241472,6,P-GPS,
11000,2022-10-24 21:58:53,-34.920812168256,-56.1476400607976,69.225724,69.225724,0,69.225724,42.979004,16.9560052,135.069886212,135.986880992,23,5,8.255,69.225724,69.225724,16.9560052,135.069886212,-14.54011,-8.724066,-6.487126,211.4, -10.4, -2.4,0,0,1684,1024,1684,1024,100,0,100,0,225.4,0,0,95,4.135,4.132,0,0,0,0,5.547,74.48,69.225724,69.225724,6,P-GPS,
11100,2022-10-24 21:58:53,-34.9208180173923,-56.147644367012,70.209976,70.209976,0,70.209976,42.979004,17.0678522,137.562668444,138.479663224,23,5,8.255,70.209976,70.209976,17.0678522,137.562668444,-14.54011,-8.94776,-6.487126,211.4, -10, -2,0,0,1684,1024,1684,1024,100,0,100,0,225.4,0,0,95,4.135,4.132,0,0,0,0,5.547,74.48,70.209976,70.209976,6,P-GPS,
11200,2022-10-24 21:58:53,-34.9208242232231,-56.1476489174223,71.194228,71.194228,0,71.194228,42.979004,17.2691768,140.204728896,141.121395592,23,5,8.255,71.194228,71.194228,17.2691768,140.204728896,-14.763804,-8.94776,-6.487126,211.4, -9.8, -2.6,0,0,1684,1024,1684,1024,100,0,100,0,225.4,0,0,95,4.135,4.132,0,0,0,0,5.547,74.48,71.194228,71.194228,6,P-GPS,
11300,2022-10-24 21:58:53,-34.9208301671739,-56.1476532161558,72.17848,72.17848,0,72.17848,42.979004,17.2691768,142.725726352,143.642721132,23,5,8.255,72.17848,72.17848,17.2691768,142.725726352,-14.763804,-8.94776,-6.487126,211.3, -9.4, -2.5,0,0,1684,1024,1684,1024,100,0,100,0,225.4,0,0,95,4.135,4.132,0,0,0,0,5.547,74.48,72.17848,72.17848,6,P-GPS,
11400,2022-10-24 21:58:53,-34.9208367190164,-56.1476577340512,73.162732,73.162732,0,73.162732,42.979004,17.2691768,145.471133264,146.388784212,22,5,8.255,73.162732,73.162732,17.2691768,145.471133264,-14.763804,-8.94776,-6.487126,211.3, -9.2, -2.7,0,0,1684,1024,1684,1024,100,0,100,0,225.4,0,0,95,4.135,4.132,0,0,0,0,5.547,74.48,73.162732,73.162732,6,P-GPS,
11500,2022-10-24 21:58:54,-34.920842650096,-56.1476620719655,74.146984,74.146984,0,74.146984,42.979004,17.3810238,147.994427308,148.912078256,22,5,8.255,74.146984,74.146984,17.3810238,147.994427308,-14.763804,-9.171454,-6.71082,211.4, -8.8, -3.3,0,0,1684,1024,1684,1024,100,0,100,0,225.4,0,0,95,4.135,4.132,0,0,0,0,5.547,74.48,74.146984,74.146984,6,P-GPS,
11600,2022-10-24 21:58:54,-34.9208488649939,-56.1476666666135,75.131236,75.131236,0,75.131236,42.979004,17.0678522,150.646002196,151.563653144,22,5,8.255,75.131236,75.131236,17.3810238,150.646002196,-14.54011,-8.94776,-6.71082,211.3, -8.8, -3.5,0,0,1684,1024,1684,1024,100,0,100,0,225.4,0,0,95,4.135,4.132,0,0,0,0,5.547,74.48,75.131236,75.131236,6,P-GPS,
11700,2022-10-24 21:58:54,-34.9208547114727,-56.1476710043816,76.115488,76.115488,0,76.115488,42.979004,17.0678522,153.142721436,154.060372384,22,5,8.255,76.115488,76.115488,17.3810238,153.142721436,-14.54011,-8.94776,-6.71082,211.3, -9.1, -3.5,0,0,1684,1024,1684,1024,100,0,100,0,225.4,0,0,95,4.126,4.125,0,0,0,0,5.547,74.48,76.115488,76.115488,6,P-GPS,
11800,2022-10-24 21:58:54,-34.9208606237405,-56.1476754240219,77.427824,77.427824,0,77.427824,42.979004,17.0678522,155.67257716,156.590556192,23,5,8.255,77.427824,77.427824,17.3810238,155.67257716,-14.54011,-9.171454,-6.71082,211.4, -8.9, -3.8,0,0,1684,1024,1684,1024,100,0,100,0,225.4,0,0,95,4.126,4.125,0,0,0,0,5.547,74.48,77.427824,77.427824,6,P-GPS,
11900,2022-10-24 21:58:54,-34.9208664050033,-56.1476797552911,78.412076,78.412076,0,78.412076,42.979004,17.3810238,158.147642856,159.065949972,23,5,8.255,78.412076,78.412076,17.3810238,158.147642856,-14.763804,-9.171454,-6.71082,211.4, -8.9, -3.6,0,0,1684,1024,1684,1024,100,0,100,0,225.4,0,0,95,4.126,4.125,0,0,0,0,5.547,74.48,78.412076,78.412076,6,P-GPS,
12000,2022-10-24 21:58:54,-34.9208724755038,-56.1476843212902,79.396328,79.396328,0,79.396328,42.979004,17.3810238,160.74967706,161.66831226,23,5,8.255,79.396328,79.396328,17.3810238,160.74967706,-14.763804,-9.171454,-6.71082,211.3, -9, -3.6,0,0,1684,1024,1684,1024,100,0,100,0,225.4,0,0,95,4.126,4.125,0,0,0,0,5.547,74.48,79.396328,79.396328,6,P-GPS,
12100,2022-10-24 21:58:54,-34.9208783001744,-56.1476886892327,80.38058,80.38058,0,80.38058,42.979004,17.3810238,163.244099712,164.162734912,23,5,8.255,80.38058,80.38058,17.3810238,163.244099712,-14.763804,-9.171454,-6.71082,211.4, -9.5, -3.9,0,0,1684,1024,1684,1024,100,0,100,0,225.4,0,0,95,4.126,4.125,0,0,0,0,5.547,74.48,80.38058,80.38058,6,P-GPS,
12200,2022-10-24 21:58:54,-34.9208842645004,-56.1476932905467,81.364832,81.364832,0,81.364832,42.979004,17.3810238,165.818246776,166.737866228,23,5,8.255,81.364832,81.364832,17.3810238,165.818246776,-14.763804,-9.171454,-6.71082,211.4, -9.6, -3.9,0,0,1684,1024,1684,1024,100,0,100,0,225.4,0,0,95,4.126,4.125,0,0,0,0,5.547,74.48,81.364832,81.364832,6,P-GPS,
12300,2022-10-24 21:58:54,-34.9208901341681,-56.1476977271758,82.349084,82.349084,0,82.349084,42.979004,17.3810238,168.337603812,169.257223264,23,5,8.255,82.349084,82.349084,17.3810238,168.337603812,-14.763804,-9.171454,-6.71082,211.4, -9.2, -4.3,0,0,1684,1024,1684,1024,100,0,100,0,225.4,0,0,95,4.126,4.125,0,0,0,0,5.547,74.48,82.349084,82.349084,6,P-GPS,
12400,2022-10-24 21:58:54,-34.9208963076645,-56.1477024221477,83.333336,83.333336,0,83.333336,42.979004,17.4928708,170.991475288,171.911750908,23,5,8.255,83.333336,83.333336,17.4928708,170.991475288,-14.763804,-9.395148,-6.487126,211.4, -9.1, -4.6,0,0,1684,1024,1684,1024,100,0,100,0,225.4,0,0,95,4.126,4.125,0,0,0,0,5.547,74.48,83.333336,83.333336,6,P-GPS,
12500,2022-10-24 21:58:54,-34.9209022303544,-56.1477069625068,84.317588,84.317588,0,84.317588,42.979004,17.4928708,173.54331264,174.463916344,23,5,8.255,84.317588,84.317588,17.4928708,173.54331264,-14.763804,-9.395148,-6.487126,211.4, -8.4, -5.1,0,0,1684,1024,1684,1024,100,0,100,0,225.4,0,0,95,4.126,4.125,0,0,0,0,5.547,74.48,84.317588,84.317588,6,P-GPS,
12600,2022-10-24 21:58:55,-34.9209084891812,-56.1477117702359,85.30184,85.30184,0,85.30184,42.979004,17.4928708,176.241475456,177.162735328,23,5,8.255,85.30184,85.30184,17.4928708,176.241475456,-14.763804,-9.395148,-6.487126,211.4, -8.5, -5.2,0,0,1684,1024,1684,1024,100,0,100,0,225.4,0,0,95,4.126,4.125,0,0,0,0,5.547,74.48,85.30184,85.30184,6,P-GPS,
12700,2022-10-24 21:58:55,-34.9209144840437,-56.1477166526907,86.286092,86.286092,0,86.286092,42.979004,17.6941954,178.868444044,179.792984756,23,5,8.266,86.286092,86.286092,17.6941954,178.868444044,-14.987498,-9.395148,-6.71082,211.4, -8.9, -5,0,0,1684,1024,1684,1024,100,0,100,0,225.4,0,0,95,4.128,4.122,0,0,0,0,5.337,74.48,86.286092,86.286092,6,P-GPS,
12800,2022-10-24 21:58:55,-34.9209207746838,-56.1477214591243,87.270344,87.270344,0,87.270344,42.979004,18.007367,181.57644938,182.501318176,23,5,8.266,87.270344,87.270344,18.007367,181.57644938,-15.211192,-9.618842,-6.71082,211.4, -8.7, -4.9,0,0,1684,1024,1684,1024,100,0,100,0,225.4,0,0,95,4.128,4.122,0,0,0,0,5.337,74.48,87.270344,87.270344,6,P-GPS,
12900,2022-10-24 21:58:55,-34.9209268553718,-56.1477261240053,88.254596,88.254596,0,88.254596,42.979004,18.007367,184.196856288,185.122053168,23,5,8.266,88.254596,88.254596,18.007367,184.196856288,-15.211192,-9.618842,-6.71082,211.4, -7.8, -5.3,0,0,1684,1024,1684,1024,100,0,100,0,225.4,0,0,95,4.128,4.122,0,0,0,0,5.337,74.48,88.254596,88.254596,6,P-GPS,
13000,2022-10-24 21:58:55,-34.9209333065113,-56.1477310725974,89.238848,89.238848,0,89.238848,42.979004,17.8731506,186.977040104,187.902565068,23,5,8.266,89.238848,89.238848,18.007367,186.977040104,-15.211192,-9.395148,-6.71082,211.4, -7.3, -5.1,0,0,1684,1024,1684,1024,100,0,100,0,225.4,0,0,95,4.128,4.122,0,0,0,0,5.337,74.48,89.238848,89.238848,6,P-GPS,
13100,2022-10-24 21:58:55,-34.9209404422227,-56.1477364162786,90.2231,90.2231,0,90.2231,42.979004,17.8731506,190.031830228,190.957683276,23,5,8.266,90.2231,90.2231,18.007367,190.031830228,-15.211192,-9.395148,-6.71082,211.3, -6.9, -4.8,0,0,1278,1024,1684,1024,38,0,100,0,225.4,0,0,95,4.128,4.122,0,0,0,0,5.337,74.48,90.2231,90.2231,6,P-GPS,
13200,2022-10-24 21:58:55,-34.9209471256174,-56.1477413197343,91.207352,91.207352,0,91.207352,42.979004,17.8731506,192.877630844,193.803483892,23,5,8.266,91.207352,91.207352,18.007367,192.877630844,-15.211192,-9.395148,-6.71082,211.4, -6.9, -4.6,0,0,1024,1024,1684,1024,0,0,100,0,225.4,0,0,95,4.128,4.122,0,0,0,0,5.337,74.48,91.207352,91.207352,6,P-GPS,
13300,2022-10-24 21:58:55,-34.9209532513286,-56.1477458293965,92.191604,92.191604,0,92.191604,42.979004,17.8731506,195.488195232,196.41404828,23,5,8.266,92.191604,92.191604,18.007367,195.488195232,-15.211192,-9.395148,-6.487126,210.8, 3.7, -4.5,0,0,1024,1024,1684,1024,0,0,100,0,225.4,0,0,95,4.128,4.122,0,0,0,0,5.337,74.48,92.191604,92.191604,6,P-GPS,
13400,2022-10-24 21:58:55,-34.9209594266488,-56.1477503904013,93.175856,93.175856,0,93.175856,42.979004,16.888897,198.122053584,199.047906632,23,5,8.266,93.175856,93.175856,18.007367,198.122053584,-14.316416,-8.94776,-6.71082,210.6, 20, -1.1,0,0,1024,1024,1024,1024,0,0,0,0,225.4,0,0,95,4.128,4.122,0,0,0,0,5.337,74.48,93.175856,93.175856,6,P-GPS,
13500,2022-10-24 21:58:56,-34.9209645690405,-56.1477541610816,94.160108,94.160108,0,94.160108,42.979004,15.7033188,200.311358116,201.237211164,23,5,8.266,94.160108,94.160108,18.007367,200.311358116,-13.197946,-8.500372,-6.934514,210.7, 21, -1.3,0,0,1024,1024,1024,1024,0,0,0,0,225.4,0,0,95,4.128,4.122,0,0,0,0,5.337,74.48,94.160108,94.160108,6,P-GPS,
13600,2022-10-24 21:58:56,-34.9209699267515,-56.1477582245419,94.816276,94.816276,0,94.816276,42.979004,14.4730018,202.612867376,203.539048508,23,5,8.266,94.816276,94.816276,18.007367,202.612867376,-12.30317,-7.605596,-6.71082,210.9, 19.8, -1.3,0,0,1024,1024,1024,1024,0,0,0,0,225.4,0,0,95,4.128,4.122,0,0,0,0,5.337,74.48,94.816276,94.816276,6,P-GPS,
13700,2022-10-24 21:58:56,-34.920974694575,-56.1477617984821,95.800528,95.800528,0,95.800528,42.979004,13.7795504,204.654862192,205.581043324,23,5,8.25,95.800528,95.800528,18.007367,204.654862192,-11.632088,-7.381902,-6.039738,211, 19.3, -1.4,0,0,1024,1024,1024,1024,0,0,0,0,225.4,0,0,95,4.106,4.108,0,0,0,0,5.395,74.66,95.800528,95.800528,6,P-GPS,
13800,2022-10-24 21:58:56,-34.9209794426487,-56.1477653519647,96.456696,96.456696,0,96.456696,42.979004,12.9071438,206.687014488,207.613523704,23,5,8.25,96.456696,96.456696,18.007367,206.687014488,-10.737312,-7.158208,-5.144962,211, 19.1, -1.3,0,0,1024,1024,1024,1024,0,0,0,0,225.4,0,0,95,4.106,4.108,0,0,0,0,5.395,74.66,96.456696,96.456696,6,P-GPS,
13900,2022-10-24 21:58:56,-34.9209827288747,-56.1477675933176,97.112864,97.112864,0,97.112864,42.979004,12.2808006,208.060046028,208.987211412,23,5,8.25,97.112864,97.112864,18.007367,208.060046028,-10.289924,-6.71082,-4.250186,211.1, 19.3, -1.3,0,0,1024,1024,1024,1024,0,0,0,0,225.4,0,0,95,4.106,4.108,0,0,0,0,5.395,74.66,97.112864,97.112864,6,P-GPS,
14000,2022-10-24 21:58:56,-34.9209865205177,-56.1477707202201,97.769032,97.769032,0,97.769032,42.979004,11.6097186,209.728025084,210.657158972,23,5,8.25,97.769032,97.769032,18.007367,209.728025084,-9.618842,-6.487126,-3.35541,210.9, 19.3, -1.3,0,0,1024,1024,1024,1024,0,0,0,0,225.4,0,0,95,4.106,4.108,0,0,0,0,5.395,74.66,97.769032,97.769032,6,P-GPS,
14100,2022-10-24 21:58:56,-34.9209899010111,-56.1477735446257,98.4252,98.4252,0,98.4252,42.979004,11.0952224,211.2204792,212.15223776,23,5,8.25,98.4252,98.4252,18.007367,211.2204792,-9.171454,-6.263432,-2.460634,210.7, 19.1, -1.5,0,0,1024,1024,1024,1024,0,0,0,0,225.4,0,0,95,4.106,4.108,0,0,0,0,5.395,74.66,98.4252,98.4252,6,P-GPS,
14200,2022-10-24 21:58:56,-34.9209932762413,-56.1477764000416,98.4252,98.4252,0,98.4252,42.979004,10.4241404,212.716214156,213.650925472,23,5,8.25,98.4252,98.4252,18.007367,212.716214156,-8.500372,-6.039738,-1.565858,210.6, 19.3, -1.5,0,0,1024,1024,1024,1024,0,0,0,0,225.4,0,0,95,4.106,4.108,0,0,0,0,5.395,74.66,98.4252,98.4252,6,P-GPS,
14300,2022-10-24 21:58:56,-34.9209962301085,-56.1477790850678,98.753284,98.753284,0,98.753284,42.979004,9.9320136,214.054140708,214.99508562,23,5,8.25,98.753284,98.753284,18.007367,214.054140708,-8.052984,-5.816044,-0.894776,210.6, 19.5, -1.4,0,0,1024,1024,1024,1024,0,0,0,0,225.4,0,0,95,4.106,4.108,0,0,0,0,5.395,74.66,98.753284,98.753284,6,P-GPS,
14400,2022-10-24 21:58:56,-34.9209983168097,-56.1477815658104,99.081368,99.081368,0,99.081368,42.979004,9.0819764,215.089901896,216.05807778,23,5,8.25,99.081368,99.081368,18.007367,215.089901896,-7.158208,-5.59235,-0.671082,210.5, 19.2, -1.6,0,0,1024,1024,1024,1024,0,0,0,0,225.4,0,0,95,4.106,4.108,0,0,0,0,5.395,74.66,99.081368,99.081368,6,P-GPS,
14500,2022-10-24 21:58:57,-34.9210008124717,-56.1477840384034,99.081368,99.081368,0,99.081368,42.979004,8.4556332,216.251975424,217.231306164,23,5,8.25,99.081368,99.081368,18.007367,216.251975424,-6.71082,-5.144962,-0.223694,210.4, 18.6, -2,0,0,1024,1024,1024,1024,0,0,0,0,225.4,0,0,95,4.106,4.108,0,0,0,0,5.395,74.66,99.081368,99.081368,6,P-GPS,
14600,2022-10-24 21:58:57,-34.9210032090202,-56.1477864748037,99.081368,99.081368,0,99.081368,42.979004,7.6279654,217.377959712,218.369757644,23,5,8.25,99.081368,99.081368,18.007367,217.377959712,-5.816044,-4.921268,-0.223694,210.5, 18.2, -2.4,0,0,1024,1024,1024,1024,0,0,0,0,225.4,0,0,95,4.106,4.108,0,0,0,0,5.395,74.66,99.081368,99.081368,6,P-GPS,
14700,2022-10-24 21:58:57,-34.9210052441322,-56.1477886875703,99.409452,99.409452,0,99.409452,42.979004,6.9792528,218.356634284,219.364508332,23,5,8.236,99.409452,99.409452,18.007367,218.356634284,-5.368656,-4.47388,0,210.5, 18, -2.9,0,0,1024,1024,1024,1024,0,0,0,0,225.4,0,0,95,4.174,4.17,0,0,0,0,5.516,74.66,99.409452,99.409452,6,P-GPS,
14800,2022-10-24 21:58:57,-34.9210069539203,-56.1477910151419,99.409452,99.409452,0,99.409452,42.979004,6.1963238,219.25197552,220.299219648,23,5,8.236,99.409452,99.409452,18.007367,219.25197552,-4.697574,-4.026492,0,210.5, 18.1, -3.2,0,0,1024,1024,1024,1024,0,0,0,0,225.4,0,0,95,4.174,4.17,0,0,0,0,5.516,74.66,99.409452,99.409452,6,P-GPS,
14900,2022-10-24 21:58:57,-34.921008500916,-56.1477928686568,99.409452,99.409452,0,99.409452,42.979004,5.5476112,220.022644836,221.090558256,23,5,8.236,99.409452,99.409452,18.007367,220.022644836,-4.026492,-3.802798,0,210.6, 17.8, -3.7,0,0,1024,1024,1024,1024,0,0,0,0,225.4,0,0,95,4.174,4.17,0,0,0,0,5.516,74.66,99.409452,99.409452,6,P-GPS,
15000,2022-10-24 21:58:57,-34.9210098873602,-56.1477946021842,99.409452,99.409452,0,99.409452,42.979004,4.8988986,220.72507268,221.814967728,23,5,8.236,99.409452,99.409452,18.007367,220.72507268,-3.579104,-3.35541,0,210.5, 18.1, -4.1,0,0,1024,1024,1024,1024,0,0,0,0,225.4,0,0,95,4.174,4.17,0,0,0,0,5.516,74.66,99.409452,99.409452,6,P-GPS,
15100,2022-10-24 21:58:57,-34.9210110505643,-56.1477961315952,99.409452,99.409452,0,99.409452,42.979004,4.2725554,221.326122568,222.438983496,23,5,8.236,99.409452,99.409452,18.007367,221.326122568,-3.131716,-2.908022,0,210.5, 18.1, -4.6,0,0,1024,1024,1024,1024,0,0,0,0,225.4,0,0,95,4.174,4.17,0,0,0,0,5.516,74.66,99.409452,99.409452,6,P-GPS,
15200,2022-10-24 21:58:57,-34.9210119773443,-56.1477976213864,99.409452,99.409452,0,99.409452,42.979004,3.6462122,221.847776128,222.998366716,23,5,8.236,99.409452,99.409452,18.007367,221.847776128,-2.460634,-2.684328,0,210.5, 18.1, -5,0,0,1024,1024,1024,1024,0,0,0,0,225.4,0,0,95,4.174,4.17,0,0,0,0,5.516,74.66,99.409452,99.409452,6,P-GPS,
15300,2022-10-24 21:58:57,-34.9210128359642,-56.1477988704089,99.409452,99.409452,0,99.409452,42.979004,3.019869,222.310702652,223.48589954,23,5,8.236,99.409452,99.409452,18.007367,222.310702652,-2.013246,-2.23694,0,210.4, 18, -5.6,0,0,1024,1024,1024,1024,0,0,0,0,225.4,0,0,95,4.174,4.17,0,0,0,0,5.516,74.66,99.409452,99.409452,6,P-GPS,
15400,2022-10-24 21:58:57,-34.9210135765545,-56.1478000189194,99.409452,99.409452,0,99.409452,42.979004,2.5501116,222.721135736,223.923235512,23,5,8.236,99.409452,99.409452,18.007367,222.721135736,-1.565858,-2.013246,0,210.3, 17.9, -6.1,0,0,1024,1024,1024,1024,0,0,0,0,225.4,0,0,95,4.174,4.17,0,0,0,0,5.516,74.66,99.409452,99.409452,6,P-GPS,
15500,2022-10-24 21:58:58,-34.9210141261087,-56.1478009402019,99.409452,99.409452,0,99.409452,42.979004,1.9237684,223.036752544,224.263786704,23,5,8.236,99.409452,99.409452,18.007367,223.036752544,-1.11847,-1.565858,0,210.4, 17.2, -6.7,0,0,1024,1024,1024,1024,0,0,0,0,225.4,0,0,95,4.174,4.17,0,0,0,0,5.516,74.66,99.409452,99.409452,6,P-GPS,
15600,2022-10-24 21:58:58,-34.921014765032,-56.1478019398462,99.409452,99.409452,0,99.409452,42.979004,1.6105968,223.3923956,224.643051808,23,5,8.236,99.409452,99.409452,18.007367,223.3923956,-0.894776,-1.342164,0,210.7, 13.8, -5.9,0,0,1024,1024,1024,1024,0,0,0,0,225.4,0,0,95,4.174,4.17,0,0,0,0,5.516,74.66,99.409452,99.409452,6,P-GPS,
15700,2022-10-24 21:58:58,-34.9210150265731,-56.1478025132865,99.409452,99.409452,0,99.409452,42.979004,1.2079476,223.563655448,224.83924604,23,5,8.369,99.409452,99.409452,18.007367,223.563655448,-0.447388,-1.11847,0,211, 10.9, -5.2,0,0,1024,1024,1024,1024,0,0,0,0,225.4,0,0,95,4.15,4.146,0,0,0,0,4.094,74.66,99.409452,99.409452,6,P-GPS,
15800,2022-10-24 21:58:58,-34.9210151951497,-56.1478029862984,99.409452,99.409452,0,99.409452,42.979004,1.2079476,223.690623956,224.993773604,23,5,8.369,99.409452,99.409452,18.007367,223.690623956,-0.447388,-0.894776,0,211, 9, -4.7,0,0,1024,1024,1024,1024,0,0,0,0,225.4,0,0,95,4.15,4.146,0,0,0,0,4.094,74.66,99.409452,99.409452,6,P-GPS,
15900,2022-10-24 21:58:58,-34.9210152346492,-56.1478033399499,99.737536,99.737536,0,99.737536,42.979004,0.9171454,223.758865428,225.100400904,23,5,8.369,99.737536,99.737536,18.007367,223.758865428,-0.223694,-0.894776,0,210.6, 7.9, -4.5,0,0,1024,1024,1024,1024,0,0,0,0,225.4,0,0,95,4.15,4.146,0,0,0,0,4.094,74.66,99.737536,99.737536,6,P-GPS,
16000,2022-10-24 21:58:58,-34.9210151855093,-56.1478036377661,99.737536,99.737536,0,99.737536,42.979004,0.671082,223.790689576,225.191280172,23,5,8.369,99.737536,99.737536,18.007367,223.790689576,0,-0.671082,0,210.9, 6.9, -4.5,0,0,1024,1024,1024,1024,0,0,0,0,225.4,0,0,95,4.15,4.146,0,0,0,0,4.094,74.66,99.737536,99.737536,6,P-GPS,
16100,2022-10-24 21:58:58,-34.9210148678976,-56.1478037671986,99.737536,99.737536,0,99.737536,42.979004,0.671082,223.712605584,225.313655504,23,5,8.369,99.737536,99.737536,18.007367,223.790689576,0,-0.671082,0,211.1, 5.9, -4.6,0,0,1024,1024,1024,1024,0,0,0,0,225.4,0,0,95,4.15,4.146,0,0,0,0,4.094,74.66,99.737536,99.737536,6,P-GPS,
16200,2022-10-24 21:58:58,-34.9210147896801,-56.1478040299088,99.737536,99.737536,0,99.737536,42.979004,0.671082,223.729994036,225.39698884,23,5,8.369,99.737536,99.737536,18.007367,223.790689576,0,-0.671082,0,211, 5.7, -4.4,0,0,1024,1024,1024,1024,0,0,0,0,225.4,0,0,95,4.15,4.146,0,0,0,0,4.094,74.66,99.737536,99.737536,6,P-GPS,
16300,2022-10-24 21:58:58,-34.9210147637814,-56.1478042914069,99.737536,99.737536,0,99.737536,42.979004,0.671082,223.763458604,225.476057084,23,5,8.369,99.737536,99.737536,18.007367,223.790689576,0,-0.671082,0,211.1, 5.6, -4.3,0,0,1024,1024,1024,1024,0,0,0,0,225.4,0,0,95,4.15,4.146,0,0,0,0,4.094,74.66,99.737536,99.737536,6,P-GPS,
16400,2022-10-24 21:58:58,-34.9210147695656,-56.1478045651086,99.737536,99.737536,0,99.737536,42.979004,0.671082,223.808406112,225.55775,23,5,8.369,99.737536,99.737536,18.007367,223.808406112,0,-0.671082,0,211, 5.2, -4.3,0,0,1024,1024,1024,1024,0,0,0,0,225.4,0,0,95,4.15,4.146,0,0,0,0,4.094,74.66,99.737536,99.737536,6,P-GPS,
16500,2022-10-24 21:58:58,-34.9210149464276,-56.1478051148941,99.737536,99.737536,0,99.737536,42.979004,0.447388,223.9501384,225.734587276,23,5,8.369,99.737536,99.737536,18.007367,223.9501384,0,-0.447388,0,211, 5.5, -4.2,0,0,1024,1024,1024,1024,0,0,0,0,225.4,0,0,95,4.15,4.146,0,0,0,0,4.094,74.66,99.737536,99.737536,6,P-GPS,
16600,2022-10-24 21:58:59,-34.9210149601326,-56.1478054109967,99.737536,99.737536,0,99.737536,42.979004,0.447388,224.001319504,225.823169956,23,5,8.369,99.737536,99.737536,18.007367,224.001319504,0,-0.447388,0,211, 5.3, -4.1,0,0,1024,1024,1024,1024,0,0,0,0,225.4,0,0,95,4.15,4.146,0,0,0,0,4.094,74.66,99.737536,99.737536,6,P-GPS,
16700,2022-10-24 21:58:59,-34.921014964562,-56.1478057010812,99.737536,99.737536,0,99.737536,42.979004,0.447388,224.048891684,225.910112216,23,5,8.302,99.737536,99.737536,18.007367,224.048891684,0,-0.447388,0,211, 5.2, -3.9,0,0,1024,1024,1024,1024,0,0,0,0,225.4,0,0,95,4.158,4.154,0,0,0,0,3.906,74.84,99.737536,99.737536,6,P-GPS,
16800,2022-10-24 21:58:59,-34.9210149623213,-56.1478060010288,99.737536,99.737536,0,99.737536,42.979004,0.447388,224.095807696,225.999679148,23,5,8.302,99.737536,99.737536,18.007367,224.095807696,0,-0.447388,0,211, 5, -3.8,0,0,1024,1024,1024,1024,0,0,0,0,225.4,0,0,95,4.158,4.154,0,0,0,0,3.906,74.84,99.737536,99.737536,6,P-GPS,
16900,2022-10-24 21:58:59,-34.9210150661769,-56.147806422134,99.737536,99.737536,0,99.737536,42.979004,0.447388,224.19456098,226.131240832,23,5,8.302,99.737536,99.737536,18.007367,224.19456098,0,-0.447388,0,211, 4.6, -4.1,0,0,1024,1024,1024,1024,0,0,0,0,225.4,0,0,95,4.158,4.154,0,0,0,0,3.906,74.84,99.737536,99.737536,6,P-GPS,
17000,2022-10-24 21:58:59,-34.9210151235502,-56.1478066452245,99.409452,99.409452,0,99.409452,42.979004,0.447388,224.248038672,226.201122724,23,5,8.302,99.737536,99.737536,18.007367,224.248038672,0,-0.447388,0,210.9, 4.9, -4.5,0,0,1024,1024,1024,1024,0,0,0,0,225.4,0,0,95,4.158,4.154,0,0,0,0,3.906,74.84,99.409452,99.409452,6,P-GPS,
17100,2022-10-24 21:58:59,-34.9210151710747,-56.1478068839873,99.409452,99.409452,0,99.409452,42.979004,0.447388,224.300532112,226.27461354,23,5,8.302,99.737536,99.737536,18.007367,224.300532112,0,-0.447388,0,211, 5, -4.5,0,0,1024,1024,1024,1024,0,0,0,0,225.4,0,0,95,4.158,4.154,0,0,0,0,3.906,74.84,99.409452,99.409452,6,P-GPS,
17200,2022-10-24 21:58:59,-34.9210152162022,-56.1478071413897,99.409452,99.409452,0,99.409452,42.979004,0.223694,224.35532214,226.3533537,23,5,8.302,99.737536,99.737536,18.007367,224.35532214,0,-0.223694,0,211, 5.3, -4.5,0,0,1024,1024,1024,1024,0,0,0,0,225.4,0,0,95,4.158,4.154,0,0,0,0,3.906,74.84,99.409452,99.409452,6,P-GPS,
17300,2022-10-24 21:58:59,-34.9210153635699,-56.1478075213289,99.081368,99.081368,0,99.081368,42.979004,0.223694,224.461293272,226.479337956,23,5,8.302,99.737536,99.737536,18.007367,224.461293272,0,-0.223694,0,210.9, 5.4, -4.5,0,0,1024,1024,1024,1024,0,0,0,0,225.4,0,0,95,4.158,4.154,0,0,0,0,3.906,74.84,99.081368,99.081368,6,P-GPS,
17400,2022-10-24 21:58:59,-34.9210154517924,-56.1478076952709,99.081368,99.081368,0,99.081368,42.979004,0.223694,224.516411384,226.54036158,23,5,8.302,99.737536,99.737536,18.007367,224.516411384,0,-0.223694,0,210.9, 5.6, -4.4,0,0,1024,1024,1024,1233,0,0,0,32,225.4,0,0,95,4.158,4.154,0,0,0,0,3.906,74.84,99.081368,99.081368,6,P-GPS,
