time(millisecond),datetime(utc),latitude,longitude,height_above_takeoff(feet),height_above_ground_at_drone_location(feet),ground_elevation_at_drone_location(feet),altitude_above_seaLevel(feet),height_sonar(feet),speed(mph),distance(feet),mileage(feet),satellites,gpslevel,voltage(v),max_altitude(feet),max_ascent(feet),max_speed(mph),max_distance(feet), xSpeed(mph), ySpeed(mph), zSpeed(mph), compass_heading(degrees), pitch(degrees), roll(degrees),isPhoto,isVideo,rc_elevator,rc_aileron,rc_throttle,rc_rudder,rc_elevator(percent),rc_aileron(percent),rc_throttle(percent),rc_rudder(percent),gimbal_heading(degrees),gimbal_pitch(degrees),gimbal_roll(degrees),battery_percent,voltageCell1,voltageCell2,voltageCell3,voltageCell4,voltageCell5,voltageCell6,current(A),battery_temperature(f),altitude(feet),ascent(feet),flycStateRaw,flycState,message
0,2023-12-26 16:52:03,-34.953707630854,-54.9408495598786,0,0,14.284993567356,14.284993567356,0.328084,0,0,0,17,5,0,14.284993567356,0,0,0,0,0.223694,-0.223694,289.6, -1.4, -1.5,0,0,364,364,364,1684,-100,-100,-100,100,300,0,0,95,4.273,4.269,0,0,0,0,0,77,14.284993567356,0,41,Motors_Started,"Setting new Return-To-Home altitude to 100m (328 ft). Data Recorder File Index is 27. Setting new Maximum Flight Altitude to 120m (394 ft) Error de calibración del estabilizador. Reinicia la aeronave o contacta con la Asistencia DJI (Code: 40011)"
100,2023-12-26 16:52:03,-34.9537075444504,-54.9408508494824,0,0.065616800000002,14.219376767356,14.284993567356,0.328084,0.223694,0.3869258654,0.3869258654,17,5,0,14.284993567356,0,0.223694,0.3869258654,0,0.223694,-0.447388,290.8, -2.5, -1.2,0,0,364,364,364,1684,-100,-100,-100,100,301,0,0,95,4.273,4.269,0,0,0,0,0,77,14.284993567356,0,41,Motors_Started,
200,2023-12-26 16:52:03,-34.9537074978508,-54.9408509148728,0,0,14.284993567356,14.284993567356,0.328084,0.223694,0.4080872834,0.41283793972,17,5,0,14.284993567356,0,0.223694,0.4080872834,0,0.223694,-0.447388,292.1, -1.4, -1,0,0,364,364,364,1684,-100,-100,-100,100,302.5,0,0,95,4.273,4.269,0,0,0,0,0,77,14.284993567356,0,41,Motors_Started,
300,2023-12-26 16:52:03,-34.9537074934378,-54.9408507942935,0,0,14.284993567356,14.284993567356,0.328084,0.223694,0.3725229778,0.44893046056,17,5,0,14.284993567356,0,0.223694,0.4080872834,0,0.223694,-0.671082,293.4, -0.5, -1.8,0,0,364,364,364,1684,-100,-100,-100,100,303.4,0,0,95,4.273,4.269,0,0,0,0,0,77,14.284993567356,0,41,Motors_Started,
400,2023-12-26 16:52:03,-34.9537074597281,-54.9408507255041,0,0,14.284993567356,14.284993567356,0.328084,0.223694,0.35411090372,0.47289699676,17,5,0,14.284993567356,0,0.223694,0.4080872834,0.223694,0,-0.671082,293.9, -0.6, -2.4,0,0,364,364,364,1684,-100,-100,-100,100,304.6,0,0,95,4.273,4.269,0,0,0,0,0,77,14.284993567356,0,41,Motors_Started,
500,2023-12-26 16:52:03,-34.953707048393,-54.940850317029,0,-0.032808399999999,14.317801967356,14.284993567356,0.656168,0.447388,0.3105233039,0.66639765912,17,5,0,14.284993567356,0,0.447388,0.4080872834,0.447388,0,-0.671082,294.5, -1.2, -1.9,0,0,364,364,364,1684,-100,-100,-100,100,304.9,0,0,95,4.273,4.269,0,0,0,0,0,77,14.284993567356,0,41,Motors_Started,
600,2023-12-26 16:52:03,-34.9537068001391,-54.9408502034308,0,-0.032808399999999,14.317801967356,14.284993567356,0.656168,0.447388,0.3590223212,0.76313322652,17,5,0,14.284993567356,0,0.447388,0.4080872834,0.447388,0,-0.671082,295, -1.2, -1.5,0,0,367,364,364,1654,-100,-100,-100,95,305.6,0,0,95,4.273,4.269,0,0,0,0,0,77,14.284993567356,0,41,Motors_Started,
700,2023-12-26 16:52:03,-34.9537065427228,-54.9408500269584,0,-0.032808399999999,14.317801967356,14.284993567356,0.656168,0.223694,0.42085631268,0.87086288876,17,5,0,14.284993567356,0,0.447388,0.42085631268,0.223694,0,-0.671082,295.3, -0.1, -0.6,0,0,1024,1024,364,1057,0,0,-100,5,306,0,0,95,4.273,4.269,0,0,0,0,0,77,14.284993567356,0,41,Motors_Started,
800,2023-12-26 16:52:03,-34.9537062975923,-54.9408498751541,0,-0.098425200000001,14.383418767356,14.284993567356,0.656168,0.447388,0.49549214184,0.9711614484,17,5,0,14.284993567356,0,0.447388,0.49549214184,0.447388,0,-0.894776,294.8, -1.5, 0,0,0,1024,1024,1023,1024,0,0,-0,0,306.2,0,0,95,4.273,4.269,0,0,0,0,0,77,14.284993567356,0,41,Motors_Started,
900,2023-12-26 16:52:03,-34.9537058795235,-54.9408497611682,0,-0.098425200000001,14.383418767356,14.284993567356,0.656168,0.223694,0.64180120164,1.12745410432,17,5,0,14.284993567356,0,0.447388,0.64180120164,0.223694,0,-0.894776,296.5, -3.3, 0.3,0,0,1024,1024,1024,1024,0,0,0,0,307.1,0,0,95,4.273,4.269,0,0,0,0,0,77,14.284993567356,0,41,Motors_Started,
1000,2023-12-26 16:52:04,-34.9537056856247,-54.9408496363122,0,-0.098425200000001,14.383418767356,14.284993567356,0.656168,0.3131716,0.71008532456,1.2074475452,17,5,8.601,14.284993567356,0,0.447388,0.71008532456,0.223694,0.223694,-0.671082,295.4, -0.8, 1,0,0,1024,1024,1024,1024,0,0,0,0,307.4,0,0,95,4.273,4.269,0,0,0,0,0.588,77,14.284993567356,0,41,Motors_Started,
1100,2023-12-26 16:52:04,-34.9537054340468,-54.9408494076283,0.328084,0.1312336,14.481843967356,14.613077567356,0.656168,0,0.80279530128,1.32190949112,17,5,8.601,14.613077567356,0.328084,0.447388,0.80279530128,0,0,-0.671082,295.7, -2, 0,0,0,1024,1024,1024,1024,0,0,0,0,307,0,0,95,4.273,4.269,0,0,0,0,0.588,77,14.613077567356,0.328084,10,Assisted_Takeoff,
1200,2023-12-26 16:52:04,-34.9537052399033,-54.9408492127833,0.328084,0.1312336,14.481843967356,14.613077567356,0.656168,0.223694,0.87849084176,1.41362537332,17,5,8.601,14.613077567356,0.328084,0.447388,0.87849084176,0,0.223694,-0.671082,295.5, -1.1, 0.7,0,0,1024,1024,1024,1024,0,0,0,0,307,0,0,95,4.273,4.269,0,0,0,0,0.588,77,14.613077567356,0.328084,10,Assisted_Takeoff,
1300,2023-12-26 16:52:04,-34.9537050219051,-54.9408490830497,0.328084,0.1312336,14.481843967356,14.613077567356,0.656168,0,0.96249346912,1.50211947064,17,5,8.601,14.613077567356,0.328084,0.447388,0.96249346912,0,0,-0.671082,295.3, -0.8, 1.8,0,0,1024,1024,1119,1019,0,0,14,-1,307,0,0,95,4.273,4.269,0,0,0,0,0.588,77,14.613077567356,0.328084,10,Assisted_Takeoff,
1400,2023-12-26 16:52:04,-34.9537049682239,-54.9408489824374,0.328084,0.1312336,14.481843967356,14.613077567356,0.656168,0,0.98668638328,1.53801842192,17,5,8.601,14.613077567356,0.328084,0.447388,0.98668638328,0,0,-0.447388,293.9, -2.6, 0.5,0,0,1024,1024,1460,1024,0,0,66,0,306,0,0,95,4.273,4.269,0,0,0,0,0.588,77,14.613077567356,0.328084,10,Assisted_Takeoff,
1500,2023-12-26 16:52:04,-34.9537049984515,-54.9408488034785,0.328084,0.1312336,14.481843967356,14.613077567356,0.656168,0,0.98670606832,1.59266081212,17,5,8.601,14.613077567356,0.328084,0.447388,0.98670606832,0,0,-0.447388,294, -3.2, 1.7,0,0,1024,1024,1460,1024,0,0,66,0,305.9,0,0,95,4.273,4.269,0,0,0,0,0.588,77,14.613077567356,0.328084,10,Assisted_Takeoff,
1600,2023-12-26 16:52:04,-34.9537050218917,-54.9408486575019,0.328084,0.1312336,14.481843967356,14.613077567356,0.656168,0,0.9893865146,1.63714244084,17,5,8.601,14.613077567356,0.328084,0.447388,0.9893865146,0,0,-0.447388,293.4, -3.9, 3.1,0,0,1024,1024,1684,1024,0,0,100,0,305.8,0,0,95,4.273,4.269,0,0,0,0,0.588,77,14.613077567356,0.328084,10,Assisted_Takeoff,
1700,2023-12-26 16:52:04,-34.9537049930959,-54.9408486430374,0.328084,0.1312336,14.481843967356,14.613077567356,0.656168,0,1.00067588504,1.64850398976,17,5,8.601,14.613077567356,0.328084,0.447388,1.00067588504,0,0,-0.447388,291.4, -3.1, 5.4,0,0,1024,1024,1684,1024,0,0,100,0,304.2,0,0,95,4.273,4.269,0,0,0,0,0.588,77,14.613077567356,0.328084,10,Assisted_Takeoff,
1800,2023-12-26 16:52:04,-34.9537051602093,-54.9408488096075,0.328084,0.1312336,14.481843967356,14.613077567356,0.656168,0,0.92891407172,1.72723430724,17,5,8.601,14.613077567356,0.328084,0.447388,1.00067588504,0,0,-0.447388,290.8, -1.7, 4.3,0,0,1024,1024,1684,1024,0,0,100,0,303.3,0,0,95,4.273,4.269,0,0,0,0,0.588,77,14.613077567356,0.328084,10,Assisted_Takeoff,
1900,2023-12-26 16:52:04,-34.9537051108931,-54.9408488930348,0.328084,0.1312336,14.481843967356,14.613077567356,0.656168,0,0.94078415084,1.75799218224,17,5,8.601,14.613077567356,0.328084,0.447388,1.00067588504,0,0,-0.223694,290, 0.3, 6.1,0,0,1024,1024,1684,1024,0,0,100,0,302.6,0,0,95,4.273,4.269,0,0,0,0,0.588,77,14.613077567356,0.328084,6,P-GPS,
2000,2023-12-26 16:52:05,-34.953705035683,-54.9408489584609,0.656168,0.4593176,14.481843967356,14.941161567356,0.656168,0.223694,0.96377627756,1.79169297072,17,5,8.601,14.941161567356,0.656168,0.447388,1.00067588504,0.223694,0,-0.447388,290.3, 0.1, 5.6,0,0,1024,1024,1684,1024,0,0,100,0,302.6,0,0,95,4.273,4.269,0,0,0,0,0.588,77,14.941161567356,0.656168,6,P-GPS,
2100,2023-12-26 16:52:05,-34.9537049097473,-54.9408489955822,0.656168,0.4593176,14.481843967356,14.941161567356,0.656168,0.447388,1.00703415296,1.83896331344,17,5,8.601,14.941161567356,0.656168,0.447388,1.00703415296,0.447388,0,-0.447388,290.6, -1.2, 0.7,0,0,1024,1024,1684,1024,0,0,100,0,302.6,0,0,95,4.273,4.269,0,0,0,0,0.588,77,14.941161567356,0.656168,6,P-GPS,
2200,2023-12-26 16:52:05,-34.953704692771,-54.9408493652332,0.984252,0.7874016,14.481843967356,15.269245567356,0.656168,0.4921268,1.07353677976,1.97492788472,17,5,8.559,15.269245567356,0.984252,0.4921268,1.07353677976,0.447388,0.223694,-0.671082,290.4, 0.5, -4.6,0,0,1024,1024,1684,1024,0,0,100,0,302.6,0,0,95,4.254,4.247,0,0,0,0,1.445,77,15.269245567356,0.984252,6,P-GPS,
2300,2023-12-26 16:52:05,-34.9537044604392,-54.9408492928245,1.312336,1.0826772,14.514652367356,15.597329567356,0.984252,0.4921268,1.15947838356,2.06241476416,17,5,8.559,15.597329567356,1.312336,0.4921268,1.15947838356,0.447388,0.223694,-1.11847,290.9, -1.5, -5.3,0,0,1024,1024,1684,1024,0,0,100,0,302.6,0,0,95,4.254,4.247,0,0,0,0,1.445,77,15.597329567356,1.312336,6,P-GPS,
2400,2023-12-26 16:52:05,-34.9537042322364,-54.9408492038306,1.64042,1.4107612,14.514652367356,15.925413567356,0.984252,0.4921268,1.24454728392,2.14982290344,17,5,8.559,15.925413567356,1.64042,0.4921268,1.24454728392,0.447388,0.223694,-1.789552,291.1, 0.1, -5.5,0,0,1024,1024,1684,1024,0,0,100,0,302.6,0,0,95,4.254,4.247,0,0,0,0,1.445,77,15.925413567356,1.64042,6,P-GPS,
2500,2023-12-26 16:52:05,-34.9537039911327,-54.9408490198441,1.968504,1.7388452,14.514652367356,16.253497567356,1.312336,0.4921268,1.33773298244,2.25357946844,17,5,8.559,16.253497567356,1.968504,0.4921268,1.33773298244,0.447388,0.223694,-2.460634,291.5, -1.2, -4.9,0,0,1024,1024,1684,1024,0,0,100,0,302.6,0,0,95,4.254,4.247,0,0,0,0,1.445,77,16.253497567356,1.968504,6,P-GPS,
2600,2023-12-26 16:52:05,-34.9537036901559,-54.9408488108024,2.624672,2.3950132,14.514652367356,16.909665567356,1.312336,0.4921268,1.45510503344,2.3799377402,17,5,8.559,16.909665567356,2.624672,0.4921268,1.45510503344,0.447388,0.223694,-3.131716,291, -1.4, -6.3,0,0,1024,1024,1684,1024,0,0,100,0,302.6,0,0,95,4.254,4.247,0,0,0,0,1.445,77,16.909665567356,2.624672,6,P-GPS,
2700,2023-12-26 16:52:05,-34.9537034007883,-54.9408486088439,3.28084,3.0183728,14.547460767356,17.565833567356,4.265092,0.4921268,1.56932091636,2.50156504068,17,5,8.559,17.565833567356,3.28084,0.4921268,1.56932091636,0.447388,0.223694,-4.026492,290.4, -0.5, -8,0,0,1024,1024,1684,1024,0,0,100,0,302.6,0,0,95,4.254,4.247,0,0,0,0,1.445,77,17.565833567356,3.28084,6,P-GPS,
2800,2023-12-26 16:52:05,-34.9537031735907,-54.9408483900616,3.937008,3.608924,14.613077567356,18.222001567356,4.92126,0.3131716,1.66342853092,2.60716543776,17,5,8.559,18.222001567356,3.937008,0.4921268,1.66342853092,0.223694,0.223694,-4.697574,290.7, -2.8, -8.5,0,0,1024,1024,1684,1024,0,0,100,0,302.6,0,0,95,4.254,4.247,0,0,0,0,1.445,77,18.222001567356,3.937008,6,P-GPS,
2900,2023-12-26 16:52:05,-34.9537030501404,-54.9408482645873,4.593176,4.265092,14.613077567356,18.878169567356,5.577428,0.3131716,1.7155676402,2.66578748688,17,5,8.559,18.878169567356,4.593176,0.4921268,1.7155676402,0.223694,0.223694,-5.368656,291.1, -4.1, -8,0,0,1024,1024,1684,1024,0,0,100,0,302.6,0,0,95,4.254,4.247,0,0,0,0,1.445,77,18.878169567356,4.593176,6,P-GPS,
3000,2023-12-26 16:52:06,-34.9537029025284,-54.9408483245493,5.577428,5.249344,14.613077567356,19.862421567356,6.56168,0.223694,1.76423562076,2.72254929972,17,5,8.559,19.862421567356,5.577428,0.4921268,1.76423562076,0.223694,0,-5.59235,291, -3.5, -8,0,0,1024,1024,1684,1007,0,0,100,-3,302.6,0,0,95,4.254,4.247,0,0,0,0,1.445,77,19.862421567356,5.577428,6,P-GPS,"Punto de origen actualizado. Altitud de RPO establecida en 100m (Code: 3000001)"
3100,2023-12-26 16:52:06,-34.9537027956858,-54.9408481387297,6.233596,5.905512,14.613077567356,20.518589567356,7.217848,0.223694,1.81457354888,2.79042659848,17,5,8.559,20.518589567356,6.233596,0.4921268,1.81457354888,0.223694,0,-6.039738,290.8, -2.2, -7.8,0,0,1024,1024,1024,1024,0,0,0,0,302.6,0,0,95,4.254,4.247,0,0,0,0,1.445,77,20.518589567356,6.233596,6,P-GPS,
3200,2023-12-26 16:52:06,-34.9537027082013,-54.9408479649693,7.217848,6.889764,14.613077567356,21.502841567356,8.2021,0,1.85827433768,2.85140757156,18,5,8.284,21.502841567356,7.217848,0.4921268,1.85827433768,0,0,-6.263432,290.9, -2.3, -7.8,0,0,1024,1024,1024,1024,0,0,0,0,302.6,0,0,95,4.134,4.12,0,0,0,0,4.815,77,21.502841567356,7.217848,6,P-GPS,
3300,2023-12-26 16:52:06,-34.9537025931697,-54.9408477696029,8.2021,7.874016,14.613077567356,22.487093567356,9.186352,0,1.91437670168,2.92333998856,18,5,8.284,22.487093567356,8.2021,0.4921268,1.91437670168,0,0,-5.816044,291, -2.1, -7.7,0,0,1024,1024,1024,1024,0,0,0,0,302.6,0,0,95,4.134,4.12,0,0,0,0,4.815,77,22.487093567356,8.2021,6,P-GPS,
3400,2023-12-26 16:52:06,-34.9537024892416,-54.9408475874139,8.858268,8.4973756,14.645885967356,23.143261567356,9.84252,0.223694,1.96646003668,2.98971794344,18,5,8.284,23.143261567356,8.858268,0.4921268,1.96646003668,0.223694,0,-5.368656,291, -1.6, -7.8,0,0,1024,1024,1024,1024,0,0,0,0,302.6,0,0,95,4.134,4.12,0,0,0,0,4.815,77,23.143261567356,8.858268,6,P-GPS,
3500,2023-12-26 16:52:06,-34.9537023501154,-54.9408474247356,9.84252,9.4160108,14.711502767356,24.127513567356,10.498688,0.223694,2.02971463188,3.06002634464,18,5,8.284,24.127513567356,9.84252,0.4921268,2.02971463188,0.223694,0,-4.921268,290.9, -0.6, -8.1,0,0,1024,1024,1024,1024,0,0,0,0,302.6,0,0,95,4.134,4.12,0,0,0,0,4.815,77,24.127513567356,9.84252,6,P-GPS,
3600,2023-12-26 16:52:06,-34.9537022576589,-54.9408472890085,10.170604,9.7440948,14.711502767356,24.455597567356,11.154856,0.223694,2.0746883866,3.11280193688,18,5,8.284,24.455597567356,10.170604,0.4921268,2.0746883866,0.223694,0,-4.250186,291.1, -1, -8.5,0,0,1024,1024,1024,1024,0,0,0,0,302.6,0,0,95,4.134,4.12,0,0,0,0,4.815,77,24.455597567356,10.170604,6,P-GPS,
3700,2023-12-26 16:52:06,-34.9537021272464,-54.9408470850675,10.826772,10.4002628,14.711502767356,25.111765567356,11.811024,0.223694,2.14002303436,3.19015102072,18,5,8.284,25.111765567356,10.826772,0.4921268,2.14002303436,0.223694,0,-3.35541,291.3, -1.3, -9,0,0,1024,1024,1024,1024,0,0,0,0,302.6,0,0,95,4.134,4.12,0,0,0,0,4.815,77,25.111765567356,10.826772,6,P-GPS,
3800,2023-12-26 16:52:06,-34.9537020045759,-54.9408468680535,11.154856,10.7283468,14.711502767356,25.439849567356,12.139108,0.223694,2.20492789208,3.26898304424,18,5,8.284,25.439849567356,11.154856,0.4921268,2.20492789208,0.223694,0,-2.684328,291.4, -1.4, -9.5,0,0,1024,1024,1024,1024,0,0,0,0,302.6,0,0,95,4.134,4.12,0,0,0,0,4.815,77,25.439849567356,11.154856,6,P-GPS,
3900,2023-12-26 16:52:07,-34.9537018207867,-54.9408465912763,11.48294,11.0564308,14.711502767356,25.767933567356,12.467192,0.223694,2.29817264572,3.375492234,18,5,8.284,25.767933567356,11.48294,0.4921268,2.29817264572,0.223694,0,-1.789552,291.5, -1.3, -9.7,0,0,1024,1024,1024,1024,0,0,0,0,302.6,0,0,95,4.134,4.12,0,0,0,0,4.815,77,25.767933567356,11.48294,6,P-GPS,
4000,2023-12-26 16:52:07,-34.9537017263025,-54.940846318303,11.48294,10.990814,14.777119567356,25.767933567356,12.467192,0.3131716,2.36231306772,3.4641077224,18,5,8.284,25.767933567356,11.48294,0.4921268,2.36231306772,0.223694,0.223694,-1.11847,291.6, -1.6, -9.8,0,0,1024,1024,1024,1024,0,0,0,0,302.6,0,0,95,4.134,4.12,0,0,0,0,4.815,77,25.767933567356,11.48294,6,P-GPS,
4100,2023-12-26 16:52:07,-34.9537016454313,-54.9408459453736,11.811024,11.318898,14.777119567356,26.096017567356,12.795276,0.3131716,2.43662737456,3.5794620568,18,5,8.284,26.096017567356,11.811024,0.4921268,2.43662737456,0.223694,0.223694,-0.447388,291.7, -2, -9.6,0,0,1024,1024,1024,1024,0,0,0,0,302.6,0,0,95,4.134,4.12,0,0,0,0,4.815,77,26.096017567356,11.811024,6,P-GPS,
4200,2023-12-26 16:52:07,-34.953701580948,-54.9408455980706,11.811024,11.318898,14.777119567356,26.096017567356,12.795276,0.3131716,2.50514771796,3.6859581232,18,5,8.385,26.096017567356,11.811024,0.4921268,2.50514771796,0.223694,0.223694,0,291.6, -2.2, -9,0,0,1024,1024,1024,1024,0,0,0,0,302.6,0,0,95,4.213,4.211,0,0,0,0,4.828,77,26.096017567356,11.811024,6,P-GPS,
4300,2023-12-26 16:52:07,-34.9537015415698,-54.9408450835106,11.811024,11.2860896,14.809927967356,26.096017567356,12.467192,0.223694,2.59377304888,3.8404856872,18,5,8.385,26.096017567356,11.811024,0.4921268,2.59377304888,0,0.223694,0,291.5, -1.3, -9.4,0,0,1024,1024,1024,1024,0,0,0,0,302.6,0,0,95,4.213,4.211,0,0,0,0,4.828,77,26.096017567356,11.811024,6,P-GPS,
4400,2023-12-26 16:52:07,-34.9537015217199,-54.940844807753,11.811024,11.2860896,14.809927967356,26.096017567356,12.467192,0,2.64337934968,3.9232940888,18,5,8.385,26.096017567356,11.811024,0.4921268,2.64337934968,0,0,0,291.6, -2, -9.5,0,0,1024,1024,1024,1024,0,0,0,0,302.6,0,0,95,4.213,4.211,0,0,0,0,4.828,77,26.096017567356,11.811024,6,P-GPS,
4500,2023-12-26 16:52:07,-34.9537015234863,-54.9408446428482,12.139108,11.6141736,14.809927967356,26.424101567356,12.467192,0,2.66967528228,3.972605114,18,5,8.385,26.424101567356,12.139108,0.4921268,2.66967528228,0,0,0,291.6, -2.6, -9.1,0,0,1024,1024,1024,1024,0,0,0,0,302.6,0,0,95,4.213,4.211,0,0,0,0,4.828,77,26.424101567356,12.139108,6,P-GPS,
4600,2023-12-26 16:52:07,-34.9537015459578,-54.9408445139664,12.139108,11.6141736,14.809927967356,26.424101567356,12.467192,0,2.68431110952,4.0120080024,18,5,8.385,26.424101567356,12.139108,0.4921268,2.68431110952,0,0,0,291.4, -1.9, -8.8,0,0,1024,1024,1024,1024,0,0,0,0,302.6,0,0,95,4.213,4.211,0,0,0,0,4.828,77,26.424101567356,12.139108,6,P-GPS,
4700,2023-12-26 16:52:07,-34.9537017750109,-54.9408443742432,12.139108,11.5485568,14.875544767356,26.424101567356,12.467192,0,2.63994102936,4.1054463256,18,5,8.385,26.424101567356,12.139108,0.4921268,2.68431110952,0,0,0,291.5, -1.7, -9,0,0,1024,1024,1024,1024,0,0,0,0,302.6,0,0,95,4.213,4.211,0,0,0,0,4.828,77,26.424101567356,12.139108,6,P-GPS,
4800,2023-12-26 16:52:07,-34.9537018927189,-54.9408441972929,12.467192,11.8766408,14.875544767356,26.752185567356,12.467192,0,2.63714247284,4.1735893724,18,5,8.385,26.752185567356,12.467192,0.4921268,2.68431110952,0,0,0,291.6, -2.4, -8.9,0,0,1024,1024,1024,1024,0,0,0,0,302.6,0,0,95,4.213,4.211,0,0,0,0,4.828,77,26.752185567356,12.467192,6,P-GPS,
4900,2023-12-26 16:52:08,-34.9537019695581,-54.9408441129382,12.467192,11.8766408,14.875544767356,26.752185567356,12.467192,0,2.63048892932,4.211286224,18,5,8.385,26.752185567356,12.467192,0.4921268,2.68431110952,0,0,0,291.4, -1.9, -8.8,0,0,1024,1024,1024,1024,0,0,0,0,302.6,0,0,95,4.213,4.211,0,0,0,0,4.828,77,26.752185567356,12.467192,6,P-GPS,
5000,2023-12-26 16:52:08,-34.9537020593598,-54.9408440574446,12.467192,11.8766408,14.875544767356,26.752185567356,12.467192,0,2.61524942752,4.248031632,18,5,8.385,26.752185567356,12.467192,0.4921268,2.68431110952,0,0,0,291.5, -1.7, -8.6,0,0,1024,1024,1024,1024,0,0,0,0,302.6,0,0,95,4.213,4.211,0,0,0,0,4.828,77,26.752185567356,12.467192,6,P-GPS,
5100,2023-12-26 16:52:08,-34.9537021896895,-54.9408440482092,12.467192,11.8766408,14.875544767356,26.752185567356,12.467192,0,2.58022646052,4.2956366204,18,5,8.385,26.752185567356,12.467192,0.4921268,2.68431110952,0,0,0,291.4, -2.2, -8.5,0,0,1024,1024,1024,1024,0,0,0,0,302.6,0,0,95,4.213,4.211,0,0,0,0,4.828,77,26.752185567356,12.467192,6,P-GPS,
5200,2023-12-26 16:52:08,-34.953702330408,-54.9408442597047,12.467192,11.8766408,14.875544767356,26.752185567356,12.467192,0,2.50037409576,4.3770998776,18,5,8.363,26.752185567356,12.467192,0.4921268,2.68431110952,0,0,0,291.3, -1.7, -8.4,0,0,1024,1024,1024,1024,0,0,0,0,302.6,0,0,95,4.184,4.178,0,0,0,0,3.465,77,26.752185567356,12.467192,6,P-GPS,
5300,2023-12-26 16:52:08,-34.9537024509076,-54.9408442309024,12.467192,11.8766408,14.875544767356,26.752185567356,12.467192,0,2.47207356992,4.421916152,18,5,8.363,26.752185567356,12.467192,0.4921268,2.68431110952,0,0,0,291.4, -2, -8.2,0,0,1024,1024,1024,1024,0,0,0,0,302.6,0,0,95,4.184,4.178,0,0,0,0,3.465,77,26.752185567356,12.467192,6,P-GPS,
5400,2023-12-26 16:52:08,-34.9537025712089,-54.9408442153136,12.467192,11.9094492,14.842736367356,26.752185567356,12.467192,0,2.44172908076,4.46604345,18,5,8.363,26.752185567356,12.467192,0.4921268,2.68431110952,0,0,0,291.4, -2.4, -8.1,0,0,1024,1024,1024,1024,0,0,0,0,302.6,0,0,95,4.184,4.178,0,0,0,0,3.465,77,26.752185567356,12.467192,6,P-GPS,
5500,2023-12-26 16:52:08,-34.9537026650887,-54.9408442612915,12.467192,11.9094492,14.842736367356,26.752185567356,12.795276,0,2.40686687492,4.5029529,18,5,8.363,26.752185567356,12.467192,0.4921268,2.68431110952,0,0,0,291.1, -1.7, -7.6,0,0,1024,1024,1024,1024,0,0,0,0,302.6,0,0,95,4.184,4.178,0,0,0,0,3.465,77,26.752185567356,12.467192,6,P-GPS,
5600,2023-12-26 16:52:08,-34.9537026652186,-54.9408443670085,12.139108,11.5813652,14.842736367356,26.424101567356,12.795276,0,2.3861385278,4.5345801976,18,5,8.363,26.752185567356,12.467192,0.4921268,2.68431110952,0,0,0,291.1, -1.3, -7.3,0,0,1024,1024,1024,1024,0,0,0,0,302.6,0,0,95,4.184,4.178,0,0,0,0,3.465,77,26.424101567356,12.139108,6,P-GPS,
5700,2023-12-26 16:52:08,-34.9537027273404,-54.9408443538263,12.139108,11.5813652,14.842736367356,26.424101567356,12.795276,0,2.37156175568,4.557578886,18,5,8.363,26.752185567356,12.467192,0.4921268,2.68431110952,0,0,0,291.3, -1.7, -7.4,0,0,1024,1024,1024,1024,0,0,0,0,302.6,0,0,95,4.184,4.178,0,0,0,0,3.465,77,26.424101567356,12.139108,6,P-GPS,
5800,2023-12-26 16:52:08,-34.9537027873852,-54.9408443403756,12.139108,11.5813652,14.842736367356,26.424101567356,12.795276,0,2.35773957676,4.5798557896,18,5,8.363,26.752185567356,12.467192,0.4921268,2.68431110952,0,0,0,291.3, -1.8, -7.3,0,0,1024,1024,1024,1024,0,0,0,0,302.6,0,0,95,4.184,4.178,0,0,0,0,3.465,77,26.424101567356,12.139108,6,P-GPS,
5900,2023-12-26 16:52:09,-34.9537028400662,-54.9408443357782,12.139108,11.5813652,14.842736367356,26.424101567356,12.795276,0,2.34428157108,4.5991143204,18,5,8.363,26.752185567356,12.467192,0.4921268,2.68431110952,0,0,0,291.2, -1.4, -6.8,0,0,1024,1024,1024,1024,0,0,0,0,302.6,0,0,95,4.184,4.178,0,0,0,0,3.465,77,26.424101567356,12.139108,6,P-GPS,
6000,2023-12-26 16:52:09,-34.9537026991582,-54.9408441926282,11.811024,11.2532812,14.842736367356,26.096017567356,12.795276,0,2.41114180944,4.666010648,18,5,8.363,26.752185567356,12.467192,0.4921268,2.68431110952,0,0,0,291.3, -0.9, -6.9,0,0,1024,1024,1024,1024,0,0,0,0,302.6,0,0,95,4.184,4.178,0,0,0,0,3.465,77,26.096017567356,11.811024,6,P-GPS,
6100,2023-12-26 16:52:09,-34.9537027455029,-54.9408441465013,11.811024,11.2532812,14.842736367356,26.096017567356,12.795276,0,2.40780191432,4.687828234,18,5,8.363,26.752185567356,12.467192,0.4921268,2.68431110952,0,0,0,291.4, -1.3, -7,0,0,1024,1024,1024,1024,0,0,0,0,302.6,0,0,95,4.184,4.178,0,0,0,0,3.465,77,26.096017567356,11.811024,6,P-GPS,
6200,2023-12-26 16:52:09,-34.9537027820407,-54.9408440953503,11.811024,11.2532812,14.842736367356,26.096017567356,12.795276,0,2.40830388284,4.7081366336,18,5,8.327,26.752185567356,12.467192,0.4921268,2.68431110952,0,0,0,291.4, -1.6, -7,0,0,1024,1024,1024,1024,0,0,0,0,302.6,0,0,95,4.173,4.169,0,0,0,0,4.161,77,26.096017567356,11.811024,6,P-GPS,
6300,2023-12-26 16:52:09,-34.953702818732,-54.9408440708302,11.811024,11.2532812,14.842736367356,26.096017567356,12.795276,0,2.40348760972,4.7233925396,18,5,8.327,26.752185567356,12.467192,0.4921268,2.68431110952,0,0,0,291.3, -1.2, -7,0,0,1024,1024,1024,1024,0,0,0,0,302.6,0,0,95,4.173,4.169,0,0,0,0,4.161,77,26.096017567356,11.811024,6,P-GPS,
6400,2023-12-26 16:52:09,-34.9537027436697,-54.9408439586642,11.811024,11.2532812,14.842736367356,26.096017567356,12.795276,0,2.4464075586,4.7666996276,18,5,8.327,26.752185567356,12.467192,0.4921268,2.68431110952,0,0,0,291.3, -1, -7.1,0,0,1024,1024,1024,1024,0,0,0,0,302.6,0,0,95,4.173,4.169,0,0,0,0,4.161,77,26.096017567356,11.811024,6,P-GPS,
6500,2023-12-26 16:52:09,-34.9537027825834,-54.9408439221391,11.811024,11.2532812,14.842736367356,26.096017567356,12.795276,0,2.4436024404,4.784613014,18,5,8.327,26.752185567356,12.467192,0.4921268,2.68431110952,0,0,0,291.3, -1.2, -6.9,0,0,1024,1024,1024,1024,0,0,0,0,302.6,0,0,95,4.173,4.169,0,0,0,0,4.161,77,26.096017567356,11.811024,6,P-GPS,
6600,2023-12-26 16:52:09,-34.9537028262554,-54.9408438824208,11.811024,11.2532812,14.842736367356,26.096017567356,12.795276,0,2.4403380046,4.8044949044,18,5,8.327,26.752185567356,12.467192,0.4921268,2.68431110952,0,0,0,291.3, -0.8, -6.5,0,0,1024,1024,1024,1024,0,0,0,0,302.6,0,0,95,4.173,4.169,0,0,0,0,4.161,77,26.096017567356,11.811024,6,P-GPS,
6700,2023-12-26 16:52:09,-34.9537028826252,-54.9408438750414,11.48294,10.9251972,14.842736367356,25.767933567356,13.12336,0,2.42715230864,4.8251641964,18,5,8.327,26.752185567356,12.467192,0.4921268,2.68431110952,0,0,0,291.5, -1.2, -6.7,0,0,1024,1024,1024,1024,0,0,0,0,302.6,0,0,95,4.173,4.169,0,0,0,0,4.161,77,25.767933567356,11.48294,6,P-GPS,
6800,2023-12-26 16:52:09,-34.9537029350354,-54.9408438523025,11.48294,10.9251972,14.842736367356,25.767933567356,12.795276,0,2.41833669156,4.845472596,18,5,8.327,26.752185567356,12.467192,0.4921268,2.68431110952,0,0,0,291.4, -1.8, -7.3,0,0,1024,1024,1024,1024,0,0,0,0,302.6,0,0,95,4.173,4.169,0,0,0,0,4.161,77,25.767933567356,11.48294,6,P-GPS,
6900,2023-12-26 16:52:09,-34.9537029686156,-54.9408440673963,11.48294,10.9251972,14.842736367356,25.767933567356,12.795276,0,2.3645506006,4.910925354,18,5,8.327,26.752185567356,12.467192,0.4921268,2.68431110952,0,0,0,291.3, -1.8, -7.2,0,0,1024,1024,1024,1024,0,0,0,0,302.6,0,0,95,4.173,4.169,0,0,0,0,4.161,77,25.767933567356,11.48294,6,P-GPS,
7000,2023-12-26 16:52:10,-34.9537030417396,-54.9408440518006,11.48294,10.9251972,14.842736367356,25.767933567356,12.795276,0,2.34869758172,4.9380250924,18,5,8.327,26.752185567356,12.467192,0.4921268,2.68431110952,0,0,0,291.4, -2.3, -6.9,0,0,1024,1024,1024,1024,0,0,0,0,302.6,0,0,95,4.173,4.169,0,0,0,0,4.161,77,25.767933567356,11.48294,6,P-GPS,
7100,2023-12-26 16:52:10,-34.9537031610044,-54.9408440438019,11.154856,10.5971132,14.842736367356,25.439849567356,13.12336,0,2.31958012672,4.9815946476,18,5,8.327,26.752185567356,12.467192,0.4921268,2.68431110952,0,0,0,291.4, -2.4, -6.8,0,0,1024,1024,1024,1024,0,0,0,0,302.6,0,0,95,4.173,4.169,0,0,0,0,4.161,77,25.439849567356,11.154856,6,P-GPS,
7200,2023-12-26 16:52:10,-34.9537032653396,-54.9408440419394,11.154856,10.5971132,14.842736367356,25.439849567356,13.12336,0,2.29337605764,5.0196852,18,5,8.327,26.752185567356,12.467192,0.4921268,2.68431110952,0,0,0,291.4, -2.3, -6.9,0,0,1024,1024,1024,1024,0,0,0,0,302.6,0,0,95,4.173,4.169,0,0,0,0,4.161,77,25.439849567356,11.154856,6,P-GPS,
7300,2023-12-26 16:52:10,-34.9537033754489,-54.9408442903212,11.154856,10.5971132,14.842736367356,25.439849567356,12.795276,0,2.21215230176,5.1041012132,18,5,8.35,26.752185567356,12.467192,0.4921268,2.68431110952,0,0,0,291.4, -2.4, -7,0,0,1024,1024,1024,1024,0,0,0,0,302.6,0,0,95,4.181,4.174,0,0,0,0,4.01,77,25.439849567356,11.154856,6,P-GPS,
7400,2023-12-26 16:52:10,-34.9537034255745,-54.9408443283269,11.154856,10.5971132,14.842736367356,25.439849567356,12.795276,0,2.19122710424,5.125656332,18,5,8.35,26.752185567356,12.467192,0.4921268,2.68431110952,0,0,0,291.4, -2.4, -6.9,0,0,1024,1024,1024,1024,0,0,0,0,302.6,0,0,95,4.181,4.174,0,0,0,0,4.01,77,25.439849567356,11.154856,6,P-GPS,
7500,2023-12-26 16:52:10,-34.9537034527035,-54.9408443619867,11.154856,10.5971132,14.842736367356,25.439849567356,12.795276,0,2.17710964972,5.139763944,18,5,8.35,26.752185567356,12.467192,0.4921268,2.68431110952,0,0,0,291.4, -2, -6.9,0,0,1024,1024,1024,1024,0,0,0,0,302.6,0,0,95,4.181,4.174,0,0,0,0,4.01,77,25.439849567356,11.154856,6,P-GPS,
7600,2023-12-26 16:52:10,-34.9537034716041,-54.940844401363,11.154856,10.5971132,14.842736367356,25.439849567356,12.795276,0,2.163878022,5.1534122384,18,5,8.35,26.752185567356,12.467192,0.4921268,2.68431110952,0,0,0,291.2, -1.4, -7.2,0,0,1024,1024,1024,1024,0,0,0,0,302.6,0,0,95,4.181,4.174,0,0,0,0,4.01,77,25.439849567356,11.154856,6,P-GPS,
7700,2023-12-26 16:52:10,-34.9537034128665,-54.9408445174948,10.826772,10.334646,14.777119567356,25.111765567356,12.795276,0,2.15451450464,5.194225888,18,5,8.35,26.752185567356,12.467192,0.4921268,2.68431110952,0,0,0,291.3, -1.1, -7.1,0,0,1024,1024,1024,1024,0,0,0,0,302.6,0,0,95,4.181,4.174,0,0,0,0,4.01,77,25.111765567356,10.826772,6,P-GPS,
7800,2023-12-26 16:52:10,-34.9537034423715,-54.9408445414978,10.826772,10.334646,14.777119567356,25.111765567356,12.795276,0,2.14180453048,5.2071523976,18,5,8.35,26.752185567356,12.467192,0.4921268,2.68431110952,0,0,0,291.4, -1.5, -7.1,0,0,1024,1024,1024,1024,0,0,0,0,302.6,0,0,95,4.181,4.174,0,0,0,0,4.01,77,25.111765567356,10.826772,6,P-GPS,
7900,2023-12-26 16:52:10,-34.953703490766,-54.9408445503409,10.826772,10.334646,14.777119567356,25.111765567356,12.795276,0,2.127378677,5.2250001672,18,5,8.35,26.752185567356,12.467192,0.4921268,2.68431110952,0,0,0,291.3, -1.5, -7,0,0,1024,1024,1024,1024,0,0,0,0,302.6,0,0,95,4.181,4.174,0,0,0,0,4.01,77,25.111765567356,10.826772,6,P-GPS,
8000,2023-12-26 16:52:11,-34.9537035351871,-54.9408445604742,10.826772,10.3674544,14.744311167356,25.111765567356,12.795276,0,2.11375662932,5.2415027924,18,5,8.35,26.752185567356,12.467192,0.4921268,2.68431110952,0,0,0,291.4, -2, -6.7,0,0,1024,1024,1024,1024,0,0,0,0,302.6,0,0,95,4.181,4.174,0,0,0,0,4.01,77,25.111765567356,10.826772,6,P-GPS,
8100,2023-12-26 16:52:11,-34.9537034826828,-54.9408446359316,10.826772,10.334646,14.777119567356,25.111765567356,12.795276,0,2.11154534316,5.2710959692,18,5,8.35,26.752185567356,12.467192,0.4921268,2.68431110952,0,0,0,291.3, -1.5, -6.9,0,0,1024,1024,1024,1024,0,0,0,0,302.6,0,0,95,4.181,4.174,0,0,0,0,4.01,77,25.111765567356,10.826772,6,P-GPS,
8200,2023-12-26 16:52:11,-34.9537034870458,-54.9408446642959,10.826772,10.334646,14.777119567356,25.111765567356,12.795276,0,2.10449809884,5.2797245784,18,5,8.35,26.752185567356,12.467192,0.4921268,2.68431110952,0,0,0,291.3, -1.6, -7,0,0,1024,1024,1024,1024,0,0,0,0,302.6,0,0,95,4.181,4.174,0,0,0,0,4.01,77,25.111765567356,10.826772,6,P-GPS,
8300,2023-12-26 16:52:11,-34.9537034723772,-54.9408446583717,10.826772,10.334646,14.777119567356,25.111765567356,12.795276,0,2.10957683916,5.2853676232,18,5,8.352,26.752185567356,12.467192,0.4921268,2.68431110952,0,0,0,291.3, -1.7, -7,0,0,1024,1024,1024,1024,0,0,0,0,302.6,0,0,95,4.178,4.171,0,0,0,0,3.835,77.18,25.111765567356,10.826772,6,P-GPS,
8400,2023-12-26 16:52:11,-34.9537034506,-54.9408446696326,10.826772,10.334646,14.777119567356,25.111765567356,12.795276,0,2.11296594688,5.2939962324,18,5,8.352,26.752185567356,12.467192,0.4921268,2.68431110952,0,0,0,291.2, -0.8, -7.1,0,0,1024,1024,1024,1024,0,0,0,0,302.6,0,0,95,4.178,4.171,0,0,0,0,3.835,77.18,25.111765567356,10.826772,6,P-GPS,
8500,2023-12-26 16:52:11,-34.9537034610933,-54.9408447284115,10.826772,10.334646,14.777119567356,25.111765567356,12.795276,0,2.09806109076,5.3119752356,18,5,8.352,26.752185567356,12.467192,0.4921268,2.68431110952,0,0,0,291.1, -0.7, -7.5,0,0,1024,1024,1024,1024,0,0,0,0,302.6,0,0,95,4.178,4.171,0,0,0,0,3.835,77.18,25.111765567356,10.826772,6,P-GPS,
8600,2023-12-26 16:52:11,-34.9537034373147,-54.940844807786,10.826772,10.334646,14.777119567356,25.111765567356,12.795276,0,2.08813326892,5.337270512,18,5,8.352,26.752185567356,12.467192,0.4921268,2.68431110952,0,0,0,291.2, 0, -7.4,0,0,1024,1024,1024,1024,0,0,0,0,302.6,0,0,95,4.178,4.171,0,0,0,0,3.835,77.18,25.111765567356,10.826772,6,P-GPS,
8700,2023-12-26 16:52:11,-34.9537034772422,-54.9408448121848,10.826772,10.334646,14.777119567356,25.111765567356,13.12336,0,2.07658471212,5.35187025,18,5,8.352,26.752185567356,12.467192,0.4921268,2.68431110952,0,0,0,291.3, -0.7, -7.7,0,0,1024,1024,1024,1024,0,0,0,0,302.6,0,0,95,4.178,4.171,0,0,0,0,3.835,77.18,25.111765567356,10.826772,6,P-GPS,
8800,2023-12-26 16:52:11,-34.9537035150705,-54.9408448026571,10.826772,10.3674544,14.744311167356,25.111765567356,12.795276,0,2.06849416068,5.365977862,18,5,8.352,26.752185567356,12.467192,0.4921268,2.68431110952,0,0,0,291.3, -0.5, -7.8,0,0,1024,1024,1024,1024,0,0,0,0,302.6,0,0,95,4.178,4.171,0,0,0,0,3.835,77.18,25.111765567356,10.826772,6,P-GPS,
8900,2023-12-26 16:52:11,-34.9537035364703,-54.9408448039421,10.826772,10.3674544,14.744311167356,25.111765567356,12.795276,0,2.0625656828,5.3737862612,18,5,8.352,26.752185567356,12.467192,0.4921268,2.68431110952,0,0,0,291.3, -0.9, -8,0,0,1024,1024,1024,1024,0,0,0,0,302.6,0,0,95,4.178,4.171,0,0,0,0,3.835,77.18,25.111765567356,10.826772,6,P-GPS,
9000,2023-12-26 16:52:12,-34.953703587748,-54.9408448162943,10.826772,10.3674544,14.744311167356,25.111765567356,12.795276,0,2.04649612848,5.3928479416,18,5,8.352,26.752185567356,12.467192,0.4921268,2.68431110952,0,0,0,291.3, -1.2, -7.8,0,0,1024,1024,1024,1024,0,0,0,0,302.6,0,0,95,4.178,4.171,0,0,0,0,3.835,77.18,25.111765567356,10.826772,6,P-GPS,
9100,2023-12-26 16:52:12,-34.9537035720526,-54.9408447623421,10.826772,10.3674544,14.744311167356,25.111765567356,12.795276,0,2.06182093212,5.4099739264,18,5,8.352,26.752185567356,12.467192,0.4921268,2.68431110952,0,0,0,291.3, -1.3, -7.7,0,0,1024,1024,1024,1024,0,0,0,0,302.6,0,0,95,4.178,4.171,0,0,0,0,3.835,77.18,25.111765567356,10.826772,6,P-GPS,
9200,2023-12-26 16:52:12,-34.9537035559831,-54.940844716254,10.826772,10.3674544,14.744311167356,25.111765567356,12.795276,0,2.07562998768,5.4249673652,18,5,8.352,26.752185567356,12.467192,0.4921268,2.68431110952,0,0,0,291.1, -0.8, -8.1,0,0,1024,1024,1024,1024,0,0,0,0,302.6,0,0,95,4.178,4.171,0,0,0,0,3.835,77.18,25.111765567356,10.826772,6,P-GPS,
9300,2023-12-26 16:52:12,-34.9537035641603,-54.9408446809075,10.826772,10.3674544,14.744311167356,25.111765567356,12.795276,0,2.0808891742,5.4359253708,18,5,8.346,26.752185567356,12.467192,0.4921268,2.68431110952,0,0,0,291.1, -0.7, -7.9,0,0,1024,1024,1024,1024,0,0,0,0,302.6,0,0,95,4.174,4.166,0,0,0,0,3.88,77.18,25.111765567356,10.826772,6,P-GPS,
9400,2023-12-26 16:52:12,-34.9537034634724,-54.9408445782094,10.826772,10.334646,14.777119567356,25.111765567356,12.795276,0,2.12861883452,5.4838256348,18,5,8.346,26.752185567356,12.467192,0.4921268,2.68431110952,0,0,0,291.2, -0.6, -7.9,0,0,1024,1024,1024,1024,0,0,0,0,302.6,0,0,95,4.174,4.166,0,0,0,0,3.88,77.18,25.111765567356,10.826772,6,P-GPS,
9500,2023-12-26 16:52:12,-34.9537035406786,-54.9408445206913,10.826772,10.3674544,14.744311167356,25.111765567356,12.795276,0,2.12077762692,5.5168308852,18,5,8.346,26.752185567356,12.467192,0.4921268,2.68431110952,0,0,0,291.3, -0.8, -7.7,0,0,1024,1024,1024,1024,0,0,0,0,302.6,0,0,95,4.174,4.166,0,0,0,0,3.88,77.18,25.111765567356,10.826772,6,P-GPS,
9600,2023-12-26 16:52:12,-34.953703626511,-54.9408444648214,10.826772,10.334646,14.777119567356,25.111765567356,12.795276,0,2.11088589432,5.552329574,18,5,8.346,26.752185567356,12.467192,0.4921268,2.68431110952,0,0,0,291.3, -1, -7.5,0,0,1024,1024,1024,1024,0,0,0,0,302.6,0,0,95,4.174,4.166,0,0,0,0,3.88,77.18,25.111765567356,10.826772,6,P-GPS,
9700,2023-12-26 16:52:12,-34.9537037274461,-54.9408444493279,10.826772,10.334646,14.777119567356,25.111765567356,12.795276,0,2.08895675976,5.5894358744,18,5,8.346,26.752185567356,12.467192,0.4921268,2.68431110952,0,0,0,291.2, -1.1, -7.6,0,0,1024,1024,1024,1024,0,0,0,0,302.6,0,0,95,4.174,4.166,0,0,0,0,3.88,77.18,25.111765567356,10.826772,6,P-GPS,
9800,2023-12-26 16:52:12,-34.9537039297078,-54.9408444582135,10.826772,10.334646,14.777119567356,25.111765567356,12.795276,0,2.0373688316,5.6632875828,18,5,8.346,26.752185567356,12.467192,0.4921268,2.68431110952,0,0,0,291.1, -1.2, -7.2,0,0,1024,1024,1024,1024,0,0,0,0,302.6,0,0,95,4.174,4.166,0,0,0,0,3.88,77.18,25.111765567356,10.826772,6,P-GPS,
9900,2023-12-26 16:52:12,-34.9537039818782,-54.9408445119164,10.826772,10.3674544,14.744311167356,25.111765567356,12.795276,0,2.01273300404,5.6881891584,18,5,8.346,26.752185567356,12.467192,0.4921268,2.68431110952,0,0,0,291.1, -0.6, -7.1,0,0,1024,1024,1024,1024,0,0,0,0,302.6,0,0,95,4.174,4.166,0,0,0,0,3.88,77.18,25.111765567356,10.826772,6,P-GPS,
10000,2023-12-26 16:52:13,-34.9537040366057,-54.9408445606545,10.826772,10.3674544,14.744311167356,25.111765567356,12.795276,0,1.98860242584,5.7128938836,18,5,8.346,26.752185567356,12.467192,0.4921268,2.68431110952,0,0,0,291.2, -0.5, -6.6,0,0,1024,1024,1024,1024,0,0,0,0,302.6,0,0,95,4.174,4.166,0,0,0,0,3.88,77.18,25.111765567356,10.826772,6,P-GPS,
10100,2023-12-26 16:52:13,-34.9537040686087,-54.9408445697272,10.498688,10.0393704,14.744311167356,24.783681567356,12.795276,0,1.97887473524,5.724901758,18,5,8.346,26.752185567356,12.467192,0.4921268,2.68431110952,0,0,0,291, -1.2, -7.1,0,0,1024,1024,1024,1024,0,0,0,0,302.6,0,0,95,4.174,4.166,0,0,0,0,3.88,77.18,24.783681567356,10.498688,6,P-GPS,
10200,2023-12-26 16:52:13,-34.9537041076238,-54.9408445737916,10.498688,10.0393704,14.744311167356,24.783681567356,12.795276,0,1.9686352336,5.739173412,18,5,8.346,26.752185567356,12.467192,0.4921268,2.68431110952,0,0,0,291, -0.5, -6.8,0,0,1024,1024,1024,1024,0,0,0,0,302.6,0,0,95,4.174,4.166,0,0,0,0,3.88,77.18,24.783681567356,10.498688,6,P-GPS,
10300,2023-12-26 16:52:13,-34.9537040097564,-54.9408447293686,10.498688,10.0393704,14.744311167356,24.783681567356,12.795276,0,1.95755583692,5.7978348312,18,5,8.335,26.752185567356,12.467192,0.4921268,2.68431110952,0,0,0,291.1, -1, -6.7,0,0,1024,1024,1024,1024,0,0,0,0,302.6,0,0,95,4.17,4.163,0,0,0,0,3.931,77.18,24.783681567356,10.498688,6,P-GPS,
10400,2023-12-26 16:52:13,-34.9537040877311,-54.9408446898492,10.170604,9.7112864,14.744311167356,24.455597567356,12.795276,0,1.94729008856,5.8286419188,18,5,8.335,26.752185567356,12.467192,0.4921268,2.68431110952,0,0,0,291.4, -2, -6.7,0,0,1024,1024,1024,1024,0,0,0,0,302.6,0,0,95,4.17,4.163,0,0,0,0,3.931,77.18,24.455597567356,10.170604,6,P-GPS,
10500,2023-12-26 16:52:13,-34.9537041765868,-54.9408446297052,10.170604,9.7112864,14.744311167356,24.455597567356,12.795276,0,1.93955714868,5.8657154108,18,5,8.335,26.752185567356,12.467192,0.4921268,2.68431110952,0,0,0,291.5, -2.6, -6.8,0,0,1024,1024,1024,1024,0,0,0,0,302.6,0,0,95,4.17,4.163,0,0,0,0,3.931,77.18,24.455597567356,10.170604,6,P-GPS,
10600,2023-12-26 16:52:13,-34.9537042540291,-54.9408445774712,10.170604,9.7112864,14.744311167356,24.455597567356,12.795276,0,1.93333011436,5.8979988764,18,5,8.335,26.752185567356,12.467192,0.4921268,2.68431110952,0,0,0,291.5, -2.8, -6.9,0,0,1024,1024,1024,1024,0,0,0,0,302.6,0,0,95,4.17,4.163,0,0,0,0,3.931,77.18,24.455597567356,10.170604,6,P-GPS,
10700,2023-12-26 16:52:13,-34.9537042841573,-54.9408445331754,9.84252,9.3832024,14.744311167356,24.127513567356,12.795276,0,1.93660767352,5.915190478,18,5,8.335,26.752185567356,12.467192,0.4921268,2.68431110952,0,0,0,291.4, -2.5, -7,0,0,1024,1024,1024,1024,0,0,0,0,302.6,0,0,95,4.17,4.163,0,0,0,0,3.931,77.18,24.127513567356,9.84252,6,P-GPS,
10800,2023-12-26 16:52:13,-34.9537043365387,-54.9408445062852,9.84252,9.3832024,14.744311167356,24.127513567356,12.795276,0,1.93090229276,5.9359253868,18,5,8.335,26.752185567356,12.467192,0.4921268,2.68431110952,0,0,0,291.3, -2.5, -6.9,0,0,1024,1024,1024,1024,0,0,0,0,302.6,0,0,95,4.17,4.163,0,0,0,0,3.931,77.18,24.127513567356,9.84252,6,P-GPS,
10900,2023-12-26 16:52:14,-34.9537044189937,-54.9408444705673,9.84252,9.350394,14.777119567356,24.127513567356,12.795276,0,1.92077105884,5.96784796,18,5,8.335,26.752185567356,12.467192,0.4921268,2.68431110952,0,0,0,291.3, -2.2, -6.6,0,0,1024,1024,1024,1024,0,0,0,0,302.6,0,0,95,4.17,4.163,0,0,0,0,3.931,77.18,24.127513567356,9.84252,6,P-GPS,
11000,2023-12-26 16:52:14,-34.9537044910316,-54.9408444448448,9.84252,9.350394,14.777119567356,24.127513567356,12.795276,0,1.91100071732,5.995242974,18,5,8.335,26.752185567356,12.467192,0.4921268,2.68431110952,0,0,0,291.3, -2.2, -7,0,0,1024,1024,1024,1024,0,0,0,0,302.6,0,0,95,4.17,4.163,0,0,0,0,3.931,77.18,24.127513567356,9.84252,6,P-GPS,
11100,2023-12-26 16:52:14,-34.9537045164675,-54.9408444168675,9.84252,9.3832024,14.744311167356,24.127513567356,12.795276,0,1.91217525804,6.0077429744,18,5,8.335,26.752185567356,12.467192,0.4921268,2.68431110952,0,0,0,291.2, -1.9, -7,0,0,1024,1024,1024,1024,0,0,0,0,302.6,0,0,95,4.17,4.163,0,0,0,0,3.931,77.18,24.127513567356,9.84252,6,P-GPS,
11200,2023-12-26 16:52:14,-34.9537045584496,-54.9408444243276,9.84252,9.3832024,14.744311167356,24.127513567356,12.795276,0,1.9013123968,6.0232285392,18,5,8.335,26.752185567356,12.467192,0.4921268,2.68431110952,0,0,0,291.3, -2, -6.8,0,0,1024,1024,1024,1024,0,0,0,0,302.6,0,0,95,4.17,4.163,0,0,0,0,3.931,77.18,24.127513567356,9.84252,6,P-GPS,
11300,2023-12-26 16:52:14,-34.9537045996158,-54.9408444759578,9.84252,9.3832024,14.744311167356,24.127513567356,12.795276,0,1.8799869368,6.0447508496,18,5,8.337,26.752185567356,12.467192,0.4921268,2.68431110952,0,0,0,291.4, -2.1, -6.8,0,0,1024,1024,1024,1024,0,0,0,0,302.6,0,0,95,4.171,4.165,0,0,0,0,3.883,77.18,24.127513567356,9.84252,6,P-GPS,
11400,2023-12-26 16:52:14,-34.953704634638,-54.940844520395,9.514436,9.1207352,14.678694367356,23.799429567356,12.795276,0,1.86172578136,6.0631891704,18,5,8.337,26.752185567356,12.467192,0.4921268,2.68431110952,0,0,0,291.3, -2, -6.9,0,0,1024,1024,1024,1024,0,0,0,0,302.6,0,0,95,4.171,4.165,0,0,0,0,3.883,77.18,23.799429567356,9.514436,6,P-GPS,
11500,2023-12-26 16:52:14,-34.9537045182445,-54.9408445206272,9.514436,9.1207352,14.678694367356,23.799429567356,12.795276,0,1.88691935172,6.1056760484,18,5,8.337,26.752185567356,12.467192,0.4921268,2.68431110952,0,0,0,291.3, -2, -6.9,0,0,1024,1024,1024,1024,0,0,0,0,302.6,0,0,95,4.171,4.165,0,0,0,0,3.883,77.18,23.799429567356,9.514436,6,P-GPS,
11600,2023-12-26 16:52:14,-34.9537045231885,-54.9408445077149,9.514436,9.1207352,14.678694367356,23.799429567356,12.795276,0,1.88892066412,6.109908332,18,5,8.337,26.752185567356,12.467192,0.4921268,2.68431110952,0,0,0,291.2, -2.2, -6.9,0,0,1024,1024,1024,1024,0,0,0,0,302.6,0,0,95,4.171,4.165,0,0,0,0,3.883,77.18,23.799429567356,9.514436,6,P-GPS,
11700,2023-12-26 16:52:14,-34.9537045701471,-54.9408445486985,9.514436,9.1207352,14.678694367356,23.799429567356,12.795276,0,1.86884520416,6.1309713248,18,5,8.337,26.752185567356,12.467192,0.4921268,2.68431110952,0,0,0,291.2, -2.5, -6.7,0,0,1024,1024,1024,1024,0,0,0,0,302.6,0,0,95,4.171,4.165,0,0,0,0,3.883,77.18,23.799429567356,9.514436,6,P-GPS,
11800,2023-12-26 16:52:14,-34.9537046090413,-54.9408445900853,9.514436,9.1207352,14.678694367356,23.799429567356,12.795276,0,1.85044625344,6.1498033464,18,5,8.337,26.752185567356,12.467192,0.4921268,2.68431110952,0,0,0,291.3, -2.4, -6.9,0,0,1024,1024,1024,1024,0,0,0,0,302.6,0,0,95,4.171,4.165,0,0,0,0,3.883,77.18,23.799429567356,9.514436,6,P-GPS,
11900,2023-12-26 16:52:15,-34.9537046148316,-54.9408446056075,9.514436,9.1207352,14.678694367356,23.799429567356,12.795276,0,1.84546265748,6.1549214568,18,5,8.337,26.752185567356,12.467192,0.4921268,2.68431110952,0,0,0,291.2, -2.4, -7,0,0,1024,1024,1024,1024,0,0,0,0,302.6,0,0,95,4.171,4.165,0,0,0,0,3.883,77.18,23.799429567356,9.514436,6,P-GPS,
12000,2023-12-26 16:52:15,-34.9537045596359,-54.9408446628989,9.514436,9.1207352,14.678694367356,23.799429567356,12.795276,0,1.84390425848,6.1813650272,18,5,8.337,26.752185567356,12.467192,0.4921268,2.68431110952,0,0,0,291.2, -2.1, -6.9,0,0,1024,1024,1024,1024,0,0,0,0,302.6,0,0,95,4.171,4.165,0,0,0,0,3.883,77.18,23.799429567356,9.514436,6,P-GPS,
12100,2023-12-26 16:52:15,-34.9537045532601,-54.9408446742748,9.514436,9.1207352,14.678694367356,23.799429567356,12.795276,0,1.84262145004,6.1854660772,18,5,8.337,26.752185567356,12.467192,0.4921268,2.68431110952,0,0,0,291.1, -2.2, -6.7,0,0,1024,1024,1024,1024,0,0,0,0,302.6,0,0,95,4.171,4.165,0,0,0,0,3.883,77.18,23.799429567356,9.514436,6,P-GPS,
12200,2023-12-26 16:52:15,-34.9537045548369,-54.9408446918237,9.186352,8.7926512,14.678694367356,23.471345567356,12.795276,0,1.83811029504,6.1907482296,18,5,8.337,26.752185567356,12.467192,0.4921268,2.68431110952,0,0,0,291.2, -2.2, -6.5,0,0,1024,1024,1024,1024,0,0,0,0,302.6,0,0,95,4.171,4.165,0,0,0,0,3.883,77.18,23.471345567356,9.186352,6,P-GPS,
12300,2023-12-26 16:52:15,-34.9537046016249,-54.9408447571995,9.186352,8.7926512,14.678694367356,23.471345567356,12.795276,0,1.8122047824,6.216699674,18,5,8.337,26.752185567356,12.467192,0.4921268,2.68431110952,0,0,0,291.2, -1.9, -6.4,0,0,1024,1024,1024,1024,0,0,0,0,302.6,0,0,95,4.171,4.165,0,0,0,0,3.883,77.18,23.471345567356,9.186352,6,P-GPS,
12400,2023-12-26 16:52:15,-34.9537046360633,-54.9408448668997,9.186352,8.7926512,14.678694367356,23.471345567356,12.795276,0,1.77857289156,6.2518374704,18,5,8.331,26.752185567356,12.467192,0.4921268,2.68431110952,0,0,0,291.3, -2.4, -6.6,0,0,1024,1024,1024,1024,0,0,0,0,302.6,0,0,95,4.164,4.158,0,0,0,0,3.898,77.18,23.471345567356,9.186352,6,P-GPS,
12500,2023-12-26 16:52:15,-34.9537046487289,-54.9408449346895,9.186352,8.7926512,14.678694367356,23.471345567356,12.795276,0,1.75976383584,6.272637996,18,5,8.331,26.752185567356,12.467192,0.4921268,2.68431110952,0,0,0,291.3, -2.4, -6.9,0,0,1024,1024,1024,1024,0,0,0,0,302.6,0,0,95,4.164,4.158,0,0,0,0,3.898,77.18,23.471345567356,9.186352,6,P-GPS,
12600,2023-12-26 16:52:15,-34.953704658287,-54.940845001498,9.186352,8.7926512,14.678694367356,23.471345567356,12.795276,0,1.7419291896,6.2929135872,18,5,8.331,26.752185567356,12.467192,0.4921268,2.68431110952,0,0,0,291.1, -2.3, -6.9,0,0,1024,1024,1024,1024,0,0,0,0,302.6,0,0,95,4.164,4.158,0,0,0,0,3.898,77.18,23.471345567356,9.186352,6,P-GPS,
12700,2023-12-26 16:52:15,-34.9537046545962,-54.9408450697563,9.186352,8.7926512,14.678694367356,23.471345567356,12.795276,0,1.72685044896,6.3133532204,18,5,8.331,26.752185567356,12.467192,0.4921268,2.68431110952,0,0,0,291.4, -2.4, -6.7,0,0,1024,1024,1024,1024,0,0,0,0,302.6,0,0,95,4.164,4.158,0,0,0,0,3.898,77.18,23.471345567356,9.186352,6,P-GPS,
12800,2023-12-26 16:52:15,-34.9537045783781,-54.9408451970131,9.186352,8.7926512,14.678694367356,23.471345567356,12.795276,0,1.7153543856,6.3604988912,18,5,8.331,26.752185567356,12.467192,0.4921268,2.68431110952,0,0,0,291.3, -2.2, -6.9,0,0,1024,1024,1024,1024,0,0,0,0,302.6,0,0,95,4.164,4.158,0,0,0,0,3.898,77.18,23.471345567356,9.186352,6,P-GPS,
12900,2023-12-26 16:52:16,-34.9537046209521,-54.9408452718083,9.186352,8.7926512,14.678694367356,23.471345567356,12.795276,0,1.68825792804,6.3877298632,18,5,8.331,26.752185567356,12.467192,0.4921268,2.68431110952,0,0,0,291.2, -2.3, -6.9,0,0,1024,1024,1024,1024,0,0,0,0,302.6,0,0,95,4.164,4.158,0,0,0,0,3.898,77.18,23.471345567356,9.186352,6,P-GPS,
13000,2023-12-26 16:52:16,-34.9537046678204,-54.9408453483977,9.186352,8.7926512,14.678694367356,23.471345567356,12.795276,0,1.65974086676,6.4163059796,18,5,8.331,26.752185567356,12.467192,0.4921268,2.68431110952,0,0,0,291.2, -2, -6.8,0,0,1024,1024,1024,1024,0,0,0,0,302.6,0,0,95,4.164,4.158,0,0,0,0,3.898,77.18,23.471345567356,9.186352,6,P-GPS,
13100,2023-12-26 16:52:16,-34.9537047029426,-54.9408454350211,9.186352,8.7926512,14.678694367356,23.471345567356,12.795276,0,1.63175530156,6.44521018,18,5,8.331,26.752185567356,12.467192,0.4921268,2.68431110952,0,0,0,291.2, -2.5, -6.6,0,0,1024,1024,1024,1024,0,0,0,0,302.6,0,0,95,4.164,4.158,0,0,0,0,3.898,77.18,23.471345567356,9.186352,6,P-GPS,
13200,2023-12-26 16:52:16,-34.9537047502538,-54.9408455270076,9.186352,8.8254596,14.645885967356,23.471345567356,12.795276,0,1.59966868636,6.477690496,18,5,8.331,26.752185567356,12.467192,0.4921268,2.68431110952,0,0,0,291.2, -2.3, -6.3,0,0,1024,1024,1024,1024,0,0,0,0,302.6,0,0,95,4.164,4.158,0,0,0,0,3.898,77.18,23.471345567356,9.186352,6,P-GPS,
13300,2023-12-26 16:52:16,-34.9537047232904,-54.9408456303457,9.186352,8.8254596,14.645885967356,23.471345567356,12.795276,0,1.58308075932,6.5101051952,18,5,8.331,26.752185567356,12.467192,0.4921268,2.68431110952,0,0,0,291.2, -1.9, -6.4,0,0,1024,1024,1024,1024,0,0,0,0,302.6,0,0,95,4.164,4.158,0,0,0,0,3.898,77.18,23.471345567356,9.186352,6,P-GPS,
13400,2023-12-26 16:52:16,-34.9537046970998,-54.9408457335988,9.186352,8.8254596,14.645885967356,23.471345567356,12.795276,0,1.56681107376,6.5424214692,18,5,8.325,26.752185567356,12.467192,0.4921268,2.68431110952,0,0,0,291.2, -1.7, -6.4,0,0,1024,1024,1024,1024,0,0,0,0,302.6,0,0,95,4.163,4.156,0,0,0,0,3.947,77.36,23.471345567356,9.186352,6,P-GPS,
13500,2023-12-26 16:52:16,-34.9537046960967,-54.9408458321471,9.186352,8.8254596,14.645885967356,23.471345567356,12.795276,0,1.54567262164,6.5719162208,18,5,8.325,26.752185567356,12.467192,0.4921268,2.68431110952,0,0,0,291.1, -1.5, -6.3,0,0,1024,1024,1024,1024,0,0,0,0,302.6,0,0,95,4.163,4.156,0,0,0,0,3.947,77.36,23.471345567356,9.186352,6,P-GPS,
13600,2023-12-26 16:52:16,-34.9537046959183,-54.9408459293361,9.186352,8.8254596,14.645885967356,23.471345567356,12.795276,0,1.52489178108,6.6009844632,18,5,8.325,26.752185567356,12.467192,0.4921268,2.68431110952,0,0,0,291.2, -1.4, -5.8,0,0,1024,1024,1024,1024,0,0,0,0,302.6,0,0,95,4.163,4.156,0,0,0,0,3.947,77.36,23.471345567356,9.186352,6,P-GPS,
13700,2023-12-26 16:52:16,-34.9537045153748,-54.940846023705,9.186352,8.8254596,14.645885967356,23.471345567356,12.795276,0,1.55249020716,6.6726380088,18,5,8.325,26.752185567356,12.467192,0.4921268,2.68431110952,0,0,0,291.2, -1.3, -6.4,0,0,1024,1024,1024,1024,0,0,0,0,302.6,0,0,95,4.163,4.156,0,0,0,0,3.947,77.36,23.471345567356,9.186352,6,P-GPS,
13800,2023-12-26 16:52:16,-34.9537045111571,-54.9408461417272,9.186352,8.8254596,14.645885967356,23.471345567356,12.795276,0,1.52981632192,6.7079726556,18,5,8.325,26.752185567356,12.467192,0.4921268,2.68431110952,0,0,0,291.2, -1.3, -6.5,0,0,1024,1024,1024,1024,0,0,0,0,302.6,0,0,95,4.163,4.156,0,0,0,0,3.947,77.36,23.471345567356,9.186352,6,P-GPS,
13900,2023-12-26 16:52:16,-34.9537045136474,-54.9408462553963,9.186352,8.8254596,14.645885967356,23.471345567356,12.795276,0,1.50663062564,6.741962158,18,5,8.325,26.752185567356,12.467192,0.4921268,2.68431110952,0,0,0,291.3, -1.4, -6.6,0,0,1024,1024,1024,1024,0,0,0,0,302.6,0,0,95,4.163,4.156,0,0,0,0,3.947,77.36,23.471345567356,9.186352,6,P-GPS,
14000,2023-12-26 16:52:17,-34.9537045210072,-54.9408463653418,9.186352,8.8254596,14.645885967356,23.471345567356,12.795276,0,1.4832185514,6.7749346,18,5,8.325,26.752185567356,12.467192,0.4921268,2.68431110952,0,0,0,291.2, -1.3, -6.5,0,0,1024,1024,1024,1024,0,0,0,0,302.6,0,0,95,4.163,4.156,0,0,0,0,3.947,77.36,23.471345567356,9.186352,6,P-GPS,
14100,2023-12-26 16:52:17,-34.9537045091187,-54.9408464337386,9.186352,8.8254596,14.645885967356,23.471345567356,12.795276,0,1.47348101828,6.7958663592,18,5,8.325,26.752185567356,12.467192,0.4921268,2.68431110952,0,0,0,291.2, -1.2, -6.4,0,0,1024,1024,1024,1024,0,0,0,0,302.6,0,0,95,4.163,4.156,0,0,0,0,3.947,77.36,23.471345567356,9.186352,6,P-GPS,
14200,2023-12-26 16:52:17,-34.9537045237071,-54.9408465257778,9.186352,8.8910764,14.580269167356,23.471345567356,12.795276,0,1.45201448216,6.8238847328,18,5,8.325,26.752185567356,12.467192,0.4921268,2.68431110952,0,0,0,291.2, -1.6, -6.2,0,0,1024,1024,1024,1024,0,0,0,0,302.6,0,0,95,4.163,4.156,0,0,0,0,3.947,77.36,23.471345567356,9.186352,6,P-GPS,
14300,2023-12-26 16:52:17,-34.9537044998166,-54.9408466256012,9.186352,8.858268,14.613077567356,23.471345567356,12.795276,0,1.440452802,6.854987096,18,5,8.325,26.752185567356,12.467192,0.4921268,2.68431110952,0,0,0,291.4, -1.6, -6.3,0,0,1024,1024,1024,1024,0,0,0,0,302.6,0,0,95,4.163,4.156,0,0,0,0,3.947,77.36,23.471345567356,9.186352,6,P-GPS,
14400,2023-12-26 16:52:17,-34.9537044787381,-54.9408467224858,9.186352,8.858268,14.613077567356,23.471345567356,12.795276,0,1.42917327408,6.8849739736,18,5,8.319,26.752185567356,12.467192,0.4921268,2.68431110952,0,0,0,291.3, -1.5, -6.4,0,0,1024,1024,1024,1024,0,0,0,0,302.6,0,0,95,4.161,4.152,0,0,0,0,3.975,77.36,23.471345567356,9.186352,6,P-GPS,
14500,2023-12-26 16:52:17,-34.9537043905423,-54.9408468126948,9.186352,8.858268,14.613077567356,23.471345567356,12.795276,0,1.43962931116,6.9269687256,18,5,8.319,26.752185567356,12.467192,0.4921268,2.68431110952,0,0,0,291.3, -1.1, -6.3,0,0,1024,1024,1024,1024,0,0,0,0,302.6,0,0,95,4.161,4.152,0,0,0,0,3.975,77.36,23.471345567356,9.186352,6,P-GPS,
14600,2023-12-26 16:52:17,-34.9537043829957,-54.9408469137509,9.186352,8.858268,14.613077567356,23.471345567356,12.795276,0,1.42489177788,6.9572836872,18,5,8.319,26.752185567356,12.467192,0.4921268,2.68431110952,0,0,0,291.3, -1.3, -6.4,0,0,1024,1024,1024,1024,0,0,0,0,302.6,0,0,95,4.161,4.152,0,0,0,0,3.975,77.36,23.471345567356,9.186352,6,P-GPS,
14700,2023-12-26 16:52:17,-34.9537043384867,-54.9408470209791,9.186352,8.858268,14.613077567356,23.471345567356,12.795276,0,1.42103679088,6.9932416936,18,5,8.319,26.752185567356,12.467192,0.4921268,2.68431110952,0,0,0,291.3, -1, -6.3,0,0,1024,1024,1024,1024,0,0,0,0,302.6,0,0,95,4.161,4.152,0,0,0,0,3.975,77.36,23.471345567356,9.186352,6,P-GPS,
14800,2023-12-26 16:52:17,-34.9537043032358,-54.9408471178697,9.186352,8.858268,14.613077567356,23.471345567356,12.795276,0,1.41677497972,7.024934608,18,5,8.319,26.752185567356,12.467192,0.4921268,2.68431110952,0,0,0,291.2, -1, -6.5,0,0,1024,1024,1024,1024,0,0,0,0,302.6,0,0,95,4.161,4.152,0,0,0,0,3.975,77.36,23.471345567356,9.186352,6,P-GPS,
14900,2023-12-26 16:52:17,-34.9537042063157,-54.9408470790887,9.514436,9.186352,14.613077567356,23.799429567356,12.795276,0,1.45307747432,7.0621393336,18,5,8.319,26.752185567356,12.467192,0.4921268,2.68431110952,0,0,0,291.3, -0.8, -6.4,0,0,1024,1024,1024,1024,0,0,0,0,302.6,0,0,95,4.161,4.152,0,0,0,0,3.975,77.36,23.799429567356,9.514436,6,P-GPS,
15000,2023-12-26 16:52:18,-34.9537042010362,-54.9408471274403,9.514436,9.186352,14.613077567356,23.799429567356,12.795276,0,1.44741474448,7.0767390716,18,5,8.319,26.752185567356,12.467192,0.4921268,2.68431110952,0,0,0,291.3, -0.9, -6.4,0,0,1024,1024,1024,1024,0,0,0,0,302.6,0,0,95,4.161,4.152,0,0,0,0,3.975,77.36,23.799429567356,9.514436,6,P-GPS,
15100,2023-12-26 16:52:18,-34.9537041711584,-54.9408472061102,9.514436,9.186352,14.613077567356,23.799429567356,12.795276,0,1.44524939008,7.1026577076,18,5,8.319,26.752185567356,12.467192,0.4921268,2.68431110952,0,0,0,291.2, -0.9, -6.5,0,0,1024,1024,1024,1024,0,0,0,0,302.6,0,0,95,4.161,4.152,0,0,0,0,3.975,77.36,23.799429567356,9.514436,6,P-GPS,
15200,2023-12-26 16:52:18,-34.9537041527883,-54.9408472726384,9.514436,9.186352,14.613077567356,23.799429567356,12.795276,0,1.44156172592,7.1236550836,18,5,8.319,26.752185567356,12.467192,0.4921268,2.68431110952,0,0,0,291.1, -1, -6.4,0,0,1024,1024,1024,1024,0,0,0,0,302.6,0,0,95,4.161,4.152,0,0,0,0,3.975,77.36,23.799429567356,9.514436,6,P-GPS,
15300,2023-12-26 16:52:18,-34.9537041750345,-54.94084730937,9.514436,9.186352,14.613077567356,23.799429567356,12.795276,0,1.429215925,7.1373361864,18,5,8.319,26.752185567356,12.467192,0.4921268,2.68431110952,0,0,0,291.2, -1, -6.4,0,0,1024,1024,1024,1024,0,0,0,0,302.6,0,0,95,4.161,4.152,0,0,0,0,3.975,77.36,23.799429567356,9.514436,6,P-GPS,
15400,2023-12-26 16:52:18,-34.9537041600573,-54.9408472845851,9.514436,9.186352,14.613077567356,23.799429567356,12.795276,0,1.4375328544,7.1465225384,18,5,8.304,26.752185567356,12.467192,0.4921268,2.68431110952,0,0,0,291.2, -1, -6.2,0,0,1024,1024,1024,1024,0,0,0,0,302.6,0,0,95,4.155,4.147,0,0,0,0,4.08,77.36,23.799429567356,9.514436,6,P-GPS,
15500,2023-12-26 16:52:18,-34.9537041481371,-54.9408473506685,9.514436,9.186352,14.613077567356,23.799429567356,12.795276,0,1.43214243428,7.1667653212,18,5,8.304,26.752185567356,12.467192,0.4921268,2.68431110952,0,0,0,291.1, -1.3, -6.4,0,0,1024,1024,1024,1024,0,0,0,0,302.6,0,0,95,4.155,4.147,0,0,0,0,4.08,77.36,23.799429567356,9.514436,6,P-GPS,
15600,2023-12-26 16:52:18,-34.9537041447845,-54.9408474083938,9.514436,9.186352,14.613077567356,23.799429567356,12.795276,0,1.42535437632,7.184055348,18,5,8.304,26.752185567356,12.467192,0.4921268,2.68431110952,0,0,0,291.1, -1.2, -6.3,0,0,1024,1024,1024,1024,0,0,0,0,302.6,0,0,95,4.155,4.147,0,0,0,0,4.08,77.36,23.799429567356,9.514436,6,P-GPS,
15700,2023-12-26 16:52:18,-34.9537041748354,-54.9408474379104,9.186352,8.858268,14.613077567356,23.471345567356,12.795276,0,1.41158797168,7.1981301516,18,5,8.304,26.752185567356,12.467192,0.4921268,2.68431110952,0,0,0,291.1, -1.6, -6,0,0,1024,1024,1024,1024,0,0,0,0,302.6,0,0,95,4.155,4.147,0,0,0,0,4.08,77.36,23.471345567356,9.186352,6,P-GPS,
15800,2023-12-26 16:52:18,-34.9537041459024,-54.9408474683935,9.186352,8.858268,14.613077567356,23.471345567356,12.795276,0,1.4169783918,7.21210653,18,5,8.304,26.752185567356,12.467192,0.4921268,2.68431110952,0,0,0,291.1, -1.6, -6.1,0,0,1024,1024,1024,1024,0,0,0,0,302.6,0,0,95,4.155,4.147,0,0,0,0,4.08,77.36,23.471345567356,9.186352,6,P-GPS,
15900,2023-12-26 16:52:18,-34.9537041838969,-54.9408474835469,9.186352,8.858268,14.613077567356,23.471345567356,12.795276,0,1.4025426958,7.2266734596,18,5,8.304,26.752185567356,12.467192,0.4921268,2.68431110952,0,0,0,291.1, -1.8, -5.8,0,0,1024,1024,1024,1024,0,0,0,0,302.6,0,0,95,4.155,4.147,0,0,0,0,4.08,77.36,23.471345567356,9.186352,6,P-GPS,
16000,2023-12-26 16:52:19,-34.9537042212086,-54.9408474892562,9.186352,8.858268,14.613077567356,23.471345567356,12.795276,0,1.38958665864,7.2403873708,18,5,8.304,26.752185567356,12.467192,0.4921268,2.68431110952,0,0,0,291.2, -2.1, -5.8,0,0,1024,1024,1024,1024,0,0,0,0,302.6,0,0,95,4.155,4.147,0,0,0,0,4.08,77.36,23.471345567356,9.186352,6,P-GPS,
16100,2023-12-26 16:52:19,-34.95370424831,-54.9408474586919,9.186352,8.858268,14.613077567356,23.471345567356,12.795276,0,1.38486552988,7.2538716232,18,5,8.304,26.752185567356,12.467192,0.4921268,2.68431110952,0,0,0,291.2, -2.3, -6,0,0,1024,1024,1024,1024,0,0,0,0,302.6,0,0,95,4.155,4.147,0,0,0,0,4.08,77.36,23.471345567356,9.186352,6,P-GPS,
16200,2023-12-26 16:52:19,-34.9537042535515,-54.9408473349827,9.186352,8.858268,14.613077567356,23.471345567356,12.795276,0,1.40035437552,7.2909123068,18,5,8.304,26.752185567356,12.467192,0.4921268,2.68431110952,0,0,0,291.2, -2.1, -6.1,0,0,1024,1024,1024,1024,0,0,0,0,302.6,0,0,95,4.155,4.147,0,0,0,0,4.08,77.36,23.471345567356,9.186352,6,P-GPS,
16300,2023-12-26 16:52:19,-34.9537043121079,-54.9408473108434,9.186352,8.858268,14.613077567356,23.471345567356,12.795276,0,1.38508206532,7.3134516776,18,5,8.304,26.752185567356,12.467192,0.4921268,2.68431110952,0,0,0,291.1, -2.4, -6.1,0,0,1024,1024,1024,1024,0,0,0,0,302.6,0,0,95,4.155,4.147,0,0,0,0,4.08,77.36,23.471345567356,9.186352,6,P-GPS,
16400,2023-12-26 16:52:19,-34.9537043680039,-54.9408472904552,9.186352,8.858268,14.613077567356,23.471345567356,12.795276,0,1.37029860028,7.3347443292,18,5,8.286,26.752185567356,12.467192,0.4921268,2.68431110952,0,0,0,291.1, -2.1, -6,0,0,1024,1024,1024,1024,0,0,0,0,302.6,0,0,94,4.148,4.143,0,0,0,0,4.192,77.36,23.471345567356,9.186352,6,P-GPS,
16500,2023-12-26 16:52:19,-34.9537043863654,-54.9408472394353,9.186352,8.858268,14.613077567356,23.471345567356,12.795276,0,1.37213587068,7.3514109964,18,5,8.286,26.752185567356,12.467192,0.4921268,2.68431110952,0,0,0,291.2, -2.3, -6,0,0,1024,1024,1024,1024,0,0,0,0,302.6,0,0,94,4.148,4.143,0,0,0,0,4.192,77.36,23.471345567356,9.186352,6,P-GPS,
16600,2023-12-26 16:52:19,-34.9537043924525,-54.9408470610311,9.186352,8.858268,14.613077567356,23.471345567356,12.795276,0,1.39799217072,7.4047902632,18,5,8.286,26.752185567356,12.467192,0.4921268,2.68431110952,0,0,0,291.2, -2.5, -6,0,0,1024,1024,1031,1024,0,0,1,0,302.6,0,0,94,4.148,4.143,0,0,0,0,4.192,77.36,23.471345567356,9.186352,6,P-GPS,
16700,2023-12-26 16:52:19,-34.9537044512552,-54.9408470592929,9.186352,8.858268,14.613077567356,23.471345567356,12.795276,0,1.38019033288,7.4262469568,18,5,8.286,26.752185567356,12.467192,0.4921268,2.68431110952,0,0,0,291.2, -2.6, -6.1,0,0,1024,1024,1178,1024,0,0,23,0,302.6,0,0,94,4.148,4.143,0,0,0,0,4.192,77.36,23.471345567356,9.186352,6,P-GPS,
