time(millisecond),datetime(utc),latitude,longitude,height_above_takeoff(feet),height_above_ground_at_drone_location(feet),ground_elevation_at_drone_location(feet),altitude_above_seaLevel(feet),height_sonar(feet),speed(mph),distance(feet),mileage(feet),satellites,gpslevel,voltage(v),max_altitude(feet),max_ascent(feet),max_speed(mph),max_distance(feet), xSpeed(mph), ySpeed(mph), zSpeed(mph), compass_heading(degrees), pitch(degrees), roll(degrees),isPhoto,isVideo,rc_elevator,rc_aileron,rc_throttle,rc_rudder,rc_elevator(percent),rc_aileron(percent),rc_throttle(percent),rc_rudder(percent),gimbal_heading(degrees),gimbal_pitch(degrees),gimbal_roll(degrees),battery_percent,voltageCell1,voltageCell2,voltageCell3,voltageCell4,voltageCell5,voltageCell6,current(A),battery_temperature(f),altitude(feet),ascent(feet),flycStateRaw,flycState,message
24100,2022-08-30 05:03:15,0,0,0,,,3.28084E-5,0,0,0,0,0,0,8.671,3.28084E-5,0,0,0,0,0,0,32.1, 3.5, 0,0,0,364,388,364,1684,-100,-96,-100,100,32.1,2.4,0,99,4.336,4.334,0,0,0,0,0.584,72.14,3.28084E-5,0,6,P-GPS,"Sin tarjeta SD. Inserta una tarjeta (Code: 10022). Sin señal GPS. La aeronave no puede hacer vuelo estacionario. Vuela con cuidado (Code: 30008). Sin tarjeta SD. Inserta una tarjeta (Code: 10022). Señal débil del GPS. Vuelo estacionario inestable. Vu"
24200,2022-08-30 05:03:16,0,0,0,,,3.28084E-5,0,0,0,0,0,0,8.671,3.28084E-5,0,0,0,0,0,0,32.1, 3.5, 0,0,0,364,388,364,1684,-100,-96,-100,100,32.1,2.4,0,99,4.336,4.334,0,0,0,0,0.584,72.14,3.28084E-5,0,41,Motors_Started,"Sin tarjeta SD. Inserta una tarjeta (Code: 10022). Señal débil del GPS. Vuelo estacionario inestable. Vuela con cuidado (Code: 30002)"
24300,2022-08-30 05:03:16,0,0,0,,,3.28084E-5,0,0,0,0,0,0,8.671,3.28084E-5,0,0,0,0,0,0,32.1, 3.5, -0.1,0,0,364,364,364,1684,-100,-100,-100,100,32.1,2.4,0,99,4.336,4.334,0,0,0,0,0.584,72.14,3.28084E-5,0,41,Motors_Started,
24400,2022-08-30 05:03:16,0,0,0,,,3.28084E-5,0,0,0,0,0,0,8.671,3.28084E-5,0,0,0,0,0,0,32.1, 3.5, -0.1,0,0,532,395,364,1297,-75,-95,-100,41,32.1,2.4,0,99,4.336,4.334,0,0,0,0,0.584,72.14,3.28084E-5,0,41,Motors_Started,
24500,2022-08-30 05:03:16,0,0,0,,,3.28084E-5,0,0,0,0,0,0,8.671,3.28084E-5,0,0,0,0,0,0,32.1, 3.5, -0.1,0,0,1024,1024,1024,1024,0,0,0,0,32.1,2.4,0,99,4.336,4.334,0,0,0,0,0.584,72.14,3.28084E-5,0,41,Motors_Started,
24600,2022-08-30 05:03:16,0,0,0,,,3.28084E-5,0,0,0,0,0,0,8.671,3.28084E-5,0,0,0,0,0,0,32.1, 3.5, -0.1,0,0,1024,1024,1024,1024,0,0,0,0,32.1,2.4,0,99,4.336,4.334,0,0,0,0,0.584,72.14,3.28084E-5,0,41,Motors_Started,
24700,2022-08-30 05:03:16,0,0,0,,,3.28084E-5,0,0,0,0,0,0,8.671,3.28084E-5,0,0,0,0,0,0,32.1, 3.5, -0.1,0,0,1024,1024,1195,1024,0,0,26,0,32.1,2.4,0,99,4.336,4.334,0,0,0,0,0.584,72.14,3.28084E-5,0,41,Motors_Started,
24800,2022-08-30 05:03:16,0,0,0,,,3.28084E-5,0,0,0,0,0,0,8.671,3.28084E-5,0,0,0,0,0,0,32.1, 3.5, -0.1,0,0,1024,1024,1684,1024,0,0,100,0,32.1,2.4,0,99,4.336,4.334,0,0,0,0,0.584,72.14,3.28084E-5,0,41,Motors_Started,
24900,2022-08-30 05:03:16,0,0,0,,,3.28084E-5,0,0,0,0,0,0,8.671,3.28084E-5,0,0,0,0,0,0,32.1, 3.5, -0.1,0,0,1024,1024,1636,1024,0,0,93,0,32.1,2.4,0,99,4.336,4.334,0,0,0,0,0.584,72.14,3.28084E-5,0,41,Motors_Started,
25000,2022-08-30 05:03:16,0,0,0,,,3.28084E-5,1.968504,0,0,0,0,0,8.671,3.28084E-5,0,0,0,0,0,0,32.1, 3.5, -0.1,0,0,1024,1024,1024,1024,0,0,0,0,32.1,2.4,0,99,4.336,4.334,0,0,0,0,0.584,72.14,3.28084E-5,0,41,Motors_Started,"Sin tarjeta SD. Setting new Return-To-Home altitude to 60m (197 ft). Data Recorder File Index is 34. Setting new Maximum Flight Altitude to 30m (98 ft) Sin tarjeta SD. Inserta una tarjeta (Code: 10022)"
25100,2022-08-30 05:03:16,0,0,0,,,3.28084E-5,1.64042,0,0,0,0,0,8.638,3.28084E-5,0,0,0,0,0,0,32.1, 3.5, 0,0,0,1024,1024,1024,1024,0,0,0,0,32.1,2.4,0,99,4.316,4.313,0,0,0,0,0.891,72.32,3.28084E-5,0,41,Motors_Started,
25200,2022-08-30 05:03:17,0,0,0,,,3.28084E-5,1.64042,0,0,0,0,0,8.638,3.28084E-5,0,0,0,0,0,0,32.1, 3.5, -0.1,0,0,1024,1024,1024,1024,0,0,0,0,32.1,2.4,0,99,4.316,4.313,0,0,0,0,0.891,72.32,3.28084E-5,0,41,Motors_Started,
25300,2022-08-30 05:03:17,0,0,0,,,3.28084E-5,1.64042,0,0,0,0,0,8.638,3.28084E-5,0,0,0,0,0,0,32.1, 3.5, -0.1,0,0,1024,1024,1590,1024,0,0,86,0,32.1,2.4,0,99,4.316,4.313,0,0,0,0,0.891,72.32,3.28084E-5,0,10,Assisted_Takeoff,
25400,2022-08-30 05:03:17,0,0,0,,,3.28084E-5,1.64042,0,0,0,0,0,8.638,3.28084E-5,0,0,0,0,0,0,32.1, 3.5, -0.1,0,0,1024,1024,1684,1024,0,0,100,0,32.1,2.4,0,99,4.316,4.313,0,0,0,0,0.891,72.32,3.28084E-5,0,10,Assisted_Takeoff,
25500,2022-08-30 05:03:17,0,0,0,,,3.28084E-5,1.64042,0,0,0,0,0,8.638,3.28084E-5,0,0,0,0,0,0,32.1, 3.5, -0.1,0,0,1024,1024,1684,1024,0,0,100,0,32.1,2.4,0,99,4.316,4.313,0,0,0,0,0.891,72.32,3.28084E-5,0,10,Assisted_Takeoff,
25600,2022-08-30 05:03:17,0,0,0,,,3.28084E-5,1.64042,0,0,0,0,0,8.638,3.28084E-5,0,0,0,0,0,0,32.1, 3.5, -0.1,0,0,1024,1024,1024,1024,0,0,0,0,32.1,2.4,0,99,4.316,4.313,0,0,0,0,0.891,72.32,3.28084E-5,0,10,Assisted_Takeoff,
25700,2022-08-30 05:03:17,0,0,0,,,3.28084E-5,1.968504,0,0,0,0,0,8.638,3.28084E-5,0,0,0,0,0,0,32.8, 2.8, -0.1,0,0,1024,1024,1024,1024,0,0,0,0,32.2,2.4,0,99,4.316,4.313,0,0,0,0,0.891,72.32,3.28084E-5,0,10,Assisted_Takeoff,
25800,2022-08-30 05:03:17,0,0,0,,,3.28084E-5,1.968504,0,0,0,0,0,8.638,3.28084E-5,0,0,0,0,0,0,33.8, 1.3, 0,0,0,1024,1024,1024,1024,0,0,0,0,33.2,2.4,0,99,4.316,4.313,0,0,0,0,0.891,72.32,3.28084E-5,0,10,Assisted_Takeoff,
25900,2022-08-30 05:03:17,0,0,0,,,3.28084E-5,1.968504,0,0,0,0,0,8.638,3.28084E-5,0,0,0,0,0,0,34.5, 3.1, 0,0,0,1024,1024,1024,1024,0,0,0,0,34,2.4,0,99,4.316,4.313,0,0,0,0,0.891,72.32,3.28084E-5,0,10,Assisted_Takeoff,
26000,2022-08-30 05:03:17,0,0,0,,,3.28084E-5,1.968504,0,0,0,0,0,8.638,3.28084E-5,0,0,0,0,0,0,34.6, 3.4, 0,0,0,1024,1024,1024,1024,0,0,0,0,34.3,2.4,0,99,4.316,4.313,0,0,0,0,0.891,72.32,3.28084E-5,0,10,Assisted_Takeoff,
26100,2022-08-30 05:03:17,0,0,0,,,3.28084E-5,0.328084,0,0,0,0,0,8.63,3.28084E-5,0,0,0,0,0,0,34.5, 3.3, 0,0,0,1024,1024,1062,1024,0,0,6,0,34.4,2.4,0,99,4.293,4.292,0,0,0,0,1.5,72.32,3.28084E-5,0,10,Assisted_Takeoff,
26200,2022-08-30 05:03:18,0,0,0,,,3.28084E-5,0.328084,0,0,0,0,0,8.63,3.28084E-5,0,0,0,0,0,0,34.5, 3.3, 0,0,0,1024,1024,1062,1024,0,0,6,0,34.4,2.4,0,99,4.293,4.292,0,0,0,0,1.5,72.32,3.28084E-5,0,10,Assisted_Takeoff,
26300,2022-08-30 05:03:18,0,0,0,,,3.28084E-5,0.328084,0,0,0,0,0,8.63,3.28084E-5,0,0,0,0,0,0,34.5, 3.3, 0,0,0,1024,1024,1376,1024,0,0,53,0,34.5,2.4,0,99,4.293,4.292,0,0,0,0,1.5,72.32,3.28084E-5,0,10,Assisted_Takeoff,
26400,2022-08-30 05:03:18,0,0,0,,,3.28084E-5,0.328084,0,0,0,0,0,8.63,3.28084E-5,0,0,0,0,0,0,34.5, 3.3, 0,0,0,1024,1024,1397,1024,0,0,57,0,34.5,2.4,0,99,4.293,4.292,0,0,0,0,1.5,72.32,3.28084E-5,0,10,Assisted_Takeoff,
26500,2022-08-30 05:03:18,0,0,0,,,3.28084E-5,0.328084,0,0,0,0,0,8.63,3.28084E-5,0,0,0,0,0,0,34.6, 3.4, 0,0,0,1024,1024,1024,1024,0,0,0,0,34.5,2.4,0,99,4.293,4.292,0,0,0,0,1.5,72.32,3.28084E-5,0,10,Assisted_Takeoff,
26600,2022-08-30 05:03:18,0,0,0,,,3.28084E-5,0.328084,0,0,0,0,0,8.63,3.28084E-5,0,0,0,0,0,0,34.4, 3.3, 0,0,0,1024,1024,1065,1024,0,0,6,0,34.5,2.4,0,99,4.293,4.292,0,0,0,0,1.5,72.32,3.28084E-5,0,10,Assisted_Takeoff,
26700,2022-08-30 05:03:18,0,0,0,,,3.28084E-5,0.328084,0,0,0,0,0,8.63,3.28084E-5,0,0,0,0,0,0,34.8, 2.8, 0,0,0,1024,1024,1205,1024,0,0,27,0,34.5,2.4,0,99,4.293,4.292,0,0,0,0,1.5,72.32,3.28084E-5,0,10,Assisted_Takeoff,
26800,2022-08-30 05:03:18,0,0,0,,,3.28084E-5,0.328084,0,0,0,0,0,8.63,3.28084E-5,0,0,0,0,0,0,35.5, 3.3, 0,0,0,1024,1024,1282,1024,0,0,39,0,34.9,2.4,0,99,4.293,4.292,0,0,0,0,1.5,72.32,3.28084E-5,0,10,Assisted_Takeoff,
26900,2022-08-30 05:03:18,0,0,0,,,3.28084E-5,0.328084,0,0,0,0,0,8.63,3.28084E-5,0,0,0,0,0,0,36.2, 3.1, 0.1,0,0,1024,1024,1024,1024,0,0,0,0,35.5,2.4,0,99,4.293,4.292,0,0,0,0,1.5,72.32,3.28084E-5,0,10,Assisted_Takeoff,
27000,2022-08-30 05:03:18,0,0,0,,,3.28084E-5,0.328084,0,0,0,0,0,8.63,3.28084E-5,0,0,0,0,0,0,36.9, 0, 0.1,0,0,1024,1024,1024,1024,0,0,0,0,36.1,2.4,0,99,4.293,4.292,0,0,0,0,1.5,72.32,3.28084E-5,0,10,Assisted_Takeoff,
27100,2022-08-30 05:03:18,0,0,0,,,3.28084E-5,0.328084,0,0,0,0,0,8.62,3.28084E-5,0,0,0,0,0,-0.223694,37.8, -1.6, 0.2,0,0,1024,1024,1024,1024,0,0,0,0,36.9,2.4,0,99,4.287,4.28,0,0,0,0,1.961,72.32,3.28084E-5,0,10,Assisted_Takeoff,
27200,2022-08-30 05:03:19,0,0,0,,,3.28084E-5,0.328084,0,0,0,0,0,8.62,3.28084E-5,0,0,0,0,0,-0.223694,38.1, -0.1, 1.3,0,0,1024,1024,1024,1024,0,0,0,0,37.2,2.4,0,99,4.287,4.28,0,0,0,0,1.961,72.32,3.28084E-5,0,6,P-GPS,"Sin tarjeta SD. Inserta una tarjeta (Code: 10022)"
27300,2022-08-30 05:03:19,0,0,0,,,3.28084E-5,0.328084,0,0,0,0,0,8.62,3.28084E-5,0,0,0,0,0,-0.223694,37.5, -1.4, -0.4,0,0,1024,1024,1024,1024,0,0,0,0,37.2,2.4,0,99,4.287,4.28,0,0,0,0,1.961,72.32,3.28084E-5,0,6,P-GPS,
27400,2022-08-30 05:03:19,0,0,0,,,3.28084E-5,0.328084,0,0,0,0,0,8.62,3.28084E-5,0,0,0,0,0,-0.223694,37.4, -0.9, -0.8,0,0,1024,1024,1024,1024,0,0,0,0,37.2,2.4,0,99,4.287,4.28,0,0,0,0,1.961,72.32,3.28084E-5,0,6,P-GPS,
27500,2022-08-30 05:03:19,0,0,0,,,3.28084E-5,0.328084,0,0,0,0,0,8.62,3.28084E-5,0,0,0,0,0,-0.447388,37.4, -0.7, -0.6,0,0,1024,1024,1024,1024,0,0,0,0,37.2,2.4,0,99,4.287,4.28,0,0,0,0,1.961,72.32,3.28084E-5,0,6,P-GPS,
27600,2022-08-30 05:03:19,0,0,0,,,3.28084E-5,0.656168,0,0,0,0,0,8.62,3.28084E-5,0,0,0,0,0,-0.447388,37.4, -0.1, -0.7,0,0,1024,1024,1024,1024,0,0,0,0,37.2,2.4,0,99,4.287,4.28,0,0,0,0,1.961,72.32,3.28084E-5,0,6,P-GPS,
27700,2022-08-30 05:03:19,0,0,0.328084,,,0.3281168084,0.656168,0,0,0,0,0,8.62,0.3281168084,0.328084,0,0,0,0,-0.671082,37.4, 0.1, -0.5,0,0,1029,1024,1024,1024,1,0,0,0,37.2,2.4,0,99,4.287,4.28,0,0,0,0,1.961,72.32,0.3281168084,0.328084,6,P-GPS,
27800,2022-08-30 05:03:19,0,0,0.328084,,,0.3281168084,0.656168,0,0,0,0,0,8.62,0.3281168084,0.328084,0,0,0,0,-0.894776,37.4, 0.3, -0.3,0,0,1024,1024,1024,1024,0,0,0,0,37.2,2.4,0,99,4.287,4.28,0,0,0,0,1.961,72.32,0.3281168084,0.328084,6,P-GPS,
27900,2022-08-30 05:03:19,0,0,0.328084,,,0.3281168084,0.656168,0,0,0,0,0,8.62,0.3281168084,0.328084,0,0,0,0,-0.894776,37.2, 0.3, 0,0,0,1024,1024,1024,1024,0,0,0,0,37.2,2.4,0,99,4.287,4.28,0,0,0,0,1.961,72.32,0.3281168084,0.328084,6,P-GPS,
28000,2022-08-30 05:03:19,0,0,0.656168,,,0.6562008084,0.984252,0,0,0,0,0,8.62,0.6562008084,0.656168,0,0,0,0,-1.11847,37.2, 0, 0,0,0,1024,1024,1024,1024,0,0,0,0,37.2,2.4,0,99,4.287,4.28,0,0,0,0,1.961,72.32,0.6562008084,0.656168,6,P-GPS,
28100,2022-08-30 05:03:19,0,0,0.984252,,,0.9842848084,0.984252,0,0,0,0,0,8.62,0.9842848084,0.984252,0,0,0,0,-0.894776,37.2, 0, -0.1,0,0,1024,1024,1024,1024,0,0,0,0,37.2,2.4,0,99,4.287,4.28,0,0,0,0,1.961,72.32,0.9842848084,0.984252,6,P-GPS,
28200,2022-08-30 05:03:20,0,0,0.984252,,,0.9842848084,1.312336,0,0,0,0,0,8.49,0.9842848084,0.984252,0,0,0,0,-0.894776,37.2, 0, -0.1,0,0,1024,1024,1024,1024,0,0,0,0,37.2,2.4,0,99,4.231,4.226,0,0,0,0,3.226,72.32,0.9842848084,0.984252,6,P-GPS,
28300,2022-08-30 05:03:20,0,0,0.984252,,,0.9842848084,1.312336,0,0,0,0,0,8.49,0.9842848084,0.984252,0,0,0,0,-0.671082,37.1, 0, -0.2,0,0,1024,1024,1024,1024,0,0,0,0,37.2,2.4,0,99,4.231,4.226,0,0,0,0,3.226,72.32,0.9842848084,0.984252,6,P-GPS,
28400,2022-08-30 05:03:20,0,0,1.312336,,,1.3123688084,1.312336,0,0,0,0,0,8.49,1.3123688084,1.312336,0,0,0,0,-0.671082,37.1, 0.2, 0,0,0,1024,1024,1024,1024,0,0,0,0,37.2,2.4,0,99,4.231,4.226,0,0,0,0,3.226,72.32,1.3123688084,1.312336,6,P-GPS,
28500,2022-08-30 05:03:20,0,0,1.312336,,,1.3123688084,1.64042,0,0,0,0,0,8.49,1.3123688084,1.312336,0,0,0,0,-0.447388,37.1, 0.4, 0,0,0,1024,1024,1024,1024,0,0,0,0,37.2,2.4,0,99,4.231,4.226,0,0,0,0,3.226,72.32,1.3123688084,1.312336,6,P-GPS,
28600,2022-08-30 05:03:20,0,0,1.312336,,,1.3123688084,1.64042,0,0,0,0,0,8.49,1.3123688084,1.312336,0,0,0,0,-0.223694,37.1, 0.5, 0.1,0,0,1024,1024,1024,1024,0,0,0,0,37.2,2.4,0,99,4.231,4.226,0,0,0,0,3.226,72.32,1.3123688084,1.312336,6,P-GPS,
28700,2022-08-30 05:03:20,0,0,1.312336,,,1.3123688084,1.64042,0,0,0,0,0,8.49,1.3123688084,1.312336,0,0,0,0,0,37.2, 0.8, 0.3,0,0,1024,1024,1024,1024,0,0,0,0,37.2,2.4,0,99,4.231,4.226,0,0,0,0,3.226,72.32,1.3123688084,1.312336,6,P-GPS,
28800,2022-08-30 05:03:20,0,0,1.64042,,,1.6404528084,1.64042,0,0,0,0,0,8.49,1.6404528084,1.64042,0,0,0,0,0,37.2, 0.7, 0.2,0,0,1024,1024,1024,1024,0,0,0,0,37.2,2.4,0,99,4.231,4.226,0,0,0,0,3.226,72.32,1.6404528084,1.64042,6,P-GPS,
28900,2022-08-30 05:03:20,0,0,1.64042,,,1.6404528084,1.64042,0,0,0,0,0,8.49,1.6404528084,1.64042,0,0,0,0,0,37.2, 0.5, 0.1,0,0,1024,1024,1024,1024,0,0,0,0,37.2,2.4,0,99,4.231,4.226,0,0,0,0,3.226,72.32,1.6404528084,1.64042,6,P-GPS,
29000,2022-08-30 05:03:20,0,0,1.64042,,,1.6404528084,1.64042,0,0,0,0,0,8.49,1.6404528084,1.64042,0,0,0,0,0,37.2, 0.4, 0,0,0,1024,1024,1024,1024,0,0,0,0,37.2,2.4,0,99,4.231,4.226,0,0,0,0,3.226,72.32,1.6404528084,1.64042,6,P-GPS,
29100,2022-08-30 05:03:21,0,0,1.64042,,,1.6404528084,1.64042,0,0,0,0,0,8.49,1.6404528084,1.64042,0,0,0,0,0,37.2, 0.4, -0.1,0,0,1024,1024,1024,1024,0,0,0,0,37.2,2.4,0,99,4.231,4.226,0,0,0,0,3.226,72.32,1.6404528084,1.64042,6,P-GPS,
29200,2022-08-30 05:03:21,0,0,1.64042,,,1.6404528084,1.64042,0,0,0,0,0,8.482,1.6404528084,1.64042,0,0,0,0,0,37.2, 0.3, -0.1,0,0,1024,1024,1024,1024,0,0,0,0,37.2,2.4,0,99,4.239,4.233,0,0,0,0,4.023,72.32,1.6404528084,1.64042,6,P-GPS,
29300,2022-08-30 05:03:21,0,0,1.64042,,,1.6404528084,1.64042,0,0,0,0,0,8.482,1.6404528084,1.64042,0,0,0,0,0,37.2, 0.3, 0,0,0,1024,1024,1024,1024,0,0,0,0,37.2,2.4,0,99,4.239,4.233,0,0,0,0,4.023,72.32,1.6404528084,1.64042,6,P-GPS,
29400,2022-08-30 05:03:21,0,0,1.64042,,,1.6404528084,1.64042,0,0,0,0,0,8.482,1.6404528084,1.64042,0,0,0,0,0,37.2, 0.3, -0.1,0,0,1024,1024,1024,1024,0,0,0,0,37.2,2.4,0,99,4.239,4.233,0,0,0,0,4.023,72.32,1.6404528084,1.64042,6,P-GPS,
29500,2022-08-30 05:03:21,0,0,1.64042,,,1.6404528084,1.64042,0,0,0,0,0,8.482,1.6404528084,1.64042,0,0,0,0,0,37.2, 0.3, -0.1,0,0,1024,1024,1024,1024,0,0,0,0,37.2,2.4,0,99,4.239,4.233,0,0,0,0,4.023,72.32,1.6404528084,1.64042,6,P-GPS,
29600,2022-08-30 05:03:21,0,0,1.64042,,,1.6404528084,1.64042,0,0,0,0,0,8.482,1.6404528084,1.64042,0,0,0,0,0,37.2, 0.5, -0.2,0,0,1024,1024,1024,1024,0,0,0,0,37.2,2.4,0,99,4.239,4.233,0,0,0,0,4.023,72.32,1.6404528084,1.64042,6,P-GPS,
29700,2022-08-30 05:03:21,0,0,1.64042,,,1.6404528084,1.64042,0,0,0,0,0,8.482,1.6404528084,1.64042,0,0,0,0,0,37.1, 0.4, -0.2,0,0,1024,1024,1024,1024,0,0,0,0,37.2,2.4,0,99,4.239,4.233,0,0,0,0,4.023,72.32,1.6404528084,1.64042,6,P-GPS,
29800,2022-08-30 05:03:21,0,0,1.64042,,,1.6404528084,1.64042,0,0,0,0,0,8.482,1.6404528084,1.64042,0,0,0,0,0,37.2, 0.4, -0.2,0,0,1024,1024,1024,1024,0,0,0,0,37.2,2.4,0,99,4.239,4.233,0,0,0,0,4.023,72.32,1.6404528084,1.64042,6,P-GPS,
29900,2022-08-30 05:03:21,0,0,1.64042,,,1.6404528084,1.64042,0,0,0,0,0,8.482,1.6404528084,1.64042,0,0,0,0,0,37.2, 0.3, -0.1,0,0,1024,1024,1024,1024,0,0,0,0,37.2,2.4,0,99,4.239,4.233,0,0,0,0,4.023,72.32,1.6404528084,1.64042,6,P-GPS,
30000,2022-08-30 05:03:21,0,0,1.64042,,,1.6404528084,1.64042,0,0,0,0,0,8.482,1.6404528084,1.64042,0,0,0,0,0,37.2, 0.5, -0.3,0,0,1024,1024,1024,1024,0,0,0,0,37.2,2.4,0,99,4.239,4.233,0,0,0,0,4.023,72.32,1.6404528084,1.64042,6,P-GPS,
30100,2022-08-30 05:03:21,0,0,1.64042,,,1.6404528084,1.64042,0,0,0,0,0,8.482,1.6404528084,1.64042,0,0,0,0,0,37.2, 0.4, -0.3,0,0,1024,1024,1024,1024,0,0,0,0,37.2,2.4,0,99,4.239,4.233,0,0,0,0,4.023,72.32,1.6404528084,1.64042,6,P-GPS,
30200,2022-08-30 05:03:22,0,0,1.64042,,,1.6404528084,1.64042,0,0,0,0,0,8.464,1.6404528084,1.64042,0,0,0,0,0,37.2, 0.4, -0.3,0,0,1024,1024,1024,1024,0,0,0,0,37.2,2.4,0,99,4.232,4.227,0,0,0,0,3.956,72.32,1.6404528084,1.64042,6,P-GPS,
30300,2022-08-30 05:03:22,0,0,1.64042,,,1.6404528084,1.64042,0,0,0,0,0,8.464,1.6404528084,1.64042,0,0,0,0,0,37.2, 0.4, -0.3,0,0,1024,1024,1024,1024,0,0,0,0,37.2,2.4,0,99,4.232,4.227,0,0,0,0,3.956,72.32,1.6404528084,1.64042,6,P-GPS,
30400,2022-08-30 05:03:22,0,0,1.64042,,,1.6404528084,1.64042,0,0,0,0,0,8.464,1.6404528084,1.64042,0,0,0,0,0,37.2, 0.6, -0.4,0,0,1024,1024,1024,1024,0,0,0,0,37.2,2.4,0,99,4.232,4.227,0,0,0,0,3.956,72.32,1.6404528084,1.64042,6,P-GPS,
30500,2022-08-30 05:03:22,0,0,1.64042,,,1.6404528084,1.64042,0,0,0,0,0,8.464,1.6404528084,1.64042,0,0,0,0,0,37.2, 0.5, -0.3,0,0,1024,1024,1024,1024,0,0,0,0,37.2,2.4,0,99,4.232,4.227,0,0,0,0,3.956,72.32,1.6404528084,1.64042,6,P-GPS,
30600,2022-08-30 05:03:22,0,0,1.64042,,,1.6404528084,1.64042,0,0,0,0,0,8.464,1.6404528084,1.64042,0,0,0,0,0,37.2, 0.4, -0.3,0,0,1024,1024,1024,1024,0,0,0,0,37.2,2.4,0,99,4.232,4.227,0,0,0,0,3.956,72.32,1.6404528084,1.64042,6,P-GPS,
30700,2022-08-30 05:03:22,0,0,1.64042,,,1.6404528084,1.64042,0,0,0,0,0,8.464,1.6404528084,1.64042,0,0,0,0,0,37.2, 0.4, -0.3,0,0,1024,1024,1024,1024,0,0,0,0,37.2,2.4,0,99,4.232,4.227,0,0,0,0,3.956,72.32,1.6404528084,1.64042,6,P-GPS,
30800,2022-08-30 05:03:22,0,0,1.64042,,,1.6404528084,1.64042,0,0,0,0,0,8.464,1.6404528084,1.64042,0,0,0,0,0,37.2, 0.4, -0.3,0,0,1024,1024,1024,1024,0,0,0,0,37.2,2.4,0,99,4.232,4.227,0,0,0,0,3.956,72.32,1.6404528084,1.64042,6,P-GPS,
30900,2022-08-30 05:03:22,0,0,1.64042,,,1.6404528084,1.64042,0,0,0,0,0,8.464,1.6404528084,1.64042,0,0,0,0,0,37.2, 0.3, -0.3,0,0,1024,1024,1024,1024,0,0,0,0,37.2,2.4,0,99,4.232,4.227,0,0,0,0,3.956,72.32,1.6404528084,1.64042,6,P-GPS,
31000,2022-08-30 05:03:22,0,0,1.64042,,,1.6404528084,1.64042,0,0,0,0,0,8.464,1.6404528084,1.64042,0,0,0,0,0,37.2, 0.3, -0.2,0,0,1024,1024,1024,1024,0,0,0,0,37.2,2.4,0,99,4.232,4.227,0,0,0,0,3.956,72.32,1.6404528084,1.64042,6,P-GPS,
31100,2022-08-30 05:03:22,0,0,1.64042,,,1.6404528084,1.64042,0,0,0,0,0,8.464,1.6404528084,1.64042,0,0,0,0,0,37.2, 0.2, -0.2,0,0,1024,1024,1024,1024,0,0,0,0,37.2,2.4,0,99,4.232,4.227,0,0,0,0,3.956,72.32,1.6404528084,1.64042,6,P-GPS,
31200,2022-08-30 05:03:23,0,0,1.64042,,,1.6404528084,1.64042,0,0,0,0,0,8.456,1.6404528084,1.64042,0,0,0,0,0,37.2, 0.2, -0.1,0,0,1024,1024,1024,1024,0,0,0,0,37.2,2.4,0,99,4.229,4.223,0,0,0,0,4.023,72.32,1.6404528084,1.64042,6,P-GPS,
31300,2022-08-30 05:03:23,0,0,1.64042,,,1.6404528084,1.64042,0,0,0,0,0,8.456,1.6404528084,1.64042,0,0,0,0,0,37.2, 0.3, -0.1,0,0,1024,1024,1024,1024,0,0,0,0,37.2,2.4,0,99,4.229,4.223,0,0,0,0,4.023,72.32,1.6404528084,1.64042,6,P-GPS,
31400,2022-08-30 05:03:23,0,0,1.64042,,,1.6404528084,1.64042,0,0,0,0,0,8.456,1.6404528084,1.64042,0,0,0,0,0,37.2, 0.2, 0,0,0,1024,1024,1024,1024,0,0,0,0,37.2,2.4,0,99,4.229,4.223,0,0,0,0,4.023,72.32,1.6404528084,1.64042,6,P-GPS,
31500,2022-08-30 05:03:23,0,0,1.64042,,,1.6404528084,1.64042,0,0,0,0,0,8.456,1.6404528084,1.64042,0,0,0,0,0,37.2, 0.1, -0.1,0,0,1024,1024,1024,1024,0,0,0,0,37.2,2.4,0,99,4.229,4.223,0,0,0,0,4.023,72.32,1.6404528084,1.64042,6,P-GPS,
31600,2022-08-30 05:03:23,0,0,1.64042,,,1.6404528084,1.64042,0,0,0,0,0,8.456,1.6404528084,1.64042,0,0,0,0,0,37.2, 0.2, -0.1,0,0,1024,1024,1024,1024,0,0,0,0,37.2,2.4,0,99,4.229,4.223,0,0,0,0,4.023,72.32,1.6404528084,1.64042,6,P-GPS,
31700,2022-08-30 05:03:23,0,0,1.64042,,,1.6404528084,1.64042,0,0,0,0,0,8.456,1.6404528084,1.64042,0,0,0,0,0,37.2, 0.2, -0.1,0,0,1024,1024,1024,1024,0,0,0,0,37.2,2.4,0,99,4.229,4.223,0,0,0,0,4.023,72.32,1.6404528084,1.64042,6,P-GPS,
31800,2022-08-30 05:03:23,0,0,1.64042,,,1.6404528084,1.64042,0,0,0,0,0,8.456,1.6404528084,1.64042,0,0,0,0,0,37.2, 0.2, -0.1,0,0,1024,1024,1024,1024,0,0,0,0,37.2,2.4,0,99,4.229,4.223,0,0,0,0,4.023,72.32,1.6404528084,1.64042,6,P-GPS,
31900,2022-08-30 05:03:23,0,0,1.64042,,,1.6404528084,1.64042,0,0,0,0,0,8.456,1.6404528084,1.64042,0,0,0,0,0,37.2, 0.2, 0,0,0,1024,1024,1024,1024,0,0,0,0,37.2,2.4,0,99,4.229,4.223,0,0,0,0,4.023,72.32,1.6404528084,1.64042,6,P-GPS,
32000,2022-08-30 05:03:23,0,0,1.64042,,,1.6404528084,1.64042,0,0,0,0,0,8.456,1.6404528084,1.64042,0,0,0,0,0,37.2, 0.1, 0,0,0,1024,1024,1024,1024,0,0,0,0,37.2,2.4,0,99,4.229,4.223,0,0,0,0,4.023,72.32,1.6404528084,1.64042,6,P-GPS,
32100,2022-08-30 05:03:23,0,0,1.64042,,,1.6404528084,1.64042,0,0,0,0,0,8.456,1.6404528084,1.64042,0,0,0,0,0,37.2, 0.1, 0,0,0,1024,1024,1024,1024,0,0,0,0,37.2,2.4,0,99,4.229,4.223,0,0,0,0,4.023,72.32,1.6404528084,1.64042,6,P-GPS,
32200,2022-08-30 05:03:24,0,0,1.968504,,,1.9685368084,1.64042,0,0,0,0,0,8.449,1.9685368084,1.968504,0,0,0,0,0,37.2, 0.1, 0,0,0,1024,1024,1024,1024,0,0,0,0,37.2,2.4,0,99,4.226,4.221,0,0,0,0,4.027,72.32,1.9685368084,1.968504,6,P-GPS,
32300,2022-08-30 05:03:24,0,0,1.968504,,,1.9685368084,1.64042,0,0,0,0,0,8.449,1.9685368084,1.968504,0,0,0,0,0,37.2, 0.1, -0.1,0,0,1043,1024,1024,1024,3,0,0,0,37.2,2.4,0,99,4.226,4.221,0,0,0,0,4.027,72.32,1.9685368084,1.968504,6,P-GPS,
32400,2022-08-30 05:03:24,0,0,1.968504,,,1.9685368084,1.64042,0,0,0,0,0,8.449,1.9685368084,1.968504,0,0,0,0,0,37.2, 0.1, -0.2,0,0,1184,1024,1024,1024,24,0,0,0,37.2,2.4,0,99,4.226,4.221,0,0,0,0,4.027,72.32,1.9685368084,1.968504,6,P-GPS,
32500,2022-08-30 05:03:24,0,0,1.968504,,,1.9685368084,1.64042,0,0,0,0,0,8.449,1.9685368084,1.968504,0,0,0,0,0,37.2, 0.1, -0.3,0,0,1306,1024,1024,1024,43,0,0,0,37.2,2.4,0,99,4.226,4.221,0,0,0,0,4.027,72.32,1.9685368084,1.968504,6,P-GPS,
32600,2022-08-30 05:03:24,0,0,1.968504,,,1.9685368084,1.64042,0,0,0,0,0,8.449,1.9685368084,1.968504,0,0,0,0,0,37.2, -1, -0.2,0,0,1306,1024,1024,1024,43,0,0,0,37.2,2.4,0,99,4.226,4.221,0,0,0,0,4.027,72.32,1.9685368084,1.968504,6,P-GPS,
32700,2022-08-30 05:03:24,0,0,1.968504,,,1.9685368084,1.64042,0,0,0,0,0,8.449,1.9685368084,1.968504,0,0,0,0,0,37.2, -3.3, -0.2,0,0,1070,1024,1024,1024,7,0,0,0,37.2,2.4,0,99,4.226,4.221,0,0,0,0,4.027,72.32,1.9685368084,1.968504,6,P-GPS,
32800,2022-08-30 05:03:24,0,0,1.968504,,,1.9685368084,1.64042,0,0,0,0,0,8.449,1.9685368084,1.968504,0,0,0,0,0,37.2, -3.3, -0.2,0,0,1024,1024,1024,1024,0,0,0,0,37.2,2.4,0,99,4.226,4.221,0,0,0,0,4.027,72.32,1.9685368084,1.968504,6,P-GPS,
32900,2022-08-30 05:03:24,0,0,1.968504,,,1.9685368084,1.64042,0,0,0,0,0,8.449,1.9685368084,1.968504,0,0,0,0,0,37.1, 0.9, -0.1,0,0,1024,1024,1024,1024,0,0,0,0,37.2,2.4,0,99,4.226,4.221,0,0,0,0,4.027,72.32,1.9685368084,1.968504,6,P-GPS,
33000,2022-08-30 05:03:24,0,0,1.968504,,,1.9685368084,1.64042,0,0,0,0,0,8.449,1.9685368084,1.968504,0,0,0,0,0,37.1, 1.4, 0,0,0,1024,1024,1024,1024,0,0,0,0,37.2,2.4,0,99,4.226,4.221,0,0,0,0,4.027,72.32,1.9685368084,1.968504,6,P-GPS,
33100,2022-08-30 05:03:24,0,0,1.968504,,,1.9685368084,1.64042,0,0,0,0,0,8.449,1.9685368084,1.968504,0,0,0,0,0,37.1, 1.2, 0,0,0,1024,1024,1024,1024,0,0,0,0,37.2,2.4,0,99,4.226,4.221,0,0,0,0,4.027,72.32,1.9685368084,1.968504,6,P-GPS,
33200,2022-08-30 05:03:25,0,0,1.968504,,,1.9685368084,1.64042,0,0,0,0,0,8.449,1.9685368084,1.968504,0,0,0,0,0,37.2, 1.1, 0,0,0,1032,1024,1024,1024,1,0,0,0,37.2,2.4,0,99,4.226,4.221,0,0,0,0,4.027,72.32,1.9685368084,1.968504,6,P-GPS,
33300,2022-08-30 05:03:25,0,0,1.968504,,,1.9685368084,1.64042,0,0,0,0,0,8.444,1.9685368084,1.968504,0,0,0,0,0,37.2, 1, 0,0,0,1612,1024,1024,1024,89,0,0,0,37.2,2.4,0,99,4.222,4.217,0,0,0,0,4.039,72.32,1.9685368084,1.968504,6,P-GPS,
33400,2022-08-30 05:03:25,0,0,1.968504,,,1.9685368084,1.64042,0,0,0,0,0,8.444,1.9685368084,1.968504,0,0,0,0,0,37.2, 0.4, 0,0,0,1295,1024,1024,1024,41,0,0,0,37.2,2.4,0,99,4.222,4.217,0,0,0,0,4.039,72.32,1.9685368084,1.968504,6,P-GPS,
33500,2022-08-30 05:03:25,0,0,1.968504,,,1.9685368084,1.64042,0,0,0,0,0,8.444,1.9685368084,1.968504,0,0,0,0,0,37.2, -8.3, 0,0,0,1295,1024,1024,1024,41,0,0,0,37.2,2.4,0,99,4.222,4.217,0,0,0,0,4.039,72.32,1.9685368084,1.968504,6,P-GPS,
33600,2022-08-30 05:03:25,0,0,1.968504,,,1.9685368084,1.64042,0.3131716,0,0,0,0,8.444,1.9685368084,1.968504,0,0,0.223694,0.223694,0,37.2, -10.3, 0,0,0,1024,1024,1024,1024,0,0,0,0,37.2,2.4,0,99,4.222,4.217,0,0,0,0,4.039,72.32,1.9685368084,1.968504,6,P-GPS,
33700,2022-08-30 05:03:25,0,0,1.968504,,,1.9685368084,1.64042,0.6263432,0,0,0,0,8.444,1.9685368084,1.968504,0,0,0.447388,0.447388,0,37.1, 0.7, -0.1,0,0,1024,1024,1024,1024,0,0,0,0,37.2,2.4,0,99,4.222,4.217,0,0,0,0,4.039,72.32,1.9685368084,1.968504,6,P-GPS,
33800,2022-08-30 05:03:25,0,0,1.968504,,,1.9685368084,1.64042,0.6263432,0,0,0,0,8.444,1.9685368084,1.968504,0,0,0.447388,0.447388,0,37.2, 3.7, -0.1,0,0,1024,1024,1024,1024,0,0,0,0,37.2,2.4,0,99,4.222,4.217,0,0,0,0,4.039,72.32,1.9685368084,1.968504,6,P-GPS,
33900,2022-08-30 05:03:25,0,0,1.968504,,,1.9685368084,1.64042,0.4921268,0,0,0,0,8.444,1.9685368084,1.968504,0,0,0.447388,0.223694,0,37.2, 3.8, -0.1,0,0,1024,1024,1024,1024,0,0,0,0,37.2,2.4,0,99,4.222,4.217,0,0,0,0,4.039,72.32,1.9685368084,1.968504,6,P-GPS,
34000,2022-08-30 05:03:25,0,0,1.968504,,,1.9685368084,1.64042,0.3131716,0,0,0,0,8.444,1.9685368084,1.968504,0,0,0.223694,0.223694,0,37.2, 3.3, -0.1,0,0,1024,1024,1024,1024,0,0,0,0,37.2,2.4,0,99,4.222,4.217,0,0,0,0,4.039,72.32,1.9685368084,1.968504,6,P-GPS,
34100,2022-08-30 05:03:25,0,0,1.968504,,,1.9685368084,1.64042,0.3131716,0,0,0,0,8.444,1.9685368084,1.968504,0,0,0.223694,0.223694,0,37.2, 2.8, -0.1,0,0,1024,1024,1024,1024,0,0,0,0,37.2,2.4,0,99,4.222,4.217,0,0,0,0,4.039,72.32,1.9685368084,1.968504,6,P-GPS,
34200,2022-08-30 05:03:26,0,0,1.968504,,,1.9685368084,1.64042,0,0,0,0,0,8.444,1.9685368084,1.968504,0,0,0,0,0,37.2, 2.3, -0.1,0,0,1024,1024,1024,1024,0,0,0,0,37.2,2.4,0,99,4.222,4.217,0,0,0,0,4.039,72.32,1.9685368084,1.968504,6,P-GPS,
34300,2022-08-30 05:03:26,0,0,1.968504,,,1.9685368084,1.64042,0,0,0,0,0,8.427,1.9685368084,1.968504,0,0,0,0,0,37.2, 1.7, -0.1,0,0,1024,1024,1024,1024,0,0,0,0,37.2,2.4,0,99,4.22,4.212,0,0,0,0,4.11,72.5,1.9685368084,1.968504,6,P-GPS,
34400,2022-08-30 05:03:26,0,0,1.968504,,,1.9685368084,1.64042,0,0,0,0,0,8.427,1.9685368084,1.968504,0,0,0,0,0,37.2, 1.4, 0,0,0,1024,933,1024,1024,0,-14,0,0,37.2,2.4,0,99,4.22,4.212,0,0,0,0,4.11,72.5,1.9685368084,1.968504,6,P-GPS,
34500,2022-08-30 05:03:26,0,0,1.968504,,,1.9685368084,1.64042,0,0,0,0,0,8.427,1.9685368084,1.968504,0,0,0,0,0,37.2, 1.4, 0,0,0,1024,933,1024,1024,0,-14,0,0,37.2,2.4,0,99,4.22,4.212,0,0,0,0,4.11,72.5,1.9685368084,1.968504,6,P-GPS,
34600,2022-08-30 05:03:26,0,0,1.968504,,,1.9685368084,1.64042,0,0,0,0,0,8.427,1.9685368084,1.968504,0,0,0,0,0,37.2, 1, -0.1,0,0,1024,672,1024,1024,0,-53,0,0,37.2,2.4,0,99,4.22,4.212,0,0,0,0,4.11,72.5,1.9685368084,1.968504,6,P-GPS,
34700,2022-08-30 05:03:26,0,0,1.968504,,,1.9685368084,1.64042,0,0,0,0,0,8.427,1.9685368084,1.968504,0,0,0,0,0,37.2, 0.8, -2.7,0,0,1024,699,1024,1024,0,-49,0,0,37.2,2.4,0,99,4.22,4.212,0,0,0,0,4.11,72.5,1.9685368084,1.968504,6,P-GPS,
34800,2022-08-30 05:03:26,0,0,1.968504,,,1.9685368084,1.64042,0,0,0,0,0,8.427,1.9685368084,1.968504,0,0,0,0,0,37, 0.6, -6.9,0,0,1024,1024,1024,1024,0,0,0,0,37.2,2.4,0,99,4.22,4.212,0,0,0,0,4.11,72.5,1.9685368084,1.968504,6,P-GPS,
34900,2022-08-30 05:03:26,0,0,1.968504,,,1.9685368084,1.64042,0.3131716,0,0,0,0,8.427,1.9685368084,1.968504,0,0,0.223694,-0.223694,0,37.3, 0.5, 0.3,0,0,1024,1024,1024,1024,0,0,0,0,37.2,2.4,0,99,4.22,4.212,0,0,0,0,4.11,72.5,1.9685368084,1.968504,6,P-GPS,
35000,2022-08-30 05:03:26,0,0,1.968504,,,1.9685368084,1.64042,0.3131716,0,0,0,0,8.427,1.9685368084,1.968504,0,0,0.223694,-0.223694,0,37.3, 0.2, 2.1,0,0,1024,1024,1024,1024,0,0,0,0,37.2,2.4,0,99,4.22,4.212,0,0,0,0,4.11,72.5,1.9685368084,1.968504,6,P-GPS,
35100,2022-08-30 05:03:26,0,0,1.968504,,,1.9685368084,1.64042,0.3131716,0,0,0,0,8.427,1.9685368084,1.968504,0,0,0.223694,-0.223694,0,37.2, 0.2, 2,0,0,1024,1024,1024,1024,0,0,0,0,37.2,2.4,0,99,4.22,4.212,0,0,0,0,4.11,72.5,1.9685368084,1.968504,6,P-GPS,
35200,2022-08-30 05:03:27,0,0,1.968504,,,1.9685368084,1.64042,0,0,0,0,0,8.427,1.9685368084,1.968504,0,0,0,0,0,37.2, 0.3, 1.7,0,0,1024,1024,1024,1024,0,0,0,0,37.2,2.4,0,99,4.22,4.212,0,0,0,0,4.11,72.5,1.9685368084,1.968504,6,P-GPS,
35300,2022-08-30 05:03:27,0,0,1.968504,,,1.9685368084,1.64042,0,0,0,0,0,8.433,1.9685368084,1.968504,0,0,0,0,0,37.2, 0.3, 1.5,0,0,1024,1024,1024,1024,0,0,0,0,37.2,2.4,0,99,4.217,4.209,0,0,0,0,4.043,72.5,1.9685368084,1.968504,6,P-GPS,
35400,2022-08-30 05:03:27,0,0,1.968504,,,1.9685368084,1.64042,0,0,0,0,0,8.433,1.9685368084,1.968504,0,0,0,0,0,37.2, 0.2, 1.8,0,0,1024,1024,1024,1024,0,0,0,0,37.2,2.4,0,99,4.217,4.209,0,0,0,0,4.043,72.5,1.9685368084,1.968504,6,P-GPS,
35500,2022-08-30 05:03:27,0,0,1.968504,,,1.9685368084,1.64042,0,0,0,0,0,8.433,1.9685368084,1.968504,0,0,0,0,0,37.2, 0.3, 1.3,0,0,1024,1024,1024,1024,0,0,0,0,37.2,2.4,0,99,4.217,4.209,0,0,0,0,4.043,72.5,1.9685368084,1.968504,6,P-GPS,
35600,2022-08-30 05:03:27,0,0,1.968504,,,1.9685368084,1.64042,0,0,0,0,0,8.433,1.9685368084,1.968504,0,0,0,0,0,37.2, 0.3, 1,0,0,1024,1024,1024,1024,0,0,0,0,37.2,2.4,0,99,4.217,4.209,0,0,0,0,4.043,72.5,1.9685368084,1.968504,6,P-GPS,
35700,2022-08-30 05:03:27,0,0,1.968504,,,1.9685368084,1.64042,0,0,0,0,0,8.433,1.9685368084,1.968504,0,0,0,0,0,37.2, 0.2, 0.7,0,0,1024,1024,1024,1024,0,0,0,0,37.2,2.4,0,99,4.217,4.209,0,0,0,0,4.043,72.5,1.9685368084,1.968504,6,P-GPS,
35800,2022-08-30 05:03:27,0,0,1.968504,,,1.9685368084,1.64042,0,0,0,0,0,8.433,1.9685368084,1.968504,0,0,0,0,0,37.1, 0.2, 0.5,0,0,1024,1024,1024,1024,0,0,0,0,37.2,2.4,0,99,4.217,4.209,0,0,0,0,4.043,72.5,1.9685368084,1.968504,6,P-GPS,
35900,2022-08-30 05:03:27,0,0,1.968504,,,1.9685368084,1.64042,0,0,0,0,0,8.433,1.9685368084,1.968504,0,0,0,0,0,37.1, 0.1, 0.3,0,0,1024,1024,1024,1024,0,0,0,0,37.2,2.4,0,99,4.217,4.209,0,0,0,0,4.043,72.5,1.9685368084,1.968504,6,P-GPS,
36000,2022-08-30 05:03:27,0,0,1.968504,,,1.9685368084,1.64042,0,0,0,0,0,8.433,1.9685368084,1.968504,0,0,0,0,0,37.1, 0.1, 0.3,0,0,1024,1024,1024,1024,0,0,0,0,37.2,2.4,0,99,4.217,4.209,0,0,0,0,4.043,72.5,1.9685368084,1.968504,6,P-GPS,
36100,2022-08-30 05:03:27,0,0,1.968504,,,1.9685368084,1.64042,0,0,0,0,0,8.433,1.9685368084,1.968504,0,0,0,0,0,37.1, 0.1, 0.2,0,0,1024,1024,1024,1024,0,0,0,0,37.2,2.4,0,99,4.217,4.209,0,0,0,0,4.043,72.5,1.9685368084,1.968504,6,P-GPS,
36200,2022-08-30 05:03:28,0,0,1.968504,,,1.9685368084,1.64042,0,0,0,0,0,8.433,1.9685368084,1.968504,0,0,0,0,0,37.1, 0.2, 0.2,0,0,1024,1024,1024,1024,0,0,0,0,37.2,2.4,0,99,4.217,4.209,0,0,0,0,4.043,72.5,1.9685368084,1.968504,6,P-GPS,
36300,2022-08-30 05:03:28,0,0,1.968504,,,1.9685368084,1.64042,0,0,0,0,0,8.429,1.9685368084,1.968504,0,0,0,0,0,37.1, 0.2, 0.2,0,0,1024,1024,1024,1024,0,0,0,0,37.2,2.4,0,99,4.216,4.211,0,0,0,0,4.075,72.5,1.9685368084,1.968504,6,P-GPS,
36400,2022-08-30 05:03:28,0,0,1.968504,,,1.9685368084,1.64042,0,0,0,0,0,8.429,1.9685368084,1.968504,0,0,0,0,0,37.1, 0, 0.2,0,0,1024,1024,1024,1024,0,0,0,0,37.2,2.4,0,99,4.216,4.211,0,0,0,0,4.075,72.5,1.9685368084,1.968504,6,P-GPS,
36500,2022-08-30 05:03:28,0,0,1.968504,,,1.9685368084,1.64042,0,0,0,0,0,8.429,1.9685368084,1.968504,0,0,0,0,0,37.1, 0, 0.2,0,0,1024,1024,1024,1024,0,0,0,0,37.2,2.4,0,99,4.216,4.211,0,0,0,0,4.075,72.5,1.9685368084,1.968504,6,P-GPS,
36600,2022-08-30 05:03:28,0,0,1.968504,,,1.9685368084,1.64042,0,0,0,0,0,8.429,1.9685368084,1.968504,0,0,0,0,0,37.1, 0, 0.3,0,0,1024,1024,1024,1024,0,0,0,0,37.2,2.4,0,99,4.216,4.211,0,0,0,0,4.075,72.5,1.9685368084,1.968504,6,P-GPS,
36700,2022-08-30 05:03:28,0,0,1.968504,,,1.9685368084,1.64042,0,0,0,0,0,8.429,1.9685368084,1.968504,0,0,0,0,0,37.1, 0.1, 0.1,0,0,1024,1024,1024,1024,0,0,0,0,37.2,2.4,0,99,4.216,4.211,0,0,0,0,4.075,72.5,1.9685368084,1.968504,6,P-GPS,
36800,2022-08-30 05:03:28,0,0,1.968504,,,1.9685368084,1.64042,0,0,0,0,0,8.429,1.9685368084,1.968504,0,0,0,0,0,37.1, 0, 0.1,0,0,1024,1024,1024,1024,0,0,0,0,37.2,2.4,0,99,4.216,4.211,0,0,0,0,4.075,72.5,1.9685368084,1.968504,6,P-GPS,
36900,2022-08-30 05:03:28,0,0,1.968504,,,1.9685368084,1.64042,0,0,0,0,0,8.429,1.9685368084,1.968504,0,0,0,0,0,37.1, 0.1, 0,0,0,1024,1024,1024,1024,0,0,0,0,37.2,2.4,0,99,4.216,4.211,0,0,0,0,4.075,72.5,1.9685368084,1.968504,6,P-GPS,
37000,2022-08-30 05:03:28,0,0,1.968504,,,1.9685368084,1.64042,0,0,0,0,0,8.429,1.9685368084,1.968504,0,0,0,0,0,37.1, 0, 0,0,0,1024,1024,1024,1024,0,0,0,0,37.2,2.4,0,99,4.216,4.211,0,0,0,0,4.075,72.5,1.9685368084,1.968504,6,P-GPS,
37100,2022-08-30 05:03:28,0,0,1.968504,,,1.9685368084,1.64042,0,0,0,0,0,8.429,1.9685368084,1.968504,0,0,0,0,0,37.1, 0, -0.1,0,0,1024,1024,1024,1024,0,0,0,0,37.2,2.4,0,99,4.216,4.211,0,0,0,0,4.075,72.5,1.9685368084,1.968504,6,P-GPS,
37200,2022-08-30 05:03:29,0,0,1.968504,,,1.9685368084,1.64042,0,0,0,0,0,8.429,1.9685368084,1.968504,0,0,0,0,0,37.1, 0, -0.2,0,0,1024,1024,1024,1024,0,0,0,0,37.2,2.4,0,99,4.216,4.211,0,0,0,0,4.075,72.5,1.9685368084,1.968504,6,P-GPS,
37300,2022-08-30 05:03:29,0,0,1.968504,,,1.9685368084,1.64042,0,0,0,0,0,8.424,1.9685368084,1.968504,0,0,0,0,0,37.1, 0, -0.1,0,0,1024,1024,1024,1024,0,0,0,0,37.2,2.4,0,99,4.214,4.208,0,0,0,0,4.038,72.5,1.9685368084,1.968504,6,P-GPS,
37400,2022-08-30 05:03:29,0,0,1.968504,,,1.9685368084,1.64042,0,0,0,0,0,8.424,1.9685368084,1.968504,0,0,0,0,0,37.1, 0.1, 0,0,0,1024,1024,1024,1024,0,0,0,0,37.2,2.4,0,99,4.214,4.208,0,0,0,0,4.038,72.5,1.9685368084,1.968504,6,P-GPS,
37500,2022-08-30 05:03:29,0,0,1.968504,,,1.9685368084,1.64042,0,0,0,0,0,8.424,1.9685368084,1.968504,0,0,0,0,0,37.1, 0.1, 0.1,0,0,1024,1024,1024,1024,0,0,0,0,37.2,2.4,0,99,4.214,4.208,0,0,0,0,4.038,72.5,1.9685368084,1.968504,6,P-GPS,
37600,2022-08-30 05:03:29,0,0,1.968504,,,1.9685368084,1.64042,0,0,0,0,0,8.424,1.9685368084,1.968504,0,0,0,0,0,37.1, 0, 0,0,0,1024,1024,1024,1024,0,0,0,0,37.2,2.4,0,99,4.214,4.208,0,0,0,0,4.038,72.5,1.9685368084,1.968504,6,P-GPS,
37700,2022-08-30 05:03:29,0,0,1.968504,,,1.9685368084,1.64042,0,0,0,0,0,8.424,1.9685368084,1.968504,0,0,0,0,0,37.2, 0, 0,0,0,1024,1024,1024,1024,0,0,0,0,37.2,2.4,0,99,4.214,4.208,0,0,0,0,4.038,72.5,1.9685368084,1.968504,6,P-GPS,
37800,2022-08-30 05:03:29,0,0,1.968504,,,1.9685368084,1.64042,0,0,0,0,0,8.424,1.9685368084,1.968504,0,0,0,0,0,37.2, 0.1, 0,0,0,1024,1024,1024,1024,0,0,0,0,37.2,2.4,0,99,4.214,4.208,0,0,0,0,4.038,72.5,1.9685368084,1.968504,6,P-GPS,
37900,2022-08-30 05:03:29,0,0,1.968504,,,1.9685368084,1.64042,0,0,0,0,0,8.424,1.9685368084,1.968504,0,0,0,0,0,37.2, 0, 0.1,0,0,1024,1024,1024,1024,0,0,0,0,37.2,2.4,0,99,4.214,4.208,0,0,0,0,4.038,72.5,1.9685368084,1.968504,6,P-GPS,
38000,2022-08-30 05:03:29,0,0,1.968504,,,1.9685368084,1.64042,0,0,0,0,0,8.424,1.9685368084,1.968504,0,0,0,0,0,37.1, 0, 0.1,0,0,1024,1024,1024,1024,0,0,0,0,37.2,2.4,0,99,4.214,4.208,0,0,0,0,4.038,72.5,1.9685368084,1.968504,6,P-GPS,
38100,2022-08-30 05:03:29,0,0,1.968504,,,1.9685368084,1.64042,0,0,0,0,0,8.424,1.9685368084,1.968504,0,0,0,0,0,37.1, 0, 0,0,0,1024,1024,1024,1024,0,0,0,0,37.2,2.4,0,99,4.214,4.208,0,0,0,0,4.038,72.5,1.9685368084,1.968504,6,P-GPS,
38200,2022-08-30 05:03:30,0,0,1.968504,,,1.9685368084,1.64042,0,0,0,0,0,8.424,1.9685368084,1.968504,0,0,0,0,0,37.1, 0, 0.2,0,0,1024,1024,1024,1024,0,0,0,0,37.2,2.4,0,99,4.214,4.208,0,0,0,0,4.038,72.5,1.9685368084,1.968504,6,P-GPS,
38300,2022-08-30 05:03:30,0,0,1.968504,,,1.9685368084,1.64042,0,0,0,0,0,8.424,1.9685368084,1.968504,0,0,0,0,0,37.1, 0, 0.3,0,0,1024,1024,1024,1024,0,0,0,0,37.2,2.4,0,99,4.214,4.208,0,0,0,0,4.038,72.5,1.9685368084,1.968504,6,P-GPS,
38400,2022-08-30 05:03:30,0,0,1.968504,,,1.9685368084,1.64042,0,0,0,0,0,8.421,1.9685368084,1.968504,0,0,0,0,0,37.1, 0, 0,0,0,1089,1024,1024,1024,10,0,0,0,37.2,2.4,0,98,4.213,4.206,0,0,0,0,4.025,72.68,1.9685368084,1.968504,6,P-GPS,
38500,2022-08-30 05:03:30,0,0,1.968504,,,1.9685368084,1.64042,0,0,0,0,0,8.421,1.9685368084,1.968504,0,0,0,0,0,37.2, 0, -0.2,0,0,1138,1024,1024,1024,17,0,0,0,37.2,2.4,0,98,4.213,4.206,0,0,0,0,4.025,72.68,1.9685368084,1.968504,6,P-GPS,
38600,2022-08-30 05:03:30,0,0,1.968504,,,1.9685368084,1.64042,0,0,0,0,0,8.421,1.9685368084,1.968504,0,0,0,0,0,37.2, -0.4, 0,0,0,1137,1024,1024,1024,17,0,0,0,37.2,2.4,0,98,4.213,4.206,0,0,0,0,4.025,72.68,1.9685368084,1.968504,6,P-GPS,
38700,2022-08-30 05:03:30,0,0,1.968504,,,1.9685368084,1.64042,0,0,0,0,0,8.421,1.9685368084,1.968504,0,0,0,0,0,37.2, -1, 0,0,0,1102,1024,1024,1024,12,0,0,0,37.2,2.4,0,98,4.213,4.206,0,0,0,0,4.025,72.68,1.9685368084,1.968504,6,P-GPS,
38800,2022-08-30 05:03:30,0,0,1.968504,,,1.9685368084,1.64042,0,0,0,0,0,8.421,1.9685368084,1.968504,0,0,0,0,0,37.2, -1, 0,0,0,1102,1024,1024,1024,12,0,0,0,37.2,2.4,0,98,4.213,4.206,0,0,0,0,4.025,72.68,1.9685368084,1.968504,6,P-GPS,
38900,2022-08-30 05:03:30,0,0,1.968504,,,1.9685368084,1.64042,0,0,0,0,0,8.421,1.9685368084,1.968504,0,0,0,0,0,37.2, -0.8, 0,0,0,1026,1024,1024,1024,0,0,0,0,37.2,2.4,0,98,4.213,4.206,0,0,0,0,4.025,72.68,1.9685368084,1.968504,6,P-GPS,
39000,2022-08-30 05:03:30,0,0,1.968504,,,1.9685368084,1.64042,0,0,0,0,0,8.421,1.9685368084,1.968504,0,0,0,0,0,37.2, -0.1, 0,0,0,1024,1024,1024,1024,0,0,0,0,37.2,2.4,0,98,4.213,4.206,0,0,0,0,4.025,72.68,1.9685368084,1.968504,6,P-GPS,
39100,2022-08-30 05:03:30,0,0,1.968504,,,1.9685368084,1.64042,0,0,0,0,0,8.421,1.9685368084,1.968504,0,0,0,0,0,37.2, 0.9, 0,0,0,1024,1024,1024,1024,0,0,0,0,37.2,2.4,0,98,4.213,4.206,0,0,0,0,4.025,72.68,1.9685368084,1.968504,6,P-GPS,
39200,2022-08-30 05:03:31,0,0,1.968504,,,1.9685368084,1.64042,0,0,0,0,0,8.421,1.9685368084,1.968504,0,0,0,0,0,37.2, 1.1, 0.1,0,0,1024,1024,1024,1024,0,0,0,0,37.2,2.4,0,98,4.213,4.206,0,0,0,0,4.025,72.68,1.9685368084,1.968504,6,P-GPS,
39300,2022-08-30 05:03:31,0,0,1.968504,,,1.9685368084,1.64042,0,0,0,0,0,8.421,1.9685368084,1.968504,0,0,0,0,0,37.2, 1, 0.1,0,0,1024,1024,1024,1024,0,0,0,0,37.2,2.4,0,98,4.213,4.206,0,0,0,0,4.025,72.68,1.9685368084,1.968504,6,P-GPS,
39400,2022-08-30 05:03:31,0,0,1.968504,,,1.9685368084,1.64042,0,0,0,0,0,8.416,1.9685368084,1.968504,0,0,0,0,0,37.2, 0.9, 0,0,0,1024,1024,1210,1024,0,0,28,0,37.2,2.4,0,98,4.21,4.205,0,0,0,0,4.045,72.68,1.9685368084,1.968504,6,P-GPS,
39500,2022-08-30 05:03:31,0,0,1.968504,,,1.9685368084,1.64042,0,0,0,0,0,8.416,1.9685368084,1.968504,0,0,0,0,0,37.2, 0.7, 0,0,0,1024,1024,1499,1024,0,0,72,0,37.2,2.4,0,98,4.21,4.205,0,0,0,0,4.045,72.68,1.9685368084,1.968504,6,P-GPS,
39600,2022-08-30 05:03:31,0,0,1.968504,,,1.9685368084,1.64042,0,0,0,0,0,8.416,1.9685368084,1.968504,0,0,0,0,0,37.2, 0.6, 0,0,0,1024,1024,1430,1024,0,0,62,0,37.2,2.4,0,98,4.21,4.205,0,0,0,0,4.045,72.68,1.9685368084,1.968504,6,P-GPS,
39700,2022-08-30 05:03:31,0,0,1.968504,,,1.9685368084,1.64042,0,0,0,0,0,8.416,1.9685368084,1.968504,0,0,0,0,-0.894776,37.2, 0.3, 0,0,0,1024,1024,1087,1024,0,0,10,0,37.2,2.4,0,98,4.21,4.205,0,0,0,0,4.045,72.68,1.9685368084,1.968504,6,P-GPS,
39800,2022-08-30 05:03:31,0,0,2.296588,,,2.2966208084,1.968504,0,0,0,0,0,8.416,2.2966208084,2.296588,0,0,0,0,-1.565858,37.2, 0.1, 0,0,0,1024,1024,1087,1024,0,0,10,0,37.2,2.4,0,98,4.21,4.205,0,0,0,0,4.045,72.68,2.2966208084,2.296588,6,P-GPS,
39900,2022-08-30 05:03:31,0,0,2.624672,,,2.6247048084,2.296588,0,0,0,0,0,8.416,2.6247048084,2.624672,0,0,0,0,-1.565858,37.2, 0.2, -0.1,0,0,1024,1024,1024,1024,0,0,0,0,37.2,2.4,0,98,4.21,4.205,0,0,0,0,4.045,72.68,2.6247048084,2.624672,6,P-GPS,
40000,2022-08-30 05:03:31,0,0,2.624672,,,2.6247048084,2.296588,0,0,0,0,0,8.416,2.6247048084,2.624672,0,0,0,0,-1.11847,37.1, 0.6, 0,0,0,1024,1024,1049,1024,0,0,4,0,37.2,2.4,0,98,4.21,4.205,0,0,0,0,4.045,72.68,2.6247048084,2.624672,6,P-GPS,
40100,2022-08-30 05:03:31,0,0,2.952756,,,2.9527888084,2.624672,0,0,0,0,0,8.416,2.9527888084,2.952756,0,0,0,0,-0.671082,37.2, 0.6, 0,0,0,1024,1024,1142,1024,0,0,18,0,37.2,2.4,0,98,4.21,4.205,0,0,0,0,4.045,72.68,2.9527888084,2.952756,6,P-GPS,
40200,2022-08-30 05:03:32,0,0,2.952756,,,2.9527888084,2.624672,0,0,0,0,0,8.416,2.9527888084,2.952756,0,0,0,0,-0.447388,37.2, 0.4, 0,0,0,1024,1024,1096,1024,0,0,11,0,37.2,2.4,0,98,4.21,4.205,0,0,0,0,4.045,72.68,2.9527888084,2.952756,6,P-GPS,
40300,2022-08-30 05:03:32,0,0,2.952756,,,2.9527888084,2.624672,0,0,0,0,0,8.416,2.9527888084,2.952756,0,0,0,0,-0.223694,37.2, 0.1, 0,0,0,1024,1024,1090,1024,0,0,10,0,37.2,2.4,0,98,4.21,4.205,0,0,0,0,4.045,72.68,2.9527888084,2.952756,6,P-GPS,
40400,2022-08-30 05:03:32,0,0,2.952756,,,2.9527888084,2.624672,0,0,0,0,0,8.324,2.9527888084,2.952756,0,0,0,0,-0.223694,37.2, 0.2, -0.1,0,0,1024,1024,1107,1024,0,0,13,0,37.2,2.4,0,98,4.217,4.219,0,0,0,0,4.575,72.68,2.9527888084,2.952756,6,P-GPS,
40500,2022-08-30 05:03:32,0,0,2.952756,,,2.9527888084,2.624672,0,0,0,0,0,8.324,2.9527888084,2.952756,0,0,0,0,0,37.1, 0.2, -0.2,0,0,1024,1024,1080,1024,0,0,8,0,37.2,2.4,0,98,4.217,4.219,0,0,0,0,4.575,72.68,2.9527888084,2.952756,6,P-GPS,
40600,2022-08-30 05:03:32,0,0,3.28084,,,3.2808728084,2.624672,0,0,0,0,0,8.324,3.2808728084,3.28084,0,0,0,0,-0.223694,37.1, 0.3, -0.6,0,0,1024,1024,1048,1024,0,0,4,0,37.2,2.4,0,98,4.217,4.219,0,0,0,0,4.575,72.68,3.2808728084,3.28084,6,P-GPS,
40700,2022-08-30 05:03:32,0,0,3.28084,,,3.2808728084,2.624672,0,0,0,0,0,8.324,3.2808728084,3.28084,0,0,0,0,-0.223694,37.1, 0.3, -0.4,0,0,1024,1024,1048,1024,0,0,4,0,37.2,2.4,0,98,4.217,4.219,0,0,0,0,4.575,72.68,3.2808728084,3.28084,6,P-GPS,
40800,2022-08-30 05:03:32,0,0,3.28084,,,3.2808728084,2.952756,0,0,0,0,0,8.324,3.2808728084,3.28084,0,0,0,0,0,37.1, 0.1, -0.3,0,0,1024,1024,1045,1024,0,0,3,0,37.2,2.4,0,98,4.217,4.219,0,0,0,0,4.575,72.68,3.2808728084,3.28084,6,P-GPS,
40900,2022-08-30 05:03:32,0,0,3.28084,,,3.2808728084,2.952756,0,0,0,0,0,8.324,3.2808728084,3.28084,0,0,0,0,0,37.1, 0, -0.3,0,0,1024,1024,1037,1024,0,0,2,0,37.2,2.4,0,98,4.217,4.219,0,0,0,0,4.575,72.68,3.2808728084,3.28084,6,P-GPS,
41000,2022-08-30 05:03:32,0,0,3.28084,,,3.2808728084,2.952756,0,0,0,0,0,8.324,3.2808728084,3.28084,0,0,0,0,0,37.1, 0, -0.4,0,0,1024,1024,1026,1024,0,0,0,0,37.2,2.4,0,98,4.217,4.219,0,0,0,0,4.575,72.68,3.2808728084,3.28084,6,P-GPS,
41100,2022-08-30 05:03:32,0,0,3.28084,,,3.2808728084,2.952756,0,0,0,0,0,8.324,3.2808728084,3.28084,0,0,0,0,0,37.2, 0, -0.3,0,0,1024,1024,1024,1024,0,0,0,0,37.2,2.4,0,98,4.217,4.219,0,0,0,0,4.575,72.68,3.2808728084,3.28084,6,P-GPS,
41200,2022-08-30 05:03:33,0,0,3.28084,,,3.2808728084,2.952756,0,0,0,0,0,8.324,3.2808728084,3.28084,0,0,0,0,0,37.2, 0, -0.3,0,0,1024,1024,1024,1024,0,0,0,0,37.2,2.4,0,98,4.217,4.219,0,0,0,0,4.575,72.68,3.2808728084,3.28084,6,P-GPS,
41300,2022-08-30 05:03:33,0,0,3.28084,,,3.2808728084,2.952756,0,0,0,0,0,8.324,3.2808728084,3.28084,0,0,0,0,0,37.3, -0.1, -0.2,0,0,1024,973,1024,1024,0,-8,0,0,37.2,2.4,0,98,4.217,4.219,0,0,0,0,4.575,72.68,3.2808728084,3.28084,6,P-GPS,
41400,2022-08-30 05:03:33,0,0,3.28084,,,3.2808728084,2.952756,0,0,0,0,0,8.415,3.2808728084,3.28084,0,0,0,0,0,37.3, -0.2, 0,0,0,1024,760,1024,1024,0,-40,0,0,37.2,2.4,0,98,4.207,4.202,0,0,0,0,3.702,72.68,3.2808728084,3.28084,6,P-GPS,
41500,2022-08-30 05:03:33,0,0,3.28084,,,3.2808728084,2.952756,0,0,0,0,0,8.415,3.2808728084,3.28084,0,0,0,0,0,37.2, -0.2, -0.4,0,0,1024,1024,1024,1024,0,0,0,0,37.2,2.4,0,98,4.207,4.202,0,0,0,0,3.702,72.68,3.2808728084,3.28084,6,P-GPS,
41600,2022-08-30 05:03:33,0,0,3.28084,,,3.2808728084,2.952756,0,0,0,0,0,8.415,3.2808728084,3.28084,0,0,0,0,0,37.2, -0.2, -2.8,0,0,1024,1024,1024,1024,0,0,0,0,37.2,2.4,0,98,4.207,4.202,0,0,0,0,3.702,72.68,3.2808728084,3.28084,6,P-GPS,
41700,2022-08-30 05:03:33,0,0,3.28084,,,3.2808728084,2.952756,0,0,0,0,0,8.415,3.2808728084,3.28084,0,0,0,0,0,37.2, -0.3, -0.5,0,0,1024,1024,1024,1024,0,0,0,0,37.2,2.4,0,98,4.207,4.202,0,0,0,0,3.702,72.68,3.2808728084,3.28084,6,P-GPS,
41800,2022-08-30 05:03:33,0,0,3.28084,,,3.2808728084,2.952756,0,0,0,0,0,8.415,3.2808728084,3.28084,0,0,0,0,0,37.3, -0.2, 1.2,0,0,1024,1024,1024,1024,0,0,0,0,37.2,2.4,0,98,4.207,4.202,0,0,0,0,3.702,72.68,3.2808728084,3.28084,6,P-GPS,
41900,2022-08-30 05:03:33,0,0,3.28084,,,3.2808728084,2.952756,0,0,0,0,0,8.415,3.2808728084,3.28084,0,0,0,0,0,37.2, -0.2, 1.2,0,0,1024,1024,1024,1024,0,0,0,0,37.2,2.4,0,98,4.207,4.202,0,0,0,0,3.702,72.68,3.2808728084,3.28084,6,P-GPS,
42000,2022-08-30 05:03:33,0,0,3.28084,,,3.2808728084,2.952756,0,0,0,0,0,8.415,3.2808728084,3.28084,0,0,0,0,0,37.1, -0.2, 1.2,0,0,1024,1024,1024,1024,0,0,0,0,37.2,2.4,0,98,4.207,4.202,0,0,0,0,3.702,72.68,3.2808728084,3.28084,6,P-GPS,
42100,2022-08-30 05:03:34,0,0,3.28084,,,3.2808728084,2.952756,0,0,0,0,0,8.415,3.2808728084,3.28084,0,0,0,0,0,37.1, -0.1, 0.8,0,0,1024,1024,1068,1024,0,0,7,0,37.2,2.4,0,98,4.207,4.202,0,0,0,0,3.702,72.68,3.2808728084,3.28084,6,P-GPS,
42200,2022-08-30 05:03:34,0,0,3.28084,,,3.2808728084,2.952756,0,0,0,0,0,8.415,3.2808728084,3.28084,0,0,0,0,0,37.2, -0.1, 0.8,0,0,1024,1024,1348,1024,0,0,49,0,37.2,2.4,0,98,4.207,4.202,0,0,0,0,3.702,72.68,3.2808728084,3.28084,6,P-GPS,
42300,2022-08-30 05:03:34,0,0,3.28084,,,3.2808728084,2.952756,0,0,0,0,0,8.415,3.2808728084,3.28084,0,0,0,0,0,37.2, 0, 0.3,0,0,1024,1024,1246,1024,0,0,34,0,37.2,2.4,0,98,4.207,4.202,0,0,0,0,3.702,72.68,3.2808728084,3.28084,6,P-GPS,
42400,2022-08-30 05:03:34,0,0,3.28084,,,3.2808728084,2.952756,0,0,0,0,0,8.406,3.2808728084,3.28084,0,0,0,0,-0.447388,37.2, -0.2, 0,0,0,1024,1024,1024,1024,0,0,0,0,37.2,2.4,0,98,4.204,4.199,0,0,0,0,4.025,72.86,3.2808728084,3.28084,6,P-GPS,
42500,2022-08-30 05:03:34,0,0,3.28084,,,3.2808728084,2.952756,0,0,0,0,0,8.406,3.2808728084,3.28084,0,0,0,0,-0.894776,37.1, -0.6, -0.4,0,0,1024,1024,1024,1024,0,0,0,0,37.2,2.4,0,98,4.204,4.199,0,0,0,0,4.025,72.86,3.2808728084,3.28084,6,P-GPS,
42600,2022-08-30 05:03:34,0,0,3.608924,,,3.6089568084,3.28084,0,0,0,0,0,8.406,3.6089568084,3.608924,0,0,0,0,-0.447388,37.1, -0.1, -0.4,0,0,1024,1024,1024,1024,0,0,0,0,37.2,2.4,0,98,4.204,4.199,0,0,0,0,4.025,72.86,3.6089568084,3.608924,6,P-GPS,
42700,2022-08-30 05:03:34,0,0,3.608924,,,3.6089568084,3.28084,0,0,0,0,0,8.406,3.6089568084,3.608924,0,0,0,0,-0.223694,37.1, -0.1, -0.4,0,0,1024,1024,1024,1024,0,0,0,0,37.2,2.4,0,98,4.204,4.199,0,0,0,0,4.025,72.86,3.6089568084,3.608924,6,P-GPS,
42800,2022-08-30 05:03:34,0,0,3.608924,,,3.6089568084,3.28084,0,0,0,0,0,8.406,3.6089568084,3.608924,0,0,0,0,-0.223694,37.2, -0.1, -0.3,0,0,1024,1024,1024,1024,0,0,0,0,37.2,2.4,0,98,4.204,4.199,0,0,0,0,4.025,72.86,3.6089568084,3.608924,6,P-GPS,
42900,2022-08-30 05:03:34,0,0,3.608924,,,3.6089568084,3.28084,0,0,0,0,0,8.406,3.6089568084,3.608924,0,0,0,0,0,37.2, -0.3, -0.1,0,0,1024,1024,1024,1024,0,0,0,0,37.2,2.4,0,98,4.204,4.199,0,0,0,0,4.025,72.86,3.6089568084,3.608924,6,P-GPS,
43000,2022-08-30 05:03:34,0,0,3.608924,,,3.6089568084,3.28084,0,0,0,0,0,8.406,3.6089568084,3.608924,0,0,0,0,0,37.1, -0.3, 0,0,0,1024,1024,1024,1024,0,0,0,0,37.2,2.4,0,98,4.204,4.199,0,0,0,0,4.025,72.86,3.6089568084,3.608924,6,P-GPS,
43100,2022-08-30 05:03:34,0,0,3.608924,,,3.6089568084,3.28084,0,0,0,0,0,8.406,3.6089568084,3.608924,0,0,0,0,0,37.1, -0.3, -0.1,0,0,1024,1024,1024,1024,0,0,0,0,37.2,2.4,0,98,4.204,4.199,0,0,0,0,4.025,72.86,3.6089568084,3.608924,6,P-GPS,
43200,2022-08-30 05:03:35,0,0,3.608924,,,3.6089568084,3.28084,0,0,0,0,0,8.406,3.6089568084,3.608924,0,0,0,0,0,37.1, -0.3, 0,0,0,1024,1024,1024,1024,0,0,0,0,37.2,2.4,0,98,4.204,4.199,0,0,0,0,4.025,72.86,3.6089568084,3.608924,6,P-GPS,
43300,2022-08-30 05:03:35,0,0,3.608924,,,3.6089568084,3.28084,0,0,0,0,0,8.406,3.6089568084,3.608924,0,0,0,0,0,37.1, -0.3, 0.2,0,0,1024,1024,1024,1024,0,0,0,0,37.2,2.4,0,98,4.204,4.199,0,0,0,0,4.025,72.86,3.6089568084,3.608924,6,P-GPS,
43400,2022-08-30 05:03:35,0,0,3.608924,,,3.6089568084,3.28084,0,0,0,0,0,8.406,3.6089568084,3.608924,0,0,0,0,0,37.1, -0.4, 0.3,0,0,1024,1024,1024,1024,0,0,0,0,37.2,2.4,0,98,4.204,4.199,0,0,0,0,4.025,72.86,3.6089568084,3.608924,6,P-GPS,
43500,2022-08-30 05:03:35,0,0,3.608924,,,3.6089568084,3.28084,0,0,0,0,0,8.383,3.6089568084,3.608924,0,0,0,0,0,37.1, -0.2, 0.1,0,0,1024,1024,1024,1024,0,0,0,0,37.2,2.4,0,98,4.203,4.197,0,0,0,0,4.166,72.86,3.6089568084,3.608924,6,P-GPS,
43600,2022-08-30 05:03:35,0,0,3.608924,,,3.6089568084,3.28084,0,0,0,0,0,8.383,3.6089568084,3.608924,0,0,0,0,0,37.2, -0.2, 0.1,0,0,1024,1024,1024,1024,0,0,0,0,37.2,2.4,0,98,4.203,4.197,0,0,0,0,4.166,72.86,3.6089568084,3.608924,6,P-GPS,
43700,2022-08-30 05:03:35,0,0,3.608924,,,3.6089568084,3.28084,0,0,0,0,0,8.383,3.6089568084,3.608924,0,0,0,0,0,37.2, -0.2, 0.1,0,0,1024,1024,1024,1024,0,0,0,0,37.2,2.4,0,98,4.203,4.197,0,0,0,0,4.166,72.86,3.6089568084,3.608924,6,P-GPS,
43800,2022-08-30 05:03:35,0,0,3.608924,,,3.6089568084,3.28084,0,0,0,0,0,8.383,3.6089568084,3.608924,0,0,0,0,0,37.2, -0.1, 0,0,0,1024,1024,1024,1024,0,0,0,0,37.2,2.4,0,98,4.203,4.197,0,0,0,0,4.166,72.86,3.6089568084,3.608924,6,P-GPS,
43900,2022-08-30 05:03:35,0,0,3.608924,,,3.6089568084,3.28084,0,0,0,0,0,8.383,3.6089568084,3.608924,0,0,0,0,0,37.2, 0, 0,0,0,1024,1024,1024,1024,0,0,0,0,37.2,2.4,0,98,4.203,4.197,0,0,0,0,4.166,72.86,3.6089568084,3.608924,6,P-GPS,
44000,2022-08-30 05:03:35,0,0,3.608924,,,3.6089568084,3.28084,0,0,0,0,0,8.383,3.6089568084,3.608924,0,0,0,0,0,37.3, 0, -0.1,0,0,1024,1024,1024,1024,0,0,0,0,37.2,2.4,0,98,4.203,4.197,0,0,0,0,4.166,72.86,3.6089568084,3.608924,6,P-GPS,
44100,2022-08-30 05:03:35,0,0,3.608924,,,3.6089568084,3.28084,0,0,0,0,0,8.383,3.6089568084,3.608924,0,0,0,0,0,37.3, -0.2, 0,0,0,1024,1024,1024,1024,0,0,0,0,37.2,2.4,0,98,4.203,4.197,0,0,0,0,4.166,72.86,3.6089568084,3.608924,6,P-GPS,
44200,2022-08-30 05:03:36,0,0,3.608924,,,3.6089568084,3.28084,0,0,0,0,0,8.383,3.6089568084,3.608924,0,0,0,0,0,37.3, -0.4, 0.1,0,0,1024,1024,1024,1024,0,0,0,0,37.2,2.4,0,98,4.203,4.197,0,0,0,0,4.166,72.86,3.6089568084,3.608924,6,P-GPS,
44300,2022-08-30 05:03:36,0,0,3.608924,,,3.6089568084,3.28084,0,0,0,0,0,8.383,3.6089568084,3.608924,0,0,0,0,0,37.2, -0.5, 0,0,0,1024,1024,1024,1024,0,0,0,0,37.2,2.4,0,98,4.203,4.197,0,0,0,0,4.166,72.86,3.6089568084,3.608924,6,P-GPS,
44400,2022-08-30 05:03:36,0,0,3.608924,,,3.6089568084,3.28084,0,0,0,0,0,8.383,3.6089568084,3.608924,0,0,0,0,0,37.2, -0.3, -0.1,0,0,1024,1024,1024,1024,0,0,0,0,37.2,2.4,0,98,4.203,4.197,0,0,0,0,4.166,72.86,3.6089568084,3.608924,6,P-GPS,
44500,2022-08-30 05:03:36,0,0,3.608924,,,3.6089568084,3.28084,0,0,0,0,0,8.399,3.6089568084,3.608924,0,0,0,0,0,37.2, -0.2, -0.2,0,0,1024,1024,1024,1024,0,0,0,0,37.2,2.4,0,98,4.202,4.196,0,0,0,0,4.014,72.86,3.6089568084,3.608924,6,P-GPS,
44600,2022-08-30 05:03:36,0,0,3.608924,,,3.6089568084,3.28084,0,0,0,0,0,8.399,3.6089568084,3.608924,0,0,0,0,0,37.2, -0.2, -0.1,0,0,1024,1024,1024,1024,0,0,0,0,37.2,2.4,0,98,4.202,4.196,0,0,0,0,4.014,72.86,3.6089568084,3.608924,6,P-GPS,
44700,2022-08-30 05:03:36,0,0,3.608924,,,3.6089568084,3.28084,0,0,0,0,0,8.399,3.6089568084,3.608924,0,0,0,0,0,37.2, -0.2, -0.1,0,0,1024,1024,1024,1024,0,0,0,0,37.2,2.4,0,98,4.202,4.196,0,0,0,0,4.014,72.86,3.6089568084,3.608924,6,P-GPS,
44800,2022-08-30 05:03:36,0,0,3.608924,,,3.6089568084,3.28084,0,0,0,0,0,8.399,3.6089568084,3.608924,0,0,0,0,0,37.2, -0.1, -0.1,0,0,1024,1024,1024,1024,0,0,0,0,37.2,2.4,0,98,4.202,4.196,0,0,0,0,4.014,72.86,3.6089568084,3.608924,6,P-GPS,
44900,2022-08-30 05:03:36,0,0,3.608924,,,3.6089568084,3.28084,0,0,0,0,0,8.399,3.6089568084,3.608924,0,0,0,0,0,37.2, -0.2, -0.2,0,0,1024,1024,1024,1024,0,0,0,0,37.2,2.4,0,98,4.202,4.196,0,0,0,0,4.014,72.86,3.6089568084,3.608924,6,P-GPS,
45000,2022-08-30 05:03:36,0,0,3.608924,,,3.6089568084,3.28084,0,0,0,0,0,8.399,3.6089568084,3.608924,0,0,0,0,0,37.2, -0.1, -0.2,0,0,1024,1024,1024,1024,0,0,0,0,37.2,2.4,0,98,4.202,4.196,0,0,0,0,4.014,72.86,3.6089568084,3.608924,6,P-GPS,
45100,2022-08-30 05:03:36,0,0,3.608924,,,3.6089568084,3.28084,0,0,0,0,0,8.399,3.6089568084,3.608924,0,0,0,0,0,37.2, -0.1, -0.2,0,0,1024,1024,1024,1024,0,0,0,0,37.2,2.4,0,98,4.202,4.196,0,0,0,0,4.014,72.86,3.6089568084,3.608924,6,P-GPS,
45200,2022-08-30 05:03:37,0,0,3.608924,,,3.6089568084,3.28084,0,0,0,0,0,8.399,3.6089568084,3.608924,0,0,0,0,0,37.2, -0.1, 0,0,0,1024,1024,1024,1024,0,0,0,0,37.2,2.4,0,98,4.202,4.196,0,0,0,0,4.014,72.86,3.6089568084,3.608924,6,P-GPS,
45300,2022-08-30 05:03:37,0,0,3.608924,,,3.6089568084,3.28084,0,0,0,0,0,8.399,3.6089568084,3.608924,0,0,0,0,0,37.2, -0.1, 0,0,0,1024,1024,1024,1024,0,0,0,0,37.2,2.4,0,98,4.202,4.196,0,0,0,0,4.014,72.86,3.6089568084,3.608924,6,P-GPS,
45400,2022-08-30 05:03:37,0,0,3.608924,,,3.6089568084,3.28084,0,0,0,0,0,8.399,3.6089568084,3.608924,0,0,0,0,0,37.2, -0.1, 0.2,0,0,1024,1024,1024,1024,0,0,0,0,37.2,2.4,0,98,4.202,4.196,0,0,0,0,4.014,72.86,3.6089568084,3.608924,6,P-GPS,
45500,2022-08-30 05:03:37,0,0,3.608924,,,3.6089568084,3.28084,0,0,0,0,0,8.396,3.6089568084,3.608924,0,0,0,0,0,37.2, -0.1, 0.3,0,0,1024,1024,1024,1024,0,0,0,0,37.2,2.4,0,98,4.2,4.195,0,0,0,0,4.047,72.86,3.6089568084,3.608924,6,P-GPS,
45600,2022-08-30 05:03:37,0,0,3.608924,,,3.6089568084,3.28084,0,0,0,0,0,8.396,3.6089568084,3.608924,0,0,0,0,0,37.1, -0.2, 0.3,0,0,1024,920,1024,1024,0,-16,0,0,37.2,2.4,0,98,4.2,4.195,0,0,0,0,4.047,72.86,3.6089568084,3.608924,6,P-GPS,
45700,2022-08-30 05:03:37,0,0,3.608924,,,3.6089568084,3.28084,0,0,0,0,0,8.396,3.6089568084,3.608924,0,0,0,0,0,37.2, -0.1, 0.1,0,0,1024,609,1024,1024,0,-63,0,0,37.2,2.4,0,98,4.2,4.195,0,0,0,0,4.047,72.86,3.6089568084,3.608924,6,P-GPS,
45800,2022-08-30 05:03:37,0,0,3.608924,,,3.6089568084,3.28084,0,0,0,0,0,8.396,3.6089568084,3.608924,0,0,0,0,0,37.2, -0.1, -1,0,0,1024,1024,1024,1024,0,0,0,0,37.2,2.4,0,98,4.2,4.195,0,0,0,0,4.047,72.86,3.6089568084,3.608924,6,P-GPS,
45900,2022-08-30 05:03:37,0,0,3.608924,,,3.6089568084,3.28084,0,0,0,0,0,8.396,3.6089568084,3.608924,0,0,0,0,0,37.1, -0.1, -6.7,0,0,1024,1024,1024,1024,0,0,0,0,37.2,2.4,0,98,4.2,4.195,0,0,0,0,4.047,72.86,3.6089568084,3.608924,6,P-GPS,
46000,2022-08-30 05:03:37,0,0,3.608924,,,3.6089568084,3.28084,0.3131716,0,0,0,0,8.396,3.6089568084,3.608924,0,0,0.223694,-0.223694,0,37.2, -0.2, -5.6,0,0,1024,1024,1024,1024,0,0,0,0,37.2,2.4,0,98,4.2,4.195,0,0,0,0,4.047,72.86,3.6089568084,3.608924,6,P-GPS,
46100,2022-08-30 05:03:38,0,0,3.608924,,,3.6089568084,3.28084,0.3131716,0,0,0,0,8.396,3.6089568084,3.608924,0,0,0.223694,-0.223694,0,37.5, 0, 1.7,0,0,1024,1024,1024,1024,0,0,0,0,37.2,2.4,0,98,4.2,4.195,0,0,0,0,4.047,72.86,3.6089568084,3.608924,6,P-GPS,
46200,2022-08-30 05:03:38,0,0,3.608924,,,3.6089568084,3.28084,0.3131716,0,0,0,0,8.396,3.6089568084,3.608924,0,0,0.223694,-0.223694,0,37.4, 0, 2.8,0,0,1024,1024,1024,1024,0,0,0,0,37.2,2.4,0,98,4.2,4.195,0,0,0,0,4.047,72.86,3.6089568084,3.608924,6,P-GPS,
46300,2022-08-30 05:03:38,0,0,3.608924,,,3.6089568084,3.28084,0.3131716,0,0,0,0,8.396,3.6089568084,3.608924,0,0,0.223694,-0.223694,0,37.3, 0, 2.6,0,0,1024,1024,1024,1024,0,0,0,0,37.2,2.4,0,98,4.2,4.195,0,0,0,0,4.047,72.86,3.6089568084,3.608924,6,P-GPS,
46400,2022-08-30 05:03:38,0,0,3.608924,,,3.6089568084,3.28084,0.223694,0,0,0,0,8.396,3.6089568084,3.608924,0,0,0,-0.223694,0,37.3, 0, 2.2,0,0,1024,1099,1024,1024,0,11,0,0,37.2,2.4,0,98,4.2,4.195,0,0,0,0,4.047,72.86,3.6089568084,3.608924,6,P-GPS,
46500,2022-08-30 05:03:38,0,0,3.608924,,,3.6089568084,3.28084,0,0,0,0,0,8.396,3.6089568084,3.608924,0,0,0,0,0,37.2, 0, 1.7,0,0,1024,1325,1024,1024,0,46,0,0,37.2,2.4,0,98,4.197,4.194,0,0,0,0,4.022,73.04,3.6089568084,3.608924,6,P-GPS,
46600,2022-08-30 05:03:38,0,0,3.608924,,,3.6089568084,3.28084,0,0,0,0,0,8.396,3.6089568084,3.608924,0,0,0,0,0,37.2, 0.1, 2.5,0,0,1024,1087,1024,1024,0,10,0,0,37.2,2.4,0,98,4.197,4.194,0,0,0,0,4.022,73.04,3.6089568084,3.608924,6,P-GPS,
46700,2022-08-30 05:03:38,0,0,3.608924,,,3.6089568084,3.28084,0,0,0,0,0,8.396,3.6089568084,3.608924,0,0,0,0,0,37.3, 0, 5.3,0,0,1024,1024,1024,1024,0,0,0,0,37.2,2.4,0,98,4.197,4.194,0,0,0,0,4.022,73.04,3.6089568084,3.608924,6,P-GPS,
46800,2022-08-30 05:03:38,0,0,3.608924,,,3.6089568084,3.28084,0,0,0,0,0,8.396,3.6089568084,3.608924,0,0,0,0,0,37.2, 0, 3,0,0,1024,1024,1024,1024,0,0,0,0,37.2,2.4,0,98,4.197,4.194,0,0,0,0,4.022,73.04,3.6089568084,3.608924,6,P-GPS,
46900,2022-08-30 05:03:38,0,0,3.608924,,,3.6089568084,3.28084,0,0,0,0,0,8.396,3.6089568084,3.608924,0,0,0,0,0,37.1, 0.1, -0.3,0,0,1024,1024,1024,1024,0,0,0,0,37.2,2.4,0,98,4.197,4.194,0,0,0,0,4.022,73.04,3.6089568084,3.608924,6,P-GPS,
47000,2022-08-30 05:03:38,0,0,3.608924,,,3.6089568084,3.28084,0,0,0,0,0,8.396,3.6089568084,3.608924,0,0,0,0,0,37.1, 0, -0.6,0,0,1024,1024,1024,1024,0,0,0,0,37.2,2.4,0,98,4.197,4.194,0,0,0,0,4.022,73.04,3.6089568084,3.608924,6,P-GPS,
47100,2022-08-30 05:03:38,0,0,3.608924,,,3.6089568084,3.28084,0,0,0,0,0,8.396,3.6089568084,3.608924,0,0,0,0,0,37.2, 0, -0.5,0,0,1024,998,1024,1024,0,-4,0,0,37.2,2.4,0,98,4.197,4.194,0,0,0,0,4.022,73.04,3.6089568084,3.608924,6,P-GPS,
47200,2022-08-30 05:03:39,0,0,3.608924,,,3.6089568084,3.28084,0,0,0,0,0,8.396,3.6089568084,3.608924,0,0,0,0,0,37.2, 0, -0.2,0,0,1024,775,1024,1024,0,-38,0,0,37.2,2.4,0,98,4.197,4.194,0,0,0,0,4.022,73.04,3.6089568084,3.608924,6,P-GPS,
47300,2022-08-30 05:03:39,0,0,3.608924,,,3.6089568084,3.28084,0,0,0,0,0,8.396,3.6089568084,3.608924,0,0,0,0,0,37.2, 0.1, -1.5,0,0,1024,757,1024,1024,0,-40,0,0,37.2,2.4,0,98,4.197,4.194,0,0,0,0,4.022,73.04,3.6089568084,3.608924,6,P-GPS,
47400,2022-08-30 05:03:39,0,0,3.608924,,,3.6089568084,3.28084,0,0,0,0,0,8.396,3.6089568084,3.608924,0,0,0,0,0,37.1, 0.1, -3.9,0,0,1024,1024,1024,1024,0,0,0,0,37.2,2.4,0,98,4.197,4.194,0,0,0,0,4.022,73.04,3.6089568084,3.608924,6,P-GPS,
47500,2022-08-30 05:03:39,0,0,3.608924,,,3.6089568084,3.28084,0,0,0,0,0,8.386,3.6089568084,3.608924,0,0,0,0,0,37.2, 0.1, -1.9,0,0,1024,1024,1024,1024,0,0,0,0,37.2,2.4,0,98,4.197,4.191,0,0,0,0,4.065,73.04,3.6089568084,3.608924,6,P-GPS,
47600,2022-08-30 05:03:39,0,0,3.608924,,,3.6089568084,3.28084,0,0,0,0,0,8.386,3.6089568084,3.608924,0,0,0,0,0,37.3, 0.1, 1.3,0,0,1024,1024,1024,1024,0,0,0,0,37.2,2.4,0,98,4.197,4.191,0,0,0,0,4.065,73.04,3.6089568084,3.608924,6,P-GPS,
47700,2022-08-30 05:03:39,0,0,3.608924,,,3.6089568084,3.28084,0,0,0,0,0,8.386,3.6089568084,3.608924,0,0,0,0,0,37.3, 0.1, 1.6,0,0,1024,1024,1024,1024,0,0,0,0,37.2,2.4,0,98,4.197,4.191,0,0,0,0,4.065,73.04,3.6089568084,3.608924,6,P-GPS,
47800,2022-08-30 05:03:39,0,0,3.608924,,,3.6089568084,3.28084,0,0,0,0,0,8.386,3.6089568084,3.608924,0,0,0,0,0,37.2, 0.1, 1.5,0,0,1024,1024,1024,1024,0,0,0,0,37.2,2.4,0,98,4.197,4.191,0,0,0,0,4.065,73.04,3.6089568084,3.608924,6,P-GPS,
47900,2022-08-30 05:03:39,0,0,3.608924,,,3.6089568084,3.28084,0,0,0,0,0,8.386,3.6089568084,3.608924,0,0,0,0,0,37.2, 0.1, 1.2,0,0,1024,1024,1024,1024,0,0,0,0,37.2,2.4,0,98,4.197,4.191,0,0,0,0,4.065,73.04,3.6089568084,3.608924,6,P-GPS,
48000,2022-08-30 05:03:39,0,0,3.608924,,,3.6089568084,3.28084,0,0,0,0,0,8.386,3.6089568084,3.608924,0,0,0,0,0,37.2, 0.1, 1,0,0,1024,1024,1024,1024,0,0,0,0,37.2,2.4,0,98,4.197,4.191,0,0,0,0,4.065,73.04,3.6089568084,3.608924,6,P-GPS,
48100,2022-08-30 05:03:39,0,0,3.608924,,,3.6089568084,3.28084,0,0,0,0,0,8.386,3.6089568084,3.608924,0,0,0,0,0,37.2, 0.1, 0.9,0,0,1024,1024,1024,1024,0,0,0,0,37.2,2.4,0,98,4.197,4.191,0,0,0,0,4.065,73.04,3.6089568084,3.608924,6,P-GPS,
48200,2022-08-30 05:03:40,0,0,3.608924,,,3.6089568084,3.28084,0,0,0,0,0,8.386,3.6089568084,3.608924,0,0,0,0,0,37.2, 0.1, 0.7,0,0,1024,1024,1024,1024,0,0,0,0,37.2,2.4,0,98,4.197,4.191,0,0,0,0,4.065,73.04,3.6089568084,3.608924,6,P-GPS,
48300,2022-08-30 05:03:40,0,0,3.608924,,,3.6089568084,3.28084,0,0,0,0,0,8.386,3.6089568084,3.608924,0,0,0,0,0,37.2, 0.2, 0.4,0,0,1024,1024,1024,1024,0,0,0,0,37.2,2.4,0,98,4.197,4.191,0,0,0,0,4.065,73.04,3.6089568084,3.608924,6,P-GPS,
48400,2022-08-30 05:03:40,0,0,3.608924,,,3.6089568084,3.28084,0,0,0,0,0,8.386,3.6089568084,3.608924,0,0,0,0,0,37.2, 0.2, 0.3,0,0,1024,1024,1024,1024,0,0,0,0,37.2,2.4,0,98,4.197,4.191,0,0,0,0,4.065,73.04,3.6089568084,3.608924,6,P-GPS,
48500,2022-08-30 05:03:40,0,0,3.608924,,,3.6089568084,3.28084,0,0,0,0,0,8.386,3.6089568084,3.608924,0,0,0,0,0,37.2, 0.1, 0.2,0,0,1024,1024,1024,1024,0,0,0,0,37.2,2.4,0,98,4.197,4.191,0,0,0,0,4.065,73.04,3.6089568084,3.608924,6,P-GPS,
48600,2022-08-30 05:03:40,0,0,3.608924,,,3.6089568084,3.28084,0,0,0,0,0,8.387,3.6089568084,3.608924,0,0,0,0,0,37.2, 0.2, 0.2,0,0,1024,1024,1024,1024,0,0,0,0,37.2,2.4,0,98,4.196,4.191,0,0,0,0,4.066,73.04,3.6089568084,3.608924,6,P-GPS,
48700,2022-08-30 05:03:40,0,0,3.608924,,,3.6089568084,3.28084,0,0,0,0,0,8.387,3.6089568084,3.608924,0,0,0,0,0,37.1, 0.2, 0.3,0,0,1024,1024,813,1024,0,0,-32,0,37.2,2.4,0,98,4.196,4.191,0,0,0,0,4.066,73.04,3.6089568084,3.608924,6,P-GPS,
48800,2022-08-30 05:03:40,0,0,3.608924,,,3.6089568084,3.28084,0,0,0,0,0,8.387,3.6089568084,3.608924,0,0,0,0,0,37.1, 0.2, 0.4,0,0,1024,1024,763,1024,0,0,-40,0,37.2,2.4,0,98,4.196,4.191,0,0,0,0,4.066,73.04,3.6089568084,3.608924,6,P-GPS,
48900,2022-08-30 05:03:40,0,0,3.608924,,,3.6089568084,3.28084,0,0,0,0,0,8.387,3.6089568084,3.608924,0,0,0,0,0.223694,37.1, 0.5, 0.5,0,0,1024,1024,767,1024,0,0,-39,0,37.2,2.4,0,98,4.196,4.191,0,0,0,0,4.066,73.04,3.6089568084,3.608924,6,P-GPS,
49000,2022-08-30 05:03:40,0,0,3.608924,,,3.6089568084,3.28084,0,0,0,0,0,8.387,3.6089568084,3.608924,0,0,0,0,0.223694,37.1, 0.3, 0.4,0,0,1024,1024,790,1024,0,0,-35,0,37.2,2.4,0,98,4.196,4.191,0,0,0,0,4.066,73.04,3.6089568084,3.608924,6,P-GPS,
49100,2022-08-30 05:03:40,0,0,3.608924,,,3.6089568084,3.28084,0,0,0,0,0,8.387,3.6089568084,3.608924,0,0,0,0,0.447388,37.2, 0.4, 0.5,0,0,1024,1024,790,1024,0,0,-35,0,37.2,2.4,0,98,4.196,4.191,0,0,0,0,4.066,73.04,3.6089568084,3.608924,6,P-GPS,
