time(millisecond),datetime(utc),latitude,longitude,height_above_takeoff(feet),height_above_ground_at_drone_location(feet),ground_elevation_at_drone_location(feet),altitude_above_seaLevel(feet),height_sonar(feet),speed(mph),distance(feet),mileage(feet),satellites,gpslevel,voltage(v),max_altitude(feet),max_ascent(feet),max_speed(mph),max_distance(feet), xSpeed(mph), ySpeed(mph), zSpeed(mph), compass_heading(degrees), pitch(degrees), roll(degrees),isPhoto,isVideo,rc_elevator,rc_aileron,rc_throttle,rc_rudder,rc_elevator(percent),rc_aileron(percent),rc_throttle(percent),rc_rudder(percent),gimbal_heading(degrees),gimbal_pitch(degrees),gimbal_roll(degrees),battery_percent,voltageCell1,voltageCell2,voltageCell3,voltageCell4,voltageCell5,voltageCell6,current(A),battery_temperature(f),altitude(feet),ascent(feet),flycStateRaw,flycState,message
138700,2025-05-23 15:37:23,0,0,0,,,3.28084E-5,0,0,0,0,2,0,0,3.28084E-5,0,0,0,0,0,0,44.1, 2.2, 1.1,0,0,960,1100,1024,1047,-10,12,0,3,47.6,0,8.8,81,4.015,4.014,0,0,0,0,0,89.42,3.28084E-5,0,6,P-GPS,"Impacto detectado Impacto detectado. No se puede despegar. Gafas en modo de conexión por cable OTG. Sal de este modo antes de conectarlas al ordenador. Motor del estabilizador sobrecargado. Reinicia la aeronave. Comprueba si el motor del estabilizador está atascado y "
138800,2025-05-23 15:37:24,0,0,0.328084,,,0.3281168084,0,0,0,0,2,0,0,0.3281168084,0.328084,0,0,0,0,0,44.1, 2.2, 1.1,0,0,960,1100,1024,1047,-10,12,0,3,47.6,0,8.7,81,4.015,4.014,0,0,0,0,0,89.42,0.3281168084,0.328084,6,P-GPS,"Impacto detectado. Conexión por cable OTG Impacto detectado. No se puede despegar. Gafas en modo de conexión por cable OTG. Sal de este modo antes de conectarlas al ordenador. Motor del estabilizador sobrecargado. Reinicia la aeronave. Comprueba si el motor del estabilizador está atascado y "
138900,2025-05-23 15:37:24,0,0,0.328084,,,0.3281168084,0,0,0,0,2,0,0,0.3281168084,0.328084,0,0,0,0,0,44.1, 2.2, 1.1,0,0,960,1100,1024,1047,-10,12,0,3,47.6,0,8.7,81,4.015,4.014,0,0,0,0,0,89.42,0.3281168084,0.328084,41,Motors_Started,"Conexión por cable OTG Gafas en modo de conexión por cable OTG. Sal de este modo antes de conectarlas al ordenador. Motor del estabilizador sobrecargado. Reinicia la aeronave. Comprueba si el motor del estabilizador está atascado y asegúrate de que puede moverse libremente"
139000,2025-05-23 15:37:24,0,0,0.656168,,,0.6562008084,0.328084,0,0,0,2,0,0,0.6562008084,0.656168,0,0,0,0,0,44.1, 2.2, 1,0,0,960,1100,1024,1047,-10,12,0,3,47.6,0,8.6,81,4.015,4.014,0,0,0,0,0,89.42,0.6562008084,0.656168,41,Motors_Started,"Setting new Return-To-Home altitude to 30m (98 ft). Data Recorder File Index is 16. Setting new Maximum Flight Altitude to 30m (98 ft). Conexión por cable OTG Gafas en modo de conexión por cable OTG. Sal de este modo antes de conectarlas al ordenador. Motor del estabilizador sobrecargado. Reinicia la aeronave. Comprueba si el motor del estabilizador está atascado y asegúrate de que puede moverse libremente"
139100,2025-05-23 15:37:24,0,0,0.984252,,,0.9842848084,0.328084,0,0,0,2,0,8.029,0.9842848084,0.984252,0,0,0,0,0,44.1, 2.1, 1,0,0,960,1100,1024,1047,-10,12,0,3,47.7,0,8.5,81,4.015,4.014,0,0,0,0,0.607,89.42,0.9842848084,0.984252,41,Motors_Started,"Conexión por cable OTG Gafas en modo de conexión por cable OTG. Sal de este modo antes de conectarlas al ordenador. Motor del estabilizador sobrecargado. Reinicia la aeronave. Comprueba si el motor del estabilizador está atascado y asegúrate de que puede moverse libremente"
139200,2025-05-23 15:37:24,0,0,0.984252,,,0.9842848084,0.328084,0,0,0,2,0,8.029,0.9842848084,0.984252,0,0,0,0,0,44.1, 2.2, 1.1,0,0,960,1100,1024,1047,-10,12,0,3,47.7,0,8.4,81,4.015,4.014,0,0,0,0,0.607,89.42,0.9842848084,0.984252,41,Motors_Started,"Conexión por cable OTG Gafas en modo de conexión por cable OTG. Sal de este modo antes de conectarlas al ordenador. Motor del estabilizador sobrecargado. Reinicia la aeronave. Comprueba si el motor del estabilizador está atascado y asegúrate de que puede moverse libremente"
139300,2025-05-23 15:37:24,0,0,1.312336,,,1.3123688084,0.328084,0,0,0,2,0,8.029,1.3123688084,1.312336,0,0,0,0,0,44, 2.2, 1,0,0,960,1100,1024,1047,-10,12,0,3,47.8,0,8.3,81,4.015,4.014,0,0,0,0,0.607,89.42,1.3123688084,1.312336,41,Motors_Started,"Conexión por cable OTG Gafas en modo de conexión por cable OTG. Sal de este modo antes de conectarlas al ordenador. Motor del estabilizador sobrecargado. Reinicia la aeronave. Comprueba si el motor del estabilizador está atascado y asegúrate de que puede moverse libremente"
139400,2025-05-23 15:37:24,0,0,1.64042,,,1.6404528084,0.328084,0,0,0,2,0,8.029,1.6404528084,1.64042,0,0,0,0,0,43.9, 2.1, 1.1,0,0,960,1100,1024,1047,-10,12,0,3,47.8,0,8.2,81,4.015,4.014,0,0,0,0,0.607,89.42,1.6404528084,1.64042,41,Motors_Started,"Conexión por cable OTG Gafas en modo de conexión por cable OTG. Sal de este modo antes de conectarlas al ordenador. Motor del estabilizador sobrecargado. Reinicia la aeronave. Comprueba si el motor del estabilizador está atascado y asegúrate de que puede moverse libremente"
139500,2025-05-23 15:37:24,0,0,1.64042,,,1.6404528084,0.328084,0,0,0,2,0,8.029,1.6404528084,1.64042,0,0,0,0,0,43.9, 2.1, 1,0,0,960,1100,1024,1047,-10,12,0,3,47.9,0,8.2,81,4.015,4.014,0,0,0,0,0.607,89.42,1.6404528084,1.64042,41,Motors_Started,"Conexión por cable OTG Gafas en modo de conexión por cable OTG. Sal de este modo antes de conectarlas al ordenador. Motor del estabilizador sobrecargado. Reinicia la aeronave. Comprueba si el motor del estabilizador está atascado y asegúrate de que puede moverse libremente"
139600,2025-05-23 15:37:24,0,0,1.968504,,,1.9685368084,0.328084,0,0,0,2,0,8.029,1.9685368084,1.968504,0,0,0,0,0,43.9, 2.1, 1,0,0,960,1100,1024,1047,-10,12,0,3,47.8,0,8.1,81,4.015,4.014,0,0,0,0,0.607,89.42,1.9685368084,1.968504,41,Motors_Started,"Conexión por cable OTG Gafas en modo de conexión por cable OTG. Sal de este modo antes de conectarlas al ordenador. Motor del estabilizador sobrecargado. Reinicia la aeronave. Comprueba si el motor del estabilizador está atascado y asegúrate de que puede moverse libremente"
139700,2025-05-23 15:37:25,0,0,2.296588,,,2.2966208084,0.328084,0,0,0,1,0,8.029,2.2966208084,2.296588,0,0,0,0,0,43.5, 2.1, 1.1,0,0,960,1100,1024,1047,-10,12,0,3,47.9,0,8,81,4.015,4.014,0,0,0,0,0.607,89.42,2.2966208084,2.296588,41,Motors_Started,"Conexión por cable OTG Gafas en modo de conexión por cable OTG. Sal de este modo antes de conectarlas al ordenador. Motor del estabilizador sobrecargado. Reinicia la aeronave. Comprueba si el motor del estabilizador está atascado y asegúrate de que puede moverse libremente"
139800,2025-05-23 15:37:25,0,0,2.296588,,,2.2966208084,0.328084,0,0,0,1,0,8.029,2.2966208084,2.296588,0,0,0,0,0,43.6, 2.1, 1,0,0,960,1100,1024,1047,-10,12,0,3,47.9,0,7.9,81,4.015,4.014,0,0,0,0,0.607,89.42,2.2966208084,2.296588,41,Motors_Started,"Conexión por cable OTG Gafas en modo de conexión por cable OTG. Sal de este modo antes de conectarlas al ordenador. Motor del estabilizador sobrecargado. Reinicia la aeronave. Comprueba si el motor del estabilizador está atascado y asegúrate de que puede moverse libremente"
139900,2025-05-23 15:37:25,0,0,2.624672,,,2.6247048084,0.328084,0,0,0,1,0,8.029,2.6247048084,2.624672,0,0,0,0,0,43.6, 2.1, 1.1,0,0,960,1100,1024,1047,-10,12,0,3,48,0,7.8,81,4.015,4.014,0,0,0,0,0.607,89.42,2.6247048084,2.624672,41,Motors_Started,"Conexión por cable OTG Gafas en modo de conexión por cable OTG. Sal de este modo antes de conectarlas al ordenador. Motor del estabilizador sobrecargado. Reinicia la aeronave. Comprueba si el motor del estabilizador está atascado y asegúrate de que puede moverse libremente"
140000,2025-05-23 15:37:25,0,0,2.624672,,,2.6247048084,0.328084,0,0,0,1,0,8.029,2.6247048084,2.624672,0,0,0,0,0,43.6, 2.1, 1.1,0,0,960,1100,1024,1047,-10,12,0,3,48,0,7.8,81,4.015,4.014,0,0,0,0,0.607,89.42,2.6247048084,2.624672,41,Motors_Started,"Conexión por cable OTG Gafas en modo de conexión por cable OTG. Sal de este modo antes de conectarlas al ordenador. Motor del estabilizador sobrecargado. Reinicia la aeronave. Comprueba si el motor del estabilizador está atascado y asegúrate de que puede moverse libremente"
140100,2025-05-23 15:37:25,0,0,2.952756,,,2.9527888084,0.328084,0,0,0,0,0,7.953,2.9527888084,2.952756,0,0,0,0,0,43.6, 2.1, 1.1,0,0,960,1100,1024,1047,-10,12,0,3,48,0,7.7,81,3.978,3.975,0,0,0,0,2.181,89.42,2.9527888084,2.952756,41,Motors_Started,"Conexión por cable OTG Gafas en modo de conexión por cable OTG. Sal de este modo antes de conectarlas al ordenador. Motor del estabilizador sobrecargado. Reinicia la aeronave. Comprueba si el motor del estabilizador está atascado y asegúrate de que puede moverse libremente"
140200,2025-05-23 15:37:25,0,0,3.28084,,,3.2808728084,0.328084,0,0,0,0,0,7.953,3.2808728084,3.28084,0,0,0,0,0,43.6, 2.1, 1,0,0,960,1100,1024,1047,-10,12,0,3,48,0,7.6,81,3.978,3.975,0,0,0,0,2.181,89.42,3.2808728084,3.28084,41,Motors_Started,"Conexión por cable OTG Gafas en modo de conexión por cable OTG. Sal de este modo antes de conectarlas al ordenador. Motor del estabilizador sobrecargado. Reinicia la aeronave. Comprueba si el motor del estabilizador está atascado y asegúrate de que puede moverse libremente"
140300,2025-05-23 15:37:25,0,0,3.28084,,,3.2808728084,0.328084,0,0,0,0,0,7.953,3.2808728084,3.28084,0,0,0,0,0,43.6, 2.1, 1.1,0,0,960,1100,1024,1047,-10,12,0,3,48.1,0,7.5,81,3.978,3.975,0,0,0,0,2.181,89.42,3.2808728084,3.28084,41,Motors_Started,"Conexión por cable OTG Gafas en modo de conexión por cable OTG. Sal de este modo antes de conectarlas al ordenador. Motor del estabilizador sobrecargado. Reinicia la aeronave. Comprueba si el motor del estabilizador está atascado y asegúrate de que puede moverse libremente"
140400,2025-05-23 15:37:25,0,0,3.608924,,,3.6089568084,0.328084,0,0,0,0,0,7.953,3.6089568084,3.608924,0,0,0,0,0,43.6, 2.1, 1.1,0,0,960,1100,1024,1047,-10,12,0,3,48.1,0,7.4,81,3.978,3.975,0,0,0,0,2.181,89.42,3.6089568084,3.608924,41,Motors_Started,"Conexión por cable OTG Gafas en modo de conexión por cable OTG. Sal de este modo antes de conectarlas al ordenador. Motor del estabilizador sobrecargado. Reinicia la aeronave. Comprueba si el motor del estabilizador está atascado y asegúrate de que puede moverse libremente"
140500,2025-05-23 15:37:25,0,0,3.608924,,,3.6089568084,0.328084,0,0,0,0,0,7.953,3.6089568084,3.608924,0,0,0,0,0,43.6, 2.1, 1.1,0,0,960,1100,1024,1047,-10,12,0,3,48.1,0,7.3,81,3.978,3.975,0,0,0,0,2.181,89.42,3.6089568084,3.608924,41,Motors_Started,"Conexión por cable OTG Gafas en modo de conexión por cable OTG. Sal de este modo antes de conectarlas al ordenador. Motor del estabilizador sobrecargado. Reinicia la aeronave. Comprueba si el motor del estabilizador está atascado y asegúrate de que puede moverse libremente"
140600,2025-05-23 15:37:25,0,0,3.608924,,,3.6089568084,0.328084,0,0,0,0,0,7.953,3.6089568084,3.608924,0,0,0,0,0,43.5, 2.1, 1.1,0,0,960,1100,1024,1047,-10,12,0,3,48.1,0,7.3,81,3.978,3.975,0,0,0,0,2.181,89.42,3.6089568084,3.608924,41,Motors_Started,"Conexión por cable OTG Gafas en modo de conexión por cable OTG. Sal de este modo antes de conectarlas al ordenador. Motor del estabilizador sobrecargado. Reinicia la aeronave. Comprueba si el motor del estabilizador está atascado y asegúrate de que puede moverse libremente"
140700,2025-05-23 15:37:26,0,0,3.937008,,,3.9370408084,0.328084,0,0,0,0,0,7.953,3.9370408084,3.937008,0,0,0,0,0,43.6, 2.1, 1.1,0,0,960,1100,1024,1047,-10,12,0,3,48.2,0,7.2,81,3.978,3.975,0,0,0,0,2.181,89.42,3.9370408084,3.937008,41,Motors_Started,"Conexión por cable OTG Gafas en modo de conexión por cable OTG. Sal de este modo antes de conectarlas al ordenador. Motor del estabilizador sobrecargado. Reinicia la aeronave. Comprueba si el motor del estabilizador está atascado y asegúrate de que puede moverse libremente"
140800,2025-05-23 15:37:26,0,0,3.937008,,,3.9370408084,0.328084,0,0,0,0,0,7.953,3.9370408084,3.937008,0,0,0,0,0,43.7, 2.1, 1,0,0,960,1100,1024,1047,-10,12,0,3,48.2,0,7,81,3.978,3.975,0,0,0,0,2.181,89.42,3.9370408084,3.937008,41,Motors_Started,"Conexión por cable OTG Gafas en modo de conexión por cable OTG. Sal de este modo antes de conectarlas al ordenador. Motor del estabilizador sobrecargado. Reinicia la aeronave. Comprueba si el motor del estabilizador está atascado y asegúrate de que puede moverse libremente"
140900,2025-05-23 15:37:26,0,0,4.265092,,,4.2651248084,0.328084,0,0,0,0,0,7.953,4.2651248084,4.265092,0,0,0,0,0,43.7, 2.1, 1,0,0,960,1100,1024,1047,-10,12,0,3,48.2,0,6.9,81,3.978,3.975,0,0,0,0,2.181,89.42,4.2651248084,4.265092,10,Assisted_Takeoff,"Conexión por cable OTG Gafas en modo de conexión por cable OTG. Sal de este modo antes de conectarlas al ordenador. Motor del estabilizador sobrecargado. Reinicia la aeronave. Comprueba si el motor del estabilizador está atascado y asegúrate de que puede moverse libremente"
141000,2025-05-23 15:37:26,0,0,4.265092,,,4.2651248084,0.328084,0,0,0,0,0,7.953,4.2651248084,4.265092,0,0,0,0,0,43.7, 2.1, 1,0,0,960,1100,1024,1047,-10,12,0,3,48.2,0,6.8,81,3.978,3.975,0,0,0,0,2.181,89.42,4.2651248084,4.265092,10,Assisted_Takeoff,"Conexión por cable OTG Gafas en modo de conexión por cable OTG. Sal de este modo antes de conectarlas al ordenador. Motor del estabilizador sobrecargado. Reinicia la aeronave. Comprueba si el motor del estabilizador está atascado y asegúrate de que puede moverse libremente"
141100,2025-05-23 15:37:26,0,0,4.593176,,,4.5932088084,0.328084,0,0,0,0,0,8.002,4.5932088084,4.593176,0,0,0,0,0,43.8, 2.1, 1,0,0,960,1100,1024,1047,-10,12,0,3,48.2,0,6.8,81,4.002,4,0,0,0,0,1.313,89.6,4.5932088084,4.593176,10,Assisted_Takeoff,"Conexión por cable OTG Gafas en modo de conexión por cable OTG. Sal de este modo antes de conectarlas al ordenador. Motor del estabilizador sobrecargado. Reinicia la aeronave. Comprueba si el motor del estabilizador está atascado y asegúrate de que puede moverse libremente"
141200,2025-05-23 15:37:26,0,0,4.593176,,,4.5932088084,0.328084,0,0,0,0,0,8.002,4.5932088084,4.593176,0,0,0,0,0,43.9, 2.1, 1,0,0,960,1100,1024,1047,-10,12,0,3,48.3,0,6.7,81,4.002,4,0,0,0,0,1.313,89.6,4.5932088084,4.593176,10,Assisted_Takeoff,"Conexión por cable OTG Gafas en modo de conexión por cable OTG. Sal de este modo antes de conectarlas al ordenador. Motor del estabilizador sobrecargado. Reinicia la aeronave. Comprueba si el motor del estabilizador está atascado y asegúrate de que puede moverse libremente"
141300,2025-05-23 15:37:26,0,0,4.92126,,,4.9212928084,0.328084,0,0,0,0,0,8.002,4.9212928084,4.92126,0,0,0,0,0,43.9, 2, 1,0,0,960,1100,1024,1047,-10,12,0,3,48.3,0,6.6,81,4.002,4,0,0,0,0,1.313,89.6,4.9212928084,4.92126,10,Assisted_Takeoff,"Conexión por cable OTG Gafas en modo de conexión por cable OTG. Sal de este modo antes de conectarlas al ordenador. Motor del estabilizador sobrecargado. Reinicia la aeronave. Comprueba si el motor del estabilizador está atascado y asegúrate de que puede moverse libremente"
141400,2025-05-23 15:37:26,0,0,4.92126,,,4.9212928084,0.328084,0,0,0,0,0,8.002,4.9212928084,4.92126,0,0,0,0,0,43.9, 2, 1,0,0,960,1100,1024,1047,-10,12,0,3,48.3,0,6.5,81,4.002,4,0,0,0,0,1.313,89.6,4.9212928084,4.92126,10,Assisted_Takeoff,"Conexión por cable OTG Gafas en modo de conexión por cable OTG. Sal de este modo antes de conectarlas al ordenador. Motor del estabilizador sobrecargado. Reinicia la aeronave. Comprueba si el motor del estabilizador está atascado y asegúrate de que puede moverse libremente"
141500,2025-05-23 15:37:26,0,0,4.92126,,,4.9212928084,0.328084,0,0,0,0,0,8.002,4.9212928084,4.92126,0,0,0,0,0,43.9, 2, 1,0,0,960,1100,1024,1047,-10,12,0,3,48.3,0,6.4,81,4.002,4,0,0,0,0,1.313,89.6,4.9212928084,4.92126,10,Assisted_Takeoff,"Conexión por cable OTG Gafas en modo de conexión por cable OTG. Sal de este modo antes de conectarlas al ordenador. Motor del estabilizador sobrecargado. Reinicia la aeronave. Comprueba si el motor del estabilizador está atascado y asegúrate de que puede moverse libremente"
141600,2025-05-23 15:37:26,0,0,5.249344,,,5.2493768084,0.328084,0,0,0,0,0,8.002,5.2493768084,5.249344,0,0,0,0,0,44, 2, 1,0,0,960,1100,1024,1047,-10,12,0,3,48.3,0,6.3,81,4.002,4,0,0,0,0,1.313,89.6,5.2493768084,5.249344,10,Assisted_Takeoff,"Conexión por cable OTG Gafas en modo de conexión por cable OTG. Sal de este modo antes de conectarlas al ordenador. Motor del estabilizador sobrecargado. Reinicia la aeronave. Comprueba si el motor del estabilizador está atascado y asegúrate de que puede moverse libremente"
141700,2025-05-23 15:37:26,0,0,5.249344,,,5.2493768084,0.328084,0,0,0,1,0,8.002,5.2493768084,5.249344,0,0,0,0,0,44, 2.1, 1,0,0,960,1100,1024,1047,-10,12,0,3,48.4,0,6.2,81,4.002,4,0,0,0,0,1.313,89.6,5.2493768084,5.249344,10,Assisted_Takeoff,"Conexión por cable OTG Gafas en modo de conexión por cable OTG. Sal de este modo antes de conectarlas al ordenador. Motor del estabilizador sobrecargado. Reinicia la aeronave. Comprueba si el motor del estabilizador está atascado y asegúrate de que puede moverse libremente"
141800,2025-05-23 15:37:27,0,0,5.249344,,,5.2493768084,0.328084,0,0,0,1,0,8.002,5.2493768084,5.249344,0,0,0,0,0,44, 2.1, 1,0,0,960,1100,1024,1047,-10,12,0,3,48.4,0,6.2,81,4.002,4,0,0,0,0,1.313,89.6,5.2493768084,5.249344,10,Assisted_Takeoff,"Conexión por cable OTG Gafas en modo de conexión por cable OTG. Sal de este modo antes de conectarlas al ordenador. Motor del estabilizador sobrecargado. Reinicia la aeronave. Comprueba si el motor del estabilizador está atascado y asegúrate de que puede moverse libremente"
141900,2025-05-23 15:37:27,0,0,5.577428,,,5.5774608084,0.328084,0,0,0,1,0,8.002,5.5774608084,5.577428,0,0,0,0,0,44, 2.1, 1,0,0,960,1100,1024,1047,-10,12,0,3,48.4,0,6.1,81,4.002,4,0,0,0,0,1.313,89.6,5.5774608084,5.577428,10,Assisted_Takeoff,"Conexión por cable OTG Gafas en modo de conexión por cable OTG. Sal de este modo antes de conectarlas al ordenador. Motor del estabilizador sobrecargado. Reinicia la aeronave. Comprueba si el motor del estabilizador está atascado y asegúrate de que puede moverse libremente"
142000,2025-05-23 15:37:27,0,0,5.577428,,,5.5774608084,0.328084,0,0,0,1,0,8.002,5.5774608084,5.577428,0,0,0,0,0,44, 2.1, 1,0,0,960,1100,1024,1047,-10,12,0,3,48.4,0,6,81,4.002,4,0,0,0,0,1.313,89.6,5.5774608084,5.577428,10,Assisted_Takeoff,"Conexión por cable OTG Gafas en modo de conexión por cable OTG. Sal de este modo antes de conectarlas al ordenador. Motor del estabilizador sobrecargado. Reinicia la aeronave. Comprueba si el motor del estabilizador está atascado y asegúrate de que puede moverse libremente"
142100,2025-05-23 15:37:27,0,0,5.905512,,,5.9055448084,0.328084,0,0,0,1,0,8.003,5.9055448084,5.905512,0,0,0,0,0,43.9, 2.1, 1,0,0,960,1100,1024,1047,-10,12,0,3,48.4,0,5.9,81,4.002,4.001,0,0,0,0,1.055,89.6,5.9055448084,5.905512,10,Assisted_Takeoff,"Conexión por cable OTG Gafas en modo de conexión por cable OTG. Sal de este modo antes de conectarlas al ordenador. Motor del estabilizador sobrecargado. Reinicia la aeronave. Comprueba si el motor del estabilizador está atascado y asegúrate de que puede moverse libremente"
142200,2025-05-23 15:37:27,0,0,5.905512,,,5.9055448084,0.328084,0,0,0,1,0,8.003,5.9055448084,5.905512,0,0,0,0,0,43.9, 2.1, 1,0,0,960,1100,1024,1047,-10,12,0,3,48.5,0,5.8,81,4.002,4.001,0,0,0,0,1.055,89.6,5.9055448084,5.905512,10,Assisted_Takeoff,"Conexión por cable OTG Gafas en modo de conexión por cable OTG. Sal de este modo antes de conectarlas al ordenador. Motor del estabilizador sobrecargado. Reinicia la aeronave. Comprueba si el motor del estabilizador está atascado y asegúrate de que puede moverse libremente"
142300,2025-05-23 15:37:27,0,0,5.905512,,,5.9055448084,0.328084,0,0,0,1,0,8.003,5.9055448084,5.905512,0,0,0,0,0,43.8, 2.1, 1,0,0,960,1100,1024,1047,-10,12,0,3,48.5,0,5.7,81,4.002,4.001,0,0,0,0,1.055,89.6,5.9055448084,5.905512,10,Assisted_Takeoff,"Conexión por cable OTG Gafas en modo de conexión por cable OTG. Sal de este modo antes de conectarlas al ordenador. Motor del estabilizador sobrecargado. Reinicia la aeronave. Comprueba si el motor del estabilizador está atascado y asegúrate de que puede moverse libremente"
142400,2025-05-23 15:37:27,0,0,5.905512,,,5.9055448084,0.328084,0,0,0,1,0,8.003,5.9055448084,5.905512,0,0,0,0,0,43.8, 2.1, 1,0,0,960,1100,1024,1047,-10,12,0,3,48.5,0,5.7,81,4.002,4.001,0,0,0,0,1.055,89.6,5.9055448084,5.905512,10,Assisted_Takeoff,"Conexión por cable OTG Gafas en modo de conexión por cable OTG. Sal de este modo antes de conectarlas al ordenador. Motor del estabilizador sobrecargado. Reinicia la aeronave. Comprueba si el motor del estabilizador está atascado y asegúrate de que puede moverse libremente"
142500,2025-05-23 15:37:27,0,0,6.233596,,,6.2336288084,0.328084,0,0,0,1,0,8.003,6.2336288084,6.233596,0,0,0,0,0,43.8, 2.1, 1,0,0,960,1100,1024,1047,-10,12,0,3,48.5,0,5.6,81,4.002,4.001,0,0,0,0,1.055,89.6,6.2336288084,6.233596,10,Assisted_Takeoff,"Conexión por cable OTG Gafas en modo de conexión por cable OTG. Sal de este modo antes de conectarlas al ordenador. Motor del estabilizador sobrecargado. Reinicia la aeronave. Comprueba si el motor del estabilizador está atascado y asegúrate de que puede moverse libremente"
142600,2025-05-23 15:37:27,0,0,6.233596,,,6.2336288084,0.328084,0,0,0,1,0,8.003,6.2336288084,6.233596,0,0,0,0,0,43.8, 2.1, 1,0,0,960,1100,1024,1047,-10,12,0,3,48.5,0,5.5,81,4.002,4.001,0,0,0,0,1.055,89.6,6.2336288084,6.233596,41,Motors_Started,"Conexión por cable OTG Gafas en modo de conexión por cable OTG. Sal de este modo antes de conectarlas al ordenador. Motor del estabilizador sobrecargado. Reinicia la aeronave. Comprueba si el motor del estabilizador está atascado y asegúrate de que puede moverse libremente"
142700,2025-05-23 15:37:27,0,0,6.233596,,,6.2336288084,0.328084,0,0,0,2,0,8.003,6.2336288084,6.233596,0,0,0,0,0,43.8, 2.1, 1,0,0,960,1100,1024,1047,-10,12,0,3,48.5,0,5.5,81,4.002,4.001,0,0,0,0,1.055,89.6,6.2336288084,6.233596,41,Motors_Started,"Conexión por cable OTG Gafas en modo de conexión por cable OTG. Sal de este modo antes de conectarlas al ordenador. Motor del estabilizador sobrecargado. Reinicia la aeronave. Comprueba si el motor del estabilizador está atascado y asegúrate de que puede moverse libremente"
142800,2025-05-23 15:37:28,0,0,6.56168,,,6.5617128084,0.328084,0,0,0,2,0,8.003,6.5617128084,6.56168,0,0,0,0,0,43.8, 2.1, 1,0,0,960,1100,1024,1047,-10,12,0,3,48.5,0,5.4,81,4.002,4.001,0,0,0,0,1.055,89.6,6.5617128084,6.56168,41,Motors_Started,"Conexión por cable OTG Gafas en modo de conexión por cable OTG. Sal de este modo antes de conectarlas al ordenador. Motor del estabilizador sobrecargado. Reinicia la aeronave. Comprueba si el motor del estabilizador está atascado y asegúrate de que puede moverse libremente"
142900,2025-05-23 15:37:28,0,0,6.56168,,,6.5617128084,0.328084,0,0,0,2,0,8.003,6.5617128084,6.56168,0,0,0,0,0,43.8, 2.1, 1,0,0,960,1100,1024,1047,-10,12,0,3,48.5,0,5.3,81,4.002,4.001,0,0,0,0,1.055,89.6,6.5617128084,6.56168,41,Motors_Started,"Conexión por cable OTG Gafas en modo de conexión por cable OTG. Sal de este modo antes de conectarlas al ordenador. Motores iniciándose. Mantén presionado el botón Bloqueo para despegar"
143000,2025-05-23 15:37:28,0,0,6.56168,,,6.5617128084,0.328084,0,0,0,2,0,8.003,6.5617128084,6.56168,0,0,0,0,0,43.8, 2.1, 1,0,0,960,1100,1024,1047,-10,12,0,3,48.6,0,5.2,81,4.002,4.001,0,0,0,0,1.055,89.6,6.5617128084,6.56168,41,Motors_Started,"Conexión por cable OTG Gafas en modo de conexión por cable OTG. Sal de este modo antes de conectarlas al ordenador. Motores iniciándose. Mantén presionado el botón Bloqueo para despegar"
143100,2025-05-23 15:37:28,0,0,6.889764,,,6.8897968084,0.328084,0,0,0,2,0,8.007,6.8897968084,6.889764,0,0,0,0,0,43.8, 2.1, 1,0,0,960,1100,1024,1047,-10,12,0,3,48.6,0,5.1,81,4.004,4.003,0,0,0,0,0.993,89.6,6.8897968084,6.889764,41,Motors_Started,"Conexión por cable OTG Gafas en modo de conexión por cable OTG. Sal de este modo antes de conectarlas al ordenador. Motores iniciándose. Mantén presionado el botón Bloqueo para despegar"
143200,2025-05-23 15:37:28,0,0,6.889764,,,6.8897968084,0.328084,0,0,0,2,0,8.007,6.8897968084,6.889764,0,0,0,0,0,43.8, 2.1, 1,0,0,960,1100,1024,1047,-10,12,0,3,48.6,0,5,81,4.004,4.003,0,0,0,0,0.993,89.6,6.8897968084,6.889764,41,Motors_Started,"Conexión por cable OTG Gafas en modo de conexión por cable OTG. Sal de este modo antes de conectarlas al ordenador. Motores iniciándose. Mantén presionado el botón Bloqueo para despegar"
143300,2025-05-23 15:37:28,0,0,6.889764,,,6.8897968084,0.328084,0,0,0,2,0,8.007,6.8897968084,6.889764,0,0,0,0,0,43.9, 2.1, 1,0,0,960,1100,1024,1047,-10,12,0,3,48.6,0,5,81,4.004,4.003,0,0,0,0,0.993,89.6,6.8897968084,6.889764,41,Motors_Started,"Conexión por cable OTG Gafas en modo de conexión por cable OTG. Sal de este modo antes de conectarlas al ordenador. Motores iniciándose. Mantén presionado el botón Bloqueo para despegar"
143400,2025-05-23 15:37:28,0,0,6.889764,,,6.8897968084,0.328084,0,0,0,2,0,8.007,6.8897968084,6.889764,0,0,0,0,0,43.9, 2.1, 1,0,0,960,1100,1024,1047,-10,12,0,3,48.6,0,4.9,81,4.004,4.003,0,0,0,0,0.993,89.6,6.8897968084,6.889764,41,Motors_Started,"Conexión por cable OTG Gafas en modo de conexión por cable OTG. Sal de este modo antes de conectarlas al ordenador. Motores iniciándose. Mantén presionado el botón Bloqueo para despegar"
143500,2025-05-23 15:37:28,0,0,7.217848,,,7.2178808084,0.328084,0,0,0,2,0,8.007,7.2178808084,7.217848,0,0,0,0,0,43.9, 2.1, 1,0,0,960,1100,1024,1047,-10,12,0,3,48.6,0,4.8,81,4.004,4.003,0,0,0,0,0.993,89.6,7.2178808084,7.217848,41,Motors_Started,"Conexión por cable OTG Gafas en modo de conexión por cable OTG. Sal de este modo antes de conectarlas al ordenador. Motores iniciándose. Mantén presionado el botón Bloqueo para despegar"
143600,2025-05-23 15:37:28,0,0,7.217848,,,7.2178808084,0.328084,0,0,0,2,0,8.007,7.2178808084,7.217848,0,0,0,0,0,43.9, 2.1, 1,0,0,960,1100,1024,1047,-10,12,0,3,48.6,0,4.7,81,4.004,4.003,0,0,0,0,0.993,89.6,7.2178808084,7.217848,41,Motors_Started,"Conexión por cable OTG Gafas en modo de conexión por cable OTG. Sal de este modo antes de conectarlas al ordenador. Motores iniciándose. Mantén presionado el botón Bloqueo para despegar"
143700,2025-05-23 15:37:29,0,0,7.217848,,,7.2178808084,0.328084,0,0,0,1,0,8.007,7.2178808084,7.217848,0,0,0,0,0,44, 2.1, 1,0,0,960,1100,1024,1047,-10,12,0,3,48.6,0,4.6,81,4.004,4.003,0,0,0,0,0.993,89.6,7.2178808084,7.217848,41,Motors_Started,"Conexión por cable OTG Gafas en modo de conexión por cable OTG. Sal de este modo antes de conectarlas al ordenador. Motores iniciándose. Mantén presionado el botón Bloqueo para despegar"
143800,2025-05-23 15:37:29,0,0,7.217848,,,7.2178808084,0.328084,0,0,0,1,0,8.007,7.2178808084,7.217848,0,0,0,0,0,44, 2.1, 1,0,0,960,1100,1024,1047,-10,12,0,3,48.7,0,4.6,81,4.004,4.003,0,0,0,0,0.993,89.6,7.2178808084,7.217848,41,Motors_Started,"Conexión por cable OTG Gafas en modo de conexión por cable OTG. Sal de este modo antes de conectarlas al ordenador. Motores iniciándose. Mantén presionado el botón Bloqueo para despegar"
143900,2025-05-23 15:37:29,0,0,7.545932,,,7.5459648084,0.328084,0,0,0,1,0,8.007,7.5459648084,7.545932,0,0,0,0,0,44, 2.2, 1,0,0,960,1100,1024,1047,-10,12,0,3,48.7,0,4.5,81,4.004,4.003,0,0,0,0,0.993,89.6,7.5459648084,7.545932,41,Motors_Started,"Conexión por cable OTG Gafas en modo de conexión por cable OTG. Sal de este modo antes de conectarlas al ordenador. Motores iniciándose. Mantén presionado el botón Bloqueo para despegar"
144000,2025-05-23 15:37:29,0,0,7.545932,,,7.5459648084,0.328084,0,0,0,1,0,8.007,7.5459648084,7.545932,0,0,0,0,0,44, 2.2, 0.9,0,0,960,1100,1024,1047,-10,12,0,3,48.7,0,4.4,81,4.004,4.003,0,0,0,0,0.993,89.6,7.5459648084,7.545932,41,Motors_Started,"Conexión por cable OTG Gafas en modo de conexión por cable OTG. Sal de este modo antes de conectarlas al ordenador. Motores iniciándose. Mantén presionado el botón Bloqueo para despegar"
144100,2025-05-23 15:37:29,0,0,7.545932,,,7.5459648084,0.328084,0,0,0,1,0,8.008,7.5459648084,7.545932,0,0,0,0,0,44, 2.2, 1,0,0,960,1100,1024,1047,-10,12,0,3,48.7,0,4.3,81,4.004,4.004,0,0,0,0,0.997,89.6,7.5459648084,7.545932,41,Motors_Started,"Conexión por cable OTG Gafas en modo de conexión por cable OTG. Sal de este modo antes de conectarlas al ordenador. Motores iniciándose. Mantén presionado el botón Bloqueo para despegar"
144200,2025-05-23 15:37:29,0,0,7.545932,,,7.5459648084,0.328084,0,0,0,1,0,8.008,7.5459648084,7.545932,0,0,0,0,0,44, 2.1, 1,0,0,960,1100,1024,1047,-10,12,0,3,48.7,0,4.3,81,4.004,4.004,0,0,0,0,0.997,89.6,7.5459648084,7.545932,41,Motors_Started,"Conexión por cable OTG Gafas en modo de conexión por cable OTG. Sal de este modo antes de conectarlas al ordenador. Motores iniciándose. Mantén presionado el botón Bloqueo para despegar"
144300,2025-05-23 15:37:29,0,0,7.545932,,,7.5459648084,0.328084,0,0,0,1,0,8.008,7.5459648084,7.545932,0,0,0,0,0,44, 2.1, 1,0,0,960,1100,1024,1047,-10,12,0,3,48.7,0,4.2,81,4.004,4.004,0,0,0,0,0.997,89.6,7.5459648084,7.545932,41,Motors_Started,"Conexión por cable OTG Gafas en modo de conexión por cable OTG. Sal de este modo antes de conectarlas al ordenador. Motores iniciándose. Mantén presionado el botón Bloqueo para despegar"
144400,2025-05-23 15:37:29,0,0,7.545932,,,7.5459648084,0.328084,0,0,0,1,0,8.008,7.5459648084,7.545932,0,0,0,0,0,44.1, 2.1, 1,0,0,960,1100,1024,1047,-10,12,0,3,48.7,0,4.1,81,4.004,4.004,0,0,0,0,0.997,89.6,7.5459648084,7.545932,41,Motors_Started,"Conexión por cable OTG Gafas en modo de conexión por cable OTG. Sal de este modo antes de conectarlas al ordenador. Motores iniciándose. Mantén presionado el botón Bloqueo para despegar"
144500,2025-05-23 15:37:29,0,0,7.874016,,,7.8740488084,0.328084,0,0,0,1,0,8.008,7.8740488084,7.874016,0,0,0,0,0,44.1, 2.1, 1,0,0,960,1100,1024,1047,-10,12,0,3,48.7,0,3.9,81,4.004,4.004,0,0,0,0,0.997,89.6,7.8740488084,7.874016,41,Motors_Started,"Conexión por cable OTG Gafas en modo de conexión por cable OTG. Sal de este modo antes de conectarlas al ordenador. Motores iniciándose. Mantén presionado el botón Bloqueo para despegar"
144600,2025-05-23 15:37:29,0,0,7.874016,,,7.8740488084,0.328084,0,0,0,1,0,8.008,7.8740488084,7.874016,0,0,0,0,0,44.1, 1.9, 0.8,0,0,960,1100,1024,1047,-10,12,0,3,48.7,0,3.7,81,4.004,4.004,0,0,0,0,0.997,89.6,7.8740488084,7.874016,41,Motors_Started,"Conexión por cable OTG Gafas en modo de conexión por cable OTG. Sal de este modo antes de conectarlas al ordenador. Motores iniciándose. Mantén presionado el botón Bloqueo para despegar"
144700,2025-05-23 15:37:29,0,0,7.874016,,,7.8740488084,0.328084,0,0,0,2,0,8.008,7.8740488084,7.874016,0,0,0,0,0,44, 1.6, 0.7,0,0,960,1100,1024,1047,-10,12,0,3,48.6,0,3.5,81,4.004,4.004,0,0,0,0,0.997,89.6,7.8740488084,7.874016,11,AutoTakeoff,"Conexión por cable OTG Gafas en modo de conexión por cable OTG. Sal de este modo antes de conectarlas al ordenador. Motores iniciándose. Mantén presionado el botón Bloqueo para despegar. Gafas en modo de conexión por cable OTG. Sal de este modo antes de conectarlas al orde"
144800,2025-05-23 15:37:30,0,0,7.874016,,,7.8740488084,0.328084,0,0,0,2,0,8.008,7.8740488084,7.874016,0,0,0,0,0,43.7, 0.6, 0.6,0,0,960,1100,1024,1047,-10,12,0,3,48.5,0,3.4,81,4.004,4.004,0,0,0,0,0.997,89.6,7.8740488084,7.874016,11,AutoTakeoff,"Conexión por cable OTG Gafas en modo de conexión por cable OTG. Sal de este modo antes de conectarlas al ordenador. Despegando..."
144900,2025-05-23 15:37:30,0,0,7.874016,,,7.8740488084,0.328084,0,0,0,2,0,8.008,7.8740488084,7.874016,0,0,0,0,-0.447388,43.9, 0.4, 0.3,0,0,960,1100,1024,1047,-10,12,0,3,48.8,0,2,81,4.004,4.004,0,0,0,0,0.997,89.6,7.8740488084,7.874016,11,AutoTakeoff,"Conexión por cable OTG Gafas en modo de conexión por cable OTG. Sal de este modo antes de conectarlas al ordenador. Despegando..."
145000,2025-05-23 15:37:30,0,0,8.2021,,,8.2021328084,0,0,0,0,2,0,8.008,8.2021328084,8.2021,0,0,0,0,-0.671082,44, -0.3, -1.4,0,0,960,1100,1024,1047,-10,12,0,3,48.8,0,0.9,81,4.004,4.004,0,0,0,0,0.997,89.6,8.2021328084,8.2021,11,AutoTakeoff,"Conexión por cable OTG Gafas en modo de conexión por cable OTG. Sal de este modo antes de conectarlas al ordenador. Despegando..."
145100,2025-05-23 15:37:30,0,0,8.2021,,,8.2021328084,0,0,0,0,2,0,7.873,8.2021328084,8.2021,0,0,0,0,-0.671082,44, -0.6, -1.4,0,0,960,1100,1024,1047,-10,12,0,3,48.8,0,0.8,81,3.939,3.934,0,0,0,0,3.826,89.6,8.2021328084,8.2021,11,AutoTakeoff,"Conexión por cable OTG Gafas en modo de conexión por cable OTG. Sal de este modo antes de conectarlas al ordenador. Despegando..."
145200,2025-05-23 15:37:30,0,0,8.2021,,,8.2021328084,0.328084,0,0,0,2,0,7.873,8.2021328084,8.2021,0,0,0,0,-0.671082,44, -0.7, -1.4,0,0,960,1100,1024,1047,-10,12,0,3,48.8,0,1.1,81,3.939,3.934,0,0,0,0,3.826,89.6,8.2021328084,8.2021,11,AutoTakeoff,"Conexión por cable OTG Gafas en modo de conexión por cable OTG. Sal de este modo antes de conectarlas al ordenador. Despegando..."
145300,2025-05-23 15:37:30,0,0,8.530184,,,8.5302168084,0.328084,0,0,0,2,0,7.873,8.5302168084,8.530184,0,0,0,0,-0.671082,44, 0.1, -1.1,0,0,960,1100,1024,1047,-10,12,0,3,48.8,0,1.6,81,3.939,3.934,0,0,0,0,3.826,89.6,8.5302168084,8.530184,11,AutoTakeoff,"Conexión por cable OTG Gafas en modo de conexión por cable OTG. Sal de este modo antes de conectarlas al ordenador. Despegando..."
145400,2025-05-23 15:37:30,0,0,8.530184,,,8.5302168084,0.656168,0,0,0,2,0,7.873,8.5302168084,8.530184,0,0,0,0,-0.894776,44, 0.6, -0.4,0,0,960,1100,1024,1047,-10,12,0,3,48.8,0,2,81,3.939,3.934,0,0,0,0,3.826,89.6,8.5302168084,8.530184,11,AutoTakeoff,"Conexión por cable OTG Gafas en modo de conexión por cable OTG. Sal de este modo antes de conectarlas al ordenador. Despegando..."
145500,2025-05-23 15:37:30,0,0,8.858268,,,8.8583008084,0.656168,0,0,0,2,0,7.873,8.8583008084,8.858268,0,0,0,0,-0.894776,44, 1.1, -0.1,0,0,960,1100,1024,1047,-10,12,0,3,48.8,0,2.2,81,3.939,3.934,0,0,0,0,3.826,89.6,8.8583008084,8.858268,11,AutoTakeoff,"Conexión por cable OTG Gafas en modo de conexión por cable OTG. Sal de este modo antes de conectarlas al ordenador. Despegando..."
145600,2025-05-23 15:37:30,0,0,8.858268,,,8.8583008084,0.984252,0,0,0,2,0,7.873,8.8583008084,8.858268,0,0,0,0,-0.894776,44, 1.2, 0,0,0,960,1100,1024,1047,-10,12,0,3,48.7,0,2.1,81,3.939,3.934,0,0,0,0,3.826,89.6,8.8583008084,8.858268,11,AutoTakeoff,"Conexión por cable OTG Gafas en modo de conexión por cable OTG. Sal de este modo antes de conectarlas al ordenador. Despegando..."
145700,2025-05-23 15:37:30,0,0,9.186352,,,9.1863848084,0.984252,0,0,0,0,0,7.873,9.1863848084,9.186352,0,0,0,0,-0.894776,44, 0.7, 0,0,0,960,1100,1024,1047,-10,12,0,3,48.7,0,2.1,81,3.939,3.934,0,0,0,0,3.826,89.6,9.1863848084,9.186352,11,AutoTakeoff,"Conexión por cable OTG Gafas en modo de conexión por cable OTG. Sal de este modo antes de conectarlas al ordenador. Despegando..."
145800,2025-05-23 15:37:31,0,0,9.514436,,,9.5144688084,1.312336,0,0,0,0,0,7.873,9.5144688084,9.514436,0,0,0,0,-1.11847,44, 0, 0,0,0,960,1100,1024,1047,-10,12,0,3,48.8,0,2,81,3.939,3.934,0,0,0,0,3.826,89.6,9.5144688084,9.514436,11,AutoTakeoff,"Conexión por cable OTG Gafas en modo de conexión por cable OTG. Sal de este modo antes de conectarlas al ordenador. Despegando..."
145900,2025-05-23 15:37:31,0,0,9.514436,,,9.5144688084,1.312336,0,0,0,0,0,7.873,9.5144688084,9.514436,0,0,0,0,-1.11847,44, -0.2, 0,0,0,960,1100,1024,1047,-10,12,0,3,48.8,0,1.8,81,3.939,3.934,0,0,0,0,3.826,89.6,9.5144688084,9.514436,11,AutoTakeoff,"Conexión por cable OTG Gafas en modo de conexión por cable OTG. Sal de este modo antes de conectarlas al ordenador. Despegando..."
146000,2025-05-23 15:37:31,0,0,9.84252,,,9.8425528084,1.312336,0,0,0,0,0,7.873,9.8425528084,9.84252,0,0,0,0,-1.11847,44.1, 0.2, -0.1,0,0,960,1100,1024,1047,-10,12,0,3,48.8,0,1.8,81,3.939,3.934,0,0,0,0,3.826,89.6,9.8425528084,9.84252,11,AutoTakeoff,"Conexión por cable OTG Gafas en modo de conexión por cable OTG. Sal de este modo antes de conectarlas al ordenador. Despegando..."
146100,2025-05-23 15:37:31,0,0,9.84252,,,9.8425528084,1.64042,0,0,0,0,0,7.809,9.8425528084,9.84252,0,0,0,0,-1.11847,44.1, 0.7, 0,0,0,960,1100,1024,1047,-10,12,0,3,48.8,0,1.7,81,3.905,3.904,0,0,0,0,5.081,89.6,9.8425528084,9.84252,11,AutoTakeoff,"Conexión por cable OTG Gafas en modo de conexión por cable OTG. Sal de este modo antes de conectarlas al ordenador. Despegando..."
146200,2025-05-23 15:37:31,0,0,10.170604,,,10.1706368084,1.968504,0,0,0,0,0,7.809,10.1706368084,10.170604,0,0,0,0,-1.11847,44.1, 1.1, -0.1,0,0,960,1100,1024,1047,-10,12,0,3,48.8,0,1.5,81,3.905,3.904,0,0,0,0,5.081,89.6,10.1706368084,10.170604,11,AutoTakeoff,"Conexión por cable OTG Gafas en modo de conexión por cable OTG. Sal de este modo antes de conectarlas al ordenador. Despegando..."
146300,2025-05-23 15:37:31,0,0,10.170604,,,10.1706368084,1.968504,0,0,0,0,0,7.809,10.1706368084,10.170604,0,0,0,0,-1.11847,44.1, 1.1, -0.3,0,0,960,1100,1024,1047,-10,12,0,3,48.8,0,1.4,81,3.905,3.904,0,0,0,0,5.081,89.6,10.1706368084,10.170604,11,AutoTakeoff,"Conexión por cable OTG Gafas en modo de conexión por cable OTG. Sal de este modo antes de conectarlas al ordenador. Despegando..."
146400,2025-05-23 15:37:31,0,0,10.498688,,,10.4987208084,2.296588,0,0,0,0,0,7.809,10.4987208084,10.498688,0,0,0,0,-1.11847,44, 1.1, -0.2,0,0,960,1100,1024,1047,-10,12,0,3,48.8,0,1.5,81,3.905,3.904,0,0,0,0,5.081,89.6,10.4987208084,10.498688,11,AutoTakeoff,"Conexión por cable OTG Gafas en modo de conexión por cable OTG. Sal de este modo antes de conectarlas al ordenador. Despegando..."
146500,2025-05-23 15:37:31,0,0,10.498688,,,10.4987208084,2.296588,0,0,0,0,0,7.809,10.4987208084,10.498688,0,0,0,0,-1.11847,44, 0.8, -0.1,0,0,960,1100,1024,1047,-10,12,0,3,48.7,0,1.3,81,3.905,3.904,0,0,0,0,5.081,89.6,10.4987208084,10.498688,11,AutoTakeoff,"Conexión por cable OTG Gafas en modo de conexión por cable OTG. Sal de este modo antes de conectarlas al ordenador. Despegando..."
146600,2025-05-23 15:37:31,0,0,10.826772,,,10.8268048084,2.624672,0,0,0,0,0,7.809,10.8268048084,10.826772,0,0,0,0,-1.11847,44, 0.5, -0.2,0,0,960,1100,1024,1047,-10,12,0,3,48.7,0,1.2,81,3.905,3.904,0,0,0,0,5.081,89.6,10.8268048084,10.826772,11,AutoTakeoff,"Conexión por cable OTG Gafas en modo de conexión por cable OTG. Sal de este modo antes de conectarlas al ordenador. Despegando..."
146700,2025-05-23 15:37:32,0,0,11.154856,,,11.1548888084,2.624672,0,0,0,0,0,7.809,11.1548888084,11.154856,0,0,0,0,-1.11847,44, 0.6, -0.3,0,0,960,1100,1024,1047,-10,12,0,3,48.7,0,1,81,3.905,3.904,0,0,0,0,5.081,89.6,11.1548888084,11.154856,11,AutoTakeoff,"Conexión por cable OTG Gafas en modo de conexión por cable OTG. Sal de este modo antes de conectarlas al ordenador. Despegando..."
146800,2025-05-23 15:37:32,0,0,11.154856,,,11.1548888084,2.952756,0,0,0,0,0,7.809,11.1548888084,11.154856,0,0,0,0,-0.894776,44, 0.6, -0.3,0,0,960,1100,1024,1047,-10,12,0,3,48.7,0,1.1,81,3.905,3.904,0,0,0,0,5.081,89.6,11.1548888084,11.154856,11,AutoTakeoff,"Conexión por cable OTG Gafas en modo de conexión por cable OTG. Sal de este modo antes de conectarlas al ordenador. Despegando..."
146900,2025-05-23 15:37:32,0,0,11.48294,,,11.4829728084,2.952756,0,0,0,0,0,7.809,11.4829728084,11.48294,0,0,0,0,-0.894776,44.1, 0.7, -0.1,0,0,960,1100,1024,1047,-10,12,0,3,48.8,0,1.3,81,3.905,3.904,0,0,0,0,5.081,89.6,11.4829728084,11.48294,11,AutoTakeoff,"Conexión por cable OTG Gafas en modo de conexión por cable OTG. Sal de este modo antes de conectarlas al ordenador. Despegando..."
147000,2025-05-23 15:37:32,0,0,11.48294,,,11.4829728084,3.28084,0,0,0,0,0,7.809,11.4829728084,11.48294,0,0,0,0,-0.894776,44.1, 0.9, 0,0,0,960,1100,1024,1047,-10,12,0,3,48.8,0,1.3,81,3.905,3.904,0,0,0,0,5.081,89.6,11.4829728084,11.48294,11,AutoTakeoff,"Conexión por cable OTG Gafas en modo de conexión por cable OTG. Sal de este modo antes de conectarlas al ordenador. Despegando..."
147100,2025-05-23 15:37:32,0,0,11.811024,,,11.8110568084,3.28084,0,0,0,0,0,7.797,11.8110568084,11.811024,0,0,0,0,-0.894776,44.1, 1, 0.1,0,0,960,1100,1024,1047,-10,12,0,3,48.7,0,1.4,81,3.899,3.898,0,0,0,0,5.018,89.6,11.8110568084,11.811024,11,AutoTakeoff,"Conexión por cable OTG Gafas en modo de conexión por cable OTG. Sal de este modo antes de conectarlas al ordenador. Despegando..."
147200,2025-05-23 15:37:32,0,0,11.811024,,,11.8110568084,3.608924,0,0,0,0,0,7.797,11.8110568084,11.811024,0,0,0,0,-0.894776,44.1, 0.8, 0.1,0,0,936,1097,1024,1011,-13,11,0,-2,48.7,-4.4,1.1,81,3.899,3.898,0,0,0,0,5.018,89.6,11.8110568084,11.811024,11,AutoTakeoff,"Conexión por cable OTG Gafas en modo de conexión por cable OTG. Sal de este modo antes de conectarlas al ordenador. Despegando..."
147300,2025-05-23 15:37:32,0,0,12.139108,,,12.1391408084,3.608924,0,0,0,0,0,7.797,12.1391408084,12.139108,0,0,0,0,-0.671082,44.1, 0.4, 0,0,0,940,1096,1024,1010,-13,11,0,-2,48.8,-11.3,1.1,81,3.899,3.898,0,0,0,0,5.018,89.6,12.1391408084,12.139108,6,P-GPS,"Conexión por cable OTG Gafas en modo de conexión por cable OTG. Sal de este modo antes de conectarlas al ordenador. Despegando.... Gafas en modo de conexión por cable OTG. Sal de este modo antes de conectarlas al ordenador. Presiona ligeramente el acelerador para controlar"
147400,2025-05-23 15:37:32,0,0,12.139108,,,12.1391408084,3.937008,0,0,0,0,0,7.797,12.1391408084,12.139108,0,0,0,0,-0.447388,44.1, 0.4, 0.1,0,0,944,1104,1024,1005,-12,12,0,-3,48.8,-13.4,1.1,81,3.899,3.898,0,0,0,0,5.018,89.6,12.1391408084,12.139108,6,P-GPS,"Conexión por cable OTG Gafas en modo de conexión por cable OTG. Sal de este modo antes de conectarlas al ordenador. Presiona ligeramente el acelerador para controlar la orientación de la aeronave. Mantén pulsado el botón de bloqueo para que la aeronave aterrice"
147500,2025-05-23 15:37:32,0,0,12.139108,,,12.1391408084,3.937008,0,0,0,0,0,7.797,12.1391408084,12.139108,0,0,0,0,-0.223694,44.1, 0.3, 0.1,0,0,942,1103,1024,1006,-12,12,0,-3,48.8,-13.8,1,81,3.899,3.898,0,0,0,0,5.018,89.6,12.1391408084,12.139108,6,P-GPS,"Conexión por cable OTG Gafas en modo de conexión por cable OTG. Sal de este modo antes de conectarlas al ordenador. Presiona ligeramente el acelerador para controlar la orientación de la aeronave. Mantén pulsado el botón de bloqueo para que la aeronave aterrice"
147600,2025-05-23 15:37:32,0,0,12.139108,,,12.1391408084,3.937008,0,0,0,0,0,7.797,12.1391408084,12.139108,0,0,0,0,0,44.2, 0.2, 0.1,0,0,943,1101,1024,1006,-12,12,0,-3,48.8,-13.9,0.9,81,3.899,3.898,0,0,0,0,5.018,89.6,12.1391408084,12.139108,6,P-GPS,"Conexión por cable OTG Gafas en modo de conexión por cable OTG. Sal de este modo antes de conectarlas al ordenador. Presiona ligeramente el acelerador para controlar la orientación de la aeronave. Mantén pulsado el botón de bloqueo para que la aeronave aterrice"
147700,2025-05-23 15:37:32,0,0,12.139108,,,12.1391408084,3.937008,0,0,0,0,0,7.797,12.1391408084,12.139108,0,0,0,0,0,44.2, 0.1, 0,0,0,943,1099,1024,1007,-12,11,0,-3,48.8,-13.9,0.7,81,3.899,3.898,0,0,0,0,5.018,89.6,12.1391408084,12.139108,6,P-GPS,"Conexión por cable OTG Gafas en modo de conexión por cable OTG. Sal de este modo antes de conectarlas al ordenador. Presiona ligeramente el acelerador para controlar la orientación de la aeronave. Mantén pulsado el botón de bloqueo para que la aeronave aterrice"
147800,2025-05-23 15:37:33,0,0,12.139108,,,12.1391408084,3.937008,0,0,0,0,0,7.797,12.1391408084,12.139108,0,0,0,0,0,44.2, 0, 0,0,0,942,1094,1024,1011,-12,11,0,-2,48.8,-13.9,0.5,81,3.899,3.898,0,0,0,0,5.018,89.6,12.1391408084,12.139108,6,P-GPS,"Conexión por cable OTG Gafas en modo de conexión por cable OTG. Sal de este modo antes de conectarlas al ordenador. Presiona ligeramente el acelerador para controlar la orientación de la aeronave. Mantén pulsado el botón de bloqueo para que la aeronave aterrice"
147900,2025-05-23 15:37:33,0,0,12.139108,,,12.1391408084,3.937008,0,0,0,0,0,7.797,12.1391408084,12.139108,0,0,0,0,0,44.2, 0, -0.1,0,0,941,1094,1024,1012,-13,11,0,-2,48.8,-14,0.3,81,3.899,3.898,0,0,0,0,5.018,89.6,12.1391408084,12.139108,6,P-GPS,"Conexión por cable OTG Gafas en modo de conexión por cable OTG. Sal de este modo antes de conectarlas al ordenador. Presiona ligeramente el acelerador para controlar la orientación de la aeronave. Mantén pulsado el botón de bloqueo para que la aeronave aterrice"
148000,2025-05-23 15:37:33,0,0,12.467192,,,12.4672248084,3.937008,0,0,0,0,0,7.797,12.4672248084,12.467192,0,0,0,0,0,44.2, 0, -0.3,0,0,940,1098,1024,1012,-13,11,0,-2,48.8,-14.1,0.1,81,3.899,3.898,0,0,0,0,5.018,89.6,12.4672248084,12.467192,6,P-GPS,"Conexión por cable OTG Gafas en modo de conexión por cable OTG. Sal de este modo antes de conectarlas al ordenador. Presiona ligeramente el acelerador para controlar la orientación de la aeronave. Mantén pulsado el botón de bloqueo para que la aeronave aterrice"
148100,2025-05-23 15:37:33,0,0,12.467192,,,12.4672248084,3.937008,0,0,0,0,0,7.799,12.4672248084,12.467192,0,0,0,0,0,44.2, 0.1, -0.4,0,0,941,1097,1024,1013,-13,11,0,-2,48.8,-14.3,0,81,3.9,3.899,0,0,0,0,4.738,89.78,12.4672248084,12.467192,6,P-GPS,"Conexión por cable OTG Gafas en modo de conexión por cable OTG. Sal de este modo antes de conectarlas al ordenador. Presiona ligeramente el acelerador para controlar la orientación de la aeronave. Mantén pulsado el botón de bloqueo para que la aeronave aterrice"
148200,2025-05-23 15:37:33,0,0,12.467192,,,12.4672248084,3.937008,0,0,0,0,0,7.799,12.4672248084,12.467192,0,0,0,0,0,44.2, 0.2, -0.5,0,0,941,1096,1024,1015,-13,11,0,-1,48.7,-14.4,0,81,3.9,3.899,0,0,0,0,4.738,89.78,12.4672248084,12.467192,6,P-GPS,"Conexión por cable OTG Gafas en modo de conexión por cable OTG. Sal de este modo antes de conectarlas al ordenador. Presiona ligeramente el acelerador para controlar la orientación de la aeronave. Mantén pulsado el botón de bloqueo para que la aeronave aterrice"
148300,2025-05-23 15:37:33,0,0,12.467192,,,12.4672248084,3.937008,0,0,0,0,0,7.799,12.4672248084,12.467192,0,0,0,0,0,44.2, 0.2, -0.5,0,0,947,1096,1024,1015,-12,11,0,-1,48.7,-14.1,0,81,3.9,3.899,0,0,0,0,4.738,89.78,12.4672248084,12.467192,6,P-GPS,"Conexión por cable OTG Gafas en modo de conexión por cable OTG. Sal de este modo antes de conectarlas al ordenador. Presiona ligeramente el acelerador para controlar la orientación de la aeronave. Mantén pulsado el botón de bloqueo para que la aeronave aterrice"
148400,2025-05-23 15:37:33,0,0,12.467192,,,12.4672248084,3.937008,0,0,0,0,0,7.799,12.4672248084,12.467192,0,0,0,0,0,44.1, 0.2, -0.5,0,0,956,1091,1024,1014,-10,10,0,-2,48.7,-13.5,-0.1,81,3.9,3.899,0,0,0,0,4.738,89.78,12.4672248084,12.467192,6,P-GPS,"Conexión por cable OTG Gafas en modo de conexión por cable OTG. Sal de este modo antes de conectarlas al ordenador. Presiona ligeramente el acelerador para controlar la orientación de la aeronave. Mantén pulsado el botón de bloqueo para que la aeronave aterrice"
148500,2025-05-23 15:37:33,0,0,12.467192,,,12.4672248084,3.937008,0,0,0,0,0,7.799,12.4672248084,12.467192,0,0,0,0,0,44.1, 0.1, -0.5,0,0,957,1098,1024,1006,-10,11,0,-3,48.6,-12.5,-0.1,81,3.9,3.899,0,0,0,0,4.738,89.78,12.4672248084,12.467192,6,P-GPS,"Conexión por cable OTG Gafas en modo de conexión por cable OTG. Sal de este modo antes de conectarlas al ordenador. Presiona ligeramente el acelerador para controlar la orientación de la aeronave. Mantén pulsado el botón de bloqueo para que la aeronave aterrice"
148600,2025-05-23 15:37:33,0,0,12.467192,,,12.4672248084,3.937008,0,0,0,0,0,7.799,12.4672248084,12.467192,0,0,0,0,0,44.1, 0, -0.5,0,0,971,1099,1024,994,-8,11,0,-5,48.6,-11.6,-0.2,81,3.9,3.899,0,0,0,0,4.738,89.78,12.4672248084,12.467192,6,P-GPS,"Conexión por cable OTG Gafas en modo de conexión por cable OTG. Sal de este modo antes de conectarlas al ordenador. Presiona ligeramente el acelerador para controlar la orientación de la aeronave. Mantén pulsado el botón de bloqueo para que la aeronave aterrice"
148700,2025-05-23 15:37:33,0,0,12.467192,,,12.4672248084,3.937008,0,0,0,0,0,7.799,12.4672248084,12.467192,0,0,0,0,0,44, 0, -0.4,0,0,983,1088,1024,992,-6,10,0,-5,48.6,-10.1,0,81,3.9,3.899,0,0,0,0,4.738,89.78,12.4672248084,12.467192,6,P-GPS,"Conexión por cable OTG Gafas en modo de conexión por cable OTG. Sal de este modo antes de conectarlas al ordenador. Presiona ligeramente el acelerador para controlar la orientación de la aeronave. Mantén pulsado el botón de bloqueo para que la aeronave aterrice"
148800,2025-05-23 15:37:34,0,0,12.467192,,,12.4672248084,3.937008,0,0,0,0,0,7.799,12.4672248084,12.467192,0,0,0,0,0,44, 0.1, -0.1,0,0,971,1101,1024,988,-8,12,0,-5,48.6,-8.2,0,81,3.9,3.899,0,0,0,0,4.738,89.78,12.4672248084,12.467192,6,P-GPS,"Conexión por cable OTG Gafas en modo de conexión por cable OTG. Sal de este modo antes de conectarlas al ordenador. Presiona ligeramente el acelerador para controlar la orientación de la aeronave. Mantén pulsado el botón de bloqueo para que la aeronave aterrice"
148900,2025-05-23 15:37:34,0,0,12.467192,,,12.4672248084,3.937008,0,0,0,0,0,7.799,12.4672248084,12.467192,0,0,0,0,0,44, 0, -0.2,0,0,964,1114,1024,990,-9,14,0,-5,48.6,-8.6,0,81,3.9,3.899,0,0,0,0,4.738,89.78,12.4672248084,12.467192,6,P-GPS,"Conexión por cable OTG Gafas en modo de conexión por cable OTG. Sal de este modo antes de conectarlas al ordenador. Presiona ligeramente el acelerador para controlar la orientación de la aeronave. Mantén pulsado el botón de bloqueo para que la aeronave aterrice"
149000,2025-05-23 15:37:34,0,0,12.467192,,,12.4672248084,3.937008,0,0,0,0,0,7.799,12.4672248084,12.467192,0,0,0,0,0,44, 0, -0.2,0,0,967,1120,1024,1000,-9,15,0,-4,48.6,-9.5,-0.1,81,3.9,3.899,0,0,0,0,4.738,89.78,12.4672248084,12.467192,6,P-GPS,"Conexión por cable OTG Gafas en modo de conexión por cable OTG. Sal de este modo antes de conectarlas al ordenador. Presiona ligeramente el acelerador para controlar la orientación de la aeronave. Mantén pulsado el botón de bloqueo para que la aeronave aterrice"
149100,2025-05-23 15:37:34,0,0,12.467192,,,12.4672248084,3.937008,0,0,0,0,0,7.788,12.4672248084,12.467192,0,0,0,0,0,44, 0, -0.3,0,0,969,1098,1024,1019,-8,11,0,-1,48.6,-9.7,-0.3,81,3.895,3.893,0,0,0,0,4.797,89.78,12.4672248084,12.467192,6,P-GPS,"Conexión por cable OTG Gafas en modo de conexión por cable OTG. Sal de este modo antes de conectarlas al ordenador. Presiona ligeramente el acelerador para controlar la orientación de la aeronave. Mantén pulsado el botón de bloqueo para que la aeronave aterrice"
149200,2025-05-23 15:37:34,0,0,12.467192,,,12.4672248084,3.937008,0,0,0,0,0,7.788,12.4672248084,12.467192,0,0,0,0,0,44, -0.2, -0.4,0,0,976,1075,1024,1041,-7,8,0,3,48.6,-9.4,-0.3,81,3.895,3.893,0,0,0,0,4.797,89.78,12.4672248084,12.467192,6,P-GPS,"Conexión por cable OTG Gafas en modo de conexión por cable OTG. Sal de este modo antes de conectarlas al ordenador. Presiona ligeramente el acelerador para controlar la orientación de la aeronave. Mantén pulsado el botón de bloqueo para que la aeronave aterrice"
149300,2025-05-23 15:37:34,0,0,12.467192,,,12.4672248084,3.937008,0,0,0,0,0,7.788,12.4672248084,12.467192,0,0,0,0,0,44, -0.2, -0.3,0,0,969,1088,1024,1034,-8,10,0,2,48.6,-8.7,-0.3,81,3.895,3.893,0,0,0,0,4.797,89.78,12.4672248084,12.467192,6,P-GPS,"Conexión por cable OTG Gafas en modo de conexión por cable OTG. Sal de este modo antes de conectarlas al ordenador. Presiona ligeramente el acelerador para controlar la orientación de la aeronave. Mantén pulsado el botón de bloqueo para que la aeronave aterrice"
149400,2025-05-23 15:37:34,0,0,12.467192,,,12.4672248084,3.937008,0,0,0,0,0,7.788,12.4672248084,12.467192,0,0,0,0,0,44, -0.3, -0.2,0,0,972,1105,1024,1004,-8,12,0,-3,48.6,-9,-0.2,81,3.895,3.893,0,0,0,0,4.797,89.78,12.4672248084,12.467192,6,P-GPS,"Conexión por cable OTG Gafas en modo de conexión por cable OTG. Sal de este modo antes de conectarlas al ordenador. Presiona ligeramente el acelerador para controlar la orientación de la aeronave. Mantén pulsado el botón de bloqueo para que la aeronave aterrice"
149500,2025-05-23 15:37:34,0,0,12.467192,,,12.4672248084,3.937008,0,0,0,0,0,7.788,12.4672248084,12.467192,0,0,0,0,0,44, -0.3, -0.2,0,0,975,1103,1024,995,-7,12,0,-4,48.6,-8.9,-0.2,81,3.895,3.893,0,0,0,0,4.797,89.78,12.4672248084,12.467192,6,P-GPS,"Conexión por cable OTG Gafas en modo de conexión por cable OTG. Sal de este modo antes de conectarlas al ordenador. Presiona ligeramente el acelerador para controlar la orientación de la aeronave. Mantén pulsado el botón de bloqueo para que la aeronave aterrice"
149600,2025-05-23 15:37:34,0,0,12.467192,,,12.4672248084,3.937008,0,0,0,0,0,7.788,12.4672248084,12.467192,0,0,0,0,0,44, -0.2, -0.1,0,0,980,1093,1024,994,-7,10,0,-5,48.6,-8.5,-0.1,81,3.895,3.893,0,0,0,0,4.797,89.78,12.4672248084,12.467192,6,P-GPS,"Conexión por cable OTG Gafas en modo de conexión por cable OTG. Sal de este modo antes de conectarlas al ordenador. Presiona ligeramente el acelerador para controlar la orientación de la aeronave. Mantén pulsado el botón de bloqueo para que la aeronave aterrice"
149700,2025-05-23 15:37:35,0,0,12.467192,,,12.4672248084,3.937008,0,0,0,0,0,7.788,12.4672248084,12.467192,0,0,0,0,0,44, -0.1, 0,0,0,981,1097,1024,991,-7,11,0,-5,48.7,-7.9,-0.2,81,3.895,3.893,0,0,0,0,4.797,89.78,12.4672248084,12.467192,6,P-GPS,"Conexión por cable OTG Gafas en modo de conexión por cable OTG. Sal de este modo antes de conectarlas al ordenador. Presiona ligeramente el acelerador para controlar la orientación de la aeronave. Mantén pulsado el botón de bloqueo para que la aeronave aterrice"
149800,2025-05-23 15:37:35,0,0,12.467192,,,12.4672248084,3.937008,0,0,0,0,0,7.788,12.4672248084,12.467192,0,0,0,0,0,44, 0, 0,0,0,982,1102,1024,991,-6,12,0,-5,48.7,-7.5,-0.3,81,3.895,3.893,0,0,0,0,4.797,89.78,12.4672248084,12.467192,6,P-GPS,"Conexión por cable OTG Gafas en modo de conexión por cable OTG. Sal de este modo antes de conectarlas al ordenador. Presiona ligeramente el acelerador para controlar la orientación de la aeronave. Mantén pulsado el botón de bloqueo para que la aeronave aterrice"
149900,2025-05-23 15:37:35,0,0,12.467192,,,12.4672248084,3.937008,0,0,0,0,0,7.788,12.4672248084,12.467192,0,0,0,0,0,44, 0, 0,0,0,981,1104,1024,991,-7,12,0,-5,48.7,-7.3,-0.2,81,3.895,3.893,0,0,0,0,4.797,89.78,12.4672248084,12.467192,6,P-GPS,"Conexión por cable OTG Gafas en modo de conexión por cable OTG. Sal de este modo antes de conectarlas al ordenador. Presiona ligeramente el acelerador para controlar la orientación de la aeronave. Mantén pulsado el botón de bloqueo para que la aeronave aterrice"
150000,2025-05-23 15:37:35,0,0,12.467192,,,12.4672248084,3.937008,0,0,0,0,0,7.788,12.4672248084,12.467192,0,0,0,0,0,43.9, 0.1, 0,0,0,982,1106,1024,990,-6,12,0,-5,49.2,-7.2,-0.2,81,3.895,3.893,0,0,0,0,4.797,89.78,12.4672248084,12.467192,6,P-GPS,"Conexión por cable OTG Gafas en modo de conexión por cable OTG. Sal de este modo antes de conectarlas al ordenador. Presiona ligeramente el acelerador para controlar la orientación de la aeronave. Mantén pulsado el botón de bloqueo para que la aeronave aterrice"
150100,2025-05-23 15:37:35,0,0,12.467192,,,12.4672248084,3.937008,0,0,0,0,0,7.78,12.4672248084,12.467192,0,0,0,0,0,46.1, 0, 0,0,0,982,1107,1024,990,-6,13,0,-5,52.9,-7.2,-0.2,80,3.891,3.889,0,0,0,0,4.765,89.78,12.4672248084,12.467192,6,P-GPS,"Conexión por cable OTG Gafas en modo de conexión por cable OTG. Sal de este modo antes de conectarlas al ordenador. Presiona ligeramente el acelerador para controlar la orientación de la aeronave. Mantén pulsado el botón de bloqueo para que la aeronave aterrice"
150200,2025-05-23 15:37:35,0,0,12.467192,,,12.4672248084,3.937008,0,0,0,0,0,7.78,12.4672248084,12.467192,0,0,0,0,0,50.3, 0, 0,0,0,981,1109,1024,991,-7,13,0,-5,56.8,-7.2,-0.2,80,3.891,3.889,0,0,0,0,4.765,89.78,12.4672248084,12.467192,6,P-GPS,"Conexión por cable OTG Gafas en modo de conexión por cable OTG. Sal de este modo antes de conectarlas al ordenador. Presiona ligeramente el acelerador para controlar la orientación de la aeronave. Mantén pulsado el botón de bloqueo para que la aeronave aterrice"
150300,2025-05-23 15:37:35,0,0,12.467192,,,12.4672248084,3.608924,0,0,0,0,0,7.78,12.4672248084,12.467192,0,0,0,0,0,54.5, 0.2, 0,0,0,981,1108,1024,991,-7,13,0,-5,60.6,-7.2,-0.3,80,3.891,3.889,0,0,0,0,4.765,89.78,12.4672248084,12.467192,6,P-GPS,"Conexión por cable OTG Gafas en modo de conexión por cable OTG. Sal de este modo antes de conectarlas al ordenador. Presiona ligeramente el acelerador para controlar la orientación de la aeronave. Mantén pulsado el botón de bloqueo para que la aeronave aterrice"
150400,2025-05-23 15:37:35,0,0,12.467192,,,12.4672248084,3.608924,0,0,0,0,0,7.78,12.4672248084,12.467192,0,0,0,0,0,58.4, 0.1, -0.1,0,0,982,1099,1024,991,-6,11,0,-5,64.2,-7.3,-0.4,80,3.891,3.889,0,0,0,0,4.765,89.78,12.4672248084,12.467192,6,P-GPS,"Conexión por cable OTG Gafas en modo de conexión por cable OTG. Sal de este modo antes de conectarlas al ordenador. Presiona ligeramente el acelerador para controlar la orientación de la aeronave. Mantén pulsado el botón de bloqueo para que la aeronave aterrice"
150500,2025-05-23 15:37:35,0,0,12.467192,,,12.4672248084,3.608924,0,0,0,0,0,7.78,12.4672248084,12.467192,0,0,0,0,0,62.1, 0.1, -0.1,0,0,981,1086,1024,992,-7,9,0,-5,67.3,-7.2,-0.4,80,3.891,3.889,0,0,0,0,4.765,89.78,12.4672248084,12.467192,6,P-GPS,"Conexión por cable OTG Gafas en modo de conexión por cable OTG. Sal de este modo antes de conectarlas al ordenador. Presiona ligeramente el acelerador para controlar la orientación de la aeronave. Mantén pulsado el botón de bloqueo para que la aeronave aterrice"
150600,2025-05-23 15:37:35,0,0,12.467192,,,12.4672248084,3.608924,0,0,0,0,0,7.78,12.4672248084,12.467192,0,0,0,0,0,65, 0.2, 0,0,0,981,1051,1024,994,-7,4,0,-5,69.4,-7.3,-0.3,80,3.891,3.889,0,0,0,0,4.765,89.78,12.4672248084,12.467192,6,P-GPS,"Conexión por cable OTG Gafas en modo de conexión por cable OTG. Sal de este modo antes de conectarlas al ordenador. Presiona ligeramente el acelerador para controlar la orientación de la aeronave. Mantén pulsado el botón de bloqueo para que la aeronave aterrice"
150700,2025-05-23 15:37:36,0,0,12.467192,,,12.4672248084,3.608924,0,0,0,0,0,7.78,12.4672248084,12.467192,0,0,0,0,0,66.4, 0.3, 0,0,0,984,1034,1024,995,-6,2,0,-4,70.1,-7.3,-0.1,80,3.891,3.889,0,0,0,0,4.765,89.78,12.4672248084,12.467192,6,P-GPS,"Conexión por cable OTG Gafas en modo de conexión por cable OTG. Sal de este modo antes de conectarlas al ordenador. Presiona ligeramente el acelerador para controlar la orientación de la aeronave. Mantén pulsado el botón de bloqueo para que la aeronave aterrice"
150800,2025-05-23 15:37:36,0,0,12.795276,,,12.7953088084,3.608924,0,0,0,0,0,7.78,12.7953088084,12.795276,0,0,0,0,0,66.5, 0.6, 0.2,0,0,990,1013,1024,998,-5,-2,0,-4,69.8,-6.9,0,80,3.891,3.889,0,0,0,0,4.765,89.78,12.7953088084,12.795276,6,P-GPS,"Conexión por cable OTG Gafas en modo de conexión por cable OTG. Sal de este modo antes de conectarlas al ordenador. Presiona ligeramente el acelerador para controlar la orientación de la aeronave. Mantén pulsado el botón de bloqueo para que la aeronave aterrice"
150900,2025-05-23 15:37:36,0,0,12.795276,,,12.7953088084,3.608924,0,0,0,0,0,7.78,12.7953088084,12.795276,0,0,0,0,0,66.1, 0.7, 0.3,0,0,992,1008,1024,997,-5,-2,0,-4,69.4,-6.2,0,80,3.891,3.889,0,0,0,0,4.765,89.78,12.7953088084,12.795276,6,P-GPS,"Conexión por cable OTG Gafas en modo de conexión por cable OTG. Sal de este modo antes de conectarlas al ordenador. Presiona ligeramente el acelerador para controlar la orientación de la aeronave. Mantén pulsado el botón de bloqueo para que la aeronave aterrice"
151000,2025-05-23 15:37:36,0,0,12.795276,,,12.7953088084,3.608924,0,0,0,0,0,7.78,12.7953088084,12.795276,0,0,0,0,0,65.6, 0.8, 0.1,0,0,994,1006,1024,995,-5,-3,0,-4,69,-5.6,-0.3,80,3.891,3.889,0,0,0,0,4.765,89.78,12.7953088084,12.795276,6,P-GPS,"Conexión por cable OTG Gafas en modo de conexión por cable OTG. Sal de este modo antes de conectarlas al ordenador. Presiona ligeramente el acelerador para controlar la orientación de la aeronave. Mantén pulsado el botón de bloqueo para que la aeronave aterrice"
