time(millisecond),datetime(utc),latitude,longitude,height_above_takeoff(feet),height_above_ground_at_drone_location(feet),ground_elevation_at_drone_location(feet),altitude_above_seaLevel(feet),height_sonar(feet),speed(mph),distance(feet),mileage(feet),satellites,gpslevel,voltage(v),max_altitude(feet),max_ascent(feet),max_speed(mph),max_distance(feet), xSpeed(mph), ySpeed(mph), zSpeed(mph), compass_heading(degrees), pitch(degrees), roll(degrees),isPhoto,isVideo,rc_elevator,rc_aileron,rc_throttle,rc_rudder,rc_elevator(percent),rc_aileron(percent),rc_throttle(percent),rc_rudder(percent),gimbal_heading(degrees),gimbal_pitch(degrees),gimbal_roll(degrees),battery_percent,voltageCell1,voltageCell2,voltageCell3,voltageCell4,voltageCell5,voltageCell6,current(A),battery_temperature(f),altitude(feet),ascent(feet),flycStateRaw,flycState,message
700900,2023-12-27 01:08:33,-34.9551232796221,-54.934564690586,0,0,51.43402231518,50.58100391518,0.328084,0,0,0,19,5,0,50.58100391518,0,0,0,0,0,0,247.9, 2.3, 0.7,0,0,364,364,364,1684,-100,-100,-100,100,257.3,0,0,49,3.884,3.881,0,0,0,0,0,109.04,50.58100391518,0,6,P-GPS,
701000,2023-12-27 01:08:33,-34.9551232814003,-54.9345646934369,0,0,51.43402231518,50.58100391518,0.328084,0,0.00107132221276,0.00107132221276,19,5,0,50.58100391518,0,0,0.00107132221276,0,0,0,247.9, 2.3, 0.7,0,0,364,364,364,1684,-100,-100,-100,100,257.3,0,0,49,3.884,3.881,0,0,0,0,0,109.04,50.58100391518,0,41,Motors_Started,"Error de calibración del estabilizador. Reinicia la aeronave o contacta con la Asistencia DJI (Code: 40011)"
701100,2023-12-27 01:08:33,-34.9551232773732,-54.9345647362927,0,0,51.43402231518,50.58100391518,0.328084,0,0.0136923232728,0.013970472888,19,5,0,50.58100391518,0,0,0.0136923232728,0,0,0,247.9, 2.3, 0.7,0,0,364,364,364,1684,-100,-100,-100,100,257.3,0,0,49,3.884,3.881,0,0,0,0,0,109.04,50.58100391518,0,41,Motors_Started,
701200,2023-12-27 01:08:33,-34.9551231836432,-54.9345647893345,0,0,51.43402231518,50.58100391518,0.328084,0,0.045806103828,0.051666996404,19,5,0,50.58100391518,0,0,0.045806103828,0,0,0,247.9, 2.2, 0.7,0,0,364,364,364,1684,-100,-100,-100,100,257.3,0,0,49,3.884,3.881,0,0,0,0,0,109.04,50.58100391518,0,41,Motors_Started,"Setting new Return-To-Home altitude to 100m (328 ft). Data Recorder File Index is 28. Setting new Maximum Flight Altitude to 120m (394 ft)"
701300,2023-12-27 01:08:33,-34.9551232273311,-54.9345648009187,0,0,51.43402231518,50.58100391518,0.328084,0,2.35384521968,0.067978676716,19,5,0,50.58100391518,0,0,2.35384521968,0,0,0,247.9, 2.2, 0.8,0,0,364,364,364,1684,-100,-100,-100,100,257.3,0,0,49,3.884,3.881,0,0,0,0,0,109.04,50.58100391518,0,41,Motors_Started,
701400,2023-12-27 01:08:34,-34.9551232749436,-54.9345648110342,0,0,51.43402231518,50.58100391518,0.328084,0,2.33729994356,0.085611551296,19,5,0,50.58100391518,0,0,2.35384521968,0,0,0,247.9, 2.3, 0.7,0,0,364,364,364,1684,-100,-100,-100,100,257.3,0,0,49,3.884,3.881,0,0,0,0,0,109.04,50.58100391518,0,41,Motors_Started,
701500,2023-12-27 01:08:34,-34.95512329029,-54.934564806665,0,0,51.43402231518,50.58100391518,0.328084,0,2.33155847356,0.091360895312,19,5,0,50.58100391518,0,0,2.35384521968,0,0,0,247.9, 2.3, 0.8,0,0,364,364,364,1684,-100,-100,-100,100,257.3,0,0,49,3.884,3.881,0,0,0,0,0,109.04,50.58100391518,0,41,Motors_Started,
701600,2023-12-27 01:08:34,-34.9551233296967,-54.9345647510152,0,0,51.43402231518,50.58100391518,0.328084,0,2.31444561212,0.113352693916,19,5,0,50.58100391518,0,0,2.35384521968,0,0,0,247.9, 2.2, 0.8,0,0,364,364,364,1684,-100,-100,-100,100,257.3,0,0,49,3.884,3.881,0,0,0,0,0,109.04,50.58100391518,0,41,Motors_Started,
701700,2023-12-27 01:08:34,-34.9551232759434,-54.9345647928414,0,0,51.43402231518,50.58100391518,0.328084,0,2.33596136084,0.136613193348,19,5,0,50.58100391518,0,0,2.35384521968,0,0,0,247.9, 2.3, 0.7,0,0,364,364,364,1684,-100,-100,-100,100,257.3,0,0,49,3.884,3.881,0,0,0,0,0,109.04,50.58100391518,0,41,Motors_Started,
701800,2023-12-27 01:08:34,-34.9551232198028,-54.934564838373,0,0,51.43402231518,50.58100391518,0.328084,0,2.35857291012,0.161208666576,19,5,0,50.58100391518,0,0,2.35857291012,0,0,0,247.9, 2.2, 0.8,0,0,364,364,364,1684,-100,-100,-100,100,257.3,0,0,49,3.884,3.881,0,0,0,0,0,109.04,50.58100391518,0,41,Motors_Started,
701900,2023-12-27 01:08:34,-34.9551232406306,-54.9345648510077,0,0,51.43402231518,50.58100391518,0.328084,0,2.35179797552,0.16969488732,19,5,0,50.58100391518,0,0,2.35857291012,0,0,0,247.9, 2.3, 0.8,0,0,364,364,364,1684,-100,-100,-100,100,257.3,0,0,49,3.884,3.881,0,0,0,0,0,109.04,50.58100391518,0,41,Motors_Started,
702000,2023-12-27 01:08:34,-34.9551232212261,-54.9345648887782,0,0,51.43402231518,50.58100391518,0.328084,0,2.36086949812,0.18302494024,20,5,0,50.58100391518,0,0,2.36086949812,0,0,0,247.9, 2.2, 0.7,0,0,364,364,364,1684,-100,-100,-100,100,257.3,0,0,49,3.884,3.881,0,0,0,0,0,109.04,50.58100391518,0,41,Motors_Started,
702100,2023-12-27 01:08:34,-34.955123183622,-54.9345648860631,0,0,51.43402231518,50.58100391518,0.328084,0,2.37418970852,0.196768707084,20,5,0,50.58100391518,0,0,2.37418970852,0,0,0,247.9, 2.3, 0.7,0,0,364,364,364,1684,-100,-100,-100,100,257.3,0,0,49,3.884,3.881,0,0,0,0,0,109.04,50.58100391518,0,10,Assisted_Takeoff,
702200,2023-12-27 01:08:34,-34.9551231407907,-54.9345648837244,0,0,51.43402231518,50.58100391518,0.328084,0,2.38940952528,0.21241142412,20,5,0,50.58100391518,0,0,2.38940952528,0,0,0,247.9, 2.3, 0.8,0,0,1024,876,1024,1116,0,-22,0,14,257.3,0,0,49,3.884,3.881,0,0,0,0,0,109.04,50.58100391518,0,10,Assisted_Takeoff,
702300,2023-12-27 01:08:34,-34.9551231224658,-54.9345648766871,0,0,51.43402231518,50.58100391518,0.328084,0,2.395587347,0.219420610696,20,5,0,50.58100391518,0,0,2.395587347,0,0,0,247.9, 2.2, 0.8,0,0,1024,1024,1024,1024,0,0,0,0,257.3,0,0,49,3.884,3.881,0,0,0,0,0,109.04,50.58100391518,0,10,Assisted_Takeoff,
702400,2023-12-27 01:08:35,-34.9551230292977,-54.9345648017784,0,0,51.43402231518,50.58100391518,0.328084,0,2.42501320096,0.260129929584,20,5,0,50.58100391518,0,0,2.42501320096,0,0,0,247.9, 2.3, 0.8,0,0,1024,1024,1024,1024,0,0,0,0,257.3,0,0,49,3.884,3.881,0,0,0,0,0,109.04,50.58100391518,0,10,Assisted_Takeoff,
702500,2023-12-27 01:08:35,-34.9551230233441,-54.9345648398286,0,0,51.43402231518,50.58100391518,0.328084,0,2.4291503402,0.271713591372,20,5,7.784,50.58100391518,0,0,2.4291503402,0,0,0,247.9, 2.2, 0.8,0,0,1024,1024,1024,1024,0,0,0,0,257.3,0,0,49,3.885,3.882,0,0,0,0,0.599,109.04,50.58100391518,0,10,Assisted_Takeoff,
702600,2023-12-27 01:08:35,-34.9551230172228,-54.9345648829091,0,0,51.43402231518,50.58100391518,0.328084,0,2.43367133772,0.284788066856,20,5,7.784,50.58100391518,0,0,2.43367133772,0,0,0,247.9, 2.2, 0.8,0,0,1024,1024,1024,1024,0,0,0,0,257.3,0,0,49,3.885,3.882,0,0,0,0,0.599,109.04,50.58100391518,0,10,Assisted_Takeoff,
702700,2023-12-27 01:08:35,-34.9551230174784,-54.9345648968084,0,0,51.43402231518,50.58100391518,0.328084,0,2.43434390992,0.288945547304,20,5,7.784,50.58100391518,0,0,2.43434390992,0,0,0,247.9, 2.2, 0.8,0,0,1024,1024,1024,1024,0,0,0,0,257.3,0,0,49,3.885,3.882,0,0,0,0,0.599,109.04,50.58100391518,0,10,Assisted_Takeoff,
702800,2023-12-27 01:08:35,-34.955123016985,-54.934564908923,0,0,51.43402231518,50.58100391518,0.328084,0,2.43519364748,0.292572515924,20,5,7.784,50.58100391518,0,0,2.43519364748,0,0,0,247.9, 2.3, 0.8,0,0,1024,1024,1024,1024,0,0,0,0,257.3,0,0,49,3.885,3.882,0,0,0,0,0.599,109.04,50.58100391518,0,10,Assisted_Takeoff,
702900,2023-12-27 01:08:35,-34.9551230562419,-54.9345649593622,0,0,51.43402231518,50.58100391518,0.328084,0,2.42398957888,0.31337271344,20,5,7.784,50.58100391518,0,0,2.43519364748,0,0,0,247.9, 2.3, 0.8,0,0,1024,1024,1062,1024,0,0,6,0,257.3,0,0,49,3.885,3.882,0,0,0,0,0.599,109.04,50.58100391518,0,10,Assisted_Takeoff,
703000,2023-12-27 01:08:35,-34.9551230564487,-54.9345649576532,0,0,51.43402231518,50.58100391518,0.328084,0,2.42381569436,0.313889117656,20,5,7.784,50.58100391518,0,0,2.43519364748,0,0,0,247.9, 2.2, 0.8,0,0,1024,1024,1062,1024,0,0,6,0,257.3,0,0,49,3.885,3.882,0,0,0,0,0.599,109.04,50.58100391518,0,10,Assisted_Takeoff,
703100,2023-12-27 01:08:35,-34.9551230573965,-54.9345649541698,0,0,51.43402231518,50.58100391518,0.328084,0,2.42327435576,0.314986558636,20,5,7.784,50.58100391518,0,0,2.43519364748,0,0,0,247.9, 2.2, 0.7,0,0,1024,1024,1473,1024,0,0,68,0,257.3,0,0,49,3.885,3.882,0,0,0,0,0.599,109.04,50.58100391518,0,10,Assisted_Takeoff,
703200,2023-12-27 01:08:35,-34.9551230582319,-54.9345649514077,0,0,51.43402231518,50.58100391518,0.328084,0,2.422818319,0.315867136092,20,5,7.784,50.58100391518,0,0,2.43519364748,0,0,0,247.9, 2.1, 0.7,0,0,1024,1024,1600,1024,0,0,87,0,257.3,0,0,49,3.885,3.882,0,0,0,0,0.599,109.04,50.58100391518,0,10,Assisted_Takeoff,
703300,2023-12-27 01:08:36,-34.9551231124525,-54.9345650053328,0,0,51.43402231518,50.58100391518,0.328084,0,2.40658144184,0.3413878062,20,5,7.784,50.58100391518,0,0,2.43519364748,0,0,0,247.9, 2.2, 0.7,0,0,1024,1024,1600,1024,0,0,87,0,257.3,0,0,49,3.885,3.882,0,0,0,0,0.599,109.04,50.58100391518,0,10,Assisted_Takeoff,
703400,2023-12-27 01:08:36,-34.9551231160856,-54.9345650532163,0,0,51.43402231518,50.58100391518,0.328084,0,2.40819233428,0.35576772792,20,5,7.784,50.58100391518,0,0,2.43519364748,0,0,0,247.9, 2.2, 0.7,0,0,1024,1024,1459,1024,0,0,66,0,257.3,0,0,49,3.885,3.882,0,0,0,0,0.599,109.04,50.58100391518,0,10,Assisted_Takeoff,
703500,2023-12-27 01:08:36,-34.95512311739,-54.9345650703011,0,0,51.43402231518,50.58100391518,0.328084,0,2.40878616632,0.36089896168,20,5,7.759,50.58100391518,0,0,2.43519364748,0,0,0,247.8, 2.3, 0.7,0,0,1024,1024,1407,1024,0,0,58,0,257.3,0,0,49,3.878,3.873,0,0,0,0,1.572,109.04,50.58100391518,0,10,Assisted_Takeoff,
703600,2023-12-27 01:08:36,-34.9551231142275,-54.9345650868372,0,0,51.43402231518,50.58100391518,0.328084,0,2.41094823988,0.365977702,20,5,7.759,50.58100391518,0,0,2.43519364748,0,0,0,246.9, 1.5, 0.7,0,0,1024,1024,1396,1024,0,0,56,0,257,0,0,49,3.878,3.873,0,0,0,0,1.572,109.04,50.58100391518,0,10,Assisted_Takeoff,
703700,2023-12-27 01:08:36,-34.955123096883,-54.9345650553617,0,0,51.43402231518,50.58100391518,0.328084,0,2.41518052348,0.37731956588,20,5,7.759,50.58100391518,0,0,2.43519364748,0,0,0,245.5, -2.4, 0.7,0,0,1024,1024,1320,1024,0,0,45,0,255.7,0,0,49,3.878,3.873,0,0,0,0,1.572,109.04,50.58100391518,0,10,Assisted_Takeoff,
703800,2023-12-27 01:08:36,-34.9551230898579,-54.9345650887213,0,0,51.43402231518,50.58100391518,0.328084,0,2.41975729528,0.38761812264,20,5,7.759,50.58100391518,0,0,2.43519364748,0,0,-0.223694,244.5, -2.6, 0.1,0,0,1024,1024,1318,1024,0,0,45,0,254.6,0,0,49,3.878,3.873,0,0,0,0,1.572,109.04,50.58100391518,0,6,P-GPS,
703900,2023-12-27 01:08:36,-34.9551230974643,-54.9345651979564,0,0,51.43402231518,50.58100391518,0.328084,0,2.42410440828,0.42040027592,20,5,7.759,50.58100391518,0,0,2.43519364748,0,0,-0.671082,244.9, -1, 0,0,0,1024,1024,1318,1024,0,0,45,0,254.6,0,0,49,3.878,3.873,0,0,0,0,1.572,109.04,50.58100391518,0,6,P-GPS,
704000,2023-12-27 01:08:36,-34.9551231148675,-54.9345653395895,0.328084,0.328084,51.43402231518,50.90908791518,0.656168,0,2.42771333228,0.46322836128,21,5,7.759,50.90908791518,0.328084,0,2.43519364748,0,0,-0.894776,244.9, 0.4, -0.4,0,0,1024,1024,1329,1024,0,0,46,0,254.6,0,0,49,3.878,3.873,0,0,0,0,1.572,109.04,50.90908791518,0.328084,6,P-GPS,
704100,2023-12-27 01:08:36,-34.9551230276953,-54.9345654703623,0.328084,0.328084,51.43402231518,50.90908791518,0.656168,0,2.46814640444,0.5136319062,21,5,7.759,50.90908791518,0.328084,0,2.46814640444,0,0,-1.11847,245, 1.1, -0.1,0,0,1024,1024,1331,1024,0,0,47,0,254.6,0,0,49,3.878,3.873,0,0,0,0,1.572,109.04,50.90908791518,0.328084,6,P-GPS,
704200,2023-12-27 01:08:36,-34.9551230125556,-54.9345655601791,0.328084,0.328084,51.43402231518,50.90908791518,0.656168,0,2.48037081428,0.54105316692,21,5,7.759,50.90908791518,0.328084,0,2.48037081428,0,0,-1.342164,245, 1.1, 0,0,0,1024,1024,1337,1024,0,0,47,0,254.6,0,0,49,3.878,3.873,0,0,0,0,1.572,109.04,50.90908791518,0.328084,6,P-GPS,
704300,2023-12-27 01:08:37,-34.9551230273126,-54.9345656030401,0.656168,0.656168,51.43402231518,51.23717191518,0.984252,0,2.4785597906,0.554954086,21,5,7.759,51.23717191518,0.656168,0,2.48037081428,0,0,-1.565858,245, 0.7, 0,0,0,1024,1024,1345,1024,0,0,49,0,254.6,0,0,49,3.878,3.873,0,0,0,0,1.572,109.04,51.23717191518,0.656168,6,P-GPS,
704400,2023-12-27 01:08:37,-34.9551230458785,-54.9345656405154,0.984252,0.984252,51.43402231518,51.56525591518,1.312336,0,2.4750492918,0.56804791844,21,5,7.759,51.56525591518,0.984252,0,2.48037081428,0,0,-1.789552,245, 0.8, 0,0,0,1024,1024,1344,1024,0,0,48,0,254.6,0,0,49,3.878,3.873,0,0,0,0,1.572,109.04,51.56525591518,0.984252,6,P-GPS,
704500,2023-12-27 01:08:37,-34.95512311171,-54.9345657456924,1.312336,1.312336,51.43402231518,51.89333991518,1.64042,0,2.46074154856,0.60762141052,21,5,7.769,51.89333991518,1.312336,0,2.48037081428,0,0,-2.013246,245, 0.9, 0,0,0,1024,1024,1342,1024,0,0,48,0,254.6,0,0,49,3.836,3.829,0,0,0,0,1.103,109.04,51.89333991518,1.312336,6,P-GPS,
704600,2023-12-27 01:08:37,-34.9551232795504,-54.9345658840172,1.64042,1.64042,51.43402231518,52.22142391518,1.968504,0,2.41455388304,0.68151905068,20,5,7.769,52.22142391518,1.64042,0,2.48037081428,0,0,-2.013246,245.1, 0.8, 0,0,0,1024,1024,1341,1024,0,0,48,0,254.6,0,0,49,3.836,3.829,0,0,0,0,1.103,109.04,52.22142391518,1.64042,6,P-GPS,
704700,2023-12-27 01:08:37,-34.9551233408467,-54.9345659593257,1.968504,1.968504,51.43402231518,52.54950791518,2.296588,0,2.40039049676,0.71325789684,20,5,7.769,52.54950791518,1.968504,0,2.48037081428,0,0,-2.23694,245.1, 0.9, 0,0,0,1024,1024,1341,1024,0,0,48,0,254.6,0,0,49,3.836,3.829,0,0,0,0,1.103,109.04,52.54950791518,1.968504,6,P-GPS,
704800,2023-12-27 01:08:37,-34.955123401472,-54.9345660297294,2.296588,2.296588,51.43402231518,52.87759191518,2.624672,0,2.38631241232,0.74379595556,20,5,7.769,52.87759191518,2.296588,0,2.48037081428,0,0,-2.23694,245.1, 0.9, 0,0,0,1024,1024,1341,1024,0,0,48,0,254.6,0,0,49,3.836,3.829,0,0,0,0,1.103,109.04,52.87759191518,2.296588,6,P-GPS,
704900,2023-12-27 01:08:37,-34.9551234052012,-54.9345661418783,2.624672,2.624672,51.43402231518,53.20567591518,2.952756,0,2.39631897432,0.77735894876,20,5,7.769,53.20567591518,2.624672,0,2.48037081428,0,0,-2.460634,245.1, 1.1, -0.1,0,0,1024,1024,1341,1024,0,0,48,0,254.6,0,0,49,3.836,3.829,0,0,0,0,1.103,109.04,53.20567591518,2.624672,6,P-GPS,
705000,2023-12-27 01:08:37,-34.9551233945593,-54.9345663640697,2.952756,2.952756,51.43402231518,53.53375991518,3.28084,0,2.42351713792,0.843914069,19,5,7.769,53.53375991518,2.952756,0,2.48037081428,0,0,-2.460634,245.1, 1.1, -0.3,0,0,1024,1024,1341,1024,0,0,48,0,254.6,0,0,49,3.836,3.829,0,0,0,0,1.103,109.04,53.53375991518,2.952756,6,P-GPS,
705100,2023-12-27 01:08:37,-34.9551234209637,-54.9345663991174,3.28084,3.28084,51.43402231518,53.86184391518,3.608924,0,2.41842855508,0.85814963376,19,5,7.769,53.86184391518,3.28084,0,2.48037081428,0,0,-2.460634,245.1, 1.1, -0.5,0,0,1024,1024,1341,1024,0,0,48,0,254.6,0,0,49,3.836,3.829,0,0,0,0,1.103,109.04,53.86184391518,3.28084,6,P-GPS,
705200,2023-12-27 01:08:37,-34.9551234551407,-54.9345664189094,3.608924,3.608924,51.43402231518,54.18992791518,3.937008,0,2.4090715994,0.87195212764,20,5,7.769,54.18992791518,3.608924,0,2.48037081428,0,0,-2.23694,245.1, 0.9, -0.4,0,0,1024,1024,1345,1024,0,0,49,0,254.6,0,0,49,3.836,3.829,0,0,0,0,1.103,109.04,54.18992791518,3.608924,6,P-GPS,"Punto de origen actualizado. Altitud de RPO establecida en 100m (Code: 3000001)"
705300,2023-12-27 01:08:38,-34.9551235111591,-54.9345663640436,3.937008,4.0682416,51.30278871518,54.51801191518,4.265092,0,2.38398301592,0.89815947756,20,5,7.769,54.51801191518,3.937008,0,2.48037081428,0,0,-2.23694,245.1, 0.9, -0.4,0,0,1024,1024,1349,1024,0,0,49,0,254.6,0,0,49,3.836,3.829,0,0,0,0,1.103,109.04,54.51801191518,3.937008,6,P-GPS,
705400,2023-12-27 01:08:38,-34.9551236313977,-54.934566113907,4.265092,4.3963256,51.30278871518,54.84609591518,4.92126,0,2.31601385364,0.9848753596,21,5,7.769,54.84609591518,4.265092,0,2.48037081428,0,0,-2.23694,245.2, 0.8, -0.3,0,0,1024,1024,1348,1024,0,0,49,0,254.6,0,0,49,3.836,3.829,0,0,0,0,1.103,109.04,54.84609591518,4.265092,6,P-GPS,
705500,2023-12-27 01:08:38,-34.9551237068737,-54.9345660802365,4.593176,4.7244096,51.30278871518,55.17417991518,5.249344,0,2.2866962674,1.01419294584,21,5,7.698,55.17417991518,4.593176,0,2.48037081428,0,0,-2.23694,245.2, 0.9, -0.1,0,0,1024,1024,1355,1024,0,0,50,0,254.6,0,0,49,3.838,3.832,0,0,0,0,3.036,109.04,55.17417991518,4.593176,6,P-GPS,
705600,2023-12-27 01:08:38,-34.9551237869516,-54.9345660444441,4.92126,5.0524936,51.30278871518,55.50226391518,5.577428,0,2.25558078084,1.0453084324,21,5,7.698,55.50226391518,4.92126,0,2.48037081428,0,0,-2.23694,245.2, 0.9, 0,0,0,1024,1024,1366,1024,0,0,52,0,254.6,0,0,49,3.838,3.832,0,0,0,0,3.036,109.04,55.50226391518,4.92126,6,P-GPS,
705700,2023-12-27 01:08:38,-34.955123907818,-54.9345659981651,5.249344,5.3805776,51.30278871518,55.83034791518,5.905512,0,2.20943576624,1.09152890632,21,5,7.698,55.83034791518,5.249344,0,2.48037081428,0,0,-2.460634,245.2, 0.8, 0,0,0,1024,1024,1366,1024,0,0,52,0,254.6,0,0,49,3.838,3.832,0,0,0,0,3.036,109.04,55.83034791518,5.249344,6,P-GPS,
705800,2023-12-27 01:08:38,-34.9551241846241,-54.934565868853,5.577428,5.7086616,51.30278871518,56.15843191518,6.233596,0,2.10129271816,1.1996719544,21,5,7.698,56.15843191518,5.577428,0,2.48037081428,0,0,-2.460634,245.2, 0.5, 0.1,0,0,1024,1024,1366,1024,0,0,52,0,254.6,0,0,49,3.838,3.832,0,0,0,0,3.036,109.04,56.15843191518,5.577428,6,P-GPS,
705900,2023-12-27 01:08:38,-34.9551243617337,-54.9345657816912,5.905512,6.0367456,51.30278871518,56.48651591518,6.889764,0,2.03163720412,1.26934715348,21,5,7.698,56.48651591518,5.905512,0,2.48037081428,0,0,-2.460634,245.2, 0.2, 0.4,0,0,1024,1024,1365,1024,0,0,52,0,254.6,0,0,49,3.838,3.832,0,0,0,0,3.036,109.04,56.48651591518,5.905512,6,P-GPS,
706000,2023-12-27 01:08:38,-34.9551245464945,-54.934565698794,6.233596,6.4632548,51.20436351518,56.81459991518,7.217848,0,1.95981633568,1.34117130276,22,5,7.698,56.81459991518,6.233596,0,2.48037081428,0,0,-2.460634,245.1, 0.3, 0.3,0,0,1024,1024,1329,1024,0,0,46,0,254.6,0,0,49,3.838,3.832,0,0,0,0,3.036,109.04,56.81459991518,6.233596,6,P-GPS,
706100,2023-12-27 01:08:38,-34.955124677077,-54.9345655915971,6.56168,6.7913388,51.20436351518,57.14268391518,7.545932,0,1.90398956224,1.39859256444,22,5,7.698,57.14268391518,6.56168,0,2.48037081428,0,0,-2.460634,245.1, 0.4, 0.4,0,0,1024,1024,1294,1024,0,0,41,0,254.6,0,0,49,3.838,3.832,0,0,0,0,3.036,109.04,57.14268391518,6.56168,6,P-GPS,
706200,2023-12-27 01:08:38,-34.9551248065668,-54.9345654840919,6.889764,7.1522312,51.17155511518,57.47076791518,7.874016,0,1.8486057022,1.45573823556,22,5,7.698,57.47076791518,6.889764,0,2.48037081428,0,0,-2.460634,245.2, 0.4, 0.6,0,0,1024,1024,1122,1024,0,0,15,0,254.6,0,0,49,3.838,3.832,0,0,0,0,3.036,109.04,57.47076791518,6.889764,6,P-GPS,
706300,2023-12-27 01:08:38,-34.9551250682968,-54.9345652109987,7.217848,7.4803152,51.17155511518,57.79885191518,8.530184,0,1.73170281132,1.58138784588,22,5,7.698,57.79885191518,7.217848,0,2.48037081428,0,0,-2.23694,245.2, 0.6, 1.1,0,0,1024,1024,1024,1024,0,0,0,0,254.6,0,0,49,3.838,3.832,0,0,0,0,3.036,109.04,57.79885191518,7.217848,6,P-GPS,
706400,2023-12-27 01:08:39,-34.9551251540523,-54.9345650777147,7.545932,7.8083992,51.17155511518,58.12693591518,8.530184,0,1.68972446352,1.63205713884,22,5,7.698,58.12693591518,7.545932,0,2.48037081428,0,0,-1.565858,245.2, 0.8, 1,0,0,1024,1024,1024,1024,0,0,0,0,254.6,0,0,49,3.838,3.832,0,0,0,0,3.036,109.04,58.12693591518,7.545932,6,P-GPS,
706500,2023-12-27 01:08:39,-34.955125218248,-54.9345650729953,7.545932,7.8083992,51.17155511518,58.12693591518,8.858268,0,1.66695543392,1.65552170652,22,5,7.698,58.12693591518,7.545932,0,2.48037081428,0,0,-1.11847,245.2, 0.8, 1.2,0,0,1024,1024,1024,1024,0,0,0,0,254.6,0,0,49,3.838,3.832,0,0,0,0,3.036,109.04,58.12693591518,7.545932,6,P-GPS,
706600,2023-12-27 01:08:39,-34.9551252740841,-54.9345650890923,7.874016,8.1364832,51.17155511518,58.45501991518,8.858268,0,1.64901251996,1.67645346572,22,5,7.698,58.45501991518,7.874016,0,2.48037081428,0,0,-0.447388,245.2, 0.6, 1.2,0,0,1024,1024,1024,1024,0,0,0,0,254.6,0,0,49,3.838,3.832,0,0,0,0,3.036,109.04,58.45501991518,7.874016,6,P-GPS,
706700,2023-12-27 01:08:39,-34.9551252169404,-54.9345653116261,7.874016,8.1364832,51.17155511518,58.45501991518,9.186352,0,1.69026252128,1.74618771992,22,5,7.665,58.45501991518,7.874016,0,2.48037081428,0,0,-0.223694,245.2, 1, 0.9,0,0,1024,1024,1024,1024,0,0,0,0,254.6,0,0,49,3.846,3.844,0,0,0,0,4.627,109.04,58.45501991518,7.874016,6,P-GPS,
706800,2023-12-27 01:08:39,-34.9551252485599,-54.9345653739996,7.874016,8.1364832,51.17155511518,58.45501991518,9.186352,0,1.68587275736,1.76811685448,22,5,7.665,58.45501991518,7.874016,0,2.48037081428,0,0,0,245.1, 0.8, 0.5,0,0,1024,1024,1024,1024,0,0,0,0,254.6,0,0,49,3.846,3.844,0,0,0,0,4.627,109.04,58.45501991518,7.874016,6,P-GPS,
706900,2023-12-27 01:08:39,-34.9551252794067,-54.9345653779167,7.874016,8.1364832,51.17155511518,58.45501991518,9.186352,0,1.6757546468,1.77943247164,22,5,7.665,58.45501991518,7.874016,0,2.48037081428,0,0,0,245.1, 0.8, 0.5,0,0,1024,1024,1024,1024,0,0,0,0,254.6,0,0,49,3.846,3.844,0,0,0,0,4.627,109.04,58.45501991518,7.874016,6,P-GPS,
707000,2023-12-27 01:08:39,-34.9551253061767,-54.9345653685903,7.874016,8.1364832,51.17155511518,58.45501991518,9.186352,0,1.6656332554,1.78958995228,22,5,7.665,58.45501991518,7.874016,0,2.48037081428,0,0,0,245.2, 0.7, 0.2,0,0,1024,1024,1024,1024,0,0,0,0,254.6,0,0,49,3.846,3.844,0,0,0,0,4.627,109.04,58.45501991518,7.874016,6,P-GPS,
707100,2023-12-27 01:08:39,-34.9551250319557,-54.9345652342427,7.874016,8.1364832,51.17155511518,58.45501991518,9.186352,0,1.746473153,1.89740491636,22,5,7.665,58.45501991518,7.874016,0,2.48037081428,0,0,0,245.2, 0.7, 0,0,0,1024,1024,1024,1024,0,0,0,0,254.6,0,0,49,3.846,3.844,0,0,0,0,4.627,109.04,58.45501991518,7.874016,6,P-GPS,
707200,2023-12-27 01:08:39,-34.9551249236731,-54.9345651742734,7.874016,8.1364832,51.17155511518,58.45501991518,8.858268,0,1.77856304904,1.94079074452,22,5,7.665,58.45501991518,7.874016,0,2.48037081428,0,0,0,245.2, 0.5, -0.1,0,0,1024,1024,1024,1024,0,0,0,0,254.6,0,0,49,3.846,3.844,0,0,0,0,4.627,109.04,58.45501991518,7.874016,6,P-GPS,
707300,2023-12-27 01:08:39,-34.9551248921212,-54.9345651388913,7.545932,7.8083992,51.17155511518,58.12693591518,8.858268,0,1.7864337842,1.95642722796,22,5,7.665,58.45501991518,7.874016,0,2.48037081428,0,0,0,245.2, 0.5, 0,0,0,1024,1024,1024,1024,0,0,0,0,254.6,0,0,49,3.846,3.844,0,0,0,0,4.627,109.04,58.12693591518,7.545932,6,P-GPS,
707400,2023-12-27 01:08:40,-34.9551248736269,-54.9345651015231,7.545932,7.8083992,51.17155511518,58.12693591518,8.858268,0,1.78966869244,1.96948169032,22,5,7.665,58.45501991518,7.874016,0,2.48037081428,0,0,0,245.2, 0.4, 0,0,0,1024,1024,1024,1024,0,0,0,0,254.6,0,0,49,3.846,3.844,0,0,0,0,4.627,109.04,58.12693591518,7.545932,6,P-GPS,
707500,2023-12-27 01:08:40,-34.9551247868773,-54.9345651096631,7.545932,7.8083992,51.17155511518,58.12693591518,8.858268,0,1.82070871968,2.00122381732,22,5,7.665,58.45501991518,7.874016,0,2.48037081428,0,0,0,245.2, 0.5, 0.1,0,0,1024,1024,1024,1024,0,0,0,0,254.6,0,0,49,3.846,3.844,0,0,0,0,4.627,109.04,58.12693591518,7.545932,6,P-GPS,
707600,2023-12-27 01:08:40,-34.9551247323887,-54.9345650797294,7.545932,7.8083992,51.17155511518,58.12693591518,8.858268,0,1.83731633176,2.02302499912,22,5,7.665,58.45501991518,7.874016,0,2.48037081428,0,0,0,245.2, 0.4, 0.1,0,0,1024,1024,1024,1024,0,0,0,0,254.6,0,0,49,3.846,3.844,0,0,0,0,4.627,109.04,58.12693591518,7.545932,6,P-GPS,
707700,2023-12-27 01:08:40,-34.9551247194955,-54.9345650142463,7.545932,7.8083992,51.17155511518,58.12693591518,8.858268,0,1.8365814236,2.04316607588,22,5,7.665,58.45501991518,7.874016,0,2.48037081428,0,0,0,245.2, 0.3, 0.4,0,0,1024,1024,1024,1024,0,0,0,0,254.6,0,0,49,3.846,3.844,0,0,0,0,4.627,109.04,58.12693591518,7.545932,6,P-GPS,
707800,2023-12-27 01:08:40,-34.9551247118019,-54.9345649381904,7.545932,7.8083992,51.17155511518,58.12693591518,8.858268,0,1.83342853636,2.06607946244,23,5,7.665,58.45501991518,7.874016,0,2.48037081428,0,0,0,245.2, 0.2, 0.4,0,0,1024,1024,1024,1024,0,0,0,0,254.6,0,0,49,3.846,3.844,0,0,0,0,4.627,109.04,58.12693591518,7.545932,6,P-GPS,
707900,2023-12-27 01:08:40,-34.9551247195167,-54.9345648603523,7.545932,7.8083992,51.17155511518,58.12693591518,8.858268,0,1.82497381168,2.08952762592,23,5,7.665,58.45501991518,7.874016,0,2.48037081428,0,0,0,245.3, 0.2, 0.5,0,0,1024,1024,1024,1024,0,0,0,0,254.6,0,0,49,3.846,3.844,0,0,0,0,4.627,109.04,58.12693591518,7.545932,6,P-GPS,
708000,2023-12-27 01:08:40,-34.9551248103977,-54.9345647149563,7.545932,7.8083992,51.17155511518,58.12693591518,8.858268,0,1.78267066072,2.14420610536,22,5,7.665,58.45501991518,7.874016,0,2.48037081428,0,0,0,245.3, 0.2, 0.4,0,0,1024,1024,1024,1024,0,0,0,0,254.6,0,0,49,3.846,3.844,0,0,0,0,4.627,109.04,58.12693591518,7.545932,6,P-GPS,
708100,2023-12-27 01:08:40,-34.955124773818,-54.9345646496665,7.545932,7.8083992,51.17155511518,58.12693591518,8.858268,0,1.79149612032,2.16785440008,22,5,7.665,58.45501991518,7.874016,0,2.48037081428,0,0,0,245.3, 0.1, 0.3,0,0,1024,1024,1024,1024,0,0,0,0,254.6,0,0,49,3.846,3.844,0,0,0,0,4.627,109.04,58.12693591518,7.545932,6,P-GPS,
708200,2023-12-27 01:08:40,-34.9551247305584,-54.9345645852104,7.545932,7.8083992,51.17155511518,58.12693591518,8.858268,0,1.80302499208,2.1927658182,22,5,7.665,58.45501991518,7.874016,0,2.48037081428,0,0,0,245.3, 0, 0,0,0,1024,1024,1024,1024,0,0,0,0,254.6,0,0,49,3.846,3.844,0,0,0,0,4.627,109.04,58.12693591518,7.545932,6,P-GPS,
708300,2023-12-27 01:08:40,-34.9551247230211,-54.9345645394776,7.545932,7.8083992,51.17155511518,58.12693591518,8.858268,0,1.80307420468,2.20671594988,22,5,7.665,58.45501991518,7.874016,0,2.48037081428,0,0,0,245.2, -0.1, 0,0,0,1024,1024,1024,1024,0,0,0,0,254.6,0,0,49,3.846,3.844,0,0,0,0,4.627,109.04,58.12693591518,7.545932,6,P-GPS,
708400,2023-12-27 01:08:41,-34.9551247136038,-54.9345644988273,7.545932,7.8083992,51.17155511518,58.12693591518,8.530184,0,1.8041831286,2.21934718388,22,5,7.665,58.45501991518,7.874016,0,2.48037081428,0,0,0,245.2, -0.4, -0.3,0,0,1024,1024,1024,1024,0,0,0,0,254.6,0,0,49,3.846,3.844,0,0,0,0,4.627,109.04,58.12693591518,7.545932,6,P-GPS,
708500,2023-12-27 01:08:41,-34.9551247531929,-54.9345644671637,7.545932,7.8083992,51.17155511518,58.12693591518,8.530184,0,1.78826121208,2.23661752564,22,5,7.671,58.45501991518,7.874016,0,2.48037081428,0,0,0,245.2, 0, 0.1,0,0,1024,1024,1024,1024,0,0,0,0,254.6,0,0,49,3.839,3.831,0,0,0,0,3.803,109.04,58.12693591518,7.545932,6,P-GPS,
708600,2023-12-27 01:08:41,-34.9551248037944,-54.9345644371359,7.545932,7.8083992,51.17155511518,58.12693591518,8.530184,0,1.76849743192,2.25714902236,22,5,7.671,58.45501991518,7.874016,0,2.48037081428,0,0,0,245.2, 0, 0.2,0,0,1024,1079,1024,1024,0,8,0,0,254.6,0,0,49,3.839,3.831,0,0,0,0,3.803,109.04,58.12693591518,7.545932,6,P-GPS,
708700,2023-12-27 01:08:41,-34.9551248165882,-54.9345644120966,7.545932,7.8083992,51.17155511518,58.12693591518,8.530184,0,1.76259520076,2.26597120112,22,5,7.671,58.45501991518,7.874016,0,2.48037081428,0,0,0,245.2, 0, 0.3,0,0,1024,1114,1024,1024,0,14,0,0,254.6,0,0,49,3.839,3.831,0,0,0,0,3.803,109.04,58.12693591518,7.545932,6,P-GPS,
708800,2023-12-27 01:08:41,-34.9551247853734,-54.9345644168029,7.545932,7.8083992,51.17155511518,58.12693591518,8.530184,0,1.77405517488,2.27744757944,22,5,7.671,58.45501991518,7.874016,0,2.48037081428,0,0,0,245.2, 0.1, 0.6,0,0,1024,1114,1024,1024,0,14,0,0,254.6,0,0,49,3.839,3.831,0,0,0,0,3.803,109.04,58.12693591518,7.545932,6,P-GPS,
708900,2023-12-27 01:08:41,-34.955124810221,-54.9345643860356,7.545932,7.8083992,51.17155511518,58.12693591518,8.530184,0,1.76355320604,2.29036424652,22,5,7.671,58.45501991518,7.874016,0,2.48037081428,0,0,0,245.2, 0, 1.4,0,0,1024,1149,1024,1024,0,19,0,0,254.6,0,0,49,3.839,3.831,0,0,0,0,3.803,109.04,58.12693591518,7.545932,6,P-GPS,
709000,2023-12-27 01:08:41,-34.9551248297795,-54.9345643605469,7.545932,7.8083992,51.17155511518,58.12693591518,8.530184,0,1.7552494,2.3008038794,22,5,7.671,58.45501991518,7.874016,0,2.48037081428,0,0,0,245.2, 0, 1.7,0,0,1024,1139,1024,1024,0,17,0,0,254.6,0,0,49,3.839,3.831,0,0,0,0,3.803,109.04,58.12693591518,7.545932,6,P-GPS,
709100,2023-12-27 01:08:41,-34.9551247775699,-54.9345643367646,7.545932,7.8083992,51.17155511518,58.12693591518,8.530184,0,1.77289703836,2.32113852572,22,5,7.671,58.45501991518,7.874016,0,2.48037081428,0,0,0,245.2, 0, 1.9,0,0,1024,1132,1024,1024,0,16,0,0,254.6,0,0,49,3.839,3.831,0,0,0,0,3.803,109.04,58.12693591518,7.545932,6,P-GPS,
709200,2023-12-27 01:08:41,-34.9551245981121,-54.9345643079911,7.545932,7.8083992,51.17155511518,58.12693591518,8.530184,0.223694,1.8362697438,2.38717527324,22,5,7.671,58.45501991518,7.874016,0.223694,2.48037081428,0.223694,0,0,245.2, 0, 1.8,0,0,1024,1142,1024,1024,0,18,0,0,254.6,0,0,49,3.839,3.831,0,0,0,0,3.803,109.04,58.12693591518,7.545932,6,P-GPS,
709300,2023-12-27 01:08:41,-34.9551245246115,-54.9345643462373,7.545932,7.8083992,51.17155511518,58.12693591518,8.530184,0.223694,1.86450465284,2.41632881748,22,5,7.671,58.45501991518,7.874016,0.223694,2.48037081428,0.223694,0,0,245.1, 0, 1.8,0,0,1024,1180,1024,1024,0,24,0,0,254.6,0,0,49,3.839,3.831,0,0,0,0,3.803,109.04,58.12693591518,7.545932,6,P-GPS,
709400,2023-12-27 01:08:42,-34.9551244359875,-54.9345644023705,7.545932,7.6771656,51.30278871518,58.12693591518,8.530184,0.223694,1.89905845972,2.45275926484,22,5,7.671,58.45501991518,7.874016,0.223694,2.48037081428,0.223694,0,0,245.1, 0, 1.9,0,0,1024,1223,1024,1024,0,30,0,0,254.6,0,0,49,3.839,3.831,0,0,0,0,3.803,109.04,58.12693591518,7.545932,6,P-GPS,
709500,2023-12-27 01:08:42,-34.9551243498591,-54.9345644780161,7.545932,7.6771656,51.30278871518,58.12693591518,8.530184,0.223694,1.93375006188,2.49147973852,22,5,7.661,58.45501991518,7.874016,0.223694,2.48037081428,0.223694,0,0,245.2, 0, 2.4,0,0,1024,1224,1024,1024,0,30,0,0,254.6,0,0,49,3.833,3.826,0,0,0,0,4.308,109.04,58.12693591518,7.545932,6,P-GPS,
709600,2023-12-27 01:08:42,-34.9551242387381,-54.9345645751707,7.545932,7.6771656,51.30278871518,58.12693591518,8.530184,0.447388,1.97871069324,2.5413550682,22,5,7.661,58.45501991518,7.874016,0.447388,2.48037081428,0.447388,0,0,245.2, 0.1, 3.5,0,0,1024,1224,1024,1024,0,30,0,0,254.6,0,0,49,3.833,3.826,0,0,0,0,4.308,109.04,58.12693591518,7.545932,6,P-GPS,
709700,2023-12-27 01:08:42,-34.9551240612329,-54.9345647853207,7.545932,7.6771656,51.30278871518,58.12693591518,8.858268,0.4921268,2.05426187676,2.6315945724,22,5,7.661,58.45501991518,7.874016,0.4921268,2.48037081428,0.447388,-0.223694,0,245.2, 0.2, 3.9,0,0,1024,1224,1024,1024,0,30,0,0,254.6,0,0,49,3.833,3.826,0,0,0,0,4.308,109.04,58.12693591518,7.545932,6,P-GPS,
709800,2023-12-27 01:08:42,-34.9551238559708,-54.9345649086304,7.545932,7.6771656,51.30278871518,58.12693591518,8.858268,0.4921268,2.135170672,2.71507226536,22,5,7.661,58.45501991518,7.874016,0.4921268,2.48037081428,0.447388,-0.223694,0,245.1, 0.1, 3.8,0,0,1024,1394,1024,1024,0,56,0,0,254.6,0,0,49,3.833,3.826,0,0,0,0,4.308,109.04,58.12693591518,7.545932,6,P-GPS,
709900,2023-12-27 01:08:42,-34.9551236361585,-54.9345650648344,7.545932,7.6771656,51.30278871518,58.12693591518,8.858268,0.7158208,2.22363524176,2.80788066728,22,5,7.661,58.45501991518,7.874016,0.7158208,2.48037081428,0.671082,-0.223694,0,245.1, 0.1, 5.3,0,0,1024,1684,1024,1024,0,100,0,0,254.6,0,0,49,3.833,3.826,0,0,0,0,4.308,109.04,58.12693591518,7.545932,6,P-GPS,
710000,2023-12-27 01:08:42,-34.9551233477171,-54.9345652644352,7.545932,7.545932,51.43402231518,58.12693591518,8.858268,0.9171454,2.3398458754,2.92886492312,22,5,7.661,58.45501991518,7.874016,0.9171454,2.48037081428,0.894776,-0.223694,0,245.4, 0.3, 11.9,0,0,1024,1684,1024,1024,0,100,0,0,254.6,0,0,49,3.833,3.826,0,0,0,0,4.308,109.04,58.12693591518,7.545932,6,P-GPS,
710100,2023-12-27 01:08:42,-34.9551229373964,-54.934565492697,7.545932,7.545932,51.43402231518,58.12693591518,8.858268,1.4092722,2.50171267848,3.09339904912,22,5,7.661,58.45501991518,7.874016,1.4092722,2.50171267848,1.342164,-0.447388,0,245.7, 0.2, 19.6,0,0,1024,1684,1024,1024,0,100,0,0,254.6,0,0,49,3.833,3.826,0,0,0,0,4.308,109.04,58.12693591518,7.545932,6,P-GPS,
710200,2023-12-27 01:08:42,-34.9551222690977,-54.934565873055,7.874016,7.7427824,51.56525591518,58.45501991518,8.858268,2.1922012,2.76670940612,3.3624344908,22,5,7.661,58.45501991518,7.874016,2.1922012,2.76670940612,2.013246,-0.894776,0,245.5, 0.3, 21.1,0,0,1024,1684,1024,1024,0,100,0,0,254.6,0,0,49,3.833,3.826,0,0,0,0,4.308,109.04,58.45501991518,7.874016,6,P-GPS,
710300,2023-12-27 01:08:42,-34.9551213091381,-54.9345663899191,7.874016,7.6443572,51.66368111518,58.45501991518,8.858268,2.908022,3.14603684608,3.7452757104,22,5,7.661,58.45501991518,7.874016,2.908022,3.14603684608,2.684328,-1.11847,0,245.3, 0, 21.1,0,0,1024,1684,1024,1024,0,100,0,0,254.6,0,0,49,3.833,3.826,0,0,0,0,4.308,109.04,58.45501991518,7.874016,6,P-GPS,
710400,2023-12-27 01:08:43,-34.9551200226087,-54.9345670879768,7.874016,7.5131236,51.79491471518,58.45501991518,8.858268,3.7133204,3.6560368624,4.2589896376,23,5,7.661,58.45501991518,7.874016,3.7133204,3.6560368624,3.35541,-1.565858,0,245.2, 0, 20.5,0,0,1024,1658,1024,1024,0,96,0,0,254.6,0,0,49,3.833,3.826,0,0,0,0,4.308,109.04,58.45501991518,7.874016,6,P-GPS,
710500,2023-12-27 01:08:43,-34.9551182817972,-54.9345679895498,7.874016,7.2506564,52.05738191518,58.45501991518,8.858268,4.4067718,4.3434384592,4.948983098,23,5,7.654,58.45501991518,7.874016,4.4067718,4.3434384592,4.026492,-1.789552,0,244.9, 0, 19.9,0,0,1024,1673,1024,1024,0,98,0,0,254.6,0,0,49,3.83,3.825,0,0,0,0,4.457,109.04,58.45501991518,7.874016,6,P-GPS,
710600,2023-12-27 01:08:43,-34.9551164174128,-54.9345690307333,7.874016,7.0209976,52.28704071518,58.45501991518,8.858268,5.0107456,5.0878282468,5.6970474264,22,5,7.654,58.45501991518,7.874016,5.0107456,5.0878282468,4.47388,-2.23694,0,245.1, 0, 19.7,0,0,1024,1673,1024,1024,0,98,0,0,254.6,0,0,49,3.83,3.825,0,0,0,0,4.457,109.04,58.45501991518,7.874016,6,P-GPS,
710700,2023-12-27 01:08:43,-34.9551144084975,-54.9345702564501,7.874016,6.7585304,52.54950791518,58.45501991518,9.186352,5.704197,5.901739034,6.5165356416,22,5,7.654,58.45501991518,7.874016,5.704197,5.901739034,5.144962,-2.460634,0,245.3, 0.2, 19.4,0,0,1024,1658,1024,1024,0,96,0,0,254.6,0,0,49,3.83,3.825,0,0,0,0,4.457,109.04,58.45501991518,7.874016,6,P-GPS,
710800,2023-12-27 01:08:43,-34.9551120787609,-54.934571681778,7.874016,6.4960632,52.81197511518,58.45501991518,9.186352,6.1963238,6.8476708228,7.4674214988,22,5,7.654,58.45501991518,7.874016,6.1963238,6.8476708228,5.59235,-2.684328,0,245.3, 0.5, 19.6,0,0,1024,1271,1024,1024,0,37,0,0,254.6,0,0,49,3.83,3.825,0,0,0,0,4.457,109.04,58.45501991518,7.874016,6,P-GPS,
710900,2023-12-27 01:08:43,-34.9551093825689,-54.9345737377312,7.874016,6.1351708,53.17286751518,58.45501991518,9.186352,6.71082,7.990157736,8.6274280976,22,5,7.654,58.45501991518,7.874016,6.71082,7.990157736,6.039738,-2.908022,0,245, 0.6, 13.2,0,0,1024,1024,1102,1024,0,0,12,0,254.6,0,0,49,3.83,3.825,0,0,0,0,4.457,109.04,58.45501991518,7.874016,6,P-GPS,
711000,2023-12-27 01:08:43,-34.955106633977,-54.9345754218113,8.2021,6.2007876,53.43533471518,58.78310391518,9.186352,7.0016222,9.1100396616,9.7496066112,22,5,7.654,58.78310391518,8.2021,7.0016222,9.1100396616,6.263432,-3.131716,0,244.8, 0.6, 2.2,0,0,1024,1024,1347,1024,0,0,49,0,254.6,0,0,49,3.83,3.825,0,0,0,0,4.457,109.04,58.78310391518,8.2021,6,P-GPS,
711100,2023-12-27 01:08:43,-34.9551040562543,-54.9345770759917,8.2021,5.8398952,53.79622711518,58.78310391518,9.186352,6.5094954,10.1697509816,10.8122378788,22,5,7.654,58.78310391518,8.2021,7.0016222,10.1697509816,5.816044,-2.908022,0,244.3, 0.3, -19.2,0,0,1024,1024,1684,1006,0,0,100,-3,254.6,0,0,49,3.83,3.825,0,0,0,0,4.457,109.04,58.78310391518,8.2021,6,P-GPS,
711200,2023-12-27 01:08:43,-34.9551016594942,-54.9345786335898,8.530184,5.905512,54.05869431518,59.11118791518,9.186352,5.5028724,11.157972798,11.8030187504,22,5,7.654,59.11118791518,8.530184,7.0016222,11.157972798,4.921268,-2.460634,-0.447388,244.6, 1.3, -21.5,0,0,1024,1024,1684,1024,0,0,100,0,254.6,0,0,49,3.83,3.825,0,0,0,0,4.457,109.04,59.11118791518,8.530184,6,P-GPS,
711300,2023-12-27 01:08:44,-34.9550998547451,-54.9345797841156,8.858268,5.9711288,54.32116151518,59.43927191518,9.514436,4.0041226,11.89960668,12.54593216,22,5,7.654,59.43927191518,8.858268,7.0016222,11.89960668,3.579104,-1.789552,-1.11847,245.1, 0.4, -21.3,0,0,1024,1024,1684,1024,0,0,100,0,254.6,0,0,49,3.83,3.825,0,0,0,0,4.457,109.04,59.43927191518,8.858268,6,P-GPS,
711400,2023-12-27 01:08:44,-34.9550982744281,-54.9345810407356,9.186352,6.069554,54.55082031518,59.76735591518,9.84252,2.7066974,12.580216938,13.2341539668,21,5,7.654,59.76735591518,9.186352,7.0016222,12.580216938,2.460634,-1.11847,-2.013246,245.2, 0, -16,0,0,1024,1024,1684,1024,0,0,100,0,254.6,0,0,49,3.83,3.825,0,0,0,0,4.457,109.04,59.76735591518,9.186352,6,P-GPS,
711500,2023-12-27 01:08:44,-34.9550972839368,-54.9345816294589,9.514436,6.2664044,54.68205391518,60.09543991518,10.170604,1.8119214,12.982119838,13.6361224836,21,5,7.647,60.09543991518,9.514436,7.0016222,12.982119838,1.565858,-0.894776,-2.908022,245.2, 0.6, -10.2,0,0,1024,1024,1684,1024,0,0,100,0,254.6,0,0,49,3.824,3.818,0,0,0,0,4.492,109.04,60.09543991518,9.514436,6,P-GPS,
711600,2023-12-27 01:08:44,-34.9550964870252,-54.9345820942819,10.170604,6.7913388,54.81328751518,60.75160791518,10.826772,1.006623,13.3043639428,13.9583993968,21,5,7.647,60.75160791518,10.170604,7.0016222,13.3043639428,0.894776,-0.447388,-4.026492,245.3, 0.8, -6,0,0,1024,1024,1684,1024,0,0,100,0,254.6,0,0,49,3.824,3.818,0,0,0,0,4.492,109.04,60.75160791518,10.170604,6,P-GPS,
711700,2023-12-27 01:08:44,-34.9550961151569,-54.9345823155117,10.826772,7.4475068,54.81328751518,61.40777591518,11.48294,0.7158208,13.4552825828,14.1093508452,21,5,7.647,61.40777591518,10.826772,7.0016222,13.4552825828,0.671082,-0.223694,-4.697574,245.1, 0.6, -4,0,0,1024,1024,1684,1024,0,0,100,0,254.6,0,0,49,3.824,3.818,0,0,0,0,4.492,109.04,61.40777591518,10.826772,6,P-GPS,
711800,2023-12-27 01:08:44,-34.9550961622874,-54.9345821263872,11.48294,8.1036748,54.81328751518,62.06394391518,12.467192,0.7158208,13.4159453112,14.1684387736,22,5,7.647,62.06394391518,11.48294,7.0016222,13.4552825828,0.671082,-0.223694,-5.368656,245.1, 0.7, -3.2,0,0,1024,1024,1684,1024,0,0,100,0,254.6,0,0,49,3.824,3.818,0,0,0,0,4.492,109.04,62.06394391518,11.48294,6,P-GPS,
711900,2023-12-27 01:08:44,-34.9550961394077,-54.9345820843624,12.139108,8.7598428,54.81328751518,62.72011191518,13.451444,0.447388,13.418307516,14.1835306376,22,5,7.647,62.72011191518,12.139108,7.0016222,13.4552825828,0.447388,0,-5.816044,245, 0.6, -3,0,0,1024,1024,1684,1024,0,0,100,0,254.6,0,0,49,3.824,3.818,0,0,0,0,4.492,109.04,62.72011191518,12.139108,6,P-GPS,
712000,2023-12-27 01:08:44,-34.9550961873459,-54.9345819939367,13.12336,9.7440948,54.81328751518,63.70436391518,14.435696,0.447388,13.3911421608,14.2157484864,22,5,7.647,63.70436391518,13.12336,7.0016222,13.4552825828,0.447388,0,-6.039738,245, 0.3, -2.3,0,0,1024,1024,1684,1024,0,0,100,0,254.6,0,0,49,3.824,3.818,0,0,0,0,4.492,109.04,63.70436391518,13.12336,6,P-GPS,
712100,2023-12-27 01:08:44,-34.9550962839842,-54.934581825085,14.107612,10.7283468,54.81328751518,64.68861591518,15.419948,0.223694,13.3381565948,14.2773298532,22,5,7.647,64.68861591518,14.107612,7.0016222,13.4552825828,0.223694,0,-6.263432,245, 0, -1.7,0,0,1024,1024,1684,1024,0,0,100,0,254.6,0,0,49,3.824,3.818,0,0,0,0,4.492,109.04,64.68861591518,14.107612,6,P-GPS,
712200,2023-12-27 01:08:44,-34.9550971482548,-54.9345809180374,15.091864,11.8438324,54.68205391518,65.67286791518,16.732284,0.223694,12.9394361096,14.6932747484,22,5,7.647,65.67286791518,15.091864,7.0016222,13.4552825828,0.223694,0,-6.487126,245.1, 0.1, -1.3,0,0,1024,1024,1684,1024,0,0,100,0,254.6,0,0,49,3.824,3.818,0,0,0,0,4.492,109.04,65.67286791518,15.091864,6,P-GPS,
712300,2023-12-27 01:08:45,-34.9550970720925,-54.9345808529751,16.076116,12.8280844,54.68205391518,66.65711991518,17.716536,0.223694,12.957021412,14.727198634,22,5,7.647,66.65711991518,16.076116,7.0016222,13.4552825828,0.223694,0,-6.487126,245.1, 0, -1.3,0,0,1024,1024,1684,1024,0,0,100,0,254.6,0,0,49,3.824,3.818,0,0,0,0,4.492,109.04,66.65711991518,16.076116,6,P-GPS,
712400,2023-12-27 01:08:45,-34.9550969888823,-54.9345808051961,16.732284,13.4842524,54.68205391518,67.31328791518,18.700788,0.223694,12.9790686568,14.7607288188,22,5,7.647,67.31328791518,16.732284,7.0016222,13.4552825828,0.223694,0,-6.487126,245.1, 0, -1.3,0,0,1024,1024,1684,1024,0,0,100,0,254.6,0,0,49,3.824,3.818,0,0,0,0,4.492,109.04,67.31328791518,16.732284,6,P-GPS,
712500,2023-12-27 01:08:45,-34.9550968653388,-54.9345807405989,17.716536,14.4685044,54.68205391518,68.29753991518,19.68504,0.223694,13.0126644584,14.8097773768,22,5,7.625,68.29753991518,17.716536,7.0016222,13.4552825828,0.223694,0,-6.487126,245.2, -0.3, -1.4,0,0,1024,1024,1684,1024,0,0,100,0,254.6,0,0,49,3.794,3.785,0,0,0,0,5.359,109.04,68.29753991518,17.716536,6,P-GPS,
712600,2023-12-27 01:08:45,-34.9550962783629,-54.934580696332,18.700788,15.3215228,54.81328751518,69.28179191518,20.669292,0,13.2041342808,15.0243443128,22,5,7.625,69.28179191518,18.700788,7.0016222,13.4552825828,0,0,-6.71082,245.1, -0.2, -1.5,0,0,1024,1024,1684,1024,0,0,100,0,254.6,0,0,49,3.794,3.785,0,0,0,0,5.359,109.04,69.28179191518,18.700788,6,P-GPS,
712700,2023-12-27 01:08:45,-34.95509617936,-54.9345806626693,19.68504,16.3057748,54.81328751518,70.26604391518,21.981628,0,13.2334649904,15.061844314,22,5,7.625,70.26604391518,19.68504,7.0016222,13.4552825828,0,0,-6.71082,245.1, -0.2, -2.2,0,0,1024,1024,1684,1024,0,0,100,0,254.6,0,0,49,3.794,3.785,0,0,0,0,5.359,109.04,70.26604391518,19.68504,6,P-GPS,
712800,2023-12-27 01:08:45,-34.9550961101576,-54.9345806184286,20.669292,17.2900268,54.81328751518,71.25029591518,22.96588,0,13.2515424188,15.0903548136,23,5,7.625,71.25029591518,20.669292,7.0016222,13.4552825828,0,0,-6.71082,245.1, 0, -1.4,0,0,1024,1024,1684,1024,0,0,100,0,254.6,0,0,49,3.794,3.785,0,0,0,0,5.359,109.04,71.25029591518,20.669292,6,P-GPS,
712900,2023-12-27 01:08:45,-34.955096050384,-54.9345805894225,21.653544,18.2742788,54.81328751518,72.23454791518,23.950132,0,13.2682747028,15.1138128196,23,5,7.625,72.23454791518,21.653544,7.0016222,13.4552825828,0,0,-6.71082,245.2, 0, -0.7,0,0,1024,1024,1684,1024,0,0,100,0,254.6,0,0,49,3.794,3.785,0,0,0,0,5.359,109.04,72.23454791518,21.653544,6,P-GPS,
713000,2023-12-27 01:08:45,-34.9550960150988,-54.9345805547407,22.637796,19.2585308,54.81328751518,73.21879991518,24.934384,0,13.2761487188,15.1303482532,23,5,7.625,73.21879991518,22.637796,7.0016222,13.4552825828,0,0,-6.71082,245.2, 0.4, -0.1,0,0,1024,1024,1684,1024,0,0,100,0,254.6,0,0,49,3.794,3.785,0,0,0,0,5.359,109.04,73.21879991518,22.637796,6,P-GPS,
713100,2023-12-27 01:08:45,-34.9550954181275,-54.9345807060111,23.622048,20.1443576,54.91171271518,74.20305191518,25.590552,0,13.4945542376,15.3527892052,23,5,7.625,74.20305191518,23.622048,7.0016222,13.4945542376,0,0,-6.71082,245.2, 1, 0.1,0,0,1024,1024,1684,1024,0,0,100,0,254.6,0,0,49,3.794,3.785,0,0,0,0,5.359,109.04,74.20305191518,23.622048,6,P-GPS,
713200,2023-12-27 01:08:45,-34.9550952900765,-54.9345806688886,24.6063,21.1286096,54.91171271518,75.18730391518,26.574804,0,13.5334978084,15.4008207028,23,5,7.625,75.18730391518,24.6063,7.0016222,13.5334978084,0,0,-6.71082,245.1, 1, 0.3,0,0,1024,1024,1684,1024,0,0,100,0,254.6,0,0,49,3.794,3.785,0,0,0,0,5.359,109.04,75.18730391518,24.6063,6,P-GPS,
713300,2023-12-27 01:08:45,-34.9550953053904,-54.9345805916019,25.590552,22.1128616,54.91171271518,76.17155591518,27.559056,0.223694,13.51952143,15.4246067928,23,5,7.625,76.17155591518,25.590552,7.0016222,13.5334978084,-0.223694,0,-6.71082,245.1, 1, 0.2,0,0,1024,1024,1684,1024,0,0,100,0,254.6,0,0,49,3.794,3.785,0,0,0,0,5.359,109.04,76.17155591518,25.590552,6,P-GPS,
713400,2023-12-27 01:08:46,-34.9550953478472,-54.9345804973715,26.574804,23.0971136,54.91171271518,77.15580791518,28.543308,0,13.4944886208,15.4567590248,23,5,7.625,77.15580791518,26.574804,7.0016222,13.5334978084,0,0,-6.71082,245.1, 1.1, 0.1,0,0,1024,1024,1684,1024,0,0,100,0,254.6,0,0,49,3.794,3.785,0,0,0,0,5.359,109.04,77.15580791518,26.574804,6,P-GPS,
713500,2023-12-27 01:08:46,-34.9550948996407,-54.9345803726978,27.559056,24.0813656,54.91171271518,78.14005991518,29.199476,0,13.6320214336,15.6244755656,23,5,7.6,78.14005991518,27.559056,7.0016222,13.6320214336,0,0,-6.71082,245.1, 0.9, -0.2,0,0,1024,1024,1684,1024,0,0,100,0,254.6,0,0,49,3.807,3.799,0,0,0,0,6.582,109.04,78.14005991518,27.559056,6,P-GPS,
713600,2023-12-27 01:08:46,-34.9550948405706,-54.9345802252112,28.543308,25.0656176,54.91171271518,79.12431191518,30.183728,0,13.6356959744,15.673556932,23,5,7.6,79.12431191518,28.543308,7.0016222,13.6356959744,0,0,-6.71082,245.2, 0.8, 0,0,0,1024,1024,1684,1024,0,0,100,0,254.6,0,0,49,3.807,3.799,0,0,0,0,6.582,109.04,79.12431191518,28.543308,6,P-GPS,
713700,2023-12-27 01:08:46,-34.9550946973489,-54.9345801192425,29.52756,26.0498696,54.91171271518,80.10856391518,30.839896,0,13.6726382328,15.7346789812,23,5,7.6,80.10856391518,29.52756,7.0016222,13.6726382328,0,0,-6.71082,245.1, 0.4, -0.3,0,0,1024,1024,1684,1024,0,0,100,0,254.6,0,0,49,3.807,3.799,0,0,0,0,6.582,109.04,80.10856391518,29.52756,6,P-GPS,
713800,2023-12-27 01:08:46,-34.955094547734,-54.9345800146169,30.183728,26.7060376,54.91171271518,80.76473191518,31.824148,0,13.712106738,15.797572684,23,5,7.6,80.76473191518,30.183728,7.0016222,13.712106738,0,0,-6.71082,245.2, 0.9, 0.3,0,0,1024,1024,1684,1024,0,0,100,0,254.6,0,0,49,3.807,3.799,0,0,0,0,6.582,109.04,80.76473191518,30.183728,6,P-GPS,
713900,2023-12-27 01:08:46,-34.9550941900235,-54.9345799098764,31.16798,27.5918644,55.01013791518,81.74898391518,32.8084,0,13.8225726208,15.9317918484,23,5,7.6,81.74898391518,31.16798,7.0016222,13.8225726208,0,0,-6.71082,245.1, 0.6, 0,0,0,1024,1024,1684,1024,0,0,100,0,254.6,0,0,49,3.807,3.799,0,0,0,0,6.582,109.04,81.74898391518,31.16798,6,P-GPS,
714000,2023-12-27 01:08:46,-34.9550941269115,-54.9345797873768,32.152232,28.5761164,55.01013791518,82.73323591518,33.792652,0,13.8310699964,15.975066128,23,5,7.6,82.73323591518,32.152232,7.0016222,13.8310699964,0,0,-6.71082,245.1, 0.4, 0,0,0,1024,1024,1684,1024,0,0,100,0,254.6,0,0,49,3.807,3.799,0,0,0,0,6.582,109.04,82.73323591518,32.152232,6,P-GPS,
714100,2023-12-27 01:08:46,-34.9550940613341,-54.9345796811834,33.136484,29.5603684,55.01013791518,83.71748791518,34.44882,0,13.8422248524,16.0148299088,23,5,7.6,83.71748791518,33.136484,7.0016222,13.8422248524,0,0,-6.71082,245.1, 0.4, 0.3,0,0,1024,1024,1684,1024,0,0,100,0,254.6,0,0,49,3.807,3.799,0,0,0,0,6.582,109.04,83.71748791518,33.136484,6,P-GPS,
714200,2023-12-27 01:08:46,-34.9550939939719,-54.9345795771797,34.120736,30.5446204,55.01013791518,84.70173991518,35.433072,0,13.8543639604,16.054462456,23,5,7.6,84.70173991518,34.120736,7.0016222,13.8543639604,0,0,-6.487126,245.1, 0.9, 0.3,0,0,1024,1024,1684,1024,0,0,100,0,254.6,0,0,49,3.807,3.799,0,0,0,0,6.582,109.04,84.70173991518,34.120736,6,P-GPS,
714300,2023-12-27 01:08:46,-34.9550942305913,-54.9345796389025,35.104988,31.5288724,55.01013791518,85.68599191518,36.417324,0.223694,13.7799873176,16.1427498604,23,5,7.6,85.68599191518,35.104988,7.0016222,13.8543639604,-0.223694,0,-6.487126,245.2, 0.9, 0.3,0,0,1024,1024,1684,1024,0,0,100,0,254.6,0,0,49,3.807,3.799,0,0,0,0,6.582,109.04,85.68599191518,35.104988,6,P-GPS,
714400,2023-12-27 01:08:47,-34.9550943041969,-54.9345795905016,36.08924,32.5131244,55.01013791518,86.67024391518,37.401576,0,13.7497707812,16.1732616724,23,5,7.6,86.67024391518,36.08924,7.0016222,13.8543639604,0,0,-6.487126,245.2, 1.1, 1,0,0,1024,1024,1684,1024,0,0,100,0,254.6,0,0,49,3.807,3.799,0,0,0,0,6.582,109.04,86.67024391518,36.08924,6,P-GPS,
714500,2023-12-27 01:08:47,-34.9550943924358,-54.934579428418,36.745408,33.1692924,55.01013791518,87.32641191518,38.385828,0,13.702592302,16.2314309656,23,5,7.612,87.32641191518,36.745408,7.0016222,13.8543639604,0,0,-6.487126,245.2, 0.7, 1.1,0,0,1024,1024,1684,1024,0,0,100,0,254.6,0,0,49,3.81,3.801,0,0,0,0,5.354,109.04,87.32641191518,36.745408,6,P-GPS,
714600,2023-12-27 01:08:47,-34.955094472438,-54.9345792469343,37.72966,34.1535444,55.01013791518,88.31066391518,39.37008,0,13.656332458,16.2930779492,23,5,7.612,88.31066391518,37.72966,7.0016222,13.8543639604,0,0,-6.487126,245.2, 0.6, 1.1,0,0,1024,1024,1684,1023,0,0,100,-0,254.6,0,0,49,3.81,3.801,0,0,0,0,5.354,109.04,88.31066391518,37.72966,6,P-GPS,
714700,2023-12-27 01:08:47,-34.9550945683631,-54.9345790785895,38.713912,35.26903,54.87890431518,89.29491591518,40.354332,0,13.6060699892,16.3543640404,23,5,7.612,89.29491591518,38.713912,7.0016222,13.8543639604,0,0,-6.71082,245.2, 0.5, 0.9,0,0,1024,1024,1684,1020,0,0,100,-1,254.6,0,0,49,3.81,3.801,0,0,0,0,5.354,109.04,89.29491591518,38.713912,6,P-GPS,
714800,2023-12-27 01:08:47,-34.9550949506436,-54.9345787001626,39.698164,36.253282,54.87890431518,90.27916791518,41.338584,0,13.4362537108,16.5339900304,23,5,7.612,90.27916791518,39.698164,7.0016222,13.8543639604,0,0,-6.71082,245.1, 0.3, 1,0,0,1024,1024,1684,1020,0,0,100,-1,254.6,0,0,49,3.81,3.801,0,0,0,0,5.354,109.04,90.27916791518,39.698164,6,P-GPS,
714900,2023-12-27 01:08:47,-34.9550949866648,-54.9345785669439,40.682416,37.237534,54.87890431518,91.26341991518,42.322836,0,13.4103678832,16.5759191656,23,5,7.612,91.26341991518,40.682416,7.0016222,13.8543639604,0,0,-6.71082,245.2, 0.4, 0.8,0,0,1024,1024,1684,1024,0,0,100,0,254.6,0,0,49,3.81,3.801,0,0,0,0,5.354,109.04,91.26341991518,40.682416,6,P-GPS,
715000,2023-12-27 01:08:47,-34.9550950098115,-54.9345784394846,41.666668,38.221786,54.87890431518,92.24767191518,43.307088,0,13.3895673576,16.6149611616,23,5,7.612,92.24767191518,41.666668,7.0016222,13.8543639604,0,0,-6.71082,245.2, 0.7, 0.7,0,0,1024,1024,1684,1024,0,0,100,0,254.6,0,0,49,3.81,3.801,0,0,0,0,5.354,109.04,92.24767191518,41.666668,6,P-GPS,
715100,2023-12-27 01:08:47,-34.9550949315811,-54.9345783293818,42.65092,39.206038,54.87890431518,93.23192391518,43.963256,0,13.4054466232,16.6585307168,23,5,7.612,93.23192391518,42.65092,7.0016222,13.8543639604,0,0,-6.71082,245.2, 0.5, 0.5,0,0,1024,1024,1684,1024,0,0,100,0,254.6,0,0,49,3.81,3.801,0,0,0,0,5.354,109.04,93.23192391518,42.65092,6,P-GPS,
715200,2023-12-27 01:08:47,-34.9550946685939,-54.934578129998,43.635172,40.19029,54.87890431518,94.21617591518,43.963256,0,13.4763455756,16.7715228464,23,5,7.612,94.21617591518,43.635172,7.0016222,13.8543639604,0,0,-6.71082,245.2, 0.4, 0.8,0,0,1024,1024,1684,1024,0,0,100,0,254.6,0,0,49,3.81,3.801,0,0,0,0,5.354,109.04,94.21617591518,43.635172,6,P-GPS,
715300,2023-12-27 01:08:47,-34.9550946018765,-54.9345780162995,44.29134,40.846458,54.87890431518,94.87234391518,43.963256,0,13.4882878332,16.813320748,23,5,7.612,94.87234391518,44.29134,7.0016222,13.8543639604,0,0,-6.71082,245.2, 0.3, 0.7,0,0,1024,1024,1684,1024,0,0,100,0,254.6,0,0,49,3.81,3.801,0,0,0,0,5.354,109.04,94.87234391518,44.29134,6,P-GPS,
715400,2023-12-27 01:08:48,-34.9550945369407,-54.9345779032021,45.275592,41.83071,54.87890431518,95.85659591518,43.963256,0,13.4998035816,16.8546265236,23,5,7.612,95.85659591518,45.275592,7.0016222,13.8543639604,0,0,-6.487126,245.2, 0.5, 0.9,0,0,1024,1024,1684,1024,0,0,100,0,254.6,0,0,49,3.81,3.801,0,0,0,0,5.354,109.04,95.85659591518,45.275592,6,P-GPS,
715500,2023-12-27 01:08:48,-34.9550945046682,-54.9345778282097,46.259844,42.814962,54.87890431518,96.84084791518,43.963256,0,13.503773398,16.8799546084,23,5,7.609,96.84084791518,46.259844,7.0016222,13.8543639604,0,0,-6.487126,245.1, 0.5, 0.9,0,0,1024,1024,1024,1024,0,0,0,0,254.6,0,0,49,3.807,3.798,0,0,0,0,5.204,109.04,96.84084791518,46.259844,6,P-GPS,
715600,2023-12-27 01:08:48,-34.9550944487604,-54.9345777754083,47.244096,43.6679804,55.01013791518,97.82509991518,43.963256,0,13.5180778604,16.9057420108,23,5,7.609,97.82509991518,47.244096,7.0016222,13.8543639604,0,0,-6.487126,245.2, 0.5, 0.8,0,0,1024,1024,1024,1024,0,0,0,0,254.6,0,0,49,3.807,3.798,0,0,0,0,5.204,109.04,97.82509991518,47.244096,6,P-GPS,
715700,2023-12-27 01:08:48,-34.95509438601,-54.9345776747129,48.228348,44.6522324,55.01013791518,98.80935191518,43.963256,0,13.5302497768,16.943570096,23,5,7.609,98.80935191518,48.228348,7.0016222,13.8543639604,0,0,-6.039738,245.2, 0.6, 0.7,0,0,1024,1024,1024,1024,0,0,0,0,254.6,0,0,49,3.807,3.798,0,0,0,0,5.204,109.04,98.80935191518,48.228348,6,P-GPS,
715800,2023-12-27 01:08:48,-34.9550943142444,-54.9345775671188,48.884516,45.3084004,55.01013791518,99.46551991518,43.963256,0,13.5449807484,16.9850399136,23,5,7.609,99.46551991518,48.884516,7.0016222,13.8543639604,0,0,-5.368656,245.2, 0.6, 0.7,0,0,1024,1024,1024,1024,0,0,0,0,254.6,0,0,49,3.807,3.798,0,0,0,0,5.204,109.04,99.46551991518,48.884516,6,P-GPS,
715900,2023-12-27 01:08:48,-34.9550941981038,-54.9345774856615,49.540684,45.9973768,54.97732951518,100.12168791518,43.963256,0,13.5776579148,17.0339244296,23,5,7.609,100.12168791518,49.540684,7.0016222,13.8543639604,0,0,-4.47388,245.2, 0.6, 0.4,0,0,1024,1024,1024,1024,0,0,0,0,254.6,0,0,49,3.807,3.798,0,0,0,0,5.204,109.04,100.12168791518,49.540684,6,P-GPS,
716000,2023-12-27 01:08:48,-34.9550939619143,-54.9345773430093,50.196852,46.6535448,54.97732951518,100.77785591518,43.963256,0,13.6465227464,17.13008585,23,5,7.609,100.77785591518,50.196852,7.0016222,13.8543639604,0,0,-3.802798,245.2, 0.7, 0.5,0,0,1024,1024,1024,1024,0,0,0,0,254.6,0,0,49,3.807,3.798,0,0,0,0,5.204,109.04,100.77785591518,50.196852,6,P-GPS,
716100,2023-12-27 01:08:48,-34.9550938353712,-54.9345773074965,50.524936,46.9816288,54.97732951518,101.10593991518,43.963256,0,13.6872379708,17.1774611796,23,5,7.609,101.10593991518,50.524936,7.0016222,13.8543639604,0,0,-2.908022,245.2, 0.7, 0.6,0,0,1024,1024,1024,1024,0,0,0,0,254.6,0,0,49,3.807,3.798,0,0,0,0,5.204,109.04,101.10593991518,50.524936,6,P-GPS,
716200,2023-12-27 01:08:48,-34.955093702653,-54.9345772751195,50.85302,47.3097128,54.97732951518,101.43402391518,43.963256,0,13.7304466336,17.2268378216,23,5,7.609,101.43402391518,50.85302,7.0016222,13.8543639604,0,0,-2.013246,245.3, 0.8, 0.7,0,0,1024,1024,1024,1024,0,0,0,0,254.6,0,0,48,3.807,3.798,0,0,0,0,5.204,109.04,101.43402391518,50.85302,6,P-GPS,
716300,2023-12-27 01:08:49,-34.9550936297736,-54.9345771616196,50.85302,47.3097128,54.97732951518,101.43402391518,43.963256,0,13.7456041144,17.2699480592,23,5,7.609,101.43402391518,50.85302,7.0016222,13.8543639604,0,0,-1.11847,245.3, 0.9, 0.7,0,0,1024,1024,1024,1024,0,0,0,0,254.6,0,0,48,3.807,3.798,0,0,0,0,5.204,109.04,101.43402391518,50.85302,6,P-GPS,
716400,2023-12-27 01:08:49,-34.9550935598287,-54.9345770273452,51.181104,47.6377968,54.97732951518,101.76210791518,43.963256,0,13.7580056896,17.3175202392,23,5,7.609,101.76210791518,51.181104,7.0016222,13.8543639604,0,0,-0.671082,245.2, 0.7, 0.6,0,0,1024,1024,1024,1024,0,0,0,0,254.6,0,0,48,3.807,3.798,0,0,0,0,5.204,109.04,101.76210791518,51.181104,6,P-GPS,
716500,2023-12-27 01:08:49,-34.955093458901,-54.9345768669653,51.181104,47.5065632,55.10856311518,101.76210791518,43.963256,0,13.7790686824,17.3779861204,23,5,7.603,101.76210791518,51.181104,7.0016222,13.8543639604,0,0,-0.223694,245.2, 0.9, 0.6,0,0,1024,1024,1024,1024,0,0,0,0,254.6,0,0,48,3.813,3.818,0,0,0,0,5.272,109.22,101.76210791518,51.181104,6,P-GPS,
716600,2023-12-27 01:08:49,-34.9550933613995,-54.9345767288025,51.181104,47.5065632,55.10856311518,101.76210791518,43.963256,0,13.8011159272,17.4325136812,23,5,7.603,101.76210791518,51.181104,7.0016222,13.8543639604,0,0,0,245.2, 0.8, 0.7,0,0,1024,1024,1024,1024,0,0,0,0,254.6,0,0,48,3.813,3.818,0,0,0,0,5.272,109.22,101.76210791518,51.181104,6,P-GPS,
716700,2023-12-27 01:08:49,-34.955093258293,-54.9345766424743,51.181104,47.5065632,55.10856311518,101.76210791518,43.963256,0,13.8296920436,17.4781501656,23,5,7.603,101.76210791518,51.181104,7.0016222,13.8543639604,0,0,0,245.2, 0.4, 0.6,0,0,1024,1024,1024,1024,0,0,0,0,254.6,0,0,48,3.813,3.818,0,0,0,0,5.272,109.22,101.76210791518,51.181104,6,P-GPS,
716800,2023-12-27 01:08:49,-34.9550931478323,-54.9345765582418,50.85302,47.1784792,55.10856311518,101.43402391518,43.963256,0,13.8611552992,17.5256567288,23,5,7.603,101.76210791518,51.181104,7.0016222,13.8611552992,0,0,0,245.1, 0.4, 0.4,0,0,1024,1024,1024,1024,0,0,0,0,254.6,0,0,48,3.813,3.818,0,0,0,0,5.272,109.22,101.43402391518,50.85302,6,P-GPS,
716900,2023-12-27 01:08:49,-34.9550930057832,-54.9345766919884,50.85302,47.1784792,55.10856311518,101.43402391518,43.963256,0,13.9222117316,17.5911094868,23,5,7.603,101.76210791518,51.181104,7.0016222,13.9222117316,0,0,0,245.1, 0.2, 0.2,0,0,1024,1024,1024,1024,0,0,0,0,254.6,0,0,48,3.813,3.818,0,0,0,0,5.272,109.22,101.43402391518,50.85302,6,P-GPS,
717000,2023-12-27 01:08:49,-34.955092898586,-54.9345766727712,50.85302,47.1784792,55.10856311518,101.43402391518,43.963256,0,13.9580713128,17.6306436088,23,5,7.603,101.76210791518,51.181104,7.0016222,13.9580713128,0,0,0,245.1, 0.2, 0.5,0,0,1024,1024,1024,1024,0,0,0,0,254.6,0,0,48,3.813,3.818,0,0,0,0,5.272,109.22,101.43402391518,50.85302,6,P-GPS,
717100,2023-12-27 01:08:49,-34.9550928050775,-54.9345765497595,50.85302,47.1784792,55.10856311518,101.43402391518,43.963256,0,13.9803810248,17.6808404608,23,5,7.603,101.76210791518,51.181104,7.0016222,13.9803810248,0,0,0,245.1, 0, 0.6,0,0,1024,1024,1024,1024,0,0,0,0,254.6,0,0,48,3.813,3.818,0,0,0,0,5.272,109.22,101.43402391518,50.85302,6,P-GPS,
717200,2023-12-27 01:08:49,-34.9550927109469,-54.9345764064592,50.85302,47.1784792,55.10856311518,101.43402391518,43.963256,0,14.0013784008,17.735728914,23,5,7.603,101.76210791518,51.181104,7.0016222,14.0013784008,0,0,0,245.1, 0, 0.7,0,0,1024,1024,1024,1024,0,0,0,0,254.6,0,0,48,3.813,3.818,0,0,0,0,5.272,109.22,101.43402391518,50.85302,6,P-GPS,
717300,2023-12-27 01:08:50,-34.9550926333092,-54.934576144208,50.85302,47.1784792,55.10856311518,101.43402391518,43.963256,0,14.007054254,17.8191278668,23,5,7.603,101.76210791518,51.181104,7.0016222,14.007054254,0,0,0,245.1, -0.3, 0.2,0,0,1024,1024,1024,1024,0,0,0,0,254.6,0,0,48,3.813,3.818,0,0,0,0,5.272,109.22,101.43402391518,50.85302,6,P-GPS,
717400,2023-12-27 01:08:50,-34.9550925570752,-54.9345760254139,50.524936,46.8503952,55.10856311518,101.10593991518,43.963256,0,14.0241802388,17.8642394168,23,5,7.603,101.76210791518,51.181104,7.0016222,14.0241802388,0,0,0,245.1, -0.4, 0,0,0,1024,1024,1024,1024,0,0,0,0,254.6,0,0,48,3.813,3.818,0,0,0,0,5.272,109.22,101.10593991518,50.524936,6,P-GPS,
717500,2023-12-27 01:08:50,-34.955092496344,-54.9345759384481,50.524936,46.75197,55.20698831518,101.10593991518,43.963256,0,14.038550318,17.8983929612,23,5,7.603,101.76210791518,51.181104,7.0016222,14.038550318,0,0,0,245.1, -0.6, 0,0,0,1024,1024,1024,1024,0,0,0,0,254.6,0,0,48,3.813,3.818,0,0,0,0,5.272,109.22,101.10593991518,50.524936,6,P-GPS,
717600,2023-12-27 01:08:50,-34.9550924473116,-54.9345758613338,50.524936,46.75197,55.20698831518,101.10593991518,43.963256,0,14.0496723656,17.9275924372,23,5,7.657,101.76210791518,51.181104,7.0016222,14.0496723656,0,0,0,245.2, -0.4, 0,0,0,1024,1024,1024,1024,0,0,0,0,254.6,0,0,48,3.819,3.813,0,0,0,0,3.58,109.22,101.10593991518,50.524936,6,P-GPS,
717700,2023-12-27 01:08:50,-34.9550925074761,-54.9345758299498,50.524936,46.8503952,55.10856311518,101.10593991518,43.963256,0,14.0260175092,17.951444144,23,5,7.657,101.76210791518,51.181104,7.0016222,14.0496723656,0,0,0,245.2, -0.4, 0,0,0,1024,1024,1024,1024,0,0,0,0,254.6,0,0,48,3.819,3.813,0,0,0,0,3.58,109.22,101.10593991518,50.524936,6,P-GPS,
717800,2023-12-27 01:08:50,-34.955092528128,-54.9345757861638,50.524936,46.8503952,55.10856311518,101.10593991518,43.963256,0,14.0152891624,17.9665688164,23,5,7.657,101.76210791518,51.181104,7.0016222,14.0496723656,0,0,0,245.2, -0.5, -0.2,0,0,1024,1024,1024,1024,0,0,0,0,254.6,0,0,48,3.819,3.813,0,0,0,0,3.58,109.22,101.10593991518,50.524936,6,P-GPS,
