time(millisecond),datetime(utc),latitude,longitude,height_above_takeoff(feet),height_above_ground_at_drone_location(feet),ground_elevation_at_drone_location(feet),altitude_above_seaLevel(feet),height_sonar(feet),speed(mph),distance(feet),mileage(feet),satellites,gpslevel,voltage(v),max_altitude(feet),max_ascent(feet),max_speed(mph),max_distance(feet), xSpeed(mph), ySpeed(mph), zSpeed(mph), compass_heading(degrees), pitch(degrees), roll(degrees),isPhoto,isVideo,rc_elevator,rc_aileron,rc_throttle,rc_rudder,rc_elevator(percent),rc_aileron(percent),rc_throttle(percent),rc_rudder(percent),gimbal_heading(degrees),gimbal_pitch(degrees),gimbal_roll(degrees),battery_percent,voltageCell1,voltageCell2,voltageCell3,voltageCell4,voltageCell5,voltageCell6,current(A),battery_temperature(f),altitude(feet),ascent(feet),flycStateRaw,flycState,message
0,2022-11-02 22:21:46,-34.9197742735933,-56.168705186052,0,0,44.57572157078,44.57572157078,0.328084,0,0,0,21,5,0,44.57572157078,0,0,0,0,0.223694,0,284.6, -0.9, 1.1,0,0,364,364,364,1684,-100,-100,-100,100,294.1,0,0,93,4.265,4.253,0,0,0,0,0,78.44,44.57572157078,0,41,Motors_Started,"Aeronave en Zona de altitud restringida (150). Vuela con precauci贸n (Code: 190001). Error de calibraci贸n del estabilizador. Reinicia la aeronave o contacta con la Asistencia DJI (Code: 40011)"
100,2022-11-02 22:21:46,-34.9197743077947,-56.1687051377321,0,0,44.57572157078,44.57572157078,0.328084,0.223694,0.0190962604536,0.0190962604536,21,5,0,44.57572157078,0,0.223694,0.0190962604536,0,0.223694,0,283.7, -1.2, 0.9,0,0,364,364,364,1684,-100,-100,-100,100,294.5,0,0,93,4.265,4.253,0,0,0,0,0,78.44,44.57572157078,0,41,Motors_Started,
200,2022-11-02 22:21:46,-34.9197743364203,-56.1687051246263,0,0,44.57572157078,44.57572157078,0.328084,0.223694,0.0293788723312,0.0302520022804,21,5,0,44.57572157078,0,0.223694,0.0293788723312,0,0.223694,0,284.2, -0.7, 0.9,0,0,364,364,364,1684,-100,-100,-100,100,294.3,0,0,93,4.265,4.253,0,0,0,0,0,78.44,44.57572157078,0,41,Motors_Started,
300,2022-11-02 22:21:46,-34.9197743633629,-56.1687051234665,0,0,44.57572157078,44.57572157078,0.328084,0,0.03772637916,0.040088255876,21,5,0,44.57572157078,0,0.223694,0.03772637916,0,0,0,284.2, -0.9, 0.5,0,0,364,364,364,1684,-100,-100,-100,100,294.4,0,0,93,4.265,4.253,0,0,0,0,0,78.44,44.57572157078,0,41,Motors_Started,
400,2022-11-02 22:21:46,-34.9197743362688,-56.1687054337454,0,0,44.57572157078,44.57572157078,0.328084,0,0.077548230828,0.133436027892,21,5,0,44.57572157078,0,0.223694,0.077548230828,0,0,0,283.9, -0.6, 0.9,0,0,364,364,364,1684,-100,-100,-100,100,294.5,0,0,93,4.265,4.253,0,0,0,0,0,78.44,44.57572157078,0,41,Motors_Started,"Setting new Return-To-Home altitude to 80m (262 ft). Data Recorder File Index is 70. Setting new Maximum Flight Altitude to 120m (394 ft)"
500,2022-11-02 22:21:46,-34.9197743212114,-56.1687054407888,0,0,44.57572157078,44.57572157078,0.328084,0,0.078162404076,0.139319886348,21,5,0,44.57572157078,0,0.223694,0.078162404076,0,0,0,282.4, -1.5, 0.6,0,0,1024,1024,364,1684,0,0,-100,100,293.7,0,0,93,4.265,4.253,0,0,0,0,0,78.44,44.57572157078,0,41,Motors_Started,
600,2022-11-02 22:21:47,-34.9197743018647,-56.1687054388206,0,0,44.57572157078,44.57572157078,0.328084,0,0.076318571996,0.146402891824,21,5,0,44.57572157078,0,0.223694,0.078162404076,0,0,0,282.6, -0.9, -0.2,0,0,1024,1024,575,1480,0,0,-68,69,292.9,0,0,93,4.265,4.253,0,0,0,0,0,78.44,44.57572157078,0,41,Motors_Started,
700,2022-11-02 22:21:47,-34.919774293891,-56.1687053941236,0,0,44.57572157078,44.57572157078,0.328084,0,0.062685697544,0.160087275464,21,5,0,44.57572157078,0,0.223694,0.078162404076,0,0,0,284.3, 2.2, 0.9,0,0,1088,1024,1176,1024,10,0,23,0,293.6,0,0,93,4.265,4.253,0,0,0,0,0,78.44,44.57572157078,0,41,Motors_Started,
800,2022-11-02 22:21:47,-34.9197742302156,-56.1687052648987,0,0,44.57572157078,44.57572157078,0.328084,0,0.028405184636,0.205189967196,21,5,0,44.57572157078,0,0.223694,0.078162404076,0,0,0,285.3, 2.6, 0.9,0,0,1122,1024,1269,1024,15,0,37,0,294.9,0,0,93,4.265,4.253,0,0,0,0,0,78.44,44.57572157078,0,41,Motors_Started,
900,2022-11-02 22:21:47,-34.9197742095181,-56.1687051646778,0,0,44.57572157078,44.57572157078,0.328084,0,0.0242365165236,0.236108275272,21,5,0,44.57572157078,0,0.223694,0.078162404076,0,0,0,283.6, 1.6, 1,0,0,1024,1024,1392,1026,0,0,56,0,294.8,0,0,93,4.265,4.253,0,0,0,0,0,78.44,44.57572157078,0,41,Motors_Started,
1000,2022-11-02 22:21:47,-34.9197741417455,-56.1687050136203,0,0,44.57572157078,44.57572157078,0.328084,0,0.070533794908,0.28762140028,21,5,0,44.57572157078,0,0.223694,0.078162404076,0,0,0,282.5, 0.5, 0.9,0,0,1024,1024,1392,1026,0,0,56,0,293.3,0,0,93,4.265,4.253,0,0,0,0,0,78.44,44.57572157078,0,41,Motors_Started,
1100,2022-11-02 22:21:47,-34.919774051204,-56.1687048594036,0,0,44.57572157078,44.57572157078,0.328084,0,0.12701443976,0.34436352808,21,5,0,44.57572157078,0,0.223694,0.12701443976,0,0,0,283.2, 0.2, 1.8,0,0,1024,1024,1615,1164,0,0,90,21,293.1,0,0,93,4.265,4.253,0,0,0,0,0,78.44,44.57572157078,0,10,Assisted_Takeoff,
1200,2022-11-02 22:21:47,-34.9197738276357,-56.168704462707,0,-0.032808399999999,44.60852997078,44.57572157078,0.328084,0,0.270741150396,0.4883694382,21,5,0,44.57572157078,0,0.223694,0.270741150396,0,0,0,284.6, 1.4, 2.6,0,0,1024,1024,1684,1383,0,0,100,54,294.1,0,0,93,4.265,4.253,0,0,0,0,0,78.44,44.57572157078,0,10,Assisted_Takeoff,
1300,2022-11-02 22:21:47,-34.9197737961229,-56.1687043154918,0,-0.032808399999999,44.60852997078,44.57572157078,0.328084,0,0.313328094016,0.53388453152,21,5,0,44.57572157078,0,0.223694,0.313328094016,0,0,0,284.1, 1.4, 1.7,0,0,1024,1024,1684,1288,0,0,100,40,294.5,0,0,93,4.265,4.253,0,0,0,0,0,78.44,44.57572157078,0,10,Assisted_Takeoff,
1400,2022-11-02 22:21:47,-34.9197738317028,-56.1687042971841,0,-0.032808399999999,44.60852997078,44.57572157078,0.328084,0,0.31097113856,0.54797573932,21,5,8.513,44.57572157078,0,0.223694,0.313328094016,0,0,0,282.5, 0, 0.8,0,0,1024,1024,1684,1171,0,0,100,22,293.7,0,0,93,4.265,4.253,0,0,0,0,1.271,78.44,44.57572157078,0,10,Assisted_Takeoff,
1500,2022-11-02 22:21:47,-34.9197738598675,-56.1687043069832,0,-0.032808399999999,44.60852997078,44.57572157078,0.328084,0,0.303224091068,0.5586614352,21,5,8.513,44.57572157078,0,0.223694,0.313328094016,0,0,0,281.5, -1.5, -0.1,0,0,1024,1024,1684,1131,0,0,100,16,292.4,0,0,93,4.265,4.253,0,0,0,0,1.271,78.44,44.57572157078,0,10,Assisted_Takeoff,
1600,2022-11-02 22:21:48,-34.9197738750324,-56.1687044003318,0,-0.032808399999999,44.60852997078,44.57572157078,0.328084,0.223694,0.276399615144,0.58712928388,21,5,8.513,44.57572157078,0,0.223694,0.313328094016,0,-0.223694,0,281.5, -1.7, -1.4,0,0,1024,1024,1671,1117,0,0,98,14,292,0,0,93,4.265,4.253,0,0,0,0,1.271,78.44,44.57572157078,0,6,P-GPS,"Error de calibraci贸n del estabilizador. Reinicia la aeronave o contacta con la Asistencia DJI (Code: 40011)"
1700,2022-11-02 22:21:48,-34.9197739402565,-56.168704725861,0,0,44.57572157078,44.57572157078,0.328084,0.3131716,0.183695543936,0.68738191176,21,5,8.513,44.57572157078,0,0.3131716,0.313328094016,-0.223694,-0.223694,0,281.5, -0.4, 0,0,0,1024,1024,1622,1104,0,0,91,12,292.1,0,0,93,4.265,4.253,0,0,0,0,1.271,78.44,44.57572157078,0,6,P-GPS,
1800,2022-11-02 22:21:48,-34.9197740407347,-56.1687048855513,0,0,44.57572157078,44.57572157078,0.328084,0.3131716,0.123691276924,0.74759844912,21,5,8.513,44.57572157078,0,0.3131716,0.313328094016,-0.223694,-0.223694,-0.223694,281.6, 0.6, 1.1,0,0,1024,1024,1622,1104,0,0,91,12,292.4,0,0,93,4.265,4.253,0,0,0,0,1.271,78.44,44.57572157078,0,6,P-GPS,
1900,2022-11-02 22:21:48,-34.9197741310466,-56.1687050432982,0,0,44.57572157078,44.57572157078,0.328084,0.223694,0.067295277744,0.80515422524,21,5,8.513,44.57572157078,0,0.3131716,0.313328094016,0,-0.223694,-0.671082,281.9, 1.2, 1.2,0,0,1024,1024,1576,1096,0,0,84,11,292.8,0,0,93,4.265,4.253,0,0,0,0,1.271,78.44,44.57572157078,0,6,P-GPS,
2000,2022-11-02 22:21:48,-34.9197741699143,-56.1687052056227,0.328084,0.328084,44.57572157078,44.90380557078,0.656168,0.223694,0.03827756028,0.85574477804,21,5,8.513,44.90380557078,0.328084,0.3131716,0.313328094016,0,-0.223694,-1.342164,282.2, 1, 1.3,0,0,1024,1024,1024,1024,0,0,0,0,293,0,0,93,4.265,4.253,0,0,0,0,1.271,78.44,44.90380557078,0.328084,6,P-GPS,
2100,2022-11-02 22:21:48,-34.9197742476408,-56.1687055605411,0.328084,0.328084,44.57572157078,44.90380557078,0.984252,0,0.112431434044,0.96564307552,21,5,8.513,44.90380557078,0.328084,0.3131716,0.313328094016,0,0,-1.789552,282.5, 0.9, 1.5,0,0,1024,1024,1024,1024,0,0,0,0,293.2,0,0,93,4.265,4.253,0,0,0,0,1.271,78.44,44.90380557078,0.328084,6,P-GPS,
2200,2022-11-02 22:21:48,-34.9197742900967,-56.1687056262395,0.656168,0.656168,44.57572157078,45.23188957078,0.984252,0,0.1318241512,0.9906660422,21,5,8.513,45.23188957078,0.656168,0.3131716,0.313328094016,0,0,-1.789552,282.6, 1.1, 1.7,0,0,1024,1024,1024,1024,0,0,0,0,293.2,0,0,93,4.265,4.253,0,0,0,0,1.271,78.44,45.23188957078,0.656168,6,P-GPS,
2300,2022-11-02 22:21:48,-34.9197743198769,-56.1687056735492,0.984252,0.984252,44.57572157078,45.55997357078,2.624672,0,0.146813981076,1.00851053096,21,5,8.513,45.55997357078,0.984252,0.3131716,0.313328094016,0,0,-1.565858,282.7, 1.1, 1.4,0,0,1024,1024,1024,1024,0,0,0,0,293.2,0,0,93,4.265,4.253,0,0,0,0,1.271,78.44,45.55997357078,0.984252,6,P-GPS,
2400,2022-11-02 22:21:48,-34.9197743365245,-56.1687056917635,0.984252,0.984252,44.57572157078,45.55997357078,2.952756,0,0.153021002272,1.01666998004,21,5,8.392,45.55997357078,0.984252,0.3131716,0.313328094016,0,0,-1.342164,282.7, 0.5, 1.1,0,0,1024,1024,1024,1024,0,0,0,0,293.2,0,0,93,4.183,4.17,0,0,0,0,2.959,78.62,45.55997357078,0.984252,6,P-GPS,
2500,2022-11-02 22:21:48,-34.9197743680544,-56.168705645415,1.312336,1.312336,44.57572157078,45.88805757078,2.952756,0,0.141678810308,1.03468507248,21,5,8.392,45.88805757078,1.312336,0.3131716,0.313328094016,0,0,-0.671082,282.6, 0.4, 1.5,0,0,1024,1024,1024,1024,0,0,0,0,293.2,0,0,93,4.183,4.17,0,0,0,0,2.959,78.62,45.88805757078,1.312336,6,P-GPS,"Error de calibraci贸n del estabilizador. Reinicia la aeronave o contacta con la Asistencia DJI (Code: 40011)"
2600,2022-11-02 22:21:49,-34.9197744923194,-56.1687056734434,1.312336,1.312336,44.57572157078,45.88805757078,3.28084,0,0.166217853088,1.08079399784,21,5,8.392,45.88805757078,1.312336,0.3131716,0.313328094016,0,0,-0.447388,282.5, 0, 1.6,0,0,1024,1024,1024,1024,0,0,0,0,293.2,0,0,93,4.183,4.17,0,0,0,0,2.959,78.62,45.88805757078,1.312336,6,P-GPS,
2700,2022-11-02 22:21:49,-34.9197745946337,-56.168705699168,1.312336,1.2795276,44.60852997078,45.88805757078,3.28084,0,0.193088588856,1.11890751612,21,5,8.392,45.88805757078,1.312336,0.3131716,0.313328094016,0,0,0,282.6, -0.2, 1.7,0,0,1024,1024,1024,1024,0,0,0,0,293.2,0,0,93,4.183,4.17,0,0,0,0,2.959,78.62,45.88805757078,1.312336,6,P-GPS,
2800,2022-11-02 22:21:49,-34.9197745987398,-56.1687056925661,1.312336,1.2795276,44.60852997078,45.88805757078,3.28084,0,0.192441935292,1.12138783116,21,5,8.392,45.88805757078,1.312336,0.3131716,0.313328094016,0,0,0,282.6, 0, 1.2,0,0,1024,1024,1024,1024,0,0,0,0,293.2,0,0,93,4.183,4.17,0,0,0,0,2.959,78.62,45.88805757078,1.312336,6,P-GPS,
2900,2022-11-02 22:21:49,-34.9197746160591,-56.1687057095762,0.984252,0.9514436,44.60852997078,45.55997357078,3.28084,0,0.2003526967,1.12950134848,21,5,8.392,45.88805757078,1.312336,0.3131716,0.313328094016,0,0,0,282.5, 0.3, 0.9,0,0,1024,1024,1024,1024,0,0,0,0,293.2,0,0,93,4.183,4.17,0,0,0,0,2.959,78.62,45.55997357078,0.984252,6,P-GPS,
3000,2022-11-02 22:21:49,-34.9197747576808,-56.1687058263711,0.984252,0.9514436,44.60852997078,45.55997357078,3.28084,0,0.26055447028,1.19187667856,21,5,8.392,45.88805757078,1.312336,0.3131716,0.313328094016,0,0,0,282.6, 1, 1.5,0,0,1024,1024,1024,1024,0,0,0,0,293.2,0,0,93,4.183,4.17,0,0,0,0,2.959,78.62,45.55997357078,0.984252,6,P-GPS,
3100,2022-11-02 22:21:49,-34.9197748720196,-56.1687059301803,0.984252,0.9514436,44.60852997078,45.55997357078,3.28084,0,0.31181267402,1.2438812734,21,5,8.392,45.88805757078,1.312336,0.3131716,0.313328094016,0,0,0,282.6, 1.1, 1.4,0,0,1024,1024,1024,1024,0,0,0,0,293.2,0,0,93,4.183,4.17,0,0,0,0,2.959,78.62,45.55997357078,0.984252,6,P-GPS,
3200,2022-11-02 22:21:49,-34.919774834177,-56.1687061149179,0.984252,0.9514436,44.60852997078,45.55997357078,3.28084,0,0.34503610028,1.30084649832,21,5,8.392,45.88805757078,1.312336,0.3131716,0.34503610028,0,0,0,282.5, 1, 1,0,0,1024,1024,1440,1024,0,0,63,0,293.2,0,0,93,4.183,4.17,0,0,0,0,2.959,78.62,45.55997357078,0.984252,6,P-GPS,
3300,2022-11-02 22:21:49,-34.9197747925865,-56.1687062840311,0.984252,0.9514436,44.60852997078,45.55997357078,3.28084,0,0.37914043208,1.35366474148,21,5,8.392,45.88805757078,1.312336,0.3131716,0.37914043208,0,0,0,282.2, 0.9, 0.9,0,0,1024,1024,1650,1024,0,0,95,0,293.2,0,0,93,4.183,4.17,0,0,0,0,2.959,78.62,45.55997357078,0.984252,6,P-GPS,
3400,2022-11-02 22:21:49,-34.9197747369491,-56.1687066779706,0.984252,0.984252,44.57572157078,45.55997357078,3.28084,0,0.47726707564,1.47325135948,21,5,8.389,45.88805757078,1.312336,0.3131716,0.47726707564,0,0,-0.447388,282.1, 1.3, 1.2,0,0,1024,1024,1349,1024,0,0,49,0,293.2,0,0,93,4.185,4.176,0,0,0,0,4.173,78.44,45.55997357078,0.984252,6,P-GPS,
3500,2022-11-02 22:21:49,-34.9197747193367,-56.168706781354,1.312336,1.312336,44.57572157078,45.88805757078,3.28084,0,0.5041994912,1.504839287,21,5,8.389,45.88805757078,1.312336,0.3131716,0.5041994912,0,0,-1.11847,281.8, 1.4, 0.7,0,0,1024,1024,1024,1024,0,0,0,0,293.2,0,0,93,4.185,4.176,0,0,0,0,4.173,78.44,45.88805757078,1.312336,6,P-GPS,
3600,2022-11-02 22:21:50,-34.919774673224,-56.1687068860128,1.312336,1.312336,44.57572157078,45.88805757078,3.608924,0,0.52904857336,1.54038390756,21,5,8.389,45.88805757078,1.312336,0.3131716,0.52904857336,0,0,-1.565858,281.7, 1.8, 0.5,0,0,1475,1024,1024,1024,68,0,0,0,293.2,0,0,93,4.185,4.176,0,0,0,0,4.173,78.44,45.88805757078,1.312336,6,P-GPS,
3700,2022-11-02 22:21:50,-34.9197746390194,-56.1687069739637,1.64042,1.64042,44.57572157078,46.21614157078,3.608924,0,0.55123689428,1.5695046434,21,5,8.389,46.21614157078,1.64042,0.3131716,0.55123689428,0,0,-1.11847,281.5, 1.9, 0.7,0,0,1684,1024,1156,1024,100,0,20,0,293.2,0,0,93,4.185,4.176,0,0,0,0,4.173,78.44,46.21614157078,1.64042,6,P-GPS,
3800,2022-11-02 22:21:50,-34.9197747197169,-56.1687071978497,1.64042,1.64042,44.57572157078,46.21614157078,3.937008,0,0.62347114856,1.6426673754,21,5,8.389,46.21614157078,1.64042,0.3131716,0.62347114856,0,0,-0.671082,281.3, -2.6, 0.5,0,0,1684,1024,1156,1024,100,0,20,0,293.2,0,0,93,4.185,4.176,0,0,0,0,4.173,78.44,46.21614157078,1.64042,6,P-GPS,
3900,2022-11-02 22:21:50,-34.9197747354843,-56.1687073278014,1.64042,1.64042,44.57572157078,46.21614157078,3.937008,0.223694,0.6625164254,1.68196855776,21,5,8.389,46.21614157078,1.64042,0.3131716,0.6625164254,0,-0.223694,-0.447388,281.1, -12.3, 0.3,0,0,1684,1024,1559,1024,100,0,81,0,293.2,0,0,93,4.185,4.176,0,0,0,0,4.173,78.44,46.21614157078,1.64042,6,P-GPS,
4000,2022-11-02 22:21:50,-34.9197746767227,-56.1687076003567,1.968504,1.968504,44.57572157078,46.54422557078,3.937008,0.894776,0.73708663776,1.76627630324,21,5,8.389,46.54422557078,1.968504,0.894776,0.73708663776,0,-0.894776,-0.671082,280.8, -16.2, 0.3,0,0,1684,1024,1684,1024,100,0,100,0,293.2,0,0,93,4.185,4.176,0,0,0,0,4.173,78.44,46.54422557078,1.968504,6,P-GPS,
4100,2022-11-02 22:21:50,-34.9197746005604,-56.1687081820971,1.968504,1.968504,44.57572157078,46.54422557078,4.265092,1.565858,0.904199504,1.94251646636,21,5,8.389,46.54422557078,1.968504,1.565858,0.904199504,0,-1.565858,-1.11847,280.7, -15.4, 0.6,0,0,1684,1024,1684,1024,100,0,100,0,293.2,0,0,93,4.185,4.176,0,0,0,0,4.173,78.44,46.54422557078,1.968504,6,P-GPS,
4200,2022-11-02 22:21:50,-34.9197746159801,-56.1687089371711,2.296588,2.296588,44.57572157078,46.87230957078,4.265092,2.460634,1.12911420936,2.168471198,21,5,8.389,46.87230957078,2.296588,2.460634,1.12911420936,0.223694,-2.460634,-1.789552,280.6, -13.5, 0.9,0,0,1684,1024,1684,1024,100,0,100,0,293.2,0,0,93,4.185,4.176,0,0,0,0,4.173,78.44,46.87230957078,2.296588,6,P-GPS,
4300,2022-11-02 22:21:50,-34.9197745388872,-56.1687101802098,2.624672,2.6574804,44.54291317078,47.20039357078,4.92126,3.131716,1.49718508728,2.54140099996,21,5,8.389,47.20039357078,2.624672,3.131716,1.49718508728,0.223694,-3.131716,-2.684328,280.6, -12.7, 1.3,0,0,1684,1024,1684,1024,100,0,100,0,293.2,0,0,93,4.185,4.176,0,0,0,0,4.173,78.44,47.20039357078,2.624672,6,P-GPS,
4400,2022-11-02 22:21:50,-34.9197743467658,-56.1687118980883,2.952756,3.0183728,44.51010477078,47.52847757078,5.249344,3.8251674,2.00814967056,3.06008211892,21,5,8.388,47.52847757078,2.952756,3.8251674,2.00814967056,0.447388,-3.802798,-3.35541,280.3, -11.8, 1.7,0,0,1684,1024,1684,1024,100,0,100,0,293.2,0,0,93,4.141,4.126,0,0,0,0,4.329,78.62,47.52847757078,2.952756,6,P-GPS,
4500,2022-11-02 22:21:50,-34.9197741245524,-56.1687137987067,3.608924,3.7073492,44.47729637078,48.18464557078,5.905512,4.4962494,2.57713590924,3.6344161268,21,5,8.388,48.18464557078,3.608924,4.4962494,2.57713590924,0.447388,-4.47388,-4.250186,280.1, -11.5, 1.1,0,0,1684,1024,1684,1024,100,0,100,0,293.2,0,0,93,4.141,4.126,0,0,0,0,4.329,78.62,48.18464557078,3.608924,6,P-GPS,
4600,2022-11-02 22:21:51,-34.9197738645404,-56.168716725277,4.265092,4.3963256,44.44448797078,48.84081357078,6.56168,4.9660068,3.4552822628,4.5150591996,21,5,8.388,48.84081357078,4.265092,4.9660068,3.4552822628,0.671082,-4.921268,-5.144962,280.1, -11, 1.1,0,0,1684,1024,1684,1024,100,0,100,0,293.2,0,0,93,4.141,4.126,0,0,0,0,4.329,78.62,48.84081357078,4.265092,6,P-GPS,
4700,2022-11-02 22:21:51,-34.9197736337581,-56.1687193069944,5.249344,5.413386,44.41167957078,49.82506557078,7.545932,5.4133948,4.2308728388,5.29199492,21,5,8.388,49.82506557078,5.249344,5.4133948,4.2308728388,0.671082,-5.368656,-5.59235,280, -11.1, 1.5,0,0,1684,1024,1684,1024,100,0,100,0,293.2,0,0,93,4.141,4.126,0,0,0,0,4.329,78.62,49.82506557078,5.249344,6,P-GPS,
4800,2022-11-02 22:21:51,-34.9197734357173,-56.1687222845722,6.233596,6.4304464,44.37887117078,50.80931757078,8.530184,5.8607828,5.1243111876,6.1856629276,21,5,8.388,50.80931757078,6.233596,5.8607828,5.1243111876,0.671082,-5.816044,-6.039738,279.8, -12.1, 1.1,0,0,1684,1024,1684,1024,100,0,100,0,293.2,0,0,93,4.141,4.126,0,0,0,0,4.329,78.62,50.80931757078,6.233596,6,P-GPS,
4900,2022-11-02 22:21:51,-34.9197732289416,-56.1687253171354,7.217848,7.4475068,44.34606277078,51.79356957078,9.514436,6.3081708,6.034449012,7.0960304108,21,5,8.388,51.79356957078,7.217848,6.3081708,6.034449012,0.671082,-6.263432,-6.263432,279.7, -11.9, 1.1,0,0,1684,1024,1684,1024,100,0,100,0,293.2,0,0,93,4.141,4.126,0,0,0,0,4.329,78.62,51.79356957078,7.217848,6,P-GPS,
5000,2022-11-02 22:21:51,-34.9197729995231,-56.168728694867,8.2021,8.4973756,44.28044597078,52.77782157078,10.498688,6.5318648,7.048228572,8.1099740128,21,5,8.388,52.77782157078,8.2021,6.5318648,7.048228572,0.671082,-6.487126,-6.487126,279.7, -12, 1.7,0,0,1684,1024,1684,1024,100,0,100,0,293.2,0,0,93,4.141,4.126,0,0,0,0,4.329,78.62,52.77782157078,8.2021,6,P-GPS,
5100,2022-11-02 22:21:51,-34.9197730257525,-56.168732621931,9.186352,9.514436,44.24763757078,53.76207357078,11.811024,6.9568834,8.2203414704,9.2848428168,21,5,8.388,53.76207357078,9.186352,6.9568834,8.2203414704,0.671082,-6.934514,-6.487126,279.6, -12.6, 1.8,0,0,1684,1024,1684,1024,100,0,100,0,293.2,0,0,93,4.141,4.126,0,0,0,0,4.329,78.62,53.76207357078,9.186352,6,P-GPS,"Punto de origen actualizado. Altitud de RPO establecida en 80m (Code: 3000001)"
5200,2022-11-02 22:21:51,-34.9197728286049,-56.1687362644484,10.170604,10.5314964,44.21482917078,54.74632557078,13.12336,7.4266408,9.312336256,10.3769032192,21,5,8.388,54.74632557078,10.170604,7.4266408,9.312336256,0.894776,-7.381902,-6.487126,279.4, -12.9, 2,0,0,1684,1024,1684,1024,100,0,100,0,293.2,0,0,93,4.141,4.126,0,0,0,0,4.329,78.62,54.74632557078,10.170604,6,P-GPS,
5300,2022-11-02 22:21:51,-34.9197726145333,-56.1687398758684,11.154856,11.5813652,44.14921237078,55.73057757078,14.107612,7.6503348,10.3954399652,11.4601053536,21,5,8.388,55.73057757078,11.154856,7.6503348,10.3954399652,0.894776,-7.605596,-6.487126,279.3, -12.9, 2.1,0,0,1684,1024,1684,1024,100,0,100,0,293.2,0,0,93,4.141,4.126,0,0,0,0,4.329,78.62,55.73057757078,11.154856,6,P-GPS,
5400,2022-11-02 22:21:51,-34.9197723284605,-56.1687437395567,12.139108,12.631234,44.08359557078,56.71482957078,15.419948,8.0977228,11.5554793724,12.6206696952,21,5,8.388,56.71482957078,12.139108,8.0977228,11.5554793724,0.894776,-8.052984,-6.487126,279.1, -13.2, 1.9,0,0,1684,1024,1684,1024,100,0,100,0,293.2,0,0,93,4.141,4.126,0,0,0,0,4.329,78.62,56.71482957078,12.139108,6,P-GPS,
5500,2022-11-02 22:21:51,-34.9197722630565,-56.1687473350446,13.12336,13.6482944,44.05078717078,57.69908157078,16.4042,8.5451108,12.6306106404,13.6965555564,21,5,8.22,57.69908157078,13.12336,8.5451108,12.6306106404,0.894776,-8.500372,-6.487126,279.1, -13.2, 2.1,0,0,1684,1024,1684,1024,100,0,100,0,293.2,0,0,93,4.132,4.122,0,0,0,0,6.405,78.62,57.69908157078,13.12336,6,P-GPS,
5600,2022-11-02 22:21:52,-34.9197720510998,-56.1687514618608,14.107612,14.6981632,43.98517037078,58.68333357078,17.716536,8.7911742,13.8675857456,14.93356347,21,5,8.22,58.68333357078,14.107612,8.7911742,13.8675857456,1.11847,-8.724066,-6.487126,279, -13.1, 1.9,0,0,1684,1024,1684,1024,100,0,100,0,293.2,0,0,93,4.132,4.122,0,0,0,0,6.405,78.62,58.68333357078,14.107612,6,P-GPS,
5700,2022-11-02 22:21:52,-34.9197718457339,-56.1687555389362,15.091864,15.7152236,43.95236197078,59.66758557078,18.700788,9.171454,15.0896002204,16.1555451364,22,5,8.22,59.66758557078,15.091864,9.171454,15.0896002204,0.447388,-9.171454,-6.487126,274.9, -13.2, 2,0,0,1684,1024,1684,1024,100,0,100,0,293.2,0,0,93,4.132,4.122,0,0,0,0,6.405,78.62,59.66758557078,15.091864,6,P-GPS,
5800,2022-11-02 22:21:52,-34.9197716966462,-56.1687600351793,16.4042,17.0931764,43.88674517078,60.97992157078,20.013124,9.618842,16.4355648304,17.5017394052,22,5,8.22,60.97992157078,16.4042,9.618842,16.4355648304,0.447388,-9.618842,-6.487126,274.6, -13, 2.2,0,0,1684,1024,1684,1024,100,0,100,0,293.2,0,0,93,4.132,4.122,0,0,0,0,6.405,78.62,60.97992157078,16.4042,6,P-GPS,
5900,2022-11-02 22:21:52,-34.9197721789062,-56.1687641008427,17.388452,18.1102368,43.85393677078,61.96417357078,20.997376,9.618842,17.6415031892,18.7307092608,22,5,8.22,61.96417357078,17.388452,9.618842,17.6415031892,0.447388,-9.618842,-6.487126,274.7, -13.2, 2.6,0,0,1684,1024,1684,1024,100,0,100,0,293.2,0,0,93,4.132,4.122,0,0,0,0,6.405,78.62,61.96417357078,17.388452,6,P-GPS,
6000,2022-11-02 22:21:52,-34.9197721651349,-56.1687689309422,18.372704,19.1601056,43.78831997078,62.94842557078,21.981628,10.06623,19.0854336816,20.175689622,22,5,8.22,62.94842557078,18.372704,10.06623,19.0854336816,0.447388,-10.06623,-6.487126,274.7, -13, 3.3,0,0,1684,1024,1684,1024,100,0,100,0,293.2,0,0,93,4.132,4.122,0,0,0,0,6.405,78.62,62.94842557078,18.372704,6,P-GPS,
6100,2022-11-02 22:21:52,-34.9197721402718,-56.1687736645429,19.356956,20.2099744,43.72270317078,63.93267757078,22.96588,10.289924,20.5007880576,21.5917985912,22,5,8.22,63.93267757078,19.356956,10.289924,20.5007880576,0.447388,-10.289924,-6.487126,274.7, -13.2, 3.8,0,0,1684,1024,1684,1024,100,0,100,0,293.2,0,0,93,4.132,4.122,0,0,0,0,6.405,78.62,63.93267757078,19.356956,6,P-GPS,
6200,2022-11-02 22:21:52,-34.9197720133089,-56.1687788902863,20.341208,21.2598432,43.65708637078,64.91692957078,23.622048,10.513618,22.0647644856,23.155840636,22,5,8.22,64.91692957078,20.341208,10.513618,22.0647644856,0.447388,-10.513618,-6.487126,274.6, -13.5, 3.5,0,0,1684,1024,1684,1024,100,0,100,0,293.2,0,0,93,4.132,4.122,0,0,0,0,6.405,78.62,64.91692957078,20.341208,6,P-GPS,
6300,2022-11-02 22:21:52,-34.9197722545768,-56.1687841313676,21.653544,22.6049876,43.62427797078,66.22926557078,24.278216,10.513618,23.6287409136,24.726214702,22,5,8.22,66.22926557078,21.653544,10.513618,23.6287409136,0.447388,-10.513618,-6.487126,274.6, -13.6, 3.4,0,0,1684,1024,1684,1024,100,0,100,0,293.2,0,0,93,4.132,4.122,0,0,0,0,6.405,78.62,66.22926557078,21.653544,6,P-GPS,
6400,2022-11-02 22:21:52,-34.9197721544963,-56.1687896446273,22.637796,23.6876648,43.52585277078,67.21351757078,25.262468,10.737312,25.2784456908,26.375985096,22,5,8.22,67.21351757078,22.637796,10.737312,25.2784456908,0.447388,-10.737312,-6.487126,274.3, -14.1, 3.4,0,0,1684,1024,1684,1024,100,0,100,0,293.2,0,0,93,4.132,4.122,0,0,0,0,6.405,78.62,67.21351757078,22.637796,6,P-GPS,
6500,2022-11-02 22:21:52,-34.9197720479862,-56.1687950060133,23.622048,24.7047252,43.49304437078,68.19776957078,26.574804,10.961006,26.8828092592,27.9803486644,22,5,8.261,68.19776957078,23.622048,10.961006,26.8828092592,0.447388,-10.961006,-6.487126,274.4, -14.7, 3.4,0,0,1684,1024,1684,1024,100,0,100,0,293.2,0,0,93,4.13,4.12,0,0,0,0,5.684,78.62,68.19776957078,23.622048,6,P-GPS,
6600,2022-11-02 22:21:53,-34.9197719216711,-56.1688007371632,24.6063,25.7874024,43.39461917078,69.18202157078,27.559056,11.408394,28.597933986,29.6955061996,22,5,8.261,69.18202157078,24.6063,11.408394,28.597933986,0.447388,-11.408394,-6.487126,274.5, -14.5, 3.5,0,0,1684,1024,1684,1024,100,0,100,0,293.2,0,0,93,4.13,4.12,0,0,0,0,5.684,78.62,69.18202157078,24.6063,6,P-GPS,
6700,2022-11-02 22:21:53,-34.9197717794025,-56.1688063102228,25.590552,26.8044628,43.36181077078,70.16627357078,28.543308,11.408394,30.2659786588,31.3635508724,22,5,8.261,70.16627357078,25.590552,11.408394,30.2659786588,0.447388,-11.408394,-6.487126,274.5, -14.5, 3.7,0,0,1684,1024,1684,1024,100,0,100,0,293.2,0,0,93,4.13,4.12,0,0,0,0,5.684,78.62,70.16627357078,25.590552,6,P-GPS,
6800,2022-11-02 22:21:53,-34.919771759362,-56.1688119910389,26.902888,28.1824156,43.29619397078,71.47860957078,29.52756,11.632088,31.9649288444,33.062993184,22,5,8.261,71.47860957078,26.902888,11.632088,31.9649288444,0.447388,-11.632088,-6.487126,274.4, -14.8, 3.8,0,0,1684,1024,1684,1024,100,0,100,0,293.2,0,0,93,4.13,4.12,0,0,0,0,5.684,78.62,71.47860957078,26.902888,6,P-GPS,
6900,2022-11-02 22:21:53,-34.9197715079555,-56.1688176812897,27.88714,29.2650928,43.19776877078,72.46286157078,30.511812,11.8781514,33.669292416,34.767717648,22,5,8.261,72.46286157078,27.88714,11.8781514,33.669292416,0.671082,-11.855782,-6.487126,274.5, -14.7, 3.7,0,0,1684,1024,1684,1024,100,0,100,0,293.2,0,0,93,4.13,4.12,0,0,0,0,5.684,78.62,72.46286157078,27.88714,6,P-GPS,
7000,2022-11-02 22:21:53,-34.9197712237505,-56.1688238604494,28.871392,30.34777,43.09934357078,73.44711357078,31.496064,12.3255394,35.52001426,36.61909566,22,5,8.261,73.44711357078,28.871392,12.3255394,35.52001426,0.671082,-12.30317,-6.487126,274.4, -14.5, 3.5,0,0,1684,1024,1684,1024,100,0,100,0,293.2,0,0,93,4.13,4.12,0,0,0,0,5.684,78.62,73.44711357078,28.871392,6,P-GPS,
7100,2022-11-02 22:21:53,-34.919770936094,-56.1688298627644,29.855644,31.3976388,43.03372677078,74.43136557078,32.480316,12.3255394,37.318242664,38.417980232,22,5,8.261,74.43136557078,29.855644,12.3255394,37.318242664,0.671082,-12.526864,-6.487126,274.5, -14, 3.5,0,0,1684,1024,1684,1024,100,0,100,0,293.2,0,0,93,4.13,4.12,0,0,0,0,5.684,78.62,74.43136557078,29.855644,6,P-GPS,
7200,2022-11-02 22:21:53,-34.9197706659466,-56.1688364898974,31.16798,32.7755916,42.96810997078,75.74370157078,33.464568,12.7729274,39.30282278,40.402888432,22,5,8.261,75.74370157078,31.16798,12.7729274,39.30282278,0.671082,-12.750558,-6.487126,274.5, -13.9, 3.3,0,0,1684,1024,1684,1024,100,0,100,0,293.2,0,0,93,4.13,4.12,0,0,0,0,5.684,78.62,75.74370157078,31.16798,6,P-GPS,
7300,2022-11-02 22:21:53,-34.9197703776737,-56.1688427622752,32.152232,33.8582688,42.86968477078,76.72795357078,34.44882,12.9966214,41.181759848,42.282481668,22,5,8.261,76.72795357078,32.152232,12.9966214,41.181759848,0.671082,-12.974252,-6.487126,274.5, -13.8, 3.1,0,0,1684,1024,1684,1024,100,0,100,0,293.2,0,0,93,4.13,4.12,0,0,0,0,5.684,78.62,76.72795357078,32.152232,6,P-GPS,
7400,2022-11-02 22:21:53,-34.9197700546124,-56.1688494336141,33.136484,34.9081376,42.80406797078,77.71220557078,35.433072,12.9966214,43.180447576,44.28149748,22,5,8.261,77.71220557078,33.136484,12.9966214,43.180447576,0.671082,-12.974252,-6.487126,274.4, -14.2, 2.9,0,0,1684,1024,1684,1024,100,0,100,0,293.2,0,0,93,4.13,4.12,0,0,0,0,5.684,78.62,77.71220557078,33.136484,6,P-GPS,
7500,2022-11-02 22:21:53,-34.9197697337939,-56.1688558450981,34.120736,35.9908148,42.70564277078,78.69645757078,36.417324,13.2203154,45.10170748,46.203413552,22,5,8.243,78.69645757078,34.120736,13.2203154,45.10170748,0.894776,-13.197946,-6.487126,274.5, -14.5, 3.1,0,0,1684,1024,1684,1024,100,0,100,0,293.2,0,0,93,4.116,4.106,0,0,0,0,5.81,78.62,78.69645757078,34.120736,6,P-GPS,
7600,2022-11-02 22:21:54,-34.9197692670065,-56.1688625570697,35.104988,37.073492,42.60721757078,79.68070957078,37.401576,13.4440094,47.11450282,48.21850548,22,5,8.243,79.68070957078,35.104988,13.4440094,47.11450282,0.894776,-13.42164,-6.487126,274.6, -14.6, 3.1,0,0,1684,1024,1684,1024,100,0,100,0,293.2,0,0,93,4.116,4.106,0,0,0,0,5.81,78.62,79.68070957078,35.104988,6,P-GPS,
7700,2022-11-02 22:21:54,-34.9197688640422,-56.1688690636002,36.08924,38.1233608,42.54160077078,80.66496157078,38.385828,13.6677034,49.065290284,50.17060528,22,5,8.243,80.66496157078,36.08924,13.6677034,49.065290284,0.894776,-13.645334,-6.487126,274.6, -14.7, 3,0,0,1684,1024,1684,1024,100,0,100,0,293.2,0,0,93,4.116,4.106,0,0,0,0,5.81,78.62,80.66496157078,36.08924,6,P-GPS,
7800,2022-11-02 22:21:54,-34.9197684064885,-56.1688759763532,37.401576,39.534122,42.44317557078,81.97729757078,39.37008,13.6677034,51.13845308,52.245080412,22,5,8.243,81.97729757078,37.401576,13.6677034,51.13845308,0.894776,-13.645334,-6.487126,274.6, -14.7, 2.8,0,0,1684,1024,1684,1024,100,0,100,0,293.2,0,0,93,4.116,4.106,0,0,0,0,5.81,78.62,81.97729757078,37.401576,6,P-GPS,
7900,2022-11-02 22:21:54,-34.9197679644386,-56.1688826177896,38.385828,40.6167992,42.34475037078,82.96154957078,40.354332,13.8913974,53.130251044,54.238518796,22,5,8.243,82.96154957078,38.385828,13.8913974,53.130251044,0.894776,-13.869028,-6.71082,274.6, -14.9, 2.8,0,0,1684,1024,1684,1024,100,0,100,0,293.2,0,0,93,4.116,4.106,0,0,0,0,5.81,78.62,82.96154957078,38.385828,6,P-GPS,
8000,2022-11-02 22:21:54,-34.9197674476905,-56.1688894976102,39.37008,41.6994764,42.24632517078,83.94580157078,40.682416,13.8913974,55.194883656,56.305447996,22,5,8.243,83.94580157078,39.37008,13.8913974,55.194883656,0.894776,-13.869028,-6.71082,274.6, -15, 2.9,0,0,1684,1024,1684,1024,100,0,100,0,293.2,0,0,93,4.116,4.106,0,0,0,0,5.81,78.62,83.94580157078,39.37008,6,P-GPS,
8100,2022-11-02 22:21:54,-34.9197670210807,-56.1688962763349,40.354332,42.7165368,42.21351677078,84.93005357078,40.682416,14.1150914,57.22769212,58.339240712,22,5,8.243,84.93005357078,40.354332,14.1150914,57.22769212,0.894776,-14.092722,-6.71082,274.5, -15, 2.7,0,0,1684,1024,1684,1024,100,0,100,0,293.2,0,0,93,4.116,4.106,0,0,0,0,5.81,78.62,84.93005357078,40.354332,6,P-GPS,
8200,2022-11-02 22:21:54,-34.9197665456331,-56.1689035796906,41.338584,43.7664056,42.14789997078,85.91430557078,40.682416,14.3387854,59.418308988,60.531169916,22,5,8.243,85.91430557078,41.338584,14.3387854,59.418308988,0.894776,-14.316416,-6.71082,274.5, -15.3, 2.6,0,0,1684,1024,1684,1024,100,0,100,0,293.2,0,0,93,4.116,4.106,0,0,0,0,5.81,78.62,85.91430557078,41.338584,6,P-GPS,
8300,2022-11-02 22:21:54,-34.9197660937856,-56.1689105693312,42.322836,44.8490828,42.04947477078,86.89855757078,40.682416,14.3611548,61.514765748,62.628610928,22,5,8.243,86.89855757078,42.322836,14.3611548,61.514765748,1.11847,-14.316416,-6.487126,274.7, -14.8, 2.9,0,0,1684,1024,1684,1024,100,0,100,0,293.2,0,0,93,4.116,4.106,0,0,0,0,5.81,78.62,86.89855757078,42.322836,6,P-GPS,
8400,2022-11-02 22:21:54,-34.9197656485143,-56.1689177379899,43.307088,45.8989516,41.98385797078,87.88280957078,40.682416,14.5848488,63.6647002,64.779201548,22,5,8.243,87.88280957078,43.307088,14.5848488,63.6647002,1.11847,-14.54011,-6.487126,274.7, -14.5, 3.2,0,0,1684,1024,1684,1024,100,0,100,0,293.2,0,0,93,4.116,4.106,0,0,0,0,5.81,78.62,87.88280957078,43.307088,6,P-GPS,
8500,2022-11-02 22:21:54,-34.9197652019882,-56.168924407375,44.29134,46.9488204,41.91824117078,88.86706157078,40.682416,14.8085428,65.665684516,66.781170116,22,5,8.205,88.86706157078,44.29134,14.8085428,65.665684516,1.11847,-14.763804,-6.487126,274.6, -14.6, 2.7,0,0,1684,1024,1684,1024,100,0,100,0,293.2,0,0,93,4.111,4.103,0,0,0,0,6.271,78.8,88.86706157078,44.29134,6,P-GPS,
8600,2022-11-02 22:21:55,-34.9197647217733,-56.1689318237375,45.275592,47.9986892,41.85262437078,89.85131357078,40.682416,14.8085428,67.89042212,69.006563888,22,5,8.205,89.85131357078,45.275592,14.8085428,67.89042212,1.11847,-14.763804,-6.487126,274.6, -14.3, 2.8,0,0,1684,1024,1684,1024,100,0,100,0,293.2,0,0,93,4.111,4.103,0,0,0,0,6.271,78.8,89.85131357078,45.275592,6,P-GPS,
8700,2022-11-02 22:21:55,-34.9197642741462,-56.1689389172533,46.259844,49.0813664,41.75419917078,90.83556557078,40.682416,14.8085428,70.01804686,71.13517288,22,5,8.205,90.83556557078,46.259844,14.8085428,70.01804686,1.11847,-14.763804,-6.487126,274.6, -15, 3.5,0,0,1684,1024,1684,1024,100,0,100,0,293.2,0,0,93,4.111,4.103,0,0,0,0,6.271,78.8,90.83556557078,46.259844,6,P-GPS,
8800,2022-11-02 22:21:55,-34.9197638481442,-56.1689464388909,47.244096,50.0984268,41.72139077078,91.81981757078,40.682416,15.0322368,72.273296276,73.39075038,22,5,8.205,91.81981757078,47.244096,15.0322368,72.273296276,1.11847,-14.987498,-6.487126,274.6, -15.5, 3.2,0,0,1684,1024,1684,1024,100,0,100,0,293.2,0,0,93,4.111,4.103,0,0,0,0,6.271,78.8,91.81981757078,47.244096,6,P-GPS,
8900,2022-11-02 22:21:55,-34.9197634831655,-56.1689535874265,48.556432,51.509188,41.62296557078,93.13215357078,40.682416,15.0322368,74.41601288,75.533466984,22,5,8.205,93.13215357078,48.556432,15.0322368,74.41601288,1.11847,-14.987498,-6.487126,274.6, -14.9, 3.1,0,0,1684,1024,1684,1024,100,0,100,0,293.2,0,0,93,4.111,4.103,0,0,0,0,6.271,78.8,93.13215357078,48.556432,6,P-GPS,
9000,2022-11-02 22:21:55,-34.9197629754401,-56.168961243009,49.540684,52.5590568,41.55734877078,94.11640557078,40.682416,15.2559308,76.712928964,77.831039236,22,5,8.205,94.11640557078,49.540684,15.2559308,76.712928964,1.11847,-15.211192,-6.71082,274.6, -14.9, 3.2,0,0,1684,1024,1684,1024,100,0,100,0,293.2,0,0,93,4.111,4.103,0,0,0,0,6.271,78.8,94.11640557078,49.540684,6,P-GPS,
9100,2022-11-02 22:21:55,-34.9197624944339,-56.168968611728,50.524936,53.641734,41.45892357078,95.10065757078,40.682416,15.2559308,78.923558956,80.042325396,22,5,8.205,95.10065757078,50.524936,15.2559308,78.923558956,1.11847,-15.211192,-6.487126,274.6, -14.8, 3.1,0,0,1684,1024,1684,1024,100,0,100,0,293.2,0,0,93,4.111,4.103,0,0,0,0,6.271,78.8,95.10065757078,50.524936,6,P-GPS,
9200,2022-11-02 22:21:55,-34.9197620106336,-56.1689765246266,51.509188,54.6916028,41.39330677078,96.08490957078,40.682416,15.4796248,81.296918612,82.41634122,22,5,8.205,96.08490957078,51.509188,15.4796248,81.296918612,1.11847,-15.434886,-6.71082,274.7, -14.3, 3.4,0,0,1684,1024,1684,1024,100,0,100,0,293.2,0,0,93,4.111,4.103,0,0,0,0,6.271,78.8,96.08490957078,51.509188,6,P-GPS,
9300,2022-11-02 22:21:55,-34.9197614607924,-56.1689843008011,52.49344,55.77428,41.29488157078,97.06916157078,40.682416,15.4796248,83.630580104,84.751315048,22,5,8.205,97.06916157078,52.49344,15.4796248,83.630580104,1.11847,-15.434886,-6.71082,274.6, -14.3, 3.7,0,0,1684,1024,1684,1024,100,0,100,0,293.2,0,0,93,4.111,4.103,0,0,0,0,6.271,78.8,97.06916157078,52.49344,6,P-GPS,
9400,2022-11-02 22:21:55,-34.9197610032016,-56.1689922210134,53.477692,56.8241488,41.22926477078,98.05341357078,40.682416,15.7033188,86.00558018,87.126315124,22,5,8.205,98.05341357078,53.477692,15.7033188,86.00558018,1.11847,-15.65858,-6.71082,274.6, -14.6, 3.7,0,0,1684,1024,1684,1024,100,0,100,0,293.2,0,0,93,4.111,4.103,0,0,0,0,6.271,78.8,98.05341357078,53.477692,6,P-GPS,
9500,2022-11-02 22:21:55,-34.9197605679348,-56.1689997789478,54.461944,57.8740176,41.16364797078,99.03766557078,40.682416,15.7033188,88.271984452,89.39304748,22,5,8.205,99.03766557078,54.461944,15.7033188,88.271984452,1.11847,-15.65858,-6.71082,274.6, -14.8, 3.8,0,0,1684,1024,1684,1024,100,0,100,0,293.2,0,0,93,4.1,4.089,0,0,0,0,6.271,78.8,99.03766557078,54.461944,6,P-GPS,
9600,2022-11-02 22:21:56,-34.9197601200834,-56.1690077093574,55.446196,58.9566948,41.06522277078,100.02191757078,40.682416,15.7033188,90.649937284,91.771000312,22,5,8.205,100.02191757078,55.446196,15.7033188,90.649937284,1.11847,-15.65858,-6.71082,274.5, -14.6, 3.9,0,0,1684,1013,1684,1024,100,-2,100,0,293.2,0,0,93,4.1,4.089,0,0,0,0,6.271,78.8,100.02191757078,55.446196,6,P-GPS,
9700,2022-11-02 22:21:56,-34.9197596815357,-56.1690152628617,56.430448,60.0065636,40.99960597078,101.00616957078,40.682416,15.7033188,92.915357304,94.036420332,22,5,8.205,101.00616957078,56.430448,15.7033188,92.915357304,1.11847,-15.65858,-6.487126,274.5, -14.6, 4,0,0,1684,1004,1684,1024,100,-3,100,0,293.2,0,0,93,4.1,4.089,0,0,0,0,6.271,78.8,101.00616957078,56.430448,6,P-GPS,
9800,2022-11-02 22:21:56,-34.9197591601018,-56.1690230863245,57.4147,61.0892408,40.90118077078,101.99042157078,40.682416,15.9270128,95.262798324,96.384845604,22,5,8.205,101.99042157078,57.4147,15.9270128,95.262798324,1.11847,-15.882274,-6.487126,274.5, -14.7, 3.8,0,0,1684,1005,1684,1024,100,-3,100,0,293.2,0,0,93,4.1,4.089,0,0,0,0,6.271,78.8,101.99042157078,57.4147,6,P-GPS,
9900,2022-11-02 22:21:56,-34.9197586654795,-56.1690305484288,58.398952,62.1391096,40.83556397078,102.97467357078,40.682416,15.9270128,97.501971624,98.624346988,22,5,8.205,102.97467357078,58.398952,15.9270128,97.501971624,1.11847,-15.882274,-6.487126,274.5, -14.8, 3.6,0,0,1684,1006,1684,1024,100,-3,100,0,293.2,0,0,93,4.1,4.089,0,0,0,0,6.271,78.8,102.97467357078,58.398952,6,P-GPS,
10000,2022-11-02 22:21:56,-34.9197581824447,-56.169038356282,59.383204,63.2217868,40.73713877078,103.95892557078,40.682416,15.9270128,99.843835216,100.966866748,22,5,8.205,103.95892557078,59.383204,15.9270128,99.843835216,1.11847,-15.882274,-6.487126,274.5, -14.7, 3.9,0,0,1684,998,1684,1024,100,-4,100,0,293.2,0,0,93,4.1,4.089,0,0,0,0,6.271,78.8,103.95892557078,59.383204,6,P-GPS,
10100,2022-11-02 22:21:56,-34.919757712282,-56.1690458629161,60.367456,64.2716556,40.67152197078,104.94317757078,40.682416,16.1507068,102.095803792,103.218835324,22,5,8.205,104.94317757078,60.367456,16.1507068,102.095803792,1.11847,-16.105968,-6.487126,274.6, -14.7, 3.8,0,0,1684,999,1684,1024,100,-4,100,0,293.2,0,0,93,4.1,4.089,0,0,0,0,6.271,78.8,104.94317757078,60.367456,6,P-GPS,
10200,2022-11-02 22:21:56,-34.9197571103822,-56.1690538591697,61.351708,65.3871412,40.54028837078,105.92742957078,40.682416,16.1507068,104.496722504,105.621066372,22,5,8.205,105.92742957078,61.351708,16.1507068,104.496722504,1.11847,-16.105968,-6.487126,274.6, -14.8, 3.9,0,0,1684,999,1684,1024,100,-4,100,0,293.2,0,0,93,4.1,4.089,0,0,0,0,6.271,78.8,105.92742957078,61.351708,6,P-GPS,
10300,2022-11-02 22:21:56,-34.9197565939066,-56.1690616669603,62.33596,66.43701,40.47467157078,106.91168157078,40.682416,16.1507068,106.839570348,107.964570384,22,5,8.205,106.91168157078,62.33596,16.1507068,106.839570348,1.11847,-16.105968,-6.487126,274.5, -15.1, 3.7,0,0,1684,998,1684,1024,100,-4,100,0,293.2,0,0,93,4.1,4.089,0,0,0,0,6.271,78.8,106.91168157078,62.33596,6,P-GPS,
10400,2022-11-02 22:21:56,-34.9197560573896,-56.1690696619392,63.320212,67.5196872,40.37624637078,107.89593357078,40.682416,16.1507068,109.23884864,110.364504844,22,5,8.205,107.89593357078,63.320212,16.1507068,109.23884864,1.11847,-16.105968,-6.487126,274.5, -15.1, 3.5,0,0,1684,998,1684,1024,100,-4,100,0,293.2,0,0,93,4.1,4.089,0,0,0,0,6.271,78.8,107.89593357078,63.320212,6,P-GPS,
10500,2022-11-02 22:21:56,-34.9197555435691,-56.1690772773173,64.304464,68.569556,40.31062957078,108.88018557078,40.682416,16.1507068,111.524281784,112.650266072,22,5,8.202,108.88018557078,64.304464,16.1507068,111.524281784,1.11847,-16.105968,-6.487126,274.5, -15.3, 3.3,0,0,1684,990,1684,1024,100,-5,100,0,293.2,0,0,93,4.093,4.078,0,0,0,0,6.259,78.8,108.88018557078,64.304464,6,P-GPS,
10600,2022-11-02 22:21:57,-34.9197550252672,-56.16908461511,65.288716,69.6522332,40.21220437078,109.86443757078,40.682416,16.1507068,113.72703776,114.853678216,22,5,8.202,109.86443757078,65.288716,16.1507068,113.72703776,1.11847,-16.105968,-6.487126,274.6, -15.6, 3.2,0,0,1684,986,1684,1024,100,-6,100,0,293.2,0,0,93,4.093,4.078,0,0,0,0,6.259,78.8,109.86443757078,65.288716,6,P-GPS,
10700,2022-11-02 22:21:57,-34.9197545123472,-56.1690922842332,66.272968,70.702102,40.14658757078,110.84868957078,40.682416,16.3744008,116.02854702,117.15551556,22,5,8.202,110.84868957078,66.272968,16.3744008,116.02854702,1.11847,-16.329662,-6.487126,274.6, -15.4, 3.2,0,0,1684,987,1684,1024,100,-6,100,0,293.2,0,0,93,4.093,4.078,0,0,0,0,6.259,78.8,110.84868957078,66.272968,6,P-GPS,
10800,2022-11-02 22:21:57,-34.9197539061239,-56.1691008707842,67.25722,71.8175876,40.01535397078,111.83294157078,40.682416,16.3744008,118.605974924,119.733599632,22,5,8.202,111.83294157078,67.25722,16.3744008,118.605974924,1.11847,-16.329662,-6.71082,274.4, -15.6, 3,0,0,1684,987,1684,1024,100,-6,100,0,293.2,0,0,93,4.093,4.078,0,0,0,0,6.259,78.8,111.83294157078,67.25722,6,P-GPS,
10900,2022-11-02 22:21:57,-34.9197533363916,-56.1691090290044,68.241472,72.9330732,39.88412037078,112.81719357078,40.682416,16.5980948,121.0547939,122.183074776,22,5,8.202,112.81719357078,68.241472,16.5980948,121.0547939,1.11847,-16.553356,-6.71082,274.5, -15.7, 3.1,0,0,1684,987,1684,1024,100,-6,100,0,293.2,0,0,93,4.093,4.078,0,0,0,0,6.259,78.8,112.81719357078,68.241472,6,P-GPS,
11000,2022-11-02 22:21:57,-34.9197526004913,-56.1691179394887,69.225724,73.982942,39.81850357078,113.80144557078,40.682416,16.5980948,123.732287424,124.86220872,22,5,8.202,113.80144557078,69.225724,16.5980948,123.732287424,1.11847,-16.553356,-6.71082,274.6, -15.1, 3,0,0,1684,987,1684,1024,100,-6,100,0,293.2,0,0,93,4.093,4.078,0,0,0,0,6.259,78.8,113.80144557078,69.225724,6,P-GPS,
11100,2022-11-02 22:21:57,-34.919752050148,-56.1691258825614,70.209976,75.0984276,39.68726997078,114.78569757078,40.682416,16.5980948,126.116473852,127.247051316,22,5,8.202,114.78569757078,70.209976,16.5980948,126.116473852,1.342164,-16.553356,-6.71082,274.7, -14.8, 3.2,0,0,1684,987,1684,1024,100,-6,100,0,293.2,0,0,93,4.093,4.078,0,0,0,0,6.259,78.8,114.78569757078,70.209976,6,P-GPS,
11200,2022-11-02 22:21:57,-34.9197514407599,-56.169134243475,71.194228,76.1811048,39.58884477078,115.76994957078,40.682416,16.5980948,128.62697262,129.758206252,22,5,8.202,115.76994957078,71.194228,16.5980948,128.62697262,1.11847,-16.553356,-6.71082,274.8, -14.9, 3,0,0,1684,986,1684,1024,100,-6,100,0,293.2,0,0,93,4.093,4.078,0,0,0,0,6.259,78.8,115.76994957078,71.194228,6,P-GPS,
11300,2022-11-02 22:21:57,-34.9197508641946,-56.1691422164711,72.17848,77.263782,39.49041957078,116.75420157078,40.682416,16.5980948,131.020673484,132.152563284,22,5,8.202,116.75420157078,72.17848,16.5980948,131.020673484,1.11847,-16.553356,-6.71082,274.7, -14.9, 3,0,0,1684,986,1684,1024,100,-6,100,0,293.2,0,0,93,4.093,4.078,0,0,0,0,6.259,78.8,116.75420157078,72.17848,6,P-GPS,
11400,2022-11-02 22:21:57,-34.9197502338777,-56.1691506056782,73.162732,78.3464592,39.39199437078,117.73845357078,40.682416,16.8217888,133.54003052,134.672904572,22,5,8.202,117.73845357078,73.162732,16.8217888,133.54003052,1.11847,-16.77705,-6.71082,274.6, -15, 2.9,0,0,1684,985,1684,1024,100,-6,100,0,293.2,0,0,93,4.093,4.078,0,0,0,0,6.259,78.8,117.73845357078,73.162732,6,P-GPS,
11500,2022-11-02 22:21:57,-34.9197496963088,-56.1691586438705,74.146984,79.4291364,39.29356917078,118.72270557078,40.682416,16.8217888,135.952432172,137.085634308,22,5,8.189,118.72270557078,74.146984,16.8217888,135.952432172,1.11847,-16.77705,-6.487126,274.6, -15.4, 2.7,0,0,1684,984,1684,1024,100,-6,100,0,293.2,0,0,93,4.087,4.076,0,0,0,0,6.366,78.8,118.72270557078,74.146984,6,P-GPS,
11600,2022-11-02 22:21:58,-34.9197491508826,-56.1691670741177,75.131236,80.544622,39.16233557078,119.70695757078,40.682416,16.8217888,138.481959812,139.615490032,22,5,8.189,119.70695757078,75.131236,16.8217888,138.481959812,1.11847,-16.77705,-6.487126,274.7, -15.3, 2.7,0,0,1684,982,1684,1024,100,-6,100,0,293.2,0,0,93,4.087,4.076,0,0,0,0,6.366,78.8,119.70695757078,75.131236,6,P-GPS,
11700,2022-11-02 22:21:58,-34.9197486402938,-56.1691751244299,75.787404,81.364832,38.99829357078,120.36312557078,40.682416,16.8217888,140.89731422,142.03084444,22,5,8.189,120.36312557078,75.787404,16.8217888,140.89731422,1.11847,-16.77705,-6.487126,274.7, -15.2, 2.8,0,0,1684,984,1684,1024,100,-6,100,0,293.2,0,0,93,4.087,4.076,0,0,0,0,6.366,78.8,120.36312557078,75.787404,6,P-GPS,
11800,2022-11-02 22:21:58,-34.9197481110478,-56.1691836544775,76.771656,82.6115512,38.73582637078,121.34737757078,40.682416,16.8217888,143.45636942,144.58989964,22,5,8.189,121.34737757078,76.771656,16.8217888,143.45636942,1.11847,-16.77705,-6.487126,274.7, -15.3, 3.1,0,0,1684,983,1684,1024,100,-6,100,0,293.2,0,0,93,4.087,4.076,0,0,0,0,6.366,78.8,121.34737757078,76.771656,6,P-GPS,
11900,2022-11-02 22:21:58,-34.9197476529991,-56.1691917482955,77.755908,83.7598452,38.57178437078,122.33162957078,40.682416,17.0454828,145.883534852,147.017065072,22,5,8.189,122.33162957078,77.755908,17.0454828,145.883534852,1.11847,-17.000744,-6.487126,274.6, -14.8, 3.3,0,0,1684,979,1684,1024,100,-7,100,0,293.2,0,0,93,4.087,4.076,0,0,0,0,6.366,78.8,122.33162957078,77.755908,6,P-GPS,
12000,2022-11-02 22:21:58,-34.9197471430551,-56.1692003095203,78.74016,84.973756,38.34212557078,123.31588157078,40.682416,17.0454828,148.45144832,149.58497854,22,5,8.189,123.31588157078,78.74016,17.0454828,148.45144832,1.11847,-17.000744,-6.487126,274.6, -14.6, 3.5,0,0,1684,975,1684,1024,100,-7,100,0,293.2,0,0,93,4.087,4.076,0,0,0,0,6.366,78.8,123.31588157078,78.74016,6,P-GPS,
12100,2022-11-02 22:21:58,-34.9197466649896,-56.1692084589224,79.724412,86.1548584,38.14527517078,124.30013357078,40.682416,17.0454828,150.89567412,152.02920434,22,5,8.189,124.30013357078,79.724412,17.0454828,150.89567412,1.11847,-17.000744,-6.487126,274.6, -14.7, 3.5,0,0,1684,975,1684,1024,100,-7,100,0,293.2,0,0,93,4.087,4.076,0,0,0,0,6.366,78.8,124.30013357078,79.724412,6,P-GPS,
12200,2022-11-02 22:21:58,-34.9197461585468,-56.1692170239085,80.708664,87.3687692,37.91561637078,125.28438557078,40.682416,17.0454828,153.46457184,154.59810206,22,5,8.189,125.28438557078,80.708664,17.0454828,153.46457184,1.11847,-17.000744,-6.487126,274.6, -15, 3.3,0,0,1684,975,1684,1024,100,-7,100,0,293.2,0,0,93,4.087,4.076,0,0,0,0,6.366,78.8,125.28438557078,80.708664,6,P-GPS,
12300,2022-11-02 22:21:58,-34.919745639218,-56.1692251402527,81.692916,88.5498716,37.71876597078,126.26863757078,40.682416,17.0454828,155.899939372,157.033797676,22,5,8.189,126.26863757078,81.692916,17.0454828,155.899939372,1.11847,-17.000744,-6.71082,274.6, -15.3, 3.4,0,0,1684,975,1684,1024,100,-7,100,0,293.2,0,0,93,4.087,4.076,0,0,0,0,6.366,78.8,126.26863757078,81.692916,6,P-GPS,
12400,2022-11-02 22:21:58,-34.9197451210195,-56.1692337668826,82.677168,89.7965908,37.45629877078,127.25288957078,40.682416,17.0454828,158.48753788,159.621396184,22,5,8.189,127.25288957078,82.677168,17.0454828,158.48753788,1.11847,-17.000744,-6.71082,274.7, -15.5, 3.3,0,0,1684,975,1684,1024,100,-7,100,0,293.2,0,0,93,4.087,4.076,0,0,0,0,6.366,78.8,127.25288957078,82.677168,6,P-GPS,
12500,2022-11-02 22:21:58,-34.9197446367202,-56.1692419811465,83.66142,90.9448848,37.29225677078,128.23714157078,40.682416,17.0454828,160.951120636,162.08497894,22,5,8.153,128.23714157078,83.66142,17.0454828,160.951120636,1.11847,-17.000744,-6.71082,274.5, -15.5, 3.8,0,0,1684,975,1684,1024,100,-7,100,0,293.2,0,0,93,4.074,4.058,0,0,0,0,6.747,78.8,128.23714157078,83.66142,6,P-GPS,
12600,2022-11-02 22:21:59,-34.9197441546243,-56.1692505970776,84.645672,92.191604,37.02978957078,129.22139357078,40.682416,17.0454828,163.534782136,164.66864044,22,5,8.153,129.22139357078,84.645672,17.0454828,163.534782136,1.11847,-17.000744,-6.71082,274.5, -15.5, 3.8,0,0,1684,975,1684,1024,100,-7,100,0,293.2,0,0,93,4.074,4.058,0,0,0,0,6.747,78.8,129.22139357078,84.645672,6,P-GPS,
12700,2022-11-02 22:21:59,-34.9197436487824,-56.1692588340348,85.629924,93.3727064,36.83293917078,130.20564557078,40.682416,17.0454828,166.00558274,167.139769128,22,5,8.153,130.20564557078,85.629924,17.0454828,166.00558274,1.11847,-17.000744,-6.71082,274.4, -15.1, 3.2,0,0,1684,975,1684,1024,100,-7,100,0,293.2,0,0,93,4.074,4.058,0,0,0,0,6.747,78.8,130.20564557078,85.629924,6,P-GPS,
12800,2022-11-02 22:21:59,-34.9197431459091,-56.1692674946421,86.614176,94.5866172,36.60328037078,131.18989757078,40.682416,17.0454828,168.603023768,169.737210156,22,5,8.153,131.18989757078,86.614176,17.0454828,168.603023768,1.11847,-17.000744,-6.71082,274.6, -15.1, 2.8,0,0,1684,975,1684,1024,100,-7,100,0,293.2,0,0,93,4.074,4.058,0,0,0,0,6.747,78.8,131.18989757078,86.614176,6,P-GPS,
12900,2022-11-02 22:21:59,-34.9197426628279,-56.1692757740186,87.598428,95.7677196,36.40642997078,132.17414957078,40.682416,17.0454828,171.086291564,172.220149868,22,5,8.153,132.17414957078,87.598428,17.0454828,171.086291564,1.11847,-17.000744,-6.71082,274.6, -15.6, 3,0,0,1684,976,1684,1024,100,-7,100,0,293.2,0,0,93,4.074,4.058,0,0,0,0,6.747,78.8,132.17414957078,87.598428,6,P-GPS,
13000,2022-11-02 22:21:59,-34.9197421281544,-56.1692846478091,88.254596,96.6863548,36.14396277078,132.83031757078,40.682416,17.2691768,173.748037056,174.88189536,22,5,8.153,132.83031757078,88.254596,17.2691768,173.748037056,1.11847,-17.224438,-6.71082,274.6, -15.9, 2.7,0,0,1684,999,1684,1024,100,-4,100,0,293.2,0,0,93,4.074,4.058,0,0,0,0,6.747,78.8,132.83031757078,88.254596,6,P-GPS,
13100,2022-11-02 22:21:59,-34.9197416124099,-56.1692931374435,89.238848,97.8346488,35.97992077078,133.81456957078,40.682416,17.2691768,176.294625064,177.428811452,22,5,8.153,133.81456957078,89.238848,17.2691768,176.294625064,1.11847,-17.224438,-6.71082,274.6, -16.1, 2.6,0,0,1684,986,1684,1024,100,-6,100,0,293.2,0,0,93,4.074,4.058,0,0,0,0,6.747,78.8,133.81456957078,89.238848,6,P-GPS,
13200,2022-11-02 22:21:59,-34.9197410432198,-56.1693021585524,90.2231,99.081368,35.71745357078,134.79882157078,40.682416,17.2691768,179.001318064,180.135504452,22,5,8.153,134.79882157078,90.2231,17.2691768,179.001318064,1.11847,-17.224438,-6.487126,274.8, -15.5, 3,0,0,1684,986,1684,1024,100,-6,100,0,293.2,0,0,93,4.074,4.058,0,0,0,0,6.747,78.8,134.79882157078,90.2231,6,P-GPS,
13300,2022-11-02 22:21:59,-34.9197405130897,-56.1693107269655,91.207352,100.2624704,35.52060317078,135.78307357078,40.682416,17.2691768,181.571856204,182.706042592,22,5,8.153,135.78307357078,91.207352,17.2691768,181.571856204,1.11847,-17.224438,-6.487126,274.6, -14.9, 3.2,0,0,1684,982,1684,1024,100,-6,100,0,293.2,0,0,93,4.074,4.058,0,0,0,0,6.747,78.8,135.78307357078,91.207352,6,P-GPS,
13400,2022-11-02 22:21:59,-34.919739972969,-56.1693194992839,92.191604,101.5091896,35.25813597078,136.76732557078,40.682416,17.4928708,184.203417968,185.33793244,22,5,8.153,136.76732557078,92.191604,17.4928708,184.203417968,1.11847,-17.448132,-6.487126,274.5, -15.1, 3.3,0,0,1684,1024,1612,1024,100,0,89,0,293.2,0,0,92,4.074,4.058,0,0,0,0,6.747,78.8,136.76732557078,92.191604,6,P-GPS,
13500,2022-11-02 22:21:59,-34.9197394671596,-56.1693278433551,93.175856,102.7231004,35.02847717078,137.75157757078,40.682416,17.4928708,186.706370804,187.840885276,22,5,8.159,137.75157757078,93.175856,17.4928708,186.706370804,1.11847,-17.448132,-6.487126,274.6, -14.7, 3.3,0,0,1089,1024,1024,1024,10,0,0,0,293.2,0,0,92,4.081,4.064,0,0,0,0,6.666,78.8,137.75157757078,93.175856,6,P-GPS,
13600,2022-11-02 22:22:00,-34.9197389455788,-56.1693363780417,94.160108,103.9042028,34.83162677078,138.73582957078,40.682416,17.2691768,189.26673834,190.401252812,22,5,8.159,138.73582957078,94.160108,17.4928708,189.26673834,1.11847,-17.224438,-6.263432,274.9, -13.6, 3.8,0,0,1024,1024,1024,1024,0,0,0,0,293.2,0,0,92,4.081,4.064,0,0,0,0,6.666,78.8,138.73582957078,94.160108,6,P-GPS,
13700,2022-11-02 22:22:00,-34.9197384925033,-56.1693446240261,94.816276,104.822838,34.56915957078,139.39199757078,40.682416,17.0454828,191.739179364,192.873693836,22,5,8.159,139.39199757078,94.816276,17.4928708,191.739179364,1.11847,-17.000744,-5.59235,275.6, 6.4, 3.9,0,0,1024,1024,1024,1024,0,0,0,0,293.2,0,0,92,4.081,4.064,0,0,0,0,6.666,78.8,139.39199757078,94.816276,6,P-GPS,
13800,2022-11-02 22:22:00,-34.9197380067548,-56.1693529983969,95.472444,105.6758564,34.37230917078,140.04816557078,40.682416,16.1283374,194.250662384,195.385176856,22,5,8.159,140.04816557078,95.472444,17.4928708,194.250662384,0.894776,-16.105968,-5.59235,275.8, 20.9, 2.7,0,0,1024,1024,1024,1024,0,0,0,0,293.2,0,0,92,4.081,4.064,0,0,0,0,6.666,78.8,140.04816557078,95.472444,6,P-GPS,
13900,2022-11-02 22:22:00,-34.9197375940908,-56.1693604260851,96.128612,106.4960664,34.20826717078,140.70433357078,40.682416,15.0098674,196.477696576,197.612211048,22,5,8.159,140.70433357078,96.128612,17.4928708,196.477696576,0.894776,-14.987498,-5.144962,275.4, 19.7, 1.6,0,0,1024,1024,1024,1024,0,0,0,0,293.2,0,0,92,4.081,4.064,0,0,0,0,6.666,78.8,140.70433357078,96.128612,6,P-GPS,
14000,2022-11-02 22:22:00,-34.9197371717799,-56.169367207871,96.456696,107.0210008,34.01141677078,141.03241757078,40.682416,14.1150914,198.512473544,199.646988016,22,5,8.159,141.03241757078,96.456696,17.4928708,198.512473544,0.671082,-14.092722,-4.250186,275.3, 19.5, 1.2,0,0,1024,1024,1024,1024,0,0,0,0,293.2,0,0,92,4.081,4.064,0,0,0,0,6.666,78.8,141.03241757078,96.456696,6,P-GPS,
14100,2022-11-02 22:22:00,-34.9197368830112,-56.1693736775928,96.78478,107.5131268,33.84737477078,141.36050157078,40.682416,13.42164,200.450793816,201.585308288,22,5,8.159,141.36050157078,96.78478,17.4928708,200.450793816,0.447388,-13.42164,-3.35541,275.2, 19.3, 0.9,0,0,1024,1024,1024,756,0,0,0,-41,293.2,0,0,92,4.081,4.064,0,0,0,0,6.666,78.8,141.36050157078,96.78478,6,P-GPS,
14200,2022-11-02 22:22:00,-34.9197366171221,-56.1693803509273,97.112864,107.9724444,33.71614117078,141.68858557078,40.682416,12.526864,202.44915346,203.583996016,22,5,8.159,141.68858557078,97.112864,17.4928708,202.44915346,0.447388,-12.526864,-2.460634,275.2, 19.1, 0.8,0,0,1024,1024,1024,756,0,0,0,-41,293.2,0,0,92,4.081,4.064,0,0,0,0,6.666,78.8,141.68858557078,97.112864,6,P-GPS,
14300,2022-11-02 22:22:00,-34.9197364135861,-56.1693863244055,97.440948,108.4973788,33.51929077078,142.01666957078,40.682416,12.079476,204.236883176,205.372709984,22,5,8.159,142.01666957078,97.440948,17.4928708,204.236883176,0.223694,-12.079476,-1.565858,275, 19.1, 0.6,0,0,1024,1024,1024,558,0,0,0,-71,292.8,0,0,92,4.081,4.064,0,0,0,0,6.666,78.8,142.01666957078,97.440948,6,P-GPS,
14400,2022-11-02 22:22:00,-34.9197362525754,-56.1693912510247,97.440948,108.6286124,33.38805717078,142.01666957078,40.682416,11.408394,205.711292672,206.847775648,22,5,8.159,142.01666957078,97.440948,17.4928708,205.711292672,0.223694,-11.408394,-0.894776,273.9, 19.8, 0,0,0,1024,1024,1024,444,0,0,0,-88,291.3,0,0,92,4.081,4.064,0,0,0,0,6.666,78.8,142.01666957078,97.440948,6,P-GPS,
14500,2022-11-02 22:22:01,-34.9197361573896,-56.1693960654729,97.440948,108.7270376,33.28963197078,142.01666957078,40.682416,10.513618,207.150925264,208.288392492,22,5,8.154,142.01666957078,97.440948,17.4928708,207.150925264,0,-10.513618,-0.447388,272, 20, -0.6,0,0,1024,1024,1024,364,0,0,0,-100,289,0,0,92,4.182,4.174,0,0,0,0,6.686,78.98,142.01666957078,97.440948,6,P-GPS,
14600,2022-11-02 22:22:01,-34.9197360600151,-56.1694007727235,97.440948,108.8582712,33.15839837078,142.01666957078,40.682416,9.618842,208.55807754,209.696857104,22,5,8.154,142.01666957078,97.440948,17.4928708,208.55807754,0,-9.618842,-0.223694,269.6, 20.1, -1.4,0,0,1024,1024,1024,364,0,0,0,-100,286.2,0,0,92,4.182,4.174,0,0,0,0,6.686,78.98,142.01666957078,97.440948,6,P-GPS,
14700,2022-11-02 22:22:01,-34.9197360132201,-56.169404837666,97.440948,108.9566964,33.05997317078,142.01666957078,40.682416,8.724066,209.772644508,210.913064492,22,5,8.154,142.01666957078,97.440948,17.4928708,209.772644508,0,-8.724066,0,266.7, 19.5, -2.2,0,0,1024,1024,1024,364,0,0,0,-100,283,0,0,92,4.182,4.174,0,0,0,0,6.686,78.98,142.01666957078,97.440948,6,P-GPS,
14800,2022-11-02 22:22:01,-34.9197358281019,-56.1694082505627,97.440948,109.0223132,32.99435637078,142.01666957078,40.682416,7.82929,210.795938504,211.936358488,22,5,8.154,142.01666957078,97.440948,17.4928708,210.795938504,0,-7.82929,0,263.5, 19.7, -2.9,0,0,1024,1024,1024,364,0,0,0,-100,279.8,0,0,92,4.182,4.174,0,0,0,0,6.686,78.98,142.01666957078,97.440948,6,P-GPS,
14900,2022-11-02 22:22:01,-34.9197358616576,-56.169411524792,97.440948,109.08793,32.92873957078,142.01666957078,40.682416,6.934514,211.772316488,212.916017312,22,5,8.154,142.01666957078,97.440948,17.4928708,211.772316488,-0.223694,-6.934514,0,260.1, 20, -3.1,0,0,1024,1024,1024,364,0,0,0,-100,276.6,0,0,92,4.182,4.174,0,0,0,0,6.686,78.98,142.01666957078,97.440948,6,P-GPS,
15000,2022-11-02 22:22:01,-34.919735943399,-56.1694145828708,97.769032,109.5144392,32.83031437078,142.34475357078,40.682416,6.039738,212.683405756,213.831371672,22,5,8.154,142.34475357078,97.769032,17.4928708,212.683405756,-0.223694,-6.039738,0,257.1, 20.5, -2.6,0,0,1024,1024,1024,364,0,0,0,-100,273.4,0,0,92,4.182,4.174,0,0,0,0,6.686,78.98,142.34475357078,97.769032,6,P-GPS,
15100,2022-11-02 22:22:01,-34.9197360372169,-56.1694170632944,97.769032,109.5472476,32.79750597078,142.34475357078,40.682416,6.039738,213.421594756,214.574153848,22,5,8.154,142.34475357078,97.769032,17.4928708,213.421594756,-0.223694,-5.144962,0,254, 19.3, -3.3,0,0,1024,1024,1024,364,0,0,0,-100,270.2,0,0,92,4.182,4.174,0,0,0,0,6.686,78.98,142.34475357078,97.769032,6,P-GPS,
15200,2022-11-02 22:22:01,-34.919736096349,-56.1694191125035,98.097116,109.90814,32.76469757078,142.67283757078,40.682416,4.2725554,214.031830996,215.187670928,22,5,8.154,142.67283757078,98.097116,17.4928708,214.031830996,-0.447388,-4.250186,0,250.7, 17.7, -5.2,0,0,1024,1024,1024,364,0,0,0,-100,267,0,0,92,4.182,4.174,0,0,0,0,6.686,78.98,142.67283757078,98.097116,6,P-GPS,
15300,2022-11-02 22:22:01,-34.9197359573971,-56.1694205764094,98.4252,110.3018408,32.69908077078,143.00092157078,40.682416,4.2725554,214.472119724,215.628615824,22,5,8.154,143.00092157078,98.4252,17.4928708,214.472119724,-0.447388,-3.35541,0,247.4, 17.5, -5.9,0,0,1024,1024,1024,364,0,0,0,-100,263.8,0,0,92,4.182,4.174,0,0,0,0,6.686,78.98,143.00092157078,98.4252,6,P-GPS,
15400,2022-11-02 22:22:01,-34.9197360537195,-56.16942187908,98.753284,110.6299248,32.69908077078,143.32900557078,40.682416,2.5053728,214.85893076,216.019691952,22,5,8.154,143.32900557078,98.753284,17.4928708,214.85893076,-0.447388,-2.460634,0,244.2, 17.3, -5.4,0,0,1024,1024,1024,364,0,0,0,-100,260.6,0,0,92,4.182,4.174,0,0,0,0,6.686,78.98,143.32900557078,98.753284,6,P-GPS,
15500,2022-11-02 22:22:01,-34.9197361539535,-56.1694227374133,99.081368,110.9908172,32.66627237078,143.65708957078,40.682416,1.8342908,215.112539692,216.279206396,22,5,8.321,143.65708957078,99.081368,17.4928708,215.112539692,-0.447388,-1.789552,0,241.3, 14.4, -3.9,0,0,1024,1024,1024,364,0,0,0,-100,257.4,0,0,92,4.138,4.125,0,0,0,0,4.442,78.98,143.65708957078,99.081368,6,P-GPS,
15600,2022-11-02 22:22:02,-34.9197362292691,-56.1694232164383,99.409452,111.3189012,32.66627237078,143.98517357078,40.682416,1.2079476,215.253943896,216.425203776,22,5,8.321,143.98517357078,99.409452,17.4928708,215.253943896,-0.447388,-1.11847,0,238.3, 9.8, -1.8,0,0,1024,1024,1024,364,0,0,0,-100,254.2,0,0,92,4.138,4.125,0,0,0,0,4.442,78.98,143.98517357078,99.409452,6,P-GPS,
15700,2022-11-02 22:22:02,-34.9197360231537,-56.1694234217229,99.737536,111.6469852,32.66627237078,144.31325757078,40.682416,0.9171454,215.320216864,216.52231664,21,5,8.321,144.31325757078,99.737536,17.4928708,215.320216864,-0.223694,-0.894776,0,235.1, 7.5, -0.5,0,0,1024,1024,1024,364,0,0,0,-100,251,0,0,92,4.138,4.125,0,0,0,0,4.442,78.98,144.31325757078,99.737536,6,P-GPS,
15800,2022-11-02 22:22:02,-34.9197360483327,-56.1694236336942,99.737536,111.6797936,32.63346397078,144.31325757078,40.682416,0.4921268,215.382880908,216.58629302,21,5,8.321,144.31325757078,99.737536,17.4928708,215.382880908,-0.223694,-0.447388,0,231.8, 6.1, 0,0,0,1024,1024,1024,364,0,0,0,-100,247.8,0,0,92,4.138,4.125,0,0,0,0,4.442,78.98,144.31325757078,99.737536,6,P-GPS,
