time(millisecond),datetime(utc),latitude,longitude,height_above_takeoff(feet),height_above_ground_at_drone_location(feet),ground_elevation_at_drone_location(feet),altitude_above_seaLevel(feet),height_sonar(feet),speed(mph),distance(feet),mileage(feet),satellites,gpslevel,voltage(v),max_altitude(feet),max_ascent(feet),max_speed(mph),max_distance(feet), xSpeed(mph), ySpeed(mph), zSpeed(mph), compass_heading(degrees), pitch(degrees), roll(degrees),isPhoto,isVideo,rc_elevator,rc_aileron,rc_throttle,rc_rudder,rc_elevator(percent),rc_aileron(percent),rc_throttle(percent),rc_rudder(percent),gimbal_heading(degrees),gimbal_pitch(degrees),gimbal_roll(degrees),battery_percent,voltageCell1,voltageCell2,voltageCell3,voltageCell4,voltageCell5,voltageCell6,current(A),battery_temperature(f),altitude(feet),ascent(feet),flycStateRaw,flycState,message
0,2022-08-11 20:18:49,-34.9287666270117,-56.1628084524911,0,0,6.000885690716,6.000885690716,0.656168,0,0,0,22,5,0,6.000885690716,0,0,0,0,0,0,212.2, 1.4, 0.8,0,0,364,364,364,1684,-100,-100,-100,100,222.8,0,0,74,4.07,4.067,0,0,0,0,0,90.68,6.000885690716,0,41,Motors_Started,"Aeronave en Zona de altitud restringida (150). Vuela con precaución (Code: 190001). Baja velocidad de la tarjeta SD. Puede afectar a su uso normal. Sustituye la tarjeta SD (Code: 10028)"
100,2022-08-11 20:18:49,-34.928766626632,-56.1628084512807,0,0,6.000885690716,6.000885690716,0.656168,0,0.00038767061608,0.00038767061608,22,5,0,6.000885690716,0,0,0.00038767061608,0,0,0,212.2, 1.4, 0.7,0,0,364,364,364,1684,-100,-100,-100,100,222.8,0,0,74,4.07,4.067,0,0,0,0,0,90.68,6.000885690716,0,41,Motors_Started,
200,2022-08-11 20:18:50,-34.9287666263532,-56.1628084502914,0,0,6.000885690716,6.000885690716,0.328084,0,0.00070047902504,0.00070058073108,22,5,0,6.000885690716,0,0,0.00070047902504,0,0,0,212.1, 1.5, 0.7,0,0,364,364,364,1684,-100,-100,-100,100,222.8,0,0,74,4.07,4.067,0,0,0,0,0,90.68,6.000885690716,0,41,Motors_Started,
300,2022-08-11 20:18:50,-34.9287666257297,-56.1628084491923,0,0,6.000885690716,6.000885690716,0.328084,0,0.0010920111898,0.00110038717432,22,5,0,6.000885690716,0,0,0.0010920111898,0,0,0,212.2, 1.5, 0.7,0,0,364,364,364,1684,-100,-100,-100,100,222.7,0,0,74,4.07,4.067,0,0,0,0,0,90.68,6.000885690716,0,41,Motors_Started,
400,2022-08-11 20:18:50,-34.9287666258868,-56.1628084474567,0,0,6.000885690716,6.000885690716,0.328084,0,0.00156086619168,0.0016227198682,22,5,0,6.000885690716,0,0,0.00156086619168,0,0,0,212.2, 1.5, 0.7,0,0,364,364,364,1684,-100,-100,-100,100,222.7,0,0,74,4.07,4.067,0,0,0,0,0,90.68,6.000885690716,0,41,Motors_Started,
500,2022-08-11 20:18:50,-34.9287666235775,-56.1628084516569,0,0,6.000885690716,6.000885690716,0.328084,0,0.00127756565768,0.003135498788,22,5,0,6.000885690716,0,0,0.00156086619168,0,0,0,212.2, 1.5, 0.6,0,0,364,364,364,1684,-100,-100,-100,100,222.7,0,0,74,4.07,4.067,0,0,0,0,0,90.68,6.000885690716,0,41,Motors_Started,
600,2022-08-11 20:18:50,-34.9287666238684,-56.1628084510114,0,0,6.000885690716,6.000885690716,0.328084,0,0.00122927825456,0.0033558400024,22,5,0,6.000885690716,0,0,0.00156086619168,0,0,0,212.2, 1.5, 0.6,0,0,1024,726,1024,1299,0,-45,0,42,222.7,0,0,74,4.07,4.067,0,0,0,0,0,90.68,6.000885690716,0,41,Motors_Started,
700,2022-08-11 20:18:50,-34.9287666244149,-56.1628084499458,0,0,6.000885690716,6.000885690716,0.328084,0,0.00121543967144,0.0037318242664,22,5,0,6.000885690716,0,0,0.00156086619168,0,0,0,212.2, 1.5, 0.6,0,0,1024,1024,1024,1024,0,0,0,0,222.7,0,0,74,4.07,4.067,0,0,0,0,0,90.68,6.000885690716,0,41,Motors_Started,
800,2022-08-11 20:18:50,-34.9287666255752,-56.1628084099574,0,0,6.000885690716,6.000885690716,0.328084,0,0.0127337930584,0.0157009191376,22,5,0,6.000885690716,0,0,0.0127337930584,0,0,0,212.2, 1.5, 0.5,0,0,1024,1024,1024,1024,0,0,0,0,222.7,0,0,74,4.07,4.067,0,0,0,0,0,90.68,6.000885690716,0,41,Motors_Started,"Setting new Return-To-Home altitude to 40m (131 ft). Data Recorder File Index is 17. Setting new Maximum Flight Altitude to 120m (394 ft)"
900,2022-08-11 20:18:50,-34.928766627134,-56.1628082834917,0,0,6.000885690716,6.000885690716,0.328084,0,0.050552166972,0.053534450532,21,5,0,6.000885690716,0,0,0.050552166972,0,0,0,212.2, 1.5, 0.5,0,0,1024,1024,1334,1094,0,0,47,11,222.7,0,0,74,4.07,4.067,0,0,0,0,0,90.68,6.000885690716,0,41,Motors_Started,
1000,2022-08-11 20:18:50,-34.9287666262339,-56.1628082601797,0,0,6.000885690716,6.000885690716,0.328084,0,0.05752624856,0.060515421884,21,5,0,6.000885690716,0,0,0.05752624856,0,0,0,212.2, 1.5, 0.6,0,0,1024,1024,1684,1082,0,0,100,9,222.7,0,0,74,4.07,4.067,0,0,0,0,0,90.68,6.000885690716,0,41,Motors_Started,
1100,2022-08-11 20:18:50,-34.9287666245951,-56.162808242907,0,0,6.000885690716,6.000885690716,0.328084,0,0.06269849282,0.06571686562,21,5,0,6.000885690716,0,0,0.06269849282,0,0,0,212.2, 1.5, 0.5,0,0,1024,1024,1684,1091,0,0,100,10,222.7,0,0,74,4.07,4.067,0,0,0,0,0,90.68,6.000885690716,0,10,Assisted_Takeoff,
1200,2022-08-11 20:18:51,-34.9287666234578,-56.1628082743956,0,0,6.000885690716,6.000885690716,0.328084,0,0.0532890437,0.075145015528,21,5,0,6.000885690716,0,0,0.06269849282,0,0,0,212.1, 1.5, 0.6,0,0,1024,1024,1684,1090,0,0,100,10,222.7,0,0,74,4.07,4.067,0,0,0,0,0,90.68,6.000885690716,0,10,Assisted_Takeoff,
1300,2022-08-11 20:18:51,-34.9287666271301,-56.162808439606,0,0,6.000885690716,6.000885690716,0.328084,0,0.0038545276824,0.124582024984,21,5,0,6.000885690716,0,0,0.06269849282,0,0,0,212.2, 1.4, 0.6,0,0,1024,1024,1684,1090,0,0,100,10,222.7,0,0,74,4.07,4.067,0,0,0,0,0,90.68,6.000885690716,0,10,Assisted_Takeoff,
1400,2022-08-11 20:18:51,-34.9287666276793,-56.162808468979,0,0,6.000885690716,6.000885690716,0.328084,0,0.0049379594756,0.133370411092,21,5,8.144,6.000885690716,0,0,0.06269849282,0,0,0,212.2, 1, 0.7,0,0,1024,1024,1684,1090,0,0,100,10,222.7,0,0,74,4.07,4.067,0,0,0,0,1.183,90.68,6.000885690716,0,10,Assisted_Takeoff,
1500,2022-08-11 20:18:51,-34.9287666280677,-56.1628084892395,0,0,6.000885690716,6.000885690716,0.328084,0,0.010999180142,0.139432747244,21,5,8.144,6.000885690716,0,0,0.06269849282,0,0,0,212.3, 0.7, 0.8,0,0,1024,1024,1684,1084,0,0,100,9,222.7,0,0,74,4.07,4.067,0,0,0,0,1.183,90.68,6.000885690716,0,10,Assisted_Takeoff,
1600,2022-08-11 20:18:51,-34.9287666700932,-56.1628084593143,0,0,6.000885690716,6.000885690716,0.328084,0,0.015850230166,0.157187340988,21,5,8.144,6.000885690716,0,0,0.06269849282,0,0,0,212.7, -0.4, 0.5,0,0,1024,1024,1446,1024,0,0,64,0,222.8,0,0,74,4.07,4.067,0,0,0,0,1.183,90.68,6.000885690716,0,10,Assisted_Takeoff,
1700,2022-08-11 20:18:51,-34.9287668189045,-56.1628083558333,0,0,6.000885690716,6.000885690716,0.328084,0,0.075747049668,0.2196850464,21,5,8.144,6.000885690716,0,0,0.075747049668,0,0,-0.223694,213.1, -1.5, 0.6,0,0,1024,1024,1306,1024,0,0,43,0,223.2,0,0,74,4.07,4.067,0,0,0,0,1.183,90.68,6.000885690716,0,10,Assisted_Takeoff,"Baja velocidad de la tarjeta SD. Puede afectar a su uso normal. Sustituye la tarjeta SD (Code: 10028)"
1800,2022-08-11 20:18:51,-34.9287669162524,-56.1628084039669,0,0,6.000885690716,6.000885690716,0.328084,0,0.106522969288,0.258009850776,21,5,8.144,6.000885690716,0,0,0.106522969288,0,0,-0.671082,213.2, -0.4, 0.3,0,0,1024,1024,1684,1024,0,0,100,0,223.2,0,0,74,4.07,4.067,0,0,0,0,1.183,90.68,6.000885690716,0,6,P-GPS,
1900,2022-08-11 20:18:51,-34.9287670239213,-56.1628084820686,0.328084,0.328084,6.000885690716,6.328969690716,0.656168,0,0.145082353724,0.303714576648,21,5,8.144,6.328969690716,0.328084,0,0.145082353724,0,0,-0.894776,213, 1.1, -0.3,0,0,1024,1024,1601,1027,0,0,87,0,223.2,0,0,74,4.07,4.067,0,0,0,0,1.183,90.68,6.328969690716,0.328084,6,P-GPS,"Baja velocidad de la tarjeta SD. Puede afectar a su uso normal. Sustituye la tarjeta SD (Code: 10028)"
2100,2022-08-11 20:18:52,-34.9287671358689,-56.162808524941,0.656168,0.656168,6.000885690716,6.657053690716,0.656168,0,0.186917000732,0.34652560164,21,5,8.144,6.657053690716,0.656168,0,0.186917000732,0,0,-1.565858,212.5, 0.4, -0.1,0,0,1024,1024,1024,1024,0,0,0,0,223.2,0,0,74,4.07,4.067,0,0,0,0,1.183,90.68,6.657053690716,0.656168,6,P-GPS,
2200,2022-08-11 20:18:52,-34.9287672560216,-56.1628086149894,0.984252,0.984252,6.000885690716,6.985137690716,0.984252,0,0.23458498126,0.39797573452,21,5,8.144,6.985137690716,0.984252,0,0.23458498126,0,0,-2.013246,212.7, 0, 0.9,0,0,1024,1024,1024,1024,0,0,0,0,223.2,0,0,74,4.07,4.067,0,0,0,0,1.183,90.68,6.985137690716,0.984252,6,P-GPS,
2300,2022-08-11 20:18:52,-34.9287673643672,-56.162808649748,0.984252,0.984252,6.000885690716,6.985137690716,1.312336,0.223694,0.275418643984,0.43885172008,22,5,8.144,6.985137690716,0.984252,0.223694,0.275418643984,-0.223694,0,-2.23694,212.6, 1, 1.3,0,0,1024,1024,1024,1024,0,0,0,0,223.2,0,0,74,4.07,4.067,0,0,0,0,1.183,90.68,6.985137690716,0.984252,6,P-GPS,
2400,2022-08-11 20:18:52,-34.9287673811142,-56.1628086973787,1.312336,1.312336,6.000885690716,7.313221690716,1.64042,0,0.284718513048,0.45435368908,22,5,8.144,7.313221690716,1.312336,0.223694,0.284718513048,0,0,-2.013246,212.7, 2.1, 1.3,0,0,1024,1024,1024,1024,0,0,0,0,223.2,0,0,74,4.07,4.067,0,0,0,0,1.183,90.68,7.313221690716,1.312336,6,P-GPS,
2500,2022-08-11 20:18:52,-34.9287673655623,-56.1628087610445,1.64042,1.64042,6.000885690716,7.641305690716,1.968504,0,0.284828421188,0.47422573696,23,5,8.056,7.641305690716,1.64042,0.223694,0.284828421188,0,0,-1.565858,212.7, 2.3, 0.1,0,0,1024,1024,1024,1024,0,0,0,0,223.2,0,0,74,4.016,4.006,0,0,0,0,3.203,90.68,7.641305690716,1.64042,6,P-GPS,
2600,2022-08-11 20:18:52,-34.9287669541783,-56.1628090455552,1.968504,1.968504,6.000885690716,7.969389690716,1.968504,0,0.213821529152,0.6467683934,23,5,8.056,7.969389690716,1.968504,0.223694,0.284828421188,0,0,-1.11847,212.8, 1.7, 0.2,0,0,1294,1024,1024,1024,41,0,0,0,223.2,0,0,74,4.016,4.006,0,0,0,0,3.203,90.68,7.969389690716,1.968504,6,P-GPS,
2700,2022-08-11 20:18:52,-34.9287668672065,-56.1628091576549,1.968504,1.968504,6.000885690716,7.969389690716,2.296588,0,0.22841372122,0.69293309304,23,5,8.056,7.969389690716,1.968504,0.223694,0.284828421188,0,0,-0.671082,212.8, 1.3, 0.4,0,0,1684,1024,1024,1024,100,0,0,0,223.2,0,0,74,4.016,4.006,0,0,0,0,3.203,90.68,7.969389690716,1.968504,6,P-GPS,
2800,2022-08-11 20:18:52,-34.9287668788108,-56.1628092225969,1.968504,1.968504,6.000885690716,7.969389690716,2.296588,0,0.248002632608,0.71281498344,23,5,8.056,7.969389690716,1.968504,0.223694,0.284828421188,0,0,-0.223694,212.7, -7.1, 0.9,0,0,1684,1024,1024,1024,100,0,0,0,223.2,0,0,74,4.016,4.006,0,0,0,0,3.203,90.68,7.969389690716,1.968504,6,P-GPS,
2900,2022-08-11 20:18:52,-34.9287670122936,-56.162809340429,1.968504,1.968504,6.000885690716,7.969389690716,2.296588,0.4921268,0.300510508304,0.7729330956,22,5,8.056,7.969389690716,1.968504,0.4921268,0.300510508304,-0.447388,-0.223694,0,212.6, -18, 1.7,0,0,1684,1024,1024,1024,100,0,0,0,223.2,0,0,74,4.016,4.006,0,0,0,0,3.203,90.68,7.969389690716,1.968504,6,P-GPS,
3000,2022-08-11 20:18:52,-34.9287674143617,-56.1628096460926,1.968504,1.968504,6.000885690716,7.969389690716,2.296588,1.006623,0.45825460784,0.94578743184,22,5,8.056,7.969389690716,1.968504,1.006623,0.45825460784,-0.894776,-0.447388,0,212.6, -20.9, 1.5,0,0,1684,1024,1024,1024,100,0,0,0,223.2,0,0,74,4.016,4.006,0,0,0,0,3.203,90.68,7.969389690716,1.968504,6,P-GPS,
3100,2022-08-11 20:18:53,-34.928767965282,-56.1628101508736,1.968504,2.0013124,5.968077290716,7.969389690716,2.296588,1.9237684,0.70462928764,1.19718835852,22,5,8.056,7.969389690716,1.968504,1.9237684,0.70462928764,-1.565858,-1.11847,0,212.6, -20.7, 0.8,0,0,1684,1024,1200,1024,100,0,27,0,223.2,0,0,74,4.016,4.006,0,0,0,0,3.203,90.68,7.969389690716,1.968504,6,P-GPS,
3200,2022-08-11 20:18:53,-34.928768881103,-56.1628109127313,1.968504,2.0669292,5.902460490716,7.969389690716,2.296588,2.796175,1.10359911668,1.6016404712,22,5,8.056,7.969389690716,1.968504,2.796175,1.10359911668,-2.460634,-1.342164,0,212.9, -20, 0.7,0,0,1684,1024,1200,1024,100,0,27,0,223.2,0,0,74,4.016,4.006,0,0,0,0,3.203,90.68,7.969389690716,1.968504,6,P-GPS,
3300,2022-08-11 20:18:53,-34.9287701507092,-56.1628119378369,1.968504,2.0997376,5.869652090716,7.969389690716,2.296588,3.5343652,1.65521986924,2.1571523,22,5,8.056,7.969389690716,1.968504,3.5343652,1.65521986924,-2.908022,-2.013246,0,213, -19, 1.2,0,0,1474,1024,1684,1024,68,0,100,0,223.2,0,0,74,4.016,4.006,0,0,0,0,3.203,90.68,7.969389690716,1.968504,6,P-GPS,
3400,2022-08-11 20:18:53,-34.9287723485362,-56.1628134188732,1.968504,2.1653544,5.804035290716,7.969389690716,2.296588,4.6528352,2.56214247044,3.07326781488,22,5,8.056,7.969389690716,1.968504,4.6528352,2.56214247044,-3.802798,-2.684328,-0.223694,213.1, -16.7, 0.8,0,0,1024,1024,1684,1024,0,0,100,0,223.2,0,0,74,4.016,4.006,0,0,0,0,3.203,90.68,7.969389690716,1.968504,6,P-GPS,
3500,2022-08-11 20:18:53,-34.928774101693,-56.1628147272984,1.968504,2.2309712,5.738418490716,7.969389690716,2.296588,5.144962,3.3106300272,3.823162852,22,5,8.065,7.969389690716,1.968504,5.144962,3.3106300272,-4.250186,-2.908022,-0.894776,213.4, -1.9, 1,0,0,1024,1024,1684,1024,0,0,100,0,223.2,0,0,74,4.025,4.017,0,0,0,0,4.023,90.68,7.969389690716,1.968504,6,P-GPS,
3600,2022-08-11 20:18:53,-34.9287760048807,-56.1628162199326,2.296588,2.624672,5.672801690716,8.297473690716,2.624672,4.7870516,4.135826904,4.6486878128,22,5,8.065,8.297473690716,2.296588,5.144962,4.135826904,-3.802798,-2.908022,-1.565858,213.8, 17, 1.4,0,0,1024,1024,1684,1024,0,0,100,0,223.2,0,0,74,4.025,4.017,0,0,0,0,4.023,90.68,8.297473690716,2.296588,6,P-GPS,
3700,2022-08-11 20:18:53,-34.9287777799417,-56.1628176237336,2.624672,3.0183728,5.607184890716,8.625557690716,2.952756,3.8475368,4.9075460888,5.4205382312,22,5,8.065,8.625557690716,2.624672,5.144962,4.9075460888,-3.131716,-2.23694,-2.460634,213.8, 18.3, 1.1,0,0,1024,1024,1684,1024,0,0,100,0,223.2,0,0,74,4.025,4.017,0,0,0,0,4.023,90.68,8.625557690716,2.624672,6,P-GPS,
3800,2022-08-11 20:18:53,-34.9287792152253,-56.1628186455997,2.952756,3.3792652,5.574376490716,8.953641690716,3.608924,2.8632832,5.5127626436,6.0268702716,22,5,8.065,8.953641690716,2.952756,5.144962,5.5127626436,-2.23694,-1.789552,-3.131716,213.9, 14.7, 0.5,0,0,1228,1024,1684,1024,31,0,100,0,223.2,0,0,74,4.025,4.017,0,0,0,0,4.023,90.68,8.953641690716,2.952756,6,P-GPS,
3900,2022-08-11 20:18:53,-34.9287813682726,-56.1628199709854,3.608924,4.10105,5.508759690716,9.609809690716,3.937008,1.9237684,6.3873361624,6.9067915596,23,5,8.065,9.609809690716,3.608924,5.144962,6.3873361624,-1.565858,-1.11847,-4.026492,213.9, 10.5, 0.3,0,0,1684,1024,1501,1024,100,0,72,0,223.2,0,0,74,4.025,4.017,0,0,0,0,4.023,90.68,9.609809690716,3.608924,6,P-GPS,
4000,2022-08-11 20:18:53,-34.9287820537302,-56.1628205523691,4.265092,4.8228348,5.443142890716,10.265977690716,4.593176,1.2974252,6.6917324976,7.2114175536,23,5,8.065,10.265977690716,4.265092,5.144962,6.6917324976,-1.11847,-0.671082,-4.921268,214.1, -0.5, 0.3,0,0,1684,1024,1024,1024,100,0,0,0,223.2,0,0,74,4.025,4.017,0,0,0,0,4.023,90.68,10.265977690716,4.265092,6,P-GPS,
4100,2022-08-11 20:18:54,-34.9287827616425,-56.1628211917672,4.92126,5.5118112,5.410334490716,10.922145690716,5.577428,1.11847,7.012467416,7.53280864,22,5,8.065,10.922145690716,4.92126,5.144962,7.012467416,-0.894776,-0.671082,-5.368656,214.1, -14.6, 0.7,0,0,1684,1024,1024,1024,100,0,0,0,223.2,0,0,74,4.025,4.017,0,0,0,0,4.023,90.68,10.922145690716,4.92126,6,P-GPS,
4200,2022-08-11 20:18:54,-34.9287833272532,-56.1628216644875,5.577428,6.1679792,5.410334490716,11.578313690716,6.233596,1.6105968,7.2625330408,7.78297269,22,5,8.065,11.578313690716,5.577428,5.144962,7.2625330408,-1.342164,-0.894776,-4.921268,214.2, -20.4, 0.6,0,0,1684,1024,1024,1024,100,0,0,0,223.2,0,0,74,4.025,4.017,0,0,0,0,4.023,90.68,11.578313690716,5.577428,6,P-GPS,
4300,2022-08-11 20:18:54,-34.9287832774961,-56.1628219611322,6.233596,6.8241472,5.410334490716,12.234481690716,6.889764,2.23694,7.2960632256,7.873523874,23,5,8.065,12.234481690716,6.233596,5.144962,7.2960632256,-1.789552,-1.342164,-4.250186,214.4, -22.6, 0.3,0,0,1537,1024,1024,1024,78,0,0,0,223.2,0,0,74,4.025,4.017,0,0,0,0,4.023,90.68,12.234481690716,6.233596,6,P-GPS,
4400,2022-08-11 20:18:54,-34.9287840560959,-56.1628225373343,6.889764,7.5131236,5.377526090716,12.890649690716,7.545932,2.7290668,7.6280842336,8.2058073492,23,5,8.065,12.890649690716,6.889764,5.144962,7.6280842336,-2.23694,-1.565858,-3.579104,214.5, -23.5, 0.3,0,0,1037,1024,1024,1024,2,0,0,0,223.2,0,0,74,4.025,4.017,0,0,0,0,4.023,90.68,12.890649690716,6.889764,6,P-GPS,
4500,2022-08-11 20:18:54,-34.9287850414381,-56.1628232612463,7.217848,7.874016,5.344717690716,13.218733690716,7.874016,3.5343652,8.0473755856,8.625492402,22,5,8.065,13.218733690716,7.217848,5.144962,8.0473755856,-2.908022,-2.013246,-2.908022,214.6, -15.1, 0.4,0,0,1024,1024,1024,1024,0,0,0,0,223.2,0,0,74,3.985,3.985,0,0,0,0,4.023,90.68,13.218733690716,7.217848,6,P-GPS,
4600,2022-08-11 20:18:54,-34.9287861779943,-56.162824126341,7.545932,8.2349084,5.311909290716,13.546817690716,8.2021,3.8475368,8.5360238952,9.1142719452,22,5,8.065,13.546817690716,7.545932,5.144962,8.5360238952,-3.131716,-2.23694,-2.013246,214.6, 5.2, 0.3,0,0,1024,1024,1024,1024,0,0,0,0,223.2,0,0,74,3.985,3.985,0,0,0,0,4.023,90.68,13.546817690716,7.545932,6,P-GPS,
4700,2022-08-11 20:18:54,-34.9287868787267,-56.162824515855,7.874016,8.5958008,5.279100890716,13.874901690716,8.530184,3.6685816,8.8137798096,9.3952430828,22,5,8.065,13.874901690716,7.874016,5.144962,8.8137798096,-2.908022,-2.23694,-1.342164,215, 15.2, 0.7,0,0,1024,1024,1024,1024,0,0,0,0,223.2,0,0,74,3.985,3.985,0,0,0,0,4.023,90.68,13.874901690716,7.874016,6,P-GPS,
4800,2022-08-11 20:18:54,-34.9287879117335,-56.1628254109993,8.2021,8.9566932,5.246292490716,14.202985690716,8.530184,3.2211936,9.2757220816,9.8575462472,22,5,8.065,14.202985690716,8.2021,5.144962,9.2757220816,-2.684328,-1.789552,-0.671082,215.1, 18.1, 0.7,0,0,1024,1024,1024,1024,0,0,0,0,223.2,0,0,74,3.985,3.985,0,0,0,0,4.023,90.68,14.202985690716,8.2021,6,P-GPS,
4900,2022-08-11 20:18:54,-34.928788862025,-56.1628262780037,8.2021,8.9895016,5.213484090716,14.202985690716,8.530184,2.7290668,9.7078743264,10.290518702,23,5,8.065,14.202985690716,8.2021,5.144962,9.7078743264,-2.23694,-1.565858,-0.223694,215.2, 17.3, 0.7,0,0,1024,1024,1024,1024,0,0,0,0,223.2,0,0,74,3.985,3.985,0,0,0,0,4.023,90.68,14.202985690716,8.2021,6,P-GPS,
5000,2022-08-11 20:18:54,-34.9287895324326,-56.1628269554699,8.2021,9.02231,5.180675690716,14.202985690716,8.530184,2.1027236,10.023622368,10.6081696308,23,5,8.065,14.202985690716,8.2021,5.144962,10.023622368,-1.789552,-1.11847,0,215.3, 14.7, 0.3,0,0,1024,1024,1024,1024,0,0,0,0,223.2,0,0,74,3.985,3.985,0,0,0,0,4.023,90.68,14.202985690716,8.2021,6,P-GPS,
5100,2022-08-11 20:18:54,-34.9287900876717,-56.1628280749303,8.2021,9.02231,5.180675690716,14.202985690716,8.530184,2.1027236,10.378773298,10.9995410344,22,5,8.065,14.202985690716,8.2021,5.144962,10.378773298,-1.342164,-0.894776,0,215.4, 11.9, 0.5,0,0,1024,1024,1024,1024,0,0,0,0,223.2,0,0,74,3.985,3.985,0,0,0,0,4.023,90.68,14.202985690716,8.2021,6,P-GPS,
5200,2022-08-11 20:18:55,-34.9287905220461,-56.1628284644194,8.2021,9.0551184,5.147867290716,14.202985690716,8.530184,1.006623,10.5753612308,11.1962273924,22,5,8.065,14.202985690716,8.2021,5.144962,10.5753612308,-0.894776,-0.447388,0,215.3, 8.6, 0.5,0,0,1024,1024,1024,1024,0,0,0,0,223.2,0,0,74,3.985,3.985,0,0,0,0,4.023,90.68,14.202985690716,8.2021,6,P-GPS,
5300,2022-08-11 20:18:55,-34.9287908803771,-56.1628287592956,8.530184,9.3832024,5.147867290716,14.531069690716,8.530184,0.4921268,10.7330712096,11.3539373712,23,5,8.065,14.531069690716,8.530184,5.144962,10.7330712096,-0.447388,-0.223694,0,215.1, 6.5, 0.6,0,0,1024,1024,1024,1024,0,0,0,0,223.2,0,0,74,3.985,3.985,0,0,0,0,4.023,90.68,14.531069690716,8.530184,6,P-GPS,
5400,2022-08-11 20:18:55,-34.9287909751623,-56.1628288594415,8.530184,9.3832024,5.147867290716,14.531069690716,8.858268,0.4921268,10.778543652,11.3997050892,23,5,8.065,14.531069690716,8.530184,5.144962,10.778543652,-0.223694,0,0,215, 4.6, 1.1,0,0,1024,1024,1024,1024,0,0,0,0,223.2,0,0,74,3.985,3.985,0,0,0,0,4.023,90.68,14.531069690716,8.530184,6,P-GPS,
5500,2022-08-11 20:18:55,-34.9287909406393,-56.1628288713262,8.530184,9.3832024,5.147867290716,14.531069690716,8.858268,0,10.77017751,11.4127956408,23,5,7.96,14.531069690716,8.530184,5.144962,10.778543652,0,0,0,215, 3.5, 1.3,0,0,1024,1024,1024,1024,0,0,0,0,223.2,0,0,74,4.02,4.013,0,0,0,0,6.015,90.68,14.531069690716,8.530184,6,P-GPS,
5600,2022-08-11 20:18:55,-34.9287906534892,-56.1628287700805,8.530184,9.3832024,5.147867290716,14.531069690716,8.858268,0,10.6667654332,11.5218507624,23,5,7.96,14.531069690716,8.530184,5.144962,10.778543652,0,0,0,215.1, 2.7, 1,0,0,1024,1024,1024,1024,0,0,0,0,223.2,0,0,74,4.02,4.013,0,0,0,0,6.015,90.68,14.531069690716,8.530184,6,P-GPS,"Punto de origen actualizado. Altitud de RPO establecida en 40m (Code: 3000001)"
5700,2022-08-11 20:18:55,-34.9287905285322,-56.1628286991208,8.530184,9.3832024,5.147867290716,14.531069690716,8.858268,0,10.6172247492,11.5721460396,23,5,7.96,14.531069690716,8.530184,5.144962,10.778543652,0,0,0,215.3, 2, 0.8,0,0,1024,1024,1212,1024,0,0,28,0,223.2,0,0,74,4.02,4.013,0,0,0,0,6.015,90.68,14.531069690716,8.530184,6,P-GPS,
5800,2022-08-11 20:18:55,-34.9287904528877,-56.1628286191015,8.530184,9.350394,5.180675690716,14.531069690716,8.858268,0,10.5809058504,11.6086617888,23,5,7.96,14.531069690716,8.530184,5.144962,10.778543652,0,0,0,215.5, 2, -0.5,0,0,1024,1024,1684,1028,0,0,100,1,223.2,0,0,74,4.02,4.013,0,0,0,0,6.015,90.68,14.531069690716,8.530184,6,P-GPS,
5900,2022-08-11 20:18:55,-34.9287903728969,-56.1628285096491,8.858268,9.678478,5.180675690716,14.859153690716,8.858268,0,10.5382549304,11.6525266196,23,5,7.96,14.859153690716,8.858268,5.144962,10.778543652,0,0,-0.223694,215.6, 1.7, -0.7,0,0,1024,1024,1684,1085,0,0,100,9,223.2,0,0,74,4.02,4.013,0,0,0,0,6.015,90.68,14.859153690716,8.858268,6,P-GPS,
6000,2022-08-11 20:18:55,-34.928790574127,-56.1628282604207,8.858268,9.7112864,5.147867290716,14.859153690716,9.186352,0,10.5566604428,11.7571526072,23,5,7.96,14.859153690716,8.858268,5.144962,10.778543652,0,0,-1.11847,215.8, 0.6, -0.5,0,0,1024,1024,1684,1061,0,0,100,6,223.2,0,0,74,4.02,4.013,0,0,0,0,6.015,90.68,14.859153690716,8.858268,6,P-GPS,
6100,2022-08-11 20:18:55,-34.9287906857194,-56.1628282230384,9.186352,10.0393704,5.147867290716,15.187237690716,9.186352,0,10.584153882,11.799377018,23,5,7.96,15.187237690716,9.186352,5.144962,10.778543652,0,0,-1.789552,216, 0.3, 0,0,0,1024,1024,1684,1032,0,0,100,1,223.3,0,0,74,4.02,4.013,0,0,0,0,6.015,90.68,15.187237690716,9.186352,6,P-GPS,
6200,2022-08-11 20:18:56,-34.9287908824468,-56.1628282641067,9.514436,10.3674544,5.147867290716,15.515321690716,9.514436,0,10.650590892,11.872211666,23,5,7.96,15.515321690716,9.514436,5.144962,10.778543652,0,0,-2.684328,216.2, 1, 0.4,0,0,1024,1024,1684,1032,0,0,100,1,223.3,0,0,74,4.02,4.013,0,0,0,0,6.015,90.68,15.515321690716,9.514436,6,P-GPS,
6300,2022-08-11 20:18:56,-34.9287911016077,-56.1628283303995,10.170604,11.0236224,5.147867290716,16.171489690716,10.170604,0,10.7280843328,11.9545935584,22,5,7.96,16.171489690716,10.170604,5.144962,10.778543652,0,0,-3.579104,216.2, 1.5, 0.5,0,0,1024,1024,1684,1024,0,0,100,0,223.4,0,0,74,4.02,4.013,0,0,0,0,6.015,90.68,16.171489690716,10.170604,6,P-GPS,
6400,2022-08-11 20:18:56,-34.9287918957347,-56.1628286853186,10.826772,11.7125988,5.115058890716,16.827657690716,10.826772,0,11.0283140012,12.2631565604,22,5,7.96,16.827657690716,10.826772,5.144962,11.0283140012,0,0,-4.47388,216.2, 2, 0.3,0,0,1024,1024,1684,1024,0,0,100,0,223.4,0,0,74,4.02,4.013,0,0,0,0,6.015,90.68,16.827657690716,10.826772,6,P-GPS,
6500,2022-08-11 20:18:56,-34.9287921037,-56.1628287435798,11.48294,12.3687668,5.115058890716,17.483825690716,11.48294,0,11.1013454996,12.3410108936,22,5,8.052,17.483825690716,11.48294,5.144962,11.1013454996,0,0,-5.144962,216.1, 1.7, -0.4,0,0,1024,1024,1684,1024,0,0,100,0,223.4,0,0,74,3.982,3.971,0,0,0,0,3.574,90.68,17.483825690716,11.48294,6,P-GPS,
6600,2022-08-11 20:18:56,-34.9287922968791,-56.1628287977241,12.139108,13.0249348,5.115058890716,18.139993690716,12.139108,0,11.1692588876,12.4133206072,22,5,8.052,18.139993690716,12.139108,5.144962,11.1692588876,0,0,-5.816044,216.1, 2.2, -0.1,0,0,1024,1024,1684,1024,0,0,100,0,223.4,0,0,74,3.982,3.971,0,0,0,0,3.574,90.68,18.139993690716,12.139108,6,P-GPS,
6700,2022-08-11 20:18:56,-34.9287924835248,-56.162828827916,13.12336,14.0091868,5.115058890716,19.124245690716,13.12336,0,11.231299572,12.4820213968,23,5,8.052,19.124245690716,13.12336,5.144962,11.231299572,0,0,-6.263432,216.1, 1.8, 0.4,0,0,1024,1024,1684,1024,0,0,100,0,223.4,0,0,74,3.982,3.971,0,0,0,0,3.574,90.68,19.124245690716,13.12336,6,P-GPS,
6800,2022-08-11 20:18:56,-34.9287925572347,-56.1628290230289,14.107612,15.0262472,5.082250490716,20.108497690716,14.107612,0,11.2856302824,12.5462930524,23,5,8.052,20.108497690716,14.107612,5.144962,11.2856302824,0,0,-6.487126,216.2, 1.5, 0.7,0,0,1024,1024,1652,1024,0,0,95,0,223.4,0,0,74,3.982,3.971,0,0,0,0,3.574,90.68,20.108497690716,14.107612,6,P-GPS,
6900,2022-08-11 20:18:56,-34.9287926017043,-56.1628290637863,15.091864,16.0104992,5.082250490716,21.092749690716,14.76378,0,11.3058730652,12.5665686436,23,5,8.052,21.092749690716,15.091864,5.144962,11.3058730652,0,0,-6.487126,216.2, 2.3, 0.9,0,0,1024,1024,1024,1024,0,0,0,0,223.4,0,0,74,3.982,3.971,0,0,0,0,3.574,90.68,21.092749690716,15.091864,6,P-GPS,
7000,2022-08-11 20:18:56,-34.9287927648581,-56.1628292103493,16.076116,16.9947512,5.082250490716,22.077001690716,15.748032,0,11.3796919652,12.6405187772,23,5,8.052,22.077001690716,16.076116,5.144962,11.3796919652,0,0,-6.487126,216.2, 1.8, 0.7,0,0,1024,1024,1024,1024,0,0,0,0,223.4,0,0,74,3.982,3.971,0,0,0,0,3.574,90.68,22.077001690716,16.076116,6,P-GPS,
7100,2022-08-11 20:18:56,-34.928792973934,-56.1628293885135,17.060368,17.9790032,5.082250490716,23.061253690716,16.732284,0,11.4726709708,12.7335633996,22,5,8.052,23.061253690716,17.060368,5.144962,11.4726709708,0,0,-6.039738,216.2, 2.9, 1.1,0,0,1024,1024,1024,1024,0,0,0,0,223.4,0,0,74,3.982,3.971,0,0,0,0,3.574,90.68,23.061253690716,17.060368,6,P-GPS,
7200,2022-08-11 20:18:57,-34.9287931382147,-56.1628294847357,17.716536,18.6351712,5.082250490716,23.717421690716,17.388452,0,11.5386158548,12.8000660264,22,5,8.052,23.717421690716,17.716536,5.144962,11.5386158548,0,0,-5.368656,216.2, 3.3, 1.3,0,0,1024,1024,1024,1024,0,0,0,0,223.4,0,0,74,3.982,3.971,0,0,0,0,3.574,90.68,23.717421690716,17.716536,6,P-GPS,
7300,2022-08-11 20:18:57,-34.9287934703,-56.1628297625116,18.372704,19.2913392,5.082250490716,24.373589690716,18.04462,0,11.6854990616,12.9469820416,22,5,8.052,24.373589690716,18.372704,5.144962,11.6854990616,0,0,-4.47388,216.3, 3.7, 1.4,0,0,1491,1024,1024,1024,71,0,0,0,223.4,0,0,74,3.982,3.971,0,0,0,0,3.574,90.68,24.373589690716,18.372704,6,P-GPS,
7400,2022-08-11 20:18:57,-34.9287935894402,-56.162829827975,19.028872,20.013124,5.016633690716,25.029757690716,18.372704,0,11.732611924,12.9946526468,22,5,8.052,25.029757690716,19.028872,5.144962,11.732611924,0,0,-3.579104,216.2, 1.2, 1.5,0,0,1684,1024,1024,1024,100,0,0,0,223.4,0,0,74,3.982,3.971,0,0,0,0,3.574,90.68,25.029757690716,19.028872,6,P-GPS,
7500,2022-08-11 20:18:57,-34.9287937277928,-56.1628299198647,19.356956,20.341208,5.016633690716,25.357841690716,18.700788,0.223694,11.7898953904,13.0521329636,23,5,8.023,25.357841690716,19.356956,5.144962,11.7898953904,-0.223694,0,-2.908022,215.9, -13.5, 0.8,0,0,1684,1024,1024,1024,100,0,0,0,223.4,0,0,74,4.025,4.021,0,0,0,0,4.544,90.68,25.357841690716,19.356956,6,P-GPS,
7600,2022-08-11 20:18:57,-34.9287938777237,-56.162830042154,19.68504,20.669292,5.016633690716,25.685925690716,19.028872,0.7158208,11.8557090408,13.1179138056,23,5,8.023,25.685925690716,19.68504,5.144962,11.8557090408,-0.671082,-0.223694,-2.013246,215.9, -20.4, 1.3,0,0,1684,1024,1024,1024,100,0,0,0,223.4,0,0,74,4.025,4.021,0,0,0,0,4.544,90.68,25.685925690716,19.68504,6,P-GPS,
7700,2022-08-11 20:18:57,-34.9287939453139,-56.1628301872958,20.013124,20.997376,5.016633690716,26.014009690716,19.028872,1.2974252,11.9000659976,13.1678481904,23,5,8.023,26.014009690716,20.013124,5.144962,11.9000659976,-1.11847,-0.671082,-1.11847,215.7, -22.8, 2.2,0,0,1684,1024,1024,1024,100,0,0,0,223.4,0,0,74,4.025,4.021,0,0,0,0,4.544,90.68,26.014009690716,20.013124,6,P-GPS,
7800,2022-08-11 20:18:57,-34.9287945133868,-56.1628305858785,20.341208,21.3582684,4.983825290716,26.342093690716,19.028872,2.1027236,12.1388127244,13.4069558096,23,5,8.023,26.342093690716,20.341208,5.144962,12.1388127244,-1.789552,-1.11847,-0.447388,215.6, -22.7, 2.2,0,0,1684,1024,1024,1024,100,0,0,0,223.4,0,0,74,4.025,4.021,0,0,0,0,4.544,90.68,26.342093690716,20.341208,6,P-GPS,
7900,2022-08-11 20:18:57,-34.9287953523481,-56.1628312064979,20.341208,21.3582684,4.983825290716,26.342093690716,19.028872,2.908022,12.4966211348,13.7649610704,22,5,8.023,26.342093690716,20.341208,5.144962,12.4966211348,-2.460634,-1.565858,0,215.8, -21.2, 2.7,0,0,1684,1024,1024,1024,100,0,0,0,223.4,0,0,74,4.025,4.021,0,0,0,0,4.544,90.68,26.342093690716,20.341208,6,P-GPS,
8100,2022-08-11 20:18:58,-34.9287977787329,-56.1628329558462,20.341208,21.4566936,4.885400090716,26.342093690716,19.028872,4.8317904,13.524114606,14.79330756,22,5,8.023,26.342093690716,20.341208,5.144962,13.524114606,-4.026492,-2.684328,0,216.4, -17.9, 1.3,0,0,1684,1024,1024,1024,100,0,0,0,223.4,0,0,74,4.025,4.021,0,0,0,0,4.544,90.68,26.342093690716,20.341208,6,P-GPS,
8200,2022-08-11 20:18:58,-34.9287994654915,-56.1628343405669,20.341208,21.489502,4.852591690716,26.342093690716,19.028872,5.4581336,14.2658141048,15.5351382924,22,5,8.023,26.342093690716,20.341208,5.4581336,14.2658141048,-4.47388,-3.131716,0,216.3, -16.6, 1.7,0,0,1684,1024,1024,1024,100,0,0,0,223.4,0,0,74,4.025,4.021,0,0,0,0,4.544,90.68,26.342093690716,20.341208,6,P-GPS,
8300,2022-08-11 20:18:58,-34.9288013679017,-56.1628359239388,20.341208,21.5551188,4.786974890716,26.342093690716,19.028872,6.263432,15.1058731868,16.3754270332,22,5,8.023,26.342093690716,20.341208,6.263432,15.1058731868,-5.144962,-3.579104,0,216.3, -15.6, 2.1,0,0,1684,1024,1024,1024,100,0,0,0,223.4,0,0,74,4.025,4.021,0,0,0,0,4.544,90.68,26.342093690716,20.341208,6,P-GPS,
8400,2022-08-11 20:18:58,-34.9288036287747,-56.1628377636995,20.341208,21.653544,4.688549690716,26.342093690716,19.028872,6.7555588,16.0973758432,17.3670281148,22,5,8.023,26.342093690716,20.341208,6.7555588,16.0973758432,-5.59235,-3.802798,0,216.4, -14.9, 2.7,0,0,1684,1024,1024,1024,100,0,0,0,223.4,0,0,74,4.025,4.021,0,0,0,0,4.544,90.68,26.342093690716,20.341208,6,P-GPS,
8500,2022-08-11 20:18:58,-34.9288069031229,-56.1628402683011,20.341208,21.7847776,4.557316090716,26.342093690716,19.028872,7.2029468,17.5073496416,18.7771659552,22,5,7.972,26.342093690716,20.341208,7.2029468,17.5073496416,-5.816044,-4.250186,0,216.4, -15.2, 2.7,0,0,1684,1024,1024,1024,100,0,0,0,223.4,0,0,74,4.004,3.997,0,0,0,0,5.939,90.68,26.342093690716,20.341208,6,P-GPS,
8600,2022-08-11 20:18:58,-34.9288095727614,-56.1628425038755,20.341208,21.8832028,4.458890890716,26.342093690716,19.028872,7.82929,18.6884192332,19.9586292476,22,5,7.972,26.342093690716,20.341208,7.82929,18.6884192332,-6.263432,-4.697574,0,216.3, -16, 1.7,0,0,1684,1024,1024,1024,100,0,0,0,223.4,0,0,74,4.004,3.997,0,0,0,0,5.939,90.68,26.342093690716,20.341208,6,P-GPS,
8700,2022-08-11 20:18:58,-34.9288127089719,-56.1628451605663,20.669292,22.309712,4.360465690716,26.670177690716,19.028872,8.500372,20.0809717712,21.3517723368,22,5,7.972,26.670177690716,20.669292,8.500372,20.0809717712,-6.934514,-4.921268,0,216.3, -15.7, 1.8,0,0,1684,1024,1024,1024,100,0,0,0,223.4,0,0,74,4.004,3.997,0,0,0,0,5.939,90.68,26.670177690716,20.669292,6,P-GPS,
8800,2022-08-11 20:18:58,-34.9288157006092,-56.1628477866173,20.341208,22.0800532,4.262040490716,26.342093690716,19.028872,8.94776,21.4244429428,22.6965558444,22,5,7.972,26.670177690716,20.669292,8.94776,21.4244429428,-7.158208,-5.368656,0,216.3, -14.5, 1.8,0,0,1684,1024,1024,1024,100,0,0,0,223.4,0,0,73,4.004,3.997,0,0,0,0,5.939,90.68,26.342093690716,20.341208,6,P-GPS,
8900,2022-08-11 20:18:58,-34.9288189760744,-56.1628506897049,20.341208,22.2112868,4.130806890716,26.342093690716,19.028872,9.4398868,22.9001647748,24.1737868628,22,5,7.972,26.670177690716,20.669292,9.4398868,22.9001647748,-7.605596,-5.59235,0,216.3, -14.7, 0.9,0,0,1684,1024,1024,1024,100,0,0,0,223.4,0,0,73,4.004,3.997,0,0,0,0,5.939,90.68,26.342093690716,20.341208,6,P-GPS,
9000,2022-08-11 20:18:58,-34.9288225158557,-56.1628537124942,20.341208,22.3425204,3.999573290716,26.342093690716,19.028872,9.9320136,24.4761818856,25.750328908,22,5,7.972,26.670177690716,20.669292,9.9320136,24.4761818856,-8.052984,-5.816044,0,216.4, -14.5, 1.5,0,0,1684,1024,1024,1024,100,0,0,0,223.4,0,0,73,4.004,3.997,0,0,0,0,5.939,90.68,26.342093690716,20.341208,6,P-GPS,
9100,2022-08-11 20:18:59,-34.9288260212443,-56.1628567120391,20.341208,22.4409456,3.901148090716,26.342093690716,19.028872,10.2451852,26.0379929592,27.3126321076,22,5,7.972,26.670177690716,20.669292,10.2451852,26.0379929592,-8.276678,-6.039738,0,216.5, -14.6, 1.6,0,0,1684,1024,1024,1024,100,0,0,0,223.4,0,0,73,4.004,3.997,0,0,0,0,5.939,90.68,26.342093690716,20.341208,6,P-GPS,
9200,2022-08-11 20:18:59,-34.9288293476733,-56.1628595840243,20.341208,22.5393708,3.802722890716,26.342093690716,19.028872,10.737312,27.5243775212,28.799541604,22,5,7.972,26.670177690716,20.669292,10.737312,27.5243775212,-8.724066,-6.263432,0,216.5, -14.9, 2,0,0,1684,1024,1024,1024,100,0,0,0,223.4,0,0,73,4.004,3.997,0,0,0,0,5.939,90.68,26.342093690716,20.341208,6,P-GPS,
9300,2022-08-11 20:18:59,-34.9288329260227,-56.1628626949272,20.341208,22.7034128,3.638680890716,26.342093690716,19.028872,11.0952224,29.1269366276,30.4028224952,22,5,7.972,26.670177690716,20.669292,11.0952224,29.1269366276,-9.171454,-6.263432,0,214.7, -15.6, 2.5,0,0,1684,1024,1024,1024,100,0,0,0,223.4,0,0,73,4.004,3.997,0,0,0,0,5.939,90.68,26.342093690716,20.341208,6,P-GPS,
9400,2022-08-11 20:18:59,-34.9288367742704,-56.1628655211603,20.341208,22.8346464,3.507447290716,26.342093690716,19.028872,11.7215656,30.7639773624,32.0417005004,22,5,7.972,26.670177690716,20.669292,11.7215656,30.7639773624,-9.618842,-6.71082,0,214.4, -15.6, 2.1,0,0,1684,1024,1024,1024,100,0,0,0,223.4,0,0,73,4.004,3.997,0,0,0,0,5.939,90.68,26.342093690716,20.341208,6,P-GPS,
9500,2022-08-11 20:18:59,-34.9288406576273,-56.1628688136822,20.341208,22.96588,3.376213690716,26.342093690716,19.028872,11.855782,32.4892070764,33.767389532,23,5,8.029,26.670177690716,20.669292,11.855782,32.4892070764,-9.618842,-6.934514,0,214.5, -15.8, 0.8,0,0,1684,1024,1024,1024,100,0,0,0,223.4,0,0,73,4.007,3.999,0,0,0,0,3.153,90.68,26.342093690716,20.341208,6,P-GPS,
9600,2022-08-11 20:18:59,-34.9288447834725,-56.1628723477758,20.341208,23.129922,3.212171690716,26.342093690716,19.028872,12.3479088,34.328085088,35.606628436,23,5,8.029,26.670177690716,20.669292,12.3479088,34.328085088,-10.06623,-7.158208,0,214.5, -15.5, -0.3,0,0,1684,1024,1024,1024,100,0,0,0,223.4,0,0,73,4.007,3.999,0,0,0,0,3.153,90.68,26.342093690716,20.341208,6,P-GPS,
9700,2022-08-11 20:18:59,-34.9288488106666,-56.1628757844508,20.341208,23.2611556,3.080938090716,26.342093690716,19.028872,12.526864,36.121064148,37.39993558,23,5,8.029,26.670177690716,20.669292,12.526864,36.121064148,-10.289924,-7.158208,0,214.6, -16, -0.7,0,0,1684,1024,1024,1024,100,0,0,0,223.4,0,0,73,4.007,3.999,0,0,0,0,3.153,90.68,26.342093690716,20.341208,6,P-GPS,
9800,2022-08-11 20:18:59,-34.9288530742522,-56.1628792334663,20.341208,23.3923892,2.949704490716,26.342093690716,19.028872,13.0189908,37.987534024,39.266405456,23,5,8.029,26.670177690716,20.669292,13.0189908,37.987534024,-10.737312,-7.381902,0,214.8, -15.5, 0.1,0,0,1684,1024,1024,1024,100,0,0,0,223.4,0,0,73,4.007,3.999,0,0,0,0,3.153,90.68,26.342093690716,20.341208,6,P-GPS,
9900,2022-08-11 20:18:59,-34.9288579487127,-56.1628833165077,20.341208,23.5892396,2.752854090716,26.342093690716,19.028872,13.533487,40.145014408,41.42388584,23,5,8.029,26.670177690716,20.669292,13.533487,40.145014408,-11.1847,-7.605596,0,214.9, -14.8, 1,0,0,1684,1024,1024,1024,100,0,0,0,223.4,0,0,73,4.007,3.999,0,0,0,0,3.153,90.68,26.342093690716,20.341208,6,P-GPS,
10000,2022-08-11 20:18:59,-34.9288622322304,-56.1628869353764,20.341208,23.7204732,2.621620490716,26.342093690716,19.356956,13.7124422,42.045933104,43.32513262,23,5,8.029,26.670177690716,20.669292,13.7124422,42.045933104,-11.408394,-7.605596,0,214.8, -14.7, 2.4,0,0,1684,1024,1024,1024,100,0,0,0,223.4,0,0,73,4.007,3.999,0,0,0,0,3.153,90.68,26.342093690716,20.341208,6,P-GPS,
10100,2022-08-11 20:19:00,-34.9288670751577,-56.1628910583132,20.341208,23.8845152,2.457578490716,26.342093690716,19.356956,14.0256138,44.200460732,45.479988332,23,5,8.029,26.670177690716,20.669292,14.0256138,44.200460732,-11.632088,-7.82929,0,214.6, -15.4, 1.9,0,0,1684,1024,1065,1024,100,0,6,0,223.4,0,0,73,4.007,3.999,0,0,0,0,3.153,90.68,26.342093690716,20.341208,6,P-GPS,
10200,2022-08-11 20:19:00,-34.9288720480153,-56.1628950732671,20.341208,24.0813656,2.260728090716,26.342093690716,19.356956,14.0256138,46.375985736,47.655513336,23,5,8.029,26.670177690716,20.669292,14.0256138,46.375985736,-11.855782,-8.052984,0,214.3, -16.2, 0.8,0,0,1684,1024,1273,1024,100,0,38,0,223.4,0,0,73,4.007,3.999,0,0,0,0,3.153,90.68,26.342093690716,20.341208,6,P-GPS,
10300,2022-08-11 20:19:00,-34.9288772225459,-56.1628993282567,20.341208,24.2454076,2.096686090716,26.342093690716,19.356956,14.8309122,48.652888696,49.932416296,23,5,8.029,26.670177690716,20.669292,14.8309122,48.652888696,-12.30317,-8.276678,0,214.1, -16.3, 1.2,0,0,1684,1024,1512,1024,100,0,74,0,223.4,0,0,73,4.007,3.999,0,0,0,0,3.153,90.68,26.342093690716,20.341208,6,P-GPS,
10400,2022-08-11 20:19:00,-34.9288823502295,-56.1629034633617,20.669292,24.770342,1.899835690716,26.670177690716,21.981628,15.323039,50.89567092,52.17519852,23,5,8.029,26.670177690716,20.669292,15.323039,50.89567092,-12.750558,-8.500372,0,214.1, -15.2, 2,0,0,1684,1024,1548,1024,100,0,79,0,223.4,0,0,73,4.007,3.999,0,0,0,0,3.153,90.68,26.670177690716,20.669292,6,P-GPS,
10500,2022-08-11 20:19:00,-34.9288878945862,-56.1629079121019,20.669292,24.9671924,1.702985290716,26.670177690716,22.309712,15.6362106,53.31693084,54.596786524,23,5,8.001,26.670177690716,20.669292,15.6362106,53.31693084,-12.974252,-8.724066,-0.671082,214.3, -13.8, 2.8,0,0,1684,1024,1548,1024,100,0,79,0,223.4,0,0,73,4.005,3.992,0,0,0,0,4.34,90.68,26.670177690716,20.669292,6,P-GPS,
10600,2022-08-11 20:19:00,-34.928893170849,-56.1629122312083,20.997376,25.3608932,1.637368490716,26.998261690716,22.637796,15.8151658,55.635172384,56.915028068,23,5,8.001,26.998261690716,20.997376,15.8151658,55.635172384,-13.197946,-8.724066,-1.11847,214.2, -13.5, 3,0,0,1684,1024,1171,1024,100,0,22,0,223.4,0,0,73,4.005,3.992,0,0,0,0,4.34,90.68,26.998261690716,20.997376,6,P-GPS,
10700,2022-08-11 20:19:00,-34.9288988466407,-56.1629167958833,21.653544,26.0498696,1.604560090716,27.654429690716,23.293964,16.1283374,58.115487424,59.395343108,23,5,8.001,27.654429690716,21.653544,16.1283374,58.115487424,-13.42164,-8.94776,-1.342164,214.1, -13.9, 3.5,0,0,1684,1024,1024,1024,100,0,0,0,223.4,0,0,73,4.005,3.992,0,0,0,0,4.34,90.68,27.654429690716,21.653544,6,P-GPS,
10800,2022-08-11 20:19:00,-34.9289041160771,-56.1629211115518,21.981628,26.410762,1.571751690716,27.982513690716,23.950132,16.1283374,60.43143238,61.711288064,23,5,8.001,27.982513690716,21.981628,16.1283374,60.43143238,-13.42164,-8.94776,-1.11847,214.1, -14.4, 3.4,0,0,1684,1024,1024,1024,100,0,0,0,223.4,0,0,73,4.005,3.992,0,0,0,0,4.34,90.68,27.982513690716,21.981628,6,P-GPS,
10900,2022-08-11 20:19:00,-34.9289099595855,-56.162925875014,22.309712,26.7716544,1.538943290716,28.310597690716,24.6063,16.3072926,62.995736924,64.275592608,24,5,8.001,28.310597690716,22.309712,16.3072926,62.995736924,-13.645334,-8.94776,-0.894776,214.2, -15.2, 3.9,0,0,1684,1024,1024,1024,100,0,0,0,223.4,0,0,73,4.005,3.992,0,0,0,0,4.34,90.68,28.310597690716,22.309712,6,P-GPS,
11000,2022-08-11 20:19:00,-34.9289150604714,-56.1629300522923,22.309712,26.8044628,1.506134890716,28.310597690716,24.934384,16.441509,65.237206812,66.517062496,24,5,8.001,28.310597690716,22.309712,16.441509,65.237206812,-13.645334,-9.171454,-0.447388,214.1, -15.7, 3.6,0,0,1684,1024,1024,1024,100,0,0,0,223.4,0,0,73,4.005,3.992,0,0,0,0,4.34,90.68,28.310597690716,22.309712,6,P-GPS,
11100,2022-08-11 20:19:00,-34.9289205244742,-56.1629345899245,22.637796,27.1981636,1.440518090716,28.638681690716,25.590552,16.6204642,67.648952296,68.92880798,24,5,8.001,28.638681690716,22.637796,16.6204642,67.648952296,-13.869028,-9.171454,-0.223694,214.1, -15.9, 3.9,0,0,1684,1024,1024,1024,100,0,0,0,223.4,0,0,73,4.005,3.992,0,0,0,0,4.34,90.68,28.638681690716,22.637796,6,P-GPS,
11200,2022-08-11 20:19:01,-34.9289260498238,-56.162939047881,22.637796,27.230972,1.407709690716,28.638681690716,25.918636,16.9336358,70.065947124,71.345802808,24,5,8.001,28.638681690716,22.637796,16.9336358,70.065947124,-14.092722,-9.395148,0,214.1, -15.6, 3.8,0,0,1684,1024,1024,1024,100,0,0,0,223.4,0,0,73,4.005,3.992,0,0,0,0,4.34,90.68,28.638681690716,22.637796,6,P-GPS,
11300,2022-08-11 20:19:01,-34.9289319289886,-56.162943764917,22.637796,27.2637804,1.374901290716,28.638681690716,26.24672,16.9336358,72.633532508,73.913388192,24,5,8.001,28.638681690716,22.637796,16.9336358,72.633532508,-14.092722,-9.395148,0,214.1, -15.5, 3.3,0,0,1684,1024,1024,1024,100,0,0,0,223.4,0,0,73,4.005,3.992,0,0,0,0,4.34,90.68,28.638681690716,22.637796,6,P-GPS,
11400,2022-08-11 20:19:01,-34.9289378042322,-56.1629484875537,22.637796,27.3293972,1.309284490716,28.638681690716,26.574804,17.2468074,75.200461724,76.480645492,24,5,8.001,28.638681690716,22.637796,17.2468074,75.200461724,-14.316416,-9.618842,0,214.2, -15.3, 3.9,0,0,1684,1024,1024,1024,100,0,0,0,223.4,0,0,73,4.005,3.992,0,0,0,0,4.34,90.68,28.638681690716,22.637796,6,P-GPS,
11500,2022-08-11 20:19:01,-34.9289445114543,-56.1629536773361,22.637796,27.395014,1.243667690716,28.638681690716,27.230972,17.4257626,78.097443444,79.378611464,24,5,8,28.638681690716,22.637796,17.4257626,78.097443444,-14.54011,-9.618842,0,214.3, -15.3, 4,0,0,1684,1024,1024,1024,100,0,0,0,223.4,0,0,73,3.981,3.973,0,0,0,0,4.093,90.68,28.638681690716,22.637796,6,P-GPS,
11600,2022-08-11 20:19:01,-34.9289502937853,-56.1629584180502,22.637796,27.4278224,1.210859290716,28.638681690716,27.559056,17.559979,80.639438276,81.920606296,24,5,8,28.638681690716,22.637796,17.559979,80.639438276,-14.54011,-9.842536,0,214.5, -14.8, 4.3,0,0,1684,1024,1024,1024,100,0,0,0,223.4,0,0,73,3.981,3.973,0,0,0,0,4.093,90.68,28.638681690716,22.637796,6,P-GPS,
11700,2022-08-11 20:19:01,-34.9289563107947,-56.1629634039775,22.637796,27.4934392,1.145242490716,28.638681690716,27.88714,17.7389342,83.293637836,84.574477772,24,5,8,28.638681690716,22.637796,17.7389342,83.293637836,-14.763804,-9.842536,0,214.4, -15.8, 3.6,0,0,1684,1024,1024,1024,100,0,0,0,223.4,0,0,73,3.981,3.973,0,0,0,0,4.093,90.68,28.638681690716,22.637796,6,P-GPS,
11800,2022-08-11 20:19:01,-34.9289621208484,-56.162968207356,22.637796,27.559056,1.079625690716,28.638681690716,28.215224,17.7389342,85.854333456,87.135501476,24,5,8,28.638681690716,22.637796,17.7389342,85.854333456,-14.763804,-9.842536,0,214.3, -16.6, 3.6,0,0,1684,1024,1024,1024,100,0,0,0,223.4,0,0,73,3.981,3.973,0,0,0,0,4.093,90.68,28.638681690716,22.637796,6,P-GPS,
11900,2022-08-11 20:19:01,-34.9289683976141,-56.1629735012028,22.637796,27.6246728,1.014008890716,28.638681690716,28.543308,18.0521058,88.638126196,89.9196223,24,5,8,28.638681690716,22.637796,18.0521058,88.638126196,-14.987498,-10.06623,0,214.3, -16.8, 3.1,0,0,1684,1024,1024,1024,100,0,0,0,223.4,0,0,73,3.981,3.973,0,0,0,0,4.093,90.68,28.638681690716,22.637796,6,P-GPS,
12000,2022-08-11 20:19:01,-34.928974344392,-56.1629784245494,22.637796,27.6902896,0.948392090716,28.638681690716,28.871392,18.3652774,91.260501608,92.541997712,24,5,8,28.638681690716,22.637796,18.3652774,91.260501608,-15.211192,-10.289924,0,214.3, -17.2, 3.3,0,0,1684,1024,1024,1024,100,0,0,0,223.4,0,0,73,3.981,3.973,0,0,0,0,4.093,90.68,28.638681690716,22.637796,6,P-GPS,
12100,2022-08-11 20:19:01,-34.9289803391633,-56.1629833813128,22.637796,27.7559064,0.882775290716,28.638681690716,29.199476,18.3652774,93.902890144,95.184386248,24,5,8,28.638681690716,22.637796,18.3652774,93.902890144,-15.211192,-10.289924,0,214.3, -16.9, 3.4,0,0,1684,1024,1041,1024,100,0,3,0,223.4,0,0,73,3.981,3.973,0,0,0,0,4.093,90.68,28.638681690716,22.637796,6,P-GPS,
12200,2022-08-11 20:19:02,-34.9289863734472,-56.1629884312211,22.637796,27.8215232,0.817158490716,28.638681690716,29.52756,18.5442326,96.572837736,97.85433384,24,5,8,28.638681690716,22.637796,18.5442326,96.572837736,-15.434886,-10.289924,0,214.3, -16.5, 3.4,0,0,1684,1024,1684,1024,100,0,100,0,223.4,0,0,73,3.981,3.973,0,0,0,0,4.093,90.68,28.638681690716,22.637796,6,P-GPS,
12300,2022-08-11 20:19:02,-34.9289927535605,-56.1629937940436,22.637796,27.9199484,0.718733290716,28.638681690716,29.855644,18.678449,99.39960948,100.681433668,24,5,8,28.638681690716,22.637796,18.678449,99.39960948,-15.434886,-10.513618,0,214.4, -16.1, 3.3,0,0,1684,1024,1684,1024,100,0,100,0,223.4,0,0,73,3.981,3.973,0,0,0,0,4.093,90.68,28.638681690716,22.637796,6,P-GPS,
12400,2022-08-11 20:19:02,-34.9289989177812,-56.1629990229063,22.637796,28.0183736,0.620308090716,28.638681690716,30.183728,18.8574042,102.138454712,103.420935068,24,5,8,28.638681690716,22.637796,18.8574042,102.138454712,-15.65858,-10.513618,-0.447388,214.4, -15.7, 3.5,0,0,1684,1024,1660,1024,100,0,96,0,223.4,0,0,73,3.981,3.973,0,0,0,0,4.093,90.68,28.638681690716,22.637796,6,P-GPS,
12500,2022-08-11 20:19:02,-34.9290054587066,-56.1630044612145,22.637796,28.0839904,0.554691290716,28.638681690716,30.511812,18.9916206,105.026578164,106.30905852,24,5,8,28.638681690716,22.637796,18.9916206,105.026578164,-15.65858,-10.737312,-1.11847,214.3, -14.6, 3.1,0,0,1684,1024,1660,1024,100,0,96,0,223.4,0,0,73,3.981,3.973,0,0,0,0,4.093,90.68,28.638681690716,22.637796,6,P-GPS,
12600,2022-08-11 20:19:02,-34.9290117497115,-56.1630097246225,22.637796,28.1824156,0.456266090716,28.638681690716,31.16798,19.3047922,107.81004282,109.092195092,24,5,8,28.638681690716,22.637796,19.3047922,107.81004282,-15.882274,-10.961006,-2.013246,214.2, -14.4, 2.4,0,0,1684,1024,1024,1024,100,0,0,0,223.4,0,0,73,3.981,3.973,0,0,0,0,4.093,90.68,28.638681690716,22.637796,6,P-GPS,
12700,2022-08-11 20:19:02,-34.9290187623906,-56.1630155928978,22.96588,28.6089248,0.357840890716,28.966765690716,31.496064,19.4837474,110.912733208,112.195213564,24,5,7.97,28.966765690716,22.96588,19.4837474,110.912733208,-16.105968,-10.961006,-2.23694,214.2, -15.7, 2.5,0,0,1684,1024,1024,1024,100,0,0,0,223.4,0,0,73,3.993,3.957,0,0,0,0,5.029,90.68,28.966765690716,22.96588,6,P-GPS,
12800,2022-08-11 20:19:02,-34.9290253159527,-56.1630209556367,23.293964,29.035434,0.259415690716,29.294849690716,32.152232,19.4837474,113.791998392,115.074478748,24,5,7.97,29.294849690716,23.293964,19.4837474,113.791998392,-16.105968,-10.961006,-1.789552,214.3, -16.4, 3.1,0,0,1684,1024,1024,1024,100,0,0,0,223.4,0,0,73,3.993,3.957,0,0,0,0,5.029,90.68,29.294849690716,23.293964,6,P-GPS,
12900,2022-08-11 20:19:02,-34.9290325479898,-56.1630269490525,23.622048,29.4947516,0.128182090716,29.622933690716,32.152232,19.4837474,116.981959124,118.26443948,24,5,7.97,29.622933690716,23.622048,19.4837474,116.981959124,-16.105968,-10.961006,-1.11847,214.2, -16.8, 3.1,0,0,1684,1024,1024,1024,100,0,0,0,223.4,0,0,73,3.993,3.957,0,0,0,0,5.029,90.68,29.622933690716,23.622048,6,P-GPS,
13000,2022-08-11 20:19:02,-34.9290386054106,-56.16303192289,23.950132,29.8884524,0.062565290716,29.951017690716,32.480316,19.6627026,119.646001204,120.928809644,24,5,7.97,29.951017690716,23.950132,19.6627026,119.646001204,-16.329662,-10.961006,-0.894776,214.3, -16.4, 3.7,0,0,1684,1024,1024,1024,100,0,0,0,223.4,0,0,73,3.993,3.957,0,0,0,0,5.029,90.68,29.951017690716,23.950132,6,P-GPS,
13100,2022-08-11 20:19:03,-34.9290453077995,-56.1630374074467,23.950132,29.9868776,-0.035859909284,29.951017690716,32.480316,19.4837474,122.590883188,123.873363544,24,5,7.97,29.951017690716,23.950132,19.6627026,122.590883188,-16.105968,-10.961006,-0.447388,214.3, -15.5, 4.3,0,0,1684,1024,1024,1024,100,0,0,0,223.4,0,0,73,3.993,3.957,0,0,0,0,5.029,90.68,29.951017690716,23.950132,6,P-GPS,
13200,2022-08-11 20:19:03,-34.9290512701453,-56.1630423099157,23.950132,30.1181112,-0.167093509284,29.951017690716,32.480316,19.4837474,125.214242852,126.496723208,24,5,7.97,29.951017690716,23.950132,19.6627026,125.214242852,-16.105968,-10.961006,-0.223694,214.3, -15.8, 3.8,0,0,1684,1024,1024,1024,100,0,0,0,223.4,0,0,73,3.993,3.957,0,0,0,0,5.029,90.68,29.951017690716,23.950132,6,P-GPS,
13300,2022-08-11 20:19:03,-34.9290582523399,-56.1630481172924,23.622048,29.8884524,-0.265518709284,29.622933690716,32.480316,19.6627026,128.297576284,129.58005664,24,5,7.97,29.951017690716,23.950132,19.6627026,128.297576284,-16.329662,-10.961006,-0.223694,214.3, -16.8, 3.4,0,0,1684,1024,1024,1024,100,0,0,0,223.4,0,0,73,3.993,3.957,0,0,0,0,5.029,90.68,29.622933690716,23.622048,6,P-GPS,
13400,2022-08-11 20:19:03,-34.9290643158316,-56.1630531186534,23.622048,29.9868776,-0.363943909284,29.622933690716,32.480316,19.6627026,130.968180044,132.250988484,24,5,7.97,29.951017690716,23.950132,19.6627026,130.968180044,-16.329662,-10.961006,0,214.2, -17.5, 4.1,0,0,1684,1024,1024,1024,100,0,0,0,223.4,0,0,73,3.993,3.957,0,0,0,0,5.029,90.68,29.622933690716,23.622048,6,P-GPS,
13500,2022-08-11 20:19:03,-34.9290710935979,-56.1630587002421,23.622048,30.1509196,-0.527985909284,29.622933690716,32.480316,19.796919,133.952104024,135.23458438,24,5,7.97,29.951017690716,23.950132,19.796919,133.952104024,-16.329662,-11.1847,0,214.2, -17.3, 3.5,0,0,1684,1024,1024,1024,100,0,0,0,223.4,0,0,73,3.993,3.957,0,0,0,0,5.029,90.68,29.622933690716,23.622048,6,P-GPS,
13600,2022-08-11 20:19:03,-34.9290780294666,-56.1630642551851,23.622048,30.2821532,-0.659219509284,29.622933690716,32.480316,19.9758742,136.979007008,138.261815448,24,5,7.97,29.951017690716,23.950132,19.9758742,136.979007008,-16.553356,-11.1847,0,214.2, -17, 3.5,0,0,1684,1024,1024,1024,100,0,0,0,223.4,0,0,73,3.993,3.957,0,0,0,0,5.029,90.68,29.622933690716,23.622048,6,P-GPS,
13700,2022-08-11 20:19:03,-34.9290849391499,-56.163069949647,23.293964,30.1181112,-0.823261509284,29.294849690716,32.480316,20.2890458,140.021658024,141.304466464,24,5,7.967,29.951017690716,23.950132,20.2890458,140.021658024,-16.77705,-11.408394,0,214.3, -16.6, 3.1,0,0,1684,1024,1024,1024,100,0,0,0,223.4,0,0,73,3.987,3.979,0,0,0,0,5.449,90.86,29.294849690716,23.293964,6,P-GPS,
13800,2022-08-11 20:19:03,-34.9290912329947,-56.1630751402026,23.293964,30.2493448,-0.954495109284,29.294849690716,32.480316,20.2890458,142.79363974,144.07644818,24,5,7.967,29.951017690716,23.950132,20.2890458,142.79363974,-16.77705,-11.408394,0,214.4, -15.6, 3.3,0,0,1684,1024,1024,1024,100,0,0,0,223.4,0,0,73,3.987,3.979,0,0,0,0,5.449,90.86,29.294849690716,23.293964,6,P-GPS,
13900,2022-08-11 20:19:03,-34.9290985977825,-56.1630812226255,23.293964,30.4133868,-1.118537109284,29.294849690716,32.480316,20.2890458,146.038718584,147.321527024,24,5,7.967,29.951017690716,23.950132,20.2890458,146.038718584,-16.77705,-11.408394,0,214.3, -16, 3.5,0,0,1684,1024,1024,1083,100,0,0,9,223.4,0,0,73,3.987,3.979,0,0,0,0,5.449,90.86,29.294849690716,23.293964,6,P-GPS,
14000,2022-08-11 20:19:03,-34.9291050938671,-56.1630865428149,22.96588,30.2165364,-1.249770709284,28.966765690716,32.480316,20.468001,148.893377468,150.176185908,24,5,7.967,29.951017690716,23.950132,20.468001,148.893377468,-17.000744,-11.408394,0,214.3, -16.2, 3.4,0,0,1684,1024,1024,1684,100,0,0,100,223.4,0,0,73,3.987,3.979,0,0,0,0,5.449,90.86,28.966765690716,22.96588,6,P-GPS,
14100,2022-08-11 20:19:04,-34.9291128242601,-56.1630927174631,22.96588,30.3805784,-1.413812709284,28.966765690716,32.480316,20.6022174,152.264440568,153.547577092,24,5,7.967,29.951017690716,23.950132,20.6022174,152.264440568,-17.000744,-11.632088,0,214.5, -15.7, 2.8,0,0,1684,1024,1024,1684,100,0,0,100,224.5,0,0,73,3.987,3.979,0,0,0,0,5.449,90.86,28.966765690716,22.96588,6,P-GPS,
14200,2022-08-11 20:19:04,-34.9291198083828,-56.1630985160625,22.96588,30.5446204,-1.577854709284,28.966765690716,32.480316,20.6022174,155.346789748,156.629926272,24,5,7.967,29.951017690716,23.950132,20.6022174,155.346789748,-17.000744,-11.632088,0,216.8, -15.4, 2,0,0,1684,1024,1024,1684,100,0,0,100,228.3,0,0,73,3.987,3.979,0,0,0,0,5.449,90.86,28.966765690716,22.96588,6,P-GPS,
14300,2022-08-11 20:19:04,-34.929126369553,-56.1631039940152,22.637796,30.34777,-1.709088309284,28.638681690716,32.480316,20.6022174,158.247708476,159.530845,24,5,7.967,29.951017690716,23.950132,20.6022174,158.247708476,-17.000744,-11.632088,0,221.2, -15.7, 1.5,0,0,1684,1024,1024,1684,100,0,0,100,233,0,0,73,3.987,3.979,0,0,0,0,5.449,90.86,28.638681690716,22.637796,6,P-GPS,
14400,2022-08-11 20:19:04,-34.9291330290031,-56.1631095257399,22.637796,30.4790036,-1.840321909284,28.638681690716,32.480316,20.6022174,161.187341116,162.47047764,24,5,7.967,29.951017690716,23.950132,20.6022174,161.187341116,-17.000744,-11.632088,0,225.8, -16.2, 2,0,0,1684,1024,1024,1684,100,0,0,100,237.8,0,0,73,3.987,3.979,0,0,0,0,5.449,90.86,28.638681690716,22.637796,6,P-GPS,
14500,2022-08-11 20:19:04,-34.929140108696,-56.1631153890413,22.637796,30.6430456,-2.004363909284,28.638681690716,32.480316,20.7364338,164.309716544,165.592853068,24,5,7.967,29.951017690716,23.950132,20.7364338,164.309716544,-17.000744,-11.855782,0,230.5, -16.3, 2.7,0,0,1684,1024,1024,1684,100,0,0,100,242.6,0,0,73,3.987,3.979,0,0,0,0,5.449,90.86,28.638681690716,22.637796,6,P-GPS,
14600,2022-08-11 20:19:04,-34.9291465364119,-56.1631207713204,22.309712,30.4461952,-2.135597509284,28.310597690716,32.480316,20.8482808,167.154204824,168.437341348,24,5,7.967,29.951017690716,23.950132,20.8482808,167.154204824,-17.000744,-12.079476,0,235.2, -16.8, 3.3,0,0,1684,1024,1024,1098,100,0,0,11,247.4,0,0,73,3.987,3.979,0,0,0,0,5.449,90.86,28.310597690716,22.309712,6,P-GPS,
14700,2022-08-11 20:19:04,-34.9291536684234,-56.163126840389,22.309712,30.6102372,-2.299639509284,28.310597690716,32.480316,20.6693256,170.32644902,171.610241712,24,5,7.943,29.951017690716,23.950132,20.8482808,170.32644902,-16.77705,-12.079476,0,239.8, -17.7, 3.7,0,0,1684,1024,1024,1098,100,0,0,11,252,0,0,73,3.985,3.98,0,0,0,0,5.034,90.86,28.310597690716,22.309712,6,P-GPS,
14800,2022-08-11 20:19:04,-34.9291603594002,-56.1631326755609,21.981628,30.4133868,-2.430873109284,27.982513690716,32.480316,20.803542,173.326449116,174.61122606,24,5,7.943,29.951017690716,23.950132,20.8482808,173.326449116,-16.77705,-12.30317,0,243.7, -17.9, 4.9,0,0,1684,1024,1024,1024,100,0,0,0,254.2,0,0,73,3.985,3.98,0,0,0,0,5.034,90.86,27.982513690716,21.981628,6,P-GPS,
14900,2022-08-11 20:19:04,-34.9291678314568,-56.1631391570836,21.981628,30.5774288,-2.594915109284,27.982513690716,32.480316,20.7588032,176.670609328,177.956370524,24,5,7.943,29.951017690716,23.950132,20.8482808,176.670609328,-16.553356,-12.526864,0,245, -17.6, 6.7,0,0,1684,1024,1024,1024,100,0,0,0,255.2,0,0,73,3.985,3.98,0,0,0,0,5.034,90.86,27.982513690716,21.981628,6,P-GPS,
15000,2022-08-11 20:19:04,-34.9291739702478,-56.1631449349934,21.981628,30.7086624,-2.726148709284,27.982513690716,32.480316,20.7140644,179.494100232,180.785438856,24,5,7.943,29.951017690716,23.950132,20.8482808,179.494100232,-16.329662,-12.750558,0,245.5, -17.7, 7.4,0,0,1684,1024,1024,1125,100,0,0,15,255.4,0,0,73,3.985,3.98,0,0,0,0,5.034,90.86,27.982513690716,21.981628,6,P-GPS,
15100,2022-08-11 20:19:05,-34.9291806667743,-56.163151487007,21.653544,30.511812,-2.857382309284,27.654429690716,32.480316,20.6469562,182.61647566,183.917656804,24,5,7.943,29.951017690716,23.950132,20.8482808,182.61647566,-15.882274,-13.197946,0,245.5, -18.3, 7.4,0,0,1684,1024,1024,1646,100,0,0,94,255.4,0,0,73,3.985,3.98,0,0,0,0,5.034,90.86,27.654429690716,21.653544,6,P-GPS,
15200,2022-08-11 20:19:05,-34.929187193187,-56.1631582910572,21.653544,30.6430456,-2.988615909284,27.654429690716,32.480316,20.6245868,185.72999282,187.050202836,24,5,7.943,29.951017690716,23.950132,20.8482808,185.72999282,-15.65858,-13.42164,0,245.8, -18, 7.2,0,0,1684,1024,1024,1669,100,0,0,98,256.5,0,0,73,3.985,3.98,0,0,0,0,5.034,90.86,27.654429690716,21.653544,6,P-GPS,
15300,2022-08-11 20:19:05,-34.9291929760652,-56.1631651596214,21.32546,30.4133868,-3.087041109284,27.326345690716,32.480316,20.6022174,188.631239632,189.99508482,24,5,7.943,29.951017690716,23.950132,20.8482808,188.631239632,-15.434886,-13.645334,0,248, -18, 6.5,0,0,1684,1024,1024,1440,100,0,0,63,260.1,0,0,73,3.985,3.98,0,0,0,0,5.034,90.86,27.326345690716,21.32546,6,P-GPS,
15400,2022-08-11 20:19:05,-34.9291990048775,-56.1631719396592,21.32546,30.5446204,-3.218274709284,27.326345690716,32.480316,20.7364338,191.5928539,192.986882816,24,5,7.943,29.951017690716,23.950132,20.8482808,191.5928539,-15.211192,-14.092722,0,252.3, -18.8, 5.6,0,0,1684,1024,1024,1056,100,0,0,5,264.4,0,0,73,3.985,3.98,0,0,0,0,5.034,90.86,27.326345690716,21.32546,6,P-GPS,
15500,2022-08-11 20:19:05,-34.929205263079,-56.1631791960589,21.32546,30.6430456,-3.316699909284,27.326345690716,32.480316,20.579848,194.705386808,196.137473468,24,5,7.943,29.951017690716,23.950132,20.8482808,194.705386808,-14.987498,-14.092722,0,256.1, -19.1, 5.7,0,0,1684,1024,1024,1117,100,0,0,14,267.3,0,0,73,3.985,3.98,0,0,0,0,5.034,90.86,27.326345690716,21.32546,6,P-GPS,
15600,2022-08-11 20:19:05,-34.9292110668013,-56.163186215636,21.32546,30.7414708,-3.415125109284,27.326345690716,32.480316,20.7140644,197.642394776,199.119428944,24,5,7.943,29.951017690716,23.950132,20.8482808,197.642394776,-14.763804,-14.54011,0,257.8, -19.2, 7.2,0,0,1684,1024,1024,1117,100,0,0,14,268.2,0,0,73,3.985,3.98,0,0,0,0,5.034,90.86,27.326345690716,21.32546,6,P-GPS,
15700,2022-08-11 20:19:05,-34.9292170176828,-56.1631937439678,20.997376,30.5446204,-3.546358709284,26.998261690716,32.480316,20.5574786,200.712276764,202.247709884,23,5,7.943,29.951017690716,23.950132,20.8482808,200.712276764,-14.316416,-14.763804,0,258.4, -18.6, 7.4,0,0,1684,1024,1024,1555,100,0,0,80,268.7,0,0,73,3.985,3.98,0,0,0,0,5.034,90.86,26.998261690716,20.997376,6,P-GPS,
15800,2022-08-11 20:19:05,-34.92922270077,-56.1632015888711,20.997376,30.6430456,-3.644783909284,26.998261690716,32.480316,20.579848,203.758536704,205.37894358,23,5,7.951,29.951017690716,23.950132,20.8482808,203.758536704,-14.092722,-14.987498,0,259.1, -18.7, 7.6,0,0,1684,1024,1024,1279,100,0,0,39,270.2,0,0,73,3.978,3.969,0,0,0,0,4.732,90.86,26.998261690716,20.997376,6,P-GPS,
15900,2022-08-11 20:19:05,-34.9292283931849,-56.1632093370976,20.997376,30.7414708,-3.743209109284,26.998261690716,32.480316,20.4456316,206.793313704,208.491148404,23,5,7.951,29.951017690716,23.950132,20.8482808,206.793313704,-13.645334,-15.211192,0,261.2, -19.2, 7.5,0,0,1684,1024,1024,1024,100,0,0,0,272.5,0,0,73,3.978,3.969,0,0,0,0,4.732,90.86,26.998261690716,20.997376,6,P-GPS,
16000,2022-08-11 20:19:05,-34.9292333440194,-56.1632163702588,20.669292,30.511812,-3.841634309284,26.670177690716,32.480316,20.4456316,209.485899092,211.263786288,23,5,7.951,29.951017690716,23.950132,20.8482808,209.485899092,-13.197946,-15.434886,0,263, -19.6, 8,0,0,1684,1024,1024,1043,100,0,0,3,273.5,0,0,73,3.978,3.969,0,0,0,0,4.732,90.86,26.670177690716,20.669292,6,P-GPS,
16100,2022-08-11 20:19:05,-34.9292386643674,-56.1632242760605,20.669292,30.6102372,-3.940059509284,26.670177690716,32.480316,20.1995682,212.4425921,214.323497672,23,5,7.951,29.951017690716,23.950132,20.8482808,212.4425921,-12.750558,-15.65858,0,263.6, -19.9, 8.1,0,0,1684,1024,1024,1684,100,0,0,100,273.9,0,0,73,3.978,3.969,0,0,0,0,4.732,90.86,26.670177690716,20.669292,6,P-GPS,
16200,2022-08-11 20:19:06,-34.9292435994646,-56.1632324023421,20.669292,30.7086624,-4.038484709284,26.670177690716,32.480316,20.2666764,215.327434712,217.348432152,23,5,7.951,29.951017690716,23.950132,20.8482808,215.327434712,-12.30317,-16.105968,0,264, -19.7, 7.7,0,0,1684,1024,1024,1684,100,0,0,100,274.8,0,0,73,3.978,3.969,0,0,0,0,4.732,90.86,26.670177690716,20.669292,6,P-GPS,
