time(millisecond),datetime(utc),latitude,longitude,height_above_takeoff(feet),height_above_ground_at_drone_location(feet),ground_elevation_at_drone_location(feet),altitude_above_seaLevel(feet),height_sonar(feet),speed(mph),distance(feet),mileage(feet),satellites,gpslevel,voltage(v),max_altitude(feet),max_ascent(feet),max_speed(mph),max_distance(feet), xSpeed(mph), ySpeed(mph), zSpeed(mph), compass_heading(degrees), pitch(degrees), roll(degrees),isPhoto,isVideo,rc_elevator,rc_aileron,rc_throttle,rc_rudder,rc_elevator(percent),rc_aileron(percent),rc_throttle(percent),rc_rudder(percent),gimbal_heading(degrees),gimbal_pitch(degrees),gimbal_roll(degrees),battery_percent,voltageCell1,voltageCell2,voltageCell3,voltageCell4,voltageCell5,voltageCell6,current(A),battery_temperature(f),altitude(feet),ascent(feet),flycStateRaw,flycState,message
0,2022-09-04 15:11:21,-34.827931318961,-55.252618640894,0,0,198.94213825591,198.94213825591,0.328084,0,0,0,12,4,0,198.94213825591,0,0,0,0,0,0,208.2, -4.3, 5.3,0,0,364,364,364,1684,-100,-100,-100,100,221.2,0,0,100,4.332,4.33,0,0,0,0,0,70.88,198.94213825591,0,41,Motors_Started,"En vuelo"
100,2022-09-04 15:11:21,-34.8279313424538,-55.2526186207218,0,0,198.94213825591,198.94213825591,0.328084,0,0.0104865160836,0.0104865160836,12,4,0,198.94213825591,0,0,0.0104865160836,0,0,0,208.3, -4.8, 5.1,0,0,364,364,364,1684,-100,-100,-100,100,221.2,0,0,100,4.332,4.33,0,0,0,0,0,70.88,198.94213825591,0,41,Motors_Started,
200,2022-09-04 15:11:21,-34.8279313510666,-55.2526186103167,0,0,198.94213825591,198.94213825591,0.328084,0,0.0148685700296,0.014912073968,12,4,0,198.94213825591,0,0,0.0148685700296,0,0,0,208.3, -4, 5.7,0,0,364,364,364,1684,-100,-100,-100,100,221.1,0,0,100,4.332,4.33,0,0,0,0,0,70.88,198.94213825591,0,41,Motors_Started,
300,2022-09-04 15:11:21,-34.8279311988458,-55.2526184256607,0,0,198.94213825591,198.94213825591,0.328084,0,0.077947180972,0.093288716896,12,4,0,198.94213825591,0,0,0.077947180972,0,0,0,208, -3.7, 5.4,0,0,711,1024,395,1279,-47,0,-95,39,220.9,0,0,100,4.332,4.33,0,0,0,0,0,70.88,198.94213825591,0,41,Motors_Started,
400,2022-09-04 15:11:21,-34.8279312148363,-55.2526184562041,0,0,198.94213825591,198.94213825591,0.328084,0,0.06710302052,0.104138454776,12,4,0,198.94213825591,0,0,0.077947180972,0,0,0,208.3, -3.9, 5.4,0,0,711,1024,395,1279,-47,0,-95,39,220.7,0,0,100,4.332,4.33,0,0,0,0,0,70.88,198.94213825591,0,41,Motors_Started,
500,2022-09-04 15:11:21,-34.8279312401781,-55.2526185396051,0,0,198.94213825591,198.94213825591,0.328084,0,0.041790683752,0.130772970064,12,4,0,198.94213825591,0,0,0.077947180972,0,0,0,208.2, -3.7, 5.7,0,0,1024,1024,1024,1024,0,0,0,0,220.7,0,0,100,4.332,4.33,0,0,0,0,0,70.88,198.94213825591,0,41,Motors_Started,
600,2022-09-04 15:11:21,-34.8279312993208,-55.2526186347444,0,0,198.94213825591,198.94213825591,0.328084,0,0.0073986550924,0.166515097192,12,4,0,198.94213825591,0,0,0.077947180972,0,0,0,208, -4.3, 5.7,0,0,1024,1024,1084,1024,0,0,9,0,220.5,0,0,100,4.332,4.33,0,0,0,0,0,70.88,198.94213825591,0,41,Motors_Started,
700,2022-09-04 15:11:21,-34.8279313950712,-55.2526187432344,0,0,198.94213825591,198.94213825591,0.328084,0,0.041358925208,0.21422408822,12,4,0,198.94213825591,0,0,0.077947180972,0,0,0,207.6, -4.8, 5.5,0,0,1024,1024,1193,1024,0,0,26,0,220.3,0,0,100,4.332,4.33,0,0,0,0,0,70.88,198.94213825591,0,41,Motors_Started,
800,2022-09-04 15:11:22,-34.8279315805701,-55.2526189464007,0,0,198.94213825591,198.94213825591,0.328084,0,0.132219820504,0.305234261736,12,4,0,198.94213825591,0,0,0.132219820504,0,0,0,207.8, -5.8, 4.6,0,0,1024,1024,1358,1024,0,0,51,0,220.1,0,0,100,4.332,4.33,0,0,0,0,0,70.88,198.94213825591,0,41,Motors_Started,"Setting new Return-To-Home altitude to 60m (197 ft). Data Recorder File Index is 54. Setting new Maximum Flight Altitude to 120m (394 ft)"
900,2022-09-04 15:11:22,-34.8279316772708,-55.252618958109,0,0,198.94213825591,198.94213825591,0.328084,0,0.161604007796,0.34068898728,12,4,0,198.94213825591,0,0,0.161604007796,0,0,0,207, -5.6, 5.4,0,0,1024,1024,1637,1024,0,0,93,0,219.9,0,0,100,4.332,4.33,0,0,0,0,0,70.88,198.94213825591,0,41,Motors_Started,
1000,2022-09-04 15:11:22,-34.8279317408245,-55.2526189734113,0,0,198.94213825591,198.94213825591,0.328084,0,0.183324480932,0.36432415864,12,4,0,198.94213825591,0,0,0.183324480932,0,0,0,206.9, -5.2, 5.1,0,0,1024,1024,1684,1024,0,0,100,0,219.2,0,0,100,4.332,4.33,0,0,0,0,0,70.88,198.94213825591,0,41,Motors_Started,
1100,2022-09-04 15:11:22,-34.827931800397,-55.2526189981794,0,0,198.94213825591,198.94213825591,0.328084,0.223694,0.205678156188,0.38729003864,12,4,8.67,198.94213825591,0,0.223694,0.205678156188,-0.223694,0,0,206.5, -6.2, 3.3,0,0,1024,1024,1401,1024,0,0,57,0,219,0,0,100,4.332,4.33,0,0,0,0,1.006,70.88,198.94213825591,0,10,Assisted_Takeoff,
1200,2022-09-04 15:11:22,-34.8279317807035,-55.2526189233232,0,0,198.94213825591,198.94213825591,0.328084,0,0.188509192384,0.41083334648,12,4,8.67,198.94213825591,0,0.223694,0.205678156188,0,0,0,206.7, -5.5, 3.3,0,0,1024,1024,1401,1024,0,0,57,0,218.8,0,0,100,4.332,4.33,0,0,0,0,1.006,70.88,198.94213825591,0,10,Assisted_Takeoff,
1300,2022-09-04 15:11:22,-34.8279318210966,-55.2526189088101,0,0,198.94213825591,198.94213825591,0.328084,0,0.20000492766,0.4261975202,12,4,8.67,198.94213825591,0,0.223694,0.205678156188,0,0,0,205.9, -4.9, 2.7,0,0,1024,1024,1117,1024,0,0,14,0,218.4,0,0,100,4.332,4.33,0,0,0,0,1.006,70.88,198.94213825591,0,10,Assisted_Takeoff,
1400,2022-09-04 15:11:22,-34.8279318741204,-55.252618879857,0,0,198.94213825591,198.94213825591,0.328084,0,0.214821529184,0.44739830828,12,4,8.67,198.94213825591,0,0.223694,0.214821529184,0,0,0,205.3, -4.9, 2,0,0,1024,1024,1626,1024,0,0,91,0,217.6,0,0,100,4.332,4.33,0,0,0,0,1.006,70.88,198.94213825591,0,10,Assisted_Takeoff,
1500,2022-09-04 15:11:22,-34.8279319446304,-55.2526188559186,0,0,198.94213825591,198.94213825591,0.328084,0.223694,0.23718504696,0.47410434588,12,4,8.67,198.94213825591,0,0.223694,0.23718504696,-0.223694,0,0,205.1, -4.4, 1.8,0,0,1024,1024,1684,1024,0,0,100,0,217.3,0,0,100,4.332,4.33,0,0,0,0,1.006,70.88,198.94213825591,0,10,Assisted_Takeoff,
1600,2022-09-04 15:11:22,-34.8279320087052,-55.2526186931359,0,0,198.94213825591,198.94213825591,0.328084,0.223694,0.252138787596,0.52817258908,12,4,8.67,198.94213825591,0,0.223694,0.252138787596,-0.223694,0,0,204.3, -3.8, 1.5,0,0,1024,1024,1684,1024,0,0,100,0,216.7,0,0,100,4.332,4.33,0,0,0,0,1.006,70.88,198.94213825591,0,10,Assisted_Takeoff,
1700,2022-09-04 15:11:22,-34.8279321463714,-55.2526186661331,0,0,198.94213825591,198.94213825591,0.328084,0.223694,0.301974747196,0.57904529412,12,4,8.67,198.94213825591,0,0.223694,0.301974747196,-0.223694,0,0,203.5, -3.6, 0.3,0,0,1024,1024,1377,1024,0,0,53,0,215.7,0,0,100,4.332,4.33,0,0,0,0,1.006,70.88,198.94213825591,0,10,Assisted_Takeoff,
1800,2022-09-04 15:11:23,-34.8279322932603,-55.2526186076046,0,0,198.94213825591,198.94213825591,0.328084,0.223694,0.35561352844,0.6354330912,12,4,8.67,198.94213825591,0,0.223694,0.35561352844,-0.223694,0,0,203.8, -1.6, -0.2,0,0,1024,1024,1362,1024,0,0,51,0,215.4,0,0,100,4.332,4.33,0,0,0,0,1.006,70.88,198.94213825591,0,10,Assisted_Takeoff,
1900,2022-09-04 15:11:23,-34.8279324784836,-55.2526185009161,0,0,198.94213825591,198.94213825591,0.328084,0.447388,0.42512468552,0.71018374976,12,4,8.67,198.94213825591,0,0.447388,0.42512468552,-0.447388,0,-0.223694,204.3, -1.6, -1.1,0,0,1024,1024,1684,1024,0,0,100,0,215.5,0,0,100,4.332,4.33,0,0,0,0,1.006,70.88,198.94213825591,0,10,Assisted_Takeoff,
2000,2022-09-04 15:11:23,-34.8279326218558,-55.2526182205846,0,0,198.94213825591,198.94213825591,0.328084,0.447388,0.49174542256,0.8091043566,12,4,8.67,198.94213825591,0,0.447388,0.49174542256,-0.447388,0,-0.671082,204.4, -1, -0.7,0,0,1024,1024,1600,1024,0,0,87,0,215.7,0,0,100,4.332,4.33,0,0,0,0,1.006,70.88,198.94213825591,0,6,P-GPS,
2100,2022-09-04 15:11:23,-34.8279328557928,-55.2526180678521,0,0,198.94213825591,198.94213825591,0.656168,0.447388,0.58638781404,0.90594163004,12,4,8.612,198.94213825591,0,0.447388,0.58638781404,-0.447388,0,-1.342164,204.4, 1.7, 1.4,0,0,1024,1024,1600,1024,0,0,87,0,215.7,0,0,100,4.272,4.265,0,0,0,0,1.96,71.06,198.94213825591,0,6,P-GPS,
2200,2022-09-04 15:11:23,-34.8279330500401,-55.2526179041458,0.328084,0.328084,198.94213825591,199.27022225591,0.984252,0.447388,0.66901905028,0.99211945432,12,4,8.612,199.27022225591,0.328084,0.447388,0.66901905028,-0.447388,0,-2.013246,204.2, 2.2, 2,0,0,1024,1024,1024,1024,0,0,0,0,215.7,0,0,100,4.272,4.265,0,0,0,0,1.96,71.06,199.27022225591,0.328084,6,P-GPS,
2300,2022-09-04 15:11:23,-34.8279331860079,-55.2526177173295,0.656168,0.656168,198.94213825591,199.59830625591,1.312336,0.223694,0.73520671644,1.06689307876,12,4,8.612,199.59830625591,0.656168,0.447388,0.73520671644,-0.223694,0,-2.23694,204.1, 1.8, 1.9,0,0,1024,1024,1024,1024,0,0,0,0,215.7,0,0,100,4.272,4.265,0,0,0,0,1.96,71.06,199.59830625591,0.656168,6,P-GPS,
2400,2022-09-04 15:11:23,-34.8279333127843,-55.2526175527935,0.984252,0.984252,198.94213825591,199.92639025591,1.312336,0.223694,0.79710304388,1.13447838276,12,4,8.612,199.92639025591,0.984252,0.447388,0.79710304388,-0.223694,0,-2.460634,204.1, 1.9, 1.8,0,0,1024,1024,1024,1024,0,0,0,0,215.7,0,0,100,4.272,4.265,0,0,0,0,1.96,71.06,199.92639025591,0.984252,6,P-GPS,
2500,2022-09-04 15:11:23,-34.8279334532762,-55.2526173013159,1.312336,1.312336,198.94213825591,200.25447425591,3.28084,0.223694,0.87597771832,1.22558402872,12,4,8.612,200.25447425591,1.312336,0.447388,0.87597771832,-0.223694,0,-2.013246,203.9, 3.4, 1.7,0,0,1024,1024,1024,1024,0,0,0,0,215.7,0,0,100,4.272,4.265,0,0,0,0,1.96,71.06,200.25447425591,1.312336,6,P-GPS,
2600,2022-09-04 15:11:23,-34.8279335627305,-55.2526171550097,1.64042,1.6732284,198.90932985591,200.58255825591,3.608924,0.223694,0.9317749642,1.28486880752,12,4,8.612,200.58255825591,1.64042,0.447388,0.9317749642,-0.223694,0,-1.789552,203.8, 3.6, 1.7,0,0,1024,1024,1024,1024,0,0,0,0,215.7,0,0,100,4.272,4.265,0,0,0,0,1.96,71.06,200.58255825591,1.64042,6,P-GPS,
2700,2022-09-04 15:11:23,-34.8279335841913,-55.2526169918343,1.968504,2.0013124,198.90932985591,200.91064225591,3.937008,0,0.96279202556,1.33436355976,12,4,8.612,200.91064225591,1.968504,0.447388,0.96279202556,0,0,-1.11847,203.8, 2.5, 1.7,0,0,1024,1024,1024,1024,0,0,0,0,215.7,0,0,100,4.272,4.265,0,0,0,0,1.96,71.06,200.91064225591,1.968504,6,P-GPS,
2800,2022-09-04 15:11:23,-34.8279336224541,-55.2526168250062,1.968504,2.0013124,198.90932985591,200.91064225591,3.937008,0,1.00104333912,1.38624020184,12,4,8.612,200.91064225591,1.968504,0.447388,1.00104333912,0,0,-0.671082,203.7, 1.9, 1.6,0,0,1024,1024,1024,1024,0,0,0,0,215.7,0,0,100,4.272,4.265,0,0,0,0,1.96,71.06,200.91064225591,1.968504,6,P-GPS,
2900,2022-09-04 15:11:24,-34.827933694435,-55.2526166252735,1.968504,2.0013124,198.90932985591,200.91064225591,3.937008,0,1.05620410204,1.45156828792,12,4,8.612,200.91064225591,1.968504,0.447388,1.05620410204,0,0,-0.447388,204, 1.5, 1.2,0,0,1024,1024,1024,1024,0,0,0,0,215.7,0,0,100,4.272,4.265,0,0,0,0,1.96,71.06,200.91064225591,1.968504,6,P-GPS,
3000,2022-09-04 15:11:24,-34.8279337541333,-55.2526164894036,1.968504,2.0013124,198.90932985591,200.91064225591,3.937008,0,1.09753284352,1.49772314504,12,4,8.612,200.91064225591,1.968504,0.447388,1.09753284352,0,0,0,204.2, 1.3, 1,0,0,1024,1024,1024,1024,0,0,0,0,215.7,0,0,100,4.272,4.265,0,0,0,0,1.96,71.06,200.91064225591,1.968504,6,P-GPS,
3100,2022-09-04 15:11:24,-34.8279337986521,-55.2526163567032,1.968504,2.0013124,198.90932985591,200.91064225591,3.937008,0,1.13424216228,1.54065949812,12,4,8.5,200.91064225591,1.968504,0.447388,1.13424216228,0,0,0,204.3, 1.4, 1.2,0,0,1024,1024,1024,1024,0,0,0,0,215.7,0,0,100,4.271,4.269,0,0,0,0,4.485,70.88,200.91064225591,1.968504,6,P-GPS,
3200,2022-09-04 15:11:24,-34.8279339147113,-55.2526162032519,1.968504,2.0013124,198.90932985591,200.91064225591,3.937008,0,1.19578743984,1.6031496576,12,4,8.5,200.91064225591,1.968504,0.447388,1.19578743984,0,0,0,204.1, 1.3, 0.7,0,0,1024,1024,1024,1024,0,0,0,0,215.7,0,0,100,4.271,4.269,0,0,0,0,4.485,70.88,200.91064225591,1.968504,6,P-GPS,
3300,2022-09-04 15:11:24,-34.827934609075,-55.2526160862803,1.968504,2.0013124,198.90932985591,200.91064225591,3.937008,0,1.42348757836,1.85889769728,12,4,8.5,200.91064225591,1.968504,0.447388,1.42348757836,0,0,0,204, 0.8, 1.6,0,0,1024,1024,1024,1024,0,0,0,0,215.7,0,0,100,4.271,4.269,0,0,0,0,4.485,70.88,200.91064225591,1.968504,6,P-GPS,
3400,2022-09-04 15:11:24,-34.8279348090251,-55.2526159219576,1.968504,2.0013124,198.90932985591,200.91064225591,3.937008,0,1.51146002212,1.94689638776,12,4,8.5,200.91064225591,1.968504,0.447388,1.51146002212,0,0,0,204, 0.5, 1.9,0,0,1024,1024,1024,1024,0,0,0,0,215.7,0,0,100,4.271,4.269,0,0,0,0,4.485,70.88,200.91064225591,1.968504,6,P-GPS,
3500,2022-09-04 15:11:24,-34.8279349097427,-55.2526158226105,1.968504,2.0013124,198.90932985591,200.91064225591,3.937008,0,1.55845477428,1.99417985384,12,4,8.5,200.91064225591,1.968504,0.447388,1.55845477428,0,0,0,203.9, -0.1, 2.1,0,0,1024,1024,1024,1024,0,0,0,0,215.7,0,0,100,4.271,4.269,0,0,0,0,4.485,70.88,200.91064225591,1.968504,6,P-GPS,
3600,2022-09-04 15:11:24,-34.827934949581,-55.2526157524148,1.968504,2.0013124,198.90932985591,200.91064225591,3.937008,0,1.58208994564,2.01973759744,12,4,8.5,200.91064225591,1.968504,0.447388,1.58208994564,0,0,0,203.9, -0.2, 1.6,0,0,1024,1024,1024,1024,0,0,0,0,215.7,0,0,100,4.271,4.269,0,0,0,0,4.485,70.88,200.91064225591,1.968504,6,P-GPS,
3700,2022-09-04 15:11:24,-34.827934764466,-55.2526159186669,1.968504,2.0013124,198.90932985591,200.91064225591,3.937008,0,1.49832353876,2.10364836128,12,4,8.5,200.91064225591,1.968504,0.447388,1.58208994564,0,0,0,203.9, -0.2, 1.5,0,0,1024,1024,1024,1024,0,0,0,0,215.7,0,0,100,4.271,4.269,0,0,0,0,4.485,70.88,200.91064225591,1.968504,6,P-GPS,
3800,2022-09-04 15:11:25,-34.8279346878086,-55.2526158943397,1.968504,2.0013124,198.90932985591,200.91064225591,3.937008,0,1.47897642528,2.13254928084,12,4,8.5,200.91064225591,1.968504,0.447388,1.58208994564,0,0,0,203.9, -0.2, 0.5,0,0,1024,1024,1024,1024,0,0,0,0,215.7,0,0,100,4.271,4.269,0,0,0,0,4.485,70.88,200.91064225591,1.968504,6,P-GPS,
3900,2022-09-04 15:11:25,-34.8279345662395,-55.252615885399,1.968504,2.0013124,198.90932985591,200.91064225591,3.937008,0,1.44385503308,2.1769849778,12,4,8.5,200.91064225591,1.968504,0.447388,1.58208994564,0,0,0,203.9, -0.2, 0.4,0,0,1024,1024,1024,1024,0,0,0,0,215.7,0,0,100,4.271,4.269,0,0,0,0,4.485,70.88,200.91064225591,1.968504,6,P-GPS,"Punto de origen actualizado. Altitud de RPO establecida en 60m (Code: 3000001)"
4100,2022-09-04 15:11:25,-34.8279344042668,-55.2526158437194,1.968504,2.0013124,198.90932985591,200.91064225591,3.937008,0,1.40318902128,2.2373852422,12,4,8.5,200.91064225591,1.968504,0.447388,1.58208994564,0,0,0,203.8, 0.4, 0.6,0,0,1024,1024,1024,1024,0,0,0,0,215.7,0,0,100,4.271,4.269,0,0,0,0,4.485,70.88,200.91064225591,1.968504,6,P-GPS,
4200,2022-09-04 15:11:25,-34.827934006363,-55.252615951762,1.968504,2.0013124,198.90932985591,200.91064225591,3.937008,0,1.26886158916,2.3861221236,12,4,8.491,200.91064225591,1.968504,0.447388,1.58208994564,0,0,0,203.7, 1.2, 1.2,0,0,1024,1024,1024,1024,0,0,0,0,215.7,0,0,100,4.247,4.246,0,0,0,0,3.669,71.06,200.91064225591,1.968504,6,P-GPS,
4300,2022-09-04 15:11:25,-34.8279339704318,-55.2526158986976,1.968504,2.0013124,198.90932985591,200.91064225591,3.937008,0,1.26898626108,2.40672251796,12,4,8.491,200.91064225591,1.968504,0.447388,1.58208994564,0,0,0,203.6, 1.4, 1.4,0,0,1024,1024,1024,1024,0,0,0,0,215.7,0,0,100,4.247,4.246,0,0,0,0,3.669,71.06,200.91064225591,1.968504,6,P-GPS,
4400,2022-09-04 15:11:25,-34.8279339516261,-55.2526158362241,1.968504,2.0013124,198.90932985591,200.91064225591,3.937008,0,1.276000697,2.42665362096,12,4,8.491,200.91064225591,1.968504,0.447388,1.58208994564,0,0,0,203.6, 1, 2,0,0,1024,1024,1024,1024,0,0,0,0,215.7,0,0,100,4.247,4.246,0,0,0,0,3.669,71.06,200.91064225591,1.968504,6,P-GPS,
4500,2022-09-04 15:11:25,-34.8279339642303,-55.2526157570577,1.968504,2.0013124,198.90932985591,200.91064225591,3.937008,0,1.29515752176,2.4508038842,12,4,8.491,200.91064225591,1.968504,0.447388,1.58208994564,0,0,0,203.5, 1.3, 2,0,0,1024,1024,1024,1024,0,0,0,0,215.7,0,0,100,4.247,4.246,0,0,0,0,3.669,71.06,200.91064225591,1.968504,6,P-GPS,
4600,2022-09-04 15:11:25,-34.827934048387,-55.2526156822888,1.968504,2.0013124,198.90932985591,200.91064225591,3.937008,0,1.33297576444,2.48880585392,12,4,8.491,200.91064225591,1.968504,0.447388,1.58208994564,0,0,0,203.5, 2.3, 1.5,0,0,1024,1024,1024,1024,0,0,0,0,215.7,0,0,100,4.247,4.246,0,0,0,0,3.669,71.06,200.91064225591,1.968504,6,P-GPS,
4700,2022-09-04 15:11:25,-34.8279341558973,-55.2526155604755,2.296588,2.3293964,198.90932985591,201.23872625591,3.937008,0,1.3865321966,2.54237540944,12,4,8.491,201.23872625591,2.296588,0.447388,1.58208994564,0,0,0,203.5, 2.4, 1.5,0,0,1024,1024,1024,1024,0,0,0,0,215.7,0,0,100,4.247,4.246,0,0,0,0,3.669,71.06,201.23872625591,2.296588,6,P-GPS,
4800,2022-09-04 15:11:26,-34.8279342426604,-55.2526154434719,2.296588,2.3293964,198.90932985591,201.23872625591,3.937008,0,1.43348757868,2.5895998204,12,4,8.491,201.23872625591,2.296588,0.447388,1.58208994564,0,0,0,203.5, 1.7, 1.6,0,0,1024,1024,1024,1024,0,0,0,0,215.7,0,0,100,4.247,4.246,0,0,0,0,3.669,71.06,201.23872625591,2.296588,6,P-GPS,
4900,2022-09-04 15:11:26,-34.8279343041798,-55.2526153271389,2.296588,2.3293964,198.90932985591,201.23872625591,3.937008,0,1.47350398416,2.63104339128,12,4,8.491,201.23872625591,2.296588,0.447388,1.58208994564,0,0,0,203.5, 1.6, 1.5,0,0,1024,1024,1024,1024,0,0,0,0,215.7,0,0,100,4.247,4.246,0,0,0,0,3.669,71.06,201.23872625591,2.296588,6,P-GPS,
5000,2022-09-04 15:11:26,-34.8279346612625,-55.2526150725077,2.296588,2.3293964,198.90932985591,201.23872625591,3.937008,0,1.62146986816,2.7820046822,12,4,8.491,201.23872625591,2.296588,0.447388,1.62146986816,0,0,0,203.6, 2.2, 2,0,0,1024,1024,1024,1024,0,0,0,0,215.7,0,0,100,4.247,4.246,0,0,0,0,3.669,71.06,201.23872625591,2.296588,6,P-GPS,
5100,2022-09-04 15:11:26,-34.8279346915068,-55.252614954666,2.296588,2.3293964,198.90932985591,201.23872625591,3.937008,0,1.65314309752,2.818979749,12,4,8.491,201.23872625591,2.296588,0.447388,1.65314309752,0,0,0,203.6, 2.1, 2,0,0,1024,1024,1024,1024,0,0,0,0,215.7,0,0,100,4.247,4.246,0,0,0,0,3.669,71.06,201.23872625591,2.296588,6,P-GPS,
5200,2022-09-04 15:11:26,-34.8279347239527,-55.2526148398456,2.296588,2.3293964,198.90932985591,201.23872625591,4.265092,0,1.68501317728,2.85535114124,12,4,8.492,201.23872625591,2.296588,0.447388,1.68501317728,0,0,0,203.3, 1.4, 2.5,0,0,1024,1024,1024,1024,0,0,0,0,215.7,0,0,100,4.242,4.24,0,0,0,0,3.858,71.06,201.23872625591,2.296588,6,P-GPS,
5300,2022-09-04 15:11:26,-34.8279347849901,-55.2526147259026,2.296588,2.3293964,198.90932985591,201.23872625591,4.265092,0,1.72451777172,2.89609917404,12,4,8.492,201.23872625591,2.296588,0.447388,1.72451777172,0,0,0,203.4, 2.3, 2.4,0,0,1024,1024,1024,1024,0,0,0,0,215.7,0,0,100,4.242,4.24,0,0,0,0,3.858,71.06,201.23872625591,2.296588,6,P-GPS,
5400,2022-09-04 15:11:26,-34.8279348546573,-55.2526145330037,2.296588,2.3293964,198.90932985591,201.23872625591,4.265092,0,1.7826116056,2.95921597396,12,4,8.492,201.23872625591,2.296588,0.447388,1.7826116056,0,0,0,203.4, 2.3, 1.3,0,0,1231,1024,1024,1024,31,0,0,0,215.7,0,0,100,4.242,4.24,0,0,0,0,3.858,71.06,201.23872625591,2.296588,6,P-GPS,
5500,2022-09-04 15:11:26,-34.8279348549781,-55.2526143835574,2.296588,2.3293964,198.90932985591,201.23872625591,4.265092,0,1.81387472996,3.00397319324,12,4,8.492,201.23872625591,2.296588,0.447388,1.81387472996,0,0,0,203.4, 2.4, 1.9,0,0,1231,1024,1024,1024,31,0,0,0,215.7,0,0,100,4.242,4.24,0,0,0,0,3.858,71.06,201.23872625591,2.296588,6,P-GPS,
5600,2022-09-04 15:11:26,-34.8279348539848,-55.2526142524185,2.296588,2.3293964,198.90932985591,201.23872625591,4.265092,0,1.84144034764,3.04325140972,11,4,8.492,201.23872625591,2.296588,0.447388,1.84144034764,0,0,0,203.4, 0.2, 2.9,0,0,1680,1024,1024,1024,99,0,0,0,215.7,0,0,100,4.242,4.24,0,0,0,0,3.858,71.06,201.23872625591,2.296588,6,P-GPS,
5700,2022-09-04 15:11:26,-34.8279348752262,-55.2526141579732,2.296588,2.3293964,198.90932985591,201.23872625591,4.265092,0.223694,1.86711292064,3.07257883848,11,4,8.492,201.23872625591,2.296588,0.447388,1.86711292064,-0.223694,0,0,203.2, -6.9, 1.9,0,0,1684,1024,1024,1024,100,0,0,0,215.7,0,0,100,4.242,4.24,0,0,0,0,3.858,71.06,201.23872625591,2.296588,6,P-GPS,
5800,2022-09-04 15:11:27,-34.8279349998787,-55.252614104854,2.296588,2.3293964,198.90932985591,201.23872625591,3.937008,0.671082,1.91027893252,3.12076125472,11,4,8.492,201.23872625591,2.296588,0.671082,1.91027893252,-0.671082,0,0,202.7, -16.3, 2.5,0,0,1204,1024,1024,1024,27,0,0,0,215.7,0,0,100,4.242,4.24,0,0,0,0,3.858,71.06,201.23872625591,2.296588,6,P-GPS,
5900,2022-09-04 15:11:27,-34.8279352406303,-55.2526141100689,2.624672,2.6574804,198.90932985591,201.56681025591,3.937008,1.4092722,1.97194560116,3.2086123074,11,4,8.492,201.56681025591,2.624672,1.4092722,1.97194560116,-1.342164,-0.447388,0,202.8, -13.6, 2.4,0,0,1024,1024,1024,1024,0,0,0,0,215.7,0,0,100,4.242,4.24,0,0,0,0,3.858,71.06,201.56681025591,2.624672,6,P-GPS,
6000,2022-09-04 15:11:27,-34.827935818916,-55.25261422948,2.624672,2.6574804,198.90932985591,201.56681025591,3.937008,1.8342908,2.10738523804,3.4226050964,12,4,8.492,201.56681025591,2.624672,1.8342908,2.10738523804,-1.789552,-0.447388,0,203.6, -2.7, 2.7,0,0,1248,1024,1024,1024,34,0,0,0,215.7,0,0,100,4.242,4.24,0,0,0,0,3.858,71.06,201.56681025591,2.624672,6,P-GPS,
6100,2022-09-04 15:11:27,-34.827936624434,-55.2526143990783,2.624672,2.6574804,198.90932985591,201.56681025591,3.937008,1.8342908,2.31535112396,3.7208662608,12,4,8.492,201.56681025591,2.624672,1.8342908,2.31535112396,-1.789552,-0.447388,0,204.2, 8.5, 2.7,0,0,1462,1024,1024,1024,66,0,0,0,215.7,0,0,100,4.242,4.24,0,0,0,0,3.858,71.06,201.56681025591,2.624672,6,P-GPS,
6200,2022-09-04 15:11:27,-34.8279373038754,-55.2526145252423,2.624672,2.6574804,198.90932985591,201.56681025591,4.265092,1.8342908,2.50747055268,3.971620862,12,4,8.484,201.56681025591,2.624672,1.8342908,2.50747055268,-1.789552,-0.447388,0,203.9, 2.5, 2.9,0,0,1024,1024,1074,1024,0,0,8,0,215.7,0,0,100,4.241,4.24,0,0,0,0,3.961,71.06,201.56681025591,2.624672,6,P-GPS,
6300,2022-09-04 15:11:27,-34.8279380967306,-55.2526145080765,2.624672,2.6574804,198.90932985591,201.56681025591,4.265092,1.8342908,2.765338015,4.2609253332,12,4,8.484,201.56681025591,2.624672,1.8342908,2.765338015,-1.789552,-0.447388,0,203.4, -4.9, 2.7,0,0,1024,1024,1456,1024,0,0,65,0,215.7,0,0,100,4.241,4.24,0,0,0,0,3.961,71.06,201.56681025591,2.624672,6,P-GPS,
6400,2022-09-04 15:11:27,-34.8279387678042,-55.2526146480563,2.624672,2.6902888,198.87652145591,201.56681025591,4.265092,1.901399,2.96916348084,4.509350538,12,4,8.484,201.56681025591,2.624672,1.901399,2.96916348084,-1.789552,-0.671082,0,203.5, 1.8, 2.9,0,0,1024,1024,1456,1024,0,0,65,0,215.7,0,0,100,4.241,4.24,0,0,0,0,3.961,71.06,201.56681025591,2.624672,6,P-GPS,
6500,2022-09-04 15:11:27,-34.8279395549362,-55.2526148433418,2.624672,2.6902888,198.87652145591,201.56681025591,4.265092,1.6329662,3.21292989284,4.8024279752,12,4,8.484,201.56681025591,2.624672,1.901399,3.21292989284,-1.565858,-0.447388,-0.223694,203.6, 7.9, 2.5,0,0,1024,1024,1469,1024,0,0,67,0,215.7,0,0,100,4.241,4.24,0,0,0,0,3.961,71.06,201.56681025591,2.624672,6,P-GPS,
6600,2022-09-04 15:11:27,-34.8279401365684,-55.2526149660247,2.624672,2.6902888,198.87652145591,201.56681025591,4.265092,1.6329662,3.4001641508,5.0177823128,12,4,8.484,201.56681025591,2.624672,1.901399,3.4001641508,-1.11847,-0.447388,-0.894776,203.4, 6.8, 1.5,0,0,1024,1024,1656,1024,0,0,96,0,215.7,0,0,100,4.241,4.24,0,0,0,0,3.961,71.06,201.56681025591,2.624672,6,P-GPS,
6700,2022-09-04 15:11:27,-34.8279405732413,-55.252614890419,2.952756,3.0183728,198.87652145591,201.89489425591,4.593176,0.7158208,3.5583662556,5.1787075148,12,4,8.484,201.89489425591,2.952756,1.901399,3.5583662556,-0.671082,-0.223694,-1.789552,203.4, 6, 1.1,0,0,1024,1024,1626,1024,0,0,91,0,215.7,0,0,100,4.241,4.24,0,0,0,0,3.961,71.06,201.89489425591,2.952756,6,P-GPS,
6800,2022-09-04 15:11:27,-34.8279408288443,-55.2526148227684,3.28084,3.3464568,198.87652145591,202.22297825591,4.92126,0.671082,3.6532481484,5.2741471504,12,4,8.484,202.22297825591,3.28084,1.901399,3.6532481484,-0.671082,0,-2.684328,203.4, 4.6, 1.4,0,0,1024,1024,1593,1024,0,0,86,0,215.7,0,0,100,4.241,4.24,0,0,0,0,3.961,71.06,202.22297825591,3.28084,6,P-GPS,
6900,2022-09-04 15:11:28,-34.8279411068205,-55.2526147037044,3.608924,3.6745408,198.87652145591,202.55106225591,5.577428,0.223694,3.7607284668,5.3816274688,12,4,8.484,202.55106225591,3.608924,1.901399,3.7607284668,-0.223694,0,-3.579104,203.5, 3.6, 1.4,0,0,1134,1024,1144,1024,17,0,18,0,215.7,0,0,100,4.241,4.24,0,0,0,0,3.961,71.06,202.55106225591,3.608924,6,P-GPS,
7000,2022-09-04 15:11:28,-34.8279413409199,-55.2526146435856,4.265092,4.3307088,198.87652145591,203.20723025591,6.233596,0,3.8475066848,5.4689306212,12,4,8.484,203.20723025591,4.265092,1.901399,3.8475066848,0,0,-4.250186,203.6, 2.5, 1.9,0,0,1485,1024,1024,1024,70,0,0,0,215.7,0,0,100,4.241,4.24,0,0,0,0,3.961,71.06,203.20723025591,4.265092,6,P-GPS,
7100,2022-09-04 15:11:28,-34.8279418786208,-55.2526149689697,4.593176,4.6587928,198.87652145591,203.53531425591,6.889764,0,4.006561808,5.687992308,12,4,8.484,203.53531425591,4.593176,1.901399,4.006561808,0,0,-3.802798,203.5, 2.1, 3,0,0,1539,1024,1024,1024,78,0,0,0,215.7,0,0,100,4.241,4.24,0,0,0,0,3.961,71.06,203.53531425591,4.593176,6,P-GPS,
7200,2022-09-04 15:11:28,-34.8279419815189,-55.2526149858009,5.249344,5.3149608,198.87652145591,204.19148225591,7.217848,0,4.0413059036,5.7258532016,12,4,8.352,204.19148225591,5.249344,1.901399,4.0413059036,0,0,-3.131716,203.3, -4.8, 1.8,0,0,1539,1024,1024,1024,78,0,0,0,215.7,0,0,100,4.175,4.175,0,0,0,0,4.703,71.06,204.19148225591,5.249344,6,P-GPS,
7300,2022-09-04 15:11:28,-34.8279419161597,-55.2526149000883,5.577428,5.6430448,198.87652145591,204.51956625591,7.545932,0.223694,4.025426638,5.7608925728,12,4,8.352,204.51956625591,5.577428,1.901399,4.0413059036,-0.223694,0,-2.23694,203.2, -12.4, 1.6,0,0,1570,1024,1024,1024,83,0,0,0,215.7,0,0,100,4.175,4.175,0,0,0,0,4.703,71.06,204.51956625591,5.577428,6,P-GPS,
7400,2022-09-04 15:11:28,-34.8279420020177,-55.2526148151427,5.577428,5.6430448,198.87652145591,204.51956625591,7.874016,0.7158208,4.0626313636,5.8012469048,12,4,8.352,204.51956625591,5.577428,1.901399,4.0626313636,-0.671082,-0.223694,-1.565858,203.1, -17, 1.3,0,0,1581,1024,1024,1024,84,0,0,0,215.7,0,0,100,4.175,4.175,0,0,0,0,4.703,71.06,204.51956625591,5.577428,6,P-GPS,
7500,2022-09-04 15:11:28,-34.827942368219,-55.2526147142314,5.577428,5.6430448,198.87652145591,204.51956625591,7.874016,1.1408394,4.1993439664,5.9382219748,12,4,8.352,204.51956625591,5.577428,1.901399,4.1993439664,-1.11847,-0.223694,-0.671082,203.1, -19.5, 1.6,0,0,1553,1024,1304,1024,80,0,42,0,215.7,0,0,100,4.175,4.175,0,0,0,0,4.703,71.06,204.51956625591,5.577428,6,P-GPS,
7600,2022-09-04 15:11:28,-34.827942678589,-55.2526144956148,5.905512,5.9711288,198.87652145591,204.84765025591,7.874016,1.6329662,4.3265093248,6.0690290656,12,4,8.352,204.84765025591,5.905512,1.901399,4.3265093248,-1.565858,-0.447388,-0.447388,203.2, -18.9, 1.9,0,0,1542,1024,1274,1024,78,0,38,0,215.7,0,0,100,4.175,4.175,0,0,0,0,4.703,71.06,204.84765025591,5.905512,6,P-GPS,
7700,2022-09-04 15:11:28,-34.8279436026788,-55.2526147974067,5.905512,5.9711288,198.87652145591,204.84765025591,7.874016,2.6172198,4.6271655024,6.4181104416,12,4,8.352,204.84765025591,5.905512,2.6172198,4.6271655024,-2.460634,-0.894776,-0.671082,203.2, -17.3, 2,0,0,1368,1024,1269,1024,52,0,37,0,215.7,0,0,100,4.175,4.175,0,0,0,0,4.703,71.06,204.84765025591,5.905512,6,P-GPS,
7800,2022-09-04 15:11:29,-34.8279447511243,-55.2526152316852,5.905512,6.0039372,198.84371305591,204.84765025591,8.2021,3.3330406,5.0059384804,6.8568243664,12,4,8.352,204.84765025591,5.905512,3.3330406,5.0059384804,-3.131716,-1.11847,-0.894776,203.1, -14.1, 2.4,0,0,1406,1024,1290,1024,58,0,40,0,215.7,0,0,100,4.175,4.175,0,0,0,0,4.703,71.06,204.84765025591,5.905512,6,P-GPS,
7900,2022-09-04 15:11:29,-34.8279461549342,-55.2526158001077,6.233596,6.3320212,198.84371305591,205.17573425591,8.2021,3.8251674,5.4793636924,7.3965553548,12,4,8.352,205.17573425591,6.233596,3.8251674,5.4793636924,-3.579104,-1.342164,-0.894776,203.2, -9.5, 1.9,0,0,1221,1024,1271,1024,30,0,37,0,215.7,0,0,100,4.175,4.175,0,0,0,0,4.703,71.06,205.17573425591,6.233596,6,P-GPS,
8000,2022-09-04 15:11:29,-34.8279480738878,-55.252616657595,6.233596,6.3320212,198.84371305591,205.17573425591,8.530184,4.1159696,6.1418309052,8.1422902868,12,4,8.352,205.17573425591,6.233596,4.1159696,6.1418309052,-3.802798,-1.565858,-1.342164,203.1, -8.2, 0.8,0,0,1263,1024,1323,1024,36,0,45,0,215.7,0,0,100,4.175,4.175,0,0,0,0,4.703,71.06,205.17573425591,6.233596,6,P-GPS,
8100,2022-09-04 15:11:29,-34.827949918296,-55.2526173890637,6.56168,6.6601052,198.84371305591,205.50381825591,8.858268,4.5186188,6.7962928684,8.8500002832,12,4,8.352,205.50381825591,6.56168,4.5186188,6.7962928684,-4.250186,-1.565858,-1.342164,203, -5.1, 0.8,0,0,1263,1024,1323,1024,36,0,45,0,215.7,0,0,100,4.175,4.175,0,0,0,0,4.703,71.06,205.50381825591,6.56168,6,P-GPS,
8200,2022-09-04 15:11:29,-34.8279516615013,-55.2526180896198,6.889764,6.9881892,198.84371305591,205.83190225591,8.858268,4.5186188,7.4237863268,9.5197181524,12,4,8.495,205.83190225591,6.889764,4.5186188,7.4237863268,-4.250186,-1.565858,-1.565858,203.2, -2, 1.8,0,0,1271,1024,1334,1024,37,0,47,0,215.7,0,0,100,4.214,4.231,0,0,0,0,4.231,71.06,205.83190225591,6.889764,6,P-GPS,
8300,2022-09-04 15:11:29,-34.8279533942227,-55.2526188432253,6.889764,6.9881892,198.84371305591,205.83190225591,9.514436,4.5186188,8.0543637748,10.1909780164,12,4,8.495,205.83190225591,6.889764,4.5186188,8.0543637748,-4.250186,-1.565858,-1.789552,203.3, -1.6, 2.4,0,0,1340,1024,1329,1024,48,0,46,0,215.7,0,0,100,4.214,4.231,0,0,0,0,4.231,71.06,205.83190225591,6.889764,6,P-GPS,
8400,2022-09-04 15:11:29,-34.8279558303424,-55.252620017499,7.217848,7.3490816,198.81090465591,206.15998625591,9.84252,4.5186188,8.9524609164,11.1468507504,11,4,8.495,206.15998625591,7.217848,4.5186188,8.9524609164,-4.250186,-1.565858,-2.013246,203.4, -2.3, 3.2,0,0,1315,1024,1319,1024,44,0,45,0,215.7,0,0,100,4.214,4.231,0,0,0,0,4.231,71.06,206.15998625591,7.217848,6,P-GPS,
8500,2022-09-04 15:11:29,-34.827957830609,-55.2526208373521,7.545932,7.6771656,198.81090465591,206.48807025591,10.170604,4.5186188,9.6951118588,11.91683109,11,4,8.495,206.48807025591,7.545932,4.5186188,9.6951118588,-4.250186,-1.565858,-2.013246,203.3, -4.2, 3.2,0,0,1285,1024,1324,1024,40,0,45,0,215.7,0,0,100,4.214,4.231,0,0,0,0,4.231,71.06,206.48807025591,7.545932,6,P-GPS,
8600,2022-09-04 15:11:29,-34.8279597051891,-55.2526215979487,7.874016,8.0052496,198.81090465591,206.81615425591,10.498688,4.5186188,10.3944885216,12.6377300632,11,4,8.495,206.81615425591,7.874016,4.5186188,10.3944885216,-4.250186,-1.565858,-2.013246,203.3, -4.4, 3.9,0,0,1204,1024,1323,1024,27,0,45,0,215.7,0,0,100,4.214,4.231,0,0,0,0,4.231,71.06,206.81615425591,7.874016,6,P-GPS,
8700,2022-09-04 15:11:29,-34.8279615902335,-55.2526223576126,8.2021,8.3333336,198.81090465591,207.14423825591,10.826772,4.5186188,11.100394056,13.3621395352,11,4,8.495,207.14423825591,8.2021,4.5186188,11.100394056,-4.250186,-1.565858,-2.013246,203.2, -3.8, 3.2,0,0,1024,1024,1345,1024,0,0,49,0,215.7,0,0,100,4.214,4.231,0,0,0,0,4.231,71.06,207.14423825591,8.2021,6,P-GPS,
8800,2022-09-04 15:11:30,-34.8279629175358,-55.2526228036542,8.530184,8.6614176,198.81090465591,207.47232225591,11.154856,4.6080964,11.5959321296,13.864501756,12,4,8.495,207.47232225591,8.530184,4.6080964,11.5959321296,-4.250186,-1.789552,-2.013246,203.2, -1.4, 2.2,0,0,1024,1024,1380,1024,0,0,54,0,215.7,0,0,100,4.214,4.231,0,0,0,0,4.231,71.06,207.47232225591,8.530184,6,P-GPS,
8900,2022-09-04 15:11:30,-34.8279645868766,-55.2526235468468,8.858268,8.9895016,198.81090465591,207.80040625591,11.48294,4.6080964,12.226378344,14.5129269736,12,4,8.495,207.80040625591,8.858268,4.6080964,12.226378344,-4.250186,-1.789552,-2.013246,203.3, 7.4, 2.1,0,0,1024,1024,1380,1024,0,0,54,0,215.7,0,0,100,4.214,4.231,0,0,0,0,4.231,71.06,207.80040625591,8.858268,6,P-GPS,
9000,2022-09-04 15:11:30,-34.8279659956272,-55.2526241456378,9.186352,9.350394,198.77809625591,208.12849025591,11.811024,3.914645,12.7587274424,15.0573167548,12,4,8.495,208.12849025591,9.186352,4.6080964,12.7587274424,-3.579104,-1.565858,-2.23694,203.5, 16.7, 1.5,0,0,1024,1024,1380,1024,0,0,54,0,215.7,0,0,100,4.214,4.231,0,0,0,0,4.231,71.06,208.12849025591,9.186352,6,P-GPS,
9100,2022-09-04 15:11:30,-34.8279674844907,-55.2526247014923,9.514436,9.678478,198.77809625591,208.45657425591,12.139108,3.1093466,13.319226148,15.6254598176,12,4,8.495,208.45657425591,9.514436,4.6080964,13.319226148,-2.908022,-1.11847,-2.460634,203.4, 16.3, 1,0,0,1024,1024,1380,1024,0,0,54,0,215.7,0,0,100,4.214,4.231,0,0,0,0,4.231,71.06,208.45657425591,9.514436,6,P-GPS,
9200,2022-09-04 15:11:30,-34.8279685774535,-55.252625115716,9.84252,10.006562,198.77809625591,208.78465825591,12.467192,2.4158952,13.7313652688,16.0430779412,12,4,8.495,208.78465825591,9.84252,4.6080964,13.7313652688,-2.23694,-0.894776,-2.460634,203.3, 14.3, 0.7,0,0,1024,1024,1380,1024,0,0,54,0,215.7,0,0,100,4.214,4.231,0,0,0,0,4.231,71.06,208.78465825591,9.84252,6,P-GPS,
9300,2022-09-04 15:11:30,-34.8279695526765,-55.2526254536276,10.170604,10.334646,198.77809625591,209.11274225591,12.795276,1.7000744,14.0979663304,16.4129926512,12,4,8.45,209.11274225591,10.170604,4.6080964,14.0979663304,-1.565858,-0.671082,-2.684328,203.2, 12, 0.7,0,0,1024,1024,1380,1024,0,0,54,0,215.7,0,0,100,4.212,4.209,0,0,0,0,4.508,71.06,209.11274225591,10.170604,6,P-GPS,
9400,2022-09-04 15:11:30,-34.8279701415284,-55.2526256347783,10.498688,10.66273,198.77809625591,209.44082625591,13.451444,1.2079476,14.3184387784,16.6345805848,12,4,8.45,209.44082625591,10.498688,4.6080964,14.3184387784,-1.11847,-0.447388,-2.684328,201.2, 9.3, 1.1,0,0,1024,1024,1380,1024,0,0,54,0,215.7,0,0,100,4.212,4.209,0,0,0,0,4.508,71.06,209.44082625591,10.498688,6,P-GPS,
9500,2022-09-04 15:11:30,-34.8279706434083,-55.2526256425547,10.826772,10.990814,198.77809625591,209.76891025591,13.779528,0.7158208,14.4999348472,16.8177170736,12,4,8.45,209.76891025591,10.826772,4.6080964,14.4999348472,-0.671082,-0.223694,-2.684328,201.2, 7.4, 0.8,0,0,1024,1024,1382,1024,0,0,54,0,215.7,0,0,100,4.212,4.209,0,0,0,0,4.508,71.06,209.76891025591,10.826772,6,P-GPS,
9600,2022-09-04 15:11:30,-34.8279708808778,-55.2526256498602,11.48294,11.646982,198.77809625591,210.42507825591,14.107612,0.3131716,14.5859912804,16.904364058,12,4,8.45,210.42507825591,11.48294,4.6080964,14.5859912804,-0.223694,-0.223694,-2.684328,201.2, 5.5, 0.4,0,0,1024,1024,1378,1024,0,0,54,0,215.7,0,0,100,4.212,4.209,0,0,0,0,4.508,71.06,210.42507825591,11.48294,6,P-GPS,
9700,2022-09-04 15:11:30,-34.8279702300376,-55.2526258197279,11.811024,11.975066,198.77809625591,210.75316225591,14.435696,0.223694,14.3585634516,17.1472118348,12,4,8.45,210.75316225591,11.811024,4.6080964,14.5859912804,-0.223694,0,-2.684328,201.2, 4.1, 0.4,0,0,1024,1024,1379,1024,0,0,54,0,215.7,0,0,100,4.212,4.209,0,0,0,0,4.508,71.06,210.75316225591,11.811024,6,P-GPS,
9800,2022-09-04 15:11:31,-34.827970030488,-55.2526258796131,12.139108,12.30315,198.77809625591,211.08124625591,14.76378,0,14.2893049192,17.2222118372,12,4,8.45,211.08124625591,12.139108,4.6080964,14.5859912804,0,0,-2.684328,201.2, 3.3, 0,0,0,1024,1024,1379,1024,0,0,54,0,215.7,0,0,100,4.212,4.209,0,0,0,0,4.508,71.06,211.08124625591,12.139108,6,P-GPS,
9900,2022-09-04 15:11:31,-34.8279696847368,-55.2526258832893,12.467192,12.631234,198.77809625591,211.40933025591,15.091864,0,14.1647970412,17.3483601352,12,4,8.45,211.40933025591,12.467192,4.6080964,14.5859912804,0,0,-2.684328,201.2, 2.8, 0.1,0,0,1024,1024,1380,1024,0,0,54,0,215.7,0,0,100,4.212,4.209,0,0,0,0,4.508,71.06,211.40933025591,12.467192,6,P-GPS,
10000,2022-09-04 15:11:31,-34.8279694278302,-55.2526258456649,13.12336,13.287402,198.77809625591,212.06549825591,15.419948,0,14.0704400828,17.4427827104,12,4,8.45,212.06549825591,13.12336,4.6080964,14.5859912804,0,0,-2.684328,201.2, 1.9, 0.4,0,0,1024,1024,1403,1024,0,0,57,0,215.7,0,0,100,4.212,4.209,0,0,0,0,4.508,71.06,212.06549825591,13.12336,6,P-GPS,
10100,2022-09-04 15:11:31,-34.8279688338618,-55.2526255920009,13.451444,13.615486,198.77809625591,212.39358225591,16.076116,0,13.8447182908,17.672408702,12,4,8.45,212.39358225591,13.451444,4.6080964,14.5859912804,0,0,-2.684328,201.2, 1.8, 0.6,0,0,1024,1024,1401,1024,0,0,57,0,215.7,0,0,100,4.212,4.209,0,0,0,0,4.508,71.06,212.39358225591,13.451444,6,P-GPS,
10200,2022-09-04 15:11:31,-34.8279687169916,-55.2526255111229,14.107612,14.271654,198.77809625591,213.04975025591,16.4042,0,13.7989177644,17.72145726,12,4,8.45,213.04975025591,14.107612,4.6080964,14.5859912804,0,0,-2.684328,201.3, 2, -0.1,0,0,1024,1024,1401,1024,0,0,57,0,215.7,0,0,100,4.212,4.209,0,0,0,0,4.508,71.06,213.04975025591,14.107612,6,P-GPS,
10300,2022-09-04 15:11:31,-34.827968660566,-55.252625437686,14.435696,14.599738,198.77809625591,213.37783425591,16.732284,0,13.7752957164,17.7515753712,12,4,8.405,213.37783425591,14.435696,4.6080964,14.5859912804,0,0,-2.908022,201.4, 1.6, -0.3,0,0,1024,1024,1401,1024,0,0,57,0,215.7,0,0,100,4.209,4.204,0,0,0,0,4.911,71.06,213.37783425591,14.435696,6,P-GPS,
10400,2022-09-04 15:11:31,-34.8279686347813,-55.2526253251284,14.76378,14.927822,198.77809625591,213.70591825591,17.060368,0,13.7610568708,17.786581934,12,4,8.405,213.70591825591,14.76378,4.6080964,14.5859912804,0,0,-2.908022,201.3, 1.2, 0,0,0,1024,1024,1402,1024,0,0,57,0,215.7,0,0,100,4.209,4.204,0,0,0,0,4.911,71.06,213.70591825591,14.76378,6,P-GPS,
10500,2022-09-04 15:11:31,-34.8279692556841,-55.2526250347297,15.419948,15.58399,198.77809625591,214.36208625591,17.716536,0,13.9730319432,18.0292328604,12,4,8.405,214.36208625591,15.419948,4.6080964,14.5859912804,0,0,-2.908022,201.2, 0.2, 0,0,0,1024,1024,1404,1024,0,0,58,0,215.7,0,0,100,4.209,4.204,0,0,0,0,4.911,71.06,214.36208625591,15.419948,6,P-GPS,
10600,2022-09-04 15:11:31,-34.8279692891487,-55.2526248254778,16.076116,16.240158,198.77809625591,215.01825425591,18.04462,0,13.9766736756,18.0930780068,12,4,8.405,215.01825425591,16.076116,4.6080964,14.5859912804,0,0,-2.908022,201.3, 0, 1.4,0,0,1024,1024,1405,1024,0,0,58,0,215.7,0,0,100,4.209,4.204,0,0,0,0,4.911,71.06,215.01825425591,16.076116,6,P-GPS,
10700,2022-09-04 15:11:31,-34.8279692430181,-55.2526245707428,16.4042,16.568242,198.77809625591,215.34633825591,18.372704,0,13.9500660632,18.1711948072,12,4,8.405,215.34633825591,16.4042,4.6080964,14.5859912804,0,0,-2.908022,201.3, 0.4, 1.6,0,0,1024,1024,1405,1024,0,0,58,0,215.7,0,0,100,4.209,4.204,0,0,0,0,4.911,71.06,215.34633825591,16.4042,6,P-GPS,
10800,2022-09-04 15:11:32,-34.827969274522,-55.2526243623962,17.060368,17.22441,198.77809625591,216.00250625591,18.700788,0,13.9536749872,18.2346462528,12,4,8.405,216.00250625591,17.060368,4.6080964,14.5859912804,0,0,-2.908022,201.2, 0.6, 2.3,0,0,1024,1024,1405,1024,0,0,58,0,215.7,0,0,100,4.209,4.204,0,0,0,0,4.911,71.06,216.00250625591,17.060368,6,P-GPS,
10900,2022-09-04 15:11:32,-34.8279694424471,-55.2526242131547,17.716536,17.880578,198.77809625591,216.65867425591,19.028872,0,14.0090883748,18.3104992736,12,4,8.405,216.65867425591,17.716536,4.6080964,14.5859912804,0,0,-2.908022,201.3, 0.7, 3.1,0,0,1024,1024,1405,1024,0,0,58,0,215.7,0,0,100,4.209,4.204,0,0,0,0,4.911,71.06,216.65867425591,17.716536,6,P-GPS,
11000,2022-09-04 15:11:32,-34.8279700570154,-55.252624103484,18.04462,18.208662,198.77809625591,216.98675825591,19.356956,0,14.2279204028,18.5371068924,12,4,8.405,216.98675825591,18.04462,4.6080964,14.5859912804,0,0,-2.684328,201.4, 1.3, 3.6,0,0,1024,1024,1405,1024,0,0,58,0,215.7,0,0,100,4.209,4.204,0,0,0,0,4.911,71.06,216.98675825591,18.04462,6,P-GPS,
11100,2022-09-04 15:11:32,-34.8279700930268,-55.2526238194502,18.700788,18.86483,198.77809625591,217.64292625591,19.68504,0,14.23146371,18.623196134,12,4,8.405,217.64292625591,18.700788,4.6080964,14.5859912804,0,0,-2.908022,201.2, 0.8, 3.3,0,0,1024,1024,1405,1024,0,0,58,0,215.7,0,0,100,4.209,4.204,0,0,0,0,4.911,71.06,217.64292625591,18.700788,6,P-GPS,
11200,2022-09-04 15:11:32,-34.8279701042207,-55.2526235984821,19.356956,19.520998,198.77809625591,218.29909425591,20.341208,0,14.2284453372,18.6895019104,12,4,8.405,218.29909425591,19.356956,4.6080964,14.5859912804,0,0,-2.908022,201.1, 0.5, 3.1,0,0,1083,1024,1405,1024,9,0,58,0,215.7,0,0,100,4.209,4.204,0,0,0,0,4.911,71.06,218.29909425591,19.356956,6,P-GPS,
11300,2022-09-04 15:11:32,-34.8279700882001,-55.2526234445116,20.013124,20.177166,198.77809625591,218.95526225591,20.669292,0,14.2179138408,18.7359586048,12,4,8.402,218.95526225591,20.013124,4.6080964,14.5859912804,0,0,-2.684328,201.4, -0.1, 1.9,0,0,1214,1024,1404,1024,29,0,58,0,215.7,0,0,99,4.181,4.18,0,0,0,0,4.785,71.06,218.95526225591,20.013124,6,P-GPS,
11400,2022-09-04 15:11:32,-34.8279701383594,-55.2526233732781,20.341208,20.50525,198.77809625591,219.28334625591,20.997376,0,14.2339899568,18.7640754036,12,4,8.402,219.28334625591,20.341208,4.6080964,14.5859912804,0,0,-2.908022,201.2, -0.1, 1.7,0,0,1231,1024,1405,1024,31,0,58,0,215.7,0,0,99,4.181,4.18,0,0,0,0,4.785,71.06,219.28334625591,20.341208,6,P-GPS,
11500,2022-09-04 15:11:32,-34.8279701994326,-55.2526233186972,20.997376,21.161418,198.77809625591,219.93951425591,21.653544,0,14.2545280152,18.7917000764,12,4,8.402,219.93951425591,20.997376,4.6080964,14.5859912804,0,0,-3.131716,200.9, -1.5, 3.3,0,0,1234,1024,1404,1024,32,0,58,0,215.7,0,0,99,4.181,4.18,0,0,0,0,4.785,71.06,219.93951425591,20.997376,6,P-GPS,
11600,2022-09-04 15:11:32,-34.8279702940159,-55.2526233250425,21.653544,21.817586,198.77809625591,220.59568225591,21.981628,0.223694,14.289042452,18.82628013,12,4,8.402,220.59568225591,21.653544,4.6080964,14.5859912804,-0.223694,0,-2.908022,200.7, -2.2, 3.1,0,0,1265,1024,1404,1024,37,0,58,0,215.7,0,0,99,4.181,4.18,0,0,0,0,4.785,71.06,220.59568225591,21.653544,6,P-GPS,
11700,2022-09-04 15:11:32,-34.8279704612766,-55.2526234721315,21.981628,22.14567,198.77809625591,220.92376625591,22.309712,0.3131716,14.354167126,18.9015425996,12,4,8.402,220.92376625591,21.981628,4.6080964,14.5859912804,-0.223694,-0.223694,-3.131716,200.7, -2.7, 1.7,0,0,1265,1024,1404,1024,37,0,58,0,215.7,0,0,99,4.181,4.18,0,0,0,0,4.785,71.06,220.92376625591,21.981628,6,P-GPS,
11800,2022-09-04 15:11:33,-34.8279708085944,-55.2526240477616,22.637796,22.801838,198.77809625591,221.57993425591,22.96588,0.4921268,14.4984912776,19.115486176,12,4,8.402,221.57993425591,22.637796,4.6080964,14.5859912804,-0.447388,-0.223694,-3.131716,201, -2, 1.3,0,0,1298,1024,1403,1024,42,0,57,0,215.7,0,0,99,4.181,4.18,0,0,0,0,4.785,71.06,221.57993425591,22.637796,6,P-GPS,
11900,2022-09-04 15:11:33,-34.8279711356446,-55.2526242248617,22.96588,23.129922,198.77809625591,221.90801825591,23.293964,0.7158208,14.623031964,19.2460964164,12,4,8.402,221.90801825591,22.96588,4.6080964,14.623031964,-0.671082,-0.223694,-3.131716,201.2, -2.7, 1.8,0,0,1422,1024,1403,1024,60,0,57,0,215.7,0,0,99,4.181,4.18,0,0,0,0,4.785,71.06,221.90801825591,22.96588,6,P-GPS,
12000,2022-09-04 15:11:33,-34.8279714749862,-55.2526243668251,23.622048,23.78609,198.77809625591,222.56418625591,23.622048,0.9171454,14.7509191072,19.3770019324,12,4,8.402,222.56418625591,23.622048,4.6080964,14.7509191072,-0.894776,-0.223694,-3.131716,201.3, -4, 2.4,0,0,1470,1024,1403,1024,68,0,57,0,215.7,0,0,99,4.181,4.18,0,0,0,0,4.785,71.06,222.56418625591,23.622048,6,P-GPS,
12100,2022-09-04 15:11:33,-34.8279719387476,-55.2526245076379,23.950132,24.114174,198.77809625591,222.89227025591,24.278216,1.2079476,14.923884992,19.5513785784,12,4,8.402,222.89227025591,23.950132,4.6080964,14.923884992,-1.11847,-0.447388,-3.131716,200.8, -7.9, 1.6,0,0,1481,1024,1403,1024,69,0,57,0,215.7,0,0,99,4.181,4.18,0,0,0,0,4.785,71.06,222.89227025591,23.950132,6,P-GPS,
12200,2022-09-04 15:11:33,-34.8279727220649,-55.2526248069962,24.6063,24.8031504,198.74528785591,223.54843825591,24.6063,1.6329662,15.2183731904,19.850886462,12,4,8.402,223.54843825591,24.6063,4.6080964,15.2183731904,-1.565858,-0.447388,-3.131716,200.7, -10, 1.7,0,0,1507,1024,1403,1024,73,0,57,0,215.7,0,0,99,4.181,4.18,0,0,0,0,4.785,71.06,223.54843825591,24.6063,6,P-GPS,
12300,2022-09-04 15:11:33,-34.8279734919509,-55.2526252013595,24.934384,25.1312344,198.74528785591,223.87652225591,25.262468,2.125093,15.5117459032,20.1556108812,12,4,8.377,223.87652225591,24.934384,4.6080964,15.5117459032,-2.013246,-0.671082,-2.908022,200.8, -9.6, 1.8,0,0,1506,1024,1404,1024,73,0,58,0,215.7,0,0,99,4.198,4.196,0,0,0,0,5.265,71.06,223.87652225591,24.934384,6,P-GPS,
12400,2022-09-04 15:11:33,-34.8279743972225,-55.2526256300533,25.590552,25.7874024,198.74528785591,224.53269025591,25.590552,2.5501116,15.8558404024,20.5099744096,12,4,8.377,224.53269025591,25.590552,4.6080964,15.8558404024,-2.460634,-0.671082,-2.908022,201, -10.3, 2,0,0,1476,1024,1405,1024,68,0,58,0,215.7,0,0,99,4.198,4.196,0,0,0,0,5.265,71.06,224.53269025591,25.590552,6,P-GPS,
12500,2022-09-04 15:11:33,-34.8279754591569,-55.2526260875175,25.918636,26.1154864,198.74528785591,224.86077425591,26.24672,3.0422384,16.25820262,20.920932428,12,4,8.377,224.86077425591,25.918636,4.6080964,16.25820262,-2.908022,-0.894776,-2.908022,201.3, -10.5, 3.8,0,0,1275,1024,1405,1024,38,0,58,0,215.7,0,0,99,4.198,4.196,0,0,0,0,5.265,71.06,224.86077425591,25.918636,6,P-GPS,
12600,2022-09-04 15:11:33,-34.8279766173844,-55.2526265877956,26.24672,26.4435704,198.74528785591,225.18885825591,26.902888,3.3330406,16.6976055212,21.3692920224,12,4,8.377,225.18885825591,26.24672,4.6080964,16.6976055212,-3.131716,-1.11847,-2.908022,201.6, -9.6, 3.6,0,0,1275,1024,1405,1024,38,0,58,0,215.7,0,0,99,4.198,4.196,0,0,0,0,5.265,71.06,225.18885825591,26.24672,6,P-GPS,
12700,2022-09-04 15:11:33,-34.8279779429964,-55.252626999966,26.902888,27.0997384,198.74528785591,225.84502625591,27.559056,3.7580592,17.1939966132,21.86843902,12,4,8.377,225.84502625591,26.902888,4.6080964,17.1939966132,-3.579104,-1.11847,-2.908022,201.6, -6.8, 2.5,0,0,1167,1024,1405,1024,22,0,58,0,215.7,0,0,99,4.198,4.196,0,0,0,0,5.265,71.06,225.84502625591,26.902888,6,P-GPS,
12800,2022-09-04 15:11:34,-34.8279793496887,-55.2526276028324,27.230972,27.4278224,198.74528785591,226.17311025591,27.88714,3.7580592,17.728347024,22.4125007172,12,4,8.377,226.17311025591,27.230972,4.6080964,17.728347024,-3.579104,-1.11847,-2.908022,201.6, -2, 2.9,0,0,1045,1024,1402,1024,3,0,57,0,215.7,0,0,99,4.198,4.196,0,0,0,0,5.265,71.06,226.17311025591,27.230972,6,P-GPS,
12900,2022-09-04 15:11:34,-34.8279809437237,-55.2526283029933,27.88714,28.1167988,198.71247945591,226.82927825591,28.543308,3.7580592,18.3353680408,23.0307422068,12,4,8.377,226.82927825591,27.88714,4.6080964,18.3353680408,-3.579104,-1.11847,-2.908022,201.6, 0.8, 2.5,0,0,1024,1024,1404,1024,0,0,58,0,215.7,0,0,99,4.198,4.196,0,0,0,0,5.265,71.06,226.82927825591,27.88714,6,P-GPS,
13000,2022-09-04 15:11:34,-34.8279823375056,-55.2526288767357,28.215224,28.4448828,198.71247945591,227.15736225591,29.199476,3.7580592,18.86483,23.5674876308,12,4,8.377,227.15736225591,28.215224,4.6080964,18.86483,-3.579104,-1.11847,-2.908022,201.9, 11.8, 2.2,0,0,1024,1024,1404,1024,0,0,58,0,215.7,0,0,99,4.198,4.196,0,0,0,0,5.265,71.06,227.15736225591,28.215224,6,P-GPS,
13100,2022-09-04 15:11:34,-34.8279841208472,-55.2526293747361,28.871392,29.1010508,198.71247945591,227.81353025591,29.52756,3.0422384,19.5311029872,24.2350401456,12,4,8.377,227.81353025591,28.871392,4.6080964,19.5311029872,-2.908022,-0.894776,-2.908022,201.9, 16.7, 3.5,0,0,1024,1024,1392,1024,0,0,56,0,215.7,0,0,99,4.198,4.196,0,0,0,0,5.265,71.06,227.81353025591,28.871392,6,P-GPS,
13200,2022-09-04 15:11:34,-34.8279853119889,-55.2526297962874,29.199476,29.4291348,198.71247945591,228.14161425591,29.855644,2.3264176,19.980643684,24.6875664068,12,4,8.377,228.14161425591,29.199476,4.6080964,19.980643684,-2.23694,-0.671082,-2.908022,201.9, 15, 3.1,0,0,1024,1024,1374,1024,0,0,53,0,215.7,0,0,99,4.198,4.196,0,0,0,0,5.265,71.06,228.14161425591,29.199476,6,P-GPS,
13300,2022-09-04 15:11:34,-34.8279863268091,-55.2526301817785,29.855644,30.0853028,198.71247945591,228.79778225591,30.511812,1.8342908,20.3650268984,25.0754273116,12,4,8.391,228.79778225591,29.855644,4.6080964,20.3650268984,-1.789552,-0.447388,-2.908022,201.7, 12.3, 3.6,0,0,1024,1024,1384,1024,0,0,55,0,215.7,0,0,99,4.188,4.183,0,0,0,0,4.645,71.24,228.79778225591,29.855644,6,P-GPS,
13400,2022-09-04 15:11:34,-34.8279871516356,-55.2526304691702,30.511812,30.7414708,198.71247945591,229.45395025591,30.839896,1.3645334,20.6762473808,25.3884194476,12,4,8.391,229.45395025591,30.511812,4.6080964,20.6762473808,-1.342164,-0.223694,-2.684328,201.3, 11.8, 2.6,0,0,1024,1024,1384,1024,0,0,55,0,215.7,0,0,99,4.188,4.183,0,0,0,0,4.645,71.24,229.45395025591,30.511812,6,P-GPS,
13500,2022-09-04 15:11:34,-34.8279883503527,-55.2526309272776,31.16798,31.4304472,198.67967105591,230.11011825591,31.16798,1.11847,21.130742146,25.846785604,12,4,8.391,230.11011825591,31.16798,4.6080964,21.130742146,-1.11847,0,-2.908022,201.2, 9.6, 3.1,0,0,1024,1024,1386,1024,0,0,55,0,215.7,0,0,99,4.188,4.183,0,0,0,0,4.645,71.24,230.11011825591,31.16798,6,P-GPS,
13600,2022-09-04 15:11:34,-34.8279888942335,-55.2526310595012,31.496064,31.7585312,198.67967105591,230.43820225591,31.824148,0.894776,21.3330387404,26.0491478152,12,4,8.391,230.43820225591,31.496064,4.6080964,21.3330387404,-0.894776,0,-2.908022,201.8, 8.7, 2.6,0,0,1024,1024,1387,1024,0,0,55,0,215.7,0,0,99,4.188,4.183,0,0,0,0,4.645,71.24,230.43820225591,31.496064,6,P-GPS,
13700,2022-09-04 15:11:34,-34.8279891746776,-55.2526310849295,32.152232,32.4146992,198.67967105591,231.09437025591,32.152232,0.671082,21.4351056728,26.151739682,12,4,8.391,231.09437025591,32.152232,4.6080964,21.4351056728,-0.671082,0,-2.908022,201.7, 6.8, 3.8,0,0,1024,1024,1386,1024,0,0,55,0,215.7,0,0,99,4.188,4.183,0,0,0,0,4.645,71.24,231.09437025591,32.152232,6,P-GPS,
13800,2022-09-04 15:11:35,-34.8279893506082,-55.2526310179932,32.480316,32.7427832,198.67967105591,231.42245425591,32.480316,0.447388,21.4948497692,26.218996902,12,4,8.391,231.42245425591,32.480316,4.6080964,21.4948497692,-0.447388,0,-2.908022,201.5, 6.4, 4.9,0,0,1024,1024,1374,1024,0,0,53,0,215.7,0,0,99,4.188,4.183,0,0,0,0,4.645,71.24,231.42245425591,32.480316,6,P-GPS,
13900,2022-09-04 15:11:35,-34.8279888858112,-55.2526303418986,33.136484,33.3989512,198.67967105591,232.07862225591,33.136484,0.3131716,21.2935702352,26.483104522,12,4,8.391,232.07862225591,33.136484,4.6080964,21.4948497692,-0.223694,0.223694,-2.684328,201.5, 5.2, 4.8,0,0,1024,1024,1256,1024,0,0,35,0,215.7,0,0,99,4.188,4.183,0,0,0,0,4.645,71.24,232.07862225591,33.136484,6,P-GPS,
14000,2022-09-04 15:11:35,-34.8279888576912,-55.2526301353888,33.792652,34.0551192,198.67967105591,232.73479025591,33.464568,0.223694,21.2733602608,26.5458013744,12,4,8.391,232.73479025591,33.792652,4.6080964,21.4948497692,0,0.223694,-2.684328,201.4, 3.5, 4.1,0,0,1024,1024,1024,1024,0,0,0,0,215.7,0,0,99,4.188,4.183,0,0,0,0,4.645,71.24,232.73479025591,33.792652,6,P-GPS,
14100,2022-09-04 15:11:35,-34.8279886883591,-55.2526298989788,34.120736,34.3832032,198.67967105591,233.06287425591,33.792652,0.223694,21.2010177388,26.639764632,12,4,8.391,233.06287425591,34.120736,4.6080964,21.4948497692,0,0.223694,-2.23694,201.5, 3.6, 4.6,0,0,1024,1024,1024,1024,0,0,0,0,215.7,0,0,99,4.188,4.183,0,0,0,0,4.645,71.24,233.06287425591,34.120736,6,P-GPS,
14200,2022-09-04 15:11:35,-34.8279885587219,-55.2526296700464,34.44882,34.7112872,198.67967105591,233.39095825591,34.120736,0.223694,21.1435046136,26.7230651596,12,4,8.391,233.39095825591,34.44882,4.6080964,21.4948497692,0,0.223694,-1.565858,201.3, 3.1, 4.4,0,0,1024,1024,1024,1024,0,0,0,0,215.7,0,0,99,4.188,4.183,0,0,0,0,4.645,71.24,233.39095825591,34.44882,6,P-GPS,
14300,2022-09-04 15:11:35,-34.8279885288562,-55.2526294397338,34.44882,34.7112872,198.67967105591,233.39095825591,34.120736,0.223694,21.1220807284,26.7928814348,12,4,8.391,233.39095825591,34.44882,4.6080964,21.4948497692,0,0.223694,-0.894776,201.1, 1.9, 4.2,0,0,1024,1024,1024,1024,0,0,0,0,215.7,0,0,99,4.188,4.183,0,0,0,0,4.645,71.24,233.39095825591,34.44882,6,P-GPS,
14400,2022-09-04 15:11:35,-34.8279881667685,-55.2526289320876,34.776904,35.0393712,198.67967105591,233.71904225591,34.44882,0.223694,20.9686358416,26.9942922024,14,4,8.396,233.71904225591,34.776904,4.6080964,21.4948497692,0,0.223694,-0.447388,200.8, -0.1, 4.1,0,0,1024,1024,1024,1024,0,0,0,0,215.7,0,0,99,4.235,4.236,0,0,0,0,4.755,71.24,233.71904225591,34.776904,6,P-GPS,
14500,2022-09-04 15:11:35,-34.8279881606585,-55.2526287630757,35.104988,35.3674552,198.67967105591,234.04712625591,34.44882,0.223694,20.9590557888,27.0449811804,14,4,8.396,234.04712625591,35.104988,4.6080964,21.4948497692,0,0.223694,-0.223694,201.1, 0, 4.5,0,0,1024,1024,1024,1024,0,0,0,0,215.7,0,0,99,4.235,4.236,0,0,0,0,4.755,71.24,234.04712625591,35.104988,6,P-GPS,
14600,2022-09-04 15:11:35,-34.8279881384596,-55.2526285828395,35.104988,35.3674552,198.67967105591,234.04712625591,34.44882,0.223694,20.9433077568,27.0995415496,14,4,8.396,234.04712625591,35.104988,4.6080964,21.4948497692,0,0.223694,0,201.1, 0.2, 4.1,0,0,1024,1024,1024,1024,0,0,0,0,215.7,0,0,99,4.235,4.236,0,0,0,0,4.755,71.24,234.04712625591,35.104988,6,P-GPS,
14700,2022-09-04 15:11:35,-34.8279879561846,-55.252628239454,35.104988,35.3674552,198.67967105591,234.04712625591,34.44882,0.223694,20.8630584104,27.2220153068,14,4,8.396,234.04712625591,35.104988,4.6080964,21.4948497692,0,0.223694,0,201.6, 2.1, 4.6,0,0,1024,1024,1024,1024,0,0,0,0,215.7,0,0,99,4.235,4.236,0,0,0,0,4.755,71.24,234.04712625591,35.104988,6,P-GPS,
14800,2022-09-04 15:11:36,-34.8279873843858,-55.2526275199337,35.433072,35.6955392,198.67967105591,234.37521025591,34.44882,0.223694,20.6275597152,27.5219496996,14,4,8.396,234.37521025591,35.433072,4.6080964,21.4948497692,0,0.223694,0,201.6, 2.2, 4.6,0,0,1024,1024,1024,862,0,0,0,-25,215.7,0,0,99,4.235,4.236,0,0,0,0,4.755,71.24,234.37521025591,35.433072,6,P-GPS,
14900,2022-09-04 15:11:36,-34.8279870910314,-55.2526269723031,35.433072,35.6955392,198.67967105591,234.37521025591,34.44882,0.223694,20.500820866,27.7178158476,14,4,8.396,234.37521025591,35.433072,4.6080964,21.4948497692,0,0.223694,0,201.7, 1.5, 4.5,0,0,1024,1024,1024,1024,0,0,0,0,215.6,0,0,99,4.235,4.236,0,0,0,0,4.755,71.24,234.37521025591,35.433072,6,P-GPS,
15000,2022-09-04 15:11:36,-34.8279868419967,-55.252626495962,35.761156,36.0236232,198.67967105591,234.70329425591,34.44882,0,20.39370144,27.8869431496,14,4,8.396,234.70329425591,35.761156,4.6080964,21.4948497692,0,0,0,201.4, 1.8, 4.3,0,0,1024,1024,1024,1024,0,0,0,0,215.4,0,0,99,4.235,4.236,0,0,0,0,4.755,71.24,234.70329425591,35.761156,6,P-GPS,
15100,2022-09-04 15:11:36,-34.8279865968377,-55.2526259757987,35.761156,36.0236232,198.67967105591,234.70329425591,34.44882,0.223694,20.287402224,28.0665691396,14,4,8.396,234.70329425591,35.761156,4.6080964,21.4948497692,0,0.223694,0,201.1, 0.6, 4.3,0,0,1024,1024,1024,1024,0,0,0,0,215.2,0,0,99,4.235,4.236,0,0,0,0,4.755,71.24,234.70329425591,35.761156,6,P-GPS,
15200,2022-09-04 15:11:36,-34.8279859959354,-55.2526245983496,36.08924,36.3517072,198.67967105591,235.03137825591,34.44882,0,20.0284783312,28.5337607556,14,4,8.396,235.03137825591,36.08924,4.6080964,21.4948497692,0,0,0,200.8, -1.1, 4.5,0,0,1024,1024,1024,1024,0,0,0,0,215.1,0,0,99,4.235,4.236,0,0,0,0,4.755,71.24,235.03137825591,36.08924,6,P-GPS,
15300,2022-09-04 15:11:36,-34.8279858186173,-55.2526241624639,36.08924,36.3517072,198.67967105591,235.03137825591,34.44882,0,19.9528221608,28.67946286,14,4,8.396,235.03137825591,36.08924,4.6080964,21.4948497692,0,0,0,200.4, 0.4, 5.7,0,0,1024,1024,1024,1024,0,0,0,0,215.1,0,0,99,4.235,4.236,0,0,0,0,4.755,71.24,235.03137825591,36.08924,6,P-GPS,
15400,2022-09-04 15:11:36,-34.827985665231,-55.2526238109641,36.08924,36.3517072,198.67967105591,235.03137825591,34.44882,0,19.8885833136,28.7986885856,15,4,8.443,235.03137825591,36.08924,4.6080964,21.4948497692,0,0,0,200.6, -0.1, 5.2,0,0,1024,1024,1024,1024,0,0,0,0,215.1,0,0,99,4.211,4.207,0,0,0,0,3.485,71.42,235.03137825591,36.08924,6,P-GPS,
15500,2022-09-04 15:11:36,-34.827985525771,-55.2526235323194,36.08924,36.3517072,198.67967105591,235.03137825591,34.44882,0,19.8314966976,28.8964248092,15,4,8.443,235.03137825591,36.08924,4.6080964,21.4948497692,0,0,0,200.6, 0.9, 4.9,0,0,1024,1024,1024,1024,0,0,0,0,215.1,0,0,99,4.211,4.207,0,0,0,0,3.485,71.42,235.03137825591,36.08924,6,P-GPS,
15600,2022-09-04 15:11:36,-34.8279854473061,-55.2526234359786,36.08924,36.3517072,198.67967105591,235.03137825591,34.44882,0,19.800853652,28.9370744168,15,4,8.443,235.03137825591,36.08924,4.6080964,21.4948497692,0,0,0,200.7, -0.5, 4,0,0,1024,1024,1024,1024,0,0,0,0,215.1,0,0,99,4.211,4.207,0,0,0,0,3.485,71.42,235.03137825591,36.08924,6,P-GPS,
15700,2022-09-04 15:11:36,-34.8279852538078,-55.2526231927993,36.08924,36.3517072,198.67967105591,235.03137825591,34.44882,0,19.7252630984,29.0384851812,15,4,8.443,235.03137825591,36.08924,4.6080964,21.4948497692,0,0,0,200.5, 1.4, 3.1,0,0,1024,1024,1024,1024,0,0,0,0,215.1,0,0,99,4.211,4.207,0,0,0,0,3.485,71.42,235.03137825591,36.08924,6,P-GPS,
15800,2022-09-04 15:11:37,-34.8279850648627,-55.2526229722891,36.08924,36.3517072,198.67967105591,235.03137825591,34.44882,0,19.6520347496,29.1339576252,15,4,8.443,235.03137825591,36.08924,4.6080964,21.4948497692,0,0,0,200.9, 1.3, 3.9,0,0,1024,1024,1024,1024,0,0,0,0,215.1,0,0,99,4.211,4.207,0,0,0,0,3.485,71.42,235.03137825591,36.08924,6,P-GPS,
15900,2022-09-04 15:11:37,-34.8279848513607,-55.2526227579585,35.761156,36.0236232,198.67967105591,234.70329425591,34.44882,0,19.5701449832,29.234909072,15,4,8.443,235.03137825591,36.08924,4.6080964,21.4948497692,0,0,0,200.8, 1.1, 5.9,0,0,1024,1024,1024,808,0,0,0,-33,215.1,0,0,99,4.211,4.207,0,0,0,0,3.485,71.42,234.70329425591,35.761156,6,P-GPS,
16000,2022-09-04 15:11:37,-34.8279846702386,-55.2526226037662,35.761156,36.0236232,198.67967105591,234.70329425591,34.44882,0,19.5013457684,29.3155193108,15,4,8.443,235.03137825591,36.08924,4.6080964,21.4948497692,0,0,0.223694,200.9, -0.2, 4.5,0,0,1024,1024,1024,364,0,0,0,-100,215.1,0,0,99,4.211,4.207,0,0,0,0,3.485,71.42,234.70329425591,35.761156,6,P-GPS,
16100,2022-09-04 15:11:37,-34.8279846252806,-55.2526227372697,35.761156,36.0236232,198.67967105591,234.70329425591,34.44882,0,19.4874350068,29.3587279736,15,4,8.443,235.03137825591,36.08924,4.6080964,21.4948497692,0,0,0.223694,200.6, -0.5, 4.3,0,0,1024,1024,1024,364,0,0,0,-100,213.7,0,0,99,4.211,4.207,0,0,0,0,3.485,71.42,234.70329425591,35.761156,6,P-GPS,
16200,2022-09-04 15:11:37,-34.8279844660122,-55.252622611861,35.433072,35.6955392,198.67967105591,234.37521025591,34.44882,0,19.4271003592,29.4279208892,15,4,8.443,235.03137825591,36.08924,4.6080964,21.4948497692,0,0,0,197.8, -1.6, 4.8,0,0,1024,1024,1024,364,0,0,0,-100,209.6,0,0,99,4.211,4.207,0,0,0,0,3.485,71.42,234.37521025591,35.433072,6,P-GPS,
16300,2022-09-04 15:11:37,-34.82798429285,-55.2526224531184,35.433072,35.6955392,198.67967105591,234.37521025591,34.44882,0,19.3611882836,29.5069891332,15,4,8.443,235.03137825591,36.08924,4.6080964,21.4948497692,0,0,0,193.1, -1.5, 3.8,0,0,1024,1024,1024,364,0,0,0,-100,204.8,0,0,99,4.211,4.207,0,0,0,0,3.485,71.42,234.37521025591,35.433072,6,P-GPS,
16400,2022-09-04 15:11:37,-34.8279841503351,-55.2526223215979,35.433072,35.6955392,198.67967105591,234.37521025591,34.44882,0.223694,19.3069888068,29.5722122324,15,4,8.418,235.03137825591,36.08924,4.6080964,21.4948497692,0,-0.223694,0,188.4, -0.7, 3.7,0,0,1024,1024,1024,364,0,0,0,-100,200,0,0,99,4.202,4.197,0,0,0,0,3.983,71.42,234.37521025591,35.433072,6,P-GPS,
16500,2022-09-04 15:11:37,-34.8279840533124,-55.2526221468995,35.433072,35.6955392,198.67967105591,234.37521025591,34.44882,0,19.2687342124,29.6354012108,15,4,8.418,235.03137825591,36.08924,4.6080964,21.4948497692,0,0,0,183.3, -0.7, 2.5,0,0,1024,1024,1024,364,0,0,0,-100,195.2,0,0,99,4.202,4.197,0,0,0,0,3.983,71.42,234.37521025591,35.433072,6,P-GPS,
