time(millisecond),datetime(utc),latitude,longitude,height_above_takeoff(feet),height_above_ground_at_drone_location(feet),ground_elevation_at_drone_location(feet),altitude_above_seaLevel(feet),height_sonar(feet),speed(mph),distance(feet),mileage(feet),satellites,gpslevel,voltage(v),max_altitude(feet),max_ascent(feet),max_speed(mph),max_distance(feet), xSpeed(mph), ySpeed(mph), zSpeed(mph), compass_heading(degrees), pitch(degrees), roll(degrees),isPhoto,isVideo,rc_elevator,rc_aileron,rc_throttle,rc_rudder,rc_elevator(percent),rc_aileron(percent),rc_throttle(percent),rc_rudder(percent),gimbal_heading(degrees),gimbal_pitch(degrees),gimbal_roll(degrees),battery_percent,voltageCell1,voltageCell2,voltageCell3,voltageCell4,voltageCell5,voltageCell6,current(A),battery_temperature(f),altitude(feet),ascent(feet),flycStateRaw,flycState,message
0,2022-08-23 21:37:40,-34.9048830160748,-56.163270900703,0,0,132.76841500974,132.76841500974,0.328084,0,0,0,15,5,0,132.76841500974,0,0,0,0,0,0,311.6, 2.1, -2.9,0,0,364,364,364,1684,-100,-100,-100,100,322.3,0,0,99,4.334,4.333,0,0,0,0,0,77.18,132.76841500974,0,41,Motors_Started,"En vuelo Aeronave en Zona de altitud restringida (150). Vuela con precaución (Code: 190001)"
100,2022-08-23 21:37:40,-34.9048826748148,-56.1632708424577,0,0,132.76841500974,132.76841500974,0.328084,0,0.125722444968,0.125722444968,15,5,0,132.76841500974,0,0,0.125722444968,0,0,0,311.6, 2.1, -2.8,0,0,364,364,364,1684,-100,-100,-100,100,322.3,0,0,99,4.334,4.333,0,0,0,0,0,77.18,132.76841500974,0,41,Motors_Started,
200,2022-08-23 21:37:40,-34.9048809400692,-56.1632702360696,0,-0.1312336,132.89964860974,132.76841500974,0.328084,0,0.78310041876,0.7841371642,15,5,0,132.76841500974,0,0,0.78310041876,0,0,0,311.6, 2.2, -2.9,0,0,364,364,364,1684,-100,-100,-100,100,322.3,0,0,99,4.334,4.333,0,0,0,0,0,77.18,132.76841500974,0,41,Motors_Started,
300,2022-08-23 21:37:40,-34.9048806106708,-56.1632701766932,0,-0.1312336,132.89964860974,132.76841500974,0.328084,0,0.903953441,0.90562338856,15,5,0,132.76841500974,0,0,0.903953441,0,0,0,311.6, 2.2, -2.9,0,0,364,364,364,1684,-100,-100,-100,100,322.3,0,0,99,4.334,4.333,0,0,0,0,0,77.18,132.76841500974,0,41,Motors_Started,
400,2022-08-23 21:37:40,-34.9048803552364,-56.1632701286262,0,-0.2296588,132.99807380974,132.76841500974,0.328084,0,0.99791341776,0.99992129184,15,5,0,132.76841500974,0,0,0.99791341776,0,0,0,311.6, 2.1, -2.9,0,0,364,364,364,1684,-100,-100,-100,100,322.3,0,0,99,4.334,4.333,0,0,0,0,0,77.18,132.76841500974,0,41,Motors_Started,
500,2022-08-23 21:37:40,-34.9048801259514,-56.1632700883535,0,-0.2296588,132.99807380974,132.76841500974,0.328084,0,1.08211289552,1.08443901108,15,5,0,132.76841500974,0,0,1.08211289552,0,0,0,311.6, 2.1, -2.9,0,0,1024,1024,1024,1024,0,0,0,0,322.3,0,0,99,4.334,4.333,0,0,0,0,0,77.18,132.76841500974,0,41,Motors_Started,
600,2022-08-23 21:37:40,-34.9048795507752,-56.1632698494836,0,-0.2296588,132.99807380974,132.76841500974,0.328084,0,1.30285109156,1.30612865072,15,5,0,132.76841500974,0,0,1.30285109156,0,0,0,311.6, 2.1, -2.9,0,0,1024,1024,1024,1024,0,0,0,0,322.3,0,0,99,4.334,4.333,0,0,0,0,0,77.18,132.76841500974,0,41,Motors_Started,
700,2022-08-23 21:37:40,-34.9048793884161,-56.1632698872742,0,-0.328084,133.09649900974,132.76841500974,0.328084,0,1.3578412508,1.3664370516,15,5,0,132.76841500974,0,0,1.3578412508,0,0,0,311.6, 2.1, -2.9,0,0,1024,1024,1024,1024,0,0,0,0,322.3,0,0,99,4.334,4.333,0,0,0,0,0,77.18,132.76841500974,0,41,Motors_Started,"Setting new Return-To-Home altitude to 100m (328 ft). Data Recorder File Index is 98. Setting new Maximum Flight Altitude to 120m (394 ft)"
800,2022-08-23 21:37:40,-34.9048792480866,-56.1632699106749,0,-0.328084,133.09649900974,132.76841500974,0.328084,0,1.40630253844,1.4181102816,15,5,0,132.76841500974,0,0,1.40630253844,0,0,0,311.7, 2.2, -2.9,0,0,1024,1024,1504,1024,0,0,73,0,322.3,0,0,99,4.334,4.333,0,0,0,0,0,77.18,132.76841500974,0,41,Motors_Started,
900,2022-08-23 21:37:41,-34.9048791078026,-56.1632699253148,0,-0.328084,133.09649900974,132.76841500974,0.328084,0,1.45549217256,1.46948167432,15,5,0,132.76841500974,0,0,1.45549217256,0,0,0,311.7, 2.2, -2.9,0,0,1024,1024,1684,1024,0,0,100,0,322.3,0,0,99,4.334,4.333,0,0,0,0,0,77.18,132.76841500974,0,41,Motors_Started,
1000,2022-08-23 21:37:41,-34.9048793649307,-56.1632701781593,0,-0.328084,133.09649900974,132.76841500974,0.328084,0,1.34954728728,1.59000005088,15,5,0,132.76841500974,0,0,1.45549217256,0,0,0,311.7, 2.1, -2.9,0,0,1024,1024,1684,1024,0,0,100,0,322.3,0,0,99,4.334,4.333,0,0,0,0,0,77.18,132.76841500974,0,41,Motors_Started,
1100,2022-08-23 21:37:41,-34.9048793319547,-56.1632702839667,0,-0.328084,133.09649900974,132.76841500974,0.328084,0,1.3567585736,1.6238681622,15,5,0,132.76841500974,0,0,1.45549217256,0,0,0,311.7, 2.2, -2.9,0,0,1024,1024,1684,1024,0,0,100,0,322.3,0,0,99,4.334,4.333,0,0,0,0,0,77.18,132.76841500974,0,10,Assisted_Takeoff,
1200,2022-08-23 21:37:41,-34.9048793223436,-56.1632703731223,0,-0.328084,133.09649900974,132.76841500974,0.328084,0,1.35687012216,1.65077433104,15,5,0,132.76841500974,0,0,1.45549217256,0,0,0,311.8, 2.1, -2.8,0,0,1024,1024,1684,1024,0,0,100,0,322.3,0,0,99,4.334,4.333,0,0,0,0,0,77.18,132.76841500974,0,10,Assisted_Takeoff,
1300,2022-08-23 21:37:41,-34.9048793233337,-56.1632704561514,0,-0.328084,133.09649900974,132.76841500974,0.328084,0,1.35384518768,1.67562013236,15,5,8.678,132.76841500974,0,0,1.45549217256,0,0,0,311.5, 2.1, -2.8,0,0,1024,1024,1684,1024,0,0,100,0,322.3,0,0,99,4.334,4.333,0,0,0,0,1.25,77.18,132.76841500974,0,10,Assisted_Takeoff,
1400,2022-08-23 21:37:41,-34.9048813084135,-56.163271114784,0,-0.16404199999999,132.93245700974,132.76841500974,0.328084,0,0.62632219852,2.42620742672,15,5,8.678,132.76841500974,0,0,1.45549217256,0,0,0,311.8, 2.1, -2.9,0,0,1024,1024,1684,1024,0,0,100,0,322.3,0,0,99,4.334,4.333,0,0,0,0,1.25,77.18,132.76841500974,0,10,Assisted_Takeoff,
1500,2022-08-23 21:37:41,-34.9048821601255,-56.1632714516514,0,-0.065616799999987,132.83403180974,132.76841500974,0.328084,0,0.3531332134,2.75289378888,15,5,8.678,132.76841500974,0,0,1.45549217256,0,0,0,312.7, 1, -2.2,0,0,1024,1024,1684,1024,0,0,100,0,322.6,0,0,99,4.334,4.333,0,0,0,0,1.25,77.18,132.76841500974,0,10,Assisted_Takeoff,
1600,2022-08-23 21:37:41,-34.9048831891328,-56.1632718530332,0,0,132.76841500974,132.76841500974,0.328084,0.223694,0.291862214064,3.14706702984,15,5,8.678,132.76841500974,0,0.223694,1.45549217256,-0.223694,0,-0.223694,313.9, -0.3, 0,0,0,1024,1024,1684,1024,0,0,100,0,323.6,0,0,99,4.334,4.333,0,0,0,0,1.25,77.18,132.76841500974,0,10,Assisted_Takeoff,
1700,2022-08-23 21:37:41,-34.9048842849713,-56.1632722813416,0,0.06561680000001,132.70279820974,132.76841500974,0.328084,0.223694,0.6204724608,3.566929248,15,5,8.678,132.76841500974,0,0.223694,1.45549217256,-0.223694,0,-0.447388,313.8, -0.4, 0.6,0,0,1024,1024,1380,1024,0,0,54,0,323.8,0,0,99,4.334,4.333,0,0,0,0,1.25,77.18,132.76841500974,0,6,P-GPS,
1800,2022-08-23 21:37:41,-34.9048851608788,-56.1632726125269,0,0.16404200000001,132.60437300974,132.76841500974,0.656168,0.223694,0.93525593544,3.9015093112,15,5,8.678,132.76841500974,0,0.223694,1.45549217256,-0.223694,0,-0.894776,313.6, -0.6, 0.9,0,0,1024,1024,1024,1024,0,0,0,0,323.8,0,0,99,4.334,4.333,0,0,0,0,1.25,77.18,132.76841500974,0,6,P-GPS,
1900,2022-08-23 21:37:42,-34.9048874525294,-56.1632733227267,0,0.328084,132.44033100974,132.76841500974,0.656168,0,1.77346790452,4.7642061892,14,5,8.678,132.76841500974,0,0.223694,1.77346790452,0,0,-1.11847,313.3, 0, 0.3,0,0,1024,1024,1024,1024,0,0,0,0,323.8,0,0,99,4.334,4.333,0,0,0,0,1.25,77.18,132.76841500974,0,6,P-GPS,
2000,2022-08-23 21:37:42,-34.904888231336,-56.1632736469943,0.328084,0.72178479999999,132.37471420974,133.09649900974,0.656168,0,2.0726378616,5.0644358576,14,5,8.678,133.09649900974,0.328084,0.223694,2.0726378616,0,0,-1.11847,313.2, -0.1, 0.4,0,0,1024,1024,1322,1024,0,0,45,0,323.8,0,0,99,4.334,4.333,0,0,0,0,1.25,77.18,133.09649900974,0.328084,6,P-GPS,
2100,2022-08-23 21:37:42,-34.9048890343739,-56.1632740086847,0.328084,0.82021,132.27628900974,133.09649900974,0.984252,0,2.3845801288,5.3767718256,13,5,8.678,133.09649900974,0.328084,0.223694,2.3845801288,0,0,-1.11847,313.2, -0.4, 0.8,0,0,1024,1024,1322,1024,0,0,45,0,323.8,0,0,99,4.334,4.333,0,0,0,0,1.25,77.18,133.09649900974,0.328084,6,P-GPS,
2200,2022-08-23 21:37:42,-34.904889571337,-56.1632741812914,0.656168,1.2139108,132.21067220974,133.42458300974,0.984252,0,2.58528223496,5.579396504,13,5,8.678,133.42458300974,0.656168,0.223694,2.58528223496,0,0,-1.11847,313.1, -1.4, 3,0,0,1024,1024,1684,1024,0,0,100,0,323.8,0,0,99,4.334,4.333,0,0,0,0,1.25,77.18,133.42458300974,0.656168,6,P-GPS,
2300,2022-08-23 21:37:42,-34.9048899237909,-56.1632741575331,0.984252,1.5419948,132.21067220974,133.75266700974,1.312336,0,2.70211294736,5.708169474,14,5,8.568,133.75266700974,0.984252,0.223694,2.70211294736,0,0,-1.342164,313.1, -1.1, 2.9,0,0,1024,1024,1684,1024,0,0,100,0,323.8,0,0,99,4.268,4.279,0,0,0,0,2.816,77.18,133.75266700974,0.984252,6,P-GPS,
2400,2022-08-23 21:37:42,-34.9048900172766,-56.1632740412596,0.984252,1.5419948,132.21067220974,133.75266700974,1.312336,0,2.72174877476,5.756889948,14,5,8.568,133.75266700974,0.984252,0.223694,2.72174877476,0,0,-1.789552,313, -1.7, 3.4,0,0,1024,1024,1024,1024,0,0,0,0,323.8,0,0,99,4.268,4.279,0,0,0,0,2.816,77.18,133.75266700974,0.984252,6,P-GPS,
2500,2022-08-23 21:37:42,-34.9048899468236,-56.163273822441,1.312336,1.8700788,132.21067220974,134.08075100974,1.64042,0,2.67553486252,5.8272311576,13,5,8.568,134.08075100974,1.312336,0.223694,2.72174877476,0,0,-2.013246,313, -1.3, 1.9,0,0,1024,1024,1024,1024,0,0,0,0,323.8,0,0,99,4.268,4.279,0,0,0,0,2.816,77.18,134.08075100974,1.312336,6,P-GPS,
2600,2022-08-23 21:37:42,-34.9048894515486,-56.1632734825359,1.64042,2.132546,132.27628900974,134.40883500974,1.968504,0,2.47179797936,6.034613054,13,5,8.568,134.40883500974,1.64042,0.223694,2.72174877476,0,0,-2.013246,313.2, -1.5, 3,0,0,1024,1024,1024,1024,0,0,0,0,323.8,0,0,99,4.268,4.279,0,0,0,0,2.816,77.18,134.40883500974,1.64042,6,P-GPS,
2700,2022-08-23 21:37:42,-34.9048864611001,-56.1632718725713,1.968504,2.2309712,132.50594780974,134.73691900974,2.296588,0.223694,1.29011487068,7.2272640108,12,5,8.568,134.73691900974,1.968504,0.223694,2.72174877476,0.223694,0,-1.565858,313.2, -1.2, 2.7,0,0,1024,1024,1024,1024,0,0,0,0,323.8,0,0,99,4.268,4.279,0,0,0,0,2.816,77.18,134.73691900974,1.968504,6,P-GPS,
2800,2022-08-23 21:37:43,-34.9048859397505,-56.1632713637167,2.296588,2.5918636,132.47313940974,135.06500300974,2.624672,0,1.07565948324,7.4709319976,12,5,8.568,135.06500300974,2.296588,0.223694,2.72174877476,0,0,-1.11847,313.2, -2.3, 4,0,0,1024,1024,1401,1024,0,0,57,0,323.8,0,0,99,4.268,4.279,0,0,0,0,2.816,77.18,135.06500300974,2.296588,6,P-GPS,
2900,2022-08-23 21:37:43,-34.9048855621991,-56.1632707931494,2.296588,2.5918636,132.47313940974,135.06500300974,2.624672,0.447388,0.92950790376,7.69028896,14,5,8.568,135.06500300974,2.296588,0.447388,2.72174877476,0.447388,0,-0.671082,313.3, -1.5, 2.7,0,0,1024,1024,1683,1024,0,0,100,0,323.8,0,0,99,4.268,4.279,0,0,0,0,2.816,77.18,135.06500300974,2.296588,6,P-GPS,
3000,2022-08-23 21:37:43,-34.904885379403,-56.1632702970104,2.296588,2.4934384,132.57156460974,135.06500300974,2.624672,0.7158208,0.88097443764,7.853018624,14,5,8.568,135.06500300974,2.296588,0.7158208,2.72174877476,0.671082,0.223694,-0.447388,313.3, -0.2, 0.6,0,0,1024,1024,1085,1024,0,0,9,0,323.8,0,0,99,4.268,4.279,0,0,0,0,2.816,77.18,135.06500300974,2.296588,6,P-GPS,
3100,2022-08-23 21:37:43,-34.9048855135346,-56.1632691250897,2.624672,2.952756,132.44033100974,135.39308700974,2.952756,0.7158208,1.0547736558,8.2070868768,14,5,8.568,135.39308700974,2.624672,0.7158208,2.72174877476,0.671082,0.223694,-0.894776,313.3, 0, -0.5,0,0,1024,1024,1085,1024,0,0,9,0,323.8,0,0,99,4.268,4.279,0,0,0,0,2.816,77.18,135.39308700974,2.624672,6,P-GPS,
3200,2022-08-23 21:37:43,-34.9048857235062,-56.1632688144629,2.624672,2.952756,132.44033100974,135.39308700974,2.952756,0.7158208,1.16851381692,8.3275265132,14,5,8.568,135.39308700974,2.624672,0.7158208,2.72174877476,0.671082,0.223694,-1.342164,313.2, 0.4, -2.1,0,0,1024,1024,1024,1024,0,0,0,0,323.8,0,0,99,4.268,4.279,0,0,0,0,2.816,77.18,135.39308700974,2.624672,6,P-GPS,
3300,2022-08-23 21:37:43,-34.9048861221949,-56.1632685895524,2.952756,3.28084,132.44033100974,135.72117100974,3.28084,0.447388,1.327591906,8.4877955472,16,5,8.568,135.72117100974,2.952756,0.7158208,2.72174877476,0.447388,0,-1.11847,313.1, 0.7, -2.1,0,0,1024,1024,1024,1024,0,0,0,0,323.8,0,0,99,4.281,4.281,0,0,0,0,2.816,77.18,135.72117100974,2.952756,6,P-GPS,
3400,2022-08-23 21:37:43,-34.9048865054655,-56.1632683382886,2.952756,3.3792652,132.34190580974,135.72117100974,3.28084,0.447388,1.48614834152,8.6465553948,16,5,8.568,135.72117100974,2.952756,0.7158208,2.72174877476,0.447388,0,-0.671082,312.9, 0.8, -2,0,0,1024,1024,1024,1024,0,0,0,0,323.8,0,0,99,4.281,4.281,0,0,0,0,2.816,77.18,135.72117100974,2.952756,6,P-GPS,
3500,2022-08-23 21:37:43,-34.9048868894656,-56.163268045895,3.28084,3.7073492,132.34190580974,136.04925500974,3.28084,0.447388,1.65130254628,8.8117456888,16,5,8.568,136.04925500974,3.28084,0.7158208,2.72174877476,0.447388,0,-0.447388,312.7, 0.9, -1.9,0,0,1024,1024,1024,1024,0,0,0,0,323.8,0,0,99,4.281,4.281,0,0,0,0,2.816,77.18,136.04925500974,3.28084,6,P-GPS,
3600,2022-08-23 21:37:43,-34.9048885363631,-56.1632680599698,3.28084,3.9041996,132.14505540974,136.04925500974,3.608924,0.447388,2.18608602796,9.4126315348,16,5,8.568,136.04925500974,3.28084,0.7158208,2.72174877476,0.447388,0,-0.223694,312.4, 1.2, -1.9,0,0,1024,1024,1057,1024,0,0,5,0,323.8,0,0,99,4.281,4.281,0,0,0,0,2.816,77.18,136.04925500974,3.28084,6,P-GPS,
3700,2022-08-23 21:37:43,-34.9048887910127,-56.1632678527106,3.28084,3.9041996,132.14505540974,136.04925500974,3.608924,0.223694,2.29589246192,9.5243441368,15,5,8.568,136.04925500974,3.28084,0.7158208,2.72174877476,0.223694,0,0,312.2, 1.1, -1.8,0,0,1024,1024,1544,1024,0,0,79,0,323.8,0,0,99,4.281,4.281,0,0,0,0,2.816,77.18,136.04925500974,3.28084,6,P-GPS,
3800,2022-08-23 21:37:44,-34.9048890546773,-56.1632676381462,3.28084,3.9041996,132.14505540974,136.04925500974,3.608924,0.223694,2.40976713748,9.6399937468,15,5,8.568,136.04925500974,3.28084,0.7158208,2.72174877476,0.223694,0,0,312, 1, -1.5,0,0,1024,1024,1684,1024,0,0,100,0,323.8,0,0,99,4.281,4.281,0,0,0,0,2.816,77.18,136.04925500974,3.28084,6,P-GPS,
3900,2022-08-23 21:37:44,-34.9048893576851,-56.163267399706,3.28084,3.9041996,132.14505540974,136.04925500974,3.608924,0.223694,2.53982619676,9.7715554308,16,5,8.568,136.04925500974,3.28084,0.7158208,2.72174877476,0.223694,0,-0.447388,311.8, 0.7, -1.2,0,0,1024,1024,1401,1024,0,0,57,0,323.8,0,0,99,4.281,4.281,0,0,0,0,2.816,77.18,136.04925500974,3.28084,6,P-GPS,
4000,2022-08-23 21:37:44,-34.9048897671476,-56.1632675534665,3.608924,4.2979004,132.07943860974,136.37733900974,3.937008,0.223694,2.65896005884,9.9278874568,16,5,8.568,136.37733900974,3.608924,0.7158208,2.72174877476,0,0,-1.11847,311.6, 0.6, -0.8,0,0,1024,1024,1401,1024,0,0,57,0,323.8,0,0,99,4.281,4.281,0,0,0,0,2.816,77.18,136.37733900974,3.608924,6,P-GPS,
4100,2022-08-23 21:37:44,-34.9048902609048,-56.1632677443543,3.937008,4.6259844,132.07943860974,136.70542300974,4.265092,0,2.806922662,10.1168638408,16,5,8.568,136.70542300974,3.937008,0.7158208,2.806922662,0,0,-1.789552,311.3, 0.1, -0.8,0,0,1024,1024,1024,1024,0,0,0,0,323.8,0,0,99,4.281,4.281,0,0,0,0,2.816,77.18,136.70542300974,3.937008,6,P-GPS,
4200,2022-08-23 21:37:44,-34.9048905804121,-56.1632677625897,3.937008,4.7244096,131.98101340974,136.70542300974,4.265092,0,2.91520022452,10.2335633196,16,5,8.568,136.70542300974,3.937008,0.7158208,2.91520022452,0,0,-1.565858,311.1, 0.5, -0.7,0,0,1024,1024,1024,1024,0,0,0,0,323.8,0,0,99,4.281,4.281,0,0,0,0,2.816,77.18,136.70542300974,3.937008,6,P-GPS,
4300,2022-08-23 21:37:44,-34.9048908355111,-56.1632676536974,4.265092,5.0524936,131.98101340974,137.03350700974,4.593176,0,3.01380915156,10.33218537,16,5,8.552,137.03350700974,4.265092,0.7158208,3.01380915156,0,0,-1.11847,310.9, 0.7, -0.8,0,0,1024,592,1024,1024,0,-65,0,0,323.8,0,0,99,4.24,4.238,0,0,0,0,4.218,77.18,137.03350700974,4.265092,6,P-GPS,
4400,2022-08-23 21:37:44,-34.904891007364,-56.1632680419975,4.265092,5.0524936,131.98101340974,137.03350700974,4.593176,0,3.03849747256,10.4642063716,16,5,8.552,137.03350700974,4.265092,0.7158208,3.03849747256,0,0,-0.671082,310.8, 0.5, -2.3,0,0,1024,364,1024,1024,0,-100,0,0,323.8,0,0,99,4.24,4.238,0,0,0,0,4.218,77.18,137.03350700974,4.265092,6,P-GPS,
4500,2022-08-23 21:37:44,-34.9048913824403,-56.1632678944941,4.593176,5.3805776,131.98101340974,137.36159100974,4.593176,0,3.18223763464,10.6079727804,16,5,8.552,137.36159100974,4.593176,0.7158208,3.18223763464,0,0,-0.223694,310.4, 0.3, -11.2,0,0,1024,1024,1024,1024,0,0,0,0,323.8,0,0,99,4.24,4.238,0,0,0,0,4.218,77.18,137.36159100974,4.593176,6,P-GPS,
4600,2022-08-23 21:37:44,-34.9048918683224,-56.163267729639,4.593176,5.4790028,131.88258820974,137.36159100974,4.593176,0.3131716,3.3662402652,10.791995096,16,5,8.552,137.36159100974,4.593176,0.7158208,3.3662402652,-0.223694,-0.223694,0,310.2, 0.2, -15.2,0,0,1024,679,1024,1024,0,-52,0,0,323.8,0,0,99,4.24,4.238,0,0,0,0,4.218,77.18,137.36159100974,4.593176,6,P-GPS,
4700,2022-08-23 21:37:44,-34.9048925518129,-56.1632676308504,4.593176,5.5446196,131.81697140974,137.36159100974,4.593176,0.8052984,3.6140749188,11.0431105896,16,5,8.552,137.36159100974,4.593176,0.8052984,3.6140749188,-0.671082,-0.447388,0,310.6, 0.2, -1.2,0,0,1024,406,1024,1024,0,-94,0,0,323.8,0,0,99,4.24,4.238,0,0,0,0,4.218,77.18,137.36159100974,4.593176,6,P-GPS,
4800,2022-08-23 21:37:44,-34.9048935114354,-56.1632669625275,4.593176,5.6758532,131.68573780974,137.36159100974,4.593176,0.8052984,4.0064305744,11.4463258256,16,5,8.552,137.36159100974,4.593176,0.8052984,4.0064305744,-0.671082,-0.447388,0,310.3, 0.2, -3.7,0,0,1024,1024,1024,1024,0,0,0,0,323.8,0,0,99,4.24,4.238,0,0,0,0,4.218,77.18,137.36159100974,4.593176,6,P-GPS,
4900,2022-08-23 21:37:45,-34.9048943845159,-56.1632669045512,4.593176,5.6758532,131.68573780974,137.36159100974,4.593176,1.11847,4.3166668048,11.7653218988,16,5,8.552,137.36159100974,4.593176,1.11847,4.3166668048,-0.894776,-0.671082,0,309.7, 0.2, -11.3,0,0,1024,1024,1024,1024,0,0,0,0,323.8,0,0,99,4.24,4.238,0,0,0,0,4.218,77.18,137.36159100974,4.593176,6,P-GPS,"Punto de origen actualizado. Altitud de RPO establecida en 100m (Code: 3000001)"
5000,2022-08-23 21:37:45,-34.9048953621359,-56.1632670224573,4.593176,5.7742784,131.58731260974,137.36159100974,4.593176,1.4316416,4.6515093352,12.1237536688,16,5,8.552,137.36159100974,4.593176,1.4316416,4.6515093352,-1.11847,-0.894776,0,309.8, 0.2, -2,0,0,1024,1024,1024,1024,0,0,0,0,323.8,0,0,99,4.24,4.238,0,0,0,0,4.218,77.18,137.36159100974,4.593176,6,P-GPS,
5100,2022-08-23 21:37:45,-34.9048964678625,-56.1632672491701,4.593176,5.8398952,131.52169580974,137.36159100974,4.92126,1.4316416,5.0280185336,12.5328416084,16,5,8.552,137.36159100974,4.593176,1.4316416,5.0280185336,-1.11847,-0.894776,0,310.1, -0.1, 5.6,0,0,1024,991,1024,1024,0,-5,0,0,323.8,0,0,99,4.24,4.238,0,0,0,0,4.218,77.18,137.36159100974,4.593176,6,P-GPS,
5200,2022-08-23 21:37:45,-34.9048972079512,-56.1632674795889,4.593176,5.9383204,131.42327060974,137.36159100974,4.92126,1.11847,5.2781169668,12.811516158,16,5,8.552,137.36159100974,4.593176,1.4316416,5.2781169668,-0.894776,-0.671082,0,309.9, 0.1, 5.8,0,0,1024,1024,1024,1024,0,0,0,0,323.8,0,0,99,4.24,4.238,0,0,0,0,4.218,77.18,137.36159100974,4.593176,6,P-GPS,
5300,2022-08-23 21:37:45,-34.9048974649782,-56.1632679431968,4.593176,5.905512,131.45607900974,137.36159100974,5.249344,0.8052984,5.3454398036,12.9789702316,16,5,8.545,137.36159100974,4.593176,1.4316416,5.3454398036,-0.671082,-0.447388,0,309.5, 0.1, 3.1,0,0,1024,1024,1148,1024,0,0,19,0,323.8,0,0,99,4.263,4.259,0,0,0,0,4.054,77,137.36159100974,4.593176,6,P-GPS,
5400,2022-08-23 21:37:45,-34.9048979457145,-56.1632680576977,4.593176,6.0039372,131.35765380974,137.36159100974,5.577428,0.6263432,5.5130907276,13.1576775864,16,5,8.545,137.36159100974,4.593176,1.4316416,5.5130907276,-0.447388,-0.447388,0,309.5, 0, 3.6,0,0,1024,1024,1684,1024,0,0,100,0,323.8,0,0,99,4.263,4.259,0,0,0,0,4.054,77,137.36159100974,4.593176,6,P-GPS,
5500,2022-08-23 21:37:45,-34.9048984332315,-56.1632681218567,4.593176,6.0039372,131.35765380974,137.36159100974,5.577428,0.4921268,5.6860566124,13.3365817916,14,5,8.545,137.36159100974,4.593176,1.4316416,5.6860566124,-0.447388,-0.223694,0,309.5, 0, 3.5,0,0,1024,1024,1684,1024,0,0,100,0,323.8,0,0,99,4.263,4.259,0,0,0,0,4.054,77,137.36159100974,4.593176,6,P-GPS,
5600,2022-08-23 21:37:45,-34.9048988155902,-56.1632681195951,4.593176,6.1023624,131.25922860974,137.36159100974,5.577428,0.3131716,5.8242127848,13.4760831084,14,5,8.545,137.36159100974,4.593176,1.4316416,5.8242127848,-0.223694,-0.223694,-0.671082,309.4, -0.1, 2.5,0,0,1024,1024,1684,1024,0,0,100,0,323.8,0,0,99,4.263,4.259,0,0,0,0,4.054,77,137.36159100974,4.593176,6,P-GPS,
5700,2022-08-23 21:37:45,-34.9048987594479,-56.1632681913527,4.92126,6.4304464,131.25922860974,137.68967500974,5.905512,0.223694,5.8008860124,13.505741902,14,5,8.545,137.68967500974,4.92126,1.4316416,5.8242127848,-0.223694,0,-1.565858,309.3, 0, 1.5,0,0,1024,1024,1610,1024,0,0,89,0,323.8,0,0,99,4.263,4.259,0,0,0,0,4.054,77,137.68967500974,4.92126,6,P-GPS,
5800,2022-08-23 21:37:45,-34.9048990272032,-56.1632680047823,5.249344,6.7585304,131.25922860974,138.01775900974,6.233596,0,5.9055776168,13.618274714,14,5,8.545,138.01775900974,5.249344,1.4316416,5.9055776168,0,0,-2.460634,309.2, 0, 1.1,0,0,1024,1024,1024,1024,0,0,0,0,323.8,0,0,99,4.263,4.259,0,0,0,0,4.054,77,138.01775900974,5.249344,6,P-GPS,
5900,2022-08-23 21:37:46,-34.9048992788304,-56.16326773949,5.577428,7.0866144,131.25922860974,138.34584300974,6.889764,0,6.008366334,13.7396329856,15,5,8.545,138.34584300974,5.577428,1.4316416,6.008366334,0,0,-3.131716,309.1, -0.5, 0.8,0,0,1024,1024,1024,1024,0,0,0,0,323.8,0,0,99,4.263,4.259,0,0,0,0,4.054,77,138.34584300974,5.577428,6,P-GPS,
6000,2022-08-23 21:37:46,-34.904899523351,-56.1632675256588,6.233596,7.8083992,131.19361180974,139.00201100974,7.217848,0,6.1067587256,13.849409892,15,5,8.545,139.00201100974,6.233596,1.4316416,6.1067587256,0,0,-3.131716,309, 0, 0.1,0,0,1024,1024,1024,1024,0,0,0,0,323.8,0,0,99,4.263,4.259,0,0,0,0,4.054,77,139.00201100974,6.233596,6,P-GPS,
6100,2022-08-23 21:37:46,-34.9048996236045,-56.163267152951,6.56168,8.1692916,131.16080340974,139.33009500974,7.545932,0,6.1621393048,13.9667983472,14,5,8.545,139.33009500974,6.56168,1.4316416,6.1621393048,0,0,-2.23694,309, 0.3, 0.3,0,0,1024,1024,1024,1024,0,0,0,0,323.8,0,0,99,4.263,4.259,0,0,0,0,4.054,77,139.33009500974,6.56168,6,P-GPS,
6200,2022-08-23 21:37:46,-34.9048997512224,-56.1632670083772,6.56168,8.1692916,131.16080340974,139.33009500974,7.874016,0,6.215879464,14.030348218,14,5,8.545,139.33009500974,6.56168,1.4316416,6.215879464,0,0,-1.565858,308.9, 0.4, 0.3,0,0,1024,1024,1024,1024,0,0,0,0,323.8,0,0,99,4.263,4.259,0,0,0,0,4.054,77,139.33009500974,6.56168,6,P-GPS,
6300,2022-08-23 21:37:46,-34.9048998069478,-56.1632668792723,6.889764,8.4973756,131.16080340974,139.65817900974,8.2021,0,6.2431760528,14.07398339,14,5,8.528,139.65817900974,6.889764,1.4316416,6.2431760528,0,0,-0.894776,308.9, 0.4, 0.4,0,0,1024,1024,1024,1024,0,0,0,0,323.8,0,0,99,4.212,4.213,0,0,0,0,4.139,77.18,139.65817900974,6.889764,6,P-GPS,
6400,2022-08-23 21:37:46,-34.9048999220527,-56.1632666520692,6.889764,8.4973756,131.16080340974,139.65817900974,8.2021,0,6.2977692304,14.1539046524,14,5,8.528,139.65817900974,6.889764,1.4316416,6.2977692304,0,0,-0.447388,308.9, 0.3, 0.3,0,0,1024,1024,1024,1024,0,0,0,0,323.8,0,0,99,4.212,4.213,0,0,0,0,4.139,77.18,139.65817900974,6.889764,6,P-GPS,
6500,2022-08-23 21:37:46,-34.9048997870156,-56.1632663885996,6.889764,8.530184,131.12799500974,139.65817900974,8.2021,0,6.2660435076,14.2468508496,17,5,8.528,139.65817900974,6.889764,1.4316416,6.2977692304,0,0,-0.223694,308.8, 0.3, 0.1,0,0,1024,1024,1024,1024,0,0,0,0,323.8,0,0,99,4.212,4.213,0,0,0,0,4.139,77.18,139.65817900974,6.889764,6,P-GPS,
6600,2022-08-23 21:37:46,-34.9048999480622,-56.1632660503959,7.217848,8.858268,131.12799500974,139.98626300974,8.2021,0,6.345800728,14.3638784124,17,5,8.528,139.98626300974,7.217848,1.4316416,6.345800728,0,0,0,308.8, 0.4, 0.1,0,0,1024,1024,1024,1024,0,0,0,0,323.8,0,0,99,4.212,4.213,0,0,0,0,4.139,77.18,139.98626300974,7.217848,6,P-GPS,
6700,2022-08-23 21:37:46,-34.9049001162088,-56.1632656772608,7.217848,8.858268,131.12799500974,139.98626300974,8.2021,0,6.431758736,14.4912734296,16,5,8.528,139.98626300974,7.217848,1.4316416,6.431758736,0,0,0,308.8, 0.3, 0,0,0,1024,1024,1024,1024,0,0,0,0,323.8,0,0,99,4.212,4.213,0,0,0,0,4.139,77.18,139.98626300974,7.217848,6,P-GPS,
6800,2022-08-23 21:37:46,-34.9049003482295,-56.1632654285935,7.217848,8.858268,131.12799500974,139.98626300974,8.2021,0,6.53215244,14.6039702836,16,5,8.528,139.98626300974,7.217848,1.4316416,6.53215244,0,0,0,308.7, 0.2, 0,0,0,1024,1024,1024,1024,0,0,0,0,323.8,0,0,99,4.212,4.213,0,0,0,0,4.139,77.18,139.98626300974,7.217848,6,P-GPS,
6900,2022-08-23 21:37:47,-34.9049006245374,-56.1632652202142,7.217848,8.9566932,131.02956980974,139.98626300974,8.530184,0,6.6454726536,14.7225070328,16,5,8.528,139.98626300974,7.217848,1.4316416,6.6454726536,0,0,0,308.7, 0.1, -0.1,0,0,1024,1024,1024,1024,0,0,0,0,323.8,0,0,99,4.212,4.213,0,0,0,0,4.139,77.18,139.98626300974,7.217848,6,P-GPS,
7000,2022-08-23 21:37:47,-34.904901085843,-56.1632650368774,7.217848,8.9566932,131.02956980974,139.98626300974,8.530184,0,6.8222115044,14.8995411592,16,5,8.528,139.98626300974,7.217848,1.4316416,6.8222115044,0,0,0,308.7, 0, 0.1,0,0,1024,1024,1024,1024,0,0,0,0,323.8,0,0,99,4.212,4.213,0,0,0,0,4.139,77.18,139.98626300974,7.217848,6,P-GPS,
7100,2022-08-23 21:37:47,-34.9049013490126,-56.1632647643101,7.217848,8.9566932,131.02956980974,139.98626300974,8.2021,0,6.936187886,15.0255254152,16,5,8.528,139.98626300974,7.217848,1.4316416,6.936187886,0,0,0,308.6, 0, 0.1,0,0,1024,1024,1024,1023,0,0,0,-0,323.8,0,0,99,4.212,4.213,0,0,0,0,4.139,77.18,139.98626300974,7.217848,6,P-GPS,
7200,2022-08-23 21:37:47,-34.9049015550368,-56.1632645306581,7.217848,9.0551184,130.93114460974,139.98626300974,8.2021,0,7.0273624296,15.1281500904,16,5,8.528,139.98626300974,7.217848,1.4316416,7.0273624296,0,0,0,308.6, 0, 0,0,0,1024,1024,1024,408,0,0,0,-93,323.8,0,0,99,4.212,4.213,0,0,0,0,4.139,77.18,139.98626300974,7.217848,6,P-GPS,
7300,2022-08-23 21:37:47,-34.9049017430504,-56.1632643000746,7.217848,9.0551184,130.93114460974,139.98626300974,8.2021,0,7.1122377604,15.2254598048,16,5,8.452,139.98626300974,7.217848,1.4316416,7.1122377604,0,0,0,308.4, 0, 0,0,0,1024,1024,1024,364,0,0,0,-100,323,0,0,99,4.259,4.256,0,0,0,0,4.975,77.18,139.98626300974,7.217848,6,P-GPS,
7400,2022-08-23 21:37:47,-34.9049020087995,-56.1632642360489,7.217848,9.0551184,130.93114460974,139.98626300974,8.2021,0,7.2107285772,15.3242787056,16,5,8.452,139.98626300974,7.217848,1.4316416,7.2107285772,0,0,0,306.6, 0, 0,0,0,1024,1024,1024,364,0,0,0,-100,319.5,0,0,99,4.259,4.256,0,0,0,0,4.975,77.18,139.98626300974,7.217848,6,P-GPS,
7500,2022-08-23 21:37:47,-34.9049021720152,-56.1632640225882,7.217848,9.0551184,130.93114460974,139.98626300974,8.2021,0,7.2857285796,15.4116146664,17,5,8.452,139.98626300974,7.217848,1.4316416,7.2857285796,0,0,0,302.4, 0, -0.1,0,0,1024,1024,1024,364,0,0,0,-100,314.8,0,0,99,4.259,4.256,0,0,0,0,4.975,77.18,139.98626300974,7.217848,6,P-GPS,
7600,2022-08-23 21:37:47,-34.904902387771,-56.163263825082,7.217848,9.0551184,130.93114460974,139.98626300974,8.2021,0,7.3780186088,15.5100398664,17,5,8.452,139.98626300974,7.217848,1.4316416,7.3780186088,0,0,0,297.8, 0, -0.3,0,0,1024,1024,1024,364,0,0,0,-100,310.1,0,0,99,4.259,4.256,0,0,0,0,4.975,77.18,139.98626300974,7.217848,6,P-GPS,
7700,2022-08-23 21:37:47,-34.9049026535916,-56.1632636171626,7.217848,9.1535436,130.83271940974,139.98626300974,8.2021,0,7.488845384,15.6252629672,17,5,8.452,139.98626300974,7.217848,1.4316416,7.488845384,0,0,0,293, 0, -0.3,0,0,1024,1024,1024,364,0,0,0,-100,305.3,0,0,99,4.259,4.256,0,0,0,0,4.975,77.18,139.98626300974,7.217848,6,P-GPS,
7800,2022-08-23 21:37:48,-34.9049032285952,-56.1632635672048,7.217848,9.1535436,130.83271940974,139.98626300974,8.2021,0,7.694061926,15.8355976196,17,5,8.452,139.98626300974,7.217848,1.4316416,7.694061926,0,0,0,288.3, 0, -0.2,0,0,1024,1024,1024,364,0,0,0,-100,300.4,0,0,99,4.259,4.256,0,0,0,0,4.975,77.18,139.98626300974,7.217848,6,P-GPS,
7900,2022-08-23 21:37:48,-34.9049035421098,-56.1632633048966,7.217848,9.2519688,130.73429420974,139.98626300974,8.530184,0,7.8261813528,15.9743115348,17,5,8.452,139.98626300974,7.217848,1.4316416,7.8261813528,0,0,0,283.5, 0.1, -0.2,0,0,1024,1024,1024,364,0,0,0,-100,295.6,0,0,99,4.259,4.256,0,0,0,0,4.975,77.18,139.98626300974,7.217848,6,P-GPS,
8000,2022-08-23 21:37:48,-34.9049038766508,-56.1632630366043,7.217848,9.2519688,130.73429420974,139.98626300974,8.530184,0,7.9664044544,16.12040734,17,5,8.452,139.98626300974,7.217848,1.4316416,7.9664044544,0,0,0,278.7, 0.1, -0.3,0,0,1024,1024,1024,364,0,0,0,-100,290.8,0,0,99,4.259,4.256,0,0,0,0,4.975,77.18,139.98626300974,7.217848,6,P-GPS,
8100,2022-08-23 21:37:48,-34.9049042442167,-56.1632627408539,7.217848,9.2519688,130.73429420974,139.98626300974,8.530184,0,8.1208007848,16.2810700748,16,5,8.452,139.98626300974,7.217848,1.4316416,8.1208007848,0,0,0,273.9, 0.1, -0.4,0,0,1024,1024,1024,364,0,0,0,-100,286,0,0,99,4.259,4.256,0,0,0,0,4.975,77.18,139.98626300974,7.217848,6,P-GPS,
8200,2022-08-23 21:37:48,-34.9049049436073,-56.1632623894466,7.217848,9.3832024,130.60306060974,139.98626300974,8.530184,0,8.3958007936,16.5570543356,16,5,8.452,139.98626300974,7.217848,1.4316416,8.3958007936,0,0,0,269.1, 0.1, -0.5,0,0,1024,1024,1024,364,0,0,0,-100,281.2,0,0,99,4.259,4.256,0,0,0,0,4.975,77.18,139.98626300974,7.217848,6,P-GPS,
8300,2022-08-23 21:37:48,-34.9049053195369,-56.1632620783333,7.217848,9.3832024,130.60306060974,139.98626300974,8.530184,0,8.5548559168,16.7228351808,16,5,8.526,139.98626300974,7.217848,1.4316416,8.5548559168,0,0,0,264.3, 0.2, -0.3,0,0,1024,1024,1024,364,0,0,0,-100,276.4,0,0,99,4.255,4.253,0,0,0,0,3.561,77.18,139.98626300974,7.217848,6,P-GPS,
8400,2022-08-23 21:37:48,-34.9049055794561,-56.1632618107736,7.217848,9.4488192,130.53744380974,139.98626300974,8.530184,0,8.6699149756,16.846949358,16,5,8.526,139.98626300974,7.217848,1.4316416,8.6699149756,0,0,0,259.5, 0.1, -0.3,0,0,1024,1024,1024,364,0,0,0,-100,271.6,0,0,99,4.255,4.253,0,0,0,0,3.561,77.18,139.98626300974,7.217848,6,P-GPS,
8500,2022-08-23 21:37:48,-34.9049057873367,-56.1632615437558,7.217848,9.4488192,130.53744380974,139.98626300974,8.530184,0,8.7671262648,16.9570871568,15,5,8.526,139.98626300974,7.217848,1.4316416,8.7671262648,0,0,0,254.7, 0, -0.2,0,0,1024,1024,1024,364,0,0,0,-100,266.8,0,0,99,4.255,4.253,0,0,0,0,3.561,77.18,139.98626300974,7.217848,6,P-GPS,
8600,2022-08-23 21:37:48,-34.9049060371791,-56.163261305449,7.217848,9.4816276,130.50463540974,139.98626300974,8.530184,0,8.8763782368,17.072835192,15,5,8.526,139.98626300974,7.217848,1.4316416,8.8763782368,0,0,0,249.9, 0, -0.2,0,0,1024,1024,1024,364,0,0,0,-100,262,0,0,99,4.255,4.253,0,0,0,0,3.561,77.18,139.98626300974,7.217848,6,P-GPS,
8700,2022-08-23 21:37:48,-34.9049062234601,-56.1632612523535,7.217848,9.4816276,130.50463540974,139.98626300974,8.530184,0,8.9458336196,17.1426186588,15,5,8.526,139.98626300974,7.217848,1.4316416,8.9458336196,0,0,0,245.1, 0.3, 0,0,0,1024,1024,1024,364,0,0,0,-100,257.2,0,0,99,4.255,4.253,0,0,0,0,3.561,77.18,139.98626300974,7.217848,6,P-GPS,
8800,2022-08-23 21:37:48,-34.9049065080209,-56.163261026033,7.217848,9.5800528,130.40621020974,139.98626300974,8.530184,0,9.0660107888,17.266568794,15,5,8.526,139.98626300974,7.217848,1.4316416,9.0660107888,0,0,0,240.3, 0.1, 0,0,0,1024,1024,1024,364,0,0,0,-100,252.4,0,0,99,4.255,4.253,0,0,0,0,3.561,77.18,139.98626300974,7.217848,6,P-GPS,
8900,2022-08-23 21:37:49,-34.9049068014535,-56.1632607786878,7.217848,9.5800528,130.40621020974,139.98626300974,8.530184,0,9.1914044936,17.3967197168,17,5,8.526,139.98626300974,7.217848,1.4316416,9.1914044936,0,0,0,235.5, 0, 0,0,0,1024,1024,1024,364,0,0,0,-100,247.6,0,0,99,4.255,4.253,0,0,0,0,3.561,77.18,139.98626300974,7.217848,6,P-GPS,
9000,2022-08-23 21:37:49,-34.9049071403392,-56.1632605895195,7.217848,9.5800528,130.40621020974,139.98626300974,8.530184,0,9.3268047604,17.5327105348,17,5,8.526,139.98626300974,7.217848,1.4316416,9.3268047604,0,0,0,230.7, 0, 0.1,0,0,1024,1024,1024,364,0,0,0,-100,242.8,0,0,99,4.255,4.253,0,0,0,0,3.561,77.18,139.98626300974,7.217848,6,P-GPS,
9100,2022-08-23 21:37:49,-34.9049077107571,-56.1632606950198,7.217848,9.6456696,130.34059340974,139.98626300974,8.530184,0,9.5132548976,17.7432092292,16,5,8.526,139.98626300974,7.217848,1.4316416,9.5132548976,0,0,0,225.9, 0.2, 0.2,0,0,1024,1024,1024,364,0,0,0,-100,238,0,0,99,4.255,4.253,0,0,0,0,3.561,77.18,139.98626300974,7.217848,6,P-GPS,
9200,2022-08-23 21:37:49,-34.9049080520007,-56.1632605481145,7.217848,9.6456696,130.34059340974,139.98626300974,8.530184,0,9.6452758992,17.8752302308,16,5,8.526,139.98626300974,7.217848,1.4316416,9.6452758992,0,0,0,221.1, 0.1, 0.2,0,0,1024,1024,1024,364,0,0,0,-100,233.2,0,0,99,4.255,4.253,0,0,0,0,3.561,77.18,139.98626300974,7.217848,6,P-GPS,
9300,2022-08-23 21:37:49,-34.9049083942215,-56.1632604031853,7.217848,9.678478,130.30778500974,139.98626300974,8.530184,0,9.7774609428,18.0074152744,16,5,8.51,139.98626300974,7.217848,1.4316416,9.7774609428,0,0,0,216.3, 0, 0.2,0,0,1024,1024,1024,364,0,0,0,-100,228.4,0,0,99,4.253,4.25,0,0,0,0,4.008,77.18,139.98626300974,7.217848,6,P-GPS,
9400,2022-08-23 21:37:49,-34.9049087517692,-56.1632603053818,7.217848,9.7769032,130.20935980974,139.98626300974,8.530184,0,9.9104005796,18.1411095044,16,5,8.51,139.98626300974,7.217848,1.4316416,9.9104005796,0,0,0,211.5, 0, 0.1,0,0,1024,1024,1024,364,0,0,0,-100,223.6,0,0,99,4.253,4.25,0,0,0,0,4.008,77.18,139.98626300974,7.217848,6,P-GPS,
9500,2022-08-23 21:37:49,-34.9049093179727,-56.1632606015802,7.217848,9.7440948,130.24216820974,139.98626300974,8.530184,0,10.078904522,18.3659126612,17,5,8.51,139.98626300974,7.217848,1.4316416,10.078904522,0,0,0,206.7, 0, 0,0,0,1024,1024,1024,364,0,0,0,-100,218.8,0,0,99,4.253,4.25,0,0,0,0,4.008,77.18,139.98626300974,7.217848,6,P-GPS,
9600,2022-08-23 21:37:49,-34.9049097782621,-56.1632605581649,7.217848,9.84252,130.14374300974,139.98626300974,8.530184,0,10.2428480968,18.5343509868,17,5,8.51,139.98626300974,7.217848,1.4316416,10.2428480968,0,0,0,201.9, 0, 0,0,0,1024,1024,1024,364,0,0,0,-100,214,0,0,99,4.253,4.25,0,0,0,0,4.008,77.18,139.98626300974,7.217848,6,P-GPS,
9700,2022-08-23 21:37:49,-34.904910319837,-56.1632605365904,7.217848,9.84252,130.14374300974,139.98626300974,8.530184,0,10.4333008588,18.7320215968,16,5,8.51,139.98626300974,7.217848,1.4316416,10.4333008588,0,0,0,197.1, -0.1, 0,0,0,1024,1024,1024,364,0,0,0,-100,209.2,0,0,99,4.253,4.25,0,0,0,0,4.008,77.18,139.98626300974,7.217848,6,P-GPS,
9800,2022-08-23 21:37:49,-34.9049108781979,-56.1632605865476,7.217848,9.9081368,130.07812620974,139.98626300974,8.530184,0,10.6236223872,18.9362866952,16,5,8.51,139.98626300974,7.217848,1.4316416,10.6236223872,0,0,0,192.3, -0.2, 0,0,0,1024,1024,1024,364,0,0,0,-100,204.4,0,0,99,4.253,4.25,0,0,0,0,4.008,77.18,139.98626300974,7.217848,6,P-GPS,
9900,2022-08-23 21:37:50,-34.9049120925351,-56.1632612745136,7.217848,10.006562,129.97970100974,139.98626300974,8.530184,0,10.9925856536,19.4248365796,16,5,8.51,139.98626300974,7.217848,1.4316416,10.9925856536,0,0,0,187.5, -0.2, 0.2,0,0,1024,1024,1024,364,0,0,0,-100,199.6,0,0,99,4.253,4.25,0,0,0,0,4.008,77.18,139.98626300974,7.217848,6,P-GPS,
10000,2022-08-23 21:37:50,-34.9049126522638,-56.1632612843238,7.217848,10.1049872,129.88127580974,139.98626300974,8.530184,0,11.1890423528,19.6290688696,16,5,8.51,139.98626300974,7.217848,1.4316416,11.1890423528,0,0,0,182.7, -0.3, 0.2,0,0,1024,1024,1024,364,0,0,0,-100,194.8,0,0,99,4.253,4.25,0,0,0,0,4.008,77.18,139.98626300974,7.217848,6,P-GPS,
10100,2022-08-23 21:37:50,-34.9049132218154,-56.1632612368991,7.217848,10.1049872,129.88127580974,139.98626300974,8.530184,0,11.3935699184,19.8373694012,16,5,8.51,139.98626300974,7.217848,1.4316416,11.3935699184,0,0,0,177.8, -0.2, 0.4,0,0,1024,1024,1024,364,0,0,0,-100,190,0,0,99,4.253,4.25,0,0,0,0,4.008,77.18,139.98626300974,7.217848,6,P-GPS,
10200,2022-08-23 21:37:50,-34.9049137204384,-56.1632610341934,7.217848,10.170604,129.81565900974,139.98626300974,8.530184,0,11.5849413156,20.0291344992,16,5,8.51,139.98626300974,7.217848,1.4316416,11.5849413156,0,0,0,173, -0.1, 0.6,0,0,1024,1024,1024,364,0,0,0,-100,185.2,0,0,99,4.253,4.25,0,0,0,0,4.008,77.18,139.98626300974,7.217848,6,P-GPS,
10300,2022-08-23 21:37:50,-34.9049142124891,-56.163260724406,7.217848,10.170604,129.81565900974,139.98626300974,8.530184,0,11.7822510332,20.2311686264,16,5,8.506,139.98626300974,7.217848,1.4316416,11.7822510332,0,0,0,168.2, 0, 0.7,0,0,1024,1024,1024,364,0,0,0,-100,180.4,0,0,99,4.251,4.248,0,0,0,0,3.999,77.18,139.98626300974,7.217848,6,P-GPS,
10400,2022-08-23 21:37:50,-34.90491464957,-56.1632600637363,7.217848,10.3018376,129.68442540974,139.98626300974,8.530184,0,11.9883205936,20.4851384508,16,5,8.506,139.98626300974,7.217848,1.4316416,11.9883205936,0,0,0,163.6, 0, 0.7,0,0,1024,1024,1024,364,0,0,0,-100,175.5,0,0,99,4.251,4.248,0,0,0,0,3.999,77.18,139.98626300974,7.217848,6,P-GPS,
10500,2022-08-23 21:37:50,-34.904914946064,-56.1632596900456,7.217848,10.3018376,129.68442540974,139.98626300974,8.530184,0,12.1229662672,20.6407158836,16,5,8.506,139.98626300974,7.217848,1.4316416,12.1229662672,0,0,0,158.6, 0, 0.7,0,0,1024,1024,1024,364,0,0,0,-100,170.7,0,0,99,4.251,4.248,0,0,0,0,3.999,77.18,139.98626300974,7.217848,6,P-GPS,
10600,2022-08-23 21:37:50,-34.9049151825336,-56.1632592811907,7.217848,10.3018376,129.68442540974,139.98626300974,8.530184,0,12.2400594468,20.7904206128,16,5,8.506,139.98626300974,7.217848,1.4316416,12.2400594468,0,0,0,153.8, 0, 0.9,0,0,1024,1024,1024,364,0,0,0,-100,165.9,0,0,99,4.251,4.248,0,0,0,0,3.999,77.18,139.98626300974,7.217848,6,P-GPS,
10700,2022-08-23 21:37:50,-34.9049154163326,-56.1632588338185,7.217848,10.3018376,129.68442540974,139.98626300974,8.530184,0,12.3603022328,20.949147652,15,5,8.506,139.98626300974,7.217848,1.4316416,12.3603022328,0,0,0,149, 0, 0.9,0,0,1024,1024,1024,364,0,0,0,-100,161.1,0,0,99,4.251,4.248,0,0,0,0,3.999,77.18,139.98626300974,7.217848,6,P-GPS,
10800,2022-08-23 21:37:50,-34.9049150137486,-56.1632578194323,7.217848,10.334646,129.65161700974,139.98626300974,8.530184,0,12.3130253284,21.2863523872,15,5,8.506,139.98626300974,7.217848,1.4316416,12.3603022328,0,0,0,144.1, 0, 0.7,0,0,1024,1024,1024,364,0,0,0,-100,156.3,0,0,99,4.251,4.248,0,0,0,0,3.999,77.18,139.98626300974,7.217848,6,P-GPS,
10900,2022-08-23 21:37:51,-34.9049152049931,-56.1632575430509,7.217848,10.334646,129.65161700974,139.98626300974,8.530184,0,12.4055778248,21.3945544904,14,5,8.506,139.98626300974,7.217848,1.4316416,12.4055778248,0,0,0,139.4, 0, 0.7,0,0,1024,1024,1024,364,0,0,0,-100,151.5,0,0,99,4.251,4.248,0,0,0,0,3.999,77.18,139.98626300974,7.217848,6,P-GPS,
11000,2022-08-23 21:37:51,-34.9049152363179,-56.1632572984256,7.217848,10.334646,129.65161700974,139.98626300974,8.530184,0,12.4401578784,21.4686358576,14,5,8.506,139.98626300974,7.217848,1.4316416,12.4401578784,0,0,0,134.5, 0, 0.6,0,0,1024,1024,1024,364,0,0,0,-100,146.7,0,0,99,4.251,4.248,0,0,0,0,3.999,77.18,139.98626300974,7.217848,6,P-GPS,
11100,2022-08-23 21:37:51,-34.9049151842402,-56.1632570522543,7.217848,10.334646,129.65161700974,139.98626300974,8.530184,0,12.446522708,21.5446857288,15,5,8.506,139.98626300974,7.217848,1.4316416,12.446522708,0,0,0,129.7, 0, 0.5,0,0,1024,1024,1024,364,0,0,0,-100,141.9,0,0,99,4.251,4.248,0,0,0,0,3.999,77.18,139.98626300974,7.217848,6,P-GPS,
11200,2022-08-23 21:37:51,-34.904913689042,-56.1632566539839,7.217848,10.2690292,129.71723380974,139.98626300974,8.530184,0,11.975394084,22.1030846968,15,5,8.506,139.98626300974,7.217848,1.4316416,12.446522708,0,0,0,124.9, 0.1, 0.4,0,0,1024,1024,1024,364,0,0,0,-100,137.1,0,0,99,4.251,4.248,0,0,0,0,3.999,77.18,139.98626300974,7.217848,6,P-GPS,
11300,2022-08-23 21:37:51,-34.9049134790639,-56.163256300731,7.217848,10.2034124,129.78285060974,139.98626300974,8.530184,0,11.942093558,22.2336293204,16,5,8.506,139.98626300974,7.217848,1.4316416,12.446522708,0,0,0,120, 0.1, 0.4,0,0,1024,1024,1024,364,0,0,0,-100,132.3,0,0,99,4.251,4.248,0,0,0,0,3.999,77.18,139.98626300974,7.217848,6,P-GPS,
11400,2022-08-23 21:37:51,-34.9049130398531,-56.1632558385906,7.217848,10.2034124,129.78285060974,139.98626300974,8.530184,0,11.8450463108,22.4452763088,16,5,8.506,139.98626300974,7.217848,1.4316416,12.446522708,0,0,0,115.2, 0.3, 0.4,0,0,1024,1024,1024,500,0,0,0,-79,127.5,0,0,99,4.251,4.248,0,0,0,0,3.999,77.18,139.98626300974,7.217848,6,P-GPS,
11500,2022-08-23 21:37:51,-34.9049124501414,-56.1632552813934,7.217848,10.1377956,129.84846740974,139.98626300974,8.530184,0,11.7118770152,22.7174876036,16,5,8.496,139.98626300974,7.217848,1.4316416,12.446522708,0,0,0,110.4, 0.3, 0.4,0,0,1024,1024,1024,500,0,0,0,-79,122.8,0,0,99,4.248,4.245,0,0,0,0,4.011,77.18,139.98626300974,7.217848,6,P-GPS,
11600,2022-08-23 21:37:51,-34.9049099965909,-56.1632540511074,7.217848,9.9737536,130.01250940974,139.98626300974,8.530184,0,11.0597772568,23.6854010204,16,5,8.496,139.98626300974,7.217848,1.4316416,12.446522708,0,0,0,106, 0.4, 0.4,0,0,1024,1024,1024,815,0,0,0,-32,119,0,0,99,4.248,4.245,0,0,0,0,4.011,77.18,139.98626300974,7.217848,6,P-GPS,
11700,2022-08-23 21:37:51,-34.9049092277047,-56.1632534809426,7.217848,9.9081368,130.07812620974,139.98626300974,8.530184,0,10.8914701648,24.0137146792,16,5,8.496,139.98626300974,7.217848,1.4316416,12.446522708,0,0,0,102.7, 0.5, 0.2,0,0,1024,1024,1024,1024,0,0,0,0,116.8,0,0,99,4.248,4.245,0,0,0,0,4.011,77.18,139.98626300974,7.217848,6,P-GPS,
11800,2022-08-23 21:37:51,-34.9049085797729,-56.1632529464082,7.217848,9.9081368,130.07812620974,139.98626300974,8.530184,0,10.7634189796,24.2991477592,16,5,8.496,139.98626300974,7.217848,1.4316416,12.446522708,0,0,0,101.2, 0.4, 0,0,0,1024,1024,1024,1024,0,0,0,0,115.9,0,0,99,4.248,4.245,0,0,0,0,4.011,77.18,139.98626300974,7.217848,6,P-GPS,
11900,2022-08-23 21:37:52,-34.904907975998,-56.1632523979948,7.217848,9.84252,130.14374300974,139.98626300974,8.530184,0,10.6574150392,24.573819684,16,5,8.496,139.98626300974,7.217848,1.4316416,12.446522708,0,0,0,100.5, 0.4, 0,0,0,1024,1024,1024,1024,0,0,0,0,115.7,0,0,99,4.248,4.245,0,0,0,0,4.011,77.18,139.98626300974,7.217848,6,P-GPS,
12000,2022-08-23 21:37:52,-34.9049075283257,-56.1632518761603,7.217848,9.84252,130.14374300974,139.98626300974,8.530184,0,10.60121425,24.7997711348,16,5,8.496,139.98626300974,7.217848,1.4316416,12.446522708,0,0,0,100.2, 0.4, -0.1,0,0,1024,1024,1024,1024,0,0,0,0,115.7,0,0,99,4.248,4.245,0,0,0,0,4.011,77.18,139.98626300974,7.217848,6,P-GPS,
12100,2022-08-23 21:37:52,-34.9049069986646,-56.1632510955394,7.217848,9.7769032,130.20935980974,139.98626300974,8.530184,0,10.5678809156,25.1029207508,16,5,8.496,139.98626300974,7.217848,1.4316416,12.446522708,0,0,0,100.2, 0.3, -0.2,0,0,1024,1024,1024,1024,0,0,0,0,115.7,0,0,99,4.248,4.245,0,0,0,0,4.011,77.18,139.98626300974,7.217848,6,P-GPS,
12200,2022-08-23 21:37:52,-34.9049067519357,-56.163250662477,7.217848,9.7769032,130.20935980974,139.98626300974,8.530184,0,10.5671919392,25.2607291548,16,5,8.496,139.98626300974,7.217848,1.4316416,12.446522708,0,0,0,100.1, 0.3, -0.2,0,0,1024,1024,1024,1024,0,0,0,0,115.7,0,0,99,4.248,4.245,0,0,0,0,4.011,77.18,139.98626300974,7.217848,6,P-GPS,
12300,2022-08-23 21:37:52,-34.9049065678499,-56.1632502532826,7.217848,9.7769032,130.20935980974,139.98626300974,8.530184,0,10.5832352468,25.4003617052,16,5,8.496,139.98626300974,7.217848,1.4316416,12.446522708,0,0,0,100.1, 0.3, -0.2,0,0,1024,1024,1024,1024,0,0,0,0,115.7,0,0,99,4.248,4.245,0,0,0,0,4.011,77.18,139.98626300974,7.217848,6,P-GPS,
12400,2022-08-23 21:37:52,-34.9049064204497,-56.1632499154286,7.217848,9.7112864,130.27497660974,139.98626300974,8.530184,0,10.5991801292,25.5148630212,16,5,8.496,139.98626300974,7.217848,1.4316416,12.446522708,0,0,0,100.1, 0.3, -0.2,0,0,1024,1024,1024,1024,0,0,0,0,115.7,0,0,99,4.248,4.245,0,0,0,0,4.011,77.18,139.98626300974,7.217848,6,P-GPS,
12500,2022-08-23 21:37:52,-34.9049070389978,-56.1632499402668,7.217848,9.7769032,130.20935980974,139.98626300974,8.530184,0,10.7774937832,25.7406832384,17,5,8.493,139.98626300974,7.217848,1.4316416,12.446522708,0,0,0,100.1, 0.3, -0.4,0,0,1024,1024,1024,1024,0,0,0,0,115.7,0,0,99,4.248,4.244,0,0,0,0,3.992,77.18,139.98626300974,7.217848,6,P-GPS,
12600,2022-08-23 21:37:52,-34.9049069460723,-56.1632496685822,7.217848,9.7769032,130.20935980974,139.98626300974,8.530184,0,10.797572524,25.828740984,17,5,8.493,139.98626300974,7.217848,1.4316416,12.446522708,0,0,0,100, 0.4, -0.2,0,0,1024,1024,1024,1024,0,0,0,0,115.7,0,0,99,4.248,4.244,0,0,0,0,3.992,77.18,139.98626300974,7.217848,6,P-GPS,
12700,2022-08-23 21:37:52,-34.9049068657314,-56.163249399577,6.889764,9.4816276,130.17655140974,139.65817900974,8.530184,0,10.8215554644,25.9144037164,17,5,8.493,139.98626300974,7.217848,1.4316416,12.446522708,0,0,0,100, 0.4, 0,0,0,1024,1024,1024,1024,0,0,0,0,115.7,0,0,99,4.248,4.244,0,0,0,0,3.992,77.18,139.65817900974,6.889764,6,P-GPS,
12800,2022-08-23 21:37:53,-34.9049067393251,-56.1632491538366,6.889764,9.4816276,130.17655140974,139.65817900974,8.530184,0,10.8285108452,26.0012147428,17,5,8.493,139.98626300974,7.217848,1.4316416,12.446522708,0,0,0,100, 0.5, 0,0,0,1024,1024,1024,1024,0,0,0,0,115.7,0,0,99,4.248,4.244,0,0,0,0,3.992,77.18,139.65817900974,6.889764,6,P-GPS,
12900,2022-08-23 21:37:53,-34.9049070366464,-56.1632492864497,6.889764,9.4816276,130.17655140974,139.65817900974,8.530184,0,10.8917982488,26.1167003108,17,5,8.493,139.98626300974,7.217848,1.4316416,12.446522708,0,0,0,100, 0.5, -0.1,0,0,1024,1024,1024,1010,0,0,0,-2,115.7,0,0,99,4.248,4.244,0,0,0,0,3.992,77.18,139.65817900974,6.889764,6,P-GPS,
13000,2022-08-23 21:37:53,-34.9049068096413,-56.1632491310641,6.889764,9.4816276,130.17655140974,139.65817900974,8.530184,0,10.8531171452,26.2116806288,17,5,8.493,139.98626300974,7.217848,1.4316416,12.446522708,0,0,0,100, 0.4, -0.1,0,0,1024,1024,1024,857,0,0,0,-25,115.7,0,0,99,4.248,4.244,0,0,0,0,3.992,77.18,139.65817900974,6.889764,6,P-GPS,
13100,2022-08-23 21:37:53,-34.9049065264158,-56.1632490187137,6.889764,9.4816276,130.17655140974,139.65817900974,8.530184,0,10.791010844,26.3203420496,16,5,8.493,139.98626300974,7.217848,1.4316416,12.446522708,0,0,0,100, 0.3, 0,0,0,1024,1024,1024,896,0,0,0,-19,115.6,0,0,99,4.248,4.244,0,0,0,0,3.992,77.18,139.65817900974,6.889764,6,P-GPS,
13200,2022-08-23 21:37:53,-34.9049062684247,-56.1632488785924,6.889764,9.3832024,130.27497660974,139.65817900974,8.530184,0,10.7419950944,26.423393234,16,5,8.493,139.98626300974,7.217848,1.4316416,12.446522708,0,0,0,99.8, 0.2, 0.1,0,0,1024,1024,1024,1024,0,0,0,0,115.2,0,0,99,4.248,4.244,0,0,0,0,3.992,77.18,139.65817900974,6.889764,6,P-GPS,
13300,2022-08-23 21:37:53,-34.9049059498815,-56.163249105714,6.889764,9.3832024,130.27497660974,139.65817900974,8.530184,0,10.6085633316,26.5580389076,16,5,8.493,139.98626300974,7.217848,1.4316416,12.446522708,0,0,0,99.5, 0.3, 0,0,0,1024,1024,1024,1024,0,0,0,0,115,0,0,99,4.248,4.244,0,0,0,0,3.992,77.18,139.65817900974,6.889764,6,P-GPS,
13400,2022-08-23 21:37:53,-34.904905873781,-56.163248721051,6.889764,9.3832024,130.27497660974,139.65817900974,8.530184,0,10.6579399736,26.6764116148,16,5,8.493,139.98626300974,7.217848,1.4316416,12.446522708,0,0,0,99.3, 0.4, 0.1,0,0,1024,1024,1024,1024,0,0,0,0,114.9,0,0,99,4.248,4.244,0,0,0,0,3.992,77.18,139.65817900974,6.889764,6,P-GPS,
13500,2022-08-23 21:37:53,-34.9049058978494,-56.1632481832261,6.889764,9.4160108,130.24216820974,139.65817900974,8.530184,0,10.7657155676,26.837599284,16,5,8.489,139.98626300974,7.217848,1.4316416,12.446522708,0,0,0,99.2, 0.5, 0.1,0,0,1024,1024,1024,1024,0,0,0,0,114.9,0,0,99,4.245,4.241,0,0,0,0,3.976,77.18,139.65817900974,6.889764,6,P-GPS,
13600,2022-08-23 21:37:53,-34.9049059605054,-56.1632475565427,6.889764,9.4160108,130.24216820974,139.65817900974,8.530184,0,10.9026250208,27.0264772428,16,5,8.489,139.98626300974,7.217848,1.4316416,12.446522708,0,0,0,99.3, 0.5, 0.2,0,0,1024,1024,1024,1024,0,0,0,0,114.9,0,0,99,4.245,4.241,0,0,0,0,3.976,77.18,139.65817900974,6.889764,6,P-GPS,
13700,2022-08-23 21:37:53,-34.9049060361564,-56.1632468460099,6.889764,9.4160108,130.24216820974,139.65817900974,8.530184,0,11.0609583592,27.2408801368,15,5,8.489,139.98626300974,7.217848,1.4316416,12.446522708,0,0,0,99.2, 0.5, 0.3,0,0,1024,1024,1024,1024,0,0,0,0,114.9,0,0,99,4.245,4.241,0,0,0,0,3.976,77.18,139.65817900974,6.889764,6,P-GPS,
13800,2022-08-23 21:37:54,-34.9049069665125,-56.1632451443988,6.889764,9.5472444,130.11093460974,139.65817900974,8.530184,0,11.6511814752,27.8527896052,15,5,8.489,139.98626300974,7.217848,1.4316416,12.446522708,0,0,0,99.2, 0.6, 0.2,0,0,1024,1024,1024,1024,0,0,0,0,114.9,0,0,99,4.245,4.241,0,0,0,0,3.976,77.18,139.65817900974,6.889764,6,P-GPS,
13900,2022-08-23 21:37:54,-34.9049071439999,-56.1632444718662,6.889764,9.5800528,130.07812620974,139.65817900974,8.530184,0,11.8333665204,28.0642069348,16,5,8.489,139.98626300974,7.217848,1.4316416,12.446522708,0,0,0,99.2, 0.4, 0.1,0,0,1024,1265,1024,1024,0,37,0,0,114.9,0,0,99,4.245,4.241,0,0,0,0,3.976,77.18,139.65817900974,6.889764,6,P-GPS,
14000,2022-08-23 21:37:54,-34.9049072633388,-56.1632439539672,6.889764,9.5800528,130.07812620974,139.65817900974,8.530184,0,11.9696198056,28.2251649452,16,5,8.489,139.98626300974,7.217848,1.4316416,12.446522708,0,0,0,99.2, 0.3, 0.1,0,0,1024,1684,1024,1024,0,100,0,0,114.9,0,0,99,4.245,4.241,0,0,0,0,3.976,77.18,139.65817900974,6.889764,6,P-GPS,
14100,2022-08-23 21:37:54,-34.9049073482003,-56.1632434961672,6.889764,9.5800528,130.07812620974,139.65817900974,8.530184,0,12.0850397568,28.3655848972,16,5,8.489,139.98626300974,7.217848,1.4316416,12.446522708,0,0,0,99.3, 0.3, 6.5,0,0,1024,1684,1024,1024,0,100,0,0,114.9,0,0,99,4.245,4.241,0,0,0,0,3.976,77.18,139.65817900974,6.889764,6,P-GPS,
14200,2022-08-23 21:37:54,-34.9049079729235,-56.1632429729198,6.889764,9.678478,129.97970100974,139.65817900974,8.530184,0.223694,12.358760238,28.6421269008,16,5,8.489,139.98626300974,7.217848,1.4316416,12.446522708,-0.223694,0,0,99.6, 0.3, 14.5,0,0,1024,1684,1024,1024,0,100,0,0,114.9,0,0,99,4.245,4.241,0,0,0,0,3.976,77.18,139.65817900974,6.889764,6,P-GPS,
14300,2022-08-23 21:37:54,-34.9049083109299,-56.1632427594304,6.889764,9.678478,129.97970100974,139.65817900974,8.530184,0.671082,12.4928809772,28.781004858,16,5,8.489,139.98626300974,7.217848,1.4316416,12.4928809772,-0.671082,0,0,99.5, 0.4, 17,0,0,1024,1684,1024,1024,0,100,0,0,114.9,0,0,99,4.245,4.241,0,0,0,0,3.976,77.18,139.65817900974,6.889764,6,P-GPS,
14400,2022-08-23 21:37:54,-34.9049088377771,-56.1632426101792,6.889764,9.7769032,129.88127580974,139.65817900974,8.530184,1.3645334,12.6653219276,28.978347384,16,5,8.489,139.98626300974,7.217848,1.4316416,12.6653219276,-1.342164,-0.223694,0,99.3, 0.3, 17.4,0,0,1024,1684,1024,1024,0,100,0,0,114.9,0,0,99,4.245,4.241,0,0,0,0,3.976,77.18,139.65817900974,6.889764,6,P-GPS,
14500,2022-08-23 21:37:54,-34.9049096260808,-56.163242498675,6.889764,9.8753284,129.78285060974,139.65817900974,8.530184,2.0356154,12.9026578932,29.267881514,16,5,8.482,139.98626300974,7.217848,2.0356154,12.9026578932,-2.013246,-0.223694,0,99.3, 0.3, 17.1,0,0,1024,1684,1024,1024,0,100,0,0,114.9,0,0,99,4.243,4.239,0,0,0,0,4.034,77.36,139.65817900974,6.889764,6,P-GPS,
14600,2022-08-23 21:37:54,-34.9049102878804,-56.1632430678408,6.889764,9.84252,129.81565900974,139.65817900974,8.530184,2.684328,12.9753613076,29.5633539644,16,5,8.482,139.98626300974,7.217848,2.684328,12.9753613076,-2.684328,-0.223694,0,99.2, 0.3, 17.2,0,0,1024,1684,1024,1024,0,100,0,0,114.9,0,0,99,4.243,4.239,0,0,0,0,4.034,77.36,139.65817900974,6.889764,6,P-GPS,
14700,2022-08-23 21:37:54,-34.9049114313282,-56.1632430211102,6.889764,9.9409452,129.71723380974,139.65817900974,8.530184,3.1540854,13.3067261476,29.9807752376,14,5,8.482,139.98626300974,7.217848,3.1540854,13.3067261476,-3.131716,-0.447388,0,99.2, 0.3, 16.8,0,0,1024,1684,1024,1024,0,100,0,0,114.9,0,0,99,4.243,4.239,0,0,0,0,4.034,77.36,139.65817900974,6.889764,6,P-GPS,
14800,2022-08-23 21:37:54,-34.9049128445375,-56.1632430410126,6.889764,10.1049872,129.55319180974,139.65817900974,8.530184,3.8251674,13.7086290476,30.4964248604,14,5,8.482,139.98626300974,7.217848,3.8251674,13.7086290476,-3.802798,-0.447388,0,99.2, 0.4, 16.1,0,0,1024,1024,1024,1024,0,0,0,0,114.9,0,0,99,4.243,4.239,0,0,0,0,4.034,77.36,139.65817900974,6.889764,6,P-GPS,
14900,2022-08-23 21:37:55,-34.9049146169034,-56.1632431111373,6.889764,10.3018376,129.35634140974,139.65817900974,8.530184,4.2949248,14.2151251268,31.1434065084,13,4,8.482,139.98626300974,7.217848,4.2949248,14.2151251268,-4.250186,-0.671082,0,99.1, 0.8, 7.4,0,0,1024,480,1024,1024,0,-82,0,0,114.9,0,0,99,4.243,4.239,0,0,0,0,4.034,77.36,139.65817900974,6.889764,6,P-GPS,
15000,2022-08-23 21:37:55,-34.9049169270401,-56.1632429543388,6.889764,10.4658796,129.19229940974,139.65817900974,8.530184,4.2725554,14.9331369608,31.9875666404,13,4,8.482,139.98626300974,7.217848,4.2949248,14.9331369608,-4.250186,-0.447388,0,98.5, 0.1, -9,0,0,1024,364,1024,1024,0,-100,0,0,114.9,0,0,99,4.243,4.239,0,0,0,0,4.034,77.36,139.65817900974,6.889764,6,P-GPS,
15100,2022-08-23 21:37:55,-34.9049188262683,-56.1632428236555,6.889764,10.6299216,129.02825740974,139.65817900974,8.530184,3.6014734,15.5332025968,32.681595534,14,4,8.482,139.98626300974,7.217848,4.2949248,15.5332025968,-3.579104,-0.447388,0,98.7, 0.4, -15.8,0,0,1024,364,1024,1024,0,-100,0,0,114.9,0,0,99,4.243,4.239,0,0,0,0,4.034,77.36,139.65817900974,6.889764,6,P-GPS,
15200,2022-08-23 21:37:55,-34.9049202577747,-56.1632428235354,7.217848,11.0564308,128.92983220974,139.98626300974,8.530184,2.9527608,15.9750333196,33.20374122,14,4,8.482,139.98626300974,7.217848,4.2949248,15.9750333196,-2.908022,-0.447388,0,98.8, 0.8, -19.4,0,0,1024,364,1024,1024,0,-100,0,0,114.9,0,0,99,4.243,4.239,0,0,0,0,4.034,77.36,139.98626300974,7.217848,6,P-GPS,
15300,2022-08-23 21:37:55,-34.9049213467608,-56.1632428830912,7.217848,11.1220476,128.86421540974,139.98626300974,8.530184,2.0356154,16.305118632,33.601707112,13,4,8.482,139.98626300974,7.217848,4.2949248,16.305118632,-2.013246,-0.223694,0,99, 0.3, -19.5,0,0,1024,679,1024,1024,0,-52,0,0,114.9,0,0,99,4.243,4.239,0,0,0,0,4.034,77.36,139.98626300974,7.217848,6,P-GPS,
15400,2022-08-23 21:37:55,-34.9049220624685,-56.1632428080308,6.889764,10.8923888,128.76579020974,139.65817900974,8.530184,1.1408394,16.5410438364,33.863846228,13,4,8.482,139.98626300974,7.217848,4.2949248,16.5410438364,-1.11847,-0.223694,0,99.1, 0.2, -18.5,0,0,1024,1024,1024,1024,0,0,0,0,114.9,0,0,99,4.243,4.239,0,0,0,0,4.034,77.36,139.65817900974,6.889764,6,P-GPS,
15500,2022-08-23 21:37:55,-34.9049223545006,-56.1632428644528,6.889764,10.8923888,128.76579020974,139.65817900974,8.530184,0.447388,16.6243771724,33.97145778,13,4,8.482,139.98626300974,7.217848,4.2949248,16.6243771724,-0.447388,0,0,99.2, 0.1, -13.1,0,0,1024,1024,1024,1024,0,0,0,0,114.9,0,0,99,4.243,4.239,0,0,0,0,4.034,77.36,139.65817900974,6.889764,6,P-GPS,
15600,2022-08-23 21:37:55,-34.904922324661,-56.1632424910545,6.889764,10.9251972,128.73298180974,139.65817900974,8.858268,0,16.6716540768,34.083662508,13,4,8.465,139.98626300974,7.217848,4.2949248,16.6716540768,0,0,0,99.5, 0.1, -1.4,0,0,1024,1024,1024,1024,0,0,0,0,114.9,0,0,99,4.235,4.227,0,0,0,0,4.277,77.36,139.65817900974,6.889764,6,P-GPS,
15700,2022-08-23 21:37:55,-34.9049220728254,-56.1632419911541,6.889764,10.9251972,128.73298180974,139.65817900974,8.858268,0,16.6698168064,34.259515532,14,4,8.465,139.98626300974,7.217848,4.2949248,16.6716540768,0,0,0,99.4, 0.1, 0.5,0,0,1024,1024,1024,1024,0,0,0,0,114.9,0,0,99,4.235,4.227,0,0,0,0,4.277,77.36,139.65817900974,6.889764,6,P-GPS,
15800,2022-08-23 21:37:55,-34.9049216251596,-56.1632415097172,6.889764,10.9251972,128.73298180974,139.65817900974,8.858268,0,16.6062341272,34.477035224,14,4,8.465,139.98626300974,7.217848,4.2949248,16.6716540768,0,0,0,99.3, 0.2, 0,0,0,1024,1024,1024,1024,0,0,0,0,114.9,0,0,99,4.235,4.227,0,0,0,0,4.277,77.36,139.65817900974,6.889764,6,P-GPS,
15900,2022-08-23 21:37:56,-34.9049195518834,-56.1632404016636,6.889764,10.7939636,128.86421540974,139.65817900974,8.858268,0,16.1545608844,35.303150736,14,4,8.465,139.98626300974,7.217848,4.2949248,16.6716540768,0,0,0,99.3, 0.2, -0.1,0,0,1024,1024,1024,1024,0,0,0,0,114.9,0,0,99,4.235,4.227,0,0,0,0,4.277,77.36,139.65817900974,6.889764,6,P-GPS,
16000,2022-08-23 21:37:56,-34.9049190690758,-56.1632400125126,6.889764,10.6955384,128.96264060974,139.65817900974,8.858268,0,16.0761816168,35.514108748,14,4,8.465,139.98626300974,7.217848,4.2949248,16.6716540768,0,0,0,99.2, 0.2, -0.3,0,0,1024,1024,1024,1024,0,0,0,0,114.9,0,0,99,4.235,4.227,0,0,0,0,4.277,77.36,139.65817900974,6.889764,6,P-GPS,
16100,2022-08-23 21:37:56,-34.9049186241914,-56.1632396614116,6.889764,10.6955384,128.96264060974,139.65817900974,8.858268,0,16.00475773,35.707678308,14,4,8.465,139.98626300974,7.217848,4.2949248,16.6716540768,0,0,0,99.2, 0.2, -0.5,0,0,1024,1024,1024,1024,0,0,0,0,114.9,0,0,99,4.235,4.227,0,0,0,0,4.277,77.36,139.65817900974,6.889764,6,P-GPS,
16200,2022-08-23 21:37:56,-34.9049183135168,-56.1632395084468,6.889764,10.5971132,129.06106580974,139.65817900974,8.858268,0,15.9398299064,35.829725556,14,4,8.465,139.98626300974,7.217848,4.2949248,16.6716540768,0,0,0,99.2, 0.3, -0.2,0,0,1024,1024,1024,1024,0,0,0,0,114.9,0,0,99,4.235,4.227,0,0,0,0,4.277,77.36,139.65817900974,6.889764,6,P-GPS,
16300,2022-08-23 21:37:56,-34.9049178794388,-56.1632400384581,6.889764,10.5971132,129.06106580974,139.65817900974,8.858268,0,15.7184388232,36.053806928,14,4,8.465,139.98626300974,7.217848,4.2949248,16.6716540768,0,0,0,99.2, 0.5, 0.2,0,0,1024,1024,1024,1024,0,0,0,0,114.9,0,0,99,4.235,4.227,0,0,0,0,4.277,77.36,139.65817900974,6.889764,6,P-GPS,
16400,2022-08-23 21:37:56,-34.9049177298434,-56.1632399756745,6.889764,10.5971132,129.06106580974,139.65817900974,8.858268,0,15.6854007644,36.111549712,14,4,8.465,139.98626300974,7.217848,4.2949248,16.6716540768,0,0,0,99.2, 0.4, 0.3,0,0,1024,1024,1024,1024,0,0,0,0,114.9,0,0,99,4.235,4.227,0,0,0,0,4.277,77.36,139.65817900974,6.889764,6,P-GPS,
16500,2022-08-23 21:37:56,-34.9049176238447,-56.1632398869898,6.889764,10.5971132,129.06106580974,139.65817900974,8.858268,0,15.6698823912,36.158465724,14,4,8.465,139.98626300974,7.217848,4.2949248,16.6716540768,0,0,0,99.2, 0.3, 0.2,0,0,1024,1024,1024,1024,0,0,0,0,114.9,0,0,99,4.235,4.227,0,0,0,0,4.277,77.36,139.65817900974,6.889764,6,P-GPS,
16600,2022-08-23 21:37:56,-34.9049175246139,-56.1632397812492,6.889764,10.5971132,129.06106580974,139.65817900974,8.858268,0,15.6595149368,36.206694072,14,4,8.473,139.98626300974,7.217848,4.2949248,16.6716540768,0,0,0,99.2, 0.2, 0.1,0,0,1024,1024,1024,1024,0,0,0,0,114.9,0,0,99,4.239,4.236,0,0,0,0,4.216,77.36,139.65817900974,6.889764,6,P-GPS,
16700,2022-08-23 21:37:56,-34.9049178852035,-56.1632399762751,6.889764,10.5971132,129.06106580974,139.65817900974,8.858268,0,15.7311028656,36.350394864,16,4,8.473,139.98626300974,7.217848,4.2949248,16.6716540768,0,0,0,99.2, 0.2, 0.1,0,0,1024,1024,1024,1024,0,0,0,0,114.9,0,0,99,4.239,4.236,0,0,0,0,4.216,77.36,139.65817900974,6.889764,6,P-GPS,
16800,2022-08-23 21:37:56,-34.9049175529814,-56.1632398314505,6.889764,10.5971132,129.06106580974,139.65817900974,8.858268,0,15.6589243856,36.479331876,16,4,8.473,139.98626300974,7.217848,4.2949248,16.6716540768,0,0,0,99.3, 0.3, 0,0,0,1024,1024,1024,1024,0,0,0,0,114.9,0,0,99,4.239,4.236,0,0,0,0,4.216,77.36,139.65817900974,6.889764,6,P-GPS,
16900,2022-08-23 21:37:57,-34.9049170573091,-56.1632396661855,7.217848,10.8595804,129.12668260974,139.98626300974,8.858268,0,15.5434388176,36.66666784,15,4,8.473,139.98626300974,7.217848,4.2949248,16.6716540768,0,0,0,99.3, 0.4, 0,0,0,1024,1024,1024,1024,0,0,0,0,114.9,0,0,99,4.239,4.236,0,0,0,0,4.216,77.36,139.98626300974,7.217848,6,P-GPS,
