time(millisecond),datetime(utc),latitude,longitude,height_above_takeoff(feet),height_above_ground_at_drone_location(feet),ground_elevation_at_drone_location(feet),altitude_above_seaLevel(feet),height_sonar(feet),speed(mph),distance(feet),mileage(feet),satellites,gpslevel,voltage(v),max_altitude(feet),max_ascent(feet),max_speed(mph),max_distance(feet), xSpeed(mph), ySpeed(mph), zSpeed(mph), compass_heading(degrees), pitch(degrees), roll(degrees),isPhoto,isVideo,rc_elevator,rc_aileron,rc_throttle,rc_rudder,rc_elevator(percent),rc_aileron(percent),rc_throttle(percent),rc_rudder(percent),gimbal_heading(degrees),gimbal_pitch(degrees),gimbal_roll(degrees),battery_percent,voltageCell1,voltageCell2,voltageCell3,voltageCell4,voltageCell5,voltageCell6,current(A),battery_temperature(f),altitude(feet),ascent(feet),flycStateRaw,flycState,message
794100,2022-08-12 05:01:13,0,0,4.265092,,,4.2651248084,4.265092,0,0,0,0,0,0,4.2651248084,4.265092,0,0,0,0,-0.223694,23.8, 0.2, -0.1,0,0,1024,1024,1024,1024,0,0,0,0,26.4,0,0,49,3.808,3.803,0,0,0,0,0,110.12,4.2651248084,4.265092,38,Tripod,
794200,2022-08-12 05:01:14,0,0,4.265092,,,4.2651248084,4.265092,0,0,0,0,0,0,4.2651248084,4.265092,0,0,0,0,0,23.8, 0.4, 0,0,0,1024,1024,1024,1024,0,0,0,0,26.4,0,0,49,3.808,3.803,0,0,0,0,0,110.12,4.2651248084,4.265092,38,Tripod,
794300,2022-08-12 05:01:14,0,0,4.265092,,,4.2651248084,4.265092,0,0,0,0,0,0,4.2651248084,4.265092,0,0,0,0,0,23.8, 0.4, 0.3,0,0,1024,1024,1024,1024,0,0,0,0,26.4,0,0,49,3.808,3.803,0,0,0,0,0,110.12,4.2651248084,4.265092,38,Tripod,
794400,2022-08-12 05:01:14,0,0,4.265092,,,4.2651248084,4.265092,0,0,0,0,0,7.62,4.2651248084,4.265092,0,0,0,0,0,23.8, 0.3, 0.1,0,0,1024,1024,1024,1024,0,0,0,0,26.4,0,0,49,3.808,3.803,0,0,0,0,4.536,110.12,4.2651248084,4.265092,38,Tripod,
794500,2022-08-12 05:01:14,0,0,4.265092,,,4.2651248084,4.265092,0,0,0,0,0,7.62,4.2651248084,4.265092,0,0,0,0,0,23.8, 0.1, 0,0,0,1024,1024,1024,1024,0,0,0,0,26.4,0,0,49,3.808,3.803,0,0,0,0,4.536,110.12,4.2651248084,4.265092,38,Tripod,
794600,2022-08-12 05:01:14,0,0,4.265092,,,4.2651248084,4.265092,0,0,0,0,0,7.62,4.2651248084,4.265092,0,0,0,0,0,23.7, 0, 0,0,0,1024,1024,1024,1024,0,0,0,0,26.4,0,0,49,3.808,3.803,0,0,0,0,4.536,110.12,4.2651248084,4.265092,38,Tripod,
794700,2022-08-12 05:01:14,0,0,4.265092,,,4.2651248084,4.265092,0,0,0,0,0,7.62,4.2651248084,4.265092,0,0,0,0,0,23.7, 0, 0.1,0,0,1024,1024,1024,1024,0,0,0,0,26.4,0,0,49,3.808,3.803,0,0,0,0,4.536,110.12,4.2651248084,4.265092,38,Tripod,
794800,2022-08-12 05:01:14,0,0,4.265092,,,4.2651248084,4.265092,0,0,0,0,0,7.62,4.2651248084,4.265092,0,0,0,0,0,23.8, -0.2, 0,0,0,1024,1024,1024,1024,0,0,0,0,26.4,0,0,49,3.808,3.803,0,0,0,0,4.536,110.12,4.2651248084,4.265092,38,Tripod,
794900,2022-08-12 05:01:14,0,0,4.265092,,,4.2651248084,4.265092,0,0,0,0,0,7.62,4.2651248084,4.265092,0,0,0,0,0,23.8, 0, 0,0,0,1024,1024,1024,1024,0,0,0,0,26.4,0,0,49,3.808,3.803,0,0,0,0,4.536,110.12,4.2651248084,4.265092,38,Tripod,
795000,2022-08-12 05:01:14,0,0,4.265092,,,4.2651248084,4.265092,0,0,0,0,0,7.62,4.2651248084,4.265092,0,0,0,0,0,23.8, 0.1, 0,0,0,1024,1024,1024,712,0,0,0,-47,26.4,0,0,49,3.808,3.803,0,0,0,0,4.536,110.12,4.2651248084,4.265092,38,Tripod,"Setting new Return-To-Home altitude to 40m (131 ft). Data Recorder File Index is 39. Setting new Maximum Flight Altitude to 30m (98 ft)"
795100,2022-08-12 05:01:14,0,0,4.593176,,,4.5932088084,4.265092,0,0,0,0,0,7.62,4.5932088084,4.593176,0,0,0,0,0,23.8, 0, 0.1,0,0,1024,1024,1024,364,0,0,0,-100,26.3,0,0,49,3.808,3.803,0,0,0,0,4.536,110.12,4.5932088084,4.593176,38,Tripod,
795200,2022-08-12 05:01:14,0,0,4.593176,,,4.5932088084,4.265092,0,0,0,0,0,7.62,4.5932088084,4.593176,0,0,0,0,0,23.7, 0, 0,0,0,1024,1024,1024,364,0,0,0,-100,25.8,0,0,49,3.808,3.803,0,0,0,0,4.536,110.12,4.5932088084,4.593176,38,Tripod,
795300,2022-08-12 05:01:14,0,0,4.593176,,,4.5932088084,4.265092,0,0,0,0,0,7.62,4.5932088084,4.593176,0,0,0,0,0,22.7, 0, 0,0,0,1024,1024,1024,364,0,0,0,-100,24.3,0,0,49,3.808,3.803,0,0,0,0,4.536,110.12,4.5932088084,4.593176,38,Tripod,
795400,2022-08-12 05:01:14,0,0,4.593176,,,4.5932088084,4.265092,0,0,0,0,0,7.62,4.5932088084,4.593176,0,0,0,0,0,21, -0.1, 0,0,0,1024,1024,1024,364,0,0,0,-100,22.3,0,0,49,3.808,3.803,0,0,0,0,4.536,110.12,4.5932088084,4.593176,38,Tripod,
795500,2022-08-12 05:01:14,0,0,4.593176,,,4.5932088084,4.265092,0,0,0,0,0,7.608,4.5932088084,4.593176,0,0,0,0,0,18.8, 0, -0.3,0,0,1024,1024,1024,364,0,0,0,-100,20,0,0,49,3.808,3.799,0,0,0,0,4.449,110.12,4.5932088084,4.593176,38,Tripod,
795600,2022-08-12 05:01:14,0,0,4.593176,,,4.5932088084,4.265092,0,0,0,0,0,7.608,4.5932088084,4.593176,0,0,0,0,0,16.5, 0, -0.2,0,0,1024,1024,1024,364,0,0,0,-100,17.6,0,0,49,3.808,3.799,0,0,0,0,4.449,110.12,4.5932088084,4.593176,38,Tripod,
795700,2022-08-12 05:01:15,0,0,4.593176,,,4.5932088084,4.265092,0,0,0,0,0,7.608,4.5932088084,4.593176,0,0,0,0,0,14.2, 0.1, -0.2,0,0,1024,1024,1024,364,0,0,0,-100,15.2,0,0,49,3.808,3.799,0,0,0,0,4.449,110.12,4.5932088084,4.593176,38,Tripod,
795800,2022-08-12 05:01:15,0,0,4.593176,,,4.5932088084,4.265092,0,0,0,0,0,7.608,4.5932088084,4.593176,0,0,0,0,0,11.8, -0.1, -0.3,0,0,1024,1024,1024,364,0,0,0,-100,12.8,0,0,49,3.808,3.799,0,0,0,0,4.449,110.12,4.5932088084,4.593176,38,Tripod,
795900,2022-08-12 05:01:15,0,0,4.593176,,,4.5932088084,4.265092,0,0,0,0,0,7.608,4.5932088084,4.593176,0,0,0,0,0,9.4, -0.1, -0.1,0,0,1024,1024,1024,364,0,0,0,-100,10.4,0,0,49,3.808,3.799,0,0,0,0,4.449,110.12,4.5932088084,4.593176,38,Tripod,
796000,2022-08-12 05:01:15,0,0,4.593176,,,4.5932088084,4.265092,0,0,0,0,0,7.608,4.5932088084,4.593176,0,0,0,0,0,6.9, 0, -0.1,0,0,1024,1024,1024,364,0,0,0,-100,8,0,0,49,3.808,3.799,0,0,0,0,4.449,110.12,4.5932088084,4.593176,38,Tripod,
796100,2022-08-12 05:01:15,0,0,4.593176,,,4.5932088084,4.265092,0,0,0,0,0,7.608,4.5932088084,4.593176,0,0,0,0,0,4.5, 0.1, -0.3,0,0,1024,1024,1024,364,0,0,0,-100,5.6,0,0,49,3.808,3.799,0,0,0,0,4.449,110.12,4.5932088084,4.593176,38,Tripod,
796200,2022-08-12 05:01:15,0,0,4.593176,,,4.5932088084,4.265092,0,0,0,0,0,7.608,4.5932088084,4.593176,0,0,0,0,0,2.1, 0.2, -0.1,0,0,1024,1024,1024,364,0,0,0,-100,3.2,0,0,49,3.808,3.799,0,0,0,0,4.449,110.12,4.5932088084,4.593176,38,Tripod,
796300,2022-08-12 05:01:15,0,0,4.593176,,,4.5932088084,4.265092,0,0,0,0,0,7.608,4.5932088084,4.593176,0,0,0,0,0,359.9, 0.1, 0.2,0,0,1024,1024,1024,364,0,0,0,-100,0.8,0,0,49,3.808,3.799,0,0,0,0,4.449,110.12,4.5932088084,4.593176,38,Tripod,
796400,2022-08-12 05:01:15,0,0,4.593176,,,4.5932088084,4.265092,0,0,0,0,0,7.608,4.5932088084,4.593176,0,0,0,0,0,357.5, 0.1, 0,0,0,1024,1024,1024,364,0,0,0,-100,358.5,0,0,49,3.808,3.799,0,0,0,0,4.449,110.12,4.5932088084,4.593176,38,Tripod,
796500,2022-08-12 05:01:15,0,0,4.593176,,,4.5932088084,4.265092,0,0,0,0,0,7.603,4.5932088084,4.593176,0,0,0,0,0,355.1, 0.1, 0,0,0,1024,1024,1024,364,0,0,0,-100,356.1,0,0,49,3.806,3.797,0,0,0,0,4.572,110.3,4.5932088084,4.593176,38,Tripod,
796600,2022-08-12 05:01:15,0,0,4.593176,,,4.5932088084,4.265092,0,0,0,0,0,7.603,4.5932088084,4.593176,0,0,0,0,0,352.7, 0, -0.2,0,0,1024,1024,1024,364,0,0,0,-100,353.7,0,0,49,3.806,3.797,0,0,0,0,4.572,110.3,4.5932088084,4.593176,38,Tripod,
796700,2022-08-12 05:01:16,0,0,4.593176,,,4.5932088084,4.265092,0,0,0,0,0,7.603,4.5932088084,4.593176,0,0,0,0,0,350.3, -0.1, -0.3,0,0,1024,1024,1024,364,0,0,0,-100,351.3,0,0,49,3.806,3.797,0,0,0,0,4.572,110.3,4.5932088084,4.593176,38,Tripod,
796800,2022-08-12 05:01:16,0,0,4.593176,,,4.5932088084,4.265092,0,0,0,0,0,7.603,4.5932088084,4.593176,0,0,0,0,0,347.9, -0.1, -0.2,0,0,1024,1024,1024,364,0,0,0,-100,348.9,0,0,49,3.806,3.797,0,0,0,0,4.572,110.3,4.5932088084,4.593176,38,Tripod,
796900,2022-08-12 05:01:16,0,0,4.593176,,,4.5932088084,4.265092,0,0,0,0,0,7.603,4.5932088084,4.593176,0,0,0,0,0,345.4, -0.1, -0.2,0,0,1024,1024,1024,364,0,0,0,-100,346.5,0,0,49,3.806,3.797,0,0,0,0,4.572,110.3,4.5932088084,4.593176,38,Tripod,
797000,2022-08-12 05:01:16,0,0,4.593176,,,4.5932088084,4.265092,0,0,0,0,0,7.603,4.5932088084,4.593176,0,0,0,0,0,343.1, 0, -0.2,0,0,1024,1024,1024,364,0,0,0,-100,344.1,0,0,49,3.806,3.797,0,0,0,0,4.572,110.3,4.5932088084,4.593176,38,Tripod,N/A
797100,2022-08-12 05:01:16,0,0,4.593176,,,4.5932088084,4.265092,0,0,0,0,0,7.603,4.5932088084,4.593176,0,0,0,0,0,340.7, 0, -0.2,0,0,1024,1024,1024,364,0,0,0,-100,341.7,0,0,49,3.806,3.797,0,0,0,0,4.572,110.3,4.5932088084,4.593176,38,Tripod,
797200,2022-08-12 05:01:16,0,0,4.593176,,,4.5932088084,4.265092,0,0,0,0,0,7.603,4.5932088084,4.593176,0,0,0,0,0,338.3, 0, -0.3,0,0,1024,1024,1024,364,0,0,0,-100,339.3,0,0,49,3.806,3.797,0,0,0,0,4.572,110.3,4.5932088084,4.593176,38,Tripod,
797300,2022-08-12 05:01:16,0,0,4.593176,,,4.5932088084,4.265092,0,0,0,0,0,7.603,4.5932088084,4.593176,0,0,0,0,0,335.9, 0, -0.3,0,0,1024,1024,1024,364,0,0,0,-100,336.9,0,0,49,3.806,3.797,0,0,0,0,4.572,110.3,4.5932088084,4.593176,38,Tripod,
797400,2022-08-12 05:01:16,0,0,4.265092,,,4.2651248084,4.265092,0,0,0,0,0,7.603,4.5932088084,4.593176,0,0,0,0,0,333.5, 0.2, -0.2,0,0,1024,1024,1024,364,0,0,0,-100,334.5,0,0,49,3.806,3.797,0,0,0,0,4.572,110.3,4.2651248084,4.265092,38,Tripod,
797500,2022-08-12 05:01:16,0,0,4.265092,,,4.2651248084,4.265092,0,0,0,0,0,7.601,4.5932088084,4.593176,0,0,0,0,0,331.1, 0.2, -0.2,0,0,1024,1024,1024,364,0,0,0,-100,332.1,0,0,49,3.804,3.795,0,0,0,0,4.623,110.3,4.2651248084,4.265092,38,Tripod,
797600,2022-08-12 05:01:17,0,0,4.265092,,,4.2651248084,4.265092,0,0,0,0,0,7.601,4.5932088084,4.593176,0,0,0,0,0,328.7, 0.2, 0,0,0,1024,1024,1024,364,0,0,0,-100,329.7,0,0,49,3.804,3.795,0,0,0,0,4.623,110.3,4.2651248084,4.265092,38,Tripod,
797700,2022-08-12 05:01:17,0,0,4.265092,,,4.2651248084,4.265092,0,0,0,0,0,7.601,4.5932088084,4.593176,0,0,0,0,0,326.3, 0.1, 0,0,0,1024,1024,1024,364,0,0,0,-100,327.3,0,0,49,3.804,3.795,0,0,0,0,4.623,110.3,4.2651248084,4.265092,38,Tripod,"N/A. Se detectó tarjeta SD de baja velocidad"
797800,2022-08-12 05:01:17,0,0,4.265092,,,4.2651248084,4.265092,0,0,0,0,0,7.601,4.5932088084,4.593176,0,0,0,0,0,323.9, 0, 0.1,0,0,1024,1024,1024,364,0,0,0,-100,324.9,0,0,49,3.804,3.795,0,0,0,0,4.623,110.3,4.2651248084,4.265092,38,Tripod,
797900,2022-08-12 05:01:17,0,0,4.265092,,,4.2651248084,4.265092,0,0,0,0,0,7.601,4.5932088084,4.593176,0,0,0,0,0,321.6, 0, 0.2,0,0,1024,1024,1024,364,0,0,0,-100,322.5,0,0,49,3.804,3.795,0,0,0,0,4.623,110.3,4.2651248084,4.265092,38,Tripod,
798000,2022-08-12 05:01:17,0,0,4.265092,,,4.2651248084,4.265092,0,0,0,0,0,7.601,4.5932088084,4.593176,0,0,0,0,0,319.2, 0, 0.5,0,0,1024,1024,1024,364,0,0,0,-100,320.1,0,0,49,3.804,3.795,0,0,0,0,4.623,110.3,4.2651248084,4.265092,38,Tripod,
798100,2022-08-12 05:01:17,0,0,4.265092,,,4.2651248084,4.265092,0,0,0,0,0,7.601,4.5932088084,4.593176,0,0,0,0,0,316.8, 0, 0.3,0,0,1024,1024,1024,364,0,0,0,-100,317.7,0,0,49,3.804,3.795,0,0,0,0,4.623,110.3,4.2651248084,4.265092,38,Tripod,
798200,2022-08-12 05:01:17,0,0,4.265092,,,4.2651248084,4.265092,0,0,0,0,0,7.601,4.5932088084,4.593176,0,0,0,0,0,314.4, -0.1, 0.2,0,0,1024,1024,1024,364,0,0,0,-100,315.3,0,0,49,3.804,3.795,0,0,0,0,4.623,110.3,4.2651248084,4.265092,38,Tripod,
798300,2022-08-12 05:01:17,0,0,4.265092,,,4.2651248084,4.265092,0,0,0,0,0,7.601,4.5932088084,4.593176,0,0,0,0,0,312.1, -0.2, 0.2,0,0,1024,1024,1024,364,0,0,0,-100,312.9,0,0,49,3.804,3.795,0,0,0,0,4.623,110.3,4.2651248084,4.265092,38,Tripod,
798400,2022-08-12 05:01:17,0,0,4.265092,,,4.2651248084,4.265092,0,0,0,0,0,7.601,4.5932088084,4.593176,0,0,0,0,0,309.7, -0.2, 0.2,0,0,1024,1024,1024,364,0,0,0,-100,310.5,0,0,49,3.804,3.795,0,0,0,0,4.623,110.3,4.2651248084,4.265092,38,Tripod,
798500,2022-08-12 05:01:17,0,0,4.265092,,,4.2651248084,4.265092,0,0,0,0,0,7.6,4.5932088084,4.593176,0,0,0,0,0,307.3, -0.2, 0.3,0,0,1024,1024,1024,364,0,0,0,-100,308.1,0,0,48,3.803,3.795,0,0,0,0,4.554,110.3,4.2651248084,4.265092,38,Tripod,
798600,2022-08-12 05:01:18,0,0,4.265092,,,4.2651248084,4.265092,0,0,0,0,0,7.6,4.5932088084,4.593176,0,0,0,0,0,305, -0.1, 0.4,0,0,1024,1024,1024,364,0,0,0,-100,305.7,0,0,48,3.803,3.795,0,0,0,0,4.554,110.3,4.2651248084,4.265092,38,Tripod,
798700,2022-08-12 05:01:18,0,0,4.265092,,,4.2651248084,4.265092,0,0,0,0,0,7.6,4.5932088084,4.593176,0,0,0,0,0,302.6, -0.1, 0.3,0,0,1024,1024,1024,364,0,0,0,-100,303.3,0,0,48,3.803,3.795,0,0,0,0,4.554,110.3,4.2651248084,4.265092,38,Tripod,
798800,2022-08-12 05:01:18,0,0,4.265092,,,4.2651248084,4.265092,0,0,0,0,0,7.6,4.5932088084,4.593176,0,0,0,0,0,300.2, 0, 0.1,0,0,1024,1024,1024,364,0,0,0,-100,300.9,0,0,48,3.803,3.795,0,0,0,0,4.554,110.3,4.2651248084,4.265092,38,Tripod,
798900,2022-08-12 05:01:18,0,0,4.265092,,,4.2651248084,4.265092,0,0,0,0,0,7.6,4.5932088084,4.593176,0,0,0,0,0,297.7, 0.2, 0,0,0,1024,1024,1024,364,0,0,0,-100,298.5,0,0,48,3.803,3.795,0,0,0,0,4.554,110.3,4.2651248084,4.265092,38,Tripod,
799000,2022-08-12 05:01:18,0,0,4.265092,,,4.2651248084,4.265092,0,0,0,0,0,7.6,4.5932088084,4.593176,0,0,0,0,0,295.2, 0.3, -0.1,0,0,1024,1024,1024,364,0,0,0,-100,296.1,0,0,48,3.803,3.795,0,0,0,0,4.554,110.3,4.2651248084,4.265092,38,Tripod,"Baja velocidad de la tarjeta SD. Puede afectar a su uso normal. Sustituye la tarjeta SD (Code: 10028)"
799100,2022-08-12 05:01:18,0,0,4.265092,,,4.2651248084,4.265092,0,0,0,0,0,7.6,4.5932088084,4.593176,0,0,0,0,0,292.7, 0, -0.2,0,0,1024,1024,1024,364,0,0,0,-100,293.7,0,0,48,3.803,3.795,0,0,0,0,4.554,110.3,4.2651248084,4.265092,38,Tripod,
799200,2022-08-12 05:01:18,0,0,4.265092,,,4.2651248084,4.265092,0,0,0,0,0,7.6,4.5932088084,4.593176,0,0,0,0,0,290.3, 0, -0.2,0,0,1024,1024,1024,364,0,0,0,-100,291.3,0,0,48,3.803,3.795,0,0,0,0,4.554,110.3,4.2651248084,4.265092,38,Tripod,
799300,2022-08-12 05:01:18,0,0,4.265092,,,4.2651248084,4.265092,0,0,0,0,0,7.6,4.5932088084,4.593176,0,0,0,0,0,287.9, -0.1, -0.3,0,0,1024,1024,1024,364,0,0,0,-100,288.9,0,0,48,3.803,3.795,0,0,0,0,4.554,110.3,4.2651248084,4.265092,38,Tripod,
799400,2022-08-12 05:01:18,0,0,4.265092,,,4.2651248084,4.265092,0,0,0,0,0,7.6,4.5932088084,4.593176,0,0,0,0,0,285.5, -0.1, -0.1,0,0,1024,1024,1024,364,0,0,0,-100,286.5,0,0,48,3.803,3.795,0,0,0,0,4.554,110.3,4.2651248084,4.265092,38,Tripod,
799500,2022-08-12 05:01:18,0,0,4.265092,,,4.2651248084,4.265092,0,0,0,0,0,7.596,4.5932088084,4.593176,0,0,0,0,0,283.1, -0.2, -0.1,0,0,1024,1024,1024,364,0,0,0,-100,284.1,0,0,48,3.802,3.794,0,0,0,0,4.559,110.48,4.2651248084,4.265092,38,Tripod,
799600,2022-08-12 05:01:19,0,0,4.593176,,,4.5932088084,4.265092,0,0,0,0,0,7.596,4.5932088084,4.593176,0,0,0,0,0,280.7, -0.1, -0.1,0,0,1024,1024,1024,364,0,0,0,-100,281.7,0,0,48,3.802,3.794,0,0,0,0,4.559,110.48,4.5932088084,4.593176,38,Tripod,
799700,2022-08-12 05:01:19,0,0,4.593176,,,4.5932088084,4.265092,0,0,0,0,0,7.596,4.5932088084,4.593176,0,0,0,0,0,278.3, -0.1, 0,0,0,1024,1024,1024,364,0,0,0,-100,279.3,0,0,48,3.802,3.794,0,0,0,0,4.559,110.48,4.5932088084,4.593176,38,Tripod,
799800,2022-08-12 05:01:19,0,0,4.593176,,,4.5932088084,4.265092,0,0,0,0,0,7.596,4.5932088084,4.593176,0,0,0,0,0,275.9, 0, 0,0,0,1024,1024,1024,364,0,0,0,-100,276.9,0,0,48,3.802,3.794,0,0,0,0,4.559,110.48,4.5932088084,4.593176,38,Tripod,
799900,2022-08-12 05:01:19,0,0,4.593176,,,4.5932088084,4.265092,0,0,0,0,0,7.596,4.5932088084,4.593176,0,0,0,0,0,273.5, 0.1, -0.2,0,0,1024,1024,1024,364,0,0,0,-100,274.5,0,0,48,3.802,3.794,0,0,0,0,4.559,110.48,4.5932088084,4.593176,38,Tripod,
800000,2022-08-12 05:01:19,0,0,4.593176,,,4.5932088084,4.265092,0,0,0,0,0,7.596,4.5932088084,4.593176,0,0,0,0,0,271.1, 0, -0.2,0,0,1024,1024,1024,364,0,0,0,-100,272.1,0,0,48,3.802,3.794,0,0,0,0,4.559,110.48,4.5932088084,4.593176,38,Tripod,
800100,2022-08-12 05:01:19,0,0,4.593176,,,4.5932088084,4.265092,0,0,0,0,0,7.596,4.5932088084,4.593176,0,0,0,0,0,268.7, -0.1, -0.2,0,0,1024,1024,1024,364,0,0,0,-100,269.7,0,0,48,3.802,3.794,0,0,0,0,4.559,110.48,4.5932088084,4.593176,38,Tripod,
800200,2022-08-12 05:01:19,0,0,4.593176,,,4.5932088084,4.265092,0,0,0,0,0,7.596,4.5932088084,4.593176,0,0,0,0,0,266.4, -0.1, 0,0,0,1024,1024,1024,364,0,0,0,-100,267.3,0,0,48,3.802,3.794,0,0,0,0,4.559,110.48,4.5932088084,4.593176,38,Tripod,
800300,2022-08-12 05:01:19,0,0,4.593176,,,4.5932088084,4.265092,0,0,0,0,0,7.596,4.5932088084,4.593176,0,0,0,0,0,264, 0, 0.1,0,0,1024,1024,1024,364,0,0,0,-100,264.9,0,0,48,3.802,3.794,0,0,0,0,4.559,110.48,4.5932088084,4.593176,38,Tripod,
800400,2022-08-12 05:01:19,0,0,4.593176,,,4.5932088084,4.265092,0,0,0,0,0,7.596,4.5932088084,4.593176,0,0,0,0,0,261.6, 0.1, 0.2,0,0,1024,1024,1024,364,0,0,0,-100,262.5,0,0,48,3.802,3.794,0,0,0,0,4.559,110.48,4.5932088084,4.593176,38,Tripod,
800500,2022-08-12 05:01:19,0,0,4.593176,,,4.5932088084,4.265092,0,0,0,0,0,7.596,4.5932088084,4.593176,0,0,0,0,0,259.2, 0.1, 0.3,0,0,1024,1024,1024,364,0,0,0,-100,260.1,0,0,48,3.802,3.794,0,0,0,0,4.559,110.48,4.5932088084,4.593176,38,Tripod,
800600,2022-08-12 05:01:19,0,0,4.265092,,,4.2651248084,4.265092,0,0,0,0,0,7.595,4.5932088084,4.593176,0,0,0,0,0,256.8, 0.1, 0.4,0,0,1024,1024,1024,364,0,0,0,-100,257.7,0,0,48,3.8,3.793,0,0,0,0,4.537,110.3,4.2651248084,4.265092,38,Tripod,
800700,2022-08-12 05:01:20,0,0,4.265092,,,4.2651248084,4.265092,0,0,0,0,0,7.595,4.5932088084,4.593176,0,0,0,0,0,254.4, 0.2, 0.4,0,0,1024,1024,1024,364,0,0,0,-100,255.3,0,0,48,3.8,3.793,0,0,0,0,4.537,110.3,4.2651248084,4.265092,38,Tripod,
800800,2022-08-12 05:01:20,0,0,4.265092,,,4.2651248084,4.265092,0,0,0,0,0,7.595,4.5932088084,4.593176,0,0,0,0,0,252, 0.1, 0.9,0,0,1024,1024,1024,364,0,0,0,-100,252.9,0,0,48,3.8,3.793,0,0,0,0,4.537,110.3,4.2651248084,4.265092,38,Tripod,
800900,2022-08-12 05:01:20,0,0,4.265092,,,4.2651248084,4.265092,0,0,0,0,0,7.595,4.5932088084,4.593176,0,0,0,0,0,249.6, 0.2, 0.9,0,0,1024,1024,1024,364,0,0,0,-100,250.5,0,0,48,3.8,3.793,0,0,0,0,4.537,110.3,4.2651248084,4.265092,38,Tripod,
801000,2022-08-12 05:01:20,0,0,4.265092,,,4.2651248084,4.265092,0,0,0,0,0,7.595,4.5932088084,4.593176,0,0,0,0,0,247.2, 0.2, 0.4,0,0,1024,1024,1024,364,0,0,0,-100,248.1,0,0,48,3.8,3.793,0,0,0,0,4.537,110.3,4.2651248084,4.265092,38,Tripod,"Entorno demasiado oscuro. El posicionamiento visual no será preciso. Vuela con precaución (Code: 180032)"
801100,2022-08-12 05:01:20,0,0,4.265092,,,4.2651248084,4.265092,0,0,0,0,0,7.595,4.5932088084,4.593176,0,0,0,0,0,244.8, 0.4, 0,0,0,1024,1024,1024,364,0,0,0,-100,245.7,0,0,48,3.8,3.793,0,0,0,0,4.537,110.3,4.2651248084,4.265092,38,Tripod,
801200,2022-08-12 05:01:20,0,0,4.593176,,,4.5932088084,4.265092,0,0,0,0,0,7.595,4.5932088084,4.593176,0,0,0,0,0,242.4, 0.4, 0.1,0,0,1024,1024,1024,364,0,0,0,-100,243.3,0,0,48,3.8,3.793,0,0,0,0,4.537,110.3,4.5932088084,4.593176,38,Tripod,
801300,2022-08-12 05:01:20,0,0,4.593176,,,4.5932088084,4.265092,0,0,0,0,0,7.595,4.5932088084,4.593176,0,0,0,0,0,240, 0.3, 0,0,0,1024,1024,1024,364,0,0,0,-100,240.9,0,0,48,3.8,3.793,0,0,0,0,4.537,110.3,4.5932088084,4.593176,38,Tripod,
801400,2022-08-12 05:01:20,0,0,4.593176,,,4.5932088084,4.265092,0,0,0,0,0,7.595,4.5932088084,4.593176,0,0,0,0,0,237.6, 0.5, 0,0,0,1024,1024,1024,364,0,0,0,-100,238.5,0,0,48,3.8,3.793,0,0,0,0,4.537,110.3,4.5932088084,4.593176,38,Tripod,
801500,2022-08-12 05:01:20,0,0,4.593176,,,4.5932088084,4.265092,0,0,0,0,0,7.595,4.5932088084,4.593176,0,0,0,0,0,235.2, 0.4, -0.2,0,0,1024,1024,1024,364,0,0,0,-100,236.1,0,0,48,3.8,3.793,0,0,0,0,4.537,110.3,4.5932088084,4.593176,38,Tripod,
801600,2022-08-12 05:01:20,0,0,4.593176,,,4.5932088084,4.265092,0,0,0,0,0,7.59,4.5932088084,4.593176,0,0,0,0,0,232.8, 0.5, -0.2,0,0,1024,1024,1024,364,0,0,0,-100,233.7,0,0,48,3.8,3.791,0,0,0,0,4.597,110.48,4.5932088084,4.593176,38,Tripod,
801700,2022-08-12 05:01:21,0,0,4.593176,,,4.5932088084,4.265092,0,0,0,0,0,7.59,4.5932088084,4.593176,0,0,0,0,0,230.4, 0.4, -0.2,0,0,1024,1024,1024,364,0,0,0,-100,231.3,0,0,48,3.8,3.791,0,0,0,0,4.597,110.48,4.5932088084,4.593176,38,Tripod,
801800,2022-08-12 05:01:21,0,0,4.593176,,,4.5932088084,4.265092,0,0,0,0,0,7.59,4.5932088084,4.593176,0,0,0,0,0,228, 0.3, -0.1,0,0,1024,1024,1024,364,0,0,0,-100,228.9,0,0,48,3.8,3.791,0,0,0,0,4.597,110.48,4.5932088084,4.593176,38,Tripod,
801900,2022-08-12 05:01:21,0,0,4.593176,,,4.5932088084,4.265092,0,0,0,0,0,7.59,4.5932088084,4.593176,0,0,0,0,0,225.6, 0.2, 0,0,0,1024,1024,1024,364,0,0,0,-100,226.5,0,0,48,3.8,3.791,0,0,0,0,4.597,110.48,4.5932088084,4.593176,38,Tripod,
802000,2022-08-12 05:01:21,0,0,4.593176,,,4.5932088084,4.265092,0,0,0,0,0,7.59,4.5932088084,4.593176,0,0,0,0,0,223.2, 0.3, 0.3,0,0,1024,1024,1024,364,0,0,0,-100,224.1,0,0,48,3.8,3.791,0,0,0,0,4.597,110.48,4.5932088084,4.593176,38,Tripod,
802100,2022-08-12 05:01:21,0,0,4.593176,,,4.5932088084,4.265092,0,0,0,0,0,7.59,4.5932088084,4.593176,0,0,0,0,0,220.7, 0.4, 0.4,0,0,1024,1024,1024,364,0,0,0,-100,221.7,0,0,48,3.8,3.791,0,0,0,0,4.597,110.48,4.5932088084,4.593176,38,Tripod,
802200,2022-08-12 05:01:21,0,0,4.593176,,,4.5932088084,4.265092,0,0,0,0,0,7.59,4.5932088084,4.593176,0,0,0,0,0,218.3, 0.5, 0.3,0,0,1024,1024,1024,364,0,0,0,-100,219.3,0,0,48,3.8,3.791,0,0,0,0,4.597,110.48,4.5932088084,4.593176,38,Tripod,
802300,2022-08-12 05:01:21,0,0,4.265092,,,4.2651248084,4.265092,0,0,0,0,0,7.59,4.5932088084,4.593176,0,0,0,0,0,215.9, 0.6, 0.4,0,0,1024,1024,1024,420,0,0,0,-92,216.9,0,0,48,3.8,3.791,0,0,0,0,4.597,110.48,4.2651248084,4.265092,38,Tripod,
802400,2022-08-12 05:01:21,0,0,4.265092,,,4.2651248084,4.265092,0,0,0,0,0,7.59,4.5932088084,4.593176,0,0,0,0,0,213.5, 0.8, 0.3,0,0,1024,1024,1024,710,0,0,0,-48,214.5,0,0,48,3.8,3.791,0,0,0,0,4.597,110.48,4.2651248084,4.265092,38,Tripod,
802500,2022-08-12 05:01:21,0,0,4.265092,,,4.2651248084,4.265092,0,0,0,0,0,7.59,4.5932088084,4.593176,0,0,0,0,0,211.1, 0.6, 0.4,0,0,1024,1024,1024,919,0,0,0,-16,212.2,0,0,48,3.8,3.791,0,0,0,0,4.597,110.48,4.2651248084,4.265092,38,Tripod,
802600,2022-08-12 05:01:21,0,0,4.265092,,,4.2651248084,4.265092,0,0,0,0,0,7.589,4.5932088084,4.593176,0,0,0,0,0,209, 0.4, 0.4,0,0,1024,1024,1024,919,0,0,0,-16,210.3,0,0,48,3.798,3.789,0,0,0,0,4.56,110.48,4.2651248084,4.265092,38,Tripod,
802700,2022-08-12 05:01:22,0,0,4.265092,,,4.2651248084,4.265092,0,0,0,0,0,7.589,4.5932088084,4.593176,0,0,0,0,0,207.4, 0.4, 0.6,0,0,1024,1024,1024,1024,0,0,0,0,209.3,0,0,48,3.798,3.789,0,0,0,0,4.56,110.48,4.2651248084,4.265092,38,Tripod,
802800,2022-08-12 05:01:22,0,0,4.265092,,,4.2651248084,4.265092,0,0,0,0,0,7.589,4.5932088084,4.593176,0,0,0,0,0,206.6, 0.3, 0.9,0,0,1024,1024,1024,1024,0,0,0,0,208.7,0,0,48,3.798,3.789,0,0,0,0,4.56,110.48,4.2651248084,4.265092,38,Tripod,
802900,2022-08-12 05:01:22,0,0,4.265092,,,4.2651248084,4.265092,0,0,0,0,0,7.589,4.5932088084,4.593176,0,0,0,0,0,205.9, 0.4, 0.9,0,0,1024,1024,1024,1024,0,0,0,0,208.2,0,0,48,3.798,3.789,0,0,0,0,4.56,110.48,4.2651248084,4.265092,38,Tripod,
803000,2022-08-12 05:01:22,0,0,4.265092,,,4.2651248084,4.265092,0,0,0,0,0,7.589,4.5932088084,4.593176,0,0,0,0,0,205.4, 0.5, 0.9,0,0,1024,1024,1024,1024,0,0,0,0,207.9,0,0,48,3.798,3.789,0,0,0,0,4.56,110.48,4.2651248084,4.265092,38,Tripod,
803100,2022-08-12 05:01:22,0,0,4.265092,,,4.2651248084,4.265092,0,0,0,0,0,7.589,4.5932088084,4.593176,0,0,0,0,0,205.2, 0.5, 0.8,0,0,1024,1024,1024,1024,0,0,0,0,207.9,0,0,48,3.798,3.789,0,0,0,0,4.56,110.48,4.2651248084,4.265092,38,Tripod,
803200,2022-08-12 05:01:22,0,0,4.265092,,,4.2651248084,4.265092,0,0,0,0,0,7.589,4.5932088084,4.593176,0,0,0,0,0,205.2, 0.5, 0.8,0,0,1024,1024,1024,1024,0,0,0,0,207.9,0,0,48,3.798,3.789,0,0,0,0,4.56,110.48,4.2651248084,4.265092,38,Tripod,
803300,2022-08-12 05:01:22,0,0,3.937008,,,3.9370408084,4.265092,0,0,0,0,0,7.589,4.5932088084,4.593176,0,0,0,0,0,205.2, 0.6, 0.7,0,0,1024,1024,1024,1024,0,0,0,0,207.9,0,0,48,3.798,3.789,0,0,0,0,4.56,110.48,3.9370408084,3.937008,38,Tripod,
803400,2022-08-12 05:01:22,0,0,3.937008,,,3.9370408084,4.265092,0,0,0,0,0,7.589,4.5932088084,4.593176,0,0,0,0,0,205.2, 0.4, 0.6,0,0,1024,1024,1024,1024,0,0,0,0,207.9,0,0,48,3.798,3.789,0,0,0,0,4.56,110.48,3.9370408084,3.937008,38,Tripod,
803500,2022-08-12 05:01:22,0,0,3.937008,,,3.9370408084,4.265092,0,0,0,0,0,7.589,4.5932088084,4.593176,0,0,0,0,0,205.2, 0.3, 0.7,0,0,1024,1024,1024,1024,0,0,0,0,207.9,0,0,48,3.798,3.789,0,0,0,0,4.56,110.48,3.9370408084,3.937008,38,Tripod,
803600,2022-08-12 05:01:23,0,0,3.937008,,,3.9370408084,4.265092,0,0,0,0,0,7.586,4.5932088084,4.593176,0,0,0,0,0,205.2, 0.3, 0.6,0,0,1024,1024,1024,1024,0,0,0,0,207.9,0,0,48,3.796,3.787,0,0,0,0,4.596,110.48,3.9370408084,3.937008,38,Tripod,
803700,2022-08-12 05:01:23,0,0,3.937008,,,3.9370408084,4.265092,0,0,0,0,0,7.586,4.5932088084,4.593176,0,0,0,0,0,205.2, 0.2, 0.5,0,0,1024,1024,1024,1024,0,0,0,0,207.9,0,0,48,3.796,3.787,0,0,0,0,4.596,110.48,3.9370408084,3.937008,38,Tripod,
803800,2022-08-12 05:01:23,0,0,3.937008,,,3.9370408084,4.265092,0,0,0,0,0,7.586,4.5932088084,4.593176,0,0,0,0,0,205.2, 0.1, 0.5,0,0,1024,1024,1024,1024,0,0,0,0,207.9,0,0,48,3.796,3.787,0,0,0,0,4.596,110.48,3.9370408084,3.937008,38,Tripod,
803900,2022-08-12 05:01:23,0,0,3.937008,,,3.9370408084,4.265092,0,0,0,0,0,7.586,4.5932088084,4.593176,0,0,0,0,0,205.2, 0.2, 0.6,0,0,1024,1024,1024,1024,0,0,0,0,207.9,0,0,48,3.796,3.787,0,0,0,0,4.596,110.48,3.9370408084,3.937008,38,Tripod,
804000,2022-08-12 05:01:23,0,0,3.937008,,,3.9370408084,4.265092,0,0,0,0,0,7.586,4.5932088084,4.593176,0,0,0,0,0,205.2, 0.2, 0.5,0,0,1024,1024,1024,1024,0,0,0,0,207.9,0,0,48,3.796,3.787,0,0,0,0,4.596,110.48,3.9370408084,3.937008,38,Tripod,
804100,2022-08-12 05:01:23,0,0,3.937008,,,3.9370408084,4.265092,0,0,0,0,0,7.586,4.5932088084,4.593176,0,0,0,0,0,205.3, 0.4, 0.7,0,0,1024,1024,1024,1024,0,0,0,0,207.9,0,0,48,3.796,3.787,0,0,0,0,4.596,110.48,3.9370408084,3.937008,38,Tripod,
804200,2022-08-12 05:01:23,0,0,3.937008,,,3.9370408084,4.265092,0,0,0,0,0,7.586,4.5932088084,4.593176,0,0,0,0,0,205.3, 0.4, 0.7,0,0,1024,1024,1024,1024,0,0,0,0,207.9,0,0,48,3.796,3.787,0,0,0,0,4.596,110.48,3.9370408084,3.937008,38,Tripod,
804300,2022-08-12 05:01:23,0,0,3.937008,,,3.9370408084,4.265092,0,0,0,0,0,7.586,4.5932088084,4.593176,0,0,0,0,0,205.2, 0.2, 0.8,0,0,1024,1024,1024,1024,0,0,0,0,207.9,0,0,48,3.796,3.787,0,0,0,0,4.596,110.48,3.9370408084,3.937008,38,Tripod,
804400,2022-08-12 05:01:23,0,0,3.937008,,,3.9370408084,4.265092,0,0,0,0,0,7.586,4.5932088084,4.593176,0,0,0,0,0,205.2, 0.1, 0.6,0,0,1024,1024,1024,1024,0,0,0,0,207.9,0,0,48,3.796,3.787,0,0,0,0,4.596,110.48,3.9370408084,3.937008,38,Tripod,
804500,2022-08-12 05:01:23,0,0,3.937008,,,3.9370408084,4.265092,0,0,0,0,0,7.586,4.5932088084,4.593176,0,0,0,0,0,205.2, 0.4, 0.5,0,0,1024,1024,1024,1024,0,0,0,0,207.9,0,0,48,3.796,3.787,0,0,0,0,4.596,110.48,3.9370408084,3.937008,38,Tripod,
804600,2022-08-12 05:01:24,0,0,3.937008,,,3.9370408084,4.265092,0,0,0,0,0,7.583,4.5932088084,4.593176,0,0,0,0,0,205.2, 0.4, 0.5,0,0,1024,1024,1024,1024,0,0,0,0,207.9,0,0,48,3.797,3.789,0,0,0,0,4.637,110.48,3.9370408084,3.937008,38,Tripod,
804700,2022-08-12 05:01:24,0,0,3.937008,,,3.9370408084,4.265092,0,0,0,0,0,7.583,4.5932088084,4.593176,0,0,0,0,0,205.2, 0.4, 0.3,0,0,1024,1024,1024,1024,0,0,0,0,207.9,0,0,48,3.797,3.789,0,0,0,0,4.637,110.48,3.9370408084,3.937008,38,Tripod,
804800,2022-08-12 05:01:24,0,0,3.937008,,,3.9370408084,4.265092,0,0,0,0,0,7.583,4.5932088084,4.593176,0,0,0,0,0,205.1, 0.2, 0.5,0,0,1024,1024,1024,1024,0,0,0,0,207.9,0,0,48,3.797,3.789,0,0,0,0,4.637,110.48,3.9370408084,3.937008,38,Tripod,
804900,2022-08-12 05:01:24,0,0,3.937008,,,3.9370408084,4.265092,0,0,0,0,0,7.583,4.5932088084,4.593176,0,0,0,0,0,205.1, 0, 0.3,0,0,1024,1024,1024,1024,0,0,0,0,207.9,0,0,48,3.797,3.789,0,0,0,0,4.637,110.48,3.9370408084,3.937008,38,Tripod,
805000,2022-08-12 05:01:24,0,0,3.937008,,,3.9370408084,4.265092,0,0,0,0,0,7.583,4.5932088084,4.593176,0,0,0,0,0,205.1, 0, 0,0,0,1024,1024,1024,1024,0,0,0,0,207.9,0,0,48,3.797,3.789,0,0,0,0,4.637,110.48,3.9370408084,3.937008,38,Tripod,
805100,2022-08-12 05:01:24,0,0,3.937008,,,3.9370408084,4.265092,0,0,0,0,0,7.583,4.5932088084,4.593176,0,0,0,0,0,205.1, 0.2, 0,0,0,1024,1024,1024,1024,0,0,0,0,207.9,0,0,48,3.797,3.789,0,0,0,0,4.637,110.48,3.9370408084,3.937008,38,Tripod,
805200,2022-08-12 05:01:24,0,0,3.937008,,,3.9370408084,4.265092,0,0,0,0,0,7.583,4.5932088084,4.593176,0,0,0,0,0,205.2, 0.2, 0,0,0,1024,1024,1024,1024,0,0,0,0,207.9,0,0,48,3.797,3.789,0,0,0,0,4.637,110.48,3.9370408084,3.937008,38,Tripod,
805300,2022-08-12 05:01:24,0,0,3.937008,,,3.9370408084,4.265092,0,0,0,0,0,7.583,4.5932088084,4.593176,0,0,0,0,0,205.2, 0.3, -0.2,0,0,1024,1024,1024,1024,0,0,0,0,207.9,0,0,48,3.797,3.789,0,0,0,0,4.637,110.48,3.9370408084,3.937008,38,Tripod,
805400,2022-08-12 05:01:24,0,0,3.937008,,,3.9370408084,4.265092,0,0,0,0,0,7.583,4.5932088084,4.593176,0,0,0,0,0,205.2, 0.4, -0.2,0,0,1024,1024,1024,1024,0,0,0,0,207.9,0,0,48,3.797,3.789,0,0,0,0,4.637,110.48,3.9370408084,3.937008,38,Tripod,
805500,2022-08-12 05:01:24,0,0,3.937008,,,3.9370408084,4.265092,0,0,0,0,0,7.583,4.5932088084,4.593176,0,0,0,0,0,205.2, 0.4, -0.2,0,0,1024,1024,1024,1024,0,0,0,0,207.9,0,0,48,3.797,3.789,0,0,0,0,4.637,110.48,3.9370408084,3.937008,38,Tripod,
805600,2022-08-12 05:01:25,0,0,3.937008,,,3.9370408084,4.265092,0,0,0,0,0,7.583,4.5932088084,4.593176,0,0,0,0,0,205.3, 0.5, 0,0,0,1024,1024,1024,1024,0,0,0,0,207.9,0,0,48,3.797,3.789,0,0,0,0,4.637,110.48,3.9370408084,3.937008,38,Tripod,
805700,2022-08-12 05:01:25,0,0,3.937008,,,3.9370408084,4.265092,0,0,0,0,0,7.584,4.5932088084,4.593176,0,0,0,0,0,205.3, 0.3, 0.2,0,0,1024,1024,1024,1024,0,0,0,0,207.9,0,0,48,3.796,3.788,0,0,0,0,4.533,110.48,3.9370408084,3.937008,38,Tripod,
805800,2022-08-12 05:01:25,0,0,3.937008,,,3.9370408084,4.265092,0,0,0,0,0,7.584,4.5932088084,4.593176,0,0,0,0,0,205.3, 0.5, 0.4,0,0,1024,1024,1024,1024,0,0,0,0,207.9,0,0,48,3.796,3.788,0,0,0,0,4.533,110.48,3.9370408084,3.937008,38,Tripod,
805900,2022-08-12 05:01:25,0,0,3.937008,,,3.9370408084,4.265092,0,0,0,0,0,7.584,4.5932088084,4.593176,0,0,0,0,0,205.3, 0.4, 0.4,0,0,1024,1024,1024,1024,0,0,0,0,207.9,0,0,48,3.796,3.788,0,0,0,0,4.533,110.48,3.9370408084,3.937008,38,Tripod,
806000,2022-08-12 05:01:25,0,0,3.937008,,,3.9370408084,4.265092,0,0,0,0,0,7.584,4.5932088084,4.593176,0,0,0,0,0,205.3, 0.2, 0.4,0,0,1024,1024,1024,1024,0,0,0,0,207.9,0,0,48,3.796,3.788,0,0,0,0,4.533,110.48,3.9370408084,3.937008,38,Tripod,
806100,2022-08-12 05:01:25,0,0,3.937008,,,3.9370408084,4.265092,0,0,0,0,0,7.584,4.5932088084,4.593176,0,0,0,0,0,205.3, 0.3, 0.4,0,0,1024,1024,1031,1024,0,0,1,0,207.9,0,0,48,3.796,3.788,0,0,0,0,4.533,110.48,3.9370408084,3.937008,38,Tripod,
806200,2022-08-12 05:01:25,0,0,3.937008,,,3.9370408084,4.265092,0,0,0,0,0,7.584,4.5932088084,4.593176,0,0,0,0,0,205.2, 0.3, 0.4,0,0,1024,1024,1024,1024,0,0,0,0,207.9,0,0,48,3.796,3.788,0,0,0,0,4.533,110.48,3.9370408084,3.937008,38,Tripod,
806300,2022-08-12 05:01:25,0,0,3.937008,,,3.9370408084,4.265092,0,0,0,0,0,7.584,4.5932088084,4.593176,0,0,0,0,0,205.2, 0.3, 0.6,0,0,1024,1024,1024,1024,0,0,0,0,207.9,0,0,48,3.796,3.788,0,0,0,0,4.533,110.48,3.9370408084,3.937008,38,Tripod,
806400,2022-08-12 05:01:25,0,0,3.937008,,,3.9370408084,4.265092,0,0,0,0,0,7.584,4.5932088084,4.593176,0,0,0,0,0,205.3, 0.3, 0.8,0,0,1024,1024,1122,1024,0,0,15,0,207.9,0,0,48,3.796,3.788,0,0,0,0,4.533,110.48,3.9370408084,3.937008,38,Tripod,
806500,2022-08-12 05:01:25,0,0,3.937008,,,3.9370408084,4.265092,0,0,0,0,0,7.584,4.5932088084,4.593176,0,0,0,0,0,205.3, 0.3, 0.7,0,0,1024,1024,1466,1024,0,0,67,0,207.9,0,0,48,3.796,3.788,0,0,0,0,4.533,110.48,3.9370408084,3.937008,38,Tripod,
806600,2022-08-12 05:01:26,0,0,3.937008,,,3.9370408084,4.265092,0,0,0,0,0,7.584,4.5932088084,4.593176,0,0,0,0,0,205.3, 0.3, 0.7,0,0,1024,1024,1585,1024,0,0,85,0,207.9,0,0,48,3.796,3.788,0,0,0,0,4.533,110.48,3.9370408084,3.937008,38,Tripod,
806700,2022-08-12 05:01:26,0,0,3.937008,,,3.9370408084,4.265092,0,0,0,0,0,7.584,4.5932088084,4.593176,0,0,0,0,-0.671082,205.3, 0.2, 0.4,0,0,1024,1024,1406,1024,0,0,58,0,207.9,0,0,48,3.796,3.788,0,0,0,0,4.533,110.48,3.9370408084,3.937008,38,Tripod,
806800,2022-08-12 05:01:26,0,0,4.265092,,,4.2651248084,4.593176,0,0,0,0,0,7.581,4.5932088084,4.593176,0,0,0,0,-1.342164,205.2, 0.1, 0,0,0,1024,1024,1024,1024,0,0,0,0,207.9,0,0,48,3.794,3.786,0,0,0,0,4.531,110.48,4.2651248084,4.265092,38,Tripod,
806900,2022-08-12 05:01:26,0,0,4.593176,,,4.5932088084,4.593176,0,0,0,0,0,7.581,4.5932088084,4.593176,0,0,0,0,-1.789552,205.2, 0, 0.1,0,0,1024,1024,1024,1024,0,0,0,0,207.9,0,0,48,3.794,3.786,0,0,0,0,4.531,110.48,4.5932088084,4.593176,38,Tripod,
807000,2022-08-12 05:01:26,0,0,4.593176,,,4.5932088084,4.92126,0,0,0,0,0,7.581,4.5932088084,4.593176,0,0,0,0,-1.565858,205.2, 0.6, 0.2,0,0,1024,1024,1024,1024,0,0,0,0,207.9,0,0,48,3.794,3.786,0,0,0,0,4.531,110.48,4.5932088084,4.593176,38,Tripod,
807100,2022-08-12 05:01:26,0,0,4.92126,,,4.9212928084,5.249344,0,0,0,0,0,7.581,4.9212928084,4.92126,0,0,0,0,-1.11847,205.2, 0.8, 0.2,0,0,1024,1024,1024,1024,0,0,0,0,207.9,0,0,48,3.794,3.786,0,0,0,0,4.531,110.48,4.9212928084,4.92126,38,Tripod,
807200,2022-08-12 05:01:26,0,0,4.92126,,,4.9212928084,5.249344,0,0,0,0,0,7.581,4.9212928084,4.92126,0,0,0,0,-0.671082,205.3, 0.6, 0,0,0,1024,1024,1024,1024,0,0,0,0,207.9,0,0,48,3.794,3.786,0,0,0,0,4.531,110.48,4.9212928084,4.92126,38,Tripod,
807300,2022-08-12 05:01:26,0,0,4.92126,,,4.9212928084,5.577428,0,0,0,0,0,7.581,4.9212928084,4.92126,0,0,0,0,-0.223694,205.3, 0.4, 0,0,0,1024,1024,1024,1024,0,0,0,0,207.9,0,0,48,3.794,3.786,0,0,0,0,4.531,110.48,4.9212928084,4.92126,38,Tripod,
807400,2022-08-12 05:01:26,0,0,4.92126,,,4.9212928084,5.577428,0,0,0,0,0,7.581,4.9212928084,4.92126,0,0,0,0,0,205.3, 0.3, 0.2,0,0,1024,1024,1024,1024,0,0,0,0,207.9,0,0,48,3.794,3.786,0,0,0,0,4.531,110.48,4.9212928084,4.92126,38,Tripod,
807500,2022-08-12 05:01:26,0,0,4.92126,,,4.9212928084,5.577428,0,0,0,0,0,7.581,4.9212928084,4.92126,0,0,0,0,0,205.4, 0.4, 0.1,0,0,1024,1024,1024,1024,0,0,0,0,207.9,0,0,48,3.794,3.786,0,0,0,0,4.531,110.48,4.9212928084,4.92126,38,Tripod,
807600,2022-08-12 05:01:26,0,0,4.92126,,,4.9212928084,5.577428,0,0,0,0,0,7.581,4.9212928084,4.92126,0,0,0,0,0,205.4, 0.4, 0.1,0,0,1024,1024,480,1024,0,0,-82,0,207.9,0,0,48,3.794,3.786,0,0,0,0,4.531,110.48,4.9212928084,4.92126,38,Tripod,
807700,2022-08-12 05:01:27,0,0,4.92126,,,4.9212928084,5.577428,0,0,0,0,0,7.548,4.9212928084,4.92126,0,0,0,0,0,205.4, 0.3, 0.1,0,0,1024,1024,364,1024,0,0,-100,0,207.9,0,0,48,3.796,3.788,0,0,0,0,4.989,110.66,4.9212928084,4.92126,38,Tripod,
807800,2022-08-12 05:01:27,0,0,4.92126,,,4.9212928084,5.577428,0,0,0,0,0,7.548,4.9212928084,4.92126,0,0,0,0,0.223694,205.3, 0.1, 0.1,0,0,1024,1024,534,1024,0,0,-74,0,207.9,0,0,48,3.796,3.788,0,0,0,0,4.989,110.66,4.9212928084,4.92126,38,Tripod,
807900,2022-08-12 05:01:27,0,0,4.92126,,,4.9212928084,5.249344,0,0,0,0,0,7.548,4.9212928084,4.92126,0,0,0,0,0.671082,205.3, 0.2, 0.2,0,0,1024,1024,534,1024,0,0,-74,0,207.9,0,0,48,3.796,3.788,0,0,0,0,4.989,110.66,4.9212928084,4.92126,38,Tripod,
808000,2022-08-12 05:01:27,0,0,4.92126,,,4.9212928084,5.249344,0,0,0,0,0,7.548,4.9212928084,4.92126,0,0,0,0,0.894776,205.2, 0.1, 0.3,0,0,1024,1024,1024,1024,0,0,0,0,207.9,0,0,48,3.796,3.788,0,0,0,0,4.989,110.66,4.9212928084,4.92126,38,Tripod,
808100,2022-08-12 05:01:27,0,0,4.593176,,,4.5932088084,5.249344,0,0,0,0,0,7.548,4.9212928084,4.92126,0,0,0,0,0.671082,205.3, 0, 0.5,0,0,1024,1024,1024,1024,0,0,0,0,207.9,0,0,48,3.796,3.788,0,0,0,0,4.989,110.66,4.5932088084,4.593176,38,Tripod,
808200,2022-08-12 05:01:27,0,0,4.593176,,,4.5932088084,4.92126,0,0,0,0,0,7.548,4.9212928084,4.92126,0,0,0,0,0.447388,205.2, 0, 0.4,0,0,1024,1024,1024,1024,0,0,0,0,207.9,0,0,48,3.796,3.788,0,0,0,0,4.989,110.66,4.5932088084,4.593176,38,Tripod,
808300,2022-08-12 05:01:27,0,0,4.593176,,,4.5932088084,4.92126,0,0,0,0,0,7.548,4.9212928084,4.92126,0,0,0,0,0.223694,205.2, 0.2, 0.5,0,0,1024,1024,1024,1024,0,0,0,0,207.9,0,0,48,3.796,3.788,0,0,0,0,4.989,110.66,4.5932088084,4.593176,38,Tripod,
808400,2022-08-12 05:01:27,0,0,4.593176,,,4.5932088084,4.92126,0,0,0,0,0,7.548,4.9212928084,4.92126,0,0,0,0,0,205.2, 0.3, 0.4,0,0,1024,1024,1024,1024,0,0,0,0,207.9,0,0,48,3.796,3.788,0,0,0,0,4.989,110.66,4.5932088084,4.593176,38,Tripod,
808500,2022-08-12 05:01:27,0,0,4.593176,,,4.5932088084,4.92126,0,0,0,0,0,7.548,4.9212928084,4.92126,0,0,0,0,0,205.3, 0.1, 0.3,0,0,1024,1024,1024,1024,0,0,0,0,207.9,0,0,48,3.796,3.788,0,0,0,0,4.989,110.66,4.5932088084,4.593176,38,Tripod,
808600,2022-08-12 05:01:27,0,0,4.593176,,,4.5932088084,4.92126,0,0,0,0,0,7.548,4.9212928084,4.92126,0,0,0,0,0,205.3, 0.2, 0.4,0,0,1024,1024,1024,1024,0,0,0,0,207.9,0,0,48,3.796,3.788,0,0,0,0,4.989,110.66,4.5932088084,4.593176,38,Tripod,
808700,2022-08-12 05:01:28,0,0,4.593176,,,4.5932088084,4.92126,0,0,0,0,0,7.59,4.9212928084,4.92126,0,0,0,0,0,205.3, 0.2, 0.4,0,0,1024,1024,1024,1024,0,0,0,0,207.9,0,0,48,3.788,3.78,0,0,0,0,4.046,110.66,4.5932088084,4.593176,38,Tripod,
808800,2022-08-12 05:01:28,0,0,4.593176,,,4.5932088084,4.92126,0,0,0,0,0,7.59,4.9212928084,4.92126,0,0,0,0,0,205.3, 0.4, 0.3,0,0,1024,1024,1024,1024,0,0,0,0,207.9,0,0,48,3.788,3.78,0,0,0,0,4.046,110.66,4.5932088084,4.593176,38,Tripod,
808900,2022-08-12 05:01:28,0,0,4.593176,,,4.5932088084,4.92126,0,0,0,0,0,7.59,4.9212928084,4.92126,0,0,0,0,0,205.3, 0.2, 0.3,0,0,1041,1024,1024,1024,3,0,0,0,207.9,0,0,48,3.788,3.78,0,0,0,0,4.046,110.66,4.5932088084,4.593176,38,Tripod,
809000,2022-08-12 05:01:28,0,0,4.593176,,,4.5932088084,4.92126,0,0,0,0,0,7.59,4.9212928084,4.92126,0,0,0,0,0,205.2, 0.1, 0.5,0,0,1041,1024,1024,1024,3,0,0,0,207.9,0,0,48,3.788,3.78,0,0,0,0,4.046,110.66,4.5932088084,4.593176,38,Tripod,
809100,2022-08-12 05:01:28,0,0,4.593176,,,4.5932088084,4.92126,0,0,0,0,0,7.59,4.9212928084,4.92126,0,0,0,0,0,205.2, 0.2, 0.5,0,0,1370,1024,1024,1024,52,0,0,0,207.9,0,0,48,3.788,3.78,0,0,0,0,4.046,110.66,4.5932088084,4.593176,38,Tripod,
809200,2022-08-12 05:01:28,0,0,4.593176,,,4.5932088084,4.92126,0,0,0,0,0,7.59,4.9212928084,4.92126,0,0,0,0,0,205.2, -1.8, 0.6,0,0,1560,1024,1024,1024,81,0,0,0,207.9,0,0,48,3.788,3.78,0,0,0,0,4.046,110.66,4.5932088084,4.593176,38,Tripod,
809300,2022-08-12 05:01:28,0,0,4.593176,,,4.5932088084,4.92126,0,0,0,0,0,7.59,4.9212928084,4.92126,0,0,0,0,0,205.2, -6, 0.3,0,0,1435,1024,1024,1024,62,0,0,0,207.9,0,0,48,3.788,3.78,0,0,0,0,4.046,110.66,4.5932088084,4.593176,38,Tripod,
809400,2022-08-12 05:01:28,0,0,4.593176,,,4.5932088084,4.92126,0.223694,0,0,0,0,7.59,4.9212928084,4.92126,0,0,-0.223694,0,0,205.3, -8.3, 0.4,0,0,1081,1024,1024,1024,9,0,0,0,207.9,0,0,48,3.788,3.78,0,0,0,0,4.046,110.66,4.5932088084,4.593176,38,Tripod,
809500,2022-08-12 05:01:28,0,0,4.593176,,,4.5932088084,4.92126,0.4921268,0,0,0,0,7.59,4.9212928084,4.92126,0,0,-0.447388,-0.223694,0,205.4, -5.5, 0.2,0,0,1110,1024,1024,1024,13,0,0,0,207.9,0,0,48,3.788,3.78,0,0,0,0,4.046,110.66,4.5932088084,4.593176,38,Tripod,
809600,2022-08-12 05:01:29,0,0,4.593176,,,4.5932088084,4.92126,0.7158208,0,0,0,0,7.59,4.9212928084,4.92126,0,0,-0.671082,-0.223694,0,205.3, -1, 0.3,0,0,1456,1024,1024,1024,65,0,0,0,207.9,0,0,48,3.788,3.78,0,0,0,0,4.046,110.66,4.5932088084,4.593176,38,Tripod,
809700,2022-08-12 05:01:29,0,0,4.593176,,,4.5932088084,4.92126,0.7158208,0,0,0,0,7.59,4.9212928084,4.92126,0,0,-0.671082,-0.223694,0,205.3, 0, 0.2,0,0,1488,1024,1024,1024,70,0,0,0,207.9,0,0,48,3.788,3.78,0,0,0,0,4.046,110.66,4.5932088084,4.593176,38,Tripod,
809800,2022-08-12 05:01:29,0,0,4.593176,,,4.5932088084,4.92126,0.7158208,0,0,0,0,7.576,4.9212928084,4.92126,0,0,-0.671082,-0.223694,0,205.2, -4, 0.3,0,0,1446,1024,1024,1024,64,0,0,0,207.9,0,0,48,3.791,3.783,0,0,0,0,4.767,110.66,4.5932088084,4.593176,38,Tripod,
809900,2022-08-12 05:01:29,0,0,4.593176,,,4.5932088084,4.92126,0.8052984,0,0,0,0,7.576,4.9212928084,4.92126,0,0,-0.671082,-0.447388,0,205.1, -6.4, 0.4,0,0,1446,1024,1024,1024,64,0,0,0,207.9,0,0,48,3.791,3.783,0,0,0,0,4.767,110.66,4.5932088084,4.593176,38,Tripod,
810000,2022-08-12 05:01:29,0,0,4.593176,,,4.5932088084,4.92126,1.006623,0,0,0,0,7.576,4.9212928084,4.92126,0,0,-0.894776,-0.447388,0,205.1, -6.3, 0.6,0,0,1437,1024,1024,1024,63,0,0,0,207.9,0,0,48,3.791,3.783,0,0,0,0,4.767,110.66,4.5932088084,4.593176,38,Tripod,
810100,2022-08-12 05:01:29,0,0,4.593176,,,4.5932088084,4.92126,1.2974252,0,0,0,0,7.576,4.9212928084,4.92126,0,0,-1.11847,-0.671082,0,205.1, -5.8, 0.4,0,0,1429,1024,1024,1024,61,0,0,0,207.9,0,0,48,3.791,3.783,0,0,0,0,4.767,110.66,4.5932088084,4.593176,38,Tripod,
810200,2022-08-12 05:01:29,0,0,4.593176,,,4.5932088084,4.92126,1.4987498,0,0,0,0,7.576,4.9212928084,4.92126,0,0,-1.342164,-0.671082,0,205, -5.3, -0.1,0,0,1242,1024,1024,1024,33,0,0,0,207.9,0,0,48,3.791,3.783,0,0,0,0,4.767,110.66,4.5932088084,4.593176,38,Tripod,
810300,2022-08-12 05:01:29,0,0,4.593176,,,4.5932088084,4.92126,1.4987498,0,0,0,0,7.576,4.9212928084,4.92126,0,0,-1.342164,-0.671082,0,205, -4.7, -0.8,0,0,1125,1024,1024,1024,15,0,0,0,207.9,0,0,48,3.791,3.783,0,0,0,0,4.767,110.66,4.5932088084,4.593176,38,Tripod,
810400,2022-08-12 05:01:29,0,0,4.593176,,,4.5932088084,4.92126,1.7000744,0,0,0,0,7.576,4.9212928084,4.92126,0,0,-1.565858,-0.671082,0,205.1, -1.9, -0.8,0,0,1046,1024,1024,1024,3,0,0,0,207.9,0,0,48,3.791,3.783,0,0,0,0,4.767,110.66,4.5932088084,4.593176,38,Tripod,
810500,2022-08-12 05:01:29,0,0,4.593176,,,4.5932088084,4.92126,1.7000744,0,0,0,0,7.576,4.9212928084,4.92126,0,0,-1.565858,-0.671082,0,205.1, 0.2, -0.3,0,0,1024,1024,1024,1024,0,0,0,0,207.9,0,0,48,3.791,3.783,0,0,0,0,4.767,110.66,4.5932088084,4.593176,38,Tripod,
810600,2022-08-12 05:01:30,0,0,4.593176,,,4.5932088084,4.92126,1.7000744,0,0,0,0,7.576,4.9212928084,4.92126,0,0,-1.565858,-0.671082,0,205.2, 2.9, 0,0,0,1024,1024,1024,1024,0,0,0,0,207.9,0,0,48,3.791,3.783,0,0,0,0,4.767,110.66,4.5932088084,4.593176,38,Tripod,
810700,2022-08-12 05:01:30,0,0,4.593176,,,4.5932088084,4.92126,1.4987498,0,0,0,0,7.576,4.9212928084,4.92126,0,0,-1.342164,-0.671082,0,205.2, 6.4, 0.1,0,0,1024,1024,1024,1024,0,0,0,0,207.9,0,0,48,3.791,3.783,0,0,0,0,4.767,110.66,4.5932088084,4.593176,38,Tripod,
810800,2022-08-12 05:01:30,0,0,4.593176,,,4.5932088084,4.92126,1.2079476,0,0,0,0,7.573,4.9212928084,4.92126,0,0,-1.11847,-0.447388,0,205.1, 6.7, -0.1,0,0,1024,1024,1024,1024,0,0,0,0,207.9,0,0,48,3.791,3.782,0,0,0,0,4.57,110.66,4.5932088084,4.593176,38,Tripod,
810900,2022-08-12 05:01:30,0,0,4.593176,,,4.5932088084,4.92126,1.006623,0,0,0,0,7.573,4.9212928084,4.92126,0,0,-0.894776,-0.447388,0,205.1, 5.8, -0.3,0,0,1024,1024,1024,1024,0,0,0,0,207.9,0,0,48,3.791,3.782,0,0,0,0,4.57,110.66,4.5932088084,4.593176,38,Tripod,
811000,2022-08-12 05:01:30,0,0,4.593176,,,4.5932088084,4.92126,0.7158208,0,0,0,0,7.573,4.9212928084,4.92126,0,0,-0.671082,-0.223694,0,205.2, 4.8, -0.3,0,0,1024,1024,1024,1024,0,0,0,0,207.9,0,0,48,3.791,3.782,0,0,0,0,4.57,110.66,4.5932088084,4.593176,38,Tripod,
811100,2022-08-12 05:01:30,0,0,4.593176,,,4.5932088084,4.92126,0.4921268,0,0,0,0,7.573,4.9212928084,4.92126,0,0,-0.447388,-0.223694,0,205.2, 3.9, -0.2,0,0,1024,1024,1024,1024,0,0,0,0,207.9,0,0,48,3.791,3.782,0,0,0,0,4.57,110.66,4.5932088084,4.593176,38,Tripod,
811200,2022-08-12 05:01:30,0,0,4.593176,,,4.5932088084,4.92126,0.223694,0,0,0,0,7.573,4.9212928084,4.92126,0,0,-0.223694,0,0,205.2, 3, -0.2,0,0,1024,1024,1024,1024,0,0,0,0,207.9,0,0,48,3.791,3.782,0,0,0,0,4.57,110.66,4.5932088084,4.593176,38,Tripod,
811300,2022-08-12 05:01:30,0,0,4.593176,,,4.5932088084,4.92126,0.223694,0,0,0,0,7.573,4.9212928084,4.92126,0,0,-0.223694,0,0,205.3, 2.2, -0.2,0,0,1024,1024,776,1024,0,0,-38,0,207.9,0,0,48,3.791,3.782,0,0,0,0,4.57,110.66,4.5932088084,4.593176,38,Tripod,
811400,2022-08-12 05:01:30,0,0,4.593176,,,4.5932088084,4.92126,0.223694,0,0,0,0,7.573,4.9212928084,4.92126,0,0,-0.223694,0,0,205.3, 1.7, 0,0,0,1024,1024,470,1024,0,0,-84,0,207.9,0,0,48,3.791,3.782,0,0,0,0,4.57,110.66,4.5932088084,4.593176,38,Tripod,
811500,2022-08-12 05:01:30,0,0,4.593176,,,4.5932088084,4.92126,0,0,0,0,0,7.573,4.9212928084,4.92126,0,0,0,0,0,205.3, 1.4, 0,0,0,1024,1024,734,1024,0,0,-44,0,207.9,0,0,48,3.791,3.782,0,0,0,0,4.57,110.66,4.5932088084,4.593176,38,Tripod,
811600,2022-08-12 05:01:31,0,0,4.593176,,,4.5932088084,4.92126,0,0,0,0,0,7.573,4.9212928084,4.92126,0,0,0,0,0.447388,205.3, 1.6, 0,0,0,1024,1024,690,1024,0,0,-51,0,207.9,0,0,48,3.791,3.782,0,0,0,0,4.57,110.66,4.5932088084,4.593176,38,Tripod,
811700,2022-08-12 05:01:31,0,0,4.593176,,,4.5932088084,4.593176,0,0,0,0,0,7.573,4.9212928084,4.92126,0,0,0,0,0.671082,205.3, 1.5, 0,0,0,1024,1024,690,1024,0,0,-51,0,207.9,0,0,48,3.791,3.782,0,0,0,0,4.57,110.66,4.5932088084,4.593176,38,Tripod,
811800,2022-08-12 05:01:31,0,0,4.265092,,,4.2651248084,4.593176,0,0,0,0,0,7.573,4.9212928084,4.92126,0,0,0,0,0.671082,205.3, 1.6, 0,0,0,1024,1024,741,1024,0,0,-43,0,207.9,0,0,48,3.791,3.782,0,0,0,0,4.543,110.66,4.2651248084,4.265092,38,Tripod,
811900,2022-08-12 05:01:31,0,0,4.265092,,,4.2651248084,4.593176,0,0,0,0,0,7.573,4.9212928084,4.92126,0,0,0,0,0.894776,205.2, 1.4, 0,0,0,1024,1024,909,1024,0,0,-17,0,207.9,0,0,48,3.791,3.782,0,0,0,0,4.543,110.66,4.2651248084,4.265092,38,Tripod,
812000,2022-08-12 05:01:31,0,0,4.265092,,,4.2651248084,4.265092,0,0,0,0,0,7.573,4.9212928084,4.92126,0,0,0,0,0.894776,205.3, 1.3, 0,0,0,1024,1024,1024,1024,0,0,0,0,207.9,0,0,48,3.791,3.782,0,0,0,0,4.543,110.66,4.2651248084,4.265092,38,Tripod,
812100,2022-08-12 05:01:31,0,0,3.937008,,,3.9370408084,4.265092,0,0,0,0,0,7.573,4.9212928084,4.92126,0,0,0,0,0.447388,205.2, 0.8, -0.1,0,0,1024,1024,1024,1024,0,0,0,0,207.9,0,0,48,3.791,3.782,0,0,0,0,4.543,110.66,3.9370408084,3.937008,38,Tripod,
812200,2022-08-12 05:01:31,0,0,3.937008,,,3.9370408084,4.265092,0,0,0,0,0,7.573,4.9212928084,4.92126,0,0,0,0,0.223694,205.2, 1.3, -0.2,0,0,1021,1024,1024,1024,-0,0,0,0,207.9,0,0,48,3.791,3.782,0,0,0,0,4.543,110.66,3.9370408084,3.937008,38,Tripod,
812300,2022-08-12 05:01:31,0,0,3.937008,,,3.9370408084,4.265092,0,0,0,0,0,7.573,4.9212928084,4.92126,0,0,0,0,0,205.2, 1.1, 0,0,0,562,1024,1024,1024,-70,0,0,0,207.9,0,0,48,3.791,3.782,0,0,0,0,4.543,110.66,3.9370408084,3.937008,38,Tripod,
812400,2022-08-12 05:01:31,0,0,3.937008,,,3.9370408084,4.265092,0,0,0,0,0,7.573,4.9212928084,4.92126,0,0,0,0,0,205.2, 1.6, 0,0,0,739,1024,1024,1024,-43,0,0,0,207.9,0,0,48,3.791,3.782,0,0,0,0,4.543,110.66,3.9370408084,3.937008,38,Tripod,
812500,2022-08-12 05:01:31,0,0,3.937008,,,3.9370408084,4.265092,0,0,0,0,0,7.573,4.9212928084,4.92126,0,0,0,0,0,205.2, 5.9, 0.1,0,0,973,1024,1024,1024,-8,0,0,0,207.9,0,0,48,3.791,3.782,0,0,0,0,4.543,110.66,3.9370408084,3.937008,38,Tripod,
812600,2022-08-12 05:01:32,0,0,3.937008,,,3.9370408084,4.265092,0.223694,0,0,0,0,7.573,4.9212928084,4.92126,0,0,0.223694,0,0,205.2, 6, 0.4,0,0,973,1024,1024,1024,-8,0,0,0,207.9,0,0,48,3.791,3.782,0,0,0,0,4.543,110.66,3.9370408084,3.937008,38,Tripod,
812700,2022-08-12 05:01:32,0,0,3.937008,,,3.9370408084,4.265092,0.223694,0,0,0,0,7.573,4.9212928084,4.92126,0,0,0.447388,0,0,205.2, 0.2, 0.4,0,0,483,1024,1024,1024,-82,0,0,0,207.9,0,0,48,3.791,3.782,0,0,0,0,4.543,110.66,3.9370408084,3.937008,38,Tripod,
812800,2022-08-12 05:01:32,0,0,3.937008,,,3.9370408084,4.265092,0.4921268,0,0,0,0,7.573,4.9212928084,4.92126,0,0,0.447388,0.223694,0,205.1, 3.4, 0.2,0,0,454,1024,1024,1024,-86,0,0,0,207.9,0,0,48,3.788,3.779,0,0,0,0,4.543,110.66,3.9370408084,3.937008,38,Tripod,
812900,2022-08-12 05:01:32,0,0,3.937008,,,3.9370408084,4.265092,0.4921268,0,0,0,0,7.573,4.9212928084,4.92126,0,0,0.447388,0.223694,0,205.2, 8.2, 0.4,0,0,458,1024,1024,1024,-86,0,0,0,207.9,0,0,48,3.788,3.779,0,0,0,0,4.543,110.66,3.9370408084,3.937008,38,Tripod,
813000,2022-08-12 05:01:32,0,0,3.937008,,,3.9370408084,4.265092,0.9171454,0,0,0,0,7.573,4.9212928084,4.92126,0,0,0.894776,0.223694,0,205.3, 10, 0.2,0,0,458,1024,1024,1024,-86,0,0,0,207.9,0,0,48,3.788,3.779,0,0,0,0,4.543,110.66,3.9370408084,3.937008,38,Tripod,
813100,2022-08-12 05:01:32,0,0,3.937008,,,3.9370408084,4.265092,1.2079476,0,0,0,0,7.573,4.9212928084,4.92126,0,0,1.11847,0.447388,0,205.3, 10.3, 0,0,0,458,1024,1024,1024,-86,0,0,0,207.9,0,0,48,3.788,3.779,0,0,0,0,4.543,110.66,3.9370408084,3.937008,38,Tripod,
813200,2022-08-12 05:01:32,0,0,3.937008,,,3.9370408084,3.937008,1.4092722,0,0,0,0,7.573,4.9212928084,4.92126,0,0,1.342164,0.447388,0,205.2, 10.2, -0.2,0,0,458,1024,1024,1024,-86,0,0,0,207.9,0,0,48,3.788,3.779,0,0,0,0,4.543,110.66,3.9370408084,3.937008,38,Tripod,
813300,2022-08-12 05:01:32,0,0,3.937008,,,3.9370408084,3.937008,1.901399,0,0,0,0,7.573,4.9212928084,4.92126,0,0,1.789552,0.671082,0,205.2, 10.4, -0.5,0,0,502,1024,1024,1024,-79,0,0,0,207.9,0,0,48,3.788,3.779,0,0,0,0,4.543,110.66,3.9370408084,3.937008,38,Tripod,
813400,2022-08-12 05:01:32,0,0,3.937008,,,3.9370408084,3.937008,2.1922012,0,0,0,0,7.573,4.9212928084,4.92126,0,0,2.013246,0.894776,0,205.2, 10.1, -0.2,0,0,938,1024,1024,1024,-13,0,0,0,207.9,0,0,48,3.788,3.779,0,0,0,0,4.543,110.66,3.9370408084,3.937008,38,Tripod,
813500,2022-08-12 05:01:32,0,0,3.937008,,,3.9370408084,3.937008,2.4158952,0,0,0,0,7.573,4.9212928084,4.92126,0,0,2.23694,0.894776,0,205.2, 9.2, -0.2,0,0,938,1024,1024,1024,-13,0,0,0,207.9,0,0,48,3.788,3.779,0,0,0,0,4.543,110.66,3.9370408084,3.937008,38,Tripod,
813600,2022-08-12 05:01:32,0,0,3.937008,,,3.9370408084,3.937008,2.7066974,0,0,0,0,7.573,4.9212928084,4.92126,0,0,2.460634,1.11847,0,205.2, 4.6, 0,0,0,1024,1024,1024,1024,0,0,0,0,207.9,0,0,48,3.788,3.779,0,0,0,0,4.543,110.66,3.9370408084,3.937008,38,Tripod,
813700,2022-08-12 05:01:33,0,0,3.937008,,,3.9370408084,3.937008,2.7066974,0,0,0,0,7.573,4.9212928084,4.92126,0,0,2.460634,1.11847,0,205.4, -8.2, -0.4,0,0,1024,1024,1024,1024,0,0,0,0,207.9,0,0,48,3.788,3.779,0,0,0,0,4.543,110.66,3.9370408084,3.937008,38,Tripod,
813800,2022-08-12 05:01:33,0,0,3.937008,,,3.9370408084,3.937008,2.4158952,0,0,0,0,7.565,4.9212928084,4.92126,0,0,2.23694,0.894776,0,205.3, -11.5, -0.5,0,0,1024,1024,1024,1024,0,0,0,0,207.9,0,0,48,3.788,3.78,0,0,0,0,4.526,110.66,3.9370408084,3.937008,38,Tripod,
813900,2022-08-12 05:01:33,0,0,3.937008,,,3.9370408084,3.937008,1.7000744,0,0,0,0,7.565,4.9212928084,4.92126,0,0,1.565858,0.671082,0,205.3, -10.7, -0.2,0,0,1024,1024,1024,1024,0,0,0,0,207.9,0,0,48,3.788,3.78,0,0,0,0,4.526,110.66,3.9370408084,3.937008,38,Tripod,
814000,2022-08-12 05:01:33,0,0,3.937008,,,3.9370408084,3.937008,1.4092722,0,0,0,0,7.565,4.9212928084,4.92126,0,0,1.342164,0.447388,0,205.3, -9, -0.1,0,0,1024,1024,1024,1024,0,0,0,0,207.9,0,0,47,3.788,3.78,0,0,0,0,4.526,110.66,3.9370408084,3.937008,38,Tripod,
814100,2022-08-12 05:01:33,0,0,3.937008,,,3.9370408084,3.937008,1.006623,0,0,0,0,7.565,4.9212928084,4.92126,0,0,0.894776,0.447388,0,205.2, -7.3, -0.2,0,0,1024,1024,1024,1024,0,0,0,0,207.9,0,0,47,3.788,3.78,0,0,0,0,4.526,110.66,3.9370408084,3.937008,38,Tripod,
814200,2022-08-12 05:01:33,0,0,3.937008,,,3.9370408084,3.937008,0.7158208,0,0,0,0,7.565,4.9212928084,4.92126,0,0,0.671082,0.223694,0,205.2, -5.6, -0.1,0,0,1024,1024,1024,1024,0,0,0,0,207.9,0,0,47,3.788,3.78,0,0,0,0,4.526,110.66,3.9370408084,3.937008,38,Tripod,
814300,2022-08-12 05:01:33,0,0,3.937008,,,3.9370408084,3.937008,0.4921268,0,0,0,0,7.565,4.9212928084,4.92126,0,0,0.447388,0.223694,0,205.1, -4.1, 0,0,0,1024,1024,1024,1024,0,0,0,0,207.9,0,0,47,3.788,3.78,0,0,0,0,4.526,110.66,3.9370408084,3.937008,38,Tripod,
814400,2022-08-12 05:01:33,0,0,3.937008,,,3.9370408084,3.937008,0.223694,0,0,0,0,7.565,4.9212928084,4.92126,0,0,0.223694,0,0,205.1, -2.9, 0.2,0,0,1024,1024,1024,1024,0,0,0,0,207.9,0,0,47,3.788,3.78,0,0,0,0,4.526,110.66,3.9370408084,3.937008,38,Tripod,
814500,2022-08-12 05:01:33,0,0,3.937008,,,3.9370408084,3.937008,0,0,0,0,0,7.565,4.9212928084,4.92126,0,0,0,0,0,205.2, -2.1, 0.3,0,0,891,1024,1024,1024,-20,0,0,0,207.9,0,0,47,3.788,3.78,0,0,0,0,4.526,110.66,3.9370408084,3.937008,38,Tripod,
814600,2022-08-12 05:01:33,0,0,3.937008,,,3.9370408084,3.937008,0,0,0,0,0,7.565,4.9212928084,4.92126,0,0,0,0,0,205.1, -1.6, 0.2,0,0,891,1024,1024,1024,-20,0,0,0,207.9,0,0,47,3.788,3.78,0,0,0,0,4.526,110.66,3.9370408084,3.937008,38,Tripod,
814700,2022-08-12 05:01:34,0,0,3.937008,,,3.9370408084,3.937008,0,0,0,0,0,7.565,4.9212928084,4.92126,0,0,0,0,0,205.1, -1, 0.2,0,0,684,1024,1024,1024,-52,0,0,0,207.9,0,0,47,3.788,3.78,0,0,0,0,4.526,110.66,3.9370408084,3.937008,38,Tripod,
814800,2022-08-12 05:01:34,0,0,3.937008,,,3.9370408084,3.937008,0,0,0,0,0,7.565,4.9212928084,4.92126,0,0,0,0,0,205.1, 2.2, 0.1,0,0,1024,1024,1024,1024,0,0,0,0,207.9,0,0,47,3.788,3.78,0,0,0,0,4.526,110.66,3.9370408084,3.937008,38,Tripod,
814900,2022-08-12 05:01:34,0,0,3.937008,,,3.9370408084,3.937008,0,0,0,0,0,7.565,4.9212928084,4.92126,0,0,0,0,0,205.1, 2.8, 0.1,0,0,1024,1024,1024,1024,0,0,0,0,207.9,0,0,47,3.788,3.78,0,0,0,0,4.526,110.66,3.9370408084,3.937008,38,Tripod,
815000,2022-08-12 05:01:34,0,0,3.937008,,,3.9370408084,3.937008,0.223694,0,0,0,0,7.565,4.9212928084,4.92126,0,0,0.223694,0,0,205.1, -0.6, 0.1,0,0,1024,1024,1024,1024,0,0,0,0,207.9,0,0,47,3.788,3.78,0,0,0,0,4.526,110.66,3.9370408084,3.937008,38,Tripod,
815100,2022-08-12 05:01:34,0,0,3.937008,,,3.9370408084,3.937008,0.223694,0,0,0,0,7.567,4.9212928084,4.92126,0,0,0.223694,0,0,205.1, -1.1, 0.2,0,0,602,1024,1024,1024,-64,0,0,0,207.9,0,0,47,3.788,3.779,0,0,0,0,4.55,110.84,3.9370408084,3.937008,38,Tripod,
815200,2022-08-12 05:01:34,0,0,3.937008,,,3.9370408084,3.937008,0.223694,0,0,0,0,7.567,4.9212928084,4.92126,0,0,0.223694,0,0,205, -0.8, 0.2,0,0,715,1024,1024,1024,-47,0,0,0,207.9,0,0,47,3.788,3.779,0,0,0,0,4.55,110.84,3.9370408084,3.937008,38,Tripod,
815300,2022-08-12 05:01:34,0,0,3.937008,,,3.9370408084,3.937008,0.223694,0,0,0,0,7.567,4.9212928084,4.92126,0,0,0.223694,0,0,205.1, 3.5, 0.5,0,0,1024,1024,1024,1024,0,0,0,0,207.9,0,0,47,3.788,3.779,0,0,0,0,4.55,110.84,3.9370408084,3.937008,38,Tripod,
815400,2022-08-12 05:01:34,0,0,3.937008,,,3.9370408084,3.937008,0.223694,0,0,0,0,7.567,4.9212928084,4.92126,0,0,0.223694,0,0,205.1, 4.8, 0.4,0,0,1024,1024,1024,1024,0,0,0,0,207.9,0,0,47,3.788,3.779,0,0,0,0,4.55,110.84,3.9370408084,3.937008,38,Tripod,
815500,2022-08-12 05:01:34,0,0,3.937008,,,3.9370408084,3.937008,0.447388,0,0,0,0,7.567,4.9212928084,4.92126,0,0,0.447388,0,0,205, -1.6, 0,0,0,775,1024,1024,1024,-38,0,0,0,207.9,0,0,47,3.788,3.779,0,0,0,0,4.55,110.84,3.9370408084,3.937008,38,Tripod,
815600,2022-08-12 05:01:35,0,0,3.937008,,,3.9370408084,3.937008,0.223694,0,0,0,0,7.567,4.9212928084,4.92126,0,0,0.223694,0,0,205.1, -1.2, 0.1,0,0,720,1024,1024,1024,-46,0,0,0,207.9,0,0,47,3.788,3.779,0,0,0,0,4.55,110.84,3.9370408084,3.937008,38,Tripod,
815700,2022-08-12 05:01:35,0,0,3.937008,,,3.9370408084,3.937008,0.223694,0,0,0,0,7.567,4.9212928084,4.92126,0,0,0.223694,0,0,205.1, 2.6, 0.3,0,0,1024,1024,1024,1024,0,0,0,0,207.9,0,0,47,3.788,3.779,0,0,0,0,4.55,110.84,3.9370408084,3.937008,38,Tripod,
815800,2022-08-12 05:01:35,0,0,3.937008,,,3.9370408084,3.937008,0.447388,0,0,0,0,7.567,4.9212928084,4.92126,0,0,0.447388,0,0,205.1, 0.3, 0.3,0,0,754,1024,1024,1024,-41,0,0,0,207.9,0,0,47,3.788,3.779,0,0,0,0,4.55,110.84,3.9370408084,3.937008,38,Tripod,
815900,2022-08-12 05:01:35,0,0,3.937008,,,3.9370408084,3.937008,0.223694,0,0,0,0,7.567,4.9212928084,4.92126,0,0,0.223694,0,0,205.1, -1, 0.1,0,0,1024,1024,1024,1024,0,0,0,0,207.9,0,0,47,3.788,3.779,0,0,0,0,4.55,110.84,3.9370408084,3.937008,38,Tripod,
816000,2022-08-12 05:01:35,0,0,3.937008,,,3.9370408084,3.937008,0.223694,0,0,0,0,7.567,4.9212928084,4.92126,0,0,0.223694,0,0,205.2, 1.2, 0.1,0,0,1024,1024,1024,1024,0,0,0,0,207.9,0,0,47,3.788,3.779,0,0,0,0,4.55,110.84,3.9370408084,3.937008,38,Tripod,
816100,2022-08-12 05:01:35,0,0,3.937008,,,3.9370408084,3.937008,0.223694,0,0,0,0,7.566,4.9212928084,4.92126,0,0,0.223694,0,0,205.2, -1.1, 0,0,0,1024,1024,1024,1024,0,0,0,0,207.9,0,0,47,3.787,3.779,0,0,0,0,4.538,110.84,3.9370408084,3.937008,38,Tripod,
816200,2022-08-12 05:01:35,0,0,3.937008,,,3.9370408084,3.937008,0.223694,0,0,0,0,7.566,4.9212928084,4.92126,0,0,0.223694,0,0,205.2, -1.9, 0.1,0,0,1024,1024,1024,1024,0,0,0,0,207.9,0,0,47,3.787,3.779,0,0,0,0,4.538,110.84,3.9370408084,3.937008,38,Tripod,
816300,2022-08-12 05:01:35,0,0,3.937008,,,3.9370408084,3.937008,0.223694,0,0,0,0,7.566,4.9212928084,4.92126,0,0,0.223694,0,0,205.2, -1.6, 0.2,0,0,1024,1024,1024,1024,0,0,0,0,207.9,0,0,47,3.787,3.779,0,0,0,0,4.538,110.84,3.9370408084,3.937008,38,Tripod,
816400,2022-08-12 05:01:35,0,0,3.937008,,,3.9370408084,3.937008,0,0,0,0,0,7.566,4.9212928084,4.92126,0,0,0,0,0,205.3, -1.4, 0.3,0,0,1024,1024,1024,1024,0,0,0,0,207.9,0,0,47,3.787,3.779,0,0,0,0,4.538,110.84,3.9370408084,3.937008,38,Tripod,
816500,2022-08-12 05:01:35,0,0,3.937008,,,3.9370408084,3.937008,0,0,0,0,0,7.566,4.9212928084,4.92126,0,0,0,0,0,205.3, -1.1, 0.3,0,0,1024,1024,1024,1024,0,0,0,0,207.9,0,0,47,3.787,3.779,0,0,0,0,4.538,110.84,3.9370408084,3.937008,38,Tripod,
816600,2022-08-12 05:01:36,0,0,3.937008,,,3.9370408084,3.937008,0,0,0,0,0,7.566,4.9212928084,4.92126,0,0,0,0,0,205.2, -1.3, 0.2,0,0,1024,1024,1024,1024,0,0,0,0,207.9,0,0,47,3.787,3.779,0,0,0,0,4.538,110.84,3.9370408084,3.937008,38,Tripod,
816700,2022-08-12 05:01:36,0,0,3.937008,,,3.9370408084,3.937008,0,0,0,0,0,7.566,4.9212928084,4.92126,0,0,0,0,0,205.3, -0.7, 0.2,0,0,1024,1024,1024,1024,0,0,0,0,207.9,0,0,47,3.787,3.779,0,0,0,0,4.538,110.84,3.9370408084,3.937008,38,Tripod,
816800,2022-08-12 05:01:36,0,0,3.937008,,,3.9370408084,3.937008,0,0,0,0,0,7.566,4.9212928084,4.92126,0,0,0,0,0,205.3, -0.4, 0.1,0,0,1024,1024,1024,1024,0,0,0,0,207.9,0,0,47,3.787,3.779,0,0,0,0,4.538,110.84,3.9370408084,3.937008,38,Tripod,
816900,2022-08-12 05:01:36,0,0,3.937008,,,3.9370408084,3.937008,0,0,0,0,0,7.566,4.9212928084,4.92126,0,0,0,0,0,205.3, -0.3, 0,0,0,1024,1024,1024,1024,0,0,0,0,207.9,0,0,47,3.787,3.779,0,0,0,0,4.538,110.84,3.9370408084,3.937008,38,Tripod,
817000,2022-08-12 05:01:36,0,0,3.937008,,,3.9370408084,3.937008,0,0,0,0,0,7.566,4.9212928084,4.92126,0,0,0,0,0,205.3, -0.1, 0,0,0,1024,1024,1024,1024,0,0,0,0,207.9,0,0,47,3.787,3.779,0,0,0,0,4.538,110.84,3.9370408084,3.937008,38,Tripod,
817100,2022-08-12 05:01:36,0,0,3.937008,,,3.9370408084,3.937008,0,0,0,0,0,7.566,4.9212928084,4.92126,0,0,0,0,0,205.3, 0, 0,0,0,1024,1024,1024,1024,0,0,0,0,207.9,0,0,47,3.787,3.779,0,0,0,0,4.506,110.84,3.9370408084,3.937008,38,Tripod,
817200,2022-08-12 05:01:36,0,0,3.608924,,,3.6089568084,3.937008,0,0,0,0,0,7.566,4.9212928084,4.92126,0,0,0,0,0,205.3, 0.1, 0,0,0,1024,1024,1024,1024,0,0,0,0,207.9,0,0,47,3.787,3.779,0,0,0,0,4.506,110.84,3.6089568084,3.608924,38,Tripod,
817300,2022-08-12 05:01:36,0,0,3.608924,,,3.6089568084,3.937008,0,0,0,0,0,7.566,4.9212928084,4.92126,0,0,0,0,0,205.2, 0, 0,0,0,1024,1024,1024,1024,0,0,0,0,207.9,0,0,47,3.787,3.779,0,0,0,0,4.506,110.84,3.6089568084,3.608924,38,Tripod,
817400,2022-08-12 05:01:36,0,0,3.608924,,,3.6089568084,3.937008,0,0,0,0,0,7.566,4.9212928084,4.92126,0,0,0,0,0,205.3, 0.1, 0,0,0,1024,1024,1024,1024,0,0,0,0,207.9,0,0,47,3.787,3.779,0,0,0,0,4.506,110.84,3.6089568084,3.608924,38,Tripod,
817500,2022-08-12 05:01:36,0,0,3.608924,,,3.6089568084,3.937008,0,0,0,0,0,7.566,4.9212928084,4.92126,0,0,0,0,0,205.2, 0, 0.4,0,0,1024,1024,1024,1024,0,0,0,0,207.9,0,0,47,3.787,3.779,0,0,0,0,4.506,110.84,3.6089568084,3.608924,38,Tripod,
817600,2022-08-12 05:01:37,0,0,3.608924,,,3.6089568084,3.937008,0,0,0,0,0,7.566,4.9212928084,4.92126,0,0,0,0,0,205.2, 0, 0.5,0,0,1024,1024,1024,1024,0,0,0,0,207.9,0,0,47,3.787,3.779,0,0,0,0,4.506,110.84,3.6089568084,3.608924,38,Tripod,
817700,2022-08-12 05:01:37,0,0,3.608924,,,3.6089568084,3.937008,0,0,0,0,0,7.566,4.9212928084,4.92126,0,0,0,0,0,205.2, 0, 0.2,0,0,1024,1024,1024,1024,0,0,0,0,207.9,0,0,47,3.787,3.779,0,0,0,0,4.506,110.84,3.6089568084,3.608924,38,Tripod,
817800,2022-08-12 05:01:37,0,0,3.608924,,,3.6089568084,3.937008,0,0,0,0,0,7.566,4.9212928084,4.92126,0,0,0,0,0,205.1, 0, 0,0,0,1024,1024,1024,1024,0,0,0,0,207.9,0,0,47,3.787,3.779,0,0,0,0,4.506,110.84,3.6089568084,3.608924,38,Tripod,
817900,2022-08-12 05:01:37,0,0,3.608924,,,3.6089568084,3.937008,0,0,0,0,0,7.566,4.9212928084,4.92126,0,0,0,0,0,205.2, 0, 0,0,0,1024,1024,1024,1024,0,0,0,0,207.9,0,0,47,3.787,3.779,0,0,0,0,4.506,110.84,3.6089568084,3.608924,38,Tripod,
818000,2022-08-12 05:01:37,0,0,3.608924,,,3.6089568084,3.608924,0,0,0,0,0,7.566,4.9212928084,4.92126,0,0,0,0,0,205.2, 0, -0.1,0,0,1024,1024,1024,1024,0,0,0,0,207.9,0,0,47,3.787,3.779,0,0,0,0,4.506,110.84,3.6089568084,3.608924,38,Tripod,
818100,2022-08-12 05:01:37,0,0,3.608924,,,3.6089568084,3.28084,0,0,0,0,0,7.564,4.9212928084,4.92126,0,0,0,0,0,205.1, 0.2, -0.3,0,0,1024,1024,1024,1024,0,0,0,0,207.9,0,0,47,3.786,3.777,0,0,0,0,4.487,110.84,3.6089568084,3.608924,38,Tripod,
818200,2022-08-12 05:01:37,0,0,3.608924,,,3.6089568084,3.28084,0,0,0,0,0,7.564,4.9212928084,4.92126,0,0,0,0,0,205.2, 0.3, -0.5,0,0,1024,1024,1024,1024,0,0,0,0,207.9,0,0,47,3.786,3.777,0,0,0,0,4.487,110.84,3.6089568084,3.608924,38,Tripod,
