time(millisecond),datetime(utc),latitude,longitude,height_above_takeoff(feet),height_above_ground_at_drone_location(feet),ground_elevation_at_drone_location(feet),altitude_above_seaLevel(feet),height_sonar(feet),speed(mph),distance(feet),mileage(feet),satellites,gpslevel,voltage(v),max_altitude(feet),max_ascent(feet),max_speed(mph),max_distance(feet), xSpeed(mph), ySpeed(mph), zSpeed(mph), compass_heading(degrees), pitch(degrees), roll(degrees),isPhoto,isVideo,rc_elevator,rc_aileron,rc_throttle,rc_rudder,rc_elevator(percent),rc_aileron(percent),rc_throttle(percent),rc_rudder(percent),gimbal_heading(degrees),gimbal_pitch(degrees),gimbal_roll(degrees),battery_percent,voltageCell1,voltageCell2,voltageCell3,voltageCell4,voltageCell5,voltageCell6,current(A),battery_temperature(f),altitude(feet),ascent(feet),flycStateRaw,flycState,message
0,2022-10-27 20:41:58,-34.9108244567986,-56.1438392595837,0,0,38.600576038368,38.600576038368,0.328084,0,0,0,24,5,0,38.600576038368,0,0,0,0,0,0,103.7, -3.9, 3.4,0,0,1024,1024,1024,1024,0,0,0,0,114.7,0,0,23,3.764,3.761,0,0,0,0,0,115.16,38.600576038368,0,41,Motors_Started,"Aeronave en Zona de altitud restringida (150). Vuela con precauci贸n (Code: 190001). Error de calibraci贸n del estabilizador. Reinicia la aeronave o contacta con la Asistencia DJI (Code: 40011)"
100,2022-10-27 20:41:58,-34.9108245390587,-56.1438392836461,0,-0.032808399999999,38.633384438368,38.600576038368,0.328084,0,0.0308639117488,0.0308639117488,24,5,0,38.600576038368,0,0,0.0308639117488,0,0,0,104.3, -3.2, 3.5,0,0,364,364,364,1684,-100,-100,-100,100,114.7,0,0,23,3.764,3.761,0,0,0,0,0,115.16,38.600576038368,0,41,Motors_Started,
200,2022-10-27 20:41:58,-34.9108245070011,-56.1438392377766,0,-0.032808399999999,38.633384438368,38.600576038368,0.328084,0,0.0194437014096,0.048895670856,24,5,0,38.600576038368,0,0,0.0308639117488,0,0,0,104.5, -4.6, 2.7,0,0,364,364,364,1684,-100,-100,-100,100,114.8,0,0,23,3.764,3.761,0,0,0,0,0,115.16,38.600576038368,0,41,Motors_Started,
300,2022-10-27 20:41:58,-34.9108245536284,-56.143839197397,0,-0.032808399999999,38.633384438368,38.600576038368,0.328084,0,0.039928150884,0.069761157088,24,5,0,38.600576038368,0,0,0.039928150884,0,0,0,103.2, -4.2, 2.9,0,0,364,364,364,1684,-100,-100,-100,100,114.2,0,0,23,3.764,3.761,0,0,0,0,0,115.16,38.600576038368,0,41,Motors_Started,
400,2022-10-27 20:41:58,-34.9108246232354,-56.1438392160279,0,-0.032808399999999,38.633384438368,38.600576038368,0.328084,0,0.062106957368,0.095761486004,24,5,0,38.600576038368,0,0,0.062106957368,0,0,0,102.7, -4.7, 3,0,0,364,364,364,1684,-100,-100,-100,100,113.2,0,0,23,3.764,3.761,0,0,0,0,0,115.16,38.600576038368,0,41,Motors_Started,
500,2022-10-27 20:41:58,-34.910824691915,-56.1438392553041,0,-0.032808399999999,38.633384438368,38.600576038368,0.328084,0,0.085791669412,0.123437996076,24,5,0,38.600576038368,0,0,0.085791669412,0,0,0,103, -4.2, 3.1,0,0,364,364,364,1684,-100,-100,-100,100,113.1,0,0,23,3.764,3.761,0,0,0,0,0,115.16,38.600576038368,0,41,Motors_Started,
600,2022-10-27 20:41:58,-34.9108249576323,-56.1438392069002,0,-0.032808399999999,38.633384438368,38.600576038368,0.328084,0,0.183407486184,0.221460637008,24,5,0,38.600576038368,0,0,0.183407486184,0,0,0,102.1, -3, 3.9,0,0,1024,868,626,1351,0,-24,-60,50,112.9,0,0,23,3.764,3.761,0,0,0,0,0,115.16,38.600576038368,0,41,Motors_Started,
700,2022-10-27 20:41:58,-34.9108250053465,-56.1438392220196,-0.328084,-0.3608924,38.633384438368,38.272492038368,0.328084,0,0.20045276232,0.23944718614,24,5,0,38.600576038368,0,0,0.20045276232,0,0,0,102, -2.6, 3.7,0,0,1024,1024,1059,1057,0,0,5,5,112.6,0,0,23,3.764,3.761,0,0,0,0,0,115.16,38.272492038368,-0.328084,41,Motors_Started,
800,2022-10-27 20:41:58,-34.910825055163,-56.1438392164317,-0.328084,-0.3608924,38.633384438368,38.272492038368,0.328084,0,0.21869423272,0.257699483312,24,5,0,38.600576038368,0,0,0.21869423272,0,0,0,102.6, -3.2, 4,0,0,1024,1024,1441,1024,0,0,63,0,112.6,0,0,23,3.764,3.761,0,0,0,0,0,115.16,38.272492038368,-0.328084,41,Motors_Started,
900,2022-10-27 20:41:58,-34.9108250959181,-56.1438392427366,-0.328084,-0.3608924,38.633384438368,38.272492038368,0.328084,0,0.233236884104,0.274523302748,24,5,0,38.600576038368,0,0,0.233236884104,0,0,0,103.2, -2.5, 4.5,0,0,1024,1024,1567,1024,0,0,82,0,113.2,0,0,23,3.764,3.761,0,0,0,0,0,115.16,38.272492038368,-0.328084,41,Motors_Started,"Setting new Return-To-Home altitude to 100m (328 ft). Data Recorder File Index is 58. Setting new Maximum Flight Altitude to 120m (394 ft)"
1000,2022-10-27 20:41:59,-34.9108251527207,-56.1438392548297,-0.328084,-0.3608924,38.633384438368,38.272492038368,0.328084,0,0.25391076928,0.29556103308,24,5,7.529,38.600576038368,0,0,0.25391076928,0,0,0,102.5, -2.8, 5.2,0,0,1024,1024,1567,1024,0,0,82,0,113.4,0,0,23,3.764,3.761,0,0,0,0,1.102,115.16,38.272492038368,-0.328084,41,Motors_Started,
1100,2022-10-27 20:41:59,-34.9108251981225,-56.1438392763041,-0.328084,-0.3608924,38.633384438368,38.272492038368,0.328084,0,0.270517725192,0.3133284221,24,5,7.529,38.600576038368,0,0,0.270517725192,0,0,0,102.7, -2.8, 5.8,0,0,1024,1024,1670,1024,0,0,98,0,113.2,0,0,23,3.764,3.761,0,0,0,0,1.102,115.16,38.272492038368,-0.328084,10,Assisted_Takeoff,
1200,2022-10-27 20:41:59,-34.9108252390396,-56.1438392868171,-0.328084,-0.3608924,38.633384438368,38.272492038368,0.328084,0,0.285516413336,0.32858596852,24,5,7.529,38.600576038368,0,0,0.285516413336,0,0,0,102.6, -2, 5.1,0,0,1024,1024,1684,1024,0,0,100,0,113.2,0,0,23,3.764,3.761,0,0,0,0,1.102,115.16,38.272492038368,-0.328084,10,Assisted_Takeoff,
1300,2022-10-27 20:41:59,-34.9108252735838,-56.1438392892529,-0.328084,-0.3608924,38.633384438368,38.272492038368,0.328084,0,0.298135836312,0.34121064084,24,5,7.529,38.600576038368,0,0,0.298135836312,0,0,0,102.9, -1.1, 3.8,0,0,1024,1024,1684,1024,0,0,100,0,113.2,0,0,23,3.764,3.761,0,0,0,0,1.102,115.16,38.272492038368,-0.328084,10,Assisted_Takeoff,
1400,2022-10-27 20:41:59,-34.9108252303063,-56.1438393687503,-0.328084,-0.3608924,38.633384438368,38.272492038368,0.328084,0,0.284097450036,0.36975722968,24,5,7.529,38.600576038368,0,0,0.298135836312,0,0,0,102.5, -1.4, 2.8,0,0,1024,1024,1493,1024,0,0,71,0,113.2,0,0,23,3.764,3.761,0,0,0,0,1.102,115.16,38.272492038368,-0.328084,10,Assisted_Takeoff,
1500,2022-10-27 20:41:59,-34.9108252152025,-56.1438394120864,-0.328084,-0.3608924,38.633384438368,38.272492038368,0.328084,0,0.280439969604,0.38384515664,24,5,7.529,38.600576038368,0,0,0.298135836312,0,0,0,101.4, -1.6, 2,0,0,1024,1024,1024,1024,0,0,0,0,112.6,0,0,23,3.764,3.761,0,0,0,0,1.102,115.16,38.272492038368,-0.328084,10,Assisted_Takeoff,
1600,2022-10-27 20:41:59,-34.9108252395135,-56.1438394235066,-0.328084,-0.3608924,38.633384438368,38.272492038368,0.328084,0,0.28975394628,0.39335303096,24,5,7.529,38.600576038368,0,0,0.298135836312,0,0,0,100.7, -2.1, 2.8,0,0,1024,1024,1030,1024,0,0,1,0,111.8,0,0,23,3.764,3.761,0,0,0,0,1.102,115.16,38.272492038368,-0.328084,10,Assisted_Takeoff,
1700,2022-10-27 20:41:59,-34.9108252676343,-56.1438394168663,-0.328084,-0.3608924,38.633384438368,38.272492038368,0.328084,0,0.29955217494,0.40380250636,24,5,7.529,38.600576038368,0,0,0.29955217494,0,0,0,100.1, -2.8, 3.5,0,0,1024,1024,1415,1024,0,0,59,0,111.1,0,0,23,3.764,3.761,0,0,0,0,1.102,115.16,38.272492038368,-0.328084,10,Assisted_Takeoff,
1800,2022-10-27 20:41:59,-34.910825316166,-56.1438393923867,-0.328084,-0.3608924,38.633384438368,38.272492038368,0.328084,0,0.316047254208,0.42296261196,24,5,7.529,38.600576038368,0,0,0.316047254208,0,0,0,101.5, -2.4, 3.7,0,0,1024,1024,1684,1024,0,0,100,0,111.3,0,0,23,3.764,3.761,0,0,0,0,1.102,115.16,38.272492038368,-0.328084,10,Assisted_Takeoff,
1900,2022-10-27 20:41:59,-34.9108254088595,-56.1438393209295,-0.656168,-0.6889764,38.633384438368,37.944408038368,0.328084,0,0.34784449932,0.46297245576,24,5,7.529,38.600576038368,0,0,0.34784449932,0,0,0,101.7, -1.6, 2.5,0,0,1024,1024,1684,1024,0,0,100,0,112,0,0,23,3.764,3.761,0,0,0,0,1.102,115.16,37.944408038368,-0.656168,10,Assisted_Takeoff,
2000,2022-10-27 20:42:00,-34.9108254628668,-56.1438393125637,-0.328084,-0.3608924,38.633384438368,38.272492038368,0.328084,0,0.3674048674,0.48283794196,24,5,7.529,38.600576038368,0,0,0.3674048674,0,0,0,102.4, -1.2, 3.2,0,0,1024,1024,1684,1024,0,0,100,0,112.2,0,0,23,3.764,3.761,0,0,0,0,1.102,115.16,38.272492038368,-0.328084,10,Assisted_Takeoff,
2100,2022-10-27 20:42:00,-34.9108255106698,-56.1438393185597,-0.328084,-0.4265092,38.699001238368,38.272492038368,0.328084,0,0.3849081488,0.50037075092,24,5,7.529,38.600576038368,0,0,0.3849081488,0,0,0,102.7, -1.4, 2.6,0,0,1024,1024,1684,1024,0,0,100,0,113,0,0,23,3.75,3.745,0,0,0,0,1.102,115.16,38.272492038368,-0.328084,6,P-GPS,"Error de calibraci贸n del estabilizador. Reinicia la aeronave o contacta con la Asistencia DJI (Code: 40011)"
2200,2022-10-27 20:42:00,-34.9108255493242,-56.1438393544376,-0.328084,-0.4265092,38.699001238368,38.272492038368,0.328084,0,0.39961615452,0.5180938486,24,5,7.529,38.600576038368,0,0,0.39961615452,0,0,-0.223694,102.1, -2.1, 1.4,0,0,1024,1024,1684,1024,0,0,100,0,113,0,0,23,3.75,3.745,0,0,0,0,1.102,115.16,38.272492038368,-0.328084,6,P-GPS,
2300,2022-10-27 20:42:00,-34.9108256828378,-56.1438393739386,-0.328084,-0.4265092,38.699001238368,38.272492038368,0.328084,0,0.44862534244,0.56715224912,24,5,7.529,38.600576038368,0,0,0.44862534244,0,0,-0.447388,101.9, -0.9, -0.1,0,0,1024,1024,1412,1024,0,0,59,0,113,0,0,23,3.75,3.745,0,0,0,0,1.102,115.16,38.272492038368,-0.328084,6,P-GPS,
2400,2022-10-27 20:42:00,-34.9108257470962,-56.1438393541402,-0.328084,-0.4265092,38.699001238368,38.272492038368,0.656168,0,0.47161418832,0.59133532076,24,5,7.529,38.600576038368,0,0,0.47161418832,0,0,-0.894776,102.1, 0.6, 0.6,0,0,1024,1024,1024,1024,0,0,0,0,113,0,0,23,3.75,3.745,0,0,0,0,1.102,115.16,38.272492038368,-0.328084,6,P-GPS,
2500,2022-10-27 20:42:00,-34.910825830304,-56.1438393240163,0,-0.098425200000004,38.699001238368,38.600576038368,0.656168,0,0.5014927982,0.62300198844,24,5,7.529,38.600576038368,0,0,0.5014927982,0,0,-1.11847,102.3, 0.9, -0.6,0,0,1024,1024,1024,1024,0,0,0,0,113,0,0,23,3.75,3.745,0,0,0,0,1.102,115.16,38.600576038368,0,6,P-GPS,
2600,2022-10-27 20:42:00,-34.9108258905426,-56.1438393085844,0,-0.098425200000004,38.699001238368,38.600576038368,0.984252,0,0.52330710336,0.64545933824,24,5,7.529,38.600576038368,0,0,0.52330710336,0,0,-1.11847,102.4, 0.6, -1.3,0,0,1024,1024,1024,1024,0,0,0,0,113,0,0,23,3.75,3.745,0,0,0,0,1.102,115.16,38.600576038368,0,6,P-GPS,
2700,2022-10-27 20:42:00,-34.9108258984243,-56.1438393597225,0,-0.098425200000004,38.699001238368,38.600576038368,1.312336,0,0.52682744468,0.66103020488,24,5,7.529,38.600576038368,0,0,0.52682744468,0,0,-1.11847,102.5, 0.8, -1,0,0,1024,1024,1024,1024,0,0,0,0,113,0,0,23,3.75,3.745,0,0,0,0,1.102,115.16,38.600576038368,0,6,P-GPS,
2800,2022-10-27 20:42:00,-34.9108260257206,-56.1438393110519,0,-0.098425200000004,38.699001238368,38.600576038368,1.64042,0,0.57262797108,0.70970146628,24,5,7.529,38.600576038368,0,0,0.57262797108,0,0,-0.894776,102.4, 1.4, -1.3,0,0,1024,1024,1024,1024,0,0,0,0,113,0,0,23,3.75,3.745,0,0,0,0,1.102,115.16,38.600576038368,0,6,P-GPS,
2900,2022-10-27 20:42:01,-34.9108261782821,-56.1438392450911,0.328084,0.2296588,38.699001238368,38.928660038368,1.968504,0,0.62809713296,0.76875986712,24,5,7.529,38.928660038368,0.328084,0,0.62809713296,0,0,-0.671082,102.5, 2.2, -1.4,0,0,1024,1024,1024,1024,0,0,0,0,113,0,0,23,3.75,3.745,0,0,0,0,1.102,115.16,38.928660038368,0.328084,6,P-GPS,"Error de calibraci贸n del estabilizador. Reinicia la aeronave o contacta con la Asistencia DJI (Code: 40011)"
3000,2022-10-27 20:42:01,-34.9108263658585,-56.1438391714117,0.328084,0.2296588,38.699001238368,38.928660038368,2.296588,0,0.69701773884,0.84065947572,24,5,7.529,38.928660038368,0.328084,0,0.69701773884,0,0,-0.447388,102.5, 1.8, -2.5,0,0,1024,1024,1024,1024,0,0,0,0,113,0,0,23,3.75,3.745,0,0,0,0,1.102,115.16,38.928660038368,0.328084,6,P-GPS,
3100,2022-10-27 20:42:01,-34.9108268039792,-56.1438390289123,0.328084,0.164042,38.764618038368,38.928660038368,2.296588,0,0.85914372828,1.00609583272,24,5,7.453,38.928660038368,0.328084,0,0.85914372828,0,0,-0.223694,102.5, 1.4, -2.7,0,0,1024,1024,1024,1024,0,0,0,0,113,0,0,23,3.734,3.731,0,0,0,0,4.175,115.16,38.928660038368,0.328084,6,P-GPS,
3200,2022-10-27 20:42:01,-34.91082696236,-56.1438389354035,0.328084,0.164042,38.764618038368,38.928660038368,2.296588,0.223694,0.91928480632,1.07029530984,24,5,7.453,38.928660038368,0.328084,0.223694,0.91928480632,0,0.223694,0,102.4, 2.7, -2.3,0,0,1024,1024,1024,1024,0,0,0,0,113,0,0,23,3.734,3.731,0,0,0,0,4.175,115.16,38.928660038368,0.328084,6,P-GPS,
3300,2022-10-27 20:42:01,-34.910827101193,-56.1438388340304,0.328084,0.164042,38.764618038368,38.928660038368,2.296588,0.223694,0.97316932248,1.12933730648,24,5,7.453,38.928660038368,0.328084,0.223694,0.97316932248,0,0.223694,0,102.3, 3.3, -1.6,0,0,1024,1024,1024,1024,0,0,0,0,113,0,0,23,3.734,3.731,0,0,0,0,4.175,115.16,38.928660038368,0.328084,6,P-GPS,
3400,2022-10-27 20:42:01,-34.9108272513681,-56.1438386666485,0.328084,0.164042,38.764618038368,38.928660038368,2.624672,0.223694,1.03491473128,1.20356631148,24,5,7.453,38.928660038368,0.328084,0.223694,1.03491473128,0,0.223694,0,102.5, 3.9, 0,0,0,1024,1024,1024,1024,0,0,0,0,113,0,0,23,3.734,3.731,0,0,0,0,4.175,115.16,38.928660038368,0.328084,6,P-GPS,
3500,2022-10-27 20:42:01,-34.9108274149038,-56.1438385104306,0.328084,0.164042,38.764618038368,38.928660038368,2.296588,0,1.10229334236,1.27936027716,24,5,7.453,38.928660038368,0.328084,0.223694,1.10229334236,0,0,0,102.4, 3.5, -0.4,0,0,1024,1024,1024,1024,0,0,0,0,113,0,0,23,3.734,3.731,0,0,0,0,4.175,115.16,38.928660038368,0.328084,6,P-GPS,
3600,2022-10-27 20:42:01,-34.9108276614738,-56.1438383082073,0.328084,0.1968504,38.731809638368,38.928660038368,2.296588,0,1.20337274192,1.38777235412,24,5,7.453,38.928660038368,0.328084,0.223694,1.20337274192,0,0,0,102.2, 3.5, -1.3,0,0,1024,1024,1024,1024,0,0,0,0,113,0,0,23,3.734,3.731,0,0,0,0,4.175,115.16,38.928660038368,0.328084,6,P-GPS,
3700,2022-10-27 20:42:01,-34.9108277205041,-56.1438383129917,0.328084,0.1968504,38.731809638368,38.928660038368,2.624672,0,1.22397641712,1.40935700048,24,5,7.453,38.928660038368,0.328084,0.223694,1.22397641712,0,0,0,102.2, 2.8, -2.1,0,0,1024,1024,1024,1024,0,0,0,0,113,0,0,23,3.734,3.731,0,0,0,0,4.175,115.16,38.928660038368,0.328084,6,P-GPS,
3800,2022-10-27 20:42:01,-34.9108277614668,-56.143838298759,0.328084,0.1968504,38.731809638368,38.928660038368,2.624672,0,1.239501352,1.42489833956,24,5,7.453,38.928660038368,0.328084,0.223694,1.239501352,0,0,0,102.5, 1.7, -1.3,0,0,1024,1024,1024,1024,0,0,0,0,113,0,0,23,3.734,3.731,0,0,0,0,4.175,115.16,38.928660038368,0.328084,6,P-GPS,
3900,2022-10-27 20:42:02,-34.9108278046873,-56.1438382833405,0.328084,0.1968504,38.731809638368,38.928660038368,2.624672,0,1.25591211368,1.44132878628,24,5,7.453,38.928660038368,0.328084,0.223694,1.25591211368,0,0,0,102.6, 2, -1.1,0,0,1024,1024,1024,1024,0,0,0,0,113,0,0,23,3.734,3.731,0,0,0,0,4.175,115.16,38.928660038368,0.328084,6,P-GPS,
4000,2022-10-27 20:42:02,-34.9108277435319,-56.1438382917158,0.328084,0.1968504,38.731809638368,38.928660038368,2.624672,0,1.23363192924,1.4637795744,24,5,7.453,38.928660038368,0.328084,0.223694,1.25591211368,0,0,0,102.7, 1.1, -1.3,0,0,1024,1024,1024,1024,0,0,0,0,113,0,0,23,3.734,3.731,0,0,0,0,4.175,115.16,38.928660038368,0.328084,6,P-GPS,
4100,2022-10-27 20:42:02,-34.9108278352312,-56.1438383174764,0.328084,0.1968504,38.731809638368,38.928660038368,2.624672,0,1.264435736,1.498113565,24,5,7.456,38.928660038368,0.328084,0.223694,1.264435736,0,0,0,102.7, 1.6, -1.4,0,0,1024,1024,1024,1024,0,0,0,0,113,-0.6,0,23,3.73,3.724,0,0,0,0,4.493,115.16,38.928660038368,0.328084,6,P-GPS,
4200,2022-10-27 20:42:02,-34.9108278952923,-56.1438384312413,0.328084,0.1968504,38.731809638368,38.928660038368,2.624672,0,1.27877956848,1.53859584976,24,5,7.456,38.928660038368,0.328084,0.223694,1.27877956848,0,0,0,102.7, 1.5, -1.3,0,0,1024,1024,1024,1024,0,0,0,0,113,-1.6,0,23,3.73,3.724,0,0,0,0,4.493,115.16,38.928660038368,0.328084,6,P-GPS,
4300,2022-10-27 20:42:02,-34.9108279507677,-56.1438385827173,0.328084,0.1312336,38.797426438368,38.928660038368,2.624672,0,1.29075791532,1.58822839728,24,5,7.456,38.928660038368,0.328084,0.223694,1.29075791532,0,0,0,102.5, 0.9, -2.1,0,0,1024,1024,1024,1024,0,0,0,0,113,-2.8,0,23,3.73,3.724,0,0,0,0,4.493,115.16,38.928660038368,0.328084,6,P-GPS,
4400,2022-10-27 20:42:02,-34.9108279071026,-56.1438388204708,0.328084,0.1312336,38.797426438368,38.928660038368,2.624672,0,1.26567917436,1.66112538124,24,5,7.456,38.928660038368,0.328084,0.223694,1.29075791532,0,0,0,102.3, 0, -2.4,0,0,1024,1024,1024,1024,0,0,0,0,113,-4.1,0,23,3.73,3.724,0,0,0,0,4.493,115.16,38.928660038368,0.328084,6,P-GPS,
4500,2022-10-27 20:42:02,-34.9108279417339,-56.1438389156936,0.328084,0.1312336,38.797426438368,38.928660038368,2.624672,0,1.27563324292,1.69229336124,24,5,7.456,38.928660038368,0.328084,0.223694,1.29075791532,0,0,0,102.3, 0.2, -1.8,0,0,1024,1024,1024,1024,0,0,0,0,113,-5.2,0,23,3.73,3.724,0,0,0,0,4.493,115.16,38.928660038368,0.328084,6,P-GPS,
4600,2022-10-27 20:42:02,-34.9108280074017,-56.143839008491,0.328084,0.1312336,38.797426438368,38.928660038368,2.624672,0,1.29761159008,1.72896330992,24,5,7.456,38.928660038368,0.328084,0.223694,1.29761159008,0,0,0,102.1, -0.6, -2,0,0,1024,1024,1024,1024,0,0,0,0,113,-6,0,23,3.73,3.724,0,0,0,0,4.493,115.16,38.928660038368,0.328084,6,P-GPS,
4700,2022-10-27 20:42:02,-34.9108280777065,-56.1438390988674,0.328084,0.1312336,38.797426438368,38.928660038368,2.624672,0,1.32196198456,1.76623365232,24,5,7.456,38.928660038368,0.328084,0.223694,1.32196198456,0,0,0,102.2, -0.5, -1.6,0,0,1024,1024,1024,1024,0,0,0,0,113,-6.5,0,23,3.73,3.724,0,0,0,0,4.493,115.16,38.928660038368,0.328084,6,P-GPS,
4800,2022-10-27 20:42:02,-34.9108282405713,-56.1438392101567,0.328084,0.1312336,38.797426438368,38.928660038368,2.624672,0,1.38058731452,1.8343504524,24,5,7.456,38.928660038368,0.328084,0.223694,1.38058731452,0,0,0,102.3, -0.1, -0.8,0,0,1024,1024,1024,1024,0,0,0,0,113,-6.8,0,23,3.73,3.724,0,0,0,0,4.493,115.16,38.928660038368,0.328084,6,P-GPS,
4900,2022-10-27 20:42:02,-34.9108283156027,-56.143839310318,0.328084,0.1312336,38.797426438368,38.928660038368,2.624672,0,1.40796264348,1.87493772404,24,5,7.456,38.928660038368,0.328084,0.223694,1.40796264348,0,0,0,102.3, -0.7, -0.7,0,0,1024,1024,1024,1024,0,0,0,0,113,-6.8,0,23,3.73,3.724,0,0,0,0,4.493,115.16,38.928660038368,0.328084,6,P-GPS,
5000,2022-10-27 20:42:03,-34.9108284107877,-56.143839358731,0.328084,0.1312336,38.797426438368,38.928660038368,2.624672,0,1.44291671284,1.912565678,24,5,7.456,38.928660038368,0.328084,0.223694,1.44291671284,0,0,0,102.2, -0.9, -1.1,0,0,1024,1024,1024,1024,0,0,0,0,113,-6.8,0,23,3.73,3.724,0,0,0,0,4.493,115.16,38.928660038368,0.328084,6,P-GPS,"Punto de origen actualizado. Altitud de RPO establecida en 100m (Code: 3000001)"
5100,2022-10-27 20:42:03,-34.9108285195759,-56.1438393972217,0.328084,0.0656168,38.863043238368,38.928660038368,2.624672,0,1.4828740632,1.95389441948,24,5,7.448,38.928660038368,0.328084,0.223694,1.4828740632,0,0,0,102.2, -1, -2.2,0,0,1024,1024,1024,1024,0,0,0,0,113,-6.9,0,23,3.725,3.72,0,0,0,0,4.673,115.16,38.928660038368,0.328084,6,P-GPS,
5200,2022-10-27 20:42:03,-34.9108285488911,-56.1438394480865,0.328084,0.0656168,38.863043238368,38.928660038368,2.624672,0,1.4940617276,1.97249678228,24,5,7.448,38.928660038368,0.328084,0.223694,1.4940617276,0,0,0,102.4, -1.1, -1.6,0,0,1024,1024,1024,1024,0,0,0,0,113,-7.3,0,23,3.725,3.72,0,0,0,0,4.673,115.16,38.928660038368,0.328084,6,P-GPS,
5300,2022-10-27 20:42:03,-34.9108285223613,-56.1438394355191,0.328084,0.0656168,38.863043238368,38.928660038368,2.624672,0,1.484252016,1.98288064088,23,5,7.448,38.928660038368,0.328084,0.223694,1.4940617276,0,0,0,102.3, -1.8, -1.4,0,0,1024,1024,1024,1024,0,0,0,0,113,-7.9,0,23,3.725,3.72,0,0,0,0,4.673,115.16,38.928660038368,0.328084,6,P-GPS,
5400,2022-10-27 20:42:03,-34.9108285547861,-56.1438394531353,0.328084,0.0656168,38.863043238368,38.928660038368,2.624672,0,1.49626973292,1.99583011636,23,5,7.448,38.928660038368,0.328084,0.223694,1.49626973292,0,0,0,102.2, -0.9, -1.1,0,0,1024,1024,1024,1024,0,0,0,0,113,-8.3,0,23,3.725,3.72,0,0,0,0,4.673,115.16,38.928660038368,0.328084,6,P-GPS,
5500,2022-10-27 20:42:03,-34.9108285930578,-56.1438394669538,0.328084,0.0656168,38.863043238368,38.928660038368,2.624672,0,1.51038718744,2.01039376512,23,5,7.448,38.928660038368,0.328084,0.223694,1.51038718744,0,0,0,102.5, -1, -1.5,0,0,1024,1024,1024,1024,0,0,0,0,113,-8.6,0,23,3.725,3.72,0,0,0,0,4.673,115.16,38.928660038368,0.328084,6,P-GPS,
5600,2022-10-27 20:42:03,-34.9108286239665,-56.1438395150263,0.656168,0.328084,38.928660038368,39.256744038368,2.624672,0,1.52230976,2.02867132476,23,5,7.448,39.256744038368,0.656168,0.223694,1.52230976,0,0,0,102.5, -1.4, -0.8,0,0,1024,1024,1024,1024,0,0,0,0,113,-8.8,0,23,3.725,3.72,0,0,0,0,4.673,115.16,39.256744038368,0.656168,6,P-GPS,
5700,2022-10-27 20:42:03,-34.9108286233379,-56.1438395830826,0.656168,0.328084,38.928660038368,39.256744038368,2.624672,0,1.52323823772,2.0490322178,24,5,7.448,39.256744038368,0.656168,0.223694,1.52323823772,0,0,0,102.4, -1.3, -0.3,0,0,1024,1024,1024,1024,0,0,0,0,113,-8.9,0,23,3.725,3.72,0,0,0,0,4.673,115.16,39.256744038368,0.656168,6,P-GPS,
5800,2022-10-27 20:42:03,-34.9108286257618,-56.1438396401993,0.656168,0.328084,38.928660038368,39.256744038368,2.624672,0,1.52530188608,2.06614507924,24,5,7.448,39.256744038368,0.656168,0.223694,1.52530188608,0,0,0,102.4, -0.9, -0.5,0,0,1024,1024,1024,1024,0,0,0,0,113,-8.9,0,23,3.725,3.72,0,0,0,0,4.673,115.16,39.256744038368,0.656168,6,P-GPS,
5900,2022-10-27 20:42:04,-34.9108286295406,-56.1438397024615,0.656168,0.328084,38.928660038368,39.256744038368,2.624672,0,1.52817918276,2.08482290136,24,5,7.448,39.256744038368,0.656168,0.223694,1.52817918276,0,0,0,102.4, -0.9, -0.4,0,0,1024,1024,1024,1024,0,0,0,0,113,-9.4,0,23,3.725,3.72,0,0,0,0,4.673,115.16,39.256744038368,0.656168,6,P-GPS,
6000,2022-10-27 20:42:04,-34.9108286760987,-56.1438397481935,0.656168,0.328084,38.928660038368,39.256744038368,2.624672,0,1.54633535132,2.10663720652,24,5,7.448,39.256744038368,0.656168,0.223694,1.54633535132,0,0,0,102.3, -1.1, -0.3,0,0,1024,1024,1024,1024,0,0,0,0,113,-10.3,0,23,3.725,3.72,0,0,0,0,4.673,115.16,39.256744038368,0.656168,6,P-GPS,
6100,2022-10-27 20:42:04,-34.9108286799231,-56.1438399007606,0.656168,0.328084,38.928660038368,39.256744038368,2.624672,0,1.55270018092,2.15230321848,24,5,7.448,39.256744038368,0.656168,0.223694,1.55270018092,0,0,0,102.4, -1.2, -0.6,0,0,1024,1024,1024,1024,0,0,0,0,113,-11.5,0,23,3.725,3.72,0,0,0,0,4.673,115.16,39.256744038368,0.656168,6,P-GPS,
6200,2022-10-27 20:42:04,-34.9108287308054,-56.1438399572997,0.656168,0.328084,38.928660038368,39.256744038368,2.624672,0,1.57328089024,2.17742132952,24,5,7.438,39.256744038368,0.656168,0.223694,1.57328089024,0,0,0,102.4, -1.3, -1.9,0,0,1024,1024,1024,1024,0,0,0,0,113,-12.6,0,22,3.721,3.717,0,0,0,0,4.836,115.16,39.256744038368,0.656168,6,P-GPS,
6300,2022-10-27 20:42:04,-34.9108287700371,-56.143840025199,0.656168,0.328084,38.928660038368,39.256744038368,2.624672,0,1.59026579892,2.20227041168,24,5,7.438,39.256744038368,0.656168,0.223694,1.59026579892,0,0,0,102.5, -2, -1.8,0,0,1024,1024,1024,1024,0,0,0,0,113,-13.5,0,22,3.721,3.717,0,0,0,0,4.836,115.16,39.256744038368,0.656168,6,P-GPS,
6400,2022-10-27 20:42:04,-34.9108288175135,-56.143840105989,0.656168,0.328084,38.928660038368,39.256744038368,2.624672,0,1.61103351612,2.23200794544,24,5,7.438,39.256744038368,0.656168,0.223694,1.61103351612,0,0,0,102.6, -2.7, -1.1,0,0,1024,1024,1024,1024,0,0,0,0,113,-14.1,0,22,3.721,3.717,0,0,0,0,4.836,115.16,39.256744038368,0.656168,6,P-GPS,
6500,2022-10-27 20:42:04,-34.9108288562037,-56.1438402161154,0.656168,0.328084,38.928660038368,39.256744038368,2.624672,0,1.63043312304,2.26785440328,24,5,7.438,39.256744038368,0.656168,0.223694,1.63043312304,0,0,0,102.5, -2.7, -0.5,0,0,1024,1024,1024,1024,0,0,0,0,113,-14.5,0,22,3.721,3.717,0,0,0,0,4.836,115.16,39.256744038368,0.656168,6,P-GPS,
6600,2022-10-27 20:42:04,-34.9108289085761,-56.143840236331,0.656168,0.328084,38.928660038368,39.256744038368,2.624672,0,1.65030845176,2.28789705484,24,5,7.438,39.256744038368,0.656168,0.223694,1.65030845176,0,0,0,102.3, -2.6, -0.8,0,0,1024,1024,1024,1024,0,0,0,0,113,-14.6,0,22,3.721,3.717,0,0,0,0,4.836,115.16,39.256744038368,0.656168,6,P-GPS,
6700,2022-10-27 20:42:04,-34.9108289671293,-56.1438402410426,0.656168,0.328084,38.928660038368,39.256744038368,2.624672,0,1.67158469916,2.30930453584,24,5,7.438,39.256744038368,0.656168,0.223694,1.67158469916,0,0,0,102.3, -3.1, -0.2,0,0,1024,1024,1024,1024,0,0,0,0,113,-14.6,0,22,3.721,3.717,0,0,0,0,4.836,115.16,39.256744038368,0.656168,6,P-GPS,
6800,2022-10-27 20:42:04,-34.9108290198966,-56.1438402819752,0.984252,0.656168,38.928660038368,39.584828038368,2.624672,0,1.69271330876,2.33212277804,24,5,7.438,39.584828038368,0.984252,0.223694,1.69271330876,0,0,0,102.4, -1.9, -1.2,0,0,1024,1024,1024,1024,0,0,0,0,113,-14.6,0,22,3.721,3.717,0,0,0,0,4.836,115.16,39.584828038368,0.984252,6,P-GPS,
6900,2022-10-27 20:42:05,-34.9108290649752,-56.1438403318603,0.984252,0.656168,38.928660038368,39.584828038368,2.624672,0,1.71162407052,2.35433406484,24,5,7.438,39.584828038368,0.984252,0.223694,1.71162407052,0,0,0,102.6, -2.4, -0.9,0,0,1308,1024,1024,1024,43,0,0,0,113,-14.6,0,22,3.721,3.717,0,0,0,0,4.836,115.16,39.584828038368,0.984252,6,P-GPS,
7000,2022-10-27 20:42:05,-34.9108290597226,-56.1438403267406,0.984252,0.656168,38.928660038368,39.584828038368,2.624672,0,1.70945543528,2.35678485232,24,5,7.438,39.584828038368,0.984252,0.223694,1.71162407052,0,0,0,102.6, -3.6, -0.6,0,0,1684,1024,1024,1024,100,0,0,0,113,-14.6,0,22,3.721,3.717,0,0,0,0,4.836,115.16,39.584828038368,0.984252,6,P-GPS,
7100,2022-10-27 20:42:05,-34.910829058945,-56.1438403136525,0.984252,0.656168,38.928660038368,39.584828038368,2.624672,0,1.70845149824,2.3607120178,24,5,7.438,39.584828038368,0.984252,0.223694,1.71162407052,0,0,0,102.5, -5.7, 0,0,0,1684,1024,1024,1024,100,0,0,0,113,-14.6,0,22,3.721,3.717,0,0,0,0,4.836,115.16,39.584828038368,0.984252,6,P-GPS,
7200,2022-10-27 20:42:05,-34.9108291002253,-56.1438401827947,0.984252,0.656168,38.928660038368,39.584828038368,2.296588,0.223694,1.71652236464,2.40266083804,24,5,7.442,39.584828038368,0.984252,0.223694,1.71652236464,0,0.223694,0,102.6, -17.4, -0.4,0,0,1684,1024,1024,1024,100,0,0,0,113,-14.6,0,22,3.72,3.714,0,0,0,0,4.63,115.16,39.584828038368,0.984252,6,P-GPS,
7300,2022-10-27 20:42:05,-34.9108291963588,-56.1438398019029,0.984252,0.656168,38.928660038368,39.584828038368,2.296588,0.894776,1.73682092172,2.52189640616,24,5,7.442,39.584828038368,0.984252,0.894776,1.73682092172,0,0.894776,0,102.6, -22.4, 0,0,0,1684,1024,1024,1024,100,0,0,0,113,-14.6,0,22,3.72,3.714,0,0,0,0,4.63,115.16,39.584828038368,0.984252,6,P-GPS,
7400,2022-10-27 20:42:05,-34.910829312322,-56.1438390926472,0.984252,0.7217848,38.863043238368,39.584828038368,2.296588,1.8119214,1.77223758952,2.73827764668,24,5,7.442,39.584828038368,0.984252,1.8119214,1.77223758952,-0.223694,1.789552,0,102.5, -22.9, 0.3,0,0,1493,1024,1024,1024,71,0,0,0,113,-14.6,0,22,3.72,3.714,0,0,0,0,4.63,115.16,39.584828038368,0.984252,6,P-GPS,
7500,2022-10-27 20:42:05,-34.9108295841044,-56.143838004292,0.984252,0.7545932,38.830234838368,39.584828038368,2.296588,1.8119214,1.90802499544,3.07866807752,24,5,7.442,39.584828038368,0.984252,1.8119214,1.90802499544,-0.447388,2.460634,0,102.5, -21.6, 0.1,0,0,1024,1024,1024,1024,0,0,0,0,113,-14.6,0,22,3.72,3.714,0,0,0,0,4.63,115.16,39.584828038368,0.984252,6,P-GPS,
7600,2022-10-27 20:42:05,-34.9108298970571,-56.1438366188453,0.984252,0.8530184,38.731809638368,39.584828038368,2.296588,3.1988242,2.13634521272,3.5086287212,24,5,7.442,39.584828038368,0.984252,3.1988242,2.13634521272,-0.671082,3.131716,0,102.1, -4.9, -1.2,0,0,1024,1024,1024,1024,0,0,0,0,113,-14.6,0,22,3.72,3.714,0,0,0,0,4.63,115.16,39.584828038368,0.984252,6,P-GPS,
7700,2022-10-27 20:42:05,-34.9108302276573,-56.1438350860299,0.984252,1.0170604,38.567767638368,39.584828038368,2.624672,3.1988242,2.44792658752,3.9828413348,24,5,7.442,39.584828038368,0.984252,3.1988242,2.44792658752,-0.671082,3.131716,0,102, 11.6, -1,0,0,1024,1024,1024,1024,0,0,0,0,113,-14.6,0,22,3.72,3.714,0,0,0,0,4.63,115.16,39.584828038368,0.984252,6,P-GPS,
7800,2022-10-27 20:42:05,-34.910830434753,-56.1438335742017,0.984252,1.0826772,38.502150838368,39.584828038368,2.624672,2.5053728,2.76594825124,4.4414043416,24,5,7.442,39.584828038368,0.984252,3.1988242,2.76594825124,-0.447388,2.460634,0,102.3, 12.8, -0.7,0,0,1024,1024,1024,1024,0,0,0,0,113,-14.6,0,22,3.72,3.714,0,0,0,0,4.63,115.16,39.584828038368,0.984252,6,P-GPS,
7900,2022-10-27 20:42:05,-34.9108306555456,-56.1438324069986,0.984252,1.2139108,38.370917238368,39.584828038368,2.624672,2.0579848,3.05259852288,4.7998033032,24,5,7.442,39.584828038368,0.984252,3.1988242,3.05259852288,-0.447388,2.013246,0,102.3, 10.9, -0.4,0,0,1024,1024,1024,1024,0,0,0,0,113,-14.6,0,22,3.72,3.714,0,0,0,0,4.63,115.16,39.584828038368,0.984252,6,P-GPS,
8000,2022-10-27 20:42:06,-34.9108309047391,-56.1438313915937,0.984252,1.2795276,38.305300438368,39.584828038368,2.624672,1.5882274,3.3280512876,5.1169292976,24,5,7.442,39.584828038368,0.984252,3.1988242,3.3280512876,-0.223694,1.565858,0,102.2, 9.1, 0,0,0,1024,1024,1024,1024,0,0,0,0,113,-14.6,0,22,3.72,3.714,0,0,0,0,4.63,115.16,39.584828038368,0.984252,6,P-GPS,
8100,2022-10-27 20:42:06,-34.9108311518929,-56.1438304869941,0.984252,1.3779528,38.206875238368,39.584828038368,2.624672,0.894776,3.5854988024,5.4021983356,24,5,7.442,39.584828038368,0.984252,3.1988242,3.5854988024,0,0.894776,0,102.4, 6.6, -0.4,0,0,1024,1024,991,848,0,0,-5,-27,113,-14.6,0,22,3.72,3.714,0,0,0,0,4.63,115.16,39.584828038368,0.984252,6,P-GPS,
8200,2022-10-27 20:42:06,-34.9108318396727,-56.143829845433,1.312336,1.64042,38.272492038368,39.912912038368,2.624672,0.671082,3.8973426444,5.7181432276,24,5,7.42,39.912912038368,1.312336,3.1988242,3.8973426444,0,0.671082,0,102.5, 4.8, -0.9,0,0,1024,1024,364,961,0,0,-100,-10,112.8,-14.6,0,22,3.717,3.71,0,0,0,0,4.964,115.16,39.912912038368,1.312336,6,P-GPS,
8300,2022-10-27 20:42:06,-34.9108321350057,-56.1438294816684,0.984252,1.4107612,38.174066838368,39.584828038368,2.624672,0.447388,4.0504594472,5.8712928388,24,5,7.42,39.912912038368,1.312336,3.1988242,4.0504594472,0,0.447388,0.223694,102.2, 3.7, -0.7,0,0,1024,1024,364,956,0,0,-100,-10,112.5,-14.6,0,22,3.717,3.71,0,0,0,0,4.964,115.16,39.584828038368,0.984252,6,P-GPS,
8400,2022-10-27 20:42:06,-34.9108322681929,-56.1438293824693,0.984252,1.4107612,38.174066838368,39.584828038368,2.624672,0.223694,4.1055119424,5.9282154128,24,5,7.42,39.912912038368,1.312336,3.1988242,4.1055119424,0,0.223694,0.223694,101.9, 2.9, -0.3,0,0,1024,1024,364,973,0,0,-100,-8,112.3,-14.6,0,22,3.717,3.71,0,0,0,0,4.964,115.16,39.584828038368,0.984252,6,P-GPS,
8500,2022-10-27 20:42:06,-34.9108323610647,-56.1438293874427,0.984252,1.4107612,38.174066838368,39.584828038368,2.624672,0,4.1280513132,5.9621392984,24,5,7.42,39.912912038368,1.312336,3.1988242,4.1280513132,0,0,0.447388,101.8, 2, 1.1,0,0,1024,1024,702,1024,0,0,-49,0,112.2,-14.6,0,22,3.717,3.71,0,0,0,0,4.964,115.16,39.584828038368,0.984252,6,P-GPS,
8600,2022-10-27 20:42:06,-34.9108324444084,-56.1438294838519,0.984252,1.4107612,38.174066838368,39.584828038368,2.624672,0,4.1288715232,6.0040684336,24,5,7.42,39.912912038368,1.312336,3.1988242,4.1288715232,0,0,0.447388,101.5, 0.7, 1,0,0,1024,1024,803,1024,0,0,-33,0,112.2,-14.6,0,22,3.717,3.71,0,0,0,0,4.964,115.16,39.584828038368,0.984252,6,P-GPS,
8700,2022-10-27 20:42:06,-34.9108324030622,-56.143830277521,0.984252,1.312336,38.272492038368,39.584828038368,2.624672,0,3.9531169244,6.2419949504,24,5,7.42,39.912912038368,1.312336,3.1988242,4.1288715232,0,0,0.447388,101.4, 0, 0,0,0,1024,1024,364,1024,0,0,-100,0,112.2,-14.6,0,22,3.717,3.71,0,0,0,0,4.964,115.16,39.584828038368,0.984252,6,P-GPS,
8800,2022-10-27 20:42:06,-34.9108324511372,-56.143830331593,0.984252,1.312336,38.272492038368,39.584828038368,2.624672,0,3.95505262,6.2658466572,24,5,7.42,39.912912038368,1.312336,3.1988242,4.1288715232,0,0,0.447388,101.5, -0.3, -0.8,0,0,1024,1024,364,1024,0,0,-100,0,112.2,-14.6,0,22,3.717,3.71,0,0,0,0,4.964,115.16,39.584828038368,0.984252,6,P-GPS,
8900,2022-10-27 20:42:06,-34.910832492739,-56.1438303900567,0.984252,1.312336,38.272492038368,39.584828038368,2.296588,0,3.9545276856,6.2890093876,24,5,7.42,39.912912038368,1.312336,3.1988242,4.1288715232,0,0,0.447388,101.5, -0.1, -1.4,0,0,1024,1024,364,1024,0,0,-100,0,112.2,-14.6,0,22,3.717,3.71,0,0,0,0,4.964,115.16,39.584828038368,0.984252,6,P-GPS,
9000,2022-10-27 20:42:07,-34.9108325394102,-56.1438304601672,0.656168,0.9514436,38.305300438368,39.256744038368,2.296588,0,3.9531497328,6.3160435092,24,5,7.42,39.912912038368,1.312336,3.1988242,4.1288715232,0,0,0.447388,101.5, -0.4, -2.4,0,0,1024,1024,367,1024,0,0,-100,0,112.2,-14.6,0,22,3.717,3.71,0,0,0,0,4.964,115.16,39.256744038368,0.656168,6,P-GPS,
9100,2022-10-27 20:42:07,-34.9108323037288,-56.1438305041256,0.656168,0.9186352,38.338108838368,39.256744038368,2.296588,0,3.8805447436,6.4030185776,24,5,7.42,39.912912038368,1.312336,3.1988242,4.1288715232,0,0,0.447388,101.6, -0.3, -2.5,0,0,1024,1024,613,1024,0,0,-62,0,112.2,-14.6,0,22,3.717,3.71,0,0,0,0,4.964,115.16,39.256744038368,0.656168,6,P-GPS,
9200,2022-10-27 20:42:07,-34.9108323207135,-56.1438305150463,0.656168,0.9186352,38.338108838368,39.256744038368,2.296588,0,3.8829069484,6.4100395752,24,5,7.428,39.912912038368,1.312336,3.1988242,4.1288715232,0,0,0.223694,101.6, -0.6, -2,0,0,1024,1024,949,1024,0,0,-11,0,112.2,-14.6,0,22,3.715,3.709,0,0,0,0,4.704,115.16,39.256744038368,0.656168,6,P-GPS,
9300,2022-10-27 20:42:07,-34.9108323195524,-56.1438305116477,0.656168,0.9186352,38.338108838368,39.256744038368,2.296588,0,3.8833006492,6.4111222524,24,5,7.428,39.912912038368,1.312336,3.1988242,4.1288715232,0,0,0.223694,101.7, -0.8, -1.5,0,0,1024,1024,1024,1024,0,0,0,0,112.2,-14.6,0,22,3.715,3.709,0,0,0,0,4.704,115.16,39.256744038368,0.656168,6,P-GPS,
9400,2022-10-27 20:42:07,-34.9108323230487,-56.143830498651,0.656168,0.984252,38.272492038368,39.256744038368,1.968504,0,3.8868439564,6.4152233024,24,5,7.428,39.912912038368,1.312336,3.1988242,4.1288715232,0,0,0.223694,101.7, -0.5, -0.6,0,0,1024,1024,1024,1024,0,0,0,0,112.2,-14.6,0,22,3.715,3.709,0,0,0,0,4.704,115.16,39.256744038368,0.656168,6,P-GPS,
9500,2022-10-27 20:42:07,-34.9108322834628,-56.1438302691777,0.656168,0.984252,38.272492038368,39.256744038368,1.968504,0,3.9229660048,6.4853676616,24,5,7.428,39.912912038368,1.312336,3.1988242,4.1288715232,0,0,0,101.6, -0.1, 0.1,0,0,1024,1024,1024,1024,0,0,0,0,112.2,-14.6,0,22,3.715,3.709,0,0,0,0,4.704,115.16,39.256744038368,0.656168,6,P-GPS,
9600,2022-10-27 20:42:07,-34.9108322767732,-56.1438302044357,0.656168,0.984252,38.272492038368,39.256744038368,1.968504,0,3.9344817532,6.5048886596,24,5,7.428,39.912912038368,1.312336,3.1988242,4.1288715232,0,0,0,101.6, 0, -0.4,0,0,1024,1024,1024,1024,0,0,0,0,112.2,-14.6,0,22,3.715,3.709,0,0,0,0,4.704,115.16,39.256744038368,0.656168,6,P-GPS,
9700,2022-10-27 20:42:07,-34.9108322692872,-56.1438301377055,0.656168,0.984252,38.272492038368,39.256744038368,1.968504,0,3.9462927772,6.5250658256,24,5,7.428,39.912912038368,1.312336,3.1988242,4.1288715232,0,0,0,101.6, -0.3, -0.7,0,0,1024,1024,1024,1024,0,0,0,0,112.2,-14.6,0,22,3.715,3.709,0,0,0,0,4.704,115.16,39.256744038368,0.656168,6,P-GPS,
9800,2022-10-27 20:42:07,-34.9108322473553,-56.143830103438,0.656168,0.984252,38.272492038368,39.256744038368,1.968504,0,3.9476051132,6.538057952,24,5,7.428,39.912912038368,1.312336,3.1988242,4.1288715232,0,0,0,101.6, -0.9, -0.8,0,0,1024,1024,1024,1024,0,0,0,0,112.2,-14.6,0,22,3.715,3.709,0,0,0,0,4.704,115.16,39.256744038368,0.656168,6,P-GPS,
9900,2022-10-27 20:42:08,-34.9108321378148,-56.143829870116,0.656168,0.984252,38.272492038368,39.256744038368,1.968504,0,3.9680447464,6.6185041488,24,5,7.428,39.912912038368,1.312336,3.1988242,4.1288715232,0,0,0,101.7, -0.8, -0.6,0,0,1024,1024,1024,1024,0,0,0,0,112.2,-14.8,0,22,3.715,3.709,0,0,0,0,4.704,115.16,39.256744038368,0.656168,6,P-GPS,
10000,2022-10-27 20:42:08,-34.9108321395963,-56.1438298226066,0.656168,0.984252,38.272492038368,39.256744038368,1.968504,0,3.9785762428,6.6327429944,24,5,7.428,39.912912038368,1.312336,3.1988242,4.1288715232,0,0,0,101.7, -0.5, -0.6,0,0,1024,1024,1024,1024,0,0,0,0,112.2,-15.4,0,22,3.715,3.709,0,0,0,0,4.704,115.16,39.256744038368,0.656168,6,P-GPS,
10100,2022-10-27 20:42:08,-34.9108321520832,-56.1438297701483,0.656168,0.984252,38.272492038368,39.256744038368,1.968504,0,3.992946322,6.6490815776,24,5,7.428,39.912912038368,1.312336,3.1988242,4.1288715232,0,0,0,101.7, -0.5, -0.7,0,0,1024,1024,1024,1024,0,0,0,0,112.2,-16.4,0,22,3.715,3.709,0,0,0,0,4.704,115.16,39.256744038368,0.656168,6,P-GPS,
10200,2022-10-27 20:42:08,-34.9108321663826,-56.1438297527547,0.328084,0.656168,38.272492038368,38.928660038368,1.968504,0,4.000328212,6.6564306592,24,5,7.428,39.912912038368,1.312336,3.1988242,4.1288715232,0,0,0,101.7, -0.4, -0.7,0,0,1024,1024,1024,1024,0,0,0,0,112.2,-17.3,0,22,3.715,3.709,0,0,0,0,4.704,115.16,38.928660038368,0.328084,6,P-GPS,
10300,2022-10-27 20:42:08,-34.910832181817,-56.1438297461803,0.328084,0.656168,38.272492038368,38.928660038368,1.968504,0,4.0056759812,6.662401788,24,5,7.421,39.912912038368,1.312336,3.1988242,4.1288715232,0,0,0,101.7, -0.2, -0.6,0,0,1024,1024,1003,538,0,0,-3,-74,112.2,-17.9,0,22,3.714,3.708,0,0,0,0,4.865,115.34,38.928660038368,0.328084,6,P-GPS,
10400,2022-10-27 20:42:08,-34.9108322097122,-56.1438296890839,0.328084,0.656168,38.272492038368,38.928660038368,1.968504,0,4.0249673204,6.6822836784,24,5,7.421,39.912912038368,1.312336,3.1988242,4.1288715232,0,0,0,101.5, 0, -0.4,0,0,1024,1024,1007,440,0,0,-3,-88,111.8,-18.4,0,22,3.714,3.708,0,0,0,0,4.865,115.34,38.928660038368,0.328084,6,P-GPS,
10500,2022-10-27 20:42:08,-34.9108322274492,-56.1438296611313,0.328084,0.656168,38.272492038368,38.928660038368,1.968504,0,4.0354660084,6.6928479832,24,5,7.421,39.912912038368,1.312336,3.1988242,4.1288715232,0,0,0,100.4, -0.2, -0.4,0,0,1024,1024,1007,406,0,0,-3,-94,109.4,-18.6,0,22,3.714,3.708,0,0,0,0,4.865,115.34,38.928660038368,0.328084,6,P-GPS,
10600,2022-10-27 20:42:08,-34.9108322872424,-56.1438296805349,0.328084,0.656168,38.272492038368,38.928660038368,1.968504,0,4.0467192896,6.7154529708,24,5,7.421,39.912912038368,1.312336,3.1988242,4.1288715232,0,0,0,97.6, -0.2, -1.3,0,0,1024,1024,1024,642,0,0,0,-58,105.8,-18.6,0,22,3.714,3.708,0,0,0,0,4.865,115.34,38.928660038368,0.328084,6,P-GPS,
10700,2022-10-27 20:42:08,-34.9108323550525,-56.1438297213608,0.328084,0.656168,38.272492038368,38.928660038368,1.968504,0,4.055610366,6.7430448352,24,5,7.421,39.912912038368,1.312336,3.1988242,4.1288715232,0,0,0,94, -0.9, -1.3,0,0,1024,1024,1024,1024,0,0,0,0,101.7,-18.6,0,22,3.714,3.708,0,0,0,0,4.865,115.34,38.928660038368,0.328084,6,P-GPS,
10800,2022-10-27 20:42:08,-34.9108324236328,-56.1438296974428,0.328084,0.656168,38.272492038368,38.928660038368,1.968504,0,4.0784450124,6.7690618964,24,5,7.421,39.912912038368,1.312336,3.1988242,4.1288715232,0,0,0,90.3, -1.4, -0.9,0,0,1024,1024,1024,1024,0,0,0,0,98.8,-18.6,0,22,3.714,3.708,0,0,0,0,4.865,115.34,38.928660038368,0.328084,6,P-GPS,
10900,2022-10-27 20:42:09,-34.9108324347908,-56.1438296974274,0.328084,0.656168,38.272492038368,38.928660038368,1.968504,0,4.08136496,6.773130138,24,5,7.421,39.912912038368,1.312336,3.1988242,4.1288715232,0,0,0,88.3, -1.2, -0.9,0,0,1024,1024,1024,1024,0,0,0,0,97.9,-18.6,0,22,3.714,3.708,0,0,0,0,4.865,115.34,38.928660038368,0.328084,6,P-GPS,
11000,2022-10-27 20:42:09,-34.9108324193581,-56.1438297020972,0.328084,0.656168,38.272492038368,38.928660038368,1.968504,0,4.0763452748,6.7789372248,24,5,7.421,39.912912038368,1.312336,3.1988242,4.1288715232,0,0,0,87.5, -1.1, -0.6,0,0,1024,1024,1024,1024,0,0,0,0,97.6,-18.6,0,22,3.714,3.708,0,0,0,0,4.865,115.34,38.928660038368,0.328084,6,P-GPS,
11100,2022-10-27 20:42:09,-34.9108323959117,-56.1438296998129,0.328084,0.656168,38.272492038368,38.928660038368,1.968504,0,4.0707350384,6.7875002172,24,5,7.421,39.912912038368,1.312336,3.1988242,4.1288715232,0,0,0,87.2, -0.8, -0.3,0,0,1024,1024,1024,1020,0,0,0,-1,97.6,-18.6,0,22,3.714,3.708,0,0,0,0,4.865,115.34,38.928660038368,0.328084,6,P-GPS,
11200,2022-10-27 20:42:09,-34.9108324051515,-56.1438297815052,0.328084,0.656168,38.272492038368,38.928660038368,1.968504,0,4.0560368752,6.812172134,24,5,7.421,39.912912038368,1.312336,3.1988242,4.1288715232,0,0,0,87.3, -0.9, 1,0,0,1024,1024,1024,1024,0,0,0,0,97.6,-18.6,0,22,3.714,3.708,0,0,0,0,4.865,115.34,38.928660038368,0.328084,6,P-GPS,
11300,2022-10-27 20:42:09,-34.9108324550064,-56.1438298034681,0.328084,0.656168,38.272492038368,38.928660038368,1.968504,0,4.064468634,6.83152909,24,5,7.421,39.912912038368,1.312336,3.1988242,4.1288715232,0,0,0,87.2, -1.2, 1.3,0,0,1024,1024,1024,1024,0,0,0,0,97.6,-18.6,0,22,3.714,3.708,0,0,0,0,4.865,115.34,38.928660038368,0.328084,6,P-GPS,
11400,2022-10-27 20:42:09,-34.9108325243585,-56.1438298214513,0.328084,0.6233596,38.305300438368,38.928660038368,1.968504,0,4.0789371384,6.8573821092,24,5,7.421,39.912912038368,1.312336,3.1988242,4.1288715232,0,0,0,87.1, -1, 0.2,0,0,1024,1024,1024,1024,0,0,0,0,97.6,-18.6,0,22,3.712,3.706,0,0,0,0,4.865,115.34,38.928660038368,0.328084,6,P-GPS,
11500,2022-10-27 20:42:09,-34.9108326236024,-56.1438298345195,0.328084,0.6233596,38.305300438368,38.928660038368,1.968504,0,4.1024607612,6.8937994332,24,5,7.421,39.912912038368,1.312336,3.1988242,4.1288715232,0,0,0,87.1, -0.9, -1,0,0,1024,1024,1024,1024,0,0,0,0,97.6,-18.6,0,22,3.712,3.706,0,0,0,0,4.865,115.34,38.928660038368,0.328084,6,P-GPS,
11600,2022-10-27 20:42:09,-34.9108327367679,-56.1438297466024,0.328084,0.6233596,38.305300438368,38.928660038368,1.968504,0,4.1505578756,6.9427823744,24,5,7.421,39.912912038368,1.312336,3.1988242,4.1505578756,0,0,0,87, -0.7, -1.6,0,0,1024,1024,1024,1024,0,0,0,0,97.6,-18.6,0,22,3.712,3.706,0,0,0,0,4.865,115.34,38.928660038368,0.328084,6,P-GPS,
11700,2022-10-27 20:42:09,-34.910832847831,-56.1438296720667,0.328084,0.6233596,38.305300438368,38.928660038368,1.968504,0,4.1953413416,6.98900941,24,5,7.421,39.912912038368,1.312336,3.1988242,4.1953413416,0,0,0,87, -0.4, -2.3,0,0,1024,1024,1024,1024,0,0,0,0,97.6,-18.6,0,22,3.712,3.706,0,0,0,0,4.865,115.34,38.928660038368,0.328084,6,P-GPS,
11800,2022-10-27 20:42:09,-34.9108329329416,-56.1438296305248,0.328084,0.6233596,38.305300438368,38.928660038368,1.968504,0,4.2265093216,7.022473978,24,5,7.421,39.912912038368,1.312336,3.1988242,4.2265093216,0,0,0,87.1, -0.6, -2.2,0,0,1024,1024,1024,1024,0,0,0,0,97.6,-18.6,0,22,3.712,3.706,0,0,0,0,4.865,115.34,38.928660038368,0.328084,6,P-GPS,
11900,2022-10-27 20:42:09,-34.9108330096072,-56.1438296016686,0.328084,0.6233596,38.305300438368,38.928660038368,1.968504,0,4.2528872752,7.0517390708,24,5,7.421,39.912912038368,1.312336,3.1988242,4.2528872752,0,0,0,87.3, -0.6, -2.9,0,0,1024,1024,1024,1024,0,0,0,0,97.6,-18.6,0,22,3.712,3.706,0,0,0,0,4.865,115.34,38.928660038368,0.328084,6,P-GPS,
12000,2022-10-27 20:42:10,-34.9108330897038,-56.1438295990066,0.328084,0.6233596,38.305300438368,38.928660038368,1.968504,0,4.2749017116,7.0809713552,24,5,7.421,39.912912038368,1.312336,3.1988242,4.2749017116,0,0,0,87.3, -1, -2.2,0,0,1024,1110,1024,1024,0,13,0,0,97.6,-18.6,0,22,3.712,3.706,0,0,0,0,4.865,115.34,38.928660038368,0.328084,6,P-GPS,
12100,2022-10-27 20:42:10,-34.9108331304768,-56.1438296227258,0,0.2952756,38.305300438368,38.600576038368,1.968504,0,4.2811024992,7.097441172,24,5,7.421,39.912912038368,1.312336,3.1988242,4.2811024992,0,0,0,87.1, -1.3, -2,0,0,1024,1684,1024,1024,0,100,0,0,97.6,-18.6,0,22,3.712,3.706,0,0,0,0,4.865,115.34,38.600576038368,0,6,P-GPS,
12200,2022-10-27 20:42:10,-34.9108331758469,-56.1438296212198,0,0.2952756,38.305300438368,38.600576038368,1.968504,0,4.2936681164,7.114009414,24,5,7.421,39.912912038368,1.312336,3.1988242,4.2936681164,0,0,0,87.2, -0.6, 4.4,0,0,1024,1684,1024,959,0,100,0,-10,97.6,-18.6,0,22,3.712,3.706,0,0,0,0,4.865,115.34,38.600576038368,0,6,P-GPS,
12300,2022-10-27 20:42:10,-34.9108332924255,-56.1438296129056,0,0.2952756,38.305300438368,38.600576038368,1.968504,0.223694,4.326935834,7.1566275256,24,5,7.418,39.912912038368,1.312336,3.1988242,4.326935834,-0.223694,0,0,87.6, -0.6, 16,0,0,1024,1684,1024,889,0,100,0,-20,97.6,-18.6,0,22,3.711,3.706,0,0,0,0,4.78,115.34,38.600576038368,0,6,P-GPS,
12400,2022-10-27 20:42:10,-34.9108335873937,-56.1438295908386,0,0.2624672,38.338108838368,38.600576038368,1.968504,0.894776,4.4120080152,7.264435928,24,5,7.418,39.912912038368,1.312336,3.1988242,4.4120080152,-0.894776,0,0,87.3, -0.5, 19.9,0,0,1024,1468,1024,890,0,67,0,-20,97.5,-18.6,0,22,3.711,3.706,0,0,0,0,4.78,115.34,38.600576038368,0,6,P-GPS,
12500,2022-10-27 20:42:10,-34.9108341433396,-56.1438296152258,0,0.2624672,38.338108838368,38.600576038368,1.968504,1.789552,4.562500146,7.4674214988,24,5,7.418,39.912912038368,1.312336,3.1988242,4.562500146,-1.789552,0,0,86.9, -0.4, 19.7,0,0,1024,1024,1024,913,0,0,0,-17,97.3,-18.6,0,22,3.711,3.706,0,0,0,0,4.78,115.34,38.600576038368,0,6,P-GPS,
12600,2022-10-27 20:42:10,-34.910835067918,-56.1438294977983,0,0.3608924,38.239683638368,38.600576038368,1.968504,2.684328,4.849573646,7.8065619296,24,5,7.418,39.912912038368,1.312336,3.1988242,4.849573646,-2.684328,0,0,86.6, 0, 13.7,0,0,1024,1024,1024,512,0,0,0,-78,97,-18.6,0,22,3.711,3.706,0,0,0,0,4.78,115.34,38.600576038368,0,6,P-GPS,
12700,2022-10-27 20:42:10,-34.9108362684981,-56.1438293491166,0,0.3608924,38.239683638368,38.600576038368,1.968504,3.131716,5.2310369128,8.2468506576,24,5,7.418,39.912912038368,1.312336,3.1988242,5.2310369128,-3.131716,0,0,86.1, 0, -1.3,0,0,1024,1024,1024,512,0,0,0,-78,96.8,-18.6,0,22,3.711,3.706,0,0,0,0,4.78,115.34,38.600576038368,0,6,P-GPS,
12800,2022-10-27 20:42:10,-34.9108374643541,-56.1438292079227,0,0.328084,38.272492038368,38.600576038368,1.968504,2.908022,5.6184385,8.68520369,24,5,7.418,39.912912038368,1.312336,3.1988242,5.6184385,-2.908022,0,0,85.4, -0.1, -12.7,0,0,1024,1024,1002,364,0,0,-3,-100,95.6,-18.6,0,22,3.711,3.706,0,0,0,0,4.78,115.34,38.600576038368,0,6,P-GPS,
12900,2022-10-27 20:42:10,-34.9108386373582,-56.1438289656937,0,0.328084,38.272492038368,38.600576038368,1.968504,2.460634,6.0210631848,9.119258822,24,5,7.418,39.912912038368,1.312336,3.1988242,6.0210631848,-2.460634,0,0,83.6, -0.9, -14,0,0,1024,1024,1024,606,0,0,0,-63,91.8,-18.6,0,22,3.711,3.706,0,0,0,0,4.78,115.34,38.600576038368,0,6,P-GPS,
13000,2022-10-27 20:42:11,-34.9108396191096,-56.1438288849932,0,0.328084,38.272492038368,38.600576038368,1.968504,2.013246,6.3433072896,9.4782811432,24,5,7.418,39.912912038368,1.312336,3.1988242,6.3433072896,-2.013246,0,0,79.7, -1.8, -12.5,0,0,1024,1024,1024,1024,0,0,0,0,87.7,-18.6,0,22,3.711,3.706,0,0,0,0,4.78,115.34,38.600576038368,0,6,P-GPS,
13100,2022-10-27 20:42:11,-34.9108404876255,-56.1438288183427,0,0.328084,38.272492038368,38.600576038368,2.296588,1.565858,6.6308401072,9.79576803,24,5,7.418,39.912912038368,1.312336,3.1988242,6.6308401072,-1.565858,0,0,76.7, -2.1, -10.6,0,0,1024,1024,1024,977,0,0,0,-7,85.9,-18.6,0,22,3.711,3.706,0,0,0,0,4.78,115.34,38.600576038368,0,6,P-GPS,
13200,2022-10-27 20:42:11,-34.9108410901075,-56.1438288556476,0,0.328084,38.272492038368,38.600576038368,2.296588,1.11847,6.8204070424,10.0158795856,24,5,7.418,39.912912038368,1.312336,3.1988242,6.8204070424,-1.11847,0,0,75.6, -1.7, -8.3,0,0,1024,1024,1001,773,0,0,-3,-38,85.1,-18.6,0,22,3.711,3.706,0,0,0,0,4.78,115.34,38.600576038368,0,6,P-GPS,
13300,2022-10-27 20:42:11,-34.9108418506136,-56.1438291228649,0,0.328084,38.272492038368,38.600576038368,2.296588,0.671082,7.0335960256,10.304626314,24,5,7.418,39.912912038368,1.312336,3.1988242,7.0335960256,-0.671082,0,0,74.8, -1.5, -6.6,0,0,1024,1024,1024,1024,0,0,0,0,84.7,-18.6,0,22,3.711,3.706,0,0,0,0,4.78,115.34,38.600576038368,0,6,P-GPS,
13400,2022-10-27 20:42:11,-34.9108421118844,-56.1438292290466,0,0.328084,38.272492038368,38.600576038368,2.296588,0.447388,7.1062338232,10.4051184432,24,5,7.419,39.912912038368,1.312336,3.1988242,7.1062338232,-0.447388,0,0,74.3, -1.1, -5.4,0,0,1024,1024,1024,1024,0,0,0,0,84.2,-18.6,0,22,3.708,3.703,0,0,0,0,4.661,115.34,38.600576038368,0,6,P-GPS,
13500,2022-10-27 20:42:11,-34.9108422987582,-56.1438293586354,0,0.328084,38.272492038368,38.600576038368,2.296588,0.223694,7.1519359244,10.4835305192,23,5,7.419,39.912912038368,1.312336,3.1988242,7.1519359244,-0.223694,0,0,73.8, -1.3, -4.7,0,0,1024,1024,1024,1024,0,0,0,0,83.9,-18.6,0,22,3.708,3.703,0,0,0,0,4.661,115.34,38.600576038368,0,6,P-GPS,
13600,2022-10-27 20:42:11,-34.9108423715854,-56.143829510797,0,0.2296588,38.370917238368,38.600576038368,2.296588,0,7.157480544,10.536253618,23,5,7.419,39.912912038368,1.312336,3.1988242,7.157480544,0,0,0,73.5, -1.4, -3.8,0,0,1024,1024,1024,1024,0,0,0,0,83.8,-18.6,0,22,3.708,3.703,0,0,0,0,4.661,115.34,38.600576038368,0,6,P-GPS,
13700,2022-10-27 20:42:11,-34.9108423990247,-56.1438296795255,0,0.2296588,38.370917238368,38.600576038368,2.296588,0,7.1462272628,10.5877299976,23,5,7.419,39.912912038368,1.312336,3.1988242,7.157480544,0,0,0,73.4, -1.2, -3.4,0,0,1024,1024,1024,1024,0,0,0,0,83.8,-18.6,0,22,3.708,3.703,0,0,0,0,4.661,115.34,38.600576038368,0,6,P-GPS,
13800,2022-10-27 20:42:11,-34.9108421395631,-56.1438298172421,0,0.2296588,38.370917238368,38.600576038368,2.296588,0,7.042979228,10.690945224,23,5,7.419,39.912912038368,1.312336,3.1988242,7.157480544,0,0,0,73.3, -1.1, -3,0,0,1024,1024,1024,1024,0,0,0,0,83.8,-18.6,0,22,3.708,3.703,0,0,0,0,4.661,115.34,38.600576038368,0,6,P-GPS,
13900,2022-10-27 20:42:12,-34.9108418147081,-56.1438299626729,0,0.2296588,38.370917238368,38.600576038368,2.296588,0,6.9169621636,10.8172247556,23,5,7.419,39.912912038368,1.312336,3.1988242,7.157480544,0,0,0,73.4, -1.4, -2.2,0,0,1024,1024,1024,1024,0,0,0,0,83.8,-18.6,0,22,3.708,3.703,0,0,0,0,4.661,115.34,38.600576038368,0,6,P-GPS,
14000,2022-10-27 20:42:12,-34.9108417635407,-56.1438300120447,0,0.2296588,38.370917238368,38.600576038368,2.296588,0,6.8939306668,10.8410108456,23,5,7.419,39.912912038368,1.312336,3.1988242,7.157480544,0,0,0,73.4, -1.9, -1.8,0,0,1024,1024,1024,1024,0,0,0,0,83.8,-18.6,0,22,3.708,3.703,0,0,0,0,4.661,115.34,38.600576038368,0,6,P-GPS,
14100,2022-10-27 20:42:12,-34.9108417510294,-56.1438300368355,0,0.2296588,38.370917238368,38.600576038368,2.296588,0,6.8867784356,10.84973788,23,5,7.419,39.912912038368,1.312336,3.1988242,7.157480544,0,0,0,73.2, -1.7, -2,0,0,1024,1024,711,1024,0,0,-47,0,83.8,-18.6,0,22,3.708,3.703,0,0,0,0,4.661,115.34,38.600576038368,0,6,P-GPS,
14200,2022-10-27 20:42:12,-34.910841878789,-56.1438297966925,0,0.2296588,38.370917238368,38.600576038368,2.296588,0,6.9584319812,10.935367804,23,5,7.419,39.912912038368,1.312336,3.1988242,7.157480544,0,0,0,73.4, -1.8, -2.6,0,0,1024,1024,801,1024,0,0,-34,0,83.8,-18.6,0,22,3.708,3.703,0,0,0,0,4.661,115.34,38.600576038368,0,6,P-GPS,
14300,2022-10-27 20:42:12,-34.9108418824074,-56.1438297904266,-0.328084,-0.098425199999999,38.370917238368,38.272492038368,2.296588,0,6.9604004852,10.937664392,23,5,7.419,39.912912038368,1.312336,3.1988242,7.157480544,0,0,0.223694,73.5, -2, -0.6,0,0,1024,1024,953,1024,0,0,-11,0,83.8,-18.6,0,22,3.708,3.703,0,0,0,0,4.661,115.34,38.272492038368,-0.328084,6,P-GPS,
14400,2022-10-27 20:42:12,-34.9108419042057,-56.1438297984819,-0.328084,-0.098425199999999,38.370917238368,38.272492038368,1.968504,0,6.9666668896,10.9459977256,23,5,7.419,39.912912038368,1.312336,3.1988242,7.157480544,0,0,0.223694,73.3, -1.4, -0.1,0,0,1024,1024,1015,1024,0,0,-1,0,83.8,-18.6,0,22,3.708,3.703,0,0,0,0,4.661,115.34,38.272492038368,-0.328084,6,P-GPS,
14500,2022-10-27 20:42:12,-34.9108419365026,-56.1438298040283,-0.328084,-0.098425199999999,38.370917238368,38.272492038368,1.968504,0,6.9767718768,10.9578743664,23,5,7.413,39.912912038368,1.312336,3.1988242,7.157480544,0,0,0.223694,73.1, -1.1, -0.3,0,0,1024,1024,1009,1024,0,0,-2,0,83.8,-18.6,0,22,3.709,3.703,0,0,0,0,4.573,115.34,38.272492038368,-0.328084,6,P-GPS,
14600,2022-10-27 20:42:12,-34.9108421438785,-56.1438297713621,-0.328084,-0.098425199999999,38.370917238368,38.272492038368,1.968504,0,7.0499346088,11.0341867048,23,5,7.413,39.912912038368,1.312336,3.1988242,7.157480544,0,0,0,73, -1.3, -0.4,0,0,1024,1024,1009,1024,0,0,-2,0,83.8,-18.6,0,22,3.709,3.703,0,0,0,0,4.573,115.34,38.272492038368,-0.328084,6,P-GPS,
14700,2022-10-27 20:42:12,-34.9108421871755,-56.1438297750637,-0.328084,-0.098425199999999,38.370917238368,38.272492038368,1.968504,0,7.0639437956,11.0500003536,23,5,7.413,39.912912038368,1.312336,3.1988242,7.157480544,0,0,0,73.1, -0.8, -0.8,0,0,1024,1024,1024,1024,0,0,0,0,83.8,-18.6,0,22,3.709,3.703,0,0,0,0,4.573,115.34,38.272492038368,-0.328084,6,P-GPS,
14800,2022-10-27 20:42:12,-34.9108422079854,-56.1438297602488,-0.328084,-0.098425199999999,38.370917238368,38.272492038368,1.968504,0,7.07267083,11.0587930048,23,5,7.413,39.912912038368,1.312336,3.1988242,7.157480544,0,0,0,73.1, -1, -1,0,0,1024,1024,1024,1024,0,0,0,0,83.8,-18.6,0,22,3.709,3.703,0,0,0,0,4.573,115.34,38.272492038368,-0.328084,6,P-GPS,
14900,2022-10-27 20:42:13,-34.910842222573,-56.1438297495723,-0.328084,-0.098425199999999,38.370917238368,38.272492038368,1.968504,0,7.0788388092,11.0649937924,23,5,7.413,39.912912038368,1.312336,3.1988242,7.157480544,0,0,0,73.2, -1.3, -0.1,0,0,1024,1024,1024,1024,0,0,0,0,83.8,-18.6,0,22,3.709,3.703,0,0,0,0,4.573,115.34,38.272492038368,-0.328084,6,P-GPS,
15000,2022-10-27 20:42:13,-34.9108422481266,-56.1438296572499,-0.328084,-0.098425199999999,38.370917238368,38.272492038368,1.968504,0,7.0985238492,11.09416046,23,5,7.413,39.912912038368,1.312336,3.1988242,7.157480544,0,0,0,73.2, -1.6, -0.5,0,0,1024,1024,1024,1024,0,0,0,0,83.8,-18.6,0,22,3.709,3.703,0,0,0,0,4.573,115.34,38.272492038368,-0.328084,6,P-GPS,
15100,2022-10-27 20:42:13,-34.9108422846314,-56.1438296407041,-0.328084,-0.098425199999999,38.370917238368,38.272492038368,1.968504,0,7.112697078,11.1083664972,23,5,7.413,39.912912038368,1.312336,3.1988242,7.157480544,0,0,0,73.1, -1.9, -0.9,0,0,1024,1024,1024,1024,0,0,0,0,83.8,-18.6,0,22,3.709,3.703,0,0,0,0,4.573,115.34,38.272492038368,-0.328084,6,P-GPS,
15200,2022-10-27 20:42:13,-34.9108423550583,-56.1438296281413,-0.328084,-0.098425199999999,38.370917238368,38.272492038368,1.968504,0,7.1377298872,11.13435075,23,5,7.413,39.912912038368,1.312336,3.1988242,7.157480544,0,0,0,73.1, -1.1, -1.6,0,0,1024,1024,1024,1024,0,0,0,0,83.8,-18.6,0,22,3.709,3.703,0,0,0,0,4.573,115.34,38.272492038368,-0.328084,6,P-GPS,
15300,2022-10-27 20:42:13,-34.9108424337969,-56.1438296185212,-0.328084,-0.098425199999999,38.370917238368,38.272492038368,1.968504,0,7.1651577096,11.163222142,23,5,7.413,39.912912038368,1.312336,3.1988242,7.1651577096,0,0,0,73.2, -1.1, -1.9,0,0,1024,1024,1024,1232,0,0,0,32,83.8,-18.6,0,22,3.709,3.703,0,0,0,0,4.573,115.34,38.272492038368,-0.328084,6,P-GPS,
15400,2022-10-27 20:42:13,-34.9108424623989,-56.1438296116716,-0.328084,-0.098425199999999,38.370917238368,38.272492038368,1.968504,0,7.1755579724,11.1738520636,23,5,7.413,39.912912038368,1.312336,3.1988242,7.1755579724,0,0,0,73.2, -1.5, -2.2,0,0,1024,1024,1024,1339,0,0,0,48,83.8,-18.6,0,22,3.709,3.703,0,0,0,0,4.573,115.34,38.272492038368,-0.328084,6,P-GPS,
15500,2022-10-27 20:42:13,-34.910842495466,-56.1438296155073,-0.328084,-0.098425199999999,38.370917238368,38.272492038368,1.968504,0,7.1861222772,11.1859583632,23,5,7.403,39.912912038368,1.312336,3.1988242,7.1861222772,0,0,0,73.4, -1.5, -1.8,0,0,1024,1024,1024,1024,0,0,0,0,84.2,-18.6,0,22,3.706,3.701,0,0,0,0,4.834,115.34,38.272492038368,-0.328084,6,P-GPS,
15600,2022-10-27 20:42:13,-34.9108424947756,-56.1438296102449,-0.328084,-0.098425199999999,38.370917238368,38.272492038368,1.968504,0,7.1865487864,11.1875659748,23,5,7.403,39.912912038368,1.312336,3.1988242,7.1865487864,0,0,0,74.3, -1.1, -1.1,0,0,1024,1024,1024,1024,0,0,0,0,85.4,-18.6,0,22,3.706,3.701,0,0,0,0,4.834,115.34,38.272492038368,-0.328084,6,P-GPS,
15700,2022-10-27 20:42:13,-34.9108424899521,-56.1438296030482,-0.656168,-0.4265092,38.370917238368,37.944408038368,1.968504,0,7.1857941932,11.1903218804,23,5,7.403,39.912912038368,1.312336,3.1988242,7.1865487864,0,0,0,75.2, -1.2, -1.1,0,0,1024,1024,1024,1024,0,0,0,0,86.1,-18.6,0,22,3.706,3.701,0,0,0,0,4.834,115.34,37.944408038368,-0.656168,6,P-GPS,
15800,2022-10-27 20:42:13,-34.9108424836794,-56.1438295632305,-0.656168,-0.4265092,38.370917238368,37.944408038368,1.968504,0,7.188484482,11.2024609884,23,5,7.403,39.912912038368,1.312336,3.1988242,7.188484482,0,0,0,75.7, -1.3, -1,0,0,1024,1024,1024,1024,0,0,0,0,86.3,-18.6,0,22,3.706,3.701,0,0,0,0,4.834,115.34,37.944408038368,-0.656168,6,P-GPS,
15900,2022-10-27 20:42:13,-34.9108424917565,-56.143829452601,-0.656168,-0.328084,38.272492038368,37.944408038368,1.968504,0,7.2045934064,11.2356958976,23,5,7.403,39.912912038368,1.312336,3.1988242,7.2045934064,0,0,0,75.7, -1.1, -1,0,0,1024,1024,1024,1024,0,0,0,0,86.3,-18.6,0,22,3.706,3.701,0,0,0,0,4.834,115.34,37.944408038368,-0.656168,6,P-GPS,
16000,2022-10-27 20:42:14,-34.9108424552842,-56.1438294306639,-0.656168,-0.328084,38.272492038368,37.944408038368,1.968504,0,7.1951445872,11.2505252944,23,5,7.403,39.912912038368,1.312336,3.1988242,7.2045934064,0,0,0,75.7, -1, -0.7,0,0,1024,1024,1024,1024,0,0,0,0,86.3,-18.6,0,22,3.706,3.701,0,0,0,0,4.834,115.34,37.944408038368,-0.656168,6,P-GPS,
16100,2022-10-27 20:42:14,-34.9108424103913,-56.1438294200582,-0.656168,-0.328084,38.272492038368,37.944408038368,1.968504,0,7.1814962928,11.26722477,23,5,7.403,39.912912038368,1.312336,3.1988242,7.2045934064,0,0,0,75.8, -1.2, -0.3,0,0,1024,1024,1024,1459,0,0,0,66,86.3,-18.6,0,22,3.706,3.701,0,0,0,0,4.834,115.34,37.944408038368,-0.656168,6,P-GPS,
16200,2022-10-27 20:42:14,-34.910842386173,-56.1438294213409,-0.656168,-0.328084,38.272492038368,37.944408038368,1.968504,0,7.1732613844,11.2760502296,23,5,7.403,39.912912038368,1.312336,3.1988242,7.2045934064,0,0,0,75.8, -1.1, -0.3,0,0,1024,1024,1024,1148,0,0,0,19,86.5,-18.6,0,22,3.706,3.701,0,0,0,0,4.834,115.34,37.944408038368,-0.656168,6,P-GPS,
16300,2022-10-27 20:42:14,-34.9108423423679,-56.1438294659741,-0.656168,-0.328084,38.272492038368,37.944408038368,1.968504,0,7.153215452,11.2968835636,23,5,7.403,39.912912038368,1.312336,3.1988242,7.2045934064,0,0,0,76.6, -1.3, -0.6,0,0,1024,1024,1024,1024,0,0,0,0,88.1,-18.6,0,22,3.706,3.701,0,0,0,0,4.834,115.34,37.944408038368,-0.656168,6,P-GPS,
16400,2022-10-27 20:42:14,-34.9108423444442,-56.1438294272174,-0.656168,-0.328084,38.272492038368,37.944408038368,1.968504,0,7.1586616464,11.3084977372,23,5,7.403,39.912912038368,1.312336,3.1988242,7.2045934064,0,0,0,78.1, -1.6, -0.3,0,0,1024,1024,1024,1024,0,0,0,0,89.4,-18.6,0,22,3.706,3.701,0,0,0,0,4.834,115.34,37.944408038368,-0.656168,6,P-GPS,
16500,2022-10-27 20:42:14,-34.9108423524919,-56.1438293663685,-0.656168,-0.328084,38.272492038368,37.944408038368,1.968504,0,7.1688322504,11.3269688664,23,5,7.403,39.912912038368,1.312336,3.1988242,7.2045934064,0,0,0,78.8, -0.9, -0.1,0,0,1024,1024,1024,1024,0,0,0,0,89.9,-18.6,0,22,3.706,3.701,0,0,0,0,4.834,115.34,37.944408038368,-0.656168,6,P-GPS,
16600,2022-10-27 20:42:14,-34.9108423785031,-56.1438293315911,-0.656168,-0.328084,38.272492038368,37.944408038368,1.968504,0,7.1817915684,11.34104367,23,5,7.403,39.912912038368,1.312336,3.1988242,7.2045934064,0,0,0,78.9, -0.8, -0.5,0,0,1024,1024,1024,1487,0,0,0,70,90,-18.6,0,22,3.706,3.701,0,0,0,0,4.834,115.34,37.944408038368,-0.656168,6,P-GPS,
16700,2022-10-27 20:42:14,-34.9108424751431,-56.1438292757496,-0.656168,-0.328084,38.272492038368,37.944408038368,1.968504,0,7.220800756,11.3800528576,23,5,7.403,39.912912038368,1.312336,3.1988242,7.220800756,0,0,0,79, -0.8, -1.1,0,0,1024,1024,1024,1499,0,0,0,72,90.4,-18.6,0,22,3.706,3.701,0,0,0,0,4.834,115.34,37.944408038368,-0.656168,6,P-GPS,
