time(millisecond),datetime(utc),latitude,longitude,height_above_takeoff(feet),height_above_ground_at_drone_location(feet),ground_elevation_at_drone_location(feet),altitude_above_seaLevel(feet),height_sonar(feet),speed(mph),distance(feet),mileage(feet),satellites,gpslevel,voltage(v),max_altitude(feet),max_ascent(feet),max_speed(mph),max_distance(feet), xSpeed(mph), ySpeed(mph), zSpeed(mph), compass_heading(degrees), pitch(degrees), roll(degrees),isPhoto,isVideo,rc_elevator,rc_aileron,rc_throttle,rc_rudder,rc_elevator(percent),rc_aileron(percent),rc_throttle(percent),rc_rudder(percent),gimbal_heading(degrees),gimbal_pitch(degrees),gimbal_roll(degrees),battery_percent,voltageCell1,voltageCell2,voltageCell3,voltageCell4,voltageCell5,voltageCell6,current(A),battery_temperature(f),altitude(feet),ascent(feet),flycStateRaw,flycState,message
0,2022-08-15 23:27:28,0,0,0,,,3.28084E-5,0.328084,0,0,0,0,0,0,3.28084E-5,0,0,0,0,0,0,205.2, 3.1, 0.4,0,0,364,364,364,1684,-100,-100,-100,100,205.3,0,0,97,4.326,4.321,0,0,0,0,0,73.76,3.28084E-5,0,41,Motors_Started,"Vuela con cuidado (sin GPS) Sin señal GPS. La aeronave no puede hacer vuelo estacionario. Vuela con cuidado (Code: 30008). Señal débil del GPS. Vuelo estacionario inestable. Vuela con cuidado (Code: 30002)"
100,2022-08-15 23:27:28,0,0,0,,,3.28084E-5,0.328084,0,0,0,0,0,0,3.28084E-5,0,0,0,0,0,0,205.3, 3.1, 0.5,0,0,364,364,364,1684,-100,-100,-100,100,205.3,0,0,97,4.326,4.321,0,0,0,0,0,73.76,3.28084E-5,0,41,Motors_Started,
200,2022-08-15 23:27:28,0,0,0,,,3.28084E-5,0.328084,0,0,0,0,0,0,3.28084E-5,0,0,0,0,0,0,205.3, 3.1, 0.4,0,0,364,364,364,1684,-100,-100,-100,100,205.3,0,0,97,4.326,4.321,0,0,0,0,0,73.76,3.28084E-5,0,41,Motors_Started,
300,2022-08-15 23:27:28,0,0,0,,,3.28084E-5,0.328084,0,0,0,0,0,0,3.28084E-5,0,0,0,0,0,0,205.3, 3.1, 0.5,0,0,504,540,648,1407,-79,-73,-57,58,205.3,0,0,97,4.326,4.321,0,0,0,0,0,73.76,3.28084E-5,0,41,Motors_Started,
400,2022-08-15 23:27:28,0,0,0,,,3.28084E-5,0.328084,0,0,0,0,0,0,3.28084E-5,0,0,0,0,0,0,205.3, 3.1, 0.5,0,0,1024,1024,1024,1024,0,0,0,0,205.3,0,0,97,4.326,4.321,0,0,0,0,0,73.76,3.28084E-5,0,41,Motors_Started,
500,2022-08-15 23:27:28,0,0,0,,,3.28084E-5,0.328084,0,0,0,0,0,0,3.28084E-5,0,0,0,0,0,0,205.3, 3.1, 0.4,0,0,1024,1024,1024,1024,0,0,0,0,205.3,0,0,97,4.326,4.321,0,0,0,0,0,73.76,3.28084E-5,0,41,Motors_Started,
600,2022-08-15 23:27:29,0,0,0,,,3.28084E-5,0.328084,0,0,0,0,0,0,3.28084E-5,0,0,0,0,0,0,205.3, 3.1, 0.4,0,0,1024,1024,1024,1024,0,0,0,0,205.3,0,0,97,4.326,4.321,0,0,0,0,0,73.76,3.28084E-5,0,41,Motors_Started,
700,2022-08-15 23:27:29,0,0,0,,,3.28084E-5,0.328084,0,0,0,0,0,0,3.28084E-5,0,0,0,0,0,0,205.3, 3.1, 0.5,0,0,1024,1024,1024,1024,0,0,0,0,205.3,0,0,97,4.326,4.321,0,0,0,0,0,73.76,3.28084E-5,0,41,Motors_Started,
800,2022-08-15 23:27:29,0,0,0,,,3.28084E-5,0.328084,0,0,0,0,0,0,3.28084E-5,0,0,0,0,0,0,205.3, 3.1, 0.4,0,0,1024,1024,1033,1024,0,0,1,0,205.3,0,0,97,4.326,4.321,0,0,0,0,0,73.76,3.28084E-5,0,41,Motors_Started,"Setting new Return-To-Home altitude to 15m (49 ft). Data Recorder File Index is 72. Setting new Maximum Flight Altitude to 30m (98 ft)"
900,2022-08-15 23:27:29,0,0,0,,,3.28084E-5,0.328084,0,0,0,0,0,0,3.28084E-5,0,0,0,0,0,0,205.3, 3.1, 0.5,0,0,1024,1024,1317,1024,0,0,44,0,205.2,0,0,97,4.326,4.321,0,0,0,0,0,73.76,3.28084E-5,0,41,Motors_Started,
1000,2022-08-15 23:27:29,0,0,0,,,3.28084E-5,0.328084,0,0,0,0,0,0,3.28084E-5,0,0,0,0,0,0,205.3, 3.1, 0.4,0,0,1024,1024,1598,1024,0,0,87,0,205.2,0,0,97,4.326,4.321,0,0,0,0,0,73.76,3.28084E-5,0,41,Motors_Started,
1100,2022-08-15 23:27:29,0,0,0,,,3.28084E-5,0.328084,0,0,0,0,0,0,3.28084E-5,0,0,0,0,0,0,205.3, 3.1, 0.4,0,0,1024,1024,1680,1024,0,0,99,0,205.2,0,0,97,4.326,4.321,0,0,0,0,0,73.76,3.28084E-5,0,10,Assisted_Takeoff,
1200,2022-08-15 23:27:29,0,0,0,,,3.28084E-5,0.328084,0,0,0,0,0,8.672,3.28084E-5,0,0,0,0,0,0,205.3, 3.1, 0.4,0,0,1024,1024,1684,1024,0,0,100,0,205.2,0,0,97,4.326,4.321,0,0,0,0,0.537,73.76,3.28084E-5,0,10,Assisted_Takeoff,
1300,2022-08-15 23:27:29,0,0,0,,,3.28084E-5,0.328084,0,0,0,0,0,8.672,3.28084E-5,0,0,0,0,0,0,205.6, 3.1, 0.4,0,0,1024,1024,1615,1024,0,0,90,0,205.3,0,0,97,4.326,4.321,0,0,0,0,0.537,73.76,3.28084E-5,0,10,Assisted_Takeoff,
1400,2022-08-15 23:27:29,0,0,0,,,3.28084E-5,0.328084,0,0,0,0,0,8.672,3.28084E-5,0,0,0,0,0,0,206, 3, 0.4,0,0,1024,1024,1374,1024,0,0,53,0,205.6,0,0,97,4.326,4.321,0,0,0,0,0.537,73.76,3.28084E-5,0,10,Assisted_Takeoff,
1500,2022-08-15 23:27:30,0,0,0,,,3.28084E-5,0.328084,0,0,0,0,0,8.672,3.28084E-5,0,0,0,0,0,0,206.6, 1.3, 0.4,0,0,1024,1024,1177,1024,0,0,23,0,206,0,0,97,4.326,4.321,0,0,0,0,0.537,73.76,3.28084E-5,0,10,Assisted_Takeoff,
1600,2022-08-15 23:27:30,0,0,0,,,3.28084E-5,0.328084,0,0,0,0,0,8.672,3.28084E-5,0,0,0,0,0,-0.223694,207.4, -1.2, 0.8,0,0,1024,1024,1177,1024,0,0,23,0,206.8,0,0,97,4.326,4.321,0,0,0,0,0.537,73.76,3.28084E-5,0,10,Assisted_Takeoff,
1700,2022-08-15 23:27:30,0,0,0,,,3.28084E-5,0.328084,0,0,0,0,0,8.672,3.28084E-5,0,0,0,0,0,-0.447388,207.5, -0.9, 0.4,0,0,1024,1024,1138,1024,0,0,17,0,207.2,0,0,97,4.326,4.321,0,0,0,0,0.537,73.76,3.28084E-5,0,6,P-GPS,"Señal débil del GPS. Vuelo estacionario inestable. Vuela con cuidado (Code: 30002)"
1800,2022-08-15 23:27:30,0,0,0,,,3.28084E-5,0.328084,0,0,0,0,0,8.672,3.28084E-5,0,0,0,0,0,-0.671082,207.5, -0.3, 0.2,0,0,1024,1024,1090,1024,0,0,10,0,207.2,0,0,97,4.326,4.321,0,0,0,0,0.537,73.76,3.28084E-5,0,6,P-GPS,
1900,2022-08-15 23:27:30,0,0,0.328084,,,0.3281168084,0.656168,0,0,0,0,0,8.672,0.3281168084,0.328084,0,0,0,0,-0.894776,207.4, -0.1, -0.7,0,0,1024,1024,1024,1024,0,0,0,0,207.2,0,0,97,4.326,4.321,0,0,0,0,0.537,73.76,0.3281168084,0.328084,6,P-GPS,
2000,2022-08-15 23:27:30,0,0,0.328084,,,0.3281168084,0.656168,0,0,0,0,0,8.672,0.3281168084,0.328084,0,0,0,0,-0.894776,207.3, 0.1, -0.3,0,0,1024,1024,1024,1024,0,0,0,0,207.2,0,0,97,4.326,4.321,0,0,0,0,0.537,73.76,0.3281168084,0.328084,6,P-GPS,
2100,2022-08-15 23:27:30,0,0,0.328084,,,0.3281168084,0.656168,0,0,0,0,0,8.672,0.3281168084,0.328084,0,0,0,0,-0.894776,207.2, 0.2, -0.1,0,0,1024,1024,1024,1024,0,0,0,0,207.2,0,0,97,4.326,4.321,0,0,0,0,0.537,73.76,0.3281168084,0.328084,6,P-GPS,
2200,2022-08-15 23:27:30,0,0,0.656168,,,0.6562008084,0.984252,0,0,0,0,0,8.624,0.6562008084,0.656168,0,0,0,0,-0.894776,207.2, 0.1, -0.1,0,0,1024,1024,1024,1024,0,0,0,0,207.2,0,0,97,4.313,4.312,0,0,0,0,1.178,73.76,0.6562008084,0.656168,6,P-GPS,
2300,2022-08-15 23:27:30,0,0,0.656168,,,0.6562008084,0.984252,0,0,0,0,0,8.624,0.6562008084,0.656168,0,0,0,0,-0.894776,207.2, 0.2, 0,0,0,1024,1024,1024,1024,0,0,0,0,207.2,0,0,97,4.313,4.312,0,0,0,0,1.178,73.76,0.6562008084,0.656168,6,P-GPS,
2400,2022-08-15 23:27:30,0,0,0.656168,,,0.6562008084,1.312336,0,0,0,0,0,8.624,0.6562008084,0.656168,0,0,0,0,-0.894776,207.2, 0.1, 0,0,0,1024,1024,1024,1024,0,0,0,0,207.2,0,0,97,4.313,4.312,0,0,0,0,1.178,73.76,0.6562008084,0.656168,6,P-GPS,
2500,2022-08-15 23:27:31,0,0,0.984252,,,0.9842848084,1.312336,0,0,0,0,0,8.624,0.9842848084,0.984252,0,0,0,0,-0.671082,207.2, 0, 0,0,0,1024,1024,1024,1024,0,0,0,0,207.2,0,0,97,4.313,4.312,0,0,0,0,1.178,73.76,0.9842848084,0.984252,6,P-GPS,
2600,2022-08-15 23:27:31,0,0,0.984252,,,0.9842848084,1.312336,0,0,0,0,0,8.624,0.9842848084,0.984252,0,0,0,0,-0.671082,207.2, 0, 0,0,0,1024,1024,1024,1024,0,0,0,0,207.2,0,0,97,4.313,4.312,0,0,0,0,1.178,73.76,0.9842848084,0.984252,6,P-GPS,
2700,2022-08-15 23:27:31,0,0,0.984252,,,0.9842848084,1.64042,0,0,0,0,0,8.624,0.9842848084,0.984252,0,0,0,0,-0.447388,207.2, 0, 0,0,0,1024,1024,1024,1024,0,0,0,0,207.2,0,0,97,4.313,4.312,0,0,0,0,1.178,73.76,0.9842848084,0.984252,6,P-GPS,
2800,2022-08-15 23:27:31,0,0,1.312336,,,1.3123688084,1.64042,0,0,0,0,0,8.624,1.3123688084,1.312336,0,0,0,0,-0.223694,207.2, 0, 0,0,0,1024,1024,1346,1024,0,0,49,0,207.2,0,0,97,4.313,4.312,0,0,0,0,1.178,73.76,1.3123688084,1.312336,6,P-GPS,
2900,2022-08-15 23:27:31,0,0,1.312336,,,1.3123688084,1.64042,0,0,0,0,0,8.624,1.3123688084,1.312336,0,0,0,0,-0.223694,207.2, -0.1, 0.2,0,0,1024,1024,1433,1024,0,0,62,0,207.2,0,0,97,4.313,4.312,0,0,0,0,1.178,73.76,1.3123688084,1.312336,6,P-GPS,
3000,2022-08-15 23:27:31,0,0,1.312336,,,1.3123688084,1.64042,0,0,0,0,0,8.624,1.3123688084,1.312336,0,0,0,0,-0.447388,207.2, -0.1, 0.2,0,0,1024,1024,1411,1024,0,0,59,0,207.2,0,0,97,4.313,4.312,0,0,0,0,1.178,73.76,1.3123688084,1.312336,6,P-GPS,"En vuelo"
3100,2022-08-15 23:27:31,0,0,1.64042,,,1.6404528084,1.64042,0,0,0,0,0,8.624,1.6404528084,1.64042,0,0,0,0,-1.11847,207.2, 0.2, 0,0,0,1024,1024,1024,1024,0,0,0,0,207.2,0,0,97,4.313,4.312,0,0,0,0,1.178,73.76,1.6404528084,1.64042,6,P-GPS,
3200,2022-08-15 23:27:31,0,0,1.64042,,,1.6404528084,1.968504,0,0,0,0,0,8.518,1.6404528084,1.64042,0,0,0,0,-1.565858,207.2, 0, -0.3,0,0,1024,1024,1024,1024,0,0,0,0,207.2,0,0,97,4.237,4.23,0,0,0,0,2.551,73.76,1.6404528084,1.64042,6,P-GPS,
3300,2022-08-15 23:27:31,0,0,1.968504,,,1.9685368084,2.296588,0,0,0,0,0,8.518,1.9685368084,1.968504,0,0,0,0,-1.565858,207.2, 0.3, -0.3,0,0,1024,1024,1024,1024,0,0,0,0,207.2,0,0,97,4.237,4.23,0,0,0,0,2.551,73.76,1.9685368084,1.968504,6,P-GPS,
3400,2022-08-15 23:27:31,0,0,2.296588,,,2.2966208084,2.296588,0,0,0,0,0,8.518,2.2966208084,2.296588,0,0,0,0,-1.11847,207.1, 0.3, -0.2,0,0,1024,1024,1024,1024,0,0,0,0,207.2,0,0,97,4.237,4.23,0,0,0,0,2.551,73.76,2.2966208084,2.296588,6,P-GPS,
3500,2022-08-15 23:27:32,0,0,2.296588,,,2.2966208084,2.624672,0,0,0,0,0,8.518,2.2966208084,2.296588,0,0,0,0,-0.671082,207.1, 0.3, -0.1,0,0,1024,1024,1024,1024,0,0,0,0,207.2,0,0,97,4.237,4.23,0,0,0,0,2.551,73.76,2.2966208084,2.296588,6,P-GPS,
3600,2022-08-15 23:27:32,0,0,2.296588,,,2.2966208084,2.624672,0,0,0,0,0,8.518,2.2966208084,2.296588,0,0,0,0,-0.447388,207.2, 0.2, -0.1,0,0,1024,1024,1024,1024,0,0,0,0,207.2,0,0,97,4.237,4.23,0,0,0,0,2.551,73.76,2.2966208084,2.296588,6,P-GPS,
3700,2022-08-15 23:27:32,0,0,2.296588,,,2.2966208084,2.624672,0,0,0,0,0,8.518,2.2966208084,2.296588,0,0,0,0,0,207.4, 0.2, -0.1,0,0,1024,1024,1024,1024,0,0,0,0,207.2,0,0,97,4.237,4.23,0,0,0,0,2.551,73.76,2.2966208084,2.296588,6,P-GPS,
3800,2022-08-15 23:27:32,0,0,2.624672,,,2.6247048084,2.624672,0,0,0,0,0,8.518,2.6247048084,2.624672,0,0,0,0,0,207.6, 0.2, 0,0,0,1024,1024,1024,1024,0,0,0,0,207.2,0,0,97,4.237,4.23,0,0,0,0,2.551,73.76,2.6247048084,2.624672,6,P-GPS,
3900,2022-08-15 23:27:32,0,0,2.624672,,,2.6247048084,2.624672,0,0,0,0,0,8.518,2.6247048084,2.624672,0,0,0,0,0,207.7, 0.2, 0,0,0,1024,1024,1024,1024,0,0,0,0,207.2,0,0,97,4.237,4.23,0,0,0,0,2.551,73.76,2.6247048084,2.624672,6,P-GPS,
4000,2022-08-15 23:27:32,0,0,2.624672,,,2.6247048084,2.624672,0,0,0,0,0,8.518,2.6247048084,2.624672,0,0,0,0,0,207.9, 0.4, -0.1,0,0,1024,1024,1024,1024,0,0,0,0,207.2,0,0,97,4.237,4.23,0,0,0,0,2.551,73.76,2.6247048084,2.624672,6,P-GPS,
4100,2022-08-15 23:27:32,0,0,2.624672,,,2.6247048084,2.624672,0,0,0,0,0,8.518,2.6247048084,2.624672,0,0,0,0,0,208.1, 0.3, 0,0,0,1024,1024,1024,1024,0,0,0,0,207.2,0,0,97,4.237,4.23,0,0,0,0,2.551,73.76,2.6247048084,2.624672,6,P-GPS,
4200,2022-08-15 23:27:32,0,0,2.624672,,,2.6247048084,2.624672,0,0,0,0,0,8.48,2.6247048084,2.624672,0,0,0,0,0,208.2, 0.3, 0,0,0,1024,1024,1024,1024,0,0,0,0,207.2,0,0,97,4.202,4.193,0,0,0,0,4.032,73.76,2.6247048084,2.624672,6,P-GPS,
4300,2022-08-15 23:27:32,0,0,2.624672,,,2.6247048084,2.624672,0,0,0,0,0,8.48,2.6247048084,2.624672,0,0,0,0,0,208.3, 0.3, 0,0,0,1024,1024,1024,1024,0,0,0,0,207.2,0,0,97,4.202,4.193,0,0,0,0,4.032,73.76,2.6247048084,2.624672,6,P-GPS,
4400,2022-08-15 23:27:32,0,0,2.624672,,,2.6247048084,2.624672,0,0,0,0,0,8.48,2.6247048084,2.624672,0,0,0,0,0,208.5, 0.4, 0,0,0,1024,1024,1024,1024,0,0,0,0,207.2,0,0,97,4.202,4.193,0,0,0,0,4.032,73.76,2.6247048084,2.624672,6,P-GPS,
4500,2022-08-15 23:27:33,0,0,2.624672,,,2.6247048084,2.624672,0,0,0,0,0,8.48,2.6247048084,2.624672,0,0,0,0,0,208.6, 0.3, 0.1,0,0,1024,1024,1024,1024,0,0,0,0,207.2,0,0,97,4.202,4.193,0,0,0,0,4.032,73.76,2.6247048084,2.624672,6,P-GPS,
4600,2022-08-15 23:27:33,0,0,2.624672,,,2.6247048084,2.624672,0,0,0,0,0,8.48,2.6247048084,2.624672,0,0,0,0,0,208.7, 0.2, 0,0,0,1024,1024,1024,1024,0,0,0,0,207.2,0,0,97,4.202,4.193,0,0,0,0,4.032,73.76,2.6247048084,2.624672,6,P-GPS,
4700,2022-08-15 23:27:33,0,0,2.624672,,,2.6247048084,2.624672,0,0,0,0,0,8.48,2.6247048084,2.624672,0,0,0,0,0,208.8, 0.2, 0.1,0,0,1024,1024,1024,1024,0,0,0,0,207.2,0,0,97,4.202,4.193,0,0,0,0,4.032,73.76,2.6247048084,2.624672,6,P-GPS,
4800,2022-08-15 23:27:33,0,0,2.624672,,,2.6247048084,2.624672,0,0,0,0,0,8.48,2.6247048084,2.624672,0,0,0,0,0,208.9, 0.3, 0,0,0,1024,1024,1024,1024,0,0,0,0,207.2,0,0,97,4.202,4.193,0,0,0,0,4.032,73.76,2.6247048084,2.624672,6,P-GPS,
4900,2022-08-15 23:27:33,0,0,2.624672,,,2.6247048084,2.624672,0,0,0,0,0,8.48,2.6247048084,2.624672,0,0,0,0,0,209, 0.2, 0,0,0,1024,1024,1024,1024,0,0,0,0,207.2,0,0,97,4.202,4.193,0,0,0,0,4.032,73.76,2.6247048084,2.624672,6,P-GPS,
5000,2022-08-15 23:27:33,0,0,2.624672,,,2.6247048084,2.624672,0,0,0,0,0,8.48,2.6247048084,2.624672,0,0,0,0,0,209.1, 0.2, 0,0,0,1024,1024,1024,1024,0,0,0,0,207.2,0,0,97,4.202,4.193,0,0,0,0,4.032,73.76,2.6247048084,2.624672,6,P-GPS,
5100,2022-08-15 23:27:33,0,0,2.624672,,,2.6247048084,2.624672,0,0,0,0,0,8.48,2.6247048084,2.624672,0,0,0,0,0,209.2, 0.2, 0,0,0,1024,1024,1024,1024,0,0,0,0,207.2,0,0,97,4.202,4.193,0,0,0,0,4.032,73.76,2.6247048084,2.624672,6,P-GPS,
5200,2022-08-15 23:27:33,0,0,2.624672,,,2.6247048084,2.624672,0,0,0,0,0,8.479,2.6247048084,2.624672,0,0,0,0,0,209.3, 0.1, 0,0,0,1024,1024,1024,1024,0,0,0,0,207.2,0,0,97,4.232,4.225,0,0,0,0,4.184,73.76,2.6247048084,2.624672,6,P-GPS,
5300,2022-08-15 23:27:33,0,0,2.624672,,,2.6247048084,2.624672,0,0,0,0,0,8.479,2.6247048084,2.624672,0,0,0,0,0,209.3, 0.2, 0,0,0,1024,1024,1024,1024,0,0,0,0,207.2,0,0,97,4.232,4.225,0,0,0,0,4.184,73.76,2.6247048084,2.624672,6,P-GPS,
5400,2022-08-15 23:27:33,0,0,2.624672,,,2.6247048084,2.624672,0,0,0,0,0,8.479,2.6247048084,2.624672,0,0,0,0,0,209.4, 0.2, 0.1,0,0,1024,1024,1024,1024,0,0,0,0,207.2,0,0,97,4.232,4.225,0,0,0,0,4.184,73.76,2.6247048084,2.624672,6,P-GPS,
5500,2022-08-15 23:27:33,0,0,2.624672,,,2.6247048084,2.624672,0,0,0,0,0,8.479,2.6247048084,2.624672,0,0,0,0,0,209.5, 0.2, 0.1,0,0,1024,1024,1024,1024,0,0,0,0,207.2,0,0,97,4.232,4.225,0,0,0,0,4.184,73.76,2.6247048084,2.624672,6,P-GPS,
5600,2022-08-15 23:27:34,0,0,2.624672,,,2.6247048084,2.624672,0,0,0,0,0,8.479,2.6247048084,2.624672,0,0,0,0,0,209.5, 0.1, 0.1,0,0,1024,1024,1024,1024,0,0,0,0,207.2,0,0,97,4.232,4.225,0,0,0,0,4.184,73.76,2.6247048084,2.624672,6,P-GPS,
5700,2022-08-15 23:27:34,0,0,2.624672,,,2.6247048084,2.624672,0,0,0,0,0,8.479,2.6247048084,2.624672,0,0,0,0,0,209.6, 0.1, 0.1,0,0,1024,1024,1024,1024,0,0,0,0,207.2,0,0,97,4.232,4.225,0,0,0,0,4.184,73.76,2.6247048084,2.624672,6,P-GPS,
5800,2022-08-15 23:27:34,0,0,2.624672,,,2.6247048084,2.624672,0,0,0,0,0,8.479,2.6247048084,2.624672,0,0,0,0,0,209.7, 0.1, 0.2,0,0,1024,1024,1024,1024,0,0,0,0,207.2,0,0,97,4.232,4.225,0,0,0,0,4.184,73.76,2.6247048084,2.624672,6,P-GPS,
5900,2022-08-15 23:27:34,0,0,2.624672,,,2.6247048084,2.624672,0,0,0,0,0,8.479,2.6247048084,2.624672,0,0,0,0,0,209.7, 0.1, 0.1,0,0,1024,1024,1024,1024,0,0,0,0,207.2,0,0,97,4.232,4.225,0,0,0,0,4.184,73.76,2.6247048084,2.624672,6,P-GPS,
6000,2022-08-15 23:27:34,0,0,2.624672,,,2.6247048084,2.624672,0,0,0,0,0,8.479,2.6247048084,2.624672,0,0,0,0,0,209.8, 0.1, 0.1,0,0,1024,1024,1024,1024,0,0,0,0,207.2,0,0,97,4.232,4.225,0,0,0,0,4.184,73.76,2.6247048084,2.624672,6,P-GPS,
6100,2022-08-15 23:27:34,0,0,2.624672,,,2.6247048084,2.624672,0,0,0,0,0,8.479,2.6247048084,2.624672,0,0,0,0,0,209.8, 0.2, 0.3,0,0,1024,1024,1024,1024,0,0,0,0,207.2,0,0,97,4.232,4.225,0,0,0,0,4.184,73.76,2.6247048084,2.624672,6,P-GPS,
6200,2022-08-15 23:27:34,0,0,2.624672,,,2.6247048084,2.624672,0,0,0,0,0,8.449,2.6247048084,2.624672,0,0,0,0,0,209.8, 0.1, 0.2,0,0,1024,1024,1024,1024,0,0,0,0,207.2,0,0,97,4.226,4.22,0,0,0,0,4.11,73.76,2.6247048084,2.624672,6,P-GPS,
6300,2022-08-15 23:27:34,0,0,2.624672,,,2.6247048084,2.624672,0,0,0,0,0,8.449,2.6247048084,2.624672,0,0,0,0,0,209.9, 0.1, 0.2,0,0,1024,1024,1024,1024,0,0,0,0,207.2,0,0,97,4.226,4.22,0,0,0,0,4.11,73.76,2.6247048084,2.624672,6,P-GPS,
6400,2022-08-15 23:27:34,0,0,2.624672,,,2.6247048084,2.624672,0,0,0,0,0,8.449,2.6247048084,2.624672,0,0,0,0,0,209.9, 0.1, 0.2,0,0,1024,1024,1024,1024,0,0,0,0,207.2,0,0,97,4.226,4.22,0,0,0,0,4.11,73.76,2.6247048084,2.624672,6,P-GPS,
6500,2022-08-15 23:27:34,0,0,2.624672,,,2.6247048084,2.624672,0,0,0,0,0,8.449,2.6247048084,2.624672,0,0,0,0,0,209.9, 0, 0.2,0,0,1024,1024,1024,1024,0,0,0,0,207.2,0,0,97,4.226,4.22,0,0,0,0,4.11,73.76,2.6247048084,2.624672,6,P-GPS,
6600,2022-08-15 23:27:35,0,0,2.624672,,,2.6247048084,2.624672,0,0,0,0,0,8.449,2.6247048084,2.624672,0,0,0,0,0,210, 0, 0,0,0,1024,1024,1024,1024,0,0,0,0,207.2,0,0,97,4.226,4.22,0,0,0,0,4.11,73.76,2.6247048084,2.624672,6,P-GPS,
6700,2022-08-15 23:27:35,0,0,2.624672,,,2.6247048084,2.624672,0,0,0,0,0,8.449,2.6247048084,2.624672,0,0,0,0,0,210, 0, 0,0,0,1024,1024,1024,1024,0,0,0,0,207.2,0,0,97,4.226,4.22,0,0,0,0,4.11,73.76,2.6247048084,2.624672,6,P-GPS,
6800,2022-08-15 23:27:35,0,0,2.624672,,,2.6247048084,2.624672,0,0,0,0,0,8.449,2.6247048084,2.624672,0,0,0,0,0,210.1, 0, 0,0,0,1024,1024,1024,1024,0,0,0,0,207.2,0,0,97,4.226,4.22,0,0,0,0,4.11,73.76,2.6247048084,2.624672,6,P-GPS,
6900,2022-08-15 23:27:35,0,0,2.624672,,,2.6247048084,2.624672,0,0,0,0,0,8.449,2.6247048084,2.624672,0,0,0,0,0,210.1, 0.1, 0.1,0,0,1024,1024,1024,1024,0,0,0,0,207.2,0,0,97,4.226,4.22,0,0,0,0,4.11,73.76,2.6247048084,2.624672,6,P-GPS,
7000,2022-08-15 23:27:35,0,0,2.624672,,,2.6247048084,2.624672,0,0,0,0,0,8.449,2.6247048084,2.624672,0,0,0,0,0,210.2, 0.1, 0.3,0,0,1024,1024,1024,1024,0,0,0,0,207.2,0,0,97,4.226,4.22,0,0,0,0,4.11,73.76,2.6247048084,2.624672,6,P-GPS,
7100,2022-08-15 23:27:35,0,0,2.624672,,,2.6247048084,2.624672,0,0,0,0,0,8.449,2.6247048084,2.624672,0,0,0,0,0,210.2, 0.1, 0.3,0,0,1024,1024,1024,1024,0,0,0,0,207.2,0,0,97,4.226,4.22,0,0,0,0,4.11,73.76,2.6247048084,2.624672,6,P-GPS,
7200,2022-08-15 23:27:35,0,0,2.624672,,,2.6247048084,2.624672,0,0,0,0,0,8.444,2.6247048084,2.624672,0,0,0,0,0,210.3, 0.1, 0.4,0,0,1024,1024,1024,1024,0,0,0,0,207.2,0,0,97,4.223,4.217,0,0,0,0,4.112,73.76,2.6247048084,2.624672,6,P-GPS,
7300,2022-08-15 23:27:35,0,0,2.624672,,,2.6247048084,2.624672,0,0,0,0,0,8.444,2.6247048084,2.624672,0,0,0,0,0,210.3, 0.2, 0.3,0,0,1024,1024,1024,1024,0,0,0,0,207.2,0,0,97,4.223,4.217,0,0,0,0,4.112,73.76,2.6247048084,2.624672,6,P-GPS,
7400,2022-08-15 23:27:35,0,0,2.624672,,,2.6247048084,2.624672,0,0,0,0,0,8.444,2.6247048084,2.624672,0,0,0,0,0,210.3, 0, 0.4,0,0,1024,1024,1024,1024,0,0,0,0,207.2,0,0,97,4.223,4.217,0,0,0,0,4.112,73.76,2.6247048084,2.624672,6,P-GPS,
7500,2022-08-15 23:27:36,0,0,2.624672,,,2.6247048084,2.624672,0,0,0,0,0,8.444,2.6247048084,2.624672,0,0,0,0,0,210.3, 0, 0.4,0,0,1024,1024,1024,1024,0,0,0,0,207.2,0,0,97,4.223,4.217,0,0,0,0,4.112,73.76,2.6247048084,2.624672,6,P-GPS,
7600,2022-08-15 23:27:36,0,0,2.624672,,,2.6247048084,2.624672,0,0,0,0,0,8.444,2.6247048084,2.624672,0,0,0,0,0,210.3, -0.2, 0.3,0,0,1024,1024,1024,1024,0,0,0,0,207.2,0,0,97,4.223,4.217,0,0,0,0,4.112,73.76,2.6247048084,2.624672,6,P-GPS,
7700,2022-08-15 23:27:36,0,0,2.624672,,,2.6247048084,2.624672,0,0,0,0,0,8.444,2.6247048084,2.624672,0,0,0,0,0,210.3, -0.1, 0.3,0,0,1024,1024,1024,1024,0,0,0,0,207.2,0,0,97,4.223,4.217,0,0,0,0,4.112,73.76,2.6247048084,2.624672,6,P-GPS,
7800,2022-08-15 23:27:36,0,0,2.624672,,,2.6247048084,2.624672,0,0,0,0,0,8.444,2.6247048084,2.624672,0,0,0,0,0,210.3, 0, 0.4,0,0,1024,1024,1024,1024,0,0,0,0,207.2,0,0,97,4.223,4.217,0,0,0,0,4.112,73.76,2.6247048084,2.624672,6,P-GPS,
7900,2022-08-15 23:27:36,0,0,2.624672,,,2.6247048084,2.624672,0,0,0,0,0,8.444,2.6247048084,2.624672,0,0,0,0,0,210.3, 0, 0.6,0,0,1024,1024,1024,1024,0,0,0,0,207.2,0,0,97,4.223,4.217,0,0,0,0,4.112,73.76,2.6247048084,2.624672,6,P-GPS,
8100,2022-08-15 23:27:36,0,0,2.624672,,,2.6247048084,2.624672,0,0,0,0,0,8.444,2.6247048084,2.624672,0,0,0,0,0,210.3, 0.1, 0.5,0,0,1024,1024,1024,1024,0,0,0,0,207.2,0,0,97,4.223,4.217,0,0,0,0,4.112,73.76,2.6247048084,2.624672,6,P-GPS,
8200,2022-08-15 23:27:36,0,0,2.624672,,,2.6247048084,2.624672,0,0,0,0,0,8.438,2.6247048084,2.624672,0,0,0,0,0,210.2, 0, 0.3,0,0,1024,1024,1024,1024,0,0,0,0,207.2,0,0,97,4.219,4.214,0,0,0,0,4.127,73.94,2.6247048084,2.624672,6,P-GPS,
8300,2022-08-15 23:27:36,0,0,2.624672,,,2.6247048084,2.624672,0,0,0,0,0,8.438,2.6247048084,2.624672,0,0,0,0,0,210.2, 0, 0.1,0,0,1024,1024,1024,1024,0,0,0,0,207.2,0,0,97,4.219,4.214,0,0,0,0,4.127,73.94,2.6247048084,2.624672,6,P-GPS,
8400,2022-08-15 23:27:36,0,0,2.624672,,,2.6247048084,2.624672,0,0,0,0,0,8.438,2.6247048084,2.624672,0,0,0,0,0,210.3, 0, 0.1,0,0,1024,1024,1024,1024,0,0,0,0,207.2,0,0,97,4.219,4.214,0,0,0,0,4.127,73.94,2.6247048084,2.624672,6,P-GPS,
8500,2022-08-15 23:27:37,0,0,2.624672,,,2.6247048084,2.624672,0,0,0,0,0,8.438,2.6247048084,2.624672,0,0,0,0,0,210.2, -0.1, 0.1,0,0,1024,1024,1024,1024,0,0,0,0,207.2,0,0,97,4.219,4.214,0,0,0,0,4.127,73.94,2.6247048084,2.624672,6,P-GPS,
8600,2022-08-15 23:27:37,0,0,2.624672,,,2.6247048084,2.624672,0,0,0,0,0,8.438,2.6247048084,2.624672,0,0,0,0,0,210.2, -0.1, 0,0,0,1024,1024,1024,1024,0,0,0,0,207.2,0,0,97,4.219,4.214,0,0,0,0,4.127,73.94,2.6247048084,2.624672,6,P-GPS,
8700,2022-08-15 23:27:37,0,0,2.624672,,,2.6247048084,2.624672,0,0,0,0,0,8.438,2.6247048084,2.624672,0,0,0,0,0,210.2, -0.1, 0.1,0,0,1024,1024,1024,1024,0,0,0,0,207.2,0,0,97,4.219,4.214,0,0,0,0,4.127,73.94,2.6247048084,2.624672,6,P-GPS,
8800,2022-08-15 23:27:37,0,0,2.296588,,,2.2966208084,2.624672,0,0,0,0,0,8.438,2.6247048084,2.624672,0,0,0,0,0,210.3, -0.1, 0,0,0,1024,1024,1024,1024,0,0,0,0,207.2,0,0,97,4.219,4.214,0,0,0,0,4.127,73.94,2.2966208084,2.296588,6,P-GPS,
8900,2022-08-15 23:27:37,0,0,2.296588,,,2.2966208084,2.624672,0,0,0,0,0,8.438,2.6247048084,2.624672,0,0,0,0,0,210.3, -0.2, -0.3,0,0,1024,1024,1024,1024,0,0,0,0,207.2,0,0,97,4.219,4.214,0,0,0,0,4.127,73.94,2.2966208084,2.296588,6,P-GPS,
9000,2022-08-15 23:27:37,0,0,2.296588,,,2.2966208084,2.624672,0,0,0,0,0,8.438,2.6247048084,2.624672,0,0,0,0,0,210.4, 0, -0.4,0,0,1024,1024,1024,1024,0,0,0,0,207.2,0,0,97,4.219,4.214,0,0,0,0,4.127,73.94,2.2966208084,2.296588,6,P-GPS,
9100,2022-08-15 23:27:37,0,0,2.296588,,,2.2966208084,2.624672,0,0,0,0,0,8.438,2.6247048084,2.624672,0,0,0,0,0,210.3, 0, -0.1,0,0,1024,1024,1024,1024,0,0,0,0,207.2,0,0,97,4.219,4.214,0,0,0,0,4.127,73.94,2.2966208084,2.296588,6,P-GPS,
9200,2022-08-15 23:27:37,0,0,2.296588,,,2.2966208084,2.624672,0,0,0,0,0,8.427,2.6247048084,2.624672,0,0,0,0,0,210.3, -0.1, -0.1,0,0,1024,1024,1024,1024,0,0,0,0,207.2,0,0,97,4.215,4.209,0,0,0,0,4.172,73.94,2.2966208084,2.296588,6,P-GPS,
9300,2022-08-15 23:27:37,0,0,2.296588,,,2.2966208084,2.624672,0,0,0,0,0,8.427,2.6247048084,2.624672,0,0,0,0,0,210.3, 0, 0,0,0,1024,1024,1024,1024,0,0,0,0,207.2,0,0,97,4.215,4.209,0,0,0,0,4.172,73.94,2.2966208084,2.296588,6,P-GPS,
9400,2022-08-15 23:27:37,0,0,2.296588,,,2.2966208084,2.624672,0,0,0,0,0,8.427,2.6247048084,2.624672,0,0,0,0,0,210.3, 0, 0,0,0,1024,1024,1024,1024,0,0,0,0,207.2,0,0,97,4.215,4.209,0,0,0,0,4.172,73.94,2.2966208084,2.296588,6,P-GPS,
9500,2022-08-15 23:27:38,0,0,2.296588,,,2.2966208084,2.624672,0,0,0,0,0,8.427,2.6247048084,2.624672,0,0,0,0,0,210.3, 0.1, 0.2,0,0,1024,1024,1024,1024,0,0,0,0,207.2,-0.1,0,97,4.215,4.209,0,0,0,0,4.172,73.94,2.2966208084,2.296588,6,P-GPS,
9600,2022-08-15 23:27:38,0,0,2.296588,,,2.2966208084,2.624672,0,0,0,0,0,8.427,2.6247048084,2.624672,0,0,0,0,0,210.3, 0.1, 0.2,0,0,1024,1024,1024,1024,0,0,0,0,207.2,-0.2,0,97,4.215,4.209,0,0,0,0,4.172,73.94,2.2966208084,2.296588,6,P-GPS,
9700,2022-08-15 23:27:38,0,0,2.296588,,,2.2966208084,2.624672,0,0,0,0,0,8.427,2.6247048084,2.624672,0,0,0,0,0,210.3, 0, 0.1,0,0,1024,1024,1024,1024,0,0,0,0,207.2,-0.4,0,97,4.215,4.209,0,0,0,0,4.172,73.94,2.2966208084,2.296588,6,P-GPS,
9800,2022-08-15 23:27:38,0,0,2.296588,,,2.2966208084,2.624672,0,0,0,0,0,8.427,2.6247048084,2.624672,0,0,0,0,0,210.3, 0, 0.1,0,0,1024,1024,1024,1024,0,0,0,0,207.2,-0.6,0,97,4.215,4.209,0,0,0,0,4.172,73.94,2.2966208084,2.296588,6,P-GPS,
9900,2022-08-15 23:27:38,0,0,2.296588,,,2.2966208084,2.624672,0,0,0,0,0,8.427,2.6247048084,2.624672,0,0,0,0,0,210.3, 0, 0,0,0,1024,1024,1024,1024,0,0,0,0,207.2,-0.9,0,97,4.215,4.209,0,0,0,0,4.172,73.94,2.2966208084,2.296588,6,P-GPS,
10000,2022-08-15 23:27:38,0,0,2.296588,,,2.2966208084,2.624672,0,0,0,0,0,8.427,2.6247048084,2.624672,0,0,0,0,0,210.3, 0.1, 0.1,0,0,1024,1024,1024,1024,0,0,0,0,207.2,-1.3,0,97,4.215,4.209,0,0,0,0,4.172,73.94,2.2966208084,2.296588,6,P-GPS,
10100,2022-08-15 23:27:38,0,0,2.296588,,,2.2966208084,2.624672,0,0,0,0,0,8.427,2.6247048084,2.624672,0,0,0,0,0,210.3, 0, 0,0,0,1024,1024,1024,1024,0,0,0,0,207.2,-1.8,0,97,4.215,4.209,0,0,0,0,4.172,73.94,2.2966208084,2.296588,6,P-GPS,
10200,2022-08-15 23:27:38,0,0,2.296588,,,2.2966208084,2.624672,0,0,0,0,0,8.422,2.6247048084,2.624672,0,0,0,0,0,210.4, 0, -0.1,0,0,1024,1024,1024,1024,0,0,0,0,207.2,-2.6,0,97,4.213,4.206,0,0,0,0,4.166,73.94,2.2966208084,2.296588,6,P-GPS,
10300,2022-08-15 23:27:38,0,0,2.296588,,,2.2966208084,2.624672,0,0,0,0,0,8.422,2.6247048084,2.624672,0,0,0,0,0,210.4, 0, 0,0,0,1024,1024,1024,1024,0,0,0,0,207.2,-3.6,0,97,4.213,4.206,0,0,0,0,4.166,73.94,2.2966208084,2.296588,6,P-GPS,
10400,2022-08-15 23:27:38,0,0,2.296588,,,2.2966208084,2.624672,0,0,0,0,0,8.422,2.6247048084,2.624672,0,0,0,0,0,210.4, 0, 0.1,0,0,1024,1024,1024,1024,0,0,0,0,207.2,-4.8,0,97,4.213,4.206,0,0,0,0,4.166,73.94,2.2966208084,2.296588,6,P-GPS,
10500,2022-08-15 23:27:38,0,0,2.296588,,,2.2966208084,2.624672,0,0,0,0,0,8.422,2.6247048084,2.624672,0,0,0,0,0,210.4, 0, 0.1,0,0,1024,1024,1024,1024,0,0,0,0,207.2,-6,0,97,4.213,4.206,0,0,0,0,4.166,73.94,2.2966208084,2.296588,6,P-GPS,
10600,2022-08-15 23:27:39,0,0,2.296588,,,2.2966208084,2.624672,0,0,0,0,0,8.422,2.6247048084,2.624672,0,0,0,0,0,210.4, 0, 0.3,0,0,1024,1024,1024,1024,0,0,0,0,207.2,-7.4,0,97,4.213,4.206,0,0,0,0,4.166,73.94,2.2966208084,2.296588,6,P-GPS,
10700,2022-08-15 23:27:39,0,0,2.296588,,,2.2966208084,2.624672,0,0,0,0,0,8.422,2.6247048084,2.624672,0,0,0,0,0,210.4, 0, 0.5,0,0,1024,1024,1024,1024,0,0,0,0,207.2,-8.8,0,97,4.213,4.206,0,0,0,0,4.166,73.94,2.2966208084,2.296588,6,P-GPS,
10800,2022-08-15 23:27:39,0,0,2.296588,,,2.2966208084,2.624672,0,0,0,0,0,8.422,2.6247048084,2.624672,0,0,0,0,0,210.4, 0.1, 0.4,0,0,1024,1024,1024,1024,0,0,0,0,207.2,-10.2,0,97,4.213,4.206,0,0,0,0,4.166,73.94,2.2966208084,2.296588,6,P-GPS,
10900,2022-08-15 23:27:39,0,0,2.296588,,,2.2966208084,2.624672,0,0,0,0,0,8.422,2.6247048084,2.624672,0,0,0,0,0,210.4, 0.1, 0.4,0,0,1024,1024,1024,1024,0,0,0,0,207.2,-11.6,0,97,4.213,4.206,0,0,0,0,4.166,73.94,2.2966208084,2.296588,6,P-GPS,
11000,2022-08-15 23:27:39,0,0,2.296588,,,2.2966208084,2.624672,0,0,0,0,0,8.422,2.6247048084,2.624672,0,0,0,0,0,210.4, 0.3, 0.3,0,0,1024,1024,1024,1024,0,0,0,0,207.2,-13,0,97,4.213,4.206,0,0,0,0,4.166,73.94,2.2966208084,2.296588,6,P-GPS,
11100,2022-08-15 23:27:39,0,0,2.296588,,,2.2966208084,2.624672,0,0,0,0,0,8.422,2.6247048084,2.624672,0,0,0,0,0,210.4, 0.2, 0.3,0,0,1024,1024,1024,1024,0,0,0,0,207.2,-14.5,0,97,4.213,4.206,0,0,0,0,4.166,73.94,2.2966208084,2.296588,6,P-GPS,
11200,2022-08-15 23:27:39,0,0,2.296588,,,2.2966208084,2.624672,0,0,0,0,0,8.418,2.6247048084,2.624672,0,0,0,0,0,210.3, 0.3, 0.1,0,0,1024,1024,1024,1024,0,0,0,0,207.2,-15.9,0,97,4.211,4.205,0,0,0,0,4.187,73.94,2.2966208084,2.296588,6,P-GPS,
11300,2022-08-15 23:27:39,0,0,2.296588,,,2.2966208084,2.624672,0,0,0,0,0,8.418,2.6247048084,2.624672,0,0,0,0,0,210.3, 0.3, 0.1,0,0,1024,1024,1024,1024,0,0,0,0,207.2,-17.3,0,97,4.211,4.205,0,0,0,0,4.187,73.94,2.2966208084,2.296588,6,P-GPS,
11400,2022-08-15 23:27:39,0,0,2.296588,,,2.2966208084,2.624672,0,0,0,0,0,8.418,2.6247048084,2.624672,0,0,0,0,0,210.4, 0.4, 0,0,0,1024,1024,1024,1024,0,0,0,0,207.2,-18.8,0,97,4.211,4.205,0,0,0,0,4.187,73.94,2.2966208084,2.296588,6,P-GPS,
11500,2022-08-15 23:27:39,0,0,2.296588,,,2.2966208084,2.624672,0,0,0,0,0,8.418,2.6247048084,2.624672,0,0,0,0,0,210.4, 0.3, 0.1,0,0,1024,1024,1024,1024,0,0,0,0,207.2,-20.2,0,97,4.211,4.205,0,0,0,0,4.187,73.94,2.2966208084,2.296588,6,P-GPS,
11600,2022-08-15 23:27:40,0,0,2.296588,,,2.2966208084,2.624672,0,0,0,0,0,8.418,2.6247048084,2.624672,0,0,0,0,0,210.3, 0.4, 0,0,0,1024,1024,1024,1024,0,0,0,0,207.2,-21.6,0,97,4.211,4.205,0,0,0,0,4.187,73.94,2.2966208084,2.296588,6,P-GPS,
11700,2022-08-15 23:27:40,0,0,2.296588,,,2.2966208084,2.624672,0,0,0,0,0,8.418,2.6247048084,2.624672,0,0,0,0,0,210.4, 0.4, 0,0,0,1024,1024,1024,1024,0,0,0,0,207.2,-23.1,0,97,4.211,4.205,0,0,0,0,4.187,73.94,2.2966208084,2.296588,6,P-GPS,
11800,2022-08-15 23:27:40,0,0,2.296588,,,2.2966208084,2.624672,0,0,0,0,0,8.418,2.6247048084,2.624672,0,0,0,0,0,210.4, 0.3, 0,0,0,1024,1024,1024,1024,0,0,0,0,207.2,-24.5,0,97,4.211,4.205,0,0,0,0,4.187,73.94,2.2966208084,2.296588,6,P-GPS,
11900,2022-08-15 23:27:40,0,0,2.296588,,,2.2966208084,2.624672,0,0,0,0,0,8.418,2.6247048084,2.624672,0,0,0,0,0,210.4, 0.2, 0.1,0,0,1024,1024,1024,1024,0,0,0,0,207.2,-26,0,97,4.211,4.205,0,0,0,0,4.187,73.94,2.2966208084,2.296588,6,P-GPS,
12000,2022-08-15 23:27:40,0,0,2.296588,,,2.2966208084,2.624672,0,0,0,0,0,8.418,2.6247048084,2.624672,0,0,0,0,0,210.4, 0.2, 0.1,0,0,1024,1024,1024,1024,0,0,0,0,207.2,-27.4,0,97,4.211,4.205,0,0,0,0,4.187,73.94,2.2966208084,2.296588,6,P-GPS,
12100,2022-08-15 23:27:40,0,0,2.296588,,,2.2966208084,2.624672,0,0,0,0,0,8.418,2.6247048084,2.624672,0,0,0,0,0,210.5, 0.3, 0.4,0,0,1024,1024,1024,1024,0,0,0,0,207.2,-28.8,0,97,4.211,4.205,0,0,0,0,4.187,73.94,2.2966208084,2.296588,6,P-GPS,
12200,2022-08-15 23:27:40,0,0,2.296588,,,2.2966208084,2.624672,0,0,0,0,0,8.411,2.6247048084,2.624672,0,0,0,0,0,210.4, 0.2, 0.3,0,0,1024,1024,1024,1024,0,0,0,0,207.2,-30.3,0,97,4.21,4.204,0,0,0,0,4.177,73.94,2.2966208084,2.296588,6,P-GPS,
12300,2022-08-15 23:27:40,0,0,2.296588,,,2.2966208084,2.624672,0,0,0,0,0,8.411,2.6247048084,2.624672,0,0,0,0,0,210.4, 0.2, 0.4,0,0,1024,1024,1024,1024,0,0,0,0,207.2,-31.7,0,97,4.21,4.204,0,0,0,0,4.177,73.94,2.2966208084,2.296588,6,P-GPS,
12400,2022-08-15 23:27:40,0,0,2.296588,,,2.2966208084,2.624672,0,0,0,0,0,8.411,2.6247048084,2.624672,0,0,0,0,0,210.4, 0.1, 0.3,0,0,1024,1024,1024,1024,0,0,0,0,207.2,-33.1,0,97,4.21,4.204,0,0,0,0,4.177,73.94,2.2966208084,2.296588,6,P-GPS,
12500,2022-08-15 23:27:40,0,0,2.296588,,,2.2966208084,2.624672,0,0,0,0,0,8.411,2.6247048084,2.624672,0,0,0,0,0,210.4, 0.3, 0.2,0,0,1024,1024,1024,1024,0,0,0,0,207.2,-34.3,0,97,4.21,4.204,0,0,0,0,4.177,73.94,2.2966208084,2.296588,6,P-GPS,
12600,2022-08-15 23:27:41,0,0,2.296588,,,2.2966208084,2.624672,0,0,0,0,0,8.411,2.6247048084,2.624672,0,0,0,0,0,210.4, 0.4, 0.2,0,0,1024,1024,1024,1024,0,0,0,0,207.2,-35.3,0,97,4.21,4.204,0,0,0,0,4.177,73.94,2.2966208084,2.296588,6,P-GPS,
12700,2022-08-15 23:27:41,0,0,2.296588,,,2.2966208084,2.624672,0,0,0,0,0,8.411,2.6247048084,2.624672,0,0,0,0,0,210.4, 0.4, 0.2,0,0,1024,1024,1024,1024,0,0,0,0,207.2,-36,0,97,4.21,4.204,0,0,0,0,4.177,73.94,2.2966208084,2.296588,6,P-GPS,
12800,2022-08-15 23:27:41,0,0,2.296588,,,2.2966208084,2.624672,0,0,0,0,0,8.411,2.6247048084,2.624672,0,0,0,0,0,210.4, 0.4, 0.1,0,0,1024,1024,1024,1024,0,0,0,0,207.2,-36.5,0,97,4.21,4.204,0,0,0,0,4.177,73.94,2.2966208084,2.296588,6,P-GPS,
12900,2022-08-15 23:27:41,0,0,2.296588,,,2.2966208084,2.624672,0,0,0,0,0,8.411,2.6247048084,2.624672,0,0,0,0,0,210.4, 0.5, 0.3,0,0,1024,1024,1024,1024,0,0,0,0,207.2,-36.7,0,97,4.21,4.204,0,0,0,0,4.177,73.94,2.2966208084,2.296588,6,P-GPS,
13000,2022-08-15 23:27:41,0,0,2.296588,,,2.2966208084,2.624672,0,0,0,0,0,8.411,2.6247048084,2.624672,0,0,0,0,0,210.3, 0.4, 0,0,0,1024,1024,1024,1024,0,0,0,0,207.2,-36.8,0,97,4.21,4.204,0,0,0,0,4.177,73.94,2.2966208084,2.296588,6,P-GPS,
13100,2022-08-15 23:27:41,0,0,2.296588,,,2.2966208084,2.624672,0,0,0,0,0,8.411,2.6247048084,2.624672,0,0,0,0,0,210.3, 0.2, -0.2,0,0,1024,1024,1024,1024,0,0,0,0,207.2,-36.8,0,97,4.21,4.204,0,0,0,0,4.177,73.94,2.2966208084,2.296588,6,P-GPS,
13200,2022-08-15 23:27:41,0,0,2.296588,,,2.2966208084,2.624672,0,0,0,0,0,8.404,2.6247048084,2.624672,0,0,0,0,0,210.3, 0.1, -0.3,0,0,1024,1024,1024,1024,0,0,0,0,207.2,-36.8,0,97,4.206,4.199,0,0,0,0,4.177,74.12,2.2966208084,2.296588,6,P-GPS,
13300,2022-08-15 23:27:41,0,0,2.296588,,,2.2966208084,2.624672,0,0,0,0,0,8.404,2.6247048084,2.624672,0,0,0,0,0,210.3, 0.1, -0.1,0,0,1024,1024,1024,1024,0,0,0,0,207.2,-36.8,0,97,4.206,4.199,0,0,0,0,4.177,74.12,2.2966208084,2.296588,6,P-GPS,
13400,2022-08-15 23:27:41,0,0,2.296588,,,2.2966208084,2.624672,0,0,0,0,0,8.404,2.6247048084,2.624672,0,0,0,0,0,210.3, 0.1, -0.1,0,0,1024,1024,1024,1024,0,0,0,0,207.2,-36.8,0,97,4.206,4.199,0,0,0,0,4.177,74.12,2.2966208084,2.296588,6,P-GPS,
13500,2022-08-15 23:27:42,0,0,2.296588,,,2.2966208084,2.624672,0,0,0,0,0,8.404,2.6247048084,2.624672,0,0,0,0,0,210.4, 0.1, 0,0,0,1024,1024,1024,1024,0,0,0,0,207.2,-36.8,0,97,4.206,4.199,0,0,0,0,4.177,74.12,2.2966208084,2.296588,6,P-GPS,
13600,2022-08-15 23:27:42,0,0,2.296588,,,2.2966208084,2.624672,0,0,0,0,0,8.404,2.6247048084,2.624672,0,0,0,0,0,210.4, 0.1, 0.3,0,0,1024,1024,1024,1024,0,0,0,0,207.2,-36.8,0,97,4.206,4.199,0,0,0,0,4.177,74.12,2.2966208084,2.296588,6,P-GPS,
13700,2022-08-15 23:27:42,0,0,2.296588,,,2.2966208084,2.624672,0,0,0,0,0,8.404,2.6247048084,2.624672,0,0,0,0,0,210.5, 0.3, 0.4,0,0,1024,1024,1024,1024,0,0,0,0,207.2,-36.8,0,97,4.206,4.199,0,0,0,0,4.177,74.12,2.2966208084,2.296588,6,P-GPS,
13800,2022-08-15 23:27:42,0,0,2.296588,,,2.2966208084,2.624672,0,0,0,0,0,8.404,2.6247048084,2.624672,0,0,0,0,0,210.4, 0.3, 0.2,0,0,1024,1024,1024,1024,0,0,0,0,207.2,-36.8,0,97,4.206,4.199,0,0,0,0,4.177,74.12,2.2966208084,2.296588,6,P-GPS,
13900,2022-08-15 23:27:42,0,0,2.296588,,,2.2966208084,2.624672,0,0,0,0,0,8.404,2.6247048084,2.624672,0,0,0,0,0,210.5, 0.4, 0.3,0,0,1024,1024,1024,1024,0,0,0,0,207.2,-36.8,0,97,4.206,4.199,0,0,0,0,4.177,74.12,2.2966208084,2.296588,6,P-GPS,
14000,2022-08-15 23:27:42,0,0,2.296588,,,2.2966208084,2.624672,0,0,0,0,0,8.404,2.6247048084,2.624672,0,0,0,0,0,210.5, 0.3, 0.4,0,0,1024,1024,1024,1024,0,0,0,0,207.2,-36.8,0,97,4.206,4.199,0,0,0,0,4.177,74.12,2.2966208084,2.296588,6,P-GPS,
14100,2022-08-15 23:27:42,0,0,2.296588,,,2.2966208084,2.624672,0,0,0,0,0,8.404,2.6247048084,2.624672,0,0,0,0,0,210.5, 0.2, 0.4,0,0,1024,1024,1024,1024,0,0,0,0,207.2,-36.8,0,97,4.206,4.199,0,0,0,0,4.177,74.12,2.2966208084,2.296588,6,P-GPS,
14200,2022-08-15 23:27:42,0,0,2.296588,,,2.2966208084,2.624672,0,0,0,0,0,8.405,2.6247048084,2.624672,0,0,0,0,0,210.4, 0, 0.2,0,0,1024,1024,1024,1024,0,0,0,0,207.2,-36.9,0,97,4.204,4.197,0,0,0,0,4.162,74.12,2.2966208084,2.296588,6,P-GPS,
14300,2022-08-15 23:27:42,0,0,2.296588,,,2.2966208084,2.624672,0,0,0,0,0,8.405,2.6247048084,2.624672,0,0,0,0,0,210.5, 0.1, 0.1,0,0,1024,1024,1024,1024,0,0,0,0,207.2,-37.1,0,97,4.204,4.197,0,0,0,0,4.162,74.12,2.2966208084,2.296588,6,P-GPS,
14400,2022-08-15 23:27:42,0,0,2.296588,,,2.2966208084,2.624672,0,0,0,0,0,8.405,2.6247048084,2.624672,0,0,0,0,0,210.5, 0.1, 0,0,0,1024,1024,1024,1024,0,0,0,0,207.2,-37.3,0,97,4.204,4.197,0,0,0,0,4.162,74.12,2.2966208084,2.296588,6,P-GPS,
14500,2022-08-15 23:27:43,0,0,2.296588,,,2.2966208084,2.624672,0,0,0,0,0,8.405,2.6247048084,2.624672,0,0,0,0,0,210.4, 0.1, 0,0,0,1024,1024,1024,1024,0,0,0,0,207.2,-37.6,0,97,4.204,4.197,0,0,0,0,4.162,74.12,2.2966208084,2.296588,6,P-GPS,
14600,2022-08-15 23:27:43,0,0,2.296588,,,2.2966208084,2.624672,0,0,0,0,0,8.405,2.6247048084,2.624672,0,0,0,0,0,210.5, 0.1, -0.1,0,0,1024,1024,1024,1024,0,0,0,0,207.2,-37.8,0,97,4.204,4.197,0,0,0,0,4.162,74.12,2.2966208084,2.296588,6,P-GPS,
14700,2022-08-15 23:27:43,0,0,2.296588,,,2.2966208084,2.624672,0,0,0,0,0,8.405,2.6247048084,2.624672,0,0,0,0,0,210.4, 0.1, -0.1,0,0,1024,1024,1024,1024,0,0,0,0,207.2,-38.1,0,97,4.204,4.197,0,0,0,0,4.162,74.12,2.2966208084,2.296588,6,P-GPS,
14800,2022-08-15 23:27:43,0,0,1.968504,,,1.9685368084,2.624672,0,0,0,0,0,8.405,2.6247048084,2.624672,0,0,0,0,0,210.5, 0.2, -0.1,0,0,1024,1024,1024,1024,0,0,0,0,207.2,-38.5,0,96,4.204,4.197,0,0,0,0,4.162,74.12,1.9685368084,1.968504,6,P-GPS,
14900,2022-08-15 23:27:43,0,0,1.968504,,,1.9685368084,2.624672,0,0,0,0,0,8.405,2.6247048084,2.624672,0,0,0,0,0,210.5, 0.3, 0,0,0,1024,1024,1024,1024,0,0,0,0,207.2,-38.8,0,96,4.204,4.197,0,0,0,0,4.162,74.12,1.9685368084,1.968504,6,P-GPS,
15000,2022-08-15 23:27:43,0,0,1.968504,,,1.9685368084,2.624672,0,0,0,0,0,8.405,2.6247048084,2.624672,0,0,0,0,0,210.5, 0.2, 0,0,0,1024,1024,1024,1024,0,0,0,0,207.2,-39.2,0,96,4.204,4.197,0,0,0,0,4.162,74.12,1.9685368084,1.968504,6,P-GPS,
15100,2022-08-15 23:27:43,0,0,1.968504,,,1.9685368084,2.624672,0,0,0,0,0,8.405,2.6247048084,2.624672,0,0,0,0,0,210.5, 0.2, 0,0,0,1024,1024,1024,1024,0,0,0,0,207.2,-39.6,0,96,4.204,4.197,0,0,0,0,4.162,74.12,1.9685368084,1.968504,6,P-GPS,
15200,2022-08-15 23:27:43,0,0,1.968504,,,1.9685368084,2.624672,0,0,0,0,0,8.398,2.6247048084,2.624672,0,0,0,0,0,210.5, 0.2, 0,0,0,1024,1024,1024,1024,0,0,0,0,207.2,-40,0,96,4.202,4.196,0,0,0,0,4.187,74.12,1.9685368084,1.968504,6,P-GPS,
15300,2022-08-15 23:27:43,0,0,1.968504,,,1.9685368084,2.624672,0,0,0,0,0,8.398,2.6247048084,2.624672,0,0,0,0,0,210.5, 0.3, 0,0,0,1024,1024,1024,1024,0,0,0,0,207.2,-40.5,0,96,4.202,4.196,0,0,0,0,4.187,74.12,1.9685368084,1.968504,6,P-GPS,
15400,2022-08-15 23:27:43,0,0,1.968504,,,1.9685368084,2.624672,0,0,0,0,0,8.398,2.6247048084,2.624672,0,0,0,0,0,210.5, 0.4, 0,0,0,1024,1024,1024,1024,0,0,0,0,207.2,-41,0,96,4.202,4.196,0,0,0,0,4.187,74.12,1.9685368084,1.968504,6,P-GPS,
15500,2022-08-15 23:27:44,0,0,1.968504,,,1.9685368084,2.624672,0,0,0,0,0,8.398,2.6247048084,2.624672,0,0,0,0,0,210.5, 0.4, 0,0,0,1024,1024,1024,1024,0,0,0,0,207.2,-41.5,0,96,4.202,4.196,0,0,0,0,4.187,74.12,1.9685368084,1.968504,6,P-GPS,
15600,2022-08-15 23:27:44,0,0,1.968504,,,1.9685368084,2.624672,0,0,0,0,0,8.398,2.6247048084,2.624672,0,0,0,0,0,210.5, 0.3, 0,0,0,1024,1024,1024,1024,0,0,0,0,207.2,-42,0,96,4.202,4.196,0,0,0,0,4.187,74.12,1.9685368084,1.968504,6,P-GPS,
15700,2022-08-15 23:27:44,0,0,1.968504,,,1.9685368084,2.624672,0,0,0,0,0,8.398,2.6247048084,2.624672,0,0,0,0,0,210.4, 0, 0.3,0,0,1024,1024,1024,1024,0,0,0,0,207.2,-42.5,0,96,4.202,4.196,0,0,0,0,4.187,74.12,1.9685368084,1.968504,6,P-GPS,
15800,2022-08-15 23:27:44,0,0,1.968504,,,1.9685368084,2.624672,0,0,0,0,0,8.398,2.6247048084,2.624672,0,0,0,0,0,210.5, 0, 0.3,0,0,1024,1024,1024,1024,0,0,0,0,207.2,-43,0,96,4.202,4.196,0,0,0,0,4.187,74.12,1.9685368084,1.968504,6,P-GPS,
15900,2022-08-15 23:27:44,0,0,1.968504,,,1.9685368084,2.624672,0,0,0,0,0,8.398,2.6247048084,2.624672,0,0,0,0,0,210.4, -0.1, 0.2,0,0,1024,1024,1024,1024,0,0,0,0,207.2,-43.5,0,96,4.202,4.196,0,0,0,0,4.187,74.12,1.9685368084,1.968504,6,P-GPS,
16000,2022-08-15 23:27:44,0,0,1.968504,,,1.9685368084,2.624672,0,0,0,0,0,8.398,2.6247048084,2.624672,0,0,0,0,0,210.4, 0, 0.2,0,0,1024,1024,1024,1024,0,0,0,0,207.2,-44,0,96,4.202,4.196,0,0,0,0,4.187,74.12,1.9685368084,1.968504,6,P-GPS,
16100,2022-08-15 23:27:44,0,0,1.968504,,,1.9685368084,2.624672,0,0,0,0,0,8.398,2.6247048084,2.624672,0,0,0,0,0,210.4, 0, 0.3,0,0,1024,1024,1024,1024,0,0,0,0,207.2,-44.5,0,96,4.202,4.196,0,0,0,0,4.187,74.12,1.9685368084,1.968504,6,P-GPS,
16200,2022-08-15 23:27:44,0,0,1.968504,,,1.9685368084,2.624672,0,0,0,0,0,8.395,2.6247048084,2.624672,0,0,0,0,0,210.4, 0.1, 0.2,0,0,1024,1024,1024,1024,0,0,0,0,207.2,-45,0,96,4.201,4.194,0,0,0,0,4.156,74.3,1.9685368084,1.968504,6,P-GPS,
16300,2022-08-15 23:27:44,0,0,1.968504,,,1.9685368084,2.624672,0,0,0,0,0,8.395,2.6247048084,2.624672,0,0,0,0,0,210.4, 0.3, 0.1,0,0,1024,1024,1024,1024,0,0,0,0,207.2,-45.5,0,96,4.201,4.194,0,0,0,0,4.156,74.3,1.9685368084,1.968504,6,P-GPS,
16400,2022-08-15 23:27:44,0,0,2.296588,,,2.2966208084,2.624672,0,0,0,0,0,8.395,2.6247048084,2.624672,0,0,0,0,0,210.5, 0.3, 0.2,0,0,1024,1024,1024,1024,0,0,0,0,207.2,-46,0,96,4.201,4.194,0,0,0,0,4.156,74.3,2.2966208084,2.296588,6,P-GPS,
16500,2022-08-15 23:27:44,0,0,2.296588,,,2.2966208084,2.624672,0,0,0,0,0,8.395,2.6247048084,2.624672,0,0,0,0,0,210.5, 0.1, 0.2,0,0,1024,1024,1024,1024,0,0,0,0,207.2,-46.5,0,96,4.201,4.194,0,0,0,0,4.156,74.3,2.2966208084,2.296588,6,P-GPS,
16600,2022-08-15 23:27:45,0,0,2.296588,,,2.2966208084,2.624672,0,0,0,0,0,8.395,2.6247048084,2.624672,0,0,0,0,0,210.5, 0.1, 0.3,0,0,1024,1024,1024,1024,0,0,0,0,207.2,-47,0,96,4.201,4.194,0,0,0,0,4.156,74.3,2.2966208084,2.296588,6,P-GPS,
16700,2022-08-15 23:27:45,0,0,2.296588,,,2.2966208084,2.624672,0,0,0,0,0,8.395,2.6247048084,2.624672,0,0,0,0,0,210.4, 0, 0.3,0,0,1024,1024,1024,1024,0,0,0,0,207.2,-47.5,0,96,4.201,4.194,0,0,0,0,4.156,74.3,2.2966208084,2.296588,6,P-GPS,
16800,2022-08-15 23:27:45,0,0,2.296588,,,2.2966208084,2.624672,0,0,0,0,0,8.395,2.6247048084,2.624672,0,0,0,0,0,210.4, 0.1, 0.4,0,0,1024,1024,1024,1024,0,0,0,0,207.2,-48,0,96,4.201,4.194,0,0,0,0,4.156,74.3,2.2966208084,2.296588,6,P-GPS,
16900,2022-08-15 23:27:45,0,0,2.296588,,,2.2966208084,2.624672,0,0,0,0,0,8.395,2.6247048084,2.624672,0,0,0,0,0,210.4, 0, 0.3,0,0,1024,1024,1024,1024,0,0,0,0,207.2,-48.5,0,96,4.201,4.194,0,0,0,0,4.156,74.3,2.2966208084,2.296588,6,P-GPS,
17000,2022-08-15 23:27:45,0,0,2.296588,,,2.2966208084,2.624672,0,0,0,0,0,8.395,2.6247048084,2.624672,0,0,0,0,0,210.4, 0, 0.3,0,0,1024,1024,1024,1024,0,0,0,0,207.2,-49,0,96,4.201,4.194,0,0,0,0,4.156,74.3,2.2966208084,2.296588,6,P-GPS,
17100,2022-08-15 23:27:45,0,0,2.296588,,,2.2966208084,2.624672,0,0,0,0,0,8.395,2.6247048084,2.624672,0,0,0,0,0,210.4, 0, 0.2,0,0,1024,1024,1024,1024,0,0,0,0,207.2,-49.5,0,96,4.201,4.194,0,0,0,0,4.156,74.3,2.2966208084,2.296588,6,P-GPS,
17200,2022-08-15 23:27:45,0,0,2.296588,,,2.2966208084,2.624672,0,0,0,0,0,8.392,2.6247048084,2.624672,0,0,0,0,0,210.4, -0.1, 0.1,0,0,1024,1024,1024,1024,0,0,0,0,207.2,-50,0,96,4.198,4.192,0,0,0,0,4.172,74.3,2.2966208084,2.296588,6,P-GPS,
17300,2022-08-15 23:27:45,0,0,2.296588,,,2.2966208084,2.624672,0,0,0,0,0,8.392,2.6247048084,2.624672,0,0,0,0,0,210.4, -0.1, 0,0,0,1024,1024,1024,1024,0,0,0,0,207.2,-50.5,0,96,4.198,4.192,0,0,0,0,4.172,74.3,2.2966208084,2.296588,6,P-GPS,
17400,2022-08-15 23:27:45,0,0,2.296588,,,2.2966208084,2.624672,0,0,0,0,0,8.392,2.6247048084,2.624672,0,0,0,0,0,210.4, -0.2, -0.1,0,0,1024,1024,1024,1024,0,0,0,0,207.2,-51,0,96,4.198,4.192,0,0,0,0,4.172,74.3,2.2966208084,2.296588,6,P-GPS,
17500,2022-08-15 23:27:45,0,0,2.296588,,,2.2966208084,2.624672,0,0,0,0,0,8.392,2.6247048084,2.624672,0,0,0,0,0,210.5, 0, 0,0,0,1024,1024,1024,1024,0,0,0,0,207.2,-51.5,0,96,4.198,4.192,0,0,0,0,4.172,74.3,2.2966208084,2.296588,6,P-GPS,
17600,2022-08-15 23:27:46,0,0,2.296588,,,2.2966208084,2.624672,0,0,0,0,0,8.392,2.6247048084,2.624672,0,0,0,0,0,210.5, 0.1, -0.1,0,0,1024,1024,1024,1024,0,0,0,0,207.2,-52,0,96,4.198,4.192,0,0,0,0,4.172,74.3,2.2966208084,2.296588,6,P-GPS,
17700,2022-08-15 23:27:46,0,0,2.296588,,,2.2966208084,2.624672,0,0,0,0,0,8.392,2.6247048084,2.624672,0,0,0,0,0,210.4, 0.2, -0.2,0,0,1024,1024,1024,1024,0,0,0,0,207.2,-52.5,0,96,4.198,4.192,0,0,0,0,4.172,74.3,2.2966208084,2.296588,6,P-GPS,
17800,2022-08-15 23:27:46,0,0,2.296588,,,2.2966208084,2.624672,0,0,0,0,0,8.392,2.6247048084,2.624672,0,0,0,0,0,210.4, 0, -0.2,0,0,1024,1024,1024,1024,0,0,0,0,207.2,-53,0,96,4.198,4.192,0,0,0,0,4.172,74.3,2.2966208084,2.296588,6,P-GPS,
17900,2022-08-15 23:27:46,0,0,2.296588,,,2.2966208084,2.624672,0,0,0,0,0,8.392,2.6247048084,2.624672,0,0,0,0,0,210.3, 0, -0.3,0,0,1024,1024,1024,1024,0,0,0,0,207.2,-53.5,0,96,4.198,4.192,0,0,0,0,4.172,74.3,2.2966208084,2.296588,6,P-GPS,
18000,2022-08-15 23:27:46,0,0,2.296588,,,2.2966208084,2.624672,0,0,0,0,0,8.392,2.6247048084,2.624672,0,0,0,0,0,210.4, -0.2, -0.3,0,0,1024,1024,1024,1024,0,0,0,0,207.2,-54,0,96,4.198,4.192,0,0,0,0,4.172,74.3,2.2966208084,2.296588,6,P-GPS,
18100,2022-08-15 23:27:46,0,0,2.624672,,,2.6247048084,2.624672,0,0,0,0,0,8.392,2.6247048084,2.624672,0,0,0,0,0,210.4, -0.2, -0.3,0,0,1024,1024,1024,1024,0,0,0,0,207.2,-54.5,0,96,4.198,4.192,0,0,0,0,4.172,74.3,2.6247048084,2.624672,6,P-GPS,
18200,2022-08-15 23:27:46,0,0,2.624672,,,2.6247048084,2.624672,0,0,0,0,0,8.387,2.6247048084,2.624672,0,0,0,0,0,210.4, -0.2, -0.3,0,0,1024,1024,1024,1024,0,0,0,0,207.2,-55,0,96,4.196,4.189,0,0,0,0,4.17,74.3,2.6247048084,2.624672,6,P-GPS,
18300,2022-08-15 23:27:46,0,0,2.624672,,,2.6247048084,2.624672,0,0,0,0,0,8.387,2.6247048084,2.624672,0,0,0,0,0,210.4, -0.2, -0.4,0,0,1024,1024,1024,1024,0,0,0,0,207.2,-55.5,0,96,4.196,4.189,0,0,0,0,4.17,74.3,2.6247048084,2.624672,6,P-GPS,
18400,2022-08-15 23:27:46,0,0,2.624672,,,2.6247048084,2.624672,0,0,0,0,0,8.387,2.6247048084,2.624672,0,0,0,0,0,210.4, -0.2, -0.4,0,0,1024,1024,1024,1024,0,0,0,0,207.2,-56,0,96,4.196,4.189,0,0,0,0,4.17,74.3,2.6247048084,2.624672,6,P-GPS,
18500,2022-08-15 23:27:47,0,0,2.624672,,,2.6247048084,2.624672,0,0,0,0,0,8.387,2.6247048084,2.624672,0,0,0,0,0,210.3, -0.2, -0.3,0,0,1024,1024,1024,1024,0,0,0,0,207.2,-56.5,0,96,4.196,4.189,0,0,0,0,4.17,74.3,2.6247048084,2.624672,6,P-GPS,
18600,2022-08-15 23:27:47,0,0,2.624672,,,2.6247048084,2.624672,0,0,0,0,0,8.387,2.6247048084,2.624672,0,0,0,0,0,210.3, -0.2, -0.4,0,0,1024,1024,1024,1024,0,0,0,0,207.2,-57,0,96,4.196,4.189,0,0,0,0,4.17,74.3,2.6247048084,2.624672,6,P-GPS,
18700,2022-08-15 23:27:47,0,0,2.624672,,,2.6247048084,2.624672,0,0,0,0,0,8.387,2.6247048084,2.624672,0,0,0,0,0,210.4, -0.2, -0.4,0,0,1024,1024,1024,1024,0,0,0,0,207.2,-57.5,0,96,4.196,4.189,0,0,0,0,4.17,74.3,2.6247048084,2.624672,6,P-GPS,
18800,2022-08-15 23:27:47,0,0,2.624672,,,2.6247048084,2.624672,0,0,0,0,0,8.387,2.6247048084,2.624672,0,0,0,0,0,210.4, -0.1, -0.4,0,0,1024,1024,1024,1024,0,0,0,0,207.2,-58,0,96,4.196,4.189,0,0,0,0,4.17,74.3,2.6247048084,2.624672,6,P-GPS,
18900,2022-08-15 23:27:47,0,0,2.624672,,,2.6247048084,2.624672,0,0,0,0,0,8.387,2.6247048084,2.624672,0,0,0,0,0,210.4, -0.2, -0.4,0,0,1024,1024,1024,1024,0,0,0,0,207.2,-58.5,0,96,4.196,4.189,0,0,0,0,4.17,74.3,2.6247048084,2.624672,6,P-GPS,
19000,2022-08-15 23:27:47,0,0,2.624672,,,2.6247048084,2.624672,0,0,0,0,0,8.387,2.6247048084,2.624672,0,0,0,0,0,210.4, 0, -0.2,0,0,1024,1024,1024,1024,0,0,0,0,207.2,-59,0,96,4.196,4.189,0,0,0,0,4.17,74.3,2.6247048084,2.624672,6,P-GPS,
19100,2022-08-15 23:27:47,0,0,2.624672,,,2.6247048084,2.624672,0,0,0,0,0,8.387,2.6247048084,2.624672,0,0,0,0,0,210.5, 0, 0,0,0,1024,1024,1024,1024,0,0,0,0,207.2,-59.5,0,96,4.196,4.189,0,0,0,0,4.17,74.3,2.6247048084,2.624672,6,P-GPS,
19200,2022-08-15 23:27:47,0,0,2.624672,,,2.6247048084,2.624672,0,0,0,0,0,8.384,2.6247048084,2.624672,0,0,0,0,0,210.4, 0, 0,0,0,1024,1024,1024,1024,0,0,0,0,207.2,-60,0,96,4.195,4.187,0,0,0,0,4.213,74.3,2.6247048084,2.624672,6,P-GPS,
19300,2022-08-15 23:27:47,0,0,2.624672,,,2.6247048084,2.624672,0,0,0,0,0,8.384,2.6247048084,2.624672,0,0,0,0,0,210.4, 0.2, 0,0,0,1024,1024,1024,1024,0,0,0,0,207.2,-60.5,0,96,4.195,4.187,0,0,0,0,4.213,74.3,2.6247048084,2.624672,6,P-GPS,
19400,2022-08-15 23:27:47,0,0,2.624672,,,2.6247048084,2.624672,0,0,0,0,0,8.384,2.6247048084,2.624672,0,0,0,0,0,210.4, 0.2, -0.1,0,0,1024,1024,1024,1024,0,0,0,0,207.2,-61,0,96,4.195,4.187,0,0,0,0,4.213,74.3,2.6247048084,2.624672,6,P-GPS,
19500,2022-08-15 23:27:48,0,0,2.624672,,,2.6247048084,2.624672,0,0,0,0,0,8.384,2.6247048084,2.624672,0,0,0,0,0,210.4, 0, 0,0,0,1024,1024,1024,1024,0,0,0,0,207.2,-61.5,0,96,4.195,4.187,0,0,0,0,4.213,74.3,2.6247048084,2.624672,6,P-GPS,
19600,2022-08-15 23:27:48,0,0,2.624672,,,2.6247048084,2.624672,0,0,0,0,0,8.384,2.6247048084,2.624672,0,0,0,0,0,210.3, 0, -0.1,0,0,1024,1024,1024,1024,0,0,0,0,207.2,-62,0,96,4.195,4.187,0,0,0,0,4.213,74.3,2.6247048084,2.624672,6,P-GPS,
19700,2022-08-15 23:27:48,0,0,2.624672,,,2.6247048084,2.624672,0,0,0,0,0,8.384,2.6247048084,2.624672,0,0,0,0,0,210.3, -0.1, -0.2,0,0,1024,1024,1024,1024,0,0,0,0,207.2,-62.5,0,96,4.195,4.187,0,0,0,0,4.213,74.3,2.6247048084,2.624672,6,P-GPS,
19800,2022-08-15 23:27:48,0,0,2.624672,,,2.6247048084,2.624672,0,0,0,0,0,8.384,2.6247048084,2.624672,0,0,0,0,0,210.3, 0, -0.1,0,0,1024,1024,1024,1024,0,0,0,0,207.2,-62.9,0,96,4.195,4.187,0,0,0,0,4.213,74.3,2.6247048084,2.624672,6,P-GPS,
19900,2022-08-15 23:27:48,0,0,2.624672,,,2.6247048084,2.624672,0,0,0,0,0,8.384,2.6247048084,2.624672,0,0,0,0,0,210.2, 0, 0,0,0,1024,1024,1024,1024,0,0,0,0,207.2,-63.4,0,96,4.195,4.187,0,0,0,0,4.213,74.3,2.6247048084,2.624672,6,P-GPS,
20000,2022-08-15 23:27:48,0,0,2.624672,,,2.6247048084,2.624672,0,0,0,0,0,8.384,2.6247048084,2.624672,0,0,0,0,0,210.2, 0, -0.2,0,0,1024,1024,1024,1024,0,0,0,0,207.2,-63.8,0,96,4.195,4.187,0,0,0,0,4.213,74.3,2.6247048084,2.624672,6,P-GPS,
20100,2022-08-15 23:27:48,0,0,2.624672,,,2.6247048084,2.624672,0,0,0,0,0,8.384,2.6247048084,2.624672,0,0,0,0,0,210.2, 0.1, -0.2,0,0,1024,1024,1024,1024,0,0,0,0,207.2,-64.1,0,96,4.195,4.187,0,0,0,0,4.213,74.3,2.6247048084,2.624672,6,P-GPS,
20200,2022-08-15 23:27:48,0,0,2.624672,,,2.6247048084,2.624672,0,0,0,0,0,8.38,2.6247048084,2.624672,0,0,0,0,0,210.3, 0.2, -0.2,0,0,1024,1024,1024,1024,0,0,0,0,207.2,-64.4,0,96,4.195,4.186,0,0,0,0,4.184,74.48,2.6247048084,2.624672,6,P-GPS,
20300,2022-08-15 23:27:48,0,0,2.624672,,,2.6247048084,2.624672,0,0,0,0,0,8.38,2.6247048084,2.624672,0,0,0,0,0,210.3, 0.1, 0,0,0,1024,1024,1024,1024,0,0,0,0,207.2,-64.6,0,96,4.195,4.186,0,0,0,0,4.184,74.48,2.6247048084,2.624672,6,P-GPS,
20400,2022-08-15 23:27:48,0,0,2.624672,,,2.6247048084,2.624672,0,0,0,0,0,8.38,2.6247048084,2.624672,0,0,0,0,0,210.4, 0.2, 0,0,0,1024,1024,1024,1024,0,0,0,0,207.2,-64.7,0,96,4.195,4.186,0,0,0,0,4.184,74.48,2.6247048084,2.624672,6,P-GPS,
20500,2022-08-15 23:27:49,0,0,2.952756,,,2.9527888084,2.624672,0,0,0,0,0,8.38,2.9527888084,2.952756,0,0,0,0,0,210.4, 0.3, 0.1,0,0,1024,1024,1024,1024,0,0,0,0,207.2,-64.8,0,96,4.195,4.186,0,0,0,0,4.184,74.48,2.9527888084,2.952756,6,P-GPS,
20600,2022-08-15 23:27:49,0,0,2.952756,,,2.9527888084,2.624672,0,0,0,0,0,8.38,2.9527888084,2.952756,0,0,0,0,0,210.4, 0.2, 0,0,0,1024,1024,1024,1024,0,0,0,0,207.2,-64.8,0,96,4.195,4.186,0,0,0,0,4.184,74.48,2.9527888084,2.952756,6,P-GPS,
20700,2022-08-15 23:27:49,0,0,2.952756,,,2.9527888084,2.624672,0,0,0,0,0,8.38,2.9527888084,2.952756,0,0,0,0,0,210.4, 0.2, 0.2,0,0,1024,1024,1024,1024,0,0,0,0,207.2,-64.8,0,96,4.195,4.186,0,0,0,0,4.184,74.48,2.9527888084,2.952756,6,P-GPS,
20800,2022-08-15 23:27:49,0,0,2.952756,,,2.9527888084,2.624672,0,0,0,0,0,8.38,2.9527888084,2.952756,0,0,0,0,0,210.4, 0.1, 0.3,0,0,1024,1024,1024,1024,0,0,0,0,207.2,-64.8,0,96,4.195,4.186,0,0,0,0,4.184,74.48,2.9527888084,2.952756,6,P-GPS,
20900,2022-08-15 23:27:49,0,0,2.952756,,,2.9527888084,2.624672,0,0,0,0,0,8.38,2.9527888084,2.952756,0,0,0,0,0,210.4, 0.2, 0.2,0,0,1024,1024,1024,1024,0,0,0,0,207.2,-64.8,0,96,4.195,4.186,0,0,0,0,4.184,74.48,2.9527888084,2.952756,6,P-GPS,
21000,2022-08-15 23:27:49,0,0,2.952756,,,2.9527888084,2.624672,0,0,0,0,0,8.38,2.9527888084,2.952756,0,0,0,0,0,210.4, 0.3, 0,0,0,1024,1024,1024,1024,0,0,0,0,207.2,-64.8,0,96,4.195,4.186,0,0,0,0,4.184,74.48,2.9527888084,2.952756,6,P-GPS,
21100,2022-08-15 23:27:49,0,0,2.952756,,,2.9527888084,2.624672,0,0,0,0,0,8.38,2.9527888084,2.952756,0,0,0,0,0,210.3, 0.4, -0.1,0,0,1024,1024,1024,1024,0,0,0,0,207.2,-64.7,0,96,4.195,4.186,0,0,0,0,4.184,74.48,2.9527888084,2.952756,6,P-GPS,
21200,2022-08-15 23:27:49,0,0,2.952756,,,2.9527888084,2.624672,0,0,0,0,0,8.378,2.9527888084,2.952756,0,0,0,0,0,210.3, 0.4, 0,0,0,1024,1024,1024,1024,0,0,0,0,207.2,-64.6,0,96,4.192,4.183,0,0,0,0,4.168,74.48,2.9527888084,2.952756,6,P-GPS,
21300,2022-08-15 23:27:49,0,0,2.952756,,,2.9527888084,2.624672,0,0,0,0,0,8.378,2.9527888084,2.952756,0,0,0,0,0,210.4, 0.4, 0,0,0,1024,1024,1024,1024,0,0,0,0,207.2,-64.4,0,96,4.192,4.183,0,0,0,0,4.168,74.48,2.9527888084,2.952756,6,P-GPS,
21400,2022-08-15 23:27:49,0,0,2.952756,,,2.9527888084,2.624672,0,0,0,0,0,8.378,2.9527888084,2.952756,0,0,0,0,0,210.4, 0.6, 0.2,0,0,1024,1024,1024,1024,0,0,0,0,207.2,-64.1,0,96,4.192,4.183,0,0,0,0,4.168,74.48,2.9527888084,2.952756,6,P-GPS,
21500,2022-08-15 23:27:50,0,0,2.952756,,,2.9527888084,2.624672,0,0,0,0,0,8.378,2.9527888084,2.952756,0,0,0,0,0,210.4, 0.6, 0.4,0,0,1024,1024,1024,1024,0,0,0,0,207.2,-63.6,0,96,4.192,4.183,0,0,0,0,4.168,74.48,2.9527888084,2.952756,6,P-GPS,
21600,2022-08-15 23:27:50,0,0,2.952756,,,2.9527888084,2.624672,0,0,0,0,0,8.378,2.9527888084,2.952756,0,0,0,0,0,210.3, 0.6, 0.4,0,0,1024,1024,1024,1024,0,0,0,0,207.2,-62.9,0,96,4.192,4.183,0,0,0,0,4.168,74.48,2.9527888084,2.952756,6,P-GPS,
21700,2022-08-15 23:27:50,0,0,2.952756,,,2.9527888084,2.624672,0,0,0,0,0,8.378,2.9527888084,2.952756,0,0,0,0,0,210.3, 0.6, 0.5,0,0,1024,1024,1024,1024,0,0,0,0,207.2,-62.2,0,96,4.192,4.183,0,0,0,0,4.168,74.48,2.9527888084,2.952756,6,P-GPS,
21800,2022-08-15 23:27:50,0,0,2.952756,,,2.9527888084,2.624672,0,0,0,0,0,8.378,2.9527888084,2.952756,0,0,0,0,0,210.3, 0.5, 0.6,0,0,1024,1024,1024,1024,0,0,0,0,207.2,-61.4,0,96,4.192,4.183,0,0,0,0,4.168,74.48,2.9527888084,2.952756,6,P-GPS,
21900,2022-08-15 23:27:50,0,0,2.952756,,,2.9527888084,2.624672,0,0,0,0,0,8.378,2.9527888084,2.952756,0,0,0,0,0,210.3, 0.4, 0.6,0,0,1024,1024,1024,1024,0,0,0,0,207.2,-60.5,0,96,4.192,4.183,0,0,0,0,4.168,74.48,2.9527888084,2.952756,6,P-GPS,
22000,2022-08-15 23:27:50,0,0,2.952756,,,2.9527888084,2.624672,0,0,0,0,0,8.378,2.9527888084,2.952756,0,0,0,0,0,210.3, 0.5, 0.5,0,0,1024,1024,1024,1024,0,0,0,0,207.2,-59.6,0,96,4.192,4.183,0,0,0,0,4.168,74.48,2.9527888084,2.952756,6,P-GPS,
22100,2022-08-15 23:27:50,0,0,2.952756,,,2.9527888084,2.624672,0,0,0,0,0,8.378,2.9527888084,2.952756,0,0,0,0,0,210.3, 0.7, 0.5,0,0,1024,1024,1024,1024,0,0,0,0,207.2,-58.5,0,96,4.192,4.183,0,0,0,0,4.168,74.48,2.9527888084,2.952756,6,P-GPS,
22200,2022-08-15 23:27:50,0,0,2.952756,,,2.9527888084,2.624672,0,0,0,0,0,8.375,2.9527888084,2.952756,0,0,0,0,0,210.3, 0.7, 0.3,0,0,1024,1024,1024,1024,0,0,0,0,207.2,-57.4,0,96,4.191,4.183,0,0,0,0,4.174,74.48,2.9527888084,2.952756,6,P-GPS,
22300,2022-08-15 23:27:50,0,0,2.952756,,,2.9527888084,2.624672,0,0,0,0,0,8.375,2.9527888084,2.952756,0,0,0,0,0,210.3, 0.6, 0.1,0,0,1024,1024,1024,1024,0,0,0,0,207.2,-56.3,0,96,4.191,4.183,0,0,0,0,4.174,74.48,2.9527888084,2.952756,6,P-GPS,
22400,2022-08-15 23:27:50,0,0,2.952756,,,2.9527888084,2.624672,0,0,0,0,0,8.375,2.9527888084,2.952756,0,0,0,0,0,210.3, 0.6, 0,0,0,1024,1024,1024,1024,0,0,0,0,207.2,-55.2,0,96,4.191,4.183,0,0,0,0,4.174,74.48,2.9527888084,2.952756,6,P-GPS,
22500,2022-08-15 23:27:50,0,0,2.952756,,,2.9527888084,2.624672,0,0,0,0,0,8.375,2.9527888084,2.952756,0,0,0,0,0,210.4, 0.5, -0.2,0,0,1024,1024,1024,1024,0,0,0,0,207.2,-54.1,0,96,4.191,4.183,0,0,0,0,4.174,74.48,2.9527888084,2.952756,6,P-GPS,
22600,2022-08-15 23:27:51,0,0,2.952756,,,2.9527888084,2.624672,0,0,0,0,0,8.375,2.9527888084,2.952756,0,0,0,0,0,210.4, 0.4, 0,0,0,1024,1024,1024,1024,0,0,0,0,207.2,-52.9,0,96,4.191,4.183,0,0,0,0,4.174,74.48,2.9527888084,2.952756,6,P-GPS,
22700,2022-08-15 23:27:51,0,0,2.952756,,,2.9527888084,2.624672,0,0,0,0,0,8.375,2.9527888084,2.952756,0,0,0,0,0,210.4, 0.3, 0.1,0,0,1024,1024,1024,1024,0,0,0,0,207.2,-51.8,0,96,4.191,4.183,0,0,0,0,4.174,74.48,2.9527888084,2.952756,6,P-GPS,
22800,2022-08-15 23:27:51,0,0,2.952756,,,2.9527888084,2.624672,0,0,0,0,0,8.375,2.9527888084,2.952756,0,0,0,0,0,210.5, 0.3, 0.3,0,0,1024,1024,1024,1024,0,0,0,0,207.2,-50.7,0,96,4.191,4.183,0,0,0,0,4.174,74.48,2.9527888084,2.952756,6,P-GPS,
22900,2022-08-15 23:27:51,0,0,2.952756,,,2.9527888084,2.624672,0,0,0,0,0,8.375,2.9527888084,2.952756,0,0,0,0,0,210.5, 0.3, 0.6,0,0,1024,1024,1024,1024,0,0,0,0,207.2,-49.6,0,96,4.191,4.183,0,0,0,0,4.174,74.48,2.9527888084,2.952756,6,P-GPS,
23000,2022-08-15 23:27:51,0,0,2.952756,,,2.9527888084,2.624672,0,0,0,0,0,8.375,2.9527888084,2.952756,0,0,0,0,0,210.4, 0.4, 0.5,0,0,1024,1024,1024,1024,0,0,0,0,207.2,-48.5,0,96,4.191,4.183,0,0,0,0,4.174,74.48,2.9527888084,2.952756,6,P-GPS,
23100,2022-08-15 23:27:51,0,0,2.952756,,,2.9527888084,2.624672,0,0,0,0,0,8.375,2.9527888084,2.952756,0,0,0,0,0,210.4, 0.5, 0.2,0,0,1024,1024,1024,1024,0,0,0,0,207.2,-47.4,0,96,4.191,4.183,0,0,0,0,4.174,74.48,2.9527888084,2.952756,6,P-GPS,
23200,2022-08-15 23:27:51,0,0,2.952756,,,2.9527888084,2.624672,0,0,0,0,0,8.374,2.9527888084,2.952756,0,0,0,0,0,210.3, 0.5, -0.1,0,0,1024,1024,1024,1024,0,0,0,0,207.2,-46.4,0,96,4.189,4.181,0,0,0,0,4.153,74.66,2.9527888084,2.952756,6,P-GPS,
23300,2022-08-15 23:27:51,0,0,2.952756,,,2.9527888084,2.624672,0,0,0,0,0,8.374,2.9527888084,2.952756,0,0,0,0,0,210.4, 0.5, -0.1,0,0,1024,1024,1024,1024,0,0,0,0,207.2,-45.5,0,96,4.189,4.181,0,0,0,0,4.153,74.66,2.9527888084,2.952756,6,P-GPS,
23400,2022-08-15 23:27:51,0,0,2.952756,,,2.9527888084,2.624672,0,0,0,0,0,8.374,2.9527888084,2.952756,0,0,0,0,0,210.4, 0.4, -0.1,0,0,1024,1024,1024,1024,0,0,0,0,207.2,-44.8,0,96,4.189,4.181,0,0,0,0,4.153,74.66,2.9527888084,2.952756,6,P-GPS,
23500,2022-08-15 23:27:51,0,0,2.952756,,,2.9527888084,2.624672,0,0,0,0,0,8.374,2.9527888084,2.952756,0,0,0,0,0,210.4, 0.4, -0.1,0,0,1024,1024,1024,1024,0,0,0,0,207.2,-44.2,0,96,4.189,4.181,0,0,0,0,4.153,74.66,2.9527888084,2.952756,6,P-GPS,
23600,2022-08-15 23:27:52,0,0,2.952756,,,2.9527888084,2.624672,0,0,0,0,0,8.374,2.9527888084,2.952756,0,0,0,0,0,210.4, 0.3, -0.1,0,0,1024,1024,1024,1024,0,0,0,0,207.2,-43.6,0,96,4.189,4.181,0,0,0,0,4.153,74.66,2.9527888084,2.952756,6,P-GPS,
23700,2022-08-15 23:27:52,0,0,2.952756,,,2.9527888084,2.624672,0,0,0,0,0,8.374,2.9527888084,2.952756,0,0,0,0,0,210.4, 0.2, -0.3,0,0,1024,1024,1024,1024,0,0,0,0,207.2,-43,0,96,4.189,4.181,0,0,0,0,4.153,74.66,2.9527888084,2.952756,6,P-GPS,
23800,2022-08-15 23:27:52,0,0,2.952756,,,2.9527888084,2.624672,0,0,0,0,0,8.374,2.9527888084,2.952756,0,0,0,0,0,210.4, 0.1, -0.1,0,0,1024,1024,1024,1024,0,0,0,0,207.2,-42.5,0,96,4.189,4.181,0,0,0,0,4.153,74.66,2.9527888084,2.952756,6,P-GPS,
23900,2022-08-15 23:27:52,0,0,2.952756,,,2.9527888084,2.624672,0,0,0,0,0,8.374,2.9527888084,2.952756,0,0,0,0,0,210.4, 0.2, -0.2,0,0,1024,1024,1024,1024,0,0,0,0,207.2,-42,0,96,4.189,4.181,0,0,0,0,4.153,74.66,2.9527888084,2.952756,6,P-GPS,
24000,2022-08-15 23:27:52,0,0,2.952756,,,2.9527888084,2.624672,0,0,0,0,0,8.374,2.9527888084,2.952756,0,0,0,0,0,210.4, 0.3, -0.2,0,0,1024,1024,1024,1024,0,0,0,0,207.2,-41.4,0,96,4.189,4.181,0,0,0,0,4.153,74.66,2.9527888084,2.952756,6,P-GPS,
24100,2022-08-15 23:27:52,0,0,2.952756,,,2.9527888084,2.624672,0,0,0,0,0,8.374,2.9527888084,2.952756,0,0,0,0,0,210.5, 0.4, 0,0,0,1024,1024,1024,1024,0,0,0,0,207.2,-40.9,0,96,4.189,4.181,0,0,0,0,4.153,74.66,2.9527888084,2.952756,6,P-GPS,
24200,2022-08-15 23:27:52,0,0,2.952756,,,2.9527888084,2.624672,0,0,0,0,0,8.37,2.9527888084,2.952756,0,0,0,0,0,210.4, 0.2, 0.1,0,0,1024,1024,1024,1024,0,0,0,0,207.2,-40.4,0,96,4.187,4.181,0,0,0,0,4.179,74.66,2.9527888084,2.952756,6,P-GPS,
24300,2022-08-15 23:27:52,0,0,2.952756,,,2.9527888084,2.624672,0,0,0,0,0,8.37,2.9527888084,2.952756,0,0,0,0,0,210.4, 0.3, 0,0,0,1024,1024,1024,1024,0,0,0,0,207.2,-39.8,0,96,4.187,4.181,0,0,0,0,4.179,74.66,2.9527888084,2.952756,6,P-GPS,
24400,2022-08-15 23:27:52,0,0,2.952756,,,2.9527888084,2.624672,0,0,0,0,0,8.37,2.9527888084,2.952756,0,0,0,0,0,210.4, 0.4, 0.1,0,0,1024,1024,1024,1024,0,0,0,0,207.2,-39.2,0,96,4.187,4.181,0,0,0,0,4.179,74.66,2.9527888084,2.952756,6,P-GPS,
24500,2022-08-15 23:27:53,0,0,2.952756,,,2.9527888084,2.624672,0,0,0,0,0,8.37,2.9527888084,2.952756,0,0,0,0,0,210.5, 0.3, 0.3,0,0,1024,1024,1024,1024,0,0,0,0,207.2,-38.6,0,96,4.187,4.181,0,0,0,0,4.179,74.66,2.9527888084,2.952756,6,P-GPS,
24600,2022-08-15 23:27:53,0,0,2.952756,,,2.9527888084,2.624672,0,0,0,0,0,8.37,2.9527888084,2.952756,0,0,0,0,0,210.5, 0.4, 0.5,0,0,1024,1024,1024,1024,0,0,0,0,207.2,-38,0,96,4.187,4.181,0,0,0,0,4.179,74.66,2.9527888084,2.952756,6,P-GPS,
24700,2022-08-15 23:27:53,0,0,2.952756,,,2.9527888084,2.624672,0,0,0,0,0,8.37,2.9527888084,2.952756,0,0,0,0,0,210.5, 0.4, 0.3,0,0,1024,1024,1024,1024,0,0,0,0,207.2,-37.4,0,96,4.187,4.181,0,0,0,0,4.179,74.66,2.9527888084,2.952756,6,P-GPS,
24800,2022-08-15 23:27:53,0,0,2.952756,,,2.9527888084,2.624672,0,0,0,0,0,8.37,2.9527888084,2.952756,0,0,0,0,0,210.5, 0.2, 0.1,0,0,1024,1024,1024,1024,0,0,0,0,207.2,-36.8,0,96,4.187,4.181,0,0,0,0,4.179,74.66,2.9527888084,2.952756,6,P-GPS,
24900,2022-08-15 23:27:53,0,0,2.624672,,,2.6247048084,2.624672,0,0,0,0,0,8.37,2.9527888084,2.952756,0,0,0,0,0,210.5, 0.3, 0,0,0,1024,1024,1024,1024,0,0,0,0,207.2,-36.2,0,96,4.187,4.181,0,0,0,0,4.179,74.66,2.6247048084,2.624672,6,P-GPS,
25000,2022-08-15 23:27:53,0,0,2.624672,,,2.6247048084,2.624672,0,0,0,0,0,8.37,2.9527888084,2.952756,0,0,0,0,0,210.5, 0.2, -0.1,0,0,1024,1024,1024,1024,0,0,0,0,207.2,-35.6,0,96,4.187,4.181,0,0,0,0,4.179,74.66,2.6247048084,2.624672,6,P-GPS,
