time(millisecond),datetime(utc),latitude,longitude,height_above_takeoff(feet),height_above_ground_at_drone_location(feet),ground_elevation_at_drone_location(feet),altitude_above_seaLevel(feet),height_sonar(feet),speed(mph),distance(feet),mileage(feet),satellites,gpslevel,voltage(v),max_altitude(feet),max_ascent(feet),max_speed(mph),max_distance(feet), xSpeed(mph), ySpeed(mph), zSpeed(mph), compass_heading(degrees), pitch(degrees), roll(degrees),isPhoto,isVideo,rc_elevator,rc_aileron,rc_throttle,rc_rudder,rc_elevator(percent),rc_aileron(percent),rc_throttle(percent),rc_rudder(percent),gimbal_heading(degrees),gimbal_pitch(degrees),gimbal_roll(degrees),battery_percent,voltageCell1,voltageCell2,voltageCell3,voltageCell4,voltageCell5,voltageCell6,current(A),battery_temperature(f),altitude(feet),ascent(feet),flycStateRaw,flycState,message
0,2022-08-30 05:14:30,0,0,0,,,3.28084E-5,0.328084,0,0,0,0,0,0,3.28084E-5,0,0,0,0,0,0,50.8, 3.1, 0.1,0,0,364,364,364,1684,-100,-100,-100,100,50.8,0,0,81,4.153,4.149,0,0,0,0,0,94.64,3.28084E-5,0,41,Motors_Started,
100,2022-08-30 05:14:30,0,0,0,,,3.28084E-5,0.328084,0,0,0,0,0,0,3.28084E-5,0,0,0,0,0,0,50.8, 3.1, 0.1,0,0,364,364,364,1684,-100,-100,-100,100,50.8,0,0,81,4.153,4.149,0,0,0,0,0,94.64,3.28084E-5,0,41,Motors_Started,"Setting new Return-To-Home altitude to 60m (197 ft). Data Recorder File Index is 35. Setting new Maximum Flight Altitude to 30m (98 ft)"
200,2022-08-30 05:14:30,0,0,0,,,3.28084E-5,0.328084,0,0,0,0,0,0,3.28084E-5,0,0,0,0,0,0,50.8, 3.1, 0.1,0,0,364,364,364,1684,-100,-100,-100,100,50.8,0,0,81,4.153,4.149,0,0,0,0,0,94.64,3.28084E-5,0,41,Motors_Started,"En vuelo"
300,2022-08-30 05:14:30,0,0,0,,,3.28084E-5,0.328084,0,0,0,0,0,0,3.28084E-5,0,0,0,0,0,0,50.8, 3.1, 0.1,0,0,1024,484,553,1684,0,-82,-71,100,50.8,0,0,81,4.153,4.149,0,0,0,0,0,94.64,3.28084E-5,0,41,Motors_Started,
400,2022-08-30 05:14:30,0,0,0,,,3.28084E-5,0.328084,0,0,0,0,0,0,3.28084E-5,0,0,0,0,0,0,50.8, 3.1, 0.1,0,0,1024,1024,1024,1024,0,0,0,0,50.8,0,0,81,4.153,4.149,0,0,0,0,0,94.64,3.28084E-5,0,41,Motors_Started,
500,2022-08-30 05:14:31,0,0,0,,,3.28084E-5,0.328084,0,0,0,0,0,0,3.28084E-5,0,0,0,0,0,0,50.8, 3.1, 0.1,0,0,1024,1024,1024,1024,0,0,0,0,50.8,0,0,81,4.153,4.149,0,0,0,0,0,94.64,3.28084E-5,0,41,Motors_Started,
600,2022-08-30 05:14:31,0,0,0,,,3.28084E-5,0.328084,0,0,0,0,0,0,3.28084E-5,0,0,0,0,0,0,50.8, 3.1, 0.1,0,0,1024,1024,1164,1024,0,0,21,0,50.8,0,0,81,4.153,4.149,0,0,0,0,0,94.64,3.28084E-5,0,41,Motors_Started,
700,2022-08-30 05:14:31,0,0,0,,,3.28084E-5,0.328084,0,0,0,0,0,0,3.28084E-5,0,0,0,0,0,0,50.8, 3.1, 0.1,0,0,1024,1024,1164,1024,0,0,21,0,50.8,0,0,81,4.153,4.149,0,0,0,0,0,94.64,3.28084E-5,0,41,Motors_Started,
800,2022-08-30 05:14:31,0,0,0,,,3.28084E-5,0.328084,0,0,0,0,0,0,3.28084E-5,0,0,0,0,0,0,50.8, 3.1, 0.1,0,0,1024,1024,1684,1024,0,0,100,0,50.8,0,0,81,4.153,4.149,0,0,0,0,0,94.64,3.28084E-5,0,41,Motors_Started,
900,2022-08-30 05:14:31,0,0,0,,,3.28084E-5,0.328084,0,0,0,0,0,0,3.28084E-5,0,0,0,0,0,0,50.8, 3.1, 0.1,0,0,1024,1024,1485,1024,0,0,70,0,50.8,0,0,81,4.153,4.149,0,0,0,0,0,94.64,3.28084E-5,0,41,Motors_Started,
1000,2022-08-30 05:14:31,0,0,0,,,3.28084E-5,0.328084,0,0,0,0,0,0,3.28084E-5,0,0,0,0,0,0,50.9, 3, 0.2,0,0,1024,1024,1024,1024,0,0,0,0,50.8,0,0,81,4.153,4.149,0,0,0,0,0,94.64,3.28084E-5,0,41,Motors_Started,
1100,2022-08-30 05:14:31,0,0,0,,,3.28084E-5,0.328084,0,0,0,0,0,0,3.28084E-5,0,0,0,0,0,0,50.9, 3, 0.1,0,0,1024,1024,1024,1024,0,0,0,0,50.8,0,0,81,4.153,4.149,0,0,0,0,0,94.64,3.28084E-5,0,10,Assisted_Takeoff,
1200,2022-08-30 05:14:31,0,0,0,,,3.28084E-5,0.328084,0,0,0,0,0,0,3.28084E-5,0,0,0,0,0,0,50.9, 3, 0.1,0,0,1024,1024,1349,1024,0,0,49,0,50.8,0,0,81,4.153,4.149,0,0,0,0,0,94.64,3.28084E-5,0,10,Assisted_Takeoff,
1300,2022-08-30 05:14:31,0,0,0,,,3.28084E-5,0.328084,0,0,0,0,0,0,3.28084E-5,0,0,0,0,0,0,51, 3.1, 0.1,0,0,1024,1024,1518,1024,0,0,75,0,50.9,0,0,81,4.153,4.149,0,0,0,0,0,94.64,3.28084E-5,0,10,Assisted_Takeoff,
1400,2022-08-30 05:14:32,0,0,0,,,3.28084E-5,0.328084,0,0,0,0,0,0,3.28084E-5,0,0,0,0,0,0,51, 3, 0.1,0,0,1024,1024,1534,1024,0,0,77,0,50.9,0,0,81,4.153,4.149,0,0,0,0,0,94.64,3.28084E-5,0,10,Assisted_Takeoff,
1500,2022-08-30 05:14:32,0,0,0,,,3.28084E-5,0.328084,0,0,0,0,0,0,3.28084E-5,0,0,0,0,0,0,51, 3, 0.1,0,0,1024,1024,1047,1024,0,0,3,0,50.9,0,0,81,4.153,4.149,0,0,0,0,0,94.64,3.28084E-5,0,10,Assisted_Takeoff,
1600,2022-08-30 05:14:32,0,0,0,,,3.28084E-5,0.328084,0,0,0,0,0,0,3.28084E-5,0,0,0,0,0,0,51.2, 3.1, 0.1,0,0,1024,1024,1047,1024,0,0,3,0,51,0,0,81,4.153,4.149,0,0,0,0,0,94.64,3.28084E-5,0,10,Assisted_Takeoff,
1700,2022-08-30 05:14:32,0,0,0,,,3.28084E-5,0.328084,0,0,0,0,0,8.295,3.28084E-5,0,0,0,0,0,0,51.7, 2.3, 0,0,0,1024,1024,1024,1024,0,0,0,0,51.2,0,0,81,4.153,4.149,0,0,0,0,1.56,94.64,3.28084E-5,0,10,Assisted_Takeoff,
1800,2022-08-30 05:14:32,0,0,0,,,3.28084E-5,0.328084,0,0,0,0,0,8.295,3.28084E-5,0,0,0,0,0,0,52.6, 2.1, 0.1,0,0,1024,1024,1024,1024,0,0,0,0,51.9,0,0,81,4.153,4.149,0,0,0,0,1.56,94.64,3.28084E-5,0,10,Assisted_Takeoff,
1900,2022-08-30 05:14:32,0,0,0,,,3.28084E-5,0.328084,0,0,0,0,0,8.295,3.28084E-5,0,0,0,0,0,0,53.1, 2.9, 0.1,0,0,1024,1024,1024,1024,0,0,0,0,52.6,0,0,81,4.153,4.149,0,0,0,0,1.56,94.64,3.28084E-5,0,10,Assisted_Takeoff,
2000,2022-08-30 05:14:32,0,0,0,,,3.28084E-5,0.328084,0,0,0,0,0,8.295,3.28084E-5,0,0,0,0,0,0,53.3, 3, 0,0,0,1024,1024,1024,1024,0,0,0,0,53,0,0,81,4.153,4.149,0,0,0,0,1.56,94.64,3.28084E-5,0,10,Assisted_Takeoff,
2100,2022-08-30 05:14:32,0,0,0,,,3.28084E-5,0.328084,0,0,0,0,0,8.295,3.28084E-5,0,0,0,0,0,0,53.3, 2.9, 0,0,0,1024,1024,1164,1024,0,0,21,0,53.1,0,0,81,4.153,4.149,0,0,0,0,1.56,94.64,3.28084E-5,0,10,Assisted_Takeoff,
2200,2022-08-30 05:14:32,0,0,0,,,3.28084E-5,0.328084,0,0,0,0,0,8.295,3.28084E-5,0,0,0,0,0,0,53.4, 3, 0,0,0,1024,1024,1603,1024,0,0,88,0,53.2,0,0,81,4.153,4.149,0,0,0,0,1.56,94.64,3.28084E-5,0,10,Assisted_Takeoff,
2400,2022-08-30 05:14:32,0,0,0,,,3.28084E-5,0.328084,0,0,0,0,0,8.295,3.28084E-5,0,0,0,0,0,0,53.4, 3, 0,0,0,1024,1024,1453,1024,0,0,65,0,53.3,0,0,81,4.153,4.149,0,0,0,0,1.56,94.64,3.28084E-5,0,10,Assisted_Takeoff,
2500,2022-08-30 05:14:33,0,0,0,,,3.28084E-5,0.328084,0,0,0,0,0,8.295,3.28084E-5,0,0,0,0,0,0,53.3, 3, 0,0,0,1024,1024,1144,1024,0,0,18,0,53.3,0,0,81,4.153,4.149,0,0,0,0,1.56,94.64,3.28084E-5,0,10,Assisted_Takeoff,
2600,2022-08-30 05:14:33,0,0,0,,,3.28084E-5,0.328084,0,0,0,0,0,8.295,3.28084E-5,0,0,0,0,0,0,53.6, 1.9, 0,0,0,1024,1024,1144,1024,0,0,18,0,53.3,0,0,81,4.153,4.149,0,0,0,0,1.56,94.64,3.28084E-5,0,10,Assisted_Takeoff,
2700,2022-08-30 05:14:33,0,0,0,,,3.28084E-5,0.328084,0,0,0,0,0,8.276,3.28084E-5,0,0,0,0,0,0,54.3, -1.1, 0.2,0,0,1024,1024,1210,1024,0,0,28,0,53.6,0,0,81,4.147,4.141,0,0,0,0,1.964,94.64,3.28084E-5,0,10,Assisted_Takeoff,
2800,2022-08-30 05:14:33,0,0,0,,,3.28084E-5,0.328084,0,0,0,0,0,8.276,3.28084E-5,0,0,0,0,0,-0.447388,54.5, -1.3, 0,0,0,1024,1024,1270,1024,0,0,37,0,54,0,0,81,4.147,4.141,0,0,0,0,1.964,94.64,3.28084E-5,0,6,P-GPS,
2900,2022-08-30 05:14:33,0,0,0,,,3.28084E-5,0.328084,0,0,0,0,0,8.276,3.28084E-5,0,0,0,0,0,-0.671082,54.4, -0.6, 0,0,0,1024,1024,1044,1024,0,0,3,0,54,0,0,81,4.147,4.141,0,0,0,0,1.964,94.64,3.28084E-5,0,6,P-GPS,
3000,2022-08-30 05:14:33,0,0,0.328084,,,0.3281168084,0.656168,0,0,0,0,0,8.276,0.3281168084,0.328084,0,0,0,0,-0.671082,54.2, -0.2, 0.3,0,0,1024,1024,1024,1024,0,0,0,0,54,0,0,81,4.147,4.141,0,0,0,0,1.964,94.64,0.3281168084,0.328084,6,P-GPS,
3100,2022-08-30 05:14:33,0,0,0.328084,,,0.3281168084,0.656168,0,0,0,0,0,8.276,0.3281168084,0.328084,0,0,0,0,-0.894776,54.1, 0.5, 0,0,0,1024,1024,1024,1024,0,0,0,0,54,0,0,81,4.147,4.141,0,0,0,0,1.964,94.64,0.3281168084,0.328084,6,P-GPS,
3200,2022-08-30 05:14:33,0,0,0.328084,,,0.3281168084,0.656168,0,0,0,0,0,8.276,0.3281168084,0.328084,0,0,0,0,-0.894776,54.1, 0.2, -0.1,0,0,1024,1024,1024,1024,0,0,0,0,54,0,0,81,4.147,4.141,0,0,0,0,1.964,94.64,0.3281168084,0.328084,6,P-GPS,
3300,2022-08-30 05:14:33,0,0,0.656168,,,0.6562008084,0.984252,0,0,0,0,0,8.276,0.6562008084,0.656168,0,0,0,0,-0.894776,54, 0.1, 0,0,0,1024,1024,1024,1024,0,0,0,0,54,0,0,81,4.147,4.141,0,0,0,0,1.964,94.64,0.6562008084,0.656168,6,P-GPS,
3400,2022-08-30 05:14:33,0,0,0.656168,,,0.6562008084,0.984252,0,0,0,0,0,8.276,0.6562008084,0.656168,0,0,0,0,-0.894776,54, 0.2, -0.1,0,0,1024,1024,1024,1024,0,0,0,0,54,0,0,81,4.147,4.141,0,0,0,0,1.964,94.64,0.6562008084,0.656168,6,P-GPS,"Vuela con cuidado (sin GPS) Señal débil del GPS. Vuelo estacionario inestable. Vuela con cuidado (Code: 30002)"
3500,2022-08-30 05:14:34,0,0,0.656168,,,0.6562008084,0.984252,0,0,0,0,0,8.276,0.6562008084,0.656168,0,0,0,0,-0.894776,54, 0, 0,0,0,1024,1024,1024,1024,0,0,0,0,54,0,0,81,4.147,4.141,0,0,0,0,1.964,94.64,0.6562008084,0.656168,1,Atti,"Vuela con cuidado (modo Atti) Señal del GPS demasiado débil. Se ha pasado al modo Atti. La aeronave no puede hacer vuelo estacionario. Vuela con precaución (Code: 30022). Señal débil del GPS. Vuelo estacionario inestable. Vuela con cuidado (Code: 30002). Aeronave en modo Atti. No"
3600,2022-08-30 05:14:34,0,0,0.984252,,,0.9842848084,1.312336,0,0,0,0,0,8.276,0.9842848084,0.984252,0,0,0,0,-0.894776,54, -0.1, 0,0,0,1024,1024,1024,1024,0,0,0,0,54,0,0,81,4.147,4.141,0,0,0,0,1.964,94.64,0.9842848084,0.984252,1,Atti,"La brújula no funciona bien el GPS no tiene buena señal. Cambia a modo Atti (Code: 30020). Aeronave en modo Atti. No se puede hacer vuelo estacionario. Vuela con cuidado (Code: 30004)"
3700,2022-08-30 05:14:34,0,0,0.984252,,,0.9842848084,1.312336,0,0,0,0,0,8.216,0.9842848084,0.984252,0,0,0,0,-0.671082,54.1, -0.1, 0,0,0,1024,1024,1024,1024,0,0,0,0,54,0,0,81,4.111,4.102,0,0,0,0,3.597,94.64,0.9842848084,0.984252,1,Atti,
3800,2022-08-30 05:14:34,0,0,1.312336,,,1.3123688084,1.312336,0,0,0,0,0,8.216,1.3123688084,1.312336,0,0,0,0,-0.447388,54.1, 0, -0.1,0,0,1024,1024,1024,1024,0,0,0,0,54,0,0,81,4.111,4.102,0,0,0,0,3.597,94.64,1.3123688084,1.312336,6,P-GPS,
3900,2022-08-30 05:14:34,0,0,1.312336,,,1.3123688084,1.64042,0,0,0,0,0,8.216,1.3123688084,1.312336,0,0,0,0,-0.447388,54.1, 0.2, -0.1,0,0,1024,1024,1024,1024,0,0,0,0,54,0,0,81,4.111,4.102,0,0,0,0,3.597,94.64,1.3123688084,1.312336,6,P-GPS,
4000,2022-08-30 05:14:34,0,0,1.312336,,,1.3123688084,1.64042,0,0,0,0,0,8.216,1.3123688084,1.312336,0,0,0,0,-0.223694,54, 0.3, -0.1,0,0,1024,1024,1024,1024,0,0,0,0,54,0,0,81,4.111,4.102,0,0,0,0,3.597,94.64,1.3123688084,1.312336,6,P-GPS,
4100,2022-08-30 05:14:34,0,0,1.312336,,,1.3123688084,1.64042,0,0,0,0,0,8.216,1.3123688084,1.312336,0,0,0,0,0,54, 0.4, 0,0,0,1024,1024,1024,1024,0,0,0,0,54,0,0,81,4.111,4.102,0,0,0,0,3.597,94.64,1.3123688084,1.312336,6,P-GPS,
4200,2022-08-30 05:14:34,0,0,1.312336,,,1.3123688084,1.64042,0,0,0,0,0,8.216,1.3123688084,1.312336,0,0,0,0,0,54, 0.4, 0,0,0,1024,1024,1024,1024,0,0,0,0,54,0,0,81,4.111,4.102,0,0,0,0,3.597,94.64,1.3123688084,1.312336,6,P-GPS,
4300,2022-08-30 05:14:34,0,0,1.64042,,,1.6404528084,1.64042,0,0,0,0,0,8.216,1.6404528084,1.64042,0,0,0,0,0,54, 0.5, 0,0,0,1024,1024,1024,1024,0,0,0,0,54,0,0,81,4.111,4.102,0,0,0,0,3.597,94.64,1.6404528084,1.64042,6,P-GPS,
4400,2022-08-30 05:14:35,0,0,1.64042,,,1.6404528084,1.64042,0,0,0,0,0,8.216,1.6404528084,1.64042,0,0,0,0,0,54, 0.5, 0,0,0,1024,1024,1024,1024,0,0,0,0,54,0,0,81,4.111,4.102,0,0,0,0,3.597,94.64,1.6404528084,1.64042,6,P-GPS,
4500,2022-08-30 05:14:35,0,0,1.64042,,,1.6404528084,1.64042,0,0,0,0,0,8.216,1.6404528084,1.64042,0,0,0,0,0,54, 0.4, 0,0,0,1024,1024,1024,1024,0,0,0,0,54,0,0,81,4.111,4.102,0,0,0,0,3.597,94.64,1.6404528084,1.64042,6,P-GPS,
4600,2022-08-30 05:14:35,0,0,1.64042,,,1.6404528084,1.64042,0,0,0,0,0,8.216,1.6404528084,1.64042,0,0,0,0,0,54, 0.4, 0,0,0,1024,1024,1024,1024,0,0,0,0,54,0,0,81,4.111,4.102,0,0,0,0,3.597,94.64,1.6404528084,1.64042,6,P-GPS,
4700,2022-08-30 05:14:35,0,0,1.64042,,,1.6404528084,1.64042,0,0,0,0,0,8.216,1.6404528084,1.64042,0,0,0,0,0,54, 0.4, 0,0,0,1024,1024,1024,1024,0,0,0,0,54,0,0,81,4.111,4.102,0,0,0,0,3.597,94.64,1.6404528084,1.64042,6,P-GPS,
4800,2022-08-30 05:14:35,0,0,1.64042,,,1.6404528084,1.64042,0,0,0,0,0,8.214,1.6404528084,1.64042,0,0,0,0,0,54, 0.4, 0,0,0,1024,1024,1024,1024,0,0,0,0,54,0,0,81,4.107,4.1,0,0,0,0,4.004,94.64,1.6404528084,1.64042,6,P-GPS,
4900,2022-08-30 05:14:35,0,0,1.64042,,,1.6404528084,1.64042,0,0,0,0,0,8.214,1.6404528084,1.64042,0,0,0,0,0,54, 0.5, -0.1,0,0,1024,1024,1024,1024,0,0,0,0,54,0,0,81,4.107,4.1,0,0,0,0,4.004,94.64,1.6404528084,1.64042,6,P-GPS,
5000,2022-08-30 05:14:35,0,0,1.64042,,,1.6404528084,1.64042,0,0,0,0,0,8.214,1.6404528084,1.64042,0,0,0,0,0,54, 0.5, -0.1,0,0,1024,1024,1024,1024,0,0,0,0,54,0,0,81,4.107,4.1,0,0,0,0,4.004,94.64,1.6404528084,1.64042,6,P-GPS,
5100,2022-08-30 05:14:35,0,0,1.64042,,,1.6404528084,1.64042,0,0,0,0,0,8.214,1.6404528084,1.64042,0,0,0,0,0,54, 0.5, 0,0,0,1024,1024,1024,1024,0,0,0,0,54,0,0,81,4.107,4.1,0,0,0,0,4.004,94.64,1.6404528084,1.64042,6,P-GPS,
5200,2022-08-30 05:14:35,0,0,1.64042,,,1.6404528084,1.64042,0,0,0,0,0,8.214,1.6404528084,1.64042,0,0,0,0,0,54, 0.4, 0,0,0,1024,1024,1024,1024,0,0,0,0,54,0,0,81,4.107,4.1,0,0,0,0,4.004,94.64,1.6404528084,1.64042,6,P-GPS,
5300,2022-08-30 05:14:35,0,0,1.64042,,,1.6404528084,1.64042,0,0,0,0,0,8.214,1.6404528084,1.64042,0,0,0,0,0,54, 0.5, 0,0,0,1024,1024,1024,1024,0,0,0,0,54,0,0,81,4.107,4.1,0,0,0,0,4.004,94.64,1.6404528084,1.64042,6,P-GPS,
5400,2022-08-30 05:14:36,0,0,1.64042,,,1.6404528084,1.64042,0,0,0,0,0,8.214,1.6404528084,1.64042,0,0,0,0,0,54, 0.4, 0,0,0,1024,1024,1024,1024,0,0,0,0,54,0,0,81,4.107,4.1,0,0,0,0,4.004,94.64,1.6404528084,1.64042,6,P-GPS,
5500,2022-08-30 05:14:36,0,0,1.64042,,,1.6404528084,1.64042,0,0,0,0,0,8.214,1.6404528084,1.64042,0,0,0,0,0,54, 0.4, 0,0,0,1024,1024,1024,1024,0,0,0,0,54,0,0,81,4.107,4.1,0,0,0,0,4.004,94.64,1.6404528084,1.64042,6,P-GPS,
5600,2022-08-30 05:14:36,0,0,1.64042,,,1.6404528084,1.64042,0,0,0,0,0,8.214,1.6404528084,1.64042,0,0,0,0,0,53.9, 0.4, -0.1,0,0,1024,1024,1024,1024,0,0,0,0,54,0,0,81,4.107,4.1,0,0,0,0,4.004,94.64,1.6404528084,1.64042,6,P-GPS,
5700,2022-08-30 05:14:36,0,0,1.64042,,,1.6404528084,1.64042,0,0,0,0,0,8.214,1.6404528084,1.64042,0,0,0,0,0,54, 0.4, -0.1,0,0,1024,1024,1024,1024,0,0,0,0,54,0,0,81,4.107,4.1,0,0,0,0,4.004,94.64,1.6404528084,1.64042,6,P-GPS,
5800,2022-08-30 05:14:36,0,0,1.64042,,,1.6404528084,1.64042,0,0,0,0,0,8.214,1.6404528084,1.64042,0,0,0,0,0,54, 0.4, -0.1,0,0,1024,1024,1024,1024,0,0,0,0,54,0,0,81,4.103,4.096,0,0,0,0,4.004,94.64,1.6404528084,1.64042,6,P-GPS,
5900,2022-08-30 05:14:36,0,0,1.64042,,,1.6404528084,1.64042,0,0,0,0,0,8.214,1.6404528084,1.64042,0,0,0,0,0,54, 0.3, -0.1,0,0,1024,1024,1024,1024,0,0,0,0,54,0,0,81,4.103,4.096,0,0,0,0,4.004,94.64,1.6404528084,1.64042,6,P-GPS,
6000,2022-08-30 05:14:36,0,0,1.64042,,,1.6404528084,1.64042,0,0,0,0,0,8.214,1.6404528084,1.64042,0,0,0,0,0,54, 0.3, -0.1,0,0,1024,1024,1024,1024,0,0,0,0,54,0,0,81,4.103,4.096,0,0,0,0,4.004,94.64,1.6404528084,1.64042,6,P-GPS,
6100,2022-08-30 05:14:36,0,0,1.64042,,,1.6404528084,1.64042,0,0,0,0,0,8.214,1.6404528084,1.64042,0,0,0,0,0,54, 0.4, -0.1,0,0,1024,1024,1024,1024,0,0,0,0,54,0,0,80,4.103,4.096,0,0,0,0,4.004,94.64,1.6404528084,1.64042,6,P-GPS,
6200,2022-08-30 05:14:36,0,0,1.64042,,,1.6404528084,1.64042,0,0,0,0,0,8.214,1.6404528084,1.64042,0,0,0,0,0,54, 0.4, -0.1,0,0,1024,1024,1024,1024,0,0,0,0,54,0,0,80,4.103,4.096,0,0,0,0,4.004,94.64,1.6404528084,1.64042,6,P-GPS,
6300,2022-08-30 05:14:36,0,0,1.64042,,,1.6404528084,1.64042,0,0,0,0,0,8.214,1.6404528084,1.64042,0,0,0,0,0,54, 0.4, -0.1,0,0,1024,1024,1024,1024,0,0,0,0,54,0,0,80,4.103,4.096,0,0,0,0,4.004,94.64,1.6404528084,1.64042,6,P-GPS,
6400,2022-08-30 05:14:36,0,0,1.64042,,,1.6404528084,1.64042,0,0,0,0,0,8.214,1.6404528084,1.64042,0,0,0,0,0,54, 0.4, 0,0,0,1024,1024,1024,1024,0,0,0,0,54,0,0,80,4.103,4.096,0,0,0,0,4.004,94.64,1.6404528084,1.64042,6,P-GPS,
6500,2022-08-30 05:14:37,0,0,1.64042,,,1.6404528084,1.64042,0,0,0,0,0,8.214,1.6404528084,1.64042,0,0,0,0,0,54, 0.3, 0,0,0,1024,1024,1024,1024,0,0,0,0,54,0,0,80,4.103,4.096,0,0,0,0,4.004,94.64,1.6404528084,1.64042,6,P-GPS,
6600,2022-08-30 05:14:37,0,0,1.64042,,,1.6404528084,1.64042,0,0,0,0,0,8.214,1.6404528084,1.64042,0,0,0,0,0,54, 0.3, 0,0,0,1024,1024,1024,1024,0,0,0,0,54,0,0,80,4.103,4.096,0,0,0,0,4.004,94.64,1.6404528084,1.64042,6,P-GPS,"En vuelo"
6700,2022-08-30 05:14:37,0,0,1.64042,,,1.6404528084,1.64042,0,0,0,0,0,8.214,1.6404528084,1.64042,0,0,0,0,0,54, 0.3, 0,0,0,1024,1024,1024,1024,0,0,0,0,54,0,0,80,4.103,4.096,0,0,0,0,4.004,94.64,1.6404528084,1.64042,6,P-GPS,
6800,2022-08-30 05:14:37,0,0,1.64042,,,1.6404528084,1.64042,0,0,0,0,0,8.2,1.6404528084,1.64042,0,0,0,0,0,54, 0.3, 0,0,0,1024,1024,1024,1024,0,0,0,0,54,0,0,80,4.099,4.09,0,0,0,0,4.181,94.64,1.6404528084,1.64042,6,P-GPS,
6900,2022-08-30 05:14:37,0,0,1.64042,,,1.6404528084,1.64042,0,0,0,0,0,8.2,1.6404528084,1.64042,0,0,0,0,0,54, 0.3, 0,0,0,1024,1024,1024,1024,0,0,0,0,54,0,0,80,4.099,4.09,0,0,0,0,4.181,94.64,1.6404528084,1.64042,6,P-GPS,
7000,2022-08-30 05:14:37,0,0,1.64042,,,1.6404528084,1.64042,0,0,0,0,0,8.2,1.6404528084,1.64042,0,0,0,0,0,54, 0.3, 0,0,0,1024,1024,1024,1024,0,0,0,0,54,0,0,80,4.099,4.09,0,0,0,0,4.181,94.64,1.6404528084,1.64042,6,P-GPS,
7100,2022-08-30 05:14:37,0,0,1.64042,,,1.6404528084,1.64042,0,0,0,0,0,8.2,1.6404528084,1.64042,0,0,0,0,0,54, 0.3, 0,0,0,1024,1024,1024,1024,0,0,0,0,54,0,0,80,4.099,4.09,0,0,0,0,4.181,94.64,1.6404528084,1.64042,6,P-GPS,
7200,2022-08-30 05:14:37,0,0,1.64042,,,1.6404528084,1.64042,0,0,0,0,0,8.2,1.6404528084,1.64042,0,0,0,0,0,54, 0.4, 0,0,0,1024,1024,1024,1024,0,0,0,0,54,0,0,80,4.099,4.09,0,0,0,0,4.181,94.64,1.6404528084,1.64042,6,P-GPS,
7300,2022-08-30 05:14:37,0,0,1.64042,,,1.6404528084,1.64042,0,0,0,0,0,8.2,1.6404528084,1.64042,0,0,0,0,0,54, 0.4, -0.1,0,0,1024,1024,1024,1024,0,0,0,0,54,0,0,80,4.099,4.09,0,0,0,0,4.181,94.64,1.6404528084,1.64042,6,P-GPS,
7400,2022-08-30 05:14:37,0,0,1.64042,,,1.6404528084,1.64042,0,0,0,0,0,8.2,1.6404528084,1.64042,0,0,0,0,0,54, 0.4, -0.3,0,0,1024,1024,1024,1024,0,0,0,0,54,0,0,80,4.099,4.09,0,0,0,0,4.181,94.64,1.6404528084,1.64042,6,P-GPS,
7500,2022-08-30 05:14:38,0,0,1.64042,,,1.6404528084,1.64042,0,0,0,0,0,8.2,1.6404528084,1.64042,0,0,0,0,0,54, 0.3, -0.2,0,0,1024,1024,1024,1024,0,0,0,0,54,0,0,80,4.099,4.09,0,0,0,0,4.181,94.64,1.6404528084,1.64042,6,P-GPS,
7600,2022-08-30 05:14:38,0,0,1.64042,,,1.6404528084,1.64042,0,0,0,0,0,8.2,1.6404528084,1.64042,0,0,0,0,0,54, 0.3, -0.2,0,0,1024,1024,1024,1024,0,0,0,0,54,0,0,80,4.099,4.09,0,0,0,0,4.181,94.64,1.6404528084,1.64042,6,P-GPS,
7700,2022-08-30 05:14:38,0,0,1.64042,,,1.6404528084,1.64042,0,0,0,0,0,8.2,1.6404528084,1.64042,0,0,0,0,0,54, 0.3, -0.2,0,0,1024,1024,1024,1024,0,0,0,0,54,0,0,80,4.099,4.09,0,0,0,0,4.181,94.64,1.6404528084,1.64042,6,P-GPS,
7800,2022-08-30 05:14:38,0,0,1.64042,,,1.6404528084,1.64042,0,0,0,0,0,8.193,1.6404528084,1.64042,0,0,0,0,0,54, 0.4, -0.2,0,0,1024,1024,1024,1024,0,0,0,0,54,0,0,80,4.097,4.088,0,0,0,0,4.197,94.64,1.6404528084,1.64042,6,P-GPS,
7900,2022-08-30 05:14:38,0,0,1.64042,,,1.6404528084,1.64042,0,0,0,0,0,8.193,1.6404528084,1.64042,0,0,0,0,0,54, 0.3, -0.3,0,0,1024,1024,1024,1024,0,0,0,0,54,0,0,80,4.097,4.088,0,0,0,0,4.197,94.64,1.6404528084,1.64042,6,P-GPS,
8000,2022-08-30 05:14:38,0,0,1.64042,,,1.6404528084,1.64042,0,0,0,0,0,8.193,1.6404528084,1.64042,0,0,0,0,0,54, 0.3, -0.2,0,0,1024,1024,1024,1024,0,0,0,0,54,0,0,80,4.097,4.088,0,0,0,0,4.197,94.64,1.6404528084,1.64042,6,P-GPS,
8100,2022-08-30 05:14:38,0,0,1.64042,,,1.6404528084,1.64042,0,0,0,0,0,8.193,1.6404528084,1.64042,0,0,0,0,0,53.9, 0.3, 0,0,0,1024,1024,1024,1024,0,0,0,0,54,0,0,80,4.097,4.088,0,0,0,0,4.197,94.64,1.6404528084,1.64042,6,P-GPS,
8200,2022-08-30 05:14:38,0,0,1.64042,,,1.6404528084,1.64042,0,0,0,0,0,8.193,1.6404528084,1.64042,0,0,0,0,0,54, 0.3, 0.1,0,0,1024,1024,1024,1024,0,0,0,0,54,0,0,80,4.097,4.088,0,0,0,0,4.197,94.64,1.6404528084,1.64042,6,P-GPS,
8300,2022-08-30 05:14:38,0,0,1.64042,,,1.6404528084,1.64042,0,0,0,0,0,8.193,1.6404528084,1.64042,0,0,0,0,0,54, 0.4, 0,0,0,1024,1024,1024,1024,0,0,0,0,54,0,0,80,4.097,4.088,0,0,0,0,4.197,94.64,1.6404528084,1.64042,6,P-GPS,
8400,2022-08-30 05:14:39,0,0,1.64042,,,1.6404528084,1.64042,0,0,0,0,0,8.193,1.6404528084,1.64042,0,0,0,0,0,54, 0.3, 0,0,0,1024,1024,1024,1024,0,0,0,0,54,0,0,80,4.097,4.088,0,0,0,0,4.197,94.64,1.6404528084,1.64042,6,P-GPS,
8500,2022-08-30 05:14:39,0,0,1.64042,,,1.6404528084,1.64042,0,0,0,0,0,8.193,1.6404528084,1.64042,0,0,0,0,0,53.9, 0.4, 0,0,0,1024,1024,1024,1024,0,0,0,0,54,0,0,80,4.097,4.088,0,0,0,0,4.197,94.64,1.6404528084,1.64042,6,P-GPS,
8600,2022-08-30 05:14:39,0,0,1.64042,,,1.6404528084,1.64042,0,0,0,0,0,8.193,1.6404528084,1.64042,0,0,0,0,0,53.9, 0.3, 0,0,0,1024,1024,1091,1024,0,0,10,0,54,0,0,80,4.097,4.088,0,0,0,0,4.197,94.64,1.6404528084,1.64042,6,P-GPS,
8700,2022-08-30 05:14:39,0,0,1.64042,,,1.6404528084,1.64042,0,0,0,0,0,8.193,1.6404528084,1.64042,0,0,0,0,0,54, 0.3, 0,0,0,1024,1024,1148,1024,0,0,19,0,54,0,0,80,4.097,4.088,0,0,0,0,4.197,94.64,1.6404528084,1.64042,6,P-GPS,
8800,2022-08-30 05:14:39,0,0,1.64042,,,1.6404528084,1.64042,0,0,0,0,0,8.187,1.6404528084,1.64042,0,0,0,0,0,54, 0.3, 0.1,0,0,1024,1024,1024,1024,0,0,0,0,54,0,0,80,4.093,4.084,0,0,0,0,4.205,94.64,1.6404528084,1.64042,6,P-GPS,
8900,2022-08-30 05:14:39,0,0,1.64042,,,1.6404528084,1.64042,0,0,0,0,0,8.187,1.6404528084,1.64042,0,0,0,0,-0.223694,54, 0.1, 0,0,0,1024,1024,1024,1024,0,0,0,0,54,0,0,80,4.093,4.084,0,0,0,0,4.205,94.64,1.6404528084,1.64042,6,P-GPS,
9000,2022-08-30 05:14:39,0,0,1.968504,,,1.9685368084,1.64042,0,0,0,0,0,8.187,1.9685368084,1.968504,0,0,0,0,0,54, 0.3, 0,0,0,1024,1024,1024,1024,0,0,0,0,54,0,0,80,4.093,4.084,0,0,0,0,4.205,94.64,1.9685368084,1.968504,6,P-GPS,
9100,2022-08-30 05:14:39,0,0,1.968504,,,1.9685368084,1.64042,0,0,0,0,0,8.187,1.9685368084,1.968504,0,0,0,0,0,54, 0.2, 0,0,0,1024,1024,1024,1024,0,0,0,0,54,0,0,80,4.093,4.084,0,0,0,0,4.205,94.64,1.9685368084,1.968504,6,P-GPS,
9200,2022-08-30 05:14:39,0,0,1.968504,,,1.9685368084,1.64042,0,0,0,0,0,8.187,1.9685368084,1.968504,0,0,0,0,0,54, 0.3, -0.2,0,0,1024,1024,1024,1024,0,0,0,0,54,0,0,80,4.093,4.084,0,0,0,0,4.205,94.64,1.9685368084,1.968504,6,P-GPS,
9300,2022-08-30 05:14:39,0,0,1.968504,,,1.9685368084,1.64042,0,0,0,0,0,8.187,1.9685368084,1.968504,0,0,0,0,0,54, 0.3, -0.2,0,0,1024,1024,1024,1024,0,0,0,0,54,0,0,80,4.093,4.084,0,0,0,0,4.205,94.64,1.9685368084,1.968504,6,P-GPS,
9400,2022-08-30 05:14:40,0,0,1.968504,,,1.9685368084,1.64042,0,0,0,0,0,8.187,1.9685368084,1.968504,0,0,0,0,0,54, 0.4, -0.1,0,0,1024,1024,1024,1024,0,0,0,0,54,0,0,80,4.093,4.084,0,0,0,0,4.205,94.64,1.9685368084,1.968504,6,P-GPS,
9500,2022-08-30 05:14:40,0,0,1.968504,,,1.9685368084,1.64042,0,0,0,0,0,8.187,1.9685368084,1.968504,0,0,0,0,0,54, 0.4, 0,0,0,1024,1024,1024,1024,0,0,0,0,54,0,0,80,4.093,4.084,0,0,0,0,4.205,94.64,1.9685368084,1.968504,6,P-GPS,
9600,2022-08-30 05:14:40,0,0,1.968504,,,1.9685368084,1.64042,0,0,0,0,0,8.187,1.9685368084,1.968504,0,0,0,0,0,54, 0.4, 0,0,0,1024,1024,1024,1024,0,0,0,0,54,0,0,80,4.093,4.084,0,0,0,0,4.205,94.64,1.9685368084,1.968504,6,P-GPS,
9700,2022-08-30 05:14:40,0,0,1.968504,,,1.9685368084,1.64042,0,0,0,0,0,8.187,1.9685368084,1.968504,0,0,0,0,0,54, 0.4, -0.1,0,0,1090,1024,1024,1024,10,0,0,0,54,0,0,80,4.093,4.084,0,0,0,0,4.205,94.64,1.9685368084,1.968504,6,P-GPS,
9800,2022-08-30 05:14:40,0,0,1.968504,,,1.9685368084,1.64042,0,0,0,0,0,8.18,1.9685368084,1.968504,0,0,0,0,0,54, 0.3, 0,0,0,1127,1024,1024,1024,16,0,0,0,54,0,0,80,4.09,4.082,0,0,0,0,4.23,94.82,1.9685368084,1.968504,6,P-GPS,
9900,2022-08-30 05:14:40,0,0,1.968504,,,1.9685368084,1.64042,0,0,0,0,0,8.18,1.9685368084,1.968504,0,0,0,0,0,54, -0.1, 0.3,0,0,1130,1024,1024,1024,16,0,0,0,54,0,0,80,4.09,4.082,0,0,0,0,4.23,94.82,1.9685368084,1.968504,6,P-GPS,
10000,2022-08-30 05:14:40,0,0,1.968504,,,1.9685368084,1.64042,0,0,0,0,0,8.18,1.9685368084,1.968504,0,0,0,0,0,54, -0.6, 0.1,0,0,1130,1024,1024,1024,16,0,0,0,54,0,0,80,4.09,4.082,0,0,0,0,4.23,94.82,1.9685368084,1.968504,6,P-GPS,
10100,2022-08-30 05:14:40,0,0,1.968504,,,1.9685368084,1.64042,0,0,0,0,0,8.18,1.9685368084,1.968504,0,0,0,0,0,54, -0.8, 0,0,0,1129,1024,1024,1024,16,0,0,0,54,0,0,80,4.09,4.082,0,0,0,0,4.23,94.82,1.9685368084,1.968504,6,P-GPS,
10200,2022-08-30 05:14:40,0,0,1.968504,,,1.9685368084,1.64042,0,0,0,0,0,8.18,1.9685368084,1.968504,0,0,0,0,0,54, -0.8, 0,0,0,1129,1024,1024,1024,16,0,0,0,54,0,0,80,4.09,4.082,0,0,0,0,4.23,94.82,1.9685368084,1.968504,6,P-GPS,
10300,2022-08-30 05:14:40,0,0,1.968504,,,1.9685368084,1.64042,0,0,0,0,0,8.18,1.9685368084,1.968504,0,0,0,0,0,54, -0.7, 0.2,0,0,1130,1024,1024,1024,16,0,0,0,54,0,0,80,4.09,4.082,0,0,0,0,4.23,94.82,1.9685368084,1.968504,6,P-GPS,
10400,2022-08-30 05:14:40,0,0,1.968504,,,1.9685368084,1.64042,0,0,0,0,0,8.18,1.9685368084,1.968504,0,0,0,0,0,54, -0.6, 0.2,0,0,1129,1024,1024,1024,16,0,0,0,54,0,0,80,4.09,4.082,0,0,0,0,4.23,94.82,1.9685368084,1.968504,6,P-GPS,
10500,2022-08-30 05:14:41,0,0,1.968504,,,1.9685368084,1.64042,0,0,0,0,0,8.18,1.9685368084,1.968504,0,0,0,0,0,54, -0.6, 0.2,0,0,1129,1024,1024,1024,16,0,0,0,54,0,0,80,4.09,4.082,0,0,0,0,4.23,94.82,1.9685368084,1.968504,6,P-GPS,
10600,2022-08-30 05:14:41,0,0,1.968504,,,1.9685368084,1.64042,0.223694,0,0,0,0,8.18,1.9685368084,1.968504,0,0,0,0.223694,0,54, -0.6, 0,0,0,1120,1024,1024,1024,15,0,0,0,54,0,0,80,4.09,4.082,0,0,0,0,4.23,94.82,1.9685368084,1.968504,6,P-GPS,
10700,2022-08-30 05:14:41,0,0,1.968504,,,1.9685368084,1.64042,0.223694,0,0,0,0,8.18,1.9685368084,1.968504,0,0,0,0.223694,0,54, -0.6, 0,0,0,1105,1024,1024,1024,12,0,0,0,54,0,0,80,4.09,4.082,0,0,0,0,4.23,94.82,1.9685368084,1.968504,6,P-GPS,
10800,2022-08-30 05:14:41,0,0,1.968504,,,1.9685368084,1.64042,0.223694,0,0,0,0,8.18,1.9685368084,1.968504,0,0,0,0.223694,0,54, -0.4, 0,0,0,1096,1024,1024,1024,11,0,0,0,54,0,0,80,4.09,4.082,0,0,0,0,4.23,94.82,1.9685368084,1.968504,6,P-GPS,
10900,2022-08-30 05:14:41,0,0,1.968504,,,1.9685368084,1.64042,0.223694,0,0,0,0,8.18,1.9685368084,1.968504,0,0,0,0.223694,0,54, -0.3, 0,0,0,1098,1024,1024,1024,11,0,0,0,54,0,0,80,4.09,4.082,0,0,0,0,4.23,94.82,1.9685368084,1.968504,6,P-GPS,
11000,2022-08-30 05:14:41,0,0,1.968504,,,1.9685368084,1.64042,0.223694,0,0,0,0,8.18,1.9685368084,1.968504,0,0,0,0.223694,0,54, -0.1, 0,0,0,1097,1024,1024,1024,11,0,0,0,54,0,0,80,4.09,4.082,0,0,0,0,4.23,94.82,1.9685368084,1.968504,6,P-GPS,
11100,2022-08-30 05:14:41,0,0,1.968504,,,1.9685368084,1.64042,0.223694,0,0,0,0,8.167,1.9685368084,1.968504,0,0,0,0.223694,0,54, 0, -0.1,0,0,1097,1024,1024,1024,11,0,0,0,54,0,0,80,4.087,4.078,0,0,0,0,4.216,94.82,1.9685368084,1.968504,6,P-GPS,
11200,2022-08-30 05:14:41,0,0,1.968504,,,1.9685368084,1.64042,0.223694,0,0,0,0,8.167,1.9685368084,1.968504,0,0,0,0.223694,0,54, 0, 0,0,0,1098,1024,1024,1024,11,0,0,0,54,0,0,80,4.087,4.078,0,0,0,0,4.216,94.82,1.9685368084,1.968504,6,P-GPS,
11300,2022-08-30 05:14:41,0,0,1.968504,,,1.9685368084,1.64042,0.223694,0,0,0,0,8.167,1.9685368084,1.968504,0,0,0,0.223694,0,54, 0, -0.1,0,0,1071,1024,1049,1024,7,0,4,0,54,0,0,80,4.087,4.078,0,0,0,0,4.216,94.82,1.9685368084,1.968504,6,P-GPS,
11400,2022-08-30 05:14:41,0,0,1.968504,,,1.9685368084,1.64042,0.3131716,0,0,0,0,8.167,1.9685368084,1.968504,0,0,0.223694,0.223694,0,54, 0, -0.2,0,0,1024,1024,1106,1024,0,0,12,0,54,0,0,80,4.087,4.078,0,0,0,0,4.216,94.82,1.9685368084,1.968504,6,P-GPS,
11500,2022-08-30 05:14:42,0,0,1.968504,,,1.9685368084,1.64042,0.3131716,0,0,0,0,8.167,1.9685368084,1.968504,0,0,0.223694,0.223694,0,54, 0.7, -0.2,0,0,1024,1024,1120,1024,0,0,15,0,54,0,0,80,4.087,4.078,0,0,0,0,4.216,94.82,1.9685368084,1.968504,6,P-GPS,
11600,2022-08-30 05:14:42,0,0,1.968504,,,1.9685368084,1.64042,0.223694,0,0,0,0,8.167,1.9685368084,1.968504,0,0,0,0.223694,0,53.9, 1.7, 0,0,0,1024,1024,1123,1024,0,0,15,0,54,0,0,80,4.087,4.078,0,0,0,0,4.216,94.82,1.9685368084,1.968504,6,P-GPS,
11700,2022-08-30 05:14:42,0,0,1.968504,,,1.9685368084,1.64042,0.223694,0,0,0,0,8.167,1.9685368084,1.968504,0,0,0,0.223694,0,54, 1.8, 0,0,0,1024,1024,1123,1024,0,0,15,0,54,0,0,80,4.087,4.078,0,0,0,0,4.216,94.82,1.9685368084,1.968504,6,P-GPS,
11800,2022-08-30 05:14:42,0,0,1.968504,,,1.9685368084,1.64042,0,0,0,0,0,8.167,1.9685368084,1.968504,0,0,0,0,-0.223694,53.9, 1.6, 0,0,0,1024,1024,1085,1024,0,0,9,0,54,0,0,80,4.087,4.078,0,0,0,0,4.216,94.82,1.9685368084,1.968504,6,P-GPS,
11900,2022-08-30 05:14:42,0,0,1.968504,,,1.9685368084,1.64042,0,0,0,0,0,8.167,1.9685368084,1.968504,0,0,0,0,-0.223694,54, 1.4, 0.1,0,0,1024,1024,1085,1024,0,0,9,0,54,0,0,80,4.087,4.078,0,0,0,0,4.216,94.82,1.9685368084,1.968504,6,P-GPS,
12000,2022-08-30 05:14:42,0,0,1.968504,,,1.9685368084,1.64042,0,0,0,0,0,8.167,1.9685368084,1.968504,0,0,0,0,-0.223694,54, 1.6, 0.2,0,0,1024,1024,1024,1024,0,0,0,0,54,0,0,80,4.087,4.078,0,0,0,0,4.216,94.82,1.9685368084,1.968504,6,P-GPS,
12100,2022-08-30 05:14:42,0,0,1.968504,,,1.9685368084,1.968504,0,0,0,0,0,8.162,1.9685368084,1.968504,0,0,0,0,0,53.9, 1.4, 0.1,0,0,1024,1024,1024,1024,0,0,0,0,54,0,0,80,4.083,4.073,0,0,0,0,4.265,94.82,1.9685368084,1.968504,6,P-GPS,
12200,2022-08-30 05:14:42,0,0,1.968504,,,1.9685368084,1.968504,0,0,0,0,0,8.162,1.9685368084,1.968504,0,0,0,0,0,53.1, 1.2, 0.2,0,0,1024,1024,1024,1024,0,0,0,0,54,0,0,80,4.083,4.073,0,0,0,0,4.265,94.82,1.9685368084,1.968504,6,P-GPS,
12300,2022-08-30 05:14:42,0,0,1.968504,,,1.9685368084,1.968504,0,0,0,0,0,8.162,1.9685368084,1.968504,0,0,0,0,0,52.1, 0.9, -0.3,0,0,1024,1024,1024,1024,0,0,0,0,54,0,0,80,4.083,4.073,0,0,0,0,4.265,94.82,1.9685368084,1.968504,6,P-GPS,
12400,2022-08-30 05:14:43,0,0,1.968504,,,1.9685368084,1.968504,0,0,0,0,0,8.162,1.9685368084,1.968504,0,0,0,0,0,51, 0.6, -0.3,0,0,1043,1024,1024,1024,3,0,0,0,54,0,0,80,4.083,4.073,0,0,0,0,4.265,94.82,1.9685368084,1.968504,6,P-GPS,
12500,2022-08-30 05:14:43,0,0,1.968504,,,1.9685368084,1.968504,0,0,0,0,0,8.162,1.9685368084,1.968504,0,0,0,0,0,49.9, 0.6, -0.2,0,0,1048,1024,1024,1024,4,0,0,0,54,0,0,80,4.083,4.073,0,0,0,0,4.265,94.82,1.9685368084,1.968504,6,P-GPS,
12600,2022-08-30 05:14:43,0,0,1.968504,,,1.9685368084,1.968504,0,0,0,0,0,8.162,1.9685368084,1.968504,0,0,0,0,0,48.7, 0.6, -0.2,0,0,1047,1024,1024,1024,3,0,0,0,54,0,0,80,4.083,4.073,0,0,0,0,4.265,94.82,1.9685368084,1.968504,6,P-GPS,
12700,2022-08-30 05:14:43,0,0,1.968504,,,1.9685368084,1.968504,0,0,0,0,0,8.162,1.9685368084,1.968504,0,0,0,0,0,47.6, 0.4, 0,0,0,1048,1024,1024,1024,4,0,0,0,54,0,0,80,4.083,4.073,0,0,0,0,4.265,94.82,1.9685368084,1.968504,6,P-GPS,
12800,2022-08-30 05:14:43,0,0,1.968504,,,1.9685368084,1.968504,0,0,0,0,0,8.162,1.9685368084,1.968504,0,0,0,0,0,46.5, 0.3, 0.1,0,0,1048,1024,1024,1024,4,0,0,0,54,0,0,80,4.083,4.073,0,0,0,0,4.265,94.82,1.9685368084,1.968504,6,P-GPS,
12900,2022-08-30 05:14:43,0,0,1.968504,,,1.9685368084,1.968504,0,0,0,0,0,8.162,1.9685368084,1.968504,0,0,0,0,0,45.6, 0.3, 0,0,0,1048,1024,1024,1024,4,0,0,0,54,0,0,80,4.083,4.073,0,0,0,0,4.265,94.82,1.9685368084,1.968504,6,P-GPS,
13000,2022-08-30 05:14:43,0,0,1.968504,,,1.9685368084,1.968504,0,0,0,0,0,8.162,1.9685368084,1.968504,0,0,0,0,0,44.6, 0.4, -0.1,0,0,1047,1024,1024,1024,3,0,0,0,54,0,0,80,4.083,4.073,0,0,0,0,4.265,94.82,1.9685368084,1.968504,6,P-GPS,
13100,2022-08-30 05:14:43,0,0,1.968504,,,1.9685368084,1.968504,0,0,0,0,0,8.158,1.9685368084,1.968504,0,0,0,0,0,43.7, 0.3, -0.1,0,0,1047,1024,1024,1024,3,0,0,0,54,0,0,80,4.082,4.073,0,0,0,0,4.259,94.82,1.9685368084,1.968504,6,P-GPS,
13200,2022-08-30 05:14:43,0,0,1.968504,,,1.9685368084,1.968504,0,0,0,0,0,8.158,1.9685368084,1.968504,0,0,0,0,0,42.9, 0.1, 0,0,0,1049,1024,1024,1024,4,0,0,0,54,0,0,80,4.082,4.073,0,0,0,0,4.259,94.82,1.9685368084,1.968504,6,P-GPS,
13300,2022-08-30 05:14:43,0,0,1.968504,,,1.9685368084,1.968504,0,0,0,0,0,8.158,1.9685368084,1.968504,0,0,0,0,0,42, 0.2, 0,0,0,1069,1024,1024,1024,7,0,0,0,54,0,0,80,4.082,4.073,0,0,0,0,4.259,94.82,1.9685368084,1.968504,6,P-GPS,
13400,2022-08-30 05:14:44,0,0,1.968504,,,1.9685368084,1.968504,0,0,0,0,0,8.158,1.9685368084,1.968504,0,0,0,0,0,41.3, 0, 0.1,0,0,1071,1024,1024,1024,7,0,0,0,54,0,0,80,4.082,4.073,0,0,0,0,4.259,94.82,1.9685368084,1.968504,6,P-GPS,
13500,2022-08-30 05:14:44,0,0,1.968504,,,1.9685368084,1.968504,0,0,0,0,0,8.158,1.9685368084,1.968504,0,0,0,0,0,40.6, -0.1, 0.1,0,0,1071,1024,1024,1024,7,0,0,0,54,0,0,80,4.082,4.073,0,0,0,0,4.259,94.82,1.9685368084,1.968504,6,P-GPS,
13600,2022-08-30 05:14:44,0,0,1.968504,,,1.9685368084,1.968504,0,0,0,0,0,8.158,1.9685368084,1.968504,0,0,0,0,0,39.9, -0.1, 0.1,0,0,1071,1024,1024,1024,7,0,0,0,54,0,0,80,4.082,4.073,0,0,0,0,4.259,94.82,1.9685368084,1.968504,6,P-GPS,
13700,2022-08-30 05:14:44,0,0,1.968504,,,1.9685368084,1.968504,0,0,0,0,0,8.158,1.9685368084,1.968504,0,0,0,0,0,39.4, 0, 0.1,0,0,1068,1024,1024,1024,7,0,0,0,54,0,0,80,4.082,4.073,0,0,0,0,4.259,94.82,1.9685368084,1.968504,6,P-GPS,
13800,2022-08-30 05:14:44,0,0,1.968504,,,1.9685368084,1.968504,0,0,0,0,0,8.158,1.9685368084,1.968504,0,0,0,0,0,38.8, 0, 0.3,0,0,1068,1024,1024,1024,7,0,0,0,54,0,0,80,4.082,4.073,0,0,0,0,4.259,94.82,1.9685368084,1.968504,6,P-GPS,
13900,2022-08-30 05:14:44,0,0,1.968504,,,1.9685368084,1.64042,0,0,0,0,0,8.158,1.9685368084,1.968504,0,0,0,0,0,38.2, 0, 0.3,0,0,1068,1024,1024,1024,7,0,0,0,54,0,0,80,4.082,4.073,0,0,0,0,4.259,94.82,1.9685368084,1.968504,6,P-GPS,
14000,2022-08-30 05:14:44,0,0,1.968504,,,1.9685368084,1.64042,0,0,0,0,0,8.158,1.9685368084,1.968504,0,0,0,0,0,37.7, 0, 0.2,0,0,1068,1024,1024,1024,7,0,0,0,54,0,0,80,4.082,4.073,0,0,0,0,4.259,94.82,1.9685368084,1.968504,6,P-GPS,
14100,2022-08-30 05:14:44,0,0,1.968504,,,1.9685368084,1.64042,0,0,0,0,0,8.154,1.9685368084,1.968504,0,0,0,0,0,37.2, 0.1, 0.2,0,0,1068,1024,1024,1024,7,0,0,0,54,0,0,80,4.08,4.071,0,0,0,0,4.241,94.82,1.9685368084,1.968504,6,P-GPS,
14200,2022-08-30 05:14:44,0,0,1.968504,,,1.9685368084,1.64042,0,0,0,0,0,8.154,1.9685368084,1.968504,0,0,0,0,0,36.8, 0.1, 0.2,0,0,1068,1024,1024,1024,7,0,0,0,54,0,0,80,4.08,4.071,0,0,0,0,4.241,94.82,1.9685368084,1.968504,6,P-GPS,
14300,2022-08-30 05:14:44,0,0,1.968504,,,1.9685368084,1.64042,0,0,0,0,0,8.154,1.9685368084,1.968504,0,0,0,0,0,36.4, 0.1, 0.2,0,0,1068,1024,1024,1024,7,0,0,0,54,0,0,80,4.08,4.071,0,0,0,0,4.241,94.82,1.9685368084,1.968504,6,P-GPS,
14400,2022-08-30 05:14:44,0,0,1.968504,,,1.9685368084,1.64042,0,0,0,0,0,8.154,1.9685368084,1.968504,0,0,0,0,0,36, 0.2, 0,0,0,1061,1024,1024,1024,6,0,0,0,54,0,0,80,4.08,4.071,0,0,0,0,4.241,94.82,1.9685368084,1.968504,6,P-GPS,
14500,2022-08-30 05:14:45,0,0,1.968504,,,1.9685368084,1.64042,0,0,0,0,0,8.154,1.9685368084,1.968504,0,0,0,0,0,35.7, 0.1, 0.1,0,0,1060,1024,1024,1024,5,0,0,0,54,0,0,80,4.08,4.071,0,0,0,0,4.241,94.82,1.9685368084,1.968504,6,P-GPS,
14600,2022-08-30 05:14:45,0,0,1.968504,,,1.9685368084,1.64042,0,0,0,0,0,8.154,1.9685368084,1.968504,0,0,0,0,0,35.3, 0.1, 0.2,0,0,1060,1024,1024,1024,5,0,0,0,54,0,0,80,4.08,4.071,0,0,0,0,4.241,94.82,1.9685368084,1.968504,6,P-GPS,
14700,2022-08-30 05:14:45,0,0,1.968504,,,1.9685368084,1.64042,0,0,0,0,0,8.154,1.9685368084,1.968504,0,0,0,0,0,35, 0.2, 0.3,0,0,1060,1024,1024,1024,5,0,0,0,54,0,0,80,4.08,4.071,0,0,0,0,4.241,94.82,1.9685368084,1.968504,6,P-GPS,
14800,2022-08-30 05:14:45,0,0,1.968504,,,1.9685368084,1.64042,0,0,0,0,0,8.154,1.9685368084,1.968504,0,0,0,0,0,34.7, 0.2, 0.4,0,0,1069,1024,1024,1024,7,0,0,0,54,0,0,80,4.08,4.071,0,0,0,0,4.241,94.82,1.9685368084,1.968504,6,P-GPS,
14900,2022-08-30 05:14:45,0,0,1.968504,,,1.9685368084,1.64042,0,0,0,0,0,8.154,1.9685368084,1.968504,0,0,0,0,0,34.4, 0, 0.4,0,0,1073,1024,1024,1024,7,0,0,0,54,0,0,80,4.08,4.071,0,0,0,0,4.241,94.82,1.9685368084,1.968504,6,P-GPS,
15000,2022-08-30 05:14:45,0,0,1.968504,,,1.9685368084,1.64042,0,0,0,0,0,8.154,1.9685368084,1.968504,0,0,0,0,0,34.1, -0.1, 0.3,0,0,1073,1024,1024,1024,7,0,0,0,54,0,0,80,4.08,4.071,0,0,0,0,4.241,94.82,1.9685368084,1.968504,6,P-GPS,
15100,2022-08-30 05:14:45,0,0,1.968504,,,1.9685368084,1.64042,0,0,0,0,0,8.148,1.9685368084,1.968504,0,0,0,0,0,33.8, -0.1, 0.3,0,0,1071,1024,1024,1024,7,0,0,0,54,0,0,80,4.077,4.068,0,0,0,0,4.254,95,1.9685368084,1.968504,6,P-GPS,
15200,2022-08-30 05:14:45,0,0,1.968504,,,1.9685368084,1.64042,0,0,0,0,0,8.148,1.9685368084,1.968504,0,0,0,0,0,33.6, -0.1, 0.2,0,0,1071,1024,1024,1024,7,0,0,0,54,0,0,80,4.077,4.068,0,0,0,0,4.254,95,1.9685368084,1.968504,6,P-GPS,
15300,2022-08-30 05:14:45,0,0,1.968504,,,1.9685368084,1.64042,0,0,0,0,0,8.148,1.9685368084,1.968504,0,0,0,0,0,33.4, -0.1, 0.1,0,0,1072,1006,1024,1024,7,-3,0,0,54,0,0,80,4.077,4.068,0,0,0,0,4.254,95,1.9685368084,1.968504,6,P-GPS,
15400,2022-08-30 05:14:45,0,0,1.968504,,,1.9685368084,1.64042,0,0,0,0,0,8.148,1.9685368084,1.968504,0,0,0,0,0,33.2, -0.1, 0.2,0,0,1072,1007,1024,1024,7,-3,0,0,54,0,0,80,4.077,4.068,0,0,0,0,4.254,95,1.9685368084,1.968504,6,P-GPS,
15500,2022-08-30 05:14:46,0,0,1.968504,,,1.9685368084,1.64042,0,0,0,0,0,8.148,1.9685368084,1.968504,0,0,0,0,0,33, 0, 0.1,0,0,1073,1024,1024,1024,7,0,0,0,54,0,0,80,4.077,4.068,0,0,0,0,4.254,95,1.9685368084,1.968504,6,P-GPS,
15600,2022-08-30 05:14:46,0,0,1.968504,,,1.9685368084,1.64042,0,0,0,0,0,8.148,1.9685368084,1.968504,0,0,0,0,0,32.8, 0, 0,0,0,1072,1024,1024,1024,7,0,0,0,54,0,0,80,4.077,4.068,0,0,0,0,4.254,95,1.9685368084,1.968504,6,P-GPS,
15700,2022-08-30 05:14:46,0,0,1.968504,,,1.9685368084,1.64042,0,0,0,0,0,8.148,1.9685368084,1.968504,0,0,0,0,0,32.6, 0.1, 0.1,0,0,1073,1024,1024,1024,7,0,0,0,54,0,0,80,4.077,4.068,0,0,0,0,4.254,95,1.9685368084,1.968504,6,P-GPS,
15800,2022-08-30 05:14:46,0,0,1.968504,,,1.9685368084,1.64042,0,0,0,0,0,8.148,1.9685368084,1.968504,0,0,0,0,0,32.4, 0.1, 0,0,0,1073,1024,1024,1024,7,0,0,0,54,0,0,80,4.077,4.068,0,0,0,0,4.254,95,1.9685368084,1.968504,6,P-GPS,
15900,2022-08-30 05:14:46,0,0,1.968504,,,1.9685368084,1.64042,0,0,0,0,0,8.148,1.9685368084,1.968504,0,0,0,0,0,32.3, 0.1, 0.2,0,0,1044,1007,1024,1024,3,-3,0,0,54,0,0,80,4.077,4.068,0,0,0,0,4.254,95,1.9685368084,1.968504,6,P-GPS,
16000,2022-08-30 05:14:46,0,0,1.968504,,,1.9685368084,1.64042,0,0,0,0,0,8.148,1.9685368084,1.968504,0,0,0,0,0,32.2, 0.3, 0.3,0,0,1026,1007,1024,1024,0,-3,0,0,54,0,0,80,4.077,4.068,0,0,0,0,4.254,95,1.9685368084,1.968504,6,P-GPS,
16100,2022-08-30 05:14:46,0,0,1.968504,,,1.9685368084,1.64042,0,0,0,0,0,8.148,1.9685368084,1.968504,0,0,0,0,0,32, 0.9, 0.3,0,0,1027,1006,1024,1024,0,-3,0,0,54,0,0,80,4.077,4.068,0,0,0,0,4.254,95,1.9685368084,1.968504,6,P-GPS,
16200,2022-08-30 05:14:46,0,0,1.968504,,,1.9685368084,1.64042,0,0,0,0,0,8.145,1.9685368084,1.968504,0,0,0,0,0,31.9, 1, 0.2,0,0,1040,1005,1024,1024,2,-3,0,0,54,0,0,80,4.075,4.067,0,0,0,0,4.246,95,1.9685368084,1.968504,6,P-GPS,
16300,2022-08-30 05:14:46,0,0,1.968504,,,1.9685368084,1.64042,0,0,0,0,0,8.145,1.9685368084,1.968504,0,0,0,0,0,31.8, 0.9, 0.2,0,0,1041,951,1024,1024,3,-11,0,0,54,0,0,80,4.075,4.067,0,0,0,0,4.246,95,1.9685368084,1.968504,6,P-GPS,
16400,2022-08-30 05:14:47,0,0,1.968504,,,1.9685368084,1.64042,0,0,0,0,0,8.145,1.9685368084,1.968504,0,0,0,0,0,31.7, 0.7, 0.1,0,0,1040,923,1024,1024,2,-15,0,0,54,0,0,80,4.075,4.067,0,0,0,0,4.246,95,1.9685368084,1.968504,6,P-GPS,
16500,2022-08-30 05:14:47,0,0,1.968504,,,1.9685368084,1.64042,0,0,0,0,0,8.145,1.9685368084,1.968504,0,0,0,0,0,31.7, 0.5, -0.3,0,0,1036,948,1024,1024,2,-12,0,0,54,0,0,80,4.075,4.067,0,0,0,0,4.246,95,1.9685368084,1.968504,6,P-GPS,
16600,2022-08-30 05:14:47,0,0,1.968504,,,1.9685368084,1.64042,0,0,0,0,0,8.145,1.9685368084,1.968504,0,0,0,0,0,31.5, 0.3, -0.7,0,0,1035,949,1024,1024,2,-11,0,0,54,0,0,80,4.075,4.067,0,0,0,0,4.246,95,1.9685368084,1.968504,6,P-GPS,
16700,2022-08-30 05:14:47,0,0,1.968504,,,1.9685368084,1.64042,0,0,0,0,0,8.145,1.9685368084,1.968504,0,0,0,0,0,31.4, 0.2, -0.8,0,0,1035,949,1024,1024,2,-11,0,0,54,0,0,80,4.075,4.067,0,0,0,0,4.246,95,1.9685368084,1.968504,6,P-GPS,
16800,2022-08-30 05:14:47,0,0,1.968504,,,1.9685368084,1.64042,0,0,0,0,0,8.145,1.9685368084,1.968504,0,0,0,0,0,31.3, 0.1, -0.5,0,0,1026,975,1024,1024,0,-7,0,0,54,0,0,80,4.075,4.067,0,0,0,0,4.246,95,1.9685368084,1.968504,6,P-GPS,
16900,2022-08-30 05:14:47,0,0,1.968504,,,1.9685368084,1.64042,0,0,0,0,0,8.145,1.9685368084,1.968504,0,0,0,0,0,31.3, 0.2, -0.2,0,0,1026,1024,1024,1024,0,0,0,0,54,0,0,80,4.075,4.067,0,0,0,0,4.246,95,1.9685368084,1.968504,6,P-GPS,
17000,2022-08-30 05:14:47,0,0,1.968504,,,1.9685368084,1.64042,0,0,0,0,0,8.145,1.9685368084,1.968504,0,0,0,0,0,31.2, 0.2, 0.7,0,0,1026,1024,1024,1024,0,0,0,0,54,0,0,80,4.075,4.067,0,0,0,0,4.246,95,1.9685368084,1.968504,6,P-GPS,
17100,2022-08-30 05:14:47,0,0,1.968504,,,1.9685368084,1.64042,0,0,0,0,0,8.145,1.9685368084,1.968504,0,0,0,0,0,31.1, 0.2, 0.8,0,0,1046,1024,1024,1024,3,0,0,0,54,0,0,80,4.075,4.067,0,0,0,0,4.246,95,1.9685368084,1.968504,6,P-GPS,
17200,2022-08-30 05:14:47,0,0,1.968504,,,1.9685368084,1.64042,0,0,0,0,0,8.14,1.9685368084,1.968504,0,0,0,0,0,31, 0.1, 0.8,0,0,1079,1024,1024,1024,8,0,0,0,54,0,0,80,4.074,4.064,0,0,0,0,4.252,95,1.9685368084,1.968504,6,P-GPS,
17300,2022-08-30 05:14:47,0,0,1.968504,,,1.9685368084,1.64042,0,0,0,0,0,8.14,1.9685368084,1.968504,0,0,0,0,0,30.9, 0.1, 0.5,0,0,1094,1024,1024,1024,11,0,0,0,54,0,0,80,4.074,4.064,0,0,0,0,4.252,95,1.9685368084,1.968504,6,P-GPS,
17400,2022-08-30 05:14:47,0,0,1.968504,,,1.9685368084,1.64042,0,0,0,0,0,8.14,1.9685368084,1.968504,0,0,0,0,0,30.8, -0.1, 0.5,0,0,1095,1024,1024,1024,11,0,0,0,54,0,0,80,4.074,4.064,0,0,0,0,4.252,95,1.9685368084,1.968504,6,P-GPS,
17500,2022-08-30 05:14:48,0,0,1.968504,,,1.9685368084,1.64042,0,0,0,0,0,8.14,1.9685368084,1.968504,0,0,0,0,0,30.9, -0.3, 0.3,0,0,1095,1024,1024,1024,11,0,0,0,54,0,0,80,4.074,4.064,0,0,0,0,4.252,95,1.9685368084,1.968504,6,P-GPS,
17600,2022-08-30 05:14:48,0,0,1.968504,,,1.9685368084,1.64042,0,0,0,0,0,8.14,1.9685368084,1.968504,0,0,0,0,0,30.8, -0.4, 0.3,0,0,1096,1024,1024,1024,11,0,0,0,54,0,0,80,4.074,4.064,0,0,0,0,4.252,95,1.9685368084,1.968504,6,P-GPS,
17700,2022-08-30 05:14:48,0,0,1.968504,,,1.9685368084,1.64042,0,0,0,0,0,8.14,1.9685368084,1.968504,0,0,0,0,0,30.7, -0.3, 0.2,0,0,1096,1024,1024,1024,11,0,0,0,54,0,0,80,4.074,4.064,0,0,0,0,4.252,95,1.9685368084,1.968504,6,P-GPS,
17800,2022-08-30 05:14:48,0,0,1.968504,,,1.9685368084,1.64042,0,0,0,0,0,8.14,1.9685368084,1.968504,0,0,0,0,0,30.6, -0.4, 0.1,0,0,1096,1024,1024,1024,11,0,0,0,54,0,0,80,4.074,4.064,0,0,0,0,4.252,95,1.9685368084,1.968504,6,P-GPS,
17900,2022-08-30 05:14:48,0,0,1.968504,,,1.9685368084,1.64042,0,0,0,0,0,8.14,1.9685368084,1.968504,0,0,0,0,0,30.6, -0.3, 0.1,0,0,1095,1024,1024,1024,11,0,0,0,54,0,0,80,4.074,4.064,0,0,0,0,4.252,95,1.9685368084,1.968504,6,P-GPS,
18000,2022-08-30 05:14:48,0,0,1.968504,,,1.9685368084,1.64042,0,0,0,0,0,8.14,1.9685368084,1.968504,0,0,0,0,0,30.5, -0.3, 0.1,0,0,1098,1024,1024,1024,11,0,0,0,54,0,0,80,4.074,4.064,0,0,0,0,4.252,95,1.9685368084,1.968504,6,P-GPS,
18100,2022-08-30 05:14:48,0,0,1.968504,,,1.9685368084,1.64042,0,0,0,0,0,8.14,1.9685368084,1.968504,0,0,0,0,0,30.5, -0.4, 0.1,0,0,1099,1024,1024,1024,11,0,0,0,54,0,0,80,4.074,4.064,0,0,0,0,4.252,95,1.9685368084,1.968504,6,P-GPS,
18200,2022-08-30 05:14:48,0,0,1.968504,,,1.9685368084,1.64042,0,0,0,0,0,8.135,1.9685368084,1.968504,0,0,0,0,0,30.4, -0.4, 0,0,0,1099,1024,1024,1024,11,0,0,0,54,0,0,80,4.074,4.062,0,0,0,0,4.266,95,1.9685368084,1.968504,6,P-GPS,
18300,2022-08-30 05:14:48,0,0,1.968504,,,1.9685368084,1.64042,0,0,0,0,0,8.135,1.9685368084,1.968504,0,0,0,0,0,30.4, -0.4, 0,0,0,1099,1024,1024,1024,11,0,0,0,54,0,0,80,4.074,4.062,0,0,0,0,4.266,95,1.9685368084,1.968504,6,P-GPS,
18400,2022-08-30 05:14:48,0,0,1.968504,,,1.9685368084,1.64042,0,0,0,0,0,8.135,1.9685368084,1.968504,0,0,0,0,0,30.4, -0.5, 0,0,0,1099,1024,1033,1024,11,0,1,0,54,0,0,80,4.074,4.062,0,0,0,0,4.266,95,1.9685368084,1.968504,6,P-GPS,
18500,2022-08-30 05:14:49,0,0,1.968504,,,1.9685368084,1.64042,0,0,0,0,0,8.135,1.9685368084,1.968504,0,0,0,0,0,30.4, -0.5, 0,0,0,1100,1024,1037,1024,12,0,2,0,54,0,0,80,4.074,4.062,0,0,0,0,4.266,95,1.9685368084,1.968504,6,P-GPS,
18600,2022-08-30 05:14:49,0,0,1.968504,,,1.9685368084,1.64042,0.223694,0,0,0,0,8.135,1.9685368084,1.968504,0,0,0.223694,0,0,30.3, -0.4, 0.1,0,0,1100,1024,1037,1024,12,0,2,0,54,0,0,80,4.074,4.062,0,0,0,0,4.266,95,1.9685368084,1.968504,6,P-GPS,
18700,2022-08-30 05:14:49,0,0,1.968504,,,1.9685368084,1.64042,0.223694,0,0,0,0,8.135,1.9685368084,1.968504,0,0,0.223694,0,0,30.4, -0.4, 0.1,0,0,1100,1024,1043,1024,12,0,3,0,54,0,0,80,4.074,4.062,0,0,0,0,4.266,95,1.9685368084,1.968504,6,P-GPS,
18800,2022-08-30 05:14:49,0,0,1.968504,,,1.9685368084,1.64042,0.223694,0,0,0,0,8.135,1.9685368084,1.968504,0,0,0.223694,0,0,30.3, -0.3, 0,0,0,1100,1024,1053,1024,12,0,4,0,54,0,0,80,4.074,4.062,0,0,0,0,4.266,95,1.9685368084,1.968504,6,P-GPS,
18900,2022-08-30 05:14:49,0,0,1.968504,,,1.9685368084,1.64042,0.223694,0,0,0,0,8.135,1.9685368084,1.968504,0,0,0.223694,0,0,30.3, -0.3, 0.1,0,0,1099,1024,1053,1024,11,0,4,0,54,0,0,80,4.074,4.062,0,0,0,0,4.266,95,1.9685368084,1.968504,6,P-GPS,
19000,2022-08-30 05:14:49,0,0,1.968504,,,1.9685368084,1.64042,0.223694,0,0,0,0,8.135,1.9685368084,1.968504,0,0,0.223694,0,0,30.3, -0.4, 0,0,0,1075,1024,1060,1024,8,0,5,0,54,0,0,80,4.074,4.062,0,0,0,0,4.266,95,1.9685368084,1.968504,6,P-GPS,
19100,2022-08-30 05:14:49,0,0,1.968504,,,1.9685368084,1.64042,0.223694,0,0,0,0,8.135,1.9685368084,1.968504,0,0,0.223694,0,0,30.3, -0.5, 0,0,0,1024,1024,1096,1024,0,0,11,0,54,0,0,80,4.074,4.062,0,0,0,0,4.266,95,1.9685368084,1.968504,6,P-GPS,
19200,2022-08-30 05:14:49,0,0,1.968504,,,1.9685368084,1.64042,0.223694,0,0,0,0,8.135,1.9685368084,1.968504,0,0,0.223694,0,0,30.3, -0.3, -0.1,0,0,1024,1024,1111,1024,0,0,13,0,54,0,0,80,4.074,4.062,0,0,0,0,4.266,95,1.9685368084,1.968504,6,P-GPS,
19300,2022-08-30 05:14:49,0,0,1.968504,,,1.9685368084,1.64042,0.223694,0,0,0,0,8.133,1.9685368084,1.968504,0,0,0.223694,0,0,30.2, 0.8, 0,0,0,1024,1024,1114,1024,0,0,14,0,54,0,0,80,4.07,4.061,0,0,0,0,4.237,95,1.9685368084,1.968504,6,P-GPS,
19400,2022-08-30 05:14:49,0,0,1.968504,,,1.9685368084,1.64042,0.223694,0,0,0,0,8.133,1.9685368084,1.968504,0,0,0.223694,0,0,30.1, 1.4, 0,0,0,1024,1024,1123,1024,0,0,15,0,54,0,0,80,4.07,4.061,0,0,0,0,4.237,95,1.9685368084,1.968504,6,P-GPS,
19500,2022-08-30 05:14:50,0,0,1.968504,,,1.9685368084,1.968504,0,0,0,0,0,8.133,1.9685368084,1.968504,0,0,0,0,-0.223694,30.1, 1.5, 0,0,0,1024,1024,1123,1024,0,0,15,0,54,0,0,80,4.07,4.061,0,0,0,0,4.237,95,1.9685368084,1.968504,6,P-GPS,
19600,2022-08-30 05:14:50,0,0,1.968504,,,1.9685368084,1.968504,0,0,0,0,0,8.133,1.9685368084,1.968504,0,0,0,0,-0.223694,30.1, 1.3, 0,0,0,1024,1024,1120,1024,0,0,15,0,54,0,0,80,4.07,4.061,0,0,0,0,4.237,95,1.9685368084,1.968504,6,P-GPS,
19700,2022-08-30 05:14:50,0,0,1.968504,,,1.9685368084,1.968504,0,0,0,0,0,8.133,1.9685368084,1.968504,0,0,0,0,-0.223694,30, 1.1, 0,0,0,1029,1024,1121,1024,1,0,15,0,54,0,0,80,4.07,4.061,0,0,0,0,4.237,95,1.9685368084,1.968504,6,P-GPS,
19800,2022-08-30 05:14:50,0,0,1.968504,,,1.9685368084,1.968504,0,0,0,0,0,8.133,1.9685368084,1.968504,0,0,0,0,-0.223694,30, 1.5, -0.2,0,0,1060,1024,1103,1024,5,0,12,0,54,0,0,80,4.07,4.061,0,0,0,0,4.237,95,1.9685368084,1.968504,6,P-GPS,
19900,2022-08-30 05:14:50,0,0,2.296588,,,2.2966208084,1.968504,0,0,0,0,0,8.133,2.2966208084,2.296588,0,0,0,0,-0.223694,30.1, 1.1, -0.3,0,0,1072,1024,1074,1024,7,0,8,0,54,0,0,80,4.07,4.061,0,0,0,0,4.237,95,2.2966208084,2.296588,6,P-GPS,
20000,2022-08-30 05:14:50,0,0,2.296588,,,2.2966208084,1.968504,0,0,0,0,0,8.133,2.2966208084,2.296588,0,0,0,0,-0.223694,30.1, 0.6, -0.2,0,0,1090,1024,1024,1024,10,0,0,0,54,0,0,80,4.07,4.061,0,0,0,0,4.237,95,2.2966208084,2.296588,6,P-GPS,
20100,2022-08-30 05:14:50,0,0,2.296588,,,2.2966208084,1.968504,0,0,0,0,0,8.133,2.2966208084,2.296588,0,0,0,0,0,30.1, 0.1, -0.1,0,0,1094,1024,1024,1024,11,0,0,0,54,0,0,80,4.07,4.061,0,0,0,0,4.237,95,2.2966208084,2.296588,6,P-GPS,
20200,2022-08-30 05:14:50,0,0,2.296588,,,2.2966208084,1.968504,0,0,0,0,0,8.133,2.2966208084,2.296588,0,0,0,0,0,30.1, -0.3, 0,0,0,1110,1024,1024,1024,13,0,0,0,54,0,0,80,4.07,4.061,0,0,0,0,4.237,95,2.2966208084,2.296588,6,P-GPS,
20300,2022-08-30 05:14:50,0,0,2.296588,,,2.2966208084,1.968504,0,0,0,0,0,8.125,2.2966208084,2.296588,0,0,0,0,0,30.1, -0.5, 0.1,0,0,1110,1024,1024,1024,13,0,0,0,54,0,0,80,4.068,4.059,0,0,0,0,4.324,95.18,2.2966208084,2.296588,6,P-GPS,
20400,2022-08-30 05:14:51,0,0,2.296588,,,2.2966208084,1.968504,0,0,0,0,0,8.125,2.2966208084,2.296588,0,0,0,0,0,30.1, -0.6, 0.1,0,0,1129,1024,1024,1024,16,0,0,0,54,0,0,80,4.068,4.059,0,0,0,0,4.324,95.18,2.2966208084,2.296588,6,P-GPS,
20500,2022-08-30 05:14:51,0,0,2.296588,,,2.2966208084,1.968504,0,0,0,0,0,8.125,2.2966208084,2.296588,0,0,0,0,0,30.1, -0.8, -0.1,0,0,1130,1024,1024,1024,16,0,0,0,54,0,0,80,4.068,4.059,0,0,0,0,4.324,95.18,2.2966208084,2.296588,6,P-GPS,
20600,2022-08-30 05:14:51,0,0,2.296588,,,2.2966208084,1.968504,0,0,0,0,0,8.125,2.2966208084,2.296588,0,0,0,0,0,30.1, -0.7, 0,0,0,1131,920,1024,1024,16,-16,0,0,54,0,0,80,4.068,4.059,0,0,0,0,4.324,95.18,2.2966208084,2.296588,6,P-GPS,
20700,2022-08-30 05:14:51,0,0,2.296588,,,2.2966208084,1.968504,0,0,0,0,0,8.125,2.2966208084,2.296588,0,0,0,0,0,30, -0.6, -0.5,0,0,1131,926,1024,1024,16,-15,0,0,54,0,0,80,4.068,4.059,0,0,0,0,4.324,95.18,2.2966208084,2.296588,6,P-GPS,
20800,2022-08-30 05:14:51,0,0,2.296588,,,2.2966208084,1.968504,0.223694,0,0,0,0,8.125,2.2966208084,2.296588,0,0,0.223694,0,0,30, -0.7, -0.8,0,0,1131,982,1024,1024,16,-6,0,0,54,0,0,80,4.068,4.059,0,0,0,0,4.324,95.18,2.2966208084,2.296588,6,P-GPS,
20900,2022-08-30 05:14:51,0,0,2.296588,,,2.2966208084,1.968504,0.223694,0,0,0,0,8.125,2.2966208084,2.296588,0,0,0.223694,0,0,30, -0.7, -0.6,0,0,1133,998,1024,1024,17,-4,0,0,54,0,0,80,4.068,4.059,0,0,0,0,4.324,95.18,2.2966208084,2.296588,6,P-GPS,
21000,2022-08-30 05:14:51,0,0,2.296588,,,2.2966208084,1.968504,0.223694,0,0,0,0,8.125,2.2966208084,2.296588,0,0,0.223694,0,0,30, -0.8, -0.3,0,0,1133,1011,1024,1024,17,-2,0,0,54,0,0,80,4.068,4.059,0,0,0,0,4.324,95.18,2.2966208084,2.296588,6,P-GPS,
21100,2022-08-30 05:14:51,0,0,2.296588,,,2.2966208084,1.968504,0.223694,0,0,0,0,8.125,2.2966208084,2.296588,0,0,0.223694,0,0,30, -0.6, 0,0,0,1133,1011,1024,1024,17,-2,0,0,54,0,0,80,4.068,4.059,0,0,0,0,4.324,95.18,2.2966208084,2.296588,6,P-GPS,
21200,2022-08-30 05:14:51,0,0,2.296588,,,2.2966208084,1.968504,0.223694,0,0,0,0,8.125,2.2966208084,2.296588,0,0,0.223694,0,0,30.1, -0.6, 0.3,0,0,1133,1024,1024,1024,17,0,0,0,54,0,0,80,4.068,4.059,0,0,0,0,4.324,95.18,2.2966208084,2.296588,6,P-GPS,
21300,2022-08-30 05:14:51,0,0,2.296588,,,2.2966208084,1.968504,0.223694,0,0,0,0,8.127,2.2966208084,2.296588,0,0,0.223694,0,0,30.1, -0.3, 0.2,0,0,1133,1024,1024,1024,17,0,0,0,54,0,0,80,4.067,4.058,0,0,0,0,4.181,95.18,2.2966208084,2.296588,6,P-GPS,
21400,2022-08-30 05:14:51,0,0,2.296588,,,2.2966208084,1.968504,0.223694,0,0,0,0,8.127,2.2966208084,2.296588,0,0,0.223694,0,0,30.1, -0.3, 0.2,0,0,1139,1024,1024,1024,17,0,0,0,54,0,0,80,4.067,4.058,0,0,0,0,4.181,95.18,2.2966208084,2.296588,6,P-GPS,
21500,2022-08-30 05:14:52,0,0,2.296588,,,2.2966208084,1.968504,0.447388,0,0,0,0,8.127,2.2966208084,2.296588,0,0,0.447388,0,0,30.1, -0.5, 0.7,0,0,1140,1024,1024,1024,18,0,0,0,54,0,0,80,4.067,4.058,0,0,0,0,4.181,95.18,2.2966208084,2.296588,6,P-GPS,
21600,2022-08-30 05:14:52,0,0,2.296588,,,2.2966208084,2.296588,0.447388,0,0,0,0,8.127,2.2966208084,2.296588,0,0,0.447388,0,0,30.1, -0.7, 0.6,0,0,1146,1024,1031,1024,18,0,1,0,54,0,0,80,4.067,4.058,0,0,0,0,4.181,95.18,2.2966208084,2.296588,6,P-GPS,
21700,2022-08-30 05:14:52,0,0,2.296588,,,2.2966208084,2.296588,0.447388,0,0,0,0,8.127,2.2966208084,2.296588,0,0,0.447388,0,0,30.2, -0.9, 0.2,0,0,1146,1024,1031,1024,18,0,1,0,54,0,0,80,4.067,4.058,0,0,0,0,4.181,95.18,2.2966208084,2.296588,6,P-GPS,
21800,2022-08-30 05:14:52,0,0,2.296588,,,2.2966208084,2.296588,0.4921268,0,0,0,0,8.127,2.2966208084,2.296588,0,0,0.447388,0.223694,0,30.3, -0.6, 0.1,0,0,1152,1024,1027,1024,19,0,0,0,54,0,0,80,4.067,4.058,0,0,0,0,4.181,95.18,2.2966208084,2.296588,6,P-GPS,
21900,2022-08-30 05:14:52,0,0,2.296588,,,2.2966208084,2.296588,0.4921268,0,0,0,0,8.127,2.2966208084,2.296588,0,0,0.447388,0.223694,0,30.3, -0.7, 0.1,0,0,1162,1024,1024,1024,21,0,0,0,54,0,0,80,4.067,4.058,0,0,0,0,4.181,95.18,2.2966208084,2.296588,6,P-GPS,
22000,2022-08-30 05:14:52,0,0,2.296588,,,2.2966208084,2.296588,0.4921268,0,0,0,0,8.127,2.2966208084,2.296588,0,0,0.447388,0.223694,0,30.3, -0.9, 0.2,0,0,1162,1024,1024,1024,21,0,0,0,54,0,0,80,4.067,4.058,0,0,0,0,4.181,95.18,2.2966208084,2.296588,6,P-GPS,
22100,2022-08-30 05:14:52,0,0,2.296588,,,2.2966208084,2.296588,0.4921268,0,0,0,0,8.127,2.2966208084,2.296588,0,0,0.447388,0.223694,0,30.2, -1.3, 0.4,0,0,1162,1024,1024,1024,21,0,0,0,54,0,0,80,4.067,4.058,0,0,0,0,4.181,95.18,2.2966208084,2.296588,6,P-GPS,
22200,2022-08-30 05:14:52,0,0,2.296588,,,2.2966208084,2.296588,0.4921268,0,0,0,0,8.127,2.2966208084,2.296588,0,0,0.447388,0.223694,0,30.2, -1.4, 0.5,0,0,1159,1024,1024,1024,20,0,0,0,54,0,0,80,4.067,4.058,0,0,0,0,4.181,95.18,2.2966208084,2.296588,6,P-GPS,
22300,2022-08-30 05:14:52,0,0,2.296588,,,2.2966208084,2.296588,0.4921268,0,0,0,0,8.121,2.2966208084,2.296588,0,0,0.447388,0.223694,0,30.2, -1.4, 0,0,0,1052,1024,1024,1024,4,0,0,0,54,0,0,80,4.067,4.056,0,0,0,0,4.304,95.18,2.2966208084,2.296588,6,P-GPS,
22400,2022-08-30 05:14:52,0,0,2.296588,,,2.2966208084,2.296588,0.4921268,0,0,0,0,8.121,2.2966208084,2.296588,0,0,0.447388,0.223694,0,30.1, -0.9, -0.2,0,0,1024,1024,1024,1024,0,0,0,0,54,0,0,80,4.067,4.056,0,0,0,0,4.304,95.18,2.2966208084,2.296588,6,P-GPS,
22500,2022-08-30 05:14:53,0,0,2.296588,,,2.2966208084,2.296588,0.4921268,0,0,0,0,8.121,2.2966208084,2.296588,0,0,0.447388,0.223694,0,30, 1.4, -0.1,0,0,1024,1024,1024,1024,0,0,0,0,54,0,0,80,4.067,4.056,0,0,0,0,4.304,95.18,2.2966208084,2.296588,6,P-GPS,
22600,2022-08-30 05:14:53,0,0,2.296588,,,2.2966208084,2.296588,0.4921268,0,0,0,0,8.121,2.2966208084,2.296588,0,0,0.447388,0.223694,0,29.9, 3, 0.2,0,0,1024,1024,1024,1024,0,0,0,0,54,0,0,80,4.067,4.056,0,0,0,0,4.304,95.18,2.2966208084,2.296588,6,P-GPS,
22700,2022-08-30 05:14:53,0,0,2.296588,,,2.2966208084,2.296588,0.3131716,0,0,0,0,8.121,2.2966208084,2.296588,0,0,0.223694,0.223694,0,29.9, 3.2, 0.1,0,0,1024,1024,1024,1024,0,0,0,0,54,0,0,80,4.067,4.056,0,0,0,0,4.304,95.18,2.2966208084,2.296588,6,P-GPS,
22800,2022-08-30 05:14:53,0,0,2.296588,,,2.2966208084,2.296588,0.223694,0,0,0,0,8.121,2.2966208084,2.296588,0,0,0.223694,0,0,29.9, 2.9, -0.4,0,0,1024,1024,1024,1024,0,0,0,0,54,0,0,80,4.067,4.056,0,0,0,0,4.304,95.18,2.2966208084,2.296588,6,P-GPS,
22900,2022-08-30 05:14:53,0,0,2.296588,,,2.2966208084,2.296588,0.223694,0,0,0,0,8.121,2.2966208084,2.296588,0,0,0.223694,0,0,29.9, 2.3, -0.1,0,0,1024,1024,1024,1024,0,0,0,0,54,0,0,80,4.067,4.056,0,0,0,0,4.304,95.18,2.2966208084,2.296588,6,P-GPS,
23000,2022-08-30 05:14:53,0,0,2.296588,,,2.2966208084,1.968504,0,0,0,0,0,8.121,2.2966208084,2.296588,0,0,0,0,0,29.8, 1.5, -0.4,0,0,1024,1024,1024,1024,0,0,0,0,54,0,0,80,4.067,4.056,0,0,0,0,4.304,95.18,2.2966208084,2.296588,6,P-GPS,
23100,2022-08-30 05:14:53,0,0,2.296588,,,2.2966208084,1.968504,0,0,0,0,0,8.121,2.2966208084,2.296588,0,0,0,0,0,29.8, 1.7, 0,0,0,1024,1024,1024,1024,0,0,0,0,54,0,0,80,4.067,4.056,0,0,0,0,4.304,95.18,2.2966208084,2.296588,6,P-GPS,
23200,2022-08-30 05:14:53,0,0,2.296588,,,2.2966208084,1.968504,0,0,0,0,0,8.121,2.2966208084,2.296588,0,0,0,0,0,29.7, 1.7, 0.3,0,0,1024,1024,1024,1024,0,0,0,0,54,0,0,80,4.067,4.056,0,0,0,0,4.304,95.18,2.2966208084,2.296588,6,P-GPS,
23300,2022-08-30 05:14:53,0,0,2.296588,,,2.2966208084,1.968504,0,0,0,0,0,8.119,2.2966208084,2.296588,0,0,0,0,0,29.7, 1.2, 0.4,0,0,1024,1024,1024,1024,0,0,0,0,54,0,0,79,4.066,4.054,0,0,0,0,4.26,95.36,2.2966208084,2.296588,6,P-GPS,
23400,2022-08-30 05:14:54,0,0,2.296588,,,2.2966208084,1.968504,0,0,0,0,0,8.119,2.2966208084,2.296588,0,0,0,0,0,29.8, 0.9, 0.4,0,0,1024,1024,1024,1024,0,0,0,0,54,0,0,79,4.066,4.054,0,0,0,0,4.26,95.36,2.2966208084,2.296588,6,P-GPS,
23500,2022-08-30 05:14:54,0,0,2.296588,,,2.2966208084,1.968504,0,0,0,0,0,8.119,2.2966208084,2.296588,0,0,0,0,0,29.8, 0.6, 0.9,0,0,1024,1024,1024,1024,0,0,0,0,54,0,0,79,4.066,4.054,0,0,0,0,4.26,95.36,2.2966208084,2.296588,6,P-GPS,
23600,2022-08-30 05:14:54,0,0,2.296588,,,2.2966208084,1.968504,0,0,0,0,0,8.119,2.2966208084,2.296588,0,0,0,0,0,29.9, 0.5, 0.8,0,0,1024,1024,1024,1024,0,0,0,0,54,0,0,79,4.066,4.054,0,0,0,0,4.26,95.36,2.2966208084,2.296588,6,P-GPS,
23700,2022-08-30 05:14:54,0,0,2.296588,,,2.2966208084,1.968504,0,0,0,0,0,8.119,2.2966208084,2.296588,0,0,0,0,0,29.9, 0.3, 0.3,0,0,1024,1024,1024,1024,0,0,0,0,54,0,0,79,4.066,4.054,0,0,0,0,4.26,95.36,2.2966208084,2.296588,6,P-GPS,
23800,2022-08-30 05:14:54,0,0,2.296588,,,2.2966208084,1.968504,0,0,0,0,0,8.119,2.2966208084,2.296588,0,0,0,0,0,29.9, 0.1, 0.2,0,0,1024,1024,1024,807,0,0,0,-33,54,0,0,79,4.066,4.054,0,0,0,0,4.26,95.36,2.2966208084,2.296588,6,P-GPS,
23900,2022-08-30 05:14:54,0,0,2.296588,,,2.2966208084,1.968504,0,0,0,0,0,8.119,2.2966208084,2.296588,0,0,0,0,0,29.9, 0, 0.4,0,0,1024,1024,1024,557,0,0,0,-71,54,0,0,79,4.066,4.054,0,0,0,0,4.26,95.36,2.2966208084,2.296588,6,P-GPS,
24000,2022-08-30 05:14:54,0,0,2.296588,,,2.2966208084,1.968504,0,0,0,0,0,8.119,2.2966208084,2.296588,0,0,0,0,0,29.9, 0.2, 0.5,0,0,1024,1024,1024,557,0,0,0,-71,53.6,0,0,79,4.066,4.054,0,0,0,0,4.26,95.36,2.2966208084,2.296588,6,P-GPS,
24100,2022-08-30 05:14:54,0,0,2.296588,,,2.2966208084,1.968504,0,0,0,0,0,8.119,2.2966208084,2.296588,0,0,0,0,0,29, 0, 0.5,0,0,1024,1024,1024,853,0,0,0,-26,51.6,0,0,79,4.066,4.054,0,0,0,0,4.26,95.36,2.2966208084,2.296588,6,P-GPS,
24200,2022-08-30 05:14:54,0,0,2.296588,,,2.2966208084,1.968504,0,0,0,0,0,8.119,2.2966208084,2.296588,0,0,0,0,0,26.8, -0.1, 0.1,0,0,1024,1024,1024,1024,0,0,0,0,49.6,0,0,79,4.066,4.054,0,0,0,0,4.26,95.36,2.2966208084,2.296588,6,P-GPS,
24300,2022-08-30 05:14:54,0,0,2.296588,,,2.2966208084,1.968504,0,0,0,0,0,8.119,2.2966208084,2.296588,0,0,0,0,0,25.4, 0.1, -0.4,0,0,1024,1024,1024,1024,0,0,0,0,48.6,0,0,79,4.066,4.054,0,0,0,0,4.26,95.36,2.2966208084,2.296588,6,P-GPS,
24400,2022-08-30 05:14:55,0,0,2.296588,,,2.2966208084,1.968504,0,0,0,0,0,8.116,2.2966208084,2.296588,0,0,0,0,0,24.7, 0.2, 0,0,0,1024,1024,1024,1015,0,0,0,-1,48.3,0,0,79,4.063,4.054,0,0,0,0,4.305,95.36,2.2966208084,2.296588,6,P-GPS,
24500,2022-08-30 05:14:55,0,0,2.296588,,,2.2966208084,1.968504,0,0,0,0,0,8.116,2.2966208084,2.296588,0,0,0,0,0,24.5, 0.2, 0.1,0,0,1024,1024,1024,371,0,0,0,-99,48.3,0,0,79,4.063,4.054,0,0,0,0,4.305,95.36,2.2966208084,2.296588,6,P-GPS,
24600,2022-08-30 05:14:55,0,0,2.296588,,,2.2966208084,1.968504,0,0,0,0,0,8.116,2.2966208084,2.296588,0,0,0,0,0,24.5, -0.3, 0.4,0,0,1024,1024,1024,364,0,0,0,-100,47.9,0,0,79,4.063,4.054,0,0,0,0,4.305,95.36,2.2966208084,2.296588,6,P-GPS,
24700,2022-08-30 05:14:55,0,0,2.296588,,,2.2966208084,1.968504,0,0,0,0,0,8.116,2.2966208084,2.296588,0,0,0,0,0,23.1, 0.1, 0.9,0,0,1024,1024,1024,364,0,0,0,-100,44.7,0,0,79,4.063,4.054,0,0,0,0,4.305,95.36,2.2966208084,2.296588,6,P-GPS,
24800,2022-08-30 05:14:55,0,0,2.296588,,,2.2966208084,1.968504,0,0,0,0,0,8.116,2.2966208084,2.296588,0,0,0,0,0,19.1, 0.1, 0.9,0,0,1024,1024,1024,364,0,0,0,-100,40.2,0,0,79,4.063,4.054,0,0,0,0,4.305,95.36,2.2966208084,2.296588,6,P-GPS,
24900,2022-08-30 05:14:55,0,0,2.296588,,,2.2966208084,1.968504,0,0,0,0,0,8.116,2.2966208084,2.296588,0,0,0,0,0,14.5, 0.3, 0.5,0,0,1024,1024,1024,364,0,0,0,-100,35.4,0,0,79,4.063,4.054,0,0,0,0,4.305,95.36,2.2966208084,2.296588,6,P-GPS,
25000,2022-08-30 05:14:55,0,0,2.296588,,,2.2966208084,1.968504,0,0,0,0,0,8.116,2.2966208084,2.296588,0,0,0,0,0,9.8, 0.4, 0.4,0,0,1024,1024,1024,364,0,0,0,-100,30.6,0,0,79,4.063,4.054,0,0,0,0,4.305,95.36,2.2966208084,2.296588,6,P-GPS,
25100,2022-08-30 05:14:55,0,0,2.296588,,,2.2966208084,1.968504,0,0,0,0,0,8.116,2.2966208084,2.296588,0,0,0,0,0,4.9, 0, 0.5,0,0,1024,1024,1024,364,0,0,0,-100,25.8,0,0,79,4.063,4.054,0,0,0,0,4.305,95.36,2.2966208084,2.296588,6,P-GPS,
25200,2022-08-30 05:14:55,0,0,2.296588,,,2.2966208084,1.968504,0,0,0,0,0,8.116,2.2966208084,2.296588,0,0,0,0,0,0, -0.3, 0.3,0,0,1024,1024,1024,364,0,0,0,-100,21,0,0,79,4.063,4.054,0,0,0,0,4.305,95.36,2.2966208084,2.296588,6,P-GPS,
25300,2022-08-30 05:14:55,0,0,2.296588,,,2.2966208084,1.968504,0,0,0,0,0,8.116,2.2966208084,2.296588,0,0,0,0,0,355.4, -0.4, 0.2,0,0,1024,1024,1024,364,0,0,0,-100,16.2,0,0,79,4.063,4.054,0,0,0,0,4.305,95.36,2.2966208084,2.296588,6,P-GPS,
25400,2022-08-30 05:14:55,0,0,2.296588,,,2.2966208084,1.968504,0,0,0,0,0,8.114,2.2966208084,2.296588,0,0,0,0,0,350.7, -0.1, 0.4,0,0,1024,1024,1024,364,0,0,0,-100,11.4,0,0,79,4.061,4.051,0,0,0,0,4.317,95.36,2.2966208084,2.296588,6,P-GPS,
25500,2022-08-30 05:14:56,0,0,2.296588,,,2.2966208084,1.968504,0,0,0,0,0,8.114,2.2966208084,2.296588,0,0,0,0,0,346, 0, 0.2,0,0,1024,1024,1024,364,0,0,0,-100,6.6,0,0,79,4.061,4.051,0,0,0,0,4.317,95.36,2.2966208084,2.296588,6,P-GPS,
