time(millisecond),datetime(utc),latitude,longitude,height_above_takeoff(feet),height_above_ground_at_drone_location(feet),ground_elevation_at_drone_location(feet),altitude_above_seaLevel(feet),height_sonar(feet),speed(mph),distance(feet),mileage(feet),satellites,gpslevel,voltage(v),max_altitude(feet),max_ascent(feet),max_speed(mph),max_distance(feet), xSpeed(mph), ySpeed(mph), zSpeed(mph), compass_heading(degrees), pitch(degrees), roll(degrees),isPhoto,isVideo,rc_elevator,rc_aileron,rc_throttle,rc_rudder,rc_elevator(percent),rc_aileron(percent),rc_throttle(percent),rc_rudder(percent),gimbal_heading(degrees),gimbal_pitch(degrees),gimbal_roll(degrees),battery_percent,voltageCell1,voltageCell2,voltageCell3,voltageCell4,voltageCell5,voltageCell6,current(A),battery_temperature(f),altitude(feet),ascent(feet),flycStateRaw,flycState,message
474800,2022-12-18 05:04:02,-34.9065606714912,-56.1632298634387,0,0,117.58150080985,117.28622520985,0,0,0,0,17,5,0,117.28622520985,0,0,0,0.223694,0,0,82.2, -6.2, -1.6,0,0,1024,1024,1024,1024,0,0,0,0,94,0,0,65,4,3.998,0,0,0,0,0,95.9,117.28622520985,0,38,Tripod,"Aeronave en Zona de altitud restringida (150). Vuela con precauci贸n (Code: 190001). Error de calibraci贸n del estabilizador. Reinicia la aeronave o contacta con la Asistencia DJI (Code: 40011)"
474900,2022-12-18 05:04:02,-34.906560491514,-56.1632299369227,0,-0.032808399999993,117.61430920985,117.28622520985,0,0.223694,0.069247705628,0.069247705628,17,5,0,117.28622520985,0,0.223694,0.069247705628,0.223694,0,0,84.1, -7.8, -2.3,0,0,364,364,364,1684,-100,-100,-100,100,94.1,0,0.1,65,4,3.998,0,0,0,0,0,95.9,117.28622520985,0,41,Motors_Started,
475000,2022-12-18 05:04:02,-34.9065603820955,-56.1632298623445,0,-0.032808399999993,117.61430920985,117.28622520985,0.328084,0.223694,0.105586289468,0.114982287144,17,5,0,117.28622520985,0,0.223694,0.105586289468,0,-0.223694,0,86.8, -9.9, -3.4,0,0,364,364,364,1684,-100,-100,-100,100,96.2,0,0,65,4,3.998,0,0,0,0,0,95.9,117.28622520985,0,41,Motors_Started,"Setting new Return-To-Home altitude to 100m (328 ft). Data Recorder File Index is 80. Setting new Maximum Flight Altitude to 120m (394 ft)"
475100,2022-12-18 05:04:02,-34.9065604046951,-56.1632290616116,0,-0.065616799999987,117.64711760985,117.28622520985,0.328084,0.223694,3.22312018188,0.35471129744,17,5,0,117.28622520985,0,0.223694,3.22312018188,0,-0.223694,0,83.6, -10, 0.7,0,0,1024,1024,573,1559,0,0,-68,81,95.1,0,0,65,4,3.998,0,0,0,0,0,95.9,117.28622520985,0,41,Motors_Started,
475200,2022-12-18 05:04:02,-34.9065605124623,-56.1632290746944,0,-0.032808399999993,117.61430920985,117.28622520985,0.328084,0.223694,3.21672254388,0.39422245356,17,5,0,117.28622520985,0,0.223694,3.22312018188,0,-0.223694,0,84, -9.9, 5.1,0,0,1024,1024,1024,1283,0,0,0,39,95.5,0,0,65,4,3.998,0,0,0,0,0,95.9,117.28622520985,0,41,Motors_Started,
475300,2022-12-18 05:04:02,-34.9065606260821,-56.1632291301414,0,-0.032808399999993,117.61430920985,117.28622520985,0.328084,0,3.19803816008,0.43887468596,17,5,0,117.28622520985,0,0.223694,3.22312018188,0,0,0,83.5, -9.3, 6.5,0,0,1024,1024,1342,1024,0,0,48,0,95.5,0,0,65,4,3.998,0,0,0,0,0,95.9,117.28622520985,0,41,Motors_Started,
475400,2022-12-18 05:04:02,-34.9065607267232,-56.1632291391553,0,-0.032808399999993,117.61430920985,117.28622520985,0.328084,0,3.1939141442,0.47569227244,17,5,0,117.28622520985,0,0.223694,3.22312018188,0,0,0,82, -9.5, 6.9,0,0,1024,1024,1684,1024,0,0,100,0,94.3,0,0,65,4,3.998,0,0,0,0,0,95.9,117.28622520985,0,41,Motors_Started,
475500,2022-12-18 05:04:02,-34.9065610821962,-56.1632286133719,-0.328084,-0.36089239999999,117.61430920985,116.95814120985,0.328084,0,3.3495407896,0.6795767934,17,5,8.006,117.28622520985,0,0.223694,3.3495407896,0,0,0,82.1, -8.6, 6.6,0,0,1024,1024,1684,1016,0,0,100,-1,94,0,0,65,4,3.998,0,0,0,0,0.736,95.9,116.95814120985,-0.328084,41,Motors_Started,
475600,2022-12-18 05:04:02,-34.9065611920706,-56.1632286549538,-0.328084,-0.36089239999999,117.61430920985,116.95814120985,0.328084,0,3.3376313404,0.72155186036,17,5,8.006,117.28622520985,0,0.223694,3.3495407896,0,0,0,82.5, -8.9, 5.2,0,0,1024,1024,1684,1024,0,0,100,0,93.9,-0.1,0.1,65,4,3.998,0,0,0,0,0.736,95.9,116.95814120985,-0.328084,41,Motors_Started,
475700,2022-12-18 05:04:03,-34.9065613124842,-56.1632287074235,-0.328084,-0.36089239999999,117.61430920985,116.95814120985,0.328084,0,3.3230644108,0.76820540516,17,5,8.006,117.28622520985,0,0.223694,3.3495407896,0,0,0,82.7, -10.3, 3.7,0,0,1024,1024,1684,1024,0,0,100,0,94.1,0,0,65,4,3.998,0,0,0,0,0.736,95.9,116.95814120985,-0.328084,41,Motors_Started,
475800,2022-12-18 05:04:03,-34.9065612606199,-56.1632287460556,-0.328084,-0.36089239999999,117.61430920985,116.95814120985,0.328084,0,3.3109581112,0.79038060272,17,5,8.006,117.28622520985,0,0.223694,3.3495407896,0,0,0,82.5, -12.1, 2.9,0,0,1024,1024,1684,1024,0,0,100,0,94.1,0,0,65,4,3.998,0,0,0,0,0.736,95.9,116.95814120985,-0.328084,41,Motors_Started,
475900,2022-12-18 05:04:03,-34.9065609895166,-56.1632285471691,-0.328084,-0.36089239999999,117.61430920985,116.95814120985,0.328084,0,3.3692914464,0.90581367728,17,5,8.006,117.28622520985,0,0.223694,3.3692914464,0,0,0,81.1, -10.4, 5.1,0,0,1024,1024,1684,1024,0,0,100,0,93.6,0,0,65,4,3.998,0,0,0,0,0.736,95.9,116.95814120985,-0.328084,41,Motors_Started,
476000,2022-12-18 05:04:03,-34.9065609051778,-56.1632286540463,-0.328084,-0.36089239999999,117.61430920985,116.95814120985,0.328084,0,3.3375657236,0.95019031912,17,5,8.006,117.28622520985,0,0.223694,3.3692914464,0,0,0,80.5, -9.3, 5.7,0,0,1024,1024,1684,1024,0,0,100,0,92.8,0,0,65,4,3.998,0,0,0,0,0.736,95.9,116.95814120985,-0.328084,10,Assisted_Takeoff,
476100,2022-12-18 05:04:03,-34.9065608211631,-56.1632288132065,-0.328084,-0.36089239999999,117.61430920985,116.95814120985,0.328084,0,3.2904528612,1.0068241792,17,5,8.006,117.28622520985,0,0.223694,3.3692914464,0,0,0,81.4, -7.6, 5.2,0,0,1024,1024,1684,1024,0,0,100,0,92.8,0,0,65,4,3.998,0,0,0,0,0.736,95.9,116.95814120985,-0.328084,10,Assisted_Takeoff,
476200,2022-12-18 05:04:03,-34.9065607162327,-56.1632289963111,-0.328084,-0.36089239999999,117.61430920985,116.95814120985,0.328084,0,3.23675863376,1.07366145168,17,5,8.006,117.28622520985,0,0.223694,3.3692914464,0,0,0,82.7, -5.1, 4.8,0,0,1024,1024,1684,1024,0,0,100,0,92.7,0,0,65,4,3.998,0,0,0,0,0.736,95.9,116.95814120985,-0.328084,10,Assisted_Takeoff,
476300,2022-12-18 05:04:03,-34.906560599203,-56.163229195276,-0.328084,-0.36089239999999,117.61430920985,116.95814120985,0.328084,0,3.17902569228,1.14692260888,17,5,8.006,117.28622520985,0,0.223694,3.3692914464,0,0,0,84.2, -4.1, 4.1,0,0,1024,1024,1538,1024,0,0,78,0,94.6,0,0,65,4,3.998,0,0,0,0,0.736,95.9,116.95814120985,-0.328084,10,Assisted_Takeoff,
476400,2022-12-18 05:04:03,-34.9065604012167,-56.1632293096759,-0.328084,-0.39370079999999,117.64711760985,116.95814120985,0.328084,0,3.14917004828,1.22685699464,17,5,8.006,117.28622520985,0,0.223694,3.3692914464,0,0,0,85.1, -3.4, 4.3,0,0,1024,1024,1024,1024,0,0,0,0,95.6,0,0,65,4,3.998,0,0,0,0,0.736,95.9,116.95814120985,-0.328084,10,Assisted_Takeoff,
476500,2022-12-18 05:04:03,-34.9065601873133,-56.163229400531,-0.328084,-0.39370079999999,117.64711760985,116.95814120985,0.328084,0,3.12864511324,1.30950135424,18,5,7.974,117.28622520985,0,0.223694,3.3692914464,0,0,0,85, -3, 4.7,0,0,1024,1024,1024,1024,0,0,0,0,96.1,0,0,65,3.99,3.981,0,0,0,0,1.552,95.9,116.95814120985,-0.328084,10,Assisted_Takeoff,
476600,2022-12-18 05:04:03,-34.9065601230647,-56.1632295044806,-0.328084,-0.36089239999999,117.61430920985,116.95814120985,0.328084,0,3.10007227768,1.34844820588,18,5,7.974,117.28622520985,0,0.223694,3.3692914464,0,0,0,84.6, -3.7, 5.3,0,0,1024,1024,1024,1024,0,0,0,0,96,0,0,65,3.99,3.981,0,0,0,0,1.552,95.9,116.95814120985,-0.328084,10,Assisted_Takeoff,
476700,2022-12-18 05:04:04,-34.9065600986584,-56.1632296172574,-0.328084,-0.36089239999999,117.61430920985,116.95814120985,0.328084,0,3.06747713228,1.38334650096,18,5,7.974,117.28622520985,0,0.223694,3.3692914464,0,0,0,84.8, -4.4, 5.4,0,0,1024,1024,1024,1024,0,0,0,0,96,0,0,65,3.99,3.981,0,0,0,0,1.552,95.9,116.95814120985,-0.328084,10,Assisted_Takeoff,
476800,2022-12-18 05:04:04,-34.9065601562336,-56.1632294195043,-0.328084,-0.39370079999999,117.64711760985,116.95814120985,0.328084,0,3.1241142732,1.44613193604,18,5,7.974,117.28622520985,0,0.223694,3.3692914464,0,0,0,84.7, -5.7, 5.2,0,0,1024,1024,1348,1024,0,0,49,0,96.1,0,0,65,3.99,3.981,0,0,0,0,1.552,95.9,116.95814120985,-0.328084,10,Assisted_Takeoff,
476900,2022-12-18 05:04:04,-34.9065601557443,-56.1632294111132,-0.328084,-0.39370079999999,117.64711760985,116.95814120985,0.328084,0,3.12663067748,1.44865162116,18,5,7.974,117.28622520985,0,0.223694,3.3692914464,0,0,0,83.9, -6.9, 4.2,0,0,1024,1024,1653,1024,0,0,95,0,95.9,0,0,65,3.99,3.981,0,0,0,0,1.552,95.9,116.95814120985,-0.328084,10,Assisted_Takeoff,
477000,2022-12-18 05:04:04,-34.9065601517424,-56.1632293979716,-0.328084,-0.39370079999999,117.64711760985,116.95814120985,0.328084,0,3.13068907656,1.45284453468,18,5,7.974,117.28622520985,0,0.223694,3.3692914464,0,0,0,83.5, -6.7, 3.6,0,0,1024,1024,1684,1024,0,0,100,0,95.3,0,0,65,3.99,3.981,0,0,0,0,1.552,95.9,116.95814120985,-0.328084,10,Assisted_Takeoff,
477100,2022-12-18 05:04:04,-34.9065601492077,-56.1632294061407,-0.328084,-0.39370079999999,117.64711760985,116.95814120985,0.328084,0,3.12835311848,1.45545936416,18,5,7.974,117.28622520985,0,0.223694,3.3692914464,0,0,0,83.5, -5.6, 3.3,0,0,1024,1024,1684,1024,0,0,100,0,95.3,0,0,65,3.99,3.981,0,0,0,0,1.552,95.9,116.95814120985,-0.328084,10,Assisted_Takeoff,
477200,2022-12-18 05:04:04,-34.9065602055022,-56.1632291842694,-0.328084,-0.39370079999999,117.64711760985,116.95814120985,0.328084,0,3.19243120452,1.52494755536,18,5,7.974,117.28622520985,0,0.223694,3.3692914464,0,0,0,83.7, -3.9, 2.8,0,0,1024,1024,1684,1024,0,0,100,0,95,0,0,65,3.99,3.981,0,0,0,0,1.552,95.9,116.95814120985,-0.328084,10,Assisted_Takeoff,
477300,2022-12-18 05:04:04,-34.906560189357,-56.1632291744668,-0.328084,-0.39370079999999,117.64711760985,116.95814120985,0.328084,0,3.19590233324,1.5315289204,18,5,7.974,117.28622520985,0,0.223694,3.3692914464,0,0,0,82.9, -1.4, 1,0,0,1024,1024,1684,1024,0,0,100,0,94.6,0,0,65,3.99,3.981,0,0,0,0,1.552,95.9,116.95814120985,-0.328084,10,Assisted_Takeoff,
477400,2022-12-18 05:04:04,-34.9065601861376,-56.1632291731009,-0.328084,-0.39370079999999,117.64711760985,116.95814120985,0.328084,0,3.19642070596,1.53277235876,18,5,7.974,117.28622520985,0,0.223694,3.3692914464,0,0,-0.223694,81.1, 0.4, -0.2,0,0,1024,1024,1024,1024,0,0,0,0,93.2,0,0,65,3.99,3.981,0,0,0,0,1.552,95.9,116.95814120985,-0.328084,10,Assisted_Takeoff,
477500,2022-12-18 05:04:04,-34.9065601835785,-56.1632291935563,0,-0.065616799999987,117.64711760985,117.28622520985,0.328084,0,3.19041676876,1.53896330384,18,5,7.952,117.28622520985,0,0.223694,3.3692914464,0,0,-0.671082,80.4, 0.4, -0.8,0,0,1024,1024,1024,1024,0,0,0,0,92,0,0,65,3.97,3.964,0,0,0,0,2.704,95.9,117.28622520985,0,38,Tripod,"Error de calibraci贸n del estabilizador. Reinicia la aeronave o contacta con la Asistencia DJI (Code: 40011)"
477600,2022-12-18 05:04:05,-34.9065602526359,-56.1632292544288,0,-0.065616799999987,117.64711760985,117.28622520985,0.656168,0,3.16997057388,1.57005254368,18,5,7.952,117.28622520985,0,0.223694,3.3692914464,0,0,-1.11847,80.6, -0.6, 0,0,0,1024,1024,1024,1024,0,0,0,0,91.9,0,0,65,3.97,3.964,0,0,0,0,2.704,95.9,117.28622520985,0,38,Tripod,
477700,2022-12-18 05:04:05,-34.9065602537318,-56.1632293613804,0,-0.065616799999987,117.64711760985,117.28622520985,0.656168,0,3.13806112404,1.60205713788,18,5,7.952,117.28622520985,0,0.223694,3.3692914464,0,0,-1.565858,80.7, -0.9, 0.4,0,0,1024,1024,1024,1024,0,0,0,0,91.9,0,0,65,3.97,3.964,0,0,0,0,2.704,95.9,117.28622520985,0,38,Tripod,
477800,2022-12-18 05:04:05,-34.9065602621379,-56.163229475514,0.328084,0.26246720000001,117.64711760985,117.61430920985,0.984252,0,3.1037730652,1.63634191588,18,5,7.952,117.61430920985,0.328084,0.223694,3.3692914464,0,0,-1.565858,80.7, -1.1, 0,0,0,1024,1024,1024,1024,0,0,0,0,91.9,0,0,65,3.97,3.964,0,0,0,0,2.704,95.9,117.61430920985,0.328084,38,Tripod,
477900,2022-12-18 05:04:05,-34.9065602742958,-56.1632295851308,0.328084,0.29527560000001,117.61430920985,117.61430920985,1.312336,0,3.07070875968,1.6694390298,18,5,7.952,117.61430920985,0.328084,0.223694,3.3692914464,0,0,-1.565858,80.8, -1.2, 0,0,0,1024,1024,1024,1024,0,0,0,0,91.9,0,0,65,3.97,3.964,0,0,0,0,2.704,95.9,117.61430920985,0.328084,38,Tripod,
478000,2022-12-18 05:04:05,-34.906560285708,-56.1632296021532,0.656168,0.62335960000001,117.61430920985,117.94239320985,1.64042,0,3.0652724078,1.67602039484,18,5,7.952,117.94239320985,0.656168,0.223694,3.3692914464,0,0,-1.342164,80.9, -1.3, 0.1,0,0,1024,1024,1024,1024,0,0,0,0,91.9,0,0,65,3.97,3.964,0,0,0,0,2.704,95.9,117.94239320985,0.656168,38,Tripod,"Error de calibraci贸n del estabilizador. Reinicia la aeronave o contacta con la Asistencia DJI (Code: 40011)"
478100,2022-12-18 05:04:05,-34.9065603329996,-56.1632294667259,0.984252,0.91863520000001,117.64711760985,118.27047720985,1.968504,0,3.10420285524,1.72005911016,17,5,7.952,118.27047720985,0.984252,0.223694,3.3692914464,0,0,-0.894776,81, -1.2, 0.1,0,0,1024,1024,1024,1024,0,0,0,0,91.9,0,0,65,3.97,3.964,0,0,0,0,2.704,95.9,118.27047720985,0.984252,38,Tripod,
478200,2022-12-18 05:04:05,-34.9065603136016,-56.1632295350167,0.984252,0.95144360000001,117.61430920985,118.27047720985,2.296588,0,3.08441939004,1.7416831266,17,5,7.952,118.27047720985,0.984252,0.223694,3.3692914464,0,0,-0.671082,81, -1.3, 0.2,0,0,1024,1024,1024,1024,0,0,0,0,91.9,0,0,65,3.97,3.964,0,0,0,0,2.704,95.9,118.27047720985,0.984252,38,Tripod,
478300,2022-12-18 05:04:05,-34.9065602858822,-56.1632296330798,0.984252,0.95144360000001,117.61430920985,118.27047720985,2.624672,0,3.05604668572,1.772719873,16,5,7.952,118.27047720985,0.984252,0.223694,3.3692914464,0,0,-0.223694,81, -1, 0,0,0,1024,1024,1024,1024,0,0,0,0,91.9,0,0,65,3.97,3.964,0,0,0,0,2.704,95.9,118.27047720985,0.984252,38,Tripod,
478400,2022-12-18 05:04:05,-34.9065602810213,-56.1632297570094,1.312336,1.2795276,117.61430920985,118.59856120985,2.624672,0,3.01926846932,1.8098425776,16,5,7.952,118.59856120985,1.312336,0.223694,3.3692914464,0,0,0,81, -1.3, 0,0,0,1024,1024,1024,1024,0,0,0,0,91.9,0,0,65,3.97,3.964,0,0,0,0,2.704,95.9,118.59856120985,1.312336,38,Tripod,
478500,2022-12-18 05:04:05,-34.9065602245697,-56.1632301246904,1.312336,1.2795276,117.61430920985,118.59856120985,2.624672,0,2.91168316404,1.9217684342,16,5,7.873,118.59856120985,1.312336,0.223694,3.3692914464,0,0,0,80.9, -1.1, 0,0,0,1024,1024,1024,1024,0,0,0,0,91.9,0,0,65,3.953,3.946,0,0,0,0,4.682,95.9,118.59856120985,1.312336,38,Tripod,
478600,2022-12-18 05:04:05,-34.9065602430639,-56.163230162458,1.312336,1.2795276,117.61430920985,118.59856120985,2.624672,0,2.89977371484,1.93492788344,16,5,7.873,118.59856120985,1.312336,0.223694,3.3692914464,0,0,0,80.9, -1.1, 0.1,0,0,1024,1024,1024,1024,0,0,0,0,91.9,0,0,65,3.953,3.946,0,0,0,0,4.682,95.9,118.59856120985,1.312336,38,Tripod,
478700,2022-12-18 05:04:06,-34.9065602708354,-56.1632301717462,1.312336,1.2795276,117.61430920985,118.59856120985,2.624672,0,2.89603683808,1.94543641396,16,5,7.873,118.59856120985,1.312336,0.223694,3.3692914464,0,0,0,80.8, -0.9, -0.2,0,0,1024,1024,1024,1024,0,0,0,0,91.9,0,0,65,3.953,3.946,0,0,0,0,4.682,95.9,118.59856120985,1.312336,38,Tripod,
478800,2022-12-18 05:04:06,-34.9065602240323,-56.1632301583879,1.312336,1.2795276,117.61430920985,118.59856120985,2.624672,0,2.90167004036,1.96297250376,16,5,7.873,118.59856120985,1.312336,0.223694,3.3692914464,0,0,0,80.9, -1.4, -0.1,0,0,1024,1024,1024,1024,0,0,0,0,91.9,0,0,65,3.953,3.946,0,0,0,0,4.682,95.9,118.59856120985,1.312336,38,Tripod,
478900,2022-12-18 05:04:06,-34.9065600087064,-56.1632300283915,1.312336,1.2795276,117.61430920985,118.59856120985,2.624672,0,2.949147076,2.05063654856,16,5,7.873,118.59856120985,1.312336,0.223694,3.3692914464,0,0,0,80.8, -1.2, -0.2,0,0,1024,1024,1024,1024,0,0,0,0,91.9,0,0,65,3.953,3.946,0,0,0,0,4.682,95.9,118.59856120985,1.312336,38,Tripod,
479000,2022-12-18 05:04:06,-34.9065599368578,-56.1632299970783,1.312336,1.2795276,117.61430920985,118.59856120985,2.624672,0,2.96181768008,2.07847447596,16,5,7.873,118.59856120985,1.312336,0.223694,3.3692914464,0,0,0,80.9, -1.6, -0.1,0,0,1024,1024,1024,1024,0,0,0,0,91.9,0,0,65,3.953,3.946,0,0,0,0,4.682,95.9,118.59856120985,1.312336,38,Tripod,
479100,2022-12-18 05:04:06,-34.9065598711501,-56.163229952843,1.312336,1.2795276,117.61430920985,118.59856120985,2.624672,0,2.97820875672,2.10585964744,16,5,7.873,118.59856120985,1.312336,0.223694,3.3692914464,0,0,0,80.9, -1.1, 0,0,0,1024,1024,1024,1024,0,0,0,0,91.9,0,0,65,3.953,3.946,0,0,0,0,4.682,95.9,118.59856120985,1.312336,38,Tripod,
479200,2022-12-18 05:04:06,-34.9065597793294,-56.1632299575622,1.312336,1.2795276,117.61430920985,118.59856120985,2.624672,0,2.98170285132,2.13938983224,16,5,7.873,118.59856120985,1.312336,0.223694,3.3692914464,0,0,0,80.9, -1.3, 0.3,0,0,1024,1024,1024,1024,0,0,0,0,91.9,0,0,65,3.953,3.946,0,0,0,0,4.682,95.9,118.59856120985,1.312336,38,Tripod,
479300,2022-12-18 05:04:06,-34.9065596752157,-56.1632299664625,1.312336,1.2795276,117.61430920985,118.59856120985,2.624672,0,2.98506899316,2.17746726128,16,5,7.873,118.59856120985,1.312336,0.223694,3.3692914464,0,0,0,80.9, -1.1, 0.1,0,0,1024,1024,1024,1024,0,0,0,0,91.9,0,0,65,3.953,3.946,0,0,0,0,4.682,95.9,118.59856120985,1.312336,38,Tripod,
479400,2022-12-18 05:04:06,-34.9065593600825,-56.1632301110356,1.312336,1.2467192,117.64711760985,118.59856120985,2.624672,0,2.9637140056,2.3003117534,16,5,7.873,118.59856120985,1.312336,0.223694,3.3692914464,0,0,0,80.9, -1.9, 0.4,0,0,1024,1024,1024,1024,0,0,0,0,91.9,0,0,65,3.953,3.946,0,0,0,0,4.682,95.9,118.59856120985,1.312336,38,Tripod,
479500,2022-12-18 05:04:06,-34.9065592488964,-56.1632301332786,1.312336,1.2467192,117.64711760985,118.59856120985,2.624672,0,2.96576124976,2.3414206786,17,5,7.882,118.59856120985,1.312336,0.223694,3.3692914464,0,0,0,80.8, -1.6, 0.6,0,0,1024,1024,1024,1024,0,0,0,0,91.9,0,0,64,3.944,3.935,0,0,0,0,4.058,95.9,118.59856120985,1.312336,38,Tripod,
479600,2022-12-18 05:04:06,-34.9065591945756,-56.1632301226964,1.312336,1.2467192,117.64711760985,118.59856120985,2.624672,0,2.97322187992,2.36149285772,17,5,7.882,118.59856120985,1.312336,0.223694,3.3692914464,0,0,0,80.8, -1.7, 0.8,0,0,1024,1024,1024,1024,0,0,0,0,91.9,0,0,64,3.944,3.935,0,0,0,0,4.058,95.9,118.59856120985,1.312336,38,Tripod,
479700,2022-12-18 05:04:07,-34.9065591618276,-56.1632300864226,1.312336,1.2467192,117.64711760985,118.59856120985,2.624672,0,2.98648631604,2.37763459052,17,5,7.882,118.59856120985,1.312336,0.223694,3.3692914464,0,0,0,80.9, -1.2, 0.4,0,0,1024,1024,1024,1024,0,0,0,0,91.9,0,0,64,3.944,3.935,0,0,0,0,4.058,95.9,118.59856120985,1.312336,38,Tripod,
479800,2022-12-18 05:04:07,-34.9065592110538,-56.1632301659524,1.312336,1.2467192,117.64711760985,118.59856120985,2.624672,0,2.95926190572,2.4074475836,17,5,7.882,118.59856120985,1.312336,0.223694,3.3692914464,0,0,0,80.9, -2.2, 0.4,0,0,1024,1024,1024,1024,0,0,0,0,91.9,0,0,64,3.944,3.935,0,0,0,0,4.058,95.9,118.59856120985,1.312336,38,Tripod,
479900,2022-12-18 05:04:07,-34.9065592856691,-56.1632302590599,1.312336,1.2467192,117.64711760985,118.59856120985,2.624672,0,2.92611229836,2.44639771608,17,5,7.882,118.59856120985,1.312336,0.223694,3.3692914464,0,0,0,80.9, -1.7, 0.3,0,0,1024,1024,1024,1024,0,0,0,0,91.9,0,0,64,3.944,3.935,0,0,0,0,4.058,95.9,118.59856120985,1.312336,38,Tripod,
480000,2022-12-18 05:04:07,-34.9065593542022,-56.163230250802,1.312336,1.2467192,117.64711760985,118.59856120985,2.624672,0,2.92323172084,2.4715223888,17,5,7.882,118.59856120985,1.312336,0.223694,3.3692914464,0,0,0,81, -1.8, 0.4,0,0,1024,1024,1024,1024,0,0,0,0,91.9,0,0,64,3.944,3.935,0,0,0,0,4.058,95.9,118.59856120985,1.312336,38,Tripod,
480100,2022-12-18 05:04:07,-34.9065594271735,-56.1632301738433,1.312336,1.2467192,117.64711760985,118.59856120985,2.624672,0,2.94039051404,2.50672252116,17,5,7.882,118.59856120985,1.312336,0.223694,3.3692914464,0,0,0,81, -1.6, 0.3,0,0,1024,1024,1024,1024,0,0,0,0,91.9,0,0,64,3.944,3.935,0,0,0,0,4.058,95.9,118.59856120985,1.312336,38,Tripod,
480200,2022-12-18 05:04:07,-34.9065595402315,-56.1632301411813,1.312336,1.2795276,117.61430920985,118.59856120985,2.624672,0,2.94213592092,2.5491142548,17,5,7.882,118.59856120985,1.312336,0.223694,3.3692914464,0,0,0,81, -1.4, 0.6,0,0,1024,1024,1024,1024,0,0,0,0,91.9,0,0,64,3.944,3.935,0,0,0,0,4.058,95.9,118.59856120985,1.312336,38,Tripod,
480300,2022-12-18 05:04:07,-34.9065595965008,-56.1632299786652,1.312336,1.2795276,117.61430920985,118.59856120985,2.624672,0,2.9863189932,2.60189640872,17,5,7.882,118.59856120985,1.312336,0.223694,3.3692914464,0,0,0,81, -1.1, 0.5,0,0,1024,1024,1024,1024,0,0,0,0,91.9,0,0,64,3.944,3.935,0,0,0,0,4.058,95.9,118.59856120985,1.312336,38,Tripod,
480400,2022-12-18 05:04:07,-34.9065596456611,-56.16322981886,1.312336,1.2795276,117.61430920985,118.59856120985,2.624672,0.223694,3.03040364028,2.65296596416,17,5,7.882,118.59856120985,1.312336,0.223694,3.3692914464,0,0.223694,0,80.9, -1, 0.4,0,0,1024,1024,1024,1024,0,0,0,0,91.9,0,0,64,3.944,3.935,0,0,0,0,4.058,95.9,118.59856120985,1.312336,38,Tripod,"Punto de origen actualizado. Altitud de RPO establecida en 100m (Code: 3000001)"
480500,2022-12-18 05:04:07,-34.9065597035083,-56.1632296342276,1.312336,1.2795276,117.61430920985,118.59856120985,2.624672,0.223694,3.08154865504,2.71210310516,19,5,7.882,118.59856120985,1.312336,0.223694,3.3692914464,0,0.223694,0,80.9, -0.8, 0.3,0,0,1024,1024,1024,1024,0,0,0,0,91.9,0,0,64,3.944,3.935,0,0,0,0,4.058,95.9,118.59856120985,1.312336,38,Tripod,
480600,2022-12-18 05:04:07,-34.9065596580193,-56.1632296550825,1.312336,1.2795276,117.61430920985,118.59856120985,2.624672,0,3.07801519036,2.72983276452,19,5,7.873,118.59856120985,1.312336,0.223694,3.3692914464,0,0,0,80.9, -0.9, 0.3,0,0,1024,1024,1024,1024,0,0,0,0,91.9,0,0,64,3.94,3.93,0,0,0,0,4.358,95.9,118.59856120985,1.312336,38,Tripod,
480700,2022-12-18 05:04:08,-34.9065597032298,-56.1632295355064,1.312336,1.2795276,117.61430920985,118.59856120985,2.624672,0,3.1107448502,2.76923237208,19,5,7.873,118.59856120985,1.312336,0.223694,3.3692914464,0,0,0,81, -1.1, 0.5,0,0,1024,1024,1024,1024,0,0,0,0,91.9,0,0,64,3.94,3.93,0,0,0,0,4.358,95.9,118.59856120985,1.312336,38,Tripod,
480800,2022-12-18 05:04:08,-34.9065597463323,-56.1632293637217,1.312336,1.2467192,117.64711760985,118.59856120985,2.624672,0.223694,3.15919301448,2.8229823738,19,5,7.873,118.59856120985,1.312336,0.223694,3.3692914464,0,0.223694,0,81, -0.9, 0.2,0,0,1024,1024,1407,1024,0,0,58,0,91.9,0,0,64,3.94,3.93,0,0,0,0,4.358,95.9,118.59856120985,1.312336,38,Tripod,
480900,2022-12-18 05:04:08,-34.9065597974418,-56.163229154851,1.312336,1.2467192,117.64711760985,118.59856120985,2.624672,0,3.21839249144,2.88820219216,19,5,7.873,118.59856120985,1.312336,0.223694,3.3692914464,0,0,0,81, -0.7, 0,0,0,1024,1024,1684,1024,0,0,100,0,91.9,0,0,64,3.94,3.93,0,0,0,0,4.358,95.9,118.59856120985,1.312336,38,Tripod,
481000,2022-12-18 05:04:08,-34.9065598225133,-56.1632289110266,1.64042,1.5748032,117.64711760985,118.92664520985,2.624672,0,3.2894358008,2.96172581656,19,5,7.873,118.92664520985,1.64042,0.223694,3.3692914464,0,0,-0.223694,81, -0.8, 0.1,0,0,1024,1024,1088,1024,0,0,10,0,91.9,0,0,64,3.94,3.93,0,0,0,0,4.358,95.9,118.92664520985,1.64042,38,Tripod,
481100,2022-12-18 05:04:08,-34.9065599040039,-56.1632287056372,1.64042,1.5748032,117.64711760985,118.92664520985,2.624672,0,3.346620842,3.02999353528,19,5,7.873,118.92664520985,1.64042,0.223694,3.3692914464,0,0,-0.894776,80.9, -1.3, 0.3,0,0,1024,1024,1088,1024,0,0,10,0,91.9,0,0,64,3.94,3.93,0,0,0,0,4.358,95.9,118.92664520985,1.64042,38,Tripod,
481200,2022-12-18 05:04:08,-34.9065599463239,-56.1632285116761,1.968504,1.9028872,117.64711760985,119.25472920985,2.952756,0,3.4024279304,3.09004931148,19,5,7.873,119.25472920985,1.968504,0.223694,3.4024279304,0,0,-1.565858,81, -1.3, 0,0,0,1024,1024,1024,1024,0,0,0,0,91.9,0,0,64,3.94,3.93,0,0,0,0,4.358,95.9,119.25472920985,1.968504,38,Tripod,
481300,2022-12-18 05:04:08,-34.906559979282,-56.1632283159078,1.968504,1.8700788,117.67992600985,119.25472920985,3.28084,0,3.4592848876,3.14984590132,19,5,7.873,119.25472920985,1.968504,0.223694,3.4592848876,0,0,-1.342164,81.1, -0.7, 0.1,0,0,1024,1024,1024,1024,0,0,0,0,91.9,0,0,64,3.94,3.93,0,0,0,0,4.358,95.9,119.25472920985,1.968504,38,Tripod,
481400,2022-12-18 05:04:08,-34.9065600272894,-56.1632281296183,2.296588,2.1981628,117.67992600985,119.58281320985,3.28084,0,3.5128281964,3.20827110004,19,5,7.873,119.58281320985,2.296588,0.223694,3.5128281964,0,0,-0.894776,81.2, -0.8, 0.1,0,0,1024,1024,1024,1024,0,0,0,0,91.9,0,0,64,3.94,3.93,0,0,0,0,4.358,95.9,119.58281320985,2.296588,38,Tripod,
481500,2022-12-18 05:04:08,-34.9065599874023,-56.1632280074802,2.296588,2.1981628,117.67992600985,119.58281320985,3.28084,0,3.5507218984,3.24760837164,18,5,7.873,119.58281320985,2.296588,0.223694,3.5507218984,0,0,-0.447388,81.1, -1, 0.3,0,0,1294,1024,1048,1024,41,0,4,0,91.9,0,0,64,3.94,3.93,0,0,0,0,4.358,95.9,119.58281320985,2.296588,38,Tripod,
481600,2022-12-18 05:04:09,-34.9065600413966,-56.1632278551468,2.296588,2.1981628,117.67992600985,119.58281320985,3.28084,0,3.5940289864,3.2972770084,18,5,7.865,119.58281320985,2.296588,0.223694,3.5940289864,0,0,-0.223694,81.1, -0.7, 0.1,0,0,1676,1024,1024,1024,99,0,0,0,91.9,0,0,64,3.95,3.933,0,0,0,0,4.516,95.9,119.58281320985,2.296588,38,Tripod,
481700,2022-12-18 05:04:09,-34.9065601096691,-56.1632276764766,2.296588,2.1981628,117.67992600985,119.58281320985,3.608924,0,3.6448820064,3.3562337032,18,5,7.865,119.58281320985,2.296588,0.223694,3.6448820064,0,0,0,81.1, -4, 0,0,0,1684,1024,1024,1024,100,0,0,0,91.9,0,0,64,3.95,3.933,0,0,0,0,4.516,95.9,119.58281320985,2.296588,38,Tripod,
481800,2022-12-18 05:04:09,-34.906560199034,-56.1632275567229,2.296588,2.1981628,117.67992600985,119.58281320985,3.608924,0.223694,3.6777888316,3.40469171,18,5,7.865,119.58281320985,2.296588,0.223694,3.6777888316,0,0.223694,0,81, -8.7, -0.2,0,0,1684,1024,1024,1024,100,0,0,0,91.9,0,0,64,3.95,3.933,0,0,0,0,4.516,95.9,119.58281320985,2.296588,38,Tripod,
481900,2022-12-18 05:04:09,-34.9065603549999,-56.1632275919156,2.296588,2.1981628,117.67992600985,119.58281320985,3.608924,0.671082,3.6630906684,3.4625657276,18,5,7.865,119.58281320985,2.296588,0.671082,3.6777888316,0,0.671082,0,81, -10.5, -0.4,0,0,1684,1024,1024,1024,100,0,0,0,91.9,0,0,64,3.95,3.933,0,0,0,0,4.516,95.9,119.58281320985,2.296588,38,Tripod,
482000,2022-12-18 05:04:09,-34.9065603886631,-56.1632271959823,2.296588,2.1981628,117.67992600985,119.58281320985,3.608924,0.894776,3.7805447404,3.5816602196,18,5,7.865,119.58281320985,2.296588,0.894776,3.7805447404,0,0.894776,0,80.9, -10.7, -0.4,0,0,1648,1024,1222,1024,95,0,30,0,91.9,0,0,64,3.95,3.933,0,0,0,0,4.516,95.9,119.58281320985,2.296588,38,Tripod,
482100,2022-12-18 05:04:09,-34.9065603831573,-56.1632265993618,2.296588,2.1981628,117.67992600985,119.58281320985,3.608924,0.894776,3.9588583944,3.760170724,18,5,7.865,119.58281320985,2.296588,0.894776,3.9588583944,0,1.342164,0,80.9, -10.4, -0.3,0,0,1648,1024,1222,1024,95,0,30,0,91.9,0,0,64,3.95,3.933,0,0,0,0,4.516,95.9,119.58281320985,2.296588,38,Tripod,
482200,2022-12-18 05:04:09,-34.9065603355986,-56.1632259787054,2.296588,2.1653544,117.71273440985,119.58281320985,3.608924,1.565858,4.1452429148,3.946686478,18,5,7.865,119.58281320985,2.296588,1.565858,4.1452429148,0,1.565858,0,80.9, -9.8, 0.3,0,0,1531,1024,1684,1024,77,0,100,0,91.9,0,0,64,3.95,3.933,0,0,0,0,4.516,95.9,119.58281320985,2.296588,38,Tripod,
482300,2022-12-18 05:04:09,-34.9065601906142,-56.1632254759551,2.624672,2.46063,117.74554280985,119.91089720985,3.608924,1.8119214,4.2988190352,4.1061681104,18,5,7.865,119.91089720985,2.624672,1.8119214,4.2988190352,0.223694,1.789552,-0.447388,80.9, -8.4, 0.4,0,0,1334,1024,1684,1024,47,0,100,0,91.9,0,0,64,3.95,3.933,0,0,0,0,4.516,95.9,119.91089720985,2.624672,38,Tripod,
482400,2022-12-18 05:04:09,-34.9065600706426,-56.1632244927743,2.624672,2.4278216,117.77835120985,119.91089720985,3.608924,2.23694,4.5954069712,4.4035762564,18,5,7.865,119.91089720985,2.624672,2.23694,4.5954069712,0.223694,2.23694,-1.11847,80.8, -4.9, 0.2,0,0,1134,1024,1619,1024,17,0,90,0,91.9,0,0,64,3.95,3.933,0,0,0,0,4.516,95.9,119.91089720985,2.624672,38,Tripod,
482500,2022-12-18 05:04:09,-34.9065599206849,-56.1632232891104,2.952756,2.7230972,117.81115960985,120.23898120985,3.937008,2.23694,4.9586943844,4.7678479216,18,5,7.865,120.23898120985,2.952756,2.23694,4.9586943844,0.223694,2.23694,-2.013246,80.8, -2.3, -0.1,0,0,1024,1024,1624,1024,0,0,91,0,91.9,0,0,64,3.95,3.933,0,0,0,0,4.516,95.9,120.23898120985,2.952756,38,Tripod,
482600,2022-12-18 05:04:09,-34.9065597719233,-56.1632220898184,3.28084,3.0183728,117.84396800985,120.56706520985,4.265092,2.23694,5.3208006952,5.1307744424,18,5,7.862,120.56706520985,3.28084,2.23694,5.3208006952,0.223694,2.23694,-2.684328,80.8, -1.1, -0.3,0,0,1024,1024,1567,1024,0,0,82,0,91.9,0,0,64,3.908,3.902,0,0,0,0,4.445,95.9,120.56706520985,3.28084,38,Tripod,
482700,2022-12-18 05:04:10,-34.9065594418523,-56.1632207685723,3.608924,3.28084,117.90958480985,120.89514920985,4.92126,2.0356154,5.7256235428,5.5440290488,17,5,7.862,120.89514920985,3.608924,2.23694,5.7256235428,0.223694,2.013246,-3.131716,80.8, 4.9, -0.5,0,0,1024,1024,1024,1024,0,0,0,0,91.9,0,0,64,3.908,3.902,0,0,0,0,4.445,95.9,120.89514920985,3.608924,38,Tripod,
482800,2022-12-18 05:04:10,-34.9065593393279,-56.163219746877,4.265092,3.9041996,117.94239320985,121.55131720985,5.249344,1.5882274,6.0335631852,5.8520014996,17,5,7.862,121.55131720985,4.265092,2.23694,6.0335631852,0.223694,1.565858,-3.131716,80.8, 7, -0.3,0,0,1024,1024,1024,1024,0,0,0,0,91.9,0,0,64,3.908,3.902,0,0,0,0,4.445,95.9,121.55131720985,4.265092,38,Tripod,
482900,2022-12-18 05:04:10,-34.9065592593624,-56.1632188378253,4.593176,4.1994752,117.97520160985,121.87940120985,5.577428,1.342164,6.307086816,6.1255579388,18,5,7.862,121.87940120985,4.593176,2.23694,6.307086816,0,1.342164,-2.684328,81, 7.1, -0.1,0,0,1024,1024,1024,1024,0,0,0,0,91.9,0,0,64,3.908,3.902,0,0,0,0,4.445,95.9,121.87940120985,4.593176,38,Tripod,
483000,2022-12-18 05:04:10,-34.9065592364111,-56.1632182223177,4.92126,4.5275592,117.97520160985,122.20748520985,5.905512,1.11847,6.4911747484,6.3099083384,18,5,7.862,122.20748520985,4.92126,2.23694,6.4911747484,0,1.11847,-2.013246,81, 6.7, -0.2,0,0,758,1024,1024,1024,-40,0,0,0,91.9,0,0,64,3.908,3.902,0,0,0,0,4.445,95.9,122.20748520985,4.92126,38,Tripod,
483100,2022-12-18 05:04:10,-34.9065592372945,-56.163217721543,4.92126,4.5275592,117.97520160985,122.20748520985,6.233596,0.894776,6.6402233096,6.4597443012,18,5,7.862,122.20748520985,4.92126,2.23694,6.6402233096,0,0.894776,-1.342164,81, 5.8, -0.1,0,0,709,1024,1024,1024,-48,0,0,0,91.9,0,0,64,3.908,3.902,0,0,0,0,4.445,95.9,122.20748520985,4.92126,38,Tripod,
483200,2022-12-18 05:04:10,-34.9065592821183,-56.1632175563304,5.249344,4.8556432,117.97520160985,122.53556920985,6.56168,0.671082,6.6878611064,6.511811232,18,5,7.862,122.53556920985,5.249344,2.23694,6.6878611064,0,0.671082,-0.671082,81, 6.6, -0.3,0,0,1024,1024,1024,1024,0,0,0,0,91.9,0,0,64,3.908,3.902,0,0,0,0,4.445,95.9,122.53556920985,5.249344,38,Tripod,
483300,2022-12-18 05:04:10,-34.9065593572449,-56.1632175439749,5.249344,4.8556432,117.97520160985,122.53556920985,6.56168,0.447388,6.6890094004,6.5394687132,18,5,7.862,122.53556920985,5.249344,2.23694,6.6890094004,0,0.447388,-0.223694,80.9, 4.9, -0.4,0,0,1024,1024,1080,1024,0,0,8,0,91.9,0,0,64,3.908,3.902,0,0,0,0,4.445,95.9,122.53556920985,5.249344,38,Tripod,
483400,2022-12-18 05:04:10,-34.9065594384228,-56.1632176100041,5.249344,4.8556432,117.97520160985,122.53556920985,6.56168,0.223694,6.6666996884,6.5750986356,18,5,7.862,122.53556920985,5.249344,2.23694,6.6890094004,0,0.223694,0,81.1, 1.6, -0.9,0,0,1024,1024,1303,1024,0,0,42,0,91.9,0,0,64,3.908,3.902,0,0,0,0,4.445,95.9,122.53556920985,5.249344,38,Tripod,
483500,2022-12-18 05:04:10,-34.9065595168943,-56.1632177165548,5.249344,4.8884516,117.94239320985,122.53556920985,6.56168,0.223694,6.6325133356,6.617946406,18,5,7.862,122.53556920985,5.249344,2.23694,6.6890094004,0,0.223694,0,81.2, 1.1, -0.6,0,0,1024,1024,1294,1024,0,0,41,0,91.9,0,0,64,3.908,3.902,0,0,0,0,4.445,95.9,122.53556920985,5.249344,38,Tripod,
483600,2022-12-18 05:04:10,-34.9065592769016,-56.163218268402,5.577428,5.1837272,117.97520160985,122.86365320985,6.56168,0,6.4759844592,6.8048230524,18,5,7.849,122.86365320985,5.577428,2.23694,6.6890094004,0,0,-0.447388,81.3, 0.6, -0.1,0,0,1024,1024,1294,1024,0,0,41,0,91.9,0,0,64,3.938,3.93,0,0,0,0,5.032,95.9,122.86365320985,5.577428,38,Tripod,
483700,2022-12-18 05:04:11,-34.9065591427121,-56.1632183403438,5.577428,5.1837272,117.97520160985,122.86365320985,6.889764,0,6.4595802592,6.8583007444,18,5,7.849,122.86365320985,5.577428,2.23694,6.6890094004,0,0,-0.894776,81.1, 0.1, 0.3,0,0,1024,1024,1296,1024,0,0,41,0,91.9,0,0,64,3.938,3.93,0,0,0,0,5.032,95.9,122.86365320985,5.577428,38,Tripod,
483800,2022-12-18 05:04:11,-34.9065590653536,-56.1632184531572,5.577428,5.1837272,117.97520160985,122.86365320985,6.889764,0,6.4290684472,6.9022968088,18,5,7.849,122.86365320985,5.577428,2.23694,6.6890094004,0,0,-0.894776,80.9, 0.2, 0.3,0,0,1024,1024,1261,1024,0,0,36,0,91.9,0,0,64,3.938,3.93,0,0,0,0,5.032,95.9,122.86365320985,5.577428,38,Tripod,
483900,2022-12-18 05:04:11,-34.9065590133379,-56.1632185932435,5.905512,5.5118112,117.97520160985,123.19173720985,7.217848,0,6.3895671336,6.948326994,18,5,7.849,123.19173720985,5.905512,2.23694,6.6890094004,0,0,-0.894776,80.8, 0.2, 0,0,0,1024,1024,1158,1024,0,0,20,0,91.9,0,0,64,3.938,3.93,0,0,0,0,5.032,95.9,123.19173720985,5.905512,38,Tripod,
484000,2022-12-18 05:04:11,-34.9065586513674,-56.1632187430973,5.905512,5.5118112,117.97520160985,123.19173720985,7.217848,0,6.3615815684,7.0877955024,18,5,7.849,123.19173720985,5.905512,2.23694,6.6890094004,0,0,-0.894776,80.9, -0.5, 0.2,0,0,1024,1024,1230,1024,0,0,31,0,91.9,0,0,64,3.938,3.93,0,0,0,0,5.032,95.9,123.19173720985,5.905512,38,Tripod,
484100,2022-12-18 05:04:11,-34.9065585529776,-56.1632188056478,6.233596,5.8398952,117.97520160985,123.51982120985,7.217848,0,6.3480316992,7.128281068,18,5,7.849,123.51982120985,6.233596,2.23694,6.6890094004,0,0,-0.671082,81, -0.8, 0.5,0,0,1024,1024,1458,1024,0,0,66,0,91.9,0,0,64,3.938,3.93,0,0,0,0,5.032,95.9,123.51982120985,6.233596,38,Tripod,
484200,2022-12-18 05:04:11,-34.9065584998634,-56.1632188680076,6.233596,5.8070868,118.00801000985,123.51982120985,7.545932,0,6.332349284,7.155183956,18,5,7.849,123.51982120985,6.233596,2.23694,6.6890094004,0,0,-0.671082,80.9, -1.1, 0.2,0,0,1024,1024,1451,1024,0,0,65,0,91.9,0,0,64,3.938,3.93,0,0,0,0,5.032,95.9,123.51982120985,6.233596,38,Tripod,
484300,2022-12-18 05:04:11,-34.9065584743531,-56.1632189172441,6.233596,5.8070868,118.00801000985,123.51982120985,7.545932,0,6.3191274988,7.1726052164,18,5,7.849,123.51982120985,6.233596,2.23694,6.6890094004,0,0,-1.11847,80.8, -0.9, -0.1,0,0,1024,1024,1252,1024,0,0,35,0,91.9,0,0,64,3.938,3.93,0,0,0,0,5.032,95.9,123.51982120985,6.233596,38,Tripod,
484400,2022-12-18 05:04:11,-34.906558342625,-56.1632190030953,6.56168,6.1351708,118.00801000985,123.84790520985,7.874016,0,6.3009844536,7.2270999688,18,5,7.849,123.84790520985,6.56168,2.23694,6.6890094004,0,0,-1.565858,80.9, -0.9, -0.6,0,0,1024,1024,1139,1024,0,0,17,0,91.9,0,0,64,3.938,3.93,0,0,0,0,5.032,95.9,123.84790520985,6.56168,38,Tripod,
484500,2022-12-18 05:04:11,-34.9065583297782,-56.1632190484719,6.889764,6.4632548,118.00801000985,124.17598920985,7.874016,0,6.2882876028,7.241470048,18,5,7.849,124.17598920985,6.889764,2.23694,6.6890094004,0,0,-1.565858,81, -1.1, -0.1,0,0,1024,1024,1139,1024,0,0,17,0,91.9,0,0,64,3.938,3.93,0,0,0,0,5.032,95.9,124.17598920985,6.889764,38,Tripod,
484600,2022-12-18 05:04:11,-34.9065583746027,-56.1632191135713,7.217848,6.7913388,118.00801000985,124.50407320985,8.2021,0,6.2665356336,7.266896558,18,5,7.83,124.50407320985,7.217848,2.23694,6.6890094004,0,0,-1.11847,81, -1, 0.1,0,0,1024,1024,1268,1024,0,0,37,0,91.9,0,0,64,3.907,3.897,0,0,0,0,4.281,96.08,124.50407320985,7.217848,38,Tripod,
484700,2022-12-18 05:04:12,-34.9065584508163,-56.1632191749257,7.217848,6.7913388,118.00801000985,124.50407320985,8.530184,0,6.2441603048,7.300197084,18,5,7.83,124.50407320985,7.217848,2.23694,6.6890094004,0,0,-0.894776,80.9, -0.9, 0.2,0,0,1024,1024,1577,1024,0,0,84,0,91.9,0,0,64,3.907,3.897,0,0,0,0,4.281,96.08,124.50407320985,7.217848,38,Tripod,
484800,2022-12-18 05:04:12,-34.9065585349792,-56.1632193614855,7.217848,6.8241472,117.97520160985,124.50407320985,8.530184,0,6.1844162084,7.3639109968,18,5,7.83,124.50407320985,7.217848,2.23694,6.6890094004,0,0,-1.11847,80.9, -1.3, -0.1,0,0,1024,1024,1623,1024,0,0,91,0,91.9,0,0,64,3.907,3.897,0,0,0,0,4.281,96.08,124.50407320985,7.217848,38,Tripod,
484900,2022-12-18 05:04:12,-34.9065587259924,-56.163220003096,7.545932,7.1850396,117.94239320985,124.83215720985,8.858268,0,5.984416202,7.5681432868,18,5,7.83,124.83215720985,7.545932,2.23694,6.6890094004,0,0,-1.565858,80.9, -1.2, -0.4,0,0,1024,1024,1667,1024,0,0,97,0,91.9,0,0,64,3.907,3.897,0,0,0,0,4.281,96.08,124.83215720985,7.545932,38,Tripod,
485000,2022-12-18 05:04:12,-34.9065587645182,-56.1632200594387,7.874016,7.5131236,117.94239320985,125.16024120985,9.186352,0,5.9657810308,7.5900921064,18,5,7.83,125.16024120985,7.874016,2.23694,6.6890094004,0,0,-2.460634,80.8, -0.9, -1.2,0,0,1024,1024,1684,1024,0,0,100,0,91.9,0,0,64,3.907,3.897,0,0,0,0,4.281,96.08,125.16024120985,7.874016,38,Tripod,
485100,2022-12-18 05:04:12,-34.9065587815859,-56.1632200542495,8.530184,8.1692916,117.94239320985,125.81640920985,9.514436,0,5.9664700072,7.5965225528,18,5,7.83,125.81640920985,8.530184,2.23694,6.6890094004,0,0,-3.131716,80.9, -0.5, -1.4,0,0,1024,1024,1684,1024,0,0,100,0,91.9,0,0,64,3.907,3.897,0,0,0,0,4.281,96.08,125.81640920985,8.530184,38,Tripod,
485200,2022-12-18 05:04:12,-34.9065588687866,-56.1632201167843,8.858268,8.4973756,117.94239320985,126.14449320985,10.170604,0,5.9436353608,7.6334320028,18,5,7.83,126.14449320985,8.858268,2.23694,6.6890094004,0,0,-3.802798,81, -0.9, -1.9,0,0,1024,1024,1684,1024,0,0,100,0,91.9,0,0,64,3.907,3.897,0,0,0,0,4.281,96.08,126.14449320985,8.858268,38,Tripod,
485300,2022-12-18 05:04:12,-34.9065589301936,-56.1632203242343,9.514436,9.1535436,117.94239320985,126.80066120985,10.498688,0,5.8791996632,7.6994096952,18,5,7.83,126.80066120985,9.514436,2.23694,6.6890094004,0,0,-4.026492,81, -0.8, -1.3,0,0,1024,1024,1641,1024,0,0,93,0,91.9,0,0,64,3.907,3.897,0,0,0,0,4.281,96.08,126.80066120985,9.514436,38,Tripod,
485400,2022-12-18 05:04:12,-34.9065589102362,-56.1632203984378,10.170604,9.8097116,117.94239320985,127.45682920985,11.154856,0,5.8581366704,7.7228020844,18,5,7.83,127.45682920985,10.170604,2.23694,6.6890094004,0,0,-4.026492,81.1, -1.1, -0.2,0,0,1024,1024,1641,1024,0,0,93,0,91.9,0,0,64,3.907,3.897,0,0,0,0,4.281,96.08,127.45682920985,10.170604,38,Tripod,
485500,2022-12-18 05:04:12,-34.9065588488805,-56.1632204521192,10.826772,10.4658796,117.94239320985,128.11299720985,11.811024,0,5.8451773524,7.750328332,18,5,7.83,128.11299720985,10.826772,2.23694,6.6890094004,0,0,-4.250186,81, -0.5, 0.3,0,0,1024,1024,1526,1024,0,0,76,0,91.9,0,0,64,3.907,3.897,0,0,0,0,4.281,96.08,128.11299720985,10.826772,38,Tripod,
485600,2022-12-18 05:04:13,-34.9065587256073,-56.1632205163281,11.48294,11.154856,117.90958480985,128.76916520985,12.467192,0,5.8324148848,7.7992456564,18,5,7.83,128.76916520985,11.48294,2.23694,6.6890094004,0,0,-4.026492,80.9, 0, 0.2,0,0,1024,1024,1578,1024,0,0,84,0,91.9,0,0,64,3.907,3.897,0,0,0,0,4.281,96.08,128.76916520985,11.48294,38,Tripod,
485700,2022-12-18 05:04:13,-34.9065581647508,-56.163220833024,12.139108,11.7782156,117.94239320985,129.42533320985,13.12336,0,5.7720474288,8.0247377896,18,5,7.794,129.42533320985,12.139108,2.23694,6.6890094004,0,0,-3.579104,80.8, 0, -0.7,0,0,1024,1024,1684,1024,0,0,100,0,91.9,0,0,64,3.904,3.895,0,0,0,0,5.133,96.08,129.42533320985,12.139108,38,Tripod,
485800,2022-12-18 05:04:13,-34.9065580823206,-56.1632208931144,12.795276,12.4343836,117.94239320985,130.08150120985,13.779528,0,5.7598755124,8.0597771608,18,5,7.794,130.08150120985,12.795276,2.23694,6.6890094004,0,0,-3.579104,81, -0.6, -1.1,0,0,1024,1024,1664,1024,0,0,97,0,91.9,0,0,64,3.904,3.895,0,0,0,0,5.133,96.08,130.08150120985,12.795276,38,Tripod,
485900,2022-12-18 05:04:13,-34.9065580005011,-56.1632209430456,13.12336,12.7624676,117.94239320985,130.40958520985,14.107612,0.223694,5.750820394,8.093176112,18,5,7.794,130.40958520985,13.12336,2.23694,6.6890094004,0,0.223694,-3.802798,81.1, -0.6, -1.3,0,0,1024,1024,1651,1024,0,0,95,0,91.9,0,0,64,3.904,3.895,0,0,0,0,5.133,96.08,130.40958520985,13.12336,38,Tripod,
486000,2022-12-18 05:04:13,-34.9065579165287,-56.1632210258099,13.779528,13.4186356,117.94239320985,131.06575320985,14.76378,0.223694,5.7324804984,8.1325790004,18,5,7.794,131.06575320985,13.779528,2.23694,6.6890094004,0,0.223694,-4.026492,81.1, -0.3, -0.8,0,0,1024,1024,1646,1024,0,0,94,0,91.9,0,0,64,3.904,3.895,0,0,0,0,5.133,96.08,131.06575320985,13.779528,38,Tripod,
486100,2022-12-18 05:04:13,-34.9065576266722,-56.1632213554332,14.435696,14.0748036,117.94239320985,131.72192120985,15.419948,0.223694,5.6580382388,8.2771656192,17,5,7.794,131.72192120985,14.435696,2.23694,6.6890094004,0,0.223694,-4.026492,81, 0.3, -0.8,0,0,1024,1024,1647,1024,0,0,94,0,91.9,0,0,64,3.904,3.895,0,0,0,0,5.133,96.08,131.72192120985,14.435696,38,Tripod,
486200,2022-12-18 05:04:13,-34.9065575241853,-56.1632213854849,15.091864,14.7309716,117.94239320985,132.37808920985,16.076116,0.223694,5.6575461128,8.315617064,17,5,7.794,132.37808920985,15.091864,2.23694,6.6890094004,0,0.223694,-4.026492,81.1, 0.4, 0,0,0,1024,1024,1647,1024,0,0,94,0,91.9,0,0,64,3.904,3.895,0,0,0,0,5.133,96.08,132.37808920985,15.091864,38,Tripod,
486300,2022-12-18 05:04:13,-34.9065574325983,-56.1632213910033,15.748032,15.3543312,117.97520160985,133.03425720985,16.732284,0.223694,5.6635828584,8.349081632,17,5,7.794,133.03425720985,15.748032,2.23694,6.6890094004,0,0.223694,-4.026492,81, 1, -0.3,0,0,1024,1024,1649,1024,0,0,95,0,91.9,0,0,64,3.904,3.895,0,0,0,0,5.133,96.08,133.03425720985,15.748032,38,Tripod,
486400,2022-12-18 05:04:13,-34.9065573736641,-56.163221491328,16.4042,16.0104992,117.97520160985,133.69042520985,17.388452,0.223694,5.6394030676,8.3860238904,17,5,7.794,133.69042520985,16.4042,2.23694,6.6890094004,0,0.223694,-4.026492,81, 0.6, 0,0,0,1024,1024,1537,1024,0,0,78,0,91.9,0,0,64,3.904,3.895,0,0,0,0,5.133,96.08,133.69042520985,16.4042,38,Tripod,
486500,2022-12-18 05:04:13,-34.9065573361749,-56.1632216206049,17.060368,16.6994756,117.94239320985,134.34659320985,18.04462,0,5.6050854812,8.4270343904,17,5,7.794,134.34659320985,17.060368,2.23694,6.6890094004,0,0,-4.026492,81, 0.5, -0.6,0,0,1024,1580,1024,1024,0,84,0,0,91.9,0,0,64,3.904,3.895,0,0,0,0,5.133,96.08,134.34659320985,17.060368,38,Tripod,
486600,2022-12-18 05:04:13,-34.9065573194296,-56.1632220499287,17.388452,17.0275596,117.94239320985,134.67467720985,18.700788,0,5.481955556,8.5556433184,17,5,7.794,134.67467720985,17.388452,2.23694,6.6890094004,0,0,-3.579104,81.1, 0.4, 0.6,0,0,1024,1684,1024,1024,0,100,0,0,91.9,0,0,64,3.904,3.895,0,0,0,0,5.133,96.08,134.67467720985,17.388452,38,Tripod,
486700,2022-12-18 05:04:14,-34.9065573253979,-56.1632226397042,18.04462,17.6837276,117.94239320985,135.33084520985,19.028872,0,5.310531666,8.732119702,18,5,7.8,135.33084520985,18.04462,2.23694,6.6890094004,0,0,-2.684328,81.3, 0.3, 7,0,0,1024,1684,1024,1024,0,100,0,0,91.9,0,0,64,3.913,3.904,0,0,0,0,5.321,96.08,135.33084520985,18.04462,38,Tripod,
486800,2022-12-18 05:04:14,-34.9065574054351,-56.1632229725529,18.372704,18.0118116,117.94239320985,135.65892920985,19.356956,0.223694,5.2067915052,8.8358926712,18,5,7.8,135.65892920985,18.372704,2.23694,6.6890094004,-0.223694,0,-2.013246,81.3, 0.2, 10,0,0,1024,1684,1024,1024,0,100,0,0,91.9,0,0,64,3.913,3.904,0,0,0,0,5.321,96.08,135.65892920985,18.372704,38,Tripod,
486900,2022-12-18 05:04:14,-34.9065576133947,-56.163223250195,18.372704,18.0774284,117.87677640985,135.65892920985,19.68504,0.671082,5.1074804784,8.9484254832,18,5,7.8,135.65892920985,18.372704,2.23694,6.6890094004,-0.671082,0,-1.342164,81.2, 0, 11.2,0,0,1024,1684,1024,1024,0,100,0,0,91.9,0,0,64,3.913,3.904,0,0,0,0,5.321,96.08,135.65892920985,18.372704,38,Tripod,
487000,2022-12-18 05:04:14,-34.9065578752746,-56.1632237102992,18.700788,18.4383208,117.84396800985,135.98701320985,19.68504,0.894776,4.9510828356,9.115977982,18,5,7.8,135.98701320985,18.700788,2.23694,6.6890094004,-0.894776,0,-0.671082,81.1, -0.2, 11.7,0,0,1024,1684,1024,1024,0,100,0,0,91.9,0,0,64,3.913,3.904,0,0,0,0,5.321,96.08,135.98701320985,18.700788,38,Tripod,
487100,2022-12-18 05:04:14,-34.9065583440637,-56.1632238053223,18.700788,18.4383208,117.84396800985,135.98701320985,19.68504,1.342164,4.8864174792,9.289370376,18,5,7.8,135.98701320985,18.700788,2.23694,6.6890094004,-1.342164,0,-0.223694,80.9, -0.4, 11.5,0,0,1024,1684,1024,1024,0,100,0,0,91.9,0,0,64,3.913,3.904,0,0,0,0,5.321,96.08,135.98701320985,18.700788,38,Tripod,
487200,2022-12-18 05:04:14,-34.9065589383953,-56.1632237775558,18.700788,18.4711292,117.81115960985,135.98701320985,19.68504,1.8119214,4.8560040924,9.5063651336,18,5,7.8,135.98701320985,18.700788,2.23694,6.6890094004,-1.789552,0.223694,0,80.9, -0.5, 10.6,0,0,1024,1684,1024,1024,0,100,0,0,91.9,0,0,64,3.913,3.904,0,0,0,0,5.321,96.08,135.98701320985,18.700788,38,Tripod,
487300,2022-12-18 05:04:14,-34.9065597208333,-56.1632236843111,18.700788,18.5039376,117.77835120985,135.98701320985,19.68504,2.013246,4.8474411,9.7932089748,18,5,7.8,135.98701320985,18.700788,2.23694,6.6890094004,-2.013246,0,0,80.8, -0.6, 9.7,0,0,1024,1684,1024,1024,0,100,0,0,91.9,0,0,64,3.913,3.904,0,0,0,0,5.321,96.08,135.98701320985,18.700788,38,Tripod,
487400,2022-12-18 05:04:14,-34.9065607712057,-56.1632236139572,18.700788,18.536746,117.74554280985,135.98701320985,19.68504,2.460634,4.8461615724,10.177001638,18,5,7.8,135.98701320985,18.700788,2.460634,6.6890094004,-2.460634,0.223694,0,80.7, -0.7, 9.1,0,0,1024,1684,1024,1024,0,100,0,0,91.9,0,0,64,3.913,3.904,0,0,0,0,5.321,96.08,135.98701320985,18.700788,38,Tripod,
487500,2022-12-18 05:04:14,-34.9065619080534,-56.1632235397328,18.700788,18.5695544,117.71273440985,135.98701320985,19.68504,2.460634,4.8783794212,10.5923887904,18,5,7.8,135.98701320985,18.700788,2.460634,6.6890094004,-2.460634,0.223694,0,80.6, -0.7, 8.7,0,0,1024,1684,1024,1024,0,100,0,0,91.9,0,0,64,3.913,3.904,0,0,0,0,5.321,96.08,135.98701320985,18.700788,38,Tripod,
487600,2022-12-18 05:04:14,-34.9065630579645,-56.1632235410204,18.700788,18.6351712,117.64711760985,135.98701320985,19.68504,2.908022,4.9237534384,11.0119098012,18,5,7.8,135.98701320985,18.700788,2.908022,6.6890094004,-2.908022,0.223694,0,80.7, -0.5, 9,0,0,1024,1684,1024,1024,0,100,0,0,91.9,0,0,64,3.913,3.904,0,0,0,0,5.321,96.08,135.98701320985,18.700788,38,Tripod,
487700,2022-12-18 05:04:15,-34.9065643754636,-56.1632235317962,18.372704,18.3398956,117.61430920985,135.65892920985,19.68504,3.131716,5.021653704,11.492618478,18,5,7.871,135.98701320985,18.700788,3.131716,6.6890094004,-3.131716,0.223694,0,80.8, -0.6, 9.1,0,0,1024,1684,1163,1024,0,100,21,0,91.9,0,0,64,3.923,3.913,0,0,0,0,3.883,96.08,135.65892920985,18.372704,38,Tripod,
487800,2022-12-18 05:04:15,-34.9065658382265,-56.1632238543525,18.372704,18.4055124,117.54869240985,135.65892920985,19.68504,3.35541,5.087106462,12.0349741384,18,5,7.871,135.98701320985,18.700788,3.35541,6.6890094004,-3.35541,0.223694,0,80.8, -0.6, 8.8,0,0,1024,1684,1684,989,0,100,100,-5,91.9,0,0,64,3.923,3.913,0,0,0,0,3.883,96.08,135.65892920985,18.372704,38,Tripod,
487900,2022-12-18 05:04:15,-34.9065674743453,-56.163223722195,18.372704,18.4711292,117.48307560985,135.65892920985,19.68504,3.8251674,5.3585303552,12.633202504,18,5,7.871,135.98701320985,18.700788,3.8251674,6.6890094004,-3.802798,0.447388,0,80.8, -0.7, 8.6,0,0,1024,1684,1684,939,0,100,100,-13,91.9,0,0,64,3.923,3.913,0,0,0,0,3.883,96.08,135.65892920985,18.372704,38,Tripod,
488000,2022-12-18 05:04:15,-34.9065691946971,-56.1632234758034,18.372704,18.5039376,117.45026720985,135.65892920985,19.68504,4.0488614,5.725393884,13.2651907132,18,5,7.871,135.98701320985,18.700788,4.0488614,6.6890094004,-4.026492,0.447388,-0.671082,80.8, -0.7, 7.5,0,0,1024,1673,1684,1006,0,98,100,-3,91.9,0,0,64,3.923,3.913,0,0,0,0,3.883,96.08,135.65892920985,18.372704,38,Tripod,
488100,2022-12-18 05:04:15,-34.9065711397008,-56.1632231364989,18.700788,18.9304468,117.35184200985,135.98701320985,20.013124,4.4962494,6.2064962616,13.9820542532,18,5,7.871,135.98701320985,18.700788,4.4962494,6.6890094004,-4.47388,0.447388,-1.565858,81, -0.3, 6.7,0,0,1024,1259,1684,1024,0,36,100,0,91.9,0,0,64,3.923,3.913,0,0,0,0,3.883,96.08,135.98701320985,18.700788,38,Tripod,
488200,2022-12-18 05:04:15,-34.9065731402589,-56.1632228451825,18.700788,18.9960636,117.28622520985,135.98701320985,20.341208,4.7423128,6.732119638,14.7171592636,18,5,7.871,135.98701320985,18.700788,4.7423128,6.732119638,-4.697574,0.671082,-2.23694,81.1, -0.2, 6.1,0,0,1024,1024,1684,1024,0,0,100,0,91.9,0,0,64,3.923,3.913,0,0,0,0,3.883,96.08,135.98701320985,18.700788,38,Tripod,
488300,2022-12-18 05:04:15,-34.9065755819576,-56.1632226183727,19.028872,19.4553812,117.15499160985,136.31509720985,20.669292,4.9436374,7.3952102104,15.610564804,18,5,7.871,136.31509720985,19.028872,4.9436374,7.3952102104,-4.921268,0.447388,-3.131716,80.9, 0, 2.8,0,0,1024,1024,1684,1024,0,0,100,0,91.9,0,0,64,3.923,3.913,0,0,0,0,3.883,96.08,136.31509720985,19.028872,38,Tripod,
488400,2022-12-18 05:04:15,-34.9065776705738,-56.1632223710827,19.68504,20.1443576,117.12218320985,136.97126520985,21.32546,4.7199434,8.0084320148,16.3761816264,18,5,7.871,136.97126520985,19.68504,4.9436374,8.0084320148,-4.697574,0.447388,-3.579104,80.7, -0.1, -8.7,0,0,1024,1024,1684,1024,0,0,100,0,91.9,0,0,64,3.923,3.913,0,0,0,0,3.883,96.08,136.97126520985,19.68504,38,Tripod,
488500,2022-12-18 05:04:15,-34.906579698651,-56.1632221431786,20.341208,20.8989508,117.02375800985,137.62743320985,21.653544,4.0488614,8.6249674676,17.119259078,18,5,7.871,137.62743320985,20.341208,4.9436374,8.6249674676,-4.026492,0.447388,-3.802798,80.5, -0.2, -17.8,0,0,1024,1024,1684,1024,0,0,100,0,91.9,0,0,64,3.923,3.913,0,0,0,0,3.883,96.08,137.62743320985,20.341208,38,Tripod,
488600,2022-12-18 05:04:15,-34.9065813075863,-56.1632219620927,20.997376,21.5879272,116.99094960985,138.28360120985,22.309712,3.131716,9.1275593472,17.7087932176,18,5,7.871,138.28360120985,20.997376,4.9436374,9.1275593472,-3.131716,0.223694,-4.250186,80.9, 0.1, -17.5,0,0,1024,1024,1684,1024,0,0,100,0,91.9,0,0,64,3.923,3.913,0,0,0,0,3.883,96.08,138.28360120985,20.997376,38,Tripod,
488700,2022-12-18 05:04:16,-34.9065826820744,-56.1632220357321,21.653544,22.309712,116.92533280985,138.93976920985,22.96588,2.460634,9.5264766828,18.2107617376,18,5,7.871,138.93976920985,21.653544,4.9436374,9.5264766828,-2.460634,0.223694,-4.250186,80.9, 0.5, -14.8,0,0,1024,1024,1684,1024,0,0,100,0,91.9,0,0,64,3.893,3.882,0,0,0,0,3.883,96.08,138.93976920985,21.653544,38,Tripod,
488800,2022-12-18 05:04:16,-34.9065837083915,-56.1632219610194,22.309712,23.0314968,116.85971600985,139.59593720985,23.622048,1.789552,9.8514766932,18.5858601748,18,5,7.871,139.59593720985,22.309712,4.9436374,9.8514766932,-1.789552,0,-4.250186,80.9, 0, -12.2,0,0,1024,1024,1617,1024,0,0,90,0,91.9,0,0,64,3.893,3.882,0,0,0,0,3.883,96.08,139.59593720985,22.309712,38,Tripod,
488900,2022-12-18 05:04:16,-34.9065845001409,-56.1632219246267,22.96588,23.7204732,116.82690760985,140.25210520985,24.278216,1.342164,10.101214234,18.8749349872,18,5,7.871,140.25210520985,22.96588,4.9436374,10.101214234,-1.342164,0,-4.250186,81, -0.2, -9.2,0,0,1024,1024,1617,1024,0,0,90,0,91.9,0,0,64,3.893,3.882,0,0,0,0,3.883,96.08,140.25210520985,22.96588,38,Tripod,
489000,2022-12-18 05:04:16,-34.9065848909642,-56.1632222090719,23.622048,24.3766412,116.82690760985,140.90827320985,24.934384,1.11847,10.178149932,19.041011108,18,5,7.871,140.90827320985,23.622048,4.9436374,10.178149932,-1.11847,0,-4.250186,80.9, 0, -7.3,0,0,1024,1024,1610,1024,0,0,89,0,91.9,0,0,64,3.893,3.882,0,0,0,0,3.883,96.08,140.90827320985,23.622048,38,Tripod,
489100,2022-12-18 05:04:16,-34.9065845551498,-56.1632233730421,24.278216,25.0656176,116.79409920985,141.56444120985,25.262468,0.894776,9.8958992668,19.4102040332,18,5,7.871,141.56444120985,24.278216,4.9436374,10.178149932,-0.894776,0,-4.026492,80.9, -0.2, -6.2,0,0,1024,1070,1024,1024,0,7,0,0,91.9,0,0,64,3.893,3.882,0,0,0,0,3.883,96.08,141.56444120985,24.278216,38,Tripod,
489200,2022-12-18 05:04:16,-34.9065846331392,-56.1632237375878,24.934384,25.754594,116.76129080985,142.22060920985,25.918636,0.671082,9.8669950664,19.5229008872,18,5,7.871,142.22060920985,24.934384,4.9436374,10.178149932,-0.671082,0,-3.802798,81.1, -0.5, -5.2,0,0,1024,1070,1024,1024,0,7,0,0,91.9,0,0,64,3.893,3.882,0,0,0,0,3.883,96.08,142.22060920985,24.934384,38,Tripod,
489300,2022-12-18 05:04:16,-34.9065846339534,-56.1632240937659,25.262468,26.082678,116.76129080985,142.54869320985,26.574804,0.447388,9.8157483456,19.6294953788,18,5,7.871,142.54869320985,25.262468,4.9436374,10.178149932,-0.447388,0,-3.35541,81.2, -0.2, -3.7,0,0,1024,1684,1024,1024,0,100,0,0,91.9,0,0,64,3.893,3.882,0,0,0,0,3.883,96.08,142.54869320985,25.262468,38,Tripod,
489400,2022-12-18 05:04:16,-34.9065845622075,-56.1632242538467,25.918636,26.738846,116.76129080985,143.20486120985,26.902888,0.447388,9.7698822024,19.6840885564,18,5,7.871,143.20486120985,25.918636,4.9436374,10.178149932,-0.447388,0,-2.684328,81.1, 0, 0.4,0,0,1024,1684,1024,1024,0,100,0,0,91.9,0,0,64,3.893,3.882,0,0,0,0,3.883,96.08,143.20486120985,25.918636,38,Tripod,
489500,2022-12-18 05:04:16,-34.9065837388108,-56.1632245417771,26.24672,27.0341216,116.79409920985,143.53294520985,27.230972,0.447388,9.4649281244,19.9965885664,18,5,7.871,143.53294520985,26.24672,4.9436374,10.178149932,-0.447388,0,-2.013246,81.3, -0.1, 5.9,0,0,1024,1684,1024,1024,0,100,0,0,91.9,0,0,64,3.893,3.882,0,0,0,0,3.883,96.08,143.53294520985,26.24672,38,Tripod,
489600,2022-12-18 05:04:17,-34.9065837778609,-56.1632246620323,26.574804,27.3622056,116.79409920985,143.86102920985,27.559056,0.671082,9.460138098,20.0353024784,18,5,7.871,143.86102920985,26.574804,4.9436374,10.178149932,-0.671082,0,-1.342164,81.2, -0.2, 8.5,0,0,1024,1684,1024,1024,0,100,0,0,91.9,0,0,64,3.893,3.882,0,0,0,0,3.883,96.08,143.86102920985,26.574804,38,Tripod,
489700,2022-12-18 05:04:17,-34.9065839389596,-56.1632247876177,26.574804,27.3622056,116.79409920985,143.86102920985,27.559056,0.894776,9.4938979416,20.1050531368,18,5,7.782,143.86102920985,26.574804,4.9436374,10.178149932,-0.894776,0,-0.671082,81, -0.4, 9.6,0,0,1024,1684,1024,1024,0,100,0,0,91.9,0,0,64,3.927,3.922,0,0,0,0,5.322,96.08,143.86102920985,26.574804,38,Tripod,
489800,2022-12-18 05:04:17,-34.906584224048,-56.1632248946124,26.574804,27.3622056,116.79409920985,143.86102920985,27.559056,1.342164,9.570702406,20.2138785996,18,5,7.782,143.86102920985,26.574804,4.9436374,10.178149932,-1.342164,0,-0.223694,80.9, -0.6, 9.7,0,0,1024,1684,1053,1024,0,100,4,0,91.9,0,0,64,3.927,3.922,0,0,0,0,5.322,96.08,143.86102920985,26.574804,38,Tripod,
489900,2022-12-18 05:04:17,-34.9065846190792,-56.163224961476,26.902888,27.723098,116.76129080985,144.18911320985,27.559056,1.565858,9.6892391552,20.3593838536,18,5,7.782,144.18911320985,26.902888,4.9436374,10.178149932,-1.565858,0,0,80.9, -0.5, 9.5,0,0,1024,1684,1347,1024,0,100,49,0,91.9,0,0,64,3.927,3.922,0,0,0,0,5.322,96.08,144.18911320985,26.902888,38,Tripod,
490000,2022-12-18 05:04:17,-34.9065853073476,-56.163224970486,26.902888,27.723098,116.76129080985,144.18911320985,27.559056,1.789552,9.9118769576,20.6105321556,18,5,7.782,144.18911320985,26.902888,4.9436374,10.178149932,-1.789552,0,0,80.9, -0.2, 9.2,0,0,1024,1684,1429,1024,0,100,61,0,91.9,0,0,64,3.927,3.922,0,0,0,0,5.322,96.08,144.18911320985,26.902888,38,Tripod,
490100,2022-12-18 05:04:17,-34.9065861871601,-56.1632249258615,26.902888,27.7887148,116.69567400985,144.18911320985,27.559056,2.23694,10.205708988,20.9317920084,18,5,7.782,144.18911320985,26.902888,4.9436374,10.205708988,-2.23694,0,-0.447388,80.8, -0.2, 8.5,0,0,1024,1684,1432,1024,0,100,62,0,91.9,0,0,64,3.927,3.922,0,0,0,0,5.322,96.08,144.18911320985,26.902888,38,Tripod,
490200,2022-12-18 05:04:17,-34.9065871710334,-56.1632248078602,26.902888,27.8215232,116.66286560985,144.18911320985,27.88714,2.23694,10.5448494188,21.292487558,18,5,7.782,144.18911320985,26.902888,4.9436374,10.5448494188,-2.460634,0.223694,-0.894776,80.9, 0, 7.7,0,0,1024,1684,1432,1024,0,100,62,0,91.9,0,0,64,3.927,3.922,0,0,0,0,5.322,96.08,144.18911320985,26.902888,38,Tripod,
490300,2022-12-18 05:04:17,-34.9065884112986,-56.1632246222654,27.230972,28.1824156,116.63005720985,144.51719720985,27.88714,2.684328,10.9788717424,21.7483930844,18,5,7.782,144.51719720985,27.230972,4.9436374,10.9788717424,-2.684328,0.223694,-1.565858,80.9, 0.2, 6.9,0,0,1024,1684,1443,1024,0,100,63,0,91.9,0,0,64,3.927,3.922,0,0,0,0,5.322,96.08,144.51719720985,27.230972,38,Tripod,
490400,2022-12-18 05:04:17,-34.9065903132528,-56.1632243410298,27.559056,28.5761164,116.56444040985,144.84528120985,28.215224,3.131716,11.647310084,22.4474088548,18,5,7.782,144.84528120985,27.559056,4.9436374,11.647310084,-3.131716,0.223694,-1.789552,80.9, 0.2, 6.8,0,0,1024,1684,1444,1024,0,100,64,0,91.9,0,0,64,3.927,3.922,0,0,0,0,5.322,96.08,144.84528120985,27.559056,38,Tripod,
490500,2022-12-18 05:04:17,-34.9065918369,-56.1632241114804,27.559056,28.6417332,116.49882360985,144.84528120985,28.543308,3.35541,12.1857615448,23.007546668,18,5,7.782,144.84528120985,27.559056,4.9436374,12.1857615448,-3.35541,0.223694,-2.013246,80.8, 0, 6.9,0,0,1024,1684,1449,1024,0,100,64,0,91.9,0,0,64,3.927,3.922,0,0,0,0,5.322,96.08,144.84528120985,27.559056,38,Tripod,
490600,2022-12-18 05:04:17,-34.9065933249851,-56.1632239497935,27.88714,29.0026256,116.46601520985,145.17336520985,28.871392,3.579104,12.7064636612,23.5526254256,18,5,7.782,145.17336520985,27.88714,4.9436374,12.7064636612,-3.579104,0.223694,-2.23694,80.8, -0.3, 7.2,0,0,1024,1684,1452,1024,0,100,65,0,91.9,0,0,64,3.927,3.922,0,0,0,0,5.322,96.08,145.17336520985,27.88714,38,Tripod,
490700,2022-12-18 05:04:18,-34.9065951692142,-56.1632237524661,28.215224,29.4291348,116.36759000985,145.50144920985,29.199476,3.802798,13.354167094,24.2280847648,18,5,7.808,145.50144920985,28.215224,4.9436374,13.354167094,-3.802798,0.223694,-2.23694,80.8, -0.7, 7.4,0,0,1024,1684,1457,1024,0,100,66,0,91.9,0,0,64,3.903,3.891,0,0,0,0,5.104,96.08,145.50144920985,28.215224,38,Tripod,
490800,2022-12-18 05:04:18,-34.9065968850275,-56.1632238454261,28.543308,29.8228356,116.30197320985,145.82953320985,29.199476,4.026492,13.9305122568,24.8546923964,18,5,7.808,145.82953320985,28.543308,4.9436374,13.9305122568,-4.026492,0.223694,-2.23694,80.8, -0.6, 7.7,0,0,1024,1684,1440,1024,0,100,63,0,91.9,0,0,64,3.903,3.891,0,0,0,0,5.104,96.08,145.82953320985,28.543308,38,Tripod,
490900,2022-12-18 05:04:18,-34.9065987263384,-56.163223611531,28.871392,30.2493448,116.20354800985,146.15761720985,29.52756,4.2725554,14.5865162148,25.5301517356,18,5,7.808,146.15761720985,28.871392,4.9436374,14.5865162148,-4.250186,0.447388,-2.23694,80.7, -0.5, 7.5,0,0,1024,1684,1415,1024,0,100,59,0,91.9,0,0,64,3.903,3.891,0,0,0,0,5.104,96.08,146.15761720985,28.871392,38,Tripod,
491000,2022-12-18 05:04:18,-34.9066006308819,-56.1632234244306,29.199476,30.6102372,116.17073960985,146.48570120985,29.855644,4.4962494,15.2615490448,26.2272646188,18,5,7.808,146.48570120985,29.199476,4.9436374,15.2615490448,-4.47388,0.447388,-2.23694,80.8, -0.4, 7.8,0,0,1024,1684,1402,1024,0,100,57,0,91.9,0,0,64,3.903,3.891,0,0,0,0,5.104,96.08,146.48570120985,29.199476,38,Tripod,
491100,2022-12-18 05:04:18,-34.906602620075,-56.1632232246613,29.52756,31.0367464,116.07231440985,146.81378520985,30.183728,4.7199434,15.9690293824,26.9554798652,18,5,7.808,146.81378520985,29.52756,4.9436374,15.9690293824,-4.697574,0.447388,-2.013246,80.8, -0.2, 7.9,0,0,1024,1684,1402,1024,0,100,57,0,91.9,0,0,64,3.903,3.891,0,0,0,0,5.104,96.08,146.81378520985,29.52756,38,Tripod,
