time(millisecond),datetime(utc),latitude,longitude,height_above_takeoff(feet),height_above_ground_at_drone_location(feet),ground_elevation_at_drone_location(feet),altitude_above_seaLevel(feet),height_sonar(feet),speed(mph),distance(feet),mileage(feet),satellites,gpslevel,voltage(v),max_altitude(feet),max_ascent(feet),max_speed(mph),max_distance(feet), xSpeed(mph), ySpeed(mph), zSpeed(mph), compass_heading(degrees), pitch(degrees), roll(degrees),isPhoto,isVideo,rc_elevator,rc_aileron,rc_throttle,rc_rudder,rc_elevator(percent),rc_aileron(percent),rc_throttle(percent),rc_rudder(percent),gimbal_heading(degrees),gimbal_pitch(degrees),gimbal_roll(degrees),battery_percent,voltageCell1,voltageCell2,voltageCell3,voltageCell4,voltageCell5,voltageCell6,current(A),battery_temperature(f),altitude(feet),ascent(feet),flycStateRaw,flycState,message
35400,2023-03-29 16:25:27,-34.9537907857333,-54.9408327086961,0,0,14.583542461424,14.583542461424,0.328084,0,0,0,24,5,0,14.583542461424,0,0,0,0,0,0,190.8, 0.8, 8.4,0,0,364,364,364,1684,-100,-100,-100,100,202.1,0,0,91,4.264,4.262,0,0,0,0,0,99.5,14.583542461424,0,41,Motors_Started,
35500,2023-03-29 16:25:27,-34.9537907406449,-54.9408326963746,0,0,14.583542461424,14.583542461424,0.328084,0,0.0168580385972,0.0168580385972,24,5,0,14.583542461424,0,0,0.0168580385972,0,0,0,190.8, 0.8, 8.4,0,0,364,364,364,1684,-100,-100,-100,100,202.1,0,0,91,4.264,4.262,0,0,0,0,0,99.5,14.583542461424,0,41,Motors_Started,"Error de calibraci贸n del estabilizador. Reinicia la aeronave o contacta con la Asistencia DJI (Code: 40011)"
35600,2023-03-29 16:25:27,-34.9537907163974,-54.940832698486,0,0,14.583542461424,14.583542461424,0.328084,0,0.0254807422852,0.0257272317944,24,5,0,14.583542461424,0,0,0.0254807422852,0,0,0,190.8, 0.7, 8.4,0,0,364,364,364,1684,-100,-100,-100,100,202.1,0,0,91,4.264,4.262,0,0,0,0,0,99.5,14.583542461424,0,41,Motors_Started,"Setting new Return-To-Home altitude to 60m (197 ft). Data Recorder File Index is 4. Setting new Maximum Flight Altitude to 120m (394 ft)"
35700,2023-03-29 16:25:28,-34.953790698237,-54.9408327043205,0,0,14.583542461424,14.583542461424,0.328084,0,0.0319497713636,0.032578905242,24,5,0,14.583542461424,0,0,0.0319497713636,0,0,0,190.8, 0.7, 8.4,0,0,364,364,364,1684,-100,-100,-100,100,202.1,0,0,91,4.264,4.262,0,0,0,0,0,99.5,14.583542461424,0,41,Motors_Started,
35800,2023-03-29 16:25:28,-34.953790688481,-54.9408327122323,0,0,14.583542461424,14.583542461424,0.328084,0,0.035498360716,0.036853019552,24,5,0,14.583542461424,0,0,0.035498360716,0,0,0,190.8, 0.7, 8.4,0,0,364,364,364,1684,-100,-100,-100,100,202.1,0,0,91,4.264,4.262,0,0,0,0,0,99.5,14.583542461424,0,41,Motors_Started,
35900,2023-03-29 16:25:28,-34.9537906625301,-54.9408328036879,0,0,14.583542461424,14.583542461424,0.328084,0,0.053173886216,0.06579396536,24,5,0,14.583542461424,0,0,0.053173886216,0,0,0,190.8, 0.7, 8.4,0,0,364,364,364,1684,-100,-100,-100,100,202.1,0,0,91,4.264,4.262,0,0,0,0,0,99.5,14.583542461424,0,41,Motors_Started,
36000,2023-03-29 16:25:28,-34.9537906621116,-54.9408328133826,0,0,14.583542461424,14.583542461424,0.328084,0,0.054902888896,0.068697180676,24,5,0,14.583542461424,0,0,0.054902888896,0,0,0,190.8, 0.8, 8.4,0,0,364,364,364,1684,-100,-100,-100,100,202.1,0,0,91,4.264,4.262,0,0,0,0,0,99.5,14.583542461424,0,41,Motors_Started,
36100,2023-03-29 16:25:28,-34.9537906638198,-54.940832822567,0,0,14.583542461424,14.583542461424,0.328084,0,0.056017718328,0.071513453732,24,5,0,14.583542461424,0,0,0.056017718328,0,0,0,190.8, 0.8, 8.3,0,0,465,423,364,1684,-85,-91,-100,100,202.1,0,0,91,4.264,4.262,0,0,0,0,0,99.5,14.583542461424,0,41,Motors_Started,
36200,2023-03-29 16:25:28,-34.953790666637,-54.9408328289495,0,0,14.583542461424,14.583542461424,0.328084,0,0.056402232776,0.07368110472,24,5,0,14.583542461424,0,0,0.056402232776,0,0,0,190.8, 0.8, 8.4,0,0,1024,1024,1024,1024,0,0,0,0,202.1,0,0,91,4.264,4.262,0,0,0,0,0,99.5,14.583542461424,0,41,Motors_Started,
36300,2023-03-29 16:25:28,-34.9537906907071,-54.9408328456976,0,0,14.583542461424,14.583542461424,0.328084,0,0.05366962114,0.08379101318,24,5,0,14.583542461424,0,0,0.056402232776,0,0,0,190.8, 0.8, 8.4,0,0,1024,1024,1024,1024,0,0,0,0,202.1,0,0,91,4.264,4.262,0,0,0,0,0,99.5,14.583542461424,0,41,Motors_Started,
36400,2023-03-29 16:25:28,-34.9537906962308,-54.9408328487974,0,0,14.583542461424,14.583542461424,0.328084,0,0.05311844002,0.086009189104,24,5,0,14.583542461424,0,0,0.056402232776,0,0,0,190.8, 0.7, 8.4,0,0,1024,1024,1024,1024,0,0,0,0,202.1,0,0,91,4.264,4.262,0,0,0,0,0,99.5,14.583542461424,0,41,Motors_Started,
36500,2023-03-29 16:25:28,-34.9537907020003,-54.9408328514066,0,0,14.583542461424,14.583542461424,0.328084,0,0.052483269396,0.088253939832,24,5,0,14.583542461424,0,0,0.056402232776,0,0,0,190.8, 0.8, 8.4,0,0,1024,1024,1024,1024,0,0,0,0,202.1,0,0,91,4.264,4.262,0,0,0,0,0,99.5,14.583542461424,0,10,Assisted_Takeoff,
36600,2023-03-29 16:25:28,-34.9537906730499,-54.9408328190491,0,0,14.583542461424,14.583542461424,0.328084,0,0.05271817754,0.10257874344,24,5,8.501,14.583542461424,0,0,0.056402232776,0,0,0,190.8, 0.7, 8.4,0,0,1024,1024,1024,1024,0,0,0,0,202.1,0,0,91,4.249,4.245,0,0,0,0,1.063,99.5,14.583542461424,0,10,Assisted_Takeoff,
36700,2023-03-29 16:25:29,-34.9537906256344,-54.9408327679621,0,0,14.583542461424,14.583542461424,0.328084,0,0.061041340536,0.125658140504,24,5,8.501,14.583542461424,0,0,0.061041340536,0,0,0,190.8, 0.6, 8.3,0,0,1024,1024,1024,1024,0,0,0,0,202.1,0,0,91,4.249,4.245,0,0,0,0,1.063,99.5,14.583542461424,0,10,Assisted_Takeoff,
36800,2023-03-29 16:25:29,-34.9537905175725,-54.9408326608239,0,0,14.583542461424,14.583542461424,0.328084,0,0.098879924424,0.176460307484,24,5,8.501,14.583542461424,0,0,0.098879924424,0,0,0,190.8, 0.7, 8.4,0,0,1024,1024,1024,1024,0,0,0,0,202.1,0,0,91,4.249,4.245,0,0,0,0,1.063,99.5,14.583542461424,0,10,Assisted_Takeoff,
36900,2023-03-29 16:25:29,-34.953790502143,-54.9408326439883,0,0,14.583542461424,14.583542461424,0.328084,0,0.105261486308,0.18401247308,24,5,8.501,14.583542461424,0,0,0.105261486308,0,0,0,190.8, 0.7, 8.4,0,0,1024,1024,1024,1024,0,0,0,0,202.1,0,0,91,4.249,4.245,0,0,0,0,1.063,99.5,14.583542461424,0,10,Assisted_Takeoff,
37000,2023-03-29 16:25:29,-34.9537904643208,-54.9408326390391,0,-0.065616800000002,14.649159261424,14.583542461424,0.328084,0,0.1191026941,0.197891082448,24,5,8.501,14.583542461424,0,0,0.1191026941,0,0,0,190.8, 0.7, 8.4,0,0,1024,1024,1024,1024,0,0,0,0,202.1,0,0,91,4.249,4.245,0,0,0,0,1.063,99.5,14.583542461424,0,10,Assisted_Takeoff,
37100,2023-03-29 16:25:29,-34.953790413458,-54.9408326390646,0,-0.065616800000002,14.649159261424,14.583542461424,0.328084,0,0.137411093636,0.21644849774,24,5,8.501,14.583542461424,0,0,0.137411093636,0,0,0,190.8, 0.7, 8.4,0,0,1024,1024,1024,1024,0,0,0,0,202.1,0,0,91,4.249,4.245,0,0,0,0,1.063,99.5,14.583542461424,0,10,Assisted_Takeoff,
37200,2023-03-29 16:25:29,-34.9537903739307,-54.9408326901149,0,-0.065616800000002,14.649159261424,14.583542461424,0.328084,0,0.150348758092,0.23744915458,24,5,8.501,14.583542461424,0,0,0.150348758092,0,0,0,190.8, 0.7, 8.3,0,0,1024,1024,1024,1024,0,0,0,0,202.1,0,0,91,4.249,4.245,0,0,0,0,1.063,99.5,14.583542461424,0,10,Assisted_Takeoff,
37300,2023-03-29 16:25:29,-34.9537903653716,-54.9408326944926,0,-0.065616800000002,14.649159261424,14.583542461424,0.328084,0,0.153427498348,0.24083498146,24,5,8.501,14.583542461424,0,0,0.153427498348,0,0,0,190.8, 0.8, 8.4,0,0,1024,1024,1024,1024,0,0,0,0,202.1,0,0,91,4.249,4.245,0,0,0,0,1.063,99.5,14.583542461424,0,10,Assisted_Takeoff,
37400,2023-03-29 16:25:29,-34.9537903694102,-54.9408327325238,0,-0.065616800000002,14.649159261424,14.583542461424,0.328084,0,0.152062340824,0.252302829596,24,5,8.501,14.583542461424,0,0,0.153427498348,0,0,0,190.8, 0.7, 8.4,0,0,1024,1024,1024,1024,0,0,0,0,202.1,0,0,91,4.249,4.245,0,0,0,0,1.063,99.5,14.583542461424,0,10,Assisted_Takeoff,
37500,2023-03-29 16:25:29,-34.9537903788177,-54.940832788511,0,-0.065616800000002,14.649159261424,14.583542461424,0.328084,0,0.1503690993,0.269393381324,24,5,8.501,14.583542461424,0,0,0.153427498348,0,0,0,190.8, 0.7, 8.4,0,0,1024,1024,1024,1024,0,0,0,0,202.1,0,0,91,4.249,4.245,0,0,0,0,1.063,99.5,14.583542461424,0,10,Assisted_Takeoff,
37600,2023-03-29 16:25:29,-34.9537904528191,-54.9408329179119,0,-0.065616800000002,14.649159261424,14.583542461424,0.328084,0,0.136629269464,0.316577109868,24,5,8.505,14.583542461424,0,0,0.153427498348,0,0,0,190.8, 0.6, 8.4,0,0,1024,1024,1024,1024,0,0,0,0,202.1,0,0,91,4.255,4.252,0,0,0,0,1.388,99.5,14.583542461424,0,10,Assisted_Takeoff,
37700,2023-03-29 16:25:29,-34.9537904645146,-54.9408329375423,0,-0.065616800000002,14.649159261424,14.583542461424,0.328084,0,0.135713258936,0.323834327948,24,5,8.505,14.583542461424,0,0,0.153427498348,0,0,0,190.8, 0.7, 8.4,0,0,1024,1024,1024,1024,0,0,0,0,202.1,0,0,91,4.255,4.252,0,0,0,0,1.388,99.5,14.583542461424,0,10,Assisted_Takeoff,
37800,2023-03-29 16:25:30,-34.9537904750294,-54.9408329441178,0,-0.065616800000002,14.649159261424,14.583542461424,0.328084,0,0.133441277236,0.32814633596,24,5,8.505,14.583542461424,0,0,0.153427498348,0,0,0,190.8, 0.7, 8.4,0,0,1024,1024,1024,1024,0,0,0,0,202.1,0,0,91,4.255,4.252,0,0,0,0,1.388,99.5,14.583542461424,0,10,Assisted_Takeoff,
37900,2023-03-29 16:25:30,-34.9537904850818,-54.9408329445418,0,-0.065616800000002,14.649159261424,14.583542461424,0.328084,0,0.13040846874,0.33181431508,24,5,8.505,14.583542461424,0,0,0.153427498348,0,0,0,190.8, 0.7, 8.3,0,0,1024,1024,1024,1024,0,0,0,0,202.1,0,0,91,4.255,4.252,0,0,0,0,1.388,99.5,14.583542461424,0,10,Assisted_Takeoff,
38000,2023-03-29 16:25:30,-34.9537905125064,-54.9408328912004,0,0,14.583542461424,14.583542461424,0.328084,0,0.113647969516,0.35064305584,24,5,8.505,14.583542461424,0,0,0.153427498348,0,0,0,190.8, 0.7, 8.4,0,0,1024,1024,1024,1024,0,0,0,0,202.1,0,0,91,4.255,4.252,0,0,0,0,1.388,99.5,14.583542461424,0,10,Assisted_Takeoff,
38100,2023-03-29 16:25:30,-34.953790519455,-54.9408328861897,0,0,14.583542461424,14.583542461424,0.328084,0,0.110704727952,0.35358925016,24,5,8.505,14.583542461424,0,0,0.153427498348,0,0,0,190.8, 0.6, 8.4,0,0,1024,1024,1024,1024,0,0,0,0,202.1,0,0,91,4.255,4.252,0,0,0,0,1.388,99.5,14.583542461424,0,10,Assisted_Takeoff,
38200,2023-03-29 16:25:30,-34.9537905243273,-54.9408328812526,0,0,14.583542461424,14.583542461424,0.328084,0,0.108437995596,0.35589896152,24,5,8.505,14.583542461424,0,0,0.153427498348,0,0,0,190.8, 0.7, 8.4,0,0,1024,1024,1024,1024,0,0,0,0,202.1,0,0,91,4.255,4.252,0,0,0,0,1.388,99.5,14.583542461424,0,10,Assisted_Takeoff,
38300,2023-03-29 16:25:30,-34.9537905285922,-54.9408328765137,0,0,14.583542461424,14.583542461424,0.328084,0,0.106396328864,0.3580052608,24,5,8.505,14.583542461424,0,0,0.153427498348,0,0,0,190.8, 0.7, 8.3,0,0,1024,1024,1024,1024,0,0,0,0,202.1,0,0,91,4.255,4.252,0,0,0,0,1.388,99.5,14.583542461424,0,10,Assisted_Takeoff,
38400,2023-03-29 16:25:30,-34.9537905312596,-54.9408328722021,0,0,14.583542461424,14.583542461424,0.328084,0,0.104932089972,0.35961943408,24,5,8.505,14.583542461424,0,0,0.153427498348,0,0,0,190.8, 0.7, 8.4,0,0,1024,1024,1024,1024,0,0,0,0,202.1,0,0,91,4.255,4.252,0,0,0,0,1.388,99.5,14.583542461424,0,10,Assisted_Takeoff,
38500,2023-03-29 16:25:30,-34.9537905180204,-54.9408328396182,0,0,14.583542461424,14.583542461424,0.328084,0,0.105229005992,0.37049541868,24,5,8.505,14.583542461424,0,0,0.153427498348,0,0,0,190.8, 0.7, 8.4,0,0,1024,1024,1024,1024,0,0,0,0,202.1,0,0,91,4.255,4.252,0,0,0,0,1.388,99.5,14.583542461424,0,10,Assisted_Takeoff,
38600,2023-03-29 16:25:30,-34.9537905187711,-54.9408328374389,0,0,14.583542461424,14.583542461424,0.328084,0,0.104733599152,0.37120079928,24,5,8.506,14.583542461424,0,0,0.153427498348,0,0,0,190.8, 0.7, 8.3,0,0,1024,1024,1024,1024,0,0,0,0,202.1,0,0,91,4.254,4.252,0,0,0,0,1.149,99.5,14.583542461424,0,10,Assisted_Takeoff,
38700,2023-03-29 16:25:31,-34.9537905192498,-54.9408328358802,0,0,14.583542461424,14.583542461424,0.328084,0,0.104400265808,0.37169948696,24,5,8.506,14.583542461424,0,0,0.153427498348,0,0,0,190.8, 0.7, 8.4,0,0,1024,1024,1024,1024,0,0,0,0,202.1,0,0,91,4.254,4.252,0,0,0,0,1.149,99.5,14.583542461424,0,10,Assisted_Takeoff,
38800,2023-03-29 16:25:31,-34.953790519797,-54.9408328349982,0,0,14.583542461424,14.583542461424,0.328084,0,0.104118441652,0.3720308518,24,5,8.506,14.583542461424,0,0,0.153427498348,0,0,0,190.8, 0.7, 8.3,0,0,1024,1024,1024,1024,0,0,0,0,202.1,0,0,91,4.254,4.252,0,0,0,0,1.149,99.5,14.583542461424,0,10,Assisted_Takeoff,
38900,2023-03-29 16:25:31,-34.9537905096225,-54.9408328285582,0,0,14.583542461424,14.583542461424,0.328084,0,0.106925528356,0.3762139228,24,5,8.506,14.583542461424,0,0,0.153427498348,0,0,0,190.8, 0.7, 8.4,0,0,1024,1024,1024,1024,0,0,0,0,202.1,0,0,91,4.254,4.252,0,0,0,0,1.149,99.5,14.583542461424,0,10,Assisted_Takeoff,
39000,2023-03-29 16:25:31,-34.9537905102804,-54.9408328273196,0,0,14.583542461424,14.583542461424,0.328084,0,0.106575462728,0.37665355536,24,5,8.506,14.583542461424,0,0,0.153427498348,0,0,0,190.8, 0.7, 8.4,0,0,1024,1024,1024,1024,0,0,0,0,202.1,0,0,91,4.254,4.252,0,0,0,0,1.149,99.5,14.583542461424,0,10,Assisted_Takeoff,
39100,2023-03-29 16:25:31,-34.9537905112183,-54.9408328259693,0,0,14.583542461424,14.583542461424,0.328084,0,0.1061187698,0.37718505144,24,5,8.506,14.583542461424,0,0,0.153427498348,0,0,0,190.8, 0.7, 8.4,0,0,1024,1024,1024,1024,0,0,0,0,202.1,0,0,91,4.254,4.252,0,0,0,0,1.149,99.5,14.583542461424,0,10,Assisted_Takeoff,
39200,2023-03-29 16:25:31,-34.953790511759,-54.9408328248319,0,0,14.583542461424,14.583542461424,0.328084,0,0.105820541444,0.3775754714,24,5,8.506,14.583542461424,0,0,0.153427498348,0,0,0,190.8, 0.7, 8.4,0,0,1024,1024,1024,1024,0,0,0,0,202.1,0,0,91,4.254,4.252,0,0,0,0,1.149,99.5,14.583542461424,0,10,Assisted_Takeoff,
39300,2023-03-29 16:25:31,-34.9537905074713,-54.9408328297407,0,0,14.583542461424,14.583542461424,0.328084,0,0.107783468016,0.37972114076,24,5,8.506,14.583542461424,0,0,0.153427498348,0,0,0,190.8, 0.7, 8.3,0,0,1024,1024,1024,1024,0,0,0,0,202.1,0,0,91,4.254,4.252,0,0,0,0,1.149,99.5,14.583542461424,0,10,Assisted_Takeoff,
39400,2023-03-29 16:25:31,-34.9537905099433,-54.9408328630624,0,0,14.583542461424,14.583542461424,0.328084,0,0.110705056036,0.38972770276,24,5,8.506,14.583542461424,0,0,0.153427498348,0,0,0,190.8, 0.7, 8.4,0,0,1024,1024,1024,1024,0,0,0,0,202.1,0,0,91,4.254,4.252,0,0,0,0,1.149,99.5,14.583542461424,0,10,Assisted_Takeoff,
39500,2023-03-29 16:25:31,-34.9537905129868,-54.9408329145907,0,0,14.583542461424,14.583542461424,0.328084,0,0.117018704532,0.40517717832,24,5,8.506,14.583542461424,0,0,0.153427498348,0,0,0,190.8, 0.6, 8.3,0,0,1024,1024,1024,1024,0,0,0,0,202.1,0,0,91,4.254,4.252,0,0,0,0,1.149,99.5,14.583542461424,0,10,Assisted_Takeoff,
39600,2023-03-29 16:25:31,-34.9537905156852,-54.9408329427322,0,0,14.583542461424,14.583542461424,0.328084,0,0.12085302224,0.4136483072,24,5,8.505,14.583542461424,0,0,0.153427498348,0,0,0,190.8, 0.8, 8.4,0,0,1024,1024,1024,1024,0,0,0,0,202.1,0,0,91,4.255,4.252,0,0,0,0,1.144,99.5,14.583542461424,0,10,Assisted_Takeoff,
39700,2023-03-29 16:25:32,-34.953790510466,-54.9408330394239,0,0,14.583542461424,14.583542461424,0.328084,0,0.140952104248,0.44262468608,24,5,8.505,14.583542461424,0,0,0.153427498348,0,0,0,190.8, 0.7, 8.3,0,0,1024,1024,1024,1024,0,0,0,0,202.1,0,0,91,4.255,4.252,0,0,0,0,1.144,99.5,14.583542461424,0,10,Assisted_Takeoff,
39800,2023-03-29 16:25:32,-34.9537905121091,-54.9408330436643,0,0,14.583542461424,14.583542461424,0.328084,0,0.141420936284,0.4440288856,24,5,8.505,14.583542461424,0,0,0.153427498348,0,0,0,190.8, 0.7, 8.4,0,0,1024,1024,1024,1024,0,0,0,0,202.1,0,0,91,4.255,4.252,0,0,0,0,1.144,99.5,14.583542461424,0,10,Assisted_Takeoff,
39900,2023-03-29 16:25:32,-34.9537905137669,-54.9408330423434,0,0,14.583542461424,14.583542461424,0.328084,0,0.140714243348,0.4447506704,24,5,8.505,14.583542461424,0,0,0.153427498348,0,0,0,190.8, 0.7, 8.3,0,0,1024,1024,1024,1024,0,0,0,0,202.1,0,0,91,4.255,4.252,0,0,0,0,1.144,99.5,14.583542461424,0,10,Assisted_Takeoff,
40000,2023-03-29 16:25:32,-34.9537905149426,-54.9408330364231,0,0,14.583542461424,14.583542461424,0.328084,0,0.139159781356,0.4465715366,24,5,8.505,14.583542461424,0,0,0.153427498348,0,0,0,190.8, 0.7, 8.3,0,0,1024,1024,1024,1024,0,0,0,0,202.1,0,0,91,4.255,4.252,0,0,0,0,1.144,99.5,14.583542461424,0,10,Assisted_Takeoff,
40100,2023-03-29 16:25:32,-34.9537905162144,-54.9408330282345,0,0,14.583542461424,14.583542461424,0.328084,0,0.137113193364,0.449064975,24,5,8.505,14.583542461424,0,0,0.153427498348,0,0,0,190.8, 0.8, 8.3,0,0,1024,1024,1024,1024,0,0,0,0,202.1,0,0,91,4.255,4.252,0,0,0,0,1.144,99.5,14.583542461424,0,10,Assisted_Takeoff,
40200,2023-03-29 16:25:32,-34.9537905099547,-54.9408330017105,0,0,14.583542461424,14.583542461424,0.328084,0,0.133422248364,0.45731956844,24,5,8.505,14.583542461424,0,0,0.153427498348,0,0,0,190.8, 0.7, 8.3,0,0,1024,1024,1024,1024,0,0,0,0,202.1,0,0,91,4.255,4.252,0,0,0,0,1.144,99.5,14.583542461424,0,10,Assisted_Takeoff,
40300,2023-03-29 16:25:32,-34.9537905111516,-54.94083304477,0,0,14.583542461424,14.583542461424,0.328084,0,0.141901579344,0.47020342712,24,5,8.505,14.583542461424,0,0,0.153427498348,0,0,0,190.8, 0.7, 8.3,0,0,1024,1024,1024,1024,0,0,0,0,202.1,0,0,91,4.255,4.252,0,0,0,0,1.144,99.5,14.583542461424,0,10,Assisted_Takeoff,
40400,2023-03-29 16:25:32,-34.9537905116825,-54.9408330655262,0,0,14.583542461424,14.583542461424,0.328084,0,0.146230647724,0.4764107764,24,5,8.505,14.583542461424,0,0,0.153427498348,0,0,0,190.8, 0.7, 8.3,0,0,1024,1024,1024,1024,0,0,0,0,202.1,0,0,91,4.255,4.252,0,0,0,0,1.144,99.5,14.583542461424,0,10,Assisted_Takeoff,
40500,2023-03-29 16:25:32,-34.9537905125016,-54.9408330755825,0,0,14.583542461424,14.583542461424,0.328084,0,0.14823819372,0.47943243004,24,5,8.505,14.583542461424,0,0,0.153427498348,0,0,0,190.8, 0.8, 8.4,0,0,1024,1024,1024,1024,0,0,0,0,202.1,0,0,91,4.255,4.252,0,0,0,0,1.144,99.5,14.583542461424,0,10,Assisted_Takeoff,
40600,2023-03-29 16:25:32,-34.9537905077693,-54.940833110544,0,0,14.583542461424,14.583542461424,0.328084,0,0.157242131016,0.49002954324,24,5,8.505,14.583542461424,0,0,0.157242131016,0,0,0,190.8, 0.7, 8.4,0,0,1024,1024,1024,1024,0,0,0,0,202.1,0,0,91,4.255,4.252,0,0,0,0,1.144,99.5,14.583542461424,0,10,Assisted_Takeoff,
40700,2023-03-29 16:25:33,-34.9537905103113,-54.940833109191,0,0,14.583542461424,14.583542461424,0.328084,0,0.15633530684,0.4910433228,24,5,8.505,14.583542461424,0,0,0.157242131016,0,0,0,190.8, 0.7, 8.3,0,0,1024,1024,1024,1024,0,0,0,0,202.1,0,0,91,4.253,4.251,0,0,0,0,1.141,99.68,14.583542461424,0,10,Assisted_Takeoff,
40800,2023-03-29 16:25:33,-34.9537905125879,-54.9408331050969,0,0,14.583542461424,14.583542461424,0.328084,0,0.1548638501,0.49252298164,24,5,8.505,14.583542461424,0,0,0.157242131016,0,0,0,190.8, 0.7, 8.4,0,0,1024,1024,1024,1024,0,0,0,0,202.1,0,0,91,4.253,4.251,0,0,0,0,1.141,99.68,14.583542461424,0,10,Assisted_Takeoff,
40900,2023-03-29 16:25:33,-34.9537905146185,-54.9408330999769,0,0,14.583542461424,14.583542461424,0.328084,0,0.153215556084,0.49422245676,24,5,8.505,14.583542461424,0,0,0.157242131016,0,0,0,190.8, 0.7, 8.4,0,0,1024,1024,1024,1024,0,0,0,0,202.1,0,0,91,4.253,4.251,0,0,0,0,1.141,99.68,14.583542461424,0,10,Assisted_Takeoff,
41000,2023-03-29 16:25:33,-34.953790500013,-54.9408331640386,0,0,14.583542461424,14.583542461424,0.328084,0,0.17148622596,0.514107628,24,5,8.505,14.583542461424,0,0,0.17148622596,0,0,0,190.8, 0.8, 8.4,0,0,1024,1024,1024,1024,0,0,0,0,202.1,0,0,91,4.253,4.251,0,0,0,0,1.141,99.68,14.583542461424,0,10,Assisted_Takeoff,
41100,2023-03-29 16:25:33,-34.9537904991239,-54.9408332100829,0,-0.065616800000002,14.649159261424,14.583542461424,0.328084,0,0.182796265692,0.52788059432,24,5,8.505,14.583542461424,0,0,0.182796265692,0,0,0,190.8, 0.6, 8.4,0,0,1024,1024,1024,1024,0,0,0,0,202.1,0,0,91,4.253,4.251,0,0,0,0,1.141,99.68,14.583542461424,0,10,Assisted_Takeoff,
41200,2023-03-29 16:25:33,-34.9537904985149,-54.940833233777,0,-0.065616800000002,14.649159261424,14.583542461424,0.328084,0,0.18877461234,0.53496720872,24,5,8.505,14.583542461424,0,0,0.18877461234,0,0,0,190.8, 0.7, 8.4,0,0,1024,1024,1024,1024,0,0,0,0,202.1,0,0,91,4.253,4.251,0,0,0,0,1.141,99.68,14.583542461424,0,10,Assisted_Takeoff,
41300,2023-03-29 16:25:33,-34.9537904982006,-54.9408332468079,0,-0.065616800000002,14.649159261424,14.583542461424,0.328084,0,0.192090557328,0.53886484664,24,5,8.505,14.583542461424,0,0,0.192090557328,0,0,0,190.7, 0.7, 8.3,0,0,1024,1024,1024,1024,0,0,0,0,202.1,0,0,91,4.253,4.251,0,0,0,0,1.141,99.68,14.583542461424,0,10,Assisted_Takeoff,
41400,2023-03-29 16:25:33,-34.9537905058543,-54.9408333223618,0,0,14.583542461424,14.583542461424,0.328084,0,0.210005584148,0.5616305954,24,5,8.505,14.583542461424,0,0,0.210005584148,0,0,0,190.8, 0.8, 8.4,0,0,1024,1024,1024,1024,0,0,0,0,202.1,0,0,91,4.253,4.251,0,0,0,0,1.141,99.68,14.583542461424,0,10,Assisted_Takeoff,
41500,2023-03-29 16:25:33,-34.9537905081145,-54.9408333703097,0,0,14.583542461424,14.583542461424,0.328084,0,0.22226706748,0.57599411292,24,5,8.505,14.583542461424,0,0,0.22226706748,0,0,0,190.7, 0.7, 8.4,0,0,1024,1024,1024,1024,0,0,0,0,202.1,0,0,91,4.253,4.251,0,0,0,0,1.141,99.68,14.583542461424,0,10,Assisted_Takeoff,
41600,2023-03-29 16:25:33,-34.953790510365,-54.9408333915877,0,0,14.583542461424,14.583542461424,0.328084,0,0.22758530912,0.58240815512,24,5,8.505,14.583542461424,0,0,0.22758530912,0,0,0,190.8, 0.7, 8.4,0,0,1024,1024,1024,1024,0,0,0,0,202.1,0,0,91,4.253,4.251,0,0,0,0,1.141,99.68,14.583542461424,0,10,Assisted_Takeoff,
41700,2023-03-29 16:25:33,-34.9537905125602,-54.9408334008047,0,0,14.583542461424,14.583542461424,0.328084,0,0.229713261944,0.58527889012,24,5,8.504,14.583542461424,0,0,0.229713261944,0,0,0,190.7, 0.7, 8.4,0,0,1024,1024,1024,1024,0,0,0,0,202.1,0,0,91,4.253,4.251,0,0,0,0,1.141,99.68,14.583542461424,0,10,Assisted_Takeoff,
41800,2023-03-29 16:25:34,-34.9537905476597,-54.9408334323953,0,0,14.583542461424,14.583542461424,0.328084,0,0.233192920848,0.60119424496,24,5,8.504,14.583542461424,0,0,0.233192920848,0,0,0,190.8, 0.7, 8.4,0,0,1024,1024,1024,1024,0,0,0,0,202.1,0,0,91,4.253,4.251,0,0,0,0,1.141,99.68,14.583542461424,0,10,Assisted_Takeoff,
41900,2023-03-29 16:25:34,-34.9537906622386,-54.9408334884589,0,0,14.583542461424,14.583542461424,0.328084,0,0.23749016508,0.64623361648,24,5,8.504,14.583542461424,0,0,0.23749016508,0,0,0,190.8, 0.8, 8.4,0,0,1024,1024,1024,1024,0,0,0,0,202.1,0,0,91,4.253,4.251,0,0,0,0,1.141,99.68,14.583542461424,0,10,Assisted_Takeoff,
42000,2023-03-29 16:25:34,-34.9537906886438,-54.940833508071,0,0.032808400000002,14.550734061424,14.583542461424,0.328084,0,0.241652238704,0.6575131444,24,5,8.504,14.583542461424,0,0,0.241652238704,0,0,0,190.8, 0.6, 8.3,0,0,1024,1024,1024,1024,0,0,0,0,202.1,0,0,91,4.253,4.251,0,0,0,0,1.141,99.68,14.583542461424,0,10,Assisted_Takeoff,
42100,2023-03-29 16:25:34,-34.9537907038079,-54.9408335158646,0,0.032808400000002,14.550734061424,14.583542461424,0.328084,0,0.243215887048,0.66351380076,24,5,8.504,14.583542461424,0,0,0.243215887048,0,0,0,190.8, 0.7, 8.4,0,0,1024,1024,1024,1024,0,0,0,0,202.1,0,0,91,4.253,4.251,0,0,0,0,1.141,99.68,14.583542461424,0,10,Assisted_Takeoff,
42200,2023-03-29 16:25:34,-34.9537907074165,-54.9408335463073,0,0.032808400000002,14.550734061424,14.583542461424,0.328084,0,0.252100401768,0.67271327612,24,5,8.504,14.583542461424,0,0,0.252100401768,0,0,0,190.7, 0.7, 8.4,0,0,1024,1024,1024,1024,0,0,0,0,202.1,0,0,91,4.253,4.251,0,0,0,0,1.141,99.68,14.583542461424,0,10,Assisted_Takeoff,
42300,2023-03-29 16:25:34,-34.9537906829427,-54.9408335921465,0,0.032808400000002,14.550734061424,14.583542461424,0.328084,0,0.266832029536,0.68907154436,24,5,8.504,14.583542461424,0,0,0.266832029536,0,0,0,190.8, 0.8, 8.4,0,0,1024,1024,1024,1024,0,0,0,0,202.1,0,0,91,4.253,4.251,0,0,0,0,1.141,99.68,14.583542461424,0,10,Assisted_Takeoff,
42400,2023-03-29 16:25:34,-34.9537906787103,-54.9408336125318,0,0.032808400000002,14.550734061424,14.583542461424,0.328084,0,0.273085310576,0.69536091464,24,5,8.504,14.583542461424,0,0,0.273085310576,0,0,0,190.7, 0.7, 8.4,0,0,1024,1024,1024,1024,0,0,0,0,202.1,0,0,91,4.253,4.251,0,0,0,0,1.141,99.68,14.583542461424,0,10,Assisted_Takeoff,
42500,2023-03-29 16:25:34,-34.9537906731052,-54.9408336218648,0,0.032808400000002,14.550734061424,14.583542461424,0.328084,0,0.276144693876,0.69882220084,24,5,8.504,14.583542461424,0,0,0.276144693876,0,0,0,190.8, 0.7, 8.4,0,0,1024,1024,1024,1024,0,0,0,0,202.1,0,0,91,4.253,4.251,0,0,0,0,1.141,99.68,14.583542461424,0,10,Assisted_Takeoff,
42600,2023-03-29 16:25:34,-34.9537906673682,-54.940833654125,0,0.032808400000002,14.550734061424,14.583542461424,0.328084,0,0.285996400228,0.7086942484,24,5,8.504,14.583542461424,0,0,0.285996400228,0,0,0,190.8, 0.7, 8.4,0,0,1024,1024,1024,1024,0,0,0,0,202.1,0,0,91,4.253,4.251,0,0,0,0,1.141,99.68,14.583542461424,0,10,Assisted_Takeoff,
42700,2023-03-29 16:25:35,-34.9537906179563,-54.940833701369,0,0.032808400000002,14.550734061424,14.583542461424,0.328084,0,0.30309056088,0.73159779244,24,5,8.503,14.583542461424,0,0,0.30309056088,0,0,0,190.8, 0.7, 8.4,0,0,1024,1024,1024,1024,0,0,0,0,202.1,0,0,91,4.253,4.251,0,0,0,0,1.147,99.68,14.583542461424,0,10,Assisted_Takeoff,
42800,2023-03-29 16:25:35,-34.9537906147499,-54.9408337539259,0,0.032808400000002,14.550734061424,14.583542461424,0.328084,0,0.318725731984,0.74735566696,24,5,8.503,14.583542461424,0,0,0.318725731984,0,0,0,190.8, 0.8, 8.4,0,0,1024,1024,1024,1024,0,0,0,0,202.1,0,0,91,4.253,4.251,0,0,0,0,1.147,99.68,14.583542461424,0,10,Assisted_Takeoff,
42900,2023-03-29 16:25:35,-34.9537906125906,-54.9408338128542,0,0.032808400000002,14.550734061424,14.583542461424,0.328084,0,0.3361712706,0.76499674364,24,5,8.503,14.583542461424,0,0,0.3361712706,0,0,0,190.8, 0.6, 8.3,0,0,1024,1024,1024,1024,0,0,0,0,202.1,0,0,91,4.253,4.251,0,0,0,0,1.147,99.68,14.583542461424,0,10,Assisted_Takeoff,
43000,2023-03-29 16:25:35,-34.9537906118041,-54.9408338361605,0,0.032808400000002,14.550734061424,14.583542461424,0.328084,0,0.34307087712,0.77197180948,24,5,8.503,14.583542461424,0,0,0.34307087712,0,0,0,190.8, 0.8, 8.3,0,0,1024,1024,1024,1024,0,0,0,0,202.1,0,0,91,4.253,4.251,0,0,0,0,1.147,99.68,14.583542461424,0,10,Assisted_Takeoff,
43100,2023-03-29 16:25:35,-34.9537906007583,-54.9408338290499,0,0.032808400000002,14.550734061424,14.583542461424,0.328084,0,0.34175526028,0.77652889624,24,5,8.503,14.583542461424,0,0,0.34307087712,0,0,0,190.7, 0.7, 8.3,0,0,1024,1024,1024,1024,0,0,0,0,202.1,0,0,91,4.253,4.251,0,0,0,0,1.147,99.68,14.583542461424,0,10,Assisted_Takeoff,
43200,2023-03-29 16:25:35,-34.9537906348058,-54.9408338200193,0,0.032808400000002,14.550734061424,14.583542461424,0.328084,0,0.33685696616,0.7892388704,24,5,8.503,14.583542461424,0,0,0.34307087712,0,0,0,190.8, 0.8, 8.4,0,0,1024,1024,1024,1024,0,0,0,0,202.1,0,0,91,4.253,4.251,0,0,0,0,1.147,99.68,14.583542461424,0,10,Assisted_Takeoff,
43300,2023-03-29 16:25:35,-34.9537906871277,-54.9408338053996,0,0.032808400000002,14.550734061424,14.583542461424,0.328084,0,0.3299212704,0.8088254852,24,5,8.503,14.583542461424,0,0,0.34307087712,0,0,0,190.7, 0.7, 8.4,0,0,1024,1024,1024,1024,0,0,0,0,202.1,0,0,91,4.253,4.251,0,0,0,0,1.147,99.68,14.583542461424,0,10,Assisted_Takeoff,
43400,2023-03-29 16:25:35,-34.953790715277,-54.9408337898474,0,0.032808400000002,14.550734061424,14.583542461424,0.328084,0,0.324323173108,0.82009845144,24,5,8.503,14.583542461424,0,0,0.34307087712,0,0,0,190.8, 0.7, 8.3,0,0,1024,1024,1024,1024,0,0,0,0,202.1,0,0,91,4.253,4.251,0,0,0,0,1.147,99.68,14.583542461424,0,10,Assisted_Takeoff,
43500,2023-03-29 16:25:35,-34.9537907322894,-54.9408337745842,0,0.032808400000002,14.550734061424,14.583542461424,0.328084,0,0.319334655888,0.82780186376,24,5,8.503,14.583542461424,0,0,0.34307087712,0,0,0,190.7, 0.7, 8.4,0,0,1024,1024,1024,1024,0,0,0,0,202.1,0,0,91,4.253,4.251,0,0,0,0,1.147,99.68,14.583542461424,0,10,Assisted_Takeoff,
43600,2023-03-29 16:25:35,-34.9537908489348,-54.9408336733124,0,0.032808400000002,14.550734061424,14.583542461424,0.328084,0,0.28937500926,0.8800361174,24,5,8.503,14.583542461424,0,0,0.34307087712,0,0,0,190.8, 0.7, 8.4,0,0,1024,1024,1024,1024,0,0,0,0,202.1,0,0,91,4.253,4.251,0,0,0,0,1.147,99.68,14.583542461424,0,10,Assisted_Takeoff,
43700,2023-03-29 16:25:36,-34.9537909015254,-54.9408336657118,0,0.032808400000002,14.550734061424,14.583542461424,0.328084,0,0.289283473824,0.89935698416,24,5,8.502,14.583542461424,0,0,0.34307087712,0,0,0,190.8, 0.8, 8.4,0,0,1024,1024,1060,1024,0,0,5,0,202.1,0,0,91,4.253,4.25,0,0,0,0,1.153,99.68,14.583542461424,0,10,Assisted_Takeoff,
43800,2023-03-29 16:25:36,-34.9537909244979,-54.9408336619454,0,0.032808400000002,14.550734061424,14.583542461424,0.328084,0,0.289516741548,0.90781498968,24,5,8.502,14.583542461424,0,0,0.34307087712,0,0,0,190.7, 0.6, 8.3,0,0,1024,1024,1065,1024,0,0,6,0,202.1,0,0,91,4.253,4.25,0,0,0,0,1.153,99.68,14.583542461424,0,10,Assisted_Takeoff,
43900,2023-03-29 16:25:36,-34.9537909357048,-54.9408336596965,0,0.032808400000002,14.550734061424,14.583542461424,0.328084,0,0.289599418716,0.9119586906,24,5,8.502,14.583542461424,0,0,0.34307087712,0,0,0,190.8, 0.7, 8.4,0,0,1024,1024,1051,1024,0,0,4,0,202.1,0,0,91,4.253,4.25,0,0,0,0,1.153,99.68,14.583542461424,0,10,Assisted_Takeoff,
44000,2023-03-29 16:25:36,-34.9537910108934,-54.9408336391032,0,0.032808400000002,14.550734061424,14.583542461424,0.328084,0,0.290099418732,0.94007220856,24,5,8.502,14.583542461424,0,0,0.34307087712,0,0,0,190.8, 0.8, 8.4,0,0,1024,1024,1031,1024,0,0,1,0,202.1,0,0,91,4.253,4.25,0,0,0,0,1.153,99.68,14.583542461424,0,10,Assisted_Takeoff,
44100,2023-03-29 16:25:36,-34.9537910566119,-54.9408336397029,0,0.032808400000002,14.550734061424,14.583542461424,0.328084,0,0.295425862472,0.95675527996,24,5,8.502,14.583542461424,0,0,0.34307087712,0,0,0,190.8, 0.7, 8.4,0,0,1024,1024,1031,1024,0,0,1,0,202.1,0,0,91,4.253,4.25,0,0,0,0,1.153,99.68,14.583542461424,0,10,Assisted_Takeoff,
44200,2023-03-29 16:25:36,-34.9537910759041,-54.9408336408755,0,0.032808400000002,14.550734061424,14.583542461424,0.328084,0,0.298182096156,0.96380252428,24,5,8.502,14.583542461424,0,0,0.34307087712,0,0,0,190.8, 0.7, 8.4,0,0,1024,1024,1024,1024,0,0,0,0,202.1,0,0,91,4.253,4.25,0,0,0,0,1.153,99.68,14.583542461424,0,10,Assisted_Takeoff,
44300,2023-03-29 16:25:36,-34.953791083491,-54.9408336422151,0,0.032808400000002,14.550734061424,14.583542461424,0.328084,0,0.299549222184,0.96659779996,24,5,8.502,14.583542461424,0,0,0.34307087712,0,0,0,190.8, 0.8, 8.4,0,0,1024,1024,1040,1024,0,0,2,0,202.1,0,0,91,4.253,4.25,0,0,0,0,1.153,99.68,14.583542461424,0,10,Assisted_Takeoff,
44400,2023-03-29 16:25:36,-34.9537911094452,-54.9408336418489,0,0.032808400000002,14.550734061424,14.583542461424,0.328084,0,0.303011164552,0.97606958504,24,5,8.502,14.583542461424,0,0,0.34307087712,0,0,0,190.8, 0.6, 8.4,0,0,1024,1024,1110,1024,0,0,13,0,202.1,0,0,91,4.253,4.25,0,0,0,0,1.153,99.68,14.583542461424,0,10,Assisted_Takeoff,
44500,2023-03-29 16:25:36,-34.9537911534653,-54.9408336421115,0,0.032808400000002,14.550734061424,14.583542461424,0.328084,0,0.309695547968,0.99212929684,24,5,8.502,14.583542461424,0,0,0.34307087712,0,0,0,190.8, 0.7, 8.4,0,0,1024,1024,1296,1024,0,0,41,0,202.1,0,0,91,4.253,4.25,0,0,0,0,1.153,99.68,14.583542461424,0,10,Assisted_Takeoff,
44600,2023-03-29 16:25:36,-34.9537911714009,-54.9408336758024,0,0.032808400000002,14.550734061424,14.583542461424,0.328084,0,0.32161418352,1.00414373292,24,5,8.502,14.583542461424,0,0,0.34307087712,0,0,0,190.7, 0.7, 8.3,0,0,1024,1024,1455,1024,0,0,65,0,202.1,0,0,91,4.253,4.25,0,0,0,0,1.153,99.68,14.583542461424,0,10,Assisted_Takeoff,
44700,2023-03-29 16:25:37,-34.9537911781785,-54.9408337274018,0,0.032808400000002,14.550734061424,14.583542461424,0.328084,0,0.33660106064,1.01977037384,24,5,8.487,14.583542461424,0,0,0.34307087712,0,0,0,190.8, 0.7, 8.3,0,0,1024,1024,1525,1024,0,0,76,0,202.1,0,0,91,4.251,4.246,0,0,0,0,1.256,99.68,14.583542461424,0,10,Assisted_Takeoff,
44800,2023-03-29 16:25:37,-34.9537910986404,-54.940833826685,0,0.032808400000002,14.550734061424,14.583542461424,0.328084,0,0.35327428952,1.0612861232,24,5,8.487,14.583542461424,0,0,0.35327428952,0,0,0,190.9, 0.6, 8.3,0,0,1024,1024,1632,1024,0,0,92,0,202.1,0,0,91,4.251,4.246,0,0,0,0,1.256,99.68,14.583542461424,0,10,Assisted_Takeoff,
44900,2023-03-29 16:25:37,-34.9537910904689,-54.9408338455269,0,0.032808400000002,14.550734061424,14.583542461424,0.328084,0,0.35767389596,1.06766079532,24,5,8.487,14.583542461424,0,0,0.35767389596,0,0,0,190.7, 0.6, 7.8,0,0,1024,1024,1632,1024,0,0,92,0,202.1,0,0,91,4.251,4.246,0,0,0,0,1.256,99.68,14.583542461424,0,10,Assisted_Takeoff,
45000,2023-03-29 16:25:37,-34.9537911145569,-54.940833893485,0,0.032808400000002,14.550734061424,14.583542461424,0.328084,0,0.37405513008,1.084481662,24,5,8.487,14.583542461424,0,0,0.37405513008,0,0,0,189.9, -0.9, 4.1,0,0,1024,1024,1671,1024,0,0,98,0,202.1,0,0,91,4.251,4.246,0,0,0,0,1.256,99.68,14.583542461424,0,10,Assisted_Takeoff,
45100,2023-03-29 16:25:37,-34.9537911600719,-54.9408339778336,0,0.032808400000002,14.550734061424,14.583542461424,0.328084,0,0.40334318876,1.11467851336,24,5,8.487,14.583542461424,0,0,0.40334318876,0,0,-0.223694,189.5, -0.4, -0.1,0,0,1024,1024,1664,1024,0,0,97,0,202.1,0,0,91,4.251,4.246,0,0,0,0,1.256,99.68,14.583542461424,0,6,P-GPS,"Error de calibraci贸n del estabilizador. Reinicia la aeronave o contacta con la Asistencia DJI (Code: 40011)"
45200,2023-03-29 16:25:37,-34.9537911779082,-54.9408340269091,0.328084,0.3608924,14.550734061424,14.911626461424,0.328084,0,0.4193569688,1.13073166348,24,5,8.487,14.911626461424,0.328084,0,0.4193569688,0,0,-0.671082,189.7, 0.2, -1.8,0,0,1024,1024,1612,1024,0,0,89,0,202.1,0,0,91,4.251,4.246,0,0,0,0,1.256,99.68,14.911626461424,0.328084,6,P-GPS,
45300,2023-03-29 16:25:37,-34.9537911896721,-54.940833950162,0.328084,0.3608924,14.550734061424,14.911626461424,0.656168,0,0.3994258658,1.15408140176,24,5,8.487,14.911626461424,0.328084,0,0.4193569688,0,0,-1.342164,190.4, 0.2, 0,0,0,1024,1024,1458,1024,0,0,66,0,202.1,0,0,91,4.251,4.246,0,0,0,0,1.256,99.68,14.911626461424,0.328084,6,P-GPS,
45400,2023-03-29 16:25:37,-34.9537911458979,-54.9408338321069,0.656168,0.6889764,14.550734061424,15.239710461424,0.656168,0.223694,0.36072507716,1.19282812216,24,5,8.487,15.239710461424,0.656168,0.223694,0.4193569688,0,0.223694,-1.789552,190.6, -0.2, 2.2,0,0,1024,1024,1391,1024,0,0,56,0,202.1,0,0,91,4.251,4.246,0,0,0,0,1.256,99.68,15.239710461424,0.656168,6,P-GPS,
45500,2023-03-29 16:25:37,-34.9537910490657,-54.9408336812726,0.984252,1.0170604,14.550734061424,15.567794461424,0.984252,0.3131716,0.306293644972,1.25012143108,24,5,8.487,15.567794461424,0.984252,0.3131716,0.4193569688,0.223694,0.223694,-2.23694,190.4, -2.5, 2.2,0,0,1024,1024,1218,1024,0,0,29,0,202.1,0,0,91,4.251,4.246,0,0,0,0,1.256,99.68,15.567794461424,0.984252,6,P-GPS,
45600,2023-03-29 16:25:37,-34.953790897456,-54.9408335981371,1.312336,1.3451444,14.550734061424,15.895878461424,1.312336,0.3131716,0.269080061104,1.31076775848,24,5,8.487,15.895878461424,1.312336,0.3131716,0.4193569688,0.223694,0.223694,-2.460634,190.4, -3.4, 2.4,0,0,1024,1024,1079,1024,0,0,8,0,202.1,0,0,91,4.251,4.246,0,0,0,0,1.256,99.68,15.895878461424,1.312336,6,P-GPS,"Error de calibraci贸n del estabilizador. Reinicia la aeronave o contacta con la Asistencia DJI (Code: 40011)"
45700,2023-03-29 16:25:38,-34.953790580279,-54.9408336491486,1.64042,1.6732284,14.550734061424,16.223962461424,1.64042,0.3131716,0.291047581492,1.42749020316,24,5,8.42,16.223962461424,1.64042,0.3131716,0.4193569688,0.223694,0.223694,-2.23694,190.4, -3.6, 2.3,0,0,1024,1024,1024,1024,0,0,0,0,202.1,0,0,91,4.195,4.185,0,0,0,0,2.678,99.68,16.223962461424,1.64042,6,P-GPS,"Error de calibraci贸n del estabilizador. Reinicia la aeronave o contacta con la Asistencia DJI (Code: 40011)"
45800,2023-03-29 16:25:38,-34.9537904456295,-54.9408335471834,1.968504,1.9356956,14.616350861424,16.552046461424,1.968504,0.3131716,0.27976214806,1.48530844648,24,5,8.42,16.552046461424,1.968504,0.3131716,0.4193569688,0.223694,0.223694,-2.013246,190.4, -3.7, 2.9,0,0,1024,1024,1024,1024,0,0,0,0,202.1,0,0,91,4.195,4.185,0,0,0,0,2.678,99.68,16.552046461424,1.968504,6,P-GPS,
45900,2023-03-29 16:25:38,-34.953790325566,-54.9408334124867,2.296588,2.2309712,14.649159261424,16.880130461424,1.968504,0.3131716,0.269222121476,1.54481960324,24,5,8.42,16.880130461424,2.296588,0.3131716,0.4193569688,0.223694,0.223694,-1.565858,190.4, -3.9, 3.1,0,0,1024,1024,1024,1024,0,0,0,0,202.1,0,0,91,4.195,4.185,0,0,0,0,2.678,99.68,16.880130461424,2.296588,6,P-GPS,
46000,2023-03-29 16:25:38,-34.9537902027666,-54.9408332530438,2.624672,2.5590552,14.649159261424,17.208214461424,2.296588,0.3131716,0.26783629466,1.61024611452,24,5,8.42,17.208214461424,2.624672,0.3131716,0.4193569688,0.223694,0.223694,-1.11847,190.4, -3.9, 3.3,0,0,1024,1024,1024,1024,0,0,0,0,202.1,0,0,91,4.195,4.185,0,0,0,0,2.678,99.68,17.208214461424,2.624672,6,P-GPS,
46100,2023-03-29 16:25:38,-34.9537900492353,-54.9408329679958,2.624672,2.5590552,14.649159261424,17.208214461424,2.296588,0.3131716,0.279674877716,1.71224414928,24,5,8.42,17.208214461424,2.624672,0.3131716,0.4193569688,0.223694,0.223694,-0.447388,190.4, -4, 3.3,0,0,1024,1024,1024,1024,0,0,0,0,202.1,0,0,91,4.195,4.185,0,0,0,0,2.678,99.68,17.208214461424,2.624672,6,P-GPS,
46200,2023-03-29 16:25:38,-34.9537899177498,-54.9408328805634,2.624672,2.5590552,14.649159261424,17.208214461424,2.624672,0,0.320826453836,1.76687669696,24,5,8.42,17.208214461424,2.624672,0.3131716,0.4193569688,0,0,0,190.4, -3.9, 3.1,0,0,1024,1024,1024,1024,0,0,0,0,202.1,0,0,91,4.195,4.185,0,0,0,0,2.678,99.68,17.208214461424,2.624672,6,P-GPS,
46300,2023-03-29 16:25:38,-34.9537897862123,-54.9408328294415,2.624672,2.5590552,14.649159261424,17.208214461424,2.624672,0,0.36645670464,1.81724415264,24,5,8.42,17.208214461424,2.624672,0.3131716,0.4193569688,0,0,0,190.4, -3.5, 3.1,0,0,1024,1024,1069,1024,0,0,7,0,202.1,0,0,91,4.195,4.185,0,0,0,0,2.678,99.68,17.208214461424,2.624672,6,P-GPS,
46400,2023-03-29 16:25:38,-34.9537897050164,-54.9408327894759,2.624672,2.5590552,14.649159261424,17.208214461424,2.624672,0,0.39503938272,1.84918969172,24,5,8.42,17.208214461424,2.624672,0.3131716,0.4193569688,0,0,0,190.5, -3.3, 3,0,0,1024,1024,1407,1024,0,0,58,0,202.1,0,0,91,4.195,4.185,0,0,0,0,2.678,99.68,17.208214461424,2.624672,6,P-GPS,
46500,2023-03-29 16:25:38,-34.9537896567184,-54.9408329301093,2.624672,2.5590552,14.649159261424,17.208214461424,2.624672,0,0.4172080186,1.89478680604,24,5,8.42,17.208214461424,2.624672,0.3131716,0.4193569688,0,0,0,190.5, -3.2, 3,0,0,1024,1024,1656,1024,0,0,96,0,202.1,0,0,91,4.195,4.185,0,0,0,0,2.678,99.68,17.208214461424,2.624672,6,P-GPS,
46600,2023-03-29 16:25:38,-34.9537896175885,-54.9408328305559,2.952756,2.8871392,14.649159261424,17.536298461424,2.624672,0,0.42775263836,1.92780189896,24,5,8.42,17.536298461424,2.952756,0.3131716,0.42775263836,0,0,-0.223694,190.4, -3.1, 2.8,0,0,1024,1024,1684,1024,0,0,100,0,202.1,0,0,91,4.195,4.185,0,0,0,0,2.678,99.68,17.536298461424,2.952756,6,P-GPS,"Punto de origen actualizado. Altitud de RPO establecida en 60m (Code: 3000001)"
46700,2023-03-29 16:25:39,-34.9537895920887,-54.9408326982483,2.952756,2.8871392,14.649159261424,17.536298461424,2.952756,0,0.43551182496,1.96844494488,24,5,8.42,17.536298461424,2.952756,0.3131716,0.43551182496,0,0,-0.894776,190.4, -3, 2.8,0,0,1024,1024,1684,1024,0,0,100,0,202.1,0,0,91,4.195,4.185,0,0,0,0,2.678,99.68,17.536298461424,2.952756,6,P-GPS,
46800,2023-03-29 16:25:39,-34.9537895727216,-54.9408326109939,3.28084,3.2152232,14.649159261424,17.864382461424,2.952756,0,0.44353019792,1.99547906648,24,5,8.418,17.864382461424,3.28084,0.3131716,0.44353019792,0,0,-1.565858,190.4, -2.9, 2.7,0,0,1024,1024,1684,1024,0,0,100,0,202.1,0,0,91,4.206,4.199,0,0,0,0,3.974,99.68,17.864382461424,3.28084,6,P-GPS,
46900,2023-03-29 16:25:39,-34.9537895607966,-54.9408325495472,3.608924,3.5433072,14.649159261424,18.192466461424,3.608924,0,0.44944555244,2.01436030068,24,5,8.418,18.192466461424,3.608924,0.3131716,0.44944555244,0,0,-2.23694,190.3, -2.8, 2.7,0,0,1024,1024,1535,1024,0,0,77,0,202.1,0,0,91,4.206,4.199,0,0,0,0,3.974,99.68,18.192466461424,3.608924,6,P-GPS,
47000,2023-03-29 16:25:39,-34.9537896265938,-54.9408323496181,3.937008,3.8713912,14.649159261424,18.520550461424,3.937008,0,0.43632875412,2.07878615576,24,5,8.418,18.520550461424,3.937008,0.3131716,0.44944555244,0,0,-3.131716,190.3, -2.9, 2.7,0,0,1024,1024,1128,1024,0,0,16,0,202.1,0,0,91,4.206,4.199,0,0,0,0,3.974,99.68,18.520550461424,3.937008,6,P-GPS,
47100,2023-03-29 16:25:39,-34.9537896597831,-54.9408323213638,4.593176,4.5275592,14.649159261424,19.176718461424,4.593176,0,0.42681759896,2.0935532166,24,5,8.418,19.176718461424,4.593176,0.3131716,0.44944555244,0,0,-3.35541,190.4, -2.5, 3,0,0,1024,1024,1024,1024,0,0,0,0,202.1,0,0,91,4.206,4.199,0,0,0,0,3.974,99.68,19.176718461424,4.593176,6,P-GPS,
47200,2023-03-29 16:25:39,-34.9537896736331,-54.9408322865964,4.92126,4.8556432,14.649159261424,19.504802461424,4.92126,0,0.42492783512,2.10511161592,24,5,8.418,19.504802461424,4.92126,0.3131716,0.44944555244,0,0,-2.908022,190.4, -2.4, 2.9,0,0,1024,1024,1024,1024,0,0,0,0,202.1,0,0,91,4.206,4.199,0,0,0,0,3.974,99.68,19.504802461424,4.92126,6,P-GPS,
47300,2023-03-29 16:25:39,-34.9537896677593,-54.9408322411694,5.249344,5.1837272,14.649159261424,19.832886461424,5.249344,0,0.43118767784,2.1188648972,24,5,8.418,19.832886461424,5.249344,0.3131716,0.44944555244,0,0,-2.460634,190.4, -2.4, 2.7,0,0,1024,1024,1024,1024,0,0,0,0,202.1,0,0,91,4.206,4.199,0,0,0,0,3.974,99.68,19.832886461424,5.249344,6,P-GPS,
47400,2023-03-29 16:25:39,-34.9537898243553,-54.9408320726041,5.577428,5.5118112,14.649159261424,20.160970461424,5.577428,0,0.3990157608,2.19505584452,24,5,8.418,20.160970461424,5.577428,0.3131716,0.44944555244,0,0,-1.565858,190.5, -2.1, 2.7,0,0,1024,1024,1024,1024,0,0,0,0,202.1,0,0,91,4.206,4.199,0,0,0,0,3.974,99.68,20.160970461424,5.577428,6,P-GPS,
47500,2023-03-29 16:25:39,-34.953789851464,-54.9408319747901,5.577428,5.5118112,14.649159261424,20.160970461424,5.905512,0,0.40540683712,2.22593182976,24,5,8.418,20.160970461424,5.577428,0.3131716,0.44944555244,0,0,-0.894776,190.6, -2, 2.8,0,0,1024,1024,1024,1024,0,0,0,0,202.1,0,0,91,4.206,4.199,0,0,0,0,3.974,99.68,20.160970461424,5.577428,6,P-GPS,
47600,2023-03-29 16:25:39,-34.9537898225282,-54.9408318495725,5.577428,5.5118112,14.649159261424,20.160970461424,5.905512,0,0.4353182554,2.26483603048,24,5,8.418,20.160970461424,5.577428,0.3131716,0.44944555244,0,0,-0.447388,190.6, -1.9, 2.6,0,0,1024,1024,1024,1024,0,0,0,0,202.1,0,0,91,4.206,4.199,0,0,0,0,3.974,99.68,20.160970461424,5.577428,6,P-GPS,
47700,2023-03-29 16:25:40,-34.9537897531418,-54.9408317018755,5.577428,5.5118112,14.649159261424,20.160970461424,5.905512,0,0.48226379496,2.31574482476,24,5,8.418,20.160970461424,5.577428,0.3131716,0.48226379496,0,0,0,190.7, -2.2, 3,0,0,1024,1024,1024,1024,0,0,0,0,202.1,0,0,91,4.206,4.199,0,0,0,0,3.974,99.68,20.160970461424,5.577428,6,P-GPS,
47800,2023-03-29 16:25:40,-34.9537895955997,-54.9408314805528,5.577428,5.4790028,14.681967661424,20.160970461424,5.905512,0,0.56870408644,2.40340230788,24,5,8.366,20.160970461424,5.577428,0.3131716,0.56870408644,0,0,0,190.6, -2.8, 2.9,0,0,1024,1024,1024,1024,0,0,0,0,202.1,0,0,91,4.208,4.206,0,0,0,0,4.756,99.68,20.160970461424,5.577428,6,P-GPS,
47900,2023-03-29 16:25:40,-34.9537894822437,-54.9408313700287,5.577428,5.4461944,14.714776061424,20.160970461424,5.905512,0,0.62162731648,2.45634522296,24,5,8.366,20.160970461424,5.577428,0.3131716,0.62162731648,0,0,0,190.5, -3.3, 2.8,0,0,1024,1024,1024,1024,0,0,0,0,202.1,0,0,91,4.208,4.206,0,0,0,0,4.756,99.68,20.160970461424,5.577428,6,P-GPS,
48000,2023-03-29 16:25:40,-34.9537893919367,-54.9408313569403,5.577428,5.4461944,14.714776061424,20.160970461424,6.233596,0,0.64961288168,2.48952435788,24,5,8.366,20.160970461424,5.577428,0.3131716,0.64961288168,0,0,0,190.5, -3.5, 3,0,0,1024,1024,1024,1024,0,0,0,0,202.1,0,0,91,4.208,4.206,0,0,0,0,4.756,99.68,20.160970461424,5.577428,6,P-GPS,
48100,2023-03-29 16:25:40,-34.9537893113857,-54.9408313914856,5.577428,5.4461944,14.714776061424,20.160970461424,6.233596,0,0.66671261976,2.52067593368,24,5,8.366,20.160970461424,5.577428,0.3131716,0.66671261976,0,0,0,190.5, -3.7, 3.2,0,0,1024,1024,1024,1024,0,0,0,0,202.1,0,0,91,4.208,4.206,0,0,0,0,4.756,99.68,20.160970461424,5.577428,6,P-GPS,
48200,2023-03-29 16:25:40,-34.9537891592451,-54.9408315766278,5.577428,5.4461944,14.714776061424,20.160970461424,6.233596,0,0.68319227908,2.59907488632,24,5,8.366,20.160970461424,5.577428,0.3131716,0.68319227908,0,0,0,190.5, -4.2, 3.2,0,0,1024,1024,1024,1024,0,0,0,0,202.1,0,0,91,4.208,4.206,0,0,0,0,4.756,99.68,20.160970461424,5.577428,6,P-GPS,
48300,2023-03-29 16:25:40,-34.9537890449853,-54.9408315340321,5.577428,5.4461944,14.714776061424,20.160970461424,6.233596,0,0.72577758228,2.6426674074,24,5,8.366,20.160970461424,5.577428,0.3131716,0.72577758228,0,0,0,190.5, -4.3, 3.4,0,0,1024,1024,1024,1024,0,0,0,0,202.1,0,0,91,4.208,4.206,0,0,0,0,4.756,99.68,20.160970461424,5.577428,6,P-GPS,
48400,2023-03-29 16:25:40,-34.9537889548249,-54.9408315156365,5.577428,5.4461944,14.714776061424,20.160970461424,6.233596,0,0.75730645468,2.676017146,24,5,8.366,20.160970461424,5.577428,0.3131716,0.75730645468,0,0,0,190.4, -4.2, 3.1,0,0,1024,1024,1024,1024,0,0,0,0,202.1,0,0,91,4.208,4.206,0,0,0,0,4.756,99.68,20.160970461424,5.577428,6,P-GPS,
48500,2023-03-29 16:25:40,-34.9537888771236,-54.9408315120284,5.577428,5.4461944,14.714776061424,20.160970461424,6.233596,0,0.78291997256,2.70438656948,25,5,8.366,20.160970461424,5.577428,0.3131716,0.78291997256,0,0,0,190.4, -4.1, 3,0,0,1024,1024,1024,1024,0,0,0,0,202.1,0,0,91,4.208,4.206,0,0,0,0,4.756,99.68,20.160970461424,5.577428,6,P-GPS,
48600,2023-03-29 16:25:40,-34.9537888561493,-54.9408315188486,5.249344,5.1181104,14.714776061424,19.832886461424,6.233596,0,0.7888123612,2.71230651724,25,5,8.366,20.160970461424,5.577428,0.3131716,0.7888123612,0,0,0,190.3, -4.4, 2.7,0,0,1024,1024,1024,1024,0,0,0,0,202.1,0,0,91,4.208,4.206,0,0,0,0,4.756,99.68,19.832886461424,5.249344,6,P-GPS,
48700,2023-03-29 16:25:41,-34.9537889373972,-54.9408315596386,5.249344,5.1181104,14.714776061424,19.832886461424,6.233596,0,0.7568569796,2.74436032404,24,5,8.366,20.160970461424,5.577428,0.3131716,0.7888123612,0,0,0,190.4, -4.1, 2.6,0,0,1024,1024,1024,1024,0,0,0,0,202.1,0,0,91,4.208,4.206,0,0,0,0,4.756,99.68,19.832886461424,5.249344,6,P-GPS,
48800,2023-03-29 16:25:41,-34.9537889401216,-54.940831599254,5.249344,5.1181104,14.714776061424,19.832886461424,6.233596,0,0.75066275368,2.7562500882,24,5,8.386,20.160970461424,5.577428,0.3131716,0.7888123612,0,0,0,190.5, -3.9, 2.7,0,0,1024,1024,1024,1024,0,0,0,0,202.1,0,0,91,4.195,4.186,0,0,0,0,3.514,99.68,19.832886461424,5.249344,6,P-GPS,
48900,2023-03-29 16:25:41,-34.9537889370732,-54.9408316558246,5.249344,5.1181104,14.714776061424,19.832886461424,6.233596,0,0.74434713668,2.77320218848,24,5,8.386,20.160970461424,5.577428,0.3131716,0.7888123612,0,0,0,190.5, -3.4, 2.6,0,0,1024,1024,1024,1024,0,0,0,0,202.1,0,0,91,4.195,4.186,0,0,0,0,3.514,99.68,19.832886461424,5.249344,6,P-GPS,
49000,2023-03-29 16:25:41,-34.9537889422891,-54.9408317036459,5.249344,5.1181104,14.714776061424,19.832886461424,6.56168,0,0.73667653276,2.78762804196,24,5,8.386,20.160970461424,5.577428,0.3131716,0.7888123612,0,0,0,190.5, -3.6, 2.5,0,0,1024,1024,1024,1024,0,0,0,0,202.1,0,0,91,4.195,4.186,0,0,0,0,3.514,99.68,19.832886461424,5.249344,6,P-GPS,
49100,2023-03-29 16:25:41,-34.953788945458,-54.9408318209478,5.249344,5.1181104,14.714776061424,19.832886461424,6.56168,0,0.7219980546,2.82272646828,24,5,8.386,20.160970461424,5.577428,0.3131716,0.7888123612,0,0,0,190.5, -3.4, 2.4,0,0,1094,1024,1024,1024,11,0,0,0,202.1,0,0,91,4.195,4.186,0,0,0,0,3.514,99.68,19.832886461424,5.249344,6,P-GPS,
49200,2023-03-29 16:25:41,-34.9537889839577,-54.9408318443103,5.249344,5.1181104,14.714776061424,19.832886461424,6.56168,0,0.70636813284,2.83841544516,24,5,8.386,20.160970461424,5.577428,0.3131716,0.7888123612,0,0,0,190.6, -3.3, 2.6,0,0,1209,1024,1024,1024,28,0,0,0,202.1,0,0,91,4.195,4.186,0,0,0,0,3.514,99.68,19.832886461424,5.249344,6,P-GPS,
49300,2023-03-29 16:25:41,-34.9537890398541,-54.9408318597427,5.249344,5.1181104,14.714776061424,19.832886461424,6.56168,0,0.68570868336,2.85932423848,24,5,8.386,20.160970461424,5.577428,0.3131716,0.7888123612,0,0,0,190.5, -4.3, 2.7,0,0,1489,1024,1024,1024,70,0,0,0,202.1,0,0,91,4.195,4.186,0,0,0,0,3.514,99.68,19.832886461424,5.249344,6,P-GPS,
49400,2023-03-29 16:25:41,-34.953789131783,-54.940831867077,5.249344,5.1181104,14.714776061424,19.832886461424,6.56168,0,0.6538221994,2.89293644428,24,5,8.386,20.160970461424,5.577428,0.3131716,0.7888123612,0,0,0,190.4, -8, 2.5,0,0,1665,1024,1024,1024,97,0,0,0,202.1,0,0,91,4.195,4.186,0,0,0,0,3.514,99.68,19.832886461424,5.249344,6,P-GPS,
49500,2023-03-29 16:25:41,-34.9537894118428,-54.9408317982719,5.249344,5.1181104,14.714776061424,19.832886461424,6.56168,0.223694,0.5704232466,2.99716545024,25,5,8.386,20.160970461424,5.577428,0.3131716,0.7888123612,-0.223694,0,0,190.3, -13.6, 2.3,0,0,1637,1024,1024,1024,93,0,0,0,202.1,0,0,91,4.195,4.186,0,0,0,0,3.514,99.68,19.832886461424,5.249344,6,P-GPS,
49600,2023-03-29 16:25:41,-34.9537897075829,-54.9408318290282,5.249344,5.1837272,14.649159261424,19.832886461424,6.233596,0.671082,0.4732119574,3.10545613612,25,5,8.386,20.160970461424,5.577428,0.671082,0.7888123612,-0.671082,0,0,190.1, -18.4, 2.3,0,0,1097,1024,1024,1024,11,0,0,0,202.1,0,0,91,4.195,4.186,0,0,0,0,3.514,99.68,19.832886461424,5.249344,6,P-GPS,
49700,2023-03-29 16:25:42,-34.9537902312286,-54.9408319001009,5.577428,5.5118112,14.649159261424,20.160970461424,6.233596,1.3645334,0.315271991716,3.2977035176,25,5,8.386,20.160970461424,5.577428,1.3645334,0.7888123612,-1.342164,-0.223694,0,190.2, -18.7, 2.8,0,0,1024,1024,1024,1024,0,0,0,0,202.1,0,0,91,4.195,4.186,0,0,0,0,3.514,99.68,20.160970461424,5.577428,6,P-GPS,
49800,2023-03-29 16:25:42,-34.9537909387761,-54.9408320495623,5.577428,5.5446196,14.616350861424,20.160970461424,6.233596,1.8119214,0.204861227028,3.5596785916,25,5,8.384,20.160970461424,5.577428,1.8119214,0.7888123612,-1.789552,-0.223694,0,190.3, -11.4, 2.8,0,0,1024,1024,1024,1024,0,0,0,0,202.1,0,0,91,4.189,4.181,0,0,0,0,3.874,99.68,20.160970461424,5.577428,6,P-GPS,
49900,2023-03-29 16:25:42,-34.9537918347574,-54.9408322670202,5.577428,5.6102364,14.550734061424,20.160970461424,6.233596,2.0356154,0.40488518356,3.8929791272,25,5,8.384,20.160970461424,5.577428,2.0356154,0.7888123612,-2.013246,-0.223694,0,190.7, 3.9, 2.4,0,0,1024,1024,1024,1024,0,0,0,0,202.1,0,0,91,4.189,4.181,0,0,0,0,3.874,99.68,20.160970461424,5.577428,6,P-GPS,
50000,2023-03-29 16:25:42,-34.953792590287,-54.9408324173447,5.577428,5.6430448,14.517925661424,20.160970461424,6.233596,1.8119214,0.66413059868,4.1722770364,25,5,8.384,20.160970461424,5.577428,2.0356154,0.7888123612,-1.789552,-0.223694,0,190.9, 6.8, 1.9,0,0,1024,1024,1024,1024,0,0,0,0,202.1,0,0,91,4.189,4.181,0,0,0,0,3.874,99.68,20.160970461424,5.577428,6,P-GPS,
50100,2023-03-29 16:25:42,-34.9537932481784,-54.940832512053,5.577428,5.6758532,14.485117261424,20.160970461424,6.233596,1.3645334,0.900344517,4.4139765192,25,5,8.384,20.160970461424,5.577428,2.0356154,0.900344517,-1.342164,-0.223694,0,190.9, 6.3, 2,0,0,1024,1024,1024,1024,0,0,0,0,202.1,0,0,91,4.189,4.181,0,0,0,0,3.874,99.68,20.160970461424,5.577428,6,P-GPS,
50200,2023-03-29 16:25:42,-34.9537938097245,-54.9408325398114,5.577428,5.7086616,14.452308861424,20.160970461424,5.905512,1.11847,1.10445541592,4.6190290192,25,5,8.384,20.160970461424,5.577428,2.0356154,1.10445541592,-1.11847,0,0,190.9, 4.8, 2.1,0,0,1024,1024,1024,1024,0,0,0,0,202.1,0,0,91,4.189,4.181,0,0,0,0,3.874,99.68,20.160970461424,5.577428,6,P-GPS,
50300,2023-03-29 16:25:42,-34.9537943135732,-54.9408325253622,5.577428,5.7086616,14.452308861424,20.160970461424,5.905512,0.671082,1.28829728532,4.8028872928,25,5,8.384,20.160970461424,5.577428,2.0356154,1.28829728532,-0.671082,0,0,190.8, 3.3, 2.2,0,0,1024,1024,1024,1024,0,0,0,0,202.1,0,0,91,4.189,4.181,0,0,0,0,3.874,99.68,20.160970461424,5.577428,6,P-GPS,
50400,2023-03-29 16:25:42,-34.9537949077452,-54.9408324690386,5.577428,5.74147,14.419500461424,20.160970461424,5.905512,0.223694,1.50562012692,5.020341368,25,5,8.384,20.160970461424,5.577428,2.0356154,1.50562012692,-0.223694,0,0,190.8, 1.7, 2.4,0,0,1108,1024,1024,1024,13,0,0,0,202.1,0,0,91,4.189,4.181,0,0,0,0,3.874,99.68,20.160970461424,5.577428,6,P-GPS,
50500,2023-03-29 16:25:42,-34.9537951262791,-54.9408325154134,5.577428,5.7742784,14.386692061424,20.160970461424,5.905512,0,1.58470149428,5.1012796908,25,5,8.384,20.160970461424,5.577428,2.0356154,1.58470149428,0,0,0,190.7, 0.1, 2.7,0,0,1369,1024,1024,1024,52,0,0,0,202.1,0,0,91,4.189,4.181,0,0,0,0,3.874,99.68,20.160970461424,5.577428,6,P-GPS,
50600,2023-03-29 16:25:42,-34.9537951823676,-54.9408324678039,5.577428,5.74147,14.419500461424,20.160970461424,5.905512,0,1.605725117,5.1261812664,25,5,8.384,20.160970461424,5.577428,2.0356154,1.605725117,0,0,0,190.6, -2.2, 2.5,0,0,1684,1024,1024,1024,100,0,0,0,202.1,0,0,91,4.189,4.181,0,0,0,0,3.874,99.68,20.160970461424,5.577428,6,P-GPS,
50700,2023-03-29 16:25:43,-34.9537951732776,-54.9408323709397,5.577428,5.74147,14.419500461424,20.160970461424,5.905512,0,1.60397642928,5.155347934,25,5,8.384,20.160970461424,5.577428,2.0356154,1.605725117,0,0,0,190.6, -6.6, 2.5,0,0,1684,1024,1024,1024,100,0,0,0,202.1,0,0,91,4.189,4.181,0,0,0,0,3.874,99.68,20.160970461424,5.577428,6,P-GPS,
50800,2023-03-29 16:25:43,-34.9537947156311,-54.9408322410564,5.249344,5.413386,14.419500461424,19.832886461424,5.905512,0.223694,1.44062340568,5.326771824,25,5,8.375,20.160970461424,5.577428,2.0356154,1.605725117,-0.223694,0,0,190.3, -14.9, 2.7,0,0,1684,1024,1024,1024,100,0,0,0,202.1,0,0,91,4.192,4.185,0,0,0,0,4.087,99.86,19.832886461424,5.249344,6,P-GPS,
50900,2023-03-29 16:25:43,-34.9537948348723,-54.9408321857218,5.577428,5.74147,14.419500461424,20.160970461424,5.905512,0.671082,1.4855807562,5.3733269436,24,5,8.375,20.160970461424,5.577428,2.0356154,1.605725117,-0.671082,0,0,190.1, -19.5, 2.6,0,0,1024,1024,1024,1024,0,0,0,0,202.1,0,0,91,4.192,4.185,0,0,0,0,4.087,99.86,20.160970461424,5.577428,6,P-GPS,
51000,2023-03-29 16:25:43,-34.9537951966751,-54.9408321925982,5.249344,5.413386,14.419500461424,19.832886461424,5.905512,1.342164,1.61671265016,5.5053479452,24,5,8.375,20.160970461424,5.577428,2.0356154,1.61671265016,-1.342164,0,0,190.3, -10.8, 2.5,0,0,1024,1024,1024,1024,0,0,0,0,202.1,0,0,91,4.192,4.185,0,0,0,0,4.087,99.86,19.832886461424,5.249344,6,P-GPS,
51100,2023-03-29 16:25:43,-34.9537957166096,-54.9408322351527,5.249344,5.4461944,14.386692061424,19.832886461424,5.905512,1.342164,1.8045932336,5.6954726232,25,5,8.375,20.160970461424,5.577428,2.0356154,1.8045932336,-1.342164,0,0,190.7, 2, 2.6,0,0,1024,1024,1024,1024,0,0,0,0,202.1,0,0,91,4.192,4.185,0,0,0,0,4.087,99.86,19.832886461424,5.249344,6,P-GPS,
51200,2023-03-29 16:25:43,-34.9537962858745,-54.9408324064376,5.249344,5.4461944,14.386692061424,19.832886461424,6.233596,1.11847,2.00875662596,5.9093833912,25,5,8.375,20.160970461424,5.577428,2.0356154,2.00875662596,-1.11847,0,0,190.9, 4.1, 2.5,0,0,1024,1024,1024,1024,0,0,0,0,202.1,0,0,91,4.192,4.185,0,0,0,0,4.087,99.86,19.832886461424,5.249344,6,P-GPS,
51300,2023-03-29 16:25:43,-34.9537967263475,-54.9408324843383,5.249344,5.5118112,14.321075261424,19.832886461424,6.233596,0.894776,2.16846791716,6.0717849712,24,5,8.375,20.160970461424,5.577428,2.0356154,2.16846791716,-0.894776,0,0,190.8, 3.3, 2.4,0,0,1024,1024,1024,1024,0,0,0,0,202.1,0,0,91,4.192,4.185,0,0,0,0,4.087,99.86,19.832886461424,5.249344,6,P-GPS,
51400,2023-03-29 16:25:43,-34.9537971570872,-54.9408325284274,5.249344,5.5118112,14.321075261424,19.832886461424,6.56168,0.671082,2.32521004816,6.22949495,24,5,8.375,20.160970461424,5.577428,2.0356154,2.32521004816,-0.671082,0,0,190.8, 2.6, 2.5,0,0,1024,1024,1024,1024,0,0,0,0,202.1,0,0,91,4.192,4.185,0,0,0,0,4.087,99.86,19.832886461424,5.249344,6,P-GPS,
51500,2023-03-29 16:25:43,-34.9537975611921,-54.9408325457543,5.249344,5.577428,14.255458461424,19.832886461424,6.56168,0.447388,2.47250335996,6.3770015164,24,5,8.375,20.160970461424,5.577428,2.0356154,2.47250335996,-0.447388,0,0,190.8, 1.4, 2.6,0,0,1024,1024,1024,1024,0,0,0,0,202.1,0,0,91,4.192,4.185,0,0,0,0,4.087,99.86,19.832886461424,5.249344,6,P-GPS,
51600,2023-03-29 16:25:43,-34.9537983704636,-54.9408327552578,5.577428,5.905512,14.255458461424,20.160970461424,6.56168,0.223694,2.76731964236,6.6788387964,24,5,8.375,20.160970461424,5.577428,2.0356154,2.76731964236,-0.223694,0,0,190.7, 0.4, 2.7,0,0,1024,1024,1024,1024,0,0,0,0,202.1,0,0,91,4.192,4.185,0,0,0,0,4.087,99.86,20.160970461424,5.577428,6,P-GPS,
51700,2023-03-29 16:25:44,-34.9537986192508,-54.9408327975759,5.577428,5.9383204,14.222650061424,20.160970461424,6.56168,0,2.85817922532,6.770505466,24,5,8.375,20.160970461424,5.577428,2.0356154,2.85817922532,0,0,0,190.7, -0.6, 2.6,0,0,1024,1024,1024,1024,0,0,0,0,202.1,0,0,91,4.192,4.185,0,0,0,0,4.087,99.86,20.160970461424,5.577428,6,P-GPS,
51800,2023-03-29 16:25:44,-34.9537986865853,-54.9408327540336,5.577428,5.9383204,14.222650061424,20.160970461424,6.56168,0,2.88265429172,6.7982941808,24,5,8.375,20.160970461424,5.577428,2.0356154,2.88265429172,0,0,0,190.6, -1.5, 2.7,0,0,1024,1024,1024,1024,0,0,0,0,202.1,0,0,91,4.192,4.185,0,0,0,0,4.087,99.86,20.160970461424,5.577428,6,P-GPS,
51900,2023-03-29 16:25:44,-34.9537986577293,-54.9408326607566,5.577428,5.9383204,14.222650061424,20.160970461424,6.56168,0,2.872129357,6.8281170164,24,5,8.35,20.160970461424,5.577428,2.0356154,2.88265429172,0,0,0,190.6, -1.9, 2.8,0,0,1024,1024,1024,1024,0,0,0,0,202.1,0,0,91,4.189,4.181,0,0,0,0,4.089,99.86,20.160970461424,5.577428,6,P-GPS,
52000,2023-03-29 16:25:44,-34.953798592103,-54.9408325421214,5.577428,5.9383204,14.222650061424,20.160970461424,6.56168,0,2.84858604916,6.87089917,24,5,8.35,20.160970461424,5.577428,2.0356154,2.88265429172,0,0,0,190.6, -2.1, 2.6,0,0,1024,1024,1024,1024,0,0,0,0,202.1,0,0,91,4.189,4.181,0,0,0,0,4.089,99.86,20.160970461424,5.577428,6,P-GPS,
52100,2023-03-29 16:25:44,-34.9537981946128,-54.9408321990918,5.577428,5.8727036,14.288266861424,20.160970461424,6.56168,0,2.70741806564,7.048556656,24,5,8.35,20.160970461424,5.577428,2.0356154,2.88265429172,0,0,0,190.5, -3.1, 2.8,0,0,1120,1024,1024,1024,15,0,0,0,202.1,0,0,91,4.189,4.181,0,0,0,0,4.089,99.86,20.160970461424,5.577428,6,P-GPS,
52200,2023-03-29 16:25:44,-34.9537981085659,-54.9408321217593,5.577428,5.8727036,14.288266861424,20.160970461424,6.56168,0,2.67749024316,7.0875330352,24,5,8.35,20.160970461424,5.577428,2.0356154,2.88265429172,0,0,0,190.5, -3.4, 2.8,0,0,1503,1024,1024,1024,73,0,0,0,202.1,0,0,91,4.189,4.181,0,0,0,0,4.089,99.86,20.160970461424,5.577428,6,P-GPS,
52300,2023-03-29 16:25:44,-34.9537980285213,-54.940832073567,5.577428,5.8727036,14.288266861424,20.160970461424,6.56168,0,2.6493439168,7.1201117764,24,5,8.35,20.160970461424,5.577428,2.0356154,2.88265429172,0,0,0,190.5, -6.6, 3.2,0,0,1684,1024,1024,1024,100,0,0,0,202.1,0,0,91,4.189,4.181,0,0,0,0,4.089,99.86,20.160970461424,5.577428,6,P-GPS,
52400,2023-03-29 16:25:44,-34.9537980684964,-54.9408320538916,5.577428,5.8727036,14.288266861424,20.160970461424,6.233596,0,2.66431767056,7.135827,24,5,8.35,20.160970461424,5.577428,2.0356154,2.88265429172,0,0,0,190.3, -13, 3.1,0,0,1684,1024,1024,1024,100,0,0,0,202.1,0,0,91,4.189,4.181,0,0,0,0,4.089,99.86,20.160970461424,5.577428,6,P-GPS,
52500,2023-03-29 16:25:44,-34.953798334602,-54.9408321639735,5.577428,5.8727036,14.288266861424,20.160970461424,6.233596,0.671082,2.75901255548,7.23835325,24,5,8.35,20.160970461424,5.577428,2.0356154,2.88265429172,-0.671082,0,0,190.1, -18.4, 2.6,0,0,1684,1024,1024,1024,100,0,0,0,202.1,0,0,91,4.189,4.181,0,0,0,0,4.089,99.86,20.160970461424,5.577428,6,P-GPS,
52600,2023-03-29 16:25:44,-34.9537987254481,-54.940832245012,5.577428,5.9383204,14.222650061424,20.160970461424,5.905512,1.11847,2.90011820304,7.3830054856,24,5,8.35,20.160970461424,5.577428,2.0356154,2.90011820304,-1.11847,0,0,190.2, -19.2, 2.6,0,0,1373,1024,1024,1024,53,0,0,0,202.1,0,0,91,4.189,4.181,0,0,0,0,4.089,99.86,20.160970461424,5.577428,6,P-GPS,
