time(millisecond),datetime(utc),latitude,longitude,height_above_takeoff(feet),height_above_ground_at_drone_location(feet),ground_elevation_at_drone_location(feet),altitude_above_seaLevel(feet),height_sonar(feet),speed(mph),distance(feet),mileage(feet),satellites,gpslevel,voltage(v),max_altitude(feet),max_ascent(feet),max_speed(mph),max_distance(feet), xSpeed(mph), ySpeed(mph), zSpeed(mph), compass_heading(degrees), pitch(degrees), roll(degrees),isPhoto,isVideo,rc_elevator,rc_aileron,rc_throttle,rc_rudder,rc_elevator(percent),rc_aileron(percent),rc_throttle(percent),rc_rudder(percent),gimbal_heading(degrees),gimbal_pitch(degrees),gimbal_roll(degrees),battery_percent,voltageCell1,voltageCell2,voltageCell3,voltageCell4,voltageCell5,voltageCell6,current(A),battery_temperature(f),altitude(feet),ascent(feet),flycStateRaw,flycState,message
0,2022-08-24 21:25:43,-34.9180566156721,-56.1686413418139,0,0,22.806109981764,22.806109981764,0.328084,0,0,0,19,5,0,22.806109981764,0,0,0,0,0,0,324.7, 2, 0.8,0,0,364,364,364,1684,-100,-100,-100,100,334.1,0,0,100,4.336,4.333,0,0,0,0,0,72.14,22.806109981764,0,41,Motors_Started,"En vuelo Aeronave en Zona de altitud restringida (150). Vuela con precaución (Code: 190001)"
100,2022-08-24 21:25:43,-34.9180566233813,-56.1686412971262,0,0,22.806109981764,22.806109981764,0.328084,0,0.0136617130356,0.0136617130356,19,5,0,22.806109981764,0,0,0.0136617130356,0,0,0,325.8, 0, 0.5,0,0,364,364,364,1684,-100,-100,-100,100,335.2,0,0,100,4.336,4.333,0,0,0,0,0,72.14,22.806109981764,0,41,Motors_Started,
200,2022-08-24 21:25:43,-34.9180565923497,-56.1686412634015,0,0,22.806109981764,22.806109981764,0.328084,0,0.0249539378064,0.028826772576,19,5,0,22.806109981764,0,0,0.0249539378064,0,0,0,324.9, -0.6, -0.1,0,0,1024,1024,597,1284,0,0,-65,39,335.8,0,0,100,4.336,4.333,0,0,0,0,0,72.14,22.806109981764,0,41,Motors_Started,
300,2022-08-24 21:25:44,-34.9180565729907,-56.168641205543,0,0,22.806109981764,22.806109981764,0.328084,0,0.043640421344,0.047521655064,19,5,0,22.806109981764,0,0,0.043640421344,0,0,0,325, -1.3, -0.2,0,0,1024,1024,929,1024,0,0,-14,0,335.7,0,0,100,4.336,4.333,0,0,0,0,0,72.14,22.806109981764,0,41,Motors_Started,
400,2022-08-24 21:25:44,-34.9180564210661,-56.1686410568168,0,-0.032808399999999,22.838918381764,22.806109981764,0.328084,0,0.110954071792,0.118600069412,19,5,0,22.806109981764,0,0,0.110954071792,0,0,0,325, 0.4, 1,0,0,1024,1024,1024,1024,0,0,0,0,335.6,0,0,100,4.336,4.333,0,0,0,0,0,72.14,22.806109981764,0,41,Motors_Started,
500,2022-08-24 21:25:44,-34.9180564536435,-56.1686409981335,0,-0.032808399999999,22.838918381764,22.806109981764,0.328084,0,0.11860072558,0.139801185576,19,5,0,22.806109981764,0,0,0.11860072558,0,0,0,325.1, 0.7, 1.8,0,0,1024,1024,1024,1024,0,0,0,0,335.6,0,0,100,4.336,4.333,0,0,0,0,0,72.14,22.806109981764,0,41,Motors_Started,
600,2022-08-24 21:25:44,-34.9180564974259,-56.1686409681731,0,-0.032808399999999,22.838918381764,22.806109981764,0.328084,0,0.119817261052,0.158118115296,19,5,0,22.806109981764,0,0,0.119817261052,0,0,0,326.9, 1.1, 2,0,0,1024,1024,1024,1024,0,0,0,0,336.2,0,0,100,4.336,4.333,0,0,0,0,0,72.14,22.806109981764,0,41,Motors_Started,
700,2022-08-24 21:25:44,-34.9180565086857,-56.1686409269844,0,0,22.806109981764,22.806109981764,0.328084,0,0.13009678894,0.171106960856,19,5,0,22.806109981764,0,0,0.13009678894,0,0,0,325.8, 0.9, 2.6,0,0,1024,1024,1024,1024,0,0,0,0,336.8,0,0,100,4.336,4.333,0,0,0,0,0,72.14,22.806109981764,0,41,Motors_Started,"Setting new Return-To-Home altitude to 100m (328 ft). Data Recorder File Index is 14. Setting new Maximum Flight Altitude to 120m (394 ft)"
800,2022-08-24 21:25:44,-34.9180565277051,-56.1686407702757,0,0,22.806109981764,22.806109981764,0.328084,0,0.173971134176,0.218500006992,19,5,0,22.806109981764,0,0,0.173971134176,0,0,0,326.3, 0.4, 2.4,0,0,1024,1024,1024,1024,0,0,0,0,336.4,0,0,100,4.336,4.333,0,0,0,0,0,72.14,22.806109981764,0,41,Motors_Started,
900,2022-08-24 21:25:44,-34.9180565582116,-56.1686407242658,-0.328084,-0.328084,22.806109981764,22.478025981764,0.328084,0,0.18593504532,0.236201451128,19,5,0,22.806109981764,0,0,0.18593504532,0,0,0,326.9, -0.1, 2.3,0,0,1024,1024,1300,1024,0,0,42,0,337,0,0,100,4.336,4.333,0,0,0,0,0,72.14,22.478025981764,-0.328084,41,Motors_Started,
1000,2022-08-24 21:25:44,-34.9180565812362,-56.1686406802997,-0.328084,-0.328084,22.806109981764,22.478025981764,0.328084,0,0.198301187448,0.251808407008,19,5,0,22.806109981764,0,0,0.198301187448,0,0,0,326.8, -0.8, 2.6,0,0,1024,1024,1684,1024,0,0,100,0,337.1,0,0,100,4.336,4.333,0,0,0,0,0,72.14,22.478025981764,-0.328084,41,Motors_Started,
1100,2022-08-24 21:25:44,-34.918056605809,-56.1686406717582,-0.328084,-0.328084,22.806109981764,22.478025981764,0.328084,0,0.200490163896,0.261130585784,19,5,8.672,22.806109981764,0,0,0.200490163896,0,0,0,327.4, -0.7, 2.5,0,0,1024,1024,1452,1019,0,0,65,-1,337.5,0,0,100,4.336,4.333,0,0,0,0,0.925,72.14,22.478025981764,-0.328084,10,Assisted_Takeoff,
1200,2022-08-24 21:25:44,-34.918056680898,-56.1686407627999,-0.328084,-0.328084,22.806109981764,22.478025981764,0.328084,0,0.174848430792,0.2997621487,19,5,8.672,22.806109981764,0,0,0.200490163896,0,0,0,327.6, -0.6, 1.9,0,0,1024,1024,1024,1024,0,0,0,0,337.8,0,0,100,4.336,4.333,0,0,0,0,0.925,72.14,22.478025981764,-0.328084,10,Assisted_Takeoff,
1300,2022-08-24 21:25:45,-34.9180567180702,-56.1686407494703,-0.328084,-0.328084,22.806109981764,22.478025981764,0.328084,0,0.181104664588,0.313898632092,19,5,8.672,22.806109981764,0,0,0.200490163896,0,0,0,327.8, -0.8, 1.4,0,0,1024,1024,1024,1024,0,0,0,0,338.1,0,0,100,4.336,4.333,0,0,0,0,0.925,72.14,22.478025981764,-0.328084,10,Assisted_Takeoff,
1400,2022-08-24 21:25:45,-34.9180567631786,-56.1686407261412,-0.328084,-0.328084,22.806109981764,22.478025981764,0.328084,0,0.19188976992,0.331774945,19,5,8.672,22.806109981764,0,0,0.200490163896,0,0,0,327.9, -1.2, 1.5,0,0,1024,1024,1215,1024,0,0,29,0,338.1,0,0,100,4.336,4.333,0,0,0,0,0.925,72.14,22.478025981764,-0.328084,10,Assisted_Takeoff,
1500,2022-08-24 21:25:45,-34.918056772007,-56.1686406934329,-0.328084,-0.328084,22.806109981764,22.478025981764,0.328084,0,0.202186030092,0.3420767826,19,5,8.672,22.806109981764,0,0,0.202186030092,0,0,0,329, -1.5, 1.5,0,0,1024,1024,1215,1024,0,0,29,0,338.8,0,0,100,4.336,4.333,0,0,0,0,0.925,72.14,22.478025981764,-0.328084,10,Assisted_Takeoff,
1600,2022-08-24 21:25:45,-34.9180567470061,-56.1686406666892,-0.328084,-0.328084,22.806109981764,22.478025981764,0.328084,0,0.207580715304,0.35420932892,19,5,8.672,22.806109981764,0,0,0.207580715304,0,0,0,330, -1.1, 2.4,0,0,1024,1024,1684,1024,0,0,100,0,340,0,0,100,4.336,4.333,0,0,0,0,0.925,72.14,22.478025981764,-0.328084,10,Assisted_Takeoff,
1700,2022-08-24 21:25:45,-34.9180567299064,-56.1686406128596,-0.328084,-0.328084,22.806109981764,22.478025981764,0.328084,0,0.222025269572,0.37147967068,19,5,8.672,22.806109981764,0,0,0.222025269572,0,0,0,329.3, -1, 1.7,0,0,1024,1024,1684,1024,0,0,100,0,340.2,0,0,100,4.336,4.333,0,0,0,0,0.925,72.14,22.478025981764,-0.328084,10,Assisted_Takeoff,
1800,2022-08-24 21:25:45,-34.9180567218375,-56.1686406298252,-0.328084,-0.328084,22.806109981764,22.478025981764,0.328084,0,0.21649606992,0.37734909344,19,5,8.672,22.806109981764,0,0,0.222025269572,0,0,0,329.5, -1, 0.9,0,0,1024,1024,1684,1024,0,0,100,0,340,0,0,100,4.336,4.333,0,0,0,0,0.925,72.14,22.478025981764,-0.328084,10,Assisted_Takeoff,
1900,2022-08-24 21:25:45,-34.9180567163516,-56.1686405982988,-0.328084,-0.328084,22.806109981764,22.478025981764,0.328084,0,0.225447185692,0.38698820136,19,5,8.672,22.806109981764,0,0,0.225447185692,0,0,0,329.3, -0.4, 1.4,0,0,1024,1024,1684,1024,0,0,100,0,340,0,0,100,4.336,4.333,0,0,0,0,0.925,72.14,22.478025981764,-0.328084,10,Assisted_Takeoff,
2000,2022-08-24 21:25:45,-34.9180566905612,-56.1686405462991,-0.328084,-0.328084,22.806109981764,22.478025981764,0.328084,0,0.239554469608,0.40517061664,19,5,8.672,22.806109981764,0,0,0.239554469608,0,0,0,329.3, 0.1, 2.1,0,0,1024,1024,1684,1024,0,0,100,0,339.9,0,0,100,4.336,4.333,0,0,0,0,0.925,72.14,22.478025981764,-0.328084,10,Assisted_Takeoff,
2100,2022-08-24 21:25:45,-34.9180565317128,-56.1686404544223,-0.328084,-0.3937008,22.871726781764,22.478025981764,0.328084,0,0.267238853696,0.46931431948,19,5,8.638,22.806109981764,0,0,0.267238853696,0,0,0,329.6, 0.6, 1.1,0,0,1024,1024,1684,1024,0,0,100,0,339.9,0,0,100,4.329,4.323,0,0,0,0,1.545,72.32,22.478025981764,-0.328084,10,Assisted_Takeoff,
2200,2022-08-24 21:25:45,-34.918056418998,-56.1686404531179,-0.328084,-0.4265092,22.904535181764,22.478025981764,0.328084,0,0.275380914324,0.51043964888,19,5,8.638,22.806109981764,0,0,0.275380914324,0,0,-0.223694,330.5, 0.5, 0.7,0,0,1024,1024,1684,1024,0,0,100,0,340.4,0,0,100,4.329,4.323,0,0,0,0,1.545,72.32,22.478025981764,-0.328084,10,Assisted_Takeoff,
2300,2022-08-24 21:25:46,-34.9180563633789,-56.1686404408488,0,-0.098425199999998,22.904535181764,22.806109981764,0.328084,0,0.284822515676,0.53105972828,19,5,8.638,22.806109981764,0,0,0.284822515676,0,0,-0.671082,330.6, 0.4, 0.4,0,0,1024,1024,1684,1024,0,0,100,0,340.7,0,0,100,4.329,4.323,0,0,0,0,1.545,72.32,22.806109981764,0,6,P-GPS,
2400,2022-08-24 21:25:46,-34.9180563427237,-56.16864041232,0,-0.098425199999998,22.904535181764,22.806109981764,0.656168,0,0.29536746352,0.54244752392,19,5,8.638,22.806109981764,0,0,0.29536746352,0,0,-1.342164,330.4, 0.3, -0.1,0,0,1024,1024,1684,1024,0,0,100,0,340.7,0,0,100,4.329,4.323,0,0,0,0,1.545,72.32,22.806109981764,0,6,P-GPS,
2500,2022-08-24 21:25:46,-34.9180560783307,-56.1686404769721,0,-0.098425199999998,22.904535181764,22.806109981764,1.312336,0,0.324618120624,0.640830073,19,5,8.638,22.806109981764,0,0,0.324618120624,0,0,-2.013246,330.3, 0, -0.2,0,0,1024,1024,1684,1024,0,0,100,0,340.7,0,0,100,4.329,4.323,0,0,0,0,1.545,72.32,22.806109981764,0,6,P-GPS,
2600,2022-08-24 21:25:46,-34.9180560054725,-56.1686404420361,0.328084,0.2296588,22.904535181764,23.134193981764,1.64042,0,0.34932087732,0.66939306604,19,5,8.638,23.134193981764,0.328084,0,0.34932087732,0,0,-2.908022,330.3, -0.3, -0.1,0,0,1024,1024,1684,1024,0,0,100,0,340.7,0,0,100,4.329,4.323,0,0,0,0,1.545,72.32,23.134193981764,0.328084,6,P-GPS,
2700,2022-08-24 21:25:46,-34.9180559359066,-56.1686404086524,0.984252,0.8858268,22.904535181764,23.790361981764,2.296588,0,0.3734252088,0.6966699698,19,5,8.638,23.790361981764,0.984252,0,0.3734252088,0,0,-3.579104,330.3, -0.1, -0.2,0,0,1024,1024,1684,1024,0,0,100,0,340.7,0,0,100,4.329,4.323,0,0,0,0,1.545,72.32,23.790361981764,0.984252,6,P-GPS,
2800,2022-08-24 21:25:46,-34.9180558680103,-56.1686403755889,1.64042,1.5419948,22.904535181764,24.446529981764,3.28084,0,0.39745080012,0.723343199,19,5,8.638,24.446529981764,1.64042,0,0.39745080012,0,0,-4.250186,330.4, 0.1, -0.2,0,0,1024,1024,1684,1024,0,0,100,0,340.7,0,0,100,4.329,4.323,0,0,0,0,1.545,72.32,24.446529981764,1.64042,6,P-GPS,
2900,2022-08-24 21:25:46,-34.9180557903543,-56.1686404079092,2.296588,2.1981628,22.904535181764,25.102697981764,3.937008,0,0.41077101052,0.753280864,19,5,8.638,25.102697981764,2.296588,0,0.41077101052,0,0,-5.144962,330.3, 0, -0.2,0,0,1024,1024,1684,1024,0,0,100,0,340.7,0,0,100,4.329,4.323,0,0,0,0,1.545,72.32,25.102697981764,2.296588,6,P-GPS,
3000,2022-08-24 21:25:46,-34.9180557956923,-56.1686404186953,2.952756,2.8543308,22.904535181764,25.758865981764,4.92126,0,0.40714896316,0.75705054916,19,5,8.638,25.758865981764,2.952756,0,0.41077101052,0,0,-5.816044,330.3, -0.3, 0.2,0,0,1024,1024,1684,1024,0,0,100,0,340.7,0,0,100,4.329,4.323,0,0,0,0,1.545,72.32,25.758865981764,2.952756,6,P-GPS,
3100,2022-08-24 21:25:46,-34.9180558000651,-56.1686404119525,3.937008,3.8385828,22.904535181764,26.743117981764,5.905512,0,0.40735237524,0.75962272772,19,5,8.424,26.743117981764,3.937008,0,0.41077101052,0,0,-6.263432,330.2, -0.5, 0,0,0,1024,1024,1684,1024,0,0,100,0,340.7,0,0,100,4.202,4.192,0,0,0,0,4.316,72.32,26.743117981764,3.937008,6,P-GPS,
3200,2022-08-24 21:25:46,-34.918055802822,-56.1686403989773,4.92126,4.8228348,22.904535181764,27.727369981764,6.889764,0,0.40928479,0.7636319142,19,5,8.424,27.727369981764,4.92126,0,0.41077101052,0,0,-6.487126,330.2, -0.3, -0.2,0,0,1024,1024,1684,1024,0,0,100,0,340.7,0,0,100,4.202,4.192,0,0,0,0,4.316,72.32,27.727369981764,4.92126,6,P-GPS,
3300,2022-08-24 21:25:47,-34.9180557246022,-56.1686404845981,5.905512,5.8070868,22.904535181764,28.711621981764,7.874016,0,0.41407809724,0.80197837212,19,5,8.424,28.711621981764,5.905512,0,0.41407809724,0,0,-6.71082,330.2, 0, -0.1,0,0,1024,1024,1684,1024,0,0,100,0,340.7,0,0,100,4.202,4.192,0,0,0,0,4.316,72.32,28.711621981764,5.905512,6,P-GPS,
3400,2022-08-24 21:25:47,-34.9180554311435,-56.1686407879741,7.217848,7.1850396,22.838918381764,30.023957981764,8.858268,0,0.46284778384,0.942339269,19,5,8.424,30.023957981764,7.217848,0,0.46284778384,0,0,-6.71082,330.3, 0.6, -0.2,0,0,1024,1024,1684,1024,0,0,100,0,340.7,0,0,100,4.202,4.192,0,0,0,0,4.316,72.32,30.023957981764,7.217848,6,P-GPS,
3500,2022-08-24 21:25:47,-34.918055341593,-56.1686409053293,8.2021,8.1692916,22.838918381764,31.008209981764,9.84252,0,0.4828412228,0.99029858812,19,5,8.424,31.008209981764,8.2021,0,0.4828412228,0,0,-6.71082,330.2, 0.5, 0,0,0,1024,1024,1684,1022,0,0,100,-0,340.7,0,0,100,4.202,4.192,0,0,0,0,4.316,72.32,31.008209981764,8.2021,6,P-GPS,
3600,2022-08-24 21:25:47,-34.9180552649893,-56.1686410236313,9.186352,9.1535436,22.838918381764,31.992461981764,10.826772,0,0.50190618404,1.03539701476,20,5,8.424,31.992461981764,9.186352,0,0.50190618404,0,0,-6.71082,330.1, 0.2, 0.4,0,0,1024,1024,1684,1024,0,0,100,0,340.7,0,0,100,4.202,4.192,0,0,0,0,4.316,72.32,31.992461981764,9.186352,6,P-GPS,
3700,2022-08-24 21:25:47,-34.918055303614,-56.1686411498112,10.170604,10.1377956,22.838918381764,32.976713981764,11.811024,0,0.48213912304,1.0756890108,20,5,8.424,32.976713981764,10.170604,0,0.50190618404,0,0,-6.71082,330.2, 0, 0.2,0,0,1024,1024,1684,1024,0,0,100,0,340.7,0,0,100,4.202,4.192,0,0,0,0,4.316,72.32,32.976713981764,10.170604,6,P-GPS,
3800,2022-08-24 21:25:47,-34.9180554061974,-56.1686414726978,11.154856,11.1220476,22.838918381764,33.960965981764,12.467192,0,0.44300854436,1.1792815338,20,5,8.424,33.960965981764,11.154856,0,0.50190618404,0,0,-6.71082,330.2, 0.6, -0.3,0,0,1024,1024,1650,1024,0,0,95,0,340.7,0,0,100,4.202,4.192,0,0,0,0,4.316,72.32,33.960965981764,11.154856,6,P-GPS,
3900,2022-08-24 21:25:47,-34.9180554469749,-56.1686416330984,12.139108,12.1719164,22.773301581764,34.945217981764,13.451444,0,0.43521326852,1.22952431756,20,5,8.424,34.945217981764,12.139108,0,0.50190618404,0,0,-6.487126,330.3, 0.4, -0.2,0,0,1024,1024,1024,1024,0,0,0,0,340.7,0,0,100,4.202,4.192,0,0,0,0,4.316,72.32,34.945217981764,12.139108,6,P-GPS,
4000,2022-08-24 21:25:47,-34.9180554618999,-56.1686418176544,13.12336,13.1561684,22.773301581764,35.929469981764,14.435696,0,0.4443733738,1.28500332196,20,5,8.424,35.929469981764,13.12336,0,0.50190618404,0,0,-6.263432,330.3, 0.5, -0.3,0,0,1024,1024,1024,1024,0,0,0,0,340.7,0,0,100,4.202,4.192,0,0,0,0,4.316,72.32,35.929469981764,13.12336,6,P-GPS,
4100,2022-08-24 21:25:47,-34.9180554954361,-56.1686419328841,14.107612,14.1404204,22.773301581764,36.913721981764,15.091864,0,0.44532809824,1.32158468796,20,5,8.437,36.913721981764,14.107612,0,0.50190618404,0,0,-5.59235,330.3, 0.7, -0.6,0,0,1024,1024,1024,1024,0,0,0,0,340.7,0,0,100,4.231,4.224,0,0,0,0,5.7,72.32,36.913721981764,14.107612,6,P-GPS,
4200,2022-08-24 21:25:47,-34.9180554812894,-56.1686420646216,14.76378,14.7965884,22.773301581764,37.569889981764,15.748032,0,0.46696523804,1.36133206456,20,5,8.437,37.569889981764,14.76378,0,0.50190618404,0,0,-4.921268,330.3, 0.9, -0.8,0,0,1024,1024,1024,1024,0,0,0,0,340.7,0,0,100,4.231,4.224,0,0,0,0,5.7,72.32,37.569889981764,14.76378,6,P-GPS,
4300,2022-08-24 21:25:47,-34.918055467856,-56.1686421277099,15.419948,15.4527564,22.773301581764,38.226057981764,16.4042,0,0.4802657634,1.38083009668,20,5,8.437,38.226057981764,15.419948,0,0.50190618404,0,0,-4.250186,330.4, 0.7, -0.7,0,0,1024,1024,1024,1024,0,0,0,0,340.7,0,0,100,4.231,4.224,0,0,0,0,5.7,72.32,38.226057981764,15.419948,6,P-GPS,
4400,2022-08-24 21:25:48,-34.9180554304262,-56.1686421911104,16.076116,16.1089244,22.773301581764,38.882225981764,16.732284,0,0.50155513416,1.40420280084,20,5,8.437,38.882225981764,16.076116,0,0.50190618404,0,0,-3.35541,330.4, 0.5, -0.7,0,0,1024,1024,1024,1024,0,0,0,0,340.7,0,0,100,4.231,4.224,0,0,0,0,5.7,72.32,38.882225981764,16.076116,6,P-GPS,
4500,2022-08-24 21:25:48,-34.9180554646199,-56.1686422831733,16.4042,16.4370084,22.773301581764,39.210309981764,17.060368,0,0.50564634164,1.43443902228,20,5,8.437,39.210309981764,16.4042,0,0.50564634164,0,0,-2.460634,330.4, 0.6, -0.7,0,0,1024,1024,1024,1024,0,0,0,0,340.7,0,0,100,4.231,4.224,0,0,0,0,5.7,72.32,39.210309981764,16.4042,6,P-GPS,
4600,2022-08-24 21:25:48,-34.9180553911901,-56.1686422854681,16.732284,16.7650924,22.773301581764,39.538393981764,17.388452,0,0.52847442636,1.46124020424,20,5,8.437,39.538393981764,16.732284,0,0.52847442636,0,0,-1.789552,330.4, 0.5, -0.6,0,0,1024,1024,1024,1024,0,0,0,0,340.7,0,0,100,4.231,4.224,0,0,0,0,5.7,72.32,39.538393981764,16.732284,6,P-GPS,
4700,2022-08-24 21:25:48,-34.9180555302856,-56.1686423786192,17.060368,17.0931764,22.773301581764,39.866477981764,17.716536,0,0.5030183888,1.51913718772,20,5,8.437,39.866477981764,17.060368,0,0.52847442636,0,0,-0.894776,330.5, 0.4, -0.7,0,0,1024,1024,1024,1024,0,0,0,0,340.7,0,0,100,4.231,4.224,0,0,0,0,5.7,72.32,39.866477981764,17.060368,6,P-GPS,
4800,2022-08-24 21:25:48,-34.9180557113226,-56.1686424720714,17.060368,17.0931764,22.773301581764,39.866477981764,17.716536,0,0.47244424084,1.59085963096,20,5,8.437,39.866477981764,17.060368,0,0.52847442636,0,0,-0.447388,330.5, 0.3, -0.5,0,0,1024,1024,1024,1024,0,0,0,0,340.7,0,0,100,4.231,4.224,0,0,0,0,5.7,72.32,39.866477981764,17.060368,6,P-GPS,
4900,2022-08-24 21:25:48,-34.9180557911921,-56.1686426181559,17.060368,17.1587932,22.707684781764,39.866477981764,17.716536,0,0.48609581608,1.6433891602,20,5,8.437,39.866477981764,17.060368,0,0.52847442636,0,0,0,330.6, 0.1, -0.3,0,0,1024,1024,1024,1024,0,0,0,0,340.7,0,0,100,4.231,4.224,0,0,0,0,5.7,72.32,39.866477981764,17.060368,6,P-GPS,
5000,2022-08-24 21:25:48,-34.9180558239657,-56.1686428054009,17.388452,17.4868772,22.707684781764,40.194561981764,17.716536,0,0.52455054172,1.70066606492,20,5,8.437,40.194561981764,17.388452,0,0.52847442636,0,0,0,330.6, 0.1, -0.2,0,0,1024,1024,1024,1024,0,0,0,0,340.7,0,0,100,4.231,4.224,0,0,0,0,5.7,72.32,40.194561981764,17.388452,6,P-GPS,
5100,2022-08-24 21:25:48,-34.9180558966045,-56.1686429774143,17.388452,17.4868772,22.707684781764,40.194561981764,17.716536,0,0.55520999152,1.75854992504,20,5,8.549,40.194561981764,17.388452,0,0.55520999152,0,0,0,330.7, 0, 0,0,0,1024,1024,1024,1024,0,0,0,0,340.7,0,0,100,4.265,4.257,0,0,0,0,3.48,72.32,40.194561981764,17.388452,6,P-GPS,
5200,2022-08-24 21:25:48,-34.9180559988211,-56.1686431384603,17.388452,17.4868772,22.707684781764,40.194561981764,17.716536,0,0.5827099924,1.81947840468,20,5,8.549,40.194561981764,17.388452,0,0.5827099924,0,0,0,330.7, 0, 0.2,0,0,1024,1024,1024,1024,0,0,0,0,340.7,0,0,100,4.265,4.257,0,0,0,0,3.48,72.32,40.194561981764,17.388452,6,P-GPS,
5300,2022-08-24 21:25:49,-34.9180561045092,-56.168643337511,17.388452,17.4868772,22.707684781764,40.194561981764,17.716536,0,0.62549542684,1.89042328884,20,5,8.549,40.194561981764,17.388452,0,0.62549542684,0,0,0,330.7, 0, 0.2,0,0,1024,1024,1024,1024,0,0,0,0,340.7,0,0,100,4.265,4.257,0,0,0,0,3.48,72.32,40.194561981764,17.388452,6,P-GPS,
5400,2022-08-24 21:25:49,-34.9180562168739,-56.1686435690391,17.388452,17.5853024,22.609259581764,40.194561981764,17.716536,0,0.68201117668,1.97090885572,20,5,8.549,40.194561981764,17.388452,0,0.68201117668,0,0,0,330.7, 0, 0.2,0,0,1024,1024,1024,1024,0,0,0,0,340.7,0,0,100,4.265,4.257,0,0,0,0,3.48,72.32,40.194561981764,17.388452,6,P-GPS,
5500,2022-08-24 21:25:49,-34.9180563581349,-56.168643928613,17.388452,17.5853024,22.609259581764,40.194561981764,17.716536,0,0.77956695408,2.0901903556,20,5,8.549,40.194561981764,17.388452,0,0.77956695408,0,0,0,330.7, -0.1, 0.5,0,0,1024,1024,1024,1024,0,0,0,0,340.7,0,0,100,4.265,4.257,0,0,0,0,3.48,72.32,40.194561981764,17.388452,6,P-GPS,
5600,2022-08-24 21:25:49,-34.9180564531578,-56.1686442183509,17.388452,17.5853024,22.609259581764,40.194561981764,17.716536,0,0.86260173364,2.1835466578,20,5,8.549,40.194561981764,17.388452,0,0.86260173364,0,0,0,330.7, 0, 0.6,0,0,1024,1024,1024,1024,0,0,0,0,340.7,0,0,100,4.265,4.257,0,0,0,0,3.48,72.32,40.194561981764,17.388452,6,P-GPS,
5700,2022-08-24 21:25:49,-34.91805653339,-56.1686444574156,17.388452,17.6181108,22.576451181764,40.194561981764,17.716536,0,0.93256564664,2.260826844,20,5,8.549,40.194561981764,17.388452,0,0.93256564664,0,0,0,330.8, 0, 0.5,0,0,1024,1024,1024,1024,0,0,0,0,340.7,0,0,100,4.265,4.257,0,0,0,0,3.48,72.32,40.194561981764,17.388452,6,P-GPS,
5800,2022-08-24 21:25:49,-34.9180566090685,-56.1686446817245,17.388452,17.6837276,22.510834381764,40.194561981764,17.716536,0,0.99918966452,2.33338918228,20,5,8.549,40.194561981764,17.388452,0,0.99918966452,0,0,0,330.8, 0, 0.5,0,0,1024,1024,1024,1024,0,0,0,0,340.7,0,0,100,4.265,4.257,0,0,0,0,3.48,72.32,40.194561981764,17.388452,6,P-GPS,
5900,2022-08-24 21:25:49,-34.9180565736181,-56.1686451424188,17.388452,17.6837276,22.510834381764,40.194561981764,17.716536,0,1.13711617812,2.47182094524,20,5,8.549,40.194561981764,17.388452,0,1.13711617812,0,0,0,330.9, 0, 1,0,0,1024,1024,1024,1024,0,0,0,0,340.7,0,0,100,4.265,4.257,0,0,0,0,3.48,72.32,40.194561981764,17.388452,6,P-GPS,
6000,2022-08-24 21:25:49,-34.9180565885955,-56.1686453762593,17.716536,18.0118116,22.510834381764,40.522645981764,17.716536,0,1.20701119348,2.54199155116,20,5,8.549,40.522645981764,17.716536,0,1.20701119348,0,0,0,330.9, -0.1, 1.2,0,0,1024,1024,1024,1024,0,0,0,0,340.7,0,0,100,4.265,4.257,0,0,0,0,3.48,72.32,40.522645981764,17.716536,6,P-GPS,
6100,2022-08-24 21:25:49,-34.9180565845167,-56.1686455814144,17.716536,18.0774284,22.445217581764,40.522645981764,17.716536,0,1.26839570988,2.60338262924,20,5,8.549,40.522645981764,17.716536,0,1.26839570988,0,0,0,330.8, -0.1, 0.9,0,0,1024,1024,1024,1024,0,0,0,0,340.7,0,0,100,4.265,4.257,0,0,0,0,3.48,72.32,40.522645981764,17.716536,6,P-GPS,
6200,2022-08-24 21:25:49,-34.918056566946,-56.1686457811294,17.716536,18.0774284,22.445217581764,40.522645981764,17.716536,0,1.32821198476,2.66347449468,20,5,8.487,40.522645981764,17.716536,0,1.32821198476,0,0,0,330.8, -0.2, 0.4,0,0,1024,1024,1024,1024,0,0,0,0,340.7,0,0,99,4.244,4.238,0,0,0,0,3.74,72.32,40.522645981764,17.716536,6,P-GPS,
6300,2022-08-24 21:25:50,-34.9180564844972,-56.1686458289939,17.716536,18.04462,22.478025981764,40.522645981764,17.716536,0,1.34326447868,2.69679142488,20,5,8.487,40.522645981764,17.716536,0,1.34326447868,0,0,0,330.7, -0.4, 0.3,0,0,1024,1024,1024,1024,0,0,0,0,340.7,0,0,99,4.244,4.238,0,0,0,0,3.74,72.32,40.522645981764,17.716536,6,P-GPS,
6400,2022-08-24 21:25:50,-34.9180564690258,-56.1686459345191,17.716536,18.04462,22.478025981764,40.522645981764,17.716536,0,1.37502300988,2.72886163588,20,5,8.487,40.522645981764,17.716536,0,1.37502300988,0,0,0,330.7, -0.4, 0.8,0,0,1024,1024,1024,1024,0,0,0,0,340.7,0,0,99,4.244,4.238,0,0,0,0,3.74,72.32,40.522645981764,17.716536,6,P-GPS,
6500,2022-08-24 21:25:50,-34.9180564896912,-56.1686460212786,17.716536,18.04462,22.478025981764,40.522645981764,17.716536,0,1.40069230204,2.7558891958,20,5,8.487,40.522645981764,17.716536,0,1.40069230204,0,0,0,330.7, 0, 0.6,0,0,1024,1024,1024,1024,0,0,0,0,340.7,0,0,99,4.244,4.238,0,0,0,0,3.74,72.32,40.522645981764,17.716536,6,P-GPS,
6600,2022-08-24 21:25:50,-34.9180565238185,-56.1686461070262,17.716536,18.0774284,22.445217581764,40.522645981764,17.716536,0,1.4259842976,2.78440297624,20,5,8.487,40.522645981764,17.716536,0,1.4259842976,0,0,0,330.8, 0.3, 0.6,0,0,1024,1024,1024,1024,0,0,0,0,340.7,0,0,99,4.244,4.238,0,0,0,0,3.74,72.32,40.522645981764,17.716536,6,P-GPS,
6700,2022-08-24 21:25:50,-34.918056513302,-56.1686462049718,17.716536,18.0774284,22.445217581764,40.522645981764,17.716536,0,1.45537078148,2.81395678296,20,5,8.487,40.522645981764,17.716536,0,1.45537078148,0,0,0,330.9, 0.5, 0.7,0,0,1024,1024,1024,1024,0,0,0,0,340.7,0,0,99,4.244,4.238,0,0,0,0,3.74,72.32,40.522645981764,17.716536,6,P-GPS,
6800,2022-08-24 21:25:50,-34.9180565643883,-56.1686462195002,17.716536,18.0774284,22.445217581764,40.522645981764,18.04462,0,1.45935700208,2.83309392268,20,5,8.487,40.522645981764,17.716536,0,1.45935700208,0,0,0,330.9, 0.7, 0.9,0,0,1024,1024,1024,1024,0,0,0,0,340.7,0,0,99,4.244,4.238,0,0,0,0,3.74,72.32,40.522645981764,17.716536,6,P-GPS,
6900,2022-08-24 21:25:50,-34.9180564926932,-56.1686463732501,17.716536,18.04462,22.478025981764,40.522645981764,18.04462,0,1.50590227916,2.88601059104,20,5,8.487,40.522645981764,17.716536,0,1.50590227916,0,0,0,330.9, 0.8, 1.1,0,0,1024,1024,1024,1024,0,0,0,0,340.7,0,0,99,4.244,4.238,0,0,0,0,3.74,72.32,40.522645981764,17.716536,6,P-GPS,
7000,2022-08-24 21:25:50,-34.9180563990393,-56.1686465477713,17.716536,18.1102368,22.412409181764,40.522645981764,18.04462,0,1.5594488688,2.948408887,20,5,8.487,40.522645981764,17.716536,0,1.5594488688,0,0,0,331, 0.8, 1.3,0,0,1024,1024,1024,1024,0,0,0,0,340.7,0,0,99,4.244,4.238,0,0,0,0,3.74,72.32,40.522645981764,17.716536,6,P-GPS,
7100,2022-08-24 21:25:50,-34.9180562783028,-56.1686467190867,17.716536,18.1102368,22.412409181764,40.522645981764,18.04462,0,1.61339900176,3.01598762932,20,5,8.487,40.522645981764,17.716536,0,1.61339900176,0,0,0,331, 0.9, 1.5,0,0,1024,1024,1024,1024,0,0,0,0,340.7,0,0,99,4.244,4.238,0,0,0,0,3.74,72.32,40.522645981764,17.716536,6,P-GPS,
7200,2022-08-24 21:25:50,-34.9180559086884,-56.1686471052584,17.716536,18.1102368,22.412409181764,40.522645981764,18.04462,0,1.74341541012,3.19356309432,20,5,8.473,40.522645981764,17.716536,0,1.74341541012,0,0,0,331, 1.1, 1.7,0,0,1024,1024,1024,1024,0,0,0,0,340.7,0,0,99,4.239,4.233,0,0,0,0,4.092,72.32,40.522645981764,17.716536,6,P-GPS,
7300,2022-08-24 21:25:51,-34.9180558147178,-56.1686472800627,17.716536,18.1102368,22.412409181764,40.522645981764,18.04462,0,1.80039703924,3.25609590472,20,5,8.473,40.522645981764,17.716536,0,1.80039703924,0,0,0,331, 1, 1.6,0,0,1024,1024,1024,1024,0,0,0,0,340.7,0,0,99,4.239,4.233,0,0,0,0,4.092,72.32,40.522645981764,17.716536,6,P-GPS,
7400,2022-08-24 21:25:51,-34.9180557386617,-56.1686474530671,17.716536,18.1102368,22.412409181764,40.522645981764,18.04462,0,1.8560696132,3.3148295024,20,5,8.473,40.522645981764,17.716536,0,1.8560696132,0,0,0,331, 0.9, 1.4,0,0,1024,1024,1024,1024,0,0,0,0,340.7,0,0,99,4.239,4.233,0,0,0,0,4.092,72.32,40.522645981764,17.716536,6,P-GPS,
7500,2022-08-24 21:25:51,-34.9180556190444,-56.1686475812293,17.716536,18.1758536,22.346792381764,40.522645981764,18.04462,0,1.90170937844,3.3729003704,20,5,8.473,40.522645981764,17.716536,0,1.90170937844,0,0,0,330.9, 0.8, 1.1,0,0,1024,1024,1024,1024,0,0,0,0,340.7,0,0,99,4.239,4.233,0,0,0,0,4.092,72.32,40.522645981764,17.716536,6,P-GPS,
7600,2022-08-24 21:25:51,-34.918055355361,-56.1686479162905,17.716536,18.1758536,22.346792381764,40.522645981764,18.04462,0,2.01989507776,3.5118439444,20,5,8.473,40.522645981764,17.716536,0,2.01989507776,0,0,0,331, 0.5, 0.7,0,0,1024,1024,1024,1024,0,0,0,0,340.7,0,0,99,4.239,4.233,0,0,0,0,4.092,72.32,40.522645981764,17.716536,6,P-GPS,
7700,2022-08-24 21:25:51,-34.9180552639805,-56.1686480180476,17.716536,18.1758536,22.346792381764,40.522645981764,18.04462,0,2.05728681124,3.5569883028,20,5,8.473,40.522645981764,17.716536,0,2.05728681124,0,0,0,331, 0.4, 0.5,0,0,1024,1024,1024,1024,0,0,0,0,340.7,0,0,99,4.239,4.233,0,0,0,0,4.092,72.32,40.522645981764,17.716536,6,P-GPS,
7800,2022-08-24 21:25:51,-34.9180551962564,-56.1686481229407,17.716536,18.1758536,22.346792381764,40.522645981764,18.04462,0.223694,2.09374022448,3.596948934,20,5,8.473,40.522645981764,17.716536,0.223694,2.09374022448,0,0.223694,0,331, 0.3, 0.3,0,0,1024,1024,1024,1024,0,0,0,0,340.7,0,0,99,4.239,4.233,0,0,0,0,4.092,72.32,40.522645981764,17.716536,6,P-GPS,
7900,2022-08-24 21:25:51,-34.9180551206326,-56.1686481854881,17.716536,18.1758536,22.346792381764,40.522645981764,18.04462,0.223694,2.11881240376,3.6302822684,20,5,8.473,40.522645981764,17.716536,0.223694,2.11881240376,0,0.223694,0,331.1, 0.2, 0.3,0,0,1024,1024,1024,1024,0,0,0,0,340.7,0,0,99,4.239,4.233,0,0,0,0,4.092,72.32,40.522645981764,17.716536,6,P-GPS,
8000,2022-08-24 21:25:51,-34.9180550746442,-56.1686482709915,17.716536,18.1758536,22.346792381764,40.522645981764,18.04462,0.223694,2.14787080364,3.6608596972,20,5,8.473,40.522645981764,17.716536,0.223694,2.14787080364,0,0.223694,0,331.1, 0.3, 0.3,0,0,1024,1024,1024,1024,0,0,0,0,340.7,0,0,99,4.239,4.233,0,0,0,0,4.092,72.32,40.522645981764,17.716536,6,P-GPS,
8100,2022-08-24 21:25:51,-34.9180549869838,-56.1686483361026,17.716536,18.1758536,22.346792381764,40.522645981764,17.716536,0.223694,2.17519363916,3.69832689,20,5,8.473,40.522645981764,17.716536,0.223694,2.17519363916,0,0.223694,0,331, 0.4, 0,0,0,1024,1024,1024,1024,0,0,0,0,340.7,0,0,99,4.239,4.233,0,0,0,0,4.092,72.32,40.522645981764,17.716536,6,P-GPS,
8200,2022-08-24 21:25:51,-34.9180548948578,-56.1686484168623,17.716536,18.1758536,22.346792381764,40.522645981764,17.716536,0,2.20776909952,3.7396982824,20,5,8.468,40.522645981764,17.716536,0.223694,2.20776909952,0,0,0,331, 0.5, -0.2,0,0,1024,1024,1024,1024,0,0,0,0,340.7,0,0,99,4.236,4.23,0,0,0,0,4.098,72.32,40.522645981764,17.716536,6,P-GPS,
8300,2022-08-24 21:25:51,-34.9180548435448,-56.1686484535005,17.716536,18.1758536,22.346792381764,40.522645981764,17.716536,0,2.22364836512,3.7614174432,20,5,8.468,40.522645981764,17.716536,0.223694,2.22364836512,0,0,0,331, 0.4, -0.1,0,0,1024,1024,1024,1024,0,0,0,0,340.7,0,0,99,4.236,4.23,0,0,0,0,4.098,72.32,40.522645981764,17.716536,6,P-GPS,
8400,2022-08-24 21:25:52,-34.9180548114229,-56.1686484775203,17.716536,18.1758536,22.346792381764,40.522645981764,17.716536,0,2.23395020272,3.7751641628,20,5,8.468,40.522645981764,17.716536,0.223694,2.23395020272,0,0,0,331, 0.2, 0,0,0,1024,1024,1024,1024,0,0,0,0,340.7,0,0,99,4.236,4.23,0,0,0,0,4.098,72.32,40.522645981764,17.716536,6,P-GPS,
8500,2022-08-24 21:25:52,-34.9180548285097,-56.1686483346053,17.716536,18.1758536,22.346792381764,40.522645981764,17.716536,0,2.19126647432,3.8183728256,20,5,8.468,40.522645981764,17.716536,0.223694,2.23395020272,0,0,0,331, 0.1, -0.1,0,0,1024,1024,1024,1024,0,0,0,0,340.7,0,0,99,4.236,4.23,0,0,0,0,4.098,72.32,40.522645981764,17.716536,6,P-GPS,
8600,2022-08-24 21:25:52,-34.9180548160525,-56.1686482998154,17.716536,18.1758536,22.346792381764,40.522645981764,17.716536,0,2.18269692024,3.829724532,20,5,8.468,40.522645981764,17.716536,0.223694,2.23395020272,0,0,0,331, 0, -0.3,0,0,1024,1024,1024,1024,0,0,0,0,340.7,0,0,99,4.236,4.23,0,0,0,0,4.098,72.32,40.522645981764,17.716536,6,P-GPS,
8700,2022-08-24 21:25:52,-34.9180548083313,-56.1686482973957,17.716536,18.1758536,22.346792381764,40.522645981764,17.716536,0,2.18285440056,3.8326116712,20,5,8.468,40.522645981764,17.716536,0.223694,2.23395020272,0,0,0,331, 0.1, -0.1,0,0,1024,1024,1024,1024,0,0,0,0,340.7,0,0,99,4.236,4.23,0,0,0,0,4.098,72.32,40.522645981764,17.716536,6,P-GPS,
8800,2022-08-24 21:25:52,-34.918054804557,-56.1686483157905,17.716536,18.1758536,22.346792381764,40.522645981764,17.716536,0,2.1885171304,3.8382875244,20,5,8.468,40.522645981764,17.716536,0.223694,2.23395020272,0,0,0,331.1, 0.2, -0.1,0,0,1024,1024,1024,1024,0,0,0,0,340.7,0,0,99,4.236,4.23,0,0,0,0,4.098,72.32,40.522645981764,17.716536,6,P-GPS,
8900,2022-08-24 21:25:52,-34.9180548729211,-56.1686480807047,17.716536,18.1758536,22.346792381764,40.522645981764,17.716536,0,2.11394035636,3.9129266344,20,5,8.468,40.522645981764,17.716536,0.223694,2.23395020272,0,0,0,331.1, 0.3, 0,0,0,1024,1024,1024,1024,0,0,0,0,340.7,0,0,99,4.236,4.23,0,0,0,0,4.098,72.32,40.522645981764,17.716536,6,P-GPS,
9000,2022-08-24 21:25:52,-34.9180548610969,-56.1686481245082,17.716536,18.1758536,22.346792381764,40.522645981764,17.716536,0,2.12773628856,3.9267061624,20,5,8.468,40.522645981764,17.716536,0.223694,2.23395020272,0,0,0,331.1, 0.2, 0.2,0,0,1024,1024,1024,1024,0,0,0,0,340.7,0,0,99,4.236,4.23,0,0,0,0,4.098,72.32,40.522645981764,17.716536,6,P-GPS,
9100,2022-08-24 21:25:52,-34.918054910427,-56.1686480989442,17.716536,18.1758536,22.346792381764,40.522645981764,17.716536,0,2.11507880784,3.9462599688,20,5,8.468,40.522645981764,17.716536,0.223694,2.23395020272,0,0,0,331.1, 0.3, 0.3,0,0,1024,1024,1024,1024,0,0,0,0,340.7,0,0,99,4.236,4.23,0,0,0,0,4.098,72.32,40.522645981764,17.716536,6,P-GPS,
9200,2022-08-24 21:25:52,-34.9180549939865,-56.1686480400261,17.388452,17.8477696,22.346792381764,40.194561981764,17.716536,0,2.089402954,3.9814961904,20,5,8.465,40.522645981764,17.716536,0.223694,2.23395020272,0,0,0,331.1, 0.1, 0.5,0,0,1024,1024,1024,1024,0,0,0,0,340.7,0,0,99,4.237,4.23,0,0,0,0,4.075,72.32,40.194561981764,17.388452,6,P-GPS,
9300,2022-08-24 21:25:53,-34.9180551989413,-56.1686475165558,17.388452,17.8477696,22.346792381764,40.194561981764,17.716536,0,1.91822840784,4.155019818,20,5,8.465,40.522645981764,17.716536,0.223694,2.23395020272,0,0,0,331.1, 0.1, 0.3,0,0,1024,1024,1024,1024,0,0,0,0,340.7,0,0,99,4.237,4.23,0,0,0,0,4.075,72.32,40.194561981764,17.388452,6,P-GPS,
9400,2022-08-24 21:25:53,-34.9180552509118,-56.1686473955846,17.388452,17.7821528,22.412409181764,40.194561981764,17.716536,0,1.87828746168,4.1958990844,20,5,8.465,40.522645981764,17.716536,0.223694,2.23395020272,0,0,0,331, 0.2, 0.2,0,0,1024,1024,1024,1024,0,0,0,0,340.7,0,0,99,4.237,4.23,0,0,0,0,4.075,72.32,40.194561981764,17.388452,6,P-GPS,
9500,2022-08-24 21:25:53,-34.9180552821075,-56.1686472982039,17.388452,17.7821528,22.412409181764,40.194561981764,17.716536,0,1.84718181764,4.2271654896,20,5,8.465,40.522645981764,17.716536,0.223694,2.23395020272,0,0,0,331.1, 0.2, 0.1,0,0,1024,1024,1024,1024,0,0,0,0,340.7,0,0,99,4.237,4.23,0,0,0,0,4.075,72.32,40.194561981764,17.388452,6,P-GPS,
9600,2022-08-24 21:25:53,-34.9180553060937,-56.1686472130573,17.388452,17.7821528,22.412409181764,40.194561981764,17.716536,0,1.82030189552,4.254101186,20,5,8.465,40.522645981764,17.716536,0.223694,2.23395020272,0,0,0,331.1, 0.1, 0,0,0,1024,1024,1024,1024,0,0,0,0,340.7,0,0,99,4.237,4.23,0,0,0,0,4.075,72.32,40.194561981764,17.388452,6,P-GPS,
9700,2022-08-24 21:25:53,-34.9180553412734,-56.1686468045568,17.388452,17.7821528,22.412409181764,40.194561981764,17.716536,0,1.69912407012,4.376968644,20,5,8.465,40.522645981764,17.716536,0.223694,2.23395020272,0,0,0,331.1, 0, -0.2,0,0,1024,1024,1024,1024,0,0,0,0,340.7,0,0,99,4.237,4.23,0,0,0,0,4.075,72.32,40.194561981764,17.388452,6,P-GPS,
9800,2022-08-24 21:25:53,-34.9180553988152,-56.1686466466647,17.388452,17.7821528,22.412409181764,40.194561981764,17.388452,0,1.64796265116,4.4286746824,20,5,8.465,40.522645981764,17.716536,0.223694,2.23395020272,0,0,0,331.1, 0.1, -0.3,0,0,1024,1024,1024,1024,0,0,0,0,340.7,0,0,99,4.237,4.23,0,0,0,0,4.075,72.32,40.194561981764,17.388452,6,P-GPS,
9900,2022-08-24 21:25:53,-34.9180554621064,-56.1686465288436,17.388452,17.7821528,22.412409181764,40.194561981764,17.388452,0,1.60784782048,4.470800668,20,5,8.465,40.522645981764,17.716536,0.223694,2.23395020272,0,0,0,331.1, 0.2, -0.3,0,0,1024,1024,1024,1024,0,0,0,0,340.7,0,0,99,4.237,4.23,0,0,0,0,4.075,72.32,40.194561981764,17.388452,6,P-GPS,
10000,2022-08-24 21:25:53,-34.9180555371178,-56.1686464353985,17.388452,17.716536,22.478025981764,40.194561981764,17.388452,0,1.573818948,4.5099410892,20,5,8.465,40.522645981764,17.716536,0.223694,2.23395020272,0,0,0,331.2, 0.3, 0,0,0,1024,1024,1409,1024,0,0,58,0,340.7,0,0,99,4.237,4.23,0,0,0,0,4.075,72.32,40.194561981764,17.388452,6,P-GPS,
10100,2022-08-24 21:25:53,-34.9180556150327,-56.1686463347345,17.388452,17.716536,22.478025981764,40.194561981764,17.388452,0,1.5376804954,4.55134529,20,5,8.465,40.522645981764,17.716536,0.223694,2.23395020272,0,0,0,331.2, 0.5, 0.2,0,0,1024,1024,1684,1024,0,0,100,0,340.7,0,0,99,4.237,4.23,0,0,0,0,4.075,72.32,40.194561981764,17.388452,6,P-GPS,
10200,2022-08-24 21:25:53,-34.9180557461282,-56.1686460721576,17.388452,17.716536,22.478025981764,40.194561981764,17.388452,0,1.45028219864,4.6433072352,20,5,8.466,40.522645981764,17.716536,0.223694,2.23395020272,0,0,-0.223694,331.2, 0.4, 0.1,0,0,1024,1024,1684,1024,0,0,100,0,340.7,0,0,99,4.233,4.228,0,0,0,0,3.98,72.32,40.194561981764,17.388452,6,P-GPS,
10300,2022-08-24 21:25:54,-34.9180558328086,-56.168645986537,17.388452,17.716536,22.478025981764,40.194561981764,17.716536,0,1.41859584592,4.6840224596,20,5,8.466,40.522645981764,17.716536,0.223694,2.23395020272,0,0,-1.11847,331.2, 0, 0,0,0,1024,1024,1684,1024,0,0,100,0,340.7,0,0,99,4.233,4.228,0,0,0,0,3.98,72.32,40.194561981764,17.388452,6,P-GPS,
10400,2022-08-24 21:25:54,-34.9180559237922,-56.1686459176265,17.716536,18.04462,22.478025981764,40.522645981764,17.716536,0,1.39200791856,4.723097264,20,5,8.466,40.522645981764,17.716536,0.223694,2.23395020272,0,0,-1.789552,331.1, -0.4, 0.3,0,0,1024,1024,1684,1024,0,0,100,0,340.7,0,0,99,4.233,4.228,0,0,0,0,3.98,72.32,40.522645981764,17.716536,6,P-GPS,
10500,2022-08-24 21:25:54,-34.9180559640885,-56.1686458595645,18.04462,18.372704,22.478025981764,40.850729981764,18.04462,0,1.37230647436,4.7458334852,20,5,8.466,40.850729981764,18.04462,0.223694,2.23395020272,0,0,-2.684328,331.1, -0.2, 0.6,0,0,1024,1024,1684,1024,0,0,100,0,340.7,0,0,99,4.233,4.228,0,0,0,0,3.98,72.32,40.850729981764,18.04462,6,P-GPS,
10600,2022-08-24 21:25:54,-34.9180558766976,-56.168645770435,18.700788,19.028872,22.478025981764,41.506897981764,18.700788,0,1.35204728736,4.787401728,20,5,8.466,41.506897981764,18.700788,0.223694,2.23395020272,0,0,-3.579104,331.1, 0.4, 0.7,0,0,1024,1024,1429,1024,0,0,61,0,340.7,0,0,99,4.233,4.228,0,0,0,0,3.98,72.32,41.506897981764,18.700788,6,P-GPS,
10700,2022-08-24 21:25:54,-34.9180558929935,-56.1686457348968,19.028872,19.356956,22.478025981764,41.834981981764,19.356956,0,1.34044951796,4.7995736444,20,5,8.466,41.834981981764,19.028872,0.223694,2.23395020272,0,0,-4.250186,331, 0.3, 0.6,0,0,1024,1024,1024,1024,0,0,0,0,340.7,0,0,99,4.233,4.228,0,0,0,0,3.98,72.32,41.834981981764,19.028872,6,P-GPS,
10800,2022-08-24 21:25:54,-34.9180559171339,-56.1686457030465,19.68504,20.013124,22.478025981764,42.491149981764,19.68504,0,1.32939308716,4.8125657708,20,5,8.466,42.491149981764,19.68504,0.223694,2.23395020272,0,0,-4.250186,330.9, 0.7, 0.4,0,0,1024,1024,1024,1024,0,0,0,0,340.7,0,0,99,4.233,4.228,0,0,0,0,3.98,72.32,42.491149981764,19.68504,6,P-GPS,
10900,2022-08-24 21:25:54,-34.9180559095189,-56.1686456733947,20.341208,20.669292,22.478025981764,43.147317981764,20.341208,0,1.3212270764,4.821850548,20,5,8.466,43.147317981764,20.341208,0.223694,2.23395020272,0,0,-3.579104,330.9, 0.8, 0.4,0,0,1024,1024,1129,1024,0,0,16,0,340.7,0,0,99,4.233,4.228,0,0,0,0,3.98,72.32,43.147317981764,20.341208,6,P-GPS,
11000,2022-08-24 21:25:54,-34.918055746015,-56.1686457127911,20.669292,20.997376,22.478025981764,43.475401981764,20.669292,0,1.34559387508,4.8826773216,20,5,8.466,43.475401981764,20.669292,0.223694,2.23395020272,0,0,-2.908022,330.9, 1.1, -0.1,0,0,1024,1024,1684,1024,0,0,100,0,340.7,0,0,99,4.233,4.228,0,0,0,0,3.98,72.32,43.475401981764,20.669292,6,P-GPS,
11100,2022-08-24 21:25:54,-34.9180557273542,-56.1686457024487,20.997376,21.32546,22.478025981764,43.803485981764,21.32546,0,1.34421264144,4.8901576368,20,5,8.466,43.803485981764,20.997376,0.223694,2.23395020272,0,0,-2.23694,330.9, 1, -0.4,0,0,1024,1024,1684,1024,0,0,100,0,340.7,0,0,99,4.233,4.228,0,0,0,0,3.98,72.32,43.803485981764,20.997376,6,P-GPS,
11200,2022-08-24 21:25:54,-34.9180557267175,-56.168645706842,21.32546,21.653544,22.478025981764,44.131569981764,21.653544,0,1.34554138164,4.8914699728,20,5,8.466,44.131569981764,21.32546,0.223694,2.23395020272,0,0,-2.460634,331, 0.4, -0.3,0,0,1024,1024,1684,1024,0,0,100,0,340.7,0,0,99,4.233,4.228,0,0,0,0,3.98,72.32,44.131569981764,21.32546,6,P-GPS,
11300,2022-08-24 21:25:55,-34.9180556101421,-56.1686456335863,21.653544,21.981628,22.478025981764,44.459653981764,21.981628,0,1.33533796924,4.9393374284,20,5,8.364,44.459653981764,21.653544,0.223694,2.23395020272,0,0,-3.131716,331, 0.2, -0.1,0,0,1024,1024,1684,1024,0,0,100,0,340.7,0,0,99,4.237,4.234,0,0,0,0,5.043,72.5,44.459653981764,21.653544,6,P-GPS,
11400,2022-08-24 21:25:55,-34.9180550379309,-56.1686454165853,22.309712,22.5721792,22.543642781764,45.115821981764,22.637796,0,1.34811027936,5.157972606,20,5,8.364,45.115821981764,22.309712,0.223694,2.23395020272,0,0,-4.026492,331, 0.5, 0,0,0,1024,1024,1684,1024,0,0,100,0,340.7,0,0,99,4.237,4.234,0,0,0,0,5.043,72.5,45.115821981764,22.309712,6,P-GPS,
11500,2022-08-24 21:25:55,-34.9180549592864,-56.1686453591755,22.96588,23.2283472,22.543642781764,45.771989981764,23.293964,0,1.3452428252,5.1914043656,20,5,8.364,45.771989981764,22.96588,0.223694,2.23395020272,0,0,-4.697574,331, 0.3, 0,0,0,1024,1024,1684,1024,0,0,100,0,340.7,0,0,99,4.237,4.234,0,0,0,0,5.043,72.5,45.771989981764,22.96588,6,P-GPS,
11600,2022-08-24 21:25:55,-34.9180549314319,-56.1686453354575,23.622048,23.8845152,22.543642781764,46.428157981764,23.950132,0,1.34352694588,5.2038059408,20,5,8.364,46.428157981764,23.622048,0.223694,2.23395020272,0,0,-5.368656,330.8, 0.8, 0.1,0,0,1024,1024,1684,1024,0,0,100,0,340.7,0,0,99,4.237,4.234,0,0,0,0,5.043,72.5,46.428157981764,23.622048,6,P-GPS,
11700,2022-08-24 21:25:55,-34.9180549455041,-56.1686453385124,24.6063,24.8687672,22.543642781764,47.412409981764,24.934384,0,1.34199807444,5.2090224764,20,5,8.364,47.412409981764,24.6063,0.223694,2.23395020272,0,0,-6.039738,330.8, 0.9, 0.4,0,0,1024,1024,1684,1024,0,0,100,0,340.7,0,0,99,4.237,4.234,0,0,0,0,5.043,72.5,47.412409981764,24.6063,6,P-GPS,
11800,2022-08-24 21:25:55,-34.9180549822804,-56.1686453515721,25.590552,25.8530192,22.543642781764,48.396661981764,25.918636,0,1.33945870428,5.2229988548,19,5,8.364,48.396661981764,25.590552,0.223694,2.23395020272,0,0,-6.263432,331, 0.6, 0.2,0,0,1024,1024,1684,1024,0,0,100,0,340.7,0,0,99,4.237,4.234,0,0,0,0,5.043,72.5,48.396661981764,25.590552,6,P-GPS,
11900,2022-08-24 21:25:55,-34.9180551388602,-56.1686453998005,26.574804,26.8372712,22.543642781764,49.380913981764,26.902888,0,1.32821198476,5.2819227412,19,5,8.364,49.380913981764,26.574804,0.223694,2.23395020272,0,0,-6.487126,331.1, 0.9, 0.2,0,0,1024,1024,1684,1024,0,0,100,0,340.7,0,0,99,4.237,4.234,0,0,0,0,5.043,72.5,49.380913981764,26.574804,6,P-GPS,
12000,2022-08-24 21:25:55,-34.9180552259934,-56.1686454518097,27.559056,27.8215232,22.543642781764,50.365165981764,28.215224,0,1.33000660424,5.3172901964,19,5,8.364,50.365165981764,27.559056,0.223694,2.23395020272,0,0,-6.487126,331, 0.8, 0.1,0,0,1024,1024,1684,1024,0,0,100,0,340.7,0,0,99,4.237,4.234,0,0,0,0,5.043,72.5,50.365165981764,27.559056,6,P-GPS,
12100,2022-08-24 21:25:55,-34.9180552480543,-56.1686454317717,28.543308,28.8057752,22.543642781764,51.349417981764,29.199476,0,1.3214075226,5.3273295668,19,5,8.364,51.349417981764,28.543308,0.223694,2.23395020272,0,0,-6.71082,330.9, 0.7, 0.7,0,0,1024,1024,1684,1024,0,0,100,0,340.7,0,0,99,4.237,4.234,0,0,0,0,5.043,72.5,51.349417981764,28.543308,6,P-GPS,
12200,2022-08-24 21:25:55,-34.9180552292063,-56.1686453669477,29.199476,29.4619432,22.543642781764,52.005585981764,30.511812,0,1.3061188082,5.3479004336,18,5,8.364,52.005585981764,29.199476,0.223694,2.23395020272,0,0,-6.71082,331, 1, 0.8,0,0,1024,1024,1684,1024,0,0,100,0,340.7,0,0,99,4.237,4.234,0,0,0,0,5.043,72.5,52.005585981764,29.199476,6,P-GPS,
12300,2022-08-24 21:25:56,-34.9180553361043,-56.168645248811,30.183728,30.4461952,22.543642781764,52.989837981764,31.496064,0,1.25862536836,5.4005579156,18,5,8.334,52.989837981764,30.183728,0.223694,2.23395020272,0,0,-6.71082,331, 1.3, 0.2,0,0,1024,1024,1684,1024,0,0,100,0,340.7,0,0,99,4.191,4.186,0,0,0,0,5.036,72.5,52.989837981764,30.183728,6,P-GPS,
12400,2022-08-24 21:25:56,-34.9180554193613,-56.1686452115397,31.16798,31.4304472,22.543642781764,53.974089981764,32.480316,0,1.2372375724,5.432906998,20,5,8.334,53.974089981764,31.16798,0.223694,2.23395020272,0,0,-6.487126,331.1, 1.1, 0.1,0,0,1024,1024,1684,1024,0,0,100,0,340.7,0,0,99,4.191,4.186,0,0,0,0,5.036,72.5,53.974089981764,31.16798,6,P-GPS,
12500,2022-08-24 21:25:56,-34.91805552751,-56.1686451161756,32.152232,32.4146992,22.543642781764,54.958341981764,33.464568,0,1.19692261048,5.4815946636,20,5,8.334,54.958341981764,32.152232,0.223694,2.23395020272,0,0,-6.487126,331.1, 0.9, -0.1,0,0,1024,1024,1684,1024,0,0,100,0,340.7,0,0,99,4.191,4.186,0,0,0,0,5.036,72.5,54.958341981764,32.152232,6,P-GPS,
12600,2022-08-24 21:25:56,-34.918055652901,-56.1686449923742,33.136484,33.3989512,22.543642781764,55.942593981764,34.44882,0,1.14722444616,5.5404529332,20,5,8.334,55.942593981764,33.136484,0.223694,2.23395020272,0,0,-6.487126,331, 1, -0.6,0,0,1024,1024,1684,1024,0,0,100,0,340.7,0,0,99,4.191,4.186,0,0,0,0,5.036,72.5,55.942593981764,33.136484,6,P-GPS,
12700,2022-08-24 21:25:56,-34.9180558962931,-56.1686447892025,34.120736,34.3832032,22.543642781764,56.926845981764,35.433072,0,1.06421591332,5.6480644852,20,5,8.334,56.926845981764,34.120736,0.223694,2.23395020272,0,0,-6.487126,331, 0.7, -0.6,0,0,1024,1024,1684,1024,0,0,100,0,340.7,0,0,99,4.191,4.186,0,0,0,0,5.036,72.5,56.926845981764,34.120736,6,P-GPS,
12800,2022-08-24 21:25:56,-34.9180559317708,-56.1686447637896,35.104988,35.3674552,22.543642781764,57.911097981764,36.08924,0,1.05371066364,5.6630907324,20,5,8.334,57.911097981764,35.104988,0.223694,2.23395020272,0,0,-6.487126,331, 0.7, -0.4,0,0,1024,1024,1684,1024,0,0,100,0,340.7,0,0,99,4.191,4.186,0,0,0,0,5.036,72.5,57.911097981764,35.104988,6,P-GPS,
12900,2022-08-24 21:25:56,-34.918055917839,-56.1686447266313,36.08924,36.3517072,22.543642781764,58.895349981764,37.073492,0,1.04414045336,5.6752954572,20,5,8.334,58.895349981764,36.08924,0.223694,2.23395020272,0,0,-6.487126,331, 1.1, -0.5,0,0,1024,1024,1684,1024,0,0,100,0,340.7,0,0,99,4.191,4.186,0,0,0,0,5.036,72.5,58.895349981764,36.08924,6,P-GPS,
13000,2022-08-24 21:25:56,-34.9180558713368,-56.1686446802925,37.073492,37.3359592,22.543642781764,59.879601981764,38.057744,0,1.035022999,5.6972114684,21,5,8.334,59.879601981764,37.073492,0.223694,2.23395020272,0,0,-6.487126,331, 1, -0.5,0,0,1024,1024,1684,1024,0,0,100,0,340.7,0,0,99,4.191,4.186,0,0,0,0,5.036,72.5,59.879601981764,37.073492,6,P-GPS,
13100,2022-08-24 21:25:56,-34.9180558136825,-56.1686445071829,38.057744,38.3202112,22.543642781764,60.863853981764,39.041996,0,0.99114832568,5.753116982,21,5,8.334,60.863853981764,38.057744,0.223694,2.23395020272,0,0,-6.71082,330.9, 0.7, -0.5,0,0,1024,1024,1684,1024,0,0,100,0,340.7,0,0,99,4.191,4.186,0,0,0,0,5.036,72.5,60.863853981764,38.057744,6,P-GPS,
13200,2022-08-24 21:25:56,-34.9180559079405,-56.1686444782869,39.041996,39.2388464,22.609259581764,61.848105981764,40.026248,0,0.97320541172,5.7885828624,21,5,8.334,61.848105981764,39.041996,0.223694,2.23395020272,0,0,-6.71082,331, 0.7, 0.2,0,0,1024,1024,1684,1024,0,0,100,0,340.7,0,0,99,4.191,4.186,0,0,0,0,5.036,72.5,61.848105981764,39.041996,6,P-GPS,
13300,2022-08-24 21:25:57,-34.9180559900243,-56.1686445117715,40.026248,40.2887152,22.543642781764,62.832357981764,41.0105,0,0.97542982124,5.8201445432,21,5,8.387,62.832357981764,40.026248,0.223694,2.23395020272,0,0,-6.71082,331, 0.9, 0.1,0,0,1024,1024,1684,1024,0,0,100,0,340.7,0,0,99,4.195,4.187,0,0,0,0,4.949,72.5,62.832357981764,40.026248,6,P-GPS,
13400,2022-08-24 21:25:57,-34.9180560670163,-56.1686445869816,41.0105,41.2729672,22.543642781764,63.816609981764,41.994752,0,0.99126643592,5.856135358,21,5,8.387,63.816609981764,41.0105,0.223694,2.23395020272,0,0,-6.71082,331, 0.5, -0.4,0,0,1024,1024,1684,1024,0,0,100,0,340.7,0,0,99,4.195,4.187,0,0,0,0,4.949,72.5,63.816609981764,41.0105,6,P-GPS,
13500,2022-08-24 21:25:57,-34.918056056157,-56.1686447497822,41.994752,42.2572192,22.543642781764,64.800861981764,42.979004,0,1.03978349784,5.905019874,21,5,8.387,64.800861981764,41.994752,0.223694,2.23395020272,0,0,-6.487126,330.9, 1.7, 0.2,0,0,1024,1024,1684,1024,0,0,100,0,340.7,0,0,99,4.195,4.187,0,0,0,0,4.949,72.5,64.800861981764,41.994752,6,P-GPS,
13600,2022-08-24 21:25:57,-34.9180559091529,-56.1686452432139,42.979004,43.2414712,22.543642781764,65.785113981764,42.979004,0,1.195292033,6.0620736848,21,5,8.387,65.785113981764,42.979004,0.223694,2.23395020272,0,0,-6.487126,330.9, 1.9, 0,0,0,1024,1024,1684,1024,0,0,100,0,340.7,0,0,99,4.195,4.187,0,0,0,0,4.949,72.5,65.785113981764,42.979004,6,P-GPS,
13700,2022-08-24 21:25:57,-34.9180559436372,-56.1686453814523,43.963256,44.2257232,22.543642781764,66.769365981764,42.979004,0,1.23314636492,6.1052823476,21,5,8.387,66.769365981764,43.963256,0.223694,2.23395020272,0,0,-6.487126,331.1, 1.5, 0.4,0,0,1024,1024,1684,1024,0,0,100,0,340.7,0,0,99,4.195,4.187,0,0,0,0,4.949,72.5,66.769365981764,43.963256,6,P-GPS,
13800,2022-08-24 21:25:57,-34.9180560190301,-56.1686454940886,44.947508,45.2099752,22.543642781764,67.753617981764,42.979004,0,1.26114833432,6.148786286,21,5,8.387,67.753617981764,44.947508,0.223694,2.23395020272,0,0,-6.487126,331, 1, 0.2,0,0,1024,1024,1684,1024,0,0,100,0,340.7,0,0,99,4.195,4.187,0,0,0,0,4.949,72.5,67.753617981764,44.947508,6,P-GPS,
13900,2022-08-24 21:25:57,-34.9180560873523,-56.1686456007683,45.93176,46.259844,22.478025981764,68.737869981764,42.979004,0,1.288631931,6.18930466,21,5,8.387,68.737869981764,45.93176,0.223694,2.23395020272,0,0,-6.487126,331.1, 1.3, 0.6,0,0,1024,1024,1684,1024,0,0,100,0,340.7,0,0,99,4.195,4.187,0,0,0,0,4.949,72.5,68.737869981764,45.93176,6,P-GPS,
14000,2022-08-24 21:25:57,-34.9180562470298,-56.1686456383669,46.916012,47.244096,22.478025981764,69.722121981764,42.979004,0,1.29240161616,6.2486222472,21,5,8.387,69.722121981764,46.916012,0.223694,2.23395020272,0,0,-6.71082,331.1, 1.3, 0.8,0,0,1024,1024,1684,1024,0,0,100,0,340.7,0,0,99,4.195,4.187,0,0,0,0,4.949,72.5,69.722121981764,46.916012,6,P-GPS,
14100,2022-08-24 21:25:57,-34.9180563423023,-56.1686456918863,47.900264,48.228348,22.478025981764,70.706373981764,42.979004,0,1.30521001552,6.2868768416,21,5,8.387,70.706373981764,47.900264,0.223694,2.23395020272,0,0,-6.71082,331.1, 1.3, 1.1,0,0,1024,1024,1684,1024,0,0,100,0,340.7,0,0,99,4.195,4.187,0,0,0,0,4.949,72.5,70.706373981764,47.900264,6,P-GPS,
14200,2022-08-24 21:25:57,-34.9180564504799,-56.1686457189206,48.884516,49.2126,22.478025981764,71.690625981764,42.979004,0,1.31086946452,6.3271655568,21,5,8.387,71.690625981764,48.884516,0.223694,2.23395020272,0,0,-6.71082,331, 1.8, 0.7,0,0,1024,1024,1684,1024,0,0,100,0,340.7,0,0,99,4.195,4.187,0,0,0,0,4.949,72.5,71.690625981764,48.884516,6,P-GPS,
14300,2022-08-24 21:25:57,-34.9180565508999,-56.168645708378,49.868768,50.2296604,22.445217581764,72.674877981764,42.979004,0,1.30654203656,6.3639437732,21,5,8.382,72.674877981764,49.868768,0.223694,2.23395020272,0,0,-6.71082,331, 1.5, 1,0,0,1024,1024,1684,1024,0,0,100,0,340.7,0,0,99,4.187,4.183,0,0,0,0,5.049,72.68,72.674877981764,49.868768,6,P-GPS,
14400,2022-08-24 21:25:58,-34.9180568155011,-56.1686453611597,50.85302,51.1482956,22.510834381764,73.659129981764,42.979004,0,1.2046588312,6.5057744864,21,5,8.382,73.659129981764,50.85302,0.223694,2.23395020272,0,0,-6.71082,331.1, 1.3, 0.5,0,0,1024,1024,1684,1024,0,0,100,0,340.7,0,0,99,4.187,4.183,0,0,0,0,5.049,72.68,73.659129981764,50.85302,6,P-GPS,
14500,2022-08-24 21:25:58,-34.9180568883404,-56.1686453514978,51.837272,52.1325476,22.510834381764,74.643381981764,42.979004,0,1.20368114088,6.5325133324,21,5,8.382,74.643381981764,51.837272,0.223694,2.23395020272,0,0,-6.487126,331.1, 1.7, 0.3,0,0,1024,1024,1684,1024,0,0,100,0,340.7,0,0,99,4.187,4.183,0,0,0,0,5.049,72.68,74.643381981764,51.837272,6,P-GPS,
14600,2022-08-24 21:25:58,-34.918056954054,-56.1686453580464,52.821524,53.1167996,22.510834381764,75.627633981764,42.979004,0,1.20784780768,6.5565618896,21,5,8.382,75.627633981764,52.821524,0.223694,2.23395020272,0,0,-6.487126,331.1, 1.9, 0.2,0,0,1024,1024,1684,1024,0,0,100,0,340.7,0,0,99,4.187,4.183,0,0,0,0,5.049,72.68,75.627633981764,52.821524,6,P-GPS,
14700,2022-08-24 21:25:58,-34.9180569870847,-56.1686453386079,53.805776,54.1010516,22.510834381764,76.611885981764,42.979004,0,1.20335961856,6.5699477168,21,5,8.382,76.611885981764,53.805776,0.223694,2.23395020272,0,0,-6.487126,331.1, 1.5, 0.1,0,0,1024,1024,1684,1024,0,0,100,0,340.7,0,0,99,4.187,4.183,0,0,0,0,5.049,72.68,76.611885981764,53.805776,6,P-GPS,
14800,2022-08-24 21:25:58,-34.9180569975082,-56.1686451748259,54.790028,55.0853036,22.510834381764,77.596137981764,42.979004,0,1.15513783224,6.6190947,21,5,8.382,77.596137981764,54.790028,0.223694,2.23395020272,0,0,-6.487126,331.1, 1.5, -0.2,0,0,1024,1024,1684,1024,0,0,100,0,340.7,0,0,99,4.187,4.183,0,0,0,0,5.049,72.68,77.596137981764,54.790028,6,P-GPS,
14900,2022-08-24 21:25:58,-34.9180570109433,-56.1686451257297,55.77428,56.0695556,22.510834381764,78.580389981764,42.979004,0,1.14116801552,6.6345802648,21,5,8.382,78.580389981764,55.77428,0.223694,2.23395020272,0,0,-6.71082,331, 1.4, -0.4,0,0,1024,1024,1684,1024,0,0,100,0,340.7,0,0,99,4.187,4.183,0,0,0,0,5.049,72.68,78.580389981764,55.77428,6,P-GPS,
15000,2022-08-24 21:25:58,-34.9180570206162,-56.1686450788904,56.758532,57.0538076,22.510834381764,79.564641981764,42.979004,0,1.12772641404,6.6490159608,21,5,8.382,79.564641981764,56.758532,0.223694,2.23395020272,0,0,-6.71082,331, 1.8, 0,0,0,1024,1024,1684,1024,0,0,100,0,340.7,0,0,99,4.187,4.183,0,0,0,0,5.049,72.68,79.564641981764,56.758532,6,P-GPS,
15100,2022-08-24 21:25:58,-34.9180570438816,-56.1686450352531,57.742784,58.0380596,22.510834381764,80.548893981764,42.979004,0,1.11594163676,6.6645999508,21,5,8.382,80.548893981764,57.742784,0.223694,2.23395020272,0,0,-6.71082,331, 1.7, 0.2,0,0,1024,1024,1684,1024,0,0,100,0,340.7,0,0,99,4.187,4.183,0,0,0,0,5.049,72.68,80.548893981764,57.742784,6,P-GPS,
15200,2022-08-24 21:25:58,-34.9180570773966,-56.1686449929763,58.727036,59.0223116,22.510834381764,81.533145981764,42.979004,0,1.1052165708,6.6821852532,21,5,8.382,81.533145981764,58.727036,0.223694,2.23395020272,0,0,-6.71082,331, 1.6, 0.2,0,0,1024,1024,1684,1024,0,0,100,0,340.7,0,0,99,4.187,4.183,0,0,0,0,5.049,72.68,81.533145981764,58.727036,6,P-GPS,
15300,2022-08-24 21:25:59,-34.9180571018231,-56.1686447511819,59.711288,60.0065636,22.510834381764,82.517397981764,42.979004,0,1.03527562368,6.7550527096,21,5,8.365,82.517397981764,59.711288,0.223694,2.23395020272,0,0,-6.71082,331, 1.5, -0.1,0,0,1024,1024,1684,1024,0,0,100,0,340.7,0,0,99,4.186,4.178,0,0,0,0,5.191,72.68,82.517397981764,59.711288,6,P-GPS,
15400,2022-08-24 21:25:59,-34.9180571574894,-56.1686447250003,60.69554,60.9908156,22.510834381764,83.501649981764,42.979004,0,1.03125987552,6.7768374872,20,5,8.365,83.501649981764,60.69554,0.223694,2.23395020272,0,0,-6.487126,331, 1.4, 0,0,0,1024,1024,1684,1024,0,0,100,0,340.7,0,0,99,4.186,4.178,0,0,0,0,5.191,72.68,83.501649981764,60.69554,6,P-GPS,
15500,2022-08-24 21:25:59,-34.9180571900526,-56.168644736174,61.679792,61.9750676,22.510834381764,84.485901981764,42.979004,0,1.0368766736,6.7891734456,20,5,8.365,84.485901981764,61.679792,0.223694,2.23395020272,0,0,-6.71082,331.1, 1.3, 0.4,0,0,1024,1024,1684,1024,0,0,100,0,340.7,0,0,99,4.186,4.178,0,0,0,0,5.191,72.68,84.485901981764,61.679792,6,P-GPS,
15600,2022-08-24 21:25:59,-34.9180572134435,-56.1686447680729,62.664044,62.9593196,22.510834381764,85.470153981764,42.979004,0,1.0479659128,6.8019687216,20,5,8.365,85.470153981764,62.664044,0.223694,2.23395020272,0,0,-6.487126,331.1, 1.5, 0.6,0,0,1024,1024,1684,1024,0,0,100,0,340.7,0,0,99,4.186,4.178,0,0,0,0,5.191,72.68,85.470153981764,62.664044,6,P-GPS,
15700,2022-08-24 21:25:59,-34.9180572111584,-56.1686447499941,63.648296,63.9435716,22.510834381764,86.454405981764,42.979004,0,1.0425033142,6.8074477244,20,5,8.365,86.454405981764,63.648296,0.223694,2.23395020272,0,0,-6.487126,331.3, 1.3, 1,0,0,1024,1024,1684,1024,0,0,100,0,340.7,0,0,99,4.186,4.178,0,0,0,0,5.191,72.68,86.454405981764,63.648296,6,P-GPS,
15800,2022-08-24 21:25:59,-34.9180572333136,-56.1686447141065,64.632548,64.9278236,22.510834381764,87.438657981764,42.979004,0,1.03373690972,6.8208991684,21,5,8.365,87.438657981764,64.632548,0.223694,2.23395020272,0,0,-6.487126,331.1, 0.7, 0.5,0,0,1024,1024,1684,1024,0,0,100,0,340.7,0,0,99,4.186,4.178,0,0,0,0,5.191,72.68,87.438657981764,64.632548,6,P-GPS,
15900,2022-08-24 21:25:59,-34.9180572885541,-56.1686446591316,65.6168,65.9120756,22.510834381764,88.422909981764,42.979004,0,1.0223425524,6.8468834212,21,5,8.365,88.422909981764,65.6168,0.223694,2.23395020272,0,0,-6.71082,331, 0.4, 0.4,0,0,1024,1024,1684,1024,0,0,100,0,340.7,0,0,99,4.186,4.178,0,0,0,0,5.191,72.68,88.422909981764,65.6168,6,P-GPS,
16000,2022-08-24 21:25:59,-34.9180573700015,-56.1686446024771,66.601052,66.8963276,22.510834381764,89.407161981764,42.979004,0,1.01355974372,6.8811025824,20,5,8.365,89.407161981764,66.601052,0.223694,2.23395020272,0,0,-6.71082,331.1, 0.5, 0.6,0,0,1024,1024,1684,1024,0,0,100,0,340.7,0,0,99,4.186,4.178,0,0,0,0,5.191,72.68,89.407161981764,66.601052,6,P-GPS,
16100,2022-08-24 21:25:59,-34.9180573621946,-56.1686441255633,67.585304,67.8149628,22.576451181764,90.391413981764,42.979004,0,0.87621065796,7.0238191224,20,5,8.365,90.391413981764,67.585304,0.223694,2.23395020272,0,0,-6.71082,331.2, 0.2, 1.7,0,0,1024,1024,1684,1024,0,0,100,0,340.7,0,0,99,4.186,4.178,0,0,0,0,5.191,72.68,90.391413981764,67.585304,6,P-GPS,
16200,2022-08-24 21:25:59,-34.9180574076391,-56.1686439322607,68.569556,68.7992148,22.576451181764,91.375665981764,42.979004,0,0.82708992148,7.0839569196,21,5,8.365,91.375665981764,68.569556,0.223694,2.23395020272,0,0,-6.71082,331.1, -0.2, 1.6,0,0,1024,1024,1684,1024,0,0,100,0,340.7,0,0,99,4.186,4.178,0,0,0,0,5.191,72.68,91.375665981764,68.569556,6,P-GPS,
16300,2022-08-24 21:26:00,-34.918057458736,-56.1686438035898,69.553808,69.7834668,22.576451181764,92.359917981764,42.979004,0,0.79813322764,7.1267390732,21,5,8.365,92.359917981764,69.553808,0.223694,2.23395020272,0,0,-6.71082,331.2, -0.2, 1,0,0,1024,1024,1684,1024,0,0,100,0,340.7,0,0,99,4.186,4.178,0,0,0,0,5.191,72.68,92.359917981764,69.553808,6,P-GPS,
16400,2022-08-24 21:26:00,-34.9180575191212,-56.168643708751,70.53806,70.8005272,22.543642781764,93.344169981764,42.979004,0,0.7810695788,7.1626642712,21,5,8.359,93.344169981764,70.53806,0.223694,2.23395020272,0,0,-6.71082,331.2, -0.6, 0.6,0,0,1024,1024,1684,1024,0,0,100,0,340.7,0,0,99,4.185,4.175,0,0,0,0,5.177,72.86,93.344169981764,70.53806,6,P-GPS,
16500,2022-08-24 21:26:00,-34.9180574994893,-56.1686434483686,71.522312,71.6535456,22.674876381764,94.328421981764,42.979004,0,0.70791668932,7.2408794968,21,5,8.359,94.328421981764,71.522312,0.223694,2.23395020272,0,0,-6.71082,331.2, -1, 0.1,0,0,1024,1024,1684,1024,0,0,100,0,340.7,0,0,99,4.185,4.175,0,0,0,0,5.177,72.86,94.328421981764,71.522312,6,P-GPS,
16600,2022-08-24 21:26:00,-34.9180575278914,-56.1686432714254,72.506564,72.7034144,22.609259581764,95.312673981764,42.979004,0,0.66634516568,7.2948165064,21,5,8.359,95.312673981764,72.506564,0.223694,2.23395020272,0,0,-6.71082,331.1, -1.5, -0.4,0,0,1024,1024,1684,1024,0,0,100,0,340.7,0,0,99,4.185,4.175,0,0,0,0,5.177,72.86,95.312673981764,72.506564,6,P-GPS,
16700,2022-08-24 21:26:00,-34.9180575414895,-56.1686430924182,73.490816,73.6876664,22.609259581764,96.296925981764,42.979004,0,0.62320211968,7.3486222824,21,5,8.359,96.296925981764,73.490816,0.223694,2.23395020272,0,0,-6.71082,331.1, -1, -1.2,0,0,1024,1024,1684,1024,0,0,100,0,340.7,0,0,99,4.185,4.175,0,0,0,0,5.177,72.86,96.296925981764,73.490816,6,P-GPS,
16800,2022-08-24 21:26:00,-34.9180575482809,-56.1686429218183,74.475068,74.6719184,22.609259581764,97.281177981764,42.979004,0,0.5824147168,7.3997049612,21,5,8.359,97.281177981764,74.475068,0.223694,2.23395020272,0,0,-6.71082,331.2, -0.9, -0.4,0,0,1024,1024,1684,1024,0,0,100,0,340.7,0,0,99,4.185,4.175,0,0,0,0,5.177,72.86,97.281177981764,74.475068,6,P-GPS,
16900,2022-08-24 21:26:00,-34.9180575860046,-56.1686428680161,75.45932,75.6561704,22.609259581764,98.265429981764,42.979004,0,0.57775920484,7.4208991876,21,5,8.359,98.265429981764,75.45932,0.223694,2.23395020272,0,0,-6.71082,331.1, -1.7, 0.9,0,0,1024,1024,1684,1024,0,0,100,0,340.7,0,0,99,4.185,4.175,0,0,0,0,5.177,72.86,98.265429981764,75.45932,6,P-GPS,
