time(millisecond),datetime(utc),latitude,longitude,height_above_takeoff(feet),height_above_ground_at_drone_location(feet),ground_elevation_at_drone_location(feet),altitude_above_seaLevel(feet),height_sonar(feet),speed(mph),distance(feet),mileage(feet),satellites,gpslevel,voltage(v),max_altitude(feet),max_ascent(feet),max_speed(mph),max_distance(feet), xSpeed(mph), ySpeed(mph), zSpeed(mph), compass_heading(degrees), pitch(degrees), roll(degrees),isPhoto,isVideo,rc_elevator,rc_aileron,rc_throttle,rc_rudder,rc_elevator(percent),rc_aileron(percent),rc_throttle(percent),rc_rudder(percent),gimbal_heading(degrees),gimbal_pitch(degrees),gimbal_roll(degrees),battery_percent,voltageCell1,voltageCell2,voltageCell3,voltageCell4,voltageCell5,voltageCell6,current(A),battery_temperature(f),altitude(feet),ascent(feet),flycStateRaw,flycState,message
0,2022-08-13 21:10:19,-34.9272849104415,-56.1654659370001,0,0,5.140289862652,5.140289862652,0.328084,0,0,0,19,5,0,5.140289862652,0,0,0,0,0,0,168, -2, 0.9,0,0,364,364,364,1684,-100,-100,-100,100,178.7,0,0,40,3.824,3.823,0,0,0,0,0,87.8,5.140289862652,0,41,Motors_Started,"En vuelo Aeronave en Zona de altitud restringida (150). Vuela con precaución (Code: 190001)"
100,2022-08-13 21:10:19,-34.9272848845116,-56.1654659430393,0,0,5.140289862652,5.140289862652,0.328084,0,0.0096314307544,0.0096314307544,19,5,0,5.140289862652,0,0,0.0096314307544,0,0,0,168.3, -2.4, 1.2,0,0,364,364,364,1684,-100,-100,-100,100,178.6,0,0,40,3.824,3.823,0,0,0,0,0,87.8,5.140289862652,0,41,Motors_Started,
200,2022-08-13 21:10:19,-34.9272848465355,-56.165465996864,0,0,5.140289862652,5.140289862652,0.328084,0,0.029399115114,0.0308731309092,19,5,0,5.140289862652,0,0,0.029399115114,0,0,0,168.1, -2.1, 1.3,0,0,364,364,364,1684,-100,-100,-100,100,178.6,0,0,40,3.824,3.823,0,0,0,0,0,87.8,5.140289862652,0,41,Motors_Started,
300,2022-08-13 21:10:19,-34.9272848005016,-56.1654660483424,0,0,5.140289862652,5.140289862652,0.328084,0,0.052136484608,0.053659450536,19,5,0,5.140289862652,0,0,0.052136484608,0,0,0,168.3, -2.1, 1.6,0,0,364,364,364,1684,-100,-100,-100,100,178.6,0,0,40,3.824,3.823,0,0,0,0,0,87.8,5.140289862652,0,41,Motors_Started,
400,2022-08-13 21:10:19,-34.927284609622,-56.1654662213492,0,0,5.140289862652,5.140289862652,0.328084,0,0.138855319404,0.140425201344,19,5,0,5.140289862652,0,0,0.138855319404,0,0,0,168.1, -1.6, 1.7,0,0,364,364,787,1427,-100,-100,-36,61,178.7,0,0,40,3.824,3.823,0,0,0,0,0,87.8,5.140289862652,0,41,Motors_Started,
500,2022-08-13 21:10:20,-34.9272845692047,-56.1654662732625,0,0,5.140289862652,5.140289862652,0.328084,0,0.160056107484,0.161840228276,20,5,0,5.140289862652,0,0,0.160056107484,0,0,0,168.3, -2.1, 1.9,0,0,485,411,1024,1024,-82,-93,0,0,178.6,0,0,40,3.824,3.823,0,0,0,0,0,87.8,5.140289862652,0,41,Motors_Started,
600,2022-08-13 21:10:20,-34.9272845847401,-56.165466324343,0,0,5.140289862652,5.140289862652,0.328084,0,0.165970477752,0.178137472892,20,5,0,5.140289862652,0,0,0.165970477752,0,0,0,168.8, -2, 2.2,0,0,485,411,1024,1024,-82,-93,0,0,178.8,0,0,40,3.824,3.823,0,0,0,0,0,87.8,5.140289862652,0,41,Motors_Started,
700,2022-08-13 21:10:20,-34.92728461193,-56.165466389955,0,0,5.140289862652,5.140289862652,0.328084,0,0.173839900576,0.200128615328,19,5,0,5.140289862652,0,0,0.173839900576,0,0,0,170.7, -2, 2.4,0,0,1024,1024,1024,1024,0,0,0,0,179.9,0,0,40,3.824,3.823,0,0,0,0,0,87.8,5.140289862652,0,41,Motors_Started,
800,2022-08-13 21:10:20,-34.9272846497153,-56.1654664633793,0,0,5.140289862652,5.140289862652,0.328084,0.223694,0.183960963892,0.226060374688,19,5,0,5.140289862652,0,0.223694,0.183960963892,-0.223694,0,0,172, -2.1, 2.4,0,0,1024,1024,1024,1024,0,0,0,0,181.7,0,0,40,3.824,3.823,0,0,0,0,0,87.8,5.140289862652,0,41,Motors_Started,
900,2022-08-13 21:10:20,-34.9272847446037,-56.1654665088003,0,0,5.140289862652,5.140289862652,0.328084,0.223694,0.181430452,0.263250992676,19,5,7.646,5.140289862652,0,0.223694,0.183960963892,-0.223694,0,0,173.4, -3.2, 0.8,0,0,1024,1024,1024,1024,0,0,0,0,183,0,0,40,3.824,3.823,0,0,0,0,0.65,87.8,5.140289862652,0,41,Motors_Started,"Setting new Return-To-Home altitude to 40m (131 ft). Data Recorder File Index is 50. Setting new Maximum Flight Altitude to 120m (394 ft)"
1000,2022-08-13 21:10:20,-34.9272848998637,-56.1654665825396,0,0,5.140289862652,5.140289862652,0.328084,0.223694,0.193140426128,0.324040692784,19,5,7.646,5.140289862652,0,0.223694,0.193140426128,-0.223694,0,0,174.8, -4.4, -0.8,0,0,1024,1024,1024,1024,0,0,0,0,184.2,0,0,40,3.824,3.823,0,0,0,0,0.65,87.8,5.140289862652,0,41,Motors_Started,
1100,2022-08-13 21:10:20,-34.9272850588814,-56.1654666464183,0,0,5.140289862652,5.140289862652,0.328084,0.223694,0.219011818032,0.38512468424,19,5,7.646,5.140289862652,0,0.223694,0.219011818032,-0.223694,0,0,176.2, -4.4, -1.2,0,0,1024,1024,1024,1024,0,0,0,0,185.8,0,0,40,3.824,3.823,0,0,0,0,0.65,87.8,5.140289862652,0,10,Assisted_Takeoff,
1200,2022-08-13 21:10:20,-34.9272851612489,-56.1654667271269,0,0,5.140289862652,5.140289862652,0.328084,0.223694,0.253448498924,0.42959647044,19,5,7.646,5.140289862652,0,0.223694,0.253448498924,-0.223694,0,0,176.6, -4.9, 0,0,0,1024,1024,1024,1024,0,0,0,0,186.5,0,0,40,3.824,3.823,0,0,0,0,0.65,87.8,5.140289862652,0,10,Assisted_Takeoff,
1300,2022-08-13 21:10:20,-34.9272852943861,-56.1654668254721,0,0,5.140289862652,5.140289862652,0.328084,0,0.30042815922,0.48638453,19,5,7.646,5.140289862652,0,0.223694,0.30042815922,0,0,0,177.3, -5.9, 0.1,0,0,1024,1024,1024,1024,0,0,0,0,187,0,0,40,3.824,3.823,0,0,0,0,0.65,87.8,5.140289862652,0,10,Assisted_Takeoff,
1400,2022-08-13 21:10:20,-34.9272853455452,-56.1654668878335,0,0,5.140289862652,5.140289862652,0.328084,0,0.325727372628,0.51277560696,19,5,7.646,5.140289862652,0,0.223694,0.325727372628,0,0,0,178.3, -7.7, 0,0,0,1024,1024,1024,1024,0,0,0,0,188.3,0,0,40,3.824,3.823,0,0,0,0,0.65,87.8,5.140289862652,0,10,Assisted_Takeoff,
1500,2022-08-13 21:10:21,-34.9272853795294,-56.1654669477533,0,0,5.140289862652,5.140289862652,0.328084,0,0.34742783264,0.53457022708,19,5,7.646,5.140289862652,0,0.223694,0.34742783264,0,0,0,180.1, -9.3, -0.4,0,0,1024,1024,1024,1024,0,0,0,0,189.4,0,0,40,3.824,3.823,0,0,0,0,0.65,87.8,5.140289862652,0,10,Assisted_Takeoff,
1600,2022-08-13 21:10:21,-34.927285418609,-56.1654669620361,0,0,5.140289862652,5.140289862652,0.328084,0,0.3583169406,0.54945211732,19,5,7.646,5.140289862652,0,0.223694,0.3583169406,0,0,0,180.6, -10.4, -0.4,0,0,1024,1024,1024,1024,0,0,0,0,190.6,0,0,40,3.824,3.823,0,0,0,0,0.65,87.8,5.140289862652,0,10,Assisted_Takeoff,
1700,2022-08-13 21:10:21,-34.9272851920733,-56.1654670090892,0,0,5.140289862652,5.140289862652,0.328084,0,0.33675526012,0.63329398352,20,5,7.646,5.140289862652,0,0.223694,0.3583169406,0,0,0,181.5, -11.5, -0.6,0,0,1024,1024,1024,1024,0,0,0,0,191.3,0,0,40,3.824,3.823,0,0,0,0,0.65,87.8,5.140289862652,0,10,Assisted_Takeoff,
1800,2022-08-13 21:10:21,-34.9272851159994,-56.1654670359835,-0.328084,-0.328084,5.140289862652,4.812205862652,0.328084,0,0.337188331,0.66219162224,20,5,7.646,5.140289862652,0,0.223694,0.3583169406,0,0,0,181.5, -11.5, -1.4,0,0,1024,1024,1024,1024,0,0,0,0,191.4,0,0,40,3.824,3.823,0,0,0,0,0.65,87.8,4.812205862652,-0.328084,10,Assisted_Takeoff,
1900,2022-08-13 21:10:21,-34.9272850404931,-56.1654670560373,-0.328084,-0.328084,5.140289862652,4.812205862652,0.328084,0,0.33808728116,0.6903871612,20,5,7.614,5.140289862652,0,0.223694,0.3583169406,0,0,0,181.6, -11.3, -1.4,0,0,1024,1024,1024,1024,0,0,0,0,191.8,0,0,40,3.813,3.809,0,0,0,0,1.449,87.8,4.812205862652,-0.328084,10,Assisted_Takeoff,
2000,2022-08-13 21:10:21,-34.9272849739976,-56.1654670645116,-0.328084,-0.328084,5.140289862652,4.812205862652,0.328084,0,0.33807087696,0.7147802066,20,5,7.614,5.140289862652,0,0.223694,0.3583169406,0,0,0,181.8, -11.5, -1.4,0,0,1024,1024,1024,1024,0,0,0,0,191.8,0,0,40,3.813,3.809,0,0,0,0,1.449,87.8,4.812205862652,-0.328084,10,Assisted_Takeoff,
2100,2022-08-13 21:10:21,-34.9272849455024,-56.1654670238657,-0.328084,-0.328084,5.140289862652,4.812205862652,0.328084,0,0.325368448732,0.73077758244,20,5,7.614,5.140289862652,0,0.223694,0.3583169406,0,0,0,182.3, -11.5, -1.9,0,0,1024,1024,1024,1024,0,0,0,0,191.9,0,0,40,3.813,3.809,0,0,0,0,1.449,87.8,4.812205862652,-0.328084,10,Assisted_Takeoff,
2200,2022-08-13 21:10:21,-34.9272849520637,-56.1654670029936,-0.328084,-0.328084,5.140289862652,4.812205862652,0.328084,0,0.319234590268,0.73746393436,20,5,7.614,5.140289862652,0,0.223694,0.3583169406,0,0,0,183.2, -11.6, -2.5,0,0,1024,1024,1024,1024,0,0,0,0,192.3,0,0,40,3.813,3.809,0,0,0,0,1.449,87.8,4.812205862652,-0.328084,10,Assisted_Takeoff,
2300,2022-08-13 21:10:21,-34.9272849615192,-56.1654669789058,-0.328084,-0.328084,5.140289862652,4.812205862652,0.328084,0,0.31222441944,0.74545277976,19,5,7.614,5.140289862652,0,0.223694,0.3583169406,0,0,0,185.5, -12.4, -3.8,0,0,1024,1024,1024,1024,0,0,0,0,194,0,0,40,3.813,3.809,0,0,0,0,1.449,87.8,4.812205862652,-0.328084,10,Assisted_Takeoff,
2400,2022-08-13 21:10:21,-34.9272849322088,-56.1654669493094,-0.328084,-0.328084,5.140289862652,4.812205862652,0.328084,0,0.302918644864,0.7593340138,19,5,7.614,5.140289862652,0,0.223694,0.3583169406,0,0,0,185.7, -12.5, -4.8,0,0,1024,1024,1024,1024,0,0,0,0,194.7,0,0,40,3.813,3.809,0,0,0,0,1.449,87.8,4.812205862652,-0.328084,10,Assisted_Takeoff,
2500,2022-08-13 21:10:22,-34.9272848832645,-56.1654669370718,-0.328084,-0.328084,5.140289862652,4.812205862652,0.328084,0,0.299318251048,0.77756236084,19,5,7.614,5.140289862652,0,0.223694,0.3583169406,0,0,0,184.5, -12.2, -4.1,0,0,1024,1024,1024,1024,0,0,0,0,194.7,0,0,40,3.813,3.809,0,0,0,0,1.449,87.8,4.812205862652,-0.328084,10,Assisted_Takeoff,
2600,2022-08-13 21:10:22,-34.9272847069924,-56.1654670241189,-0.328084,-0.328084,5.140289862652,4.812205862652,0.328084,0,0.33355644112,0.846948846,19,5,7.614,5.140289862652,0,0.223694,0.3583169406,0,0,0,185, -11.8, -3.8,0,0,1024,1024,1024,1024,0,0,0,0,194.5,0,0,40,3.813,3.809,0,0,0,0,1.449,87.8,4.812205862652,-0.328084,10,Assisted_Takeoff,
2700,2022-08-13 21:10:22,-34.9272846248452,-56.1654670631023,-0.328084,-0.328084,5.140289862652,4.812205862652,0.328084,0,0.35260171732,0.87910763968,19,5,7.614,5.140289862652,0,0.223694,0.3583169406,0,0,0,183.9, -11.4, -2.2,0,0,1024,1024,1024,1024,0,0,0,0,194.5,0,0,40,3.813,3.809,0,0,0,0,1.449,87.8,4.812205862652,-0.328084,10,Assisted_Takeoff,
2800,2022-08-13 21:10:22,-34.9272845379608,-56.1654671228324,-0.656168,-0.656168,5.140289862652,4.484121862652,0.328084,0,0.37986221688,0.91549543612,19,5,7.614,5.140289862652,0,0.223694,0.37986221688,0,0,0,183.7, -11.8, -2.4,0,0,1024,1024,1024,1024,0,0,0,0,194,0,0,40,3.813,3.809,0,0,0,0,1.449,87.8,4.484121862652,-0.656168,10,Assisted_Takeoff,
2900,2022-08-13 21:10:22,-34.9272844539716,-56.1654671770996,-0.656168,-0.6889764,5.173098262652,4.484121862652,0.328084,0,0.40662402876,0.95017391492,19,5,7.626,5.140289862652,0,0.223694,0.40662402876,0,0,0.223694,183.9, -14.7, -3.5,0,0,1024,1024,1024,1024,0,0,0,0,193.8,0,0,40,3.814,3.811,0,0,0,0,1.312,87.62,4.484121862652,-0.656168,10,Assisted_Takeoff,
3000,2022-08-13 21:10:22,-34.9272842711085,-56.1654674632631,-0.656168,-0.6889764,5.173098262652,4.484121862652,0.328084,0,0.51269030512,1.05870410212,19,5,7.626,5.140289862652,0,0.223694,0.51269030512,0,0,0.223694,183.4, -18.5, -2.4,0,0,1024,1024,1024,1024,0,0,0,0,193.5,0,0,40,3.814,3.811,0,0,0,0,1.312,87.62,4.484121862652,-0.656168,10,Assisted_Takeoff,
3100,2022-08-13 21:10:22,-34.9272842130771,-56.1654675641441,-0.656168,-0.6889764,5.173098262652,4.484121862652,0.328084,0,0.54922245852,1.09556762036,19,5,7.626,5.140289862652,0,0.223694,0.54922245852,0,0,0.223694,184, -20.3, -3,0,0,1024,1024,1024,1024,0,0,0,0,193.3,0,0,40,3.814,3.811,0,0,0,0,1.312,87.62,4.484121862652,-0.656168,10,Assisted_Takeoff,
3200,2022-08-13 21:10:22,-34.9272842477762,-56.1654676305378,-0.656168,-0.6889764,5.173098262652,4.484121862652,0.328084,0.447388,0.56132875812,1.11912077072,19,5,7.626,5.140289862652,0,0.447388,0.56132875812,-0.447388,0,0,184.1, -22, -2.9,0,0,1024,1024,1024,1024,0,0,0,0,193.4,0,0,40,3.814,3.811,0,0,0,0,1.312,87.62,4.484121862652,-0.656168,10,Assisted_Takeoff,
3300,2022-08-13 21:10:22,-34.9272847305368,-56.1654675308385,-0.656168,-0.656168,5.140289862652,4.484121862652,0.328084,2.7290668,0.4812664196,1.29776250872,19,5,7.626,5.140289862652,0,2.7290668,0.56132875812,-2.684328,0.447388,-2.460634,182.3, -18.1, 0,0,0,1024,1024,1024,1024,0,0,0,0,193.4,0,0,40,3.814,3.811,0,0,0,0,1.312,87.62,4.484121862652,-0.656168,6,P-GPS,
3400,2022-08-13 21:10:22,-34.9272862894878,-56.1654672090983,0,0,5.140289862652,5.140289862652,0.984252,3.6014734,0.63083663436,1.87462932508,19,5,7.626,5.140289862652,0,3.6014734,0.63083663436,-3.579104,0.447388,-4.697574,187.8, -7.8, 5,0,0,1024,1024,1024,1024,0,0,0,0,193.4,0,0,40,3.814,3.811,0,0,0,0,1.312,87.62,5.140289862652,0,6,P-GPS,
3500,2022-08-13 21:10:23,-34.9272876883961,-56.1654669616206,0.328084,0.3608924,5.107481462652,5.468373862652,1.64042,3.6014734,1.05886486328,2.39036096888,19,5,7.626,5.468373862652,0.328084,3.6014734,1.05886486328,-3.579104,0.447388,-3.131716,189.8, 15.7, 7.4,0,0,1024,1024,1024,1024,0,0,0,0,193.4,0,0,40,3.814,3.811,0,0,0,0,1.312,87.62,5.468373862652,0.328084,6,P-GPS,
3600,2022-08-13 21:10:23,-34.9272890967893,-56.16546679498,0.984252,1.0170604,5.107481462652,6.124541862652,1.968504,3.131716,1.54879926216,2.90662410876,19,5,7.626,6.124541862652,0.984252,3.6014734,1.54879926216,-3.131716,0.223694,-2.013246,188.4, 20.7, 7.5,0,0,1024,1024,1024,1024,0,0,0,0,193.4,0,0,40,3.814,3.811,0,0,0,0,1.312,87.62,6.124541862652,0.984252,6,P-GPS,
3700,2022-08-13 21:10:23,-34.9272903574456,-56.1654666826095,0.984252,1.0170604,5.107481462652,6.124541862652,2.296588,3.131716,1.99981305612,3.3678150684,19,5,7.626,6.124541862652,0.984252,3.6014734,1.99981305612,-3.131716,0.223694,-0.671082,186.8, 19.8, 4.3,0,0,1024,1024,1024,1024,0,0,0,0,193.4,0,0,40,3.814,3.811,0,0,0,0,1.312,87.62,6.124541862652,0.984252,6,P-GPS,
3800,2022-08-13 21:10:23,-34.9272922858099,-56.1654663253788,0.984252,1.0498688,5.074673062652,6.124541862652,2.624672,2.460634,2.693405598,4.0794292644,19,5,7.626,6.124541862652,0.984252,3.6014734,2.693405598,-2.460634,0,0.671082,185.8, 20.8, 3.8,0,0,1024,1024,1024,1024,0,0,0,0,193.4,0,0,40,3.814,3.811,0,0,0,0,1.312,87.62,6.124541862652,0.984252,6,P-GPS,
3900,2022-08-13 21:10:23,-34.9272934716192,-56.1654661870688,0.984252,1.0498688,5.074673062652,6.124541862652,2.296588,2.013246,3.12443579552,4.5140421392,19,5,7.626,6.124541862652,0.984252,3.6014734,3.12443579552,-2.013246,0,1.342164,184.5, 20.5, 2.7,0,0,1024,1024,1024,1024,0,0,0,0,193.4,0,0,40,3.813,3.811,0,0,0,0,1.196,87.62,6.124541862652,0.984252,6,P-GPS,
4000,2022-08-13 21:10:23,-34.9272945676458,-56.1654660095107,0.984252,1.0826772,5.041864662652,6.124541862652,2.296588,1.342164,3.5234909264,4.9174542256,19,5,7.626,6.124541862652,0.984252,3.6014734,3.5234909264,-1.342164,0,1.789552,183.1, 14.6, 1.1,0,0,1024,1024,1024,1024,0,0,0,0,193.4,0,0,40,3.813,3.811,0,0,0,0,1.196,87.62,6.124541862652,0.984252,6,P-GPS,
4100,2022-08-13 21:10:23,-34.9272952282331,-56.1654659279168,0.984252,1.0826772,5.041864662652,6.124541862652,1.968504,0.7158208,3.764435816,5.1596786428,19,5,7.626,6.124541862652,0.984252,3.6014734,3.764435816,-0.671082,-0.223694,1.789552,182.7, 8.4, -0.6,0,0,1024,1024,1053,1095,0,0,4,11,193.4,0,0,40,3.813,3.811,0,0,0,0,1.196,87.62,6.124541862652,0.984252,6,P-GPS,
4200,2022-08-13 21:10:23,-34.9272953626205,-56.165465969438,0.984252,1.0826772,5.041864662652,6.124541862652,1.64042,0.3131716,3.813484374,5.2102691956,19,5,7.626,6.124541862652,0.984252,3.6014734,3.813484374,-0.223694,-0.223694,1.342164,182.8, 4.3, -1.8,0,0,1024,1024,1043,1684,0,0,3,100,193.5,0,0,40,3.813,3.811,0,0,0,0,1.196,87.62,6.124541862652,0.984252,6,P-GPS,
4300,2022-08-13 21:10:23,-34.9272954063865,-56.1654656711987,0.984252,1.0826772,5.041864662652,6.124541862652,1.64042,0.223694,3.8302494664,5.3008859964,19,5,7.626,6.124541862652,0.984252,3.6014734,3.8302494664,0,-0.223694,0.894776,183.4, 1.8, -2.8,0,0,1024,1024,1024,1387,0,0,0,55,195.7,0,0,40,3.813,3.811,0,0,0,0,1.196,87.62,6.124541862652,0.984252,6,P-GPS,
4400,2022-08-13 21:10:23,-34.9272952113453,-56.1654658618799,0.984252,1.0826772,5.041864662652,6.124541862652,1.64042,0.223694,3.7583334536,5.3920933484,19,5,7.626,6.124541862652,0.984252,3.6014734,3.8302494664,0,-0.223694,0.447388,186.7, 1, -3.1,0,0,1024,1024,1024,1024,0,0,0,0,199.8,0,0,40,3.813,3.811,0,0,0,0,1.196,87.62,6.124541862652,0.984252,6,P-GPS,
4500,2022-08-13 21:10:24,-34.927294929583,-56.1654660339093,0.984252,1.0826772,5.041864662652,6.124541862652,1.64042,0.223694,3.6555775448,5.507053982,19,5,7.626,6.124541862652,0.984252,3.6014734,3.8302494664,0,-0.223694,0,190.1, 0.1, -2.9,0,0,1024,1024,1024,1024,0,0,0,0,202.1,0,0,40,3.813,3.811,0,0,0,0,1.196,87.62,6.124541862652,0.984252,6,P-GPS,
4600,2022-08-13 21:10:24,-34.9272945046039,-56.1654662148128,0.984252,1.0826772,5.041864662652,6.124541862652,1.64042,0.223694,3.5014108732,5.6712928324,19,5,7.626,6.124541862652,0.984252,3.6014734,3.8302494664,0,-0.223694,0,191.8, 0, -3.1,0,0,1024,1024,1215,1024,0,0,29,0,202.9,0,0,40,3.813,3.811,0,0,0,0,1.196,87.62,6.124541862652,0.984252,6,P-GPS,
4700,2022-08-13 21:10:24,-34.927292987885,-56.1654667587778,0.984252,1.0498688,5.074673062652,6.124541862652,1.64042,0.223694,2.9572835592,6.2480973128,19,5,7.626,6.124541862652,0.984252,3.6014734,3.8302494664,0,-0.223694,-0.223694,192.1, 0.3, -3.1,0,0,1024,1024,1684,1024,0,0,100,0,202.9,0,0,40,3.813,3.811,0,0,0,0,1.196,87.62,6.124541862652,0.984252,6,P-GPS,
4800,2022-08-13 21:10:24,-34.9272926786777,-56.1654670101821,0.984252,1.0498688,5.074673062652,6.124541862652,1.64042,0.223694,2.85235901516,6.3836616216,19,5,7.626,6.124541862652,0.984252,3.6014734,3.8302494664,0,-0.223694,-0.223694,192.2, 0.5, -3.1,0,0,1024,1024,1684,1024,0,0,100,0,202.9,0,0,40,3.813,3.811,0,0,0,0,1.196,87.62,6.124541862652,0.984252,6,P-GPS,
4900,2022-08-13 21:10:24,-34.9272924438333,-56.1654672163539,0.984252,1.0498688,5.074673062652,6.124541862652,1.64042,0.223694,2.77506898644,6.4892390528,19,5,7.605,6.124541862652,0.984252,3.6014734,3.8302494664,0,-0.223694,-0.671082,192.3, 0.9, -2.9,0,0,1024,1024,1684,1024,0,0,100,0,202.9,0,0,40,3.751,3.739,0,0,0,0,2.111,87.62,6.124541862652,0.984252,6,P-GPS,
5000,2022-08-13 21:10:24,-34.9272923461812,-56.1654673600316,0.984252,1.0498688,5.074673062652,6.124541862652,1.64042,0,2.74611885428,6.5450789496,19,5,7.605,6.124541862652,0.984252,3.6014734,3.8302494664,0,0,-1.342164,192.3, 0.8, -2.6,0,0,1024,1024,1684,1024,0,0,100,0,202.9,0,0,40,3.751,3.739,0,0,0,0,2.111,87.62,6.124541862652,0.984252,6,P-GPS,
5100,2022-08-13 21:10:24,-34.9272925916382,-56.1654676673088,1.312336,1.3779528,5.074673062652,6.452625862652,1.968504,0,2.84987541928,6.673392602,19,5,7.605,6.452625862652,1.312336,3.6014734,3.8302494664,0,0,-2.013246,192.3, 0.9, -2.7,0,0,1024,1024,1625,1024,0,0,91,0,202.9,0,0,40,3.751,3.739,0,0,0,0,2.111,87.62,6.452625862652,1.312336,6,P-GPS,
5200,2022-08-13 21:10:24,-34.9272926024486,-56.1654677154745,1.64042,1.7060368,5.074673062652,6.780709862652,2.296588,0,2.85640429088,6.688320424,19,5,7.605,6.780709862652,1.64042,3.6014734,3.8302494664,0,0,-2.684328,192.1, 0.7, -2.5,0,0,1024,1024,1024,1024,0,0,0,0,202.9,0,0,40,3.751,3.739,0,0,0,0,2.111,87.62,6.780709862652,1.64042,6,P-GPS,
5300,2022-08-13 21:10:24,-34.9272926186752,-56.1654677583372,1.968504,2.0341208,5.074673062652,7.108793862652,2.952756,0,2.8646326376,6.7024608444,19,5,7.605,7.108793862652,1.968504,3.6014734,3.8302494664,0,0,-2.908022,192.3, 0.4, -3.3,0,0,1024,1024,1024,1024,0,0,0,0,202.9,0,0,40,3.751,3.739,0,0,0,0,2.111,87.62,7.108793862652,1.968504,6,P-GPS,
5400,2022-08-13 21:10:25,-34.9272926504331,-56.165467818882,2.624672,2.6902888,5.074673062652,7.764961862652,3.28084,0,2.8794948428,6.7239503464,19,5,7.605,7.764961862652,2.624672,3.6014734,3.8302494664,0,0,-2.684328,192.4, 1.2, -3.5,0,0,1024,1024,1024,1024,0,0,0,0,202.9,0,0,40,3.751,3.739,0,0,0,0,2.111,87.62,7.764961862652,2.624672,6,P-GPS,
5500,2022-08-13 21:10:25,-34.9272932576693,-56.1654677521375,2.952756,3.0183728,5.074673062652,8.093045862652,3.608924,0,3.093504036,6.9463912984,19,5,7.605,8.093045862652,2.952756,3.6014734,3.8302494664,0,0,-2.013246,192.3, 2.1, -3.4,0,0,1024,1024,1024,1024,0,0,0,0,202.9,0,0,40,3.751,3.739,0,0,0,0,2.111,87.62,8.093045862652,2.952756,6,P-GPS,
5600,2022-08-13 21:10:25,-34.9272933956571,-56.1654677664994,3.28084,3.3464568,5.074673062652,8.421129862652,3.937008,0,3.14382555992,6.9969490428,19,5,7.605,8.421129862652,3.28084,3.6014734,3.8302494664,0,0,-1.565858,192.3, 2.5, -3.3,0,0,1024,1024,1024,1024,0,0,0,0,202.9,0,0,40,3.751,3.739,0,0,0,0,2.111,87.62,8.421129862652,3.28084,6,P-GPS,
5700,2022-08-13 21:10:25,-34.9272934763132,-56.1654678029847,3.28084,3.3464568,5.074673062652,8.421129862652,3.937008,0,3.17470810684,7.0283138732,19,5,7.605,8.421129862652,3.28084,3.6014734,3.8302494664,0,0,-0.894776,192.5, 2.1, -3.3,0,0,1024,1024,1024,1024,0,0,0,0,202.9,0,0,40,3.751,3.739,0,0,0,0,2.111,87.62,8.421129862652,3.28084,6,P-GPS,
5800,2022-08-13 21:10:25,-34.9272934305238,-56.1654678976286,3.608924,3.6745408,5.074673062652,8.749213862652,4.265092,0,3.16338920884,7.06118789,19,5,7.605,8.749213862652,3.608924,3.6014734,3.8302494664,0,0,-0.447388,192.6, 2.2, -3.4,0,0,1049,1024,1024,1024,4,0,0,0,202.9,0,0,40,3.751,3.739,0,0,0,0,2.111,87.62,8.749213862652,3.608924,6,P-GPS,
5900,2022-08-13 21:10:25,-34.9272933879684,-56.1654679975408,3.608924,3.6745408,5.074673062652,8.749213862652,4.265092,0.223694,3.1538386836,7.0948821168,19,5,7.498,8.749213862652,3.608924,3.6014734,3.8302494664,0,-0.223694,0,192.6, 2.3, -3.4,0,0,1467,1024,1024,1024,67,0,0,0,202.9,0,0,40,3.724,3.711,0,0,0,0,5.392,87.62,8.749213862652,3.608924,6,P-GPS,
6000,2022-08-13 21:10:25,-34.9272933084157,-56.1654682650163,3.608924,3.6745408,5.074673062652,8.749213862652,4.265092,0,3.14213592732,7.1799871064,19,5,7.498,8.749213862652,3.608924,3.6014734,3.8302494664,0,0,0,192.6, 2.7, -3.7,0,0,1467,1024,1024,1024,67,0,0,0,202.9,0,0,40,3.724,3.711,0,0,0,0,5.392,87.62,8.749213862652,3.608924,6,P-GPS,
6100,2022-08-13 21:10:25,-34.9272933046491,-56.1654683854652,3.608924,3.6745408,5.074673062652,8.749213862652,4.265092,0,3.14897975956,7.216043538,19,5,7.498,8.749213862652,3.608924,3.6014734,3.8302494664,0,0,0,192.8, -0.7, -3.5,0,0,1684,1024,1024,1024,100,0,0,0,202.9,0,0,40,3.724,3.711,0,0,0,0,5.392,87.62,8.749213862652,3.608924,6,P-GPS,
6200,2022-08-13 21:10:25,-34.9272934119733,-56.1654685456223,3.608924,3.6745408,5.074673062652,8.749213862652,4.265092,0.223694,3.19842858004,7.2779201804,19,5,7.498,8.749213862652,3.608924,3.6014734,3.8302494664,-0.223694,0,0,193.2, -9.2, -3.3,0,0,1684,1024,1024,1024,100,0,0,0,202.9,0,0,40,3.724,3.711,0,0,0,0,5.392,87.62,8.749213862652,3.608924,6,P-GPS,
6300,2022-08-13 21:10:25,-34.9272936456233,-56.1654686989317,3.608924,3.7073492,5.041864662652,8.749213862652,4.265092,0.7158208,3.2923885568,7.3747049604,19,5,7.498,8.749213862652,3.608924,3.6014734,3.8302494664,-0.671082,-0.223694,0,193.4, -14.2, -3.4,0,0,1684,1024,1024,1024,100,0,0,0,202.9,0,0,40,3.724,3.711,0,0,0,0,5.392,87.62,8.749213862652,3.608924,6,P-GPS,
6400,2022-08-13 21:10:25,-34.9272943620629,-56.1654689009103,3.608924,3.7073492,5.041864662652,8.749213862652,4.265092,1.3645334,3.5605644184,7.6430120556,19,5,7.498,8.749213862652,3.608924,3.6014734,3.8302494664,-1.342164,-0.223694,0,193.2, -15.1, -3.2,0,0,1684,1024,1024,1024,100,0,0,0,202.9,0,0,40,3.724,3.711,0,0,0,0,5.392,87.62,8.749213862652,3.608924,6,P-GPS,
6500,2022-08-13 21:10:26,-34.9272950290646,-56.165469093729,3.608924,3.7073492,5.041864662652,8.749213862652,4.265092,1.8342908,3.8106300432,7.8931104888,19,5,7.498,8.749213862652,3.608924,3.6014734,3.8302494664,-1.789552,-0.447388,0,193.2, -15, -3.1,0,0,1684,1024,1024,1024,100,0,0,0,202.9,0,0,40,3.724,3.711,0,0,0,0,5.392,87.62,8.749213862652,3.608924,6,P-GPS,
6600,2022-08-13 21:10:26,-34.9272959757597,-56.1654693692721,3.608924,3.7401576,5.009056262652,8.749213862652,4.265092,2.5053728,4.165682548,8.248195802,19,5,7.498,8.749213862652,3.608924,3.6014734,4.165682548,-2.460634,-0.447388,0,193.1, -14.7, -3.1,0,0,1684,1024,1024,1024,100,0,0,0,202.9,0,0,40,3.724,3.711,0,0,0,0,5.392,87.62,8.749213862652,3.608924,6,P-GPS,
6700,2022-08-13 21:10:26,-34.9272971048455,-56.1654696548506,3.608924,3.7401576,5.009056262652,8.749213862652,4.265092,3.1988242,4.5860237688,8.6688979152,19,5,7.498,8.749213862652,3.608924,3.6014734,4.5860237688,-3.131716,-0.671082,0,193.1, -15, -2.9,0,0,1684,1024,1024,1024,100,0,0,0,202.9,0,0,40,3.724,3.711,0,0,0,0,5.392,87.62,8.749213862652,3.608924,6,P-GPS,
6800,2022-08-13 21:10:26,-34.927298779946,-56.1654698105528,3.608924,3.772966,4.976247862652,8.749213862652,3.937008,3.8699062,5.1912403236,9.281824444,19,5,7.498,8.749213862652,3.608924,3.8699062,5.1912403236,-3.802798,-0.671082,0,193, -14.6, -2.6,0,0,1684,1024,1024,1024,100,0,0,0,202.9,0,0,40,3.724,3.711,0,0,0,0,5.392,87.62,8.749213862652,3.608924,6,P-GPS,
6900,2022-08-13 21:10:26,-34.9273004206473,-56.1654701496637,3.608924,3.772966,4.976247862652,8.749213862652,3.937008,4.3396636,5.7975067472,9.8889766944,19,5,7.528,8.749213862652,3.608924,4.3396636,5.7975067472,-4.250186,-0.894776,0,193.1, -14.3, -2.6,0,0,1684,1024,1024,1024,100,0,0,0,202.9,0,0,40,3.753,3.745,0,0,0,0,4.651,87.62,8.749213862652,3.608924,6,P-GPS,
7000,2022-08-13 21:10:26,-34.9273024818487,-56.1654705687031,3.608924,3.8057744,4.943439462652,8.749213862652,3.937008,5.0107456,6.5589240944,10.6513782936,19,5,7.528,8.749213862652,3.608924,5.0107456,6.5589240944,-4.921268,-0.894776,0,193.1, -13.8, -2.5,0,0,1684,1024,1024,1024,100,0,0,0,202.9,0,0,40,3.753,3.745,0,0,0,0,4.651,87.62,8.749213862652,3.608924,6,P-GPS,
7100,2022-08-13 21:10:26,-34.9273046231792,-56.1654709857805,3.608924,3.8385828,4.910631062652,8.749213862652,4.265092,5.480503,7.3490487916,11.4425528596,19,5,7.528,8.749213862652,3.608924,5.480503,7.3490487916,-5.368656,-1.11847,0,193.2, -13.4, -2.4,0,0,1684,1024,1024,1024,100,0,0,0,202.9,0,0,40,3.753,3.745,0,0,0,0,4.651,87.62,8.749213862652,3.608924,6,P-GPS,
7200,2022-08-13 21:10:26,-34.9273076040134,-56.1654711107699,3.608924,3.8713912,4.877822662652,8.749213862652,4.265092,5.927891,8.4231301908,12.5307418708,19,5,7.528,8.749213862652,3.608924,5.927891,8.4231301908,-5.816044,-1.11847,0,193.2, -13.3, -2.4,0,0,1684,1024,1024,1024,100,0,0,0,202.9,0,0,40,3.753,3.745,0,0,0,0,4.651,87.62,8.749213862652,3.608924,6,P-GPS,
7300,2022-08-13 21:10:26,-34.9273100641363,-56.1654715278061,3.608924,3.9041996,4.845014262652,8.749213862652,4.265092,6.3976484,9.3284451804,13.4369426872,19,5,7.528,8.749213862652,3.608924,6.3976484,9.3284451804,-6.263432,-1.342164,0,193.1, -13.1, -2.7,0,0,1684,1024,1024,1024,100,0,0,0,202.9,0,0,40,3.753,3.745,0,0,0,0,4.651,87.62,8.749213862652,3.608924,6,P-GPS,
7400,2022-08-13 21:10:26,-34.9273128253716,-56.1654719537606,3.608924,3.937008,4.812205862652,8.749213862652,4.265092,6.6213424,10.3425528244,14.4523954756,19,5,7.528,8.749213862652,3.608924,6.6213424,10.3425528244,-6.487126,-1.342164,0,193.2, -13.3, -2.3,0,0,1684,1024,1024,1024,100,0,0,0,202.9,0,0,40,3.753,3.745,0,0,0,0,4.651,87.62,8.749213862652,3.608924,6,P-GPS,
7500,2022-08-13 21:10:27,-34.9273155911078,-56.1654723900068,3.608924,3.9698164,4.779397462652,8.749213862652,4.593176,7.1134692,11.3590226732,15.4698823848,19,5,7.528,8.749213862652,3.608924,7.1134692,11.3590226732,-6.934514,-1.565858,0,193.3, -13.7, -2.4,0,0,1684,1024,1024,1024,100,0,0,0,202.9,0,0,40,3.753,3.745,0,0,0,0,4.651,87.62,8.749213862652,3.608924,6,P-GPS,
7600,2022-08-13 21:10:27,-34.9273186316473,-56.1654728878289,3.608924,4.0026248,4.746589062652,8.749213862652,4.593176,7.5384878,12.4776250712,16.5891737592,19,5,7.528,8.749213862652,3.608924,7.5384878,12.4776250712,-7.381902,-1.565858,0,193.4, -13.9, -2.2,0,0,1684,1024,1024,1024,100,0,0,0,202.9,0,0,40,3.753,3.745,0,0,0,0,4.651,87.62,8.749213862652,3.608924,6,P-GPS,
7700,2022-08-13 21:10:27,-34.9273218891117,-56.1654728979338,3.608924,4.0354332,4.713780662652,8.749213862652,4.593176,7.8069206,13.6513783896,17.7776580492,19,5,7.528,8.749213862652,3.608924,7.8069206,13.6513783896,-7.605596,-1.789552,0,193.4, -13.7, -2.2,0,0,1684,1024,1024,1024,100,0,0,0,202.9,0,0,40,3.753,3.745,0,0,0,0,4.651,87.62,8.749213862652,3.608924,6,P-GPS,
7800,2022-08-13 21:10:27,-34.9273251871831,-56.1654733895197,3.28084,3.7401576,4.680972262652,8.421129862652,4.593176,8.2543086,14.8630910268,18.9899284292,19,5,7.528,8.749213862652,3.608924,8.2543086,14.8630910268,-8.052984,-1.789552,0,193.4, -13.3, -2.5,0,0,1684,1024,1024,1024,100,0,0,0,202.9,0,0,40,3.753,3.745,0,0,0,0,4.651,87.62,8.421129862652,3.28084,6,P-GPS,
7900,2022-08-13 21:10:27,-34.9273284532652,-56.1654738628673,3.28084,3.772966,4.648163862652,8.421129862652,7.874016,8.4780026,16.062500514,20.1899284676,19,5,7.528,8.749213862652,3.608924,8.4780026,16.062500514,-8.276678,-1.789552,0,193.4, -12.9, -1.8,0,0,1684,1024,1024,1024,100,0,0,0,202.9,0,0,39,3.753,3.745,0,0,0,0,4.651,87.62,8.421129862652,3.28084,6,P-GPS,
8000,2022-08-13 21:10:27,-34.9273320251399,-56.1654743644902,3.28084,3.8385828,4.582547062652,8.421129862652,8.2021,8.94776,17.3736226032,21.5017395332,19,5,7.48,8.749213862652,3.608924,8.94776,17.3736226032,-8.724066,-2.013246,0,193.3, -13.4, -2,0,0,1684,1024,1024,1024,100,0,0,0,202.9,0,0,39,3.745,3.736,0,0,0,0,4.845,87.62,8.421129862652,3.28084,6,P-GPS,
8100,2022-08-13 21:10:27,-34.9273355920706,-56.1654740809359,3.28084,3.8713912,4.549738662652,8.421129862652,8.2021,9.2161928,18.6509520404,22.8058734332,19,5,7.48,8.749213862652,3.608924,9.2161928,18.6509520404,-9.171454,-0.894776,0,186.4, -14.1, -2.3,0,0,1684,1024,1024,1024,100,0,0,0,202.9,0,0,39,3.745,3.736,0,0,0,0,4.845,87.62,8.421129862652,3.28084,6,P-GPS,
8200,2022-08-13 21:10:27,-34.9273394407579,-56.1654745680574,3.28084,3.9041996,4.516930262652,8.421129862652,8.530184,9.6635808,20.062172558,24.2176188852,19,5,7.48,8.749213862652,3.608924,9.6635808,20.062172558,-9.618842,-0.894776,0,186.5, -14.4, -2.5,0,0,1684,1024,1024,1024,100,0,0,0,202.9,0,0,39,3.745,3.736,0,0,0,0,4.845,87.62,8.421129862652,3.28084,6,P-GPS,
8300,2022-08-13 21:10:27,-34.9273432136217,-56.165475030826,3.28084,3.937008,4.484121862652,8.421129862652,8.858268,9.6635808,21.4451122348,25.6010834964,19,5,7.48,8.749213862652,3.608924,9.6635808,21.4451122348,-9.618842,-0.894776,0,186.6, -14.5, -2.5,0,0,1684,1024,1024,1024,100,0,0,0,202.9,0,0,39,3.745,3.736,0,0,0,0,4.845,87.62,8.421129862652,3.28084,6,P-GPS,
8400,2022-08-13 21:10:27,-34.9273472945284,-56.1654755058978,3.28084,4.0026248,4.418505062652,8.421129862652,8.858268,9.8872748,22.9400597892,27.096785644,19,5,7.48,8.749213862652,3.608924,9.8872748,22.9400597892,-9.842536,-0.894776,0,186.6, -14.4, -1.9,0,0,1684,1024,1024,1024,100,0,0,0,202.9,0,0,39,3.745,3.736,0,0,0,0,4.845,87.62,8.421129862652,3.28084,6,P-GPS,
8500,2022-08-13 21:10:28,-34.927351151244,-56.1654755053583,3.28084,4.0354332,4.385696662652,8.421129862652,8.858268,10.3346628,24.3368118024,28.5039051116,19,5,7.48,8.749213862652,3.608924,10.3346628,24.3368118024,-10.289924,-0.894776,0,186.6, -14.2, -2,0,0,1684,1024,1024,1024,100,0,0,0,202.9,0,0,39,3.745,3.736,0,0,0,0,4.845,87.62,8.421129862652,3.28084,6,P-GPS,
8600,2022-08-13 21:10:28,-34.9273554578595,-56.1654759984143,2.952756,3.772966,4.320079862652,8.093045862652,8.858268,10.5583568,25.91453495,30.0820547684,19,5,7.48,8.749213862652,3.608924,10.5583568,25.91453495,-10.513618,-0.894776,0,186.6, -14.3, -1.9,0,0,1684,1024,1024,1024,100,0,0,0,202.9,0,0,39,3.745,3.736,0,0,0,0,4.845,87.62,8.093045862652,2.952756,6,P-GPS,
8700,2022-08-13 21:10:28,-34.9273596799914,-56.1654764869236,2.952756,3.8385828,4.254463062652,8.093045862652,8.858268,10.7820508,27.4615494352,31.629430146,19,5,7.48,8.749213862652,3.608924,10.7820508,27.4615494352,-10.737312,-0.894776,0,186.6, -14.3, -2.4,0,0,1684,1024,1024,1024,100,0,0,0,202.9,0,0,39,3.745,3.736,0,0,0,0,4.845,87.62,8.093045862652,2.952756,6,P-GPS,
8800,2022-08-13 21:10:28,-34.9273642739687,-56.1654770171731,2.952756,3.8713912,4.221654662652,8.093045862652,11.811024,11.0281142,29.1448172056,33.312993192,19,5,7.48,8.749213862652,3.608924,11.0281142,29.1448172056,-10.961006,-1.11847,0,186.6, -14.2, -2,0,0,1684,1024,1024,1024,100,0,0,0,202.9,0,0,39,3.745,3.736,0,0,0,0,4.845,87.62,8.093045862652,2.952756,6,P-GPS,
8900,2022-08-13 21:10:28,-34.9273689789473,-56.1654776349937,2.952756,3.937008,4.156037862652,8.093045862652,11.811024,11.4531328,30.8712936388,35.039699284,20,5,7.476,8.749213862652,3.608924,11.4531328,30.8712936388,-11.408394,-1.11847,0,186.6, -14.1, -1.7,0,0,1684,1024,1024,1024,100,0,0,0,202.9,0,0,39,3.747,3.737,0,0,0,0,4.841,87.62,8.093045862652,2.952756,6,P-GPS,
9000,2022-08-13 21:10:28,-34.9273738636018,-56.1654782964524,2.952756,4.0026248,4.090421062652,8.093045862652,11.811024,11.6768268,32.6644039324,36.832678344,20,5,7.476,8.749213862652,3.608924,11.6768268,32.6644039324,-11.632088,-1.11847,0,186.6, -14.2, -1.7,0,0,1684,1024,1024,1024,100,0,0,0,202.9,0,0,39,3.747,3.737,0,0,0,0,4.841,87.62,8.093045862652,2.952756,6,P-GPS,
9100,2022-08-13 21:10:28,-34.9273785740389,-56.1654789307487,2.952756,4.0354332,4.057612662652,8.093045862652,12.139108,11.9005208,34.393373804,38.561681024,20,5,7.476,8.749213862652,3.608924,11.9005208,34.393373804,-11.855782,-1.11847,0,186.6, -14.3, -1.9,0,0,1684,1024,1060,1024,100,0,5,0,202.9,0,0,39,3.747,3.737,0,0,0,0,4.841,87.62,8.093045862652,2.952756,6,P-GPS,
9200,2022-08-13 21:10:28,-34.9273835608035,-56.1654795767271,2.952756,4.10105,3.991995862652,8.093045862652,12.139108,12.1242148,36.223098272,40.391405492,20,5,7.476,8.749213862652,3.608924,12.1242148,36.223098272,-12.079476,-1.11847,0,186.5, -14, -2.2,0,0,1684,1024,1204,1024,100,0,27,0,202.9,0,0,39,3.747,3.737,0,0,0,0,4.841,87.62,8.093045862652,2.952756,6,P-GPS,
9300,2022-08-13 21:10:28,-34.9273884165824,-56.1654802156275,2.952756,4.1666668,3.926379062652,8.093045862652,12.467192,12.3702782,38.004922476,42.173229696,20,5,7.476,8.749213862652,3.608924,12.3702782,38.004922476,-12.30317,-1.342164,0,186.6, -13.7, -2,0,0,1684,1024,1204,1024,100,0,27,0,202.9,0,0,39,3.747,3.737,0,0,0,0,4.841,87.62,8.093045862652,2.952756,6,P-GPS,
9400,2022-08-13 21:10:28,-34.9273936431516,-56.1654809089454,2.952756,4.2322836,3.860762262652,8.093045862652,12.467192,12.5939722,39.923229624,44.091536844,20,5,7.476,8.749213862652,3.608924,12.5939722,39.923229624,-12.526864,-1.342164,0,186.5, -12.7, -1.9,0,0,1684,1024,1538,1024,100,0,78,0,202.9,0,0,39,3.747,3.737,0,0,0,0,4.841,87.62,8.093045862652,2.952756,6,P-GPS,
9500,2022-08-13 21:10:29,-34.9273987210699,-56.165481591143,2.952756,4.2979004,3.795145462652,8.093045862652,12.795276,12.8176662,41.787074828,45.955382048,20,5,7.476,8.749213862652,3.608924,12.8176662,41.787074828,-12.750558,-1.342164,-0.671082,186.5, -12.4, -1.7,0,0,1684,1024,1684,1024,100,0,100,0,202.9,0,0,39,3.747,3.737,0,0,0,0,4.841,87.62,8.093045862652,2.952756,6,P-GPS,
9600,2022-08-13 21:10:29,-34.9274041349557,-56.1654823046342,3.28084,4.6587928,3.762337062652,8.421129862652,13.12336,13.0413602,43.773623448,47.941930668,20,5,7.476,8.749213862652,3.608924,13.0413602,43.773623448,-12.974252,-1.342164,-1.342164,186.4, -12.2, -2,0,0,1684,1024,1684,1024,100,0,100,0,202.9,0,0,39,3.747,3.737,0,0,0,0,4.841,87.62,8.421129862652,3.28084,6,P-GPS,
9700,2022-08-13 21:10:29,-34.9274093536498,-56.1654829710862,3.28084,4.7244096,3.696720262652,8.421129862652,13.451444,13.2650542,45.687993588,49.856628892,20,5,7.476,8.749213862652,3.608924,13.2650542,45.687993588,-13.197946,-1.342164,-2.23694,186.4, -12.2, -2,0,0,1684,1024,1684,1024,100,0,100,0,202.9,0,0,39,3.747,3.737,0,0,0,0,4.841,87.62,8.421129862652,3.28084,6,P-GPS,
9800,2022-08-13 21:10:29,-34.9274148783219,-56.1654836347915,3.937008,5.4461944,3.631103462652,9.077297862652,14.107612,13.4887482,47.71325612,51.881891424,20,5,7.476,9.077297862652,3.937008,13.4887482,47.71325612,-13.42164,-1.342164,-2.908022,186.5, -12.8, -1.6,0,0,1684,1024,1684,1024,100,0,100,0,202.9,0,0,39,3.747,3.737,0,0,0,0,4.841,87.62,9.077297862652,3.937008,6,P-GPS,
9900,2022-08-13 21:10:29,-34.9274202671818,-56.165484292431,4.265092,5.8398952,3.565486662652,9.405381862652,14.76378,13.7124422,49.688977968,53.857941356,20,5,7.474,9.405381862652,4.265092,13.7124422,49.688977968,-13.645334,-1.342164,-3.802798,186.5, -12.5, -1.4,0,0,1684,1024,1684,1024,100,0,100,0,202.9,0,0,39,3.74,3.729,0,0,0,0,4.825,87.62,9.405381862652,4.265092,6,P-GPS,
10000,2022-08-13 21:10:29,-34.9274260583064,-56.1654850232312,4.92126,6.56168,3.499869862652,10.061549862652,15.419948,13.9361362,51.813321868,55.981957172,20,5,7.474,10.061549862652,4.92126,13.9361362,51.813321868,-13.869028,-1.342164,-4.47388,186.5, -12.1, -1,0,0,1684,1024,1684,1024,100,0,100,0,202.9,0,0,39,3.74,3.729,0,0,0,0,4.825,87.62,10.061549862652,4.92126,6,P-GPS,
10100,2022-08-13 21:10:29,-34.9274316469048,-56.1654857304229,5.577428,7.3162732,3.401444662652,10.717717862652,16.076116,14.1598302,53.8631907,58.031826004,20,5,7.474,10.717717862652,5.577428,14.1598302,53.8631907,-14.092722,-1.342164,-5.368656,186.5, -11.7, -1.1,0,0,1684,1024,1684,1024,100,0,100,0,202.9,0,0,39,3.74,3.729,0,0,0,0,4.825,87.62,10.717717862652,5.577428,6,P-GPS,
10200,2022-08-13 21:10:29,-34.9274377211572,-56.1654865511858,6.56168,8.366142,3.335827862652,11.701969862652,17.060368,14.3835242,56.092849564,60.261812952,20,5,7.474,11.701969862652,6.56168,14.3835242,56.092849564,-14.316416,-1.342164,-5.816044,186.5, -12.3, -1.4,0,0,1684,1024,1684,1024,100,0,100,0,202.9,0,0,39,3.74,3.729,0,0,0,0,4.825,87.62,11.701969862652,6.56168,6,P-GPS,
10300,2022-08-13 21:10:29,-34.9274434734467,-56.1654872588765,7.545932,9.3832024,3.303019462652,12.686221862652,17.716536,14.6295876,58.2021016,62.371064988,19,5,7.474,12.686221862652,7.545932,14.6295876,58.2021016,-14.54011,-1.565858,-6.039738,186.5, -12.1, -1.3,0,0,1684,1024,1684,1024,100,0,100,0,202.9,0,0,39,3.74,3.729,0,0,0,0,4.825,87.62,12.686221862652,7.545932,6,P-GPS,
10400,2022-08-13 21:10:29,-34.9274496356221,-56.1654879855663,8.530184,10.4658796,3.204594262652,13.670473862652,18.700788,14.6295876,60.460631856,64.629923328,19,5,7.474,13.670473862652,8.530184,14.6295876,60.460631856,-14.54011,-1.565858,-6.487126,186.4, -11.4, -1.7,0,0,1684,1024,1684,1024,100,0,100,0,202.9,0,0,39,3.74,3.729,0,0,0,0,4.825,87.62,13.670473862652,8.530184,6,P-GPS,
10500,2022-08-13 21:10:30,-34.9274555217567,-56.1654886934006,9.514436,11.5157484,3.138977462652,14.654725862652,19.68504,14.6295876,62.618440324,66.787731796,20,5,7.474,14.654725862652,9.514436,14.6295876,62.618440324,-14.54011,-1.565858,-6.487126,186.5, -11.5, -1.8,0,0,1684,1024,1684,1024,100,0,100,0,202.9,0,0,39,3.74,3.729,0,0,0,0,4.825,87.62,14.654725862652,9.514436,6,P-GPS,
10600,2022-08-13 21:10:30,-34.9274618445357,-56.1654894340112,10.498688,12.5656172,3.073360662652,15.638977862652,20.669292,14.8532816,64.935697616,69.105317172,20,5,7.474,15.638977862652,10.498688,14.8532816,64.935697616,-14.763804,-1.565858,-6.487126,186.6, -12.3, -2.1,0,0,1684,1024,1684,1024,100,0,100,0,202.9,0,0,39,3.74,3.729,0,0,0,0,4.825,87.62,15.638977862652,10.498688,6,P-GPS,
10700,2022-08-13 21:10:30,-34.9274677313478,-56.1654901820405,11.48294,13.615486,3.007743862652,16.623229862652,21.981628,14.875651,67.095146504,71.26476606,20,5,7.474,16.623229862652,11.48294,14.875651,67.095146504,-14.763804,-1.789552,-6.487126,186.5, -12.5, -2.3,0,0,1684,1024,1684,1024,100,0,100,0,202.9,0,0,39,3.74,3.729,0,0,0,0,4.825,87.62,16.623229862652,11.48294,6,P-GPS,
10800,2022-08-13 21:10:30,-34.9274739140937,-56.1654909683423,12.467192,14.6981632,2.909318662652,17.607481862652,22.96588,14.875651,69.363191196,73.532810752,20,5,7.474,17.607481862652,12.467192,14.875651,69.363191196,-14.763804,-1.789552,-6.487126,186.5, -11.8, -2.4,0,0,1684,1024,1684,1024,100,0,100,0,202.9,0,0,39,3.74,3.729,0,0,0,0,4.825,87.62,17.607481862652,12.467192,6,P-GPS,
10900,2022-08-13 21:10:30,-34.9274798457465,-56.1654917303474,13.779528,16.076116,2.843701862652,18.919817862652,23.950132,15.099345,71.539372368,75.70866384,20,5,7.362,18.919817862652,13.779528,15.099345,71.539372368,-14.987498,-1.789552,-6.487126,186.5, -11.9, -2.4,0,0,1684,1024,1684,1024,100,0,100,0,202.9,0,0,39,3.695,3.684,0,0,0,0,7.046,87.62,18.919817862652,13.779528,6,P-GPS,
11000,2022-08-13 21:10:30,-34.9274861534527,-56.1654925489865,14.76378,17.1259848,2.778085062652,19.904069862652,25.262468,15.099345,73.853676904,78.02329646,20,5,7.362,19.904069862652,14.76378,15.099345,73.853676904,-14.987498,-1.789552,-6.487126,186.6, -12.4, -2.7,0,0,1684,1024,1684,1024,100,0,100,0,202.9,0,0,39,3.695,3.684,0,0,0,0,7.046,87.62,19.904069862652,14.76378,6,P-GPS,
11100,2022-08-13 21:10:30,-34.9274920818877,-56.1654933220336,15.748032,18.1758536,2.712468262652,20.888321862652,26.24672,15.099345,76.028873824,80.19849338,20,5,7.362,20.888321862652,15.748032,15.099345,76.028873824,-14.987498,-1.789552,-6.71082,186.5, -12.4, -2.9,0,0,1684,1024,1684,1024,100,0,100,0,202.9,0,0,39,3.695,3.684,0,0,0,0,7.046,87.62,20.888321862652,15.748032,6,P-GPS,
11200,2022-08-13 21:10:30,-34.9274984227881,-56.165494114631,16.732284,19.2257224,2.646851462652,21.872573862652,27.559056,15.323039,78.3546613,82.523952772,20,5,7.362,21.872573862652,16.732284,15.323039,78.3546613,-15.211192,-1.789552,-6.71082,186.5, -12.4, -2.8,0,0,1684,1024,1684,1024,100,0,100,0,202.9,0,0,39,3.695,3.684,0,0,0,0,7.046,87.62,21.872573862652,16.732284,6,P-GPS,
11300,2022-08-13 21:10:30,-34.9275044899666,-56.1654948489355,17.716536,20.2427828,2.614043062652,22.856825862652,28.543308,15.5243636,80.57907082,84.748690376,20,5,7.362,22.856825862652,17.716536,15.5243636,80.57907082,-15.434886,-1.565858,-6.487126,186.5, -12.1, -2.8,0,0,1684,1024,1684,1024,100,0,100,0,202.9,0,0,39,3.695,3.684,0,0,0,0,7.046,87.62,22.856825862652,17.716536,6,P-GPS,
11400,2022-08-13 21:10:30,-34.9275109031438,-56.1654955890811,18.700788,21.2270348,2.614043062652,23.841077862652,29.855644,15.5243636,82.929136512,87.098756068,20,5,7.362,23.841077862652,18.700788,15.5243636,82.929136512,-15.434886,-1.565858,-6.487126,186.4, -12.3, -2.1,0,0,1684,1024,1684,1024,100,0,100,0,202.9,0,0,39,3.695,3.684,0,0,0,0,7.046,87.62,23.841077862652,18.700788,6,P-GPS,
11500,2022-08-13 21:10:31,-34.9275169467555,-56.1654962278888,19.68504,22.2112868,2.614043062652,24.825329862652,30.839896,15.5243636,85.141735008,89.312010732,20,5,7.362,24.825329862652,19.68504,15.5243636,85.141735008,-15.434886,-1.565858,-6.487126,186.5, -12.4, -2.2,0,0,1684,1024,1684,1024,100,0,100,0,202.9,0,0,39,3.695,3.684,0,0,0,0,7.046,87.62,24.825329862652,19.68504,6,P-GPS,
11600,2022-08-13 21:10:31,-34.9275234417197,-56.1654969618302,20.669292,23.1955388,2.614043062652,25.809581862652,32.152232,15.770427,87.52132826,91.691932068,20,5,7.362,25.809581862652,20.669292,15.770427,87.52132826,-15.65858,-1.789552,-6.71082,186.6, -12.6, -2.3,0,0,1684,1024,1684,1024,100,0,100,0,202.9,0,0,39,3.695,3.684,0,0,0,0,7.046,87.62,25.809581862652,20.669292,6,P-GPS,
11700,2022-08-13 21:10:31,-34.927529647368,-56.1654976525986,21.653544,24.1797908,2.614043062652,26.793833862652,33.136484,15.7256882,89.794622296,93.965554188,20,5,7.362,26.793833862652,21.653544,15.770427,89.794622296,-15.65858,-1.565858,-6.71082,186.6, -13, -2.3,0,0,1684,1024,1684,1024,100,0,100,0,202.9,0,0,39,3.695,3.684,0,0,0,0,7.046,87.62,26.793833862652,21.653544,6,P-GPS,
11800,2022-08-13 21:10:31,-34.9275362161724,-56.1654983529566,22.637796,25.1640428,2.614043062652,27.778085862652,34.120736,15.7256882,92.200134184,96.37139416,20,5,7.362,27.778085862652,22.637796,15.770427,92.200134184,-15.65858,-1.565858,-6.487126,186.5, -13.1, -2,0,0,1684,1024,1684,1024,100,0,100,0,202.9,0,0,39,3.695,3.684,0,0,0,0,7.046,87.62,27.778085862652,22.637796,6,P-GPS,
11900,2022-08-13 21:10:31,-34.9275425234095,-56.1654987973642,23.622048,26.1482948,2.614043062652,28.762337862652,35.104988,15.7256882,94.502627696,98.67618426,20,5,7.393,28.762337862652,23.622048,15.770427,94.502627696,-15.65858,-1.565858,-6.487126,186.6, -13.2, -2.1,0,0,1684,1024,1684,1024,100,0,100,0,202.9,0,0,39,3.703,3.691,0,0,0,0,6.882,87.62,28.762337862652,23.622048,6,P-GPS,
12000,2022-08-13 21:10:31,-34.9275490720212,-56.1654995366764,24.6063,27.1325468,2.614043062652,29.746589862652,36.08924,15.7256882,96.901905988,101.075790636,20,5,7.393,29.746589862652,24.6063,15.770427,96.901905988,-15.65858,-1.565858,-6.487126,186.5, -13.4, -2.2,0,0,1684,1024,1684,1024,100,0,100,0,202.9,0,0,39,3.703,3.691,0,0,0,0,6.882,87.62,29.746589862652,24.6063,6,P-GPS,
12100,2022-08-13 21:10:31,-34.9275553025261,-56.165500264944,25.590552,28.1167988,2.614043062652,30.730841862652,37.073492,15.7256882,99.185370628,103.359255276,20,5,7.393,30.730841862652,25.590552,15.770427,99.185370628,-15.65858,-1.565858,-6.487126,186.6, -13.7, -2.3,0,0,1684,1024,1684,1024,100,0,100,0,202.9,0,0,39,3.703,3.691,0,0,0,0,6.882,87.62,30.730841862652,25.590552,6,P-GPS,
12200,2022-08-13 21:10:31,-34.9275618533003,-56.1655010819321,26.574804,29.1010508,2.614043062652,31.715093862652,38.057744,15.9493822,101.58792976,105.761814408,20,5,7.393,31.715093862652,26.574804,15.9493822,101.58792976,-15.882274,-1.565858,-6.487126,186.6, -14.3, -2.2,0,0,1684,1024,1684,1024,100,0,100,0,202.9,0,0,39,3.703,3.691,0,0,0,0,6.882,87.62,31.715093862652,26.574804,6,P-GPS,
12300,2022-08-13 21:10:31,-34.9275680309394,-56.1655019630934,27.559056,30.0853028,2.614043062652,32.699345862652,39.041996,15.9493822,103.856958704,108.031171436,20,5,7.393,32.699345862652,27.559056,15.9493822,103.856958704,-15.882274,-1.565858,-6.487126,186.6, -14.6, -2.3,0,0,1684,1024,1684,1024,100,0,100,0,202.9,0,0,39,3.703,3.691,0,0,0,0,6.882,87.62,32.699345862652,27.559056,6,P-GPS,
12400,2022-08-13 21:10:31,-34.9275746420573,-56.1655027870537,28.543308,31.0695548,2.614043062652,33.683597862652,40.026248,15.9493822,106.281499464,110.455712196,20,5,7.393,33.683597862652,28.543308,15.9493822,106.281499464,-15.882274,-1.565858,-6.487126,186.5, -15, -2.1,0,0,1684,1024,1684,1024,100,0,100,0,202.9,0,0,39,3.703,3.691,0,0,0,0,6.882,87.62,33.683597862652,28.543308,6,P-GPS,
12500,2022-08-13 21:10:32,-34.9275809585701,-56.1655035888254,29.52756,32.0538068,2.614043062652,34.667849862652,41.0105,16.1730762,108.598756756,112.772641404,20,5,7.393,34.667849862652,29.52756,16.1730762,108.598756756,-16.105968,-1.565858,-6.487126,186.5, -15.1, -1.5,0,0,1684,1024,1684,1024,100,0,100,0,202.9,0,0,39,3.703,3.691,0,0,0,0,6.882,87.62,34.667849862652,29.52756,6,P-GPS,
12600,2022-08-13 21:10:32,-34.9275876423817,-56.1655044734714,30.511812,33.0380588,2.614043062652,35.652101862652,41.994752,16.1730762,111.05151274,115.225725472,20,5,7.393,35.652101862652,30.511812,16.1730762,111.05151274,-16.105968,-1.565858,-6.487126,186.5, -14.9, -2.2,0,0,1684,1024,1684,1024,100,0,100,0,202.9,0,0,39,3.703,3.691,0,0,0,0,6.882,87.62,35.652101862652,30.511812,6,P-GPS,
12700,2022-08-13 21:10:32,-34.9275940384928,-56.1655053190273,31.496064,34.0223108,2.614043062652,36.636353862652,42.322836,16.1730762,113.398625676,117.572838408,20,5,7.393,36.636353862652,31.496064,16.1730762,113.398625676,-16.105968,-1.565858,-6.487126,186.5, -14.2, -2.6,0,0,1684,1024,1684,1024,100,0,100,0,202.9,0,0,39,3.703,3.691,0,0,0,0,6.882,87.62,36.636353862652,31.496064,6,P-GPS,
12800,2022-08-13 21:10:32,-34.927600857817,-56.1655062149087,32.480316,35.0065628,2.614043062652,37.620605862652,42.322836,16.4191396,115.901250428,120.07546316,20,5,7.393,37.620605862652,32.480316,16.4191396,115.901250428,-16.329662,-1.789552,-6.487126,186.6, -14.4, -2.5,0,0,1684,1024,1684,1024,100,0,100,0,202.9,0,0,39,3.703,3.691,0,0,0,0,6.882,87.62,37.620605862652,32.480316,6,P-GPS,
12900,2022-08-13 21:10:32,-34.9276073099727,-56.1655070522805,33.464568,35.9908148,2.614043062652,38.604857862652,42.322836,16.4191396,118.268376488,122.44258922,19,5,7.39,38.604857862652,33.464568,16.4191396,118.268376488,-16.329662,-1.789552,-6.487126,186.5, -14.4, -2.5,0,0,1684,1024,1684,1024,100,0,100,0,202.9,0,0,39,3.698,3.687,0,0,0,0,6.619,87.62,38.604857862652,33.464568,6,P-GPS,
13000,2022-08-13 21:10:32,-34.9276140993856,-56.1655079745615,34.44882,36.9750668,2.614043062652,39.589109862652,42.322836,16.4191396,120.760830636,124.935043368,19,5,7.39,39.589109862652,34.44882,16.4191396,120.760830636,-16.329662,-1.789552,-6.487126,186.4, -14.3, -2.9,0,0,1684,1024,1684,1024,100,0,100,0,202.9,0,0,39,3.698,3.687,0,0,0,0,6.619,87.62,39.589109862652,34.44882,6,P-GPS,
13100,2022-08-13 21:10:32,-34.9276205820518,-56.1655088982113,35.433072,37.9593188,2.614043062652,40.573361862652,42.322836,16.4191396,123.142064308,127.316605124,20,5,7.39,40.573361862652,35.433072,16.4191396,123.142064308,-16.329662,-1.789552,-6.487126,186.5, -13.8, -3,0,0,1684,1024,1684,1024,100,0,100,0,202.9,0,0,39,3.698,3.687,0,0,0,0,6.619,87.62,40.573361862652,35.433072,6,P-GPS,
13200,2022-08-13 21:10:32,-34.9276273019758,-56.1655100888537,36.417324,38.9435708,2.614043062652,41.557613862652,42.322836,16.665203,125.617458088,129.793967408,20,5,7.39,41.557613862652,36.417324,16.665203,125.617458088,-16.553356,-2.013246,-6.71082,186.5, -13.5, -3.5,0,0,1684,1024,1684,1024,100,0,100,0,202.9,0,0,39,3.698,3.687,0,0,0,0,6.619,87.62,41.557613862652,36.417324,6,P-GPS,
13300,2022-08-13 21:10:32,-34.9276338026721,-56.1655110740095,37.401576,39.9278228,2.614043062652,42.541865862652,42.322836,16.665203,128.007221944,132.184059348,20,5,7.39,42.541865862652,37.401576,16.665203,128.007221944,-16.553356,-2.013246,-6.71082,186.4, -13.2, -3.7,0,0,1684,1024,1684,1024,100,0,100,0,202.9,0,0,39,3.698,3.687,0,0,0,0,6.619,87.62,42.541865862652,37.401576,6,P-GPS,
13400,2022-08-13 21:10:32,-34.9276406108708,-56.1655120593429,38.385828,40.9120748,2.614043062652,43.526117862652,42.322836,16.665203,130.50853436,134.685371764,20,5,7.39,43.526117862652,38.385828,16.665203,130.50853436,-16.553356,-2.013246,-6.71082,186.6, -13.5, -3.8,0,0,1684,1024,1684,1024,100,0,100,0,202.9,0,0,39,3.698,3.687,0,0,0,0,6.619,87.62,43.526117862652,38.385828,6,P-GPS,
13500,2022-08-13 21:10:33,-34.9276470932243,-56.165513011396,39.37008,41.8963268,2.614043062652,44.510369862652,42.322836,16.665203,132.8904242,137.067589688,20,5,7.39,44.510369862652,39.37008,16.665203,132.8904242,-16.553356,-2.013246,-6.71082,186.6, -13.9, -3.6,0,0,1684,1024,1684,1024,100,0,100,0,202.9,0,0,39,3.698,3.687,0,0,0,0,6.619,87.62,44.510369862652,39.37008,6,P-GPS,
13600,2022-08-13 21:10:33,-34.9276536850874,-56.1655141861244,40.354332,42.8805788,2.614043062652,45.494621862652,42.322836,16.665203,135.319230052,139.49803596,20,5,7.39,45.494621862652,40.354332,16.665203,135.319230052,-16.553356,-2.013246,-6.487126,186.7, -13.9, -3.5,0,0,1684,1024,1684,1024,100,0,100,0,202.9,0,0,39,3.698,3.687,0,0,0,0,6.619,87.62,45.494621862652,40.354332,6,P-GPS,
13700,2022-08-13 21:10:33,-34.9276601372952,-56.165515186703,41.338584,43.8648308,2.614043062652,46.478873862652,42.322836,16.665203,137.691605456,141.871067532,20,5,7.39,46.478873862652,41.338584,16.665203,137.691605456,-16.553356,-2.013246,-6.487126,186.6, -13.9, -3.7,0,0,1684,1024,1684,1024,100,0,100,0,202.9,0,0,39,3.698,3.687,0,0,0,0,6.619,87.62,46.478873862652,41.338584,6,P-GPS,
13800,2022-08-13 21:10:33,-34.9276668176415,-56.1655162150345,42.322836,44.8490828,2.614043062652,47.463125862652,42.322836,16.665203,140.147970364,144.327760524,20,5,7.39,47.463125862652,42.322836,16.665203,140.147970364,-16.553356,-2.013246,-6.71082,186.7, -13.9, -3.9,0,0,1684,1024,1684,1024,100,0,100,0,202.9,0,0,39,3.698,3.687,0,0,0,0,6.619,87.62,47.463125862652,42.322836,6,P-GPS,
13900,2022-08-13 21:10:33,-34.9276732966599,-56.1655171848719,43.307088,45.8333348,2.614043062652,48.447377862652,42.322836,16.888897,142.529204036,146.70932228,20,5,7.347,48.447377862652,43.307088,16.888897,142.529204036,-16.77705,-2.013246,-6.71082,186.7, -13.3, -4.2,0,0,1684,1024,1684,1024,100,0,100,0,202.9,0,0,39,3.684,3.672,0,0,0,0,7.346,87.62,48.447377862652,43.307088,6,P-GPS,
14000,2022-08-13 21:10:33,-34.9276804039191,-56.165518148628,44.29134,46.8175868,2.614043062652,49.431629862652,42.322836,16.888897,145.138456088,149.318574332,20,5,7.347,49.431629862652,44.29134,16.888897,145.138456088,-16.77705,-2.013246,-6.71082,186.7, -13.4, -3.7,0,0,1684,1024,1684,1024,100,0,100,0,202.9,0,0,39,3.684,3.672,0,0,0,0,7.346,87.62,49.431629862652,44.29134,6,P-GPS,
14100,2022-08-13 21:10:33,-34.9276871599033,-56.1655190735082,45.275592,47.8018388,2.614043062652,50.415881862652,42.322836,17.112591,147.618771128,151.798889372,20,5,7.347,50.415881862652,45.275592,17.112591,147.618771128,-17.000744,-2.013246,-6.71082,186.6, -13.2, -3.6,0,0,1684,1024,1684,1024,100,0,100,0,202.9,0,0,39,3.684,3.672,0,0,0,0,7.346,87.62,50.415881862652,45.275592,6,P-GPS,
14200,2022-08-13 21:10:33,-34.9276942192211,-56.165520019506,45.93176,48.4580068,2.614043062652,51.072049862652,42.322836,17.112591,150.209650476,154.38976872,20,5,7.347,51.072049862652,45.93176,17.112591,150.209650476,-17.000744,-2.013246,-6.71082,186.6, -13.2, -4,0,0,1684,1024,1684,1024,100,0,100,0,202.9,0,0,39,3.684,3.672,0,0,0,0,7.346,87.62,51.072049862652,45.93176,6,P-GPS,
14300,2022-08-13 21:10:33,-34.9277008818759,-56.1655208896017,46.916012,49.4422588,2.614043062652,52.056301862652,42.322836,16.8665276,152.654532444,156.834650688,20,5,7.347,52.056301862652,46.916012,17.112591,152.654532444,-16.77705,-1.789552,-6.487126,186.7, -14.1, -3.8,0,0,1684,1024,1684,1024,100,0,100,0,202.9,0,0,39,3.684,3.672,0,0,0,0,7.346,87.62,52.056301862652,46.916012,6,P-GPS,
14400,2022-08-13 21:10:33,-34.9277077855405,-56.1655217568395,47.900264,50.4265108,2.614043062652,53.040553862652,42.322836,17.0902216,155.186684756,159.366803,20,5,7.347,53.040553862652,47.900264,17.112591,155.186684756,-17.000744,-1.789552,-6.487126,186.8, -14.4, -2.9,0,0,1684,1024,1684,1024,100,0,100,0,202.9,0,0,39,3.684,3.672,0,0,0,0,7.346,87.62,53.040553862652,47.900264,6,P-GPS,
14500,2022-08-13 21:10:34,-34.9277143854546,-56.165522423225,48.884516,51.4107628,2.614043062652,54.024805862652,42.322836,17.0902216,157.602039164,161.78314166,20,5,7.347,54.024805862652,48.884516,17.112591,157.602039164,-17.000744,-1.789552,-6.263432,186.7, -13.9, -3,0,0,1684,1024,1684,1024,100,0,100,0,202.9,0,0,39,3.684,3.672,0,0,0,0,7.346,87.62,54.024805862652,48.884516,6,P-GPS,
14600,2022-08-13 21:10:34,-34.9277215635837,-56.1655233110736,49.868768,52.3950148,2.614043062652,55.009057862652,42.322836,17.0902216,160.234257096,164.415359592,20,5,7.347,55.009057862652,49.868768,17.112591,160.234257096,-17.000744,-1.789552,-6.263432,186.7, -13.7, -2.7,0,0,1684,1024,1684,1024,100,0,100,0,202.9,0,0,39,3.684,3.672,0,0,0,0,7.346,87.62,55.009057862652,49.868768,6,P-GPS,
14700,2022-08-13 21:10:34,-34.9277284019281,-56.1655241739542,50.85302,53.3792668,2.614043062652,55.993309862652,42.322836,17.0902216,162.74278736,166.923561772,20,5,7.347,55.993309862652,50.85302,17.112591,162.74278736,-17.000744,-1.789552,-6.487126,186.4, -13.3, -3.3,0,0,1684,1024,1684,1024,100,0,100,0,202.9,0,0,39,3.684,3.672,0,0,0,0,7.346,87.62,55.993309862652,50.85302,6,P-GPS,
14800,2022-08-13 21:10:34,-34.9277355516571,-56.165525091123,51.837272,54.3635188,2.614043062652,56.977561862652,42.322836,17.0902216,165.365490856,169.546593352,20,5,7.347,56.977561862652,51.837272,17.112591,165.365490856,-17.000744,-1.789552,-6.487126,186.6, -13.2, -3.3,0,0,1684,1024,1684,1024,100,0,100,0,202.9,0,0,39,3.684,3.672,0,0,0,0,7.346,87.62,56.977561862652,51.837272,6,P-GPS,
14900,2022-08-13 21:10:34,-34.9277426256699,-56.165525906899,52.821524,55.3477708,2.614043062652,57.961813862652,42.322836,17.112591,167.958010624,172.13911312,20,5,7.352,57.961813862652,52.821524,17.112591,167.958010624,-17.000744,-2.013246,-6.71082,186.8, -13.9, -3.7,0,0,1684,1024,1684,1024,100,0,100,0,202.9,0,0,39,3.68,3.664,0,0,0,0,7.197,87.62,57.961813862652,52.821524,6,P-GPS,
15000,2022-08-13 21:10:34,-34.9277496800372,-56.1655269247082,53.805776,56.3320228,2.614043062652,58.946065862652,42.322836,17.112591,170.54954614,174.73097672,20,5,7.352,58.946065862652,53.805776,17.112591,170.54954614,-17.000744,-2.013246,-6.487126,186.7, -14.1, -3.6,0,0,1684,1024,1684,1024,100,0,100,0,202.9,0,0,39,3.68,3.664,0,0,0,0,7.197,87.62,58.946065862652,53.805776,6,P-GPS,
15100,2022-08-13 21:10:34,-34.9277563587941,-56.1655278664585,54.790028,57.3162748,2.614043062652,59.930317862652,42.322836,17.0902216,173.002302124,177.183732704,20,5,7.352,59.930317862652,54.790028,17.112591,173.002302124,-17.000744,-1.789552,-6.487126,186.7, -13.9, -3.9,0,0,1684,1024,1684,1024,100,0,100,0,202.9,0,0,39,3.68,3.664,0,0,0,0,7.197,87.62,59.930317862652,54.790028,6,P-GPS,
15200,2022-08-13 21:10:34,-34.9277633186335,-56.1655287527659,55.446196,57.9724428,2.614043062652,60.586485862652,42.322836,17.0902216,175.555451812,179.736882392,20,5,7.352,60.586485862652,55.446196,17.112591,175.555451812,-17.000744,-1.789552,-6.71082,186.8, -14.4, -4.2,0,0,1684,1024,1684,1024,100,0,100,0,202.9,0,0,39,3.68,3.664,0,0,0,0,7.197,87.62,60.586485862652,55.446196,6,P-GPS,
15300,2022-08-13 21:10:34,-34.9277699717,-56.1655295389293,56.430448,58.9566948,2.614043062652,61.570737862652,42.322836,17.3139156,177.994100184,182.175530764,19,5,7.352,61.570737862652,56.430448,17.3139156,177.994100184,-17.224438,-1.789552,-6.487126,186.8, -14.6, -4.1,0,0,1684,1024,1684,1024,100,0,100,0,202.9,0,0,39,3.68,3.664,0,0,0,0,7.197,87.62,61.570737862652,56.430448,6,P-GPS,
15400,2022-08-13 21:10:34,-34.9277770837533,-56.1655302043377,57.4147,59.9409468,2.614043062652,62.554989862652,42.322836,17.3139156,180.595150136,184.778221136,19,5,7.352,62.554989862652,57.4147,17.3139156,180.595150136,-17.224438,-1.789552,-6.487126,186.7, -14.6, -4,0,0,1684,1024,1414,1024,100,0,59,0,202.9,0,0,39,3.68,3.664,0,0,0,0,7.197,87.62,62.554989862652,57.4147,6,P-GPS,
15500,2022-08-13 21:10:35,-34.9277839069597,-56.1655309401051,58.727036,61.2532828,2.614043062652,63.867325862652,42.322836,17.112591,183.094165964,187.277236964,20,5,7.352,63.867325862652,58.727036,17.3139156,183.094165964,-17.000744,-2.013246,-6.487126,186.8, -14.4, -4.4,0,0,1135,1024,1024,1024,17,0,0,0,202.9,0,0,39,3.68,3.664,0,0,0,0,7.197,87.62,63.867325862652,58.727036,6,P-GPS,
15600,2022-08-13 21:10:35,-34.9277911658074,-56.1655319959386,59.383204,61.9094508,2.614043062652,64.523493862652,42.322836,17.112591,185.760832716,189.9442318,20,5,7.352,64.523493862652,59.383204,17.3139156,185.760832716,-17.000744,-2.013246,-6.039738,186.6, -13.2, -5.3,0,0,1024,1024,1024,1024,0,0,0,0,202.9,0,0,39,3.68,3.664,0,0,0,0,7.197,87.62,64.523493862652,59.383204,6,P-GPS,
15700,2022-08-13 21:10:35,-34.9277982930248,-56.1655332901993,60.367456,62.8937028,2.614043062652,65.507745862652,42.322836,17.112591,188.387801304,192.573496976,21,5,7.352,65.507745862652,60.367456,17.3139156,188.387801304,-17.000744,-2.013246,-5.816044,185.8, -1.6, -5.4,0,0,1024,1024,1024,1024,0,0,0,0,202.9,0,0,39,3.68,3.664,0,0,0,0,7.197,87.62,65.507745862652,60.367456,6,P-GPS,
15800,2022-08-13 21:10:35,-34.9278053310295,-56.1655343545906,61.023624,63.5498708,2.614043062652,66.163913862652,42.322836,16.1954456,190.975071728,195.1607674,21,5,7.352,66.163913862652,61.023624,17.3139156,190.975071728,-16.105968,-1.789552,-5.368656,185.1, 19.1, -3,0,0,1024,1024,1024,1024,0,0,0,0,202.9,0,0,39,3.68,3.664,0,0,0,0,7.197,87.62,66.163913862652,61.023624,6,P-GPS,
15900,2022-08-13 21:10:35,-34.9278115696115,-56.1655353081535,61.679792,64.2060388,2.614043062652,66.820081862652,42.322836,15.323039,193.268378888,197.454730728,21,5,7.341,66.820081862652,61.679792,17.3139156,193.268378888,-15.211192,-1.789552,-5.144962,185.4, 19.7, -2.1,0,0,1024,1024,1024,1024,0,0,0,0,202.9,0,0,39,3.669,3.652,0,0,0,0,7.422,87.8,66.820081862652,61.679792,6,P-GPS,
16000,2022-08-13 21:10:35,-34.9278174974082,-56.1655362208188,62.007876,64.5341228,2.614043062652,67.148165862652,42.322836,14.204569,195.448168984,199.634848908,21,5,7.341,67.148165862652,62.007876,17.3139156,195.448168984,-14.092722,-1.789552,-4.697574,185.7, 19.8, -1.8,0,0,1024,1024,1024,1024,0,0,0,0,202.9,0,0,39,3.669,3.652,0,0,0,0,7.422,87.8,67.148165862652,62.007876,6,P-GPS,
