time(millisecond),datetime(utc),latitude,longitude,height_above_takeoff(feet),height_above_ground_at_drone_location(feet),ground_elevation_at_drone_location(feet),altitude_above_seaLevel(feet),height_sonar(feet),speed(mph),distance(feet),mileage(feet),satellites,gpslevel,voltage(v),max_altitude(feet),max_ascent(feet),max_speed(mph),max_distance(feet), xSpeed(mph), ySpeed(mph), zSpeed(mph), compass_heading(degrees), pitch(degrees), roll(degrees),isPhoto,isVideo,rc_elevator,rc_aileron,rc_throttle,rc_rudder,rc_elevator(percent),rc_aileron(percent),rc_throttle(percent),rc_rudder(percent),gimbal_heading(degrees),gimbal_pitch(degrees),gimbal_roll(degrees),battery_percent,voltageCell1,voltageCell2,voltageCell3,voltageCell4,voltageCell5,voltageCell6,current(A),battery_temperature(f),altitude(feet),ascent(feet),flycStateRaw,flycState,message
0,2022-10-20 03:53:33,-34.9582175767673,-54.9445421119202,0,0,12.028648022712,12.028648022712,1.312336,0,0,0,25,5,0,12.028648022712,0,0,0,0,0,0,305, -10.1, 0.9,0,0,364,364,364,1684,-100,-100,-100,100,312.3,0,0,96,4.302,4.299,0,0,0,0,0,78.08,12.028648022712,0,41,Motors_Started,
100,2022-10-20 03:53:33,-34.9582176302128,-54.944542022743,0,0,12.028648022712,12.028648022712,1.312336,0,0.03303477796,0.03303477796,25,5,0,12.028648022712,0,0,0.03303477796,0,0,0,305.2, -10, 1,0,0,364,364,364,1684,-100,-100,-100,100,311.8,0,0,96,4.302,4.299,0,0,0,0,0,78.08,12.028648022712,0,41,Motors_Started,"En vuelo"
200,2022-10-20 03:53:33,-34.9582176810984,-54.9445419097147,0,0,12.028648022712,12.028648022712,0.328084,0,0.071447836932,0.071595802816,25,5,0,12.028648022712,0,0,0.071447836932,0,0,0,304.7, -9.1, 1.6,0,0,364,364,364,1684,-100,-100,-100,100,311.6,0,0,96,4.302,4.299,0,0,0,0,0,78.08,12.028648022712,0,41,Motors_Started,
300,2022-10-20 03:53:33,-34.9582177284186,-54.9445417592177,0,0,12.028648022712,12.028648022712,0.328084,0,0.11909777284,0.119795607508,25,5,0,12.028648022712,0,0,0.11909777284,0,0,0,305, -8.7, 1.5,0,0,364,364,364,1684,-100,-100,-100,100,311.6,0,0,96,4.302,4.299,0,0,0,0,0,78.08,12.028648022712,0,41,Motors_Started,"Setting new Return-To-Home altitude to 100m (328 ft). Data Recorder File Index is 5. Setting new Maximum Flight Altitude to 120m (394 ft)"
400,2022-10-20 03:53:33,-34.9582177636003,-54.9445416371737,0,0,12.028648022712,12.028648022712,0.328084,0,0.157476382992,0.158480648116,25,5,0,12.028648022712,0,0,0.157476382992,0,0,0,305.2, -8.8, 1,0,0,820,1024,843,1573,-31,0,-27,83,311.6,0,0,96,4.302,4.299,0,0,0,0,0,78.08,12.028648022712,0,41,Motors_Started,
500,2022-10-20 03:53:34,-34.9582177193734,-54.9445416632004,0,0,12.028648022712,12.028648022712,0.328084,0,0.14391076576,0.176395674936,25,5,0,12.028648022712,0,0,0.157476382992,0,0,0,304.9, -8.9, 0.8,0,0,1024,1024,1024,1024,0,0,0,0,311.6,0,0,96,4.302,4.299,0,0,0,0,0,78.08,12.028648022712,0,41,Motors_Started,
600,2022-10-20 03:53:34,-34.9582177169991,-54.9445416243387,0,0,12.028648022712,12.028648022712,0.328084,0,0.154513128304,0.188048234364,25,5,0,12.028648022712,0,0,0.157476382992,0,0,0,305, -8.7, 1,0,0,1024,1024,1024,1024,0,0,0,0,311.6,0,0,96,4.302,4.299,0,0,0,0,0,78.08,12.028648022712,0,41,Motors_Started,
700,2022-10-20 03:53:34,-34.9582177505548,-54.9445415372613,0,0,12.028648022712,12.028648022712,0.328084,0,0.18315945468,0.21682087308,25,5,0,12.028648022712,0,0,0.18315945468,0,0,0,305, -8.9, 0.4,0,0,1024,1024,1024,1024,0,0,0,0,311.6,0,0,96,4.302,4.299,0,0,0,0,0,78.08,12.028648022712,0,41,Motors_Started,
800,2022-10-20 03:53:34,-34.9582177883852,-54.9445414575441,0,-0.032808399999999,12.061456422712,12.028648022712,0.328084,0,0.210353025104,0.244365493384,25,5,0,12.028648022712,0,0,0.210353025104,0,0,0,305, -9, 0,0,0,1024,1024,1024,1024,0,0,0,0,311.6,0,0,96,4.302,4.299,0,0,0,0,0,78.08,12.028648022712,0,41,Motors_Started,
900,2022-10-20 03:53:34,-34.9582177620321,-54.9445414698956,0,-0.032808399999999,12.061456422712,12.028648022712,0.328084,0,0.203529862156,0.25466536248,25,5,0,12.028648022712,0,0,0.210353025104,0,0,0,304.9, -8.6, 0.3,0,0,1024,1024,1024,1024,0,0,0,0,311.6,0,0,96,4.302,4.299,0,0,0,0,0,78.08,12.028648022712,0,41,Motors_Started,
1000,2022-10-20 03:53:34,-34.9582177697599,-54.9445414140649,0,-0.032808399999999,12.061456422712,12.028648022712,0.328084,0,0.220232290512,0.2715961373,25,5,0,12.028648022712,0,0,0.220232290512,0,0,0,304.9, -8.4, 0.3,0,0,1024,1024,1024,1024,0,0,0,0,311.6,0,0,96,4.302,4.299,0,0,0,0,0,78.08,12.028648022712,0,41,Motors_Started,
1100,2022-10-20 03:53:34,-34.9582177765757,-54.9445413403163,0,-0.032808399999999,12.061456422712,12.028648022712,0.328084,0,0.241967527428,0.293788395228,25,5,0,12.028648022712,0,0,0.241967527428,0,0,0,304.8, -8.1, 0.3,0,0,1024,1024,1429,1024,0,0,61,0,311.5,0,0,96,4.302,4.299,0,0,0,0,0,78.08,12.028648022712,0,10,Assisted_Takeoff,
1200,2022-10-20 03:53:34,-34.9582177788832,-54.9445412764812,0,-0.032808399999999,12.061456422712,12.028648022712,0.328084,0,0.26046916844,0.312894695052,25,5,0,12.028648022712,0,0,0.26046916844,0,0,0,304.7, -7.8, 0.1,0,0,1024,1024,1684,1024,0,0,100,0,311.5,0,0,96,4.302,4.299,0,0,0,0,0,78.08,12.028648022712,0,10,Assisted_Takeoff,
1300,2022-10-20 03:53:34,-34.9582177151712,-54.9445412687826,0,-0.032808399999999,12.061456422712,12.028648022712,0.328084,0,0.257122055472,0.3362532916,25,5,8.604,12.028648022712,0,0,0.26046916844,0,0,0,304.6, -6.5, 0.6,0,0,1024,1024,1610,1024,0,0,89,0,311.4,0,0,96,4.302,4.299,0,0,0,0,1.14,78.08,12.028648022712,0,10,Assisted_Takeoff,
1400,2022-10-20 03:53:34,-34.9582177190412,-54.9445411876307,0,-0.032808399999999,12.061456422712,12.028648022712,0.328084,0,0.281213263592,0.36056103516,25,5,8.604,12.028648022712,0,0,0.281213263592,0,0,0,303.9, -5.3, 0.8,0,0,1024,1024,1024,1024,0,0,0,0,311.1,0,0,96,4.302,4.299,0,0,0,0,1.14,78.08,12.028648022712,0,10,Assisted_Takeoff,
1500,2022-10-20 03:53:35,-34.9582177333544,-54.9445410825088,0,-0.032808399999999,12.061456422712,12.028648022712,0.328084,0,0.313071204244,0.39242455324,25,5,8.604,12.028648022712,0,0,0.313071204244,0,0,0,302.7, -4.8, 0.4,0,0,1024,1024,1024,1024,0,0,0,0,310.1,0,0,96,4.302,4.299,0,0,0,0,1.14,78.08,12.028648022712,0,10,Assisted_Takeoff,
1600,2022-10-20 03:53:35,-34.9582177572607,-54.9445409948774,0,-0.032808399999999,12.061456422712,12.028648022712,0.328084,0,0.34044620512,0.42004266436,25,5,8.604,12.028648022712,0,0,0.34044620512,0,0,0,302.5, -4.3, -0.6,0,0,1024,1024,1024,1024,0,0,0,0,309.3,0,0,96,4.302,4.299,0,0,0,0,1.14,78.08,12.028648022712,0,10,Assisted_Takeoff,
1700,2022-10-20 03:53:35,-34.9582177282101,-54.9445408372514,0,-0.032808399999999,12.061456422712,12.028648022712,0.328084,0,0.38513452676,0.46835303336,25,5,8.604,12.028648022712,0,0,0.38513452676,0,0,0,303.4, -3.6, -0.3,0,0,1024,1024,1024,1024,0,0,0,0,309.4,0,0,96,4.302,4.299,0,0,0,0,1.14,78.08,12.028648022712,0,10,Assisted_Takeoff,
1800,2022-10-20 03:53:35,-34.958217728351,-54.94454076426,0,-0.032808399999999,12.061456422712,12.028648022712,0.328084,0,0.40675526236,0.49017718104,25,5,8.604,12.028648022712,0,0,0.40675526236,0,0,0,303.9, -3.6, -0.1,0,0,1024,1024,1024,1024,0,0,0,0,310,0,0,96,4.302,4.299,0,0,0,0,1.14,78.08,12.028648022712,0,10,Assisted_Takeoff,
1900,2022-10-20 03:53:35,-34.9582177140703,-54.9445406925231,0,-0.032808399999999,12.061456422712,12.028648022712,0.328084,0,0.42737534176,0.5122539534,25,5,8.604,12.028648022712,0,0,0.42737534176,0,0,0,302.8, -4.5, 0.7,0,0,1024,1024,1150,1024,0,0,19,0,310.1,0,0,96,4.302,4.299,0,0,0,0,1.14,78.08,12.028648022712,0,10,Assisted_Takeoff,
2000,2022-10-20 03:53:35,-34.9582176814591,-54.9445406168545,-0.328084,-0.3608924,12.061456422712,11.700564022712,0.328084,0,0.44868439756,0.53781825868,25,5,8.604,12.028648022712,0,0,0.44868439756,0,0,0,301.4, -6, 0.5,0,0,1024,1024,1408,1024,0,0,58,0,308.8,0,0,96,4.302,4.299,0,0,0,0,1.14,78.08,11.700564022712,-0.328084,10,Assisted_Takeoff,
2100,2022-10-20 03:53:35,-34.9582176819159,-54.9445405572286,-0.328084,-0.3608924,12.061456422712,11.700564022712,0.328084,0,0.46646326952,0.55564634324,25,5,8.604,12.028648022712,0,0,0.46646326952,0,0,0,301.9, -5.5, 0.4,0,0,1024,1024,1604,1024,0,0,88,0,308.5,0,0,96,4.302,4.299,0,0,0,0,1.14,78.08,11.700564022712,-0.328084,10,Assisted_Takeoff,
2200,2022-10-20 03:53:35,-34.958217713914,-54.9445405097863,-0.328084,-0.3608924,12.061456422712,11.700564022712,0.328084,0,0.4816765246,0.57401904724,25,5,8.604,12.028648022712,0,0,0.4816765246,0,0,0,302.2, -5, 0.4,0,0,1024,1024,1620,1024,0,0,90,0,308.6,0,0,96,4.302,4.299,0,0,0,0,1.14,78.08,11.700564022712,-0.328084,10,Assisted_Takeoff,
2300,2022-10-20 03:53:35,-34.9582177039577,-54.9445404101327,0,-0.098425199999999,12.127073222712,12.028648022712,0.328084,0,0.51098098748,0.60403873324,25,5,8.529,12.028648022712,0,0,0.51098098748,0,0,0,302.1, -4.4, 0.4,0,0,1024,1024,1460,1024,0,0,66,0,308.6,0,0,96,4.286,4.283,0,0,0,0,2.031,78.08,12.028648022712,0,10,Assisted_Takeoff,
2400,2022-10-20 03:53:35,-34.9582177069369,-54.9445403237667,0,-0.098425199999999,12.127073222712,12.028648022712,0.328084,0,0.53679791744,0.62988519076,25,5,8.529,12.028648022712,0,0,0.53679791744,0,0,0,301.9, -3.6, 0.5,0,0,1024,1024,1285,1024,0,0,40,0,308.6,0,0,96,4.286,4.283,0,0,0,0,2.031,78.08,12.028648022712,0,10,Assisted_Takeoff,
2500,2022-10-20 03:53:36,-34.9582176883653,-54.9445402815157,0,-0.098425199999999,12.127073222712,12.028648022712,0.328084,0,0.54883860024,0.64422246156,25,5,8.529,12.028648022712,0,0,0.54883860024,0,0,0,301.4, -3.7, 0,0,0,1024,1024,1285,1024,0,0,40,0,308.5,0,0,96,4.286,4.283,0,0,0,0,2.031,78.08,12.028648022712,0,10,Assisted_Takeoff,
2600,2022-10-20 03:53:36,-34.9582175784079,-54.9445403892731,0,-0.098425199999999,12.127073222712,12.028648022712,0.328084,0,0.51510500336,0.69567915612,25,5,8.529,12.028648022712,0,0,0.54883860024,0,0,-0.223694,299.5, -3.2, -1.1,0,0,1024,1024,1156,1024,0,0,20,0,307.2,0,0,96,4.286,4.283,0,0,0,0,2.031,78.08,12.028648022712,0,10,Assisted_Takeoff,
2700,2022-10-20 03:53:36,-34.9582175592257,-54.9445404122899,0,-0.098425199999999,12.127073222712,12.028648022712,0.328084,0.223694,0.50826445196,0.7054954294,25,5,8.529,12.028648022712,0,0.223694,0.54883860024,0,-0.223694,-0.671082,299.3, -2, -1,0,0,1024,1024,1160,1024,0,0,21,0,306.4,0,0,96,4.286,4.283,0,0,0,0,2.031,78.08,12.028648022712,0,6,P-GPS,
2800,2022-10-20 03:53:36,-34.9582175424388,-54.9445405024947,0,-0.032808399999999,12.061456422712,12.028648022712,0.656168,0.223694,0.4814140574,0.7331529106,25,5,8.529,12.028648022712,0,0.223694,0.54883860024,0,-0.223694,-1.342164,299.4, 0.4, 0.9,0,0,1024,1024,1104,1024,0,0,12,0,306.4,0,0,96,4.286,4.283,0,0,0,0,2.031,78.08,12.028648022712,0,6,P-GPS,
2900,2022-10-20 03:53:36,-34.9582175462462,-54.9445406346004,0.328084,0.2952756,12.061456422712,12.356732022712,0.984252,0.223694,0.44188649708,0.77268047092,25,5,8.529,12.356732022712,0.328084,0.223694,0.54883860024,0,-0.223694,-1.565858,299.4, 1.7, 1.6,0,0,1024,1024,1024,1024,0,0,0,0,306.4,0,0,96,4.286,4.283,0,0,0,0,2.031,78.08,12.356732022712,0.328084,6,P-GPS,
3000,2022-10-20 03:53:36,-34.9582175153521,-54.9445407209703,0.328084,0.2952756,12.061456422712,12.356732022712,0.984252,0.223694,0.41652560388,0.80085960568,25,5,8.529,12.356732022712,0.328084,0.223694,0.54883860024,0,-0.223694,-1.789552,299.5, 1.8, 1.2,0,0,1024,1024,1024,1024,0,0,0,0,306.4,0,0,96,4.286,4.283,0,0,0,0,2.031,78.08,12.356732022712,0.328084,6,P-GPS,
3100,2022-10-20 03:53:36,-34.9582175330769,-54.9445408181564,0.656168,0.6233596,12.061456422712,12.684816022712,1.312336,0.223694,0.3871883326,0.83062994784,25,5,8.529,12.684816022712,0.656168,0.223694,0.54883860024,0,-0.223694,-1.565858,299.5, 1.7, 0.7,0,0,1024,1024,1024,1024,0,0,0,0,306.4,0,0,96,4.286,4.283,0,0,0,0,2.031,78.08,12.684816022712,0.656168,6,P-GPS,
3200,2022-10-20 03:53:36,-34.9582175431187,-54.9445409006449,0.984252,0.9514436,12.061456422712,13.012900022712,1.64042,0.223694,0.3624015864,0.85556761268,25,5,8.529,13.012900022712,0.984252,0.223694,0.54883860024,0,-0.223694,-1.342164,299.5, 2, 0.8,0,0,1024,1024,1024,1024,0,0,0,0,306.4,0,0,96,4.286,4.283,0,0,0,0,2.031,78.08,13.012900022712,0.984252,6,P-GPS,
3300,2022-10-20 03:53:36,-34.9582174223256,-54.9445410497674,1.312336,1.312336,12.028648022712,13.340984022712,3.28084,0,0.322564314784,0.91826118424,25,5,8.441,13.340984022712,1.312336,0.223694,0.54883860024,0,0,-0.894776,299.5, 1.8, 0.8,0,0,1024,1024,1024,1024,0,0,0,0,306.4,0,0,96,4.221,4.21,0,0,0,0,3.512,78.08,13.340984022712,1.312336,6,P-GPS,
3400,2022-10-20 03:53:36,-34.9582173640998,-54.9445413875025,1.312336,1.312336,12.028648022712,13.340984022712,3.28084,0,0.230092527048,1.02146000644,24,5,8.441,13.340984022712,1.312336,0.223694,0.54883860024,0,0,-0.447388,299.5, 1.6, 0.9,0,0,1024,1024,1024,1024,0,0,0,0,306.4,0,0,96,4.221,4.21,0,0,0,0,3.512,78.08,13.340984022712,1.312336,6,P-GPS,
3500,2022-10-20 03:53:37,-34.9582174214121,-54.9445414629392,1.312336,1.312336,12.028648022712,13.340984022712,3.608924,0,0.202166673136,1.05221788144,24,5,8.441,13.340984022712,1.312336,0.223694,0.54883860024,0,0,-0.223694,299.5, 1.2, 1.1,0,0,1024,1024,1024,1024,0,0,0,0,306.4,0,0,96,4.221,4.21,0,0,0,0,3.512,78.08,13.340984022712,1.312336,6,P-GPS,
3600,2022-10-20 03:53:37,-34.9582174729002,-54.9445415206685,1.312336,1.3451444,11.995839622712,13.340984022712,3.608924,0,0.180811685576,1.07772969328,24,5,8.441,13.340984022712,1.312336,0.223694,0.54883860024,0,0,0,299.5, 1.3, 1.1,0,0,1024,1024,1024,1024,0,0,0,0,306.4,0,0,96,4.221,4.21,0,0,0,0,3.512,78.08,13.340984022712,1.312336,6,P-GPS,
3700,2022-10-20 03:53:37,-34.9582174552104,-54.9445415367765,1.312336,1.3451444,11.995839622712,13.340984022712,3.608924,0,0.177605648728,1.08578415548,24,5,8.441,13.340984022712,1.312336,0.223694,0.54883860024,0,0,0,299.6, 1.1, 1.2,0,0,1024,1024,1024,1024,0,0,0,0,306.4,0,0,96,4.221,4.21,0,0,0,0,3.512,78.08,13.340984022712,1.312336,6,P-GPS,
3800,2022-10-20 03:53:37,-34.9582174386426,-54.9445415374416,1.312336,1.3451444,11.995839622712,13.340984022712,3.608924,0,0.179020018852,1.09183402444,24,5,8.441,13.340984022712,1.312336,0.223694,0.54883860024,0,0,0,299.6, 0.9, 1.3,0,0,1024,1024,1024,1024,0,0,0,0,306.4,0,0,96,4.221,4.21,0,0,0,0,3.512,78.08,13.340984022712,1.312336,6,P-GPS,
3900,2022-10-20 03:53:37,-34.9582175554184,-54.9445414044024,1.312336,1.2795276,12.061456422712,13.340984022712,3.608924,0,0.211705059268,1.15012470872,24,5,8.441,13.340984022712,1.312336,0.223694,0.54883860024,0,0,0,299.6, 0.4, 0.9,0,0,1024,1024,1024,1024,0,0,0,0,306.4,0,0,96,4.221,4.21,0,0,0,0,3.512,78.08,13.340984022712,1.312336,6,P-GPS,
4000,2022-10-20 03:53:37,-34.9582175887021,-54.9445413608617,1.312336,1.2795276,12.061456422712,13.340984022712,3.608924,0,0.224623366768,1.16792654656,24,5,8.441,13.340984022712,1.312336,0.223694,0.54883860024,0,0,0,299.6, 0.4, 1.1,0,0,1024,1024,1024,1024,0,0,0,0,306.4,0,0,96,4.221,4.21,0,0,0,0,3.512,78.08,13.340984022712,1.312336,6,P-GPS,
4100,2022-10-20 03:53:37,-34.958217582387,-54.9445413365624,1.312336,1.2795276,12.061456422712,13.340984022712,3.608924,0,0.231856306632,1.17554793788,24,5,8.441,13.340984022712,1.312336,0.223694,0.54883860024,0,0,0,299.6, 0, 1,0,0,1024,1024,1024,1024,0,0,0,0,306.4,0,0,96,4.221,4.21,0,0,0,0,3.512,78.08,13.340984022712,1.312336,6,P-GPS,
4200,2022-10-20 03:53:37,-34.9582175649733,-54.9445413154082,1.312336,1.2795276,12.061456422712,13.340984022712,3.608924,0,0.238211621796,1.1845144736,24,5,8.441,13.340984022712,1.312336,0.223694,0.54883860024,0,0,0,299.6, 0.1, 0.5,0,0,1024,1024,1024,1024,0,0,0,0,306.4,0,0,96,4.221,4.21,0,0,0,0,3.512,78.08,13.340984022712,1.312336,6,P-GPS,
4300,2022-10-20 03:53:37,-34.9582175247881,-54.9445414028174,1.312336,1.2795276,12.061456422712,13.340984022712,3.608924,0,0.21288222466,1.21448166616,24,5,8.476,13.340984022712,1.312336,0.223694,0.54883860024,0,0,0,299.6, 0.2, -0.1,0,0,1024,1024,1024,1024,0,0,0,0,306.4,0,0,96,4.24,4.228,0,0,0,0,3.845,78.08,13.340984022712,1.312336,6,P-GPS,
4400,2022-10-20 03:53:37,-34.9582174910818,-54.944541429679,1.312336,1.312336,12.028648022712,13.340984022712,3.608924,0,0.206384849124,1.22917326768,24,5,8.476,13.340984022712,1.312336,0.223694,0.54883860024,0,0,0,299.6, 0.7, 0,0,0,1024,1024,1024,1024,0,0,0,0,306.4,0,0,96,4.24,4.228,0,0,0,0,3.845,78.08,13.340984022712,1.312336,6,P-GPS,"Punto de origen actualizado. Altitud de RPO establecida en 100m (Code: 3000001)"
4500,2022-10-20 03:53:38,-34.9582174222255,-54.944541447146,1.312336,1.312336,12.028648022712,13.340984022712,3.28084,0,0.206622710024,1.25482943648,24,5,8.476,13.340984022712,1.312336,0.223694,0.54883860024,0,0,0,299.6, 0.5, -0.1,0,0,1024,1024,1024,1024,0,0,0,0,306.4,0,0,96,4.24,4.228,0,0,0,0,3.845,78.08,13.340984022712,1.312336,6,P-GPS,
4600,2022-10-20 03:53:38,-34.9582173675497,-54.9445414684936,1.312336,1.312336,12.028648022712,13.340984022712,3.28084,0,0.20698655518,1.27577431904,24,5,8.476,13.340984022712,1.312336,0.223694,0.54883860024,0,0,0,299.6, 0.7, -0.1,0,0,1024,1024,1024,1024,0,0,0,0,306.4,0,0,96,4.24,4.228,0,0,0,0,3.845,78.08,13.340984022712,1.312336,6,P-GPS,
4700,2022-10-20 03:53:38,-34.9582173372183,-54.9445415259747,0.984252,1.0170604,11.995839622712,13.012900022712,3.28084,0,0.195798234612,1.29621723308,24,5,8.476,13.340984022712,1.312336,0.223694,0.54883860024,0,0,0,299.6, 0.5, 0,0,0,1024,1024,1024,1024,0,0,0,0,306.4,0,0,96,4.24,4.228,0,0,0,0,3.845,78.08,13.012900022712,0.984252,6,P-GPS,
4800,2022-10-20 03:53:38,-34.9582173532185,-54.9445415575349,0.984252,1.0170604,11.995839622712,13.012900022712,3.28084,0,0.184750333996,1.3073163148,25,5,8.476,13.340984022712,1.312336,0.223694,0.54883860024,0,0,0,299.6, 0.8, 0.3,0,0,1024,1024,1024,1024,0,0,0,0,306.4,0,0,96,4.24,4.228,0,0,0,0,3.845,78.08,13.012900022712,0.984252,6,P-GPS,
4900,2022-10-20 03:53:38,-34.9582173105916,-54.9445416345069,0.984252,1.0170604,11.995839622712,13.012900022712,3.28084,0,0.172656829672,1.33509190624,25,5,8.476,13.340984022712,1.312336,0.223694,0.54883860024,0,0,0,299.6, 0.4, 0.3,0,0,1024,1024,1024,1024,0,0,0,0,306.4,0,0,96,4.24,4.228,0,0,0,0,3.845,78.08,13.012900022712,0.984252,6,P-GPS,
5000,2022-10-20 03:53:38,-34.9582172731072,-54.9445417120707,0.984252,1.0170604,11.995839622712,13.012900022712,3.28084,0,0.163002301804,1.36201776012,25,5,8.476,13.340984022712,1.312336,0.223694,0.54883860024,0,0,0,299.5, 1.1, 0.4,0,0,1024,1024,1024,1024,0,0,0,0,306.4,0,0,96,4.24,4.228,0,0,0,0,3.845,78.08,13.012900022712,0.984252,6,P-GPS,
5100,2022-10-20 03:53:38,-34.958217249393,-54.9445419102884,0.984252,1.0170604,11.995839622712,13.012900022712,3.28084,0,0.133796920292,1.421916056,25,5,8.476,13.340984022712,1.312336,0.223694,0.54883860024,0,0,0,299.5, 1.2, 0.5,0,0,1024,1024,1024,1024,0,0,0,0,306.4,0,0,96,4.24,4.228,0,0,0,0,3.845,78.08,13.012900022712,0.984252,6,P-GPS,
5200,2022-10-20 03:53:38,-34.9582172736438,-54.9445419711993,0.984252,1.0170604,11.995839622712,13.012900022712,3.28084,0,0.118328743944,1.44216540048,25,5,8.476,13.340984022712,1.312336,0.223694,0.54883860024,0,0,0,299.5, 1.6, 0.7,0,0,1024,1024,1024,1024,0,0,0,0,306.4,0,0,96,4.24,4.228,0,0,0,0,3.845,78.08,13.012900022712,0.984252,6,P-GPS,
5300,2022-10-20 03:53:38,-34.958217305006,-54.9445419628473,0.984252,1.0170604,11.995839622712,13.012900022712,3.28084,0,0.108710961484,1.45387799928,25,5,8.476,13.340984022712,1.312336,0.223694,0.54883860024,0,0,0,299.5, 1.2, 0.5,0,0,1024,1024,1024,1024,0,0,0,0,306.4,0,0,96,4.24,4.228,0,0,0,0,3.845,78.08,13.012900022712,0.984252,6,P-GPS,
5400,2022-10-20 03:53:38,-34.9582173381937,-54.9445419466687,0.984252,1.0170604,11.995839622712,13.012900022712,3.28084,0,0.100091210552,1.46691605744,25,5,8.455,13.340984022712,1.312336,0.223694,0.54883860024,0,0,0,299.4, 1.1, 0.2,0,0,1024,1024,1024,1024,0,0,0,0,306.4,0,0,95,4.231,4.219,0,0,0,0,4.04,78.08,13.012900022712,0.984252,6,P-GPS,
5500,2022-10-20 03:53:39,-34.9582173653863,-54.9445419951745,0.984252,1.0170604,11.995839622712,13.012900022712,3.28084,0,0.084655186436,1.48449151732,25,5,8.455,13.340984022712,1.312336,0.223694,0.54883860024,0,0,0,299.4, 0.8, 0.3,0,0,1024,1024,1024,1024,0,0,0,0,306.4,0,0,95,4.231,4.219,0,0,0,0,4.04,78.08,13.012900022712,0.984252,6,P-GPS,
5600,2022-10-20 03:53:39,-34.9582174438936,-54.9445420711927,0.984252,1.0170604,11.995839622712,13.012900022712,3.28084,0,0.04998523782,1.52105647912,25,5,8.455,13.340984022712,1.312336,0.223694,0.54883860024,0,0,0,299.6, 0.7, 0.7,0,0,1024,1024,1065,1024,0,0,6,0,306.4,0,0,95,4.231,4.219,0,0,0,0,4.04,78.08,13.012900022712,0.984252,6,P-GPS,
5700,2022-10-20 03:53:39,-34.958217473725,-54.9445421143662,0.984252,1.0170604,11.995839622712,13.012900022712,3.28084,0,0.037602035324,1.5379429626,25,5,8.455,13.340984022712,1.312336,0.223694,0.54883860024,0,0,0,299.7, 0.6, 0.8,0,0,1024,1024,1065,1024,0,0,6,0,306.4,0,0,95,4.231,4.219,0,0,0,0,4.04,78.08,13.012900022712,0.984252,6,P-GPS,
5800,2022-10-20 03:53:39,-34.9582175059821,-54.9445421576233,0.984252,0.984252,12.028648022712,13.012900022712,3.28084,0,0.0292188657644,1.5554298398,25,5,8.455,13.340984022712,1.312336,0.223694,0.54883860024,0,0,0,299.8, 1, 1,0,0,1024,1024,1065,1024,0,0,6,0,306.4,0,0,95,4.231,4.219,0,0,0,0,4.04,78.08,13.012900022712,0.984252,6,P-GPS,
5900,2022-10-20 03:53:39,-34.9582175818708,-54.9445421603228,0.984252,0.984252,12.028648022712,13.012900022712,3.28084,0,0.0145926185772,1.58312997192,25,5,8.455,13.340984022712,1.312336,0.223694,0.54883860024,0,0,0,299.8, 1, 1.4,0,0,1024,1024,1085,1024,0,0,9,0,306.4,0,0,95,4.231,4.219,0,0,0,0,4.04,78.08,13.012900022712,0.984252,6,P-GPS,
6000,2022-10-20 03:53:39,-34.9582176822253,-54.9445421044241,0.984252,0.984252,12.028648022712,13.012900022712,3.28084,0,0.0385416679,1.62337931704,25,5,8.455,13.340984022712,1.312336,0.223694,0.54883860024,0,0,0,299.8, 0.7, 1.8,0,0,1024,1024,1115,1024,0,0,14,0,306.4,0,0,95,4.231,4.219,0,0,0,0,4.04,78.08,13.012900022712,0.984252,6,P-GPS,
6100,2022-10-20 03:53:39,-34.9582177017691,-54.9445420815869,0.984252,0.984252,12.028648022712,13.012900022712,3.28084,0,0.046500001488,1.6332513646,25,5,8.455,13.340984022712,1.312336,0.223694,0.54883860024,0,0,0,299.7, 0.4, 1.6,0,0,1024,1024,1126,1024,0,0,15,0,306.4,0,0,95,4.231,4.219,0,0,0,0,4.04,78.08,13.012900022712,0.984252,6,P-GPS,
6200,2022-10-20 03:53:39,-34.9582177173492,-54.9445420535572,0.984252,0.984252,12.028648022712,13.012900022712,3.28084,0,0.054178807508,1.64337931768,24,5,8.455,13.340984022712,1.312336,0.223694,0.54883860024,0,0,0,299.7, 0.4, 1.8,0,0,1024,1024,1128,1024,0,0,16,0,306.4,0,0,95,4.231,4.219,0,0,0,0,4.04,78.08,13.012900022712,0.984252,6,P-GPS,
6300,2022-10-20 03:53:39,-34.9582177952531,-54.9445420639161,1.312336,1.312336,12.028648022712,13.340984022712,3.28084,0,0.080996393668,1.67197183828,24,5,8.455,13.340984022712,1.312336,0.223694,0.54883860024,0,0,-0.223694,299.7, 0, 1.7,0,0,1024,1024,1148,1024,0,0,19,0,306.4,0,0,95,4.231,4.219,0,0,0,0,4.04,78.08,13.340984022712,1.312336,6,P-GPS,
6400,2022-10-20 03:53:39,-34.9582178899578,-54.9445420881958,1.312336,1.312336,12.028648022712,13.340984022712,3.28084,0,0.114487208388,1.70727695752,24,5,8.446,13.340984022712,1.312336,0.223694,0.54883860024,0,0,-0.223694,299.6, 0.3, 1.5,0,0,1024,1024,1179,1024,0,0,23,0,306.4,0,0,95,4.223,4.212,0,0,0,0,4.124,78.08,13.340984022712,1.312336,6,P-GPS,
6500,2022-10-20 03:53:39,-34.9582178659911,-54.9445421110892,1.312336,1.312336,12.028648022712,13.340984022712,3.28084,0,0.10552329734,1.71838260092,24,5,8.446,13.340984022712,1.312336,0.223694,0.54883860024,0,0,-0.223694,299.5, 0, 1,0,0,1024,1024,1182,1024,0,0,24,0,306.4,0,0,95,4.223,4.212,0,0,0,0,4.124,78.08,13.340984022712,1.312336,6,P-GPS,
6600,2022-10-20 03:53:40,-34.958217840782,-54.9445421386171,1.312336,1.312336,12.028648022712,13.340984022712,3.608924,0,0.096655842988,1.730725121,25,5,8.446,13.340984022712,1.312336,0.223694,0.54883860024,0,0,-0.447388,299.5, 0.4, 1.1,0,0,1024,1024,1182,1024,0,0,24,0,306.4,0,0,95,4.223,4.212,0,0,0,0,4.124,78.08,13.340984022712,1.312336,6,P-GPS,
6700,2022-10-20 03:53:40,-34.958217840379,-54.9445421854021,1.312336,1.312336,12.028648022712,13.340984022712,3.608924,0,0.09865649922,1.7447179036,25,5,8.446,13.340984022712,1.312336,0.223694,0.54883860024,0,0,-0.447388,299.6, 0.1, 1.4,0,0,1024,1024,1104,1024,0,0,12,0,306.4,0,0,95,4.223,4.212,0,0,0,0,4.124,78.08,13.340984022712,1.312336,6,P-GPS,
6800,2022-10-20 03:53:40,-34.9582178112559,-54.9445423600469,1.64042,1.64042,12.028648022712,13.669068022712,3.608924,0,0.113243770028,1.79800858772,25,5,8.446,13.669068022712,1.64042,0.223694,0.54883860024,0,0,-0.447388,299.7, 0.5, 1.3,0,0,1024,1024,1024,1024,0,0,0,0,306.4,0,0,95,4.223,4.212,0,0,0,0,4.124,78.08,13.669068022712,1.64042,6,P-GPS,
6900,2022-10-20 03:53:40,-34.9582178414399,-54.9445423653819,1.64042,1.64042,12.028648022712,13.669068022712,3.608924,0,0.122756237524,1.809137197,25,5,8.446,13.669068022712,1.64042,0.223694,0.54883860024,0,0,-0.223694,299.8, 0.5, 1.6,0,0,1107,1024,1024,1024,13,0,0,0,306.4,0,0,95,4.223,4.212,0,0,0,0,4.124,78.08,13.669068022712,1.64042,6,P-GPS,
7000,2022-10-20 03:53:40,-34.9582178725945,-54.9445423610766,1.64042,1.64042,12.028648022712,13.669068022712,3.608924,0,0.131148954328,1.82057420524,25,5,8.446,13.669068022712,1.64042,0.223694,0.54883860024,0,0,0,299.7, 0, 1.5,0,0,1299,1024,1024,1024,42,0,0,0,306.4,0,0,95,4.223,4.212,0,0,0,0,4.124,78.08,13.669068022712,1.64042,6,P-GPS,
7100,2022-10-20 03:53:40,-34.9582179232863,-54.9445423437167,1.64042,1.64042,12.028648022712,13.669068022712,3.608924,0,0.144180450808,1.83978680428,25,5,8.446,13.669068022712,1.64042,0.223694,0.54883860024,0,0,0,299.5, -1, 1.1,0,0,1418,1024,1024,1024,60,0,0,0,306.4,0,0,95,4.223,4.212,0,0,0,0,4.124,78.08,13.669068022712,1.64042,6,P-GPS,
7200,2022-10-20 03:53:40,-34.9582179611566,-54.9445423432176,1.64042,1.64042,12.028648022712,13.669068022712,3.608924,0,0.156371067996,1.85360242152,25,5,8.446,13.669068022712,1.64042,0.223694,0.54883860024,0,0,0,299.5, -6.1, 1.5,0,0,1416,1024,1024,1024,59,0,0,0,306.4,0,0,95,4.223,4.212,0,0,0,0,4.124,78.08,13.669068022712,1.64042,6,P-GPS,
7300,2022-10-20 03:53:40,-34.9582179665272,-54.9445422300221,1.64042,1.64042,12.028648022712,13.669068022712,3.608924,0.223694,0.146522970568,1.88750662208,25,5,8.446,13.669068022712,1.64042,0.223694,0.54883860024,0,-0.223694,0,299.5, -9.6, 1.6,0,0,1410,1024,1024,1024,58,0,0,0,306.4,0,0,95,4.223,4.212,0,0,0,0,4.124,78.08,13.669068022712,1.64042,6,P-GPS,
7400,2022-10-20 03:53:40,-34.9582178560666,-54.9445423823275,1.64042,1.64042,12.028648022712,13.669068022712,3.608924,0.4921268,0.130084321748,1.94832027232,25,5,8.427,13.669068022712,1.64042,0.4921268,0.54883860024,0.223694,-0.447388,0,299.5, -10.6, 1.1,0,0,1410,1024,1024,1024,58,0,0,0,306.4,0,0,95,4.231,4.219,0,0,0,0,4.153,78.08,13.669068022712,1.64042,6,P-GPS,
7500,2022-10-20 03:53:41,-34.9582176864617,-54.944542660457,1.64042,1.6732284,11.995839622712,13.669068022712,3.608924,1.006623,0.16883530724,2.05198169296,25,5,8.427,13.669068022712,1.64042,1.006623,0.54883860024,0.447388,-0.894776,0,299.3, -10.3, 1.3,0,0,1395,1024,1024,1024,56,0,0,0,306.4,0,0,95,4.231,4.219,0,0,0,0,4.153,78.08,13.669068022712,1.64042,6,P-GPS,
7600,2022-10-20 03:53:41,-34.9582174530584,-54.9445430720857,1.64042,1.7388452,11.930222822712,13.669068022712,3.608924,1.4987498,0.290634523736,2.20165361376,25,5,8.427,13.669068022712,1.64042,1.4987498,0.54883860024,0.671082,-1.342164,0,299.3, -9.8, 1.1,0,0,1348,1024,1087,1024,49,0,10,0,306.4,0,0,95,4.231,4.219,0,0,0,0,4.153,78.08,13.669068022712,1.64042,6,P-GPS,
7700,2022-10-20 03:53:41,-34.9582171074896,-54.9445435342062,1.64042,1.7716536,11.897414422712,13.669068022712,3.608924,1.8119214,0.45846130076,2.3887139872,25,5,8.427,13.669068022712,1.64042,1.8119214,0.54883860024,0.894776,-1.565858,0,299.5, -8.6, 1.1,0,0,1329,1024,1327,1024,46,0,46,0,306.4,0,0,95,4.231,4.219,0,0,0,0,4.153,78.08,13.669068022712,1.64042,6,P-GPS,
7800,2022-10-20 03:53:41,-34.9582167060627,-54.9445442812011,1.64042,1.7716536,11.897414422712,13.669068022712,3.608924,2.1027236,0.72227036432,2.65581373328,25,5,8.427,13.669068022712,1.64042,2.1027236,0.72227036432,1.11847,-1.789552,0,299.4, -7.4, 0.9,0,0,1327,1024,1395,1024,46,0,56,0,306.4,0,0,95,4.231,4.219,0,0,0,0,4.153,78.08,13.669068022712,1.64042,6,P-GPS,
7900,2022-10-20 03:53:41,-34.9582161754391,-54.9445453019378,1.64042,1.8700788,11.798989222712,13.669068022712,3.608924,2.3040482,1.08225725248,3.01725403356,25,5,8.427,13.669068022712,1.64042,2.3040482,1.08225725248,1.11847,-2.013246,-0.671082,299.4, -6.4, 0.5,0,0,1321,1024,1406,1024,45,0,58,0,306.4,0,0,95,4.231,4.219,0,0,0,0,4.153,78.08,13.669068022712,1.64042,6,P-GPS,
8000,2022-10-20 03:53:41,-34.9582156241782,-54.9445463937927,1.64042,1.9028872,11.766180822712,13.669068022712,3.937008,2.6172198,1.46521330148,3.4007218936,25,5,8.427,13.669068022712,1.64042,2.6172198,1.46521330148,1.342164,-2.23694,-1.565858,299.4, -5.6, 0.5,0,0,1313,1024,1404,1024,44,0,58,0,306.4,0,0,95,4.231,4.219,0,0,0,0,4.153,78.08,13.669068022712,1.64042,6,P-GPS,
8100,2022-10-20 03:53:41,-34.9582148517388,-54.944548184368,1.968504,2.3622048,11.634947222712,13.997152022712,4.265092,2.796175,2.07015426572,4.0057744064,25,5,8.427,13.997152022712,1.968504,2.796175,2.07015426572,1.342164,-2.460634,-2.013246,299.5, -5, 0.9,0,0,1300,1024,1393,1024,42,0,56,0,306.4,0,0,95,4.231,4.219,0,0,0,0,4.153,78.08,13.997152022712,1.968504,6,P-GPS,
8200,2022-10-20 03:53:41,-34.9582142339821,-54.9445495824658,2.296588,2.8543308,11.470905222712,14.325236022712,4.593176,2.9974996,2.54509194496,4.4807088048,25,5,8.427,14.325236022712,2.296588,2.9974996,2.54509194496,1.342164,-2.684328,-2.460634,299.5, -4.7, 1.1,0,0,1301,1024,1390,1024,42,0,55,0,306.4,0,0,95,4.231,4.219,0,0,0,0,4.153,78.08,14.325236022712,2.296588,6,P-GPS,
8300,2022-10-20 03:53:41,-34.9582136060297,-54.9445510932574,2.952756,3.5433072,11.438096822712,14.981404022712,5.249344,2.9974996,3.05143054384,4.9872705008,25,5,8.427,14.981404022712,2.952756,2.9974996,3.05143054384,1.342164,-2.684328,-2.684328,299.5, -4, 1.3,0,0,1301,1024,1390,1024,42,0,55,0,306.4,0,0,95,4.231,4.219,0,0,0,0,4.153,78.08,14.981404022712,2.952756,6,P-GPS,
8400,2022-10-20 03:53:41,-34.9582129889113,-54.944552579342,3.28084,4.0026248,11.306863222712,15.309488022712,5.577428,3.3106712,3.5494423708,5.485400438,25,5,8.431,15.309488022712,3.28084,3.3106712,3.5494423708,1.565858,-2.908022,-2.684328,299.5, -4.4, 1.7,0,0,1301,1024,1389,1024,42,0,55,0,306.4,0,0,95,4.196,4.183,0,0,0,0,4.064,78.08,15.309488022712,3.28084,6,P-GPS,
8500,2022-10-20 03:53:42,-34.9582123346204,-54.9445545870156,3.608924,4.4619424,11.175629622712,15.637572022712,5.905512,3.3106712,4.1920276932,6.1314634508,25,5,8.431,15.637572022712,3.608924,3.3106712,4.1920276932,1.565858,-2.908022,-2.684328,299.4, -4.3, 1.8,0,0,1301,1024,1383,1024,42,0,54,0,306.4,0,0,95,4.196,4.183,0,0,0,0,4.064,78.08,15.637572022712,3.608924,6,P-GPS,
8600,2022-10-20 03:53:42,-34.9582116505225,-54.9445561941564,3.937008,4.8556432,11.110012822712,15.965656022712,6.56168,3.3106712,4.7335303352,6.6729989012,25,5,8.431,15.965656022712,3.937008,3.3106712,4.7335303352,1.565858,-2.908022,-2.684328,299.4, -4.1, 1.5,0,0,1302,1024,1378,1024,42,0,54,0,306.4,0,0,95,4.196,4.183,0,0,0,0,4.064,78.08,15.965656022712,3.937008,6,P-GPS,
8700,2022-10-20 03:53:42,-34.9582109223898,-54.9445577984122,4.265092,5.3149608,10.978779222712,16.293740022712,6.889764,3.5119958,5.281660274,7.2213256904,25,5,8.431,16.293740022712,4.265092,3.5119958,5.281660274,1.565858,-3.131716,-2.684328,299.5, -4.2, 1.1,0,0,1301,1024,1377,1024,42,0,53,0,306.4,0,0,95,4.196,4.183,0,0,0,0,4.064,78.08,16.293740022712,4.265092,6,P-GPS,
8800,2022-10-20 03:53:42,-34.9582102065779,-54.9445593574509,4.92126,6.069554,10.880354022712,16.949908022712,7.217848,3.6014734,5.8157482176,7.7556761012,25,5,8.431,16.949908022712,4.92126,3.6014734,5.8157482176,1.789552,-3.131716,-2.684328,299.6, -4.5, 0.8,0,0,1301,1024,1378,1024,42,0,54,0,306.4,0,0,95,4.196,4.183,0,0,0,0,4.064,78.08,16.949908022712,4.92126,6,P-GPS,
8900,2022-10-20 03:53:42,-34.9582094354462,-54.9445611424887,5.249344,6.5288716,10.749120422712,17.277992022712,7.874016,3.6014734,6.4190946936,8.3590553856,25,5,8.431,17.277992022712,5.249344,3.6014734,6.4190946936,1.789552,-3.131716,-2.684328,299.5, -4.5, 1,0,0,1301,1024,1377,1024,42,0,53,0,306.4,0,0,95,4.196,4.183,0,0,0,0,4.064,78.08,17.277992022712,5.249344,6,P-GPS,
9000,2022-10-20 03:53:42,-34.9582087691683,-54.9445629614047,5.577428,6.9553808,10.650695222712,17.606076022712,8.2021,3.802798,7.0138453688,8.9547903128,25,5,8.431,17.606076022712,5.577428,3.802798,7.0138453688,1.789552,-3.35541,-2.684328,299.5, -4.1, 0.7,0,0,1306,1024,1377,1024,43,0,53,0,306.4,0,0,95,4.196,4.183,0,0,0,0,4.064,78.08,17.606076022712,5.577428,6,P-GPS,
9100,2022-10-20 03:53:42,-34.9582080035684,-54.9445647759252,5.905512,7.4146984,10.519461622712,17.934160022712,8.530184,3.802798,7.6241144172,9.5650593612,25,5,8.431,17.934160022712,5.905512,3.802798,7.6241144172,1.789552,-3.35541,-2.684328,299.6, -4.1, 0.5,0,0,1306,1024,1377,1024,43,0,53,0,306.4,0,0,95,4.196,4.183,0,0,0,0,4.064,78.08,17.934160022712,5.905512,6,P-GPS,
9200,2022-10-20 03:53:42,-34.9582072601251,-54.9445665323714,6.233596,7.874016,10.388228022712,18.262244022712,9.186352,3.802798,8.21522336,10.156168304,25,5,8.431,18.262244022712,6.233596,3.802798,8.21522336,1.789552,-3.35541,-2.684328,299.6, -4.2, 0.6,0,0,1332,1024,1378,1024,47,0,54,0,306.4,0,0,95,4.196,4.183,0,0,0,0,4.064,78.08,18.262244022712,6.233596,6,P-GPS,
9300,2022-10-20 03:53:42,-34.9582064389252,-54.9445683813293,6.889764,8.6286092,10.289802822712,18.918412022712,9.514436,4.1159696,8.8439307292,10.7850069068,25,5,8.431,18.918412022712,6.889764,4.1159696,8.8439307292,2.013246,-3.579104,-2.684328,299.6, -4.7, 1.1,0,0,1347,1024,1383,1024,49,0,54,0,306.4,0,0,95,4.196,4.183,0,0,0,0,4.064,78.08,18.918412022712,6.889764,6,P-GPS,
9400,2022-10-20 03:53:42,-34.9582057658014,-54.9445701361814,7.217848,9.0551184,10.191377622712,19.246496022712,9.84252,4.1159696,9.4228677556,11.3643704424,24,5,8.42,19.246496022712,7.217848,4.1159696,9.4228677556,2.013246,-3.579104,-2.684328,299.5, -5.8, 0.8,0,0,1367,1024,1397,1024,52,0,57,0,306.4,0,0,95,4.213,4.201,0,0,0,0,4.847,78.08,19.246496022712,7.217848,6,P-GPS,
9500,2022-10-20 03:53:43,-34.9582048440695,-54.9445720010096,7.545932,9.514436,10.060144022712,19.574580022712,10.170604,4.2949248,10.072670926,12.0155515656,24,5,8.42,19.574580022712,7.545932,4.2949248,10.072670926,2.013246,-3.802798,-2.684328,299.6, -6.3, 0.1,0,0,1382,1024,1400,1024,54,0,57,0,306.4,0,0,95,4.213,4.201,0,0,0,0,4.847,78.08,19.574580022712,7.545932,6,P-GPS,
9600,2022-10-20 03:53:43,-34.9582039418122,-54.9445738423368,7.874016,9.9737536,9.928910422712,19.902664022712,10.826772,4.6080964,10.713090894,12.6570542108,24,5,8.42,19.902664022712,7.874016,4.6080964,10.713090894,2.23694,-4.026492,-2.684328,299.7, -6.4, 0.2,0,0,1410,1024,1420,1024,58,0,60,0,306.4,0,0,95,4.213,4.201,0,0,0,0,4.847,78.08,19.902664022712,7.874016,6,P-GPS,
9700,2022-10-20 03:53:43,-34.9582030138743,-54.9445759514227,8.2021,10.4330712,9.797676822712,20.230748022712,11.154856,4.6080964,11.4288389484,13.3728350736,24,5,8.42,20.230748022712,8.2021,4.6080964,11.4288389484,2.23694,-4.026492,-2.908022,299.7, -7, 0.9,0,0,1425,1024,1482,1024,61,0,69,0,306.4,0,0,95,4.213,4.201,0,0,0,0,4.847,78.08,20.230748022712,8.2021,6,P-GPS,
9800,2022-10-20 03:53:43,-34.9582021289925,-54.9445779705032,8.858268,11.2532812,9.633634822712,20.886916022712,11.811024,5.0107456,12.1134518312,14.0574807648,25,5,8.42,20.886916022712,8.858268,5.0107456,12.1134518312,2.23694,-4.47388,-2.908022,299.5, -8.1, 1.1,0,0,1457,1024,1602,1024,66,0,88,0,306.4,0,0,95,4.213,4.201,0,0,0,0,4.847,78.08,20.886916022712,8.858268,6,P-GPS,
9900,2022-10-20 03:53:43,-34.9582011529292,-54.9445802930029,9.186352,11.7125988,9.502401222712,21.215000022712,12.139108,5.3015478,12.8938980504,14.8379597924,25,5,8.42,21.215000022712,9.186352,5.3015478,12.8938980504,2.460634,-4.697574,-3.131716,299.4, -8.7, 0.8,0,0,1457,1024,1602,1024,66,0,88,0,306.4,0,0,95,4.213,4.201,0,0,0,0,4.847,78.08,21.215000022712,9.186352,6,P-GPS,
10000,2022-10-20 03:53:43,-34.9582001707007,-54.9445826244973,9.84252,12.5656172,9.305550822712,21.871168022712,12.795276,5.6147194,13.6777235348,15.6218180852,25,5,8.42,21.871168022712,9.84252,5.6147194,13.6777235348,2.684328,-4.921268,-3.802798,299.3, -8.9, 1,0,0,1524,1024,1664,1024,76,0,97,0,306.4,0,0,95,4.213,4.201,0,0,0,0,4.847,78.08,21.871168022712,9.84252,6,P-GPS,
10100,2022-10-20 03:53:43,-34.958198978227,-54.9445852850574,10.498688,13.3530188,9.174317222712,22.527336022712,13.451444,5.9055216,14.5843508604,16.5285766444,25,5,8.42,22.527336022712,10.498688,5.9055216,14.5843508604,2.908022,-5.144962,-4.47388,299.4, -9.6, 1.6,0,0,1562,1024,1684,1024,82,0,100,0,306.4,0,0,95,4.213,4.201,0,0,0,0,4.847,78.08,22.527336022712,10.498688,6,P-GPS,
10200,2022-10-20 03:53:43,-34.9581977362029,-54.9445883048401,11.154856,14.2060372,8.977466822712,23.183504022712,14.435696,5.9055216,15.594488688,17.538878514,25,5,8.42,23.183504022712,11.154856,5.9055216,15.594488688,3.131716,-5.59235,-5.368656,299.3, -11.2, 1.6,0,0,1596,1024,1684,1024,87,0,100,0,306.4,0,0,95,4.213,4.201,0,0,0,0,4.847,78.08,23.183504022712,11.154856,6,P-GPS,
10300,2022-10-20 03:53:43,-34.9581964891601,-54.9445913610357,12.139108,15.419948,8.747808022712,24.167756022712,15.419948,6.9121446,16.615158012,18.5597446884,25,5,8.42,24.167756022712,12.139108,6.9121446,16.615158012,3.35541,-6.039738,-5.816044,299.3, -12.3, 1.5,0,0,1601,1024,1684,1024,87,0,100,0,306.4,0,0,95,4.213,4.201,0,0,0,0,4.847,78.08,24.167756022712,12.139108,6,P-GPS,
10400,2022-10-20 03:53:43,-34.9581952132775,-54.9445944631567,13.12336,16.6010504,8.550957622712,25.152008022712,16.4042,7.1134692,17.6528548956,19.5975728056,25,5,8.42,25.152008022712,13.12336,7.1134692,17.6528548956,3.35541,-6.263432,-6.263432,299.3, -12.8, 1.5,0,0,1610,1024,1684,1024,89,0,100,0,306.4,0,0,95,4.213,4.201,0,0,0,0,4.847,78.08,25.152008022712,13.12336,6,P-GPS,
10500,2022-10-20 03:53:44,-34.9581936894838,-54.944597999422,14.107612,17.8149612,8.321298822712,26.136260022712,17.388452,7.605596,18.8475071648,20.7922578832,25,5,8.391,26.136260022712,14.107612,7.605596,18.8475071648,3.579104,-6.71082,-6.263432,299.3, -12.8, 1.7,0,0,1619,1024,1684,1024,90,0,100,0,306.4,0,0,95,4.161,4.14,0,0,0,0,4.558,78.08,26.136260022712,14.107612,6,P-GPS,
10600,2022-10-20 03:53:44,-34.9581921681784,-54.9446015236351,15.091864,19.0944888,8.026023222712,27.120512022712,18.372704,8.0977228,20.03855051,21.9833012284,25,5,8.391,27.120512022712,15.091864,8.0977228,20.03855051,3.802798,-7.158208,-6.487126,299.4, -12.7, 1.9,0,0,1673,1024,1684,1024,98,0,100,0,306.4,0,0,95,4.161,4.14,0,0,0,0,4.558,78.08,27.120512022712,15.091864,6,P-GPS,
10700,2022-10-20 03:53:44,-34.958190284821,-54.9446057773055,16.076116,20.341208,7.763556022712,28.104764022712,19.356956,8.4108944,21.484088614,23.428970566,25,5,8.391,28.104764022712,16.076116,8.4108944,21.484088614,4.026492,-7.381902,-6.487126,299.3, -13.4, 1.8,0,0,1684,1024,1684,1024,100,0,100,0,306.4,0,0,95,4.161,4.14,0,0,0,0,4.558,78.08,28.104764022712,16.076116,6,P-GPS,
10800,2022-10-20 03:53:44,-34.9581885942682,-54.9446095816641,17.060368,21.5879272,7.501088822712,29.089016022712,20.669292,8.9030212,22.7779862932,24.7229994788,25,5,8.391,29.089016022712,17.060368,8.9030212,22.7779862932,4.250186,-7.82929,-6.487126,299.3, -15, 1.8,0,0,1684,1024,1684,1024,100,0,100,0,306.4,0,0,95,4.161,4.14,0,0,0,0,4.558,78.08,29.089016022712,17.060368,6,P-GPS,
10900,2022-10-20 03:53:44,-34.958186765405,-54.9446137103375,18.372704,23.1627304,7.238621622712,30.401352022712,21.653544,9.2161928,24.1812015612,26.1263459804,25,5,8.391,30.401352022712,18.372704,9.2161928,24.1812015612,4.47388,-8.052984,-6.487126,299.2, -16.6, 2,0,0,1684,1024,1684,1024,100,0,100,0,306.4,0,0,95,4.161,4.14,0,0,0,0,4.558,78.08,30.401352022712,18.372704,6,P-GPS,
11000,2022-10-20 03:53:44,-34.9581849290967,-54.9446178303924,19.356956,24.442258,6.943346022712,31.385604022712,22.637796,9.7083196,25.5834325772,27.52870823,25,5,8.391,31.385604022712,19.356956,9.7083196,25.5834325772,4.697574,-8.500372,-6.487126,299.2, -16.6, 1.9,0,0,1684,1024,1684,1024,100,0,100,0,306.4,0,0,95,4.161,4.14,0,0,0,0,4.558,78.08,31.385604022712,19.356956,6,P-GPS,
11100,2022-10-20 03:53:44,-34.9581827357194,-54.9446227507238,20.341208,25.7874024,6.582453622712,32.369856022712,23.950132,10.2228158,27.2581373552,29.2035442416,25,5,8.391,32.369856022712,20.341208,10.2228158,27.2581373552,4.921268,-8.94776,-6.487126,299.2, -16.6, 1.8,0,0,1684,1024,1684,1024,100,0,100,0,306.4,0,0,95,4.161,4.14,0,0,0,0,4.558,78.08,32.369856022712,20.341208,6,P-GPS,
11200,2022-10-20 03:53:44,-34.9581806509528,-54.9446274028625,21.32546,27.06693,6.287178022712,33.354108022712,24.934384,10.7149426,28.8434064348,30.7889773632,25,5,8.391,33.354108022712,21.32546,10.7149426,28.8434064348,5.144962,-9.395148,-6.487126,299.1, -15.8, 1.8,0,0,1684,1024,1684,1024,100,0,100,0,306.4,0,0,95,4.161,4.14,0,0,0,0,4.558,78.08,33.354108022712,21.32546,6,P-GPS,
11300,2022-10-20 03:53:44,-34.958178406006,-54.944632396647,22.637796,28.7729668,5.893477222712,34.666444022712,25.918636,11.0057448,30.5463264368,32.492127024,25,5,8.391,34.666444022712,22.637796,11.0057448,30.5463264368,5.368656,-9.618842,-6.71082,299.1, -16, 2.1,0,0,1684,1024,1684,1024,100,0,100,0,306.4,0,0,95,4.161,4.14,0,0,0,0,4.558,78.08,34.666444022712,22.637796,6,P-GPS,
11400,2022-10-20 03:53:44,-34.9581762052975,-54.9446372857029,23.622048,30.0853028,5.565393222712,35.650696022712,26.902888,11.408394,32.2140430256,34.16010608,25,5,8.391,35.650696022712,23.622048,11.408394,32.2140430256,5.368656,-10.06623,-6.71082,299, -16.5, 1.6,0,0,1684,1024,1684,1024,100,0,100,0,306.4,0,0,95,4.161,4.14,0,0,0,0,4.558,78.08,35.650696022712,23.622048,6,P-GPS,
11500,2022-10-20 03:53:45,-34.9581740097576,-54.9446426721335,24.6063,31.496064,5.138884022712,36.634948022712,26.902888,11.9005208,34.01246828,35.958990652,25,5,8.321,36.634948022712,24.6063,11.9005208,34.01246828,5.59235,-10.513618,-6.71082,298.9, -16.9, 2.4,0,0,1684,1024,1684,1024,100,0,100,0,306.4,0,0,95,4.168,4.152,0,0,0,0,6.415,78.26,36.634948022712,24.6063,6,P-GPS,
11600,2022-10-20 03:53:45,-34.9581717582123,-54.9446479016123,25.590552,32.8084,4.810800022712,37.619200022712,26.902888,12.2136924,35.778544452,37.725394908,25,5,8.321,37.619200022712,25.590552,12.2136924,35.778544452,5.816044,-10.737312,-6.71082,299, -17.5, 2.6,0,0,1436,1024,1684,1024,62,0,100,0,306.4,0,0,95,4.168,4.152,0,0,0,0,6.415,78.26,37.619200022712,25.590552,6,P-GPS,
11700,2022-10-20 03:53:45,-34.9581691973343,-54.9446537749749,26.574804,34.2519696,4.351482422712,38.603452022712,26.902888,12.7058192,37.768045828,39.7145682,25,5,8.321,38.603452022712,26.574804,12.7058192,37.768045828,6.039738,-11.1847,-6.71082,299, -16.5, 2.9,0,0,1193,1024,1684,1024,26,0,100,0,306.4,0,0,95,4.168,4.152,0,0,0,0,6.415,78.26,38.603452022712,26.574804,6,P-GPS,
11800,2022-10-20 03:53:45,-34.9581666971517,-54.9446594915425,27.88714,35.925198,3.990590022712,39.915788022712,26.902888,12.9071438,39.705381848,41.652232304,25,5,8.321,39.915788022712,27.88714,12.9071438,39.705381848,6.039738,-11.408394,-6.71082,299.1, -9.2, 2.9,0,0,1112,1024,1684,1024,13,0,100,0,306.4,0,0,95,4.168,4.152,0,0,0,0,6.415,78.26,39.915788022712,27.88714,6,P-GPS,
11900,2022-10-20 03:53:45,-34.9581640258652,-54.9446656633487,28.543308,37.073492,3.498464022712,40.571956022712,26.902888,12.7058192,41.792652256,43.739174628,25,5,8.321,40.571956022712,28.543308,12.9071438,41.792652256,6.039738,-11.1847,-6.71082,299.3, -0.9, 2.1,0,0,1112,1024,1684,1024,13,0,100,0,306.4,0,0,95,4.168,4.152,0,0,0,0,6.415,78.26,40.571956022712,28.543308,6,P-GPS,
12000,2022-10-20 03:53:45,-34.9581615984089,-54.9446711616682,29.52756,38.4186364,3.137571622712,41.556208022712,26.902888,12.415017,43.660106384,45.606628756,25,5,8.321,41.556208022712,29.52756,12.9071438,43.660106384,5.816044,-10.961006,-6.934514,299.5, 2.7, 2.4,0,0,1024,1024,1684,1024,0,0,100,0,306.4,0,0,95,4.168,4.152,0,0,0,0,6.415,78.26,41.556208022712,29.52756,6,P-GPS,
12100,2022-10-20 03:53:45,-34.9581591487275,-54.9446768066328,30.511812,39.8950144,2.645445622712,42.540460022712,26.902888,11.9005208,45.569883348,47.516733804,25,5,8.321,42.540460022712,30.511812,12.9071438,45.569883348,5.59235,-10.513618,-6.934514,299.9, 9.4, 2.6,0,0,1024,1024,1684,1024,0,0,100,0,306.4,0,0,95,4.168,4.152,0,0,0,0,6.415,78.26,42.540460022712,30.511812,6,P-GPS,
12200,2022-10-20 03:53:45,-34.9581569427656,-54.9446819019682,31.16798,40.9120748,2.284553222712,43.196628022712,26.902888,10.9162672,47.292980516,49.239830972,25,5,8.321,43.196628022712,31.16798,12.9071438,47.292980516,5.144962,-9.618842,-6.71082,300.1, 21.6, 3,0,0,1024,1024,1684,1024,0,0,100,0,306.4,0,0,95,4.168,4.152,0,0,0,0,6.415,78.26,43.196628022712,31.16798,6,P-GPS,
12300,2022-10-20 03:53:45,-34.9581548540517,-54.9446866995395,32.152232,42.2572192,1.923660822712,44.180880022712,26.902888,9.7977972,48.9173244,50.864174856,25,5,8.321,44.180880022712,32.152232,12.9071438,48.9173244,4.47388,-8.724066,-6.71082,299.6, 21.1, 0.2,0,0,1024,1024,1684,1024,0,0,100,0,306.4,0,0,95,4.168,4.152,0,0,0,0,6.415,78.26,44.180880022712,32.152232,6,P-GPS,
12400,2022-10-20 03:53:45,-34.9581531671661,-54.9446908194428,32.8084,43.2086628,1.628385222712,44.837048022712,26.902888,8.8135436,50.294292948,52.241143404,25,5,8.321,44.837048022712,32.8084,12.9071438,50.294292948,4.026492,-7.82929,-6.487126,299.5, 19.9, 0.3,0,0,1024,1024,1684,1024,0,0,100,0,306.4,0,0,95,4.168,4.152,0,0,0,0,6.415,78.26,44.837048022712,32.8084,6,P-GPS,
12500,2022-10-20 03:53:46,-34.9581516133049,-54.9446944907662,33.792652,44.4225736,1.398726422712,45.821300022712,26.902888,7.6950736,51.529857292,53.476707748,25,5,8.324,45.821300022712,33.792652,12.9071438,51.529857292,3.35541,-6.934514,-6.487126,299.7, 19.1, 0.5,0,0,1024,1024,1684,1024,0,0,100,0,306.4,0,0,95,4.197,4.181,0,0,0,0,6.034,78.26,45.821300022712,33.792652,6,P-GPS,
12600,2022-10-20 03:53:46,-34.958150347574,-54.9446976006171,34.44882,45.3740172,1.103450822712,46.477468022712,26.902888,6.71082,52.567586984,54.515093608,25,5,8.324,46.477468022712,34.44882,12.9071438,52.567586984,2.908022,-6.039738,-6.263432,300, 18.3, 1.1,0,0,1024,1024,1684,1024,0,0,100,0,306.4,0,0,95,4.197,4.181,0,0,0,0,6.034,78.26,46.477468022712,34.44882,6,P-GPS,
12700,2022-10-20 03:53:46,-34.9581492578453,-54.9447003622368,35.433072,46.5223112,0.939408822712,47.461720022712,26.902888,5.6147194,53.483597512,55.43143222,25,5,8.324,47.461720022712,35.433072,12.9071438,53.483597512,2.23694,-5.144962,-6.263432,300.1, 17.9, 2.1,0,0,1024,1024,1684,1024,0,0,100,0,306.4,0,0,95,4.197,4.181,0,0,0,0,6.034,78.26,47.461720022712,35.433072,6,P-GPS,
12800,2022-10-20 03:53:46,-34.958148467366,-54.9447019464725,36.417324,47.6706052,0.775366822712,48.445972022712,26.902888,5.1002232,54.03707522,55.986222264,25,5,8.324,48.445972022712,36.417324,12.9071438,54.03707522,2.013246,-4.697574,-6.263432,299.7, 17.8, 2.6,0,0,1024,1024,1684,1024,0,0,100,0,306.4,0,0,95,4.197,4.181,0,0,0,0,6.034,78.26,48.445972022712,36.417324,6,P-GPS,
12900,2022-10-20 03:53:46,-34.9581478729123,-54.944703735127,37.401576,48.7532824,0.676941622712,49.430224022712,26.902888,4.1159696,54.611550304,56.56332202,25,5,8.324,49.430224022712,37.401576,12.9071438,54.611550304,1.565858,-3.802798,-6.487126,300.1, 17.7, 2.3,0,0,1024,1024,1684,1024,0,0,100,0,306.4,0,0,95,4.197,4.181,0,0,0,0,6.034,78.26,49.430224022712,37.401576,6,P-GPS,
13000,2022-10-20 03:53:46,-34.9581474630264,-54.9447050908183,38.385828,49.8359596,0.578516422712,50.414476022712,26.902888,3.4001488,55.039699924,56.995408648,25,5,8.324,50.414476022712,38.385828,12.9071438,55.039699924,1.342164,-3.131716,-6.487126,300.6, 17.8, 3.5,0,0,1024,1024,1684,1024,0,0,100,0,306.4,0,0,95,4.197,4.181,0,0,0,0,6.034,78.26,50.414476022712,38.385828,6,P-GPS,
13100,2022-10-20 03:53:46,-34.958147103479,-54.9447062500559,39.37008,50.8858284,0.512899622712,51.398728022712,26.902888,2.6172198,55.407810172,57.366143568,25,5,8.324,51.398728022712,39.37008,12.9071438,55.407810172,0.894776,-2.460634,-6.71082,300.7, 18, 4.2,0,0,1024,1024,1684,1024,0,0,100,0,306.4,0,0,95,4.197,4.181,0,0,0,0,6.034,78.26,51.398728022712,39.37008,6,P-GPS,
13200,2022-10-20 03:53:46,-34.9581469266886,-54.9447061111147,40.354332,51.8700804,0.512899622712,52.382980022712,26.902888,1.901399,55.400920408,57.44258714,25,5,8.324,52.382980022712,40.354332,12.9071438,55.407810172,0.671082,-1.789552,-6.71082,300.4, 15.1, 4,0,0,1024,1024,1684,1024,0,0,100,0,306.4,0,0,95,4.197,4.181,0,0,0,0,6.034,78.26,52.382980022712,40.354332,6,P-GPS,
13300,2022-10-20 03:53:46,-34.9581467648018,-54.9447065498688,41.338584,52.9199492,0.447282822712,53.367232022712,26.902888,1.4092722,55.5446212,57.586616016,25,5,8.324,53.367232022712,41.338584,12.9071438,55.5446212,0.447388,-1.342164,-6.71082,300.4, 11.2, 3,0,0,1024,1024,1684,1024,0,0,100,0,306.4,0,0,95,4.197,4.181,0,0,0,0,6.034,78.26,53.367232022712,41.338584,6,P-GPS,
13400,2022-10-20 03:53:46,-34.9581466828454,-54.9447067653261,42.322836,53.9042012,0.447282822712,54.351484022712,26.902888,1.006623,55.615487344,57.65748216,25,5,8.324,54.351484022712,42.322836,12.9071438,55.615487344,0.447388,-0.894776,-6.71082,300.3, 8.1, 2.5,0,0,1024,1024,1684,1024,0,0,100,0,306.4,0,0,95,4.197,4.181,0,0,0,0,6.034,78.26,54.351484022712,42.322836,6,P-GPS,
13500,2022-10-20 03:53:47,-34.9581465827938,-54.9447068796401,43.307088,54.8884532,0.447282822712,55.335736022712,26.902888,0.8052984,55.66273144,57.707679012,25,5,8.351,55.335736022712,43.307088,12.9071438,55.66273144,0.447388,-0.671082,-6.71082,300.1, 7, 1.8,0,0,1024,1024,1684,1024,0,0,100,0,306.4,0,0,95,4.184,4.165,0,0,0,0,5.084,78.26,55.335736022712,43.307088,6,P-GPS,
13600,2022-10-20 03:53:47,-34.9581460923521,-54.9447065692069,44.29134,55.9055136,0.414474422712,56.319988022712,26.902888,0.6263432,55.664043776,57.909122588,24,5,8.351,56.319988022712,44.29134,12.9071438,55.664043776,0.447388,-0.447388,-6.487126,300.1, 5.6, 1.6,0,0,1024,1024,1684,1024,0,0,100,0,306.4,0,0,95,4.184,4.165,0,0,0,0,5.084,78.26,56.319988022712,44.29134,6,P-GPS,
13700,2022-10-20 03:53:47,-34.9581459496027,-54.9447065533811,45.603676,57.2178496,0.414474422712,57.632324022712,26.902888,0.4921268,55.684384984,57.961616028,24,5,8.351,57.632324022712,45.603676,12.9071438,55.684384984,0.223694,-0.447388,-6.487126,300, 4.8, 1,0,0,1024,1024,1684,1024,0,0,100,0,306.4,0,0,95,4.184,4.165,0,0,0,0,5.084,78.26,57.632324022712,45.603676,6,P-GPS,
13800,2022-10-20 03:53:47,-34.9581458404188,-54.9447064983983,46.587928,58.1692932,0.447282822712,58.616576022712,26.902888,0.4921268,55.688650076,58.004595032,25,5,8.351,58.616576022712,46.587928,12.9071438,55.688650076,0.223694,-0.447388,-6.71082,300.1, 4.5, 1.1,0,0,1024,1024,1684,1024,0,0,100,0,306.4,0,0,95,4.184,4.165,0,0,0,0,5.084,78.26,58.616576022712,46.587928,6,P-GPS,
13900,2022-10-20 03:53:47,-34.9581457411097,-54.9447065259524,47.57218,59.1863536,0.414474422712,59.600828022712,26.902888,0.3131716,55.712928292,58.041668524,25,5,8.351,59.600828022712,47.57218,12.9071438,55.712928292,0.223694,-0.223694,-6.71082,300, 3.9, 1,0,0,1024,1024,1684,1024,0,0,100,0,306.4,0,0,95,4.184,4.165,0,0,0,0,5.084,78.26,59.600828022712,47.57218,6,P-GPS,
14000,2022-10-20 03:53:47,-34.9581456651266,-54.9447065281057,48.556432,60.1706056,0.414474422712,60.585080022712,26.902888,0.3131716,55.726379736,58.069555664,25,5,8.351,60.585080022712,48.556432,12.9071438,55.726379736,0.223694,-0.223694,-6.71082,300, 3.5, 0.9,0,0,1024,1024,1684,1024,0,0,100,0,306.4,0,0,95,4.184,4.165,0,0,0,0,5.084,78.26,60.585080022712,48.556432,6,P-GPS,
14100,2022-10-20 03:53:47,-34.958145139087,-54.9447070906861,49.540684,61.2204744,0.348857622712,61.569332022712,26.902888,0.223694,55.965224888,58.324805016,25,5,8.351,61.569332022712,49.540684,12.9071438,55.965224888,0,-0.223694,-6.71082,300, 3.3, 1,0,0,1024,1024,1684,1024,0,0,100,0,306.4,0,0,95,4.184,4.165,0,0,0,0,5.084,78.26,61.569332022712,49.540684,6,P-GPS,
14200,2022-10-20 03:53:47,-34.95814505134,-54.9447071400034,50.524936,62.2047264,0.348857622712,62.553584022712,26.902888,0.223694,55.993440112,58.359910004,25,5,8.351,62.553584022712,50.524936,12.9071438,55.993440112,0,-0.223694,-6.71082,300, 3.3, 1.5,0,0,1024,1024,1684,1024,0,0,100,0,306.4,0,0,95,4.184,4.165,0,0,0,0,5.084,78.26,62.553584022712,50.524936,6,P-GPS,
14300,2022-10-20 03:53:47,-34.9581450565705,-54.9447072849029,51.181104,62.8608944,0.348857622712,63.209752022712,26.902888,0.223694,56.030841688,58.403217092,25,5,8.351,63.209752022712,51.181104,12.9071438,56.030841688,0,-0.223694,-6.487126,300.1, 3.1, 1.3,0,0,1024,1024,1684,1024,0,0,100,0,306.4,0,0,95,4.184,4.165,0,0,0,0,5.084,78.26,63.209752022712,51.181104,6,P-GPS,
14400,2022-10-20 03:53:47,-34.9581450799615,-54.9447074119486,52.165356,63.8451464,0.348857622712,64.194004022712,26.902888,0,56.060369248,58.442259088,25,5,8.351,64.194004022712,52.165356,12.9071438,56.060369248,0,0,-6.487126,300, 2.8, 1.8,0,0,1024,1024,1684,1024,0,0,100,0,306.4,0,0,95,4.184,4.165,0,0,0,0,5.084,78.26,64.194004022712,52.165356,6,P-GPS,
14500,2022-10-20 03:53:48,-34.9581452294201,-54.944707972083,53.149608,64.8950152,0.283240822712,65.178256022712,26.902888,0,56.182416496,58.618440196,25,5,8.349,65.178256022712,53.149608,12.9071438,56.182416496,0,0,-6.487126,300, 1.7, 2.7,0,0,1024,1024,1684,1024,0,0,100,0,306.4,0,0,95,4.184,4.168,0,0,0,0,4.968,78.26,65.178256022712,53.149608,6,P-GPS,
14600,2022-10-20 03:53:48,-34.9581452942777,-54.9447080218184,54.13386,65.8792672,0.283240822712,66.162508022712,26.902888,0,56.184385,58.646327336,25,5,8.349,66.162508022712,54.13386,12.9071438,56.184385,0,0,-6.487126,299.8, 1.9, 2.3,0,0,1024,1024,1684,1024,0,0,100,0,306.4,0,0,95,4.184,4.168,0,0,0,0,4.968,78.26,66.162508022712,54.13386,6,P-GPS,
14700,2022-10-20 03:53:48,-34.9581453455607,-54.9447080735817,55.118112,66.8635192,0.283240822712,67.146760022712,26.902888,0,56.18930626,58.670605552,25,5,8.349,67.146760022712,55.118112,12.9071438,56.18930626,0,0,-6.487126,299.8, 1.7, 1.9,0,0,1024,1024,1684,1024,0,0,100,0,306.4,0,0,95,4.184,4.168,0,0,0,0,4.968,78.26,67.146760022712,55.118112,6,P-GPS,
14800,2022-10-20 03:53:48,-34.9581453843893,-54.9447081169616,56.102364,67.8477712,0.283240822712,68.131012022712,26.902888,0,56.193899436,58.689962508,25,5,8.349,68.131012022712,56.102364,12.9071438,56.193899436,0,0,-6.487126,299.9, 1.5, 1.8,0,0,1024,1024,1684,1024,0,0,100,0,306.4,0,0,95,4.184,4.168,0,0,0,0,4.968,78.26,68.131012022712,56.102364,6,P-GPS,
14900,2022-10-20 03:53:48,-34.95814546346,-54.9447082801956,57.086616,68.8320232,0.283240822712,69.115264022712,26.902888,0,56.22375508,58.74672104,25,5,8.349,69.115264022712,57.086616,12.9071438,56.22375508,0,0,-6.71082,299.8, 1.3, 1.4,0,0,1024,1024,1684,1024,0,0,100,0,306.4,0,0,95,4.184,4.168,0,0,0,0,4.968,78.26,69.115264022712,57.086616,6,P-GPS,
15000,2022-10-20 03:53:48,-34.9581454969995,-54.9447082948926,58.070868,69.8162752,0.283240822712,70.099516022712,26.902888,0,56.221786576,58.759516316,25,5,8.349,70.099516022712,58.070868,12.9071438,56.22375508,0,0,-6.71082,299.8, 1.7, 1.1,0,0,1024,1024,1684,1024,0,0,100,0,306.4,0,0,95,4.184,4.168,0,0,0,0,4.968,78.26,70.099516022712,58.070868,6,P-GPS,
15100,2022-10-20 03:53:48,-34.9581455071284,-54.9447082829761,59.05512,70.7349104,0.348857622712,71.083768022712,26.902888,0,56.216865316,58.76476566,25,5,8.349,71.083768022712,59.05512,12.9071438,56.22375508,0,0,-6.487126,299.7, 1.7, 0.7,0,0,1024,1024,1684,1024,0,0,100,0,306.4,0,0,95,4.184,4.168,0,0,0,0,4.968,78.26,71.083768022712,59.05512,6,P-GPS,
15200,2022-10-20 03:53:48,-34.9581455260314,-54.9447082790249,60.039372,71.7191624,0.348857622712,72.068020022712,26.902888,0,56.212600224,58.771655424,25,5,8.349,72.068020022712,60.039372,12.9071438,56.22375508,0,0,-6.487126,299.6, 1.5, 1.1,0,0,1024,1024,1684,1024,0,0,100,0,306.4,0,0,95,4.184,4.168,0,0,0,0,4.968,78.26,72.068020022712,60.039372,6,P-GPS,
15300,2022-10-20 03:53:48,-34.9581455565614,-54.9447083976874,60.69554,72.3753304,0.348857622712,72.724188022712,26.902888,0,56.238846944,58.808728916,25,5,8.349,72.724188022712,60.69554,12.9071438,56.238846944,0,0,-6.487126,299.7, 1.3, 1.7,0,0,1024,1024,1684,1024,0,0,100,0,306.4,0,0,95,4.184,4.168,0,0,0,0,4.968,78.26,72.724188022712,60.69554,6,P-GPS,
15400,2022-10-20 03:53:48,-34.9581456036821,-54.9447084691022,61.679792,73.3595824,0.348857622712,73.708440022712,26.902888,0,56.249673716,58.836287972,25,5,8.349,73.708440022712,61.679792,12.9071438,56.249673716,0,0,-6.487126,299.9, 1.7, 2,0,0,1024,1024,1684,1024,0,0,100,0,306.4,0,0,95,4.184,4.168,0,0,0,0,4.968,78.26,73.708440022712,61.679792,6,P-GPS,
15500,2022-10-20 03:53:49,-34.9581456766755,-54.944708521639,62.664044,74.3766428,0.316049222712,74.692692022712,26.902888,0,56.251314136,58.867127868,25,5,8.349,74.692692022712,62.664044,12.9071438,56.251314136,0,0,-6.487126,299.9, 1.3, 2.3,0,0,1024,1024,1684,1024,0,0,100,0,306.4,0,0,95,4.184,4.168,0,0,0,0,4.968,78.26,74.692692022712,62.664044,6,P-GPS,
15600,2022-10-20 03:53:49,-34.9581457388039,-54.9447085682385,63.648296,75.3608948,0.316049222712,75.676944022712,26.902888,0,56.252954556,58.893702672,25,5,8.348,75.676944022712,63.648296,12.9071438,56.252954556,0,0,-6.487126,299.8, 1.3, 2.4,0,0,1024,1024,1684,1024,0,0,100,0,306.4,0,0,95,4.179,4.166,0,0,0,0,4.996,78.44,75.676944022712,63.648296,6,P-GPS,
15700,2022-10-20 03:53:49,-34.958145756137,-54.9447085975905,64.632548,76.3451468,0.316049222712,76.661196022712,26.902888,0,56.257875816,58.904529444,25,5,8.348,76.661196022712,64.632548,12.9071438,56.257875816,0,0,-6.71082,299.9, 1.5, 2.5,0,0,1024,1024,1684,1024,0,0,100,0,306.4,0,0,95,4.179,4.166,0,0,0,0,4.996,78.44,76.661196022712,64.632548,6,P-GPS,
15800,2022-10-20 03:53:49,-34.9581457687542,-54.9447086264408,65.6168,77.3293988,0.316049222712,77.645448022712,26.902888,0,56.26312516,58.914371964,25,5,8.348,77.645448022712,65.6168,12.9071438,56.26312516,0,0,-6.71082,299.9, 1.2, 2.8,0,0,1024,1024,1684,1024,0,0,100,0,306.4,0,0,95,4.179,4.166,0,0,0,0,4.996,78.44,77.645448022712,65.6168,6,P-GPS,
15900,2022-10-20 03:53:49,-34.9581458342828,-54.9447086732911,66.601052,78.3136508,0.316049222712,78.629700022712,26.902888,0,56.264437496,58.942259104,25,5,8.348,78.629700022712,66.601052,12.9071438,56.264437496,0,0,-6.487126,299.7, 0.8, 2.7,0,0,1024,1024,1684,1024,0,0,100,0,306.4,0,0,95,4.179,4.166,0,0,0,0,4.996,78.44,78.629700022712,66.601052,6,P-GPS,
16000,2022-10-20 03:53:49,-34.9581458884839,-54.9447087230056,67.585304,79.2979028,0.316049222712,79.613952022712,26.902888,0,56.268374504,58.966865404,25,5,8.348,79.613952022712,67.585304,12.9071438,56.268374504,0,0,-6.487126,299.7, 1.4, 2.9,0,0,1024,1024,1684,1024,0,0,100,0,306.4,0,0,95,4.179,4.166,0,0,0,0,4.996,78.44,79.613952022712,67.585304,6,P-GPS,
16100,2022-10-20 03:53:49,-34.9581459510097,-54.9447087793891,68.569556,80.2821548,0.316049222712,80.598204022712,26.902888,0,56.272639596,58.995080628,25,5,8.348,80.598204022712,68.569556,12.9071438,56.272639596,0,0,-6.487126,299.7, 1.5, 2.7,0,0,1024,1024,1684,1024,0,0,100,0,306.4,0,0,95,4.179,4.166,0,0,0,0,4.996,78.44,80.598204022712,68.569556,6,P-GPS,
16200,2022-10-20 03:53:49,-34.9581461692342,-54.9447088475635,69.553808,81.2664068,0.316049222712,81.582456022712,26.902888,0,56.253938808,59.077429712,25,5,8.348,81.582456022712,69.553808,12.9071438,56.272639596,0,0,-6.487126,299.7, 1.5, 2.5,0,0,1024,1024,1684,1024,0,0,100,0,306.4,0,0,95,4.179,4.166,0,0,0,0,4.996,78.44,81.582456022712,69.553808,6,P-GPS,
16300,2022-10-20 03:53:49,-34.9581461743214,-54.9447088375705,70.53806,82.2506588,0.316049222712,82.566708022712,26.902888,0,56.250329884,59.081038636,25,5,8.348,82.566708022712,70.53806,12.9071438,56.272639596,0,0,-6.487126,299.7, 1.3, 2.4,0,0,1024,1024,1684,1024,0,0,100,0,306.4,0,0,95,4.179,4.166,0,0,0,0,4.996,78.44,82.566708022712,70.53806,6,P-GPS,
16400,2022-10-20 03:53:49,-34.9581461693124,-54.944708832553,71.522312,83.2349108,0.316049222712,83.550960022712,26.902888,0,56.2500018,59.083335224,25,5,8.348,83.550960022712,71.522312,12.9071438,56.272639596,0,0,-6.487126,299.7, 1.5, 2.5,0,0,1024,1024,1684,1024,0,0,100,0,306.4,0,0,95,4.179,4.166,0,0,0,0,4.996,78.44,83.550960022712,71.522312,6,P-GPS,
