time(millisecond),datetime(utc),latitude,longitude,height_above_takeoff(feet),height_above_ground_at_drone_location(feet),ground_elevation_at_drone_location(feet),altitude_above_seaLevel(feet),height_sonar(feet),speed(mph),distance(feet),mileage(feet),satellites,gpslevel,voltage(v),max_altitude(feet),max_ascent(feet),max_speed(mph),max_distance(feet), xSpeed(mph), ySpeed(mph), zSpeed(mph), compass_heading(degrees), pitch(degrees), roll(degrees),isPhoto,isVideo,rc_elevator,rc_aileron,rc_throttle,rc_rudder,rc_elevator(percent),rc_aileron(percent),rc_throttle(percent),rc_rudder(percent),gimbal_heading(degrees),gimbal_pitch(degrees),gimbal_roll(degrees),battery_percent,voltageCell1,voltageCell2,voltageCell3,voltageCell4,voltageCell5,voltageCell6,current(A),battery_temperature(f),altitude(feet),ascent(feet),flycStateRaw,flycState,message
140200,2022-08-12 04:46:41,0,0,0,,,3.28084E-5,0.328084,0,0,0,0,0,8.458,3.28084E-5,0,0,0,0,0,0,38, 3, -0.1,0,0,364,364,364,1684,-100,-100,-100,100,41.1,0,0,88,4.232,4.225,0,0,0,0,0.532,88.52,3.28084E-5,0,41,Motors_Started,"Baja velocidad de la tarjeta SD. Puede afectar a su uso normal. Sustituye la tarjeta SD (Code: 10028). Sin señal GPS. La aeronave no puede hacer vuelo estacionario. Vuela con cuidado (Code: 30008). Baja velocidad de la tarjeta SD. Puede afectar a su "
140300,2022-08-12 04:46:41,0,0,0,,,3.28084E-5,0.328084,0,0,0,0,0,8.458,3.28084E-5,0,0,0,0,0,0,38, 3.1, -0.1,0,0,364,364,364,1684,-100,-100,-100,100,41.2,0,0,88,4.232,4.225,0,0,0,0,0.532,88.52,3.28084E-5,0,41,Motors_Started,
140400,2022-08-12 04:46:42,0,0,0,,,3.28084E-5,0.328084,0,0,0,0,0,8.458,3.28084E-5,0,0,0,0,0,0,38.1, 3, -0.1,0,0,364,364,364,1684,-100,-100,-100,100,41.3,0,0,88,4.232,4.225,0,0,0,0,0.532,88.52,3.28084E-5,0,41,Motors_Started,"Setting new Return-To-Home altitude to 40m (131 ft). Data Recorder File Index is 39. Setting new Maximum Flight Altitude to 30m (98 ft)"
140500,2022-08-12 04:46:42,0,0,0,,,3.28084E-5,0.328084,0,0,0,0,0,8.458,3.28084E-5,0,0,0,0,0,0,38.1, 3, -0.1,0,0,364,364,364,1684,-100,-100,-100,100,41.3,0,0,88,4.232,4.225,0,0,0,0,0.532,88.52,3.28084E-5,0,41,Motors_Started,
140600,2022-08-12 04:46:42,0,0,0,,,3.28084E-5,0.328084,0,0,0,0,0,8.458,3.28084E-5,0,0,0,0,0,0,38.2, 3, -0.1,0,0,686,385,1024,1024,-51,-97,0,0,41.4,0,0,88,4.232,4.225,0,0,0,0,0.532,88.52,3.28084E-5,0,41,Motors_Started,
140700,2022-08-12 04:46:42,0,0,0,,,3.28084E-5,0.328084,0,0,0,0,0,8.458,3.28084E-5,0,0,0,0,0,0,38.2, 3, -0.1,0,0,1024,576,1024,1024,0,-68,0,0,41.4,0,0,88,4.232,4.225,0,0,0,0,0.532,88.52,3.28084E-5,0,41,Motors_Started,
140800,2022-08-12 04:46:42,0,0,0,,,3.28084E-5,0.328084,0,0,0,0,0,8.458,3.28084E-5,0,0,0,0,0,0,38.2, 3, -0.1,0,0,1024,936,1024,1024,0,-13,0,0,41.4,0,0,88,4.232,4.225,0,0,0,0,0.532,88.52,3.28084E-5,0,41,Motors_Started,
140900,2022-08-12 04:46:42,0,0,0,,,3.28084E-5,0.328084,0,0,0,0,0,8.458,3.28084E-5,0,0,0,0,0,0,38.3, 3, -0.1,0,0,1024,936,1024,1024,0,-13,0,0,41.5,0,0,88,4.232,4.225,0,0,0,0,0.532,88.52,3.28084E-5,0,41,Motors_Started,
141000,2022-08-12 04:46:42,0,0,0,,,3.28084E-5,0.328084,0,0,0,0,0,8.458,3.28084E-5,0,0,0,0,0,0,38.3, 3, -0.2,0,0,1024,1024,1024,1024,0,0,0,0,41.5,0,0,88,4.232,4.225,0,0,0,0,0.532,88.52,3.28084E-5,0,41,Motors_Started,
141100,2022-08-12 04:46:42,0,0,0,,,3.28084E-5,0.328084,0,0,0,0,0,8.458,3.28084E-5,0,0,0,0,0,0,38.3, 3, -0.2,0,0,1024,1024,1024,1024,0,0,0,0,41.5,0,0,88,4.232,4.225,0,0,0,0,0.532,88.52,3.28084E-5,0,41,Motors_Started,
141200,2022-08-12 04:46:42,0,0,0,,,3.28084E-5,0.328084,0,0,0,0,0,8.438,3.28084E-5,0,0,0,0,0,0,38.4, 3, -0.1,0,0,1024,1024,1402,1024,0,0,57,0,41.5,0,0,88,4.217,4.21,0,0,0,0,0.776,88.52,3.28084E-5,0,41,Motors_Started,
141300,2022-08-12 04:46:43,0,0,0,,,3.28084E-5,0.328084,0,0,0,0,0,8.438,3.28084E-5,0,0,0,0,0,0,38.4, 3, -0.1,0,0,1024,1024,1684,1024,0,0,100,0,41.5,0,0,88,4.217,4.21,0,0,0,0,0.776,88.52,3.28084E-5,0,10,Assisted_Takeoff,
141400,2022-08-12 04:46:43,0,0,0,,,3.28084E-5,0.328084,0,0,0,0,0,8.438,3.28084E-5,0,0,0,0,0,0,38.4, 3, -0.1,0,0,1024,1024,1684,1024,0,0,100,0,41.5,0,0,88,4.217,4.21,0,0,0,0,0.776,88.52,3.28084E-5,0,10,Assisted_Takeoff,
141500,2022-08-12 04:46:43,0,0,0,,,3.28084E-5,0.328084,0,0,0,0,0,8.438,3.28084E-5,0,0,0,0,0,0,38.4, 2.9, -0.1,0,0,1024,1024,1024,1024,0,0,0,0,41.5,0,0,88,4.217,4.21,0,0,0,0,0.776,88.52,3.28084E-5,0,10,Assisted_Takeoff,
141600,2022-08-12 04:46:43,0,0,0,,,3.28084E-5,0.328084,0,0,0,0,0,8.438,3.28084E-5,0,0,0,0,0,0,38.5, 3, -0.1,0,0,1024,1024,1024,1024,0,0,0,0,41.5,0,0,88,4.217,4.21,0,0,0,0,0.776,88.52,3.28084E-5,0,10,Assisted_Takeoff,
141700,2022-08-12 04:46:43,0,0,0,,,3.28084E-5,0.328084,0,0,0,0,0,8.438,3.28084E-5,0,0,0,0,0,0,38.8, 2.5, -0.1,0,0,1024,1024,1065,1024,0,0,6,0,41.6,0,0,88,4.217,4.21,0,0,0,0,0.776,88.52,3.28084E-5,0,10,Assisted_Takeoff,
141800,2022-08-12 04:46:43,0,0,0,,,3.28084E-5,0.328084,0,0,0,0,0,8.438,3.28084E-5,0,0,0,0,0,0,39.5, 3, -0.1,0,0,1024,1024,1684,1024,0,0,100,0,41.9,0,0,88,4.217,4.21,0,0,0,0,0.776,88.52,3.28084E-5,0,10,Assisted_Takeoff,
141900,2022-08-12 04:46:43,0,0,0,,,3.28084E-5,0.328084,0,0,0,0,0,8.438,3.28084E-5,0,0,0,0,0,0,39.9, 3, -0.2,0,0,1024,1024,1684,1024,0,0,100,0,42.5,0,0,88,4.217,4.21,0,0,0,0,0.776,88.52,3.28084E-5,0,10,Assisted_Takeoff,
142000,2022-08-12 04:46:43,0,0,0,,,3.28084E-5,0.328084,0,0,0,0,0,8.438,3.28084E-5,0,0,0,0,0,0,40.2, 3, -0.1,0,0,1024,1024,1684,1024,0,0,100,0,42.8,0,0,88,4.217,4.21,0,0,0,0,0.776,88.52,3.28084E-5,0,10,Assisted_Takeoff,
142100,2022-08-12 04:46:43,0,0,0,,,3.28084E-5,0.328084,0,0,0,0,0,8.438,3.28084E-5,0,0,0,0,0,0,40.6, 2.1, -0.1,0,0,1024,1024,1684,1024,0,0,100,0,43.2,0,0,88,4.217,4.21,0,0,0,0,0.776,88.52,3.28084E-5,0,10,Assisted_Takeoff,
142200,2022-08-12 04:46:43,0,0,0,,,3.28084E-5,0.328084,0,0,0,0,0,8.431,3.28084E-5,0,0,0,0,0,0,41.5, -1, 0,0,0,1024,1024,1684,1024,0,0,100,0,43.7,0,0,88,4.206,4.198,0,0,0,0,1.559,88.52,3.28084E-5,0,10,Assisted_Takeoff,
142300,2022-08-12 04:46:44,0,0,0,,,3.28084E-5,0.328084,0,0,0,0,0,8.431,3.28084E-5,0,0,0,0,0,-0.447388,42, -1, 0.2,0,0,1024,1024,1684,1024,0,0,100,0,44.2,0,0,88,4.206,4.198,0,0,0,0,1.559,88.52,3.28084E-5,0,38,Tripod,"Vuela con cuidado (sin GPS) Baja velocidad de la tarjeta SD. Puede afectar a su uso normal. Sustituye la tarjeta SD (Code: 10028). Señal débil del GPS. Vuelo estacionario inestable. Vuela con cuidado (Code: 30002)"
142400,2022-08-12 04:46:44,0,0,0,,,3.28084E-5,0.328084,0,0,0,0,0,8.431,3.28084E-5,0,0,0,0,0,-0.894776,41.8, -0.3, 0.2,0,0,1024,1024,1024,1024,0,0,0,0,44.2,0,0,88,4.206,4.198,0,0,0,0,1.559,88.52,3.28084E-5,0,38,Tripod,
142500,2022-08-12 04:46:44,0,0,0,,,3.28084E-5,0.656168,0,0,0,0,0,8.431,3.28084E-5,0,0,0,0,0,-1.11847,41.7, 0.3, -0.2,0,0,1024,1024,1024,1024,0,0,0,0,44.2,0,0,88,4.206,4.198,0,0,0,0,1.559,88.52,3.28084E-5,0,38,Tripod,
142600,2022-08-12 04:46:44,0,0,0.328084,,,0.3281168084,0.656168,0,0,0,0,0,8.431,0.3281168084,0.328084,0,0,0,0,-1.11847,41.5, 0.9, 0,0,0,1024,1024,1024,1024,0,0,0,0,44.2,0,0,88,4.206,4.198,0,0,0,0,1.559,88.52,0.3281168084,0.328084,38,Tripod,
142700,2022-08-12 04:46:44,0,0,0.328084,,,0.3281168084,0.984252,0,0,0,0,0,8.431,0.3281168084,0.328084,0,0,0,0,-1.11847,41.5, 0.6, 0.3,0,0,1024,1024,1024,1024,0,0,0,0,44.2,0,0,88,4.206,4.198,0,0,0,0,1.559,88.52,0.3281168084,0.328084,38,Tripod,
142800,2022-08-12 04:46:44,0,0,0.656168,,,0.6562008084,0.984252,0,0,0,0,0,8.431,0.6562008084,0.656168,0,0,0,0,-1.11847,41.4, 0.4, 0.2,0,0,1024,1024,1024,1024,0,0,0,0,44.2,0,0,88,4.206,4.198,0,0,0,0,1.559,88.52,0.6562008084,0.656168,38,Tripod,
142900,2022-08-12 04:46:44,0,0,0.656168,,,0.6562008084,1.312336,0,0,0,0,0,8.431,0.6562008084,0.656168,0,0,0,0,-0.894776,41.4, 0.3, 0.4,0,0,1024,1024,1024,1024,0,0,0,0,44.2,0,0,88,4.206,4.198,0,0,0,0,1.559,88.52,0.6562008084,0.656168,38,Tripod,
143000,2022-08-12 04:46:44,0,0,0.984252,,,0.9842848084,1.312336,0,0,0,0,0,8.431,0.9842848084,0.984252,0,0,0,0,-0.894776,41.5, 0.2, 0.5,0,0,1024,1024,1024,1024,0,0,0,0,44.2,0,0,88,4.206,4.198,0,0,0,0,1.559,88.52,0.9842848084,0.984252,38,Tripod,
143100,2022-08-12 04:46:44,0,0,0.984252,,,0.9842848084,1.312336,0,0,0,0,0,8.431,0.9842848084,0.984252,0,0,0,0,-0.671082,41.5, 0.3, 0.5,0,0,1024,1024,1024,1024,0,0,0,0,44.2,0,0,88,4.206,4.198,0,0,0,0,1.559,88.52,0.9842848084,0.984252,38,Tripod,
143200,2022-08-12 04:46:44,0,0,1.312336,,,1.3123688084,1.312336,0,0,0,0,0,8.327,1.3123688084,1.312336,0,0,0,0,-0.447388,41.5, 0.4, 0.2,0,0,1024,1024,1024,1024,0,0,0,0,44.2,0,0,88,4.169,4.158,0,0,0,0,3.182,88.52,1.3123688084,1.312336,1,Atti,"Vuela con cuidado (modo Atti) Baja velocidad de la tarjeta SD. Puede afectar a su uso normal. Sustituye la tarjeta SD (Code: 10028). Señal débil del GPS. Vuelo estacionario inestable. Vuela con cuidado (Code: 30002). Aeronave en modo Atti. No se puede hacer vuelo estacionario. Vu"
143300,2022-08-12 04:46:45,0,0,1.312336,,,1.3123688084,1.64042,0,0,0,0,0,8.327,1.3123688084,1.312336,0,0,0,0,-0.223694,41.5, 0, 0,0,0,1024,1024,1024,1024,0,0,0,0,44.2,0,0,88,4.169,4.158,0,0,0,0,3.182,88.52,1.3123688084,1.312336,38,Tripod,"Aeronave en modo Atti. No se puede hacer vuelo estacionario. Vuela con cuidado (Code: 30004). Baja velocidad de la tarjeta SD. Puede afectar a su uso normal. Sustituye la tarjeta SD (Code: 10028). Baja velocidad de la tarjeta SD. Puede afectar a su u"
143400,2022-08-12 04:46:45,0,0,1.312336,,,1.3123688084,1.64042,0,0,0,0,0,8.327,1.3123688084,1.312336,0,0,0,0,-0.223694,41.5, 0.1, 0.1,0,0,1024,1024,1024,1024,0,0,0,0,44.2,0,0,88,4.169,4.158,0,0,0,0,3.182,88.52,1.3123688084,1.312336,38,Tripod,
143500,2022-08-12 04:46:45,0,0,1.312336,,,1.3123688084,1.64042,0,0,0,0,0,8.327,1.3123688084,1.312336,0,0,0,0,0,41.6, 0.3, 0.4,0,0,1024,1024,1467,1024,0,0,67,0,44.2,0,0,88,4.169,4.158,0,0,0,0,3.182,88.52,1.3123688084,1.312336,38,Tripod,
143600,2022-08-12 04:46:45,0,0,1.312336,,,1.3123688084,1.64042,0,0,0,0,0,8.327,1.3123688084,1.312336,0,0,0,0,0,41.6, 0.5, 0.4,0,0,1024,1024,1684,1024,0,0,100,0,44.2,0,0,88,4.169,4.158,0,0,0,0,3.182,88.52,1.3123688084,1.312336,38,Tripod,
143700,2022-08-12 04:46:45,0,0,1.64042,,,1.6404528084,1.64042,0,0,0,0,0,8.327,1.6404528084,1.64042,0,0,0,0,-0.223694,41.6, 0.6, 0.4,0,0,1024,1024,1640,1024,0,0,93,0,44.2,0,0,88,4.169,4.158,0,0,0,0,3.182,88.52,1.6404528084,1.64042,38,Tripod,
143800,2022-08-12 04:46:45,0,0,1.64042,,,1.6404528084,1.64042,0,0,0,0,0,8.327,1.6404528084,1.64042,0,0,0,0,-0.671082,41.7, 0.5, 0.3,0,0,1024,1024,1291,1024,0,0,40,0,44.2,0,0,88,4.169,4.158,0,0,0,0,3.182,88.52,1.6404528084,1.64042,38,Tripod,
143900,2022-08-12 04:46:45,0,0,1.968504,,,1.9685368084,1.968504,0,0,0,0,0,8.327,1.9685368084,1.968504,0,0,0,0,-1.342164,41.7, 0.6, 0.7,0,0,1024,1024,1291,1024,0,0,40,0,44.2,0,0,88,4.169,4.158,0,0,0,0,3.182,88.52,1.9685368084,1.968504,38,Tripod,
144000,2022-08-12 04:46:45,0,0,1.968504,,,1.9685368084,2.296588,0,0,0,0,0,8.327,1.9685368084,1.968504,0,0,0,0,-1.789552,41.6, 0.4, 0.4,0,0,1024,1024,1024,1024,0,0,0,0,44.2,0,0,88,4.169,4.158,0,0,0,0,3.182,88.52,1.9685368084,1.968504,38,Tripod,
144100,2022-08-12 04:46:45,0,0,2.296588,,,2.2966208084,2.296588,0,0,0,0,0,8.327,2.2966208084,2.296588,0,0,0,0,-1.565858,41.5, 0.6, 0.2,0,0,1024,1024,1024,1024,0,0,0,0,44.2,0,0,88,4.169,4.158,0,0,0,0,3.182,88.52,2.2966208084,2.296588,38,Tripod,
144200,2022-08-12 04:46:45,0,0,2.624672,,,2.6247048084,2.624672,0,0,0,0,0,8.327,2.6247048084,2.624672,0,0,0,0,-1.11847,41.5, 0.6, 0.1,0,0,1024,1024,1024,1024,0,0,0,0,44.2,0,0,88,4.169,4.158,0,0,0,0,3.182,88.52,2.6247048084,2.624672,38,Tripod,
144300,2022-08-12 04:46:46,0,0,2.624672,,,2.6247048084,2.624672,0,0,0,0,0,8.321,2.6247048084,2.624672,0,0,0,0,-0.671082,41.6, 0.5, 0.1,0,0,1024,1024,1024,1024,0,0,0,0,44.2,0,0,88,4.142,4.129,0,0,0,0,4.166,88.52,2.6247048084,2.624672,38,Tripod,
144400,2022-08-12 04:46:46,0,0,2.624672,,,2.6247048084,2.624672,0,0,0,0,0,8.321,2.6247048084,2.624672,0,0,0,0,-0.223694,41.6, 0.3, 0,0,0,1024,1024,1024,1024,0,0,0,0,44.2,0,0,88,4.142,4.129,0,0,0,0,4.166,88.52,2.6247048084,2.624672,38,Tripod,
144500,2022-08-12 04:46:46,0,0,2.624672,,,2.6247048084,2.952756,0,0,0,0,0,8.321,2.6247048084,2.624672,0,0,0,0,0,41.6, 0.2, 0.1,0,0,1024,1024,1024,1024,0,0,0,0,44.2,0,0,88,4.142,4.129,0,0,0,0,4.166,88.52,2.6247048084,2.624672,38,Tripod,
144600,2022-08-12 04:46:46,0,0,2.952756,,,2.9527888084,2.952756,0,0,0,0,0,8.321,2.9527888084,2.952756,0,0,0,0,0,41.6, 0.2, 0.1,0,0,1024,1024,1174,1024,0,0,23,0,44.2,0,0,88,4.142,4.129,0,0,0,0,4.166,88.52,2.9527888084,2.952756,38,Tripod,
144700,2022-08-12 04:46:46,0,0,2.952756,,,2.9527888084,2.952756,0,0,0,0,0,8.321,2.9527888084,2.952756,0,0,0,0,0,41.6, 0.1, 0,0,0,1024,1024,1672,1024,0,0,98,0,44.2,0,0,88,4.142,4.129,0,0,0,0,4.166,88.52,2.9527888084,2.952756,38,Tripod,
144800,2022-08-12 04:46:46,0,0,2.952756,,,2.9527888084,2.952756,0,0,0,0,0,8.321,2.9527888084,2.952756,0,0,0,0,0,41.6, 0.3, 0.2,0,0,1024,1024,1672,1024,0,0,98,0,44.2,0,0,88,4.142,4.129,0,0,0,0,4.166,88.52,2.9527888084,2.952756,38,Tripod,
144900,2022-08-12 04:46:46,0,0,2.952756,,,2.9527888084,2.952756,0,0,0,0,0,8.321,2.9527888084,2.952756,0,0,0,0,-0.447388,41.6, 0.2, 0.4,0,0,1024,1024,1391,1024,0,0,56,0,44.2,0,0,88,4.142,4.129,0,0,0,0,4.166,88.52,2.9527888084,2.952756,38,Tripod,
145000,2022-08-12 04:46:46,0,0,2.952756,,,2.9527888084,2.952756,0,0,0,0,0,8.321,2.9527888084,2.952756,0,0,0,0,-1.11847,41.6, 0, 0.1,0,0,1024,1024,1024,1024,0,0,0,0,44.2,0,0,88,4.142,4.129,0,0,0,0,4.166,88.52,2.9527888084,2.952756,38,Tripod,
145100,2022-08-12 04:46:46,0,0,3.28084,,,3.2808728084,3.28084,0,0,0,0,0,8.321,3.2808728084,3.28084,0,0,0,0,-0.894776,41.5, 0.4, 0.4,0,0,1024,1024,1024,1024,0,0,0,0,44.2,0,0,88,4.142,4.129,0,0,0,0,4.166,88.52,3.2808728084,3.28084,38,Tripod,
145200,2022-08-12 04:46:46,0,0,3.28084,,,3.2808728084,3.28084,0,0,0,0,0,8.321,3.2808728084,3.28084,0,0,0,0,-0.671082,41.5, 0.5, 0.3,0,0,1024,1024,1024,1024,0,0,0,0,44.2,0,0,88,4.142,4.129,0,0,0,0,4.166,88.52,3.2808728084,3.28084,38,Tripod,
145300,2022-08-12 04:46:47,0,0,3.608924,,,3.6089568084,3.28084,0,0,0,0,0,8.314,3.6089568084,3.608924,0,0,0,0,-0.447388,41.6, 0.4, 0.2,0,0,1024,1024,1214,1024,0,0,29,0,44.2,0,0,88,4.137,4.123,0,0,0,0,4.035,88.52,3.6089568084,3.608924,38,Tripod,
145400,2022-08-12 04:46:47,0,0,3.608924,,,3.6089568084,3.608924,0,0,0,0,0,8.314,3.6089568084,3.608924,0,0,0,0,0,41.5, 0.3, 0.3,0,0,1024,1024,1499,1024,0,0,72,0,44.2,0,0,88,4.137,4.123,0,0,0,0,4.035,88.52,3.6089568084,3.608924,38,Tripod,
145500,2022-08-12 04:46:47,0,0,3.608924,,,3.6089568084,3.608924,0,0,0,0,0,8.314,3.6089568084,3.608924,0,0,0,0,-0.223694,41.5, 0.3, 0.4,0,0,1024,1024,1024,1024,0,0,0,0,44.2,0,0,88,4.137,4.123,0,0,0,0,4.035,88.52,3.6089568084,3.608924,38,Tripod,
145600,2022-08-12 04:46:47,0,0,3.608924,,,3.6089568084,3.608924,0,0,0,0,0,8.314,3.6089568084,3.608924,0,0,0,0,-0.671082,41.5, 0, 0.4,0,0,1024,1024,1024,1024,0,0,0,0,44.2,0,0,88,4.137,4.123,0,0,0,0,4.035,88.52,3.6089568084,3.608924,38,Tripod,
145700,2022-08-12 04:46:47,0,0,3.937008,,,3.9370408084,3.608924,0,0,0,0,0,8.314,3.9370408084,3.937008,0,0,0,0,-0.894776,41.5, 0.1, 0.4,0,0,1024,1024,1024,1024,0,0,0,0,44.2,0,0,88,4.137,4.123,0,0,0,0,4.035,88.52,3.9370408084,3.937008,38,Tripod,
145800,2022-08-12 04:46:47,0,0,3.937008,,,3.9370408084,3.937008,0,0,0,0,0,8.314,3.9370408084,3.937008,0,0,0,0,-0.447388,41.5, 0.2, 0.4,0,0,1024,1024,1024,1024,0,0,0,0,44.2,0,0,88,4.137,4.123,0,0,0,0,4.035,88.52,3.9370408084,3.937008,38,Tripod,
145900,2022-08-12 04:46:47,0,0,4.265092,,,4.2651248084,3.937008,0,0,0,0,0,8.314,4.2651248084,4.265092,0,0,0,0,-0.223694,41.5, 0, 0.2,0,0,1024,1024,1024,1024,0,0,0,0,44.2,0,0,88,4.137,4.123,0,0,0,0,4.035,88.52,4.2651248084,4.265092,38,Tripod,
146000,2022-08-12 04:46:47,0,0,4.265092,,,4.2651248084,3.937008,0,0,0,0,0,8.314,4.2651248084,4.265092,0,0,0,0,-0.223694,41.5, -0.2, 0.1,0,0,1042,1024,1024,1024,3,0,0,0,44.2,0,0,88,4.137,4.123,0,0,0,0,4.035,88.52,4.2651248084,4.265092,38,Tripod,
146100,2022-08-12 04:46:47,0,0,4.265092,,,4.2651248084,3.937008,0,0,0,0,0,8.314,4.2651248084,4.265092,0,0,0,0,0,41.6, -0.2, 0.1,0,0,1270,1024,1024,1024,37,0,0,0,44.2,0,0,88,4.137,4.123,0,0,0,0,4.035,88.52,4.2651248084,4.265092,38,Tripod,
146200,2022-08-12 04:46:47,0,0,4.265092,,,4.2651248084,3.937008,0,0,0,0,0,8.314,4.2651248084,4.265092,0,0,0,0,0,41.6, -0.5, 0.2,0,0,1684,1024,1024,1024,100,0,0,0,44.2,0,0,88,4.137,4.123,0,0,0,0,4.035,88.52,4.2651248084,4.265092,38,Tripod,"Se detectó tarjeta SD de baja velocidad"
146300,2022-08-12 04:46:47,0,0,4.265092,,,4.2651248084,3.937008,0,0,0,0,0,8.268,4.2651248084,4.265092,0,0,0,0,0,41.6, -4.8, 0.2,0,0,1637,1024,1024,1024,93,0,0,0,44.2,0,0,88,4.153,4.147,0,0,0,0,4.394,88.52,4.2651248084,4.265092,38,Tripod,
146400,2022-08-12 04:46:48,0,0,4.265092,,,4.2651248084,3.937008,0.223694,0,0,0,0,8.268,4.2651248084,4.265092,0,0,0.223694,0,0,41.5, -10.4, 0.3,0,0,1180,1024,1024,1024,24,0,0,0,44.2,0,0,88,4.153,4.147,0,0,0,0,4.394,88.52,4.2651248084,4.265092,38,Tripod,
146500,2022-08-12 04:46:48,0,0,4.265092,,,4.2651248084,3.937008,0.6263432,0,0,0,0,8.268,4.2651248084,4.265092,0,0,0.447388,0.447388,0,41.5, -11, 0.5,0,0,1160,1024,1024,1024,21,0,0,0,44.2,0,0,88,4.153,4.147,0,0,0,0,4.394,88.52,4.2651248084,4.265092,38,Tripod,
146600,2022-08-12 04:46:48,0,0,4.265092,,,4.2651248084,3.937008,0.9395148,0,0,0,0,8.268,4.2651248084,4.265092,0,0,0.671082,0.671082,0,41.5, -5.5, 0.5,0,0,1435,843,1024,1024,62,-27,0,0,44.2,0,0,88,4.153,4.147,0,0,0,0,4.394,88.52,4.2651248084,4.265092,38,Tripod,
146700,2022-08-12 04:46:48,0,0,4.265092,,,4.2651248084,3.937008,1.11847,0,0,0,0,8.268,4.2651248084,4.265092,0,0,0.894776,0.671082,0,41.5, -1.3, 0.5,0,0,1435,843,1024,1024,62,-27,0,0,44.2,0,0,88,4.153,4.147,0,0,0,0,4.394,88.52,4.2651248084,4.265092,38,Tripod,
146800,2022-08-12 04:46:48,0,0,4.265092,,,4.2651248084,3.937008,1.11847,0,0,0,0,8.268,4.2651248084,4.265092,0,0,0.894776,0.671082,0,41.5, -1.6, 0.1,0,0,1520,817,1024,1024,75,-31,0,0,44.2,0,0,88,4.153,4.147,0,0,0,0,4.394,88.52,4.2651248084,4.265092,38,Tripod,
146900,2022-08-12 04:46:48,0,0,4.265092,,,4.2651248084,3.937008,1.2750558,0,0,0,0,8.268,4.2651248084,4.265092,0,0,0.894776,0.894776,0,41.5, -6, -1.8,0,0,1290,1024,1024,1024,40,0,0,0,44.2,0,0,88,4.153,4.147,0,0,0,0,4.394,88.52,4.2651248084,4.265092,38,Tripod,
147000,2022-08-12 04:46:48,0,0,4.265092,,,4.2651248084,3.937008,1.4316416,0,0,0,0,8.268,4.2651248084,4.265092,0,0,1.11847,0.894776,0,41.6, -6.4, -1.4,0,0,1117,1024,1024,1024,14,0,0,0,44.2,0,0,88,4.153,4.147,0,0,0,0,4.394,88.52,4.2651248084,4.265092,38,Tripod,
147100,2022-08-12 04:46:48,0,0,4.265092,,,4.2651248084,3.937008,1.6105968,0,0,0,0,8.268,4.2651248084,4.265092,0,0,1.342164,0.894776,0,41.6, -2.9, -0.2,0,0,1071,1024,1024,1024,7,0,0,0,44.2,0,0,88,4.153,4.147,0,0,0,0,4.394,88.52,4.2651248084,4.265092,38,Tripod,
147200,2022-08-12 04:46:48,0,0,4.265092,,,4.2651248084,3.937008,1.6105968,0,0,0,0,8.268,4.2651248084,4.265092,0,0,1.342164,0.894776,0,41.5, -0.3, 0.2,0,0,1024,1024,1024,1024,0,0,0,0,44.2,0,0,88,4.153,4.147,0,0,0,0,4.394,88.52,4.2651248084,4.265092,38,Tripod,
147300,2022-08-12 04:46:49,0,0,4.265092,,,4.2651248084,3.937008,1.6105968,0,0,0,0,8.295,4.2651248084,4.265092,0,0,1.342164,0.894776,0,41.5, 1, 0.4,0,0,1024,1024,1024,1024,0,0,0,0,44.2,0,0,88,4.151,4.141,0,0,0,0,4.086,88.52,4.2651248084,4.265092,38,Tripod,
147400,2022-08-12 04:46:49,0,0,4.265092,,,4.2651248084,3.937008,1.4316416,0,0,0,0,8.295,4.2651248084,4.265092,0,0,1.11847,0.894776,0,41.6, 5.8, 0.9,0,0,1024,1024,1024,1024,0,0,0,0,44.2,0,0,88,4.151,4.141,0,0,0,0,4.086,88.52,4.2651248084,4.265092,38,Tripod,
147500,2022-08-12 04:46:49,0,0,4.265092,,,4.2651248084,3.937008,1.11847,0,0,0,0,8.295,4.2651248084,4.265092,0,0,0.894776,0.671082,0,41.6, 6.7, 1,0,0,1024,1024,1024,1024,0,0,0,0,44.2,0,0,88,4.151,4.141,0,0,0,0,4.086,88.52,4.2651248084,4.265092,38,Tripod,
147600,2022-08-12 04:46:49,0,0,4.265092,,,4.2651248084,3.937008,0.8052984,0,0,0,0,8.295,4.2651248084,4.265092,0,0,0.671082,0.447388,0,41.6, 6.2, 0.8,0,0,1024,1024,1024,1024,0,0,0,0,44.2,0,0,88,4.151,4.141,0,0,0,0,4.086,88.52,4.2651248084,4.265092,38,Tripod,
147700,2022-08-12 04:46:49,0,0,4.265092,,,4.2651248084,3.937008,0.6263432,0,0,0,0,8.295,4.2651248084,4.265092,0,0,0.447388,0.447388,0,41.5, 5.2, 0.7,0,0,1024,1024,1024,1024,0,0,0,0,44.2,0,0,88,4.151,4.141,0,0,0,0,4.086,88.52,4.2651248084,4.265092,38,Tripod,
147800,2022-08-12 04:46:49,0,0,4.265092,,,4.2651248084,3.937008,0.4921268,0,0,0,0,8.295,4.2651248084,4.265092,0,0,0.447388,0.223694,0,41.6, 4.1, 0.6,0,0,1024,1024,1024,1024,0,0,0,0,44.2,0,0,88,4.151,4.141,0,0,0,0,4.086,88.52,4.2651248084,4.265092,38,Tripod,
147900,2022-08-12 04:46:49,0,0,4.265092,,,4.2651248084,3.937008,0.3131716,0,0,0,0,8.295,4.2651248084,4.265092,0,0,0.223694,0.223694,0,41.5, 3.4, 0.6,0,0,1024,1024,1024,1024,0,0,0,0,44.2,0,0,88,4.151,4.141,0,0,0,0,4.086,88.52,4.2651248084,4.265092,38,Tripod,
148000,2022-08-12 04:46:49,0,0,4.265092,,,4.2651248084,3.937008,0.3131716,0,0,0,0,8.295,4.2651248084,4.265092,0,0,0.223694,0.223694,0,41.6, 2.8, 0.6,0,0,1024,1024,1024,1024,0,0,0,0,44.2,0,0,88,4.151,4.141,0,0,0,0,4.086,88.52,4.2651248084,4.265092,38,Tripod,
148100,2022-08-12 04:46:49,0,0,4.265092,,,4.2651248084,3.937008,0,0,0,0,0,8.295,4.2651248084,4.265092,0,0,0,0,0,41.5, 2.3, 0.4,0,0,1024,1024,1024,1024,0,0,0,0,44.2,0,0,88,4.151,4.141,0,0,0,0,4.086,88.52,4.2651248084,4.265092,38,Tripod,
148200,2022-08-12 04:46:49,0,0,4.265092,,,4.2651248084,3.937008,0,0,0,0,0,8.295,4.2651248084,4.265092,0,0,0,0,0,41.5, 1.8, 0.4,0,0,1024,1024,1024,1024,0,0,0,0,44.2,0,0,88,4.151,4.141,0,0,0,0,4.086,88.52,4.2651248084,4.265092,38,Tripod,
148300,2022-08-12 04:46:50,0,0,4.265092,,,4.2651248084,3.937008,0,0,0,0,0,8.289,4.2651248084,4.265092,0,0,0,0,0,41.5, 1.5, 0.2,0,0,1024,1024,1024,1024,0,0,0,0,44.2,0,0,87,4.149,4.138,0,0,0,0,4.163,88.7,4.2651248084,4.265092,38,Tripod,
148400,2022-08-12 04:46:50,0,0,4.265092,,,4.2651248084,3.937008,0,0,0,0,0,8.289,4.2651248084,4.265092,0,0,0,0,0,41.5, 1.6, -0.2,0,0,1024,1024,1024,848,0,0,0,-27,44.2,0,0,87,4.149,4.138,0,0,0,0,4.163,88.7,4.2651248084,4.265092,38,Tripod,
148500,2022-08-12 04:46:50,0,0,4.265092,,,4.2651248084,3.937008,0,0,0,0,0,8.289,4.2651248084,4.265092,0,0,0,0,0,41.5, 1.4, -0.1,0,0,1024,1024,1024,696,0,0,0,-50,44.2,0,0,87,4.149,4.138,0,0,0,0,4.163,88.7,4.2651248084,4.265092,38,Tripod,
148600,2022-08-12 04:46:50,0,0,4.265092,,,4.2651248084,3.937008,0,0,0,0,0,8.289,4.2651248084,4.265092,0,0,0,0,0,41.5, 1.2, 0,0,0,1024,1024,1024,696,0,0,0,-50,44.2,0,0,87,4.149,4.138,0,0,0,0,4.163,88.7,4.2651248084,4.265092,38,Tripod,
148700,2022-08-12 04:46:50,0,0,4.265092,,,4.2651248084,3.937008,0,0,0,0,0,8.289,4.2651248084,4.265092,0,0,0,0,0,41.3, 1.1, 0.1,0,0,1024,1024,1024,1024,0,0,0,0,43.7,0,0,87,4.149,4.138,0,0,0,0,4.163,88.7,4.2651248084,4.265092,38,Tripod,
148800,2022-08-12 04:46:50,0,0,4.265092,,,4.2651248084,3.937008,0,0,0,0,0,8.289,4.2651248084,4.265092,0,0,0,0,0,40.9, 1, 0.1,0,0,1024,1024,1024,1024,0,0,0,0,43.3,0,0,87,4.149,4.138,0,0,0,0,4.163,88.7,4.2651248084,4.265092,38,Tripod,
148900,2022-08-12 04:46:50,0,0,4.265092,,,4.2651248084,3.937008,0,0,0,0,0,8.289,4.2651248084,4.265092,0,0,0,0,0,40.5, 0.9, 0.2,0,0,1024,1024,1024,1024,0,0,0,0,42.9,0,0,87,4.149,4.138,0,0,0,0,4.163,88.7,4.2651248084,4.265092,38,Tripod,
149000,2022-08-12 04:46:50,0,0,4.265092,,,4.2651248084,3.937008,0,0,0,0,0,8.289,4.2651248084,4.265092,0,0,0,0,0,40.2, 0.9, 0.3,0,0,1024,1024,1024,1024,0,0,0,0,42.7,0,0,87,4.149,4.138,0,0,0,0,4.163,88.7,4.2651248084,4.265092,38,Tripod,
149100,2022-08-12 04:46:50,0,0,4.265092,,,4.2651248084,3.937008,0,0,0,0,0,8.289,4.2651248084,4.265092,0,0,0,0,0,40, 0.9, 0.2,0,0,1024,1024,1024,1024,0,0,0,0,42.6,0,0,87,4.149,4.138,0,0,0,0,4.163,88.7,4.2651248084,4.265092,38,Tripod,
149200,2022-08-12 04:46:50,0,0,4.265092,,,4.2651248084,3.937008,0,0,0,0,0,8.289,4.2651248084,4.265092,0,0,0,0,0,40, 0.8, 0.1,0,0,1024,1024,1024,936,0,0,0,-13,42.6,0,0,87,4.149,4.138,0,0,0,0,4.163,88.7,4.2651248084,4.265092,38,Tripod,
149300,2022-08-12 04:46:51,0,0,4.265092,,,4.2651248084,3.937008,0,0,0,0,0,8.289,4.2651248084,4.265092,0,0,0,0,0,40, 0.7, 0.1,0,0,1024,1024,1024,1024,0,0,0,0,42.6,0,0,87,4.146,4.135,0,0,0,0,4.163,88.7,4.2651248084,4.265092,38,Tripod,
149400,2022-08-12 04:46:51,0,0,4.265092,,,4.2651248084,3.937008,0,0,0,0,0,8.289,4.2651248084,4.265092,0,0,0,0,0,40, 0.7, 0.2,0,0,1024,1024,1024,1024,0,0,0,0,42.6,0,0,87,4.146,4.135,0,0,0,0,4.163,88.7,4.2651248084,4.265092,38,Tripod,
149500,2022-08-12 04:46:51,0,0,4.265092,,,4.2651248084,3.937008,0,0,0,0,0,8.289,4.2651248084,4.265092,0,0,0,0,0,39.9, 0.6, 0.2,0,0,1024,1024,1024,1024,0,0,0,0,42.6,0,0,87,4.146,4.135,0,0,0,0,4.163,88.7,4.2651248084,4.265092,38,Tripod,
149600,2022-08-12 04:46:51,0,0,4.265092,,,4.2651248084,3.937008,0,0,0,0,0,8.289,4.2651248084,4.265092,0,0,0,0,0,39.9, 0.5, 0.3,0,0,1024,1024,1024,1024,0,0,0,0,42.5,0,0,87,4.146,4.135,0,0,0,0,4.163,88.7,4.2651248084,4.265092,38,Tripod,
149700,2022-08-12 04:46:51,0,0,4.265092,,,4.2651248084,3.937008,0,0,0,0,0,8.289,4.2651248084,4.265092,0,0,0,0,0,39.8, 0.4, 0.2,0,0,1024,1024,1024,635,0,0,0,-59,42.5,0,0,87,4.146,4.135,0,0,0,0,4.163,88.7,4.2651248084,4.265092,38,Tripod,
149800,2022-08-12 04:46:51,0,0,4.265092,,,4.2651248084,3.937008,0,0,0,0,0,8.289,4.2651248084,4.265092,0,0,0,0,0,39.8, 0.4, 0.2,0,0,1024,1024,1024,532,0,0,0,-75,42.4,0,0,87,4.146,4.135,0,0,0,0,4.163,88.7,4.2651248084,4.265092,38,Tripod,
149900,2022-08-12 04:46:51,0,0,4.265092,,,4.2651248084,3.937008,0,0,0,0,0,8.289,4.2651248084,4.265092,0,0,0,0,0,39.5, 0.4, 0.2,0,0,1024,1024,1024,1024,0,0,0,0,41.6,0,0,87,4.146,4.135,0,0,0,0,4.163,88.7,4.2651248084,4.265092,38,Tripod,
150000,2022-08-12 04:46:51,0,0,4.265092,,,4.2651248084,3.937008,0,0,0,0,0,8.289,4.2651248084,4.265092,0,0,0,0,0,38.6, 0.3, 0.3,0,0,1024,1024,1024,1024,0,0,0,0,40.6,0,0,87,4.146,4.135,0,0,0,0,4.163,88.7,4.2651248084,4.265092,38,Tripod,
150100,2022-08-12 04:46:51,0,0,4.265092,,,4.2651248084,3.937008,0,0,0,0,0,8.289,4.2651248084,4.265092,0,0,0,0,0,37.7, 0.1, 0.2,0,0,1024,1024,1024,1024,0,0,0,0,39.9,0,0,87,4.146,4.135,0,0,0,0,4.163,88.7,4.2651248084,4.265092,38,Tripod,
150200,2022-08-12 04:46:51,0,0,4.265092,,,4.2651248084,3.937008,0,0,0,0,0,8.289,4.2651248084,4.265092,0,0,0,0,0,37.1, 0, 0.2,0,0,1077,799,1024,1024,8,-34,0,0,39.4,0,0,87,4.146,4.135,0,0,0,0,4.163,88.7,4.2651248084,4.265092,38,Tripod,
150300,2022-08-12 04:46:52,0,0,4.265092,,,4.2651248084,3.937008,0,0,0,0,0,8.283,4.2651248084,4.265092,0,0,0,0,0,36.7, 0, 0.2,0,0,1608,736,1024,1024,88,-44,0,0,39.1,0,0,87,4.143,4.132,0,0,0,0,4.15,88.7,4.2651248084,4.265092,38,Tripod,
150400,2022-08-12 04:46:52,0,0,4.265092,,,4.2651248084,3.937008,0,0,0,0,0,8.283,4.2651248084,4.265092,0,0,0,0,0,36.5, -0.5, -1.1,0,0,1684,925,1024,1024,100,-15,0,0,39.1,0,0,87,4.143,4.132,0,0,0,0,4.15,88.7,4.2651248084,4.265092,38,Tripod,
150500,2022-08-12 04:46:52,0,0,4.265092,,,4.2651248084,3.937008,0,0,0,0,0,8.283,4.2651248084,4.265092,0,0,0,0,0,36.7, -6.6, -2.9,0,0,1684,925,1024,1024,100,-15,0,0,39.1,0,0,87,4.143,4.132,0,0,0,0,4.15,88.7,4.2651248084,4.265092,38,Tripod,
150600,2022-08-12 04:46:52,0,0,4.265092,,,4.2651248084,3.937008,0.223694,0,0,0,0,8.283,4.2651248084,4.265092,0,0,0.223694,0,0,36.8, -10.6, -2.3,0,0,1350,1024,1024,1024,49,0,0,0,39.1,0,0,87,4.143,4.132,0,0,0,0,4.15,88.7,4.2651248084,4.265092,38,Tripod,
150700,2022-08-12 04:46:52,0,0,4.265092,,,4.2651248084,3.937008,0.671082,0,0,0,0,8.283,4.2651248084,4.265092,0,0,0.671082,0,0,36.7, -9.6, -0.3,0,0,1191,1024,1024,1024,25,0,0,0,39.1,0,0,87,4.143,4.132,0,0,0,0,4.15,88.7,4.2651248084,4.265092,38,Tripod,
150800,2022-08-12 04:46:52,0,0,4.265092,,,4.2651248084,3.937008,0.9171454,0,0,0,0,8.283,4.2651248084,4.265092,0,0,0.894776,0.223694,0,36.5, -4.1, 0.2,0,0,1398,1024,1024,1024,57,0,0,0,39.1,0,0,87,4.143,4.132,0,0,0,0,4.15,88.7,4.2651248084,4.265092,38,Tripod,
150900,2022-08-12 04:46:52,0,0,4.265092,,,4.2651248084,3.937008,0.9171454,0,0,0,0,8.283,4.2651248084,4.265092,0,0,0.894776,0.223694,0,36.5, -1.9, 0.4,0,0,1684,1020,1024,1024,100,-1,0,0,39.1,0,0,87,4.143,4.132,0,0,0,0,4.15,88.7,4.2651248084,4.265092,38,Tripod,
151000,2022-08-12 04:46:52,0,0,4.265092,,,4.2651248084,3.937008,1.2079476,0,0,0,0,8.283,4.2651248084,4.265092,0,0,1.11847,0.447388,0,36.4, -6.2, 0.4,0,0,1684,1024,1024,1024,100,0,0,0,39.1,0,0,87,4.143,4.132,0,0,0,0,4.15,88.7,4.2651248084,4.265092,38,Tripod,
151100,2022-08-12 04:46:52,0,0,4.265092,,,4.2651248084,3.937008,1.4987498,0,0,0,0,8.283,4.2651248084,4.265092,0,0,1.342164,0.671082,0,36.4, -10.3, 0.2,0,0,1499,1024,1024,1024,72,0,0,0,39.1,0,0,87,4.143,4.132,0,0,0,0,4.15,88.7,4.2651248084,4.265092,38,Tripod,
151200,2022-08-12 04:46:52,0,0,4.265092,,,4.2651248084,3.937008,1.8119214,0,0,0,0,8.283,4.2651248084,4.265092,0,0,1.565858,0.894776,0,36.5, -11.6, 0.3,0,0,1435,1024,1024,1024,62,0,0,0,39.1,0,0,87,4.143,4.132,0,0,0,0,4.15,88.7,4.2651248084,4.265092,38,Tripod,
151300,2022-08-12 04:46:52,0,0,4.265092,,,4.2651248084,3.937008,1.8119214,0,0,0,0,8.276,4.2651248084,4.265092,0,0,1.789552,1.11847,0,36.5, -9, 0.4,0,0,1384,1024,1024,1024,55,0,0,0,39.1,0,0,87,4.141,4.13,0,0,0,0,4.168,88.7,4.2651248084,4.265092,38,Tripod,
151400,2022-08-12 04:46:53,0,0,4.265092,,,4.2651248084,3.937008,2.3040482,0,0,0,0,8.276,4.2651248084,4.265092,0,0,2.013246,1.11847,0,36.5, -6.6, 0.5,0,0,1384,1024,1024,1024,55,0,0,0,39.1,0,0,87,4.141,4.13,0,0,0,0,4.168,88.7,4.2651248084,4.265092,38,Tripod,
151500,2022-08-12 04:46:53,0,0,4.265092,,,4.2651248084,3.937008,2.6172198,0,0,0,0,8.276,4.2651248084,4.265092,0,0,2.23694,1.342164,0,36.5, -4.9, 0.5,0,0,1511,1024,1024,1024,74,0,0,0,39.1,0,0,87,4.141,4.13,0,0,0,0,4.168,88.7,4.2651248084,4.265092,38,Tripod,
151600,2022-08-12 04:46:53,0,0,4.265092,,,4.2651248084,3.937008,2.6172198,0,0,0,0,8.276,4.2651248084,4.265092,0,0,2.23694,1.342164,0,36.4, -4.9, 0.3,0,0,1572,1024,1024,1024,83,0,0,0,39.1,0,0,87,4.141,4.13,0,0,0,0,4.168,88.7,4.2651248084,4.265092,38,Tripod,
151700,2022-08-12 04:46:53,0,0,4.265092,,,4.2651248084,3.937008,2.908022,0,0,0,0,8.276,4.2651248084,4.265092,0,0,2.460634,1.565858,0,36.4, -7.3, 0,0,0,1147,1024,1024,1024,19,0,0,0,39.1,0,0,87,4.141,4.13,0,0,0,0,4.168,88.7,4.2651248084,4.265092,38,Tripod,
151800,2022-08-12 04:46:53,0,0,4.265092,,,4.2651248084,3.937008,3.1093466,0,0,0,0,8.276,4.2651248084,4.265092,0,0,2.684328,1.565858,0,36.4, -6.6, 0,0,0,1024,1024,1024,1024,0,0,0,0,39.1,0,0,87,4.141,4.13,0,0,0,0,4.168,88.7,4.2651248084,4.265092,38,Tripod,
151900,2022-08-12 04:46:53,0,0,4.265092,,,4.2651248084,3.937008,3.2211936,0,0,0,0,8.276,4.2651248084,4.265092,0,0,2.684328,1.789552,0,36.4, 2.1, 0,0,0,1024,1024,1024,447,0,0,0,-87,39.1,0,0,87,4.141,4.13,0,0,0,0,4.168,88.7,4.2651248084,4.265092,38,Tripod,
152000,2022-08-12 04:46:53,0,0,4.265092,,,4.2651248084,3.937008,2.908022,0,0,0,0,8.276,4.2651248084,4.265092,0,0,2.460634,1.565858,0,36.4, 11.7, 0.7,0,0,1024,1024,1024,512,0,0,0,-78,39.1,0,0,87,4.141,4.13,0,0,0,0,4.168,88.7,4.2651248084,4.265092,38,Tripod,
152100,2022-08-12 04:46:53,0,0,4.265092,,,4.2651248084,3.937008,2.4158952,0,0,0,0,8.276,4.2651248084,4.265092,0,0,2.013246,1.342164,0,36.3, 13.2, 0.8,0,0,1024,1024,1024,1024,0,0,0,0,38.5,0,0,87,4.141,4.13,0,0,0,0,4.168,88.7,4.2651248084,4.265092,38,Tripod,
152200,2022-08-12 04:46:53,0,0,4.265092,,,4.2651248084,3.937008,1.8119214,0,0,0,0,8.276,4.2651248084,4.265092,0,0,1.565858,0.894776,0,35.4, 11.8, 0.6,0,0,1024,1024,1024,1024,0,0,0,0,37.4,0,0,87,4.141,4.13,0,0,0,0,4.168,88.7,4.2651248084,4.265092,38,Tripod,
152300,2022-08-12 04:46:54,0,0,4.265092,,,4.2651248084,3.937008,1.2974252,0,0,0,0,8.268,4.2651248084,4.265092,0,0,1.11847,0.671082,0,34.3, 9.7, 0.3,0,0,1024,1024,1024,1024,0,0,0,0,36.4,0,0,87,4.141,4.128,0,0,0,0,4.218,88.7,4.2651248084,4.265092,38,Tripod,
152400,2022-08-12 04:46:54,0,0,4.265092,,,4.2651248084,3.937008,1.006623,0,0,0,0,8.268,4.2651248084,4.265092,0,0,0.894776,0.447388,0,33.5, 7.8, 0.2,0,0,1024,1024,1024,1024,0,0,0,0,35.7,0,0,87,4.141,4.128,0,0,0,0,4.218,88.7,4.2651248084,4.265092,38,Tripod,
152500,2022-08-12 04:46:54,0,0,4.265092,,,4.2651248084,3.937008,0.4921268,0,0,0,0,8.268,4.2651248084,4.265092,0,0,0.447388,0.223694,0,32.9, 6.1, 0.1,0,0,1024,1024,1024,640,0,0,0,-58,35.3,0,0,87,4.141,4.128,0,0,0,0,4.218,88.7,4.2651248084,4.265092,38,Tripod,
152600,2022-08-12 04:46:54,0,0,4.265092,,,4.2651248084,3.937008,0.4921268,0,0,0,0,8.268,4.2651248084,4.265092,0,0,0.447388,0.223694,0,32.6, 4.8, 0.2,0,0,1024,1024,1024,644,0,0,0,-58,35,0,0,87,4.141,4.128,0,0,0,0,4.218,88.7,4.2651248084,4.265092,38,Tripod,
152700,2022-08-12 04:46:54,0,0,4.265092,,,4.2651248084,3.937008,0.223694,0,0,0,0,8.268,4.2651248084,4.265092,0,0,0.223694,0,0,32.2, 3.8, 0.3,0,0,1024,1024,1024,1024,0,0,0,0,34.4,0,0,87,4.141,4.128,0,0,0,0,4.218,88.7,4.2651248084,4.265092,38,Tripod,
152800,2022-08-12 04:46:54,0,0,4.265092,,,4.2651248084,3.937008,0.223694,0,0,0,0,8.268,4.2651248084,4.265092,0,0,0.223694,0,0,31.4, 3.1, 0.3,0,0,1024,1024,1024,1024,0,0,0,0,33.6,0,0,87,4.141,4.128,0,0,0,0,4.218,88.7,4.2651248084,4.265092,38,Tripod,
152900,2022-08-12 04:46:54,0,0,4.265092,,,4.2651248084,3.937008,0,0,0,0,0,8.268,4.2651248084,4.265092,0,0,0,0,0,30.7, 2.5, 0.2,0,0,1024,1024,1024,1024,0,0,0,0,33,0,0,87,4.141,4.128,0,0,0,0,4.218,88.7,4.2651248084,4.265092,38,Tripod,
153000,2022-08-12 04:46:54,0,0,4.265092,,,4.2651248084,3.937008,0,0,0,0,0,8.268,4.2651248084,4.265092,0,0,0,0,0,30.2, 2, 0.2,0,0,1024,1024,1024,1024,0,0,0,0,32.6,0,0,87,4.141,4.128,0,0,0,0,4.218,88.7,4.2651248084,4.265092,38,Tripod,
153100,2022-08-12 04:46:54,0,0,4.265092,,,4.2651248084,3.937008,0,0,0,0,0,8.268,4.2651248084,4.265092,0,0,0,0,0,29.9, 1.7, 0.1,0,0,1024,1024,1024,1024,0,0,0,0,32.4,0,0,87,4.141,4.128,0,0,0,0,4.218,88.7,4.2651248084,4.265092,38,Tripod,
153200,2022-08-12 04:46:54,0,0,4.265092,,,4.2651248084,3.937008,0,0,0,0,0,8.268,4.2651248084,4.265092,0,0,0,0,0,29.8, 1.6, 0,0,0,1024,1024,1024,1024,0,0,0,0,32.4,0,0,87,4.141,4.128,0,0,0,0,4.218,88.7,4.2651248084,4.265092,38,Tripod,
153300,2022-08-12 04:46:55,0,0,4.265092,,,4.2651248084,3.937008,0,0,0,0,0,8.27,4.2651248084,4.265092,0,0,0,0,0,29.8, 1.2, 0,0,0,1024,1024,1024,1024,0,0,0,0,32.4,0,0,87,4.138,4.125,0,0,0,0,4.15,88.7,4.2651248084,4.265092,38,Tripod,
153400,2022-08-12 04:46:55,0,0,4.265092,,,4.2651248084,3.937008,0,0,0,0,0,8.27,4.2651248084,4.265092,0,0,0,0,0,29.8, 1, 0.2,0,0,1024,1024,1024,1024,0,0,0,0,32.4,0,0,87,4.138,4.125,0,0,0,0,4.15,88.7,4.2651248084,4.265092,38,Tripod,
153500,2022-08-12 04:46:55,0,0,4.265092,,,4.2651248084,3.937008,0,0,0,0,0,8.27,4.2651248084,4.265092,0,0,0,0,0,29.8, 0.5, 0.3,0,0,1024,1024,1024,364,0,0,0,-100,32.4,0,0,87,4.138,4.125,0,0,0,0,4.15,88.7,4.2651248084,4.265092,38,Tripod,
153600,2022-08-12 04:46:55,0,0,4.265092,,,4.2651248084,3.937008,0,0,0,0,0,8.27,4.2651248084,4.265092,0,0,0,0,0,29.7, 0.4, 0.4,0,0,1024,1024,1024,364,0,0,0,-100,32.2,0,0,87,4.138,4.125,0,0,0,0,4.15,88.7,4.2651248084,4.265092,38,Tripod,
153700,2022-08-12 04:46:55,0,0,4.265092,,,4.2651248084,3.937008,0,0,0,0,0,8.27,4.2651248084,4.265092,0,0,0,0,0,29.1, 0.3, 0.4,0,0,1024,590,1024,1024,0,-66,0,0,31,0,0,87,4.138,4.125,0,0,0,0,4.15,88.7,4.2651248084,4.265092,38,Tripod,
153800,2022-08-12 04:46:55,0,0,4.265092,,,4.2651248084,3.937008,0,0,0,0,0,8.27,4.2651248084,4.265092,0,0,0,0,0,27.7, 0.2, 0.4,0,0,1024,398,1024,1024,0,-95,0,0,29.4,0,0,87,4.138,4.125,0,0,0,0,4.15,88.7,4.2651248084,4.265092,38,Tripod,
153900,2022-08-12 04:46:55,0,0,4.265092,,,4.2651248084,3.937008,0,0,0,0,0,8.27,4.2651248084,4.265092,0,0,0,0,0,26.2, 0.2, -4.7,0,0,1036,937,1024,1024,2,-13,0,0,28.2,0,0,87,4.138,4.125,0,0,0,0,4.15,88.7,4.2651248084,4.265092,38,Tripod,
154000,2022-08-12 04:46:55,0,0,4.265092,,,4.2651248084,3.937008,0.223694,0,0,0,0,8.27,4.2651248084,4.265092,0,0,0,-0.223694,0,25, 0.1, -9.2,0,0,1024,1024,1024,1024,0,0,0,0,27.3,0,0,87,4.138,4.125,0,0,0,0,4.15,88.7,4.2651248084,4.265092,38,Tripod,
154100,2022-08-12 04:46:55,0,0,4.265092,,,4.2651248084,3.937008,0.447388,0,0,0,0,8.27,4.2651248084,4.265092,0,0,0,-0.447388,0,24.6, 0.2, -4.9,0,0,1024,1024,1024,1024,0,0,0,0,26.9,0,0,87,4.138,4.125,0,0,0,0,4.15,88.7,4.2651248084,4.265092,38,Tripod,
154200,2022-08-12 04:46:55,0,0,4.265092,,,4.2651248084,3.937008,0.7158208,0,0,0,0,8.27,4.2651248084,4.265092,0,0,0.223694,-0.671082,0,24.5, 0.6, 2.3,0,0,1024,1024,1024,1024,0,0,0,0,26.8,0,0,87,4.138,4.125,0,0,0,0,4.15,88.7,4.2651248084,4.265092,38,Tripod,
154300,2022-08-12 04:46:56,0,0,4.265092,,,4.2651248084,3.937008,0.447388,0,0,0,0,8.266,4.2651248084,4.265092,0,0,0,-0.447388,0,24.4, 0.7, 3.3,0,0,1024,1024,1024,1024,0,0,0,0,26.8,0,0,87,4.135,4.122,0,0,0,0,4.185,88.7,4.2651248084,4.265092,38,Tripod,
154400,2022-08-12 04:46:56,0,0,4.265092,,,4.2651248084,3.937008,0.447388,0,0,0,0,8.266,4.2651248084,4.265092,0,0,0,-0.447388,0,24.3, 0.7, 3.1,0,0,1044,870,1024,1024,3,-23,0,0,26.8,0,0,87,4.135,4.122,0,0,0,0,4.185,88.7,4.2651248084,4.265092,38,Tripod,
154500,2022-08-12 04:46:56,0,0,4.265092,,,4.2651248084,3.937008,0.223694,0,0,0,0,8.266,4.2651248084,4.265092,0,0,0,-0.223694,0,24.2, 0.7, 2.4,0,0,1187,812,1024,1024,25,-32,0,0,26.8,0,0,87,4.135,4.122,0,0,0,0,4.185,88.7,4.2651248084,4.265092,38,Tripod,
154600,2022-08-12 04:46:56,0,0,4.265092,,,4.2651248084,3.937008,0.223694,0,0,0,0,8.266,4.2651248084,4.265092,0,0,0,-0.223694,0,24.1, 0, 0,0,0,1323,986,1024,1024,45,-6,0,0,26.8,0,0,87,4.135,4.122,0,0,0,0,4.185,88.7,4.2651248084,4.265092,38,Tripod,
154700,2022-08-12 04:46:56,0,0,4.265092,,,4.2651248084,3.937008,0.223694,0,0,0,0,8.266,4.2651248084,4.265092,0,0,0,-0.223694,0,24.1, -1.4, -0.9,0,0,1026,1024,1024,1024,0,0,0,0,26.8,0,0,87,4.135,4.122,0,0,0,0,4.185,88.7,4.2651248084,4.265092,38,Tripod,
154800,2022-08-12 04:46:56,0,0,4.265092,,,4.2651248084,3.937008,0.223694,0,0,0,0,8.266,4.2651248084,4.265092,0,0,0,-0.223694,0,24.2, -2.5, 0,0,0,1024,1024,1024,1024,0,0,0,0,26.8,0,0,87,4.135,4.122,0,0,0,0,4.185,88.7,4.2651248084,4.265092,38,Tripod,
154900,2022-08-12 04:46:56,0,0,3.937008,,,3.9370408084,3.937008,0.3131716,0,0,0,0,8.266,4.2651248084,4.265092,0,0,0.223694,-0.223694,0,24.2, 0.6, 1.1,0,0,1092,1024,1024,1024,10,0,0,0,26.8,0,0,87,4.135,4.122,0,0,0,0,4.185,88.7,3.9370408084,3.937008,38,Tripod,
155000,2022-08-12 04:46:56,0,0,3.937008,,,3.9370408084,3.937008,0.223694,0,0,0,0,8.266,4.2651248084,4.265092,0,0,0,-0.223694,0,24.2, 1.2, 1.7,0,0,1092,1024,1024,1024,10,0,0,0,26.8,0,0,87,4.135,4.122,0,0,0,0,4.185,88.7,3.9370408084,3.937008,38,Tripod,
155100,2022-08-12 04:46:56,0,0,3.937008,,,3.9370408084,3.937008,0.223694,0,0,0,0,8.266,4.2651248084,4.265092,0,0,0,-0.223694,0,24.2, 0.9, 1.6,0,0,1450,1024,1024,1024,65,0,0,0,26.8,0,0,87,4.135,4.122,0,0,0,0,4.185,88.7,3.9370408084,3.937008,38,Tripod,
155200,2022-08-12 04:46:56,0,0,3.937008,,,3.9370408084,3.937008,0,0,0,0,0,8.266,4.2651248084,4.265092,0,0,0,0,0,24.1, -1.8, 1.2,0,0,1558,1024,1024,1024,81,0,0,0,26.8,0,0,87,4.135,4.122,0,0,0,0,4.185,88.7,3.9370408084,3.937008,38,Tripod,
155300,2022-08-12 04:46:57,0,0,3.937008,,,3.9370408084,3.937008,0,0,0,0,0,8.26,4.2651248084,4.265092,0,0,0,0,0,24.1, -6.6, 0.8,0,0,1188,1024,1024,1024,25,0,0,0,26.8,0,0,87,4.133,4.122,0,0,0,0,4.173,88.7,3.9370408084,3.937008,38,Tripod,
155400,2022-08-12 04:46:57,0,0,3.937008,,,3.9370408084,3.937008,0.447388,0,0,0,0,8.26,4.2651248084,4.265092,0,0,0.447388,0,0,24.1, -7, 0.7,0,0,1092,1024,1024,1024,10,0,0,0,26.8,0,0,87,4.133,4.122,0,0,0,0,4.173,88.7,3.9370408084,3.937008,38,Tripod,
155500,2022-08-12 04:46:57,0,0,3.937008,,,3.9370408084,3.937008,0.447388,0,0,0,0,8.26,4.2651248084,4.265092,0,0,0.447388,0,0,24.2, -2.3, 0.5,0,0,1103,1024,1024,1024,12,0,0,0,26.8,0,0,87,4.133,4.122,0,0,0,0,4.173,88.7,3.9370408084,3.937008,38,Tripod,
155600,2022-08-12 04:46:57,0,0,3.937008,,,3.9370408084,3.937008,0.671082,0,0,0,0,8.26,4.2651248084,4.265092,0,0,0.671082,0,0,24.1, 0, 0.4,0,0,1286,1024,1024,1024,40,0,0,0,26.8,0,0,87,4.133,4.122,0,0,0,0,4.173,88.7,3.9370408084,3.937008,38,Tripod,
155700,2022-08-12 04:46:57,0,0,4.265092,,,4.2651248084,3.937008,0.671082,0,0,0,0,8.26,4.2651248084,4.265092,0,0,0.671082,0,0,24.1, 0.3, 0.3,0,0,1429,1024,1024,1024,61,0,0,0,26.8,0,0,87,4.133,4.122,0,0,0,0,4.173,88.7,4.2651248084,4.265092,38,Tripod,
155800,2022-08-12 04:46:57,0,0,4.265092,,,4.2651248084,3.937008,0.671082,0,0,0,0,8.26,4.2651248084,4.265092,0,0,0.671082,0,0,24.1, -1.4, 0.3,0,0,1414,1024,1024,1024,59,0,0,0,26.8,0,0,87,4.133,4.122,0,0,0,0,4.173,88.7,4.2651248084,4.265092,38,Tripod,
155900,2022-08-12 04:46:57,0,0,4.265092,,,4.2651248084,3.937008,0.671082,0,0,0,0,8.26,4.2651248084,4.265092,0,0,0.671082,0,0,24.1, -4.1, 0.2,0,0,1414,1024,1024,1024,59,0,0,0,26.8,0,0,87,4.133,4.122,0,0,0,0,4.173,88.7,4.2651248084,4.265092,38,Tripod,
156000,2022-08-12 04:46:57,0,0,4.265092,,,4.2651248084,3.937008,0.9171454,0,0,0,0,8.26,4.2651248084,4.265092,0,0,0.894776,0.223694,0,24.1, -4.7, 0.1,0,0,1388,1024,1024,1024,55,0,0,0,26.8,0,0,87,4.133,4.122,0,0,0,0,4.173,88.7,4.2651248084,4.265092,38,Tripod,
156100,2022-08-12 04:46:57,0,0,4.265092,,,4.2651248084,3.937008,0.9171454,0,0,0,0,8.26,4.2651248084,4.265092,0,0,0.894776,0.223694,0,24.1, -4.6, 0.1,0,0,1331,1024,1024,1024,47,0,0,0,26.8,0,0,87,4.133,4.122,0,0,0,0,4.173,88.7,4.2651248084,4.265092,38,Tripod,
156200,2022-08-12 04:46:57,0,0,4.265092,,,4.2651248084,3.937008,1.1408394,0,0,0,0,8.26,4.2651248084,4.265092,0,0,1.11847,0.223694,0,24.2, -3.7, 0.5,0,0,1274,1024,1024,1024,38,0,0,0,26.8,0,0,87,4.133,4.122,0,0,0,0,4.173,88.7,4.2651248084,4.265092,38,Tripod,
156300,2022-08-12 04:46:58,0,0,4.265092,,,4.2651248084,3.937008,1.2079476,0,0,0,0,8.257,4.2651248084,4.265092,0,0,1.11847,0.447388,0,24.1, -2.6, 0.5,0,0,1147,1024,1024,1024,19,0,0,0,26.8,0,0,87,4.131,4.12,0,0,0,0,4.167,88.88,4.2651248084,4.265092,38,Tripod,
156400,2022-08-12 04:46:58,0,0,4.265092,,,4.2651248084,3.937008,1.4092722,0,0,0,0,8.257,4.2651248084,4.265092,0,0,1.342164,0.447388,0,24.1, -1.2, 0.7,0,0,1024,1024,1024,1024,0,0,0,0,26.8,0,0,87,4.131,4.12,0,0,0,0,4.167,88.88,4.2651248084,4.265092,38,Tripod,
156500,2022-08-12 04:46:58,0,0,4.265092,,,4.2651248084,3.937008,1.4092722,0,0,0,0,8.257,4.2651248084,4.265092,0,0,1.342164,0.447388,0,23.9, 0, 0.5,0,0,1024,1024,1024,1024,0,0,0,0,26.8,0,0,87,4.131,4.12,0,0,0,0,4.167,88.88,4.2651248084,4.265092,38,Tripod,
156600,2022-08-12 04:46:58,0,0,4.265092,,,4.2651248084,3.937008,1.2079476,0,0,0,0,8.257,4.2651248084,4.265092,0,0,1.11847,0.447388,0,23.8, 4.9, 0.1,0,0,1024,1024,1024,1024,0,0,0,0,26.8,0,0,87,4.131,4.12,0,0,0,0,4.167,88.88,4.2651248084,4.265092,38,Tripod,
156700,2022-08-12 04:46:58,0,0,4.265092,,,4.2651248084,3.937008,1.1408394,0,0,0,0,8.257,4.2651248084,4.265092,0,0,1.11847,0.223694,0,23.9, 6.4, 0.1,0,0,1024,1024,1024,1024,0,0,0,0,26.8,0,0,87,4.131,4.12,0,0,0,0,4.167,88.88,4.2651248084,4.265092,38,Tripod,
156800,2022-08-12 04:46:58,0,0,4.265092,,,4.2651248084,3.937008,0.9171454,0,0,0,0,8.257,4.2651248084,4.265092,0,0,0.894776,0.223694,0,24, 6.6, 0.3,0,0,1024,1024,1024,1024,0,0,0,0,26.8,0,0,87,4.131,4.12,0,0,0,0,4.167,88.88,4.2651248084,4.265092,38,Tripod,
156900,2022-08-12 04:46:58,0,0,4.265092,,,4.2651248084,3.937008,0.671082,0,0,0,0,8.257,4.2651248084,4.265092,0,0,0.671082,0,0,24, 5.5, 0.7,0,0,1024,1024,1024,1024,0,0,0,0,26.8,0,0,87,4.131,4.12,0,0,0,0,4.167,88.88,4.2651248084,4.265092,38,Tripod,
157000,2022-08-12 04:46:58,0,0,4.265092,,,4.2651248084,3.937008,0.447388,0,0,0,0,8.257,4.2651248084,4.265092,0,0,0.447388,0,0,24.1, 4.4, 0.9,0,0,1024,1024,1024,1024,0,0,0,0,26.8,0,0,87,4.131,4.12,0,0,0,0,4.167,88.88,4.2651248084,4.265092,38,Tripod,
157100,2022-08-12 04:46:58,0,0,4.265092,,,4.2651248084,3.937008,0.223694,0,0,0,0,8.257,4.2651248084,4.265092,0,0,0.223694,0,0,24.2, 3.5, 1,0,0,1024,1024,1024,1024,0,0,0,0,26.8,0,0,87,4.131,4.12,0,0,0,0,4.167,88.88,4.2651248084,4.265092,38,Tripod,
157200,2022-08-12 04:46:58,0,0,4.265092,,,4.2651248084,3.937008,0.223694,0,0,0,0,8.257,4.2651248084,4.265092,0,0,0.223694,0,0,24.2, 2.7, 1,0,0,1024,1024,1024,1024,0,0,0,0,26.8,0,0,87,4.131,4.12,0,0,0,0,4.167,88.88,4.2651248084,4.265092,38,Tripod,
157300,2022-08-12 04:46:59,0,0,4.265092,,,4.2651248084,3.937008,0.223694,0,0,0,0,8.257,4.2651248084,4.265092,0,0,0.223694,0,0,24.2, 2, 1,0,0,1024,1024,1024,1024,0,0,0,0,26.8,0,0,87,4.131,4.12,0,0,0,0,4.167,88.88,4.2651248084,4.265092,38,Tripod,
157400,2022-08-12 04:46:59,0,0,4.265092,,,4.2651248084,3.937008,0.223694,0,0,0,0,8.257,4.2651248084,4.265092,0,0,0,0,0,24.2, 1.6, 1,0,0,1024,1024,1024,1024,0,0,0,0,26.8,0,0,87,4.131,4.12,0,0,0,0,4.167,88.88,4.2651248084,4.265092,38,Tripod,
157500,2022-08-12 04:46:59,0,0,4.265092,,,4.2651248084,3.937008,0,0,0,0,0,8.247,4.2651248084,4.265092,0,0,0,0,0,24.2, 1.6, 1,0,0,1024,1024,1024,1024,0,0,0,0,26.8,0,0,87,4.128,4.117,0,0,0,0,4.204,88.88,4.2651248084,4.265092,38,Tripod,
157600,2022-08-12 04:46:59,0,0,4.265092,,,4.2651248084,3.937008,0,0,0,0,0,8.247,4.2651248084,4.265092,0,0,0,0,0,24.2, 1.2, 1.2,0,0,1024,1024,1024,1024,0,0,0,0,26.8,0,0,87,4.128,4.117,0,0,0,0,4.204,88.88,4.2651248084,4.265092,38,Tripod,
157700,2022-08-12 04:46:59,0,0,4.265092,,,4.2651248084,3.937008,0,0,0,0,0,8.247,4.2651248084,4.265092,0,0,0,0,0,24.2, 0.9, 1.5,0,0,1024,1024,1024,1024,0,0,0,0,26.8,0,0,87,4.128,4.117,0,0,0,0,4.204,88.88,4.2651248084,4.265092,38,Tripod,
157800,2022-08-12 04:46:59,0,0,4.265092,,,4.2651248084,3.937008,0,0,0,0,0,8.247,4.2651248084,4.265092,0,0,0,0,0,24.2, 0.8, 1.2,0,0,1024,1024,1024,1024,0,0,0,0,26.8,0,0,87,4.128,4.117,0,0,0,0,4.204,88.88,4.2651248084,4.265092,38,Tripod,
157900,2022-08-12 04:46:59,0,0,4.265092,,,4.2651248084,3.937008,0,0,0,0,0,8.247,4.2651248084,4.265092,0,0,0,0,0,24.2, 0.9, 0.9,0,0,1024,1024,1024,1024,0,0,0,0,26.8,0,0,87,4.128,4.117,0,0,0,0,4.204,88.88,4.2651248084,4.265092,38,Tripod,
158000,2022-08-12 04:46:59,0,0,4.265092,,,4.2651248084,3.937008,0,0,0,0,0,8.247,4.2651248084,4.265092,0,0,0,0,0,24.2, 0.6, 1,0,0,1024,1024,1024,1024,0,0,0,0,26.8,0,0,87,4.128,4.117,0,0,0,0,4.204,88.88,4.2651248084,4.265092,38,Tripod,
158100,2022-08-12 04:46:59,0,0,4.265092,,,4.2651248084,3.937008,0,0,0,0,0,8.247,4.2651248084,4.265092,0,0,0,0,0,24.2, 0.3, 1,0,0,1024,1024,1024,1024,0,0,0,0,26.8,0,0,87,4.128,4.117,0,0,0,0,4.204,88.88,4.2651248084,4.265092,38,Tripod,
158200,2022-08-12 04:46:59,0,0,4.265092,,,4.2651248084,3.937008,0,0,0,0,0,8.247,4.2651248084,4.265092,0,0,0,0,0,24.2, 0.3, 0.5,0,0,1024,1024,1024,1024,0,0,0,0,26.8,0,0,87,4.128,4.117,0,0,0,0,4.204,88.88,4.2651248084,4.265092,38,Tripod,
158300,2022-08-12 04:47:00,0,0,4.265092,,,4.2651248084,3.937008,0,0,0,0,0,8.247,4.2651248084,4.265092,0,0,0,0,0,24.1, 0.2, 0.3,0,0,1024,1024,1024,1213,0,0,0,29,26.8,0,0,87,4.128,4.117,0,0,0,0,4.204,88.88,4.2651248084,4.265092,38,Tripod,
158400,2022-08-12 04:47:00,0,0,4.265092,,,4.2651248084,3.937008,0,0,0,0,0,8.247,4.2651248084,4.265092,0,0,0,0,0,24.2, 0.5, 0.4,0,0,1024,1024,1024,1678,0,0,0,99,26.8,0,0,87,4.128,4.117,0,0,0,0,4.204,88.88,4.2651248084,4.265092,38,Tripod,
158500,2022-08-12 04:47:00,0,0,4.265092,,,4.2651248084,3.937008,0,0,0,0,0,8.245,4.2651248084,4.265092,0,0,0,0,0,24.3, 0.5, 0.5,0,0,1024,1024,1024,1684,0,0,0,100,27.1,0,0,87,4.127,4.116,0,0,0,0,4.212,88.88,4.2651248084,4.265092,38,Tripod,
158600,2022-08-12 04:47:00,0,0,4.265092,,,4.2651248084,3.937008,0,0,0,0,0,8.245,4.2651248084,4.265092,0,0,0,0,0,24.9, 0.5, 0.3,0,0,1024,1024,1024,1684,0,0,0,100,28.2,0,0,87,4.127,4.116,0,0,0,0,4.212,88.88,4.2651248084,4.265092,38,Tripod,
158700,2022-08-12 04:47:00,0,0,4.265092,,,4.2651248084,3.937008,0,0,0,0,0,8.245,4.2651248084,4.265092,0,0,0,0,0,26.4, 0.5, 0.5,0,0,1024,1024,1024,1684,0,0,0,100,30.2,0,0,87,4.127,4.116,0,0,0,0,4.212,88.88,4.2651248084,4.265092,38,Tripod,
158800,2022-08-12 04:47:00,0,0,4.265092,,,4.2651248084,3.937008,0,0,0,0,0,8.245,4.2651248084,4.265092,0,0,0,0,0,28.4, 0.3, 0.4,0,0,1024,1024,1024,1684,0,0,0,100,32.4,0,0,87,4.127,4.116,0,0,0,0,4.212,88.88,4.2651248084,4.265092,38,Tripod,
158900,2022-08-12 04:47:00,0,0,4.265092,,,4.2651248084,3.937008,0,0,0,0,0,8.245,4.2651248084,4.265092,0,0,0,0,0,30.6, 0.5, 0.4,0,0,1024,1024,1024,1684,0,0,0,100,34.8,0,0,87,4.127,4.116,0,0,0,0,4.212,88.88,4.2651248084,4.265092,38,Tripod,
159000,2022-08-12 04:47:00,0,0,4.265092,,,4.2651248084,3.937008,0,0,0,0,0,8.245,4.2651248084,4.265092,0,0,0,0,0,32.9, 0.4, 0.3,0,0,1024,1024,1024,1684,0,0,0,100,37.2,0,0,87,4.127,4.116,0,0,0,0,4.212,88.88,4.2651248084,4.265092,38,Tripod,
159100,2022-08-12 04:47:00,0,0,4.265092,,,4.2651248084,3.937008,0,0,0,0,0,8.245,4.2651248084,4.265092,0,0,0,0,0,35.3, 0.4, 0,0,0,1024,1024,1024,1684,0,0,0,100,39.6,0,0,87,4.127,4.116,0,0,0,0,4.212,88.88,4.2651248084,4.265092,38,Tripod,
159200,2022-08-12 04:47:00,0,0,4.265092,,,4.2651248084,3.937008,0,0,0,0,0,8.245,4.2651248084,4.265092,0,0,0,0,0,37.7, 0.4, 0.1,0,0,1024,1024,1024,1684,0,0,0,100,42,0,0,87,4.127,4.116,0,0,0,0,4.212,88.88,4.2651248084,4.265092,38,Tripod,
159300,2022-08-12 04:47:01,0,0,4.265092,,,4.2651248084,3.937008,0,0,0,0,0,8.245,4.2651248084,4.265092,0,0,0,0,0,40.1, 0.3, 0.1,0,0,1024,1024,1024,1684,0,0,0,100,44.4,0,0,87,4.127,4.116,0,0,0,0,4.212,88.88,4.2651248084,4.265092,38,Tripod,
159400,2022-08-12 04:47:01,0,0,4.265092,,,4.2651248084,3.937008,0,0,0,0,0,8.245,4.2651248084,4.265092,0,0,0,0,0,42.4, 0, 0,0,0,1024,1024,1024,1684,0,0,0,100,46.8,0,0,87,4.127,4.116,0,0,0,0,4.212,88.88,4.2651248084,4.265092,38,Tripod,
159500,2022-08-12 04:47:01,0,0,4.265092,,,4.2651248084,3.937008,0,0,0,0,0,8.244,4.2651248084,4.265092,0,0,0,0,0,44.8, 0, 0.1,0,0,1024,1024,1024,1684,0,0,0,100,49.2,0,0,87,4.127,4.115,0,0,0,0,4.166,89.06,4.2651248084,4.265092,38,Tripod,
159600,2022-08-12 04:47:01,0,0,4.265092,,,4.2651248084,3.937008,0,0,0,0,0,8.244,4.2651248084,4.265092,0,0,0,0,0,47.3, 0.2, 0.3,0,0,1024,1024,1024,1684,0,0,0,100,51.6,0,0,87,4.127,4.115,0,0,0,0,4.166,89.06,4.2651248084,4.265092,38,Tripod,
159700,2022-08-12 04:47:01,0,0,4.265092,,,4.2651248084,3.937008,0,0,0,0,0,8.244,4.2651248084,4.265092,0,0,0,0,0,49.6, 0.3, 0.1,0,0,1024,1024,1024,1684,0,0,0,100,54,0,0,87,4.127,4.115,0,0,0,0,4.166,89.06,4.2651248084,4.265092,38,Tripod,
159800,2022-08-12 04:47:01,0,0,4.265092,,,4.2651248084,3.937008,0,0,0,0,0,8.244,4.2651248084,4.265092,0,0,0,0,0,52, 0.1, 0.5,0,0,1024,1024,1024,1684,0,0,0,100,56.3,0,0,87,4.127,4.115,0,0,0,0,4.166,89.06,4.2651248084,4.265092,38,Tripod,
159900,2022-08-12 04:47:01,0,0,4.265092,,,4.2651248084,3.937008,0,0,0,0,0,8.244,4.2651248084,4.265092,0,0,0,0,0,54.5, 0, 0.5,0,0,1024,1024,1024,1684,0,0,0,100,58.7,0,0,87,4.127,4.115,0,0,0,0,4.166,89.06,4.2651248084,4.265092,38,Tripod,
160000,2022-08-12 04:47:01,0,0,4.265092,,,4.2651248084,3.937008,0,0,0,0,0,8.244,4.2651248084,4.265092,0,0,0,0,0,56.9, 0.1, 0.6,0,0,1024,1024,1024,1684,0,0,0,100,61.1,0,0,87,4.127,4.115,0,0,0,0,4.166,89.06,4.2651248084,4.265092,38,Tripod,
160100,2022-08-12 04:47:01,0,0,4.265092,,,4.2651248084,3.937008,0,0,0,0,0,8.244,4.2651248084,4.265092,0,0,0,0,0,59.2, 0.2, 0.3,0,0,1024,1024,1024,1684,0,0,0,100,63.5,0,0,87,4.127,4.115,0,0,0,0,4.166,89.06,4.2651248084,4.265092,38,Tripod,
160200,2022-08-12 04:47:01,0,0,4.265092,,,4.2651248084,3.937008,0,0,0,0,0,8.244,4.2651248084,4.265092,0,0,0,0,0,61.7, 0.4, 0.1,0,0,1024,1024,1024,1684,0,0,0,100,65.9,0,0,87,4.127,4.115,0,0,0,0,4.166,89.06,4.2651248084,4.265092,38,Tripod,
160300,2022-08-12 04:47:02,0,0,4.265092,,,4.2651248084,3.937008,0,0,0,0,0,8.244,4.2651248084,4.265092,0,0,0,0,0,64.1, 0.2, 0.2,0,0,1024,1024,1024,1684,0,0,0,100,68.3,0,0,87,4.127,4.115,0,0,0,0,4.166,89.06,4.2651248084,4.265092,38,Tripod,
160400,2022-08-12 04:47:02,0,0,4.265092,,,4.2651248084,3.937008,0,0,0,0,0,8.244,4.2651248084,4.265092,0,0,0,0,0,66.5, 0.1, 0.4,0,0,1024,1024,1024,1684,0,0,0,100,70.7,0,0,87,4.127,4.115,0,0,0,0,4.166,89.06,4.2651248084,4.265092,38,Tripod,
160500,2022-08-12 04:47:02,0,0,4.265092,,,4.2651248084,3.937008,0,0,0,0,0,8.238,4.2651248084,4.265092,0,0,0,0,0,68.9, 0.1, 0.5,0,0,1024,1024,1024,1684,0,0,0,100,73.1,0,0,87,4.125,4.112,0,0,0,0,4.201,89.06,4.2651248084,4.265092,38,Tripod,
160600,2022-08-12 04:47:02,0,0,4.265092,,,4.2651248084,3.937008,0,0,0,0,0,8.238,4.2651248084,4.265092,0,0,0,0,0,71.3, 0.1, 0.6,0,0,1024,1024,1024,1684,0,0,0,100,75.5,0,0,87,4.125,4.112,0,0,0,0,4.201,89.06,4.2651248084,4.265092,38,Tripod,
160700,2022-08-12 04:47:02,0,0,4.265092,,,4.2651248084,3.937008,0,0,0,0,0,8.238,4.2651248084,4.265092,0,0,0,0,0,73.7, 0.1, 0.6,0,0,1024,1024,1024,1684,0,0,0,100,77.9,0,0,87,4.125,4.112,0,0,0,0,4.201,89.06,4.2651248084,4.265092,38,Tripod,
160800,2022-08-12 04:47:02,0,0,4.265092,,,4.2651248084,3.937008,0,0,0,0,0,8.238,4.2651248084,4.265092,0,0,0,0,0,76.1, 0.2, 0.6,0,0,1024,1024,1024,1684,0,0,0,100,80.3,0,0,87,4.125,4.112,0,0,0,0,4.201,89.06,4.2651248084,4.265092,38,Tripod,
160900,2022-08-12 04:47:02,0,0,4.265092,,,4.2651248084,3.937008,0,0,0,0,0,8.238,4.2651248084,4.265092,0,0,0,0,0,78.6, 0.3, 0.5,0,0,1024,1024,1024,1684,0,0,0,100,82.7,0,0,87,4.125,4.112,0,0,0,0,4.201,89.06,4.2651248084,4.265092,38,Tripod,
161000,2022-08-12 04:47:02,0,0,4.265092,,,4.2651248084,3.937008,0,0,0,0,0,8.238,4.2651248084,4.265092,0,0,0,0,0,80.9, 0.3, 0.8,0,0,1024,1024,1024,1684,0,0,0,100,85.1,0,0,87,4.125,4.112,0,0,0,0,4.201,89.06,4.2651248084,4.265092,38,Tripod,
161100,2022-08-12 04:47:02,0,0,4.265092,,,4.2651248084,3.937008,0,0,0,0,0,8.238,4.2651248084,4.265092,0,0,0,0,0,83.3, 0.4, 0.8,0,0,1024,1024,1024,1684,0,0,0,100,87.5,0,0,87,4.125,4.112,0,0,0,0,4.201,89.06,4.2651248084,4.265092,38,Tripod,
161200,2022-08-12 04:47:02,0,0,4.265092,,,4.2651248084,3.937008,0,0,0,0,0,8.238,4.2651248084,4.265092,0,0,0,0,0,85.8, 0.2, 0.5,0,0,1024,1024,1024,1684,0,0,0,100,89.9,0,0,87,4.125,4.112,0,0,0,0,4.201,89.06,4.2651248084,4.265092,38,Tripod,
161300,2022-08-12 04:47:03,0,0,4.265092,,,4.2651248084,3.937008,0,0,0,0,0,8.238,4.2651248084,4.265092,0,0,0,0,0,88.2, 0.2, 0.4,0,0,1024,1024,1024,1684,0,0,0,100,92.3,0,0,87,4.125,4.112,0,0,0,0,4.201,89.06,4.2651248084,4.265092,38,Tripod,
161400,2022-08-12 04:47:03,0,0,4.265092,,,4.2651248084,3.937008,0,0,0,0,0,8.238,4.2651248084,4.265092,0,0,0,0,0,90.6, 0.1, 0.3,0,0,1024,1024,1024,1684,0,0,0,100,94.7,0,0,87,4.125,4.112,0,0,0,0,4.201,89.06,4.2651248084,4.265092,38,Tripod,
161500,2022-08-12 04:47:03,0,0,4.265092,,,4.2651248084,3.937008,0,0,0,0,0,8.238,4.2651248084,4.265092,0,0,0,0,0,93, 0.1, 0.3,0,0,1024,1024,1024,1684,0,0,0,100,97.1,0,0,87,4.125,4.112,0,0,0,0,4.201,89.06,4.2651248084,4.265092,38,Tripod,
161600,2022-08-12 04:47:03,0,0,4.265092,,,4.2651248084,3.937008,0,0,0,0,0,8.237,4.2651248084,4.265092,0,0,0,0,0,95.4, 0.2, 0,0,0,1024,1024,1024,1684,0,0,0,100,99.5,0,0,87,4.124,4.111,0,0,0,0,4.163,89.06,4.2651248084,4.265092,38,Tripod,
161700,2022-08-12 04:47:03,0,0,4.265092,,,4.2651248084,3.937008,0,0,0,0,0,8.237,4.2651248084,4.265092,0,0,0,0,0,97.8, 0.2, 0.2,0,0,1024,1024,1024,1684,0,0,0,100,101.9,0,0,87,4.124,4.111,0,0,0,0,4.163,89.06,4.2651248084,4.265092,38,Tripod,
161800,2022-08-12 04:47:03,0,0,4.265092,,,4.2651248084,3.937008,0,0,0,0,0,8.237,4.2651248084,4.265092,0,0,0,0,0,100.2, 0.2, 0.1,0,0,1024,1024,1024,1684,0,0,0,100,104.3,0,0,87,4.124,4.111,0,0,0,0,4.163,89.06,4.2651248084,4.265092,38,Tripod,
161900,2022-08-12 04:47:03,0,0,4.265092,,,4.2651248084,3.937008,0,0,0,0,0,8.237,4.2651248084,4.265092,0,0,0,0,0,102.5, 0.3, 0.1,0,0,1024,1024,1024,1684,0,0,0,100,106.7,0,0,87,4.124,4.111,0,0,0,0,4.163,89.06,4.2651248084,4.265092,38,Tripod,
162000,2022-08-12 04:47:03,0,0,4.265092,,,4.2651248084,3.937008,0,0,0,0,0,8.237,4.2651248084,4.265092,0,0,0,0,0,105, 0.4, 0.1,0,0,1024,1024,1024,1684,0,0,0,100,109.1,0,0,87,4.124,4.111,0,0,0,0,4.163,89.06,4.2651248084,4.265092,38,Tripod,
162100,2022-08-12 04:47:03,0,0,4.265092,,,4.2651248084,3.937008,0,0,0,0,0,8.237,4.2651248084,4.265092,0,0,0,0,0,107.4, 0.4, 0.2,0,0,1024,1024,1024,1684,0,0,0,100,111.5,0,0,87,4.124,4.111,0,0,0,0,4.163,89.06,4.2651248084,4.265092,38,Tripod,
162200,2022-08-12 04:47:03,0,0,4.265092,,,4.2651248084,3.937008,0,0,0,0,0,8.237,4.2651248084,4.265092,0,0,0,0,0,109.8, 0.3, 0.1,0,0,1024,1024,1024,1684,0,0,0,100,113.9,0,0,87,4.124,4.111,0,0,0,0,4.163,89.06,4.2651248084,4.265092,38,Tripod,
162300,2022-08-12 04:47:04,0,0,4.265092,,,4.2651248084,3.937008,0,0,0,0,0,8.237,4.2651248084,4.265092,0,0,0,0,0,112.2, 0.3, 0.1,0,0,1024,1024,1024,1684,0,0,0,100,116.3,0,0,87,4.124,4.111,0,0,0,0,4.163,89.06,4.2651248084,4.265092,38,Tripod,
162400,2022-08-12 04:47:04,0,0,4.265092,,,4.2651248084,3.937008,0,0,0,0,0,8.237,4.2651248084,4.265092,0,0,0,0,0,114.7, 0.1, -0.2,0,0,1024,1024,1024,1684,0,0,0,100,118.7,0,0,87,4.124,4.111,0,0,0,0,4.163,89.06,4.2651248084,4.265092,38,Tripod,
162500,2022-08-12 04:47:04,0,0,4.265092,,,4.2651248084,3.937008,0,0,0,0,0,8.237,4.2651248084,4.265092,0,0,0,0,0,117.1, 0, -0.2,0,0,1024,1024,1024,1684,0,0,0,100,121.1,0,0,87,4.124,4.111,0,0,0,0,4.163,89.06,4.2651248084,4.265092,38,Tripod,
162600,2022-08-12 04:47:04,0,0,4.265092,,,4.2651248084,3.937008,0,0,0,0,0,8.233,4.2651248084,4.265092,0,0,0,0,0,119.5, 0.1, 0,0,0,1024,1024,1024,1684,0,0,0,100,123.5,0,0,87,4.122,4.109,0,0,0,0,4.18,89.24,4.2651248084,4.265092,38,Tripod,
162700,2022-08-12 04:47:04,0,0,4.265092,,,4.2651248084,3.937008,0,0,0,0,0,8.233,4.2651248084,4.265092,0,0,0,0,0,121.8, 0, 0.2,0,0,1024,1024,1024,1684,0,0,0,100,125.9,0,0,87,4.122,4.109,0,0,0,0,4.18,89.24,4.2651248084,4.265092,38,Tripod,
162800,2022-08-12 04:47:04,0,0,4.265092,,,4.2651248084,3.937008,0,0,0,0,0,8.233,4.2651248084,4.265092,0,0,0,0,0,124.2, 0.1, 0.2,0,0,1024,1024,1024,1684,0,0,0,100,128.3,0,0,87,4.122,4.109,0,0,0,0,4.18,89.24,4.2651248084,4.265092,38,Tripod,
162900,2022-08-12 04:47:04,0,0,4.265092,,,4.2651248084,3.937008,0,0,0,0,0,8.233,4.2651248084,4.265092,0,0,0,0,0,126.5, 0, 0,0,0,1024,1024,1024,1684,0,0,0,100,130.7,0,0,87,4.122,4.109,0,0,0,0,4.18,89.24,4.2651248084,4.265092,38,Tripod,
163000,2022-08-12 04:47:04,0,0,4.265092,,,4.2651248084,3.937008,0,0,0,0,0,8.233,4.2651248084,4.265092,0,0,0,0,0,128.9, 0.2, 0,0,0,1024,1024,1024,1684,0,0,0,100,133.1,0,0,87,4.122,4.109,0,0,0,0,4.18,89.24,4.2651248084,4.265092,38,Tripod,
163100,2022-08-12 04:47:04,0,0,4.265092,,,4.2651248084,3.937008,0,0,0,0,0,8.233,4.2651248084,4.265092,0,0,0,0,0,131.3, 0.2, 0,0,0,1024,1024,1024,1684,0,0,0,100,135.5,0,0,87,4.122,4.109,0,0,0,0,4.18,89.24,4.2651248084,4.265092,38,Tripod,
163200,2022-08-12 04:47:04,0,0,4.265092,,,4.2651248084,3.937008,0,0,0,0,0,8.233,4.2651248084,4.265092,0,0,0,0,0,133.7, 0.3, 0.1,0,0,1024,1024,1024,1684,0,0,0,100,137.9,0,0,87,4.122,4.109,0,0,0,0,4.18,89.24,4.2651248084,4.265092,38,Tripod,
163300,2022-08-12 04:47:04,0,0,4.265092,,,4.2651248084,3.937008,0,0,0,0,0,8.233,4.2651248084,4.265092,0,0,0,0,0,136.1, 0.2, -0.1,0,0,1024,1024,1024,1684,0,0,0,100,140.3,0,0,87,4.122,4.109,0,0,0,0,4.18,89.24,4.2651248084,4.265092,38,Tripod,
163400,2022-08-12 04:47:05,0,0,4.265092,,,4.2651248084,3.937008,0,0,0,0,0,8.233,4.2651248084,4.265092,0,0,0,0,0,138.5, 0.2, 0,0,0,1024,1024,1024,1684,0,0,0,100,142.7,0,0,87,4.122,4.109,0,0,0,0,4.18,89.24,4.2651248084,4.265092,38,Tripod,
163500,2022-08-12 04:47:05,0,0,4.265092,,,4.2651248084,3.937008,0,0,0,0,0,8.233,4.2651248084,4.265092,0,0,0,0,0,141, 0.1, 0,0,0,1024,1024,1024,1684,0,0,0,100,145.1,0,0,87,4.122,4.109,0,0,0,0,4.18,89.24,4.2651248084,4.265092,38,Tripod,
163600,2022-08-12 04:47:05,0,0,4.265092,,,4.2651248084,3.937008,0,0,0,0,0,8.231,4.2651248084,4.265092,0,0,0,0,0,143.3, 0.1, 0.2,0,0,1024,1024,1024,1684,0,0,0,100,147.5,0,0,87,4.121,4.109,0,0,0,0,4.195,89.24,4.2651248084,4.265092,38,Tripod,
163700,2022-08-12 04:47:05,0,0,4.265092,,,4.2651248084,3.937008,0,0,0,0,0,8.231,4.2651248084,4.265092,0,0,0,0,0,145.7, 0.1, 0,0,0,1024,1024,1024,1684,0,0,0,100,149.9,0,0,87,4.121,4.109,0,0,0,0,4.195,89.24,4.2651248084,4.265092,38,Tripod,
163800,2022-08-12 04:47:05,0,0,4.265092,,,4.2651248084,3.937008,0,0,0,0,0,8.231,4.2651248084,4.265092,0,0,0,0,0,148.1, 0.1, 0,0,0,1024,1024,1024,1684,0,0,0,100,152.3,0,0,87,4.121,4.109,0,0,0,0,4.195,89.24,4.2651248084,4.265092,38,Tripod,
163900,2022-08-12 04:47:05,0,0,4.265092,,,4.2651248084,3.937008,0,0,0,0,0,8.231,4.2651248084,4.265092,0,0,0,0,0,150.6, 0.2, 0.1,0,0,1024,1024,1024,1684,0,0,0,100,154.7,0,0,87,4.121,4.109,0,0,0,0,4.195,89.24,4.2651248084,4.265092,38,Tripod,
164000,2022-08-12 04:47:05,0,0,4.265092,,,4.2651248084,3.937008,0,0,0,0,0,8.231,4.2651248084,4.265092,0,0,0,0,0,153, 0.2, 0.1,0,0,1024,1024,1024,1684,0,0,0,100,157.1,0,0,87,4.121,4.109,0,0,0,0,4.195,89.24,4.2651248084,4.265092,38,Tripod,
164100,2022-08-12 04:47:05,0,0,4.265092,,,4.2651248084,3.937008,0,0,0,0,0,8.231,4.2651248084,4.265092,0,0,0,0,0,155.4, 0.1, 0,0,0,1024,1024,1024,1684,0,0,0,100,159.5,0,0,87,4.121,4.109,0,0,0,0,4.195,89.24,4.2651248084,4.265092,38,Tripod,
