time(millisecond),datetime(utc),latitude,longitude,height_above_takeoff(feet),height_above_ground_at_drone_location(feet),ground_elevation_at_drone_location(feet),altitude_above_seaLevel(feet),height_sonar(feet),speed(mph),distance(feet),mileage(feet),satellites,gpslevel,voltage(v),max_altitude(feet),max_ascent(feet),max_speed(mph),max_distance(feet), xSpeed(mph), ySpeed(mph), zSpeed(mph), compass_heading(degrees), pitch(degrees), roll(degrees),isPhoto,isVideo,rc_elevator,rc_aileron,rc_throttle,rc_rudder,rc_elevator(percent),rc_aileron(percent),rc_throttle(percent),rc_rudder(percent),gimbal_heading(degrees),gimbal_pitch(degrees),gimbal_roll(degrees),battery_percent,voltageCell1,voltageCell2,voltageCell3,voltageCell4,voltageCell5,voltageCell6,current(A),battery_temperature(f),altitude(feet),ascent(feet),flycStateRaw,flycState,message
755300,2022-08-28 21:17:09,-34.9101719978246,-56.1343190035919,247.047252,247.047252,61.342212592872,288.90127499287,18.700788,0,0,0,22,5,0,288.90127499287,247.047252,0,0,0,0,0,241.9, -11.4, -2.7,0,0,1024,1024,1024,1024,0,0,0,0,259.2,-60,0,45,3.741,3.725,0,0,0,0,0,88.7,288.90127499287,247.047252,31,Sport,
755400,2022-08-28 21:17:09,-34.9101719352142,-56.1343189795221,247.047252,247.047252,61.342212592872,288.90127499287,18.700788,0,0.0239516739948,0.0239516739948,22,5,0,288.90127499287,247.047252,0,0.0239516739948,0,0,0,242.1, -12.9, -2.5,0,0,1024,1024,1024,1024,0,0,0,0,259.2,-60,0,45,3.741,3.725,0,0,0,0,0,88.7,288.90127499287,247.047252,31,Sport,
755500,2022-08-28 21:17:09,-34.9101716939179,-56.134318915336,247.047252,247.047252,61.342212592872,288.90127499287,18.700788,0,0.113980974776,0.114058730684,22,5,0,288.90127499287,247.047252,0,0.113980974776,0,0,0,241.9, -11.4, -3.4,0,0,1024,1024,1024,1024,0,0,0,0,259.2,-60,0,45,3.741,3.725,0,0,0,0,0,88.7,288.90127499287,247.047252,31,Sport,
755600,2022-08-28 21:17:09,-34.9101716425112,-56.1343189387372,247.047252,247.047252,61.342212592872,288.90127499287,18.700788,0,0.131080056688,0.134078744448,22,5,0,288.90127499287,247.047252,0,0.131080056688,0,0,0,241.9, -11.3, -3.3,0,0,1024,1024,1024,1024,0,0,0,0,259.2,-60,0,45,3.741,3.725,0,0,0,0,0,88.7,288.90127499287,247.047252,31,Sport,
755700,2022-08-28 21:17:09,-34.9101715995984,-56.134318962807,247.047252,247.047252,61.342212592872,288.90127499287,18.700788,0,0.145804138524,0.1513123408,22,5,0,288.90127499287,247.047252,0,0.145804138524,0,0,0,241.9, -10.9, -2.9,0,0,1024,1024,1024,1024,0,0,0,0,259.2,-60,0,45,3.741,3.725,0,0,0,0,0,88.7,288.90127499287,247.047252,31,Sport,
755800,2022-08-28 21:17:09,-34.9101715813338,-56.1343190035919,247.047252,247.047252,61.342212592872,288.90127499287,18.700788,0,0.151956369692,0.165215884552,22,5,0,288.90127499287,247.047252,0,0.151956369692,0,0,0,242, -11.5, -3.1,0,0,1024,1024,1024,1024,0,0,0,0,259.2,-60,0,45,3.741,3.725,0,0,0,0,0,88.7,288.90127499287,247.047252,31,Sport,
755900,2022-08-28 21:17:09,-34.9101715623917,-56.1343191302925,247.047252,247.047252,61.342212592872,288.90127499287,18.700788,0,0.163327433048,0.203748694184,23,5,0,288.90127499287,247.047252,0,0.163327433048,0,0,0,242, -11.5, -3,0,0,1024,1024,1024,1024,0,0,0,0,259.2,-60,0,45,3.741,3.725,0,0,0,0,0,88.7,288.90127499287,247.047252,31,Sport,
756000,2022-08-28 21:17:09,-34.9101715913129,-56.1343191500164,247.047252,247.047252,61.342212592872,288.90127499287,18.700788,0,0.1546505955,0.215838917668,23,5,0,288.90127499287,247.047252,0,0.163327433048,0,0,0.223694,242.1, -12, -2.5,0,0,1024,1024,1024,1024,0,0,0,0,259.2,-60,0,45,3.741,3.725,0,0,0,0,0,88.7,288.90127499287,247.047252,31,Sport,
756100,2022-08-28 21:17:09,-34.9101716106458,-56.1343191690716,247.047252,247.047252,61.342212592872,288.90127499287,18.700788,0,0.149687340748,0.224908471764,23,5,0,288.90127499287,247.047252,0,0.163327433048,0,0,0.223694,242, -11, -2.7,0,0,1024,1024,1024,1024,0,0,0,0,259.2,-60,0,45,3.741,3.725,0,0,0,0,0,88.7,288.90127499287,247.047252,31,Sport,
756200,2022-08-28 21:17:09,-34.910171585711,-56.1343191643914,247.047252,247.047252,61.342212592872,288.90127499287,18.700788,0,0.157868771456,0.234112868384,23,5,0,288.90127499287,247.047252,0,0.163327433048,0,0,0,242, -11.2, -2.5,0,0,1024,1024,1024,1024,0,0,0,0,259.2,-60,0,45,3.741,3.725,0,0,0,0,0,88.7,288.90127499287,247.047252,31,Sport,"Setting new Return-To-Home altitude to 100m (328 ft). Data Recorder File Index is 24. Setting new Maximum Flight Altitude to 120m (394 ft)"
756300,2022-08-28 21:17:09,-34.9101716159089,-56.1343191747548,247.047252,247.047252,61.342212592872,288.90127499287,18.700788,0,1392.798601,0.245558734892,23,5,0,288.90127499287,247.047252,0,1392.798601,0,0,0,242.1, -11.2, -2.7,0,0,1024,1024,1024,1024,0,0,0,0,259.2,-60,0,45,3.741,3.725,0,0,0,0,0,88.7,288.90127499287,247.047252,31,Sport,
756400,2022-08-28 21:17:10,-34.9101715789107,-56.1343191921385,247.047252,247.047252,61.342212592872,288.90127499287,18.700788,0,1392.79532016,0.26002461462,23,5,7.471,288.90127499287,247.047252,0,1392.798601,0,0,0,242.3, -11.5, -2.5,0,0,1024,1024,1024,1024,0,0,0,0,259.2,-60,0,45,3.743,3.728,0,0,0,0,3.653,88.7,288.90127499287,247.047252,31,Sport,
756500,2022-08-28 21:17:10,-34.9101715569462,-56.134319230249,247.047252,247.047252,61.342212592872,288.90127499287,18.700788,0,1392.7821968,0.27396162294,23,5,7.471,288.90127499287,247.047252,0,1392.798601,0,0,0,242.3, -11.9, -2.8,0,0,1024,1024,1024,1024,0,0,0,0,259.2,-60,0,45,3.743,3.728,0,0,0,0,3.653,88.7,288.90127499287,247.047252,31,Sport,
756600,2022-08-28 21:17:10,-34.9101715856589,-56.134319313156,247.047252,247.047252,61.342212592872,288.90127499287,18.700788,0,1392.75923092,0.300888132988,23,5,7.471,288.90127499287,247.047252,0,1392.798601,0,0,0,242.1, -11.5, -3.2,0,0,1024,1024,1024,1024,0,0,0,0,259.2,-60,0,45,3.743,3.728,0,0,0,0,3.653,88.7,288.90127499287,247.047252,31,Sport,
756700,2022-08-28 21:17:10,-34.9101715999111,-56.1343193994061,247.047252,247.047252,61.342212592872,288.90127499287,18.700788,0,1392.7329842,0.327212608896,23,5,7.471,288.90127499287,247.047252,0,1392.798601,0,0,0.223694,242.1, -10.6, -3.2,0,0,1024,1024,1024,1024,0,0,0,0,259.2,-60,0,45,3.743,3.728,0,0,0,0,3.653,88.7,288.90127499287,247.047252,31,Sport,
756800,2022-08-28 21:17:10,-34.9101716270084,-56.1343194518916,247.047252,247.047252,61.342212592872,288.90127499287,18.700788,0,1392.71658,0.3457677276,23,5,7.471,288.90127499287,247.047252,0,1392.798601,0,0,0.223694,242.1, -10.1, -3.6,0,0,1024,1024,1024,1024,0,0,0,0,259.2,-60,0,45,3.743,3.728,0,0,0,0,3.653,88.7,288.90127499287,247.047252,31,Sport,
756900,2022-08-28 21:17:10,-34.9101716404007,-56.1343195284468,247.047252,247.0144436,61.375020992872,288.90127499287,18.700788,0,1392.69033328,0.36918964436,23,5,7.471,288.90127499287,247.047252,0,1392.798601,0,0,0,242.1, -10.1, -4.2,0,0,1024,1024,1024,1024,0,0,0,0,259.2,-60,0,45,3.743,3.728,0,0,0,0,3.653,88.7,288.90127499287,247.047252,31,Sport,
757000,2022-08-28 21:17:10,-34.9101716813072,-56.1343196688539,247.047252,247.0144436,61.375020992872,288.90127499287,18.700788,0,1392.64768236,0.41376969828,23,5,7.471,288.90127499287,247.047252,0,1392.798601,0,0,0,242.2, -10.7, -4,0,0,1024,1024,1024,1024,0,0,0,0,259.2,-60,0,45,3.743,3.728,0,0,0,0,3.653,88.7,288.90127499287,247.047252,31,Sport,
757100,2022-08-28 21:17:10,-34.9101717122607,-56.1343197775022,247.047252,247.0144436,61.375020992872,288.90127499287,18.700788,0,1392.61487396,0.44818242904,23,5,7.471,288.90127499287,247.047252,0,1392.798601,0,0,0,242.2, -11.2, -4.1,0,0,1024,1024,1024,1024,0,0,0,0,259.2,-60,0,45,3.743,3.728,0,0,0,0,3.653,88.7,288.90127499287,247.047252,31,Sport,
757200,2022-08-28 21:17:10,-34.9101718247145,-56.134319957357,247.047252,247.0144436,61.375020992872,288.90127499287,18.700788,0,1392.55909968,0.51585303488,23,5,7.471,288.90127499287,247.047252,0,1392.798601,0,0,0,242.2, -11.3, -4.3,0,0,1024,1024,1024,1024,0,0,0,0,259.2,-60,0,45,3.743,3.728,0,0,0,0,3.653,88.7,288.90127499287,247.047252,31,Sport,
757300,2022-08-28 21:17:10,-34.9101718373773,-56.1343200208744,247.375336,247.3425276,61.375020992872,289.22935899287,18.700788,0,1392.53941464,0.53541012212,23,5,7.471,289.22935899287,247.375336,0,1392.798601,0,0,0,242.2, -11.3, -4.4,0,0,1024,1024,1024,1024,0,0,0,0,259.2,-60,0,45,3.737,3.724,0,0,0,0,3.653,88.7,289.22935899287,247.375336,31,Sport,
757400,2022-08-28 21:17:11,-34.9101718202852,-56.1343200533018,247.375336,247.3425276,61.375020992872,289.22935899287,18.700788,0,1392.52957212,0.54694227472,23,5,7.471,289.22935899287,247.375336,0,1392.798601,0,0,0,242.3, -11.6, -4.4,0,0,1024,1024,1024,1024,0,0,0,0,259.2,-60,0,45,3.737,3.724,0,0,0,0,3.653,88.7,289.22935899287,247.375336,31,Sport,N/A
757500,2022-08-28 21:17:11,-34.9101717986334,-56.1343200750314,247.375336,247.3425276,61.375020992872,289.22935899287,18.700788,0,1392.52301044,0.55717521468,23,5,7.471,289.22935899287,247.375336,0,1392.798601,0,0,0,242.3, -11.6, -4.6,0,0,1024,1024,1024,1024,0,0,0,0,259.2,-60,0,45,3.737,3.724,0,0,0,0,3.653,88.7,289.22935899287,247.375336,31,Sport,
757600,2022-08-28 21:17:11,-34.9101716227614,-56.1343200125169,247.375336,247.3425276,61.375020992872,289.22935899287,18.700788,0,1392.54925716,0.62401248716,23,5,7.471,289.22935899287,247.375336,0,1392.798601,0,0,0,242.3, -11.8, -4.7,0,0,1024,1024,1024,1024,0,0,0,0,259.2,-60,0,45,3.737,3.724,0,0,0,0,3.653,88.7,289.22935899287,247.375336,31,Sport,
757700,2022-08-28 21:17:11,-34.9101715674985,-56.1343199934616,247.375336,247.3425276,61.375020992872,289.22935899287,18.700788,0,1392.55581884,0.6449639314,23,5,7.471,289.22935899287,247.375336,0,1392.798601,0,0,0,242.2, -11.7, -4.6,0,0,1024,1024,1024,1024,0,0,0,0,259.2,-60,0,45,3.737,3.724,0,0,0,0,3.653,88.7,289.22935899287,247.375336,31,Sport,
757800,2022-08-28 21:17:11,-34.9101715690618,-56.1343199911215,247.047252,247.0144436,61.375020992872,288.90127499287,18.700788,0,1392.55581884,0.6458661624,23,5,7.471,289.22935899287,247.375336,0,1392.798601,0,0,0,242.3, -11.5, -4.7,0,0,1024,1024,1024,1024,0,0,0,0,259.2,-60,0,45,3.737,3.724,0,0,0,0,3.653,88.7,288.90127499287,247.047252,31,Sport,
757900,2022-08-28 21:17:11,-34.9101715808909,-56.1343199907872,247.047252,247.0144436,61.375020992872,288.90127499287,18.700788,0,1392.55581884,0.65018374784,22,5,7.471,289.22935899287,247.375336,0,1392.798601,0,0,0,242.3, -11.7, -4.5,0,0,1024,1024,1024,1024,0,0,0,0,259.2,-60,0,45,3.737,3.724,0,0,0,0,3.653,88.7,288.90127499287,247.047252,31,Sport,
758000,2022-08-28 21:17:11,-34.9101714095525,-56.1343199075459,247.047252,247.0144436,61.375020992872,288.90127499287,18.700788,0,1392.5853464,0.71747705708,22,5,7.471,289.22935899287,247.375336,0,1392.798601,0,0,0.223694,242.3, -11.8, -4.4,0,0,1024,1024,1024,1024,0,0,0,0,259.2,-60,0,45,3.737,3.724,0,0,0,0,3.653,88.7,288.90127499287,247.047252,31,Sport,
758100,2022-08-28 21:17:11,-34.9101713594225,-56.1343198884906,247.047252,247.0144436,61.375020992872,288.90127499287,18.700788,0,1392.59518892,0.73663388184,22,5,7.471,289.22935899287,247.375336,0,1392.798601,0,0,0.223694,242.3, -11.8, -4.5,0,0,1024,1024,1024,1024,0,0,0,0,259.2,-60,0,45,3.737,3.724,0,0,0,0,3.653,88.7,288.90127499287,247.047252,31,Sport,N/A
758200,2022-08-28 21:17:11,-34.9101713911836,-56.1343198874877,247.047252,247.0144436,61.375020992872,288.90127499287,18.700788,0,1392.59190808,0.74822508956,22,5,7.454,289.22935899287,247.375336,0,1392.798601,0,0,0,242.2, -11.8, -4.6,0,0,1024,1024,1024,1024,0,0,0,0,259.2,-60,0,45,3.734,3.719,0,0,0,0,3.718,88.7,288.90127499287,247.047252,31,Sport,"En vuelo"
758300,2022-08-28 21:17:11,-34.9101714431375,-56.1343198948424,247.047252,247.0144436,61.375020992872,288.90127499287,18.700788,0,1392.58862724,0.76730973584,23,5,7.454,289.22935899287,247.375336,0,1392.798601,0,0,0,242.2, -11.1, -4.4,0,0,1024,1024,1024,1024,0,0,0,0,259.2,-60,0,45,3.734,3.719,0,0,0,0,3.718,88.7,288.90127499287,247.047252,31,Sport,
758400,2022-08-28 21:17:12,-34.9101716139808,-56.134319967386,246.719168,246.6863596,61.375020992872,288.57319099287,18.700788,0,1392.56238052,0.83331039412,23,5,7.454,289.22935899287,247.375336,0,1392.798601,0,0,0,242.1, -10.6, -3.9,0,0,1024,1024,1024,1024,0,0,0,0,259.2,-60,0,45,3.734,3.719,0,0,0,0,3.718,88.7,288.57319099287,246.719168,31,Sport,
758500,2022-08-28 21:17:12,-34.9101720379495,-56.1343201686361,246.719168,246.6863596,61.375020992872,288.57319099287,18.700788,0,1392.4869212,0.99930121308,23,5,7.454,289.22935899287,247.375336,0,1392.798601,0,0,0,242.2, -10.2, -3.3,0,0,1024,1024,1024,1024,0,0,0,0,259.2,-60,0,45,3.734,3.719,0,0,0,0,3.718,88.7,288.57319099287,246.719168,31,Sport,
758600,2022-08-28 21:17:12,-34.9101721396686,-56.1343202455257,246.719168,246.6863596,61.375020992872,288.57319099287,18.700788,0,1392.46067448,1.04296591264,23,5,7.454,289.22935899287,247.375336,0,1392.798601,0,0,0,242.2, -9.9, -3.6,0,0,1024,1024,1024,1024,0,0,0,0,259.2,-60,0,45,3.734,3.719,0,0,0,0,3.718,88.7,288.57319099287,246.719168,31,Sport,
758700,2022-08-28 21:17:12,-34.9101722446186,-56.1343203274298,246.719168,246.6863596,61.375020992872,288.57319099287,18.700788,0,1392.43114692,1.08842851252,22,5,7.454,289.22935899287,247.375336,0,1392.798601,0,0,0,242.1, -9.5, -3.5,0,0,1024,1024,1024,1024,0,0,0,0,259.2,-60,0,45,3.734,3.719,0,0,0,0,3.718,88.7,288.57319099287,246.719168,31,Sport,
758800,2022-08-28 21:17:12,-34.9101723446181,-56.1343204471101,246.719168,246.6863596,61.375020992872,288.57319099287,18.700788,0,1392.39505768,1.13954728056,22,5,7.454,289.22935899287,247.375336,0,1392.798601,0,0,0,242.1, -9, -3,0,0,1024,1024,1024,1024,0,0,0,0,259.2,-60,0,45,3.734,3.719,0,0,0,0,3.718,88.7,288.57319099287,246.719168,31,Sport,
758900,2022-08-28 21:17:12,-34.9101724265614,-56.1343205835056,246.391084,246.3582756,61.375020992872,288.24510699287,18.700788,0,1392.34912592,1.19013783336,21,5,7.454,289.22935899287,247.375336,0,1392.798601,0,0,0,242.1, -9.8, -3.7,0,0,1024,1024,1024,1024,0,0,0,0,259.2,-60,0,45,3.734,3.719,0,0,0,0,3.718,88.7,288.24510699287,246.391084,31,Sport,
759000,2022-08-28 21:17:12,-34.9101724896668,-56.1343206817905,246.391084,246.3582756,61.375020992872,288.24510699287,18.700788,0,1392.31959836,1.22748363508,21,5,7.454,289.22935899287,247.375336,0,1392.798601,0,0,0,242.1, -8.8, -3.6,0,0,1024,1024,1024,1024,0,0,0,0,259.2,-60,0,45,3.734,3.719,0,0,0,0,3.718,88.7,288.24510699287,246.391084,31,Sport,
759100,2022-08-28 21:17:12,-34.9101725434706,-56.134320759683,246.391084,246.391084,61.342212592872,288.24510699287,18.700788,0,1392.29335164,1.257956077,21,5,7.454,289.22935899287,247.375336,0,1392.798601,0,0,0,242.1, -9.3, -3.4,0,0,1024,1024,1024,1024,0,0,0,0,259.2,-60,0,45,3.734,3.719,0,0,0,0,3.718,88.7,288.24510699287,246.391084,31,Sport,
759200,2022-08-28 21:17:12,-34.9101726185354,-56.1343207944504,246.391084,246.391084,61.342212592872,288.24510699287,18.700788,0,1392.28022828,1.28725069736,21,5,7.454,289.22935899287,247.375336,0,1392.798601,0,0,0,242.4, -9.9, -3.3,0,0,1024,1024,1024,1024,0,0,0,0,259.2,-60,0,45,3.734,3.719,0,0,0,0,3.718,88.7,288.24510699287,246.391084,31,Sport,
759300,2022-08-28 21:17:12,-34.910172607957,-56.1343207887673,246.391084,246.391084,61.342212592872,288.24510699287,18.700788,0,1392.28350912,1.2914698576,21,5,7.454,289.22935899287,247.375336,0,1392.798601,0,0,0,242.2, -9.7, -3.7,0,0,1024,1024,1024,1024,0,0,0,0,259.2,-60,0,45,3.734,3.719,0,0,0,0,3.718,88.7,288.24510699287,246.391084,31,Sport,
759400,2022-08-28 21:17:13,-34.9101726387541,-56.1343208596394,246.391084,246.391084,61.342212592872,288.24510699287,18.700788,0,1392.26054324,1.31546592136,21,5,7.463,289.22935899287,247.375336,0,1392.798601,0,0,0,242.1, -8.9, -3.6,0,0,1024,1024,1024,1024,0,0,0,0,259.2,-60,0,45,3.738,3.722,0,0,0,0,3.754,88.7,288.24510699287,246.391084,31,Sport,
759500,2022-08-28 21:17:13,-34.9101726669197,-56.1343209275028,246.063,246.063,61.342212592872,287.91702299287,18.700788,0,1392.2408582,1.3382218276,21,5,7.463,289.22935899287,247.375336,0,1392.798601,0,0,0,242.2, -8.7, -3.5,0,0,1024,1024,1024,1024,0,0,0,0,259.2,-60,0,45,3.738,3.722,0,0,0,0,3.754,88.7,287.91702299287,246.063,31,Sport,
759600,2022-08-28 21:17:13,-34.9101727518854,-56.1343210191017,246.063,246.063,61.342212592872,287.91702299287,18.700788,0,1392.2080498,1.37959978168,21,5,7.463,289.22935899287,247.375336,0,1392.798601,0,0,0,242.2, -8.5, -3.2,0,0,1024,1024,1024,1024,0,0,0,0,259.2,-60,0,45,3.738,3.722,0,0,0,0,3.754,88.7,287.91702299287,246.063,31,Sport,
759700,2022-08-28 21:17:13,-34.9101728332555,-56.1343211468053,246.063,246.063,61.342212592872,287.91702299287,18.700788,0,1392.16867972,1.42798561,21,5,7.463,289.22935899287,247.375336,0,1392.798601,0,0,0,242.2, -8.5, -2.7,0,0,1024,1024,1024,1024,0,0,0,0,259.2,-60,0,45,3.738,3.722,0,0,0,0,3.754,88.7,287.91702299287,246.063,31,Sport,
759800,2022-08-28 21:17:13,-34.910172894511,-56.1343212033024,246.063,246.063,61.342212592872,287.91702299287,18.700788,0,1392.14899468,1.45600726444,21,5,7.463,289.22935899287,247.375336,0,1392.798601,0,0,-0.223694,242.4, -8.6, -2.1,0,0,1024,1024,1024,1024,0,0,0,0,259.2,-60,0,45,3.738,3.722,0,0,0,0,3.754,88.7,287.91702299287,246.063,31,Sport,
759900,2022-08-28 21:17:13,-34.9101729477677,-56.1343212698286,246.063,246.063,61.342212592872,287.91702299287,18.700788,0,1392.1260288,1.4838255068,22,5,7.463,289.22935899287,247.375336,0,1392.798601,0,0,-0.223694,242.3, -8.2, -2.2,0,0,1024,1024,1024,1024,0,0,0,0,259.2,-60,0,45,3.738,3.722,0,0,0,0,3.754,88.7,287.91702299287,246.063,31,Sport,
760000,2022-08-28 21:17:13,-34.9101730285385,-56.1343213316746,246.063,246.063,61.342212592872,287.91702299287,18.700788,0,1392.10634376,1.51862209584,22,5,7.463,289.22935899287,247.375336,0,1392.798601,0,0,-0.223694,242.4, -7.9, -2.2,0,0,1024,1024,1024,1024,0,0,0,0,259.2,-60,0,45,3.738,3.722,0,0,0,0,3.754,88.7,287.91702299287,246.063,31,Sport,
760100,2022-08-28 21:17:13,-34.9101730947706,-56.1343213838258,245.734916,245.734916,61.342212592872,287.58893899287,18.700788,0,1392.08993956,1.54738522012,22,5,7.463,289.22935899287,247.375336,0,1392.798601,0,0,-0.223694,242.5, -7.7, -2.2,0,0,1024,1024,1024,1024,0,0,0,0,259.2,-60,0,45,3.738,3.722,0,0,0,0,3.754,88.7,287.58893899287,245.734916,31,Sport,
760200,2022-08-28 21:17:13,-34.9101732280945,-56.1343214854537,245.734916,245.734916,61.342212592872,287.58893899287,18.700788,0,1392.05385032,1.60475070752,22,5,7.463,289.22935899287,247.375336,0,1392.798601,0,0,0,242.3, -8.1, -3.3,0,0,1024,1024,1024,1024,0,0,0,0,259.2,-60,0,45,3.738,3.722,0,0,0,0,3.754,88.7,287.58893899287,245.734916,31,Sport,
760300,2022-08-28 21:17:13,-34.9101732723621,-56.1343215807299,245.734916,245.7021076,61.375020992872,287.58893899287,18.700788,0,1392.02432276,1.63751317576,21,5,7.463,289.22935899287,247.375336,0,1392.798601,0,0,0,242.1, -7.4, -3.5,0,0,1024,1024,1024,1024,0,0,0,0,259.2,-60,0,45,3.738,3.722,0,0,0,0,3.754,88.7,287.58893899287,245.734916,31,Sport,
760400,2022-08-28 21:17:14,-34.9101732538891,-56.1343216144945,245.734916,245.7021076,61.375020992872,287.58893899287,18.700788,0,1392.01448024,1.64965884544,21,5,7.473,289.22935899287,247.375336,0,1392.798601,0,0,0,242, -7.4, -3.7,0,0,1024,1024,1024,1024,0,0,0,0,259.2,-60,0,45,3.749,3.735,0,0,0,0,3.471,88.7,287.58893899287,245.734916,31,Sport,
760500,2022-08-28 21:17:14,-34.9101732190013,-56.1343216221834,246.063,246.0301916,61.375020992872,287.91702299287,18.700788,0,1392.01448024,1.66259191672,22,5,7.473,289.22935899287,247.375336,0,1392.798601,0,0,0,241.9, -7.9, -3.4,0,0,1024,1024,1109,1024,0,0,13,0,259.2,-60,0,45,3.749,3.735,0,0,0,0,3.471,88.7,287.91702299287,246.063,31,Sport,
760600,2022-08-28 21:17:14,-34.9101732067554,-56.1343216091457,246.063,246.0301916,61.375020992872,287.91702299287,18.700788,0,1392.01776108,1.66852367544,22,5,7.473,289.22935899287,247.375336,0,1392.798601,0,0,0,241.8, -8.3, -3.5,0,0,1024,1024,1636,1024,0,0,93,0,259.2,-60,0,45,3.749,3.735,0,0,0,0,3.471,88.7,287.91702299287,246.063,31,Sport,
760700,2022-08-28 21:17:14,-34.9101731858071,-56.1343215884189,246.063,246.0301916,61.375020992872,287.91702299287,18.700788,0,1392.02432276,1.67836619544,22,5,7.473,289.22935899287,247.375336,0,1392.798601,0,0,-0.223694,241.8, -8.7, -3.4,0,0,1024,1024,1684,1024,0,0,100,0,259.2,-60,0,45,3.749,3.735,0,0,0,0,3.471,88.7,287.91702299287,246.063,31,Sport,
760800,2022-08-28 21:17:14,-34.910173088856,-56.1343215198869,246.391084,246.3582756,61.375020992872,288.24510699287,18.700788,0,1392.04728864,1.71925202352,22,5,7.473,289.22935899287,247.375336,0,1392.798601,0,0,-0.894776,241.8, -8.9, -3.2,0,0,1024,1024,1684,1024,0,0,100,0,259.2,-60,0,45,3.749,3.735,0,0,0,0,3.471,88.7,288.24510699287,246.391084,31,Sport,
760900,2022-08-28 21:17:14,-34.9101729823167,-56.1343214429973,246.719168,246.719168,61.342212592872,288.57319099287,18.700788,0.223694,1392.07353536,1.7644193478,22,5,7.473,289.22935899287,247.375336,0.223694,1392.798601,0.223694,0,-1.789552,242.1, -9.8, -3.1,0,0,1024,1024,1684,1024,0,0,100,0,259.2,-60,0,45,3.749,3.735,0,0,0,0,3.471,88.7,288.57319099287,246.719168,31,Sport,
761000,2022-08-28 21:17:14,-34.910172826429,-56.1343213637676,247.047252,247.047252,61.342212592872,288.90127499287,18.700788,0.223694,1392.10306292,1.82603680384,22,5,7.473,289.22935899287,247.375336,0.223694,1392.798601,0.223694,0,-2.684328,242.2, -10.6, -3.4,0,0,1024,1024,1684,1024,0,0,100,0,259.2,-60,0,45,3.749,3.735,0,0,0,0,3.471,88.7,288.90127499287,247.047252,31,Sport,
761100,2022-08-28 21:17:14,-34.9101727204108,-56.134321286878,247.70342,247.70342,61.342212592872,289.55744299287,18.700788,0,1392.12930964,1.87104336696,22,5,7.473,289.55744299287,247.70342,0.223694,1392.798601,0,0,-3.579104,242.4, -11.4, -3.7,0,0,1024,1024,1684,1024,0,0,100,0,259.2,-60,0,45,3.749,3.735,0,0,0,0,3.471,88.7,289.55744299287,247.70342,31,Sport,
761200,2022-08-28 21:17:14,-34.9101726158517,-56.1343211668634,248.687672,248.687672,61.342212592872,290.54169499287,18.700788,0,1392.16867972,1.92343182008,22,5,7.473,290.54169499287,248.687672,0.223694,1392.798601,0,0,-4.47388,242.4, -11.8, -3.8,0,0,1024,1024,1684,1024,0,0,100,0,259.2,-60,0,45,3.749,3.735,0,0,0,0,3.471,88.7,290.54169499287,248.687672,31,Sport,
761300,2022-08-28 21:17:14,-34.9101725344295,-56.1343210521977,249.34384,249.34384,61.342212592872,291.19786299287,18.700788,0,1392.2080498,1.9688156798,22,5,7.473,291.19786299287,249.34384,0.223694,1392.798601,0,0,-5.368656,242.4, -11.7, -3.6,0,0,1024,1024,1684,1024,0,0,100,0,259.2,-60,0,45,3.749,3.735,0,0,0,0,3.471,88.7,291.19786299287,249.34384,31,Sport,
761400,2022-08-28 21:17:15,-34.9101725454769,-56.1343209385348,250.656176,250.656176,61.342212592872,292.51019899287,18.700788,0,1392.2408582,2.00306108772,22,5,7.473,292.51019899287,250.656176,0.223694,1392.798601,0,0,-6.263432,242.3, -11.5, -3.3,0,0,1024,1024,1684,1024,0,0,100,0,259.2,-60,0,45,3.749,3.735,0,0,0,0,3.471,88.7,292.51019899287,250.656176,31,Sport,
761500,2022-08-28 21:17:15,-34.9101725335176,-56.1343208673284,251.640428,251.640428,61.342212592872,293.49445099287,18.700788,0,1392.26054324,2.02480649524,23,5,7.419,293.49445099287,251.640428,0.223694,1392.798601,0,0,-7.381902,242.3, -11.2, -3.1,0,0,1024,1024,1684,1024,0,0,100,0,259.2,-60,0,45,3.703,3.674,0,0,0,0,4.208,88.7,293.49445099287,251.640428,31,Sport,
761600,2022-08-28 21:17:15,-34.9101725014177,-56.1343207767324,252.952764,252.952764,61.342212592872,294.80678699287,18.700788,0,1392.2900708,2.05433405524,23,5,7.419,294.80678699287,252.952764,0.223694,1392.798601,0,0,-8.276678,242.3, -11.3, -2.8,0,0,1024,1024,1684,1024,0,0,100,0,259.2,-60,0,45,3.703,3.674,0,0,0,0,4.208,88.7,294.80678699287,252.952764,31,Sport,
761700,2022-08-28 21:17:15,-34.9101724581923,-56.1343206914853,254.593184,254.5603756,61.375020992872,296.44720699287,18.700788,0,1392.31631752,2.08432093284,22,5,7.419,296.44720699287,254.593184,0.223694,1392.798601,0,0,-9.171454,242.4, -11.5, -3.3,0,0,1024,1024,1024,1024,0,0,0,0,259.2,-60,0,45,3.703,3.674,0,0,0,0,4.208,88.7,296.44720699287,254.593184,31,Sport,
761800,2022-08-28 21:17:15,-34.9101723749462,-56.1343206002207,255.90552,255.8727116,61.375020992872,297.75954299287,18.700788,0,1392.34584508,2.12516411,22,5,7.419,297.75954299287,255.90552,0.223694,1392.798601,0,0,-10.06623,242.4, -12.3, -4.3,0,0,1024,1024,1024,1024,0,0,0,0,259.2,-60,0,45,3.703,3.674,0,0,0,0,4.208,88.7,297.75954299287,255.90552,31,Sport,
761900,2022-08-28 21:17:15,-34.9101722622839,-56.1343204808747,257.54594,257.5131316,61.375020992872,299.39996299287,18.700788,0,1392.38521516,2.17961293064,22,5,7.419,299.39996299287,257.54594,0.223694,1392.798601,0,0,-9.842536,242.3, -13.8, -4.9,0,0,1024,1024,1024,1024,0,0,0,0,259.2,-60,0,45,3.703,3.674,0,0,0,0,4.208,88.7,299.39996299287,257.54594,31,Sport,
762000,2022-08-28 21:17:15,-34.9101721962864,-56.1343202752786,259.18636,259.1535516,61.375020992872,301.04038299287,18.700788,0.3131716,1392.45083196,2.2456693632,22,5,7.419,301.04038299287,259.18636,0.3131716,1392.798601,0.223694,0.223694,-9.171454,242.2, -14.5, -5.1,0,0,1024,1024,1024,1024,0,0,0,0,259.2,-60,0,45,3.703,3.674,0,0,0,0,4.208,88.7,301.04038299287,259.18636,31,Sport,
762100,2022-08-28 21:17:15,-34.9101721125974,-56.1343200419355,260.498696,260.4658876,61.375020992872,302.35271899287,18.700788,0.3131716,1392.52301044,2.32187015304,23,5,7.419,302.35271899287,260.498696,0.3131716,1392.798601,0.223694,0.223694,-8.276678,242.2, -15.3, -5.2,0,0,1024,1024,1024,1024,0,0,0,0,259.2,-60,0,45,3.703,3.674,0,0,0,0,4.208,88.7,302.35271899287,260.498696,31,Sport,
762200,2022-08-28 21:17:15,-34.9101719607222,-56.1343197925458,261.811032,261.7782236,61.375020992872,303.66505499287,18.700788,0.3131716,1392.6017506,2.4148130694,23,5,7.419,303.66505499287,261.811032,0.3131716,1392.798601,0.223694,0.223694,-7.381902,242.4, -16.1, -5.2,0,0,1024,1024,1024,1024,0,0,0,0,259.2,-60,0,45,3.703,3.674,0,0,0,0,4.208,88.7,303.66505499287,261.811032,31,Sport,
762300,2022-08-28 21:17:15,-34.9101718169501,-56.1343193910485,262.795284,262.795284,61.342212592872,304.64930699287,18.700788,0.4921268,1392.72642252,2.54589246992,22,5,7.419,304.64930699287,262.795284,0.4921268,1392.798601,0.447388,0.223694,-6.487126,242.5, -16.8, -6,0,0,1024,1024,1024,1024,0,0,0,0,259.2,-60,0,45,3.703,3.674,0,0,0,0,4.208,88.7,304.64930699287,262.795284,31,Sport,
762400,2022-08-28 21:17:16,-34.9101715829231,-56.1343190811501,263.779536,263.779536,61.342212592872,305.63355899287,18.700788,0.6263432,1392.82812856,2.67193578104,22,5,7.419,305.63355899287,263.779536,0.6263432,1392.82812856,0.447388,0.447388,-5.59235,242.6, -18, -6.4,0,0,1024,1024,1024,1024,0,0,0,0,259.2,-60,0,45,3.703,3.674,0,0,0,0,4.208,88.7,305.63355899287,263.779536,31,Sport,
762500,2022-08-28 21:17:16,-34.9101713356342,-56.1343187565423,264.763788,264.7309796,61.375020992872,306.61781099287,18.700788,0.6263432,1392.93311544,2.80449812124,22,5,7.281,306.61781099287,264.763788,0.6263432,1392.93311544,0.447388,0.447388,-4.697574,242.8, -18.9, -6.9,0,0,1024,1024,1024,1024,0,0,0,0,259.2,-60,0,45,3.7,3.684,0,0,0,0,8.216,88.52,306.61781099287,264.763788,31,Sport,
762600,2022-08-28 21:17:16,-34.9101710492886,-56.1343184028503,265.419956,265.419956,61.342212592872,307.27397899287,18.700788,0.6263432,1393.04794484,2.95320219424,22,5,7.281,307.27397899287,265.419956,0.6263432,1393.04794484,0.447388,0.447388,-3.579104,242.9, -19.9, -7.2,0,0,1024,1024,1024,1024,0,0,0,0,259.2,-60,0,45,3.7,3.684,0,0,0,0,8.216,88.52,307.27397899287,265.419956,31,Sport,
762700,2022-08-28 21:17:16,-34.9101706325632,-56.1343179612367,265.74804,265.74804,61.342212592872,307.60206299287,18.700788,0.6263432,1393.1923018,3.15463592772,22,5,7.281,307.60206299287,265.74804,0.6263432,1393.1923018,0.447388,0.447388,-2.684328,243, -20.7, -7.4,0,0,1024,1024,1024,1024,0,0,0,0,259.2,-60,0,45,3.7,3.684,0,0,0,0,8.216,88.52,307.60206299287,265.74804,31,Sport,
762800,2022-08-28 21:17:16,-34.9101703951231,-56.1343175664254,266.076124,266.0433156,61.375020992872,307.93014699287,18.700788,0.6263432,1393.32025456,3.3011155912,22,5,7.281,307.93014699287,266.076124,0.6263432,1393.32025456,0.447388,0.447388,-1.789552,243.1, -21, -7.5,0,0,1024,1024,1024,1024,0,0,0,0,259.2,-60,0,45,3.7,3.684,0,0,0,0,8.216,88.52,307.93014699287,266.076124,31,Sport,
762900,2022-08-28 21:17:16,-34.9101702056243,-56.1343172458293,266.404208,266.3713996,61.375020992872,308.25823099287,18.700788,0.6263432,1393.4219606,3.4193570648,22,5,7.281,308.25823099287,266.404208,0.6263432,1393.4219606,0.447388,0.447388,-1.11847,243.1, -20.6, -7.4,0,0,1024,1024,1024,1024,0,0,0,0,259.2,-60,0,45,3.7,3.684,0,0,0,0,8.216,88.52,308.25823099287,266.404208,31,Sport,
763000,2022-08-28 21:17:16,-34.9101699964539,-56.1343169793902,266.404208,266.3713996,61.375020992872,308.25823099287,18.700788,0.3131716,1393.50726244,3.5297245224,22,5,7.281,308.25823099287,266.404208,0.6263432,1393.50726244,0.223694,0.223694,-0.671082,243, -19.8, -6.9,0,0,1024,1024,1024,1024,0,0,0,0,257.9,-54.4,0,45,3.7,3.684,0,0,0,0,8.216,88.52,308.25823099287,266.404208,31,Sport,
763100,2022-08-28 21:17:16,-34.9101698505193,-56.1343167179656,266.404208,266.3713996,61.375020992872,308.25823099287,18.700788,0.223694,1393.59256428,3.624343948,22,5,7.281,308.25823099287,266.404208,0.6263432,1393.59256428,0,0.223694,-0.223694,242.1, -18.8, -5.8,0,0,1024,1024,1024,1024,0,0,0,0,257.5,-37.5,0,45,3.7,3.684,0,0,0,0,8.216,88.52,308.25823099287,266.404208,31,Sport,
763200,2022-08-28 21:17:16,-34.9101698520044,-56.1343165106981,266.404208,266.3713996,61.375020992872,308.25823099287,18.700788,0,1393.6516194,3.686351824,22,5,7.281,308.25823099287,266.404208,0.6263432,1393.6516194,0,0,-0.223694,242.4, -18.4, -5.2,0,0,1024,1024,1024,1024,0,0,0,0,258,-19.6,0,45,3.7,3.684,0,0,0,0,8.216,88.52,308.25823099287,266.404208,31,Sport,
763300,2022-08-28 21:17:16,-34.9101698912174,-56.1343163749713,266.404208,266.404208,61.342212592872,308.25823099287,18.700788,0,1393.69098948,3.7293964448,22,5,7.281,308.25823099287,266.404208,0.6263432,1393.69098948,0,0,0,242.3, -17.2, -4.8,0,0,1024,1024,1024,1024,0,0,0,0,258.2,-2.1,0,45,3.7,3.684,0,0,0,0,8.216,88.52,308.25823099287,266.404208,31,Sport,
763400,2022-08-28 21:17:17,-34.9101698873612,-56.1343164150876,266.076124,266.076124,61.342212592872,307.93014699287,18.700788,0,1393.68114696,3.7415027444,22,5,7.281,308.25823099287,266.404208,0.6263432,1393.69098948,0,0,0,242.3, -16.2, -4.6,0,0,1024,1024,1024,1024,0,0,0,0,258.2,0,0,45,3.7,3.684,0,0,0,0,8.216,88.52,307.93014699287,266.076124,31,Sport,
763500,2022-08-28 21:17:17,-34.910169907111,-56.1343165073551,266.076124,266.0433156,61.375020992872,307.93014699287,18.700788,0.223694,1393.6516194,3.770013244,22,5,7.47,308.25823099287,266.404208,0.6263432,1393.69098948,-0.223694,0,0,241.7, -15.4, -4.2,0,0,1024,1024,1024,1024,0,0,0,0,258.2,0,0,45,3.731,3.716,0,0,0,0,3.535,88.52,307.93014699287,266.076124,31,Sport,
763600,2022-08-28 21:17:17,-34.9101700548955,-56.1343169503059,265.74804,265.7152316,61.375020992872,307.60206299287,18.700788,0.3131716,1393.51382412,3.9130906764,22,5,7.47,308.25823099287,266.404208,0.6263432,1393.69098948,-0.223694,-0.223694,0,241.4, -14.3, -3.6,0,0,1024,1024,1024,1024,0,0,0,0,258.2,0,0,45,3.731,3.716,0,0,0,0,3.535,88.52,307.60206299287,265.74804,31,Sport,
763700,2022-08-28 21:17:17,-34.9101701090901,-56.1343172040415,265.74804,265.7152316,61.375020992872,307.60206299287,18.700788,0.3131716,1393.4383648,3.9915683692,22,5,7.47,308.25823099287,266.404208,0.6263432,1393.69098948,-0.223694,-0.223694,0,241.2, -13.7, -3.7,0,0,1024,1024,1024,1024,0,0,0,0,258.2,0,0,45,3.731,3.716,0,0,0,0,3.535,88.52,307.60206299287,265.74804,31,Sport,
763800,2022-08-28 21:17:17,-34.9101701777453,-56.1343174617887,265.419956,265.3871476,61.375020992872,307.27397899287,18.700788,0.3131716,1393.35962464,4.0726379256,22,5,7.47,308.25823099287,266.404208,0.6263432,1393.69098948,-0.223694,-0.223694,0,241.2, -12.9, -3.7,0,0,1024,1024,1024,1024,0,0,0,0,258.2,0,0,45,3.731,3.716,0,0,0,0,3.535,88.52,307.27397899287,265.419956,31,Sport,
763900,2022-08-28 21:17:17,-34.9101702498919,-56.1343177322395,265.419956,265.3871476,61.375020992872,307.27397899287,18.700788,0.3131716,1393.2743228,4.1577429152,23,5,7.47,308.25823099287,266.404208,0.6263432,1393.69098948,-0.223694,-0.223694,0,241.2, -12.4, -3.1,0,0,1024,1024,1024,1024,0,0,0,0,258.2,0,0,45,3.731,3.716,0,0,0,0,3.535,88.52,307.27397899287,265.419956,31,Sport,
764000,2022-08-28 21:17:17,-34.9101705555704,-56.1343180508297,265.419956,265.419956,61.342212592872,307.27397899287,18.700788,0.3131716,1393.16933592,4.3044292716,23,5,7.47,308.25823099287,266.404208,0.6263432,1393.69098948,-0.223694,-0.223694,0,241, -12.1, -2.7,0,0,1024,1024,1411,1024,0,0,59,0,258.2,0,0,45,3.731,3.716,0,0,0,0,3.535,88.52,307.27397899287,265.419956,31,Sport,
764100,2022-08-28 21:17:17,-34.9101707006192,-56.1343182694636,265.091872,265.091872,61.342212592872,306.94589499287,18.700788,0.3131716,1393.10043828,4.3885828176,22,5,7.47,308.25823099287,266.404208,0.6263432,1393.69098948,-0.223694,-0.223694,0,241.1, -11.8, -2.6,0,0,1024,1024,1411,1024,0,0,59,0,258.2,0,0,45,3.731,3.716,0,0,0,0,3.535,88.52,306.94589499287,265.091872,31,Sport,
764200,2022-08-28 21:17:17,-34.9101707762571,-56.1343184934463,265.091872,265.091872,61.342212592872,306.94589499287,18.700788,0.3131716,1393.03154064,4.4610565732,22,5,7.47,308.25823099287,266.404208,0.6263432,1393.69098948,-0.223694,-0.223694,0,241.1, -11.1, -2.6,0,0,1024,1024,1684,1024,0,0,100,0,258.2,0,0,45,3.731,3.716,0,0,0,0,3.535,88.52,306.94589499287,265.091872,31,Sport,
764300,2022-08-28 21:17:17,-34.9101708340213,-56.1343186913534,265.091872,265.0590636,61.375020992872,306.94589499287,18.700788,0.3131716,1392.96920468,4.5239174676,23,5,7.47,308.25823099287,266.404208,0.6263432,1393.69098948,-0.223694,-0.223694,-0.671082,241.2, -10.7, -2.4,0,0,1024,1024,1684,1024,0,0,100,0,258.2,0,0,45,3.731,3.716,0,0,0,0,3.535,88.52,306.94589499287,265.091872,31,Sport,
764400,2022-08-28 21:17:18,-34.9101709883978,-56.1343186943621,265.091872,265.0590636,61.375020992872,306.94589499287,18.700788,0.223694,1392.962643,4.5802494904,23,5,7.47,308.25823099287,266.404208,0.6263432,1393.69098948,0,-0.223694,-1.565858,241.2, -11, -2.7,0,0,1024,1024,1684,1024,0,0,100,0,258.2,0,0,45,3.731,3.716,0,0,0,0,3.535,88.52,306.94589499287,265.091872,31,Sport,
764500,2022-08-28 21:17:18,-34.910171071696,-56.1343188086935,265.419956,265.3871476,61.375020992872,307.27397899287,18.700788,0.223694,1392.92655376,4.6259844,23,5,7.442,308.25823099287,266.404208,0.6263432,1393.69098948,0,-0.223694,-2.460634,241.4, -11.7, -2.7,0,0,1024,1024,1684,1024,0,0,100,0,258.2,0,0,45,3.689,3.67,0,0,0,0,4.155,88.52,307.27397899287,265.419956,31,Sport,
764600,2022-08-28 21:17:18,-34.9101710755521,-56.134318900961,265.74804,265.7152316,61.375020992872,307.60206299287,18.700788,0.223694,1392.8970262,4.6536418812,23,5,7.442,308.25823099287,266.404208,0.6263432,1393.69098948,0,-0.223694,-3.35541,241.3, -12.1, -3,0,0,1024,1024,1684,1024,0,0,100,0,258.2,0,0,45,3.689,3.67,0,0,0,0,4.155,88.52,307.60206299287,265.74804,31,Sport,
764700,2022-08-28 21:17:18,-34.9101710886578,-56.1343189888826,266.404208,266.3713996,61.375020992872,308.25823099287,18.700788,0.3131716,1392.87077948,4.6803807272,23,5,7.442,308.25823099287,266.404208,0.6263432,1393.69098948,-0.223694,-0.223694,-4.250186,241.3, -11.7, -3.1,0,0,1122,1024,1684,1024,15,0,100,0,258.2,0,0,45,3.689,3.67,0,0,0,0,4.155,88.52,308.25823099287,266.404208,31,Sport,
764800,2022-08-28 21:17:18,-34.9101710981158,-56.1343190183012,267.38846,267.3556516,61.375020992872,309.24248299287,18.700788,0.3131716,1392.86093696,4.6898295464,23,5,7.442,309.24248299287,267.38846,0.6263432,1393.69098948,-0.223694,-0.223694,-5.144962,241.4, -12, -2.8,0,0,1684,1024,1684,1024,100,0,100,0,258.2,0,0,45,3.689,3.67,0,0,0,0,4.155,88.52,309.24248299287,267.38846,31,Sport,
764900,2022-08-28 21:17:18,-34.9101711703145,-56.1343191386501,268.372712,268.3399036,61.375020992872,310.22673499287,18.700788,0.3131716,1392.82484772,4.7344489704,23,5,7.442,310.22673499287,268.372712,0.6263432,1393.69098948,-0.223694,-0.223694,-6.039738,241.6, -14.7, -2.7,0,0,1684,1024,1024,1024,100,0,0,0,258.2,0,0,45,3.689,3.67,0,0,0,0,4.155,88.52,310.22673499287,268.372712,31,Sport,
765000,2022-08-28 21:17:18,-34.9101712843317,-56.1343193328799,269.356964,269.3241556,61.375020992872,311.21098699287,18.700788,0.4921268,1392.76251176,4.8059056656,23,5,7.442,311.21098699287,269.356964,0.6263432,1393.69098948,-0.223694,-0.447388,-6.71082,242.2, -32.5, -2.9,0,0,1684,1024,1024,1024,100,0,0,0,258.2,-5.4,0,45,3.689,3.67,0,0,0,0,4.155,88.52,311.21098699287,269.356964,31,Sport,"El ángulo de posición de vuelo es mayor en el modo Sport. El estabilizador rotará cuando la aeronave comience a moverse o se detenga. Si es necesario, usa el modo Normal para una captura estable (Code: 40022)"
765100,2022-08-28 21:17:18,-34.9101715331579,-56.1343198353365,270.6693,270.6364916,61.375020992872,312.52332299287,18.700788,1.8119214,1392.60503144,4.9815290308,22,5,7.442,312.52332299287,270.6693,1.8119214,1393.69098948,-0.894776,-1.565858,-6.71082,241.7, -42.2, -3,0,0,1684,1024,1024,1024,100,0,0,0,258.2,-21.4,0,45,3.689,3.67,0,0,0,0,4.155,88.52,312.52332299287,270.6693,31,Sport,
765200,2022-08-28 21:17:18,-34.9101720955052,-56.1343208445958,271.981636,271.9488276,61.375020992872,313.83565899287,18.700788,2.6172198,1392.28350912,5.3465880976,22,5,7.442,313.83565899287,271.981636,2.6172198,1393.69098948,-1.342164,-2.23694,-6.263432,241.3, -42.6, -3,0,0,1684,1024,1024,1024,100,0,0,0,258.2,-22.3,0,45,3.689,3.67,0,0,0,0,4.155,88.52,313.83565899287,271.981636,31,Sport,
765300,2022-08-28 21:17:18,-34.9101730490438,-56.1343223192042,273.293972,273.2611636,61.375020992872,315.14799499287,18.700788,3.6014734,1391.81106816,5.908464756,22,5,7.442,315.14799499287,273.293972,3.6014734,1393.69098948,-1.789552,-3.131716,-5.368656,241.5, -41.9, -3.4,0,0,1684,1024,1024,1024,100,0,0,0,258.2,-22.3,0,45,3.689,3.67,0,0,0,0,4.155,88.52,315.14799499287,273.293972,31,Sport,
765400,2022-08-28 21:17:19,-34.9101738976325,-56.1343240177952,274.278224,274.2454156,61.375020992872,316.13224699287,18.700788,4.2949248,1391.27629124,6.5035435152,22,5,7.442,316.13224699287,274.278224,4.2949248,1393.69098948,-2.013246,-3.802798,-4.47388,241.6, -41.6, -3.4,0,0,1684,1024,910,1024,100,0,-17,0,258.2,-22.3,0,45,3.689,3.67,0,0,0,0,4.155,88.52,316.13224699287,274.278224,31,Sport,
765500,2022-08-28 21:17:19,-34.9101748270181,-56.1343259370259,275.262476,275.2296676,61.375020992872,317.11649899287,18.700788,4.809421,1390.67261668,7.1704070536,23,5,7.3,317.11649899287,275.262476,4.809421,1393.69098948,-2.23694,-4.250186,-3.802798,241.5, -40.8, -3.4,0,0,1684,1024,684,1024,100,0,-52,0,258.2,-22.3,0,45,3.657,3.634,0,0,0,0,7.325,88.52,317.11649899287,275.262476,31,Sport,
765600,2022-08-28 21:17:19,-34.9101759955634,-56.1343282350214,276.246728,276.1811112,61.407829392872,318.10075099287,18.700788,5.3015478,1389.94755104,7.9794293892,23,5,7.3,318.10075099287,276.246728,5.3015478,1393.69098948,-2.460634,-4.697574,-2.684328,241.7, -40.2, -2.9,0,0,1684,1024,434,1024,100,0,-89,0,258.2,-22.3,0,45,3.657,3.634,0,0,0,0,7.325,88.52,318.10075099287,276.246728,31,Sport,
765700,2022-08-28 21:17:19,-34.9101775928195,-56.1343307897612,276.902896,276.8372792,61.407829392872,318.75691899287,18.700788,5.704197,1389.13062188,8.940617084,22,5,7.3,318.75691899287,276.902896,5.704197,1393.69098948,-2.460634,-5.144962,-1.789552,241.8, -39.7, -2.3,0,0,1684,1024,439,1024,100,0,-89,0,258.2,-22.3,0,45,3.657,3.634,0,0,0,0,7.325,88.52,318.75691899287,276.902896,31,Sport,
765800,2022-08-28 21:17:19,-34.9101789691543,-56.1343338499663,277.23098,277.1653632,61.407829392872,319.08500299287,18.700788,6.1963238,1388.1726166,9.9848756476,22,5,7.3,319.08500299287,277.23098,6.1963238,1393.69098948,-2.684328,-5.59235,-0.894776,241.9, -39.8, -3,0,0,1684,1024,1024,1024,100,0,0,0,258.2,-22.3,0,45,3.657,3.634,0,0,0,0,7.325,88.52,319.08500299287,277.23098,31,Sport,
765900,2022-08-28 21:17:19,-34.9101803129463,-56.134336944939,277.23098,277.1325548,61.440637792872,319.08500299287,18.700788,6.3976484,1387.2047688,11.03264471,22,5,7.3,319.08500299287,277.23098,6.3976484,1393.69098948,-2.684328,-5.816044,0,241.8, -39.4, -2.9,0,0,1684,1024,1024,1024,100,0,0,0,258.2,-22.3,0,45,3.657,3.634,0,0,0,0,7.325,88.52,319.08500299287,277.23098,31,Sport,
766000,2022-08-28 21:17:19,-34.9101816512927,-56.1343402659001,277.23098,277.1325548,61.440637792872,319.08500299287,18.700788,6.9121446,1386.1713042,12.139764168,22,5,7.3,319.08500299287,277.23098,6.9121446,1393.69098948,-2.908022,-6.263432,0.447388,241.9, -37.6, -2.2,0,0,1684,1024,1024,1024,100,0,0,0,258.2,-22.3,0,45,3.657,3.634,0,0,0,0,7.325,88.52,319.08500299287,277.23098,31,Sport,
766100,2022-08-28 21:17:19,-34.9101833458125,-56.1343445349431,277.23098,277.066938,61.506254592872,319.08500299287,18.700788,7.8069206,1384.83928316,13.5587930848,22,5,7.3,319.08500299287,277.23098,7.8069206,1393.69098948,-3.131716,-7.158208,0.223694,241.9, -37.6, -2.7,0,0,1684,1024,1024,1024,100,0,0,0,258.2,-22.3,0,45,3.657,3.634,0,0,0,0,7.325,88.52,319.08500299287,277.23098,31,Sport,
766200,2022-08-28 21:17:19,-34.9101847749871,-56.1343483944656,277.23098,277.066938,61.506254592872,319.08500299287,18.700788,8.612219,1383.64177656,14.8258206844,22,5,7.3,319.08500299287,277.23098,8.612219,1393.69098948,-3.579104,-7.82929,0.223694,241.9, -37.9, -3,0,0,1684,1024,1024,1024,100,0,0,0,258.2,-22.3,0,45,3.657,3.634,0,0,0,0,7.325,88.52,319.08500299287,277.23098,31,Sport,
766300,2022-08-28 21:17:19,-34.9101863172147,-56.1343525896278,277.23098,277.0013212,61.571871392872,319.08500299287,18.700788,9.3056704,1382.33928308,16.2013456628,22,5,7.3,319.08500299287,277.23098,9.3056704,1393.69098948,-3.802798,-8.500372,0.223694,242.1, -38.3, -3.5,0,0,1684,1024,1024,1024,100,0,0,0,258.2,-22.3,0,45,3.657,3.634,0,0,0,0,7.325,88.52,319.08500299287,277.23098,31,Sport,
766400,2022-08-28 21:17:20,-34.9101878993588,-56.1343569161708,276.902896,276.6404288,61.604679792872,318.75691899287,18.700788,10.0214912,1380.99741952,17.6187013512,22,5,7.3,319.08500299287,277.23098,10.0214912,1393.69098948,-4.026492,-9.171454,0,242.1, -38.7, -3.8,0,0,1684,1024,1024,1024,100,0,0,0,258.2,-22.3,0,45,3.657,3.634,0,0,0,0,7.325,88.52,318.75691899287,276.902896,31,Sport,
766500,2022-08-28 21:17:20,-34.910189249404,-56.1343613249523,276.902896,276.6076204,61.637488192872,318.75691899287,18.700788,10.513618,1379.63915176,19.026739454,22,5,7.3,319.08500299287,277.23098,10.513618,1393.69098948,-4.250186,-9.618842,0.223694,242.1, -39, -4,0,0,1684,1024,863,1024,100,0,-24,0,258.2,-22.3,0,45,3.657,3.634,0,0,0,0,7.325,88.52,318.75691899287,276.902896,31,Sport,
766600,2022-08-28 21:17:20,-34.9101909924904,-56.1343663839522,276.902896,276.574812,61.670296592872,318.75691899287,18.700788,11.1175918,1378.07419108,20.6685374068,22,5,7.374,319.08500299287,277.23098,11.1175918,1393.69098948,-4.697574,-10.06623,0.223694,242.3, -38.7, -4.1,0,0,1684,1024,439,1024,100,0,-89,0,258.2,-22.3,0,45,3.627,3.596,0,0,0,0,7.186,88.52,318.75691899287,276.902896,31,Sport,
766700,2022-08-28 21:17:20,-34.9101927375832,-56.1343714208881,276.902896,276.5091952,61.735913392872,318.75691899287,18.700788,11.520241,1376.51579208,22.3045282728,22,5,7.374,319.08500299287,277.23098,11.520241,1393.69098948,-4.697574,-10.513618,0.447388,242.3, -39.7, -4.4,0,0,1684,1024,364,1024,100,0,-100,0,258.2,-22.3,0,45,3.627,3.596,0,0,0,0,7.186,88.52,318.75691899287,276.902896,31,Sport,
766800,2022-08-28 21:17:20,-34.9101945705337,-56.1343768940888,276.902896,276.4435784,61.801530192872,318.75691899287,18.700788,11.520241,1374.82287864,24.0733931588,22,5,7.374,319.08500299287,277.23098,11.520241,1393.69098948,-4.697574,-10.513618,1.11847,242, -40, -4.2,0,0,1684,1024,364,1024,100,0,-100,0,258.2,-22.3,0,45,3.627,3.596,0,0,0,0,7.186,88.52,318.75691899287,276.902896,31,Sport,
766900,2022-08-28 21:17:20,-34.9101963172157,-56.1343821419696,276.574812,276.0498776,61.867146992872,318.42883499287,18.700788,11.7215656,1373.20214368,25.7679142104,22,5,7.374,319.08500299287,277.23098,11.7215656,1393.69098948,-4.697574,-10.737312,1.789552,242.2, -40.2, -4.4,0,0,1684,1024,364,1024,100,0,-100,0,258.2,-22.3,0,45,3.627,3.596,0,0,0,0,7.186,88.52,318.42883499287,276.574812,31,Sport,
767000,2022-08-28 21:17:20,-34.9101975302111,-56.1343873062747,276.246728,275.6889852,61.899955392872,318.10075099287,18.700788,11.7215656,1371.62405964,27.3751977264,22,5,7.374,319.08500299287,277.23098,11.7215656,1393.69098948,-4.697574,-10.737312,2.684328,242.1, -40.3, -4,0,0,1684,1024,364,1024,100,0,-100,0,258.2,-22.3,0,45,3.627,3.596,0,0,0,0,7.186,88.52,318.10075099287,276.246728,31,Sport,
767100,2022-08-28 21:17:20,-34.910199258368,-56.1343924381525,275.59056,274.9672004,61.965572192872,317.44458299287,18.700788,11.4307634,1370.03613308,29.0350402992,22,5,7.374,319.08500299287,277.23098,11.7215656,1393.69098948,-4.47388,-10.513618,3.579104,242.2, -39.8, -3.8,0,0,1684,1024,760,1024,100,0,-40,0,258.2,-22.3,0,45,3.627,3.596,0,0,0,0,7.186,88.52,317.44458299287,275.59056,31,Sport,
767200,2022-08-28 21:17:20,-34.9102010231062,-56.134397844827,274.934392,274.2454156,62.031188992872,316.78841499287,18.700788,11.632088,1368.36946636,30.7761164704,22,5,7.374,319.08500299287,277.23098,11.7215656,1393.69098948,-4.47388,-10.737312,4.026492,242.3, -37, -3.2,0,0,1684,1024,1024,1024,100,0,0,0,258.2,-22.3,0,45,3.627,3.596,0,0,0,0,7.186,88.52,316.78841499287,274.934392,31,Sport,
767300,2022-08-28 21:17:20,-34.9102028715074,-56.1344034654551,273.95014,273.1955468,62.096805792872,315.80416299287,18.700788,12.3479088,1366.633902,32.5879603604,23,5,7.374,319.08500299287,277.23098,12.3479088,1393.69098948,-4.697574,-11.408394,3.35541,242.1, -36.7, -3.2,0,0,1684,1024,1024,1024,100,0,0,0,258.2,-22.3,0,45,3.627,3.596,0,0,0,0,7.186,88.52,315.80416299287,273.95014,31,Sport,
767400,2022-08-28 21:17:21,-34.9102043522971,-56.1344086150509,273.293972,272.4409536,62.195230992872,315.14799499287,18.700788,12.9295132,1365.04925628,34.22080162,23,5,7.374,319.08500299287,277.23098,12.9295132,1393.69098948,-5.144962,-11.855782,2.684328,242.2, -37.7, -3.5,0,0,1684,1024,1024,1024,100,0,0,0,258.2,-22.3,0,45,3.627,3.596,0,0,0,0,7.186,88.52,315.14799499287,273.293972,31,Sport,
767500,2022-08-28 21:17:21,-34.9102062852732,-56.1344144302431,272.965888,272.0472528,62.260847792872,314.81991099287,18.700788,13.6229646,1363.2546368,36.098098268,21,5,7.374,319.08500299287,277.23098,13.6229646,1393.69098948,-5.368656,-12.526864,2.23694,242.3, -39.1, -4.1,0,0,1684,1024,1024,1024,100,0,0,0,258.2,-22.3,0,45,3.627,3.596,0,0,0,0,7.186,88.52,314.81991099287,272.965888,31,Sport,
767600,2022-08-28 21:17:21,-34.9102082748409,-56.1344207498977,272.637804,271.653552,62.326464592872,314.49182699287,18.700788,14.3387854,1361.30909868,38.1233608,21,5,7.303,319.08500299287,277.23098,14.3387854,1393.69098948,-5.59235,-13.197946,1.565858,242.5, -39.9, -4.5,0,0,1684,1024,1024,1024,100,0,0,0,258.2,-22.3,0,44,3.626,3.602,0,0,0,0,9.167,88.52,314.49182699287,272.637804,31,Sport,
767700,2022-08-28 21:17:21,-34.910210283012,-56.1344270267616,272.30972,271.2270428,62.424889792872,314.16374299287,18.700788,15.1217144,1359.37340308,40.139108896,22,5,7.303,319.08500299287,277.23098,15.1217144,1393.69098948,-6.039738,-13.869028,1.342164,242.7, -40.3, -4.7,0,0,1684,1024,1024,1040,100,0,0,2,258.2,-22.3,0,44,3.626,3.602,0,0,0,0,9.167,88.52,314.16374299287,272.30972,31,Sport,
767800,2022-08-28 21:17:21,-34.9102127944374,-56.1344345592658,272.30972,271.1286176,62.523314992872,314.16374299287,18.700788,15.4125166,1357.04728752,42.57217984,22,5,7.303,319.08500299287,277.23098,15.4125166,1393.69098948,-6.263432,-14.092722,1.342164,242.7, -40.3, -4.8,0,0,1684,1024,1024,1590,100,0,0,86,258.2,-22.3,0,44,3.626,3.602,0,0,0,0,9.167,88.52,314.16374299287,272.30972,31,Sport,
767900,2022-08-28 21:17:21,-34.9102153503128,-56.1344417136737,272.30972,271.0301924,62.621740192872,314.16374299287,18.700788,15.9270128,1354.83272052,44.906825584,22,5,7.303,319.08500299287,277.23098,15.9270128,1393.69098948,-6.487126,-14.54011,1.11847,242.6, -40.3, -5,0,0,1684,1024,1024,1684,100,0,0,100,258.4,-22.3,0,44,3.626,3.602,0,0,0,0,9.167,88.52,314.16374299287,272.30972,31,Sport,
768000,2022-08-28 21:17:21,-34.9102182161658,-56.1344494170065,272.30972,270.9645756,62.687356992872,314.16374299287,18.700788,16.4191396,1352.44754984,47.437993644,22,5,7.303,319.08500299287,277.23098,16.4191396,1393.69098948,-6.71082,-14.987498,0.894776,244.5, -40, -6,0,0,1684,1024,1024,1684,100,0,0,100,263.6,-22.3,0,44,3.626,3.602,0,0,0,0,9.167,88.52,314.16374299287,272.30972,31,Sport,
768100,2022-08-28 21:17:21,-34.9102210073709,-56.1344568779699,272.30972,270.8989588,62.752973792872,314.16374299287,18.700788,16.6204642,1350.13783848,49.891405796,22,5,7.303,319.08500299287,277.23098,16.6204642,1393.69098948,-6.71082,-15.211192,0.671082,253.8, -38.6, -10.5,0,0,1684,1024,1024,1331,100,0,0,47,273.3,-22.3,0,44,3.626,3.602,0,0,0,0,9.167,88.52,314.16374299287,272.30972,31,Sport,
768200,2022-08-28 21:17:21,-34.9102245066756,-56.1344657256201,272.30972,270.833342,62.818590592872,314.16374299287,18.700788,16.8217888,1347.3917754,52.830382268,22,5,7.303,319.08500299287,277.23098,16.8217888,1393.69098948,-6.71082,-15.434886,0.671082,263.1, -37.6, -13.8,0,0,1684,1024,1024,1024,100,0,0,0,279.1,-22.3,0,44,3.626,3.602,0,0,0,0,9.167,88.52,314.16374299287,272.30972,31,Sport,
768300,2022-08-28 21:17:21,-34.9102274844353,-56.134473918706,272.30972,270.7677252,62.884207392872,314.16374299287,18.700788,16.8217888,1344.85568608,55.5118128,22,5,7.303,319.08500299287,277.23098,16.8217888,1393.69098948,-6.71082,-15.882274,0.447388,267.1, -37.7, -14.3,0,0,1684,1024,1024,1024,100,0,0,0,280.8,-22.3,0,44,3.626,3.602,0,0,0,0,9.167,88.52,314.16374299287,272.30972,31,Sport,
768400,2022-08-28 21:17:22,-34.9102301968237,-56.1344815481578,272.637804,271.0301924,62.949824192872,314.49182699287,18.700788,17.448132,1342.50004296,57.999673772,22,5,7.303,319.08500299287,277.23098,17.448132,1393.69098948,-6.71082,-16.105968,0.447388,268.2, -38.1, -13.2,0,0,1684,1024,1024,1024,100,0,0,0,280.9,-22.3,0,44,3.626,3.602,0,0,0,0,9.167,88.52,314.49182699287,272.637804,31,Sport,
768500,2022-08-28 21:17:22,-34.9102328628341,-56.1344893694993,272.637804,270.997384,62.982632592872,314.49182699287,18.700788,17.448132,1340.08534472,60.533794588,22,5,7.303,319.08500299287,277.23098,17.448132,1393.69098948,-6.487126,-16.553356,0.223694,268.2, -38.2, -12,0,0,1684,1024,1024,1024,100,0,0,0,280.9,-22.3,0,44,3.626,3.602,0,0,0,0,9.167,88.52,314.49182699287,272.637804,31,Sport,
768600,2022-08-28 21:17:22,-34.9102355876768,-56.1344979597366,272.965888,271.2598512,63.048249392872,314.81991099287,18.700788,18.119214,1337.44426852,63.289700188,22,5,7.108,319.08500299287,277.23098,18.119214,1393.69098948,-6.263432,-17.000744,0,268.1, -37.9, -12.1,0,0,1684,1024,1024,1024,100,0,0,0,280.9,-22.3,0,44,3.559,3.53,0,0,0,0,12.147,88.52,314.81991099287,272.965888,31,Sport,
768700,2022-08-28 21:17:22,-34.9102380637715,-56.1345060692468,272.965888,271.1942344,63.113866192872,314.81991099287,18.700788,18.3876468,1334.95083012,65.878611032,21,5,7.108,319.08500299287,277.23098,18.3876468,1393.69098948,-5.816044,-17.448132,0,267.9, -37.6, -11.9,0,0,1684,1024,1024,591,100,0,0,-66,280.9,-22.3,0,44,3.559,3.53,0,0,0,0,12.147,88.52,314.81991099287,272.965888,31,Sport,
768800,2022-08-28 21:17:22,-34.9102405538839,-56.1345152304728,272.965888,271.0958092,63.212291392872,314.81991099287,18.700788,18.8126654,1332.14571192,68.7664064,21,5,7.108,319.08500299287,277.23098,18.8126654,1393.69098948,-5.816044,-17.89552,0,267.7, -37.7, -11.7,0,0,1684,1024,1024,578,100,0,0,-68,280.9,-22.3,0,44,3.559,3.53,0,0,0,0,12.147,88.52,314.81991099287,272.965888,31,Sport,
768900,2022-08-28 21:17:22,-34.9102428406361,-56.1345241072073,272.965888,271.0301924,63.277908192872,314.81991099287,18.700788,19.1705758,1329.4291764,71.55019914,21,5,7.108,319.08500299287,277.23098,19.1705758,1393.69098948,-5.59235,-18.342908,-0.223694,266.9, -37.7, -11.4,0,0,1684,1024,1024,1024,100,0,0,0,277.2,-22.3,0,44,3.559,3.53,0,0,0,0,12.147,88.52,314.81991099287,272.965888,31,Sport,
769000,2022-08-28 21:17:22,-34.910245035961,-56.134533589698,272.637804,270.6036832,63.376333392872,314.49182699287,18.700788,19.0587288,1326.53875636,74.49803388,21,5,7.108,319.08500299287,277.23098,19.1705758,1393.69098948,-5.144962,-18.342908,0,259.5, -38.2, -7.8,0,0,1684,1024,1024,1024,100,0,0,0,271.7,-22.3,0,44,3.559,3.53,0,0,0,0,12.147,88.52,314.49182699287,272.637804,31,Sport,
769100,2022-08-28 21:17:22,-34.9102467269112,-56.1345432015637,272.637804,270.505258,63.474758592872,314.49182699287,18.700788,19.2153146,1323.6220896,77.43930694,20,5,7.108,319.08500299287,277.23098,19.2153146,1393.69098948,-4.921268,-18.566602,0,255.9, -38, -6,0,0,1684,1024,1024,1024,100,0,0,0,270.6,-22.3,0,44,3.559,3.53,0,0,0,0,12.147,88.52,314.49182699287,272.637804,31,Sport,
769200,2022-08-28 21:17:22,-34.9102485810966,-56.1345527492434,272.30972,270.1115572,63.540375392872,314.16374299287,18.700788,19.3719004,1320.72182704,80.375002572,20,5,7.108,319.08500299287,277.23098,19.3719004,1393.69098948,-4.697574,-18.790296,0,255.7, -37.6, -6.9,0,0,1684,1024,1024,1024,100,0,0,0,270.6,-22.3,0,44,3.559,3.53,0,0,0,0,12.147,88.52,314.16374299287,272.30972,31,Sport,
769300,2022-08-28 21:17:22,-34.9102503711344,-56.1345623641178,272.30972,270.013132,63.638800592872,314.16374299287,18.700788,19.3047922,1317.80187944,83.324805816,20,5,7.108,319.08500299287,277.23098,19.3719004,1393.69098948,-4.47388,-18.790296,0,255.7, -37.8, -7.7,0,0,1684,1024,1024,1024,100,0,0,0,270.6,-22.3,0,44,3.559,3.53,0,0,0,0,12.147,88.52,314.16374299287,272.30972,31,Sport,
769400,2022-08-28 21:17:23,-34.9102520345964,-56.1345714989339,271.981636,269.5866228,63.737225792872,313.83565899287,18.700788,19.3047922,1315.02956964,86.124674672,20,5,7.108,319.08500299287,277.23098,19.3719004,1393.69098948,-4.47388,-18.790296,0.223694,255.8, -38.1, -8,0,0,1684,1024,1024,1024,100,0,0,0,270.6,-22.3,0,44,3.559,3.53,0,0,0,0,12.147,88.52,313.83565899287,271.981636,31,Sport,
769500,2022-08-28 21:17:23,-34.9102530955863,-56.1345805993168,271.653552,269.1601136,63.835650992872,313.50757499287,18.700788,19.5284862,1312.28350656,88.87467476,19,5,7.108,319.08500299287,277.23098,19.5284862,1393.69098948,-4.47388,-19.01399,0.223694,256, -38.4, -8.4,0,0,1684,1024,1024,1024,100,0,0,0,270.6,-22.3,0,44,3.559,3.53,0,0,0,0,12.147,88.52,313.50757499287,271.653552,31,Sport,
769600,2022-08-28 21:17:23,-34.9102547481573,-56.1345899377231,271.325468,268.7336044,63.934076192872,313.17949099287,18.700788,19.4837474,1309.45214164,91.732942568,19,5,7.067,319.08500299287,277.23098,19.5284862,1393.69098948,-4.250186,-19.01399,0.447388,256.1, -37.8, -10.1,0,0,1684,1024,1024,1250,100,0,0,34,270.6,-22.3,0,44,3.568,3.525,0,0,0,0,13.968,88.52,313.17949099287,271.325468,31,Sport,
769700,2022-08-28 21:17:23,-34.9102563172478,-56.1345988422047,271.325468,268.6679876,63.999692992872,313.17949099287,18.700788,19.5284862,1306.74872948,94.458008272,20,5,7.067,319.08500299287,277.23098,19.5284862,1393.69098948,-4.47388,-19.01399,0.447388,256.3, -37.3, -9.8,0,0,1684,1024,1024,1024,100,0,0,0,270.7,-22.3,0,44,3.568,3.525,0,0,0,0,13.968,88.52,313.17949099287,271.325468,31,Sport,
769800,2022-08-28 21:17:23,-34.9102581330019,-56.1346086519775,270.997384,268.2414784,64.098118192872,312.85140699287,18.700788,19.7521802,1303.7730076,97.466866636,20,5,7.067,319.08500299287,277.23098,19.7521802,1393.69098948,-4.47388,-19.237684,0.447388,256.8, -36.9, -9.6,0,0,1684,1024,1024,1024,100,0,0,0,271.5,-22.3,0,44,3.568,3.525,0,0,0,0,13.968,88.52,312.85140699287,270.997384,31,Sport,
769900,2022-08-28 21:17:23,-34.9102597540723,-56.1346177333052,270.6693,267.8149692,64.196543392872,312.52332299287,18.700788,19.7521802,1301.017102,100.24770662,21,5,7.067,319.08500299287,277.23098,19.7521802,1393.69098948,-4.47388,-19.237684,0.223694,257.5, -36.7, -10,0,0,1684,1024,1024,1024,100,0,0,0,271.7,-22.3,0,44,3.568,3.525,0,0,0,0,13.968,88.52,312.52332299287,270.6693,31,Sport,
770000,2022-08-28 21:17:23,-34.9102616104985,-56.134627565142,270.6693,267.716544,64.294968592872,312.52332299287,18.700788,19.9758742,1298.0315376,103.266407504,21,5,7.067,319.08500299287,277.23098,19.9758742,1393.69098948,-4.47388,-19.461378,0,257.4, -36.8, -9.8,0,0,1684,1024,1024,1024,100,0,0,0,271.7,-22.3,0,44,3.568,3.525,0,0,0,0,13.968,88.52,312.52332299287,270.6693,31,Sport,
770100,2022-08-28 21:17:23,-34.9102633823237,-56.1346369630541,270.341216,267.2900348,64.393393792872,312.19523899287,18.700788,19.9758742,1295.18048764,106.151250116,19,5,7.067,319.08500299287,277.23098,19.9758742,1393.69098948,-4.47388,-19.461378,0,257.4, -36.5, -9.4,0,0,1684,1024,1024,1205,100,0,0,27,271.7,-22.3,0,44,3.568,3.525,0,0,0,0,13.968,88.52,312.19523899287,270.341216,31,Sport,
770200,2022-08-28 21:17:23,-34.9102652771551,-56.1346468045857,270.341216,267.1916096,64.491818992872,312.19523899287,18.700788,20.1771988,1292.1916424,109.175856512,19,5,7.067,319.08500299287,277.23098,20.1771988,1393.69098948,-4.47388,-19.685072,0,257.5, -36.5, -9.6,0,0,1684,1024,1024,1024,100,0,0,0,272.1,-22.3,0,44,3.568,3.525,0,0,0,0,13.968,88.52,312.19523899287,270.341216,31,Sport,
770300,2022-08-28 21:17:23,-34.9102671635186,-56.134656717658,270.013132,266.7979088,64.557435792872,311.86715499287,18.700788,20.13246,1289.17983128,112.220804116,19,5,7.067,319.08500299287,277.23098,20.1771988,1393.69098948,-4.250186,-19.685072,0,258.3, -35.9, -9.9,0,0,1684,1024,1024,1024,100,0,0,0,273,-22.3,0,44,3.568,3.525,0,0,0,0,13.968,88.52,311.86715499287,270.013132,31,Sport,
770400,2022-08-28 21:17:24,-34.91026920306,-56.1346663184917,270.013132,266.6994836,64.655860992872,311.86715499287,18.700788,20.13246,1286.25988368,115.187995812,19,5,7.067,319.08500299287,277.23098,20.1771988,1393.69098948,-4.250186,-19.685072,0,258.8, -35.6, -10,0,0,1684,1024,1024,1024,100,0,0,0,273.1,-22.3,0,44,3.568,3.525,0,0,0,0,13.968,88.52,311.86715499287,270.013132,31,Sport,
770500,2022-08-28 21:17:24,-34.9102709595388,-56.1346759156482,269.685048,266.2729744,64.754286192872,311.53907099287,18.700788,20.356154,1283.34649776,118.130253124,20,5,7.067,319.08500299287,277.23098,20.356154,1393.69098948,-4.250186,-19.908766,0,258.7, -35.6, -9.4,0,0,1684,1024,1024,1208,100,0,0,28,273.1,-22.3,0,44,3.568,3.525,0,0,0,0,13.968,88.52,311.53907099287,269.685048,31,Sport,
770600,2022-08-28 21:17:24,-34.9102727942089,-56.1346860339822,269.685048,266.1745492,64.852711392872,311.53907099287,18.700788,20.3114152,1280.27891236,121.230646924,20,5,7.068,319.08500299287,277.23098,20.356154,1393.69098948,-4.026492,-19.908766,0,258.4, -35.1, -8.9,0,0,1684,1024,1058,1392,100,0,5,56,273.1,-22.3,0,44,3.545,3.507,0,0,0,0,13.643,88.7,311.53907099287,269.685048,31,Sport,
770700,2022-08-28 21:17:24,-34.9102744985254,-56.134695688973,269.685048,266.076124,64.951136592872,311.53907099287,18.700788,20.4903704,1277.35240308,124.185371428,21,5,7.068,319.08500299287,277.23098,20.4903704,1393.69098948,-3.802798,-20.13246,-0.223694,258.5, -34.2, -8.9,0,0,1684,1024,1024,1024,100,0,0,0,273.7,-22.3,0,44,3.545,3.507,0,0,0,0,13.643,88.7,311.53907099287,269.685048,31,Sport,
770800,2022-08-28 21:17:24,-34.9102759584971,-56.1347059226414,269.356964,265.6496148,65.049561792872,311.21098699287,18.700788,20.2666764,1274.25857096,127.29331116,21,5,7.068,319.08500299287,277.23098,20.4903704,1393.69098948,-3.802798,-19.908766,-0.447388,260.2, -33.7, -9.8,0,0,1684,1024,1024,1024,100,0,0,0,276.9,-22.3,0,44,3.545,3.507,0,0,0,0,13.643,88.7,311.21098699287,269.356964,31,Sport,
770900,2022-08-28 21:17:24,-34.9102774839713,-56.134715600699,269.356964,265.5511896,65.147986992872,311.21098699287,18.700788,20.2666764,1271.32878084,130.242130152,20,5,7.068,319.08500299287,277.23098,20.4903704,1393.69098948,-3.802798,-19.908766,-0.447388,263.9, -33.1, -11.5,0,0,1684,1024,1024,1024,100,0,0,0,278.4,-22.3,0,44,3.545,3.507,0,0,0,0,13.643,88.7,311.21098699287,269.356964,31,Sport,
