time(millisecond),datetime(utc),latitude,longitude,height_above_takeoff(feet),height_above_ground_at_drone_location(feet),ground_elevation_at_drone_location(feet),altitude_above_seaLevel(feet),height_sonar(feet),speed(mph),distance(feet),mileage(feet),satellites,gpslevel,voltage(v),max_altitude(feet),max_ascent(feet),max_speed(mph),max_distance(feet), xSpeed(mph), ySpeed(mph), zSpeed(mph), compass_heading(degrees), pitch(degrees), roll(degrees),isPhoto,isVideo,rc_elevator,rc_aileron,rc_throttle,rc_rudder,rc_elevator(percent),rc_aileron(percent),rc_throttle(percent),rc_rudder(percent),gimbal_heading(degrees),gimbal_pitch(degrees),gimbal_roll(degrees),battery_percent,voltageCell1,voltageCell2,voltageCell3,voltageCell4,voltageCell5,voltageCell6,current(A),battery_temperature(f),altitude(feet),ascent(feet),flycStateRaw,flycState,message
0,2022-12-18 04:53:07,-34.9065601770346,-56.1632412097733,0,0,117.28622520985,117.28622520985,0.328084,0,0,0,11,4,0,117.28622520985,0,0,0,0,0,0,102.3, -2.4, -0.8,0,0,364,364,364,1684,-100,-100,-100,100,111.7,0,0,95,4.269,4.264,0,0,0,0,0,73.58,117.28622520985,0,41,Motors_Started,"Aeronave en Zona de altitud restringida (150). Vuela con precauci贸n (Code: 190001). Error de calibraci贸n del estabilizador. Reinicia la aeronave o contacta con la Asistencia DJI (Code: 40011)"
100,2022-12-18 04:53:07,-34.9065602054794,-56.1632411011871,0,0,117.28622520985,117.28622520985,0.328084,0,0.034106956472,0.034106956472,11,4,0,117.28622520985,0,0,0.034106956472,0,0,0,104.2, -4.3, -0.7,0,0,364,364,364,1684,-100,-100,-100,100,113.1,0,0,95,4.269,4.264,0,0,0,0,0,73.58,117.28622520985,0,41,Motors_Started,
200,2022-12-18 04:53:07,-34.9065602274178,-56.1632409867542,0,0,117.28622520985,117.28622520985,0.328084,0,0.069214897228,0.069269359172,12,4,0,117.28622520985,0,0,0.069214897228,0,0,0,102.4, -5.6, -2.1,0,0,364,364,364,1684,-100,-100,-100,100,113.6,0,0,95,4.269,4.264,0,0,0,0,0,73.58,117.28622520985,0,41,Motors_Started,
300,2022-12-18 04:53:07,-34.906560243554,-56.1632408947168,0,0,117.28622520985,117.28622520985,0.328084,0,0.097341538548,0.097430121228,12,4,0,117.28622520985,0,0,0.097341538548,0,0,0,101.1, -5.3, -2.2,0,0,1024,580,568,1601,0,-67,-69,87,112.4,0,0,95,4.269,4.264,0,0,0,0,0,73.58,117.28622520985,0,41,Motors_Started,
400,2022-12-18 04:53:07,-34.906560389974,-56.1632408071592,0,0,117.28622520985,117.28622520985,0.328084,0,0.14334482086,0.156929466964,12,4,0,117.28622520985,0,0,0.14334482086,0,0,0,100.9, -5.5, -3.1,0,0,1024,1024,1024,1365,0,0,0,52,111.6,0,0,95,4.269,4.264,0,0,0,0,0,73.58,117.28622520985,0,41,Motors_Started,
500,2022-12-18 04:53:07,-34.9065604551134,-56.1632406269019,0,0,117.28622520985,117.28622520985,0.328084,0,0.201764114068,0.21586778906,12,4,0,117.28622520985,0,0,0.201764114068,0,0,0,99.6, -5.1, -2.9,0,0,1024,1024,1024,1024,0,0,0,0,110.7,0,0,95,4.269,4.264,0,0,0,0,0,73.58,117.28622520985,0,41,Motors_Started,
600,2022-12-18 04:53:07,-34.9065604821553,-56.1632404705175,0,-0.032808400000017,117.31903360985,117.28622520985,0.328084,0,0.247625664092,0.263688328648,12,4,0,117.28622520985,0,0,0.247625664092,0,0,0,99.4, -4.7, -2.7,0,0,1024,1024,1024,1024,0,0,0,0,109.9,0,0,95,4.269,4.264,0,0,0,0,0,73.58,117.28622520985,0,41,Motors_Started,
700,2022-12-18 04:53:07,-34.9065604647814,-56.1632403344824,0,-0.032808400000017,117.31903360985,117.28622520985,0.328084,0,0.282152896168,0.304881571436,12,4,0,117.28622520985,0,0,0.282152896168,0,0,0,99, -3.7, -1.5,0,0,1024,1024,1024,1024,0,0,0,0,109.7,0,0,95,4.269,4.264,0,0,0,0,0,73.58,117.28622520985,0,41,Motors_Started,
800,2022-12-18 04:53:07,-34.9065604223914,-56.1632400793145,-0.328084,-0.36089240000002,117.31903360985,116.95814120985,0.328084,0,0.34988846264,0.38278216448,12,4,0,117.28622520985,0,0,0.34988846264,0,0,0,99.2, -4.5, -2.2,0,0,1024,1024,1024,1024,0,0,0,0,109.5,0,0,95,4.269,4.264,0,0,0,0,0,73.58,116.95814120985,-0.328084,41,Motors_Started,"Setting new Return-To-Home altitude to 100m (328 ft). Data Recorder File Index is 80. Setting new Maximum Flight Altitude to 120m (394 ft)"
900,2022-12-18 04:53:08,-34.9065604305662,-56.163239984279,-0.328084,-0.36089240000002,117.31903360985,116.95814120985,0.328084,0,0.3781660226,0.41137140424,12,4,0,117.28622520985,0,0,0.3781660226,0,0,0,99.1, -4.2, -2,0,0,1024,1024,1024,1024,0,0,0,0,109.5,0,0,95,4.269,4.264,0,0,0,0,0,73.58,116.95814120985,-0.328084,41,Motors_Started,
1000,2022-12-18 04:53:08,-34.9065604687043,-56.1632399415923,-0.328084,-0.36089240000002,117.31903360985,116.95814120985,0.328084,0,0.39408793912,0.43025920012,12,4,0,117.28622520985,0,0,0.39408793912,0,0,0,99.3, -4, -2,0,0,1024,1024,1043,1013,0,0,3,-2,109.5,0,0,95,4.269,4.264,0,0,0,0,0,73.58,116.95814120985,-0.328084,41,Motors_Started,
1100,2022-12-18 04:53:08,-34.9065605342215,-56.1632399257458,-0.328084,-0.328084,117.28622520985,116.95814120985,0.328084,0,0.4056922702,0.45462927964,12,4,0,117.28622520985,0,0,0.4056922702,0,0,0,99.4, -3.9, -2,0,0,1433,1024,1124,1013,62,0,15,-2,109.6,0,0,95,4.269,4.264,0,0,0,0,0,73.58,116.95814120985,-0.328084,10,Assisted_Takeoff,
1200,2022-12-18 04:53:08,-34.9065608002425,-56.1632400705173,-0.328084,-0.328084,117.28622520985,116.95814120985,0.328084,0,0.40975066928,0.56091537228,12,4,0,117.28622520985,0,0,0.40975066928,0,0,0,98.8, -4, -2.1,0,0,1684,1024,1367,1013,100,0,52,-2,109.5,0,0,95,4.269,4.264,0,0,0,0,0,73.58,116.95814120985,-0.328084,10,Assisted_Takeoff,
1300,2022-12-18 04:53:08,-34.9065608866233,-56.1632400086504,-0.328084,-0.328084,117.28622520985,116.95814120985,0.328084,0,0.44292652336,0.59746392988,12,4,0,117.28622520985,0,0,0.44292652336,0,0,0,98.2, -4.3, -2,0,0,1684,1024,1614,1013,100,0,89,-2,109.1,0,0,95,4.269,4.264,0,0,0,0,0,73.58,116.95814120985,-0.328084,10,Assisted_Takeoff,
1400,2022-12-18 04:53:08,-34.9065609533244,-56.16323993383,-0.328084,-0.328084,117.28622520985,116.95814120985,0.328084,0,0.4753609076,0.63053151624,12,4,0,117.28622520985,0,0,0.4753609076,0,0,0,97.5, -5.8, -2,0,0,1241,1024,1661,1023,33,0,97,-0,108.3,0,0,95,4.269,4.264,0,0,0,0,0,73.58,116.95814120985,-0.328084,10,Assisted_Takeoff,
1500,2022-12-18 04:53:08,-34.9065610031059,-56.1632398640767,-0.328084,-0.328084,117.28622520985,116.95814120985,0.328084,0,0.50294949116,0.65819883996,12,4,0,117.28622520985,0,0,0.50294949116,0,0,0,97.1, -5.7, -1.7,0,0,1024,1024,1478,1024,0,0,69,0,107.9,0,0,95,4.269,4.264,0,0,0,0,0,73.58,116.95814120985,-0.328084,10,Assisted_Takeoff,
1600,2022-12-18 04:53:08,-34.9065610186787,-56.1632398130538,-0.328084,-0.328084,117.28622520985,116.95814120985,0.328084,0,0.51859581712,0.67448821056,12,4,0,117.28622520985,0,0,0.51859581712,0,0,0,96.3, -2.2, -0.3,0,0,1024,1024,1478,1024,0,0,69,0,107.4,0,0,95,4.269,4.264,0,0,0,0,0,73.58,116.95814120985,-0.328084,10,Assisted_Takeoff,
1700,2022-12-18 04:53:08,-34.9065609313665,-56.1632398681933,-0.328084,-0.328084,117.28622520985,116.95814120985,0.328084,0,0.48669949064,0.71036419596,12,4,8.598,117.28622520985,0,0,0.51859581712,0,0,0,95.9, -0.6, 1,0,0,1024,1024,1427,1019,0,0,61,-1,106.8,0,0,95,4.269,4.264,0,0,0,0,0.729,73.58,116.95814120985,-0.328084,10,Assisted_Takeoff,
1800,2022-12-18 04:53:08,-34.9065609264616,-56.1632398194856,-0.328084,-0.328084,117.28622520985,116.95814120985,0.328084,0,0.4978018532,0.72504595496,13,4,8.598,117.28622520985,0,0,0.51859581712,0,0,0,96.8, 0, 1.4,0,0,1024,1024,1588,1015,0,0,85,-1,106.8,0,0,95,4.269,4.264,0,0,0,0,0.729,73.58,116.95814120985,-0.328084,10,Assisted_Takeoff,
1900,2022-12-18 04:53:09,-34.9065609627254,-56.1632397937371,-0.328084,-0.328084,117.28622520985,116.95814120985,0.328084,0,0.51155185364,0.74035763524,13,4,8.598,117.28622520985,0,0,0.51859581712,0,0,0,96.7, 0.1, 0.4,0,0,1024,1024,1651,1015,0,0,95,-1,107.1,0,0,95,4.269,4.264,0,0,0,0,0.729,73.58,116.95814120985,-0.328084,10,Assisted_Takeoff,
2000,2022-12-18 04:53:09,-34.9065610219617,-56.1632398114706,-0.328084,-0.328084,117.28622520985,116.95814120985,0.328084,0,0.51968833684,0.76261157296,13,4,8.598,117.28622520985,0,0,0.51968833684,0,0,-0.223694,96.1, 0.5, 0.7,0,0,1024,1024,1024,1024,0,0,0,0,107.1,0,0,95,4.269,4.264,0,0,0,0,0.729,73.58,116.95814120985,-0.328084,10,Assisted_Takeoff,"Error de calibraci贸n del estabilizador. Reinicia la aeronave o contacta con la Asistencia DJI (Code: 40011)"
2100,2022-12-18 04:53:09,-34.9065611889212,-56.1632400921238,0,0,117.28622520985,117.28622520985,0.328084,0,0.49812337552,0.86635173376,13,4,8.598,117.28622520985,0,0,0.51968833684,0,0,-0.671082,96.1, -0.2, 0.3,0,0,1024,1024,1024,1024,0,0,0,0,107,0,0,95,4.269,4.264,0,0,0,0,0.729,73.58,117.28622520985,0,6,P-GPS,
2200,2022-12-18 04:53:09,-34.9065613018456,-56.1632401921468,0,0,117.28622520985,117.28622520985,0.656168,0,0.51100395336,0.9172736514,13,4,8.598,117.28622520985,0,0,0.51968833684,0,0,-1.342164,96.1, -0.6, -0.3,0,0,1024,1024,1024,1024,0,0,0,0,107,0,0,95,4.269,4.264,0,0,0,0,0.729,73.58,117.28622520985,0,6,P-GPS,
2300,2022-12-18 04:53:09,-34.9065614295694,-56.1632402842861,0,0,117.28622520985,117.28622520985,0.984252,0,0.53433728744,0.97141735392,13,4,8.598,117.28622520985,0,0,0.53433728744,0,0,-1.789552,96.2, -0.9, -0.8,0,0,1024,1024,1024,1024,0,0,0,0,107,0,0,95,4.269,4.264,0,0,0,0,0.729,73.58,117.28622520985,0,6,P-GPS,
2400,2022-12-18 04:53:09,-34.9065615622208,-56.1632403446794,0.328084,0.36089239999999,117.25341680985,117.61430920985,1.64042,0,0.5678149788,1.0230807414,13,4,8.598,117.61430920985,0.328084,0,0.5678149788,0,0,-1.789552,96.2, -1.1, -1.1,0,0,1024,1024,1024,1024,0,0,0,0,107,0,0,95,4.269,4.264,0,0,0,0,0.729,73.58,117.61430920985,0.328084,6,P-GPS,
2500,2022-12-18 04:53:09,-34.9065618584005,-56.1632403546087,0.656168,0.68897639999999,117.25341680985,117.94239320985,1.968504,0,0.66466865644,1.13118113856,13,4,8.598,117.94239320985,0.656168,0,0.66466865644,0,0,-1.565858,96.3, -1.2, -0.8,0,0,1024,1024,1024,1024,0,0,0,0,107,0,0,95,4.269,4.264,0,0,0,0,0.729,73.58,117.94239320985,0.656168,6,P-GPS,
2600,2022-12-18 04:53:09,-34.9065620344744,-56.1632404987868,0.656168,0.68897639999999,117.25341680985,117.94239320985,2.296588,0,0.71029201748,1.2085630308,13,4,8.598,117.94239320985,0.656168,0,0.71029201748,0,0,-1.342164,96.3, -1, -1.4,0,0,1024,1024,1024,1024,0,0,0,0,107,0,0,95,4.269,4.264,0,0,0,0,0.729,73.58,117.94239320985,0.656168,6,P-GPS,
2700,2022-12-18 04:53:09,-34.9065622452162,-56.1632408017973,0.984252,1.0498688,117.22060840985,118.27047720985,2.624672,0,0.76438322656,1.32744098736,13,4,8.533,118.27047720985,0.984252,0,0.76438322656,0,0,-0.894776,96.3, -1.1, -1.3,0,0,1024,1024,1024,1024,0,0,0,0,107,0,0,95,4.196,4.195,0,0,0,0,1.475,73.58,118.27047720985,0.984252,6,P-GPS,
2800,2022-12-18 04:53:09,-34.9065624758283,-56.1632411037533,0.984252,1.0498688,117.22060840985,118.27047720985,2.624672,0,0.83931433132,1.45089899656,13,4,8.533,118.27047720985,0.984252,0,0.83931433132,0,0,-0.447388,96.3, -0.8, -1,0,0,1024,1024,1024,1024,0,0,0,0,107,0,0,95,4.196,4.195,0,0,0,0,1.475,73.58,118.27047720985,0.984252,6,P-GPS,
2900,2022-12-18 04:53:10,-34.9065631895346,-56.1632420892374,0.984252,1.1154856,117.15499160985,118.27047720985,2.952756,0,1.13017063984,1.84428155508,13,4,8.533,118.27047720985,0.984252,0,1.13017063984,0,0,-0.223694,96.3, -0.9, -0.3,0,0,1024,1024,1024,1024,0,0,0,0,107,0,0,95,4.196,4.195,0,0,0,0,1.475,73.58,118.27047720985,0.984252,6,P-GPS,"Error de calibraci贸n del estabilizador. Reinicia la aeronave o contacta con la Asistencia DJI (Code: 40011)"
3000,2022-12-18 04:53:10,-34.9065635009534,-56.1632423197515,1.312336,1.476378,117.12218320985,118.59856120985,2.952756,0,1.25738521084,1.977198226,13,4,8.533,118.59856120985,1.312336,0,1.25738521084,0,0,0,96.3, -0.3, -0.2,0,0,1024,1024,1024,1024,0,0,0,0,107,0,0,95,4.196,4.195,0,0,0,0,1.475,73.58,118.59856120985,1.312336,6,P-GPS,
3100,2022-12-18 04:53:10,-34.9065638858019,-56.1632424705705,1.312336,1.476378,117.12218320985,118.59856120985,2.952756,0,1.40474413944,2.12468510736,13,4,8.533,118.59856120985,1.312336,0,1.40474413944,0,0,0,96.4, -0.6, -0.3,0,0,1024,1024,1024,1024,0,0,0,0,107,0,0,95,4.196,4.195,0,0,0,0,1.475,73.58,118.59856120985,1.312336,6,P-GPS,
3200,2022-12-18 04:53:10,-34.9065641765915,-56.1632426086355,1.312336,1.5091864,117.08937480985,118.59856120985,2.952756,0,1.5180774764,2.23853681704,13,4,8.533,118.59856120985,1.312336,0,1.5180774764,0,0,0,96.4, -1, -0.3,0,0,1024,1024,1024,1024,0,0,0,0,107,0,0,95,4.196,4.195,0,0,0,0,1.475,73.58,118.59856120985,1.312336,6,P-GPS,
3300,2022-12-18 04:53:10,-34.9065643767078,-56.1632427434705,1.312336,1.5091864,117.08937480985,118.59856120985,2.952756,0,1.599491521,2.32195545488,13,4,8.533,118.59856120985,1.312336,0,1.599491521,0,0,0,96.3, -1, -0.1,0,0,1024,1024,1024,1024,0,0,0,0,107,0,0,95,4.196,4.195,0,0,0,0,1.475,73.58,118.59856120985,1.312336,6,P-GPS,
3400,2022-12-18 04:53:10,-34.9065647955598,-56.163242713253,1.312336,1.5419948,117.05656640985,118.59856120985,2.952756,0,1.74408142064,2.47503944928,12,4,8.533,118.59856120985,1.312336,0,1.74408142064,0,0,0,96.4, -1.4, -0.2,0,0,1024,1024,1024,1024,0,0,0,0,107,0,0,95,4.196,4.195,0,0,0,0,1.475,73.58,118.59856120985,1.312336,6,P-GPS,
3500,2022-12-18 04:53:10,-34.9065647434333,-56.1632428149589,0.984252,1.2139108,117.05656640985,118.27047720985,2.952756,0,1.73389441244,2.5109252772,12,4,8.533,118.59856120985,1.312336,0,1.74408142064,0,0,0,96.4, -1.6, -0.7,0,0,1024,1024,1024,1024,0,0,0,0,107,0,0,95,4.196,4.195,0,0,0,0,1.475,73.58,118.27047720985,0.984252,6,P-GPS,
3600,2022-12-18 04:53:10,-34.9065647445781,-56.1632429421332,0.984252,1.2139108,117.05656640985,118.27047720985,2.952756,0,1.74521659128,2.54897974036,12,4,8.533,118.59856120985,1.312336,0,1.74521659128,0,0,0,96.5, -1.7, -1,0,0,1024,1024,1024,1024,0,0,0,0,107,0,0,95,4.196,4.195,0,0,0,0,1.475,73.58,118.27047720985,0.984252,6,P-GPS,
3700,2022-12-18 04:53:10,-34.9065648184102,-56.1632431147124,0.984252,1.2139108,117.05656640985,118.27047720985,2.952756,0,1.78675202568,2.6072179312,12,4,8.316,118.59856120985,1.312336,0,1.78675202568,0,0,0,96.5, -1.6, -0.5,0,0,1024,1024,1024,1024,0,0,0,0,107,0,0,95,4.186,4.182,0,0,0,0,3.89,73.58,118.27047720985,0.984252,6,P-GPS,
3800,2022-12-18 04:53:10,-34.9065645041026,-56.1632432475333,0.984252,1.2139108,117.05656640985,118.27047720985,2.952756,0,1.69237538224,2.72858604532,12,4,8.316,118.59856120985,1.312336,0,1.78675202568,0,0,0,96.6, -1, -0.7,0,0,1024,1024,1024,1024,0,0,0,0,107,0,0,95,4.186,4.182,0,0,0,0,3.89,73.58,118.27047720985,0.984252,6,P-GPS,
3900,2022-12-18 04:53:10,-34.9065645529656,-56.1632434409115,0.984252,1.2139108,117.05656640985,118.27047720985,2.952756,0,1.73050530472,2.78913066668,12,4,8.316,118.59856120985,1.312336,0,1.78675202568,0,0,0,96.5, -1, 0,0,0,1024,1024,1024,1024,0,0,0,0,107,0,0,95,4.186,4.182,0,0,0,0,3.89,73.58,118.27047720985,0.984252,6,P-GPS,
4000,2022-12-18 04:53:11,-34.9065645798268,-56.1632435864606,0.984252,1.2467192,117.02375800985,118.27047720985,2.952756,0,1.75672249716,2.83376977572,12,4,8.316,118.59856120985,1.312336,0,1.78675202568,0,0,0,96.4, -1.1, -0.2,0,0,1024,1024,1072,922,0,0,7,-15,107,0,0,95,4.186,4.182,0,0,0,0,3.89,73.58,118.27047720985,0.984252,6,P-GPS,
4100,2022-12-18 04:53:11,-34.9065645851812,-56.1632436899151,0.984252,1.2467192,117.02375800985,118.27047720985,2.952756,0.223694,1.77125333752,2.86478355624,12,4,8.316,118.59856120985,1.312336,0.223694,1.78675202568,0.223694,0,0,96.4, -1, -0.4,0,0,1024,1024,1024,1024,0,0,0,0,107,0,0,95,4.186,4.182,0,0,0,0,3.89,73.58,118.27047720985,0.984252,6,P-GPS,
4200,2022-12-18 04:53:11,-34.906564458542,-56.1632438926104,0.984252,1.2139108,117.05656640985,118.27047720985,2.952756,0,1.75628614544,2.941026997,12,4,8.316,118.59856120985,1.312336,0.223694,1.78675202568,0,0,0,96.4, -1.6, -0.1,0,0,1024,1024,1415,991,0,0,59,-5,106.9,0,0,95,4.186,4.182,0,0,0,0,3.89,73.58,118.27047720985,0.984252,6,P-GPS,
4300,2022-12-18 04:53:11,-34.9065644590028,-56.1632440775872,0.984252,1.2139108,117.05656640985,118.27047720985,2.624672,0,1.78241147436,2.9963747678,12,4,8.316,118.59856120985,1.312336,0.223694,1.78675202568,0,0,0,96.1, -1.1, 0,0,0,1024,1024,1671,1024,0,0,98,0,106.8,0,0,95,4.186,4.182,0,0,0,0,3.89,73.58,118.27047720985,0.984252,6,P-GPS,
4400,2022-12-18 04:53:11,-34.9065644667949,-56.16324422344,1.312336,1.5419948,117.05656640985,118.59856120985,2.624672,0.223694,1.80628942788,3.040108365,11,4,8.316,118.59856120985,1.312336,0.223694,1.80628942788,0.223694,0,-0.223694,96.1, -1.2, 0,0,0,1024,1024,1587,1024,0,0,85,0,106.7,0,0,95,4.186,4.182,0,0,0,0,3.89,73.58,118.59856120985,1.312336,6,P-GPS,
4500,2022-12-18 04:53:11,-34.9065644887805,-56.1632443331598,1.312336,1.5419948,117.05656640985,118.59856120985,2.624672,0.223694,1.8297900848,3.073901017,11,4,8.316,118.59856120985,1.312336,0.223694,1.8297900848,0.223694,0,-0.894776,95.9, -1.6, 0.3,0,0,1024,1024,1587,1024,0,0,85,0,106.6,-0.1,0,95,4.186,4.182,0,0,0,0,3.89,73.58,118.59856120985,1.312336,6,P-GPS,
4600,2022-12-18 04:53:11,-34.9065643572967,-56.1632442887857,1.64042,1.8700788,117.05656640985,118.92664520985,2.952756,0.223694,1.78181436148,3.12367792148,11,4,8.316,118.92664520985,1.64042,0.223694,1.8297900848,0.223694,0,-1.565858,95.9, -2, 0,0,0,1024,1024,1024,1024,0,0,0,0,106.6,-0.1,0,95,4.186,4.182,0,0,0,0,3.89,73.58,118.92664520985,1.64042,6,P-GPS,
4700,2022-12-18 04:53:11,-34.9065643046165,-56.1632443509529,1.968504,2.1981628,117.05656640985,119.25472920985,3.28084,0.223694,1.77516737964,3.15042332916,11,4,8.386,119.25472920985,1.968504,0.223694,1.8297900848,0.223694,0,-2.013246,96.1, -2, 0.2,0,0,1024,1024,1024,1024,0,0,0,0,106.6,-0.1,0,95,4.139,4.132,0,0,0,0,3.793,73.58,119.25472920985,1.968504,6,P-GPS,
4800,2022-12-18 04:53:11,-34.9065642740262,-56.1632443701188,1.968504,2.1981628,117.05656640985,119.25472920985,3.28084,0.223694,1.76876974164,3.16297254216,13,4,8.386,119.25472920985,1.968504,0.223694,1.8297900848,0.223694,0,-1.565858,96.2, -1.7, -0.5,0,0,1024,1024,1024,1024,0,0,0,0,106.6,-0.1,0,95,4.139,4.132,0,0,0,0,3.793,73.58,119.25472920985,1.968504,6,P-GPS,
4900,2022-12-18 04:53:12,-34.9065642627753,-56.1632443501162,2.296588,2.5262468,117.05656640985,119.58281320985,3.608924,0.223694,1.76210307476,3.17022976024,13,4,8.386,119.58281320985,2.296588,0.223694,1.8297900848,0.223694,0,-1.11847,96.2, -1.3, -0.5,0,0,1214,958,1024,1024,29,-10,0,0,106.6,-0.1,0,95,4.139,4.132,0,0,0,0,3.793,73.58,119.58281320985,2.296588,6,P-GPS,
5000,2022-12-18 04:53:12,-34.9065642354972,-56.1632444084991,2.624672,2.8543308,117.05656640985,119.91089720985,3.608924,0.223694,1.76311357348,3.19033474776,13,4,8.386,119.91089720985,2.624672,0.223694,1.8297900848,0.223694,0,-0.671082,96.3, -1.4, -0.5,0,0,1673,1024,1024,1024,98,0,0,0,106.6,-0.1,0,95,4.139,4.132,0,0,0,0,3.793,73.58,119.91089720985,2.624672,6,P-GPS,
5100,2022-12-18 04:53:12,-34.9065641351721,-56.1632446401702,2.624672,2.8871392,117.02375800985,119.91089720985,3.937008,0.223694,1.77172249764,3.26872385788,13,4,8.386,119.91089720985,2.624672,0.223694,1.8297900848,0.223694,0,-0.223694,96.3, -5.9, -0.4,0,0,1684,1024,1024,1024,100,0,0,0,106.6,-0.1,0,95,4.139,4.132,0,0,0,0,3.793,73.58,119.91089720985,2.624672,6,P-GPS,
5200,2022-12-18 04:53:12,-34.9065641173862,-56.1632445764269,2.624672,2.8871392,117.02375800985,119.91089720985,3.608924,0.223694,1.75542328452,3.288878058,13,4,8.386,119.91089720985,2.624672,0.223694,1.8297900848,0,0.223694,0,96.2, -13.7, -0.4,0,0,1684,1024,1359,1024,100,0,51,0,106.6,-0.1,0,95,4.139,4.132,0,0,0,0,3.793,73.58,119.91089720985,2.624672,6,P-GPS,
5300,2022-12-18 04:53:12,-34.9065641320178,-56.1632441438514,2.624672,2.8543308,117.05656640985,119.91089720985,3.608924,0.671082,1.68904861048,3.4184056212,13,4,8.386,119.91089720985,2.624672,0.671082,1.8297900848,0,0.671082,0,96.2, -18, -0.6,0,0,1684,1024,1684,1024,100,0,100,0,106.6,-0.1,0,95,4.139,4.132,0,0,0,0,3.793,73.58,119.91089720985,2.624672,6,P-GPS,
5400,2022-12-18 04:53:12,-34.9065640971577,-56.1632434873484,2.624672,2.8215224,117.08937480985,119.91089720985,3.608924,1.342164,1.58430779348,3.6152560212,13,4,8.386,119.91089720985,2.624672,1.342164,1.8297900848,0,1.342164,0,96.1, -18.3, -0.4,0,0,1684,1024,1684,1024,100,0,100,0,106.6,-0.1,0,95,4.139,4.132,0,0,0,0,3.793,73.58,119.91089720985,2.624672,6,P-GPS,
5500,2022-12-18 04:53:12,-34.9065637912854,-56.1632420866911,2.952756,3.116798,117.12218320985,120.23898120985,3.608924,2.23694,1.34450791704,4.0489502608,13,4,8.386,120.23898120985,2.952756,2.23694,1.8297900848,0,2.23694,-0.894776,96.1, -16.1, 0.1,0,0,1684,1024,1684,1024,100,0,100,0,106.6,-0.1,0,95,4.139,4.132,0,0,0,0,3.793,73.58,120.23898120985,2.952756,6,P-GPS,"Punto de origen actualizado. Altitud de RPO establecida en 100m (Code: 3000001)"
5600,2022-12-18 04:53:12,-34.9065637358255,-56.1632407259798,3.28084,3.4120736,117.15499160985,120.56706520985,3.937008,3.131716,1.30646657724,4.4565946308,13,4,8.386,120.56706520985,3.28084,3.131716,1.8297900848,0,3.131716,-1.789552,96, -15.2, 0.3,0,0,1590,1024,1684,1024,86,0,100,0,106.6,-0.1,0,95,4.139,4.132,0,0,0,0,3.793,73.58,120.56706520985,3.28084,6,P-GPS,
5700,2022-12-18 04:53:12,-34.9065637318879,-56.1632389298812,3.608924,3.7073492,117.18780000985,120.89514920985,4.593176,3.802798,1.46543967944,4.9939962228,13,4,8.354,120.89514920985,3.608924,3.802798,1.8297900848,-0.223694,3.802798,-2.460634,95.9, -14.1, -0.2,0,0,1024,1024,1684,1024,0,0,100,0,106.6,-0.1,0,95,4.121,4.116,0,0,0,0,4.158,73.58,120.89514920985,3.608924,6,P-GPS,
5800,2022-12-18 04:53:12,-34.9065637487048,-56.1632368375367,3.937008,3.9698164,117.25341680985,121.22323320985,5.249344,4.026492,1.84649284124,5.62007892,13,4,8.354,121.22323320985,3.937008,4.026492,1.84649284124,-0.223694,4.026492,-3.35541,95.9, 2.1, 0,0,0,1024,1024,1684,1024,0,0,100,0,106.6,-0.1,0,95,4.121,4.116,0,0,0,0,4.158,73.58,121.22323320985,3.937008,6,P-GPS,
5900,2022-12-18 04:53:13,-34.9065636134479,-56.1632338962107,4.593176,4.5275592,117.35184200985,121.87940120985,5.905512,3.35541,2.52200467388,6.5015093944,13,4,8.354,121.87940120985,4.593176,4.026492,2.52200467388,-0.223694,3.35541,-4.026492,95.5, 14.5, 0.5,0,0,1024,1024,1684,1024,0,0,100,0,106.6,-0.1,0,95,4.121,4.116,0,0,0,0,4.158,73.58,121.87940120985,4.593176,6,P-GPS,
6000,2022-12-18 04:53:13,-34.9065636831991,-56.1632321518303,5.249344,5.1509188,117.38465040985,122.53556920985,6.56168,2.23694,2.99693907228,7.0240815896,13,4,8.354,122.53556920985,5.249344,4.026492,2.99693907228,-0.223694,2.23694,-4.921268,95.5, 11.7, 0.2,0,0,1024,1024,1684,1024,0,0,100,0,106.6,-0.1,0,95,4.121,4.116,0,0,0,0,4.158,73.58,122.53556920985,5.249344,6,P-GPS,
6100,2022-12-18 04:53:13,-34.9065637979376,-56.1632307793916,5.905512,5.7742784,117.41745880985,123.19173720985,7.545932,1.565858,3.388943678,7.43684407,13,4,8.354,123.19173720985,5.905512,4.026492,3.388943678,0,1.565858,-5.59235,95.2, 7.6, 0,0,0,1024,1024,1684,1024,0,0,100,0,106.6,-0.1,0,95,4.121,4.116,0,0,0,0,4.158,73.58,123.19173720985,5.905512,6,P-GPS,
6200,2022-12-18 04:53:13,-34.9065638966522,-56.1632298278988,6.889764,6.725722,117.45026720985,124.17598920985,8.530184,0.9171454,3.6659778076,7.7238191448,13,4,8.354,124.17598920985,6.889764,4.026492,3.6659778076,-0.223694,0.894776,-6.039738,95.2, 5.4, -0.1,0,0,1024,1024,1684,1024,0,0,100,0,106.6,-0.1,0,95,4.121,4.116,0,0,0,0,4.158,73.58,124.17598920985,6.889764,6,P-GPS,
6300,2022-12-18 04:53:13,-34.9065642302341,-56.1632290621261,7.874016,7.6771656,117.48307560985,125.16024120985,9.514436,0.671082,3.9239830652,7.9832351636,13,4,8.354,125.16024120985,7.874016,4.026492,3.9239830652,0,0.671082,-6.263432,95.2, 4, 0.1,0,0,1024,1024,1684,1024,0,0,100,0,106.6,-0.1,0,95,4.121,4.116,0,0,0,0,4.158,73.58,125.16024120985,7.874016,6,P-GPS,
6400,2022-12-18 04:53:13,-34.9065641966882,-56.1632285361481,8.858268,8.6614176,117.48307560985,126.14449320985,10.498688,0.447388,4.06578097,8.1411091844,13,4,8.354,126.14449320985,8.858268,4.026492,4.06578097,0,0.447388,-6.263432,95.3, 3.2, 0,0,0,1024,1024,1684,1024,0,0,100,0,106.6,-0.1,0,95,4.121,4.116,0,0,0,0,4.158,73.58,126.14449320985,8.858268,6,P-GPS,
6500,2022-12-18 04:53:13,-34.9065640193066,-56.1632281143652,9.84252,9.6128612,117.51588400985,127.12874520985,11.48294,0.447388,4.1614830728,8.2829398976,13,4,8.354,127.12874520985,9.84252,4.026492,4.1614830728,0,0.447388,-6.487126,95.7, 2.6, -0.9,0,0,1024,1024,1684,1024,0,0,100,0,106.6,-0.1,0,95,4.121,4.116,0,0,0,0,4.158,73.58,127.12874520985,9.84252,6,P-GPS,
6600,2022-12-18 04:53:13,-34.9065638517577,-56.1632279694044,11.154856,10.9251972,117.51588400985,128.44108120985,12.467192,0.3131716,4.1823492152,8.3578742832,13,4,8.354,128.44108120985,11.154856,4.026492,4.1823492152,-0.223694,0.223694,-6.487126,95.9, 2.3, -0.5,0,0,1024,1024,1684,1024,0,0,100,0,106.6,-0.1,0,95,4.121,4.116,0,0,0,0,4.158,73.58,128.44108120985,11.154856,6,P-GPS,
6700,2022-12-18 04:53:13,-34.9065636974528,-56.1632280881787,12.139108,11.9094492,117.51588400985,129.42533320985,13.451444,0.3131716,4.1308400272,8.4244753352,13,4,8.385,129.42533320985,12.139108,4.026492,4.1823492152,0,0,-6.71082,95.8, 1.8, -0.8,0,0,1024,1024,1684,1024,0,0,100,0,106.6,-0.1,0,95,4.126,4.121,0,0,0,0,4.408,73.58,129.42533320985,12.139108,6,P-GPS,
6800,2022-12-18 04:53:13,-34.9065631651308,-56.1632291590479,13.12336,12.8937012,117.51588400985,130.40958520985,14.435696,0.223694,3.766896446,8.7991472632,13,4,8.385,130.40958520985,13.12336,4.026492,4.1823492152,-0.223694,0,-6.71082,95.7, 1.6, -0.8,0,0,1024,1024,1684,1024,0,0,100,0,106.6,-0.1,0,95,4.126,4.121,0,0,0,0,4.408,73.58,130.40958520985,13.12336,6,P-GPS,
6900,2022-12-18 04:53:13,-34.9065629578543,-56.1632290697219,14.107612,13.8779532,117.51588400985,131.39383720985,15.748032,0,3.7714240052,8.8793638012,13,4,8.385,131.39383720985,14.107612,4.026492,4.1823492152,0,0,-6.71082,95.7, 1, -0.9,0,0,1024,1024,1684,1024,0,0,100,0,106.6,-0.1,0,95,4.126,4.121,0,0,0,0,4.408,73.58,131.39383720985,14.107612,6,P-GPS,
7000,2022-12-18 04:53:14,-34.9065627507325,-56.1632289201764,15.419948,15.1902892,117.51588400985,132.70617320985,16.732284,0,3.7951444784,8.9671590796,13,4,8.385,132.70617320985,15.419948,4.026492,4.1823492152,0,0,-6.71082,95.9, 0.8, -0.6,0,0,1024,1024,1684,1024,0,0,100,0,106.6,-0.1,0,95,4.126,4.121,0,0,0,0,4.408,73.58,132.70617320985,15.419948,6,P-GPS,
7100,2022-12-18 04:53:14,-34.9065625285867,-56.1632286525094,16.4042,16.1745412,117.51588400985,133.69042520985,17.716536,0,3.8539371312,9.0811026528,13,4,8.385,133.69042520985,16.4042,4.026492,4.1823492152,0,0,-6.71082,95.8, 0.8, -0.4,0,0,1024,1024,1684,1024,0,0,100,0,106.6,-0.1,0,95,4.126,4.121,0,0,0,0,4.408,73.58,133.69042520985,16.4042,6,P-GPS,
7200,2022-12-18 04:53:14,-34.9065620969725,-56.1632280243995,17.388452,17.0931764,117.58150080985,134.67467720985,18.700788,0,4.006889892,9.3263126344,13,4,8.385,134.67467720985,17.388452,4.026492,4.1823492152,0,0,-6.71082,95.8, 1.3, 0.1,0,0,1024,1024,1684,1024,0,0,100,0,106.6,-0.1,0,95,4.126,4.121,0,0,0,0,4.408,73.58,134.67467720985,17.388452,6,P-GPS,
7300,2022-12-18 04:53:14,-34.9065618435394,-56.1632275985621,18.372704,18.0774284,117.58150080985,135.65892920985,19.68504,0,4.1177166672,9.4837273376,13,4,8.385,135.65892920985,18.372704,4.026492,4.1823492152,0,0,-6.71082,95.9, 1.3, 0.2,0,0,1024,1024,1684,1024,0,0,100,0,106.6,-0.1,0,95,4.126,4.121,0,0,0,0,4.408,73.58,135.65892920985,18.372704,6,P-GPS,
7400,2022-12-18 04:53:14,-34.9065615884192,-56.1632270943126,19.356956,19.028872,117.61430920985,136.64318120985,20.669292,0,4.2547245456,9.6610239312,13,4,8.385,136.64318120985,19.356956,4.026492,4.2547245456,0,0,-6.71082,95.9, 1.9, 1,0,0,1024,1024,1684,1024,0,0,100,0,106.6,-0.1,0,95,4.126,4.121,0,0,0,0,4.408,73.58,136.64318120985,19.356956,6,P-GPS,
7500,2022-12-18 04:53:14,-34.9065613187179,-56.1632265027991,20.341208,19.9803156,117.64711760985,137.62743320985,21.653544,0,4.42011169,9.863517376,13,4,8.385,137.62743320985,20.341208,4.026492,4.42011169,0,0,-6.487126,95.9, 1.4, 0.6,0,0,1024,1024,1684,1024,0,0,100,0,106.6,-0.1,0,95,4.126,4.121,0,0,0,0,4.408,73.58,137.62743320985,20.341208,6,P-GPS,
7600,2022-12-18 04:53:14,-34.9065611774488,-56.1632253076908,21.653544,21.2270348,117.71273440985,138.93976920985,22.637796,0,4.7720145884,10.2248034768,13,4,8.385,138.93976920985,21.653544,4.026492,4.7720145884,0,0,-6.71082,95.9, 0.7, 1,0,0,1024,1024,1684,1024,0,0,100,0,106.6,-0.1,0,95,4.126,4.121,0,0,0,0,4.408,73.58,138.93976920985,21.653544,6,P-GPS,
7700,2022-12-18 04:53:14,-34.906561072787,-56.1632253191179,22.637796,22.2112868,117.71273440985,139.92402120985,23.622048,0,4.7658466092,10.263123688,13,4,8.385,139.92402120985,22.637796,4.026492,4.7720145884,0,0,-6.71082,95.9, 1.1, 1.2,0,0,1024,1024,1684,1024,0,0,100,0,106.6,-0.1,0,95,4.126,4.121,0,0,0,0,4.408,73.58,139.92402120985,22.637796,6,P-GPS,
7800,2022-12-18 04:53:14,-34.9065610181153,-56.1632253868119,23.622048,23.1955388,117.71273440985,140.90827320985,24.6063,0,4.7442914904,10.2915685708,13,4,8.385,140.90827320985,23.622048,4.026492,4.7720145884,0,0,-6.71082,95.9, 1.3, 1,0,0,1024,1024,1684,1024,0,0,100,0,106.6,-0.1,0,95,4.126,4.121,0,0,0,0,4.408,73.58,140.90827320985,23.622048,6,P-GPS,
7900,2022-12-18 04:53:14,-34.9065610064638,-56.1632255145806,24.6063,24.2125992,117.67992600985,141.89252520985,25.590552,0,4.705872854,10.3300200156,13,4,8.274,141.89252520985,24.6063,4.026492,4.7720145884,0,0,-6.71082,95.9, 0.5, 0.7,0,0,1024,1024,1684,1024,0,0,100,0,106.6,-0.1,0,95,4.136,4.131,0,0,0,0,5.259,73.58,141.89252520985,24.6063,6,P-GPS,
8000,2022-12-18 04:53:15,-34.9065613647491,-56.1632258427115,25.590552,25.1968512,117.67992600985,142.87677720985,26.574804,0.223694,4.6183072344,10.4935042728,13,4,8.274,142.87677720985,25.590552,4.026492,4.7720145884,0,-0.223694,-6.71082,95.9, 0, 0.8,0,0,1024,1024,1684,1024,0,0,100,0,106.6,-0.1,0,95,4.136,4.131,0,0,0,0,5.259,73.58,142.87677720985,25.590552,6,P-GPS,
8100,2022-12-18 04:53:15,-34.90656137444,-56.1632258602549,26.574804,26.1811032,117.67992600985,143.86102920985,27.559056,0.223694,4.6134187828,10.499836294,13,4,8.274,143.86102920985,26.574804,4.026492,4.7720145884,0,-0.223694,-6.71082,95.9, -0.1, 0.7,0,0,1024,1024,1684,1024,0,0,100,0,106.6,-0.1,0,95,4.136,4.131,0,0,0,0,5.259,73.58,143.86102920985,26.574804,6,P-GPS,
8200,2022-12-18 04:53:15,-34.906561403695,-56.1632259251363,27.559056,27.1653552,117.67992600985,144.84528120985,28.543308,0.223694,4.595144504,10.521981964,13,4,8.274,144.84528120985,27.559056,4.026492,4.7720145884,0,-0.223694,-6.71082,95.8, 0, 0.4,0,0,1024,1024,1684,1024,0,0,100,0,106.6,-0.1,0,95,4.136,4.131,0,0,0,0,5.259,73.58,144.84528120985,27.559056,6,P-GPS,
8300,2022-12-18 04:53:15,-34.9065614523855,-56.1632260645566,28.543308,28.1496072,117.67992600985,145.82953320985,29.52756,0.223694,4.5554135316,10.5673231728,13,4,8.274,145.82953320985,28.543308,4.026492,4.7720145884,0,-0.223694,-6.71082,95.8, 0.2, 0.5,0,0,1024,1024,1684,1024,0,0,100,0,106.6,-0.1,0,95,4.136,4.131,0,0,0,0,5.259,73.58,145.82953320985,28.543308,6,P-GPS,
8400,2022-12-18 04:53:15,-34.9065614976188,-56.1632262372619,29.52756,29.1338592,117.67992600985,146.81378520985,30.511812,0.223694,4.505741614,10.6215882664,13,4,8.274,146.81378520985,29.52756,4.026492,4.7720145884,0,-0.223694,-6.71082,95.8, 0.6, 0.5,0,0,1024,1024,1684,1024,0,0,100,0,106.6,-0.1,0,95,4.136,4.131,0,0,0,0,5.259,73.58,146.81378520985,29.52756,6,P-GPS,
8500,2022-12-18 04:53:15,-34.9065616093447,-56.1632268546577,30.511812,30.183728,117.61430920985,147.79803720985,31.496064,0.223694,4.3268374088,10.8107615008,13,4,8.274,147.79803720985,30.511812,4.026492,4.7720145884,0,-0.223694,-6.71082,95.8, 0.5, 0.6,0,0,1024,1024,1684,1024,0,0,100,0,106.6,-0.1,0,95,4.136,4.131,0,0,0,0,5.259,73.58,147.79803720985,30.511812,6,P-GPS,
8600,2022-12-18 04:53:15,-34.906561640062,-56.1632270338305,31.496064,31.16798,117.61430920985,148.78228920985,32.480316,0.223694,4.2750001368,10.8655187204,13,4,8.274,148.78228920985,31.496064,4.026492,4.7720145884,0,-0.223694,-6.71082,95.9, 0, 0.8,0,0,1024,1024,1684,1024,0,0,100,0,106.6,-0.1,0,95,4.136,4.131,0,0,0,0,5.259,73.58,148.78228920985,31.496064,6,P-GPS,
8700,2022-12-18 04:53:15,-34.9065616882965,-56.163227155116,32.480316,32.152232,117.61430920985,149.76654120985,33.464568,0.223694,4.2412731016,10.905840244,13,4,8.274,149.76654120985,32.480316,4.026492,4.7720145884,0,-0.223694,-6.71082,95.9, 0.3, 0.7,0,0,1024,1024,1684,1024,0,0,100,0,106.6,-0.1,0,95,4.136,4.131,0,0,0,0,5.259,73.58,149.76654120985,32.480316,6,P-GPS,
8800,2022-12-18 04:53:15,-34.9065617795611,-56.1632273191494,33.464568,33.136484,117.61430920985,150.75079320985,34.44882,0.223694,4.1971129952,10.9651578312,13,4,8.274,150.75079320985,33.464568,4.026492,4.7720145884,0,-0.223694,-6.71082,95.8, 0, 0.2,0,0,1024,1024,1684,1024,0,0,100,0,106.6,-0.1,0,95,4.136,4.131,0,0,0,0,5.259,73.58,150.75079320985,33.464568,6,P-GPS,
8900,2022-12-18 04:53:16,-34.9065622041078,-56.1632276714401,34.44882,34.1535444,117.58150080985,151.73504520985,35.433072,0.223694,4.1177494756,11.1525266036,13,4,8.272,151.73504520985,34.44882,4.026492,4.7720145884,0,-0.223694,-6.71082,95.9, -0.2, 0.2,0,0,1024,1024,1684,1024,0,0,100,0,106.6,-0.1,0,95,4.138,4.134,0,0,0,0,5.064,73.76,151.73504520985,34.44882,6,P-GPS,
9000,2022-12-18 04:53:16,-34.9065623416266,-56.1632278119313,35.433072,35.1377964,117.58150080985,152.71929720985,36.417324,0,4.085794094,11.2179793616,13,4,8.272,152.71929720985,35.433072,4.026492,4.7720145884,0,0,-6.71082,95.9, 0.3, 0.2,0,0,1024,1024,1684,1024,0,0,100,0,106.6,-0.1,0,95,4.138,4.134,0,0,0,0,5.064,73.76,152.71929720985,35.433072,6,P-GPS,
9100,2022-12-18 04:53:16,-34.9065624531067,-56.1632278490892,36.417324,36.1220484,117.58150080985,153.70354920985,37.401576,0,4.0829725716,11.2601381556,13,4,8.272,153.70354920985,36.417324,4.026492,4.7720145884,0,0,-6.71082,95.8, 0, 0,0,0,1024,1024,1684,1024,0,0,100,0,106.6,-0.1,0,95,4.138,4.134,0,0,0,0,5.064,73.76,153.70354920985,36.417324,6,P-GPS,
9200,2022-12-18 04:53:16,-34.9065625621391,-56.1632279256013,37.401576,37.1391088,117.54869240985,154.68780120985,38.385828,0.223694,4.0688649596,11.3060371072,13,4,8.272,154.68780120985,37.401576,4.026492,4.7720145884,0,-0.223694,-6.71082,95.8, -0.2, 0,0,0,1024,1024,1684,1024,0,0,100,0,106.6,-0.1,0,95,4.138,4.134,0,0,0,0,5.064,73.76,154.68780120985,37.401576,6,P-GPS,
9300,2022-12-18 04:53:16,-34.9065627567659,-56.1632280755725,38.385828,38.1233608,117.54869240985,155.67205320985,39.37008,0.223694,4.041010628,11.3900266112,13,4,8.272,155.67205320985,38.385828,4.026492,4.7720145884,0,-0.223694,-6.71082,95.9, -0.2, 0,0,0,1024,1024,1684,1024,0,0,100,0,106.6,-0.1,0,95,4.138,4.134,0,0,0,0,5.064,73.76,155.67205320985,38.385828,6,P-GPS,
9400,2022-12-18 04:53:16,-34.9065628624633,-56.1632282353921,39.37008,39.1076128,117.54869240985,156.65630520985,40.354332,0.3131716,4.003773094,11.4514767444,13,4,8.272,156.65630520985,39.37008,4.026492,4.7720145884,-0.223694,-0.223694,-6.487126,95.9, -0.3, -0.5,0,0,1024,1024,1684,1024,0,0,100,0,106.6,-0.1,0,95,4.138,4.134,0,0,0,0,5.064,73.76,156.65630520985,39.37008,6,P-GPS,
9500,2022-12-18 04:53:16,-34.9065629557259,-56.1632284089879,40.354332,40.0918648,117.54869240985,157.64055720985,41.338584,0.223694,3.9620080008,11.5135502372,13,4,8.272,157.64055720985,40.354332,4.026492,4.7720145884,0,-0.223694,-6.487126,95.9, -0.1, -0.6,0,0,1024,1024,1684,1024,0,0,100,0,106.6,-0.1,0,95,4.138,4.134,0,0,0,0,5.064,73.76,157.64055720985,40.354332,6,P-GPS,
9600,2022-12-18 04:53:16,-34.9065630069242,-56.1632285895463,41.338584,41.1089252,117.51588400985,158.62480920985,42.322836,0.223694,3.914698288,11.5707352784,13,4,8.272,158.62480920985,41.338584,4.026492,4.7720145884,0,-0.223694,-6.487126,95.9, 0, -0.2,0,0,1024,1024,1684,1024,0,0,100,0,106.6,-0.1,0,95,4.138,4.134,0,0,0,0,5.064,73.76,158.62480920985,41.338584,6,P-GPS,
9700,2022-12-18 04:53:16,-34.9065629193139,-56.1632291076241,42.322836,42.0931772,117.51588400985,159.60906120985,42.322836,0.223694,3.7567586504,11.729003,13,4,8.272,159.60906120985,42.322836,4.026492,4.7720145884,0,-0.223694,-6.487126,96, -0.3, -0.2,0,0,1024,1024,1684,1024,0,0,100,0,106.6,-0.1,0,95,4.138,4.134,0,0,0,0,5.064,73.76,159.60906120985,42.322836,6,P-GPS,
9800,2022-12-18 04:53:16,-34.9065629327746,-56.163229332137,43.307088,43.0774292,117.51588400985,160.59331320985,42.322836,0.223694,3.6933728216,11.7963586452,13,5,8.272,160.59331320985,43.307088,4.026492,4.7720145884,0,-0.223694,-6.487126,95.9, -1.1, -0.4,0,0,1024,1024,1684,1024,0,0,100,0,106.6,-0.1,0,95,4.138,4.134,0,0,0,0,5.064,73.76,160.59331320985,43.307088,6,P-GPS,
9900,2022-12-18 04:53:17,-34.9065629582402,-56.1632295578643,44.29134,44.0944896,117.48307560985,161.57756520985,42.322836,0,3.6310040532,11.8645345004,13,5,8.282,161.57756520985,44.29134,4.026492,4.7720145884,0,0,-6.71082,96, -0.7, 0,0,0,1024,1024,1684,1024,0,0,100,0,106.6,-0.1,0,95,4.142,4.137,0,0,0,0,4.813,73.76,161.57756520985,44.29134,6,P-GPS,
10000,2022-12-18 04:53:17,-34.906562969268,-56.1632297440885,45.275592,45.0787416,117.48307560985,162.56181720985,42.322836,0,3.5786746552,11.9204072056,13,5,8.282,162.56181720985,45.275592,4.026492,4.7720145884,0,0,-6.71082,96, -0.6, 0.7,0,0,1024,1024,1684,1024,0,0,100,0,106.6,-0.1,0,95,4.142,4.137,0,0,0,0,4.813,73.76,162.56181720985,45.275592,6,P-GPS,
10100,2022-12-18 04:53:17,-34.9065629768126,-56.163229906713,46.259844,46.0629936,117.48307560985,163.54606920985,42.322836,0,3.5328741288,11.9691276796,13,5,8.282,163.54606920985,46.259844,4.026492,4.7720145884,0,0,-6.487126,96, -0.9, 0.3,0,0,1024,1024,1684,1024,0,0,100,0,106.6,-0.1,0,95,4.142,4.137,0,0,0,0,4.813,73.76,163.54606920985,46.259844,6,P-GPS,
10200,2022-12-18 04:53:17,-34.9065629690987,-56.1632302192591,47.244096,47.0472456,117.48307560985,164.53032120985,42.322836,0,3.4426182204,12.0626972364,13,5,8.282,164.53032120985,47.244096,4.026492,4.7720145884,0,0,-6.487126,96, -1.6, 0,0,0,1024,1024,1684,1024,0,0,100,0,106.6,-0.1,0,95,4.142,4.137,0,0,0,0,4.813,73.76,164.53032120985,47.244096,6,P-GPS,
10300,2022-12-18 04:53:17,-34.9065629961488,-56.1632302540613,48.228348,48.0314976,117.48307560985,165.51457320985,42.322836,0,3.4356300312,12.0770345072,13,5,8.282,165.51457320985,48.228348,4.026492,4.7720145884,0,0,-6.71082,95.9, -1.5, 0,0,0,1024,1024,1684,1024,0,0,100,0,106.6,-0.1,0,95,4.142,4.137,0,0,0,0,4.813,73.76,165.51457320985,48.228348,6,P-GPS,
10400,2022-12-18 04:53:17,-34.9065630002704,-56.163230203455,49.2126,49.0157496,117.48307560985,166.49882520985,42.322836,0,3.4505250448,12.0922576048,13,5,8.282,166.49882520985,49.2126,4.026492,4.7720145884,0,0,-6.487126,95.9, -0.6, 0.2,0,0,1024,1024,1684,1024,0,0,100,0,106.6,-0.1,0,95,4.142,4.137,0,0,0,0,4.813,73.76,166.49882520985,49.2126,6,P-GPS,
10500,2022-12-18 04:53:17,-34.9065629784394,-56.163230049044,50.196852,50.0000016,117.48307560985,167.48307720985,42.322836,0,3.492290138,12.1391408084,13,5,8.282,167.48307720985,50.196852,4.026492,4.7720145884,0,0,-6.487126,96, -1.1, 0,0,0,1024,1024,1669,1024,0,0,98,0,106.6,-0.1,0,95,4.142,4.137,0,0,0,0,4.813,73.76,167.48307720985,50.196852,6,P-GPS,
10600,2022-12-18 04:53:17,-34.9065629480934,-56.1632294619859,50.85302,50.6233612,117.51588400985,168.13924520985,42.322836,0,3.6575460488,12.315125066,13,5,8.282,168.13924520985,50.85302,4.026492,4.7720145884,0,0,-6.487126,95.9, -1.3, 0.5,0,0,1024,1024,1024,1024,0,0,0,0,106.6,-0.1,0,95,4.142,4.137,0,0,0,0,4.813,73.76,168.13924520985,50.85302,6,P-GPS,
10700,2022-12-18 04:53:17,-34.9065629540958,-56.163229491527,51.837272,51.6076132,117.51588400985,169.12349720985,42.322836,0,3.6496392244,12.3242458012,13,5,8.282,169.12349720985,51.837272,4.026492,4.7720145884,0,0,-6.487126,96, -1.1, 1,0,0,1024,1024,1024,1024,0,0,0,0,106.6,-0.1,0,95,4.142,4.137,0,0,0,0,4.813,73.76,169.12349720985,51.837272,6,P-GPS,
10800,2022-12-18 04:53:17,-34.9065629687258,-56.1632295353092,52.821524,52.6246736,117.48307560985,170.10774920985,42.322836,0,3.6385499852,12.3383862216,13,5,8.282,170.10774920985,52.821524,4.026492,4.7720145884,0,0,-5.816044,96.2, 0, 1.6,0,0,1024,1024,1024,1024,0,0,0,0,106.6,-0.1,0,95,4.142,4.137,0,0,0,0,4.813,73.76,170.10774920985,52.821524,6,P-GPS,
10900,2022-12-18 04:53:17,-34.9065629990165,-56.1632296250217,53.805776,53.6089256,117.48307560985,171.09200120985,42.322836,0,3.6159449976,12.3674216556,13,5,8.27,171.09200120985,53.805776,4.026492,4.7720145884,0,0,-5.144962,96.3, 0.1, 1.9,0,0,1024,1024,1024,1024,0,0,0,0,106.6,-0.1,0,95,4.137,4.131,0,0,0,0,4.745,73.76,171.09200120985,53.805776,6,P-GPS,
11000,2022-12-18 04:53:18,-34.9065631095731,-56.1632298971728,54.461944,54.2650936,117.48307560985,171.74816920985,42.322836,0,3.5499016884,12.4583009236,13,5,8.27,171.74816920985,54.461944,4.026492,4.7720145884,0,0,-4.47388,96.1, 0.7, 1.9,0,0,1024,1024,1024,1024,0,0,0,0,106.6,-0.1,0,95,4.137,4.131,0,0,0,0,4.745,73.76,171.74816920985,54.461944,6,P-GPS,
11100,2022-12-18 04:53:18,-34.9065631367958,-56.1632299638953,54.790028,54.5931776,117.48307560985,172.07625320985,42.322836,0,3.5338911892,12.4805778272,13,5,8.27,172.07625320985,54.790028,4.026492,4.7720145884,0,0,-3.579104,96.1, 0.8, 2,0,0,1024,1024,1024,1024,0,0,0,0,106.6,-0.1,0,95,4.137,4.131,0,0,0,0,4.745,73.76,172.07625320985,54.790028,6,P-GPS,
11200,2022-12-18 04:53:18,-34.9065631543326,-56.1632300746481,55.118112,54.9212616,117.48307560985,172.40433720985,42.322836,0,3.5043308208,12.5143376708,13,5,8.27,172.40433720985,55.118112,4.026492,4.7720145884,0,0,-2.684328,96, 0.2, 1.8,0,0,1024,1024,1024,1024,0,0,0,0,106.6,-0.1,0,95,4.137,4.131,0,0,0,0,4.745,73.76,172.40433720985,55.118112,6,P-GPS,
11300,2022-12-18 04:53:18,-34.9065631554252,-56.1632302393867,55.446196,55.2493456,117.48307560985,172.73242120985,42.322836,0,3.4576116592,12.563648696,13,5,8.27,172.73242120985,55.446196,4.026492,4.7720145884,0,0,-1.789552,96.1, -0.1, 1.9,0,0,1024,1024,1024,1024,0,0,0,0,106.6,-0.1,0,95,4.137,4.131,0,0,0,0,4.745,73.76,172.73242120985,55.446196,6,P-GPS,
11400,2022-12-18 04:53:18,-34.9065631886504,-56.1632305968511,55.77428,55.610238,117.45026720985,173.06050520985,42.322836,0,3.3602035196,12.671260248,13,5,8.27,173.06050520985,55.77428,4.026492,4.7720145884,0,0,-1.11847,96.1, -0.4, 1.9,0,0,1024,1024,1024,1024,0,0,0,0,106.6,-0.1,0,95,4.137,4.131,0,0,0,0,4.745,73.76,173.06050520985,55.77428,6,P-GPS,
11500,2022-12-18 04:53:18,-34.9065632936818,-56.1632308590846,55.77428,55.610238,117.45026720985,173.06050520985,42.322836,0,3.2991470872,12.7585962088,13,5,8.27,173.06050520985,55.77428,4.026492,4.7720145884,0,0,-0.671082,96.1, -0.5, 2.2,0,0,1024,1024,1024,1024,0,0,0,0,106.6,-0.1,0,95,4.137,4.131,0,0,0,0,4.745,73.76,173.06050520985,55.77428,6,P-GPS,
11600,2022-12-18 04:53:18,-34.9065633957396,-56.1632311232926,56.102364,55.938322,117.45026720985,173.38858920985,42.322836,0,3.2383859304,12.845964978,13,5,8.27,173.38858920985,56.102364,4.026492,4.7720145884,0,0,-0.223694,96.1, -0.8, 1.9,0,0,1024,1024,1024,1024,0,0,0,0,106.6,-0.1,0,95,4.137,4.131,0,0,0,0,4.745,73.76,173.38858920985,56.102364,6,P-GPS,
11700,2022-12-18 04:53:18,-34.9065634929072,-56.1632314145123,56.102364,55.938322,117.45026720985,173.38858920985,42.322836,0,3.17069563952,12.9400594692,13,5,8.27,173.38858920985,56.102364,4.026492,4.7720145884,0,0,0,96.1, -1.2, 1.6,0,0,1024,1024,1024,1024,0,0,0,0,106.6,-0.1,0,95,4.137,4.131,0,0,0,0,4.745,73.76,173.38858920985,56.102364,6,P-GPS,
11800,2022-12-18 04:53:18,-34.906563560416,-56.1632318104534,56.102364,56.0039388,117.38465040985,173.38858920985,42.322836,0,3.07133868096,13.0610568484,13,5,8.27,173.38858920985,56.102364,4.026492,4.7720145884,0,0,0,96, -1.4, 1.3,0,0,1024,1024,1024,1024,0,0,0,0,106.6,-0.1,0,95,4.137,4.131,0,0,0,0,4.745,73.76,173.38858920985,56.102364,6,P-GPS,
11900,2022-12-18 04:53:18,-34.9065634193374,-56.163232996711,56.102364,55.9711304,117.41745880985,173.38858920985,42.322836,0,2.72731636024,13.4197182772,13,5,8.27,173.38858920985,56.102364,4.026492,4.7720145884,0,0,0,95.9, -1.2, 0.6,0,0,1024,1024,1024,1024,0,0,0,0,106.6,-0.1,0,95,4.137,4.131,0,0,0,0,4.745,73.76,173.38858920985,56.102364,6,P-GPS,
12000,2022-12-18 04:53:19,-34.9065634590291,-56.1632333489704,55.77428,55.6430464,117.41745880985,173.06050520985,42.322836,0,2.63928486136,13.52608311,13,5,8.393,173.38858920985,56.102364,4.026492,4.7720145884,0,0,0,95.9, -1.3, 0.6,0,0,1024,1024,1024,1024,0,0,0,0,106.6,-0.1,0,95,4.18,4.174,0,0,0,0,3.214,73.76,173.06050520985,55.77428,6,P-GPS,
12100,2022-12-18 04:53:19,-34.9065635259842,-56.163233372753,55.77428,55.7086632,117.35184200985,173.06050520985,42.322836,0,2.6441437854,13.5515424284,13,5,8.393,173.38858920985,56.102364,4.026492,4.7720145884,0,0,0,95.9, -1.6, 1,0,0,1024,1024,1024,1024,0,0,0,0,106.6,-0.1,0,95,4.18,4.174,0,0,0,0,3.214,73.76,173.06050520985,55.77428,6,P-GPS,
12200,2022-12-18 04:53:19,-34.9065635835057,-56.1632333683668,55.77428,55.7086632,117.35184200985,173.06050520985,42.322836,0,2.6550689826,13.5725726128,13,5,8.393,173.38858920985,56.102364,4.026492,4.7720145884,0,0,0,96, -1.6, 1.1,0,0,1024,1024,1024,1024,0,0,0,0,106.6,-0.1,0,95,4.18,4.174,0,0,0,0,3.214,73.76,173.06050520985,55.77428,6,P-GPS,
12300,2022-12-18 04:53:19,-34.9065635967987,-56.1632325942722,55.77428,55.7086632,117.35184200985,173.06050520985,42.322836,0,2.86390429112,13.8042327252,13,5,8.393,173.38858920985,56.102364,4.026492,4.7720145884,0,0,0,96, -1.9, 1,0,0,1024,1024,1024,1024,0,0,0,0,106.6,-0.1,0,95,4.18,4.174,0,0,0,0,3.214,73.76,173.06050520985,55.77428,6,P-GPS,
12400,2022-12-18 04:53:19,-34.9065636888709,-56.1632325441086,55.77428,55.7086632,117.35184200985,173.06050520985,42.322836,0,2.89214576184,13.8410109416,13,5,8.393,173.38858920985,56.102364,4.026492,4.7720145884,0,0,0,95.9, -1.7, 1.4,0,0,1024,1024,1024,1024,0,0,0,0,106.6,-0.1,0,95,4.18,4.174,0,0,0,0,3.214,73.76,173.06050520985,55.77428,6,P-GPS,
12500,2022-12-18 04:53:19,-34.9065638429103,-56.1632324825375,55.77428,55.6758548,117.38465040985,173.06050520985,42.322836,0,2.93386492328,13.9001644868,13,5,8.393,173.38858920985,56.102364,4.026492,4.7720145884,0,0,0,95.9, -1.9, 0.4,0,0,1024,1024,1024,1024,0,0,0,0,106.6,-0.1,0,95,4.18,4.174,0,0,0,0,3.214,73.76,173.06050520985,55.77428,6,P-GPS,
12600,2022-12-18 04:53:19,-34.9065639609057,-56.1632324540619,55.77428,55.6758548,117.38465040985,173.06050520985,42.322836,0,2.96127306064,13.944062126,13,5,8.393,173.38858920985,56.102364,4.026492,4.7720145884,0,0,0,96.1, -1.4, -0.1,0,0,1024,1024,1024,1024,0,0,0,0,106.6,-0.1,0,95,4.18,4.174,0,0,0,0,3.214,73.76,173.06050520985,55.77428,6,P-GPS,
12700,2022-12-18 04:53:19,-34.906564100706,-56.1632323792055,55.446196,55.3477708,117.38465040985,172.73242120985,42.322836,0,3.0050689938,13.9997707892,13,5,8.393,173.38858920985,56.102364,4.026492,4.7720145884,0,0,0,96.1, -0.9, 0,0,0,1024,1024,1024,1024,0,0,0,0,106.6,-0.1,0,95,4.18,4.174,0,0,0,0,3.214,73.76,172.73242120985,55.446196,6,P-GPS,
12800,2022-12-18 04:53:19,-34.9065642008407,-56.1632324866729,55.446196,55.3477708,117.38465040985,172.73242120985,42.322836,0,2.99457358664,14.0484256464,13,5,8.393,173.38858920985,56.102364,4.026492,4.7720145884,0,0,0,96.1, -1.1, -0.2,0,0,1024,1024,1024,1024,0,0,0,0,106.6,-0.1,0,95,4.18,4.174,0,0,0,0,3.214,73.76,172.73242120985,55.446196,6,P-GPS,
12900,2022-12-18 04:53:20,-34.9065643603321,-56.1632327008935,55.446196,55.3805792,117.35184200985,172.73242120985,42.322836,0,2.9683727984,14.135007014,13,5,8.393,173.38858920985,56.102364,4.026492,4.7720145884,0,0,0,95.9, -1.7, -0.2,0,0,1024,1024,1024,1024,0,0,0,0,106.6,-0.1,0,95,4.18,4.174,0,0,0,0,3.214,73.76,172.73242120985,55.446196,6,P-GPS,
13000,2022-12-18 04:53:20,-34.9065644869664,-56.1632328842645,55.446196,55.3805792,117.35184200985,172.73242120985,42.322836,0,2.94585311264,14.2067261764,13,5,8.313,173.38858920985,56.102364,4.026492,4.7720145884,0,0,0,95.8, -1.7, -0.2,0,0,1024,1024,1024,1024,0,0,0,0,106.6,-0.1,0,95,4.156,4.151,0,0,0,0,3.906,73.94,172.73242120985,55.446196,6,P-GPS,
13100,2022-12-18 04:53:20,-34.9065648263179,-56.1632336310313,55.446196,55.446196,117.28622520985,172.73242120985,42.322836,0,2.83187016936,14.4621723788,13,5,8.313,173.38858920985,56.102364,4.026492,4.7720145884,0,0,0,95.8, -1.3, -0.2,0,0,1024,1024,1024,1024,0,0,0,0,106.6,-0.1,0,95,4.156,4.151,0,0,0,0,3.906,73.94,172.73242120985,55.446196,6,P-GPS,
13200,2022-12-18 04:53:20,-34.906564895916,-56.1632337625803,55.446196,55.446196,117.28622520985,172.73242120985,42.322836,0,2.81590560192,14.509022774,13,5,8.313,173.38858920985,56.102364,4.026492,4.7720145884,0,0,0,95.9, -1.4, -0.2,0,0,1024,1024,1024,1024,0,0,0,0,106.6,-0.1,0,95,4.156,4.151,0,0,0,0,3.906,73.94,172.73242120985,55.446196,6,P-GPS,
13300,2022-12-18 04:53:20,-34.9065649374624,-56.1632338535045,55.118112,55.118112,117.28622520985,172.40433720985,42.322836,0,2.80379274064,14.5401579456,13,5,8.313,173.38858920985,56.102364,4.026492,4.7720145884,0,0,0,96.1, -1.3, 0.5,0,0,1024,1024,1024,1024,0,0,0,0,106.6,-0.2,0,95,4.156,4.151,0,0,0,0,3.906,73.94,172.40433720985,55.118112,6,P-GPS,
13400,2022-12-18 04:53:20,-34.9065649549584,-56.1632338900552,55.118112,55.118112,117.28622520985,172.40433720985,42.322836,0,2.79918644128,14.552821988,13,5,8.313,173.38858920985,56.102364,4.026492,4.7720145884,0,0,0,96.2, -1.4, 1,0,0,1024,1024,1024,1024,0,0,0,0,106.6,-0.7,0,95,4.156,4.151,0,0,0,0,3.906,73.94,172.40433720985,55.118112,6,P-GPS,
13500,2022-12-18 04:53:20,-34.9065649521592,-56.1632338474939,55.118112,55.118112,117.28622520985,172.40433720985,42.322836,0,2.80852699276,14.5655844556,13,5,8.313,173.38858920985,56.102364,4.026492,4.7720145884,0,0,0,96.1, -1.2, 1.2,0,0,1024,1024,1024,1024,0,0,0,0,106.6,-1.6,0,95,4.156,4.151,0,0,0,0,3.906,73.94,172.40433720985,55.118112,6,P-GPS,
13600,2022-12-18 04:53:20,-34.9065649795219,-56.1632338129516,55.118112,55.118112,117.28622520985,172.40433720985,42.322836,0,2.82282817432,14.5799545348,13,5,8.313,173.38858920985,56.102364,4.026492,4.7720145884,0,0,0,96.1, -1.2, 0.7,0,0,1024,1024,1024,1024,0,0,0,0,106.6,-2.9,0,95,4.156,4.151,0,0,0,0,3.906,73.94,172.40433720985,55.118112,6,P-GPS,
13700,2022-12-18 04:53:20,-34.906564951884,-56.1632338076526,55.118112,55.118112,117.28622520985,172.40433720985,42.322836,0,2.81782489332,14.5901907556,13,5,8.313,173.38858920985,56.102364,4.026492,4.7720145884,0,0,0,96.1, -1.1, 0.9,0,0,1024,1024,1024,1024,0,0,0,0,106.6,-4.2,0,95,4.156,4.151,0,0,0,0,3.906,73.94,172.40433720985,55.118112,6,P-GPS,
13800,2022-12-18 04:53:20,-34.9065649356549,-56.163233803952,55.118112,55.118112,117.28622520985,172.40433720985,42.322836,0,2.81503946016,14.5961946928,13,5,8.313,173.38858920985,56.102364,4.026492,4.7720145884,0,0,0,96.1, -1.1, 1.1,0,0,1024,1024,1024,1024,0,0,0,0,106.6,-5.7,0,95,4.156,4.151,0,0,0,0,3.906,73.94,172.40433720985,55.118112,6,P-GPS,
13900,2022-12-18 04:53:21,-34.9065649418576,-56.1632338085497,55.118112,55.118112,117.28622520985,172.40433720985,42.322836,0,2.8153544208,14.5988521732,13,5,8.313,173.38858920985,56.102364,4.026492,4.7720145884,0,0,0,96.1, -1.2, 1.3,0,0,1024,1024,1024,1024,0,0,0,0,106.6,-7.1,0,95,4.156,4.151,0,0,0,0,3.906,73.94,172.40433720985,55.118112,6,P-GPS,
14000,2022-12-18 04:53:21,-34.9065649689614,-56.1632338326522,55.118112,55.118112,117.28622520985,172.40433720985,42.322836,0,2.8158137384,14.6110897064,13,5,8.294,173.38858920985,56.102364,4.026492,4.7720145884,0,0,0,96, -1.6, 1.2,0,0,1024,1024,1024,1024,0,0,0,0,106.6,-8.6,0,94,4.152,4.149,0,0,0,0,4.1,73.94,172.40433720985,55.118112,6,P-GPS,
14100,2022-12-18 04:53:21,-34.9065650336042,-56.163233773485,55.118112,55.118112,117.28622520985,172.40433720985,42.322836,0,2.84434392304,14.640584458,13,5,8.294,173.38858920985,56.102364,4.026492,4.7720145884,0,0,0,95.9, -2, 0.9,0,0,1024,1024,1024,1024,0,0,0,0,106.6,-10,0,94,4.152,4.149,0,0,0,0,4.1,73.94,172.40433720985,55.118112,6,P-GPS,
14200,2022-12-18 04:53:21,-34.9065650921825,-56.1632337276658,55.118112,55.118112,117.28622520985,172.40433720985,42.322836,0,2.86839576108,14.6659781596,13,5,8.294,173.38858920985,56.102364,4.026492,4.7720145884,0,0,0,95.8, -2, 0.4,0,0,1024,1024,1024,1024,0,0,0,0,106.6,-11.5,0,94,4.152,4.149,0,0,0,0,4.1,73.94,172.40433720985,55.118112,6,P-GPS,
14300,2022-12-18 04:53:21,-34.9065651362564,-56.1632336974613,55.118112,55.118112,117.28622520985,172.40433720985,42.322836,0,2.88550862252,14.6844164804,13,5,8.294,173.38858920985,56.102364,4.026492,4.7720145884,0,0,0,95.8, -1.8, 0.1,0,0,1024,1024,1024,1024,0,0,0,0,106.6,-12.9,0,94,4.152,4.149,0,0,0,0,4.1,73.94,172.40433720985,55.118112,6,P-GPS,
14400,2022-12-18 04:53:21,-34.9065654330501,-56.163233630539,55.118112,55.118112,117.28622520985,172.40433720985,42.322836,0,2.96987542312,14.7945214708,13,5,8.294,173.38858920985,56.102364,4.026492,4.7720145884,0,0,0,96, -2.1, -0.1,0,0,1024,1024,1024,1024,0,0,0,0,106.6,-14.4,0,94,4.152,4.149,0,0,0,0,4.1,73.94,172.40433720985,55.118112,6,P-GPS,
14500,2022-12-18 04:53:21,-34.906565560383,-56.1632336044491,55.118112,55.1509204,117.25341680985,172.40433720985,42.322836,0,3.005987629,14.8416343332,13,5,8.294,173.38858920985,56.102364,4.026492,4.7720145884,0,0,-0.223694,96.1, -2.1, -0.3,0,0,1024,1024,1024,1024,0,0,0,0,106.6,-15.6,0,94,4.152,4.149,0,0,0,0,4.1,73.94,172.40433720985,55.118112,6,P-GPS,
14600,2022-12-18 04:53:21,-34.9065656622194,-56.1632335287387,55.118112,55.1509204,117.25341680985,172.40433720985,42.322836,0,3.04744432324,14.88517108,13,5,8.294,173.38858920985,56.102364,4.026492,4.7720145884,0,0,-0.223694,96.2, -1.8, -0.4,0,0,1024,1024,1024,1024,0,0,0,0,106.6,-16.6,0,94,4.152,4.149,0,0,0,0,4.1,73.94,172.40433720985,55.118112,6,P-GPS,
14700,2022-12-18 04:53:21,-34.9065657360253,-56.1632333765633,55.118112,55.118112,117.28622520985,172.40433720985,42.322836,0,3.09948172648,14.9380582208,13,5,8.294,173.38858920985,56.102364,4.026492,4.7720145884,0,0,-0.223694,96.1, -1.7, -0.3,0,0,1024,1024,1024,1024,0,0,0,0,106.6,-17.2,0,94,4.152,4.149,0,0,0,0,4.1,73.94,172.40433720985,55.118112,6,P-GPS,
14800,2022-12-18 04:53:21,-34.9065659681535,-56.1632329652804,55.118112,55.118112,117.28622520985,172.40433720985,42.322836,0,3.24799551076,15.087434866,13,5,8.294,173.38858920985,56.102364,4.026492,4.7720145884,0,0,0,96.2, -1.3, -0.4,0,0,1024,1024,1024,1024,0,0,0,0,106.6,-17.6,0,94,4.152,4.149,0,0,0,0,4.1,73.94,172.40433720985,55.118112,6,P-GPS,
14900,2022-12-18 04:53:21,-34.9065660867482,-56.1632327661117,55.118112,55.118112,117.28622520985,172.40433720985,42.322836,0.223694,3.3214239908,15.161089724,13,5,8.294,173.38858920985,56.102364,4.026492,4.7720145884,0,0.223694,0,96.2, -1.1, 0,0,0,1024,1024,1024,1024,0,0,0,0,106.6,-17.7,0,94,4.152,4.149,0,0,0,0,4.1,73.94,172.40433720985,55.118112,6,P-GPS,
15000,2022-12-18 04:53:22,-34.906566201319,-56.163232545541,55.118112,55.118112,117.28622520985,172.40433720985,42.322836,0.223694,3.3987533896,15.2392065244,13,5,8.297,173.38858920985,56.102364,4.026492,4.7720145884,0,0.223694,0,96.2, -1.3, 0.3,0,0,1024,1024,1024,1024,0,0,0,0,106.6,-17.7,0,94,4.154,4.147,0,0,0,0,3.99,73.94,172.40433720985,55.118112,6,P-GPS,
15100,2022-12-18 04:53:22,-34.9065663371052,-56.1632322602784,55.118112,55.0853036,117.31903360985,172.40433720985,42.322836,0.223694,3.4959318704,15.3378941916,13,5,8.297,173.38858920985,56.102364,4.026492,4.7720145884,0,0.223694,0,96.1, -1.2, 0.4,0,0,1024,1024,1024,1024,0,0,0,0,106.6,-17.7,0,94,4.154,4.147,0,0,0,0,3.99,73.94,172.40433720985,55.118112,6,P-GPS,
15200,2022-12-18 04:53:22,-34.9065664579716,-56.1632319706791,55.118112,55.0853036,117.31903360985,172.40433720985,42.322836,0.223694,3.5907481464,15.4351382892,13,5,8.297,173.38858920985,56.102364,4.026492,4.7720145884,0,0.223694,0,96.1, -0.8, 0.2,0,0,1024,1024,1024,1024,0,0,0,0,106.6,-17.7,0,94,4.154,4.147,0,0,0,0,3.99,73.94,172.40433720985,55.118112,6,P-GPS,
15300,2022-12-18 04:53:22,-34.9065666955371,-56.1632312807422,55.118112,55.0853036,117.31903360985,172.40433720985,42.322836,0.223694,3.8055447412,15.6590228108,13,5,8.297,173.38858920985,56.102364,4.026492,4.7720145884,0,0.223694,0,96.1, -0.5, 0,0,0,1024,1024,1024,1024,0,0,0,0,106.6,-17.7,0,94,4.154,4.147,0,0,0,0,3.99,73.94,172.40433720985,55.118112,6,P-GPS,
15400,2022-12-18 04:53:22,-34.9065667740753,-56.1632310260235,55.118112,55.0853036,117.31903360985,172.40433720985,42.322836,0,3.883038182,15.7404532596,13,5,8.297,173.38858920985,56.102364,4.026492,4.7720145884,0,0,0,96.1, -0.4, 0.1,0,0,1024,1024,1024,1024,0,0,0,0,106.6,-17.8,0,94,4.154,4.147,0,0,0,0,3.99,73.94,172.40433720985,55.118112,6,P-GPS,
15500,2022-12-18 04:53:22,-34.90656682287,-56.1632308562615,55.118112,55.0853036,117.31903360985,172.40433720985,42.322836,0,3.9339568188,15.7942590356,13,5,8.297,173.38858920985,56.102364,4.026492,4.7720145884,0,0,0,96, -0.4, -0.1,0,0,1024,1024,1024,1024,0,0,0,0,106.6,-18.2,0,94,4.154,4.147,0,0,0,0,3.99,73.94,172.40433720985,55.118112,6,P-GPS,
15600,2022-12-18 04:53:22,-34.9065668791507,-56.1632307329469,55.118112,55.0853036,117.31903360985,172.40433720985,42.322836,0,3.9756562952,15.8364834464,13,5,8.297,173.38858920985,56.102364,4.026492,4.7720145884,0,0,-0.223694,96, -0.6, -0.2,0,0,1024,1024,1024,1024,0,0,0,0,106.6,-18.8,0,94,4.154,4.147,0,0,0,0,3.99,73.94,172.40433720985,55.118112,6,P-GPS,
15700,2022-12-18 04:53:22,-34.906566910692,-56.1632308528651,55.118112,55.0853036,117.31903360985,172.40433720985,42.322836,0,3.9545933024,15.874180298,13,5,8.297,173.38858920985,56.102364,4.026492,4.7720145884,0,0,-0.223694,96, -0.7, -0.1,0,0,1024,1024,1024,1024,0,0,0,0,106.6,-19.9,0,94,4.154,4.147,0,0,0,0,3.99,73.94,172.40433720985,55.118112,6,P-GPS,
15800,2022-12-18 04:53:22,-34.9065669952327,-56.1632308126477,55.118112,55.0853036,117.31903360985,172.40433720985,42.322836,0,3.9832022272,15.9072839736,13,5,8.297,173.38858920985,56.102364,4.026492,4.7720145884,0,0,-0.223694,96, -0.8, -0.1,0,0,1024,1024,1024,1024,0,0,0,0,106.6,-21.1,0,94,4.154,4.147,0,0,0,0,3.99,73.94,172.40433720985,55.118112,6,P-GPS,
15900,2022-12-18 04:53:22,-34.9065670922847,-56.1632308028529,55.118112,55.0853036,117.31903360985,172.40433720985,42.322836,0,4.007710102,15.9428154708,13,5,8.297,173.38858920985,56.102364,4.026492,4.7720145884,0,0,-0.223694,95.9, -1, -0.1,0,0,1024,1024,1024,1024,0,0,0,0,106.6,-22.5,0,94,4.154,4.147,0,0,0,0,3.99,73.94,172.40433720985,55.118112,6,P-GPS,
16000,2022-12-18 04:53:23,-34.9065671482592,-56.1632308343893,55.118112,55.0853036,117.31903360985,172.40433720985,42.322836,0,4.01328753,15.9653220332,13,5,8.285,173.38858920985,56.102364,4.026492,4.7720145884,0,0,-0.223694,95.8, -0.8, -0.3,0,0,1024,1024,1024,1024,0,0,0,0,106.6,-23.9,0,94,4.147,4.14,0,0,0,0,4.175,73.94,172.40433720985,55.118112,6,P-GPS,
16100,2022-12-18 04:53:23,-34.906567047921,-56.1632313437131,55.118112,55.0853036,117.31903360985,172.40433720985,42.322836,0,3.8728019612,16.12204776,13,5,8.285,173.38858920985,56.102364,4.026492,4.7720145884,0,0,-0.223694,95.9, -0.6, -0.5,0,0,1024,1024,1024,1024,0,0,0,0,106.6,-25.3,0,94,4.147,4.14,0,0,0,0,4.175,73.94,172.40433720985,55.118112,6,P-GPS,
16200,2022-12-18 04:53:23,-34.9065670540244,-56.1632314886518,55.118112,55.0853036,117.31903360985,172.40433720985,42.322836,0,3.8413058972,16.1654532732,13,5,8.285,173.38858920985,56.102364,4.026492,4.7720145884,0,0,-0.223694,95.9, -0.5, -0.4,0,0,1024,1024,1024,1024,0,0,0,0,106.6,-26.7,0,94,4.147,4.14,0,0,0,0,4.175,73.94,172.40433720985,55.118112,6,P-GPS,
16300,2022-12-18 04:53:23,-34.9065671004464,-56.1632316859923,55.446196,55.446196,117.28622520985,172.73242120985,42.322836,0,3.8080053712,16.226870598,13,5,8.285,173.38858920985,56.102364,4.026492,4.7720145884,0,0,-0.223694,96, -0.7, 0,0,0,1024,1024,1024,1024,0,0,0,0,106.6,-27.8,0,94,4.147,4.14,0,0,0,0,4.175,73.94,172.73242120985,55.446196,6,P-GPS,
16400,2022-12-18 04:53:23,-34.9065671158287,-56.1632318201411,55.446196,55.446196,117.28622520985,172.73242120985,42.322836,0,3.781824268,16.2674217804,13,5,8.285,173.38858920985,56.102364,4.026492,4.7720145884,0,0,-0.223694,96, -0.7, 0.4,0,0,1024,1024,1024,1024,0,0,0,0,106.6,-28.7,0,94,4.147,4.14,0,0,0,0,4.175,73.94,172.73242120985,55.446196,6,P-GPS,
16500,2022-12-18 04:53:23,-34.9065670507838,-56.1632320995316,55.446196,55.446196,117.28622520985,172.73242120985,42.322836,0,3.7040355516,16.354331232,13,5,8.285,173.38858920985,56.102364,4.026492,4.7720145884,0,0,-0.223694,95.9, -0.7, 0.4,0,0,1024,1024,1024,1024,0,0,0,0,106.6,-29.3,0,94,4.147,4.14,0,0,0,0,4.175,73.94,172.73242120985,55.446196,6,P-GPS,
