time(millisecond),datetime(utc),latitude,longitude,height_above_takeoff(feet),height_above_ground_at_drone_location(feet),ground_elevation_at_drone_location(feet),altitude_above_seaLevel(feet),height_sonar(feet),speed(mph),distance(feet),mileage(feet),satellites,gpslevel,voltage(v),max_altitude(feet),max_ascent(feet),max_speed(mph),max_distance(feet), xSpeed(mph), ySpeed(mph), zSpeed(mph), compass_heading(degrees), pitch(degrees), roll(degrees),isPhoto,isVideo,rc_elevator,rc_aileron,rc_throttle,rc_rudder,rc_elevator(percent),rc_aileron(percent),rc_throttle(percent),rc_rudder(percent),gimbal_heading(degrees),gimbal_pitch(degrees),gimbal_roll(degrees),battery_percent,voltageCell1,voltageCell2,voltageCell3,voltageCell4,voltageCell5,voltageCell6,current(A),battery_temperature(f),altitude(feet),ascent(feet),flycStateRaw,flycState,message
0,2022-09-03 13:49:20,-34.8753792932949,-55.267186320544,0,0,172.49364462741,172.49364462741,0.328084,0,0,0,10,4,0,172.49364462741,0,0,0,0,0,0,289.3, 1.6, -1,0,0,364,364,364,1684,-100,-100,-100,100,300.6,0,0,95,4.262,4.259,0,0,0,0,0,68.72,172.49364462741,0,6,P-GPS,"Setting new Return-To-Home altitude to 60m (197 ft). Data Recorder File Index is 45. Setting new Maximum Flight Altitude to 120m (394 ft)"
100,2022-09-03 13:49:20,-34.8753792882745,-55.267186451138,0,0,172.49364462741,172.49364462741,0.328084,0,0.039132547184,0.039132547184,10,4,0,172.49364462741,0,0,0.039132547184,0,0,0,289.3, 1.6, -1,0,0,364,364,364,1684,-100,-100,-100,100,300.6,0,0,95,4.262,4.259,0,0,0,0,0,68.72,172.49364462741,0,41,Motors_Started,"En vuelo"
200,2022-09-03 13:49:20,-34.8753792631069,-55.267186606944,0,0.032808399999993,172.46083622741,172.49364462741,0.328084,0,0.08643044896,0.086664044768,10,4,0,172.49364462741,0,0,0.08643044896,0,0,0,289.3, 1.6, -1.1,0,0,692,728,710,1146,-50,-45,-48,18,300.6,0,0,95,4.262,4.259,0,0,0,0,0,68.72,172.49364462741,0,41,Motors_Started,
300,2022-09-03 13:49:21,-34.875379261914,-55.2671867382815,0,0.032808399999993,172.46083622741,172.49364462741,0.328084,0,0.12556102764,0.125978678572,10,4,0,172.49364462741,0,0,0.12556102764,0,0,0,289.3, 1.6, -1,0,0,1024,1024,1024,1024,0,0,0,0,300.6,0,0,95,4.262,4.259,0,0,0,0,0,68.72,172.49364462741,0,41,Motors_Started,
400,2022-09-03 13:49:21,-34.8753792611625,-55.2671868795261,0,0.032808399999993,172.46083622741,172.49364462741,0.328084,0,0.167725727152,0.168256895148,10,4,0,172.49364462741,0,0,0.167725727152,0,0,0,289.3, 1.6, -1.1,0,0,1024,1024,1024,1024,0,0,0,0,300.6,0,0,95,4.262,4.259,0,0,0,0,0,68.72,172.49364462741,0,41,Motors_Started,
500,2022-09-03 13:49:21,-34.8753792614353,-55.267187021693,0,0.032808399999993,172.46083622741,172.49364462741,0.328084,0,0.210190623524,0.210810702284,10,4,0,172.49364462741,0,0,0.210190623524,0,0,0,289.3, 1.6, -1,0,0,1024,1024,1024,1024,0,0,0,0,300.6,0,0,95,4.262,4.259,0,0,0,0,0,68.72,172.49364462741,0,41,Motors_Started,
600,2022-09-03 13:49:21,-34.8753792619653,-55.267187172576,0,0.032808399999993,172.46083622741,172.49364462741,0.328084,0,0.255287737828,0.255973761472,10,4,0,172.49364462741,0,0,0.255287737828,0,0,0,289.3, 1.6, -1,0,0,1024,1024,1024,1024,0,0,0,0,300.6,0,0,95,4.262,4.259,0,0,0,0,0,68.72,172.49364462741,0,41,Motors_Started,
700,2022-09-03 13:49:21,-34.8753792652743,-55.2671872963852,0,0.032808399999993,172.46083622741,172.49364462741,0.328084,0,0.292269038224,0.293052174732,10,4,0,172.49364462741,0,0,0.292269038224,0,0,0,289.3, 1.6, -1,0,0,1024,1024,1024,1024,0,0,0,0,300.6,0,0,95,4.262,4.259,0,0,0,0,0,68.72,172.49364462741,0,41,Motors_Started,
800,2022-09-03 13:49:21,-34.8753792662042,-55.2671874485141,0,0.032808399999993,172.46083622741,172.49364462741,0.328084,0,0.33776903968,0.33858924968,10,4,0,172.49364462741,0,0,0.33776903968,0,0,0,289.3, 1.6, -1.1,0,0,1024,1024,1024,1024,0,0,0,0,300.6,0,0,95,4.262,4.259,0,0,0,0,0,68.72,172.49364462741,0,41,Motors_Started,
900,2022-09-03 13:49:21,-34.8753792232092,-55.2671875509705,0,0.065616799999987,172.42802782741,172.49364462741,0.328084,0,0.36917980184,0.37303478884,10,4,0,172.49364462741,0,0,0.36917980184,0,0,0,289.3, 1.6, -1.1,0,0,1024,1024,1024,1024,0,0,0,0,300.6,0,0,95,4.262,4.259,0,0,0,0,0,68.72,172.49364462741,0,41,Motors_Started,
1000,2022-09-03 13:49:21,-34.8753791727478,-55.267187653214,0,0.065616799999987,172.42802782741,172.49364462741,0.328084,0,0.40131562964,0.40875001308,10,4,0,172.49364462741,0,0,0.40131562964,0,0,0,289.3, 1.6, -1.1,0,0,1024,1024,1024,1024,0,0,0,0,300.6,0,0,95,4.262,4.259,0,0,0,0,0,68.72,172.49364462741,0,41,Motors_Started,
1100,2022-09-03 13:49:21,-34.8753792032168,-55.2671876037425,0,0.065616799999987,172.42802782741,172.49364462741,0.328084,0,0.38549213832,0.42726707404,10,4,0,172.49364462741,0,0,0.40131562964,0,0,0,289.3, 1.6, -1,0,0,1024,1024,1024,1024,0,0,0,0,300.6,0,0,95,4.262,4.259,0,0,0,0,0,68.72,172.49364462741,0,41,Motors_Started,
1200,2022-09-03 13:49:21,-34.8753792406075,-55.2671876919371,0,0.065616799999987,172.42802782741,172.49364462741,0.328084,0,0.41093833336,0.45698164192,10,4,0,172.49364462741,0,0,0.41093833336,0,0,0,289.3, 1.6, -1,0,0,1024,1024,1066,1024,0,0,6,0,300.6,0,0,95,4.262,4.259,0,0,0,0,0,68.72,172.49364462741,0,10,Assisted_Takeoff,
1300,2022-09-03 13:49:22,-34.875379262712,-55.2671878188842,0,0.065616799999987,172.42802782741,172.49364462741,0.328084,0,0.44862534244,0.49582678752,10,4,8.538,172.49364462741,0,0,0.44862534244,0,0,0,289.3, 1.6, -1,0,0,1024,1024,1091,1024,0,0,10,0,300.6,0,0,95,4.262,4.259,0,0,0,0,0.97,68.72,172.49364462741,0,10,Assisted_Takeoff,
1400,2022-09-03 13:49:22,-34.8753792820098,-55.2671879606347,0,0.065616799999987,172.42802782741,172.49364462741,0.328084,0,0.49093177424,0.53883531908,10,4,8.538,172.49364462741,0,0,0.49093177424,0,0,0,289.3, 1.6, -1,0,0,1024,1024,1133,1024,0,0,17,0,300.6,0,0,95,4.262,4.259,0,0,0,0,0.97,68.72,172.49364462741,0,10,Assisted_Takeoff,
1500,2022-09-03 13:49:22,-34.8753792955503,-55.2671881017899,0,0.065616799999987,172.42802782741,172.49364462741,0.328084,0,0.53316602756,0.58137469052,10,4,8.538,172.49364462741,0,0,0.53316602756,0,0,0,289.2, 1.5, -1.1,0,0,1024,1024,1024,1024,0,0,0,0,300.6,0,0,95,4.262,4.259,0,0,0,0,0.97,68.72,172.49364462741,0,10,Assisted_Takeoff,
1600,2022-09-03 13:49:22,-34.8753792984075,-55.2671882208791,-0.328084,-0.26246720000001,172.42802782741,172.16556062741,0.328084,0,0.568815635,0.61703414048,10,4,8.538,172.49364462741,0,0,0.568815635,0,0,0,289.3, 1.5, -1.1,0,0,1024,1024,1024,1024,0,0,0,0,300.5,0,0,95,4.262,4.259,0,0,0,0,0.97,68.72,172.16556062741,-0.328084,10,Assisted_Takeoff,
1700,2022-09-03 13:49:22,-34.8753793400948,-55.2671883239091,-0.328084,-0.26246720000001,172.42802782741,172.16556062741,0.328084,0,0.59989503232,0.65142062452,10,4,8.538,172.49364462741,0,0,0.59989503232,0,0,0,289.5, 1.4, -1.1,0,0,1024,1024,1024,1024,0,0,0,0,300.6,0,0,95,4.262,4.259,0,0,0,0,0.97,68.72,172.16556062741,-0.328084,10,Assisted_Takeoff,
1800,2022-09-03 13:49:22,-34.8753793901515,-55.2671884302885,-0.328084,-0.26246720000001,172.42802782741,172.16556062741,0.328084,0,0.6324803352,0.68812666244,10,4,8.538,172.49364462741,0,0,0.6324803352,0,0,0,289.7, 1.4, -1.1,0,0,1024,1024,1130,1024,0,0,16,0,300.7,0,0,95,4.262,4.259,0,0,0,0,0.97,68.72,172.16556062741,-0.328084,10,Assisted_Takeoff,
1900,2022-09-03 13:49:22,-34.8753794528409,-55.2671885870513,-0.328084,-0.26246720000001,172.42802782741,172.16556062741,0.328084,0,0.68090881444,0.74032810768,10,4,8.538,172.49364462741,0,0,0.68090881444,0,0,0,289.7, 1.4, -1.1,0,0,1024,1024,1380,1024,0,0,54,0,300.8,0,0,95,4.262,4.259,0,0,0,0,0.97,68.72,172.16556062741,-0.328084,10,Assisted_Takeoff,
2000,2022-09-03 13:49:22,-34.8753794617135,-55.2671887451128,-0.328084,-0.26246720000001,172.42802782741,172.16556062741,0.328084,0.223694,0.72832351412,0.78774936904,10,4,8.538,172.49364462741,0,0.223694,0.72832351412,0,-0.223694,0,289.9, 1.4, -1.1,0,0,1024,1024,1345,1024,0,0,49,0,300.9,0,0,95,4.262,4.259,0,0,0,0,0.97,68.72,172.16556062741,-0.328084,10,Assisted_Takeoff,
2100,2022-09-03 13:49:22,-34.875379458569,-55.2671889076241,-0.328084,-0.26246720000001,172.42802782741,172.16556062741,0.328084,0.223694,0.77671262328,0.83640750708,10,4,8.538,172.49364462741,0,0.223694,0.77671262328,0,-0.223694,0,289.8, 1.5, -1.1,0,0,1024,1024,1349,1024,0,0,49,0,301,0,0,95,4.262,4.259,0,0,0,0,0.97,68.72,172.16556062741,-0.328084,10,Assisted_Takeoff,
2200,2022-09-03 13:49:23,-34.8753794528564,-55.2671890822173,-0.328084,-0.26246720000001,172.42802782741,172.16556062741,0.328084,0,0.8286745672,0.88870737752,10,4,8.538,172.49364462741,0,0.223694,0.8286745672,0,0,0,289.8, 1, -1.3,0,0,1024,1024,1337,1024,0,0,47,0,301,0,0,95,4.262,4.259,0,0,0,0,0.97,68.72,172.16556062741,-0.328084,10,Assisted_Takeoff,
2300,2022-09-03 13:49:23,-34.8753794504341,-55.267189213947,-0.328084,-0.26246720000001,172.42802782741,172.16556062741,0.328084,0.223694,0.86795278368,0.92814635516,10,4,8.498,172.49364462741,0,0.223694,0.86795278368,0,-0.223694,0,290.1, -0.7, -2,0,0,1024,1024,1272,1024,0,0,38,0,301,0,0,95,4.258,4.257,0,0,0,0,1.58,68.72,172.16556062741,-0.328084,10,Assisted_Takeoff,
2400,2022-09-03 13:49:23,-34.8753794260107,-55.2671893470055,-0.328084,-0.26246720000001,172.42802782741,172.16556062741,0.328084,0.223694,0.90717850672,0.96896000476,10,4,8.498,172.49364462741,0,0.223694,0.90717850672,0,-0.223694,0,290.9, -2.7, -1.8,0,0,1024,1024,1026,1024,0,0,0,0,301.4,0,0,95,4.258,4.257,0,0,0,0,1.58,68.72,172.16556062741,-0.328084,10,Assisted_Takeoff,
2500,2022-09-03 13:49:23,-34.8753794526675,-55.2671895873793,-0.328084,-0.2296588,172.39521942741,172.16556062741,0.328084,0.447388,0.9795603988,1.04156171312,10,4,8.498,172.49364462741,0,0.447388,0.9795603988,0,-0.447388,-0.223694,291.6, -3.2, -1.6,0,0,1024,1024,1026,1024,0,0,0,0,302,0,0,95,4.258,4.257,0,0,0,0,1.58,68.72,172.16556062741,-0.328084,10,Assisted_Takeoff,
2600,2022-09-03 13:49:23,-34.8753794907576,-55.267189919615,0,0.098425200000004,172.39521942741,172.49364462741,0.328084,0.447388,1.07968507392,1.14197510216,10,4,8.498,172.49364462741,0,0.447388,1.07968507392,0,-0.447388,-0.447388,291.6, 0, 0.8,0,0,1024,1024,1024,1024,0,0,0,0,302,0,0,95,4.258,4.257,0,0,0,0,1.58,68.72,172.49364462741,0,6,P-GPS,
2700,2022-09-03 13:49:23,-34.875379521159,-55.2671902647549,0,0.065616799999987,172.42802782741,172.49364462741,0.328084,0.447388,1.18351053656,1.24587602412,10,4,8.498,172.49364462741,0,0.447388,1.18351053656,0,-0.447388,-0.671082,291, 2.3, 1.3,0,0,1024,1024,1024,1024,0,0,0,0,302,0,0,95,4.258,4.257,0,0,0,0,1.58,68.72,172.49364462741,0,6,P-GPS,
2800,2022-09-03 13:49:23,-34.8753795344683,-55.2671906192682,0,0.065616799999987,172.42802782741,172.49364462741,0.656168,0.223694,1.28970476568,1.3520997808,10,4,8.498,172.49364462741,0,0.447388,1.28970476568,0,-0.223694,-0.894776,290.7, 3.1, 0.8,0,0,1024,1024,1024,1024,0,0,0,0,302,0,0,95,4.258,4.257,0,0,0,0,1.58,68.72,172.49364462741,0,6,P-GPS,
2900,2022-09-03 13:49:23,-34.8753795460791,-55.267190862981,0,0.065616799999987,172.42802782741,172.49364462741,0.656168,0.223694,1.36277235332,1.42517064928,10,4,8.498,172.49364462741,0,0.447388,1.36277235332,0,-0.223694,-1.11847,290.6, 2.3, 0.4,0,0,1024,1024,1024,1024,0,0,0,0,302,0,0,95,4.258,4.257,0,0,0,0,1.58,68.72,172.49364462741,0,6,P-GPS,
3000,2022-09-03 13:49:23,-34.8753795625948,-55.2671910867892,0.328084,0.39370079999999,172.42802782741,172.82172862741,0.984252,0.223694,1.4300197308,1.49243443096,10,4,8.498,172.82172862741,0.328084,0.447388,1.4300197308,0,-0.223694,-1.342164,290.6, 1.8, 0.9,0,0,1024,1024,1024,1024,0,0,0,0,302,0,0,95,4.258,4.257,0,0,0,0,1.58,68.72,172.82172862741,0.328084,6,P-GPS,
3100,2022-09-03 13:49:23,-34.8753796853779,-55.2671912575631,0.656168,0.72178479999999,172.42802782741,173.14981262741,0.984252,0.223694,1.48466540184,1.5604003124,10,4,8.498,173.14981262741,0.656168,0.447388,1.48466540184,0,-0.223694,-1.11847,291.1, 3.3, 2.9,0,0,1029,1024,1024,1024,1,0,0,0,302,0,0,95,4.258,4.257,0,0,0,0,1.58,68.72,173.14981262741,0.656168,6,P-GPS,
3200,2022-09-03 13:49:24,-34.8753799725865,-55.2671913139521,0.984252,1.0498688,172.42802782741,173.47789662741,1.312336,0,1.5150426994,1.66653876724,10,4,8.498,173.47789662741,0.984252,0.447388,1.5150426994,0,0,-1.11847,291, 2.3, 1.5,0,0,1232,1024,1024,1024,32,0,0,0,302,0,0,95,4.258,4.257,0,0,0,0,1.58,68.72,173.47789662741,0.984252,6,P-GPS,
3300,2022-09-03 13:49:24,-34.8753800687478,-55.2671912403409,0.984252,1.0498688,172.42802782741,173.47789662741,1.312336,0,1.49953416872,1.70796921476,10,4,8.333,173.47789662741,0.984252,0.447388,1.5150426994,0,0,-0.894776,291, 1.4, 0.9,0,0,1123,1024,1024,1024,15,0,0,0,302,0,0,95,4.163,4.159,0,0,0,0,3.486,68.72,173.47789662741,0.984252,6,P-GPS,
3400,2022-09-03 13:49:24,-34.8753801558516,-55.2671911200913,1.312336,1.3779528,172.42802782741,173.80598062741,1.64042,0,1.47067261924,1.75598430816,10,4,8.333,173.80598062741,1.312336,0.447388,1.5150426994,0,0,-0.671082,290.9, -0.9, 0.1,0,0,1024,1024,1024,1024,0,0,0,0,302,0,0,95,4.163,4.159,0,0,0,0,3.486,68.72,173.80598062741,1.312336,6,P-GPS,
3500,2022-09-03 13:49:24,-34.8753802720688,-55.2671909003583,1.312336,1.3779528,172.42802782741,173.80598062741,1.64042,0,1.41658797184,1.83423890384,10,4,8.333,173.80598062741,1.312336,0.447388,1.5150426994,0,0,-0.447388,290.8, -1.9, -0.1,0,0,1024,1024,1024,1024,0,0,0,0,302,0,0,95,4.163,4.159,0,0,0,0,3.486,68.72,173.80598062741,1.312336,6,P-GPS,
3600,2022-09-03 13:49:24,-34.875380624096,-55.2671900705861,1.312336,1.312336,172.49364462741,173.80598062741,1.64042,0,1.2229823226,2.11385177368,10,4,8.333,173.80598062741,1.312336,0.447388,1.5150426994,0,0,-0.447388,291, 0.5, 0.2,0,0,1024,1024,1024,1024,0,0,0,0,302,0,0,95,4.163,4.159,0,0,0,0,3.486,68.72,173.80598062741,1.312336,6,P-GPS,
3700,2022-09-03 13:49:24,-34.8753807523767,-55.2671899971917,1.64042,1.64042,172.49364462741,174.13406462741,1.64042,0,1.22249347744,2.16555453124,10,4,8.333,174.13406462741,1.64042,0.447388,1.5150426994,0,0,-0.223694,291, 0.6, 0.7,0,0,1073,1024,1024,1024,7,0,0,0,302,0,0,95,4.163,4.159,0,0,0,0,3.486,68.72,174.13406462741,1.64042,6,P-GPS,
3800,2022-09-03 13:49:24,-34.8753808868145,-55.2671899314671,1.64042,1.64042,172.49364462741,174.13406462741,1.64042,0,1.22727694216,2.21840230196,10,4,8.333,174.13406462741,1.64042,0.447388,1.5150426994,0,0,0,291, 0.3, 0.4,0,0,1268,1024,1024,1024,37,0,0,0,302,0,0,95,4.163,4.159,0,0,0,0,3.486,68.72,174.13406462741,1.64042,6,P-GPS,
3900,2022-09-03 13:49:24,-34.8753808276304,-55.2671899966539,1.64042,1.64042,172.49364462741,174.13406462741,1.64042,0,1.23455384528,2.24750335276,10,4,8.333,174.13406462741,1.64042,0.447388,1.5150426994,0,0,0,291.1, -0.9, 0,0,0,1303,1024,1024,1024,42,0,0,0,302,0,0,95,4.163,4.159,0,0,0,0,3.486,68.72,174.13406462741,1.64042,6,P-GPS,
4000,2022-09-03 13:49:24,-34.8753807226788,-55.2671901062352,1.64042,1.64042,172.49364462741,174.13406462741,1.64042,0,1.24738849136,2.29792330188,10,4,8.333,174.13406462741,1.64042,0.447388,1.5150426994,0,0,0,291.1, -3.7, 0,0,0,1314,1024,1024,1024,44,0,0,0,302,0,0,95,4.163,4.159,0,0,0,0,3.486,68.72,174.13406462741,1.64042,6,P-GPS,"Punto de origen actualizado. Altitud de RPO establecida en 60m (Code: 3000001)"
4100,2022-09-03 13:49:24,-34.8753804359472,-55.2671905244903,1.64042,1.7060368,172.42802782741,174.13406462741,1.64042,0,1.32559387444,2.46106963256,10,4,8.333,174.13406462741,1.64042,0.447388,1.5150426994,0,0,0,290.9, -5.1, -0.1,0,0,1315,1024,1024,1024,44,0,0,0,302,0,0,95,4.163,4.159,0,0,0,0,3.486,68.72,174.13406462741,1.64042,6,P-GPS,
4200,2022-09-03 13:49:24,-34.8753800907122,-55.267191089469,1.64042,1.7060368,172.42802782741,174.13406462741,1.64042,0.223694,1.45678810436,2.67193578104,10,4,8.333,174.13406462741,1.64042,0.447388,1.5150426994,0,-0.223694,0,290.9, -5.3, -0.1,0,0,1304,1024,1024,1024,42,0,0,0,302,0,0,95,4.163,4.159,0,0,0,0,3.486,68.72,174.13406462741,1.64042,6,P-GPS,
4300,2022-09-03 13:49:25,-34.87537994141,-55.2671914654088,1.64042,1.7060368,172.42802782741,174.13406462741,1.64042,0.4921268,1.55801842256,2.79695547008,10,4,8.371,174.13406462741,1.64042,0.4921268,1.55801842256,0.223694,-0.447388,0,290.8, -5.2, 0.5,0,0,1292,1024,1024,1024,41,0,0,0,302,0,0,95,4.18,4.175,0,0,0,0,3.915,68.72,174.13406462741,1.64042,6,P-GPS,
4400,2022-09-03 13:49:25,-34.8753798176173,-55.2671918595745,1.64042,1.7388452,172.39521942741,174.13406462741,1.64042,0.4921268,1.66895018464,2.92328749512,10,4,8.371,174.13406462741,1.64042,0.4921268,1.66895018464,0.223694,-0.447388,0,290.7, -4.9, 0,0,0,1292,1024,1024,1024,41,0,0,0,302,0,0,95,4.18,4.175,0,0,0,0,3.915,68.72,174.13406462741,1.64042,6,P-GPS,
4500,2022-09-03 13:49:25,-34.8753796229905,-55.2671923424811,1.64042,1.7388452,172.39521942741,174.13406462741,1.64042,0.7158208,1.80650596332,3.08433080736,10,4,8.371,174.13406462741,1.64042,0.7158208,1.80650596332,0.223694,-0.671082,0,290.8, -4.6, -0.2,0,0,1286,1024,1024,1024,40,0,0,0,302,0,0,95,4.18,4.175,0,0,0,0,3.915,68.72,174.13406462741,1.64042,6,P-GPS,
4600,2022-09-03 13:49:25,-34.8753794644086,-55.2671928273013,1.64042,1.804462,172.32960262741,174.13406462741,1.968504,0.9171454,1.94861226708,3.24055784648,10,4,8.371,174.13406462741,1.64042,0.9171454,1.94861226708,0.223694,-0.894776,0,290.8, -4.3, 0.1,0,0,1282,1024,1024,1024,39,0,0,0,302,0,0,95,4.18,4.175,0,0,0,0,3.915,68.72,174.13406462741,1.64042,6,P-GPS,
4700,2022-09-03 13:49:25,-34.8753793623467,-55.2671932864344,1.64042,1.804462,172.32960262741,174.13406462741,1.968504,0.9171454,2.08519363628,3.3829397408,10,4,8.371,174.13406462741,1.64042,0.9171454,2.08519363628,0.223694,-0.894776,0,290.8, -4.6, 0.8,0,0,1278,1024,1024,1024,38,0,0,0,302,0,0,95,4.18,4.175,0,0,0,0,3.915,68.72,174.13406462741,1.64042,6,P-GPS,
4800,2022-09-03 13:49:25,-34.8753792432097,-55.2671937968046,1.64042,1.8372704,172.29679422741,174.13406462741,1.968504,1.006623,2.23788064904,3.5417652052,10,4,8.371,174.13406462741,1.64042,1.006623,2.23788064904,0.447388,-0.894776,0,290.7, -4.9, 0.5,0,0,1197,1024,1024,1024,26,0,0,0,302,0,0,95,4.18,4.175,0,0,0,0,3.915,68.72,174.13406462741,1.64042,6,P-GPS,
4900,2022-09-03 13:49:25,-34.8753793491726,-55.26719451504,1.64042,1.8700788,172.26398582741,174.13406462741,1.968504,1.006623,2.45287409424,3.7602035324,10,4,8.371,174.13406462741,1.64042,1.006623,2.45287409424,0.447388,-0.894776,0,290.8, -4.5, 0.2,0,0,1144,1024,1024,1024,18,0,0,0,302,0,0,95,4.18,4.175,0,0,0,0,3.915,68.72,174.13406462741,1.64042,6,P-GPS,
5000,2022-09-03 13:49:25,-34.8753792241178,-55.2671952387395,1.64042,1.8700788,172.26398582741,174.13406462741,5.577428,1.2974252,2.66952764448,3.9815618072,10,4,8.371,174.13406462741,1.64042,1.2974252,2.66952764448,0.671082,-1.11847,0,290.8, -3.3, -0.6,0,0,1024,1024,1024,1024,0,0,0,0,302,0,0,95,4.18,4.175,0,0,0,0,3.915,68.72,174.13406462741,1.64042,6,P-GPS,
5100,2022-09-03 13:49:25,-34.8753790503914,-55.2671957827603,1.64042,1.8700788,172.26398582741,174.13406462741,5.577428,1.006623,2.83363198044,4.1562993456,10,4,8.371,174.13406462741,1.64042,1.2974252,2.83363198044,0.447388,-0.894776,0,290.9, -2.2, -1,0,0,1024,1024,1045,1024,0,0,3,0,302,0,0,95,4.18,4.175,0,0,0,0,3.915,68.72,174.13406462741,1.64042,6,P-GPS,
5200,2022-09-03 13:49:25,-34.8753788579451,-55.2671963242762,1.64042,1.8700788,172.26398582741,174.13406462741,5.577428,0.8052984,2.99854340304,4.3329397712,10,4,8.371,174.13406462741,1.64042,1.2974252,2.99854340304,0.447388,-0.671082,0,290.8, 0.9, -1.5,0,0,1024,1024,1045,1024,0,0,3,0,302,0,0,95,4.18,4.175,0,0,0,0,3.915,68.72,174.13406462741,1.64042,6,P-GPS,
5300,2022-09-03 13:49:26,-34.8753791409996,-55.2671963464324,1.64042,1.8700788,172.26398582741,174.13406462741,5.577428,0.7158208,3.00147975484,4.4364502732,10,4,8.371,174.13406462741,1.64042,1.2974252,3.00147975484,0.223694,-0.671082,0,291, 3.7, -1.1,0,0,1024,1024,1199,1024,0,0,27,0,302,0,0,95,4.18,4.175,0,0,0,0,3.915,68.72,174.13406462741,1.64042,6,P-GPS,
5400,2022-09-03 13:49:26,-34.8753792092021,-55.2671966862871,1.64042,1.9028872,172.23117742741,174.13406462741,5.577428,0.3131716,3.10284130664,4.541174686,10,4,8.349,174.13406462741,1.64042,1.2974252,3.10284130664,0.223694,-0.223694,0,291.3, 3.4, -0.9,0,0,1024,1024,1120,1024,0,0,15,0,302,0,0,95,4.173,4.167,0,0,0,0,4.009,68.72,174.13406462741,1.64042,6,P-GPS,
5500,2022-09-03 13:49:26,-34.8753792946531,-55.2671969249628,1.64042,1.9028872,172.23117742741,174.13406462741,5.577428,0,3.174130679,4.619094636,10,4,8.349,174.13406462741,1.64042,1.2974252,3.174130679,0,0,-0.223694,291.4, 1.9, 0.1,0,0,1024,1024,1024,1024,0,0,0,0,302,0,0,95,4.173,4.167,0,0,0,0,4.009,68.72,174.13406462741,1.64042,6,P-GPS,
5600,2022-09-03 13:49:26,-34.8753794070401,-55.2671971008521,1.64042,1.9028872,172.23117742741,174.13406462741,5.577428,0,3.22704734736,4.6858269216,10,4,8.349,174.13406462741,1.64042,1.2974252,3.22704734736,0,0,-0.223694,291.6, 0.3, 0.2,0,0,1122,1024,1024,1024,15,0,0,0,302,0,0,95,4.173,4.167,0,0,0,0,4.009,68.72,174.13406462741,1.64042,6,P-GPS,
5700,2022-09-03 13:49:26,-34.8753794391693,-55.2671974482567,1.64042,1.9028872,172.23117742741,174.13406462741,5.577428,0,3.331200894,4.7904857176,10,4,8.349,174.13406462741,1.64042,1.2974252,3.331200894,0,0,0,291.8, -0.8, -1.1,0,0,1245,1024,1161,1024,33,0,21,0,302,0,0,95,4.173,4.167,0,0,0,0,4.009,68.72,174.13406462741,1.64042,6,P-GPS,
5800,2022-09-03 13:49:26,-34.8753794875211,-55.2671980944056,1.64042,1.9356956,172.19836902741,174.13406462741,5.577428,0,3.5248688792,4.9847114456,10,4,8.349,174.13406462741,1.64042,1.2974252,3.5248688792,0,0,0,292, -3, 0,0,0,1222,1024,1162,1024,30,0,21,0,302,0,0,95,4.173,4.167,0,0,0,0,4.009,68.72,174.13406462741,1.64042,6,P-GPS,
5900,2022-09-03 13:49:26,-34.8753796134039,-55.2671983091381,1.968504,2.1981628,172.26398582741,174.46214862741,5.577428,0,3.5903544456,5.0636812644,10,4,8.349,174.46214862741,1.968504,1.2974252,3.5903544456,0,0,0,292.3, -5.1, 0.6,0,0,1225,1024,1087,1024,30,0,10,0,302,0,0,95,4.173,4.167,0,0,0,0,4.009,68.72,174.46214862741,1.968504,6,P-GPS,
6000,2022-09-03 13:49:26,-34.8753797525202,-55.2671985419411,1.968504,2.2309712,172.23117742741,174.46214862741,5.577428,0.223694,3.6619751828,5.1499017396,10,4,8.349,174.46214862741,1.968504,1.2974252,3.6619751828,0,-0.223694,-0.223694,292.4, -5.2, 1.2,0,0,1181,1024,1024,1024,24,0,0,0,302,0,0,95,4.173,4.167,0,0,0,0,4.009,68.72,174.46214862741,1.968504,6,P-GPS,
6100,2022-09-03 13:49:26,-34.87537989369,-55.2671987148661,1.968504,2.2309712,172.23117742741,174.46214862741,5.577428,0.223694,3.7163387016,5.222933238,10,4,8.349,174.46214862741,1.968504,1.2974252,3.7163387016,0,-0.223694,-0.223694,292.2, -4.3, 0.5,0,0,1181,1024,1024,1024,24,0,0,0,302,0,0,95,4.173,4.167,0,0,0,0,4.009,68.72,174.46214862741,1.968504,6,P-GPS,
6200,2022-09-03 13:49:27,-34.8753802212678,-55.2671986309705,1.968504,2.2309712,172.23117742741,174.46214862741,5.577428,0.447388,3.700295394,5.3450461028,10,4,8.349,174.46214862741,1.968504,1.2974252,3.7163387016,0,-0.447388,0,292.1, -3.3, 0.7,0,0,1149,1024,1086,1024,19,0,9,0,302,0,0,95,4.173,4.167,0,0,0,0,4.009,68.72,174.46214862741,1.968504,6,P-GPS,
6300,2022-09-03 13:49:27,-34.8753803267194,-55.267198881869,2.296588,2.5590552,172.23117742741,174.79023262741,5.577428,0.447388,3.7787402784,5.4294293076,10,4,8.349,174.79023262741,2.296588,1.2974252,3.7787402784,0,-0.447388,0,292.1, -2.7, 0,0,0,1024,1024,1024,1024,0,0,0,0,302,0,0,95,4.173,4.167,0,0,0,0,4.009,68.72,174.79023262741,2.296588,6,P-GPS,
6400,2022-09-03 13:49:27,-34.8753804408358,-55.2671991551403,2.296588,2.5590552,172.23117742741,174.79023262741,5.577428,0.447388,3.8644030108,5.5212272108,9,4,8.326,174.79023262741,2.296588,1.2974252,3.8644030108,0,-0.447388,0,291.9, -0.7, 0.9,0,0,1024,1024,1037,1024,0,0,2,0,302,0,0,95,4.146,4.118,0,0,0,0,4.121,68.72,174.79023262741,2.296588,6,P-GPS,
6500,2022-09-03 13:49:27,-34.8753805293418,-55.2671995185218,2.296588,2.5262468,172.26398582741,174.79023262741,5.577428,0.447388,3.9760828044,5.634678658,9,4,8.326,174.79023262741,2.296588,1.2974252,3.9760828044,0,-0.447388,0,291.4, 0.3, 0.7,0,0,1024,1024,1085,1024,0,0,9,0,302,0,0,95,4.146,4.118,0,0,0,0,4.121,68.72,174.79023262741,2.296588,6,P-GPS,
6600,2022-09-03 13:49:27,-34.8753806655253,-55.267200145223,2.296588,2.5262468,172.26398582741,174.79023262741,5.577428,0.447388,4.1682087948,5.828740344,9,4,8.326,174.79023262741,2.296588,1.2974252,4.1682087948,0,-0.447388,0,290.9, 0.8, 0.6,0,0,1024,1024,1137,1024,0,0,17,0,302,0,0,95,4.146,4.118,0,0,0,0,4.121,68.72,174.79023262741,2.296588,6,P-GPS,
6700,2022-09-03 13:49:27,-34.8753808207876,-55.2672004474577,2.296588,2.5262468,172.26398582741,174.79023262741,5.577428,0.223694,4.2650591916,5.9354660692,9,4,8.326,174.79023262741,2.296588,1.2974252,4.2650591916,0,-0.223694,0,290.6, 0.4, 1.2,0,0,1024,1024,1210,1024,0,0,28,0,302,0,0,95,4.146,4.118,0,0,0,0,4.121,68.72,174.79023262741,2.296588,6,P-GPS,
6800,2022-09-03 13:49:27,-34.8753809983727,-55.2672006945355,2.296588,2.5590552,172.23117742741,174.79023262741,5.577428,0,4.3471786168,6.033792844,9,4,8.326,174.79023262741,2.296588,1.2974252,4.3471786168,0,0,0,290.2, -0.4, 0.7,0,0,1024,1024,1222,1024,0,0,30,0,302,0,0,95,4.146,4.118,0,0,0,0,4.121,68.72,174.79023262741,2.296588,6,P-GPS,
6900,2022-09-03 13:49:27,-34.8753811919719,-55.267200852644,2.296588,2.5590552,172.23117742741,174.79023262741,5.577428,0,4.4045933168,6.1187994084,9,4,8.326,174.79023262741,2.296588,1.2974252,4.4045933168,0,0,-0.447388,289.9, -0.3, 1.2,0,0,1024,1024,1222,1024,0,0,30,0,302,0,0,95,4.146,4.118,0,0,0,0,4.121,68.72,174.79023262741,2.296588,6,P-GPS,
7000,2022-09-03 13:49:27,-34.8753815028516,-55.2672012284194,2.296588,2.5262468,172.26398582741,174.79023262741,5.905512,0,4.5344817724,6.278543508,9,4,8.326,174.79023262741,2.296588,1.2974252,4.5344817724,0,0,-0.671082,289.5, -0.8, 1.2,0,0,1024,1024,1227,1024,0,0,31,0,302,0,0,95,4.146,4.118,0,0,0,0,4.121,68.72,174.79023262741,2.296588,6,P-GPS,
7100,2022-09-03 13:49:27,-34.8753816976428,-55.2672012773029,2.624672,2.8543308,172.26398582741,175.11831662741,5.905512,0,4.56200802,6.3511156888,9,4,8.326,175.11831662741,2.624672,1.2974252,4.56200802,0,0,-0.894776,289.2, -1.2, 1.5,0,0,1024,1024,1086,1024,0,0,9,0,302,0,0,95,4.146,4.118,0,0,0,0,4.121,68.72,175.11831662741,2.624672,6,P-GPS,
7200,2022-09-03 13:49:28,-34.8753818971419,-55.2672012970129,2.624672,2.8543308,172.26398582741,175.11831662741,5.905512,0,4.582349228,6.4241471872,9,4,8.326,175.11831662741,2.624672,1.2974252,4.582349228,0,0,-0.671082,288.9, -2, 1.6,0,0,1059,1024,1024,1024,5,0,0,0,302,0,0,95,4.146,4.118,0,0,0,0,4.121,68.72,175.11831662741,2.624672,6,P-GPS,
7300,2022-09-03 13:49:28,-34.8753820642935,-55.2672012618873,2.624672,2.8543308,172.26398582741,175.11831662741,6.233596,0,4.5851051336,6.4860238296,9,4,8.326,175.11831662741,2.624672,1.2974252,4.5851051336,0,0,-0.447388,288.6, -1.5, 1.1,0,0,1219,1024,1024,1024,30,0,0,0,302,0,0,95,4.146,4.118,0,0,0,0,4.121,68.72,175.11831662741,2.624672,6,P-GPS,
7400,2022-09-03 13:49:28,-34.8753822372164,-55.2672012128758,2.952756,3.1824148,172.26398582741,175.44640062741,6.233596,0,4.5851707504,6.5507876112,10,4,8.323,175.44640062741,2.952756,1.2974252,4.5851707504,0,0,-0.223694,288.5, -2.3, 1,0,0,1423,1024,1024,1024,60,0,0,0,302,0,0,95,4.152,4.16,0,0,0,0,4.361,68.72,175.44640062741,2.952756,6,P-GPS,
7500,2022-09-03 13:49:28,-34.8753824342727,-55.2672010037222,2.952756,3.1824148,172.26398582741,175.44640062741,6.233596,0,4.5419292792,6.6461288216,10,4,8.323,175.44640062741,2.952756,1.2974252,4.5851707504,0,0,0,288.2, -4.7, 1.4,0,0,1360,1024,1024,1024,51,0,0,0,302,0,0,95,4.152,4.16,0,0,0,0,4.361,68.72,175.44640062741,2.952756,6,P-GPS,
7600,2022-09-03 13:49:28,-34.8753826413457,-55.2672007988943,2.952756,3.116798,172.32960262741,175.44640062741,6.233596,0.223694,4.5025591992,6.743438536,10,4,8.323,175.44640062741,2.952756,1.2974252,4.5851707504,0,-0.223694,0,287.9, -8.4, 1.6,0,0,1290,1024,1024,1024,40,0,0,0,302,0,0,95,4.152,4.16,0,0,0,0,4.361,68.72,175.44640062741,2.952756,6,P-GPS,
7700,2022-09-03 13:49:28,-34.8753828502115,-55.2672007544071,2.952756,3.116798,172.32960262741,175.44640062741,6.233596,0.447388,4.5110565748,6.8207679348,10,4,8.323,175.44640062741,2.952756,1.2974252,4.5851707504,0,-0.447388,0,287.8, -8.2, 1.8,0,0,1197,1024,1163,1024,26,0,21,0,302,0,0,95,4.152,4.16,0,0,0,0,4.361,68.72,175.44640062741,2.952756,6,P-GPS,
7800,2022-09-03 13:49:28,-34.8753830491732,-55.2672008362964,2.952756,3.116798,172.32960262741,175.44640062741,6.233596,0.671082,4.5558400408,6.8974083572,10,4,8.323,175.44640062741,2.952756,1.2974252,4.5851707504,0,-0.671082,0,287.6, -7.2, 1.5,0,0,1197,1024,1163,1024,26,0,21,0,302,0,0,95,4.152,4.16,0,0,0,0,4.361,68.72,175.44640062741,2.952756,6,P-GPS,
7900,2022-09-03 13:49:28,-34.8753832138496,-55.2672011254676,2.952756,3.116798,172.32960262741,175.44640062741,6.233596,0.894776,4.6565618288,7.0027561296,10,4,8.323,175.44640062741,2.952756,1.2974252,4.6565618288,0,-0.894776,0,287.3, -4.7, 1.2,0,0,1024,1024,1270,1024,0,0,37,0,302,0,0,95,4.152,4.16,0,0,0,0,4.361,68.72,175.44640062741,2.952756,6,P-GPS,
8000,2022-09-03 13:49:28,-34.8753833159937,-55.2672015555252,2.952756,3.1496064,172.29679422741,175.44640062741,6.233596,0.894776,4.790518526,7.1367784436,10,4,8.323,175.44640062741,2.952756,1.2974252,4.790518526,0,-0.894776,-0.447388,287.5, -0.7, 1.8,0,0,1024,1024,1275,1024,0,0,38,0,302,0,0,95,4.152,4.16,0,0,0,0,4.361,68.72,175.44640062741,2.952756,6,P-GPS,
8100,2022-09-03 13:49:28,-34.8753833605708,-55.2672021701968,2.952756,3.1496064,172.29679422741,175.44640062741,6.233596,0.894776,4.970800684,7.3214897356,10,4,8.323,175.44640062741,2.952756,1.2974252,4.970800684,0,-0.894776,-0.894776,287.4, 2.1, 2.2,0,0,1024,1024,1173,1024,0,0,23,0,302,0,0,95,4.152,4.16,0,0,0,0,4.361,68.72,175.44640062741,2.952756,6,P-GPS,
8200,2022-09-03 13:49:29,-34.8753834250995,-55.2672027521157,3.28084,3.5104988,172.26398582741,175.77448462741,6.56168,0.671082,5.1441602696,7.4972443344,9,4,8.323,175.77448462741,3.28084,1.2974252,5.1441602696,0,-0.671082,-0.894776,287.1, 1.6, 2.7,0,0,1024,1024,1120,1024,0,0,15,0,302,0,0,95,4.152,4.16,0,0,0,0,4.361,68.72,175.77448462741,3.28084,6,P-GPS,
8300,2022-09-03 13:49:29,-34.8753834033305,-55.2672041343252,3.28084,3.5104988,172.26398582741,175.77448462741,6.56168,0.671082,5.5389109384,7.9110566836,9,4,8.323,175.77448462741,3.28084,1.2974252,5.5389109384,0,-0.447388,-0.671082,287.1, 1.5, 2.8,0,0,1024,1024,1084,1024,0,0,9,0,302,0,0,95,4.152,4.16,0,0,0,0,4.361,68.72,175.77448462741,3.28084,6,P-GPS,
8400,2022-09-03 13:49:29,-34.8753835660429,-55.2672046018084,3.608924,3.8385828,172.26398582741,176.10256862741,6.56168,0.3131716,5.6896983448,8.0630580008,9,4,8.328,176.10256862741,3.608924,1.2974252,5.6896983448,-0.223694,-0.223694,-0.671082,287, 1.4, 3.3,0,0,1091,1024,1059,1024,10,0,5,0,302,0,0,95,4.148,4.142,0,0,0,0,3.878,68.72,176.10256862741,3.608924,6,P-GPS,
8500,2022-09-03 13:49:29,-34.8753838234478,-55.2672049401816,3.608924,3.8385828,172.26398582741,176.10256862741,6.889764,0.3131716,5.8131891624,8.2011813648,9,4,8.328,176.10256862741,3.608924,1.2974252,5.8131891624,-0.223694,-0.223694,-0.447388,286.8, 0.5, 3.2,0,0,1266,1024,1038,1024,37,0,2,0,302,0,0,95,4.148,4.142,0,0,0,0,3.878,68.72,176.10256862741,3.608924,6,P-GPS,
8600,2022-09-03 13:49:29,-34.8753841137082,-55.267205217391,3.608924,3.8385828,172.26398582741,176.10256862741,6.889764,0.223694,5.9233597696,8.3356958048,9,4,8.328,176.10256862741,3.608924,1.2974252,5.9233597696,-0.223694,0,-0.223694,286.7, -0.8, 3.3,0,0,1332,1024,1024,1024,47,0,0,0,302,0,0,95,4.148,4.142,0,0,0,0,3.878,68.72,176.10256862741,3.608924,6,P-GPS,
8700,2022-09-03 13:49:29,-34.875384710857,-55.2672055005761,3.608924,3.8057744,172.29679422741,176.10256862741,6.889764,0.223694,6.0717521628,8.5694884632,9,4,8.328,176.10256862741,3.608924,1.2974252,6.0717521628,-0.223694,0,0,286.4, -3.7, 3.1,0,0,1332,1024,1024,1024,47,0,0,0,302,0,0,95,4.148,4.142,0,0,0,0,3.878,68.72,176.10256862741,3.608924,6,P-GPS,
8800,2022-09-03 13:49:29,-34.8753849863913,-55.2672056587499,3.608924,3.8057744,172.29679422741,176.10256862741,6.889764,0.223694,6.1497377296,8.680610514,10,4,8.328,176.10256862741,3.608924,1.2974252,6.1497377296,-0.223694,0,0,286.2, -6.7, 2.5,0,0,1332,1024,1027,1024,47,0,0,0,302,0,0,95,4.148,4.142,0,0,0,0,3.878,68.72,176.10256862741,3.608924,6,P-GPS,
8900,2022-09-03 13:49:29,-34.8753852252141,-55.2672057699694,3.608924,3.8057744,172.29679422741,176.10256862741,6.56168,0.223694,6.2109253956,8.7738847952,10,4,8.328,176.10256862741,3.608924,1.2974252,6.2109253956,0,-0.223694,0,286.1, -7.5, 2.7,0,0,1323,1024,1084,1024,45,0,9,0,302,0,0,95,4.148,4.142,0,0,0,0,3.878,68.72,176.10256862741,3.608924,6,P-GPS,
9000,2022-09-03 13:49:29,-34.8753854453211,-55.267205949464,3.608924,3.8057744,172.29679422741,176.10256862741,6.56168,0.447388,6.2895015136,8.8705055332,9,4,8.328,176.10256862741,3.608924,1.2974252,6.2895015136,0,-0.447388,0,286, -7.4, 2.4,0,0,1197,1024,1131,1024,26,0,16,0,302,0,0,95,4.148,4.142,0,0,0,0,3.878,68.72,176.10256862741,3.608924,6,P-GPS,
9100,2022-09-03 13:49:29,-34.8753855751113,-55.2672062060966,3.608924,3.7401576,172.36241102741,176.10256862741,6.56168,0.671082,6.3781826188,8.9607286332,9,4,8.328,176.10256862741,3.608924,1.2974252,6.3781826188,0,-0.671082,0,286, -6, 2,0,0,1024,1024,1119,1207,0,0,14,28,302,0,0,95,4.148,4.142,0,0,0,0,3.878,68.72,176.10256862741,3.608924,6,P-GPS,
9200,2022-09-03 13:49:29,-34.8753857037909,-55.2672062556954,3.608924,3.7401576,172.36241102741,176.10256862741,6.56168,0.671082,6.4090225148,9.0099740416,9,4,8.328,176.10256862741,3.608924,1.2974252,6.4090225148,0,-0.671082,-0.223694,286.1, -2.9, 2.6,0,0,1024,1024,1076,1340,0,0,8,48,302,0,0,95,4.148,4.142,0,0,0,0,3.878,68.72,176.10256862741,3.608924,6,P-GPS,
9300,2022-09-03 13:49:30,-34.8753858495627,-55.2672066884654,3.608924,3.772966,172.32960262741,176.10256862741,6.889764,0.671082,6.549048766,9.1500002928,9,4,8.328,176.10256862741,3.608924,1.2974252,6.549048766,0,-0.671082,-0.223694,286.2, 1.3, 3.3,0,0,1024,1024,1024,1024,0,0,0,0,302.4,0,0,95,4.148,4.142,0,0,0,0,3.878,68.72,176.10256862741,3.608924,6,P-GPS,
9400,2022-09-03 13:49:30,-34.8753860139965,-55.2672071052116,3.937008,4.10105,172.32960262741,176.43065262741,6.889764,0.671082,6.6870737048,9.2884189324,9,4,8.327,176.43065262741,3.937008,1.2974252,6.6870737048,0,-0.671082,-0.223694,287, 2, 3.8,0,0,1024,1024,1024,1024,0,0,0,0,303.3,0,0,95,4.141,4.144,0,0,0,0,4.036,68.72,176.43065262741,3.937008,6,P-GPS,
9500,2022-09-03 13:49:30,-34.875386178116,-55.2672074579457,3.937008,4.10105,172.32960262741,176.43065262741,6.889764,0.447388,6.8072836824,9.4098100124,9,4,8.327,176.43065262741,3.937008,1.2974252,6.8072836824,0,-0.447388,0,287.5, 1.3, 3.2,0,0,1024,1024,1024,1024,0,0,0,0,303.8,0,0,95,4.141,4.144,0,0,0,0,4.036,68.72,176.43065262741,3.937008,6,P-GPS,
9600,2022-09-03 13:49:30,-34.8753863891721,-55.267208087563,3.937008,4.1338584,172.29679422741,176.43065262741,6.889764,0.223694,7.0108598044,9.6133861344,10,4,8.327,176.43065262741,3.937008,1.2974252,7.0108598044,0,-0.223694,0,287.5, 0.2, 2.3,0,0,1024,1024,1024,1024,0,0,0,0,304,0,0,95,4.141,4.144,0,0,0,0,4.036,68.72,176.43065262741,3.937008,6,P-GPS,
9700,2022-09-03 13:49:30,-34.87538657615,-55.267208206985,3.937008,4.0682416,172.36241102741,176.43065262741,6.889764,0.223694,7.0694556068,9.6903874492,10,4,8.327,176.43065262741,3.937008,1.2974252,7.0694556068,0,-0.223694,0,287.8, -0.1, 2.8,0,0,1024,1117,1024,1024,0,14,0,0,304,0,0,95,4.141,4.144,0,0,0,0,4.036,68.72,176.43065262741,3.937008,6,P-GPS,
9800,2022-09-03 13:49:30,-34.8753867673749,-55.2672082618389,3.937008,4.0682416,172.36241102741,176.43065262741,6.889764,0,7.1111222748,9.7620738032,10,4,8.327,176.43065262741,3.937008,1.2974252,7.1111222748,0,0,0,287.6, -0.5, 2.8,0,0,1024,1666,1024,1024,0,97,0,0,304,0,0,95,4.141,4.144,0,0,0,0,4.036,68.72,176.43065262741,3.937008,6,P-GPS,
9900,2022-09-03 13:49:30,-34.8753869323331,-55.2672081364178,3.937008,4.0682416,172.36241102741,176.43065262741,6.889764,0,7.0998689936,9.833005564,10,4,8.327,176.43065262741,3.937008,1.2974252,7.1111222748,0,0,0,287.4, -1, 8.4,0,0,1024,1468,1024,1024,0,67,0,0,304,0,0,95,4.141,4.144,0,0,0,0,4.036,68.72,176.43065262741,3.937008,6,P-GPS,
10000,2022-09-03 13:49:30,-34.8753871582406,-55.2672074371366,3.937008,4.0682416,172.36241102741,176.43065262741,6.889764,0.223694,6.9415356552,10.0579727628,10,4,8.327,176.43065262741,3.937008,1.2974252,7.1111222748,0.223694,0,0,287.4, -1.5, 15.4,0,0,1024,1182,1024,1024,0,24,0,0,304,0,0,95,4.141,4.144,0,0,0,0,4.036,68.72,176.43065262741,3.937008,6,P-GPS,
10100,2022-09-03 13:49:30,-34.8753870261966,-55.2672071701137,3.937008,4.0682416,172.36241102741,176.43065262741,6.889764,0.671082,6.8488519252,10.1512798524,10,4,8.327,176.43065262741,3.937008,1.2974252,7.1111222748,0.671082,0,0,287.5, -1.3, 12.5,0,0,1024,1024,1024,1024,0,0,0,0,304,0,0,95,4.141,4.144,0,0,0,0,4.036,68.72,176.43065262741,3.937008,6,P-GPS,
10200,2022-09-03 13:49:31,-34.8753867094626,-55.2672068346357,3.937008,4.0682416,172.36241102741,176.43065262741,6.889764,1.1408394,6.7100395848,10.3043638468,10,4,8.327,176.43065262741,3.937008,1.2974252,7.1111222748,1.11847,0.223694,0,287.1, -1.7, 6.6,0,0,1024,1024,1024,1024,0,0,0,0,304,0,0,95,4.141,4.144,0,0,0,0,4.036,68.72,176.43065262741,3.937008,6,P-GPS,
10300,2022-09-03 13:49:31,-34.8753862733604,-55.2672065955541,3.937008,4.10105,172.32960262741,176.43065262741,6.889764,1.1408394,6.5814306568,10.478838918,10,4,8.327,176.43065262741,3.937008,1.2974252,7.1111222748,1.11847,0.223694,0,286.8, -1, -2.5,0,0,1024,1024,1024,1024,0,0,0,0,304,0,0,95,4.141,4.144,0,0,0,0,4.036,68.72,176.43065262741,3.937008,6,P-GPS,
10400,2022-09-03 13:49:31,-34.8753856737348,-55.2672062802168,3.937008,4.0682416,172.36241102741,176.43065262741,6.889764,0.9171454,6.4118768456,10.7170935188,9,4,8.327,176.43065262741,3.937008,1.2974252,7.1111222748,0.894776,0.223694,0,287.1, -0.6, -4.6,0,0,1029,1024,1024,1024,1,0,0,0,304,0,0,95,4.141,4.144,0,0,0,0,4.036,68.72,176.43065262741,3.937008,6,P-GPS,
10500,2022-09-03 13:49:31,-34.8753852701347,-55.2672061080685,3.937008,4.1338584,172.29679422741,176.43065262741,6.889764,0.894776,6.31151595,10.8731302692,9,4,8.327,176.43065262741,3.937008,1.2974252,7.1111222748,0.894776,0,0,287.3, -0.5, -4.3,0,0,1029,1024,1024,1024,1,0,0,0,304,0,0,95,4.154,4.153,0,0,0,0,3.913,68.72,176.43065262741,3.937008,6,P-GPS,
10600,2022-09-03 13:49:31,-34.8753849194949,-55.267205951636,3.937008,4.1338584,172.29679422741,176.43065262741,6.889764,0.671082,6.224245606,11.009350746,9,4,8.327,176.43065262741,3.937008,1.2974252,7.1111222748,0.671082,0,0,287.3, -0.7, -3.1,0,0,1024,1024,1284,1024,0,0,39,0,304,0,0,95,4.154,4.153,0,0,0,0,3.913,68.72,176.43065262741,3.937008,6,P-GPS,
10700,2022-09-03 13:49:31,-34.8753846173648,-55.2672060079336,3.937008,4.1338584,172.29679422741,176.43065262741,6.889764,0.223694,6.2047574164,11.1208664976,9,4,8.327,176.43065262741,3.937008,1.2974252,7.1111222748,0.223694,0,0,287.4, -0.4, -2.2,0,0,1024,1024,1366,1024,0,0,52,0,304,0,0,95,4.154,4.153,0,0,0,0,3.913,68.72,176.43065262741,3.937008,6,P-GPS,
10800,2022-09-03 13:49:31,-34.8753843714371,-55.2672061014846,4.265092,4.4947508,172.26398582741,176.75873662741,7.217848,0,6.2039700148,11.2148625636,9,4,8.327,176.75873662741,4.265092,1.2974252,7.1111222748,0,0,-0.671082,287.4, -0.4, -0.7,0,0,1024,1024,1286,1024,0,0,40,0,304,0,0,95,4.154,4.153,0,0,0,0,3.913,68.72,176.75873662741,4.265092,6,P-GPS,
10900,2022-09-03 13:49:31,-34.8753841924728,-55.2672065076943,4.265092,4.5275592,172.23117742741,176.75873662741,7.217848,0,6.3012797292,11.352854694,9,4,8.327,176.75873662741,4.265092,1.2974252,7.1111222748,0,0,-1.342164,287.1, -0.1, 0.5,0,0,1024,1024,1103,1024,0,0,12,0,304,0,0,95,4.154,4.153,0,0,0,0,3.913,68.72,176.75873662741,4.265092,6,P-GPS,
11000,2022-09-03 13:49:31,-34.8753840219633,-55.2672069816074,4.593176,4.8556432,172.23117742741,177.08682062741,7.545932,0,6.420439838,11.5077759588,10,4,8.327,177.08682062741,4.593176,1.2974252,7.1111222748,0,0,-1.565858,287.1, -0.7, 0.5,0,0,1024,1024,1296,1024,0,0,41,0,304,0,0,95,4.154,4.153,0,0,0,0,3.913,68.72,177.08682062741,4.593176,6,P-GPS,
11100,2022-09-03 13:49:31,-34.8753840694145,-55.2672072279986,4.92126,5.1837272,172.23117742741,177.41490462741,7.545932,0,6.4961288168,11.5835305544,10,4,8.327,177.41490462741,4.92126,1.2974252,7.1111222748,0,0,-1.11847,287.1, -0.6, 0.9,0,0,1024,1024,1432,1024,0,0,62,0,304,0,0,95,4.154,4.153,0,0,0,0,3.913,68.72,177.41490462741,4.92126,6,P-GPS,
11200,2022-09-03 13:49:32,-34.8753841736594,-55.2672074070259,4.92126,5.1837272,172.23117742741,177.41490462741,7.874016,0,6.5580054592,11.6492129712,10,4,8.327,177.41490462741,4.92126,1.2974252,7.1111222748,0,0,-1.11847,287.1, 0, 0.9,0,0,1024,1024,1280,1024,0,0,39,0,304,0,0,95,4.154,4.153,0,0,0,0,3.913,68.72,177.41490462741,4.92126,6,P-GPS,
11300,2022-09-03 13:49:32,-34.875384808606,-55.2672078485858,5.249344,5.4790028,172.26398582741,177.74298862741,7.874016,0,6.7506891924,11.9159452632,10,4,8.327,177.74298862741,5.249344,1.2974252,7.1111222748,0,0,-1.565858,287.1, -0.1, 1.9,0,0,1024,1024,1280,1024,0,0,39,0,304,0,0,95,4.154,4.153,0,0,0,0,3.913,68.72,177.74298862741,5.249344,6,P-GPS,
11400,2022-09-03 13:49:32,-34.8753849784901,-55.2672078759136,5.249344,5.4790028,172.26398582741,177.74298862741,8.2021,0,6.7771983796,11.9784452652,10,4,8.327,177.74298862741,5.249344,1.2974252,7.1111222748,0,0,-2.013246,286.9, -2.1, 1.1,0,0,1024,1024,1051,1024,0,0,4,0,304,0,0,95,4.154,4.153,0,0,0,0,3.913,68.72,177.74298862741,5.249344,6,P-GPS,
11500,2022-09-03 13:49:32,-34.8753851034048,-55.2672076448779,5.577428,5.8070868,172.26398582741,178.07107262741,8.530184,0,6.7256235748,12.0612864752,10,4,8.307,178.07107262741,5.577428,1.2974252,7.1111222748,0,0,-1.342164,287, -2.2, 0.8,0,0,1106,1024,1024,1024,12,0,0,0,304,0,0,95,4.159,4.134,0,0,0,0,4.341,68.9,178.07107262741,5.577428,6,P-GPS,
11600,2022-09-03 13:49:32,-34.8753852218122,-55.2672073620739,5.577428,5.8070868,172.26398582741,178.07107262741,8.530184,0,6.6592521816,12.1562996016,10,4,8.307,178.07107262741,5.577428,1.2974252,7.1111222748,0,0,-0.894776,287.1, -1.6, 1.3,0,0,1231,1024,1024,1024,31,0,0,0,304,0,0,95,4.159,4.134,0,0,0,0,4.341,68.9,178.07107262741,5.577428,6,P-GPS,
11700,2022-09-03 13:49:32,-34.8753855801269,-55.2672059773661,5.905512,6.0367456,172.36241102741,178.39915662741,8.530184,0,6.3149936404,12.5909124764,10,4,8.307,178.39915662741,5.905512,1.2974252,7.1111222748,0,0,-0.447388,287, -2.1, 1.3,0,0,1231,1024,1024,1024,31,0,0,0,304,0,0,95,4.159,4.134,0,0,0,0,4.341,68.9,178.39915662741,5.905512,6,P-GPS,
11800,2022-09-03 13:49:32,-34.8753857198702,-55.267205543189,5.905512,6.0367456,172.36241102741,178.39915662741,8.858268,0,6.2131563668,12.7305122184,10,4,8.307,178.39915662741,5.905512,1.2974252,7.1111222748,0,0,-0.223694,286.9, -4.2, 0.3,0,0,1241,1024,1024,1024,33,0,0,0,304,0,0,95,4.159,4.134,0,0,0,0,4.341,68.9,178.39915662741,5.905512,6,P-GPS,
11900,2022-09-03 13:49:32,-34.8753858065734,-55.2672051271268,5.905512,6.0367456,172.36241102741,178.39915662741,8.858268,0,6.1102692244,12.8590227212,10,4,8.307,178.39915662741,5.905512,1.2974252,7.1111222748,0,0,0,286.9, -4.2, 0.4,0,0,1223,1024,1024,1024,30,0,0,0,304,0,0,95,4.159,4.134,0,0,0,0,4.341,68.9,178.39915662741,5.905512,6,P-GPS,
12000,2022-09-03 13:49:32,-34.8753858749828,-55.2672047356409,5.905512,6.0367456,172.36241102741,178.39915662741,8.530184,0.223694,6.0124017672,12.9788061896,10,4,8.307,178.39915662741,5.905512,1.2974252,7.1111222748,0,-0.223694,0,286.7, -4.3, 0.5,0,0,1159,1024,1059,1024,20,0,5,0,304,0,0,95,4.159,4.134,0,0,0,0,4.341,68.9,178.39915662741,5.905512,6,P-GPS,
12100,2022-09-03 13:49:32,-34.875385922421,-55.2672047122395,5.905512,6.0367456,172.36241102741,178.39915662741,8.530184,0.223694,6.0129267016,12.9974741692,10,4,8.307,178.39915662741,5.905512,1.2974252,7.1111222748,0,-0.223694,0,286.6, -3.9, -0.7,0,0,1159,1024,1059,1024,20,0,5,0,304,0,0,95,4.159,4.134,0,0,0,0,4.341,68.9,178.39915662741,5.905512,6,P-GPS,
12200,2022-09-03 13:49:33,-34.8753859647002,-55.2672048204515,5.577428,5.7086616,172.36241102741,178.07107262741,8.530184,0.223694,6.0487862828,13.0333665588,10,4,8.307,178.39915662741,5.905512,1.2974252,7.1111222748,0,-0.223694,0,286.7, -3.6, 0,0,0,1042,1024,1297,1024,3,0,41,0,304,0,0,95,4.159,4.134,0,0,0,0,4.341,68.9,178.07107262741,5.577428,6,P-GPS,
12300,2022-09-03 13:49:33,-34.8753858509371,-55.26720522545,5.577428,5.7086616,172.36241102741,178.07107262741,8.858268,0.223694,6.1436681756,13.1614833608,10,4,8.307,178.39915662741,5.905512,1.2974252,7.1111222748,0,-0.223694,0,286.9, -2, 0.8,0,0,1024,1024,1354,1024,0,0,50,0,304,0,0,95,4.159,4.134,0,0,0,0,4.341,68.9,178.07107262741,5.577428,6,P-GPS,
12400,2022-09-03 13:49:33,-34.8753856915402,-55.2672056894114,5.905512,6.0367456,172.36241102741,178.39915662741,8.858268,0.223694,6.249836158,13.3120739168,10,4,8.307,178.39915662741,5.905512,1.2974252,7.1111222748,0,-0.223694,-0.671082,287.1, 0.1, 0.7,0,0,1024,1024,1427,1024,0,0,61,0,304,0,0,95,4.159,4.134,0,0,0,0,4.341,68.9,178.39915662741,5.905512,6,P-GPS,
12500,2022-09-03 13:49:33,-34.8753855024566,-55.2672061967794,5.905512,6.0367456,172.36241102741,178.39915662741,9.186352,0.223694,6.3661091276,13.4788718224,10,4,8.329,178.39915662741,5.905512,1.2974252,7.1111222748,0,-0.223694,-1.565858,286.9, 0.4, 0.4,0,0,1024,1024,1181,1024,0,0,24,0,304,0,0,95,4.156,4.15,0,0,0,0,3.928,68.9,178.39915662741,5.905512,6,P-GPS,
12600,2022-09-03 13:49:33,-34.8753847881592,-55.2672080921106,6.233596,6.4632548,172.26398582741,178.72724062741,9.514436,0.223694,6.8181104544,14.103182866,10,4,8.329,178.72724062741,6.233596,1.2974252,7.1111222748,0,0,-2.23694,286.9, -0.6, -0.2,0,0,1024,1024,1024,1024,0,0,0,0,304,0,0,95,4.156,4.15,0,0,0,0,3.928,68.9,178.72724062741,6.233596,6,P-GPS,
12700,2022-09-03 13:49:33,-34.8753846558807,-55.2672085555787,6.56168,6.8241472,172.23117742741,179.05532462741,9.84252,0,6.9370409044,14.2500660728,10,4,8.329,179.05532462741,6.56168,1.2974252,7.1111222748,0,0,-2.013246,286.9, -1.3, 0,0,0,1024,1024,1024,1024,0,0,0,0,304,0,0,95,4.156,4.15,0,0,0,0,3.928,68.9,179.05532462741,6.56168,6,P-GPS,
12800,2022-09-03 13:49:33,-34.8753845456693,-55.2672090101733,6.889764,7.1522312,172.23117742741,179.38340862741,9.84252,0,7.0566931392,14.3919295944,10,4,8.329,179.38340862741,6.889764,1.2974252,7.1111222748,0,0,-1.342164,286.9, -1.1, -0.1,0,0,1024,1101,1024,1024,0,12,0,0,304,0,0,95,4.156,4.15,0,0,0,0,3.928,68.9,179.38340862741,6.889764,6,P-GPS,
12900,2022-09-03 13:49:33,-34.8753845248887,-55.2672092078351,6.889764,7.1522312,172.23117742741,179.38340862741,10.170604,0,7.1116144008,14.4515752656,10,4,8.329,179.38340862741,6.889764,1.2974252,7.1116144008,0,0,-0.894776,286.8, -0.9, -0.2,0,0,1024,1562,1024,1024,0,82,0,0,304,0,0,95,4.156,4.15,0,0,0,0,3.928,68.9,179.38340862741,6.889764,6,P-GPS,
13000,2022-09-03 13:49:33,-34.8753844920918,-55.2672097231915,6.889764,7.217848,172.16556062741,179.38340862741,10.170604,0,7.2571852716,14.60629968,10,4,8.329,179.38340862741,6.889764,1.2974252,7.2571852716,0,0,-0.447388,286.9, -1.1, 0.4,0,0,1024,1562,1024,1024,0,82,0,0,304,0,0,95,4.156,4.15,0,0,0,0,3.928,68.9,179.38340862741,6.889764,6,P-GPS,
13100,2022-09-03 13:49:33,-34.8753844710816,-55.2672098330561,6.889764,7.217848,172.16556062741,179.38340862741,10.170604,0,7.2869424904,14.6400595236,10,4,8.329,179.38340862741,6.889764,1.2974252,7.2869424904,0,0,0,287, -1.6, 7,0,0,1024,1649,1024,1024,0,95,0,0,304,0,0,95,4.156,4.15,0,0,0,0,3.928,68.9,179.38340862741,6.889764,6,P-GPS,
13200,2022-09-03 13:49:33,-34.8753843806509,-55.2672099111052,6.889764,7.217848,172.16556062741,179.38340862741,10.170604,0.223694,7.3010501024,14.6805122808,10,4,8.329,179.38340862741,6.889764,1.2974252,7.3010501024,0,0.223694,0,287.1, -2.1, 14.3,0,0,1024,1113,1024,1024,0,13,0,0,304,0,0,95,4.156,4.15,0,0,0,0,3.928,68.9,179.38340862741,6.889764,6,P-GPS,
13300,2022-09-03 13:49:34,-34.8753842563241,-55.2672096710108,6.889764,7.217848,172.16556062741,179.38340862741,9.84252,0.4921268,7.2200461628,14.7654860368,10,4,8.329,179.38340862741,6.889764,1.2974252,7.3010501024,0.447388,0.223694,0,286.7, -2.5, 12,0,0,1024,1024,1024,1024,0,0,0,0,304,0,0,95,4.156,4.15,0,0,0,0,3.928,68.9,179.38340862741,6.889764,6,P-GPS,
13400,2022-09-03 13:49:34,-34.8753840949567,-55.2672087828368,6.889764,7.217848,172.16556062741,179.38340862741,9.84252,1.006623,6.9479332932,15.0377629484,10,4,8.329,179.38340862741,6.889764,1.2974252,7.3010501024,0.894776,0.447388,0,286.5, -2.8, 2.5,0,0,1024,1024,1024,1024,0,0,0,0,304,0,0,95,4.156,4.15,0,0,0,0,3.928,68.9,179.38340862741,6.889764,6,P-GPS,
13500,2022-09-03 13:49:34,-34.8753838111433,-55.267208814788,6.889764,7.217848,172.16556062741,179.38340862741,10.170604,0.9171454,6.9318571772,15.1417655764,10,4,8.351,179.38340862741,6.889764,1.2974252,7.3010501024,0.894776,0.223694,0,286.6, -2, -2.1,0,0,1024,1024,1024,1024,0,0,0,0,304,0,0,95,4.165,4.16,0,0,0,0,4.22,68.9,179.38340862741,6.889764,6,P-GPS,
13600,2022-09-03 13:49:34,-34.8753835590211,-55.2672089647279,6.889764,7.217848,172.16556062741,179.38340862741,10.170604,0.7158208,6.9542981228,15.2441277844,10,4,8.351,179.38340862741,6.889764,1.2974252,7.3010501024,0.671082,0.223694,0,286.9, -2.2, -2.8,0,0,1024,1024,1024,1024,0,0,0,0,304,0,0,95,4.165,4.16,0,0,0,0,4.22,68.9,179.38340862741,6.889764,6,P-GPS,
13700,2022-09-03 13:49:34,-34.8753832219527,-55.2672092713354,6.889764,7.2506564,172.13275222741,179.38340862741,10.170604,0.7158208,7.0176183348,15.3975726712,10,4,8.351,179.38340862741,6.889764,1.2974252,7.3010501024,0.671082,0.223694,0,287, -2, -2.4,0,0,1024,1024,1024,1024,0,0,0,0,304,0,0,95,4.165,4.16,0,0,0,0,4.22,68.9,179.38340862741,6.889764,6,P-GPS,
13800,2022-09-03 13:49:34,-34.8753827299672,-55.2672104642919,6.889764,7.2834648,172.09994382741,179.38340862741,10.170604,0.447388,7.3347115208,15.7972117916,10,4,8.351,179.38340862741,6.889764,1.2974252,7.3347115208,0.447388,0,0,286.9, -1.9, -2.4,0,0,1024,1024,1024,1024,0,0,0,0,304,0,0,95,4.165,4.16,0,0,0,0,4.22,68.9,179.38340862741,6.889764,6,P-GPS,
13900,2022-09-03 13:49:34,-34.8753824682828,-55.2672106301774,6.889764,7.3490816,172.03432702741,179.38340862741,10.170604,0.223694,7.3680120468,15.9048233436,10,4,8.351,179.38340862741,6.889764,1.2974252,7.3680120468,0.223694,0,0,286.8, -1.5, -1.7,0,0,1024,1024,1024,1529,0,0,0,77,304,0,0,95,4.165,4.16,0,0,0,0,4.22,68.9,179.38340862741,6.889764,6,P-GPS,
14000,2022-09-03 13:49:34,-34.8753822425202,-55.2672107673097,7.217848,7.6771656,172.03432702741,179.71149262741,10.170604,0,7.3961288456,15.9968509056,10,4,8.351,179.71149262741,7.217848,1.2974252,7.3961288456,0,0,0,286.6, -0.8, -1.4,0,0,1024,1024,1024,1529,0,0,0,77,304,0,0,95,4.165,4.16,0,0,0,0,4.22,68.9,179.71149262741,7.217848,6,P-GPS,
14100,2022-09-03 13:49:34,-34.87538225588,-55.2672108938221,7.217848,7.6771656,172.03432702741,179.71149262741,10.170604,0,7.4343178232,16.0350398832,10,4,8.351,179.71149262741,7.217848,1.2974252,7.4343178232,0,0,0,286.6, -1, -1.1,0,0,1024,1024,1024,1684,0,0,0,100,305.1,0,0,95,4.165,4.16,0,0,0,0,4.22,68.9,179.71149262741,7.217848,6,P-GPS,
14200,2022-09-03 13:49:34,-34.8753823470061,-55.2672110318499,7.217848,7.6771656,172.03432702741,179.71149262741,10.170604,0,7.4800527328,16.088091066,9,4,8.351,179.71149262741,7.217848,1.2974252,7.4800527328,0,0,0,288.9, -1.3, -0.6,0,0,1024,1024,1024,1033,0,0,0,1,308.9,0,0,95,4.165,4.16,0,0,0,0,4.22,68.9,179.71149262741,7.217848,6,P-GPS,
14300,2022-09-03 13:49:35,-34.8753826601037,-55.2672109504304,7.217848,7.6115488,172.09994382741,179.71149262741,10.170604,0,7.4738847536,16.20488897,9,4,8.351,179.71149262741,7.217848,1.2974252,7.4800527328,0,0,0,292.8, -0.7, 1.6,0,0,1024,1024,1024,1024,0,0,0,0,312.1,0,0,95,4.165,4.16,0,0,0,0,4.22,68.9,179.71149262741,7.217848,6,P-GPS,
14400,2022-09-03 13:49:35,-34.8753830300601,-55.2672108217329,7.217848,7.6115488,172.09994382741,179.71149262741,10.170604,0,7.4593834408,16.3452433052,9,4,8.351,179.71149262741,7.217848,1.2974252,7.4800527328,0,0,0,294.9, -0.9, 1.9,0,0,1024,1024,1024,1024,0,0,0,0,313.4,0,0,95,4.165,4.16,0,0,0,0,4.22,68.9,179.71149262741,7.217848,6,P-GPS,
14500,2022-09-03 13:49:35,-34.8753831648009,-55.2672108077453,7.217848,7.6115488,172.09994382741,179.71149262741,10.170604,0,7.464403126,16.3945871388,9,4,8.302,179.71149262741,7.217848,1.2974252,7.4800527328,0,0,0,295.9, -1.4, 1.2,0,0,1024,1024,1024,1114,0,0,0,14,313.8,0,0,95,4.151,4.146,0,0,0,0,3.713,68.9,179.71149262741,7.217848,6,P-GPS,
14600,2022-09-03 13:49:35,-34.8753832466253,-55.2672108203676,7.217848,7.6115488,172.09994382741,179.71149262741,10.170604,0,7.4738191368,16.4246724416,9,4,8.302,179.71149262741,7.217848,1.2974252,7.4800527328,0,0,0,296.3, -1.9, 1.7,0,0,1024,1024,1024,1541,0,0,0,78,313.8,0,0,95,4.151,4.146,0,0,0,0,3.713,68.9,179.71149262741,7.217848,6,P-GPS,
14700,2022-09-03 13:49:35,-34.8753834185971,-55.267210381789,7.217848,7.6115488,172.09994382741,179.71149262741,10.170604,0,7.3576445924,16.5701776956,9,4,8.302,179.71149262741,7.217848,1.2974252,7.4800527328,0,0,0,296.6, -1.8, 1.5,0,0,1024,1024,1024,1024,0,0,0,0,314.3,0,0,95,4.151,4.146,0,0,0,0,3.713,68.9,179.71149262741,7.217848,6,P-GPS,
14800,2022-09-03 13:49:35,-34.8753835202218,-55.2672103196045,7.217848,7.545932,172.16556062741,179.71149262741,10.170604,0,7.347113096,16.6116803216,9,4,8.302,179.71149262741,7.217848,1.2974252,7.4800527328,0,0,0,298, -1.4, 0.9,0,0,1024,1024,1024,1024,0,0,0,0,316.4,0,0,95,4.151,4.146,0,0,0,0,3.713,68.9,179.71149262741,7.217848,6,P-GPS,
14900,2022-09-03 13:49:35,-34.8753835918017,-55.2672102520369,7.217848,7.545932,172.16556062741,179.71149262741,10.170604,0,7.3328742504,16.644685572,9,4,8.302,179.71149262741,7.217848,1.2974252,7.4800527328,0,0,0,299.7, -1.2, 1.2,0,0,1024,1024,1024,1024,0,0,0,0,317.6,0,0,95,4.151,4.146,0,0,0,0,3.713,68.9,179.71149262741,7.217848,6,P-GPS,
15000,2022-09-03 13:49:35,-34.875383665111,-55.2672101857015,7.217848,7.545932,172.16556062741,179.71149262741,10.170604,0,7.3192587644,16.6780189064,10,4,8.302,179.71149262741,7.217848,1.2974252,7.4800527328,0,0,0,300.6, -0.9, 1.1,0,0,1024,1024,1024,1024,0,0,0,0,317.9,0,0,95,4.151,4.146,0,0,0,0,3.713,68.9,179.71149262741,7.217848,6,P-GPS,
15100,2022-09-03 13:49:35,-34.8753836439151,-55.2672099265678,7.217848,7.545932,172.16556062741,179.71149262741,10.170604,0,7.2418965572,16.7559716648,10,4,8.302,179.71149262741,7.217848,1.2974252,7.4800527328,0,0,0,300.8, -2.1, 0.7,0,0,1024,1024,1024,1024,0,0,0,0,317.9,0,0,95,4.151,4.146,0,0,0,0,3.713,68.9,179.71149262741,7.217848,6,P-GPS,
15200,2022-09-03 13:49:36,-34.8753837130116,-55.267209909706,7.217848,7.545932,172.16556062741,179.71149262741,10.170604,0,7.2425527252,16.781660642,10,4,8.302,179.71149262741,7.217848,1.2974252,7.4800527328,0,0,0,300.9, -2.8, 1,0,0,1024,1024,1024,1024,0,0,0,0,317.9,0,0,95,4.151,4.146,0,0,0,0,3.713,68.9,179.71149262741,7.217848,6,P-GPS,
15300,2022-09-03 13:49:36,-34.8753838272144,-55.2672099509404,7.217848,7.545932,172.16556062741,179.71149262741,10.170604,0,7.263943802,16.825131772,10,4,8.302,179.71149262741,7.217848,1.2974252,7.4800527328,0,0,0,301, -2.3, 1.5,0,0,1024,1024,1024,1024,0,0,0,0,317.9,0,0,95,4.151,4.146,0,0,0,0,3.713,68.9,179.71149262741,7.217848,6,P-GPS,
15400,2022-09-03 13:49:36,-34.8753839615252,-55.2672100261075,7.217848,7.545932,172.16556062741,179.71149262741,10.170604,0,7.2971459028,16.8790359732,10,4,8.302,179.71149262741,7.217848,1.2974252,7.4800527328,0,0,0,301, -1.4, 1.6,0,0,1024,1024,1024,1024,0,0,0,0,317.9,0,0,95,4.151,4.146,0,0,0,0,3.713,68.9,179.71149262741,7.217848,6,P-GPS,
15500,2022-09-03 13:49:36,-34.8753841177744,-55.2672101684114,7.545932,7.874016,172.16556062741,180.03957662741,10.170604,0,7.3520015476,16.9501973928,10,4,8.302,180.03957662741,7.545932,1.2974252,7.4800527328,0,0,0,300.8, -1.3, 2.1,0,0,1024,1024,1024,1024,0,0,0,0,317.9,0,0,95,4.151,4.146,0,0,0,0,3.713,68.9,180.03957662741,7.545932,6,P-GPS,
15600,2022-09-03 13:49:36,-34.87538422135,-55.2672102676404,7.545932,7.874016,172.16556062741,180.03957662741,10.170604,0,7.3899608664,16.9982616988,10,4,8.292,180.03957662741,7.545932,1.2974252,7.4800527328,0,0,0,300.7, -0.9, 2.7,0,0,1024,1024,1024,1024,0,0,0,0,317.9,0,0,95,4.151,4.145,0,0,0,0,3.897,68.9,180.03957662741,7.545932,6,P-GPS,
15700,2022-09-03 13:49:36,-34.8753842749372,-55.267210462099,7.545932,7.874016,172.16556062741,180.03957662741,10.170604,0,7.4511485324,17.0596790236,10,4,8.292,180.03957662741,7.545932,1.2974252,7.4800527328,0,0,0,300.5, -0.9, 1.9,0,0,1024,1024,1024,1024,0,0,0,0,317.9,0,0,95,4.151,4.145,0,0,0,0,3.897,68.9,180.03957662741,7.545932,6,P-GPS,
15800,2022-09-03 13:49:36,-34.8753843113557,-55.2672106824495,7.545932,7.9068244,172.13275222741,180.03957662741,10.170604,0,7.518372944,17.126969052,10,4,8.292,180.03957662741,7.545932,1.2974252,7.518372944,0,0,0,300.5, -1.4, 1.2,0,0,1024,1024,1024,1024,0,0,0,0,317.9,0,0,95,4.151,4.145,0,0,0,0,3.897,68.9,180.03957662741,7.545932,6,P-GPS,
15900,2022-09-03 13:49:36,-34.8753843592254,-55.2672108095858,7.545932,7.9068244,172.13275222741,180.03957662741,10.170604,0,7.559547486,17.1688325704,10,4,8.292,180.03957662741,7.545932,1.2974252,7.559547486,0,0,0,300.5, -1.5, 1.3,0,0,1024,1024,1024,1024,0,0,0,0,317.9,0,0,95,4.151,4.145,0,0,0,0,3.897,68.9,180.03957662741,7.545932,6,P-GPS,
16000,2022-09-03 13:49:36,-34.8753843375623,-55.2672111088365,7.545932,7.9068244,172.13275222741,180.03957662741,10.170604,0,7.644521242,17.2587603948,10,4,8.292,180.03957662741,7.545932,1.2974252,7.644521242,0,0,0,300.5, -1, 1.6,0,0,1024,1024,1024,1024,0,0,0,0,317.9,0,0,95,4.151,4.145,0,0,0,0,3.897,68.9,180.03957662741,7.545932,6,P-GPS,
16100,2022-09-03 13:49:36,-34.875384381939,-55.2672111684601,7.545932,7.9068244,172.13275222741,180.03957662741,10.170604,0,7.6657482768,17.2828417604,10,4,8.292,180.03957662741,7.545932,1.2974252,7.6657482768,0,0,0,300.6, -0.7, 1.4,0,0,1024,1024,1024,1024,0,0,0,0,317.9,0,0,95,4.151,4.145,0,0,0,0,3.897,68.9,180.03957662741,7.545932,6,P-GPS,
16200,2022-09-03 13:49:37,-34.8753844227429,-55.2672112203537,7.545932,7.9068244,172.13275222741,180.03957662741,10.170604,0,7.6844162564,17.3043640708,10,4,8.292,180.03957662741,7.545932,1.2974252,7.6844162564,0,0,0,300.8, -0.3, 1.2,0,0,1024,1024,1024,1024,0,0,0,0,317.9,0,0,95,4.151,4.145,0,0,0,0,3.897,68.9,180.03957662741,7.545932,6,P-GPS,
16300,2022-09-03 13:49:37,-34.8753844033416,-55.2672112640865,7.545932,7.9068244,172.13275222741,180.03957662741,10.170604,0,7.6954070704,17.319226276,10,4,8.292,180.03957662741,7.545932,1.2974252,7.6954070704,0,0,0,300.8, -0.4, 1.4,0,0,1024,1024,1024,1024,0,0,0,0,317.9,0,0,95,4.151,4.145,0,0,0,0,3.897,68.9,180.03957662741,7.545932,6,P-GPS,
16400,2022-09-03 13:49:37,-34.8753842750805,-55.2672112096998,7.545932,7.9068244,172.13275222741,180.03957662741,10.170604,0,7.6683729488,17.3687997684,10,4,8.292,180.03957662741,7.545932,1.2974252,7.6954070704,0,0,0,300.7, -0.5, 1.1,0,0,1024,1024,1024,1024,0,0,0,0,317.9,0,0,95,4.151,4.145,0,0,0,0,3.897,68.9,180.03957662741,7.545932,6,P-GPS,
16500,2022-09-03 13:49:37,-34.8753842720092,-55.2672112534822,7.545932,7.9068244,172.13275222741,180.03957662741,10.170604,0,7.6808401408,17.3819231284,10,4,8.292,180.03957662741,7.545932,1.2974252,7.6954070704,0,0,0,300.9, -0.5, 1.2,0,0,1024,1024,1024,1024,0,0,0,0,317.9,0,0,95,4.151,4.145,0,0,0,0,3.897,68.9,180.03957662741,7.545932,6,P-GPS,
16600,2022-09-03 13:49:37,-34.8753842812262,-55.2672112959254,7.545932,7.9068244,172.13275222741,180.03957662741,10.170604,0,7.6939963092,17.3950792968,10,4,8.294,180.03957662741,7.545932,1.2974252,7.6954070704,0,0,0,300.8, -1.1, 0.9,0,0,1024,1024,1024,1024,0,0,0,0,317.9,0,0,95,4.146,4.143,0,0,0,0,3.975,68.9,180.03957662741,7.545932,6,P-GPS,
16700,2022-09-03 13:49:37,-34.8753842808012,-55.2672113509595,7.545932,7.9068244,172.13275222741,180.03957662741,10.170604,0,7.709974,17.4115491136,10,4,8.294,180.03957662741,7.545932,1.2974252,7.709974,0,0,0,300.9, -1.3, 1.1,0,0,1024,1024,1024,1024,0,0,0,0,317.9,0,0,95,4.146,4.143,0,0,0,0,3.975,68.9,180.03957662741,7.545932,6,P-GPS,
16800,2022-09-03 13:49:37,-34.8753842578206,-55.2672114895355,7.545932,7.9068244,172.13275222741,180.03957662741,10.170604,0,7.7482942112,17.4538719496,10,4,8.294,180.03957662741,7.545932,1.2974252,7.7482942112,0,0,0,300.9, -1.7, 1.7,0,0,1024,1024,1024,1024,0,0,0,0,317.9,0,0,95,4.146,4.143,0,0,0,0,3.975,68.9,180.03957662741,7.545932,6,P-GPS,
