time(millisecond),datetime(utc),latitude,longitude,height_above_takeoff(feet),height_above_ground_at_drone_location(feet),ground_elevation_at_drone_location(feet),altitude_above_seaLevel(feet),height_sonar(feet),speed(mph),distance(feet),mileage(feet),satellites,gpslevel,voltage(v),max_altitude(feet),max_ascent(feet),max_speed(mph),max_distance(feet), xSpeed(mph), ySpeed(mph), zSpeed(mph), compass_heading(degrees), pitch(degrees), roll(degrees),isPhoto,isVideo,rc_elevator,rc_aileron,rc_throttle,rc_rudder,rc_elevator(percent),rc_aileron(percent),rc_throttle(percent),rc_rudder(percent),gimbal_heading(degrees),gimbal_pitch(degrees),gimbal_roll(degrees),battery_percent,voltageCell1,voltageCell2,voltageCell3,voltageCell4,voltageCell5,voltageCell6,current(A),battery_temperature(f),altitude(feet),ascent(feet),flycStateRaw,flycState,message
367400,2022-08-12 04:51:07,0,0,0,,,3.28084E-5,0,0,0,0,0,0,0,3.28084E-5,0,0,0,0,0,0,19.1, 3.2, 0.1,0,0,364,364,364,1684,-100,-100,-100,100,21.7,0,0,75,4.057,4.047,0,0,0,0,0,98.96,3.28084E-5,0,41,Motors_Started,"Baja velocidad de la tarjeta SD. Puede afectar a su uso normal. Sustituye la tarjeta SD (Code: 10028). Sin señal GPS. La aeronave no puede hacer vuelo estacionario. Vuela con cuidado (Code: 30008). Baja velocidad de la tarjeta SD. Puede afectar a su "
367500,2022-08-12 04:51:07,0,0,0,,,3.28084E-5,0,0,0,0,0,0,0,3.28084E-5,0,0,0,0,0,0,19.1, 3.2, 0.1,0,0,364,364,364,1684,-100,-100,-100,100,21.7,0,0,75,4.057,4.047,0,0,0,0,0,98.96,3.28084E-5,0,41,Motors_Started,
367600,2022-08-12 04:51:07,0,0,0,,,3.28084E-5,0.328084,0,0,0,0,0,0,3.28084E-5,0,0,0,0,0,0,19.1, 3.2, 0.1,0,0,364,364,364,1684,-100,-100,-100,100,21.7,0,0,75,4.057,4.047,0,0,0,0,0,98.96,3.28084E-5,0,41,Motors_Started,
367700,2022-08-12 04:51:07,0,0,0,,,3.28084E-5,0.328084,0,0,0,0,0,0,3.28084E-5,0,0,0,0,0,0,19.1, 3.2, 0.1,0,0,364,364,364,1684,-100,-100,-100,100,21.7,0,0,75,4.057,4.047,0,0,0,0,0,98.96,3.28084E-5,0,41,Motors_Started,"Setting new Return-To-Home altitude to 40m (131 ft). Data Recorder File Index is 39. Setting new Maximum Flight Altitude to 30m (98 ft)"
367800,2022-08-12 04:51:07,0,0,0,,,3.28084E-5,0.328084,0,0,0,0,0,0,3.28084E-5,0,0,0,0,0,0,19.1, 3.2, 0.1,0,0,1024,1024,1020,1024,0,0,-1,0,21.7,0,0,75,4.057,4.047,0,0,0,0,0,98.96,3.28084E-5,0,41,Motors_Started,
367900,2022-08-12 04:51:07,0,0,0,,,3.28084E-5,0.328084,0,0,0,0,0,0,3.28084E-5,0,0,0,0,0,0,19.1, 3.2, 0.1,0,0,1024,1024,1024,1024,0,0,0,0,21.7,0,0,75,4.057,4.047,0,0,0,0,0,98.96,3.28084E-5,0,41,Motors_Started,
368000,2022-08-12 04:51:07,0,0,0,,,3.28084E-5,0.328084,0,0,0,0,0,0,3.28084E-5,0,0,0,0,0,0,19.1, 3.2, 0.1,0,0,1024,1024,1024,1024,0,0,0,0,21.7,0,0,75,4.057,4.047,0,0,0,0,0,98.96,3.28084E-5,0,41,Motors_Started,
368100,2022-08-12 04:51:08,0,0,0,,,3.28084E-5,0.328084,0,0,0,0,0,8.12,3.28084E-5,0,0,0,0,0,0,19.1, 3.2, 0.1,0,0,1024,1024,1024,1024,0,0,0,0,21.7,0,0,75,4.057,4.047,0,0,0,0,0.594,98.96,3.28084E-5,0,41,Motors_Started,
368200,2022-08-12 04:51:08,0,0,0,,,3.28084E-5,0.328084,0,0,0,0,0,8.12,3.28084E-5,0,0,0,0,0,0,19.1, 3.2, 0.1,0,0,1024,1024,1024,1024,0,0,0,0,21.7,0,0,75,4.057,4.047,0,0,0,0,0.594,98.96,3.28084E-5,0,41,Motors_Started,
368300,2022-08-12 04:51:08,0,0,0,,,3.28084E-5,0.328084,0,0,0,0,0,8.12,3.28084E-5,0,0,0,0,0,0,19.1, 3.2, 0,0,0,1024,1024,1607,1024,0,0,88,0,21.7,0,0,75,4.057,4.047,0,0,0,0,0.594,98.96,3.28084E-5,0,41,Motors_Started,
368400,2022-08-12 04:51:08,0,0,0,,,3.28084E-5,0.328084,0,0,0,0,0,8.12,3.28084E-5,0,0,0,0,0,0,19.1, 3.2, 0.1,0,0,1024,1024,1669,1024,0,0,98,0,21.7,0,0,75,4.057,4.047,0,0,0,0,0.594,98.96,3.28084E-5,0,41,Motors_Started,"Vuela con cuidado (sin GPS)"
368500,2022-08-12 04:51:08,0,0,0,,,3.28084E-5,0.328084,0,0,0,0,0,8.12,3.28084E-5,0,0,0,0,0,0,19, 3.2, 0,0,0,1024,1024,1024,1024,0,0,0,0,21.7,0,0,75,4.057,4.047,0,0,0,0,0.594,98.96,3.28084E-5,0,10,Assisted_Takeoff,
368600,2022-08-12 04:51:08,0,0,0,,,3.28084E-5,0.328084,0,0,0,0,0,8.12,3.28084E-5,0,0,0,0,0,0,19, 3.2, 0,0,0,1024,1024,1043,1024,0,0,3,0,21.7,0,0,75,4.057,4.047,0,0,0,0,0.594,98.96,3.28084E-5,0,10,Assisted_Takeoff,
368700,2022-08-12 04:51:08,0,0,0,,,3.28084E-5,0.328084,0,0,0,0,0,8.12,3.28084E-5,0,0,0,0,0,0,18.9, 3.3, 0,0,0,1024,1024,1684,1024,0,0,100,0,21.7,0,0,75,4.057,4.047,0,0,0,0,0.594,98.96,3.28084E-5,0,10,Assisted_Takeoff,
368800,2022-08-12 04:51:08,0,0,0,,,3.28084E-5,0.328084,0,0,0,0,0,8.12,3.28084E-5,0,0,0,0,0,0,18.9, 3.2, 0,0,0,1024,1024,1684,1024,0,0,100,0,21.7,0,0,75,4.057,4.047,0,0,0,0,0.594,98.96,3.28084E-5,0,10,Assisted_Takeoff,
368900,2022-08-12 04:51:08,0,0,0,,,3.28084E-5,0.328084,0,0,0,0,0,8.12,3.28084E-5,0,0,0,0,0,0,19, 3.2, 0,0,0,1024,1024,1434,1024,0,0,62,0,21.7,0,0,75,4.057,4.047,0,0,0,0,0.594,98.96,3.28084E-5,0,10,Assisted_Takeoff,
369000,2022-08-12 04:51:08,0,0,0,,,3.28084E-5,0.328084,0,0,0,0,0,8.12,3.28084E-5,0,0,0,0,0,0,18.9, 3.2, 0,0,0,1024,1024,1434,1024,0,0,62,0,21.7,0,0,75,4.057,4.047,0,0,0,0,0.594,98.96,3.28084E-5,0,10,Assisted_Takeoff,
369100,2022-08-12 04:51:09,0,0,0,,,3.28084E-5,0.328084,0,0,0,0,0,8.12,3.28084E-5,0,0,0,0,0,0,18.9, 2.9, 0,0,0,1024,1024,1242,1024,0,0,33,0,21.6,0,0,75,4.054,4.047,0,0,0,0,0.594,98.96,3.28084E-5,0,10,Assisted_Takeoff,
369200,2022-08-12 04:51:09,0,0,0,,,3.28084E-5,0.328084,0,0,0,0,0,8.12,3.28084E-5,0,0,0,0,0,0,19.8, -0.1, 0,0,0,1024,1024,1024,1024,0,0,0,0,21.8,0,0,75,4.054,4.047,0,0,0,0,0.594,98.96,3.28084E-5,0,10,Assisted_Takeoff,
369300,2022-08-12 04:51:09,0,0,0,,,3.28084E-5,0.328084,0,0,0,0,0,8.12,3.28084E-5,0,0,0,0,0,-0.223694,20.8, -2.4, -0.5,0,0,1024,1024,1024,1024,0,0,0,0,22.7,0,0,75,4.054,4.047,0,0,0,0,0.594,98.96,3.28084E-5,0,10,Assisted_Takeoff,
369400,2022-08-12 04:51:09,0,0,0,,,3.28084E-5,0.328084,0,0,0,0,0,8.12,3.28084E-5,0,0,0,0,0,0,21.5, -1.6, -0.1,0,0,1024,1024,1024,1024,0,0,0,0,23.5,0,0,75,4.054,4.047,0,0,0,0,0.594,98.96,3.28084E-5,0,10,Assisted_Takeoff,"Baja velocidad de la tarjeta SD. Puede afectar a su uso normal. Sustituye la tarjeta SD (Code: 10028). Señal débil del GPS. Vuelo estacionario inestable. Vuela con cuidado (Code: 30002)"
369500,2022-08-12 04:51:09,0,0,0,,,3.28084E-5,0.328084,0,0,0,0,0,8.12,3.28084E-5,0,0,0,0,0,0.223694,21.5, -0.7, 0.9,0,0,1024,1024,1024,1024,0,0,0,0,23.7,0,0,75,4.054,4.047,0,0,0,0,0.594,98.96,3.28084E-5,0,38,Tripod,
369600,2022-08-12 04:51:09,0,0,0,,,3.28084E-5,0.328084,0,0,0,0,0,8.12,3.28084E-5,0,0,0,0,0,0,21.4, 1.6, 0,0,0,1024,1024,1024,1024,0,0,0,0,23.7,0,0,75,4.054,4.047,0,0,0,0,0.594,98.96,3.28084E-5,0,38,Tripod,
369700,2022-08-12 04:51:09,0,0,0,,,3.28084E-5,0.328084,0,0,0,0,0,8.12,3.28084E-5,0,0,0,0,0,-0.223694,21.4, -0.4, 0.2,0,0,1024,1024,1640,1024,0,0,93,0,23.7,0,0,75,4.054,4.047,0,0,0,0,0.594,98.96,3.28084E-5,0,38,Tripod,
369800,2022-08-12 04:51:09,0,0,0,,,3.28084E-5,0.328084,0,0,0,0,0,8.12,3.28084E-5,0,0,0,0,0,-0.223694,21.1, -0.3, 0.1,0,0,1024,1024,1684,1024,0,0,100,0,23.7,0,0,75,4.054,4.047,0,0,0,0,0.594,98.96,3.28084E-5,0,38,Tripod,
369900,2022-08-12 04:51:09,0,0,0,,,3.28084E-5,0.328084,0,0,0,0,0,8.12,3.28084E-5,0,0,0,0,0,-0.447388,21.1, 0.6, -0.7,0,0,1024,1024,1381,1024,0,0,54,0,23.7,0,0,75,4.054,4.047,0,0,0,0,0.594,98.96,3.28084E-5,0,38,Tripod,
370000,2022-08-12 04:51:09,0,0,0,,,3.28084E-5,0.656168,0,0,0,0,0,8.12,3.28084E-5,0,0,0,0,0,-0.671082,21.2, 0.2, 0.2,0,0,1024,1024,1381,1024,0,0,54,0,23.7,0,0,75,4.054,4.047,0,0,0,0,0.594,98.96,3.28084E-5,0,38,Tripod,
370100,2022-08-12 04:51:10,0,0,0,,,3.28084E-5,0.656168,0,0,0,0,0,8.097,3.28084E-5,0,0,0,0,0,-1.11847,21.3, 0.5, 0.3,0,0,1024,1024,1024,1024,0,0,0,0,23.7,0,0,75,4.029,4.017,0,0,0,0,1.496,98.96,3.28084E-5,0,38,Tripod,
370200,2022-08-12 04:51:10,0,0,0.328084,,,0.3281168084,0.656168,0,0,0,0,0,8.097,0.3281168084,0.328084,0,0,0,0,-1.11847,21.2, 0.6, 0,0,0,1024,1024,1024,1024,0,0,0,0,23.7,0,0,75,4.029,4.017,0,0,0,0,1.496,98.96,0.3281168084,0.328084,38,Tripod,
370300,2022-08-12 04:51:10,0,0,0.328084,,,0.3281168084,0.984252,0,0,0,0,0,8.097,0.3281168084,0.328084,0,0,0,0,-1.11847,21.1, 0.6, 0,0,0,1024,1024,1024,1024,0,0,0,0,23.7,0,0,75,4.029,4.017,0,0,0,0,1.496,98.96,0.3281168084,0.328084,38,Tripod,
370400,2022-08-12 04:51:10,0,0,0.656168,,,0.6562008084,0.984252,0,0,0,0,0,8.097,0.6562008084,0.656168,0,0,0,0,-0.894776,21.1, 0.5, 0.1,0,0,1024,1024,1024,1024,0,0,0,0,23.7,0,0,75,4.029,4.017,0,0,0,0,1.496,98.96,0.6562008084,0.656168,38,Tripod,
370500,2022-08-12 04:51:10,0,0,0.656168,,,0.6562008084,1.312336,0,0,0,0,0,8.097,0.6562008084,0.656168,0,0,0,0,-0.894776,21.1, 0.4, 0.3,0,0,1024,1024,1024,1024,0,0,0,0,23.7,0,0,75,4.029,4.017,0,0,0,0,1.496,98.96,0.6562008084,0.656168,38,Tripod,
370600,2022-08-12 04:51:10,0,0,0.656168,,,0.6562008084,1.312336,0,0,0,0,0,8.097,0.6562008084,0.656168,0,0,0,0,-0.671082,21.1, 0.3, 0.3,0,0,1024,1024,1024,1024,0,0,0,0,23.7,0,0,75,4.029,4.017,0,0,0,0,1.496,98.96,0.6562008084,0.656168,38,Tripod,
370700,2022-08-12 04:51:10,0,0,0.984252,,,0.9842848084,1.312336,0,0,0,0,0,8.097,0.9842848084,0.984252,0,0,0,0,-0.671082,21.1, 0.3, 0.5,0,0,1024,1024,1024,1024,0,0,0,0,23.7,0,0,75,4.029,4.017,0,0,0,0,1.496,98.96,0.9842848084,0.984252,38,Tripod,
370800,2022-08-12 04:51:10,0,0,0.984252,,,0.9842848084,1.312336,0,0,0,0,0,8.097,0.9842848084,0.984252,0,0,0,0,-0.447388,21.1, 0, 0.4,0,0,1024,1024,1024,1024,0,0,0,0,23.7,0,0,75,4.029,4.017,0,0,0,0,1.496,98.96,0.9842848084,0.984252,1,Atti,"Vuela con cuidado (modo Atti) Señal del GPS demasiado débil. Se ha pasado al modo Atti. La aeronave no puede hacer vuelo estacionario. Vuela con precaución (Code: 30022). Baja velocidad de la tarjeta SD. Puede afectar a su uso normal. Sustituye la tarjeta SD (Code: 10028). Señal "
370900,2022-08-12 04:51:10,0,0,0.984252,,,0.9842848084,1.64042,0,0,0,0,0,8.097,0.9842848084,0.984252,0,0,0,0,-0.223694,21.1, 0, 0.4,0,0,1024,1024,1024,1024,0,0,0,0,23.7,0,0,75,4.029,4.017,0,0,0,0,1.496,98.96,0.9842848084,0.984252,38,Tripod,"La brújula no funciona bien el GPS no tiene buena señal. Cambia a modo Atti (Code: 30020). Aeronave en modo Atti. No se puede hacer vuelo estacionario. Vuela con cuidado (Code: 30004). Baja velocidad de la tarjeta SD. Puede afectar a su uso normal. S"
371000,2022-08-12 04:51:11,0,0,0.984252,,,0.9842848084,1.64042,0,0,0,0,0,8.097,0.9842848084,0.984252,0,0,0,0,-0.223694,21.1, 0.3, 0.4,0,0,1024,1024,1024,1024,0,0,0,0,23.7,0,0,75,4.029,4.017,0,0,0,0,1.496,98.96,0.9842848084,0.984252,38,Tripod,
371100,2022-08-12 04:51:11,0,0,1.312336,,,1.3123688084,1.64042,0,0,0,0,0,8.056,1.3123688084,1.312336,0,0,0,0,0,21, 0.4, 0.2,0,0,1024,1024,1024,1024,0,0,0,0,23.7,0,0,75,4.019,4.007,0,0,0,0,2.247,98.96,1.3123688084,1.312336,38,Tripod,
371200,2022-08-12 04:51:11,0,0,1.312336,,,1.3123688084,1.64042,0,0,0,0,0,8.056,1.3123688084,1.312336,0,0,0,0,0,21, 0.5, 0.2,0,0,1024,1024,1024,1024,0,0,0,0,23.7,0,0,75,4.019,4.007,0,0,0,0,2.247,98.96,1.3123688084,1.312336,38,Tripod,
371300,2022-08-12 04:51:11,0,0,1.312336,,,1.3123688084,1.64042,0,0,0,0,0,8.056,1.3123688084,1.312336,0,0,0,0,0,21, 0.4, 0,0,0,1371,1024,1024,1024,53,0,0,0,23.7,0,0,75,4.019,4.007,0,0,0,0,2.247,98.96,1.3123688084,1.312336,38,Tripod,
371400,2022-08-12 04:51:11,0,0,1.312336,,,1.3123688084,1.64042,0,0,0,0,0,8.056,1.3123688084,1.312336,0,0,0,0,0,21, -0.1, 0.2,0,0,1420,1024,1024,1024,60,0,0,0,23.7,0,0,75,4.019,4.007,0,0,0,0,2.247,98.96,1.3123688084,1.312336,38,Tripod,
371500,2022-08-12 04:51:11,0,0,1.312336,,,1.3123688084,1.64042,0,0,0,0,0,8.056,1.3123688084,1.312336,0,0,0,0,0,21.1, -3.8, 0.3,0,0,1024,1024,1024,1024,0,0,0,0,23.7,0,0,75,4.019,4.007,0,0,0,0,2.247,98.96,1.3123688084,1.312336,38,Tripod,
371600,2022-08-12 04:51:11,0,0,1.312336,,,1.3123688084,1.64042,0.223694,0,0,0,0,8.056,1.3123688084,1.312336,0,0,0.223694,0,0,21, -4.9, 0.3,0,0,1024,1024,1024,1024,0,0,0,0,23.7,0,0,75,4.019,4.007,0,0,0,0,2.247,98.96,1.3123688084,1.312336,38,Tripod,
371700,2022-08-12 04:51:11,0,0,1.312336,,,1.3123688084,1.64042,0.223694,0,0,0,0,8.056,1.3123688084,1.312336,0,0,0.223694,0,0,21, 0.6, 0.3,0,0,1024,1024,1137,1024,0,0,17,0,23.7,0,0,75,4.019,4.007,0,0,0,0,2.247,98.96,1.3123688084,1.312336,38,Tripod,
371800,2022-08-12 04:51:11,0,0,1.312336,,,1.3123688084,1.64042,0.223694,0,0,0,0,8.056,1.3123688084,1.312336,0,0,0.223694,0,0,21, 1.7, 0.2,0,0,1024,1024,1505,1024,0,0,73,0,23.7,0,0,75,4.019,4.007,0,0,0,0,2.247,98.96,1.3123688084,1.312336,38,Tripod,
371900,2022-08-12 04:51:11,0,0,1.312336,,,1.3123688084,1.64042,0.223694,0,0,0,0,8.056,1.3123688084,1.312336,0,0,0.223694,0,0,21, 1.9, 0.3,0,0,1024,1024,1505,1024,0,0,73,0,23.7,0,0,75,4.019,4.007,0,0,0,0,2.247,98.96,1.3123688084,1.312336,38,Tripod,
372000,2022-08-12 04:51:12,0,0,1.312336,,,1.3123688084,1.64042,0,0,0,0,0,8.056,1.3123688084,1.312336,0,0,0,0,-0.223694,21.1, 1.7, 0.4,0,0,1024,1024,1471,1024,0,0,68,0,23.7,0,0,75,4.019,4.007,0,0,0,0,2.247,98.96,1.3123688084,1.312336,38,Tripod,
372100,2022-08-12 04:51:12,0,0,1.312336,,,1.3123688084,1.968504,0,0,0,0,0,8.017,1.3123688084,1.312336,0,0,0,0,-0.894776,21.1, 1, 0.1,0,0,1024,1024,1112,1024,0,0,13,0,23.7,0,0,75,4.012,4,0,0,0,0,4.128,98.96,1.3123688084,1.312336,38,Tripod,
372200,2022-08-12 04:51:12,0,0,1.64042,,,1.6404528084,1.968504,0,0,0,0,0,8.017,1.6404528084,1.64042,0,0,0,0,-1.342164,21.1, 0.8, 0,0,0,1024,1024,1024,1024,0,0,0,0,23.7,0,0,75,4.012,4,0,0,0,0,4.128,98.96,1.6404528084,1.64042,38,Tripod,
372300,2022-08-12 04:51:12,0,0,1.64042,,,1.6404528084,2.296588,0,0,0,0,0,8.017,1.6404528084,1.64042,0,0,0,0,-0.894776,21.1, 0.7, 0,0,0,1024,1024,1024,1024,0,0,0,0,23.7,0,0,75,4.012,4,0,0,0,0,4.128,98.96,1.6404528084,1.64042,38,Tripod,
372400,2022-08-12 04:51:12,0,0,1.968504,,,1.9685368084,2.296588,0,0,0,0,0,8.017,1.9685368084,1.968504,0,0,0,0,-0.671082,21.1, 0.4, 0.4,0,0,1024,1024,1024,1024,0,0,0,0,23.7,0,0,75,4.012,4,0,0,0,0,4.128,98.96,1.9685368084,1.968504,38,Tripod,
372500,2022-08-12 04:51:12,0,0,1.968504,,,1.9685368084,2.296588,0,0,0,0,0,8.017,1.9685368084,1.968504,0,0,0,0,-0.223694,21.1, 0, 0.6,0,0,1024,1024,1024,1024,0,0,0,0,23.7,0,0,75,4.012,4,0,0,0,0,4.128,98.96,1.9685368084,1.968504,38,Tripod,
372600,2022-08-12 04:51:12,0,0,1.968504,,,1.9685368084,2.296588,0,0,0,0,0,8.017,1.9685368084,1.968504,0,0,0,0,0,21.1, 0, 0.3,0,0,1024,1024,1024,1024,0,0,0,0,23.7,0,0,75,4.012,4,0,0,0,0,4.128,98.96,1.9685368084,1.968504,38,Tripod,
372700,2022-08-12 04:51:12,0,0,1.968504,,,1.9685368084,2.296588,0,0,0,0,0,8.017,1.9685368084,1.968504,0,0,0,0,0,21.1, 0, 0.2,0,0,1024,1024,1024,1024,0,0,0,0,23.7,0,0,75,4.012,4,0,0,0,0,4.128,98.96,1.9685368084,1.968504,38,Tripod,
372800,2022-08-12 04:51:12,0,0,1.968504,,,1.9685368084,2.296588,0,0,0,0,0,8.017,1.9685368084,1.968504,0,0,0,0,0,21.1, 0.1, 0.6,0,0,1024,1024,1024,1024,0,0,0,0,23.7,0,0,75,4.012,4,0,0,0,0,4.128,98.96,1.9685368084,1.968504,38,Tripod,
372900,2022-08-12 04:51:12,0,0,1.968504,,,1.9685368084,2.296588,0,0,0,0,0,8.017,1.9685368084,1.968504,0,0,0,0,0,21.1, 0.3, 0.6,0,0,1024,1024,1024,1024,0,0,0,0,23.7,0,0,75,4.012,4,0,0,0,0,4.128,98.96,1.9685368084,1.968504,38,Tripod,
373000,2022-08-12 04:51:12,0,0,1.968504,,,1.9685368084,2.296588,0,0,0,0,0,8.017,1.9685368084,1.968504,0,0,0,0,0,21.1, 0.2, 0.6,0,0,1024,1024,1024,1024,0,0,0,0,23.7,0,0,75,4.012,4,0,0,0,0,4.128,98.96,1.9685368084,1.968504,38,Tripod,
373100,2022-08-12 04:51:13,0,0,1.968504,,,1.9685368084,2.296588,0,0,0,0,0,8.015,1.9685368084,1.968504,0,0,0,0,0,21.1, 0.3, 0.7,0,0,1024,1024,1024,1024,0,0,0,0,23.7,0,0,75,4.013,4.001,0,0,0,0,4.177,98.96,1.9685368084,1.968504,38,Tripod,
373200,2022-08-12 04:51:13,0,0,1.968504,,,1.9685368084,2.296588,0,0,0,0,0,8.015,1.9685368084,1.968504,0,0,0,0,0,21.1, 0.2, 0.6,0,0,1024,1024,1024,1024,0,0,0,0,23.7,0,0,75,4.013,4.001,0,0,0,0,4.177,98.96,1.9685368084,1.968504,38,Tripod,
373300,2022-08-12 04:51:13,0,0,1.968504,,,1.9685368084,2.296588,0,0,0,0,0,8.015,1.9685368084,1.968504,0,0,0,0,0,21.1, 0, 0.7,0,0,1024,1024,1024,1024,0,0,0,0,23.7,0,0,75,4.013,4.001,0,0,0,0,4.177,98.96,1.9685368084,1.968504,38,Tripod,
373400,2022-08-12 04:51:13,0,0,1.968504,,,1.9685368084,2.296588,0,0,0,0,0,8.015,1.9685368084,1.968504,0,0,0,0,0,21.1, 0, 0.7,0,0,1024,1024,1024,1024,0,0,0,0,23.7,0,0,75,4.013,4.001,0,0,0,0,4.177,98.96,1.9685368084,1.968504,38,Tripod,
373500,2022-08-12 04:51:13,0,0,1.968504,,,1.9685368084,2.296588,0,0,0,0,0,8.015,1.9685368084,1.968504,0,0,0,0,0,21, 0.1, 0.7,0,0,1024,1024,1024,1024,0,0,0,0,23.7,0,0,75,4.013,4.001,0,0,0,0,4.177,98.96,1.9685368084,1.968504,38,Tripod,
373600,2022-08-12 04:51:13,0,0,1.968504,,,1.9685368084,2.296588,0,0,0,0,0,8.015,1.9685368084,1.968504,0,0,0,0,0,21, 0, 0.6,0,0,1024,1024,1024,1024,0,0,0,0,23.7,0,0,75,4.013,4.001,0,0,0,0,4.177,98.96,1.9685368084,1.968504,38,Tripod,
373700,2022-08-12 04:51:13,0,0,1.968504,,,1.9685368084,2.296588,0,0,0,0,0,8.015,1.9685368084,1.968504,0,0,0,0,0,21, -0.1, 1,0,0,1024,1024,1126,1024,0,0,15,0,23.7,0,0,75,4.013,4.001,0,0,0,0,4.177,98.96,1.9685368084,1.968504,38,Tripod,
373800,2022-08-12 04:51:13,0,0,1.968504,,,1.9685368084,2.296588,0,0,0,0,0,8.015,1.9685368084,1.968504,0,0,0,0,0,21, -0.1, 1,0,0,1024,1024,1497,1024,0,0,72,0,23.7,0,0,75,4.013,4.001,0,0,0,0,4.177,98.96,1.9685368084,1.968504,38,Tripod,"Se detectó tarjeta SD de baja velocidad"
373900,2022-08-12 04:51:13,0,0,1.968504,,,1.9685368084,2.296588,0,0,0,0,0,8.015,1.9685368084,1.968504,0,0,0,0,0,21, 0.3, 1,0,0,1024,1024,1497,1024,0,0,72,0,23.7,0,0,75,4.013,4.001,0,0,0,0,4.177,98.96,1.9685368084,1.968504,38,Tripod,
374000,2022-08-12 04:51:13,0,0,1.968504,,,1.9685368084,2.296588,0,0,0,0,0,8.015,1.9685368084,1.968504,0,0,0,0,-0.223694,21, 0.4, 1,0,0,1024,1024,1473,1024,0,0,68,0,23.7,0,0,75,4.013,4.001,0,0,0,0,4.177,98.96,1.9685368084,1.968504,38,Tripod,
374100,2022-08-12 04:51:14,0,0,2.296588,,,2.2966208084,2.624672,0,0,0,0,0,8.022,2.2966208084,2.296588,0,0,0,0,-0.894776,21.1, 0.4, 0.7,0,0,1024,1024,1024,1024,0,0,0,0,23.7,0,0,75,4.008,3.997,0,0,0,0,4.416,99.14,2.2966208084,2.296588,38,Tripod,
374200,2022-08-12 04:51:14,0,0,2.296588,,,2.2966208084,2.624672,0,0,0,0,0,8.022,2.2966208084,2.296588,0,0,0,0,-1.342164,21.1, 0.2, 0.9,0,0,1024,1024,1024,1024,0,0,0,0,23.7,0,0,75,4.008,3.997,0,0,0,0,4.416,99.14,2.2966208084,2.296588,38,Tripod,
374300,2022-08-12 04:51:14,0,0,2.624672,,,2.6247048084,2.952756,0,0,0,0,0,8.022,2.6247048084,2.624672,0,0,0,0,-0.894776,21.1, 0.2, 0.7,0,0,1024,1024,1024,1024,0,0,0,0,23.7,0,0,75,4.008,3.997,0,0,0,0,4.416,99.14,2.6247048084,2.624672,38,Tripod,
374400,2022-08-12 04:51:14,0,0,2.624672,,,2.6247048084,2.952756,0,0,0,0,0,8.022,2.6247048084,2.624672,0,0,0,0,-0.671082,21.1, 0, 0.5,0,0,1024,1024,1024,1024,0,0,0,0,23.7,0,0,75,4.008,3.997,0,0,0,0,4.416,99.14,2.6247048084,2.624672,38,Tripod,
374500,2022-08-12 04:51:14,0,0,2.624672,,,2.6247048084,3.28084,0,0,0,0,0,8.022,2.6247048084,2.624672,0,0,0,0,-0.447388,21.1, 0, 0.1,0,0,1024,1024,1024,1024,0,0,0,0,23.7,0,0,75,4.008,3.997,0,0,0,0,4.416,99.14,2.6247048084,2.624672,38,Tripod,
374600,2022-08-12 04:51:14,0,0,2.624672,,,2.6247048084,3.28084,0,0,0,0,0,8.022,2.6247048084,2.624672,0,0,0,0,0,21, 0, 0,0,0,1024,1024,1024,1024,0,0,0,0,23.7,0,0,75,4.008,3.997,0,0,0,0,4.416,99.14,2.6247048084,2.624672,38,Tripod,
374700,2022-08-12 04:51:14,0,0,2.624672,,,2.6247048084,3.28084,0,0,0,0,0,8.022,2.6247048084,2.624672,0,0,0,0,0,21, 0.2, 0.2,0,0,1024,1024,1024,1024,0,0,0,0,23.7,0,0,75,4.008,3.997,0,0,0,0,4.416,99.14,2.6247048084,2.624672,38,Tripod,
374800,2022-08-12 04:51:14,0,0,2.624672,,,2.6247048084,3.28084,0,0,0,0,0,8.022,2.6247048084,2.624672,0,0,0,0,0,21, 0.1, 0.1,0,0,1024,1024,1024,1024,0,0,0,0,23.7,0,0,75,4.008,3.997,0,0,0,0,4.416,99.14,2.6247048084,2.624672,38,Tripod,
374900,2022-08-12 04:51:14,0,0,2.624672,,,2.6247048084,3.28084,0,0,0,0,0,8.022,2.6247048084,2.624672,0,0,0,0,0,21, 0.2, 0.1,0,0,1145,1024,1024,1024,18,0,0,0,23.7,0,0,75,4.008,3.997,0,0,0,0,4.416,99.14,2.6247048084,2.624672,38,Tripod,
375000,2022-08-12 04:51:14,0,0,2.624672,,,2.6247048084,3.28084,0,0,0,0,0,8.022,2.6247048084,2.624672,0,0,0,0,0,20.9, 0, 0.3,0,0,1446,1024,1024,1024,64,0,0,0,23.7,0,0,75,4.008,3.997,0,0,0,0,4.416,99.14,2.6247048084,2.624672,38,Tripod,
375100,2022-08-12 04:51:15,0,0,2.624672,,,2.6247048084,3.28084,0,0,0,0,0,8.007,2.6247048084,2.624672,0,0,0,0,0,20.9, -2.3, 0.7,0,0,1457,1024,1024,1024,66,0,0,0,23.7,0,0,75,4.008,3.996,0,0,0,0,4.258,99.14,2.6247048084,2.624672,38,Tripod,
375200,2022-08-12 04:51:15,0,0,2.624672,,,2.6247048084,3.28084,0,0,0,0,0,8.007,2.6247048084,2.624672,0,0,0,0,0,20.9, -5.6, 0.6,0,0,1435,1024,1024,1024,62,0,0,0,23.7,0,0,75,4.008,3.996,0,0,0,0,4.258,99.14,2.6247048084,2.624672,38,Tripod,
375300,2022-08-12 04:51:15,0,0,2.624672,,,2.6247048084,3.28084,0.223694,0,0,0,0,8.007,2.6247048084,2.624672,0,0,0.223694,0,0,20.9, -6.1, 0.6,0,0,1349,1024,1024,1024,49,0,0,0,23.7,0,0,75,4.008,3.996,0,0,0,0,4.258,99.14,2.6247048084,2.624672,38,Tripod,
375400,2022-08-12 04:51:15,0,0,2.624672,,,2.6247048084,3.28084,0.447388,0,0,0,0,8.007,2.6247048084,2.624672,0,0,0.447388,0,0,20.9, -5.6, 0.5,0,0,1342,1024,1024,1024,48,0,0,0,23.7,0,0,75,4.008,3.996,0,0,0,0,4.258,99.14,2.6247048084,2.624672,38,Tripod,
375500,2022-08-12 04:51:15,0,0,2.624672,,,2.6247048084,2.952756,0.7158208,0,0,0,0,8.007,2.6247048084,2.624672,0,0,0.671082,0.223694,0,21, -4.3, 0.4,0,0,1340,1024,1024,1024,48,0,0,0,23.7,0,0,75,4.008,3.996,0,0,0,0,4.258,99.14,2.6247048084,2.624672,38,Tripod,
375600,2022-08-12 04:51:15,0,0,2.624672,,,2.6247048084,2.952756,0.7158208,0,0,0,0,8.007,2.6247048084,2.624672,0,0,0.671082,0.223694,0,21, -3.5, 0.2,0,0,1338,1024,1024,1024,48,0,0,0,23.7,0,0,75,4.008,3.996,0,0,0,0,4.258,99.14,2.6247048084,2.624672,38,Tripod,
375700,2022-08-12 04:51:15,0,0,2.624672,,,2.6247048084,2.952756,0.9171454,0,0,0,0,8.007,2.6247048084,2.624672,0,0,0.894776,0.223694,0,21.1, -3.4, 0.1,0,0,1338,1024,1024,1024,48,0,0,0,23.7,0,0,75,4.008,3.996,0,0,0,0,4.258,99.14,2.6247048084,2.624672,38,Tripod,
375800,2022-08-12 04:51:15,0,0,2.624672,,,2.6247048084,2.952756,1.1408394,0,0,0,0,8.007,2.6247048084,2.624672,0,0,1.11847,0.223694,0,21.1, -3.3, 0.3,0,0,1334,1024,1024,1024,47,0,0,0,23.7,0,0,75,4.008,3.996,0,0,0,0,4.258,99.14,2.6247048084,2.624672,38,Tripod,
375900,2022-08-12 04:51:15,0,0,2.624672,,,2.6247048084,2.952756,1.1408394,0,0,0,0,8.007,2.6247048084,2.624672,0,0,1.11847,0.223694,0,21.1, -3.2, 0.7,0,0,1320,1024,1024,1024,45,0,0,0,23.7,0,0,75,4.008,3.996,0,0,0,0,4.258,99.14,2.6247048084,2.624672,38,Tripod,
376000,2022-08-12 04:51:15,0,0,2.624672,,,2.6247048084,2.952756,1.1408394,0,0,0,0,8.007,2.6247048084,2.624672,0,0,1.11847,0.223694,0,21.1, -3, 0.8,0,0,1320,1024,1024,1024,45,0,0,0,23.7,0,0,75,4.008,3.996,0,0,0,0,4.258,99.14,2.6247048084,2.624672,38,Tripod,
376100,2022-08-12 04:51:16,0,0,2.624672,,,2.6247048084,2.952756,1.4092722,0,0,0,0,8.015,2.6247048084,2.624672,0,0,1.342164,0.447388,0,21.1, -2.9, 1,0,0,1314,1024,1024,1024,44,0,0,0,23.7,0,0,75,4.004,3.992,0,0,0,0,4.429,99.14,2.6247048084,2.624672,38,Tripod,
376200,2022-08-12 04:51:16,0,0,2.624672,,,2.6247048084,2.952756,1.4092722,0,0,0,0,8.015,2.6247048084,2.624672,0,0,1.342164,0.447388,0,21.1, -2.9, 0.8,0,0,1258,1024,1024,1024,35,0,0,0,23.7,0,0,75,4.004,3.992,0,0,0,0,4.429,99.14,2.6247048084,2.624672,38,Tripod,
376300,2022-08-12 04:51:16,0,0,2.624672,,,2.6247048084,2.952756,1.4092722,0,0,0,0,8.015,2.6247048084,2.624672,0,0,1.342164,0.447388,0,21.1, -2.9, 0.8,0,0,1058,1024,1024,1024,5,0,0,0,23.7,0,0,75,4.004,3.992,0,0,0,0,4.429,99.14,2.6247048084,2.624672,38,Tripod,
376400,2022-08-12 04:51:16,0,0,2.624672,,,2.6247048084,2.952756,1.4092722,0,0,0,0,8.015,2.6247048084,2.624672,0,0,1.342164,0.447388,0,21.1, -1.8, 0.9,0,0,1024,1024,1024,1024,0,0,0,0,23.7,0,0,75,4.004,3.992,0,0,0,0,4.429,99.14,2.6247048084,2.624672,38,Tripod,
376500,2022-08-12 04:51:16,0,0,2.624672,,,2.6247048084,2.952756,1.4092722,0,0,0,0,8.015,2.6247048084,2.624672,0,0,1.342164,0.447388,0,21.1, 0.3, 0.8,0,0,1024,1024,1024,1024,0,0,0,0,23.7,0,0,75,4.004,3.992,0,0,0,0,4.429,99.14,2.6247048084,2.624672,38,Tripod,
376600,2022-08-12 04:51:16,0,0,2.624672,,,2.6247048084,2.952756,1.4092722,0,0,0,0,8.015,2.6247048084,2.624672,0,0,1.342164,0.447388,0,21.1, 5.6, 0.8,0,0,1024,1024,1024,1024,0,0,0,0,23.7,0,0,75,4.004,3.992,0,0,0,0,4.429,99.14,2.6247048084,2.624672,38,Tripod,
376700,2022-08-12 04:51:16,0,0,2.624672,,,2.6247048084,2.952756,1.2079476,0,0,0,0,8.015,2.6247048084,2.624672,0,0,1.11847,0.447388,0,21.1, 6.7, 0.7,0,0,1024,1024,1024,1024,0,0,0,0,23.7,0,0,75,4.004,3.992,0,0,0,0,4.429,99.14,2.6247048084,2.624672,38,Tripod,
376800,2022-08-12 04:51:16,0,0,2.624672,,,2.6247048084,2.952756,0.9171454,0,0,0,0,8.015,2.6247048084,2.624672,0,0,0.894776,0.223694,0,21, 6, 0.4,0,0,1024,1024,1024,1024,0,0,0,0,23.7,0,0,75,4.004,3.992,0,0,0,0,4.429,99.14,2.6247048084,2.624672,38,Tripod,
376900,2022-08-12 04:51:16,0,0,2.624672,,,2.6247048084,2.952756,0.7158208,0,0,0,0,8.015,2.6247048084,2.624672,0,0,0.671082,0.223694,0,21, 4.9, 0.1,0,0,1024,1024,1024,1024,0,0,0,0,23.7,0,0,75,4.004,3.992,0,0,0,0,4.429,99.14,2.6247048084,2.624672,38,Tripod,
377000,2022-08-12 04:51:17,0,0,2.624672,,,2.6247048084,2.952756,0.447388,0,0,0,0,8.015,2.6247048084,2.624672,0,0,0.447388,0,0,21, 3.9, 0.1,0,0,1024,1024,1024,1024,0,0,0,0,23.7,0,0,75,4.004,3.992,0,0,0,0,4.429,99.14,2.6247048084,2.624672,38,Tripod,
377100,2022-08-12 04:51:17,0,0,2.624672,,,2.6247048084,2.952756,0.223694,0,0,0,0,8.015,2.6247048084,2.624672,0,0,0.223694,0,0,21, 3, 0.1,0,0,1024,1024,1024,1024,0,0,0,0,23.7,0,0,75,4.004,3.992,0,0,0,0,4.429,99.14,2.6247048084,2.624672,38,Tripod,
377200,2022-08-12 04:51:17,0,0,2.624672,,,2.6247048084,2.952756,0.223694,0,0,0,0,8.015,2.6247048084,2.624672,0,0,0.223694,0,0,21, 2.5, 0.2,0,0,1024,1024,1024,1024,0,0,0,0,23.7,0,0,75,4.004,3.992,0,0,0,0,4.429,99.14,2.6247048084,2.624672,38,Tripod,
377300,2022-08-12 04:51:17,0,0,2.624672,,,2.6247048084,2.952756,0.223694,0,0,0,0,7.995,2.6247048084,2.624672,0,0,0.223694,0,0,21, 1.9, 0.3,0,0,1024,1024,1024,1024,0,0,0,0,23.7,0,0,75,4.002,3.99,0,0,0,0,4.321,99.32,2.6247048084,2.624672,38,Tripod,
377400,2022-08-12 04:51:17,0,0,2.624672,,,2.6247048084,2.952756,0,0,0,0,0,7.995,2.6247048084,2.624672,0,0,0,0,0,21.1, 1.5, 0.2,0,0,1024,1024,1024,1024,0,0,0,0,23.7,0,0,75,4.002,3.99,0,0,0,0,4.321,99.32,2.6247048084,2.624672,38,Tripod,
377500,2022-08-12 04:51:17,0,0,2.624672,,,2.6247048084,2.952756,0,0,0,0,0,7.995,2.6247048084,2.624672,0,0,0,0,0,21.1, 1.4, 0.3,0,0,1024,1024,1024,1024,0,0,0,0,23.7,0,0,75,4.002,3.99,0,0,0,0,4.321,99.32,2.6247048084,2.624672,38,Tripod,
377600,2022-08-12 04:51:17,0,0,2.624672,,,2.6247048084,2.952756,0,0,0,0,0,7.995,2.6247048084,2.624672,0,0,0,0,0,21.1, 1.5, 0,0,0,1024,1024,1024,1024,0,0,0,0,23.7,0,0,75,4.002,3.99,0,0,0,0,4.321,99.32,2.6247048084,2.624672,38,Tripod,
377700,2022-08-12 04:51:17,0,0,2.624672,,,2.6247048084,2.952756,0,0,0,0,0,7.995,2.6247048084,2.624672,0,0,0,0,0,21.1, 1.2, 0.1,0,0,1024,1024,1024,1024,0,0,0,0,23.7,0,0,75,4.002,3.99,0,0,0,0,4.321,99.32,2.6247048084,2.624672,38,Tripod,
377800,2022-08-12 04:51:17,0,0,2.296588,,,2.2966208084,2.952756,0,0,0,0,0,7.995,2.6247048084,2.624672,0,0,0,0,0,21.1, 1.1, 0.3,0,0,1024,1024,1024,1024,0,0,0,0,23.7,0,0,75,4.002,3.99,0,0,0,0,4.321,99.32,2.2966208084,2.296588,38,Tripod,
377900,2022-08-12 04:51:17,0,0,2.296588,,,2.2966208084,2.952756,0,0,0,0,0,7.995,2.6247048084,2.624672,0,0,0,0,0,21.1, 1.1, 0.3,0,0,1024,1024,1024,1024,0,0,0,0,23.7,0,0,75,4.002,3.99,0,0,0,0,4.321,99.32,2.2966208084,2.296588,38,Tripod,
378000,2022-08-12 04:51:18,0,0,2.296588,,,2.2966208084,2.952756,0,0,0,0,0,7.995,2.6247048084,2.624672,0,0,0,0,0,21.1, 1.3, 0.2,0,0,1024,1024,1024,1024,0,0,0,0,23.7,0,0,75,4.002,3.99,0,0,0,0,4.321,99.32,2.2966208084,2.296588,38,Tripod,
378100,2022-08-12 04:51:18,0,0,2.296588,,,2.2966208084,2.952756,0,0,0,0,0,7.995,2.6247048084,2.624672,0,0,0,0,0,21.1, 1.3, 0.1,0,0,1024,1024,1024,1024,0,0,0,0,23.7,0,0,75,4.002,3.99,0,0,0,0,4.321,99.32,2.2966208084,2.296588,38,Tripod,
378200,2022-08-12 04:51:18,0,0,2.296588,,,2.2966208084,2.952756,0,0,0,0,0,7.995,2.6247048084,2.624672,0,0,0,0,0,21, 1.1, 0,0,0,1024,1024,1024,1024,0,0,0,0,23.7,0,0,75,4.002,3.99,0,0,0,0,4.321,99.32,2.2966208084,2.296588,38,Tripod,
378300,2022-08-12 04:51:18,0,0,2.296588,,,2.2966208084,2.952756,0,0,0,0,0,7.99,2.6247048084,2.624672,0,0,0,0,0,21, 1, 0,0,0,1024,1024,1024,1024,0,0,0,0,23.7,0,0,75,4.002,3.989,0,0,0,0,4.365,99.32,2.2966208084,2.296588,38,Tripod,
378400,2022-08-12 04:51:18,0,0,2.296588,,,2.2966208084,2.952756,0,0,0,0,0,7.99,2.6247048084,2.624672,0,0,0,0,0,21, 0.9, 0,0,0,1024,1024,1024,1024,0,0,0,0,23.7,0,0,75,4.002,3.989,0,0,0,0,4.365,99.32,2.2966208084,2.296588,38,Tripod,
378500,2022-08-12 04:51:18,0,0,2.296588,,,2.2966208084,2.952756,0,0,0,0,0,7.99,2.6247048084,2.624672,0,0,0,0,0,21, 0.9, 0,0,0,1024,1024,1024,1024,0,0,0,0,23.7,0,0,75,4.002,3.989,0,0,0,0,4.365,99.32,2.2966208084,2.296588,38,Tripod,
378600,2022-08-12 04:51:18,0,0,2.296588,,,2.2966208084,2.952756,0,0,0,0,0,7.99,2.6247048084,2.624672,0,0,0,0,0,21, 0.8, 0,0,0,1024,1024,1024,1024,0,0,0,0,23.7,0,0,75,4.002,3.989,0,0,0,0,4.365,99.32,2.2966208084,2.296588,38,Tripod,
378700,2022-08-12 04:51:18,0,0,2.296588,,,2.2966208084,2.952756,0,0,0,0,0,7.99,2.6247048084,2.624672,0,0,0,0,0,21, 0.6, 0,0,0,1024,1024,1024,1024,0,0,0,0,23.7,0,0,75,4.002,3.989,0,0,0,0,4.365,99.32,2.2966208084,2.296588,38,Tripod,
378800,2022-08-12 04:51:18,0,0,2.296588,,,2.2966208084,2.952756,0,0,0,0,0,7.99,2.6247048084,2.624672,0,0,0,0,0,21, 0.4, 0,0,0,1024,1024,1024,1024,0,0,0,0,23.7,0,0,75,4.002,3.989,0,0,0,0,4.365,99.32,2.2966208084,2.296588,38,Tripod,
378900,2022-08-12 04:51:18,0,0,2.296588,,,2.2966208084,2.952756,0,0,0,0,0,7.99,2.6247048084,2.624672,0,0,0,0,0,21, 0.5, 0,0,0,1024,1024,1024,1024,0,0,0,0,23.7,0,0,75,4.002,3.989,0,0,0,0,4.365,99.32,2.2966208084,2.296588,38,Tripod,
379000,2022-08-12 04:51:18,0,0,2.296588,,,2.2966208084,3.28084,0,0,0,0,0,7.99,2.6247048084,2.624672,0,0,0,0,0,21, 0.3, 0,0,0,1024,1024,1024,1024,0,0,0,0,23.7,0,0,75,4.002,3.989,0,0,0,0,4.365,99.32,2.2966208084,2.296588,38,Tripod,
379100,2022-08-12 04:51:19,0,0,2.296588,,,2.2966208084,3.28084,0,0,0,0,0,7.99,2.6247048084,2.624672,0,0,0,0,0,21, 0.3, 0,0,0,1024,1024,1024,1024,0,0,0,0,23.7,0,0,75,4.002,3.989,0,0,0,0,4.365,99.32,2.2966208084,2.296588,38,Tripod,
379200,2022-08-12 04:51:19,0,0,2.296588,,,2.2966208084,3.28084,0,0,0,0,0,7.99,2.6247048084,2.624672,0,0,0,0,0,20.9, 0.3, -0.5,0,0,1024,1024,1024,1024,0,0,0,0,23.7,0,0,75,4.002,3.989,0,0,0,0,4.365,99.32,2.2966208084,2.296588,38,Tripod,
379300,2022-08-12 04:51:19,0,0,2.296588,,,2.2966208084,3.28084,0,0,0,0,0,7.989,2.6247048084,2.624672,0,0,0,0,0,21, 0.3, -0.7,0,0,1024,1024,1024,1024,0,0,0,0,23.7,0,0,75,4,3.988,0,0,0,0,4.306,99.32,2.2966208084,2.296588,38,Tripod,
379400,2022-08-12 04:51:19,0,0,2.296588,,,2.2966208084,3.28084,0,0,0,0,0,7.989,2.6247048084,2.624672,0,0,0,0,0,21, 0.1, -0.2,0,0,1024,1024,1024,1024,0,0,0,0,23.7,0,0,75,4,3.988,0,0,0,0,4.306,99.32,2.2966208084,2.296588,38,Tripod,
379500,2022-08-12 04:51:19,0,0,2.296588,,,2.2966208084,3.28084,0,0,0,0,0,7.989,2.6247048084,2.624672,0,0,0,0,0,21, 0, 0.2,0,0,1024,1024,1024,1024,0,0,0,0,23.7,0,0,75,4,3.988,0,0,0,0,4.306,99.32,2.2966208084,2.296588,38,Tripod,
379600,2022-08-12 04:51:19,0,0,2.296588,,,2.2966208084,3.28084,0,0,0,0,0,7.989,2.6247048084,2.624672,0,0,0,0,0,21, 0, 0.2,0,0,1024,1024,1024,1024,0,0,0,0,23.7,0,0,75,4,3.988,0,0,0,0,4.306,99.32,2.2966208084,2.296588,38,Tripod,
379700,2022-08-12 04:51:19,0,0,2.296588,,,2.2966208084,3.28084,0,0,0,0,0,7.989,2.6247048084,2.624672,0,0,0,0,0,21, 0.1, 0.1,0,0,1024,1024,1024,1024,0,0,0,0,23.7,0,0,75,4,3.988,0,0,0,0,4.306,99.32,2.2966208084,2.296588,38,Tripod,
379800,2022-08-12 04:51:19,0,0,2.296588,,,2.2966208084,3.28084,0,0,0,0,0,7.989,2.6247048084,2.624672,0,0,0,0,0,21.1, 0, 0.1,0,0,1024,1024,1024,1024,0,0,0,0,23.7,0,0,75,4,3.988,0,0,0,0,4.306,99.32,2.2966208084,2.296588,38,Tripod,
379900,2022-08-12 04:51:19,0,0,2.296588,,,2.2966208084,3.28084,0,0,0,0,0,7.989,2.6247048084,2.624672,0,0,0,0,0,21.1, 0, -0.1,0,0,1024,1024,1024,1024,0,0,0,0,23.7,0,0,75,4,3.988,0,0,0,0,4.306,99.32,2.2966208084,2.296588,38,Tripod,
380000,2022-08-12 04:51:19,0,0,2.296588,,,2.2966208084,3.28084,0,0,0,0,0,7.989,2.6247048084,2.624672,0,0,0,0,0,21.1, 0.1, 0,0,0,1024,1024,1024,1024,0,0,0,0,23.7,0,0,75,4,3.988,0,0,0,0,4.306,99.32,2.2966208084,2.296588,38,Tripod,
380100,2022-08-12 04:51:20,0,0,2.296588,,,2.2966208084,2.952756,0,0,0,0,0,7.989,2.6247048084,2.624672,0,0,0,0,0,21.1, 0, 0,0,0,1024,1024,1024,1024,0,0,0,0,23.7,0,0,75,4,3.988,0,0,0,0,4.306,99.32,2.2966208084,2.296588,38,Tripod,
380200,2022-08-12 04:51:20,0,0,2.296588,,,2.2966208084,3.28084,0,0,0,0,0,7.989,2.6247048084,2.624672,0,0,0,0,0,21.1, 0, 0.1,0,0,1024,1024,1024,1024,0,0,0,0,23.7,0,0,75,4,3.988,0,0,0,0,4.306,99.32,2.2966208084,2.296588,38,Tripod,
380300,2022-08-12 04:51:20,0,0,2.296588,,,2.2966208084,3.28084,0,0,0,0,0,7.986,2.6247048084,2.624672,0,0,0,0,0,21, 0, 0.3,0,0,1024,1024,1024,1024,0,0,0,0,23.7,0,0,75,3.998,3.986,0,0,0,0,4.3,99.32,2.2966208084,2.296588,38,Tripod,
380400,2022-08-12 04:51:20,0,0,2.296588,,,2.2966208084,2.952756,0,0,0,0,0,7.986,2.6247048084,2.624672,0,0,0,0,0,21.1, -0.1, 0.5,0,0,1024,1024,1041,1024,0,0,3,0,23.7,0,0,75,3.998,3.986,0,0,0,0,4.3,99.32,2.2966208084,2.296588,38,Tripod,
380500,2022-08-12 04:51:20,0,0,2.296588,,,2.2966208084,2.952756,0,0,0,0,0,7.986,2.6247048084,2.624672,0,0,0,0,0,21.1, -0.2, 0.3,0,0,1024,1024,1055,1024,0,0,5,0,23.7,0,0,75,3.998,3.986,0,0,0,0,4.3,99.32,2.2966208084,2.296588,38,Tripod,
380600,2022-08-12 04:51:20,0,0,2.296588,,,2.2966208084,3.28084,0,0,0,0,0,7.986,2.6247048084,2.624672,0,0,0,0,0,21.1, -0.3, 0.3,0,0,1024,1024,1024,1024,0,0,0,0,23.7,0,0,75,3.998,3.986,0,0,0,0,4.3,99.32,2.2966208084,2.296588,38,Tripod,
380700,2022-08-12 04:51:20,0,0,2.296588,,,2.2966208084,3.28084,0,0,0,0,0,7.986,2.6247048084,2.624672,0,0,0,0,0,21.1, -0.3, 0.4,0,0,1024,1024,1024,1024,0,0,0,0,23.7,0,0,75,3.998,3.986,0,0,0,0,4.3,99.32,2.2966208084,2.296588,38,Tripod,
380800,2022-08-12 04:51:20,0,0,2.296588,,,2.2966208084,3.28084,0,0,0,0,0,7.986,2.6247048084,2.624672,0,0,0,0,0,21.1, -0.3, 0.4,0,0,1024,1024,1024,1024,0,0,0,0,23.7,0,0,75,3.998,3.986,0,0,0,0,4.3,99.32,2.2966208084,2.296588,38,Tripod,
380900,2022-08-12 04:51:20,0,0,2.296588,,,2.2966208084,3.28084,0,0,0,0,0,7.986,2.6247048084,2.624672,0,0,0,0,0,21.1, -0.2, 0.4,0,0,1024,1024,1024,1024,0,0,0,0,23.7,0,0,75,3.998,3.986,0,0,0,0,4.3,99.32,2.2966208084,2.296588,38,Tripod,
381000,2022-08-12 04:51:20,0,0,2.296588,,,2.2966208084,3.28084,0,0,0,0,0,7.986,2.6247048084,2.624672,0,0,0,0,0,21.1, -0.3, 0.4,0,0,1024,1024,1024,1024,0,0,0,0,23.7,0,0,75,3.998,3.986,0,0,0,0,4.3,99.32,2.2966208084,2.296588,38,Tripod,
381100,2022-08-12 04:51:21,0,0,2.296588,,,2.2966208084,3.28084,0,0,0,0,0,7.986,2.6247048084,2.624672,0,0,0,0,0,21, -0.1, 0.3,0,0,1024,1024,1038,1024,0,0,2,0,23.7,0,0,75,3.998,3.986,0,0,0,0,4.3,99.32,2.2966208084,2.296588,38,Tripod,
381200,2022-08-12 04:51:21,0,0,2.296588,,,2.2966208084,3.28084,0,0,0,0,0,7.986,2.6247048084,2.624672,0,0,0,0,0,21.1, 0, 0.4,0,0,1024,1024,1161,1024,0,0,21,0,23.7,0,0,75,3.998,3.986,0,0,0,0,4.3,99.32,2.2966208084,2.296588,38,Tripod,
381300,2022-08-12 04:51:21,0,0,2.296588,,,2.2966208084,3.28084,0,0,0,0,0,7.983,2.6247048084,2.624672,0,0,0,0,0,21.1, 0.1, 0.5,0,0,1024,1024,1560,1024,0,0,81,0,23.7,0,0,74,4,3.987,0,0,0,0,4.347,99.32,2.2966208084,2.296588,38,Tripod,
381400,2022-08-12 04:51:21,0,0,2.296588,,,2.2966208084,3.28084,0,0,0,0,0,7.983,2.6247048084,2.624672,0,0,0,0,-0.223694,21.1, 0, 0.5,0,0,1024,1024,1684,1024,0,0,100,0,23.7,0,0,74,4,3.987,0,0,0,0,4.347,99.32,2.2966208084,2.296588,38,Tripod,
381500,2022-08-12 04:51:21,0,0,2.296588,,,2.2966208084,3.28084,0,0,0,0,0,7.983,2.6247048084,2.624672,0,0,0,0,-0.894776,21.1, 0, 0.5,0,0,1024,1024,1376,1024,0,0,53,0,23.7,0,0,74,4,3.987,0,0,0,0,4.347,99.32,2.2966208084,2.296588,38,Tripod,
381600,2022-08-12 04:51:21,0,0,2.624672,,,2.6247048084,3.608924,0,0,0,0,0,7.983,2.6247048084,2.624672,0,0,0,0,-1.565858,21.1, 0, 0.1,0,0,1024,1024,1024,1024,0,0,0,0,23.7,0,0,74,4,3.987,0,0,0,0,4.347,99.32,2.6247048084,2.624672,38,Tripod,
381700,2022-08-12 04:51:21,0,0,2.952756,,,2.9527888084,3.937008,0,0,0,0,0,7.983,2.9527888084,2.952756,0,0,0,0,-2.013246,21, -0.6, -0.2,0,0,1175,1024,1024,1024,23,0,0,0,23.7,0,0,74,4,3.987,0,0,0,0,4.347,99.32,2.9527888084,2.952756,38,Tripod,
381800,2022-08-12 04:51:21,0,0,3.28084,,,3.2808728084,3.937008,0,0,0,0,0,7.983,3.2808728084,3.28084,0,0,0,0,-1.565858,21.1, -0.4, -0.2,0,0,1175,1024,1024,1024,23,0,0,0,23.7,0,0,74,4,3.987,0,0,0,0,4.347,99.32,3.2808728084,3.28084,38,Tripod,
381900,2022-08-12 04:51:21,0,0,3.28084,,,3.2808728084,4.265092,0,0,0,0,0,7.983,3.2808728084,3.28084,0,0,0,0,-0.894776,21.2, -0.4, -0.1,0,0,1500,1024,1024,1024,72,0,0,0,23.7,0,0,74,4,3.987,0,0,0,0,4.347,99.32,3.2808728084,3.28084,38,Tripod,
382000,2022-08-12 04:51:21,0,0,3.608924,,,3.6089568084,4.265092,0,0,0,0,0,7.983,3.6089568084,3.608924,0,0,0,0,-0.671082,21.2, -3.3, 0,0,0,1325,1024,1024,1024,46,0,0,0,23.7,0,0,74,4,3.987,0,0,0,0,4.347,99.32,3.6089568084,3.608924,38,Tripod,
382100,2022-08-12 04:51:22,0,0,3.608924,,,3.6089568084,4.265092,0,0,0,0,0,7.983,3.6089568084,3.608924,0,0,0,0,-0.223694,21.2, -6.8, 0,0,0,1024,1024,1024,1024,0,0,0,0,23.7,0,0,74,4,3.987,0,0,0,0,4.347,99.32,3.6089568084,3.608924,38,Tripod,
382200,2022-08-12 04:51:22,0,0,3.608924,,,3.6089568084,4.593176,0.223694,0,0,0,0,7.983,3.6089568084,3.608924,0,0,0.223694,0,0,21.2, -3.9, 0.4,0,0,1024,1024,1024,1024,0,0,0,0,23.7,0,0,74,4,3.987,0,0,0,0,4.347,99.32,3.6089568084,3.608924,38,Tripod,
382300,2022-08-12 04:51:22,0,0,3.608924,,,3.6089568084,4.593176,0.223694,0,0,0,0,7.983,3.6089568084,3.608924,0,0,0.223694,0,0,21.2, 1.6, 0.4,0,0,1024,1024,1024,1024,0,0,0,0,23.7,0,0,74,4,3.987,0,0,0,0,4.347,99.32,3.6089568084,3.608924,38,Tripod,
382400,2022-08-12 04:51:22,0,0,3.608924,,,3.6089568084,4.593176,0.223694,0,0,0,0,7.937,3.6089568084,3.608924,0,0,0.223694,0,0,21.1, 2.3, 0.2,0,0,1024,1024,1024,1024,0,0,0,0,23.7,0,0,74,4.002,3.99,0,0,0,0,4.85,99.5,3.6089568084,3.608924,38,Tripod,
382500,2022-08-12 04:51:22,0,0,3.608924,,,3.6089568084,4.593176,0.223694,0,0,0,0,7.937,3.6089568084,3.608924,0,0,0.223694,0,0,21.1, 2.1, 0,0,0,1222,1024,1024,1024,30,0,0,0,23.7,0,0,74,4.002,3.99,0,0,0,0,4.85,99.5,3.6089568084,3.608924,38,Tripod,
382600,2022-08-12 04:51:22,0,0,3.608924,,,3.6089568084,4.593176,0,0,0,0,0,7.937,3.6089568084,3.608924,0,0,0,0,0,21.1, 1.7, -0.3,0,0,1222,1024,1024,1024,30,0,0,0,23.7,0,0,74,4.002,3.99,0,0,0,0,4.85,99.5,3.6089568084,3.608924,38,Tripod,
382700,2022-08-12 04:51:22,0,0,3.608924,,,3.6089568084,4.593176,0,0,0,0,0,7.937,3.6089568084,3.608924,0,0,0,0,0,21.2, -0.1, -0.3,0,0,1449,1024,1024,1024,64,0,0,0,23.7,0,0,74,4.002,3.99,0,0,0,0,4.85,99.5,3.6089568084,3.608924,38,Tripod,
382800,2022-08-12 04:51:22,0,0,3.608924,,,3.6089568084,4.593176,0,0,0,0,0,7.937,3.6089568084,3.608924,0,0,0,0,0,21.2, -3.8, -0.1,0,0,1418,1024,1024,1024,60,0,0,0,23.7,0,0,74,4.002,3.99,0,0,0,0,4.85,99.5,3.6089568084,3.608924,38,Tripod,
382900,2022-08-12 04:51:22,0,0,3.608924,,,3.6089568084,4.593176,0.223694,0,0,0,0,7.937,3.6089568084,3.608924,0,0,0.223694,0,0,21.2, -5.8, -0.1,0,0,1084,1024,1024,1024,9,0,0,0,23.7,0,0,74,4.002,3.99,0,0,0,0,4.85,99.5,3.6089568084,3.608924,38,Tripod,
383000,2022-08-12 04:51:23,0,0,3.608924,,,3.6089568084,4.593176,0.447388,0,0,0,0,7.937,3.6089568084,3.608924,0,0,0.447388,0,0,21.2, -4.2, -0.1,0,0,1024,1024,1024,1024,0,0,0,0,23.7,0,0,74,4.002,3.99,0,0,0,0,4.85,99.5,3.6089568084,3.608924,38,Tripod,
383100,2022-08-12 04:51:23,0,0,3.608924,,,3.6089568084,4.593176,0.447388,0,0,0,0,7.937,3.6089568084,3.608924,0,0,0.447388,0,0,21.3, 1.2, 0,0,0,1144,1024,1024,1024,18,0,0,0,23.7,0,0,74,4.002,3.99,0,0,0,0,4.85,99.5,3.6089568084,3.608924,38,Tripod,
383200,2022-08-12 04:51:23,0,0,3.608924,,,3.6089568084,4.593176,0.447388,0,0,0,0,7.937,3.6089568084,3.608924,0,0,0.447388,0,0,21.3, 2.6, 0.2,0,0,1315,1024,1024,1024,44,0,0,0,23.7,0,0,74,4.002,3.99,0,0,0,0,4.85,99.5,3.6089568084,3.608924,38,Tripod,
383300,2022-08-12 04:51:23,0,0,3.608924,,,3.6089568084,4.593176,0.223694,0,0,0,0,7.937,3.6089568084,3.608924,0,0,0.223694,0,0,21.3, 0.8, 0.3,0,0,1442,1024,1024,1024,63,0,0,0,23.7,0,0,74,4.002,3.99,0,0,0,0,4.85,99.5,3.6089568084,3.608924,38,Tripod,
383400,2022-08-12 04:51:23,0,0,3.608924,,,3.6089568084,4.593176,0.223694,0,0,0,0,7.979,3.6089568084,3.608924,0,0,0.223694,0,0,21.2, -1.6, 0.2,0,0,1442,1024,1024,1024,63,0,0,0,23.7,0,0,74,3.995,3.982,0,0,0,0,4.004,99.32,3.6089568084,3.608924,38,Tripod,
383500,2022-08-12 04:51:23,0,0,3.608924,,,3.6089568084,4.593176,0.3131716,0,0,0,0,7.979,3.6089568084,3.608924,0,0,0.223694,0.223694,0,21.2, -4.5, 0.1,0,0,1545,1024,1024,1024,79,0,0,0,23.7,0,0,74,3.995,3.982,0,0,0,0,4.004,99.32,3.6089568084,3.608924,38,Tripod,
383600,2022-08-12 04:51:23,0,0,3.608924,,,3.6089568084,4.593176,0.4921268,0,0,0,0,7.979,3.6089568084,3.608924,0,0,0.447388,0.223694,0,21.2, -6.8, 0,0,0,1539,1024,1024,1024,78,0,0,0,23.7,0,0,74,3.995,3.982,0,0,0,0,4.004,99.32,3.6089568084,3.608924,38,Tripod,
383700,2022-08-12 04:51:23,0,0,3.608924,,,3.6089568084,4.593176,0.7158208,0,0,0,0,7.979,3.6089568084,3.608924,0,0,0.671082,0.223694,0,21.2, -8, -0.4,0,0,1540,1024,1024,1024,78,0,0,0,23.7,0,0,74,3.995,3.982,0,0,0,0,4.004,99.32,3.6089568084,3.608924,38,Tripod,
383800,2022-08-12 04:51:23,0,0,3.608924,,,3.6089568084,4.593176,1.006623,0,0,0,0,7.979,3.6089568084,3.608924,0,0,0.894776,0.447388,0,21.1, -8.2, -0.6,0,0,1627,1024,1024,1024,91,0,0,0,23.7,0,0,74,3.995,3.982,0,0,0,0,4.004,99.32,3.6089568084,3.608924,38,Tripod,
383900,2022-08-12 04:51:23,0,0,3.608924,,,3.6089568084,4.593176,1.4092722,0,0,0,0,7.979,3.6089568084,3.608924,0,0,1.342164,0.447388,0,21.1, -8.5, -0.8,0,0,1605,1024,1024,1024,88,0,0,0,23.7,0,0,74,3.995,3.982,0,0,0,0,4.004,99.32,3.6089568084,3.608924,38,Tripod,
384000,2022-08-12 04:51:24,0,0,3.608924,,,3.6089568084,4.593176,1.7000744,0,0,0,0,7.979,3.6089568084,3.608924,0,0,1.565858,0.671082,0,21, -9.3, -0.7,0,0,1588,1024,1024,1024,85,0,0,0,23.7,0,0,74,3.995,3.982,0,0,0,0,4.004,99.32,3.6089568084,3.608924,38,Tripod,
384100,2022-08-12 04:51:24,0,0,3.608924,,,3.6089568084,4.593176,1.901399,0,0,0,0,7.979,3.6089568084,3.608924,0,0,1.789552,0.671082,0,21, -9.7, -0.3,0,0,1520,1024,1024,1024,75,0,0,0,23.7,0,0,74,3.995,3.982,0,0,0,0,4.004,99.32,3.6089568084,3.608924,38,Tripod,
384200,2022-08-12 04:51:24,0,0,3.608924,,,3.6089568084,4.593176,2.4158952,0,0,0,0,7.979,3.6089568084,3.608924,0,0,2.23694,0.894776,0,21, -9.4, 0,0,0,1520,1024,1024,1024,75,0,0,0,23.7,0,0,74,3.995,3.982,0,0,0,0,4.004,99.32,3.6089568084,3.608924,38,Tripod,
384300,2022-08-12 04:51:24,0,0,3.608924,,,3.6089568084,4.593176,2.6172198,0,0,0,0,7.979,3.6089568084,3.608924,0,0,2.460634,0.894776,0,21, -8.7, 0.4,0,0,1024,1024,1024,1024,0,0,0,0,23.7,0,0,74,3.995,3.982,0,0,0,0,4.004,99.32,3.6089568084,3.608924,38,Tripod,
384400,2022-08-12 04:51:24,0,0,3.608924,,,3.6089568084,4.593176,2.8185444,0,0,0,0,7.977,3.6089568084,3.608924,0,0,2.684328,0.894776,0,20.9, -2.8, 0.4,0,0,1024,1024,1024,1024,0,0,0,0,23.7,0,0,74,3.994,3.98,0,0,0,0,4.346,99.5,3.6089568084,3.608924,38,Tripod,
384500,2022-08-12 04:51:24,0,0,3.608924,,,3.6089568084,4.593176,2.6172198,0,0,0,0,7.977,3.6089568084,3.608924,0,0,2.460634,0.894776,0,20.9, 9.9, 0.1,0,0,1032,1024,1024,1024,1,0,0,0,23.7,0,0,74,3.994,3.98,0,0,0,0,4.346,99.5,3.6089568084,3.608924,38,Tripod,
384600,2022-08-12 04:51:24,0,0,3.608924,,,3.6089568084,4.593176,2.1922012,0,0,0,0,7.977,3.6089568084,3.608924,0,0,2.013246,0.894776,0,20.8, 12.2, -0.4,0,0,1057,1024,1024,1024,5,0,0,0,23.7,0,0,74,3.994,3.98,0,0,0,0,4.346,99.5,3.6089568084,3.608924,38,Tripod,
384700,2022-08-12 04:51:24,0,0,3.608924,,,3.6089568084,4.593176,1.7000744,0,0,0,0,7.977,3.6089568084,3.608924,0,0,1.565858,0.671082,0,20.9, 11.1, -0.4,0,0,1234,1024,1024,1024,32,0,0,0,23.7,0,0,74,3.994,3.98,0,0,0,0,4.346,99.5,3.6089568084,3.608924,38,Tripod,
384800,2022-08-12 04:51:24,0,0,3.608924,,,3.6089568084,4.593176,1.2079476,0,0,0,0,7.977,3.6089568084,3.608924,0,0,1.11847,0.447388,0,21, 7.7, -0.4,0,0,1401,1024,1024,1024,57,0,0,0,23.7,0,0,74,3.994,3.98,0,0,0,0,4.346,99.5,3.6089568084,3.608924,38,Tripod,
384900,2022-08-12 04:51:24,0,0,3.608924,,,3.6089568084,4.593176,0.9171454,0,0,0,0,7.977,3.6089568084,3.608924,0,0,0.894776,0.223694,0,21, 3.4, -0.2,0,0,1479,1024,1024,1024,69,0,0,0,23.7,0,0,74,3.994,3.98,0,0,0,0,4.346,99.5,3.6089568084,3.608924,38,Tripod,
385000,2022-08-12 04:51:24,0,0,3.608924,,,3.6089568084,4.593176,0.9171454,0,0,0,0,7.977,3.6089568084,3.608924,0,0,0.894776,0.223694,0,21, -0.6, 0,0,0,1479,1024,1024,1024,69,0,0,0,23.7,0,0,74,3.994,3.98,0,0,0,0,4.346,99.5,3.6089568084,3.608924,38,Tripod,
385100,2022-08-12 04:51:25,0,0,3.608924,,,3.6089568084,4.593176,0.9171454,0,0,0,0,7.977,3.6089568084,3.608924,0,0,0.894776,0.223694,0,21, -4, 0.1,0,0,1212,1024,1024,1024,28,0,0,0,23.7,0,0,74,3.994,3.98,0,0,0,0,4.346,99.5,3.6089568084,3.608924,38,Tripod,
385200,2022-08-12 04:51:25,0,0,3.608924,,,3.6089568084,4.593176,1.1408394,0,0,0,0,7.977,3.6089568084,3.608924,0,0,1.11847,0.223694,0,21.1, -4.6, 0.3,0,0,1024,1024,1024,1024,0,0,0,0,23.7,0,0,74,3.994,3.98,0,0,0,0,4.346,99.5,3.6089568084,3.608924,38,Tripod,
385300,2022-08-12 04:51:25,0,0,3.608924,,,3.6089568084,4.593176,1.2079476,0,0,0,0,7.977,3.6089568084,3.608924,0,0,1.11847,0.447388,0,21, 1.1, 0.4,0,0,1024,1024,1024,1024,0,0,0,0,23.7,0,0,74,3.994,3.98,0,0,0,0,4.346,99.5,3.6089568084,3.608924,38,Tripod,
385400,2022-08-12 04:51:25,0,0,3.608924,,,3.6089568084,4.593176,1.2079476,0,0,0,0,7.973,3.6089568084,3.608924,0,0,1.11847,0.447388,0,21, 5.7, 0.3,0,0,1024,1024,1024,1024,0,0,0,0,23.7,0,0,74,3.993,3.98,0,0,0,0,4.401,99.5,3.6089568084,3.608924,38,Tripod,
385500,2022-08-12 04:51:25,0,0,3.608924,,,3.6089568084,4.593176,0.9171454,0,0,0,0,7.973,3.6089568084,3.608924,0,0,0.894776,0.223694,0,21, 6.1, 0.1,0,0,1024,1024,1024,1024,0,0,0,0,23.7,0,0,74,3.993,3.98,0,0,0,0,4.401,99.5,3.6089568084,3.608924,38,Tripod,
385600,2022-08-12 04:51:25,0,0,3.608924,,,3.6089568084,4.593176,0.7158208,0,0,0,0,7.973,3.6089568084,3.608924,0,0,0.671082,0.223694,0,20.9, 5.4, 0,0,0,1024,1024,1024,1024,0,0,0,0,23.7,0,0,74,3.993,3.98,0,0,0,0,4.401,99.5,3.6089568084,3.608924,38,Tripod,
385700,2022-08-12 04:51:25,0,0,3.608924,,,3.6089568084,4.593176,0.4921268,0,0,0,0,7.973,3.6089568084,3.608924,0,0,0.447388,0.223694,0,20.9, 4.3, -0.1,0,0,1024,1024,1024,1024,0,0,0,0,23.7,0,0,74,3.993,3.98,0,0,0,0,4.401,99.5,3.6089568084,3.608924,38,Tripod,
385800,2022-08-12 04:51:25,0,0,3.608924,,,3.6089568084,4.593176,0.223694,0,0,0,0,7.973,3.6089568084,3.608924,0,0,0.223694,0,0,20.9, 3.5, -0.1,0,0,1024,1024,1024,1024,0,0,0,0,23.7,0,0,74,3.993,3.98,0,0,0,0,4.401,99.5,3.6089568084,3.608924,38,Tripod,
385900,2022-08-12 04:51:25,0,0,3.608924,,,3.6089568084,4.593176,0,0,0,0,0,7.973,3.6089568084,3.608924,0,0,0,0,0,21, 2.6, -0.1,0,0,1024,1024,1024,1024,0,0,0,0,23.7,0,0,74,3.993,3.98,0,0,0,0,4.401,99.5,3.6089568084,3.608924,38,Tripod,
386000,2022-08-12 04:51:25,0,0,3.608924,,,3.6089568084,4.593176,0,0,0,0,0,7.973,3.6089568084,3.608924,0,0,0,0,0,21, 2.1, 0,0,0,1024,1024,1024,1024,0,0,0,0,23.7,0,0,74,3.993,3.98,0,0,0,0,4.401,99.5,3.6089568084,3.608924,38,Tripod,
386100,2022-08-12 04:51:26,0,0,3.608924,,,3.6089568084,4.593176,0,0,0,0,0,7.973,3.6089568084,3.608924,0,0,0,0,0,21, 1.6, 0,0,0,1024,1024,1024,1024,0,0,0,0,23.7,0,0,74,3.993,3.98,0,0,0,0,4.401,99.5,3.6089568084,3.608924,38,Tripod,
386200,2022-08-12 04:51:26,0,0,3.608924,,,3.6089568084,4.593176,0,0,0,0,0,7.973,3.6089568084,3.608924,0,0,0,0,0,21, 1.6, 0,0,0,1024,1024,1024,1024,0,0,0,0,23.7,0,0,74,3.993,3.98,0,0,0,0,4.401,99.5,3.6089568084,3.608924,38,Tripod,
386300,2022-08-12 04:51:26,0,0,3.608924,,,3.6089568084,4.593176,0,0,0,0,0,7.973,3.6089568084,3.608924,0,0,0,0,0,21, 1.1, -0.3,0,0,1024,1024,1024,1024,0,0,0,0,23.7,0,0,74,3.993,3.98,0,0,0,0,4.401,99.5,3.6089568084,3.608924,38,Tripod,
386400,2022-08-12 04:51:26,0,0,3.608924,,,3.6089568084,4.593176,0,0,0,0,0,7.971,3.6089568084,3.608924,0,0,0,0,0,21, 0.9, -0.3,0,0,1024,1024,1024,1024,0,0,0,0,23.7,0,0,74,3.992,3.979,0,0,0,0,4.336,99.5,3.6089568084,3.608924,38,Tripod,
386500,2022-08-12 04:51:26,0,0,3.608924,,,3.6089568084,4.593176,0,0,0,0,0,7.971,3.6089568084,3.608924,0,0,0,0,0,21.1, 0.7, -0.2,0,0,1024,1024,1024,1024,0,0,0,0,23.7,0,0,74,3.992,3.979,0,0,0,0,4.336,99.5,3.6089568084,3.608924,38,Tripod,
386600,2022-08-12 04:51:26,0,0,3.608924,,,3.6089568084,4.593176,0,0,0,0,0,7.971,3.6089568084,3.608924,0,0,0,0,0,21, 0.5, -0.1,0,0,1024,1024,1024,1024,0,0,0,0,23.7,0,0,74,3.992,3.979,0,0,0,0,4.336,99.5,3.6089568084,3.608924,38,Tripod,
386700,2022-08-12 04:51:26,0,0,3.608924,,,3.6089568084,4.593176,0,0,0,0,0,7.971,3.6089568084,3.608924,0,0,0,0,0,21.1, 0.5, -0.1,0,0,1024,1024,1024,1024,0,0,0,0,23.7,0,0,74,3.992,3.979,0,0,0,0,4.336,99.5,3.6089568084,3.608924,38,Tripod,
386800,2022-08-12 04:51:26,0,0,3.608924,,,3.6089568084,4.593176,0,0,0,0,0,7.971,3.6089568084,3.608924,0,0,0,0,0,21, 0.4, 0,0,0,1024,1024,1024,1024,0,0,0,0,23.7,0,0,74,3.992,3.979,0,0,0,0,4.336,99.5,3.6089568084,3.608924,38,Tripod,
386900,2022-08-12 04:51:26,0,0,3.608924,,,3.6089568084,4.593176,0,0,0,0,0,7.971,3.6089568084,3.608924,0,0,0,0,0,21.1, 0.4, 0,0,0,1024,1024,1024,1024,0,0,0,0,23.7,0,0,74,3.992,3.979,0,0,0,0,4.336,99.5,3.6089568084,3.608924,38,Tripod,
387000,2022-08-12 04:51:26,0,0,3.608924,,,3.6089568084,4.593176,0,0,0,0,0,7.971,3.6089568084,3.608924,0,0,0,0,0,21, 0.4, -0.1,0,0,1024,1024,1024,1024,0,0,0,0,23.7,0,0,74,3.992,3.979,0,0,0,0,4.336,99.5,3.6089568084,3.608924,38,Tripod,
387100,2022-08-12 04:51:27,0,0,3.608924,,,3.6089568084,4.593176,0,0,0,0,0,7.971,3.6089568084,3.608924,0,0,0,0,0,21, 0.3, 0,0,0,1024,1024,1024,1024,0,0,0,0,23.7,0,0,74,3.992,3.979,0,0,0,0,4.336,99.5,3.6089568084,3.608924,38,Tripod,
387200,2022-08-12 04:51:27,0,0,3.608924,,,3.6089568084,4.593176,0,0,0,0,0,7.971,3.6089568084,3.608924,0,0,0,0,0,21.1, 0.2, 0,0,0,1024,1024,1024,1024,0,0,0,0,23.7,0,0,74,3.992,3.979,0,0,0,0,4.336,99.5,3.6089568084,3.608924,38,Tripod,
387300,2022-08-12 04:51:27,0,0,3.608924,,,3.6089568084,4.593176,0,0,0,0,0,7.971,3.6089568084,3.608924,0,0,0,0,0,21.1, 0.2, 0.1,0,0,1024,1024,1024,1024,0,0,0,0,23.7,0,0,74,3.992,3.979,0,0,0,0,4.336,99.5,3.6089568084,3.608924,38,Tripod,
387400,2022-08-12 04:51:27,0,0,3.608924,,,3.6089568084,4.593176,0,0,0,0,0,7.971,3.6089568084,3.608924,0,0,0,0,0,21.1, 0.1, 0.1,0,0,1024,1024,1024,1024,0,0,0,0,23.7,0,0,74,3.992,3.979,0,0,0,0,4.336,99.5,3.6089568084,3.608924,38,Tripod,
387500,2022-08-12 04:51:27,0,0,3.608924,,,3.6089568084,4.593176,0,0,0,0,0,7.969,3.6089568084,3.608924,0,0,0,0,0,21.1, 0, 0,0,0,1024,1024,1024,1024,0,0,0,0,23.7,0,0,74,3.991,3.978,0,0,0,0,4.33,99.5,3.6089568084,3.608924,38,Tripod,
387600,2022-08-12 04:51:27,0,0,3.937008,,,3.9370408084,4.593176,0,0,0,0,0,7.969,3.9370408084,3.937008,0,0,0,0,0,21.1, 0, 0.1,0,0,1024,1024,1024,1024,0,0,0,0,23.7,0,0,74,3.991,3.978,0,0,0,0,4.33,99.5,3.9370408084,3.937008,38,Tripod,
387700,2022-08-12 04:51:27,0,0,3.937008,,,3.9370408084,4.593176,0,0,0,0,0,7.969,3.9370408084,3.937008,0,0,0,0,0,21.1, 0, 0.1,0,0,1024,1024,1024,1024,0,0,0,0,23.7,0,0,74,3.991,3.978,0,0,0,0,4.33,99.5,3.9370408084,3.937008,38,Tripod,
387800,2022-08-12 04:51:27,0,0,3.608924,,,3.6089568084,4.593176,0,0,0,0,0,7.969,3.9370408084,3.937008,0,0,0,0,0,21.1, -0.1, 0.2,0,0,1024,1024,1024,1024,0,0,0,0,23.7,0,0,74,3.991,3.978,0,0,0,0,4.33,99.5,3.6089568084,3.608924,38,Tripod,
387900,2022-08-12 04:51:27,0,0,3.608924,,,3.6089568084,4.593176,0,0,0,0,0,7.969,3.9370408084,3.937008,0,0,0,0,0,21.1, -0.1, 0.2,0,0,1024,1024,1024,1024,0,0,0,0,23.7,0,0,74,3.991,3.978,0,0,0,0,4.33,99.5,3.6089568084,3.608924,38,Tripod,
388000,2022-08-12 04:51:27,0,0,3.608924,,,3.6089568084,4.593176,0,0,0,0,0,7.969,3.9370408084,3.937008,0,0,0,0,0,21.1, 0, 0.3,0,0,1024,1024,1024,1024,0,0,0,0,23.7,0,0,74,3.991,3.978,0,0,0,0,4.33,99.5,3.6089568084,3.608924,38,Tripod,
388100,2022-08-12 04:51:28,0,0,3.608924,,,3.6089568084,4.593176,0,0,0,0,0,7.969,3.9370408084,3.937008,0,0,0,0,0,21.1, -0.1, 0.3,0,0,1024,1024,1024,1024,0,0,0,0,23.7,0,0,74,3.991,3.978,0,0,0,0,4.33,99.5,3.6089568084,3.608924,38,Tripod,
388200,2022-08-12 04:51:28,0,0,3.608924,,,3.6089568084,4.593176,0,0,0,0,0,7.969,3.9370408084,3.937008,0,0,0,0,0,21.1, -0.2, 0.2,0,0,1024,1024,1024,1024,0,0,0,0,23.7,0,0,74,3.991,3.978,0,0,0,0,4.33,99.5,3.6089568084,3.608924,38,Tripod,
388300,2022-08-12 04:51:28,0,0,3.608924,,,3.6089568084,4.593176,0,0,0,0,0,7.969,3.9370408084,3.937008,0,0,0,0,0,21.1, -0.1, 0,0,0,1024,1024,1024,1024,0,0,0,0,23.7,0,0,74,3.991,3.978,0,0,0,0,4.33,99.5,3.6089568084,3.608924,38,Tripod,
388400,2022-08-12 04:51:28,0,0,3.608924,,,3.6089568084,4.593176,0,0,0,0,0,7.969,3.9370408084,3.937008,0,0,0,0,0,21.1, 0, 0,0,0,1024,1024,1024,1024,0,0,0,0,23.7,0,0,74,3.991,3.978,0,0,0,0,4.33,99.5,3.6089568084,3.608924,38,Tripod,
388500,2022-08-12 04:51:28,0,0,3.608924,,,3.6089568084,4.593176,0,0,0,0,0,7.968,3.9370408084,3.937008,0,0,0,0,0,21.1, 0, 0,0,0,1024,1024,1024,1024,0,0,0,0,23.7,0,0,74,3.99,3.977,0,0,0,0,4.327,99.68,3.6089568084,3.608924,38,Tripod,
388600,2022-08-12 04:51:28,0,0,3.608924,,,3.6089568084,4.593176,0,0,0,0,0,7.968,3.9370408084,3.937008,0,0,0,0,0,21.1, 0, 0,0,0,1024,1024,1024,1024,0,0,0,0,23.7,0,0,74,3.99,3.977,0,0,0,0,4.327,99.68,3.6089568084,3.608924,38,Tripod,
388700,2022-08-12 04:51:28,0,0,3.608924,,,3.6089568084,4.593176,0,0,0,0,0,7.968,3.9370408084,3.937008,0,0,0,0,0,21.1, -0.1, -0.2,0,0,1024,1024,1024,1024,0,0,0,0,23.7,0,0,74,3.99,3.977,0,0,0,0,4.327,99.68,3.6089568084,3.608924,38,Tripod,
388800,2022-08-12 04:51:28,0,0,3.608924,,,3.6089568084,4.593176,0,0,0,0,0,7.968,3.9370408084,3.937008,0,0,0,0,0,21.1, -0.1, -0.1,0,0,1024,1024,1024,1024,0,0,0,0,23.7,0,0,74,3.99,3.977,0,0,0,0,4.327,99.68,3.6089568084,3.608924,38,Tripod,
388900,2022-08-12 04:51:28,0,0,3.608924,,,3.6089568084,4.593176,0,0,0,0,0,7.968,3.9370408084,3.937008,0,0,0,0,0,21.1, -0.1, 0,0,0,1024,1024,1024,1024,0,0,0,0,23.7,0,0,74,3.99,3.977,0,0,0,0,4.327,99.68,3.6089568084,3.608924,38,Tripod,
389000,2022-08-12 04:51:29,0,0,3.608924,,,3.6089568084,4.593176,0,0,0,0,0,7.968,3.9370408084,3.937008,0,0,0,0,0,21.2, 0, 0,0,0,1024,1024,1024,1024,0,0,0,0,23.7,0,0,74,3.99,3.977,0,0,0,0,4.327,99.68,3.6089568084,3.608924,38,Tripod,
389100,2022-08-12 04:51:29,0,0,3.608924,,,3.6089568084,4.593176,0,0,0,0,0,7.968,3.9370408084,3.937008,0,0,0,0,0,21.1, 0, 0,0,0,1024,1024,1024,1024,0,0,0,0,23.7,0,0,74,3.99,3.977,0,0,0,0,4.327,99.68,3.6089568084,3.608924,38,Tripod,
389200,2022-08-12 04:51:29,0,0,3.608924,,,3.6089568084,4.593176,0,0,0,0,0,7.968,3.9370408084,3.937008,0,0,0,0,0,21.1, 0, 0.1,0,0,1024,1024,1024,1024,0,0,0,0,23.7,0,0,74,3.99,3.977,0,0,0,0,4.327,99.68,3.6089568084,3.608924,38,Tripod,
389300,2022-08-12 04:51:29,0,0,3.608924,,,3.6089568084,4.593176,0,0,0,0,0,7.968,3.9370408084,3.937008,0,0,0,0,0,21.1, 0, 0.1,0,0,1024,1024,1024,1024,0,0,0,0,23.7,0,0,74,3.99,3.977,0,0,0,0,4.327,99.68,3.6089568084,3.608924,38,Tripod,
389400,2022-08-12 04:51:29,0,0,3.608924,,,3.6089568084,4.593176,0,0,0,0,0,7.968,3.9370408084,3.937008,0,0,0,0,0,21.1, 0, 0.2,0,0,1024,1024,1024,1024,0,0,0,0,23.7,0,0,74,3.99,3.977,0,0,0,0,4.327,99.68,3.6089568084,3.608924,38,Tripod,
389500,2022-08-12 04:51:29,0,0,3.608924,,,3.6089568084,4.593176,0,0,0,0,0,7.968,3.9370408084,3.937008,0,0,0,0,0,21.1, 0, 0.1,0,0,1024,1024,1024,1024,0,0,0,0,23.7,0,0,74,3.99,3.977,0,0,0,0,4.306,99.68,3.6089568084,3.608924,38,Tripod,
389600,2022-08-12 04:51:29,0,0,3.608924,,,3.6089568084,4.593176,0,0,0,0,0,7.968,3.9370408084,3.937008,0,0,0,0,0,21.1, 0.2, 0.3,0,0,1024,1024,1024,1024,0,0,0,0,23.7,0,0,74,3.99,3.977,0,0,0,0,4.306,99.68,3.6089568084,3.608924,38,Tripod,
389700,2022-08-12 04:51:29,0,0,3.608924,,,3.6089568084,4.593176,0,0,0,0,0,7.968,3.9370408084,3.937008,0,0,0,0,0,21.1, 0.2, 0.2,0,0,1024,1024,1024,1024,0,0,0,0,23.7,0,0,74,3.99,3.977,0,0,0,0,4.306,99.68,3.6089568084,3.608924,38,Tripod,
389800,2022-08-12 04:51:29,0,0,3.608924,,,3.6089568084,4.593176,0,0,0,0,0,7.968,3.9370408084,3.937008,0,0,0,0,0,21.1, 0, 0,0,0,1024,1024,1024,1024,0,0,0,0,23.7,0,0,74,3.99,3.977,0,0,0,0,4.306,99.68,3.6089568084,3.608924,38,Tripod,
389900,2022-08-12 04:51:29,0,0,3.608924,,,3.6089568084,4.593176,0,0,0,0,0,7.968,3.9370408084,3.937008,0,0,0,0,0,21.1, 0, 0.1,0,0,1024,1024,1024,1024,0,0,0,0,23.7,0,0,74,3.99,3.977,0,0,0,0,4.306,99.68,3.6089568084,3.608924,38,Tripod,
390000,2022-08-12 04:51:30,0,0,3.608924,,,3.6089568084,4.593176,0,0,0,0,0,7.968,3.9370408084,3.937008,0,0,0,0,0,21, 0, 0.2,0,0,1024,1024,1024,1024,0,0,0,0,23.7,0,0,74,3.99,3.977,0,0,0,0,4.306,99.68,3.6089568084,3.608924,38,Tripod,
390100,2022-08-12 04:51:30,0,0,3.608924,,,3.6089568084,4.593176,0,0,0,0,0,7.968,3.9370408084,3.937008,0,0,0,0,0,21, 0, 0,0,0,1024,1024,1024,1024,0,0,0,0,23.7,0,0,74,3.99,3.977,0,0,0,0,4.306,99.68,3.6089568084,3.608924,38,Tripod,
390200,2022-08-12 04:51:30,0,0,3.608924,,,3.6089568084,4.593176,0,0,0,0,0,7.968,3.9370408084,3.937008,0,0,0,0,0,21, 0, 0,0,0,1024,1024,1024,1024,0,0,0,0,23.7,0,0,74,3.99,3.977,0,0,0,0,4.306,99.68,3.6089568084,3.608924,38,Tripod,
390300,2022-08-12 04:51:30,0,0,3.608924,,,3.6089568084,4.593176,0,0,0,0,0,7.968,3.9370408084,3.937008,0,0,0,0,0,21.1, 0, 0,0,0,1024,1024,1024,1024,0,0,0,0,23.7,0,0,74,3.99,3.977,0,0,0,0,4.306,99.68,3.6089568084,3.608924,38,Tripod,
390400,2022-08-12 04:51:30,0,0,3.608924,,,3.6089568084,4.593176,0,0,0,0,0,7.968,3.9370408084,3.937008,0,0,0,0,0,21.1, 0, 0.1,0,0,1024,1024,1024,1024,0,0,0,0,23.7,0,0,74,3.99,3.977,0,0,0,0,4.306,99.68,3.6089568084,3.608924,38,Tripod,
390500,2022-08-12 04:51:30,0,0,3.608924,,,3.6089568084,4.593176,0,0,0,0,0,7.965,3.9370408084,3.937008,0,0,0,0,0,21.1, 0, 0,0,0,1024,1024,1024,1024,0,0,0,0,23.7,0,0,74,3.988,3.976,0,0,0,0,4.3,99.68,3.6089568084,3.608924,38,Tripod,
390600,2022-08-12 04:51:30,0,0,3.608924,,,3.6089568084,4.593176,0,0,0,0,0,7.965,3.9370408084,3.937008,0,0,0,0,0,21, 0.1, 0,0,0,1024,1024,1024,1024,0,0,0,0,23.7,0,0,74,3.988,3.976,0,0,0,0,4.3,99.68,3.6089568084,3.608924,38,Tripod,
390700,2022-08-12 04:51:30,0,0,3.608924,,,3.6089568084,4.593176,0,0,0,0,0,7.965,3.9370408084,3.937008,0,0,0,0,0,21.1, 0, 0.5,0,0,1024,1024,1024,1024,0,0,0,0,23.7,0,0,74,3.988,3.976,0,0,0,0,4.3,99.68,3.6089568084,3.608924,38,Tripod,
390800,2022-08-12 04:51:30,0,0,3.608924,,,3.6089568084,4.593176,0,0,0,0,0,7.965,3.9370408084,3.937008,0,0,0,0,0,21, 0, 0.4,0,0,1024,1024,1024,1024,0,0,0,0,23.7,0,0,74,3.988,3.976,0,0,0,0,4.3,99.68,3.6089568084,3.608924,38,Tripod,
390900,2022-08-12 04:51:30,0,0,3.608924,,,3.6089568084,4.593176,0,0,0,0,0,7.965,3.9370408084,3.937008,0,0,0,0,0,21.1, 0.3, 0.5,0,0,1024,1024,1024,1024,0,0,0,0,23.7,0,0,74,3.988,3.976,0,0,0,0,4.3,99.68,3.6089568084,3.608924,38,Tripod,
391000,2022-08-12 04:51:30,0,0,3.608924,,,3.6089568084,4.593176,0,0,0,0,0,7.965,3.9370408084,3.937008,0,0,0,0,0,21, 0.2, -0.1,0,0,1024,1024,1024,1024,0,0,0,0,23.7,0,0,74,3.988,3.976,0,0,0,0,4.3,99.68,3.6089568084,3.608924,38,Tripod,
391100,2022-08-12 04:51:31,0,0,3.608924,,,3.6089568084,4.593176,0,0,0,0,0,7.965,3.9370408084,3.937008,0,0,0,0,0,21.1, 0, -0.1,0,0,1024,1024,1024,1024,0,0,0,0,23.7,0,0,74,3.988,3.976,0,0,0,0,4.3,99.68,3.6089568084,3.608924,38,Tripod,
391200,2022-08-12 04:51:31,0,0,3.608924,,,3.6089568084,4.593176,0,0,0,0,0,7.965,3.9370408084,3.937008,0,0,0,0,0,21.1, 0, 0.3,0,0,1024,1024,1024,1024,0,0,0,0,23.7,0,0,74,3.988,3.976,0,0,0,0,4.3,99.68,3.6089568084,3.608924,38,Tripod,
391300,2022-08-12 04:51:31,0,0,3.608924,,,3.6089568084,4.593176,0,0,0,0,0,7.965,3.9370408084,3.937008,0,0,0,0,0,21.1, 0, 0.5,0,0,1024,1024,1024,1024,0,0,0,0,23.7,0,0,74,3.988,3.976,0,0,0,0,4.3,99.68,3.6089568084,3.608924,38,Tripod,
391400,2022-08-12 04:51:31,0,0,3.608924,,,3.6089568084,4.593176,0,0,0,0,0,7.965,3.9370408084,3.937008,0,0,0,0,0,21.2, 0, 0.6,0,0,1024,1024,1024,1024,0,0,0,0,23.7,0,0,74,3.988,3.976,0,0,0,0,4.3,99.68,3.6089568084,3.608924,38,Tripod,
391500,2022-08-12 04:51:31,0,0,3.608924,,,3.6089568084,4.593176,0,0,0,0,0,7.963,3.9370408084,3.937008,0,0,0,0,0,21.2, 0.1, 1.2,0,0,1024,1024,1024,1024,0,0,0,0,23.7,0,0,74,3.988,3.976,0,0,0,0,4.332,99.68,3.6089568084,3.608924,38,Tripod,
391600,2022-08-12 04:51:31,0,0,3.608924,,,3.6089568084,4.593176,0,0,0,0,0,7.963,3.9370408084,3.937008,0,0,0,0,0,21.1, 0, 0.8,0,0,1024,1024,1024,1024,0,0,0,0,23.7,0,0,74,3.988,3.976,0,0,0,0,4.332,99.68,3.6089568084,3.608924,38,Tripod,
391700,2022-08-12 04:51:31,0,0,3.608924,,,3.6089568084,4.593176,0,0,0,0,0,7.963,3.9370408084,3.937008,0,0,0,0,0,21, 0, 0.5,0,0,1024,1024,1024,1024,0,0,0,0,23.7,0,0,74,3.988,3.976,0,0,0,0,4.332,99.68,3.6089568084,3.608924,38,Tripod,
