time(millisecond),datetime(utc),latitude,longitude,height_above_takeoff(feet),height_above_ground_at_drone_location(feet),ground_elevation_at_drone_location(feet),altitude_above_seaLevel(feet),height_sonar(feet),speed(mph),distance(feet),mileage(feet),satellites,gpslevel,voltage(v),max_altitude(feet),max_ascent(feet),max_speed(mph),max_distance(feet), xSpeed(mph), ySpeed(mph), zSpeed(mph), compass_heading(degrees), pitch(degrees), roll(degrees),isPhoto,isVideo,rc_elevator,rc_aileron,rc_throttle,rc_rudder,rc_elevator(percent),rc_aileron(percent),rc_throttle(percent),rc_rudder(percent),gimbal_heading(degrees),gimbal_pitch(degrees),gimbal_roll(degrees),battery_percent,voltageCell1,voltageCell2,voltageCell3,voltageCell4,voltageCell5,voltageCell6,current(A),battery_temperature(f),altitude(feet),ascent(feet),flycStateRaw,flycState,message
0,2023-10-20 19:33:53,-34.9182534641444,-56.1685600742339,0,0,26.242527414564,26.242527414564,0.328084,0,0,0,21,5,0,26.242527414564,0,0,0,0,0,-0.447388,266.3, -7.2, 1.9,0,0,364,364,364,1684,-100,-100,-100,100,277,0,0,46,3.875,3.873,0,0,0,0,0,95,26.242527414564,0,41,Motors_Started,"Aeronave en Zona de altitud restringida (150). Vuela con precaución (Code: 190001). Error de calibración del estabilizador. Reinicia la aeronave o contacta con la Asistencia DJI (Code: 40011)"
100,2023-10-20 19:33:53,-34.9182535397903,-56.1685600825913,0,0.032808399999999,26.209719014564,26.242527414564,0.328084,0,0.0277123696532,0.0277123696532,21,5,0,26.242527414564,0,0,0.0277123696532,0,0,-0.447388,267.1, -7.1, 0.7,0,0,364,364,364,1684,-100,-100,-100,100,276.7,0,0,46,3.875,3.873,0,0,0,0,0,95,26.242527414564,0,41,Motors_Started,
200,2023-10-20 19:33:53,-34.918253587481,-56.1685600946955,0,0.032808399999999,26.209719014564,26.242527414564,0.328084,0,0.045413715364,0.045485237676,21,5,0,26.242527414564,0,0,0.045413715364,0,0,-0.447388,266, -4.1, 4.9,0,0,364,364,364,1684,-100,-100,-100,100,276.8,0,0,46,3.875,3.873,0,0,0,0,0,95,26.242527414564,0,41,Motors_Started,
300,2023-10-20 19:33:53,-34.9182537819409,-56.1685600653107,0,0.032808399999999,26.209719014564,26.242527414564,0.328084,0.223694,0.115978678252,0.116976381696,21,5,0,26.242527414564,0,0.223694,0.115978678252,-0.223694,0,-0.223694,264.3, -4.6, 0.7,0,0,364,364,364,1684,-100,-100,-100,100,275.5,0,0,46,3.875,3.873,0,0,0,0,0,95,26.242527414564,0,41,Motors_Started,
400,2023-10-20 19:33:53,-34.9182538984954,-56.1685599955196,0,0.032808399999999,26.209719014564,26.242527414564,0.328084,0,0.160212931636,0.16435039896,21,5,0,26.242527414564,0,0.223694,0.160212931636,0,0,0,264.5, -4.8, -1,0,0,364,364,364,1684,-100,-100,-100,100,274.8,0,0,46,3.875,3.873,0,0,0,0,0,95,26.242527414564,0,41,Motors_Started,
500,2023-10-20 19:33:53,-34.918253917998,-56.1685599351237,0,0.032808399999999,26.209719014564,26.242527414564,0.328084,0,0.170737866356,0.183769362836,21,5,0,26.242527414564,0,0.223694,0.170737866356,0,0,0,262.5, -5.1, 0,0,0,364,364,364,1684,-100,-100,-100,100,273.6,0,0,46,3.875,3.873,0,0,0,0,0,95,26.242527414564,0,41,Motors_Started,
600,2023-10-20 19:33:53,-34.9182539338778,-56.1685599599019,0,0.032808399999999,26.209719014564,26.242527414564,0.328084,0,0.174761816616,0.19317749962,21,5,0,26.242527414564,0,0.223694,0.174761816616,0,0,0,262.5, -4.8, 0.2,0,0,364,364,364,1684,-100,-100,-100,100,272.8,0,0,46,3.875,3.873,0,0,0,0,0,95,26.242527414564,0,41,Motors_Started,"Setting new Return-To-Home altitude to 100m (328 ft). Data Recorder File Index is 18. Setting new Maximum Flight Altitude to 120m (394 ft)"
700,2023-10-20 19:33:53,-34.918254005266,-56.1685603241428,0,0.032808399999999,26.209719014564,26.242527414564,0.328084,0,0.211109914892,0.305215560948,21,5,0,26.242527414564,0,0.223694,0.211109914892,0,0,0,262.1, -4.4, 0,0,0,364,364,364,1684,-100,-100,-100,100,272.4,0,0,46,3.875,3.873,0,0,0,0,0,95,26.242527414564,0,41,Motors_Started,
800,2023-10-20 19:33:53,-34.9182541404209,-56.1685603314749,0,0.032808399999999,26.209719014564,26.242527414564,0.328084,0,0.258461950528,0.354576783,21,5,0,26.242527414564,0,0.223694,0.258461950528,0,0,0,261.7, -3.7, 0.2,0,0,364,364,364,1684,-100,-100,-100,100,272,0,0,46,3.875,3.873,0,0,0,0,0,95,26.242527414564,0,41,Motors_Started,
900,2023-10-20 19:33:53,-34.9182543152187,-56.1685603188293,0,0.032808399999999,26.209719014564,26.242527414564,0.328084,0,0.319019367164,0.41846129948,21,5,0,26.242527414564,0,0.223694,0.319019367164,0,0,0,261.5, -3.6, 0.3,0,0,364,364,364,1684,-100,-100,-100,100,271.3,0,0,46,3.875,3.873,0,0,0,0,0,95,26.242527414564,0,41,Motors_Started,
1000,2023-10-20 19:33:54,-34.9182543471235,-56.1685603500344,0,0.032808399999999,26.209719014564,26.242527414564,0.328084,0,0.33255250408,0.4333825598,21,5,0,26.242527414564,0,0.223694,0.33255250408,0,0,0,261.3, -3.7, 0,0,0,364,364,364,1684,-100,-100,-100,100,271.2,0,0,46,3.875,3.873,0,0,0,0,0,95,26.242527414564,0,41,Motors_Started,
1100,2023-10-20 19:33:54,-34.918254444681,-56.1685606260872,0,0.065616799999999,26.176910614564,26.242527414564,0.328084,0,0.39400591812,0.52331366504,21,5,7.758,26.242527414564,0,0.223694,0.39400591812,0,0,0,261.2, -3.6, 0.2,0,0,1024,1024,900,1342,0,0,-19,48,271.1,0,0,46,3.875,3.873,0,0,0,0,1.052,95,26.242527414564,0,10,Assisted_Takeoff,
1200,2023-10-20 19:33:54,-34.9182544225343,-56.1685606199226,0,0.065616799999999,26.176910614564,26.242527414564,0.328084,0,0.38589896248,0.53160106688,21,5,7.758,26.242527414564,0,0.223694,0.39400591812,0,0,0,261, -3.5, 0,0,0,1024,1024,900,1342,0,0,-19,48,271,0,0,46,3.875,3.873,0,0,0,0,1.052,95,26.242527414564,0,10,Assisted_Takeoff,
1300,2023-10-20 19:33:54,-34.9182543956342,-56.16856058171,0,0.065616799999999,26.176910614564,26.242527414564,0.328084,0,0.37222114052,0.54666668416,21,5,7.758,26.242527414564,0,0.223694,0.39400591812,0,0,0,260.6, -3.3, 0.1,0,0,1024,1024,1197,1024,0,0,26,0,270.7,0,0,46,3.875,3.873,0,0,0,0,1.052,95,26.242527414564,0,10,Assisted_Takeoff,
1400,2023-10-20 19:33:54,-34.9182543659838,-56.1685606062482,0,0.065616799999999,26.176910614564,26.242527414564,0.328084,0,0.36550854188,0.55974083156,21,5,7.758,26.242527414564,0,0.223694,0.39400591812,0,0,0,260.6, -3.4, 0.3,0,0,1024,1024,1488,1075,0,0,70,8,270.6,0,0,46,3.875,3.873,0,0,0,0,1.052,95,26.242527414564,0,10,Assisted_Takeoff,
1500,2023-10-20 19:33:54,-34.9182541891594,-56.1685607403043,0,0.065616799999999,26.176910614564,26.242527414564,0.328084,0,0.33117783212,0.63570540092,21,5,7.758,26.242527414564,0,0.223694,0.39400591812,0,0,0,260.5, -3.1, 0.3,0,0,1024,1024,1614,1097,0,0,89,11,270.5,0,0,46,3.875,3.873,0,0,0,0,1.052,95,26.242527414564,0,10,Assisted_Takeoff,
1600,2023-10-20 19:33:54,-34.9182541482178,-56.1685607940233,0,0.065616799999999,26.176910614564,26.242527414564,0.328084,0,0.32963911816,0.65764765884,21,5,7.758,26.242527414564,0,0.223694,0.39400591812,0,0,0,260.3, -2.2, 0.3,0,0,1024,1024,1684,1166,0,0,100,22,270.5,0,0,46,3.875,3.873,0,0,0,0,1.052,95,26.242527414564,0,6,P-GPS,
1700,2023-10-20 19:33:54,-34.9182541049685,-56.1685608473364,0,0.065616799999999,26.176910614564,26.242527414564,0.328084,0,0.3288714016,0.68008204276,21,5,7.758,26.242527414564,0,0.223694,0.39400591812,0,0,0,260, -1.9, 0.1,0,0,1024,1024,1684,1047,0,0,100,3,270.7,0,0,46,3.875,3.873,0,0,0,0,1.052,95,26.242527414564,0,6,P-GPS,
1800,2023-10-20 19:33:54,-34.9182541283969,-56.1685609114247,0,0.065616799999999,26.176910614564,26.242527414564,0.328084,0,0.34851707152,0.70107285708,21,5,7.758,26.242527414564,0,0.223694,0.39400591812,0,0,0,260.2, -1.1, 0,0,0,1024,1024,1684,1045,0,0,100,3,271,0,0,46,3.875,3.873,0,0,0,0,1.052,95,26.242527414564,0,6,P-GPS,
1900,2023-10-20 19:33:54,-34.9182541860374,-56.1685609717529,0,0.065616799999999,26.176910614564,26.242527414564,0.328084,0,0.37611877844,0.72878611256,21,5,7.758,26.242527414564,0,0.223694,0.39400591812,0,0,0,260.3, -0.4, 0,0,0,1024,1024,1684,1024,0,0,100,0,271.1,0,0,46,3.875,3.873,0,0,0,0,1.052,95,26.242527414564,0,6,P-GPS,
2000,2023-10-20 19:33:55,-34.9182542279051,-56.1685611494255,0,0.065616799999999,26.176910614564,26.242527414564,0.328084,0,0.42557744144,0.78409123244,21,5,7.758,26.242527414564,0,0.223694,0.42557744144,0,0,0,260.2, -0.3, 0.2,0,0,1024,1024,1684,1024,0,0,100,0,271.1,0,0,46,3.875,3.873,0,0,0,0,1.052,95,26.242527414564,0,6,P-GPS,
2100,2023-10-20 19:33:55,-34.9182542636882,-56.1685610825911,0,0.065616799999999,26.176910614564,26.242527414564,0.328084,0.223694,0.41964240188,0.8079724668,21,5,7.755,26.242527414564,0,0.223694,0.42557744144,-0.223694,0,0,260.6, 0.3, 0.5,0,0,1024,1024,1684,1024,0,0,100,0,271.1,0,0,46,3.857,3.854,0,0,0,0,1.522,95,26.242527414564,0,6,P-GPS,
2200,2023-10-20 19:33:55,-34.9182543567965,-56.1685610495472,0,0.065616799999999,26.176910614564,26.242527414564,0.328084,0.223694,0.4372703552,0.84334976452,21,5,7.755,26.242527414564,0,0.223694,0.4372703552,-0.223694,0,-0.223694,260.9, 0.7, 1.3,0,0,1024,1024,1684,1024,0,0,100,0,271.1,0,0,46,3.857,3.854,0,0,0,0,1.522,95,26.242527414564,0,6,P-GPS,
2300,2023-10-20 19:33:55,-34.918254474016,-56.1685610326601,0,0.065616799999999,26.176910614564,26.242527414564,0.328084,0.223694,0.46687009368,0.8864173512,21,5,7.755,26.242527414564,0,0.223694,0.46687009368,-0.223694,0,-0.671082,260.7, -0.1, 1.9,0,0,1024,1024,1671,1024,0,0,98,0,271.1,0,0,46,3.857,3.854,0,0,0,0,1.522,95,26.242527414564,0,6,P-GPS,
2400,2023-10-20 19:33:55,-34.9182545232466,-56.1685608867672,0,0.098425199999998,26.144102214564,26.242527414564,0.656168,0,0.4565124818,0.9336122346,21,5,7.755,26.242527414564,0,0.223694,0.46687009368,0,0,-1.342164,260.7, -0.6, 2.3,0,0,1024,1024,1684,1024,0,0,100,0,271.1,0,0,46,3.857,3.854,0,0,0,0,1.522,95,26.242527414564,0,6,P-GPS,
2500,2023-10-20 19:33:55,-34.9182545571523,-56.16856087127,0.328084,0.4265092,26.144102214564,26.570611414564,0.984252,0,0.4646325608,0.94682417728,21,5,7.755,26.570611414564,0.328084,0.223694,0.46687009368,0,0,-2.013246,261, -1.1, 2.8,0,0,1024,1024,1450,1024,0,0,65,0,271.1,0,0,46,3.857,3.854,0,0,0,0,1.522,95,26.570611414564,0.328084,6,P-GPS,
2600,2023-10-20 19:33:55,-34.9182545527075,-56.1685609170368,0.656168,0.7545932,26.144102214564,26.898695414564,1.64042,0,0.47043636676,0.96061026696,21,5,7.755,26.898695414564,0.656168,0.223694,0.47043636676,0,0,-2.684328,261, -0.5, 2.5,0,0,1024,1024,1024,1024,0,0,0,0,271.1,0,0,46,3.857,3.854,0,0,0,0,1.522,95,26.898695414564,0.656168,6,P-GPS,
2700,2023-10-20 19:33:55,-34.9182545069982,-56.1685610299045,1.312336,1.4107612,26.144102214564,27.554863414564,2.296588,0.223694,0.47592849292,0.99827102932,21,5,7.755,27.554863414564,1.312336,0.223694,0.47592849292,0,-0.223694,-2.908022,260.9, 1.1, 0.7,0,0,1024,1024,1024,1024,0,0,0,0,271.1,0,0,46,3.857,3.854,0,0,0,0,1.522,95,27.554863414564,1.312336,6,P-GPS,
2800,2023-10-20 19:33:55,-34.918254368016,-56.168561107831,1.64042,1.7060368,26.176910614564,27.882947414564,2.952756,0.223694,0.45207022444,1.05408139856,21,5,7.755,27.882947414564,1.64042,0.223694,0.47592849292,0,-0.223694,-2.684328,260.8, 2.5, -0.3,0,0,1024,1024,1024,1024,0,0,0,0,271.1,0,0,46,3.857,3.854,0,0,0,0,1.522,95,27.882947414564,1.64042,6,P-GPS,
2900,2023-10-20 19:33:55,-34.9182542868765,-56.168561231697,1.968504,2.0341208,26.176910614564,28.211031414564,3.28084,0.223694,0.4582677312,1.10151250244,21,5,7.755,28.211031414564,1.968504,0.223694,0.47592849292,0,-0.223694,-2.23694,260.7, 2.5, -0.4,0,0,1024,1024,1024,1024,0,0,0,0,271.1,0,0,46,3.857,3.854,0,0,0,0,1.522,95,28.211031414564,1.968504,6,P-GPS,
3000,2023-10-20 19:33:56,-34.9182542001375,-56.1685613098857,2.296588,2.3622048,26.176910614564,28.539115414564,3.608924,0.223694,0.45689962092,1.1408628974,21,5,7.755,28.539115414564,2.296588,0.223694,0.47592849292,0,-0.223694,-1.565858,260.8, 2.8, 0.1,0,0,1024,1024,1024,1024,0,0,0,0,271.1,0,0,46,3.857,3.854,0,0,0,0,1.522,95,28.539115414564,2.296588,6,P-GPS,
3100,2023-10-20 19:33:56,-34.9182541071352,-56.1685613754892,2.296588,2.3622048,26.176910614564,28.539115414564,3.937008,0.223694,0.4545111694,1.18006237372,21,5,7.755,28.539115414564,2.296588,0.223694,0.47592849292,0,-0.223694,-1.11847,260.7, 3.8, -0.2,0,0,1024,1024,1024,1024,0,0,0,0,271.1,0,0,46,3.857,3.854,0,0,0,0,1.522,95,28.539115414564,2.296588,6,P-GPS,
3200,2023-10-20 19:33:56,-34.9182538309755,-56.1685614922409,2.624672,2.6902888,26.176910614564,28.867199414564,4.265092,0.223694,0.44482941056,1.28670279708,21,5,7.607,28.867199414564,2.624672,0.223694,0.47592849292,0,-0.223694,-0.447388,260.7, 3.7, -0.4,0,0,1024,1024,1024,1024,0,0,0,0,271.1,0,0,46,3.83,3.827,0,0,0,0,4.912,94.82,28.867199414564,2.624672,6,P-GPS,
3300,2023-10-20 19:33:56,-34.9182537225902,-56.1685616336366,2.624672,2.7230972,26.144102214564,28.867199414564,4.265092,0,0.47595473964,1.34460962308,21,5,7.607,28.867199414564,2.624672,0.223694,0.47595473964,0,0,-0.223694,260.6, 3, -1.4,0,0,1024,1024,1024,1024,0,0,0,0,271.1,0,0,46,3.83,3.827,0,0,0,0,4.912,94.82,28.867199414564,2.624672,6,P-GPS,
3400,2023-10-20 19:33:56,-34.9182536488372,-56.1685617187657,2.624672,2.7230972,26.144102214564,28.867199414564,4.265092,0,0.49658138072,1.38165686836,21,5,7.607,28.867199414564,2.624672,0.223694,0.49658138072,0,0,0,260.8, 2.4, -0.3,0,0,1024,1024,1024,1024,0,0,0,0,271.1,0,0,46,3.83,3.827,0,0,0,0,4.912,94.82,28.867199414564,2.624672,6,P-GPS,
3500,2023-10-20 19:33:56,-34.9182536054508,-56.1685617753412,2.624672,2.7230972,26.144102214564,28.867199414564,4.265092,0,0.5115157644,1.40483272212,21,5,7.607,28.867199414564,2.624672,0.223694,0.5115157644,0,0,0,261.1, 2.3, 1.2,0,0,1024,1024,1024,1024,0,0,0,0,271.1,0,0,46,3.83,3.827,0,0,0,0,4.912,94.82,28.867199414564,2.624672,6,P-GPS,
3600,2023-10-20 19:33:56,-34.9182535289929,-56.1685618439547,2.624672,2.7230972,26.144102214564,28.867199414564,4.265092,0,0.52996720856,1.43946526916,21,5,7.607,28.867199414564,2.624672,0.223694,0.52996720856,0,0,0,261.3, 2.5, 1.5,0,0,1024,1024,1024,1024,0,0,0,0,271.1,0,0,46,3.83,3.827,0,0,0,0,4.912,94.82,28.867199414564,2.624672,6,P-GPS,
3700,2023-10-20 19:33:56,-34.9182533095132,-56.1685619598424,2.624672,2.6902888,26.176910614564,28.867199414564,4.265092,0,0.56692259032,1.52672577064,21,5,7.607,28.867199414564,2.624672,0.223694,0.56692259032,0,0,0,261.5, 2.4, 0.5,0,0,1249,1024,1024,1024,34,0,0,0,271.1,0,0,46,3.83,3.827,0,0,0,0,4.912,94.82,28.867199414564,2.624672,6,P-GPS,
3800,2023-10-20 19:33:56,-34.9182533016935,-56.1685620804037,2.624672,2.6902888,26.176910614564,28.867199414564,4.265092,0,0.60309713216,1.56290687416,21,5,7.607,28.867199414564,2.624672,0.223694,0.60309713216,0,0,0,261.8, 2.7, 1.5,0,0,1684,1024,1024,1024,100,0,0,0,271.1,0,0,46,3.83,3.827,0,0,0,0,4.912,94.82,28.867199414564,2.624672,6,P-GPS,
3900,2023-10-20 19:33:56,-34.9182533437793,-56.1685622235449,2.624672,2.6902888,26.176910614564,28.867199414564,4.265092,0,0.64449805212,1.6083990016,21,5,7.607,28.867199414564,2.624672,0.223694,0.64449805212,0,0,0,262.1, -1.6, 1.4,0,0,1684,1024,1024,1024,100,0,0,0,271.1,0,0,46,3.83,3.827,0,0,0,0,4.912,94.82,28.867199414564,2.624672,6,P-GPS,
4000,2023-10-20 19:33:57,-34.918253390876,-56.1685624412274,2.624672,2.6902888,26.176910614564,28.867199414564,4.265092,0.447388,0.7086286316,1.67575136596,21,5,7.607,28.867199414564,2.624672,0.447388,0.7086286316,0,-0.447388,0,262.3, -10.7, 0.8,0,0,1684,1024,1024,1024,100,0,0,0,271.1,0,0,46,3.83,3.827,0,0,0,0,4.912,94.82,28.867199414564,2.624672,6,P-GPS,
4100,2023-10-20 19:33:57,-34.9182536696973,-56.1685629798174,2.624672,2.7559056,26.111293814564,28.867199414564,4.265092,0.894776,0.87248034288,1.866305834,21,5,7.607,28.867199414564,2.624672,0.894776,0.87248034288,0,-0.894776,0,262.4, -14.1, 0.8,0,0,1684,1024,1024,1024,100,0,0,0,271.1,0,0,46,3.83,3.827,0,0,0,0,4.912,94.82,28.867199414564,2.624672,6,P-GPS,
4200,2023-10-20 19:33:57,-34.918253752804,-56.168563632519,2.624672,2.788714,26.078485414564,28.867199414564,4.265092,1.565858,1.06971132032,2.0639108272,21,5,7.658,28.867199414564,2.624672,1.565858,1.06971132032,0,-1.565858,0,262.6, -14.5, 1,0,0,1684,1024,1024,1024,100,0,0,0,271.1,0,0,46,3.825,3.823,0,0,0,0,3.803,95,28.867199414564,2.624672,6,P-GPS,
4300,2023-10-20 19:33:57,-34.9182538641618,-56.1685646011345,2.624672,2.8543308,26.012868614564,28.867199414564,4.265092,2.0356154,1.36213258952,2.35652238512,21,5,7.658,28.867199414564,2.624672,2.0356154,1.36213258952,-0.223694,-2.013246,0,262.8, -14, 1.4,0,0,1684,1024,1024,1024,100,0,0,0,271.1,0,0,46,3.825,3.823,0,0,0,0,3.803,95,28.867199414564,2.624672,6,P-GPS,
4400,2023-10-20 19:33:57,-34.9182539837313,-56.1685658041199,2.624672,2.8871392,25.980060214564,28.867199414564,4.265092,2.684328,1.72463260112,2.71904864344,21,5,7.658,28.867199414564,2.624672,2.684328,1.72463260112,-0.223694,-2.684328,0,263, -13.8, 0.8,0,0,1684,1024,1024,1024,100,0,0,0,271.1,0,0,46,3.825,3.823,0,0,0,0,3.803,95,28.867199414564,2.624672,6,P-GPS,
4500,2023-10-20 19:33:57,-34.9182541546818,-56.1685672689787,2.624672,2.9199476,25.947251814564,28.867199414564,4.265092,2.684328,2.16711293024,3.16169957624,21,5,7.658,28.867199414564,2.624672,2.684328,2.16711293024,-0.223694,-3.35541,0,263.3, -13.8, 0.7,0,0,1684,1024,1024,1024,100,0,0,0,271.1,0,0,46,3.825,3.823,0,0,0,0,3.803,95,28.867199414564,2.624672,6,P-GPS,
4600,2023-10-20 19:33:57,-34.9182543398521,-56.1685690559307,2.624672,2.9855644,25.881635014564,28.867199414564,4.265092,3.8251674,2.70594168764,3.7005578612,21,5,7.658,28.867199414564,2.624672,3.8251674,2.70594168764,-0.447388,-3.802798,0,263.5, -13, 1.8,0,0,1684,1024,1024,1024,100,0,0,0,271.1,0,0,46,3.825,3.823,0,0,0,0,3.803,95,28.867199414564,2.624672,6,P-GPS,
4700,2023-10-20 19:33:57,-34.9182545624362,-56.1685712117115,2.624672,3.0839896,25.783209814564,28.867199414564,4.265092,4.4962494,3.355971236,4.350557882,21,5,7.658,28.867199414564,2.624672,4.4962494,3.355971236,-0.447388,-4.47388,0,263.8, -13.3, 2.5,0,0,1684,1024,1024,1024,100,0,0,0,271.1,0,0,46,3.825,3.823,0,0,0,0,3.803,95,28.867199414564,2.624672,6,P-GPS,
4800,2023-10-20 19:33:57,-34.9182547791886,-56.1685735062029,2.624672,3.1824148,25.684784614564,28.867199414564,4.593176,4.9436374,4.04691614,5.0415355944,21,5,7.658,28.867199414564,2.624672,4.9436374,4.04691614,-0.447388,-4.921268,0,263.9, -13.7, 2.5,0,0,1684,1024,1024,1024,100,0,0,0,271.1,0,0,46,3.825,3.823,0,0,0,0,3.803,95,28.867199414564,2.624672,6,P-GPS,
4900,2023-10-20 19:33:57,-34.9182550690065,-56.1685764325118,2.624672,3.2480316,25.619167814564,28.867199414564,4.593176,5.3910254,4.9287403152,5.9233597696,21,5,7.658,28.867199414564,2.624672,5.3910254,4.9287403152,-0.447388,-5.368656,0,264.2, -12.9, 2.2,0,0,1684,1024,1024,1024,100,0,0,0,271.1,0,0,46,3.825,3.823,0,0,0,0,3.803,95,28.867199414564,2.624672,6,P-GPS,
5000,2023-10-20 19:33:57,-34.918255325084,-56.168579212218,2.624672,3.3792652,25.487934214564,28.867199414564,4.593176,5.8384134,5.7655513656,6.76017082,21,5,7.658,28.867199414564,2.624672,5.8384134,5.7655513656,-0.447388,-5.816044,0,264.1, -13.3, 2.9,0,0,1684,1014,1024,1024,100,-2,0,0,271.1,0,0,46,3.825,3.823,0,0,0,0,3.803,95,28.867199414564,2.624672,6,P-GPS,
5100,2023-10-20 19:33:58,-34.9182556068001,-56.1685823501797,2.624672,3.5104988,25.356700614564,28.867199414564,4.593176,6.2858014,6.7098755428,7.704560614,21,5,7.658,28.867199414564,2.624672,6.2858014,6.7098755428,-0.447388,-6.263432,0,264.1, -13.4, 1.4,0,0,1684,961,1122,1024,100,-10,15,0,271.1,0,0,46,3.825,3.823,0,0,0,0,3.803,95,28.867199414564,2.624672,6,P-GPS,
5200,2023-10-20 19:33:58,-34.9182558609121,-56.1685854718478,2.624672,3.608924,25.258275414564,28.867199414564,4.593176,6.5094954,7.6482285912,8.643044896,21,5,7.633,28.867199414564,2.624672,6.5094954,7.6482285912,-0.447388,-6.487126,0,264.4, -13.8, 1.5,0,0,1684,961,1122,1024,100,-10,15,0,271.1,0,0,46,3.818,3.817,0,0,0,0,4.521,95,28.867199414564,2.624672,6,P-GPS,
5300,2023-10-20 19:33:58,-34.9182561306145,-56.1685889349019,2.624672,3.772966,25.094233414564,28.867199414564,4.92126,6.9568834,8.6887469972,9.683727344,21,5,7.633,28.867199414564,2.624672,6.9568834,8.6887469972,-0.447388,-6.934514,0,264.5, -13.9, 2.1,0,0,1684,923,1684,1024,100,-15,100,0,271.1,0,0,46,3.818,3.817,0,0,0,0,4.521,95,28.867199414564,2.624672,6,P-GPS,
5400,2023-10-20 19:33:58,-34.9182564476862,-56.1685925071291,2.624672,3.9041996,24.962999814564,28.867199414564,4.92126,7.6279654,9.7636814148,10.7586617616,21,5,7.633,28.867199414564,2.624672,7.6279654,9.7636814148,-0.447388,-7.605596,-0.223694,264.2, -14.1, -0.1,0,0,1684,919,1684,1024,100,-16,100,0,271.1,0,0,46,3.818,3.817,0,0,0,0,4.521,95,28.867199414564,2.624672,6,P-GPS,
5500,2023-10-20 19:33:58,-34.9182567445556,-56.1685964813402,2.624672,4.0354332,24.831766214564,28.867199414564,4.92126,8.0753534,10.9573166236,11.9525266292,20,5,7.633,28.867199414564,2.624672,8.0753534,10.9573166236,-0.671082,-8.052984,-0.894776,264.4, -13.3, -0.4,0,0,1684,870,1684,1024,100,-23,100,0,271.1,0,0,46,3.818,3.817,0,0,0,0,4.521,95,28.867199414564,2.624672,6,P-GPS,
5600,2023-10-20 19:33:58,-34.918257088354,-56.1686004601511,2.952756,4.5275592,24.667724214564,29.195283414564,5.249344,8.7688048,12.154199864,13.149442678,20,5,7.633,29.195283414564,2.952756,8.7688048,12.154199864,-0.894776,-8.724066,-1.789552,264.8, -11.7, 1.2,0,0,1684,857,1684,1024,100,-25,100,0,271.1,0,0,46,3.818,3.817,0,0,0,0,4.521,95,29.195283414564,2.952756,6,P-GPS,"Punto de origen actualizado. Altitud de RPO establecida en 100m (Code: 3000001)"
5700,2023-10-20 19:33:58,-34.9182574968084,-56.1686048579342,3.28084,5.0196852,24.503682214564,29.523367414564,5.577428,9.0148682,13.4782812712,14.4735240852,21,5,7.633,29.523367414564,3.28084,9.0148682,13.4782812712,-1.11847,-8.94776,-2.460634,264.6, -9.8, 1.3,0,0,1684,816,1684,1024,100,-32,100,0,271.1,0,0,46,3.818,3.817,0,0,0,0,4.521,95,29.523367414564,3.28084,6,P-GPS,
5800,2023-10-20 19:33:58,-34.9182579323036,-56.16860903594,3.937008,5.8398952,24.339640214564,30.179535414564,6.233596,9.4846256,14.7380910228,15.7334978788,21,5,7.633,30.179535414564,3.937008,9.4846256,14.7380910228,-1.342164,-9.395148,-3.35541,264.6, -9.6, 0.9,0,0,1684,815,1684,1024,100,-32,100,0,271.1,0,0,46,3.818,3.817,0,0,0,0,4.521,95,30.179535414564,3.937008,6,P-GPS,
5900,2023-10-20 19:33:58,-34.9182584763627,-56.1686139337348,4.593176,6.7913388,24.044364614564,30.835703414564,6.889764,9.9320136,16.2163391016,17.2121396584,21,5,7.633,30.835703414564,4.593176,9.9320136,16.2163391016,-1.342164,-9.842536,-4.250186,264.6, -8.5, 1,0,0,1684,786,1684,1024,100,-36,100,0,271.1,0,0,46,3.818,3.817,0,0,0,0,4.521,95,30.835703414564,4.593176,6,P-GPS,
6000,2023-10-20 19:33:59,-34.9182590660906,-56.168619039412,5.249344,7.8412076,23.650663814564,31.491871414564,7.545932,10.178077,17.7583339016,18.7546593928,21,5,7.633,31.491871414564,5.249344,10.178077,17.7583339016,-1.565858,-10.06623,-4.921268,264.5, -9.1, -0.1,0,0,1684,761,1684,1024,100,-40,100,0,271.1,0,0,46,3.818,3.817,0,0,0,0,4.521,95,31.491871414564,5.249344,6,P-GPS,
6100,2023-10-20 19:33:59,-34.9182596620136,-56.1686240474638,6.233596,9.2191604,23.256963014564,32.476123414564,8.530184,10.401771,19.2716869684,20.2686030108,21,5,7.633,32.476123414564,6.233596,10.401771,19.2716869684,-1.565858,-10.289924,-5.59235,264.7, -9, -1,0,0,1684,761,1684,1024,100,-40,100,0,271.1,0,0,46,3.818,3.817,0,0,0,0,4.521,95,32.476123414564,6.233596,6,P-GPS,
6200,2023-10-20 19:33:59,-34.9182605826239,-56.168628907808,7.217848,10.5971132,22.863262214564,33.460375414564,9.186352,10.6702038,20.755742134,21.7609258932,21,5,7.633,33.460375414564,7.217848,10.6702038,20.755742134,-1.789552,-10.513618,-6.039738,264.8, -8.9, -2.4,0,0,1684,739,1684,1024,100,-43,100,0,271.1,0,0,46,3.818,3.817,0,0,0,0,4.521,95,33.460375414564,7.217848,6,P-GPS,
6300,2023-10-20 19:33:59,-34.9182614449444,-56.1686342619264,8.2021,11.9094492,22.535178214564,34.444627414564,10.170604,10.9162672,22.3845807688,23.3933078352,21,5,7.575,34.444627414564,8.2021,10.9162672,22.3845807688,-2.013246,-10.737312,-6.263432,264.9, -8.3, -1.7,0,0,1684,724,1684,1024,100,-45,100,0,271.1,0,0,46,3.779,3.774,0,0,0,0,5.406,95,34.444627414564,8.2021,6,P-GPS,
6400,2023-10-20 19:33:59,-34.9182622462089,-56.1686395729158,9.186352,13.3530188,22.075860614564,35.428879414564,11.154856,11.1399612,23.9981306892,25.0088262596,21,5,7.575,35.428879414564,9.186352,11.1399612,23.9981306892,-2.013246,-10.961006,-6.263432,264.8, -8.2, -2.4,0,0,1684,719,1684,1024,100,-46,100,0,271.1,0,0,46,3.779,3.774,0,0,0,0,5.406,95,35.428879414564,9.186352,6,P-GPS,
6500,2023-10-20 19:33:59,-34.9182630961467,-56.168645328266,10.170604,14.7309716,21.682159814564,36.413131414564,12.139108,11.408394,25.7460310076,26.7583341896,21,5,7.575,36.413131414564,10.170604,11.408394,25.7460310076,-2.23694,-11.1847,-6.487126,264.6, -7.8, -3.7,0,0,1684,706,1684,1024,100,-48,100,0,271.1,0,0,46,3.779,3.774,0,0,0,0,5.406,95,36.413131414564,10.170604,6,P-GPS,
6600,2023-10-20 19:33:59,-34.9182638147848,-56.1686506740418,11.48294,16.5026252,21.222842214564,37.725467414564,13.12336,11.6768268,27.366142608,28.3789707244,21,5,7.575,37.725467414564,11.48294,11.6768268,27.366142608,-2.460634,-11.408394,-6.487126,264.7, -6.8, -5.1,0,0,1684,705,1684,1024,100,-48,100,0,271.1,0,0,46,3.779,3.774,0,0,0,0,5.406,95,37.725467414564,11.48294,6,P-GPS,
6700,2023-10-20 19:33:59,-34.9182648337168,-56.1686564655575,12.467192,17.880578,20.829141414564,38.709719414564,14.435696,11.9452596,29.1337935832,30.1510180252,21,5,7.575,38.709719414564,12.467192,11.9452596,29.1337935832,-2.684328,-11.632088,-6.71082,265.1, -8, -3.8,0,0,1684,702,1684,1024,100,-49,100,0,271.1,0,0,46,3.779,3.774,0,0,0,0,5.406,95,38.709719414564,12.467192,6,P-GPS,
6800,2023-10-20 19:33:59,-34.9182659060334,-56.1686619370427,13.451444,19.3241476,20.369823814564,39.693971414564,15.419948,12.2136924,30.8100731644,31.83399052,21,5,7.575,39.693971414564,13.451444,12.2136924,30.8100731644,-2.908022,-11.855782,-6.71082,264.9, -7.6, -3.3,0,0,1684,689,1684,1024,100,-51,100,0,271.1,0,0,46,3.779,3.774,0,0,0,0,5.406,95,39.693971414564,13.451444,6,P-GPS,
6900,2023-10-20 19:33:59,-34.9182671184254,-56.1686677011013,14.435696,20.7677172,19.910506214564,40.678223414564,16.4042,12.2584312,32.5813330636,33.614174304,21,5,7.575,40.678223414564,14.435696,12.2584312,32.5813330636,-3.131716,-11.855782,-6.487126,264.9, -7.5, -2.8,0,0,1684,672,1684,1024,100,-53,100,0,271.1,0,0,46,3.779,3.774,0,0,0,0,5.406,95,40.678223414564,14.435696,6,P-GPS,
7000,2023-10-20 19:34:00,-34.918268414022,-56.1686734311309,15.419948,22.14567,19.516805414564,41.662475414564,17.388452,12.4821252,34.348426296,35.392389584,21,5,7.575,41.662475414564,15.419948,12.4821252,34.348426296,-3.131716,-12.079476,-6.71082,264.8, -7.5, -4.9,0,0,1684,672,1684,1024,100,-53,100,0,271.1,0,0,46,3.779,3.774,0,0,0,0,5.406,95,41.662475414564,15.419948,6,P-GPS,
7100,2023-10-20 19:34:00,-34.918270150365,-56.1686793770983,16.4042,23.622048,19.024679414564,42.646727414564,18.372704,12.8176662,36.206694072,37.280841088,21,5,7.575,42.646727414564,16.4042,12.8176662,36.206694072,-3.579104,-12.30317,-6.71082,265.1, -7.5, -3.1,0,0,1684,671,1684,1024,100,-53,100,0,271.1,0,0,46,3.779,3.774,0,0,0,0,5.406,95,42.646727414564,16.4042,6,P-GPS,
7200,2023-10-20 19:34:00,-34.9182716417657,-56.1686853608976,17.388452,25.098426,18.532553414564,43.630979414564,19.356956,12.8176662,38.063649512,39.151576056,21,5,7.575,43.630979414564,17.388452,12.8176662,38.063649512,-3.579104,-12.30317,-6.71082,265, -7.5, -3.6,0,0,1684,669,1684,1024,100,-54,100,0,271.1,0,0,46,3.779,3.774,0,0,0,0,5.406,95,43.630979414564,17.388452,6,P-GPS,
7300,2023-10-20 19:34:00,-34.9182732804282,-56.1686917182626,18.372704,26.6404208,17.974810614564,44.615231414564,20.669292,13.086099,40.041339864,41.145342524,21,5,7.555,44.615231414564,18.372704,13.086099,40.041339864,-3.802798,-12.526864,-6.71082,264.9, -7.4, -4.2,0,0,1684,657,1684,1024,100,-56,100,0,271.1,0,0,46,3.787,3.776,0,0,0,0,6.935,95,44.615231414564,18.372704,6,P-GPS,
7400,2023-10-20 19:34:00,-34.9182748898813,-56.1686976303682,19.356956,28.1167988,17.482684614564,45.599483414564,21.653544,13.1532072,41.887796616,43.008859644,21,5,7.555,45.599483414564,19.356956,13.1532072,41.887796616,-4.026492,-12.526864,-6.71082,264.7, -8, -3.6,0,0,1684,643,1684,1024,100,-58,100,0,271.1,0,0,46,3.787,3.776,0,0,0,0,6.935,95,45.599483414564,19.356956,6,P-GPS,
7500,2023-10-20 19:34:00,-34.9182766961057,-56.1687035859059,20.341208,29.5931768,16.990558614564,46.583735414564,22.637796,13.2203154,43.762468592,44.908794088,21,5,7.555,46.583735414564,20.341208,13.2203154,43.762468592,-4.250186,-12.526864,-6.487126,264.8, -7.9, -2.9,0,0,1684,569,1684,1024,100,-69,100,0,271.1,0,0,46,3.787,3.776,0,0,0,0,6.935,95,46.583735414564,20.341208,6,P-GPS,
7600,2023-10-20 19:34:00,-34.9182784388014,-56.1687096142657,21.32546,31.0367464,16.531241014564,47.567987414564,23.950132,13.5111176,45.655841356,46.82086764,21,5,7.555,47.567987414564,21.32546,13.5111176,45.655841356,-4.47388,-12.750558,-6.487126,264.7, -8.1, -1.7,0,0,1684,625,1684,1024,100,-60,100,0,271.1,0,0,46,3.787,3.776,0,0,0,0,6.935,95,47.567987414564,21.32546,6,P-GPS,
7700,2023-10-20 19:34:00,-34.9182803302928,-56.1687160620261,22.309712,32.5131244,16.039115014564,48.552239414564,24.934384,13.5111176,47.684384728,48.86975222,21,5,7.555,48.552239414564,22.309712,13.5111176,47.684384728,-4.47388,-12.750558,-6.263432,265.2, -8.2, -1.9,0,0,1684,364,1684,1024,100,-100,100,0,271.1,0,0,46,3.787,3.776,0,0,0,0,6.935,95,48.552239414564,22.309712,6,P-GPS,
7800,2023-10-20 19:34:00,-34.9182820642437,-56.1687222060653,23.293964,33.9895024,15.546989014564,49.536491414564,25.918636,13.8019198,49.613846732,50.81364992,21,5,7.555,49.536491414564,23.293964,13.8019198,49.613846732,-4.697574,-12.974252,-6.263432,265.1, -8.3, -4.7,0,0,1684,364,1684,1024,100,-100,100,0,271.1,0,0,46,3.787,3.776,0,0,0,0,6.935,95,49.536491414564,23.293964,6,P-GPS,
7900,2023-10-20 19:34:00,-34.9182834330518,-56.1687286523525,24.6063,35.8267728,15.022054614564,50.848827414564,26.902888,13.6677034,51.60433236,52.805775968,22,5,7.555,50.848827414564,24.6063,13.8019198,51.60433236,-4.921268,-12.750558,-6.487126,265.1, -7.1, -5.3,0,0,1684,364,1684,1024,100,-100,100,0,271.1,0,0,46,3.787,3.776,0,0,0,0,6.935,95,50.848827414564,24.6063,6,P-GPS,
8000,2023-10-20 19:34:01,-34.918285354847,-56.1687346600149,25.590552,37.3031508,14.529928614564,51.833079414564,27.88714,13.757181,53.510172316,54.734909888,22,5,7.555,51.833079414564,25.590552,13.8019198,53.510172316,-5.144962,-12.750558,-6.487126,264.8, -5.2, -8.5,0,0,1684,364,1684,1024,100,-100,100,0,271.1,0,0,46,3.787,3.776,0,0,0,0,6.935,95,51.833079414564,25.590552,6,P-GPS,
8100,2023-10-20 19:34:01,-34.9182875701073,-56.1687408707432,26.574804,38.8451456,13.972185814564,52.817331414564,28.871392,13.9137668,55.500986028,56.761156672,22,5,7.555,52.817331414564,26.574804,13.9137668,55.500986028,-5.59235,-12.750558,-6.487126,265.1, -4.8, -7.9,0,0,1684,364,1684,1024,100,-100,100,0,271.1,0,0,46,3.787,3.776,0,0,0,0,6.935,95,52.817331414564,26.574804,6,P-GPS,
8200,2023-10-20 19:34:01,-34.918289834628,-56.1687467744069,27.559056,40.3215236,13.480059814564,53.801583414564,29.855644,13.9137668,57.408794488,58.710959884,22,5,7.555,53.801583414564,27.559056,13.9137668,57.408794488,-6.039738,-12.526864,-6.487126,264.9, -5.1, -8.6,0,0,1684,364,1684,1024,100,-100,100,0,271.1,0,0,46,3.787,3.776,0,0,0,0,6.935,95,53.801583414564,27.559056,6,P-GPS,
8300,2023-10-20 19:34:01,-34.9182923359376,-56.1687522526102,28.543308,41.7322848,13.053550614564,54.785835414564,30.839896,13.8019198,59.216537328,60.586944196,22,5,7.555,54.785835414564,28.543308,13.9137668,59.216537328,-6.263432,-12.30317,-6.71082,265.1, -5.7, -7.1,0,0,1684,364,1684,1024,100,-100,100,0,271.1,0,0,46,3.777,3.773,0,0,0,0,6.935,95,54.785835414564,28.543308,6,P-GPS,
8400,2023-10-20 19:34:01,-34.9182948869928,-56.1687581858834,29.52756,43.2414712,12.528616214564,55.770087414564,31.824148,14.0032444,61.16470012,62.590881268,22,5,7.555,55.770087414564,29.52756,14.0032444,61.16470012,-6.71082,-12.30317,-6.71082,265.2, -6.1, -6.7,0,0,1684,364,1684,1024,100,-100,100,0,271.1,0,0,46,3.777,3.773,0,0,0,0,6.935,95,55.770087414564,29.52756,6,P-GPS,
8500,2023-10-20 19:34:01,-34.9182976869231,-56.1687644449856,30.511812,44.7506576,12.003681814564,56.754339414564,32.8084,14.1150914,63.233597824,64.724083436,22,5,7.555,56.754339414564,30.511812,14.1150914,63.233597824,-6.934514,-12.30317,-6.71082,265, -6, -6.6,0,0,1684,451,1684,1024,100,-87,100,0,271.1,0,0,46,3.777,3.773,0,0,0,0,6.935,95,56.754339414564,30.511812,6,P-GPS,
8600,2023-10-20 19:34:01,-34.9183005072578,-56.1687704827589,31.496064,46.259844,11.478747414564,57.738591414564,33.792652,14.2269384,65.245080828,66.80282366,22,5,7.555,57.738591414564,31.496064,14.2269384,65.245080828,-7.158208,-12.30317,-6.71082,265.4, -7.3, -6.3,0,0,1684,519,1684,1024,100,-77,100,0,271.1,0,0,46,3.777,3.773,0,0,0,0,6.935,95,57.738591414564,31.496064,6,P-GPS,
8700,2023-10-20 19:34:01,-34.9183037221743,-56.1687771960116,32.480316,47.8674556,10.855387814564,58.722843414564,34.776904,14.3387854,67.493768564,69.128611136,22,5,7.555,58.722843414564,32.480316,14.3387854,67.493768564,-7.381902,-12.30317,-6.487126,265.4, -8.8, -6,0,0,1684,839,1684,1024,100,-28,100,0,271.1,0,0,46,3.777,3.773,0,0,0,0,6.935,95,58.722843414564,32.480316,6,P-GPS,
8800,2023-10-20 19:34:01,-34.9183068028126,-56.1687830959976,33.464568,49.376642,10.330453414564,59.707095414564,35.761156,14.3387854,69.500658392,71.221130888,22,5,7.555,59.707095414564,33.464568,14.3387854,69.500658392,-7.381902,-12.526864,-6.487126,265, -9.1, -5.6,0,0,1684,839,1684,1024,100,-28,100,0,271.1,0,0,46,3.777,3.773,0,0,0,0,6.935,95,59.707095414564,33.464568,6,P-GPS,
8900,2023-10-20 19:34:01,-34.9183099907164,-56.1687894578447,34.44882,50.8858284,9.805519014564,60.691347414564,36.745408,14.54011,71.655842188,73.451774004,22,5,7.555,60.691347414564,34.44882,14.54011,71.655842188,-7.381902,-12.526864,-6.487126,264.9, -10.4, -2,0,0,1684,1005,1684,1024,100,-3,100,0,271.1,0,0,46,3.777,3.773,0,0,0,0,6.935,95,60.691347414564,34.44882,6,P-GPS,
9000,2023-10-20 19:34:01,-34.9183130639224,-56.1687958146977,35.761156,52.7887156,9.214967814564,62.003683414564,37.72966,14.9203898,73.801511548,75.65945124,22,5,7.555,62.003683414564,35.761156,14.9203898,73.801511548,-7.381902,-12.974252,-6.263432,264.7, -10.8, 0.1,0,0,1684,1024,1684,1024,100,0,100,0,271.1,0,0,46,3.777,3.773,0,0,0,0,6.935,95,62.003683414564,35.761156,6,P-GPS,
9100,2023-10-20 19:34:02,-34.9183159107291,-56.168801935156,36.745408,54.3307104,8.657225014564,62.987935414564,38.713912,15.323039,75.858598228,77.764438184,22,5,7.555,62.987935414564,36.745408,15.323039,75.858598228,-7.381902,-13.42164,-6.263432,264.4, -8.8, 4.4,0,0,1684,1024,1684,1024,100,0,100,0,271.1,0,0,46,3.777,3.773,0,0,0,0,6.935,95,62.987935414564,36.745408,6,P-GPS,
9200,2023-10-20 19:34:02,-34.9183184539744,-56.1688076979816,38.057744,56.1351724,8.165099014564,64.300271414564,38.713912,15.4125166,77.782810888,79.722443496,22,5,7.555,64.300271414564,38.057744,15.4125166,77.782810888,-7.158208,-13.645334,-6.487126,264.5, -5.5, 5,0,0,1684,1024,1684,1024,100,0,100,0,271.1,0,0,46,3.777,3.773,0,0,0,0,6.935,95,64.300271414564,38.057744,6,P-GPS,
9300,2023-10-20 19:34:02,-34.9183212702966,-56.1688145710667,39.041996,57.7099756,7.574547814564,65.284523414564,38.713912,15.4125166,80.055120672,82.021,22,5,7.583,65.284523414564,39.041996,15.4125166,80.055120672,-6.71082,-13.869028,-6.71082,264.4, -5.7, 4.1,0,0,1684,1024,1684,1024,100,0,100,0,271.1,0,0,46,3.77,3.763,0,0,0,0,5.603,95,65.284523414564,39.041996,6,P-GPS,
9400,2023-10-20 19:34:02,-34.9183238390498,-56.1688212713013,40.354332,59.547246,7.049613414564,66.596859414564,38.713912,15.5243636,82.251314968,84.23392658,22,5,7.583,66.596859414564,40.354332,15.5243636,82.251314968,-6.487126,-14.092722,-6.934514,264.4, -5.2, 1.5,0,0,1684,1024,1684,1024,100,0,100,0,271.1,0,0,46,3.77,3.763,0,0,0,0,5.603,95,66.596859414564,40.354332,6,P-GPS,
9500,2023-10-20 19:34:02,-34.9183264779563,-56.1688284345044,41.338584,61.1220492,6.459062214564,67.581111414564,38.713912,15.6362106,84.5882573,86.58300802,22,5,7.583,67.581111414564,41.338584,15.6362106,84.5882573,-6.263432,-14.316416,-6.934514,264.4, -5.8, 1.3,0,0,1684,1024,1684,1024,100,0,100,0,271.1,0,0,46,3.77,3.763,0,0,0,0,5.603,95,67.581111414564,41.338584,6,P-GPS,
9600,2023-10-20 19:34:02,-34.9183286939559,-56.1688357853104,42.322836,62.7624692,5.802894214564,68.565363414564,38.713912,15.6362106,86.930120892,88.926183948,22,5,7.583,68.565363414564,42.322836,15.6362106,86.930120892,-6.263432,-14.316416,-6.934514,264.8, -5.3, 0.4,0,0,1684,1024,1684,1024,100,0,100,0,271.1,0,0,46,3.77,3.763,0,0,0,0,5.603,95,68.565363414564,42.322836,6,P-GPS,
9700,2023-10-20 19:34:02,-34.918331139058,-56.1688431686932,43.307088,64.304464,5.245151414564,69.549615414564,38.713912,15.7480576,89.30774564,91.308401872,22,5,7.583,69.549615414564,43.307088,15.7480576,89.30774564,-6.039738,-14.54011,-6.71082,264.6, -6.2, 2,0,0,1684,1024,1684,1024,100,0,100,0,271.1,0,0,46,3.77,3.763,0,0,0,0,5.603,95,69.549615414564,43.307088,6,P-GPS,
9800,2023-10-20 19:34:02,-34.9183333574743,-56.1688501924164,44.619424,66.2073512,4.654600214564,70.861951414564,38.713912,15.65858,91.557417628,93.560042364,22,5,7.583,70.861951414564,44.619424,15.7480576,91.557417628,-5.816044,-14.54011,-6.71082,264.5, -6.3, 1.4,0,0,1684,1024,1684,1024,100,0,100,0,271.1,0,0,46,3.77,3.763,0,0,0,0,5.603,95,70.861951414564,44.619424,6,P-GPS,
9900,2023-10-20 19:34:02,-34.918335573272,-56.1688575660826,45.603676,67.749346,4.096857414564,71.846203414564,38.713912,15.5691024,93.9058429,95.909451888,22,5,7.583,71.846203414564,45.603676,15.7480576,93.9058429,-5.59235,-14.54011,-6.487126,264.8, -7.3, 1.3,0,0,1684,1024,1684,1024,100,0,100,0,271.1,0,0,46,3.77,3.763,0,0,0,0,5.603,95,71.846203414564,45.603676,6,P-GPS,
10000,2023-10-20 19:34:03,-34.918337399598,-56.1688645720444,46.587928,69.2585324,3.571923014564,72.830455414564,38.713912,15.6362106,96.104989952,98.108927024,22,5,7.583,72.830455414564,46.587928,15.7480576,96.104989952,-5.144962,-14.763804,-6.71082,264.8, -7.5, -0.5,0,0,1684,1024,1684,1024,100,0,100,0,271.1,0,0,46,3.77,3.763,0,0,0,0,5.603,95,72.830455414564,46.587928,6,P-GPS,
10100,2023-10-20 19:34:03,-34.9183394155595,-56.1688719926635,47.900264,71.0629944,3.079797014564,74.142791414564,38.713912,15.6362106,98.443572704,100.447509776,22,5,7.583,74.142791414564,47.900264,15.7480576,98.443572704,-5.144962,-14.763804,-6.487126,264.7, -8.4, -1.9,0,0,1684,1024,1684,1024,100,0,100,0,271.1,0,0,46,3.77,3.763,0,0,0,0,5.603,95,74.142791414564,47.900264,6,P-GPS,
10200,2023-10-20 19:34:03,-34.9183412772423,-56.1688790482739,48.884516,72.5393724,2.587671014564,75.127043414564,38.713912,15.770427,100.660764376,102.665029532,22,5,7.583,75.127043414564,48.884516,15.770427,100.660764376,-4.921268,-14.987498,-6.487126,264.5, -8.6, -2.7,0,0,1684,1024,1684,1024,100,0,100,0,271.1,0,0,46,3.77,3.763,0,0,0,0,5.603,95,75.127043414564,48.884516,6,P-GPS,
10300,2023-10-20 19:34:03,-34.9183432181196,-56.168886514634,49.868768,74.0813672,2.029928214564,76.111295414564,38.713912,15.994121,103.00361222,105.00820546,22,5,7.57,76.111295414564,49.868768,15.994121,103.00361222,-4.921268,-15.211192,-6.487126,264.6, -8.4, -2,0,0,1684,1024,1684,1024,100,0,100,0,271.1,0,0,46,3.788,3.787,0,0,0,0,5.865,95,76.111295414564,49.868768,6,P-GPS,
10400,2023-10-20 19:34:03,-34.9183450678691,-56.1688937247901,51.181104,76.0498712,1.373760214564,77.423631414564,38.713912,16.1954456,105.263454812,107.268376136,22,5,7.57,77.423631414564,51.181104,16.1954456,105.263454812,-4.921268,-15.434886,-6.487126,264.4, -7.2, -0.8,0,0,1684,1024,1684,1024,100,0,100,0,271.1,0,0,46,3.788,3.787,0,0,0,0,5.865,95,77.423631414564,51.181104,6,P-GPS,
10500,2023-10-20 19:34:03,-34.9183468990088,-56.1689011768157,52.165356,77.7887164,0.619167014564,78.407883414564,38.713912,16.4191396,107.589570372,109.595475948,22,5,7.57,78.407883414564,52.165356,16.4191396,107.589570372,-4.921268,-15.65858,-6.487126,264.4, -5.7, 1,0,0,1684,1024,1684,1024,100,0,100,0,271.1,0,0,46,3.788,3.787,0,0,0,0,5.865,95,78.407883414564,52.165356,6,P-GPS,
10600,2023-10-20 19:34:03,-34.9183486935866,-56.16890850449,53.477692,79.9212624,-0.201042985436,79.720219414564,38.713912,16.6204642,109.876315852,111.883533764,22,5,7.57,79.720219414564,53.477692,16.6204642,109.876315852,-4.921268,-15.882274,-6.487126,264.5, -5.3, 1.3,0,0,1684,1024,1684,1024,100,0,100,0,271.1,0,0,46,3.788,3.787,0,0,0,0,5.865,95,79.720219414564,53.477692,6,P-GPS,
10700,2023-10-20 19:34:03,-34.9183505343146,-56.1689162615324,54.790028,81.9553832,-0.922827785436,81.032555414564,38.713912,16.553356,112.29002984,114.299216256,22,5,7.57,81.032555414564,54.790028,16.6204642,112.29002984,-4.697574,-15.882274,-6.487126,264.5, -3.9, 2,0,0,1684,1024,1684,1024,100,0,100,0,271.1,0,0,46,3.788,3.787,0,0,0,0,5.865,95,81.032555414564,54.790028,6,P-GPS,
10800,2023-10-20 19:34:03,-34.9183523016388,-56.1689237389465,56.102364,84.0879292,-1.743037785436,82.344891414564,38.713912,16.77705,114.616473484,116.62730032,22,5,7.57,82.344891414564,56.102364,16.77705,114.616473484,-4.697574,-16.105968,-6.71082,264.2, -3.3, 1.5,0,0,1684,1024,1684,1024,100,0,100,0,271.1,0,0,46,3.788,3.787,0,0,0,0,5.865,95,82.344891414564,56.102364,6,P-GPS,
10900,2023-10-20 19:34:03,-34.9183542650993,-56.1689315266221,57.086616,85.8923912,-2.563247785436,83.329143414564,38.713912,16.665203,117.053153352,119.06496444,22,5,7.57,83.329143414564,57.086616,16.77705,117.053153352,-4.250186,-16.105968,-6.934514,264.5, -4.4, 2,0,0,1684,1024,1684,1024,100,0,100,0,271.1,0,0,46,3.788,3.787,0,0,0,0,5.865,95,83.329143414564,57.086616,6,P-GPS,
11000,2023-10-20 19:34:04,-34.9183559087986,-56.1689391576207,58.398952,87.926512,-3.285032585436,84.641479414564,38.713912,16.8665276,119.409124556,121.425200736,22,5,7.57,84.641479414564,58.398952,16.8665276,119.409124556,-4.250186,-16.329662,-6.934514,264.5, -4.9, -0.2,0,0,1684,1024,1684,1024,100,0,100,0,271.1,0,0,46,3.788,3.787,0,0,0,0,5.865,95,84.641479414564,58.398952,6,P-GPS,
11100,2023-10-20 19:34:04,-34.9183575741757,-56.1689472565192,59.711288,90.059058,-4.105242585436,85.953815414564,38.713912,16.8217888,121.900594452,123.923232312,22,5,7.57,85.953815414564,59.711288,16.8665276,121.900594452,-4.026492,-16.329662,-7.158208,264.7, -3.4, -0.9,0,0,1684,1024,1684,1024,100,0,100,0,271.1,0,0,46,3.788,3.787,0,0,0,0,5.865,95,85.953815414564,59.711288,6,P-GPS,
11200,2023-10-20 19:34:04,-34.9183591107364,-56.1689549297692,60.69554,91.86352,-4.925452585436,86.938067414564,38.713912,16.8217888,124.256565656,126.28609328,22,5,7.57,86.938067414564,60.69554,16.8665276,124.256565656,-4.026492,-16.329662,-6.934514,264.7, -3.6, -0.7,0,0,1684,1024,1684,1024,100,0,100,0,271.1,0,0,46,3.788,3.787,0,0,0,0,5.865,95,86.938067414564,60.69554,6,P-GPS,
11300,2023-10-20 19:34:04,-34.9183607648316,-56.168963074764,61.679792,93.6351736,-5.712854185436,87.922319414564,38.713912,16.3744008,126.760502744,128.796592048,22,5,7.569,87.922319414564,61.679792,16.8665276,126.760502744,-4.026492,-15.882274,-6.934514,264.8, -3.2, 0.7,0,0,1684,1024,1684,1024,100,0,100,0,271.1,0,0,46,3.771,3.767,0,0,0,0,5.944,95,87.922319414564,61.679792,6,P-GPS,
11400,2023-10-20 19:34:04,-34.918362244045,-56.1689707243599,62.664044,95.4396356,-6.533064185436,88.906571414564,38.713912,16.553356,129.104006756,131.147641992,22,5,7.569,88.906571414564,62.664044,16.8665276,129.104006756,-3.802798,-16.105968,-6.934514,265, -5, 1.4,0,0,1684,1024,1684,1024,100,0,100,0,271.1,0,0,46,3.771,3.767,0,0,0,0,5.944,95,88.906571414564,62.664044,6,P-GPS,
11500,2023-10-20 19:34:04,-34.9183637584067,-56.1689788079209,63.648296,97.2112892,-7.320465785436,89.890823414564,38.713912,16.553356,131.575135444,133.628285116,22,5,7.569,89.890823414564,63.648296,16.8665276,131.575135444,-3.802798,-16.105968,-6.71082,265, -3.6, 1.7,0,0,1684,1024,1684,1024,100,0,100,0,271.1,0,0,46,3.771,3.767,0,0,0,0,5.944,95,89.890823414564,63.648296,6,P-GPS,
11600,2023-10-20 19:34:04,-34.9183651423105,-56.1689864638273,64.632548,98.917326,-8.042250585436,90.875075414564,38.713912,16.5086172,133.910437356,135.973757632,22,5,7.569,90.875075414564,64.632548,16.8665276,133.910437356,-3.579104,-16.105968,-6.934514,264.2, -2.6, -0.3,0,0,1684,1024,1684,1024,100,0,100,0,271.1,0,0,46,3.771,3.767,0,0,0,0,5.944,95,90.875075414564,64.632548,6,P-GPS,
11700,2023-10-20 19:34:04,-34.9183665139163,-56.1689941302235,65.288716,100.3608956,-8.829652185436,91.531243414564,38.713912,16.2849232,136.247707772,138.321198652,22,5,7.569,91.531243414564,65.288716,16.8665276,136.247707772,-3.579104,-15.882274,-6.934514,264.5, -5.3, -2,0,0,1684,1024,1684,1024,100,0,100,0,271.1,0,0,46,3.771,3.767,0,0,0,0,5.944,95,91.531243414564,65.288716,6,P-GPS,
11800,2023-10-20 19:34:04,-34.9183678413978,-56.1690016331722,66.272968,102.1325492,-9.617053785436,92.515495414564,38.713912,16.0164904,138.533797084,140.617458568,22,5,7.569,92.515495414564,66.272968,16.8665276,138.533797084,-3.35541,-15.65858,-6.934514,264.8, -6.6, -0.2,0,0,1684,1024,1684,1024,100,0,100,0,271.1,0,0,46,3.771,3.767,0,0,0,0,5.944,95,92.515495414564,66.272968,6,P-GPS,
11900,2023-10-20 19:34:04,-34.9183692043534,-56.1690095140852,67.25722,103.9370112,-10.437263785436,93.499747414564,38.713912,16.2401844,140.93176304,143.027235548,22,5,7.569,93.499747414564,67.25722,16.8665276,140.93176304,-3.35541,-15.882274,-6.934514,264.7, -8.8, 0.2,0,0,1684,1024,1684,1024,100,0,100,0,271.1,0,0,46,3.771,3.767,0,0,0,0,5.944,95,93.499747414564,67.25722,6,P-GPS,
12000,2023-10-20 19:34:05,-34.9183704631536,-56.1690170767544,67.913388,105.2821556,-11.126240185436,94.155915414564,38.713912,16.1954456,143.22835104,145.335634572,22,5,7.569,94.155915414564,67.913388,16.8665276,143.22835104,-3.131716,-15.882274,-6.71082,264.7, -9.1, 0,0,0,1684,1024,1684,1024,100,0,100,0,271.1,0,0,46,3.771,3.767,0,0,0,0,5.944,95,94.155915414564,67.913388,6,P-GPS,
12100,2023-10-20 19:34:05,-34.9183717403878,-56.1690251137594,68.89764,107.0538092,-11.913641785436,95.140167414564,38.713912,16.3967702,145.662406236,147.784781632,22,5,7.569,95.140167414564,68.89764,16.8665276,145.662406236,-3.131716,-16.105968,-6.487126,264.4, -8.6, -1.2,0,0,1684,1024,1684,1024,100,0,100,0,271.1,0,0,46,3.771,3.767,0,0,0,0,5.944,95,95.140167414564,68.89764,6,P-GPS,
12200,2023-10-20 19:34:05,-34.918372930585,-56.1690326121947,69.881892,108.8254628,-12.701043385436,96.124419414564,38.713912,16.6204642,147.934059852,150.069886692,22,5,7.569,96.124419414564,69.881892,16.8665276,147.934059852,-3.131716,-16.329662,-6.487126,264.8, -10, -0.8,0,0,1684,1024,1684,1024,100,0,100,0,271.1,0,0,46,3.771,3.767,0,0,0,0,5.944,95,96.124419414564,69.881892,6,P-GPS,
12300,2023-10-20 19:34:05,-34.9183741262276,-56.1690406921198,70.866144,110.5971164,-13.488444985436,97.108671414564,38.713912,16.7994194,150.372708224,152.525923516,22,5,7.519,97.108671414564,70.866144,16.8665276,150.372708224,-2.908022,-16.553356,-6.487126,264.9, -8.7, -1.2,0,0,1684,1024,1684,1024,100,0,100,0,271.1,0,0,46,3.797,3.794,0,0,0,0,6.056,95,97.108671414564,70.866144,6,P-GPS,
12400,2023-10-20 19:34:05,-34.9183752071497,-56.1690485087989,71.850396,112.36877,-14.275846585436,98.092923414564,38.713912,16.7994194,152.724414336,154.897642752,22,5,7.519,98.092923414564,71.850396,16.8665276,152.724414336,-2.908022,-16.553356,-6.487126,264.6, -5.7, -1.5,0,0,1684,1024,1684,1024,100,0,100,0,271.1,0,0,46,3.797,3.794,0,0,0,0,6.056,95,98.092923414564,71.850396,6,P-GPS,
12500,2023-10-20 19:34:05,-34.9183763051769,-56.1690568180351,72.834648,114.1404236,-15.063248185436,99.077175414564,38.713912,17.0231134,155.21982124,157.415359368,22,5,7.519,99.077175414564,72.834648,17.0231134,155.21982124,-2.908022,-16.77705,-6.71082,264.6, -5.8, 0.1,0,0,1684,1024,1684,1024,100,0,100,0,271.1,0,0,46,3.797,3.794,0,0,0,0,6.056,95,99.077175414564,72.834648,6,P-GPS,
12600,2023-10-20 19:34:05,-34.918377280667,-56.1690646695685,73.8189,115.9120772,-15.850649785436,100.06142741456,38.713912,17.2020686,157.571855436,159.791343696,22,5,7.519,100.06142741456,73.8189,17.2020686,157.571855436,-2.684328,-17.000744,-6.934514,264.9, -8.4, 0.8,0,0,1684,1024,1684,1024,100,0,100,0,271.1,0,0,45,3.797,3.794,0,0,0,0,6.056,95,100.06142741456,73.8189,6,P-GPS,
12700,2023-10-20 19:34:05,-34.9183784206038,-56.1690735962354,75.131236,118.11024,-16.736476585436,101.37376341456,38.713912,17.2020686,160.249677044,162.493771604,22,5,7.519,101.37376341456,75.131236,17.2020686,160.249677044,-2.684328,-17.000744,-6.934514,265.4, -5.3, 0.3,0,0,1684,1024,1684,1024,100,0,100,0,271.1,0,0,45,3.797,3.794,0,0,0,0,6.056,95,101.37376341456,75.131236,6,P-GPS,
12800,2023-10-20 19:34:05,-34.9183794188921,-56.169081352024,76.115488,119.75066,-17.392644585436,102.35801541456,38.713912,17.2020686,162.578089192,164.84252496,22,5,7.519,102.35801541456,76.115488,17.2020686,162.578089192,-2.684328,-17.000744,-6.71082,265.7, -3.6, -2,0,0,1684,1024,1684,1024,100,0,100,0,271.1,0,0,45,3.797,3.794,0,0,0,0,6.056,95,102.35801541456,76.115488,6,P-GPS,
12900,2023-10-20 19:34:05,-34.918380563571,-56.1690899714382,77.09974,121.5879304,-18.245662985436,103.34226741456,38.713912,17.2020686,165.169952792,167.454729768,22,5,7.519,103.34226741456,77.09974,17.2020686,165.169952792,-2.908022,-16.77705,-6.487126,264.7, -2.7, -4.5,0,0,1684,1024,1684,1024,100,0,100,0,271.1,0,0,45,3.797,3.794,0,0,0,0,6.056,95,103.34226741456,77.09974,6,P-GPS,
13000,2023-10-20 19:34:05,-34.9183818753282,-56.1690980148792,77.755908,123.0315,-19.033064585436,103.99843541456,38.713912,17.0678522,167.613850508,169.90814192,22,5,7.519,103.99843541456,77.755908,17.2020686,167.613850508,-3.131716,-16.77705,-6.487126,264.7, -5.5, -3.2,0,0,1684,1024,1684,1024,100,0,100,0,271.1,0,0,45,3.797,3.794,0,0,0,0,6.056,95,103.99843541456,77.755908,6,P-GPS,
13100,2023-10-20 19:34:06,-34.9183831699803,-56.1691063970837,78.74016,124.8031536,-19.820466185436,104.98268741456,38.713912,17.0678522,170.153876836,172.459979272,22,5,7.519,104.98268741456,78.74016,17.2020686,170.153876836,-3.131716,-16.77705,-6.487126,264.8, -5.2, 3,0,0,1684,1024,1684,1024,100,0,100,0,271.1,0,0,45,3.797,3.794,0,0,0,0,6.056,95,104.98268741456,78.74016,6,P-GPS,
13200,2023-10-20 19:34:06,-34.9183843870011,-56.1691144182496,79.724412,126.5419988,-20.575059385436,105.96693941456,38.713912,17.0231134,172.582682688,174.900268064,22,5,7.519,105.96693941456,79.724412,17.2020686,172.582682688,-2.908022,-16.77705,-6.487126,264.8, -6.9, 7,0,0,1684,1024,1684,1024,100,0,100,0,271.1,0,0,45,3.797,3.794,0,0,0,0,6.056,95,105.96693941456,79.724412,6,P-GPS,
13300,2023-10-20 19:34:06,-34.9183855574094,-56.1691229398295,80.708664,128.3792692,-21.428077785436,106.95119141456,38.713912,17.2020686,175.15092424,177.4852419,22,5,7.561,106.95119141456,80.708664,17.2020686,175.15092424,-2.684328,-17.000744,-6.71082,264.8, -6.6, 2.4,0,0,1684,1024,1684,1024,100,0,100,0,271.1,0,0,45,3.803,3.801,0,0,0,0,5.3,95,106.95119141456,80.708664,6,P-GPS,
13400,2023-10-20 19:34:06,-34.9183866102962,-56.1691308511668,81.364832,129.7900304,-22.182670985436,107.60735941456,38.713912,17.2020686,177.532157912,179.883207856,22,5,7.561,107.60735941456,81.364832,17.2020686,177.532157912,-2.684328,-17.000744,-6.487126,264.3, -7.7, -1,0,0,1684,1024,1684,1024,100,0,100,0,271.1,0,0,45,3.803,3.801,0,0,0,0,5.3,95,107.60735941456,81.364832,6,P-GPS,
13500,2023-10-20 19:34:06,-34.9183877051317,-56.1691393591226,82.349084,131.5288756,-22.937264185436,108.59161141456,38.713912,17.2020686,180.089900776,182.459651508,22,5,7.561,108.59161141456,82.349084,17.2020686,180.089900776,-2.684328,-17.000744,-6.487126,264.6, -7.6, 0.2,0,0,1684,1024,1684,1024,100,0,100,0,271.1,0,0,45,3.803,3.801,0,0,0,0,5.3,95,108.59161141456,82.349084,6,P-GPS,
13600,2023-10-20 19:34:06,-34.9183887967363,-56.1691474991024,83.005252,132.9396368,-23.691857385436,109.24777941456,38.713912,17.2020686,182.541672508,184.927171272,22,5,7.561,109.24777941456,83.005252,17.2020686,182.541672508,-2.684328,-17.000744,-6.487126,264.6, -7.6, 0.6,0,0,1684,1024,1684,1024,100,0,100,0,271.1,0,0,45,3.803,3.801,0,0,0,0,5.3,95,109.24777941456,83.005252,6,P-GPS,
13700,2023-10-20 19:34:06,-34.9183900375976,-56.1691565176274,83.989504,134.9081408,-24.676109385436,110.23203141456,38.713912,17.2020686,185.261816952,187.662735664,22,5,7.561,110.23203141456,83.989504,17.2020686,185.261816952,-2.684328,-17.000744,-6.263432,264.6, -8.6, 1.2,0,0,1684,1024,1684,1024,100,0,100,0,271.1,0,0,45,3.803,3.801,0,0,0,0,5.3,95,110.23203141456,83.989504,6,P-GPS,
13800,2023-10-20 19:34:06,-34.9183910050627,-56.1691644733894,84.645672,136.2204768,-25.332277385436,110.88819941456,38.713912,17.4257626,187.649612304,190.06890372,22,5,7.561,110.88819941456,84.645672,17.4257626,187.649612304,-2.684328,-17.224438,-6.487126,264.5, -8.3, 1.9,0,0,1684,1024,1684,1024,100,0,100,0,271.1,0,0,45,3.803,3.801,0,0,0,0,5.3,95,110.88819941456,84.645672,6,P-GPS,
13900,2023-10-20 19:34:06,-34.9183918944927,-56.1691738507798,85.629924,137.6968548,-25.824403385436,111.87245141456,38.713912,17.4257626,190.439966724,192.893050792,22,5,7.561,111.87245141456,85.629924,17.4257626,190.439966724,-2.684328,-17.224438,-6.487126,264.4, -6.8, 2.5,0,0,1684,1024,1684,1024,100,0,100,0,271.1,0,0,45,3.803,3.801,0,0,0,0,5.3,95,111.87245141456,85.629924,6,P-GPS,
14000,2023-10-20 19:34:06,-34.9183929019133,-56.1691820345573,86.286092,138.61549,-26.086870585436,112.52861941456,38.713912,17.4257626,192.898300136,195.368772656,22,5,7.561,112.52861941456,86.286092,17.4257626,192.898300136,-2.684328,-17.224438,-6.487126,264.3, -7.5, 3.1,0,0,1684,1024,1684,1024,100,0,100,0,271.1,0,0,45,3.803,3.801,0,0,0,0,5.3,95,112.52861941456,86.286092,6,P-GPS,
14100,2023-10-20 19:34:07,-34.9183939540054,-56.1691904729298,87.270344,139.8950176,-26.382146185436,113.51287141456,38.713912,17.4257626,195.43471754,197.922250428,22,5,7.561,113.51287141456,87.270344,17.4257626,195.43471754,-2.684328,-17.224438,-6.487126,264.3, -8, 2.4,0,0,1684,1024,1684,1024,100,0,100,0,271.1,0,0,45,3.803,3.801,0,0,0,0,5.3,95,113.51287141456,87.270344,6,P-GPS,
14200,2023-10-20 19:34:07,-34.918394995936,-56.1691985695716,87.926512,140.8464612,-26.677421785436,114.16903941456,38.713912,17.4257626,197.872053576,200.37402216,22,5,7.561,114.16903941456,87.926512,17.4257626,197.872053576,-2.684328,-17.224438,-6.487126,264.4, -7.7, 3.5,0,0,1684,1024,1684,1024,100,0,100,0,271.1,0,0,45,3.803,3.801,0,0,0,0,5.3,95,114.16903941456,87.926512,6,P-GPS,
14300,2023-10-20 19:34:07,-34.9183961911357,-56.1692064010868,88.910764,142.060372,-26.907080585436,115.15329141456,38.713912,17.4033932,200.24770982,202.757224336,22,5,7.561,115.15329141456,88.910764,17.4257626,200.24770982,-2.460634,-17.224438,-6.263432,264.4, -7.2, 2.9,0,0,1684,1024,1684,1024,100,0,100,0,271.1,0,0,45,3.803,3.801,0,0,0,0,5.3,95,115.15329141456,88.910764,6,P-GPS,
14400,2023-10-20 19:34:07,-34.9183971760056,-56.1692146392771,89.566932,143.0118156,-27.202356185436,115.80945941456,38.713912,17.6270872,202.721135096,205.248038064,22,5,7.561,115.80945941456,89.566932,17.6270872,202.721135096,-2.460634,-17.448132,-6.263432,264.5, -6.7, 2.6,0,0,1684,1024,1684,1024,100,0,100,0,271.1,0,0,45,3.803,3.801,0,0,0,0,5.3,95,115.80945941456,89.566932,6,P-GPS,
14500,2023-10-20 19:34:07,-34.9183981447214,-56.1692233203341,90.551184,144.2913432,-27.497631785436,116.79371141456,38.713912,17.3586544,205.32152888,207.868773056,22,5,7.561,116.79371141456,90.551184,17.6270872,205.32152888,-2.23694,-17.224438,-6.263432,264.4, -6.9, 2.2,0,0,1684,1024,1684,1024,100,0,100,0,271.1,0,0,45,3.803,3.801,0,0,0,0,5.3,95,116.79371141456,90.551184,6,P-GPS,
14600,2023-10-20 19:34:07,-34.918399031129,-56.1692315420585,91.207352,145.2427868,-27.792907385436,117.44987941456,38.713912,17.3586544,207.78215888,210.349744264,22,5,7.561,117.44987941456,91.207352,17.6270872,207.78215888,-2.23694,-17.224438,-6.487126,264.4, -4.7, 0.5,0,0,1684,1024,1684,1024,100,0,100,0,271.1,0,0,45,3.803,3.801,0,0,0,0,5.3,95,117.44987941456,91.207352,6,P-GPS,
14700,2023-10-20 19:34:07,-34.9184000178097,-56.1692404049094,91.86352,146.1942304,-28.088182985436,118.10604741456,38.713912,17.112591,210.437670776,213.025597368,22,5,7.594,118.10604741456,91.86352,17.6270872,210.437670776,-2.013246,-17.000744,-6.71082,264.6, -7.1, 0.8,0,0,1684,1024,1684,1024,100,0,100,0,271.1,0,0,45,3.794,3.789,0,0,0,0,4.08,95.18,118.10604741456,91.86352,6,P-GPS,
14800,2023-10-20 19:34:07,-34.9184007930924,-56.1692481077061,92.847772,147.4409496,-28.350650185436,119.09029941456,38.713912,17.112591,212.738523868,215.347119752,22,5,7.594,119.09029941456,92.847772,17.6270872,212.738523868,-2.013246,-17.000744,-6.71082,264.9, -11, 0.5,0,0,1684,1024,1684,1024,100,0,100,0,271.1,0,0,45,3.794,3.789,0,0,0,0,4.08,95.18,119.09029941456,92.847772,6,P-GPS,
14900,2023-10-20 19:34:07,-34.9184016053212,-56.1692566684448,93.50394,148.3923932,-28.645925785436,119.74646741456,38.713912,17.0902216,215.291673556,217.925203824,22,5,7.594,119.74646741456,93.50394,17.6270872,215.291673556,-1.789552,-17.000744,-6.487126,264.8, -10.6, -0.3,0,0,1684,1024,1684,1024,100,0,100,0,271.1,0,0,45,3.794,3.789,0,0,0,0,4.08,95.18,119.74646741456,93.50394,6,P-GPS,
15000,2023-10-20 19:34:08,-34.9184023336004,-56.1692648144426,94.488192,149.7047292,-28.974009785436,120.73071941456,38.713912,17.0902216,217.717526652,220.376647472,22,5,7.594,120.73071941456,94.488192,17.6270872,217.717526652,-1.789552,-17.000744,-6.487126,264.7, -9.8, -1.4,0,0,1684,1024,1684,1024,100,0,100,0,271.1,0,0,45,3.794,3.789,0,0,0,0,4.08,95.18,120.73071941456,94.488192,6,P-GPS,
15100,2023-10-20 19:34:08,-34.9184030960639,-56.1692732969054,95.14436,150.6233644,-29.236476985436,121.38688741456,38.713912,17.0902216,220.244757704,222.92979716,22,5,7.594,121.38688741456,95.14436,17.6270872,220.244757704,-1.789552,-17.000744,-6.263432,264.9, -10.5, -2.1,0,0,1684,1024,1684,1024,100,0,100,0,271.1,0,0,45,3.794,3.789,0,0,0,0,4.08,95.18,121.38688741456,95.14436,6,P-GPS,
15200,2023-10-20 19:34:08,-34.9184037716728,-56.1692813786694,96.128612,151.902892,-29.531752585436,122.37113941456,38.713912,17.0902216,222.648629172,225.359915348,22,5,7.594,122.37113941456,96.128612,17.6270872,222.648629172,-1.789552,-17.000744,-6.263432,264.9, -11.3, -2.2,0,0,1684,1024,1684,1024,100,0,100,0,271.1,0,0,45,3.794,3.789,0,0,0,0,4.08,95.18,122.37113941456,96.128612,6,P-GPS,
15300,2023-10-20 19:34:08,-34.9184044696369,-56.1692898472573,97.112864,153.215228,-29.859836585436,123.35539141456,38.713912,17.0902216,225.167001956,227.906175272,22,5,7.594,123.35539141456,97.112864,17.6270872,225.167001956,-1.789552,-17.000744,-6.263432,265.1, -13, -2,0,0,1684,1024,1684,1024,100,0,100,0,271.1,0,0,45,3.794,3.789,0,0,0,0,4.08,95.18,123.35539141456,97.112864,6,P-GPS,
15400,2023-10-20 19:34:08,-34.9184051029323,-56.1692979218331,98.097116,154.4947556,-30.155112185436,124.33964341456,38.713912,17.0902216,227.565952164,230.33301262,22,5,7.594,124.33964341456,98.097116,17.6270872,227.565952164,-1.789552,-17.000744,-6.263432,265.2, -12.8, -1.5,0,0,1684,1024,1684,1024,100,0,100,0,271.1,0,0,45,3.794,3.789,0,0,0,0,4.08,95.18,124.33964341456,98.097116,6,P-GPS,
15500,2023-10-20 19:34:08,-34.9184057150057,-56.1693064451682,99.081368,155.7414748,-30.417579385436,125.32389541456,38.713912,17.0678522,230.094167468,232.892395904,22,5,7.594,125.32389541456,99.081368,17.6270872,230.094167468,-1.565858,-17.000744,-6.487126,265.4, -13.1, -2.4,0,0,1684,1024,1684,1024,100,0,100,0,271.1,0,0,45,3.794,3.789,0,0,0,0,4.08,95.18,125.32389541456,99.081368,6,P-GPS,
15600,2023-10-20 19:34:08,-34.9184061675959,-56.1693143741416,100.06562,157.0538108,-30.745663385436,126.30814741456,38.713912,17.0678522,232.43603106,235.270348736,22,5,7.594,126.30814741456,100.06562,17.6270872,232.43603106,-1.565858,-17.000744,-6.263432,265.4, -12.2, -4.4,0,0,1684,1024,1684,1024,100,0,100,0,271.1,0,0,45,3.794,3.789,0,0,0,0,4.08,95.18,126.30814741456,100.06562,6,P-GPS,
15700,2023-10-20 19:34:08,-34.9184067781582,-56.1693229701943,101.049872,158.3333384,-31.040938985436,127.29239941456,38.713912,17.2691768,234.986556076,237.851713648,22,5,7.591,127.29239941456,101.049872,17.6270872,234.986556076,-1.342164,-17.224438,-6.263432,265.5, -12.9, -4,0,0,1684,1024,1684,1024,100,0,100,0,271.1,0,0,45,3.79,3.783,0,0,0,0,4.432,95.18,127.29239941456,101.049872,6,P-GPS,
