time(millisecond),datetime(utc),latitude,longitude,height_above_takeoff(feet),height_above_ground_at_drone_location(feet),ground_elevation_at_drone_location(feet),altitude_above_seaLevel(feet),height_sonar(feet),speed(mph),distance(feet),mileage(feet),satellites,gpslevel,voltage(v),max_altitude(feet),max_ascent(feet),max_speed(mph),max_distance(feet), xSpeed(mph), ySpeed(mph), zSpeed(mph), compass_heading(degrees), pitch(degrees), roll(degrees),isPhoto,isVideo,rc_elevator,rc_aileron,rc_throttle,rc_rudder,rc_elevator(percent),rc_aileron(percent),rc_throttle(percent),rc_rudder(percent),gimbal_heading(degrees),gimbal_pitch(degrees),gimbal_roll(degrees),battery_percent,voltageCell1,voltageCell2,voltageCell3,voltageCell4,voltageCell5,voltageCell6,current(A),battery_temperature(f),altitude(feet),ascent(feet),flycStateRaw,flycState,message
28100,2022-08-11 15:36:08,0,0,0,,,3.28084E-5,0.328084,0,0,0,0,0,0,3.28084E-5,0,0,0,0,0,0,34.7, 3.3, 0,0,0,1024,1024,1024,1024,0,0,0,0,34.7,0,0,59,3.952,3.945,0,0,0,0,0,84.02,3.28084E-5,0,41,Motors_Started,"Vuela con cuidado (sin GPS) Sin tarjeta SD. Inserta una tarjeta (Code: 10022). Sin señal GPS. La aeronave no puede hacer vuelo estacionario. Vuela con cuidado (Code: 30008). Sin tarjeta SD. Inserta una tarjeta (Code: 10022). Señal débil del GPS. Vuelo estacionario inestable. Vu"
28200,2022-08-11 15:36:08,0,0,0,,,3.28084E-5,0.328084,0,0,0,0,0,0,3.28084E-5,0,0,0,0,0,0,34.7, 3.3, 0.1,0,0,364,364,364,1684,-100,-100,-100,100,34.7,0,0,59,3.952,3.945,0,0,0,0,0,84.02,3.28084E-5,0,41,Motors_Started,
28300,2022-08-11 15:36:08,0,0,0,,,3.28084E-5,0.328084,0,0,0,0,0,0,3.28084E-5,0,0,0,0,0,0,34.7, 3.3, 0,0,0,364,364,364,1684,-100,-100,-100,100,34.7,0,0,59,3.952,3.945,0,0,0,0,0,84.02,3.28084E-5,0,41,Motors_Started,
28400,2022-08-11 15:36:08,0,0,0,,,3.28084E-5,0.328084,0,0,0,0,0,0,3.28084E-5,0,0,0,0,0,0,34.7, 3.3, 0,0,0,364,364,364,1684,-100,-100,-100,100,34.7,0,0,59,3.952,3.945,0,0,0,0,0,84.02,3.28084E-5,0,41,Motors_Started,
28500,2022-08-11 15:36:08,0,0,0,,,3.28084E-5,0.328084,0,0,0,0,0,0,3.28084E-5,0,0,0,0,0,0,34.7, 3.3, 0.1,0,0,364,364,364,1684,-100,-100,-100,100,34.7,0,0,59,3.952,3.945,0,0,0,0,0,84.02,3.28084E-5,0,41,Motors_Started,
28600,2022-08-11 15:36:08,0,0,0,,,3.28084E-5,0.328084,0,0,0,0,0,0,3.28084E-5,0,0,0,0,0,0,34.7, 3.3, 0.1,0,0,364,364,364,1684,-100,-100,-100,100,34.7,0,0,59,3.952,3.945,0,0,0,0,0,84.02,3.28084E-5,0,41,Motors_Started,
28700,2022-08-11 15:36:08,0,0,0,,,3.28084E-5,0.328084,0,0,0,0,0,0,3.28084E-5,0,0,0,0,0,0,34.7, 3.3, 0,0,0,1024,1024,1024,1024,0,0,0,0,34.7,0,0,59,3.952,3.945,0,0,0,0,0,84.02,3.28084E-5,0,41,Motors_Started,
28800,2022-08-11 15:36:08,0,0,0,,,3.28084E-5,0.328084,0,0,0,0,0,0,3.28084E-5,0,0,0,0,0,0,34.7, 3.3, 0,0,0,1024,1024,1024,1024,0,0,0,0,34.7,0,0,59,3.952,3.945,0,0,0,0,0,84.02,3.28084E-5,0,41,Motors_Started,
28900,2022-08-11 15:36:09,0,0,0,,,3.28084E-5,0.328084,0,0,0,0,0,0,3.28084E-5,0,0,0,0,0,0,34.7, 3.3, 0.1,0,0,1024,1024,1024,1024,0,0,0,0,34.7,0,0,59,3.952,3.945,0,0,0,0,0,84.02,3.28084E-5,0,41,Motors_Started,
29000,2022-08-11 15:36:09,0,0,0,,,3.28084E-5,0.328084,0,0,0,0,0,0,3.28084E-5,0,0,0,0,0,0,34.7, 3.3, 0.1,0,0,1024,1024,1024,1024,0,0,0,0,34.7,0,0,59,3.952,3.945,0,0,0,0,0,84.02,3.28084E-5,0,41,Motors_Started,"Setting new Return-To-Home altitude to 100m (328 ft). Data Recorder File Index is 4. Setting new Maximum Flight Altitude to 30m (98 ft)"
29100,2022-08-11 15:36:09,0,0,0,,,3.28084E-5,0.328084,0,0,0,0,0,0,3.28084E-5,0,0,0,0,0,0,34.7, 3.3, 0,0,0,1024,1024,1024,1024,0,0,0,0,34.7,0,0,59,3.952,3.945,0,0,0,0,0,84.02,3.28084E-5,0,41,Motors_Started,
29200,2022-08-11 15:36:09,0,0,0,,,3.28084E-5,0.328084,0,0,0,0,0,0,3.28084E-5,0,0,0,0,0,0,34.7, 3.3, 0.1,0,0,1024,1024,1024,1024,0,0,0,0,34.7,0,0,59,3.952,3.945,0,0,0,0,0,84.02,3.28084E-5,0,10,Assisted_Takeoff,
29300,2022-08-11 15:36:09,0,0,0,,,3.28084E-5,0.328084,0,0,0,0,0,0,3.28084E-5,0,0,0,0,0,0,34.7, 3.3, 0,0,0,1024,1024,1024,1024,0,0,0,0,34.7,0,0,59,3.952,3.945,0,0,0,0,0,84.02,3.28084E-5,0,10,Assisted_Takeoff,
29400,2022-08-11 15:36:09,0,0,0,,,3.28084E-5,0.328084,0,0,0,0,0,0,3.28084E-5,0,0,0,0,0,0,34.5, 3.3, 0,0,0,1024,1024,1024,1024,0,0,0,0,34.7,0,0,59,3.952,3.945,0,0,0,0,0,84.02,3.28084E-5,0,10,Assisted_Takeoff,
29500,2022-08-11 15:36:09,0,0,0,,,3.28084E-5,0.328084,0,0,0,0,0,0,3.28084E-5,0,0,0,0,0,0,34.5, 3.3, 0.1,0,0,1024,1024,1024,1024,0,0,0,0,34.6,0,0,59,3.952,3.945,0,0,0,0,0,84.02,3.28084E-5,0,10,Assisted_Takeoff,
29600,2022-08-11 15:36:09,0,0,0,,,3.28084E-5,0.328084,0,0,0,0,0,0,3.28084E-5,0,0,0,0,0,0,34.4, 3.3, 0.1,0,0,1024,1024,1024,1024,0,0,0,0,34.6,0,0,59,3.952,3.945,0,0,0,0,0,84.02,3.28084E-5,0,10,Assisted_Takeoff,
29700,2022-08-11 15:36:09,0,0,0,,,3.28084E-5,0.328084,0,0,0,0,0,7.93,3.28084E-5,0,0,0,0,0,0,34.3, 3.3, 0,0,0,1024,1024,1024,1024,0,0,0,0,34.5,0,0,59,3.95,3.946,0,0,0,0,0.567,84.02,3.28084E-5,0,10,Assisted_Takeoff,
29800,2022-08-11 15:36:09,0,0,0,,,3.28084E-5,0.328084,0,0,0,0,0,7.93,3.28084E-5,0,0,0,0,0,0,34.2, 3.3, 0,0,0,1024,1024,1024,1024,0,0,0,0,34.4,0,0,59,3.95,3.946,0,0,0,0,0.567,84.02,3.28084E-5,0,10,Assisted_Takeoff,
29900,2022-08-11 15:36:10,0,0,0,,,3.28084E-5,0.328084,0,0,0,0,0,7.93,3.28084E-5,0,0,0,0,0,0,34.1, 3.3, 0,0,0,1024,1024,1024,1024,0,0,0,0,34.3,0,0,59,3.95,3.946,0,0,0,0,0.567,84.02,3.28084E-5,0,10,Assisted_Takeoff,
30000,2022-08-11 15:36:10,0,0,0,,,3.28084E-5,0.328084,0,0,0,0,0,7.93,3.28084E-5,0,0,0,0,0,0,34.1, 3.3, 0.1,0,0,1024,1024,1024,1024,0,0,0,0,34.2,0,0,59,3.95,3.946,0,0,0,0,0.567,84.02,3.28084E-5,0,10,Assisted_Takeoff,
30100,2022-08-11 15:36:10,0,0,0,,,3.28084E-5,0.328084,0,0,0,0,0,7.93,3.28084E-5,0,0,0,0,0,0,34.1, 3.3, 0,0,0,1024,1024,1024,1024,0,0,0,0,34.2,0,0,59,3.95,3.946,0,0,0,0,0.567,84.02,3.28084E-5,0,10,Assisted_Takeoff,
30200,2022-08-11 15:36:10,0,0,0,,,3.28084E-5,0.328084,0,0,0,0,0,7.93,3.28084E-5,0,0,0,0,0,0,34.1, 3.4, 0,0,0,1024,1024,1024,1024,0,0,0,0,34.2,0,0,59,3.95,3.946,0,0,0,0,0.567,84.02,3.28084E-5,0,10,Assisted_Takeoff,
30300,2022-08-11 15:36:10,0,0,0,,,3.28084E-5,0.328084,0,0,0,0,0,7.93,3.28084E-5,0,0,0,0,0,0,34.1, 3.3, 0,0,0,1024,1024,1024,1024,0,0,0,0,34.2,0,0,59,3.95,3.946,0,0,0,0,0.567,84.02,3.28084E-5,0,10,Assisted_Takeoff,
30400,2022-08-11 15:36:10,0,0,0,,,3.28084E-5,0.328084,0,0,0,0,0,7.93,3.28084E-5,0,0,0,0,0,0,34.1, 3.3, 0,0,0,1024,1024,1024,1024,0,0,0,0,34.2,0,0,59,3.95,3.946,0,0,0,0,0.567,84.02,3.28084E-5,0,10,Assisted_Takeoff,
30500,2022-08-11 15:36:10,0,0,0,,,3.28084E-5,0.328084,0,0,0,0,0,7.93,3.28084E-5,0,0,0,0,0,0,34.1, 3.3, 0.1,0,0,1024,1024,1024,1024,0,0,0,0,34.2,0,0,59,3.95,3.946,0,0,0,0,0.567,84.02,3.28084E-5,0,10,Assisted_Takeoff,
30600,2022-08-11 15:36:10,0,0,0,,,3.28084E-5,0.328084,0,0,0,0,0,7.93,3.28084E-5,0,0,0,0,0,0,34.1, 3.3, 0,0,0,1024,1024,1024,1024,0,0,0,0,34.2,0,0,59,3.95,3.946,0,0,0,0,0.567,84.02,3.28084E-5,0,10,Assisted_Takeoff,
30700,2022-08-11 15:36:10,0,0,0,,,3.28084E-5,0.328084,0,0,0,0,0,7.882,3.28084E-5,0,0,0,0,0,0,34, 3.4, 0,0,0,1024,1024,1024,1024,0,0,0,0,34.1,0,0,59,3.954,3.948,0,0,0,0,1.499,84.02,3.28084E-5,0,10,Assisted_Takeoff,
30800,2022-08-11 15:36:11,0,0,0,,,3.28084E-5,0.328084,0,0,0,0,0,7.882,3.28084E-5,0,0,0,0,0,0,34.1, 3.3, 0,0,0,1024,1024,1024,1024,0,0,0,0,34.1,0,0,59,3.954,3.948,0,0,0,0,1.499,84.02,3.28084E-5,0,10,Assisted_Takeoff,
30900,2022-08-11 15:36:11,0,0,0,,,3.28084E-5,0.328084,0,0,0,0,0,7.882,3.28084E-5,0,0,0,0,0,0,34, 3.3, 0,0,0,1024,1024,1024,1024,0,0,0,0,34.1,0,0,59,3.954,3.948,0,0,0,0,1.499,84.02,3.28084E-5,0,10,Assisted_Takeoff,
31000,2022-08-11 15:36:11,0,0,0,,,3.28084E-5,0.328084,0,0,0,0,0,7.882,3.28084E-5,0,0,0,0,0,0,34, 3.4, 0,0,0,1024,1024,1024,1024,0,0,0,0,34.1,0,0,59,3.954,3.948,0,0,0,0,1.499,84.02,3.28084E-5,0,10,Assisted_Takeoff,
31100,2022-08-11 15:36:11,0,0,0,,,3.28084E-5,0.328084,0,0,0,0,0,7.882,3.28084E-5,0,0,0,0,0,0,34, 3.4, 0,0,0,1024,1024,1024,1024,0,0,0,0,34.1,0,0,59,3.954,3.948,0,0,0,0,1.499,84.02,3.28084E-5,0,10,Assisted_Takeoff,
31200,2022-08-11 15:36:11,0,0,0,,,3.28084E-5,0.328084,0,0,0,0,0,7.882,3.28084E-5,0,0,0,0,0,0,34, 3.3, 0,0,0,1024,1024,1024,1024,0,0,0,0,34.1,0,0,59,3.954,3.948,0,0,0,0,1.499,84.02,3.28084E-5,0,10,Assisted_Takeoff,
31300,2022-08-11 15:36:11,0,0,0,,,3.28084E-5,0.328084,0,0,0,0,0,7.882,3.28084E-5,0,0,0,0,0,0,34, 3.3, 0,0,0,1024,1024,1024,1024,0,0,0,0,34.1,0,0,59,3.954,3.948,0,0,0,0,1.499,84.02,3.28084E-5,0,10,Assisted_Takeoff,
31400,2022-08-11 15:36:11,0,0,0,,,3.28084E-5,0.328084,0,0,0,0,0,7.882,3.28084E-5,0,0,0,0,0,0,33.9, 3.3, 0,0,0,1024,1024,1024,1024,0,0,0,0,34.1,0,0,59,3.954,3.948,0,0,0,0,1.499,84.02,3.28084E-5,0,10,Assisted_Takeoff,
31500,2022-08-11 15:36:11,0,0,0,,,3.28084E-5,0.328084,0,0,0,0,0,7.882,3.28084E-5,0,0,0,0,0,0,33.9, 3.4, 0,0,0,1024,1024,1024,1024,0,0,0,0,34,0,0,59,3.954,3.948,0,0,0,0,1.499,84.02,3.28084E-5,0,10,Assisted_Takeoff,
31600,2022-08-11 15:36:11,0,0,0,,,3.28084E-5,0.328084,0,0,0,0,0,7.882,3.28084E-5,0,0,0,0,0,0,33.8, 3.3, 0,0,0,1024,1024,1024,1024,0,0,0,0,34,0,0,59,3.954,3.948,0,0,0,0,1.499,84.02,3.28084E-5,0,10,Assisted_Takeoff,
31700,2022-08-11 15:36:11,0,0,0,,,3.28084E-5,0.328084,0,0,0,0,0,7.9,3.28084E-5,0,0,0,0,0,0,33.8, 3.3, 0,0,0,1024,1024,1024,1024,0,0,0,0,34,0,0,59,3.953,3.947,0,0,0,0,1.106,84.02,3.28084E-5,0,10,Assisted_Takeoff,
31800,2022-08-11 15:36:12,0,0,0,,,3.28084E-5,0.328084,0,0,0,0,0,7.9,3.28084E-5,0,0,0,0,0,0,33.6, 3.3, 0,0,0,1024,1024,1024,1024,0,0,0,0,33.9,0,0,59,3.953,3.947,0,0,0,0,1.106,84.02,3.28084E-5,0,10,Assisted_Takeoff,
31900,2022-08-11 15:36:12,0,0,0,,,3.28084E-5,0.328084,0,0,0,0,0,7.9,3.28084E-5,0,0,0,0,0,0,33.5, 3.4, 0,0,0,1024,1024,1024,1024,0,0,0,0,33.8,0,0,59,3.953,3.947,0,0,0,0,1.106,84.02,3.28084E-5,0,10,Assisted_Takeoff,
32000,2022-08-11 15:36:12,0,0,0,,,3.28084E-5,0.328084,0,0,0,0,0,7.9,3.28084E-5,0,0,0,0,0,0,33.4, 3.4, 0,0,0,1024,1024,1024,1024,0,0,0,0,33.8,0,0,59,3.953,3.947,0,0,0,0,1.106,84.02,3.28084E-5,0,10,Assisted_Takeoff,
32100,2022-08-11 15:36:12,0,0,0,,,3.28084E-5,0.328084,0,0,0,0,0,7.9,3.28084E-5,0,0,0,0,0,0,33.3, 3.4, 0,0,0,1024,1024,1024,1024,0,0,0,0,33.7,0,0,59,3.953,3.947,0,0,0,0,1.106,84.02,3.28084E-5,0,10,Assisted_Takeoff,
32200,2022-08-11 15:36:12,0,0,0,,,3.28084E-5,0.328084,0,0,0,0,0,7.9,3.28084E-5,0,0,0,0,0,0,33.4, 3.4, 0,0,0,1024,1024,1024,1024,0,0,0,0,33.7,0,0,59,3.953,3.947,0,0,0,0,1.106,84.02,3.28084E-5,0,10,Assisted_Takeoff,
32300,2022-08-11 15:36:12,0,0,0,,,3.28084E-5,0.328084,0,0,0,0,0,7.9,3.28084E-5,0,0,0,0,0,0,33.3, 3.4, 0,0,0,1024,1024,1024,1024,0,0,0,0,33.6,0,0,59,3.953,3.947,0,0,0,0,1.106,84.02,3.28084E-5,0,10,Assisted_Takeoff,
32400,2022-08-11 15:36:12,0,0,0,,,3.28084E-5,0.328084,0,0,0,0,0,7.9,3.28084E-5,0,0,0,0,0,0,33.2, 3.4, 0,0,0,1024,1024,1024,1024,0,0,0,0,33.6,0,0,59,3.953,3.947,0,0,0,0,1.106,84.02,3.28084E-5,0,10,Assisted_Takeoff,
32500,2022-08-11 15:36:12,0,0,0,,,3.28084E-5,0.328084,0,0,0,0,0,7.9,3.28084E-5,0,0,0,0,0,0,33.2, 3.4, 0,0,0,1024,1024,1024,1024,0,0,0,0,33.5,0,0,59,3.953,3.947,0,0,0,0,1.106,84.02,3.28084E-5,0,10,Assisted_Takeoff,
32600,2022-08-11 15:36:12,0,0,0,,,3.28084E-5,0.328084,0,0,0,0,0,7.9,3.28084E-5,0,0,0,0,0,0,33.1, 3.4, 0,0,0,1024,1024,1024,1024,0,0,0,0,33.5,0,0,59,3.953,3.947,0,0,0,0,1.106,84.02,3.28084E-5,0,10,Assisted_Takeoff,
32700,2022-08-11 15:36:12,0,0,0,,,3.28084E-5,0.328084,0,0,0,0,0,7.9,3.28084E-5,0,0,0,0,0,0,33, 3.4, 0,0,0,1024,1024,1024,1024,0,0,0,0,33.4,0,0,59,3.953,3.947,0,0,0,0,1.106,84.02,3.28084E-5,0,10,Assisted_Takeoff,
32800,2022-08-11 15:36:13,0,0,0,,,3.28084E-5,0.328084,0,0,0,0,0,7.901,3.28084E-5,0,0,0,0,0,0,32.9, 3.4, 0,0,0,1024,1024,1024,1024,0,0,0,0,33.4,0,0,59,3.951,3.948,0,0,0,0,1.091,84.02,3.28084E-5,0,10,Assisted_Takeoff,
32900,2022-08-11 15:36:13,0,0,0,,,3.28084E-5,0.328084,0,0,0,0,0,7.901,3.28084E-5,0,0,0,0,0,0,32.8, 3.4, 0,0,0,1024,1024,1024,1024,0,0,0,0,33.3,0,0,59,3.951,3.948,0,0,0,0,1.091,84.02,3.28084E-5,0,10,Assisted_Takeoff,
33000,2022-08-11 15:36:13,0,0,0,,,3.28084E-5,0.328084,0,0,0,0,0,7.901,3.28084E-5,0,0,0,0,0,0,32.8, 3.4, 0,0,0,1024,1024,1024,1024,0,0,0,0,33.3,0,0,59,3.951,3.948,0,0,0,0,1.091,84.02,3.28084E-5,0,10,Assisted_Takeoff,
33100,2022-08-11 15:36:13,0,0,0,,,3.28084E-5,0.328084,0,0,0,0,0,7.901,3.28084E-5,0,0,0,0,0,0,32.8, 3.4, 0,0,0,1024,1024,1024,1024,0,0,0,0,33.2,0,0,59,3.951,3.948,0,0,0,0,1.091,84.02,3.28084E-5,0,10,Assisted_Takeoff,
33200,2022-08-11 15:36:13,0,0,0,,,3.28084E-5,0.328084,0,0,0,0,0,7.901,3.28084E-5,0,0,0,0,0,0,32.7, 3.4, 0,0,0,1024,1024,1024,1024,0,0,0,0,33.2,0,0,59,3.951,3.948,0,0,0,0,1.091,84.02,3.28084E-5,0,10,Assisted_Takeoff,
33300,2022-08-11 15:36:13,0,0,0,,,3.28084E-5,0.328084,0,0,0,0,0,7.901,3.28084E-5,0,0,0,0,0,0,32.5, 3.4, 0,0,0,1024,1024,1024,1024,0,0,0,0,33.2,0,0,59,3.951,3.948,0,0,0,0,1.091,84.02,3.28084E-5,0,10,Assisted_Takeoff,
33400,2022-08-11 15:36:13,0,0,0,,,3.28084E-5,0.328084,0,0,0,0,0,7.901,3.28084E-5,0,0,0,0,0,0,32.5, 3.3, 0,0,0,1024,1024,1024,1024,0,0,0,0,33.2,0,0,59,3.951,3.948,0,0,0,0,1.091,84.02,3.28084E-5,0,10,Assisted_Takeoff,
33500,2022-08-11 15:36:13,0,0,0,,,3.28084E-5,0.328084,0,0,0,0,0,7.901,3.28084E-5,0,0,0,0,0,0,32.4, 3.3, 0,0,0,1024,1024,1024,1024,0,0,0,0,33.1,0,0,59,3.951,3.948,0,0,0,0,1.091,84.02,3.28084E-5,0,10,Assisted_Takeoff,
33600,2022-08-11 15:36:13,0,0,0,,,3.28084E-5,0.328084,0,0,0,0,0,7.901,3.28084E-5,0,0,0,0,0,0,32.4, 3.4, 0,0,0,1024,1024,1024,1024,0,0,0,0,33.1,0,0,59,3.951,3.948,0,0,0,0,1.091,84.02,3.28084E-5,0,10,Assisted_Takeoff,
33700,2022-08-11 15:36:13,0,0,0,,,3.28084E-5,0.328084,0,0,0,0,0,7.901,3.28084E-5,0,0,0,0,0,0,32.3, 3.4, 0,0,0,1024,1024,1024,1024,0,0,0,0,33.1,0,0,59,3.951,3.948,0,0,0,0,1.091,84.02,3.28084E-5,0,10,Assisted_Takeoff,
33800,2022-08-11 15:36:13,0,0,0,,,3.28084E-5,0.328084,0,0,0,0,0,7.901,3.28084E-5,0,0,0,0,0,0,32.2, 3.4, 0,0,0,1024,1024,1024,1024,0,0,0,0,33.1,0,0,59,3.951,3.948,0,0,0,0,1.091,84.02,3.28084E-5,0,10,Assisted_Takeoff,
33900,2022-08-11 15:36:14,0,0,0,,,3.28084E-5,0.328084,0,0,0,0,0,7.901,3.28084E-5,0,0,0,0,0,0,32.2, 3.3, 0,0,0,1024,1024,1024,1024,0,0,0,0,33.1,0,0,59,3.951,3.948,0,0,0,0,1.091,84.02,3.28084E-5,0,10,Assisted_Takeoff,
34000,2022-08-11 15:36:14,0,0,0,,,3.28084E-5,0.328084,0,0,0,0,0,7.901,3.28084E-5,0,0,0,0,0,0,32.1, 3.4, 0,0,0,1024,1024,1024,1024,0,0,0,0,33,0,0,59,3.951,3.948,0,0,0,0,1.091,84.02,3.28084E-5,0,10,Assisted_Takeoff,
34100,2022-08-11 15:36:14,0,0,0,,,3.28084E-5,0.328084,0,0,0,0,0,7.901,3.28084E-5,0,0,0,0,0,0,32, 3.4, 0,0,0,1024,1024,1024,1024,0,0,0,0,33,0,0,59,3.951,3.948,0,0,0,0,1.091,84.02,3.28084E-5,0,10,Assisted_Takeoff,
34200,2022-08-11 15:36:14,0,0,0,,,3.28084E-5,0.328084,0,0,0,0,0,7.901,3.28084E-5,0,0,0,0,0,0,31.9, 3.4, 0,0,0,1024,1024,1024,1024,0,0,0,0,33,0,0,59,3.951,3.948,0,0,0,0,1.091,84.02,3.28084E-5,0,10,Assisted_Takeoff,
34300,2022-08-11 15:36:14,0,0,0,,,3.28084E-5,0.328084,0,0,0,0,0,7.901,3.28084E-5,0,0,0,0,0,0,31.9, 3.3, 0,0,0,1024,1024,1024,1024,0,0,0,0,33,0,0,59,3.951,3.948,0,0,0,0,1.091,84.02,3.28084E-5,0,10,Assisted_Takeoff,
34400,2022-08-11 15:36:14,0,0,0,,,3.28084E-5,0.328084,0,0,0,0,0,7.901,3.28084E-5,0,0,0,0,0,0,31.8, 3.4, 0,0,0,1024,1024,1024,1024,0,0,0,0,32.9,0,0,59,3.951,3.948,0,0,0,0,1.091,84.02,3.28084E-5,0,10,Assisted_Takeoff,
34500,2022-08-11 15:36:14,0,0,0,,,3.28084E-5,0.328084,0,0,0,0,0,7.901,3.28084E-5,0,0,0,0,0,0,31.8, 3.4, 0,0,0,1024,1024,1024,1024,0,0,0,0,32.9,0,0,59,3.951,3.948,0,0,0,0,1.091,84.02,3.28084E-5,0,10,Assisted_Takeoff,
34600,2022-08-11 15:36:14,0,0,0,,,3.28084E-5,0.328084,0,0,0,0,0,7.901,3.28084E-5,0,0,0,0,0,0,31.7, 3.4, 0,0,0,1024,1024,1024,1024,0,0,0,0,32.8,0,0,59,3.951,3.948,0,0,0,0,1.091,84.02,3.28084E-5,0,10,Assisted_Takeoff,
34700,2022-08-11 15:36:14,0,0,0,,,3.28084E-5,0.328084,0,0,0,0,0,7.898,3.28084E-5,0,0,0,0,0,0,31.8, 3.4, 0,0,0,1024,1024,1024,1024,0,0,0,0,32.8,0,0,59,3.952,3.948,0,0,0,0,1.094,84.02,3.28084E-5,0,10,Assisted_Takeoff,
34800,2022-08-11 15:36:14,0,0,0,,,3.28084E-5,0.328084,0,0,0,0,0,7.898,3.28084E-5,0,0,0,0,0,0,31.8, 3.4, 0,0,0,1024,1024,1024,1024,0,0,0,0,32.8,0,0,59,3.952,3.948,0,0,0,0,1.094,84.02,3.28084E-5,0,10,Assisted_Takeoff,
34900,2022-08-11 15:36:15,0,0,0,,,3.28084E-5,0.328084,0,0,0,0,0,7.898,3.28084E-5,0,0,0,0,0,0,31.8, 3.4, 0,0,0,1024,1024,1024,1024,0,0,0,0,32.8,0,0,59,3.952,3.948,0,0,0,0,1.094,84.02,3.28084E-5,0,10,Assisted_Takeoff,
35000,2022-08-11 15:36:15,0,0,0,,,3.28084E-5,0.328084,0,0,0,0,0,7.898,3.28084E-5,0,0,0,0,0,0,31.8, 3.4, 0,0,0,1024,1024,1024,1024,0,0,0,0,32.7,0,0,59,3.952,3.948,0,0,0,0,1.094,84.02,3.28084E-5,0,10,Assisted_Takeoff,
35100,2022-08-11 15:36:15,0,0,0,,,3.28084E-5,0.328084,0,0,0,0,0,7.898,3.28084E-5,0,0,0,0,0,0,31.7, 3.3, 0,0,0,1024,1024,1024,1024,0,0,0,0,32.7,0,0,59,3.952,3.948,0,0,0,0,1.094,84.02,3.28084E-5,0,10,Assisted_Takeoff,
35200,2022-08-11 15:36:15,0,0,0,,,3.28084E-5,0.328084,0,0,0,0,0,7.898,3.28084E-5,0,0,0,0,0,0,31.9, 3.4, 0,0,0,1024,1024,1024,1024,0,0,0,0,32.7,0,0,59,3.952,3.948,0,0,0,0,1.094,84.02,3.28084E-5,0,10,Assisted_Takeoff,
35300,2022-08-11 15:36:15,0,0,0,,,3.28084E-5,0.328084,0,0,0,0,0,7.898,3.28084E-5,0,0,0,0,0,0,31.9, 3.4, 0,0,0,1024,1024,1024,1024,0,0,0,0,32.7,0,0,59,3.952,3.948,0,0,0,0,1.094,84.02,3.28084E-5,0,10,Assisted_Takeoff,
35400,2022-08-11 15:36:15,0,0,0,,,3.28084E-5,0.328084,0,0,0,0,0,7.898,3.28084E-5,0,0,0,0,0,0,31.8, 3.4, 0,0,0,1024,1024,1024,1024,0,0,0,0,32.7,0,0,59,3.952,3.948,0,0,0,0,1.094,84.02,3.28084E-5,0,10,Assisted_Takeoff,
35500,2022-08-11 15:36:15,0,0,0,,,3.28084E-5,0.328084,0,0,0,0,0,7.898,3.28084E-5,0,0,0,0,0,0,31.9, 3.4, 0,0,0,1024,1024,1024,1024,0,0,0,0,32.6,0,0,59,3.952,3.948,0,0,0,0,1.094,84.02,3.28084E-5,0,10,Assisted_Takeoff,
35600,2022-08-11 15:36:15,0,0,0,,,3.28084E-5,0.328084,0,0,0,0,0,7.898,3.28084E-5,0,0,0,0,0,0,31.9, 3.4, 0,0,0,1024,1024,1024,1024,0,0,0,0,32.6,0,0,59,3.952,3.948,0,0,0,0,1.094,84.02,3.28084E-5,0,10,Assisted_Takeoff,
35700,2022-08-11 15:36:15,0,0,0,,,3.28084E-5,0.328084,0,0,0,0,0,7.897,3.28084E-5,0,0,0,0,0,0,32, 3.4, 0,0,0,1024,1024,1024,1024,0,0,0,0,32.6,0,0,59,3.951,3.947,0,0,0,0,1.105,84.2,3.28084E-5,0,10,Assisted_Takeoff,
35800,2022-08-11 15:36:15,0,0,0,,,3.28084E-5,0.328084,0,0,0,0,0,7.897,3.28084E-5,0,0,0,0,0,0,31.9, 3.4, 0,0,0,1024,1024,1024,1024,0,0,0,0,32.6,0,0,59,3.951,3.947,0,0,0,0,1.105,84.2,3.28084E-5,0,10,Assisted_Takeoff,
35900,2022-08-11 15:36:16,0,0,0,,,3.28084E-5,0.328084,0,0,0,0,0,7.897,3.28084E-5,0,0,0,0,0,0,31.9, 3.4, 0,0,0,1024,1024,1024,1024,0,0,0,0,32.6,0,0,59,3.951,3.947,0,0,0,0,1.105,84.2,3.28084E-5,0,10,Assisted_Takeoff,
36000,2022-08-11 15:36:16,0,0,0,,,3.28084E-5,0.328084,0,0,0,0,0,7.897,3.28084E-5,0,0,0,0,0,0,32, 3.4, 0,0,0,1024,1024,1024,1024,0,0,0,0,32.6,0,0,59,3.951,3.947,0,0,0,0,1.105,84.2,3.28084E-5,0,10,Assisted_Takeoff,
36100,2022-08-11 15:36:16,0,0,0,,,3.28084E-5,0.328084,0,0,0,0,0,7.897,3.28084E-5,0,0,0,0,0,0,31.9, 3.4, 0,0,0,1024,1024,1024,1024,0,0,0,0,32.6,0,0,59,3.951,3.947,0,0,0,0,1.105,84.2,3.28084E-5,0,10,Assisted_Takeoff,
36200,2022-08-11 15:36:16,0,0,0,,,3.28084E-5,0.328084,0,0,0,0,0,7.897,3.28084E-5,0,0,0,0,0,0,31.9, 3.4, 0,0,0,1024,1024,1024,1024,0,0,0,0,32.6,0,0,59,3.951,3.947,0,0,0,0,1.105,84.2,3.28084E-5,0,10,Assisted_Takeoff,
36300,2022-08-11 15:36:16,0,0,0,,,3.28084E-5,0.328084,0,0,0,0,0,7.897,3.28084E-5,0,0,0,0,0,0,31.9, 3.4, 0,0,0,1024,1024,1024,1024,0,0,0,0,32.5,0,0,59,3.951,3.947,0,0,0,0,1.105,84.2,3.28084E-5,0,10,Assisted_Takeoff,
36400,2022-08-11 15:36:16,0,0,0,,,3.28084E-5,0.328084,0,0,0,0,0,7.897,3.28084E-5,0,0,0,0,0,0,31.9, 3.4, 0,0,0,1024,1024,1024,1024,0,0,0,0,32.5,0,0,59,3.951,3.947,0,0,0,0,1.105,84.2,3.28084E-5,0,10,Assisted_Takeoff,
36500,2022-08-11 15:36:16,0,0,0,,,3.28084E-5,0.328084,0,0,0,0,0,7.897,3.28084E-5,0,0,0,0,0,0,32, 3.4, 0,0,0,1024,1024,1043,1024,0,0,3,0,32.5,0,0,59,3.951,3.947,0,0,0,0,1.105,84.2,3.28084E-5,0,10,Assisted_Takeoff,
36600,2022-08-11 15:36:16,0,0,0,,,3.28084E-5,0.328084,0,0,0,0,0,7.897,3.28084E-5,0,0,0,0,0,0,31.9, 3.4, 0,0,0,1024,1024,1095,1024,0,0,11,0,32.5,0,0,59,3.951,3.947,0,0,0,0,1.105,84.2,3.28084E-5,0,10,Assisted_Takeoff,
36700,2022-08-11 15:36:16,0,0,0,,,3.28084E-5,0.328084,0,0,0,0,0,7.897,3.28084E-5,0,0,0,0,0,0,31.9, 3.4, 0,0,0,1024,1024,1024,1024,0,0,0,0,32.5,0,0,59,3.951,3.947,0,0,0,0,1.105,84.2,3.28084E-5,0,10,Assisted_Takeoff,
36800,2022-08-11 15:36:17,0,0,0,,,3.28084E-5,0.328084,0,0,0,0,0,7.897,3.28084E-5,0,0,0,0,0,0,32, 3.4, 0,0,0,1024,1024,1024,1024,0,0,0,0,32.5,0,0,59,3.951,3.947,0,0,0,0,1.105,84.2,3.28084E-5,0,10,Assisted_Takeoff,
36900,2022-08-11 15:36:17,0,0,0,,,3.28084E-5,0.328084,0,0,0,0,0,7.897,3.28084E-5,0,0,0,0,0,0,32, 3.4, 0,0,0,1024,1024,1024,1024,0,0,0,0,32.5,0,0,59,3.95,3.946,0,0,0,0,1.095,84.2,3.28084E-5,0,10,Assisted_Takeoff,
37000,2022-08-11 15:36:17,0,0,0,,,3.28084E-5,0.328084,0,0,0,0,0,7.897,3.28084E-5,0,0,0,0,0,0,32, 3.4, 0,0,0,1024,1024,1024,1024,0,0,0,0,32.5,0,0,59,3.95,3.946,0,0,0,0,1.095,84.2,3.28084E-5,0,10,Assisted_Takeoff,
37100,2022-08-11 15:36:17,0,0,0,,,3.28084E-5,0.328084,0,0,0,0,0,7.897,3.28084E-5,0,0,0,0,0,0,32, 3.4, 0,0,0,1024,1024,1024,1024,0,0,0,0,32.5,0,0,59,3.95,3.946,0,0,0,0,1.095,84.2,3.28084E-5,0,10,Assisted_Takeoff,
37200,2022-08-11 15:36:17,0,0,0,,,3.28084E-5,0.328084,0,0,0,0,0,7.897,3.28084E-5,0,0,0,0,0,0,32, 3.4, 0,0,0,1024,1024,1024,1024,0,0,0,0,32.5,0,0,59,3.95,3.946,0,0,0,0,1.095,84.2,3.28084E-5,0,10,Assisted_Takeoff,
37300,2022-08-11 15:36:17,0,0,0,,,3.28084E-5,0.328084,0,0,0,0,0,7.897,3.28084E-5,0,0,0,0,0,0,32, 3.4, 0,0,0,1024,1024,1126,1024,0,0,15,0,32.5,0,0,59,3.95,3.946,0,0,0,0,1.095,84.2,3.28084E-5,0,10,Assisted_Takeoff,
37400,2022-08-11 15:36:17,0,0,0,,,3.28084E-5,0.328084,0,0,0,0,0,7.897,3.28084E-5,0,0,0,0,0,0,32, 3.4, 0,0,0,1024,1024,1024,1024,0,0,0,0,32.5,0,0,59,3.95,3.946,0,0,0,0,1.095,84.2,3.28084E-5,0,10,Assisted_Takeoff,
37500,2022-08-11 15:36:17,0,0,0,,,3.28084E-5,0.328084,0,0,0,0,0,7.897,3.28084E-5,0,0,0,0,0,0,32, 3.4, 0,0,0,1024,1024,1024,1024,0,0,0,0,32.5,0,0,59,3.95,3.946,0,0,0,0,1.095,84.2,3.28084E-5,0,10,Assisted_Takeoff,
37600,2022-08-11 15:36:17,0,0,0,,,3.28084E-5,0.328084,0,0,0,0,0,7.897,3.28084E-5,0,0,0,0,0,0,32, 3.4, 0,0,0,1024,1024,1024,1024,0,0,0,0,32.5,0,0,59,3.95,3.946,0,0,0,0,1.095,84.2,3.28084E-5,0,10,Assisted_Takeoff,
37700,2022-08-11 15:36:17,0,0,0,,,3.28084E-5,0.328084,0,0,0,0,0,7.897,3.28084E-5,0,0,0,0,0,0,32, 3.4, 0,0,0,1024,1024,1024,1024,0,0,0,0,32.4,0,0,59,3.95,3.946,0,0,0,0,1.095,84.2,3.28084E-5,0,10,Assisted_Takeoff,
37800,2022-08-11 15:36:18,0,0,0,,,3.28084E-5,0.328084,0,0,0,0,0,7.897,3.28084E-5,0,0,0,0,0,0,32, 3.4, 0,0,0,1024,1024,1145,1024,0,0,18,0,32.4,0,0,59,3.95,3.946,0,0,0,0,1.095,84.2,3.28084E-5,0,10,Assisted_Takeoff,
37900,2022-08-11 15:36:18,0,0,0,,,3.28084E-5,0.328084,0,0,0,0,0,7.894,3.28084E-5,0,0,0,0,0,0,32, 3.4, 0,0,0,1024,1024,1024,1024,0,0,0,0,32.4,0,0,59,3.949,3.941,0,0,0,0,1.191,84.2,3.28084E-5,0,10,Assisted_Takeoff,
38000,2022-08-11 15:36:18,0,0,0,,,3.28084E-5,0.328084,0,0,0,0,0,7.894,3.28084E-5,0,0,0,0,0,0,32, 3.4, 0,0,0,1024,1024,1024,1024,0,0,0,0,32.4,0,0,59,3.949,3.941,0,0,0,0,1.191,84.2,3.28084E-5,0,10,Assisted_Takeoff,
38100,2022-08-11 15:36:18,0,0,0,,,3.28084E-5,0.328084,0,0,0,0,0,7.894,3.28084E-5,0,0,0,0,0,0,32, 3.4, 0,0,0,1024,1024,1024,1024,0,0,0,0,32.4,0,0,59,3.949,3.941,0,0,0,0,1.191,84.2,3.28084E-5,0,10,Assisted_Takeoff,
38200,2022-08-11 15:36:18,0,0,0,,,3.28084E-5,0.328084,0,0,0,0,0,7.894,3.28084E-5,0,0,0,0,0,0,32, 3.5, 0,0,0,1024,1024,1024,1024,0,0,0,0,32.4,0,0,59,3.949,3.941,0,0,0,0,1.191,84.2,3.28084E-5,0,10,Assisted_Takeoff,
38300,2022-08-11 15:36:18,0,0,0,,,3.28084E-5,0.328084,0,0,0,0,0,7.894,3.28084E-5,0,0,0,0,0,0,32, 3.3, 0,0,0,1024,1024,1024,1024,0,0,0,0,32.4,0,0,59,3.949,3.941,0,0,0,0,1.191,84.2,3.28084E-5,0,10,Assisted_Takeoff,
38400,2022-08-11 15:36:18,0,0,0,,,3.28084E-5,0.328084,0,0,0,0,0,7.894,3.28084E-5,0,0,0,0,0,0,32, 3.4, 0,0,0,1024,1024,1024,1024,0,0,0,0,32.4,0,0,59,3.949,3.941,0,0,0,0,1.191,84.2,3.28084E-5,0,10,Assisted_Takeoff,
38500,2022-08-11 15:36:18,0,0,0,,,3.28084E-5,0.328084,0,0,0,0,0,7.894,3.28084E-5,0,0,0,0,0,0,32, 3.4, 0,0,0,1024,1024,1024,1024,0,0,0,0,32.4,0,0,59,3.949,3.941,0,0,0,0,1.191,84.2,3.28084E-5,0,10,Assisted_Takeoff,
38600,2022-08-11 15:36:18,0,0,0,,,3.28084E-5,0.328084,0,0,0,0,0,7.894,3.28084E-5,0,0,0,0,0,0,32, 3.4, 0,0,0,1024,1024,1024,1024,0,0,0,0,32.4,0,0,59,3.949,3.941,0,0,0,0,1.191,84.2,3.28084E-5,0,10,Assisted_Takeoff,
38700,2022-08-11 15:36:18,0,0,0,,,3.28084E-5,0.328084,0,0,0,0,0,7.894,3.28084E-5,0,0,0,0,0,0,32, 3.4, 0,0,0,1024,1024,1024,1024,0,0,0,0,32.4,0,0,59,3.949,3.941,0,0,0,0,1.191,84.2,3.28084E-5,0,10,Assisted_Takeoff,
38800,2022-08-11 15:36:19,0,0,0,,,3.28084E-5,0.328084,0,0,0,0,0,7.894,3.28084E-5,0,0,0,0,0,0,32, 3.4, 0,0,0,1024,1024,1024,1024,0,0,0,0,32.4,0,0,59,3.949,3.941,0,0,0,0,1.191,84.2,3.28084E-5,0,10,Assisted_Takeoff,
38900,2022-08-11 15:36:19,0,0,0,,,3.28084E-5,0.328084,0,0,0,0,0,7.883,3.28084E-5,0,0,0,0,0,0,32, 3.3, 0,0,0,1024,1024,1024,1024,0,0,0,0,32.4,0,0,59,3.946,3.942,0,0,0,0,1.369,84.2,3.28084E-5,0,10,Assisted_Takeoff,
39000,2022-08-11 15:36:19,0,0,0,,,3.28084E-5,0.328084,0,0,0,0,0,7.883,3.28084E-5,0,0,0,0,0,0,32, 3.4, 0,0,0,1024,1024,1051,1024,0,0,4,0,32.4,0,0,59,3.946,3.942,0,0,0,0,1.369,84.2,3.28084E-5,0,10,Assisted_Takeoff,
39100,2022-08-11 15:36:19,0,0,0,,,3.28084E-5,0.328084,0,0,0,0,0,7.883,3.28084E-5,0,0,0,0,0,0,32, 3.4, 0,0,0,1024,1024,1051,1024,0,0,4,0,32.4,0,0,59,3.946,3.942,0,0,0,0,1.369,84.2,3.28084E-5,0,10,Assisted_Takeoff,
39200,2022-08-11 15:36:19,0,0,0,,,3.28084E-5,0.328084,0,0,0,0,0,7.883,3.28084E-5,0,0,0,0,0,0,32, 3.4, 0,0,0,1024,1024,1128,1024,0,0,16,0,32.4,0,0,59,3.946,3.942,0,0,0,0,1.369,84.2,3.28084E-5,0,10,Assisted_Takeoff,
39300,2022-08-11 15:36:19,0,0,0,,,3.28084E-5,0.328084,0,0,0,0,0,7.883,3.28084E-5,0,0,0,0,0,0,32, 3.4, 0,0,0,1024,1024,1105,1024,0,0,12,0,32.4,0,0,59,3.946,3.942,0,0,0,0,1.369,84.2,3.28084E-5,0,10,Assisted_Takeoff,
39400,2022-08-11 15:36:19,0,0,0,,,3.28084E-5,0.328084,0,0,0,0,0,7.883,3.28084E-5,0,0,0,0,0,0,32, 3.4, 0,0,0,1024,1024,1084,1024,0,0,9,0,32.4,0,0,59,3.946,3.942,0,0,0,0,1.369,84.2,3.28084E-5,0,10,Assisted_Takeoff,
39500,2022-08-11 15:36:19,0,0,0,,,3.28084E-5,0.328084,0,0,0,0,0,7.883,3.28084E-5,0,0,0,0,0,0,32.1, 3.4, 0,0,0,1024,1024,1051,1024,0,0,4,0,32.4,0,0,59,3.946,3.942,0,0,0,0,1.369,84.2,3.28084E-5,0,10,Assisted_Takeoff,
39600,2022-08-11 15:36:19,0,0,0,,,3.28084E-5,0.328084,0,0,0,0,0,7.883,3.28084E-5,0,0,0,0,0,0,32, 3.4, 0,0,0,1024,1024,1024,1024,0,0,0,0,32.4,0,0,59,3.946,3.942,0,0,0,0,1.369,84.2,3.28084E-5,0,10,Assisted_Takeoff,
39700,2022-08-11 15:36:19,0,0,0,,,3.28084E-5,0.328084,0,0,0,0,0,7.883,3.28084E-5,0,0,0,0,0,0,32.1, 3.4, 0,0,0,1024,1024,1024,1024,0,0,0,0,32.4,0,0,59,3.946,3.942,0,0,0,0,1.369,84.2,3.28084E-5,0,10,Assisted_Takeoff,
39800,2022-08-11 15:36:19,0,0,0,,,3.28084E-5,0.328084,0,0,0,0,0,7.883,3.28084E-5,0,0,0,0,0,0,32.1, 3.4, 0,0,0,1024,1024,1024,1024,0,0,0,0,32.4,0,0,59,3.946,3.942,0,0,0,0,1.369,84.2,3.28084E-5,0,10,Assisted_Takeoff,
39900,2022-08-11 15:36:20,0,0,0,,,3.28084E-5,0.328084,0,0,0,0,0,7.892,3.28084E-5,0,0,0,0,0,0,32.1, 3.3, 0,0,0,1024,1024,1024,1024,0,0,0,0,32.4,0,0,59,3.933,3.927,0,0,0,0,1.209,84.2,3.28084E-5,0,10,Assisted_Takeoff,
40000,2022-08-11 15:36:20,0,0,0,,,3.28084E-5,0.328084,0,0,0,0,0,7.892,3.28084E-5,0,0,0,0,0,0,32.1, 3.4, 0,0,0,1024,1024,1024,1024,0,0,0,0,32.4,0,0,59,3.933,3.927,0,0,0,0,1.209,84.2,3.28084E-5,0,10,Assisted_Takeoff,
40100,2022-08-11 15:36:20,0,0,0,,,3.28084E-5,0.328084,0,0,0,0,0,7.892,3.28084E-5,0,0,0,0,0,0,32.1, 3.4, 0,0,0,1024,1024,1151,1024,0,0,19,0,32.4,0,0,59,3.933,3.927,0,0,0,0,1.209,84.2,3.28084E-5,0,10,Assisted_Takeoff,
40200,2022-08-11 15:36:20,0,0,0,,,3.28084E-5,0.328084,0,0,0,0,0,7.892,3.28084E-5,0,0,0,0,0,0,32.1, 3.4, 0,0,0,1024,1024,1168,1024,0,0,22,0,32.4,0,0,59,3.933,3.927,0,0,0,0,1.209,84.2,3.28084E-5,0,10,Assisted_Takeoff,
40300,2022-08-11 15:36:20,0,0,0,,,3.28084E-5,0.328084,0,0,0,0,0,7.892,3.28084E-5,0,0,0,0,0,0,32.1, 3.3, 0,0,0,1024,1024,1024,1024,0,0,0,0,32.4,0,0,59,3.933,3.927,0,0,0,0,1.209,84.2,3.28084E-5,0,10,Assisted_Takeoff,
40400,2022-08-11 15:36:20,0,0,0,,,3.28084E-5,0.328084,0,0,0,0,0,7.892,3.28084E-5,0,0,0,0,0,0,32.2, 3.4, 0,0,0,1024,1024,1024,1024,0,0,0,0,32.4,0,0,59,3.933,3.927,0,0,0,0,1.209,84.2,3.28084E-5,0,10,Assisted_Takeoff,
40500,2022-08-11 15:36:20,0,0,0,,,3.28084E-5,0.328084,0,0,0,0,0,7.892,3.28084E-5,0,0,0,0,0,0,32.2, 3.4, 0,0,0,1024,1024,1024,1024,0,0,0,0,32.4,0,0,59,3.933,3.927,0,0,0,0,1.209,84.2,3.28084E-5,0,10,Assisted_Takeoff,
40600,2022-08-11 15:36:20,0,0,0,,,3.28084E-5,0.328084,0,0,0,0,0,7.892,3.28084E-5,0,0,0,0,0,0,32.2, 3.3, 0,0,0,1024,1024,1144,1024,0,0,18,0,32.4,0,0,59,3.933,3.927,0,0,0,0,1.209,84.2,3.28084E-5,0,10,Assisted_Takeoff,
40700,2022-08-11 15:36:20,0,0,0,,,3.28084E-5,0.328084,0,0,0,0,0,7.892,3.28084E-5,0,0,0,0,0,0,32.4, 3.4, 0,0,0,1024,1024,1230,1024,0,0,31,0,32.4,0,0,59,3.933,3.927,0,0,0,0,1.209,84.2,3.28084E-5,0,10,Assisted_Takeoff,
40800,2022-08-11 15:36:20,0,0,0,,,3.28084E-5,0.328084,0,0,0,0,0,7.892,3.28084E-5,0,0,0,0,0,0,32.5, 3.4, 0,0,0,1024,1024,1024,1024,0,0,0,0,32.4,0,0,59,3.933,3.927,0,0,0,0,1.209,84.2,3.28084E-5,0,10,Assisted_Takeoff,
40900,2022-08-11 15:36:21,0,0,0,,,3.28084E-5,0.328084,0,0,0,0,0,7.872,3.28084E-5,0,0,0,0,0,0,32.6, 3.4, 0,0,0,1024,1024,1024,1024,0,0,0,0,32.4,0,0,59,3.924,3.92,0,0,0,0,1.849,84.2,3.28084E-5,0,10,Assisted_Takeoff,
41000,2022-08-11 15:36:21,0,0,0,,,3.28084E-5,0.328084,0,0,0,0,0,7.872,3.28084E-5,0,0,0,0,0,0,32.7, 3.3, 0,0,0,1024,1024,1024,1024,0,0,0,0,32.4,0,0,59,3.924,3.92,0,0,0,0,1.849,84.2,3.28084E-5,0,10,Assisted_Takeoff,
41100,2022-08-11 15:36:21,0,0,0,,,3.28084E-5,0.328084,0,0,0,0,0,7.872,3.28084E-5,0,0,0,0,0,0,32.8, 3.3, 0,0,0,1024,1024,1024,1024,0,0,0,0,32.4,0,0,59,3.924,3.92,0,0,0,0,1.849,84.2,3.28084E-5,0,10,Assisted_Takeoff,
41200,2022-08-11 15:36:21,0,0,0,,,3.28084E-5,0.328084,0,0,0,0,0,7.872,3.28084E-5,0,0,0,0,0,0,32.9, 3.3, 0,0,0,1024,1024,1151,1024,0,0,19,0,32.4,0,0,59,3.924,3.92,0,0,0,0,1.849,84.2,3.28084E-5,0,10,Assisted_Takeoff,
41300,2022-08-11 15:36:21,0,0,0,,,3.28084E-5,0.328084,0,0,0,0,0,7.872,3.28084E-5,0,0,0,0,0,0,33, 3.4, 0,0,0,1024,1024,1297,1024,0,0,41,0,32.4,0,0,59,3.924,3.92,0,0,0,0,1.849,84.2,3.28084E-5,0,10,Assisted_Takeoff,
41400,2022-08-11 15:36:21,0,0,0,,,3.28084E-5,0.328084,0,0,0,0,0,7.872,3.28084E-5,0,0,0,0,0,0,32.9, 3.3, 0,0,0,1024,1024,1163,1024,0,0,21,0,32.4,0,0,59,3.924,3.92,0,0,0,0,1.849,84.2,3.28084E-5,0,10,Assisted_Takeoff,
41500,2022-08-11 15:36:21,0,0,0,,,3.28084E-5,0.328084,0,0,0,0,0,7.872,3.28084E-5,0,0,0,0,0,0,33, 3.3, 0,0,0,1024,1024,1024,1024,0,0,0,0,32.4,0,0,59,3.924,3.92,0,0,0,0,1.849,84.2,3.28084E-5,0,10,Assisted_Takeoff,
41600,2022-08-11 15:36:21,0,0,0,,,3.28084E-5,0.328084,0,0,0,0,0,7.872,3.28084E-5,0,0,0,0,0,0,33.2, 3.2, 0,0,0,1024,1024,1024,1024,0,0,0,0,32.4,0,0,59,3.924,3.92,0,0,0,0,1.849,84.2,3.28084E-5,0,10,Assisted_Takeoff,
41700,2022-08-11 15:36:21,0,0,0,,,3.28084E-5,0.328084,0,0,0,0,0,7.872,3.28084E-5,0,0,0,0,0,0,33.9, 3.3, 0,0,0,1024,1024,1129,1024,0,0,16,0,32.5,0,0,59,3.924,3.92,0,0,0,0,1.849,84.2,3.28084E-5,0,10,Assisted_Takeoff,
41800,2022-08-11 15:36:22,0,0,0,,,3.28084E-5,0.328084,0,0,0,0,0,7.872,3.28084E-5,0,0,0,0,0,0,34.4, 3.3, 0,0,0,1024,1024,1129,1024,0,0,16,0,32.5,0,0,59,3.924,3.92,0,0,0,0,1.849,84.2,3.28084E-5,0,10,Assisted_Takeoff,
41900,2022-08-11 15:36:22,0,0,0,,,3.28084E-5,0.328084,0,0,0,0,0,7.872,3.28084E-5,0,0,0,0,0,0,34.6, 3.3, 0,0,0,1024,1024,1359,1024,0,0,51,0,32.6,0,0,59,3.924,3.92,0,0,0,0,1.849,84.2,3.28084E-5,0,10,Assisted_Takeoff,
42000,2022-08-11 15:36:22,0,0,0,,,3.28084E-5,0.328084,0,0,0,0,0,7.856,3.28084E-5,0,0,0,0,0,0,34.7, 3.3, 0,0,0,1024,1024,1363,1024,0,0,51,0,32.7,0,0,59,3.922,3.913,0,0,0,0,1.932,84.38,3.28084E-5,0,10,Assisted_Takeoff,
42100,2022-08-11 15:36:22,0,0,0,,,3.28084E-5,0.328084,0,0,0,0,0,7.856,3.28084E-5,0,0,0,0,0,0,34.8, 3.2, 0,0,0,1024,1024,1095,1024,0,0,11,0,32.8,0,0,59,3.922,3.913,0,0,0,0,1.932,84.38,3.28084E-5,0,10,Assisted_Takeoff,
42200,2022-08-11 15:36:22,0,0,0,,,3.28084E-5,0.328084,0,0,0,0,0,7.856,3.28084E-5,0,0,0,0,0,0,35.5, 1.2, 0,0,0,1024,1024,1024,1024,0,0,0,0,33,0,0,59,3.922,3.913,0,0,0,0,1.932,84.38,3.28084E-5,0,10,Assisted_Takeoff,
42300,2022-08-11 15:36:22,0,0,0,,,3.28084E-5,0.328084,0,0,0,0,0,7.856,3.28084E-5,0,0,0,0,0,0,36.5, -1, 0.2,0,0,1024,1024,1024,1024,0,0,0,0,33.2,0,0,59,3.922,3.913,0,0,0,0,1.932,84.38,3.28084E-5,0,10,Assisted_Takeoff,
42400,2022-08-11 15:36:22,0,0,0,,,3.28084E-5,0.328084,0,0,0,0,0,7.856,3.28084E-5,0,0,0,0,0,0,37.4, -1.5, 0.3,0,0,1024,1024,1024,1024,0,0,0,0,33.6,0,0,59,3.922,3.913,0,0,0,0,1.932,84.38,3.28084E-5,0,10,Assisted_Takeoff,"Sin tarjeta SD. Inserta una tarjeta (Code: 10022). Señal débil del GPS. Vuelo estacionario inestable. Vuela con cuidado (Code: 30002)"
42500,2022-08-11 15:36:22,0,0,0,,,3.28084E-5,0.328084,0,0,0,0,0,7.856,3.28084E-5,0,0,0,0,0,0.223694,37.3, 3.5, 0,0,0,1024,1024,1024,1024,0,0,0,0,34,0,0,59,3.922,3.913,0,0,0,0,1.932,84.38,3.28084E-5,0,6,P-GPS,
42600,2022-08-11 15:36:22,0,0,0,,,3.28084E-5,0.328084,0,0,0,0,0,7.856,3.28084E-5,0,0,0,0,0,0,37.5, -1, 0.6,0,0,1024,1024,1217,1024,0,0,29,0,34.3,0,0,59,3.922,3.913,0,0,0,0,1.932,84.38,3.28084E-5,0,6,P-GPS,
42700,2022-08-11 15:36:22,0,0,0,,,3.28084E-5,0.328084,0,0,0,0,0,7.856,3.28084E-5,0,0,0,0,0,0,37.5, -0.8, 0.1,0,0,1024,1024,1217,1024,0,0,29,0,34.5,0,0,59,3.922,3.913,0,0,0,0,1.932,84.38,3.28084E-5,0,6,P-GPS,
42800,2022-08-11 15:36:23,0,0,0,,,3.28084E-5,0.328084,0,0,0,0,0,7.856,3.28084E-5,0,0,0,0,0,0,37.6, -0.2, -0.5,0,0,1024,1024,1302,1024,0,0,42,0,34.8,0,0,59,3.922,3.913,0,0,0,0,1.932,84.38,3.28084E-5,0,6,P-GPS,
42900,2022-08-11 15:36:23,0,0,0,,,3.28084E-5,0.328084,0,0,0,0,0,7.856,3.28084E-5,0,0,0,0,0,-0.447388,37.4, 0, -0.3,0,0,1024,1024,1024,1024,0,0,0,0,35,0,0,59,3.922,3.913,0,0,0,0,1.932,84.38,3.28084E-5,0,6,P-GPS,
43000,2022-08-11 15:36:23,0,0,0,,,3.28084E-5,0.328084,0,0,0,0,0,7.793,3.28084E-5,0,0,0,0,0,-0.447388,37.4, 0, -0.1,0,0,1024,1024,1024,1024,0,0,0,0,35.1,0,0,59,3.917,3.909,0,0,0,0,2.642,84.38,3.28084E-5,0,6,P-GPS,
43100,2022-08-11 15:36:23,0,0,0.328084,,,0.3281168084,0.656168,0,0,0,0,0,7.793,0.3281168084,0.328084,0,0,0,0,-0.671082,37.5, 0.2, 0.1,0,0,1024,1024,1024,1024,0,0,0,0,35.3,0,0,59,3.917,3.909,0,0,0,0,2.642,84.38,0.3281168084,0.328084,6,P-GPS,
43200,2022-08-11 15:36:23,0,0,0.328084,,,0.3281168084,0.656168,0,0,0,0,0,7.793,0.3281168084,0.328084,0,0,0,0,-0.671082,37.4, 0.4, 0.6,0,0,1024,1024,1024,1024,0,0,0,0,35.4,0,0,59,3.917,3.909,0,0,0,0,2.642,84.38,0.3281168084,0.328084,6,P-GPS,
43300,2022-08-11 15:36:23,0,0,0.328084,,,0.3281168084,0.656168,0,0,0,0,0,7.793,0.3281168084,0.328084,0,0,0,0,-0.671082,37.5, 0.3, 0,0,0,1024,1024,1024,1024,0,0,0,0,35.5,0,0,59,3.917,3.909,0,0,0,0,2.642,84.38,0.3281168084,0.328084,6,P-GPS,
43400,2022-08-11 15:36:23,0,0,0.328084,,,0.3281168084,0.984252,0,0,0,0,0,7.793,0.3281168084,0.328084,0,0,0,0,-0.894776,37.5, 0.3, -0.1,0,0,1024,1024,1024,1024,0,0,0,0,35.6,0,0,59,3.917,3.909,0,0,0,0,2.642,84.38,0.3281168084,0.328084,6,P-GPS,
43500,2022-08-11 15:36:23,0,0,0.656168,,,0.6562008084,0.984252,0,0,0,0,0,7.793,0.6562008084,0.656168,0,0,0,0,-0.894776,37.5, 0, 0,0,0,1024,1024,1024,1024,0,0,0,0,35.7,0,0,59,3.917,3.909,0,0,0,0,2.642,84.38,0.6562008084,0.656168,6,P-GPS,
43600,2022-08-11 15:36:23,0,0,0.656168,,,0.6562008084,1.312336,0,0,0,0,0,7.793,0.6562008084,0.656168,0,0,0,0,-0.894776,37.4, 0, 0,0,0,1024,1024,1024,1024,0,0,0,0,35.8,0,0,59,3.917,3.909,0,0,0,0,2.642,84.38,0.6562008084,0.656168,6,P-GPS,
43700,2022-08-11 15:36:23,0,0,0.656168,,,0.6562008084,1.312336,0,0,0,0,0,7.793,0.6562008084,0.656168,0,0,0,0,-0.894776,37.4, 0, 0,0,0,1024,1024,364,1024,0,0,-100,0,35.9,0,0,59,3.917,3.909,0,0,0,0,2.642,84.38,0.6562008084,0.656168,6,P-GPS,
43800,2022-08-11 15:36:24,0,0,0.984252,,,0.9842848084,1.312336,0,0,0,0,0,7.793,0.9842848084,0.984252,0,0,0,0,-0.671082,37.4, -0.1, -0.1,0,0,1024,1024,1024,1024,0,0,0,0,35.9,0,0,59,3.917,3.909,0,0,0,0,2.642,84.38,0.9842848084,0.984252,1,Atti,"Vuela con cuidado (modo Atti) Señal del GPS demasiado débil. Se ha pasado al modo Atti. La aeronave no puede hacer vuelo estacionario. Vuela con precaución (Code: 30022). Sin tarjeta SD. Inserta una tarjeta (Code: 10022). Señal débil del GPS. Vuelo estacionario inestable. Vuela c"
43900,2022-08-11 15:36:24,0,0,0.984252,,,0.9842848084,1.64042,0,0,0,0,0,7.793,0.9842848084,0.984252,0,0,0,0,-0.447388,37.4, 0, 0,0,0,1024,1024,1024,1024,0,0,0,0,36,0,0,59,3.917,3.909,0,0,0,0,2.642,84.38,0.9842848084,0.984252,6,P-GPS,"Aeronave en modo Atti. No se puede hacer vuelo estacionario. Vuela con cuidado (Code: 30004). Sin tarjeta SD. Inserta una tarjeta (Code: 10022). Sin tarjeta SD. Inserta una tarjeta (Code: 10022). Señal débil del GPS. Vuelo estacionario inestable. Vue"
44000,2022-08-11 15:36:24,0,0,0.984252,,,0.9842848084,1.64042,0,0,0,0,0,7.718,0.9842848084,0.984252,0,0,0,0,-0.447388,37.4, 0, -0.1,0,0,1024,1024,1024,1024,0,0,0,0,36,0,0,59,3.869,3.86,0,0,0,0,4.278,84.38,0.9842848084,0.984252,6,P-GPS,
44100,2022-08-11 15:36:24,0,0,0.984252,,,0.9842848084,1.64042,0,0,0,0,0,7.718,0.9842848084,0.984252,0,0,0,0,-0.223694,37.4, 0, -0.1,0,0,1024,1024,1024,1024,0,0,0,0,36.1,0,0,59,3.869,3.86,0,0,0,0,4.278,84.38,0.9842848084,0.984252,6,P-GPS,
44200,2022-08-11 15:36:24,0,0,0.984252,,,0.9842848084,1.64042,0,0,0,0,0,7.718,0.9842848084,0.984252,0,0,0,0,0,37.4, 0, -0.1,0,0,1024,1024,1024,1024,0,0,0,0,36.1,0,0,59,3.869,3.86,0,0,0,0,4.278,84.38,0.9842848084,0.984252,6,P-GPS,
44300,2022-08-11 15:36:24,0,0,0.984252,,,0.9842848084,1.64042,0,0,0,0,0,7.718,0.9842848084,0.984252,0,0,0,0,0,37.4, 0.1, 0,0,0,1024,1024,1024,1024,0,0,0,0,36.2,0,0,59,3.869,3.86,0,0,0,0,4.278,84.38,0.9842848084,0.984252,6,P-GPS,
44400,2022-08-11 15:36:24,0,0,0.984252,,,0.9842848084,1.64042,0,0,0,0,0,7.718,0.9842848084,0.984252,0,0,0,0,0,37.4, 0.1, 0,0,0,1024,1024,1024,1024,0,0,0,0,36.2,0,0,59,3.869,3.86,0,0,0,0,4.278,84.38,0.9842848084,0.984252,6,P-GPS,
44500,2022-08-11 15:36:24,0,0,1.312336,,,1.3123688084,1.64042,0,0,0,0,0,7.718,1.3123688084,1.312336,0,0,0,0,0,37.4, 0.2, 0,0,0,1024,1024,1024,1024,0,0,0,0,36.3,0,0,59,3.869,3.86,0,0,0,0,4.278,84.38,1.3123688084,1.312336,6,P-GPS,
44600,2022-08-11 15:36:24,0,0,1.312336,,,1.3123688084,1.64042,0,0,0,0,0,7.718,1.3123688084,1.312336,0,0,0,0,0,37.4, 0.2, 0,0,0,1024,1024,1024,1024,0,0,0,0,36.3,0,0,59,3.869,3.86,0,0,0,0,4.278,84.38,1.3123688084,1.312336,6,P-GPS,
44700,2022-08-11 15:36:24,0,0,1.312336,,,1.3123688084,1.64042,0,0,0,0,0,7.718,1.3123688084,1.312336,0,0,0,0,0,37.4, 0.2, 0,0,0,1024,1024,1024,1024,0,0,0,0,36.3,0,0,59,3.869,3.86,0,0,0,0,4.278,84.38,1.3123688084,1.312336,6,P-GPS,
44800,2022-08-11 15:36:25,0,0,1.312336,,,1.3123688084,1.64042,0,0,0,0,0,7.718,1.3123688084,1.312336,0,0,0,0,0,37.4, 0.2, 0,0,0,1024,1024,1024,1024,0,0,0,0,36.4,0,0,59,3.869,3.86,0,0,0,0,4.278,84.38,1.3123688084,1.312336,6,P-GPS,
44900,2022-08-11 15:36:25,0,0,1.312336,,,1.3123688084,1.64042,0,0,0,0,0,7.718,1.3123688084,1.312336,0,0,0,0,0,37.4, 0.2, 0,0,0,1024,1024,1024,1024,0,0,0,0,36.4,0,0,59,3.869,3.86,0,0,0,0,4.278,84.38,1.3123688084,1.312336,6,P-GPS,
45000,2022-08-11 15:36:25,0,0,1.312336,,,1.3123688084,1.64042,0,0,0,0,0,7.729,1.3123688084,1.312336,0,0,0,0,0,37.4, 0.2, 0,0,0,1024,1024,1024,1024,0,0,0,0,36.4,0,0,59,3.863,3.853,0,0,0,0,4.274,84.38,1.3123688084,1.312336,6,P-GPS,
45100,2022-08-11 15:36:25,0,0,1.312336,,,1.3123688084,1.64042,0,0,0,0,0,7.729,1.3123688084,1.312336,0,0,0,0,0,37.3, 0.2, 0,0,0,1024,1024,1024,1024,0,0,0,0,36.4,0,0,59,3.863,3.853,0,0,0,0,4.274,84.38,1.3123688084,1.312336,6,P-GPS,
45200,2022-08-11 15:36:25,0,0,1.312336,,,1.3123688084,1.64042,0,0,0,0,0,7.729,1.3123688084,1.312336,0,0,0,0,0,36.7, 0.3, 0,0,0,1024,1024,1024,1024,0,0,0,0,36.4,0,0,59,3.863,3.853,0,0,0,0,4.274,84.38,1.3123688084,1.312336,6,P-GPS,
45300,2022-08-11 15:36:25,0,0,1.312336,,,1.3123688084,1.64042,0,0,0,0,0,7.729,1.3123688084,1.312336,0,0,0,0,0,36.5, 0.3, 0,0,0,1024,1024,1024,1024,0,0,0,0,36.4,0,0,59,3.863,3.853,0,0,0,0,4.274,84.38,1.3123688084,1.312336,6,P-GPS,
45400,2022-08-11 15:36:25,0,0,1.312336,,,1.3123688084,1.64042,0,0,0,0,0,7.729,1.3123688084,1.312336,0,0,0,0,0,36.4, 0.3, 0,0,0,1024,1024,1024,1024,0,0,0,0,36.4,0,0,59,3.863,3.853,0,0,0,0,4.274,84.38,1.3123688084,1.312336,6,P-GPS,
45500,2022-08-11 15:36:25,0,0,1.312336,,,1.3123688084,1.64042,0,0,0,0,0,7.729,1.3123688084,1.312336,0,0,0,0,0,36.4, 0.3, 0,0,0,1024,1024,1024,1024,0,0,0,0,36.4,0,0,59,3.863,3.853,0,0,0,0,4.274,84.38,1.3123688084,1.312336,6,P-GPS,
45600,2022-08-11 15:36:25,0,0,1.312336,,,1.3123688084,1.64042,0,0,0,0,0,7.729,1.3123688084,1.312336,0,0,0,0,0,36.4, 0.2, 0,0,0,1024,1024,1024,1024,0,0,0,0,36.4,0,0,59,3.863,3.853,0,0,0,0,4.274,84.38,1.3123688084,1.312336,6,P-GPS,
45700,2022-08-11 15:36:25,0,0,1.312336,,,1.3123688084,1.64042,0,0,0,0,0,7.729,1.3123688084,1.312336,0,0,0,0,0,36.4, 0.2, 0,0,0,1024,1024,1024,1024,0,0,0,0,36.4,0,0,59,3.863,3.853,0,0,0,0,4.274,84.38,1.3123688084,1.312336,6,P-GPS,
45800,2022-08-11 15:36:25,0,0,1.312336,,,1.3123688084,1.64042,0,0,0,0,0,7.729,1.3123688084,1.312336,0,0,0,0,0,36.4, 0.2, 0,0,0,1024,1024,1024,1024,0,0,0,0,36.4,0,0,59,3.863,3.853,0,0,0,0,4.274,84.38,1.3123688084,1.312336,6,P-GPS,
45900,2022-08-11 15:36:26,0,0,1.312336,,,1.3123688084,1.64042,0,0,0,0,0,7.729,1.3123688084,1.312336,0,0,0,0,0,36.4, 0.3, 0,0,0,1024,1024,1024,1024,0,0,0,0,36.4,0,0,59,3.863,3.853,0,0,0,0,4.274,84.38,1.3123688084,1.312336,6,P-GPS,
46000,2022-08-11 15:36:26,0,0,1.312336,,,1.3123688084,1.64042,0,0,0,0,0,7.713,1.3123688084,1.312336,0,0,0,0,0,36.4, 0.2, 0,0,0,1024,1024,1024,1024,0,0,0,0,36.4,0,0,59,3.859,3.851,0,0,0,0,4.435,84.38,1.3123688084,1.312336,6,P-GPS,
46100,2022-08-11 15:36:26,0,0,1.312336,,,1.3123688084,1.64042,0,0,0,0,0,7.713,1.3123688084,1.312336,0,0,0,0,0,36.4, 0.2, 0,0,0,1024,1024,1024,1024,0,0,0,0,36.4,0,0,59,3.859,3.851,0,0,0,0,4.435,84.38,1.3123688084,1.312336,6,P-GPS,
46200,2022-08-11 15:36:26,0,0,1.312336,,,1.3123688084,1.64042,0,0,0,0,0,7.713,1.3123688084,1.312336,0,0,0,0,0,36.4, 0.3, 0,0,0,1024,1024,1024,1024,0,0,0,0,36.4,0,0,59,3.859,3.851,0,0,0,0,4.435,84.38,1.3123688084,1.312336,6,P-GPS,
46300,2022-08-11 15:36:26,0,0,1.312336,,,1.3123688084,1.64042,0,0,0,0,0,7.713,1.3123688084,1.312336,0,0,0,0,0,36.4, 0.4, 0,0,0,1024,1024,1024,1024,0,0,0,0,36.4,0,0,59,3.859,3.851,0,0,0,0,4.435,84.38,1.3123688084,1.312336,6,P-GPS,
46400,2022-08-11 15:36:26,0,0,1.312336,,,1.3123688084,1.64042,0,0,0,0,0,7.713,1.3123688084,1.312336,0,0,0,0,0,36.4, 0.3, 0.1,0,0,1024,1024,1024,1024,0,0,0,0,36.4,0,0,59,3.859,3.851,0,0,0,0,4.435,84.38,1.3123688084,1.312336,6,P-GPS,
46500,2022-08-11 15:36:26,0,0,1.312336,,,1.3123688084,1.64042,0,0,0,0,0,7.713,1.3123688084,1.312336,0,0,0,0,0,36.4, 0.4, 0.2,0,0,1024,1024,1024,1024,0,0,0,0,36.4,0,0,59,3.859,3.851,0,0,0,0,4.435,84.38,1.3123688084,1.312336,6,P-GPS,
46600,2022-08-11 15:36:26,0,0,1.312336,,,1.3123688084,1.64042,0,0,0,0,0,7.713,1.3123688084,1.312336,0,0,0,0,0,36.4, 0.2, 0,0,0,1024,1024,1024,1024,0,0,0,0,36.4,0,0,59,3.859,3.851,0,0,0,0,4.435,84.38,1.3123688084,1.312336,6,P-GPS,
46700,2022-08-11 15:36:26,0,0,1.312336,,,1.3123688084,1.64042,0,0,0,0,0,7.713,1.3123688084,1.312336,0,0,0,0,0,36.4, 0.2, 0,0,0,1024,1024,1024,1024,0,0,0,0,36.4,0,0,59,3.859,3.851,0,0,0,0,4.435,84.38,1.3123688084,1.312336,6,P-GPS,
46800,2022-08-11 15:36:26,0,0,1.312336,,,1.3123688084,1.64042,0,0,0,0,0,7.713,1.3123688084,1.312336,0,0,0,0,0,36.5, 0.1, 0.1,0,0,1024,1024,1024,1024,0,0,0,0,36.4,0,0,59,3.859,3.851,0,0,0,0,4.435,84.38,1.3123688084,1.312336,6,P-GPS,"Sin tarjeta SD"
46900,2022-08-11 15:36:27,0,0,1.312336,,,1.3123688084,1.64042,0,0,0,0,0,7.713,1.3123688084,1.312336,0,0,0,0,0,36.5, 0, 0,0,0,1024,1024,1024,1024,0,0,0,0,36.4,0,0,59,3.859,3.851,0,0,0,0,4.435,84.38,1.3123688084,1.312336,6,P-GPS,
47000,2022-08-11 15:36:27,0,0,1.312336,,,1.3123688084,1.64042,0,0,0,0,0,7.713,1.3123688084,1.312336,0,0,0,0,0,36.5, 0, 0,0,0,1024,1024,1024,1024,0,0,0,0,36.4,0,0,59,3.859,3.851,0,0,0,0,4.435,84.38,1.3123688084,1.312336,6,P-GPS,
47100,2022-08-11 15:36:27,0,0,1.312336,,,1.3123688084,1.64042,0,0,0,0,0,7.706,1.3123688084,1.312336,0,0,0,0,0,36.5, 0.1, 0,0,0,1024,1024,1024,1024,0,0,0,0,36.4,0,0,59,3.855,3.846,0,0,0,0,4.439,84.38,1.3123688084,1.312336,6,P-GPS,
47200,2022-08-11 15:36:27,0,0,1.312336,,,1.3123688084,1.64042,0,0,0,0,0,7.706,1.3123688084,1.312336,0,0,0,0,0,36.5, 0.2, 0.3,0,0,1024,1024,1024,1024,0,0,0,0,36.4,0,0,59,3.855,3.846,0,0,0,0,4.439,84.38,1.3123688084,1.312336,6,P-GPS,
47300,2022-08-11 15:36:27,0,0,1.312336,,,1.3123688084,1.64042,0,0,0,0,0,7.706,1.3123688084,1.312336,0,0,0,0,0,36.5, 0.1, 0.1,0,0,1024,1024,1024,1024,0,0,0,0,36.4,0,0,59,3.855,3.846,0,0,0,0,4.439,84.38,1.3123688084,1.312336,6,P-GPS,
47400,2022-08-11 15:36:27,0,0,1.312336,,,1.3123688084,1.64042,0,0,0,0,0,7.706,1.3123688084,1.312336,0,0,0,0,0,36.4, 0.1, 0,0,0,1024,1024,1024,1024,0,0,0,0,36.4,0,0,59,3.855,3.846,0,0,0,0,4.439,84.38,1.3123688084,1.312336,6,P-GPS,
47500,2022-08-11 15:36:27,0,0,1.64042,,,1.6404528084,1.64042,0,0,0,0,0,7.706,1.6404528084,1.64042,0,0,0,0,0,36.4, 0.2, 0.1,0,0,1024,1024,1024,1024,0,0,0,0,36.4,0,0,59,3.855,3.846,0,0,0,0,4.439,84.38,1.6404528084,1.64042,6,P-GPS,
47600,2022-08-11 15:36:27,0,0,1.64042,,,1.6404528084,1.64042,0,0,0,0,0,7.706,1.6404528084,1.64042,0,0,0,0,0,36.4, 0.3, 0.1,0,0,1024,1024,1024,1024,0,0,0,0,36.4,0,0,59,3.855,3.846,0,0,0,0,4.439,84.38,1.6404528084,1.64042,6,P-GPS,
47700,2022-08-11 15:36:27,0,0,1.64042,,,1.6404528084,1.64042,0,0,0,0,0,7.706,1.6404528084,1.64042,0,0,0,0,0,36.3, 0.2, 0.3,0,0,1024,1024,1024,1024,0,0,0,0,36.4,0,0,59,3.855,3.846,0,0,0,0,4.439,84.38,1.6404528084,1.64042,6,P-GPS,
47800,2022-08-11 15:36:28,0,0,1.64042,,,1.6404528084,1.64042,0,0,0,0,0,7.706,1.6404528084,1.64042,0,0,0,0,0,36.3, 0.2, 0.2,0,0,1024,1024,1024,1024,0,0,0,0,36.4,0,0,59,3.855,3.846,0,0,0,0,4.439,84.38,1.6404528084,1.64042,6,P-GPS,
47900,2022-08-11 15:36:28,0,0,1.64042,,,1.6404528084,1.64042,0,0,0,0,0,7.706,1.6404528084,1.64042,0,0,0,0,0,36.3, 0.2, 0.1,0,0,1024,1024,1024,1024,0,0,0,0,36.4,0,0,59,3.855,3.846,0,0,0,0,4.439,84.38,1.6404528084,1.64042,6,P-GPS,
48000,2022-08-11 15:36:28,0,0,1.64042,,,1.6404528084,1.64042,0,0,0,0,0,7.706,1.6404528084,1.64042,0,0,0,0,0,36.3, 0.3, 0,0,0,1024,1024,1024,1024,0,0,0,0,36.4,0,0,59,3.855,3.846,0,0,0,0,4.439,84.38,1.6404528084,1.64042,6,P-GPS,
48100,2022-08-11 15:36:28,0,0,1.64042,,,1.6404528084,1.64042,0,0,0,0,0,7.699,1.6404528084,1.64042,0,0,0,0,0,36.4, 0.4, 0,0,0,1024,1024,1024,1024,0,0,0,0,36.4,0,0,59,3.853,3.843,0,0,0,0,4.466,84.38,1.6404528084,1.64042,6,P-GPS,
48200,2022-08-11 15:36:28,0,0,1.64042,,,1.6404528084,1.64042,0,0,0,0,0,7.699,1.6404528084,1.64042,0,0,0,0,0,36.4, 0.4, 0,0,0,1024,1024,1024,1024,0,0,0,0,36.4,0,0,59,3.853,3.843,0,0,0,0,4.466,84.38,1.6404528084,1.64042,6,P-GPS,
48300,2022-08-11 15:36:28,0,0,1.64042,,,1.6404528084,1.64042,0,0,0,0,0,7.699,1.6404528084,1.64042,0,0,0,0,0,36.4, 0.4, 0,0,0,1024,1024,1024,1024,0,0,0,0,36.4,0,0,59,3.853,3.843,0,0,0,0,4.466,84.38,1.6404528084,1.64042,6,P-GPS,
48400,2022-08-11 15:36:28,0,0,1.64042,,,1.6404528084,1.64042,0,0,0,0,0,7.699,1.6404528084,1.64042,0,0,0,0,0,36.4, 0.4, 0,0,0,1024,1024,1024,1024,0,0,0,0,36.4,0,0,59,3.853,3.843,0,0,0,0,4.466,84.38,1.6404528084,1.64042,6,P-GPS,
48500,2022-08-11 15:36:28,0,0,1.64042,,,1.6404528084,1.64042,0,0,0,0,0,7.699,1.6404528084,1.64042,0,0,0,0,0,36.4, 0.4, 0,0,0,1024,896,1024,1024,0,-19,0,0,36.4,0,0,59,3.853,3.843,0,0,0,0,4.466,84.38,1.6404528084,1.64042,6,P-GPS,
48600,2022-08-11 15:36:28,0,0,1.64042,,,1.6404528084,1.64042,0,0,0,0,0,7.699,1.6404528084,1.64042,0,0,0,0,0,36.3, 0.3, -4.8,0,0,1024,1024,1024,1024,0,0,0,0,36.4,0,0,59,3.853,3.843,0,0,0,0,4.466,84.38,1.6404528084,1.64042,6,P-GPS,
48700,2022-08-11 15:36:28,0,0,1.64042,,,1.6404528084,1.64042,0,0,0,0,0,7.699,1.6404528084,1.64042,0,0,0,0,0,36.4, 0.1, -0.4,0,0,1024,1024,1024,1024,0,0,0,0,36.4,0,0,59,3.853,3.843,0,0,0,0,4.466,84.38,1.6404528084,1.64042,6,P-GPS,
48800,2022-08-11 15:36:29,0,0,1.64042,,,1.6404528084,1.64042,0,0,0,0,0,7.699,1.6404528084,1.64042,0,0,0,0,0,36.5, 0, 1,0,0,1024,1024,1024,1024,0,0,0,0,36.4,0,0,59,3.853,3.843,0,0,0,0,4.466,84.38,1.6404528084,1.64042,6,P-GPS,
48900,2022-08-11 15:36:29,0,0,1.64042,,,1.6404528084,1.64042,0,0,0,0,0,7.699,1.6404528084,1.64042,0,0,0,0,0,36.4, 0, 0.9,0,0,1024,1024,1024,1024,0,0,0,0,36.4,0,0,59,3.853,3.843,0,0,0,0,4.466,84.38,1.6404528084,1.64042,6,P-GPS,
49000,2022-08-11 15:36:29,0,0,1.64042,,,1.6404528084,1.64042,0,0,0,0,0,7.699,1.6404528084,1.64042,0,0,0,0,0,36.4, 0, 0.6,0,0,1024,1024,1024,1024,0,0,0,0,36.4,0,0,59,3.853,3.843,0,0,0,0,4.466,84.38,1.6404528084,1.64042,6,P-GPS,
49100,2022-08-11 15:36:29,0,0,1.64042,,,1.6404528084,1.64042,0,0,0,0,0,7.692,1.6404528084,1.64042,0,0,0,0,0,36.4, 0, 0.6,0,0,1024,1024,1024,1024,0,0,0,0,36.4,0,0,59,3.846,3.839,0,0,0,0,4.467,84.38,1.6404528084,1.64042,6,P-GPS,
49200,2022-08-11 15:36:29,0,0,1.64042,,,1.6404528084,1.64042,0,0,0,0,0,7.692,1.6404528084,1.64042,0,0,0,0,0,36.4, 0, 0.8,0,0,1024,1024,1024,1024,0,0,0,0,36.4,0,0,59,3.846,3.839,0,0,0,0,4.467,84.38,1.6404528084,1.64042,6,P-GPS,
49300,2022-08-11 15:36:29,0,0,1.64042,,,1.6404528084,1.64042,0,0,0,0,0,7.692,1.6404528084,1.64042,0,0,0,0,0,36.4, 0, 0.6,0,0,1024,1336,1024,1024,0,47,0,0,36.4,0,0,59,3.846,3.839,0,0,0,0,4.467,84.38,1.6404528084,1.64042,6,P-GPS,
49400,2022-08-11 15:36:29,0,0,1.64042,,,1.6404528084,1.64042,0,0,0,0,0,7.692,1.6404528084,1.64042,0,0,0,0,0,36.4, 0.1, 0.8,0,0,1024,1024,1024,1024,0,0,0,0,36.4,0,0,59,3.846,3.839,0,0,0,0,4.467,84.38,1.6404528084,1.64042,6,P-GPS,
49500,2022-08-11 15:36:29,0,0,1.64042,,,1.6404528084,1.64042,0,0,0,0,0,7.692,1.6404528084,1.64042,0,0,0,0,0,36.4, 0.2, 0.2,0,0,1024,1024,1024,1024,0,0,0,0,36.4,0,0,59,3.846,3.839,0,0,0,0,4.467,84.38,1.6404528084,1.64042,6,P-GPS,
49600,2022-08-11 15:36:29,0,0,1.64042,,,1.6404528084,1.64042,0,0,0,0,0,7.692,1.6404528084,1.64042,0,0,0,0,0,36.4, 0.2, 0,0,0,1024,1024,1024,1024,0,0,0,0,36.4,0,0,59,3.846,3.839,0,0,0,0,4.467,84.38,1.6404528084,1.64042,6,P-GPS,
49700,2022-08-11 15:36:29,0,0,1.968504,,,1.9685368084,1.64042,0,0,0,0,0,7.692,1.9685368084,1.968504,0,0,0,0,0,36.4, 0.2, 0,0,0,1024,1024,1024,1024,0,0,0,0,36.4,0,0,59,3.846,3.839,0,0,0,0,4.467,84.38,1.9685368084,1.968504,6,P-GPS,
49800,2022-08-11 15:36:30,0,0,1.968504,,,1.9685368084,1.64042,0,0,0,0,0,7.692,1.9685368084,1.968504,0,0,0,0,0,36.4, 0.2, 0,0,0,1024,1024,1024,1024,0,0,0,0,36.4,0,0,59,3.846,3.839,0,0,0,0,4.467,84.38,1.9685368084,1.968504,6,P-GPS,
49900,2022-08-11 15:36:30,0,0,1.968504,,,1.9685368084,1.64042,0,0,0,0,0,7.692,1.9685368084,1.968504,0,0,0,0,0,36.4, 0.1, 0,0,0,1024,1024,1024,1024,0,0,0,0,36.4,0,0,59,3.846,3.839,0,0,0,0,4.467,84.38,1.9685368084,1.968504,6,P-GPS,
50000,2022-08-11 15:36:30,0,0,1.968504,,,1.9685368084,1.64042,0,0,0,0,0,7.692,1.9685368084,1.968504,0,0,0,0,0,36.4, 0.1, 0,0,0,1024,1024,1024,1024,0,0,0,0,36.4,0,0,59,3.846,3.839,0,0,0,0,4.467,84.38,1.9685368084,1.968504,6,P-GPS,
50100,2022-08-11 15:36:30,0,0,1.968504,,,1.9685368084,1.64042,0,0,0,0,0,7.686,1.9685368084,1.968504,0,0,0,0,0,36.4, 0.1, 0,0,0,1024,1024,1024,1024,0,0,0,0,36.4,0,0,59,3.847,3.837,0,0,0,0,4.521,84.38,1.9685368084,1.968504,6,P-GPS,
50200,2022-08-11 15:36:30,0,0,1.968504,,,1.9685368084,1.64042,0,0,0,0,0,7.686,1.9685368084,1.968504,0,0,0,0,0,36.4, 0.1, 0.1,0,0,1024,1024,1024,1024,0,0,0,0,36.4,0,0,59,3.847,3.837,0,0,0,0,4.521,84.38,1.9685368084,1.968504,6,P-GPS,
50300,2022-08-11 15:36:30,0,0,1.968504,,,1.9685368084,1.64042,0,0,0,0,0,7.686,1.9685368084,1.968504,0,0,0,0,0,36.4, 0.3, 0.2,0,0,1024,1024,1024,1024,0,0,0,0,36.4,0,0,59,3.847,3.837,0,0,0,0,4.521,84.38,1.9685368084,1.968504,6,P-GPS,
50400,2022-08-11 15:36:30,0,0,1.968504,,,1.9685368084,1.64042,0,0,0,0,0,7.686,1.9685368084,1.968504,0,0,0,0,0,36.4, 0.3, 0.3,0,0,1024,1024,1024,1024,0,0,0,0,36.4,0,0,59,3.847,3.837,0,0,0,0,4.521,84.38,1.9685368084,1.968504,6,P-GPS,
50500,2022-08-11 15:36:30,0,0,1.968504,,,1.9685368084,1.64042,0,0,0,0,0,7.686,1.9685368084,1.968504,0,0,0,0,0,36.4, 0.3, 0.2,0,0,1024,1024,1024,1024,0,0,0,0,36.4,0,0,59,3.847,3.837,0,0,0,0,4.521,84.38,1.9685368084,1.968504,6,P-GPS,
50600,2022-08-11 15:36:30,0,0,1.968504,,,1.9685368084,1.64042,0,0,0,0,0,7.686,1.9685368084,1.968504,0,0,0,0,0,36.5, 0.4, 0.1,0,0,1024,1024,1024,1024,0,0,0,0,36.4,0,0,59,3.847,3.837,0,0,0,0,4.521,84.38,1.9685368084,1.968504,6,P-GPS,
50700,2022-08-11 15:36:30,0,0,1.968504,,,1.9685368084,1.64042,0,0,0,0,0,7.686,1.9685368084,1.968504,0,0,0,0,0,36.4, 0.4, 0.1,0,0,1024,1024,1024,1024,0,0,0,0,36.4,0,0,59,3.847,3.837,0,0,0,0,4.521,84.38,1.9685368084,1.968504,6,P-GPS,
50800,2022-08-11 15:36:30,0,0,1.968504,,,1.9685368084,1.64042,0,0,0,0,0,7.686,1.9685368084,1.968504,0,0,0,0,0,36.4, 0.3, 0,0,0,1024,1024,1024,1057,0,0,0,5,36.4,0,0,59,3.847,3.837,0,0,0,0,4.521,84.38,1.9685368084,1.968504,6,P-GPS,
50900,2022-08-11 15:36:31,0,0,1.968504,,,1.9685368084,1.64042,0,0,0,0,0,7.686,1.9685368084,1.968504,0,0,0,0,0,36.4, 0.3, 0,0,0,1024,1024,1024,1656,0,0,0,96,36.4,0,0,59,3.847,3.837,0,0,0,0,4.521,84.38,1.9685368084,1.968504,6,P-GPS,
51000,2022-08-11 15:36:31,0,0,1.968504,,,1.9685368084,1.64042,0,0,0,0,0,7.686,1.9685368084,1.968504,0,0,0,0,0,36.4, 0.3, 0,0,0,1024,1024,1024,1024,0,0,0,0,37,0,0,59,3.847,3.837,0,0,0,0,4.521,84.38,1.9685368084,1.968504,6,P-GPS,
51100,2022-08-11 15:36:31,0,0,1.968504,,,1.9685368084,1.64042,0,0,0,0,0,7.68,1.9685368084,1.968504,0,0,0,0,0,37.8, 0.3, -0.1,0,0,1024,1024,1024,1024,0,0,0,0,39.2,0,0,58,3.843,3.834,0,0,0,0,4.492,84.56,1.9685368084,1.968504,6,P-GPS,
51200,2022-08-11 15:36:31,0,0,1.968504,,,1.9685368084,1.64042,0,0,0,0,0,7.68,1.9685368084,1.968504,0,0,0,0,0,39.7, 0.3, 0.1,0,0,1024,1024,1024,1024,0,0,0,0,40.5,0,0,58,3.843,3.834,0,0,0,0,4.492,84.56,1.9685368084,1.968504,6,P-GPS,
51300,2022-08-11 15:36:31,0,0,1.968504,,,1.9685368084,1.64042,0,0,0,0,0,7.68,1.9685368084,1.968504,0,0,0,0,0,40.6, 0.3, 0.1,0,0,1024,1024,1024,1024,0,0,0,0,40.8,0,0,58,3.843,3.834,0,0,0,0,4.492,84.56,1.9685368084,1.968504,6,P-GPS,
51400,2022-08-11 15:36:31,0,0,1.968504,,,1.9685368084,1.64042,0,0,0,0,0,7.68,1.9685368084,1.968504,0,0,0,0,0,40.7, 0.4, 0,0,0,1024,1024,1024,1024,0,0,0,0,40.8,0,0,58,3.843,3.834,0,0,0,0,4.492,84.56,1.9685368084,1.968504,6,P-GPS,
51500,2022-08-11 15:36:31,0,0,1.968504,,,1.9685368084,1.64042,0,0,0,0,0,7.68,1.9685368084,1.968504,0,0,0,0,0,40.8, 0.3, 0,0,0,1024,1024,1024,1196,0,0,0,26,40.8,0,0,58,3.843,3.834,0,0,0,0,4.492,84.56,1.9685368084,1.968504,6,P-GPS,
51600,2022-08-11 15:36:31,0,0,1.968504,,,1.9685368084,1.64042,0,0,0,0,0,7.68,1.9685368084,1.968504,0,0,0,0,0,40.8, 0.3, 0,0,0,1024,1024,1024,1353,0,0,0,50,40.9,0,0,58,3.843,3.834,0,0,0,0,4.492,84.56,1.9685368084,1.968504,6,P-GPS,
51700,2022-08-11 15:36:31,0,0,1.968504,,,1.9685368084,1.64042,0,0,0,0,0,7.68,1.9685368084,1.968504,0,0,0,0,0,41.1, 0.2, 0.2,0,0,1024,1024,1024,1024,0,0,0,0,41.6,0,0,58,3.843,3.834,0,0,0,0,4.492,84.56,1.9685368084,1.968504,6,P-GPS,
51800,2022-08-11 15:36:31,0,0,1.968504,,,1.9685368084,1.64042,0,0,0,0,0,7.68,1.9685368084,1.968504,0,0,0,0,0,42, 0.1, 0.2,0,0,1024,1024,1024,1024,0,0,0,0,42.8,0,0,58,3.843,3.834,0,0,0,0,4.492,84.56,1.9685368084,1.968504,6,P-GPS,
51900,2022-08-11 15:36:32,0,0,1.968504,,,1.9685368084,1.64042,0,0,0,0,0,7.68,1.9685368084,1.968504,0,0,0,0,0,42.9, 0.2, 0.4,0,0,1024,1024,1024,1167,0,0,0,22,43.4,0,0,58,3.843,3.834,0,0,0,0,4.492,84.56,1.9685368084,1.968504,6,P-GPS,
52000,2022-08-11 15:36:32,0,0,1.968504,,,1.9685368084,1.64042,0,0,0,0,0,7.68,1.9685368084,1.968504,0,0,0,0,0,43.3, 0.2, 0.2,0,0,1024,1024,1024,1542,0,0,0,78,43.6,0,0,58,3.843,3.834,0,0,0,0,4.492,84.56,1.9685368084,1.968504,6,P-GPS,
52100,2022-08-11 15:36:32,0,0,1.968504,,,1.9685368084,1.64042,0,0,0,0,0,7.68,1.9685368084,1.968504,0,0,0,0,0,43.5, 0.3, 0,0,0,1024,1024,1024,1122,0,0,0,15,43.9,0,0,58,3.843,3.834,0,0,0,0,4.492,84.56,1.9685368084,1.968504,6,P-GPS,
52200,2022-08-11 15:36:32,0,0,1.968504,,,1.9685368084,1.64042,0,0,0,0,0,7.676,1.9685368084,1.968504,0,0,0,0,0,44.4, 0.2, -0.1,0,0,1024,1024,1024,1122,0,0,0,15,45.8,0,0,58,3.842,3.833,0,0,0,0,4.503,84.56,1.9685368084,1.968504,6,P-GPS,
52300,2022-08-11 15:36:32,0,0,2.296588,,,2.2966208084,1.64042,0,0,0,0,0,7.676,2.2966208084,2.296588,0,0,0,0,0,46.5, 0.3, 0,0,0,1024,1024,1024,1024,0,0,0,0,47.5,0,0,58,3.842,3.833,0,0,0,0,4.503,84.56,2.2966208084,2.296588,6,P-GPS,
52400,2022-08-11 15:36:32,0,0,2.296588,,,2.2966208084,1.64042,0,0,0,0,0,7.676,2.2966208084,2.296588,0,0,0,0,0,47.8, 0.2, 0.1,0,0,1024,1024,1024,1058,0,0,0,5,48.3,0,0,58,3.842,3.833,0,0,0,0,4.503,84.56,2.2966208084,2.296588,6,P-GPS,
52500,2022-08-11 15:36:32,0,0,2.296588,,,2.2966208084,1.64042,0,0,0,0,0,7.676,2.2966208084,2.296588,0,0,0,0,0,48.3, 0, 0,0,0,1024,1024,1024,1567,0,0,0,82,48.6,0,0,58,3.842,3.833,0,0,0,0,4.503,84.56,2.2966208084,2.296588,6,P-GPS,
52600,2022-08-11 15:36:32,0,0,2.296588,,,2.2966208084,1.64042,0,0,0,0,0,7.676,2.2966208084,2.296588,0,0,0,0,0,48.7, 0.1, 0,0,0,1024,1024,1024,1675,0,0,0,99,49.6,0,0,58,3.842,3.833,0,0,0,0,4.503,84.56,2.2966208084,2.296588,6,P-GPS,
52700,2022-08-11 15:36:32,0,0,2.296588,,,2.2966208084,1.64042,0,0,0,0,0,7.676,2.2966208084,2.296588,0,0,0,0,0,50.6, 0.1, 0,0,0,1024,1024,1024,1640,0,0,0,93,52.8,0,0,58,3.842,3.833,0,0,0,0,4.503,84.56,2.2966208084,2.296588,6,P-GPS,
52800,2022-08-11 15:36:32,0,0,2.296588,,,2.2966208084,1.64042,0,0,0,0,0,7.676,2.2966208084,2.296588,0,0,0,0,0,54.3, 0, 0.2,0,0,1024,1024,1024,1137,0,0,0,17,57.2,0,0,58,3.842,3.833,0,0,0,0,4.503,84.56,2.2966208084,2.296588,6,P-GPS,
52900,2022-08-11 15:36:33,0,0,2.296588,,,2.2966208084,1.64042,0,0,0,0,0,7.676,2.2966208084,2.296588,0,0,0,0,0,58.5, 0.1, 0.5,0,0,1024,1024,1024,1024,0,0,0,0,60.6,0,0,58,3.842,3.833,0,0,0,0,4.503,84.56,2.2966208084,2.296588,6,P-GPS,
53000,2022-08-11 15:36:33,0,0,2.296588,,,2.2966208084,1.64042,0,0,0,0,0,7.676,2.2966208084,2.296588,0,0,0,0,0,60.7, 0.1, 0.6,0,0,1024,1024,1024,1204,0,0,0,27,61.4,0,0,58,3.842,3.833,0,0,0,0,4.503,84.56,2.2966208084,2.296588,6,P-GPS,
53100,2022-08-11 15:36:33,0,0,2.296588,,,2.2966208084,1.64042,0,0,0,0,0,7.676,2.2966208084,2.296588,0,0,0,0,0,61.1, 0.2, 0.3,0,0,1024,1024,1024,1204,0,0,0,27,61.7,0,0,58,3.842,3.833,0,0,0,0,4.503,84.56,2.2966208084,2.296588,6,P-GPS,
53200,2022-08-11 15:36:33,0,0,2.296588,,,2.2966208084,1.64042,0,0,0,0,0,7.672,2.2966208084,2.296588,0,0,0,0,0,61.4, 0.1, 0.1,0,0,1024,1024,1024,1684,0,0,0,100,62,0,0,58,3.84,3.831,0,0,0,0,4.487,84.56,2.2966208084,2.296588,6,P-GPS,
53300,2022-08-11 15:36:33,0,0,2.296588,,,2.2966208084,1.64042,0,0,0,0,0,7.672,2.2966208084,2.296588,0,0,0,0,0,62.4, 0, 0.2,0,0,1024,1024,1024,1684,0,0,0,100,64.3,0,0,58,3.84,3.831,0,0,0,0,4.487,84.56,2.2966208084,2.296588,6,P-GPS,
53400,2022-08-11 15:36:33,0,0,2.296588,,,2.2966208084,1.64042,0,0,0,0,0,7.672,2.2966208084,2.296588,0,0,0,0,0,65.6, 0.1, 0.1,0,0,1024,1024,1024,1634,0,0,0,92,68.6,0,0,58,3.84,3.831,0,0,0,0,4.487,84.56,2.2966208084,2.296588,6,P-GPS,
53500,2022-08-11 15:36:33,0,0,2.296588,,,2.2966208084,1.64042,0,0,0,0,0,7.672,2.2966208084,2.296588,0,0,0,0,0,70.1, 0.2, 0.2,0,0,1024,1024,1024,1117,0,0,0,14,73.4,0,0,58,3.84,3.831,0,0,0,0,4.487,84.56,2.2966208084,2.296588,6,P-GPS,
53600,2022-08-11 15:36:33,0,0,2.296588,,,2.2966208084,1.64042,0,0,0,0,0,7.672,2.2966208084,2.296588,0,0,0,0,0,74.5, 0.3, 0.3,0,0,1024,1024,1024,1024,0,0,0,0,76.4,0,0,58,3.84,3.831,0,0,0,0,4.487,84.56,2.2966208084,2.296588,6,P-GPS,
53700,2022-08-11 15:36:33,0,0,2.296588,,,2.2966208084,1.64042,0,0,0,0,0,7.672,2.2966208084,2.296588,0,0,0,0,0,76.4, 0.2, 0.4,0,0,1024,1024,1024,1107,0,0,0,13,77.4,0,0,58,3.84,3.831,0,0,0,0,4.487,84.56,2.2966208084,2.296588,6,P-GPS,
53800,2022-08-11 15:36:34,0,0,2.296588,,,2.2966208084,1.64042,0,0,0,0,0,7.672,2.2966208084,2.296588,0,0,0,0,0,77.2, 0.2, 0,0,0,1024,1024,1024,1654,0,0,0,95,77.8,0,0,58,3.84,3.831,0,0,0,0,4.487,84.56,2.2966208084,2.296588,6,P-GPS,
53900,2022-08-11 15:36:34,0,0,2.296588,,,2.2966208084,1.64042,0,0,0,0,0,7.672,2.2966208084,2.296588,0,0,0,0,0,77.6, 0.1, -0.2,0,0,1024,1024,1024,1684,0,0,0,100,78.2,0,0,58,3.84,3.831,0,0,0,0,4.487,84.56,2.2966208084,2.296588,6,P-GPS,
54000,2022-08-11 15:36:34,0,0,2.296588,,,2.2966208084,1.64042,0,0,0,0,0,7.672,2.2966208084,2.296588,0,0,0,0,0,78.6, 0, -0.3,0,0,1024,1024,1024,1684,0,0,0,100,80.6,0,0,58,3.84,3.831,0,0,0,0,4.487,84.56,2.2966208084,2.296588,6,P-GPS,
54100,2022-08-11 15:36:34,0,0,2.296588,,,2.2966208084,1.64042,0,0,0,0,0,7.672,2.2966208084,2.296588,0,0,0,0,0,81.9, 0, -0.3,0,0,1024,1024,1024,1684,0,0,0,100,85,0,0,58,3.84,3.831,0,0,0,0,4.487,84.56,2.2966208084,2.296588,6,P-GPS,
54200,2022-08-11 15:36:34,0,0,2.296588,,,2.2966208084,1.64042,0,0,0,0,0,7.668,2.2966208084,2.296588,0,0,0,0,0,86.5, 0, -0.1,0,0,1024,1024,1024,1684,0,0,0,100,89.8,0,0,58,3.837,3.827,0,0,0,0,4.483,84.56,2.2966208084,2.296588,6,P-GPS,
