time(millisecond),datetime(utc),latitude,longitude,height_above_takeoff(feet),height_above_ground_at_drone_location(feet),ground_elevation_at_drone_location(feet),altitude_above_seaLevel(feet),height_sonar(feet),speed(mph),distance(feet),mileage(feet),satellites,gpslevel,voltage(v),max_altitude(feet),max_ascent(feet),max_speed(mph),max_distance(feet), xSpeed(mph), ySpeed(mph), zSpeed(mph), compass_heading(degrees), pitch(degrees), roll(degrees),isPhoto,isVideo,rc_elevator,rc_aileron,rc_throttle,rc_rudder,rc_elevator(percent),rc_aileron(percent),rc_throttle(percent),rc_rudder(percent),gimbal_heading(degrees),gimbal_pitch(degrees),gimbal_roll(degrees),battery_percent,voltageCell1,voltageCell2,voltageCell3,voltageCell4,voltageCell5,voltageCell6,current(A),battery_temperature(f),altitude(feet),ascent(feet),flycStateRaw,flycState,message
0,2023-01-02 23:12:58,-34.9581774925995,-54.9445282141331,0,0,11.643708377848,11.643708377848,0.656168,0,0,0,14,4,0,11.643708377848,0,0,0,0,0,0,312.2, -8.2, -0.5,0,0,364,364,364,1684,-100,-100,-100,100,323.2,0,0,96,4.277,4.275,0,0,0,0,0,73.04,11.643708377848,0,41,Motors_Started,
100,2023-01-02 23:12:58,-34.9581774332786,-54.9445284715336,0,0,11.643708377848,11.643708377848,0.656168,0,0.079953086548,0.079953086548,14,4,0,11.643708377848,0,0,0.079953086548,0,0,0,312.2, -8.3, -0.5,0,0,364,364,364,1684,-100,-100,-100,100,323.3,0,0,96,4.277,4.275,0,0,0,0,0,73.04,11.643708377848,0,41,Motors_Started,"Error de calibración del estabilizador. Reinicia la aeronave o contacta con la Asistencia DJI (Code: 40011)"
200,2023-01-02 23:12:58,-34.9581773865471,-54.9445285842668,0,0.032808399999999,11.610899977848,11.643708377848,0.328084,0,0.117246066744,0.117729006392,14,4,0,11.643708377848,0,0,0.117246066744,0,0,0,312.2, -7.9, -0.4,0,0,364,364,364,1684,-100,-100,-100,100,323.4,0,0,96,4.277,4.275,0,0,0,0,0,73.04,11.643708377848,0,41,Motors_Started,
300,2023-01-02 23:12:58,-34.9581773385503,-54.9445286854573,0,0.032808399999999,11.610899977848,11.643708377848,0.328084,0,0.15172900748,0.152688981264,14,4,0,11.643708377848,0,0,0.15172900748,0,0,0,312.4, -8, -0.3,0,0,364,364,364,1684,-100,-100,-100,100,323.5,0,0,96,4.277,4.275,0,0,0,0,0,73.04,11.643708377848,0,41,Motors_Started,
400,2023-01-02 23:12:58,-34.9581773048611,-54.9445287799604,0,0.032808399999999,11.610899977848,11.643708377848,0.328084,0,0.18253281424,0.183504927132,14,4,0,11.643708377848,0,0,0.18253281424,0,0,0,312.4, -8.3, -0.2,0,0,364,364,364,1684,-100,-100,-100,100,323.5,0,0,96,4.277,4.275,0,0,0,0,0,73.04,11.643708377848,0,41,Motors_Started,
500,2023-01-02 23:12:58,-34.9581773502475,-54.9445287922244,0,0.032808399999999,11.610899977848,11.643708377848,0.328084,0,0.180494756432,0.200465229512,14,4,0,11.643708377848,0,0,0.18253281424,0,0,0,312.4, -8.4, 0.2,0,0,1024,1024,1024,1024,0,0,0,0,323.6,0,0,96,4.277,4.275,0,0,0,0,0,73.04,11.643708377848,0,41,Motors_Started,"Setting new Return-To-Home altitude to 100m (328 ft). Data Recorder File Index is 84. Setting new Maximum Flight Altitude to 120m (394 ft)"
600,2023-01-02 23:12:58,-34.9581773089387,-54.944528887036,0,0.032808399999999,11.610899977848,11.643708377848,0.328084,0,0.212075794188,0.232572842088,14,4,0,11.643708377848,0,0,0.212075794188,0,0,0,312.6, -8.5, 0.1,0,0,1024,1024,1024,1024,0,0,0,0,323.7,0,0,96,4.277,4.275,0,0,0,0,0,73.04,11.643708377848,0,41,Motors_Started,
700,2023-01-02 23:12:59,-34.9581772721636,-54.944528994135,-0.328084,-0.2952756,11.610899977848,11.315624377848,0.328084,0,0.246713262488,0.267294627976,14,4,0,11.643708377848,0,0,0.246713262488,0,0,0,312.2, -8.5, 0.3,0,0,1024,1024,1024,1024,0,0,0,0,323.8,0,0,96,4.277,4.275,0,0,0,0,0,73.04,11.315624377848,-0.328084,41,Motors_Started,
800,2023-01-02 23:12:59,-34.9581772445093,-54.9445290626075,-0.328084,-0.2952756,11.610899977848,11.315624377848,0.328084,0,0.269373696284,0.290120416108,14,4,0,11.643708377848,0,0,0.269373696284,0,0,0,311.3, -8.6, 0.7,0,0,1024,1024,1024,1024,0,0,0,0,323.5,0,0,96,4.277,4.275,0,0,0,0,0,73.04,11.315624377848,-0.328084,41,Motors_Started,
900,2023-01-02 23:12:59,-34.9581772109129,-54.9445291093116,-0.328084,-0.2952756,11.610899977848,11.315624377848,0.328084,0,0.286727699464,0.308702109616,14,4,0,11.643708377848,0,0,0.286727699464,0,0,0,310.8, -8.9, 1.4,0,0,1024,1024,1024,1024,0,0,0,0,322.8,0,0,96,4.277,4.275,0,0,0,0,0,73.04,11.315624377848,-0.328084,41,Motors_Started,
1000,2023-01-02 23:12:59,-34.9581771555214,-54.9445290412781,-0.328084,-0.2952756,11.610899977848,11.315624377848,0.328084,0,0.276221465532,0.33737861972,14,4,0,11.643708377848,0,0,0.286727699464,0,0,0,309.6, -9.3, 3.4,0,0,1024,1024,1024,1024,0,0,0,0,322.1,0,0,96,4.277,4.275,0,0,0,0,0,73.04,11.315624377848,-0.328084,41,Motors_Started,
1100,2023-01-02 23:12:59,-34.9581770792402,-54.9445289586026,-0.328084,-0.2952756,11.610899977848,11.315624377848,0.328084,0,0.268887475796,0.37460303036,14,4,0,11.643708377848,0,0,0.286727699464,0,0,0,308.7, -8.7, 5,0,0,1024,1024,1024,1024,0,0,0,0,321.4,0,0,96,4.277,4.275,0,0,0,0,0,73.04,11.315624377848,-0.328084,10,Assisted_Takeoff,
1200,2023-01-02 23:12:59,-34.9581770163953,-54.9445290314993,-0.328084,-0.2952756,11.610899977848,11.315624377848,0.328084,0,0.29987041642,0.40624017048,14,4,8.559,11.643708377848,0,0,0.29987041642,0,0,0,308.1, -8.7, 5.6,0,0,1024,1024,1024,1024,0,0,0,0,320.8,0,0,96,4.277,4.275,0,0,0,0,1.093,73.04,11.315624377848,-0.328084,10,Assisted_Takeoff,
1300,2023-01-02 23:12:59,-34.9581769329668,-54.9445291591307,-0.328084,-0.2952756,11.610899977848,11.315624377848,0.328084,0.223694,0.3486220584,0.45505578884,14,4,8.559,11.643708377848,0,0.223694,0.3486220584,0.223694,0,0,306.9, -10.4, 6.6,0,0,1024,1024,1024,1024,0,0,0,0,320.1,0,0,96,4.277,4.275,0,0,0,0,1.093,73.04,11.315624377848,-0.328084,10,Assisted_Takeoff,
1400,2023-01-02 23:12:59,-34.9581767467754,-54.944529299831,-0.328084,-0.2952756,11.610899977848,11.315624377848,0.328084,0.223694,0.42360237576,0.53496064704,14,4,8.559,11.643708377848,0,0.223694,0.42360237576,0.223694,0,0,308, -11.8, 5.7,0,0,1024,1024,1024,1024,0,0,0,0,319.9,0,0,96,4.277,4.275,0,0,0,0,1.093,73.04,11.315624377848,-0.328084,10,Assisted_Takeoff,
1500,2023-01-02 23:12:59,-34.9581766063856,-54.9445293911591,-0.328084,-0.2952756,11.610899977848,11.315624377848,0.328084,0,0.47792980532,0.59300854916,14,4,8.559,11.643708377848,0,0.223694,0.47792980532,0,0,0,308.7, -13.6, 5.8,0,0,1024,1024,1024,1024,0,0,0,0,320.7,0,0,96,4.277,4.275,0,0,0,0,1.093,73.04,11.315624377848,-0.328084,10,Assisted_Takeoff,
1600,2023-01-02 23:13:00,-34.9581764982293,-54.944529516057,-0.328084,-0.1968504,11.512474777848,11.315624377848,0.328084,0,0.53214240548,0.64733925956,14,4,8.559,11.643708377848,0,0.223694,0.53214240548,0,0,0,309.2, -13.4, 5.6,0,0,1024,1024,1024,1024,0,0,0,0,321.3,0,0,96,4.277,4.275,0,0,0,0,1.093,73.04,11.315624377848,-0.328084,10,Assisted_Takeoff,
1700,2023-01-02 23:13:00,-34.9581764320493,-54.9445296598462,-0.328084,-0.1968504,11.512474777848,11.315624377848,0.328084,0,0.58017718392,0.69665028476,14,4,8.559,11.643708377848,0,0.223694,0.58017718392,0,0,0,308.8, -12.6, 4.8,0,0,1024,1024,1024,1024,0,0,0,0,321.4,0,0,96,4.277,4.275,0,0,0,0,1.093,73.04,11.315624377848,-0.328084,10,Assisted_Takeoff,
1800,2023-01-02 23:13:00,-34.9581764994229,-54.9445297861683,-0.328084,-0.1968504,11.512474777848,11.315624377848,0.328084,0,0.59352364104,0.74171918384,14,4,8.559,11.643708377848,0,0.223694,0.59352364104,0,0,0,307.9, -12.4, 4.7,0,0,1024,1024,1024,1024,0,0,0,0,320.9,0,0,96,4.277,4.275,0,0,0,0,1.093,73.04,11.315624377848,-0.328084,10,Assisted_Takeoff,
1900,2023-01-02 23:13:00,-34.9581765091578,-54.9445298458629,-0.328084,-0.2296588,11.545283177848,11.315624377848,0.328084,0,0.60564634484,0.75991800332,14,4,8.559,11.643708377848,0,0.223694,0.60564634484,0,0,0.223694,306.8, -10.7, 4.1,0,0,1024,1024,1024,1024,0,0,0,0,319.7,0,0,96,4.277,4.275,0,0,0,0,1.093,73.04,11.315624377848,-0.328084,10,Assisted_Takeoff,
2000,2023-01-02 23:13:00,-34.9581764981658,-54.9445298859424,-0.328084,-0.1968504,11.512474777848,11.315624377848,0.328084,0,0.61769030848,0.772555799,14,4,8.559,11.643708377848,0,0.223694,0.61769030848,0,0,0.223694,307.5, -12.4, 3.9,0,0,1024,1024,1024,1024,0,0,0,0,319,0,0,96,4.277,4.275,0,0,0,0,1.093,73.04,11.315624377848,-0.328084,6,P-GPS,"Error de calibración del estabilizador. Reinicia la aeronave o contacta con la Asistencia DJI (Code: 40011)"
2100,2023-01-02 23:13:00,-34.9581765037562,-54.9445298517794,-0.328084,-0.2296588,11.545283177848,11.315624377848,0.328084,0,0.60824148928,0.782972466,14,4,8.559,11.643708377848,0,0.223694,0.61769030848,0,0,0,307.7, -8.9, 2.1,0,0,1024,1024,1024,1024,0,0,0,0,318.9,0,0,96,4.277,4.275,0,0,0,0,1.093,73.04,11.315624377848,-0.328084,6,P-GPS,
2200,2023-01-02 23:13:00,-34.9581765730791,-54.944529751608,-0.328084,-0.2296588,11.545283177848,11.315624377848,0.328084,0,0.56913059564,0.82217522316,14,4,8.564,11.643708377848,0,0.223694,0.61769030848,0,0,0,309.7, -6.6, 0.9,0,0,1024,1024,1024,1024,0,0,0,0,318.9,0,0,96,4.285,4.285,0,0,0,0,1.377,73.04,11.315624377848,-0.328084,6,P-GPS,
2300,2023-01-02 23:13:00,-34.9581765631423,-54.9445297981423,-0.328084,-0.2296588,11.545283177848,11.315624377848,0.328084,0,0.5825295462,0.83655514488,14,4,8.564,11.643708377848,0,0.223694,0.61769030848,0,0,0,310, -2.6, -0.7,0,0,1024,1024,1024,1024,0,0,0,0,318.9,0,0,96,4.285,4.285,0,0,0,0,1.377,73.04,11.315624377848,-0.328084,6,P-GPS,
2400,2023-01-02 23:13:00,-34.958176558156,-54.9445297835812,-0.328084,-0.2296588,11.545283177848,11.315624377848,0.328084,0,0.58006235452,0.8412729928,14,4,8.564,11.643708377848,0,0.223694,0.61769030848,0,0,0,309.3, -0.6, -1.1,0,0,1024,1024,1024,1024,0,0,0,0,318.9,0,0,96,4.285,4.285,0,0,0,0,1.377,73.04,11.315624377848,-0.328084,6,P-GPS,
2500,2023-01-02 23:13:00,-34.9581765546223,-54.9445297458327,-0.328084,-0.2296588,11.545283177848,11.315624377848,0.328084,0,0.57173886344,0.85263454172,14,4,8.564,11.643708377848,0,0.223694,0.61769030848,0,0,0,308.8, -0.7, 0,0,0,1024,1024,1024,1024,0,0,0,0,318.9,0,0,96,4.285,4.285,0,0,0,0,1.377,73.04,11.315624377848,-0.328084,6,P-GPS,
2600,2023-01-02 23:13:00,-34.9581765547998,-54.9445297524495,-0.328084,-0.2296588,11.545283177848,11.315624377848,0.328084,0,0.57328741992,0.85461288824,14,4,8.564,11.643708377848,0,0.223694,0.61769030848,0,0,0,308.4, 0.8, 1.9,0,0,1024,1024,1024,1024,0,0,0,0,318.9,0,0,96,4.285,4.285,0,0,0,0,1.377,73.04,11.315624377848,-0.328084,6,P-GPS,"Error de calibración del estabilizador. Reinicia la aeronave o contacta con la Asistencia DJI (Code: 40011)"
2700,2023-01-02 23:13:01,-34.95817648925,-54.9445296304993,-0.328084,-0.1968504,11.512474777848,11.315624377848,0.328084,0,0.55980316752,0.89822181352,14,4,8.564,11.643708377848,0,0.223694,0.61769030848,0,0,-0.223694,307, 0.4, 0.9,0,0,1024,1024,1024,1024,0,0,0,0,318.9,0,0,96,4.285,4.285,0,0,0,0,1.377,73.04,11.315624377848,-0.328084,6,P-GPS,
2800,2023-01-02 23:13:01,-34.958176438384,-54.9445295330144,-0.328084,-0.1968504,11.512474777848,11.315624377848,0.328084,0,0.55087928272,0.93277890124,14,4,8.564,11.643708377848,0,0.223694,0.61769030848,0,0,-0.447388,306.6, 0.5, -0.9,0,0,1024,1024,1024,1024,0,0,0,0,318.9,0,0,96,4.285,4.285,0,0,0,0,1.377,73.04,11.315624377848,-0.328084,6,P-GPS,
2900,2023-01-02 23:13:01,-34.9581763724303,-54.944529407032,0,0.098425199999999,11.545283177848,11.643708377848,0.328084,0,0.54246064728,0.97748034624,14,4,8.564,11.643708377848,0,0.223694,0.61769030848,0,0,-0.671082,306.7, 0.1, -1.2,0,0,1024,1024,1024,1024,0,0,0,0,318.9,0,0,96,4.285,4.285,0,0,0,0,1.377,73.04,11.643708377848,0,6,P-GPS,
3000,2023-01-02 23:13:01,-34.9581763032019,-54.9445293855432,0,0.098425199999999,11.545283177848,11.643708377848,0.656168,0,0.55768046404,1.0035433392,14,4,8.564,11.643708377848,0,0.223694,0.61769030848,0,0,-1.11847,306.8, 1.8, -1.3,0,0,1024,1024,1024,1024,0,0,0,0,318.9,0,0,96,4.285,4.285,0,0,0,0,1.377,73.04,11.643708377848,0,6,P-GPS,
3100,2023-01-02 23:13:01,-34.9581761494817,-54.9445294442082,0,0.098425199999999,11.545283177848,11.643708377848,0.656168,0,0.61271983588,1.06230646444,14,4,8.564,11.643708377848,0,0.223694,0.61769030848,0,0,-1.342164,307, 2, -1.6,0,0,1024,1024,1024,1024,0,0,0,0,318.9,0,0,96,4.285,4.285,0,0,0,0,1.377,73.04,11.643708377848,0,6,P-GPS,
3200,2023-01-02 23:13:01,-34.9581760351503,-54.9445293859639,0,0.098425199999999,11.545283177848,11.643708377848,0.984252,0,0.63681760568,1.10750987796,14,4,8.435,11.643708377848,0,0.223694,0.63681760568,0,0,-1.342164,306.9, 2.4, -2,0,0,1024,1024,1024,1024,0,0,0,0,318.9,0,0,96,4.17,4.165,0,0,0,0,2.769,73.04,11.643708377848,0,6,P-GPS,
3300,2023-01-02 23:13:01,-34.958175903743,-54.9445292933894,0.328084,0.4265092,11.545283177848,11.971792377848,1.312336,0,0.66347114984,1.16287077212,14,4,8.435,11.971792377848,0.328084,0.223694,0.66347114984,0,0,-1.11847,307.1, 1.6, -1.8,0,0,1024,1024,1024,1024,0,0,0,0,318.9,0,0,96,4.17,4.165,0,0,0,0,2.769,73.04,11.971792377848,0.328084,6,P-GPS,
3400,2023-01-02 23:13:01,-34.9581757822106,-54.9445292545067,0.328084,0.4265092,11.545283177848,11.971792377848,2.624672,0,0.6972769252,1.2087106686,14,4,8.435,11.971792377848,0.328084,0.223694,0.6972769252,0,0,-0.894776,307.3, 2.9, -1.3,0,0,1024,1024,1024,1024,0,0,0,0,318.9,0,0,96,4.17,4.165,0,0,0,0,2.769,73.04,11.971792377848,0.328084,6,P-GPS,
3500,2023-01-02 23:13:01,-34.958175428125,-54.944529257904,0.656168,0.7874016,11.512474777848,12.299876377848,2.624672,0,0.81532482924,1.33790358612,14,4,8.435,12.299876377848,0.656168,0.223694,0.81532482924,0,0,-0.447388,307.2, 2.2, -1.7,0,0,1024,1006,1024,1024,0,-3,0,0,318.9,0,0,96,4.17,4.165,0,0,0,0,2.769,73.04,12.299876377848,0.656168,6,P-GPS,"Punto de origen actualizado. Altitud de RPO establecida en 100m (Code: 3000001)"
3600,2023-01-02 23:13:01,-34.9581753649479,-54.9445292006188,0.656168,0.7874016,11.512474777848,12.299876377848,2.624672,0,0.8304298166,1.36662077864,14,4,8.435,12.299876377848,0.656168,0.223694,0.8304298166,0,0,-0.223694,307.3, 3.1, -2.2,0,0,1024,1006,1024,1024,0,-3,0,0,318.9,0,0,96,4.17,4.165,0,0,0,0,2.769,73.04,12.299876377848,0.656168,6,P-GPS,
3700,2023-01-02 23:13:02,-34.9581753252773,-54.944529130317,0.656168,0.7874016,11.512474777848,12.299876377848,2.952756,0,0.83685698216,1.392142433,14,4,8.435,12.299876377848,0.656168,0.223694,0.83685698216,0,0,0,307.5, 2.7, -2.4,0,0,1661,1024,1024,1024,97,0,0,0,318.9,0,0,96,4.17,4.165,0,0,0,0,2.769,73.04,12.299876377848,0.656168,6,P-GPS,
3800,2023-01-02 23:13:02,-34.9581753037281,-54.9445290752609,0.984252,1.1154856,11.512474777848,12.627960377848,2.952756,0,0.83909451504,1.41038718424,14,4,8.435,12.627960377848,0.984252,0.223694,0.83909451504,0,0,0,307.6, -2.2, -1.9,0,0,1684,1024,1024,1024,100,0,0,0,318.9,0,0,96,4.17,4.165,0,0,0,0,2.769,73.04,12.627960377848,0.984252,6,P-GPS,
3900,2023-01-02 23:13:02,-34.9581753491145,-54.9445290967497,0.984252,1.1154856,11.512474777848,12.627960377848,2.952756,0.3131716,0.82538060384,1.428149652,14,4,8.435,12.627960377848,0.984252,0.3131716,0.83909451504,0.223694,-0.223694,0,307.9, -11.4, -1.9,0,0,1684,1024,1024,1024,100,0,0,0,318.9,0,0,96,4.17,4.165,0,0,0,0,2.769,73.04,12.627960377848,0.984252,6,P-GPS,
4000,2023-01-02 23:13:02,-34.9581751001938,-54.9445291798878,0.984252,1.1154856,11.512474777848,12.627960377848,2.624672,0.8052984,0.91939635488,1.52230976,14,4,8.435,12.627960377848,0.984252,0.8052984,0.91939635488,0.447388,-0.671082,0.223694,307.7, -14.6, -2.3,0,0,1684,1024,1024,1024,100,0,0,0,318.9,0,0,96,4.17,4.165,0,0,0,0,2.769,73.04,12.627960377848,0.984252,6,P-GPS,
4100,2023-01-02 23:13:02,-34.9581746641991,-54.9445294728625,0.984252,1.1154856,11.512474777848,12.627960377848,2.624672,1.4316416,1.09843835536,1.70391081568,14,4,8.435,12.627960377848,0.984252,1.4316416,1.09843835536,0.894776,-1.11847,0.223694,307.7, -15.1, -1.8,0,0,1684,1024,1024,1024,100,0,0,0,318.9,0,0,96,4.17,4.165,0,0,0,0,2.769,73.04,12.627960377848,0.984252,6,P-GPS,
4200,2023-01-02 23:13:02,-34.9581740989548,-54.9445300518476,0.984252,1.2139108,11.414049577848,12.627960377848,2.624672,2.0579848,1.35463258928,1.97317591616,14,4,8.406,12.627960377848,0.984252,2.0579848,1.35463258928,1.342164,-1.565858,0.223694,307.5, -14.2, -1,0,0,1684,1024,1024,1024,100,0,0,0,318.9,0,0,96,4.188,4.181,0,0,0,0,4.327,73.04,12.627960377848,0.984252,6,P-GPS,
4300,2023-01-02 23:13:02,-34.9581733619113,-54.9445309187376,0.984252,1.312336,11.315624377848,12.627960377848,2.624672,2.8632832,1.71036094712,2.34667986512,14,4,8.406,12.627960377848,0.984252,2.8632832,1.71036094712,1.789552,-2.23694,0.223694,307.5, -13.4, -0.8,0,0,1684,1024,1024,1024,100,0,0,0,318.9,0,0,96,4.188,4.181,0,0,0,0,4.327,73.04,12.627960377848,0.984252,6,P-GPS,
4400,2023-01-02 23:13:02,-34.9581724558027,-54.9445318386689,0.984252,1.3779528,11.250007577848,12.627960377848,2.624672,3.4896264,2.13346791604,2.77674877652,14,4,8.406,12.627960377848,0.984252,3.4896264,2.13346791604,2.23694,-2.684328,0.223694,307.4, -13.4, -2.2,0,0,1684,1024,1024,1024,100,0,0,0,318.9,0,0,96,4.188,4.181,0,0,0,0,4.327,73.04,12.627960377848,0.984252,6,P-GPS,
4500,2023-01-02 23:13:02,-34.9581713568017,-54.9445329881485,0.984252,1.476378,11.151582377848,12.627960377848,2.624672,3.9817532,2.65505914008,3.3048885572,14,4,8.406,12.627960377848,0.984252,3.9817532,2.65505914008,2.460634,-3.131716,0,307.3, -12.4, -1.3,0,0,1684,1024,1024,1024,100,0,0,0,318.9,0,0,96,4.188,4.181,0,0,0,0,4.327,73.04,12.627960377848,0.984252,6,P-GPS,
4600,2023-01-02 23:13:02,-34.9581701134619,-54.9445345069413,0.984252,1.64042,10.987540377848,12.627960377848,2.624672,4.2949248,3.2846785828,3.9467849032,14,4,8.406,12.627960377848,0.984252,4.2949248,3.2846785828,2.684328,-3.35541,0,307.3, -12.3, -1.4,0,0,1684,1024,1024,1024,100,0,0,0,318.9,0,0,96,4.188,4.181,0,0,0,0,4.327,73.04,12.627960377848,0.984252,6,P-GPS,
4700,2023-01-02 23:13:03,-34.9581686708136,-54.9445363580905,0.984252,1.7060368,10.921923577848,12.627960377848,2.952756,4.921268,4.0360565596,4.7105972636,14,4,8.406,12.627960377848,0.984252,4.921268,4.0360565596,3.131716,-3.802798,0,307.4, -12.3, -2.6,0,0,1684,1024,1024,1024,100,0,0,0,318.9,0,0,96,4.188,4.181,0,0,0,0,4.327,73.04,12.627960377848,0.984252,6,P-GPS,
4800,2023-01-02 23:13:03,-34.9581664630864,-54.9445385057997,0.984252,2.0013124,10.626647977848,12.627960377848,2.952756,5.2344396,5.065945044,5.7407810236,14,4,8.406,12.627960377848,0.984252,5.2344396,5.065945044,3.35541,-4.026492,0,307.3, -12.6, -3.4,0,0,1684,1024,1024,1024,100,0,0,0,318.9,0,0,96,4.188,4.181,0,0,0,0,4.327,73.04,12.627960377848,0.984252,6,P-GPS,
4900,2023-01-02 23:13:03,-34.9581647112227,-54.9445406318451,0.984252,2.132546,10.495414377848,12.627960377848,2.952756,5.7265664,5.9609910044,6.6422574304,14,4,8.406,12.627960377848,0.984252,5.7265664,5.9609910044,3.579104,-4.47388,0,307.3, -12.9, -3.6,0,0,1684,1024,1024,1024,100,0,0,0,318.9,0,0,96,4.188,4.181,0,0,0,0,4.327,73.04,12.627960377848,0.984252,6,P-GPS,
5000,2023-01-02 23:13:03,-34.9581629506826,-54.9445427293747,0.984252,2.3293964,10.298563977848,12.627960377848,2.952756,6.0844768,6.8547902456,7.540026488,14,4,8.406,12.627960377848,0.984252,6.0844768,6.8547902456,3.579104,-4.921268,0,307.5, -13.6, -2.8,0,0,1684,1024,1024,1024,100,0,0,0,318.9,0,0,96,4.188,4.181,0,0,0,0,4.327,73.04,12.627960377848,0.984252,6,P-GPS,
5100,2023-01-02 23:13:03,-34.958161028096,-54.9445450803064,0.656168,2.1981628,10.101713577848,12.299876377848,3.28084,6.3976484,7.8434713796,8.5331039476,14,4,8.406,12.627960377848,0.984252,6.3976484,7.8434713796,3.802798,-5.144962,0,307.5, -13.8, -0.8,0,0,1684,1024,1024,1024,100,0,0,0,318.9,0,0,96,4.188,4.181,0,0,0,0,4.327,73.04,12.299876377848,0.656168,6,P-GPS,
5200,2023-01-02 23:13:03,-34.9581583749764,-54.9445469339826,0.656168,2.4278216,9.872054777848,12.299876377848,3.28084,6.8897752,8.943405798,9.6485567392,14,4,8.406,12.627960377848,0.984252,6.8897752,8.943405798,4.026492,-5.59235,0,307.5, -13.3, -1.8,0,0,1684,1024,1024,1024,100,0,0,0,318.9,0,0,96,4.188,4.181,0,0,0,0,4.327,73.04,12.299876377848,0.656168,6,P-GPS,
5300,2023-01-02 23:13:03,-34.9581561216659,-54.944549531752,0.656168,2.6574804,9.642395977848,12.299876377848,3.28084,7.2029468,10.071194548,10.7795935208,14,4,8.346,12.627960377848,0.984252,7.2029468,10.071194548,4.250186,-5.816044,0,307.5, -14, -1.2,0,0,1684,1024,1024,1024,100,0,0,0,318.9,0,0,96,4.182,4.18,0,0,0,0,4.287,73.04,12.299876377848,0.656168,6,P-GPS,
5400,2023-01-02 23:13:03,-34.9581538679026,-54.9445520986222,0.656168,2.8543308,9.445545577848,12.299876377848,3.608924,7.5161184,11.1938651876,11.9044623232,14,4,8.346,12.627960377848,0.984252,7.5161184,11.1938651876,4.47388,-6.039738,0,307.5, -14.4, -0.6,0,0,1684,1024,1024,1024,100,0,0,0,318.9,0,0,96,4.182,4.18,0,0,0,0,4.287,73.04,12.299876377848,0.656168,6,P-GPS,
5500,2023-01-02 23:13:03,-34.9581513971525,-54.944554945163,0.328084,2.8215224,9.150269977848,11.971792377848,3.608924,8.1424616,12.4312996104,13.1442589508,14,4,8.346,12.627960377848,0.984252,8.1424616,12.4312996104,4.921268,-6.487126,0,307.5, -14.4, -0.6,0,0,1684,1024,1024,1024,100,0,0,0,318.9,0,0,96,4.182,4.18,0,0,0,0,4.287,73.04,11.971792377848,0.328084,6,P-GPS,
5600,2023-01-02 23:13:04,-34.9581487083146,-54.9445572045263,0.328084,2.9855644,8.986227977848,11.971792377848,3.937008,8.4556332,13.6175201208,14.3354007212,14,4,8.346,12.627960377848,0.984252,8.4556332,13.6175201208,5.144962,-6.71082,0.223694,307.5, -14.2, -0.6,0,0,1684,1024,1024,1024,100,0,0,0,318.9,0,0,96,4.182,4.18,0,0,0,0,4.287,73.04,11.971792377848,0.328084,6,P-GPS,
5700,2023-01-02 23:13:04,-34.9581460765472,-54.9445603011557,0.328084,3.28084,8.690952377848,11.971792377848,3.937008,8.8806518,14.947835124,15.6693246484,14,4,8.346,12.627960377848,0.984252,8.8806518,14.947835124,6.71082,-5.816044,0.223694,318.7, -14, -1.1,0,0,1684,1024,1455,1024,100,0,65,0,318.9,0,0,96,4.182,4.18,0,0,0,0,4.287,73.04,11.971792377848,0.328084,6,P-GPS,
5800,2023-01-02 23:13:04,-34.9581433042125,-54.9445634887055,0.328084,3.5761156,8.395676777848,11.971792377848,3.937008,9.3727786,16.335466402,17.0591540892,14,4,8.346,12.627960377848,0.984252,9.3727786,16.335466402,7.158208,-6.039738,0.223694,319, -13.1, -1.1,0,0,1684,1024,1684,1024,100,0,100,0,318.9,0,0,96,4.182,4.18,0,0,0,0,4.287,73.04,11.971792377848,0.328084,6,P-GPS,
5900,2023-01-02 23:13:04,-34.9581402204867,-54.9445669768737,0.328084,3.937008,8.034784377848,11.971792377848,3.937008,9.6859502,17.8681764248,18.59334049,14,4,8.346,12.627960377848,0.984252,9.6859502,17.8681764248,7.381902,-6.263432,0,318.6, -11.9, -2.2,0,0,1684,1024,1684,1024,100,0,100,0,318.9,0,0,96,4.182,4.18,0,0,0,0,4.287,73.04,11.971792377848,0.328084,6,P-GPS,
6000,2023-01-02 23:13:04,-34.9581371435874,-54.9445702936542,0.328084,4.2322836,7.739508777848,11.971792377848,9.186352,9.9991218,19.3659455016,20.0913064172,14,4,8.346,12.627960377848,0.984252,9.9991218,19.3659455016,7.605596,-6.487126,-0.447388,318.7, -11.2, -2.6,0,0,1684,1024,1684,1024,100,0,100,0,318.9,0,0,96,4.182,4.18,0,0,0,0,4.287,73.04,11.971792377848,0.328084,6,P-GPS,
6100,2023-01-02 23:13:04,-34.9581326779315,-54.9445728387665,0.328084,4.5603676,7.411424777848,11.971792377848,9.514436,10.4912486,21.1043970008,21.8895676296,14,4,8.346,12.627960377848,0.984252,10.4912486,21.1043970008,8.052984,-6.71082,-1.342164,318.8, -11.3, -3.4,0,0,1684,1024,1684,1024,100,0,100,0,318.9,0,0,96,4.182,4.18,0,0,0,0,4.287,73.04,11.971792377848,0.328084,6,P-GPS,
6200,2023-01-02 23:13:04,-34.9581293760658,-54.9445761529494,0.656168,5.2165356,7.083340777848,12.299876377848,9.84252,10.625465,22.6643051872,23.4495086244,14,4,8.346,12.627960377848,0.984252,10.625465,22.6643051872,8.052984,-6.934514,-2.013246,318.7, -11.2, -3,0,0,1684,1024,1684,1024,100,0,100,0,318.9,0,0,96,4.182,4.18,0,0,0,0,4.287,73.04,12.299876377848,0.656168,6,P-GPS,
6300,2023-01-02 23:13:04,-34.9581258535786,-54.944579751235,0.984252,5.905512,6.722448377848,12.627960377848,10.170604,11.0952224,24.3402894928,25.1256241636,14,4,8.36,12.627960377848,0.984252,11.0952224,24.3402894928,8.276678,-7.381902,-2.908022,318.7, -11.2, -2.5,0,0,1684,1024,1684,1024,100,0,100,0,318.9,0,0,95,4.125,4.124,0,0,0,0,4.106,73.04,12.627960377848,0.984252,6,P-GPS,
6400,2023-01-02 23:13:04,-34.958122477964,-54.9445832458371,1.64042,6.9225724,6.361555977848,13.284128377848,10.826772,11.2518082,25.955217366,26.7407816956,14,4,8.36,13.284128377848,1.64042,11.2518082,25.955217366,8.500372,-7.381902,-3.579104,318.7, -11.3, -2.2,0,0,1684,1024,1684,1024,100,0,100,0,318.9,0,0,95,4.125,4.124,0,0,0,0,4.106,73.04,13.284128377848,1.64042,6,P-GPS,
6500,2023-01-02 23:13:04,-34.9581188664465,-54.94458660363,2.296588,7.9396328,6.000663577848,13.940296377848,11.48294,11.408394,27.6108276552,28.3973762368,14,4,8.36,13.940296377848,2.296588,11.408394,27.6108276552,8.500372,-7.605596,-4.250186,318.6, -11.2, -0.9,0,0,1684,1024,1684,1024,100,0,100,0,318.9,0,0,95,4.125,4.124,0,0,0,0,4.106,73.04,13.940296377848,2.296588,6,P-GPS,
6600,2023-01-02 23:13:05,-34.9581153600158,-54.9445902570866,2.952756,8.9238848,5.672579577848,14.596464377848,12.467192,11.7215656,29.2927502812,30.0796597552,14,4,8.36,14.596464377848,2.952756,11.7215656,29.2927502812,8.724066,-7.82929,-5.144962,318.7, -11.3, -1.8,0,0,1684,1024,1684,1024,100,0,100,0,318.9,0,0,95,4.125,4.124,0,0,0,0,4.106,73.04,14.596464377848,2.952756,6,P-GPS,
6700,2023-01-02 23:13:05,-34.9581116014628,-54.9445941667887,3.937008,10.2690292,5.311687177848,15.580716377848,13.451444,12.0347372,31.0944235672,31.8816939336,14,4,8.36,15.580716377848,3.937008,12.0347372,31.0944235672,8.94776,-8.052984,-5.59235,318.7, -11.9, -2,0,0,1684,1024,1684,1024,100,0,100,0,318.9,0,0,95,4.125,4.124,0,0,0,0,4.106,73.04,15.580716377848,3.937008,6,P-GPS,
6800,2023-01-02 23:13:05,-34.9581079743057,-54.9445980016471,4.92126,11.6797904,4.885177977848,16.564968377848,14.435696,12.0347372,32.844817324,33.632875092,14,4,8.36,16.564968377848,4.92126,12.0347372,32.844817324,8.94776,-8.052984,-6.039738,318.9, -12.7, -1.2,0,0,1684,1024,1684,1024,100,0,100,0,318.9,0,0,95,4.125,4.124,0,0,0,0,4.106,73.04,16.564968377848,4.92126,6,P-GPS,
6900,2023-01-02 23:13:05,-34.9581041704299,-54.9446019414434,5.905512,13.0577432,4.491477177848,17.549220377848,15.419948,12.2136924,34.665027356,35.453085124,14,4,8.36,17.549220377848,5.905512,12.2136924,34.665027356,9.171454,-8.052984,-6.263432,318.8, -11.9, -1.5,0,0,1684,1024,1684,1024,100,0,100,0,318.9,0,0,95,4.125,4.124,0,0,0,0,4.106,73.04,17.549220377848,5.905512,6,P-GPS,
7000,2023-01-02 23:13:05,-34.9581004540406,-54.9446059073722,6.889764,14.4685044,4.064967977848,18.533472377848,16.4042,12.3479088,36.465552348,37.254594368,14,4,8.36,18.533472377848,6.889764,12.3479088,36.465552348,9.171454,-8.276678,-6.487126,319, -11.9, -1,0,0,1684,1024,1684,1024,100,0,100,0,318.9,0,0,95,4.125,4.124,0,0,0,0,4.106,73.04,18.533472377848,6.889764,6,P-GPS,
7100,2023-01-02 23:13:05,-34.9580965136947,-54.9446101098216,7.874016,15.8136488,3.704075577848,19.517724377848,17.388452,12.3479088,38.37434506,39.164043248,14,4,8.36,19.517724377848,7.874016,12.3479088,38.37434506,9.171454,-8.276678,-6.487126,319.1, -13.2, -1,0,0,1684,1024,1684,1024,100,0,100,0,318.9,0,0,95,4.125,4.124,0,0,0,0,4.106,73.04,19.517724377848,7.874016,6,P-GPS,
7200,2023-01-02 23:13:05,-34.9580926825327,-54.9446141616847,8.858268,17.22441,3.277566377848,20.501976377848,18.372704,12.3479088,40.223754568,41.01378084,14,4,8.36,20.501976377848,8.858268,12.3479088,40.223754568,9.395148,-8.276678,-6.487126,319.1, -14.8, -1.4,0,0,1684,1024,1684,1024,100,0,100,0,318.9,0,0,95,4.125,4.124,0,0,0,0,4.106,73.04,20.501976377848,8.858268,6,P-GPS,
7300,2023-01-02 23:13:05,-34.958088617969,-54.9446185760169,9.84252,18.700788,2.785440377848,21.486228377848,19.356956,12.6834498,42.2080066,42.999017124,14,4,8.172,21.486228377848,9.84252,12.6834498,42.2080066,9.618842,-8.276678,-6.487126,318.9, -15.3, -2,0,0,1684,1024,1684,1024,100,0,100,0,318.9,0,0,95,4.107,4.1,0,0,0,0,6.317,73.04,21.486228377848,9.84252,6,P-GPS,
7400,2023-01-02 23:13:05,-34.95808464424,-54.9446228008357,10.826772,20.1115492,2.358931177848,22.470480377848,20.341208,12.9966214,44.13057884,44.921917448,14,4,8.172,22.470480377848,10.826772,12.9966214,44.13057884,9.842536,-8.500372,-6.487126,318.9, -15.3, -2.6,0,0,1684,1024,1684,1024,100,0,100,0,318.9,0,0,95,4.107,4.1,0,0,0,0,6.317,73.04,22.470480377848,10.826772,6,P-GPS,
7500,2023-01-02 23:13:05,-34.9580803985087,-54.9446272975272,12.139108,21.9160112,1.866805177848,23.782816377848,21.32546,12.9966214,46.181431924,46.9734267,14,4,8.172,23.782816377848,12.139108,12.9966214,46.181431924,9.842536,-8.500372,-6.487126,319, -14.5, -1.7,0,0,1684,1024,1684,1024,100,0,100,0,318.9,0,0,95,4.107,4.1,0,0,0,0,6.317,73.04,23.782816377848,12.139108,6,P-GPS,
7600,2023-01-02 23:13:05,-34.9580763170288,-54.9446316208135,13.12336,23.3923892,1.374679177848,24.767068377848,22.309712,13.3545318,48.153216764,48.94521154,14,4,8.172,24.767068377848,13.12336,13.3545318,48.153216764,10.289924,-8.500372,-6.487126,319, -14.4, -3.4,0,0,1684,1024,1684,1024,100,0,100,0,318.9,0,0,95,4.107,4.1,0,0,0,0,6.317,73.04,24.767068377848,13.12336,6,P-GPS,
7700,2023-01-02 23:13:06,-34.9580719663214,-54.9446362159307,14.107612,24.8031504,0.948169977848,25.751320377848,23.293964,13.4887482,50.252298196,51.044621056,14,4,8.172,25.751320377848,14.107612,13.4887482,50.252298196,10.289924,-8.724066,-6.487126,319, -14.4, -4.3,0,0,1684,1024,1684,1024,100,0,100,0,318.9,0,0,95,4.107,4.1,0,0,0,0,6.317,73.04,25.751320377848,14.107612,6,P-GPS,
7800,2023-01-02 23:13:06,-34.9580677170597,-54.9446408000199,15.419948,26.6076124,0.456043977848,27.063656377848,24.278216,13.8019198,52.320867816,53.114174928,14,4,8.172,27.063656377848,15.419948,13.8019198,52.320867816,10.513618,-8.94776,-6.71082,319.2, -14.4, -4.5,0,0,1684,1024,1684,1024,100,0,100,0,318.9,0,0,95,4.107,4.1,0,0,0,0,6.317,73.04,27.063656377848,15.419948,6,P-GPS,
7900,2023-01-02 23:13:06,-34.9580631767494,-54.9446457169019,16.4042,28.1496072,-0.101698822152,28.047908377848,25.262468,13.980875,54.535106732,55.329070012,14,4,8.172,28.047908377848,16.4042,13.980875,54.535106732,10.737312,-8.94776,-6.487126,319, -14.3, -4.5,0,0,1684,1024,1684,1024,100,0,100,0,318.9,0,0,95,4.107,4.1,0,0,0,0,6.317,73.04,28.047908377848,16.4042,6,P-GPS,
8000,2023-01-02 23:13:06,-34.9580588585458,-54.9446501598649,17.388452,29.5603684,-0.528208022152,29.032160377848,25.918636,14.2940466,56.59613042,57.389765616,14,4,8.172,29.032160377848,17.388452,14.2940466,56.59613042,10.961006,-9.171454,-6.487126,319.1, -14.1, -4.7,0,0,1684,1024,1684,1024,100,0,100,0,318.9,0,0,95,4.107,4.1,0,0,0,0,6.317,73.04,29.032160377848,17.388452,6,P-GPS,
8100,2023-01-02 23:13:06,-34.9580542726391,-54.9446547677138,18.700788,31.2992136,-0.954717222152,30.344496377848,26.902888,14.2940466,58.763453324,59.557416604,14,4,8.172,30.344496377848,18.700788,14.2940466,58.763453324,10.961006,-9.171454,-6.487126,319.1, -13.8, -5.3,0,0,1684,1024,1684,1024,100,0,100,0,318.9,0,0,95,4.107,4.1,0,0,0,0,6.317,73.04,30.344496377848,18.700788,6,P-GPS,
8200,2023-01-02 23:13:06,-34.9580494459962,-54.9446593962075,19.68504,32.3490824,-1.020334022152,31.328748377848,27.88714,14.6072182,61.001970456,61.797246072,14,4,8.172,31.328748377848,19.68504,14.6072182,61.001970456,11.1847,-9.395148,-6.487126,319.1, -13.5, -4.9,0,0,1684,1024,1684,1024,100,0,100,0,318.9,0,0,95,4.107,4.1,0,0,0,0,6.317,73.04,31.328748377848,19.68504,6,P-GPS,
8300,2023-01-02 23:13:06,-34.9580445253335,-54.9446643344137,20.997376,33.8254604,-1.184376022152,32.641084377848,28.871392,14.7861734,63.326445596,64.121721212,14,4,8.212,32.641084377848,20.997376,14.7861734,63.326445596,11.408394,-9.395148,-6.487126,319, -12.7, -5.6,0,0,1024,1024,1684,1024,0,0,100,0,318.9,0,0,95,4.113,4.09,0,0,0,0,6.143,73.22,32.641084377848,20.997376,6,P-GPS,
8400,2023-01-02 23:13:06,-34.9580398969439,-54.9446690362667,21.981628,34.9081376,-1.282801222152,33.625336377848,30.183728,14.7861734,65.523624144,66.31889976,14,4,8.212,33.625336377848,21.981628,14.7861734,65.523624144,11.408394,-9.395148,-6.487126,318.1, 1.9, -5.7,0,0,1024,1024,1684,1024,0,0,100,0,318.9,0,0,95,4.113,4.09,0,0,0,0,6.143,73.22,33.625336377848,21.981628,6,P-GPS,
8500,2023-01-02 23:13:06,-34.9580352029476,-54.9446738337125,22.96588,35.9908148,-1.381226422152,34.609588377848,31.16798,13.8019198,67.7575481,68.5531518,14,4,8.212,34.609588377848,22.96588,14.7861734,67.7575481,10.513618,-8.94776,-6.934514,317.5, 20.3, -2,0,0,1024,1024,1684,1024,0,0,100,0,318.9,0,0,95,4.113,4.09,0,0,0,0,6.143,73.22,34.609588377848,22.96588,6,P-GPS,
8600,2023-01-02 23:13:06,-34.9580313277199,-54.9446778385998,23.950132,37.0406836,-1.446843222152,35.593840377848,32.152232,12.3926476,69.610566532,70.405842148,14,4,8.212,35.593840377848,23.950132,14.7861734,69.610566532,9.618842,-7.82929,-7.158208,318.2, 20.4, -1.5,0,0,1024,1024,1684,1024,0,0,100,0,318.9,0,0,95,4.113,4.09,0,0,0,0,6.143,73.22,35.593840377848,23.950132,6,P-GPS,
8700,2023-01-02 23:13:07,-34.9580274762804,-54.9446816188098,24.934384,38.0905524,-1.512460022152,36.578092377848,33.136484,11.3189164,71.413716196,72.209319896,14,4,8.212,36.578092377848,24.934384,14.7861734,71.413716196,8.94776,-6.934514,-6.934514,318.3, 19.8, -1.1,0,0,1024,1024,1684,1024,0,0,100,0,318.9,0,0,95,4.113,4.09,0,0,0,0,6.143,73.22,36.578092377848,24.934384,6,P-GPS,"Error de calibración del estabilizador. Reinicia la aeronave o contacta con la Asistencia DJI (Code: 40011)"
8800,2023-01-02 23:13:07,-34.9580239410197,-54.9446849862717,25.918636,39.1076128,-1.545268422152,37.562344377848,34.120736,10.2004464,73.048886852,73.845802888,14,4,8.212,37.562344377848,25.918636,14.7861734,73.048886852,8.052984,-6.263432,-6.71082,317.9, 26.6, -1.6,0,0,1024,1024,1684,1024,0,0,100,0,318.9,0,0,95,4.113,4.09,0,0,0,0,6.143,73.22,37.562344377848,25.918636,31,Sport,"Error de calibración del estabilizador. Reinicia la aeronave o contacta con la Asistencia DJI (Code: 40011)"
8900,2023-01-02 23:13:07,-34.9580205614643,-54.9446880702687,26.902888,40.1246732,-1.578076822152,38.546596377848,35.104988,8.1872004,74.586288476,75.3855011,14,4,8.212,38.546596377848,26.902888,14.7861734,74.586288476,6.71082,-4.697574,-7.158208,317.2, 28, -2.1,0,0,1024,1024,1684,1024,0,0,100,0,318.9,0,0,95,4.113,4.09,0,0,0,0,6.143,73.22,38.546596377848,26.902888,31,Sport,
9000,2023-01-02 23:13:07,-34.9580182171954,-54.9446896485077,28.215224,41.4370092,-1.578076822152,39.858932377848,36.417324,6.4423872,75.545606092,76.362207168,14,4,8.212,39.858932377848,28.215224,14.7861734,75.545606092,5.368656,-3.579104,-8.052984,317, 26.8, -4.7,0,0,1165,1055,1684,1024,21,5,100,0,318.9,0,0,95,4.113,4.09,0,0,0,0,6.143,73.22,39.858932377848,28.215224,31,Sport,
9100,2023-01-02 23:13:07,-34.9580163087242,-54.9446909326197,29.52756,42.7165368,-1.545268422152,41.171268377848,37.72966,4.5186188,76.326774096,77.157482784,14,4,8.212,41.171268377848,29.52756,14.7861734,76.326774096,3.802798,-2.460634,-8.724066,316.6, 25.7, -6.6,0,0,1165,1055,1684,1024,21,5,100,0,318.9,0,0,95,4.113,4.09,0,0,0,0,6.143,73.22,41.171268377848,29.52756,31,Sport,
9200,2023-01-02 23:13:07,-34.9580152675492,-54.9446914840166,30.839896,43.9960644,-1.512460022152,42.483604377848,39.041996,2.796175,76.724739988,77.571524792,14,4,8.212,42.483604377848,30.839896,14.7861734,76.724739988,2.460634,-1.342164,-9.618842,317, 18.2, -5.8,0,0,1684,1024,1684,1024,100,0,100,0,318.9,0,0,95,4.113,4.09,0,0,0,0,6.143,73.22,42.483604377848,30.839896,31,Sport,
9300,2023-01-02 23:13:07,-34.9580146184905,-54.944691709342,32.480316,45.6692928,-1.545268422152,44.124024377848,40.682416,2.1922012,76.950133696,77.817587792,14,4,8.259,44.124024377848,32.480316,14.7861734,76.950133696,2.013246,-0.894776,-10.289924,319.3, -5.6, -5.7,0,0,1684,1024,1684,1024,100,0,100,0,318.9,0,0,95,4.042,4.035,0,0,0,0,6.305,73.22,44.124024377848,32.480316,31,Sport,
9400,2023-01-02 23:13:07,-34.958013760535,-54.9446917542899,34.120736,47.2769044,-1.512460022152,45.764444377848,41.994752,2.6172198,77.200789872,78.130908012,14,4,8.259,45.764444377848,34.120736,14.7861734,77.200789872,2.23694,-1.342164,-10.513618,320.9, -18.5, -4.5,0,0,1684,1024,1684,1024,100,0,100,0,318.9,0,0,95,4.042,4.035,0,0,0,0,6.305,73.22,45.764444377848,34.120736,31,Sport,
9500,2023-01-02 23:13:07,-34.9580128986191,-54.9446904258154,35.761156,48.7860908,-1.381226422152,47.404864377848,42.979004,3.8475368,77.194228192,78.637797792,14,4,8.259,47.404864377848,35.761156,14.7861734,77.200789872,3.131716,-2.23694,-10.737312,320, -21, -2.7,0,0,1684,1024,1684,1024,100,0,100,0,318.9,0,0,95,4.042,4.035,0,0,0,0,6.305,73.22,47.404864377848,35.761156,31,Sport,
9600,2023-01-02 23:13:08,-34.9580117845159,-54.9446910224739,37.72966,50.7545948,-1.381226422152,49.373368377848,42.979004,4.9660068,77.622705896,79.081695444,14,4,8.259,49.373368377848,37.72966,14.7861734,77.622705896,4.026492,-2.908022,-10.961006,319.3, -19, -3.4,0,0,1684,1024,1684,1024,100,0,100,0,318.9,0,0,95,4.042,4.035,0,0,0,0,6.305,73.22,49.373368377848,37.72966,31,Sport,
9700,2023-01-02 23:13:08,-34.9580104862683,-54.9446919152665,39.37008,52.3622064,-1.348418022152,51.013788377848,42.979004,6.039738,78.159123236,79.625330632,14,4,8.259,51.013788377848,39.37008,14.7861734,78.159123236,4.697574,-3.802798,-11.1847,319.1, -17.8, -5.7,0,0,1684,1024,1684,1024,100,0,100,0,318.9,0,0,95,4.042,4.035,0,0,0,0,6.305,73.22,51.013788377848,39.37008,31,Sport,
9800,2023-01-02 23:13:08,-34.9580090250589,-54.9446934514635,41.338584,54.3307104,-1.348418022152,52.982292377848,42.979004,6.9792528,78.862207248,80.329070812,14,4,8.259,52.982292377848,41.338584,14.7861734,78.862207248,5.368656,-4.47388,-10.961006,319.4, -19, -4.1,0,0,1684,1024,1684,1024,100,0,100,0,318.9,0,0,95,4.042,4.035,0,0,0,0,6.305,73.22,52.982292377848,41.338584,31,Sport,
9900,2023-01-02 23:13:08,-34.9580079993868,-54.9446958305504,42.979004,56.0695556,-1.446843222152,54.622712377848,42.979004,7.7845512,79.600396248,81.132876612,14,4,8.259,54.622712377848,42.979004,14.7861734,79.600396248,6.039738,-4.921268,-11.1847,318.8, -18.3, -2.8,0,0,1684,1024,1684,1024,100,0,100,0,318.9,0,0,95,4.042,4.035,0,0,0,0,6.305,73.22,54.622712377848,42.979004,31,Sport,
10000,2023-01-02 23:13:08,-34.9580055284249,-54.9446984416736,44.947508,58.070868,-1.479651622152,56.591216377848,42.979004,8.5898496,80.79232542,82.325461952,14,4,8.259,56.591216377848,44.947508,14.7861734,80.79232542,6.71082,-5.368656,-11.1847,318.6, -19.1, -2.8,0,0,1684,1024,1684,1024,100,0,100,0,318.9,0,0,95,4.042,4.035,0,0,0,0,6.305,73.22,56.591216377848,44.947508,31,Sport,
10100,2023-01-02 23:13:08,-34.9580025488674,-54.9447015145275,46.587928,59.7769048,-1.545268422152,58.231636377848,42.979004,9.0819764,82.215553812,83.749018428,14,4,8.259,58.231636377848,46.587928,14.7861734,82.215553812,7.158208,-5.59235,-11.1847,318.7, -19.1, -3.6,0,0,1684,1024,1684,1024,100,0,100,0,318.9,0,0,95,4.042,4.035,0,0,0,0,6.305,73.22,58.231636377848,46.587928,31,Sport,
10200,2023-01-02 23:13:08,-34.9579994160539,-54.9447047019258,48.556432,61.7126004,-1.512460022152,60.200140377848,42.979004,9.842536,83.703414752,85.237207452,14,4,8.259,60.200140377848,48.556432,14.7861734,83.703414752,7.605596,-6.263432,-11.1847,318.7, -19.5, -4.3,0,0,1684,1024,1684,1024,100,0,100,0,318.9,0,0,95,4.042,4.035,0,0,0,0,6.305,73.22,60.200140377848,48.556432,31,Sport,
10300,2023-01-02 23:13:08,-34.957994294363,-54.9447103952479,50.524936,63.6811044,-1.512460022152,62.168644377848,42.979004,10.3346628,86.227364964,87.765094672,14,4,8.259,62.168644377848,50.524936,14.7861734,86.227364964,8.052984,-6.487126,-11.1847,318.6, -19.8, -4.4,0,0,1684,1024,1684,1024,100,0,100,0,318.9,0,0,95,4.042,4.035,0,0,0,0,6.305,73.22,62.168644377848,50.524936,31,Sport,
10400,2023-01-02 23:13:08,-34.9579907977159,-54.9447140440634,52.49344,65.7152252,-1.578076822152,64.137148377848,42.979004,11.2741776,87.905514624,89.443572416,14,4,8.126,64.137148377848,52.49344,14.7861734,87.905514624,8.724066,-7.158208,-11.1847,318.8, -21.2, -4.7,0,0,1684,1024,1684,1024,100,0,100,0,318.9,0,0,95,4.066,4.059,0,0,0,0,8.434,73.22,64.137148377848,52.49344,31,Sport,
10500,2023-01-02 23:13:08,-34.9579869412609,-54.9447181037036,54.461944,67.6837292,-1.578076822152,66.105652377848,42.979004,11.7663044,89.763126232,91.301840192,14,4,8.126,66.105652377848,54.461944,14.7861734,89.763126232,9.171454,-7.381902,-11.1847,319, -21.6, -4.2,0,0,1684,1024,1684,1024,100,0,100,0,318.9,0,0,95,4.066,4.059,0,0,0,0,8.434,73.22,66.105652377848,54.461944,31,Sport,
10600,2023-01-02 23:13:09,-34.9579831227421,-54.9447221527026,56.430448,69.6194248,-1.545268422152,68.074156377848,42.979004,12.5492334,91.608270648,93.147640776,14,4,8.126,68.074156377848,56.430448,14.7861734,91.608270648,9.618842,-8.052984,-10.961006,319, -21.8, -4.6,0,0,1684,1024,1684,1024,100,0,100,0,318.9,0,0,95,4.066,4.059,0,0,0,0,8.434,73.22,68.074156377848,56.430448,31,Sport,
10700,2023-01-02 23:13:09,-34.957978442073,-54.9447275329776,58.070868,70.8333356,-1.118759222152,69.714576377848,42.979004,12.5492334,93.948821904,95.49376946,14,4,8.126,69.714576377848,58.070868,14.7861734,93.948821904,10.06623,-8.500372,-11.1847,319.1, -22.3, -4.6,0,0,1684,1024,1684,1024,100,0,100,0,318.9,0,0,95,4.066,4.059,0,0,0,0,8.434,73.22,69.714576377848,58.070868,31,Sport,
10800,2023-01-02 23:13:09,-34.9579742339913,-54.9447319271772,60.039372,72.506564,-0.823483622152,71.683080377848,42.979004,13.980875,95.969163176,97.5147669,14,4,8.126,71.683080377848,60.039372,14.7861734,95.969163176,10.737312,-8.94776,-11.1847,319.2, -22.8, -4.6,0,0,1684,1024,1684,1024,100,0,100,0,318.9,0,0,95,4.066,4.059,0,0,0,0,8.434,73.22,71.683080377848,60.039372,31,Sport,
10900,2023-01-02 23:13:09,-34.9579695977722,-54.9447367439507,62.007876,74.1141756,-0.462591222152,73.651584377848,42.979004,13.980875,98.19061994,99.736551748,14,4,8.126,73.651584377848,62.007876,14.7861734,98.19061994,11.1847,-9.395148,-11.1847,319.4, -23.1, -4.8,0,0,1684,1024,1684,1024,100,0,100,0,318.9,0,0,95,4.066,4.059,0,0,0,0,8.434,73.22,73.651584377848,62.007876,31,Sport,
11000,2023-01-02 23:13:09,-34.9579650178581,-54.9447415390028,63.97638,75.6889788,-0.068890422152,75.620088377848,42.979004,15.2335614,100.391735496,101.938323472,14,4,8.126,75.620088377848,63.97638,15.2335614,100.391735496,11.632088,-9.842536,-11.1847,319.3, -24.2, -4.9,0,0,1684,1024,1684,1024,100,0,100,0,318.9,0,0,95,4.066,4.059,0,0,0,0,8.434,73.22,75.620088377848,63.97638,31,Sport,
11100,2023-01-02 23:13:09,-34.9579599941735,-54.9447468006151,65.944884,77.2965904,0.292001977848,77.588592377848,42.979004,15.8599046,102.80676182,104.35367788,14,4,8.126,77.588592377848,65.944884,15.8599046,102.80676182,12.079476,-10.289924,-11.1847,319.2, -23.5, -5.8,0,0,1684,1024,1684,1024,100,0,100,0,318.9,0,0,95,4.066,4.059,0,0,0,0,8.434,73.22,77.588592377848,65.944884,31,Sport,
11200,2023-01-02 23:13:09,-34.9579550928437,-54.9447519639898,67.913388,78.904202,0.652894377848,79.557096377848,42.979004,16.665203,105.168638536,106.716210764,14,4,8.126,79.557096377848,67.913388,16.665203,105.168638536,12.750558,-10.737312,-10.961006,319.5, -24.9, -5.8,0,0,1684,1024,1684,1024,100,0,100,0,318.9,0,0,95,4.066,4.059,0,0,0,0,8.434,73.22,79.557096377848,67.913388,31,Sport,
11300,2023-01-02 23:13:09,-34.9579497552993,-54.9447575763428,69.881892,80.4790052,1.046595177848,81.525600377848,42.979004,17.2915462,107.738848592,109.287076988,14,4,8.126,81.525600377848,69.881892,17.2915462,107.738848592,13.197946,-11.1847,-10.961006,319.4, -25.4, -5.9,0,0,1684,1024,1684,1024,100,0,100,0,318.9,0,0,95,4.066,4.059,0,0,0,0,8.434,73.22,81.525600377848,69.881892,31,Sport,
11400,2023-01-02 23:13:09,-34.9579444371399,-54.9447631367234,71.850396,82.0538084,1.440295977848,83.494104377848,42.979004,18.0968446,110.2936387,111.84219518,14,4,8.089,83.494104377848,71.850396,18.0968446,110.2936387,13.869028,-11.632088,-10.961006,319.7, -25.5, -6.2,0,0,1684,1024,1684,1024,100,0,100,0,318.9,0,0,95,4.047,4.041,0,0,0,0,7.513,73.22,83.494104377848,71.850396,31,Sport,
11500,2023-01-02 23:13:09,-34.957938589124,-54.9447691718802,73.8189,83.66142,1.801188377848,85.462608377848,42.979004,18.5889714,113.087930128,114.636814692,13,4,8.089,85.462608377848,73.8189,18.5889714,113.087930128,14.316416,-11.855782,-10.961006,320, -25.6, -7.3,0,0,1684,1024,1684,1024,100,0,100,0,318.9,0,0,95,4.047,4.041,0,0,0,0,7.513,73.22,85.462608377848,73.8189,31,Sport,
11600,2023-01-02 23:13:09,-34.9579330888133,-54.9447746609712,76.115488,85.5643072,2.194889177848,87.759196377848,42.979004,19.3942698,115.680449896,117.22933446,13,4,8.089,87.759196377848,76.115488,19.3942698,115.680449896,14.987498,-12.30317,-11.1847,320, -25.7, -8.9,0,0,1684,1024,1621,1024,100,0,90,0,318.9,0,0,95,4.047,4.041,0,0,0,0,7.513,73.22,87.759196377848,76.115488,31,Sport,
11700,2023-01-02 23:13:10,-34.9579268280585,-54.9447809449518,78.083992,87.1391104,2.588589977848,89.727700377848,42.979004,19.8863966,118.63845524,120.18701172,14,4,8.089,89.727700377848,78.083992,19.8863966,118.63845524,15.434886,-12.526864,-10.961006,320.2, -25.7, -9.6,0,0,1024,1024,1024,1024,0,0,0,0,318.9,0,0,95,4.047,4.041,0,0,0,0,7.513,73.22,89.727700377848,78.083992,31,Sport,"Error de calibración del estabilizador. Reinicia la aeronave o contacta con la Asistencia DJI (Code: 40011)"
11800,2023-01-02 23:13:10,-34.9579205749899,-54.9447872240821,80.052496,88.746722,2.949482377848,91.696204377848,42.979004,20.1995682,121.593179744,123.141736224,14,4,8.089,91.696204377848,80.052496,20.1995682,121.593179744,15.65858,-12.750558,-10.737312,320.4, -23.1, -10.7,0,0,1024,1024,1024,1024,0,0,0,0,318.9,0,0,95,4.047,4.041,0,0,0,0,7.513,73.22,91.696204377848,80.052496,31,Sport,"Error de calibración del estabilizador. Reinicia la aeronave o contacta con la Asistencia DJI (Code: 40011)"
11900,2023-01-02 23:13:10,-34.957913866452,-54.944793894051,82.021,90.2887168,3.375991577848,93.664708377848,42.979004,20.356154,124.750332076,126.29921664,14,4,8.089,93.664708377848,82.021,20.356154,124.750332076,15.882274,-12.750558,-10.06623,318.3, 1, -11,0,0,1024,1024,1024,1024,0,0,0,0,318.9,0,0,95,4.047,4.041,0,0,0,0,7.513,73.22,93.664708377848,82.021,31,Sport,
12000,2023-01-02 23:13:10,-34.9579072392842,-54.944800567992,83.66142,91.535436,3.769692377848,95.305128377848,42.979004,19.2824228,127.88550278,129.434387344,14,4,8.089,95.305128377848,83.66142,20.356154,127.88550278,15.211192,-11.855782,-9.842536,318.3, 25.3, -3.5,0,0,1024,1024,1024,1024,0,0,0,0,318.9,0,0,95,4.047,4.041,0,0,0,0,7.513,73.22,95.305128377848,83.66142,31,Sport,
12100,2023-01-02 23:13:10,-34.9579009283732,-54.9448066077273,84.973756,92.519688,4.097776377848,96.617464377848,42.979004,17.7165648,130.810699724,132.36056854,14,4,8.089,96.617464377848,84.973756,20.356154,130.810699724,14.092722,-10.737312,-9.842536,318.2, 28.6, -3.2,0,0,1024,1024,1024,1024,0,0,0,0,318.9,0,0,95,4.047,4.041,0,0,0,0,7.513,73.22,96.617464377848,84.973756,31,Sport,
12200,2023-01-02 23:13:10,-34.9578954461188,-54.9448115880278,85.958008,93.2086644,4.393051977848,97.601716377848,42.979004,16.6428336,133.301513452,134.854335024,14,4,8.089,97.601716377848,85.958008,20.356154,133.301513452,13.42164,-9.842536,-9.171454,318.1, 28.8, -4.4,0,0,1024,1024,1024,1024,0,0,0,0,318.9,0,0,95,4.047,4.041,0,0,0,0,7.513,73.22,97.601716377848,85.958008,31,Sport,
12300,2023-01-02 23:13:10,-34.9578900078193,-54.9448163275326,86.94226,93.9632576,4.622710777848,98.585968377848,42.979004,15.4572554,135.734256312,137.292655312,14,4,8.089,98.585968377848,86.94226,20.356154,135.734256312,12.750558,-8.724066,-8.276678,318.1, 28.4, -4.3,0,0,1024,1024,1024,1024,0,0,0,0,318.9,0,0,95,4.047,4.041,0,0,0,0,7.513,73.22,98.585968377848,86.94226,31,Sport,
12400,2023-01-02 23:13:10,-34.9578856948659,-54.9448189595617,87.598428,94.4553836,4.786752777848,99.242136377848,42.979004,14.6966958,137.450135632,139.05184172,14,4,7.972,99.242136377848,87.598428,20.356154,137.450135632,12.30317,-8.052984,-6.934514,318.3, 27.4, -4,0,0,1024,1024,1024,1024,0,0,0,0,318.9,0,0,95,4.067,4.067,0,0,0,0,8.589,73.4,99.242136377848,87.598428,31,Sport,
12500,2023-01-02 23:13:10,-34.957880776001,-54.9448225538752,88.254596,94.8818928,5.016411577848,99.898304377848,42.979004,13.7795504,139.520345672,141.143705304,14,4,7.972,99.898304377848,88.254596,20.356154,139.520345672,11.632088,-7.381902,-6.039738,318, 27.7, -4.7,0,0,1024,1024,1024,1024,0,0,0,0,318.9,0,0,95,4.067,4.067,0,0,0,0,8.589,73.4,99.898304377848,88.254596,31,Sport,
12600,2023-01-02 23:13:10,-34.9578765379299,-54.9448254094944,88.910764,95.3740188,5.180453577848,100.55447237785,42.979004,12.862405,141.259190872,142.91010956,14,4,7.972,100.55447237785,88.910764,20.356154,141.259190872,10.961006,-6.71082,-4.921268,317.7, 27.2, -5.2,0,0,1024,1024,1024,1024,0,0,0,0,318.9,0,0,95,4.067,4.067,0,0,0,0,8.589,73.4,100.55447237785,88.910764,31,Sport,
12700,2023-01-02 23:13:11,-34.9578723754967,-54.9448280453912,88.910764,95.1771684,5.377303977848,100.55447237785,42.979004,12.2360618,142.936028196,144.621395704,14,4,7.972,100.55447237785,88.910764,20.356154,142.936028196,10.513618,-6.263432,-3.802798,317.6, 26.8, -5.7,0,0,1024,1024,1024,1024,0,0,0,0,318.9,0,0,95,4.067,4.067,0,0,0,0,8.589,73.4,100.55447237785,88.910764,31,Sport,
12800,2023-01-02 23:13:11,-34.9578685556882,-54.9448304077324,89.238848,95.3740188,5.508537577848,100.88255637785,42.979004,11.632088,144.464899636,146.183731712,14,4,7.972,100.88255637785,89.238848,20.356154,144.464899636,10.06623,-5.816044,-2.684328,317.4, 26.4, -5.8,0,0,1024,1024,1024,1024,0,0,0,0,318.9,0,0,95,4.067,4.067,0,0,0,0,8.589,73.4,100.88255637785,89.238848,31,Sport,
12900,2023-01-02 23:13:11,-34.957865598017,-54.9448313030337,89.238848,95.2755936,5.606962777848,100.88255637785,42.979004,11.2070694,145.475070272,147.295608388,14,4,7.972,100.88255637785,89.238848,20.356154,145.475070272,9.842536,-5.368656,-1.565858,317.1, 27.2, -5.2,0,0,1024,1024,1024,1024,0,0,0,0,318.9,0,0,95,4.067,4.067,0,0,0,0,8.589,73.4,100.88255637785,89.238848,31,Sport,
13000,2023-01-02 23:13:11,-34.9578620288326,-54.9448331268979,88.910764,94.816276,5.738196377848,100.55447237785,42.979004,10.3122934,146.833666116,148.70735384,14,4,7.972,100.88255637785,89.238848,20.356154,146.833666116,9.171454,-4.697574,-0.894776,316.8, 26.6, -5.6,0,0,1024,1024,1024,1024,0,0,0,0,318.9,0,0,95,4.067,4.067,0,0,0,0,8.589,73.4,100.55447237785,88.910764,31,Sport,
13100,2023-01-02 23:13:11,-34.9578585123315,-54.9448347075621,88.910764,94.6850424,5.869429977848,100.55447237785,42.979004,9.618842,148.133534924,150.074479868,14,4,7.972,100.88255637785,89.238848,20.356154,148.133534924,8.724066,-4.026492,-0.223694,316.5, 26.2, -5.9,0,0,1024,1024,1024,1024,0,0,0,0,318.9,0,0,95,4.067,4.067,0,0,0,0,8.589,73.4,100.55447237785,88.910764,31,Sport,
13200,2023-01-02 23:13:11,-34.9578554025506,-54.944835880224,88.910764,94.5866172,5.967855177848,100.55447237785,42.979004,8.5227414,149.242458844,151.262143948,14,4,7.972,100.88255637785,89.238848,20.356154,149.242458844,7.82929,-3.35541,0,316.2, 25.4, -7.3,0,0,1024,1024,1024,1024,0,0,0,0,318.9,0,0,95,4.067,4.067,0,0,0,0,8.589,73.4,100.55447237785,88.910764,31,Sport,
13300,2023-01-02 23:13:11,-34.9578522700758,-54.9448361414241,88.58268,94.160108,6.066280377848,100.22638837785,42.979004,7.941137,150.19193394,152.407813276,14,4,7.972,100.88255637785,89.238848,20.356154,150.19193394,7.381902,-2.908022,0,316, 24.9, -8.2,0,0,1024,1024,1024,1024,0,0,0,0,318.9,0,0,95,4.067,4.067,0,0,0,0,8.589,73.4,100.22638837785,88.58268,31,Sport,
13400,2023-01-02 23:13:11,-34.9578497580511,-54.9448366450089,88.58268,94.0944912,6.131897177848,100.22638837785,42.979004,6.8002976,151.0088631,153.33661908,14,4,8.419,100.88255637785,89.238848,20.356154,151.0088631,6.487126,-2.013246,0,316.1, 22.4, -11,0,0,1024,1024,1024,1024,0,0,0,0,318.9,0,0,95,4.194,4.183,0,0,0,0,2.431,73.58,100.22638837785,88.58268,31,Sport,
13500,2023-01-02 23:13:11,-34.9578474128051,-54.9448368837768,88.58268,93.996066,6.230322377848,100.22638837785,42.979004,6.0844768,151.730975984,154.195214908,14,4,8.419,100.88255637785,89.238848,20.356154,151.730975984,5.816044,-1.789552,0,316, 22.2, -12.4,0,0,1024,1024,1024,1024,0,0,0,0,318.9,0,0,95,4.194,4.183,0,0,0,0,2.431,73.58,100.22638837785,88.58268,31,Sport,
13600,2023-01-02 23:13:12,-34.9578454876456,-54.9448369510315,88.58268,93.9632576,6.263130777848,100.22638837785,42.979004,5.256809,152.301185976,154.897970836,14,4,8.419,100.88255637785,89.238848,20.356154,152.301185976,5.144962,-1.11847,0,316.1, 22, -13.4,0,0,1024,1024,1024,1024,0,0,0,0,318.9,0,0,95,4.194,4.183,0,0,0,0,2.431,73.58,100.22638837785,88.58268,31,Sport,
13700,2023-01-02 23:13:12,-34.9578438062837,-54.9448366957896,88.58268,93.9304492,6.295939177848,100.22638837785,42.979004,4.5633576,152.743443208,155.516081092,14,4,8.419,100.88255637785,89.238848,20.356154,152.743443208,4.47388,-0.894776,0,315.7, 21.7, -14.9,0,0,1024,1024,1024,1024,0,0,0,0,318.9,0,0,95,4.194,4.183,0,0,0,0,2.431,73.58,100.22638837785,88.58268,31,Sport,
13800,2023-01-02 23:13:12,-34.9578424471192,-54.9448364729521,88.58268,93.8976408,6.328747577848,100.22638837785,42.979004,3.8251674,153.09875818,156.016409192,14,4,8.419,100.88255637785,89.238848,20.356154,153.09875818,3.802798,-0.447388,0,315.5, 21.6, -16.2,0,0,1024,1024,1024,1024,0,0,0,0,318.9,0,0,95,4.194,4.183,0,0,0,0,2.431,73.58,100.22638837785,88.58268,31,Sport,
13900,2023-01-02 23:13:12,-34.9578413178389,-54.9448361013054,88.58268,93.8648324,6.361555977848,100.22638837785,42.979004,2.908022,153.36122538,156.442918392,14,4,8.419,100.88255637785,89.238848,20.356154,153.36122538,2.908022,-0.223694,0,315.9, 19.4, -16.7,0,0,1024,1024,1024,1024,0,0,0,0,318.9,0,0,95,4.194,4.183,0,0,0,0,2.431,73.58,100.22638837785,88.58268,31,Sport,
14000,2023-01-02 23:13:12,-34.9578405824857,-54.9448355473579,88.58268,93.8648324,6.361555977848,100.22638837785,42.979004,2.23694,153.476710948,156.7585352,14,4,8.419,100.88255637785,89.238848,20.356154,153.476710948,2.23694,0,0,317.1, 15.3, -14.5,0,0,1024,1024,1024,1024,0,0,0,0,318.9,0,0,95,4.194,4.183,0,0,0,0,2.431,73.58,100.22638837785,88.58268,31,Sport,
14100,2023-01-02 23:13:12,-34.9578402119039,-54.9448349095145,88.58268,93.832024,6.394364377848,100.22638837785,42.979004,1.789552,153.470805436,156.992131008,14,4,8.419,100.88255637785,89.238848,20.356154,153.476710948,1.789552,0,0,317.8, 11.8, -13,0,0,1024,1024,1024,1024,0,0,0,0,318.9,0,0,95,4.194,4.183,0,0,0,0,2.431,73.58,100.22638837785,88.58268,31,Sport,
14200,2023-01-02 23:13:12,-34.9578399610454,-54.9448340810289,88.254596,93.5367484,6.361555977848,99.898304377848,42.979004,1.789552,153.396658452,157.256238628,14,4,8.419,100.88255637785,89.238848,20.356154,153.476710948,1.565858,0,0,318, 10, -11.7,0,0,1024,1024,1024,1024,0,0,0,0,318.9,0,0,95,4.194,4.183,0,0,0,0,2.431,73.58,99.898304377848,88.254596,31,Sport,
14300,2023-01-02 23:13:12,-34.9578398304833,-54.9448331378736,88.254596,93.5367484,6.361555977848,99.898304377848,42.979004,1.342164,153.266737188,157.542327876,14,4,8.419,100.88255637785,89.238848,20.356154,153.476710948,1.342164,0,0,317.9, 9.4, -10.9,0,0,1024,1024,1024,1024,0,0,0,0,318.9,0,0,95,4.194,4.183,0,0,0,0,2.431,73.58,99.898304377848,88.254596,31,Sport,
14400,2023-01-02 23:13:12,-34.9578396689677,-54.944832446448,87.926512,93.2086644,6.361555977848,99.570220377848,42.979004,1.342164,153.191277868,157.757222896,14,4,8.272,100.88255637785,89.238848,20.356154,153.476710948,1.11847,0.223694,0.223694,318, 7.9, -9.9,0,0,1024,1024,1024,1024,0,0,0,0,318.9,0,0,95,4.15,4.147,0,0,0,0,4.002,73.58,99.570220377848,87.926512,31,Sport,
14500,2023-01-02 23:13:12,-34.9578395151383,-54.9448317926533,87.926512,93.2086644,6.361555977848,99.570220377848,42.979004,1.1408394,153.120411724,157.960634976,14,4,8.272,100.88255637785,89.238848,20.356154,153.476710948,1.11847,0.223694,0.223694,318.1, 7, -9.7,0,0,1024,1024,1024,1024,0,0,0,0,318.9,0,0,95,4.15,4.147,0,0,0,0,4.002,73.58,99.570220377848,87.926512,31,Sport,
14600,2023-01-02 23:13:12,-34.9578396019539,-54.9448312252214,87.598428,92.9133888,6.328747577848,99.242136377848,42.979004,1.006623,152.994427468,158.13320716,14,4,8.272,100.88255637785,89.238848,20.356154,153.476710948,0.894776,0.447388,0.223694,317.9, 6.3, -8.4,0,0,1024,1024,1024,1024,0,0,0,0,318.9,0,0,95,4.15,4.147,0,0,0,0,4.002,73.58,99.242136377848,87.598428,31,Sport,
14700,2023-01-02 23:13:13,-34.9578393675622,-54.9448305955314,87.598428,92.8805804,6.361555977848,99.242136377848,42.979004,1.2974252,152.952104632,158.340228164,14,4,8.272,100.88255637785,89.238848,20.356154,153.476710948,1.11847,0.671082,0.223694,318, 5.7, -9.5,0,0,1024,1024,1024,1024,0,0,0,0,318.9,0,0,95,4.15,4.147,0,0,0,0,4.002,73.58,99.242136377848,87.598428,31,Sport,
14800,2023-01-02 23:13:13,-34.9578390242341,-54.9448298501682,87.598428,92.8805804,6.361555977848,99.242136377848,42.979004,1.2974252,152.92159282,158.5958056,14,4,8.272,100.88255637785,89.238848,20.356154,153.476710948,1.11847,0.671082,0.223694,318.1, 5.7, -10.9,0,0,1024,1024,1024,1024,0,0,0,0,318.9,0,0,95,4.15,4.147,0,0,0,0,4.002,73.58,99.242136377848,87.598428,31,Sport,
14900,2023-01-02 23:13:13,-34.9578386436472,-54.944829015808,87.270344,92.5524964,6.361555977848,98.914052377848,42.979004,1.006623,152.886815916,158.88123868,13,4,8.272,100.88255637785,89.238848,20.356154,153.476710948,0.894776,0.447388,0,318.2, 5.2, -10.4,0,0,1024,1024,1024,1024,0,0,0,0,318.9,0,0,95,4.15,4.147,0,0,0,0,4.002,73.58,98.914052377848,87.270344,31,Sport,
15000,2023-01-02 23:13:13,-34.9578375881289,-54.9448282200194,87.270344,92.5524964,6.361555977848,98.914052377848,42.979004,0.9395148,153.058731932,159.3339946,13,4,8.272,100.88255637785,89.238848,20.356154,153.476710948,0.671082,0.671082,0,318.1, 4.6, -10,0,0,1024,1024,1024,1024,0,0,0,0,318.9,0,0,95,4.15,4.147,0,0,0,0,4.002,73.58,98.914052377848,87.270344,31,Sport,
15100,2023-01-02 23:13:13,-34.9578373860716,-54.9448274750116,86.94226,92.191604,6.394364377848,98.585968377848,42.979004,0.8052984,152.987865788,159.56857466,14,4,8.272,100.88255637785,89.238848,20.356154,153.476710948,0.671082,0.447388,0,318.2, 4.4, -10.3,0,0,1024,1024,1024,1024,0,0,0,0,318.9,0,0,95,4.15,4.147,0,0,0,0,4.002,73.58,98.585968377848,86.94226,31,Sport,
15200,2023-01-02 23:13:13,-34.9578371122324,-54.9448269333778,86.94226,92.191604,6.394364377848,98.585968377848,42.979004,0.8052984,152.974414344,159.75886338,14,4,8.272,100.88255637785,89.238848,20.356154,153.476710948,0.671082,0.447388,0,318.1, 5.2, -9.9,0,0,1024,1024,1024,1024,0,0,0,0,318.9,0,0,95,4.15,4.147,0,0,0,0,4.002,73.58,98.585968377848,86.94226,31,Sport,
15300,2023-01-02 23:13:13,-34.9578367980079,-54.9448264405596,86.94226,92.191604,6.394364377848,98.585968377848,42.979004,0.8052984,152.981632192,159.945543176,13,4,8.272,100.88255637785,89.238848,20.356154,153.476710948,0.671082,0.447388,0,318, 5.4, -9.8,0,0,1024,1024,1024,1024,0,0,0,0,318.9,0,0,95,4.15,4.147,0,0,0,0,4.002,73.58,98.585968377848,86.94226,31,Sport,
15400,2023-01-02 23:13:13,-34.9578359187263,-54.9448264736539,86.614176,91.86352,6.394364377848,98.257884377848,42.979004,0.8052984,153.2480364,160.266737412,13,4,8.272,100.88255637785,89.238848,20.356154,153.476710948,0.671082,0.447388,0,318.2, 5.3, -9.5,0,0,1024,1024,1024,1024,0,0,0,0,318.9,0,0,95,4.15,4.147,0,0,0,0,4.002,73.58,98.257884377848,86.614176,31,Sport,
15500,2023-01-02 23:13:13,-34.9578355721673,-54.9448260106059,86.614176,91.86352,6.394364377848,98.257884377848,42.979004,0.8052984,153.270346112,160.454073376,13,4,8.275,100.88255637785,89.238848,20.356154,153.476710948,0.447388,0.671082,0,318.1, 5.2, -9.4,0,0,1024,1024,1024,1024,0,0,0,0,318.9,0,0,95,4.13,4.128,0,0,0,0,4.183,73.58,98.257884377848,86.614176,31,Sport,
15600,2023-01-02 23:13:13,-34.9578353431169,-54.9448254392019,86.614176,91.8307116,6.427172777848,98.257884377848,42.979004,0.8052984,153.239506216,160.644362096,13,4,8.275,100.88255637785,89.238848,20.356154,153.476710948,0.447388,0.671082,0,318.1, 5.2, -9.6,0,0,1024,1024,1024,1000,0,0,0,-4,318.9,0,0,95,4.13,4.128,0,0,0,0,4.183,73.58,98.257884377848,86.614176,31,Sport,
15700,2023-01-02 23:13:14,-34.9578351442123,-54.9448248147384,86.614176,91.8307116,6.427172777848,98.257884377848,42.979004,0.8052984,153.190293616,160.844493336,13,4,8.275,100.88255637785,89.238848,20.356154,153.476710948,0.447388,0.671082,-0.223694,318.2, 4.6, -9.1,0,0,1024,1024,1024,933,0,0,0,-14,318.9,0,0,95,4.13,4.128,0,0,0,0,4.183,73.58,98.257884377848,86.614176,31,Sport,
