time(millisecond),datetime(utc),latitude,longitude,height_above_takeoff(feet),height_above_ground_at_drone_location(feet),ground_elevation_at_drone_location(feet),altitude_above_seaLevel(feet),height_sonar(feet),speed(mph),distance(feet),mileage(feet),satellites,gpslevel,voltage(v),max_altitude(feet),max_ascent(feet),max_speed(mph),max_distance(feet), xSpeed(mph), ySpeed(mph), zSpeed(mph), compass_heading(degrees), pitch(degrees), roll(degrees),isPhoto,isVideo,rc_elevator,rc_aileron,rc_throttle,rc_rudder,rc_elevator(percent),rc_aileron(percent),rc_throttle(percent),rc_rudder(percent),gimbal_heading(degrees),gimbal_pitch(degrees),gimbal_roll(degrees),battery_percent,voltageCell1,voltageCell2,voltageCell3,voltageCell4,voltageCell5,voltageCell6,current(A),battery_temperature(f),altitude(feet),ascent(feet),flycStateRaw,flycState,message
135700,2025-05-23 15:37:08,0,0,0,,,3.28084E-5,0,0,0,0,0,0,0,3.28084E-5,0,0,0,0,0,0,276.8, 21.7, 4.4,0,0,987,1034,1024,1146,-6,2,0,18,277,-1.5,5,81,,,,,,,0,32,3.28084E-5,0,6,P-GPS,"Setting new Return-To-Home altitude to 30m (98 ft). Data Recorder File Index is 16. Setting new Maximum Flight Altitude to 30m (98 ft). Conexión por cable OTG Gafas en modo de conexión por cable OTG. Sal de este modo antes de conectarlas al ordenador. Arranque de motores..."
135800,2025-05-23 15:37:08,0,0,0,,,3.28084E-5,0,0,0,0,0,0,0,3.28084E-5,0,0,0,0,0,0,276.8, 21.7, 4.4,0,0,987,1034,1024,1146,-6,2,0,18,277,-1.5,5,81,,,,,,,0,32,3.28084E-5,0,6,P-GPS,"Conexión por cable OTG Gafas en modo de conexión por cable OTG. Sal de este modo antes de conectarlas al ordenador. Arranque de motores..."
135900,2025-05-23 15:37:08,0,0,0,,,3.28084E-5,0,0,0,0,0,0,0,3.28084E-5,0,0,0,0,0,0,276.8, 21.7, 4.4,0,0,987,1034,1024,1146,-6,2,0,18,277.1,-1.5,5,81,,,,,,,0,32,3.28084E-5,0,41,Motors_Started,"Conexión por cable OTG Gafas en modo de conexión por cable OTG. Sal de este modo antes de conectarlas al ordenador. Arranque de motores..."
136000,2025-05-23 15:37:08,0,0,0,,,3.28084E-5,0.328084,0,0,0,0,0,0,3.28084E-5,0,0,0,0,0,0,276.8, 21.7, 4.4,0,0,987,1034,1024,1146,-6,2,0,18,277,-1.5,5,81,,,,,,,0,32,3.28084E-5,0,41,Motors_Started,"Conexión por cable OTG Gafas en modo de conexión por cable OTG. Sal de este modo antes de conectarlas al ordenador. Arranque de motores..."
136100,2025-05-23 15:37:08,0,0,0,,,3.28084E-5,0.328084,0,0,0,0,0,0,3.28084E-5,0,0,0,0,0,0,276.8, 21.7, 4.4,0,0,987,1034,1024,1146,-6,2,0,18,277,-1.5,5,81,,,,,,,0,32,3.28084E-5,0,41,Motors_Started,"Conexión por cable OTG Gafas en modo de conexión por cable OTG. Sal de este modo antes de conectarlas al ordenador. Arranque de motores..."
136200,2025-05-23 15:37:08,0,0,0,,,3.28084E-5,0.328084,0,0,0,0,0,0,3.28084E-5,0,0,0,0,0,0,276.8, 21.7, 4.4,0,0,987,1034,1024,1146,-6,2,0,18,277,-1.5,5,81,,,,,,,0,32,3.28084E-5,0,41,Motors_Started,"Conexión por cable OTG Gafas en modo de conexión por cable OTG. Sal de este modo antes de conectarlas al ordenador. Arranque de motores..."
136300,2025-05-23 15:37:08,0,0,0,,,3.28084E-5,0.328084,0,0,0,0,0,0,3.28084E-5,0,0,0,0,0,0,276.8, 21.7, 4.4,0,0,987,1034,1024,1146,-6,2,0,18,277,-1.5,5,81,,,,,,,0,32,3.28084E-5,0,41,Motors_Started,"Conexión por cable OTG Gafas en modo de conexión por cable OTG. Sal de este modo antes de conectarlas al ordenador. Arranque de motores..."
136400,2025-05-23 15:37:08,0,0,0,,,3.28084E-5,0.328084,0,0,0,0,0,0,3.28084E-5,0,0,0,0,0,0,276.9, 21.6, 4.4,0,0,987,1034,1024,1146,-6,2,0,18,276.9,-1.5,5,81,,,,,,,0,32,3.28084E-5,0,41,Motors_Started,"Conexión por cable OTG Gafas en modo de conexión por cable OTG. Sal de este modo antes de conectarlas al ordenador. Arranque de motores..."
136500,2025-05-23 15:37:09,0,0,0,,,3.28084E-5,0.328084,0,0,0,0,0,0,3.28084E-5,0,0,0,0,0,0,277, 21.7, 4.4,0,0,987,1034,1024,1146,-6,2,0,18,277,-1.5,5,81,,,,,,,0,32,3.28084E-5,0,41,Motors_Started,"Conexión por cable OTG Gafas en modo de conexión por cable OTG. Sal de este modo antes de conectarlas al ordenador. Arranque de motores..."
136600,2025-05-23 15:37:09,0,0,0,,,3.28084E-5,0.328084,0,0,0,0,0,0,3.28084E-5,0,0,0,0,0,0,276.9, 21.7, 4.4,0,0,987,1034,1024,1146,-6,2,0,18,276.9,-1.5,5,81,,,,,,,0,32,3.28084E-5,0,41,Motors_Started,"Conexión por cable OTG Gafas en modo de conexión por cable OTG. Sal de este modo antes de conectarlas al ordenador. Arranque de motores..."
136700,2025-05-23 15:37:09,0,0,0,,,3.28084E-5,0.328084,0,0,0,0,0,0,3.28084E-5,0,0,0,0,0,0,276.9, 21.7, 4.4,0,0,987,1034,1024,1146,-6,2,0,18,277,-1.5,5,81,,,,,,,0,32,3.28084E-5,0,41,Motors_Started,"Conexión por cable OTG Gafas en modo de conexión por cable OTG. Sal de este modo antes de conectarlas al ordenador. Arranque de motores..."
136800,2025-05-23 15:37:09,0,0,0,,,3.28084E-5,0.328084,0,0,0,0,0,0,3.28084E-5,0,0,0,0,0,0,276.9, 21.7, 4.4,0,0,987,1034,1024,1146,-6,2,0,18,277,-1.5,5,81,,,,,,,0,32,3.28084E-5,0,41,Motors_Started,"Conexión por cable OTG Gafas en modo de conexión por cable OTG. Sal de este modo antes de conectarlas al ordenador. Arranque de motores..."
136900,2025-05-23 15:37:09,0,0,0,,,3.28084E-5,0.328084,0,0,0,0,0,0,3.28084E-5,0,0,0,0,0,0,276.5, 21.8, 4.4,0,0,987,1034,1024,1146,-6,2,0,18,277,-1.5,5,81,,,,,,,0,32,3.28084E-5,0,41,Motors_Started,"Conexión por cable OTG Gafas en modo de conexión por cable OTG. Sal de este modo antes de conectarlas al ordenador. Arranque de motores..."
137000,2025-05-23 15:37:09,0,0,0,,,3.28084E-5,0.328084,0,0,0,0,0,0,3.28084E-5,0,0,0,0,0,0,276.4, 21.8, 4.4,0,0,987,1034,1024,1146,-6,2,0,18,277,-1.5,5,81,,,,,,,0,32,3.28084E-5,0,41,Motors_Started,"Conexión por cable OTG Gafas en modo de conexión por cable OTG. Sal de este modo antes de conectarlas al ordenador. Arranque de motores..."
137100,2025-05-23 15:37:09,0,0,0,,,3.28084E-5,0.328084,0,0,0,0,0,0,3.28084E-5,0,0,0,0,0,0,276.4, 21.8, 4.4,0,0,987,1034,1024,1146,-6,2,0,18,277,-1.5,5.1,81,,,,,,,0,32,3.28084E-5,0,41,Motors_Started,"Conexión por cable OTG Gafas en modo de conexión por cable OTG. Sal de este modo antes de conectarlas al ordenador. Arranque de motores..."
137200,2025-05-23 15:37:09,0,0,0,,,3.28084E-5,0.328084,0,0,0,0,0,0,3.28084E-5,0,0,0,0,0,0,276.4, 21.8, 4.4,0,0,987,1034,1024,1146,-6,2,0,18,277,-1.5,5.1,81,,,,,,,0,32,3.28084E-5,0,41,Motors_Started,"Conexión por cable OTG Gafas en modo de conexión por cable OTG. Sal de este modo antes de conectarlas al ordenador. Arranque de motores..."
137300,2025-05-23 15:37:09,0,0,0,,,3.28084E-5,0.328084,0,0,0,0,0,0,3.28084E-5,0,0,0,0,0,0,276.4, 21.8, 4.4,0,0,987,1034,1024,1146,-6,2,0,18,277,-1.5,5.1,81,,,,,,,0,32,3.28084E-5,0,41,Motors_Started,"Conexión por cable OTG Gafas en modo de conexión por cable OTG. Sal de este modo antes de conectarlas al ordenador. Arranque de motores..."
137400,2025-05-23 15:37:10,0,0,0,,,3.28084E-5,0.328084,0,0,0,0,0,0,3.28084E-5,0,0,0,0,0,0,276.4, 21.9, 4.4,0,0,987,1034,1024,1146,-6,2,0,18,277,-1.5,5.1,81,,,,,,,0,32,3.28084E-5,0,41,Motors_Started,"Conexión por cable OTG Gafas en modo de conexión por cable OTG. Sal de este modo antes de conectarlas al ordenador. Arranque de motores..."
137500,2025-05-23 15:37:10,0,0,0,,,3.28084E-5,0.328084,0,0,0,0,0,0,3.28084E-5,0,0,0,0,0,0,276.3, 21.9, 4.4,0,0,987,1034,1024,1146,-6,2,0,18,277,-1.5,5.1,81,,,,,,,0,32,3.28084E-5,0,41,Motors_Started,"Conexión por cable OTG Gafas en modo de conexión por cable OTG. Sal de este modo antes de conectarlas al ordenador. Arranque de motores..."
137600,2025-05-23 15:37:10,0,0,0,,,3.28084E-5,0.328084,0,0,0,0,0,0,3.28084E-5,0,0,0,0,0,0,276.3, 21.9, 4.4,0,0,987,1034,1024,1146,-6,2,0,18,277,-1.5,5.1,81,,,,,,,0,32,3.28084E-5,0,41,Motors_Started,"Conexión por cable OTG Gafas en modo de conexión por cable OTG. Sal de este modo antes de conectarlas al ordenador. Arranque de motores..."
137700,2025-05-23 15:37:10,0,0,0,,,3.28084E-5,0.328084,0,0,0,0,0,0,3.28084E-5,0,0,0,0,0,0,276.3, 21.9, 4.4,0,0,987,1034,1024,1146,-6,2,0,18,276.9,-1.5,5.1,81,,,,,,,0,32,3.28084E-5,0,41,Motors_Started,"Conexión por cable OTG Gafas en modo de conexión por cable OTG. Sal de este modo antes de conectarlas al ordenador. Arranque de motores..."
137800,2025-05-23 15:37:10,0,0,0,,,3.28084E-5,0.328084,0,0,0,0,0,0,3.28084E-5,0,0,0,0,0,0,276.1, 21.4, 4.2,0,0,987,1034,1024,1146,-6,2,0,18,276.7,-1.5,4.4,81,,,,,,,0,32,3.28084E-5,0,41,Motors_Started,"Conexión por cable OTG Gafas en modo de conexión por cable OTG. Sal de este modo antes de conectarlas al ordenador. Arranque de motores..."
137900,2025-05-23 15:37:10,0,0,0,,,3.28084E-5,0.328084,0,0,0,0,0,0,3.28084E-5,0,0,0,0,0,0,275.4, 20.9, 3.4,0,0,987,1034,1024,1146,-6,2,0,18,276,-1.5,3.8,81,,,,,,,0,32,3.28084E-5,0,10,Assisted_Takeoff,"Conexión por cable OTG Gafas en modo de conexión por cable OTG. Sal de este modo antes de conectarlas al ordenador. Arranque de motores..."
138000,2025-05-23 15:37:10,0,0,0,,,3.28084E-5,0.328084,0,0,0,0,0,0,3.28084E-5,0,0,0,0,0,0,273.8, 21.4, 2.4,0,0,987,1034,1024,1146,-6,2,0,18,274.2,-1.5,2.6,81,,,,,,,0,32,3.28084E-5,0,10,Assisted_Takeoff,"Conexión por cable OTG Gafas en modo de conexión por cable OTG. Sal de este modo antes de conectarlas al ordenador. Arranque de motores..."
138100,2025-05-23 15:37:10,0,0,0,,,3.28084E-5,0.328084,0,0,0,0,0,0,3.28084E-5,0,0,0,0,0,0,271.2, 23.5, 1,0,0,987,1034,1024,1146,-6,2,0,18,271.7,-1.5,1.2,81,,,,,,,0,32,3.28084E-5,0,10,Assisted_Takeoff,"Conexión por cable OTG Gafas en modo de conexión por cable OTG. Sal de este modo antes de conectarlas al ordenador. Arranque de motores..."
138200,2025-05-23 15:37:10,0,0,0,,,3.28084E-5,0.328084,0.223694,0,0,0,0,0,3.28084E-5,0,0,0,0,0.223694,0,268, 27.5, -0.9,0,0,987,1034,1024,1146,-6,2,0,18,269.5,-1.5,-0.7,81,,,,,,,0,32,3.28084E-5,0,10,Assisted_Takeoff,"Conexión por cable OTG Gafas en modo de conexión por cable OTG. Sal de este modo antes de conectarlas al ordenador. Arranque de motores..."
138300,2025-05-23 15:37:10,0,0,0,,,3.28084E-5,0.328084,0.894776,0,0,0,0,0,3.28084E-5,0,0,0,0,0.894776,0.447388,265.2, 35, -2.5,0,0,987,1034,1024,1146,-6,2,0,18,267.7,-1.6,-0.5,81,,,,,,,0,32,3.28084E-5,0,10,Assisted_Takeoff,"Conexión por cable OTG Gafas en modo de conexión por cable OTG. Sal de este modo antes de conectarlas al ordenador. Arranque de motores..."
138400,2025-05-23 15:37:11,0,0,-0.328084,,,-0.3280511916,0,1.11847,0,0,0,0,0,3.28084E-5,0,0,0,0,1.11847,2.013246,263.9, 29.7, -2.2,0,0,987,1034,1024,1146,-6,2,0,18,267.3,-1.5,-2.9,81,,,,,,,0,32,-0.3280511916,-0.328084,10,Assisted_Takeoff,"Conexión por cable OTG Gafas en modo de conexión por cable OTG. Sal de este modo antes de conectarlas al ordenador. Arranque de motores..."
138500,2025-05-23 15:37:11,0,0,-0.656168,,,-0.6561351916,0,1.342164,0,0,0,0,0,3.28084E-5,0,0,0,0,1.342164,3.802798,262.8, 20, -5.1,0,0,987,1034,1024,1146,-6,2,0,18,266.2,-1.5,-2.9,81,,,,,,,0,32,-0.6561351916,-0.656168,10,Assisted_Takeoff,"Conexión por cable OTG Gafas en modo de conexión por cable OTG. Sal de este modo antes de conectarlas al ordenador. Arranque de motores..."
138600,2025-05-23 15:37:11,0,0,-1.312336,,,-1.3123031916,0,1.11847,0,0,0,0,0,3.28084E-5,0,0,0,0,1.11847,5.59235,262.9, 2.2, -2.2,0,0,987,1034,1024,1146,-6,2,0,18,260.5,1.9,-0.1,81,,,,,,,0,32,-1.3123031916,-1.312336,10,Assisted_Takeoff,"Conexión por cable OTG Gafas en modo de conexión por cable OTG. Sal de este modo antes de conectarlas al ordenador. Arranque de motores..."
138700,2025-05-23 15:37:11,0,0,-2.296588,,,-2.2965551916,0,1.11847,0,0,0,0,0,3.28084E-5,0,0,0,-3.131716,-1.789552,3.131716,249.8, -49.9, -25.7,0,0,987,1034,1024,1146,-6,2,0,18,260.5,1.9,-0.1,81,,,,,,,0,32,-2.2965551916,-2.296588,10,Assisted_Takeoff,
