time(millisecond),datetime(utc),latitude,longitude,height_above_takeoff(feet),height_above_ground_at_drone_location(feet),ground_elevation_at_drone_location(feet),altitude_above_seaLevel(feet),height_sonar(feet),speed(mph),distance(feet),mileage(feet),satellites,gpslevel,voltage(v),max_altitude(feet),max_ascent(feet),max_speed(mph),max_distance(feet), xSpeed(mph), ySpeed(mph), zSpeed(mph), compass_heading(degrees), pitch(degrees), roll(degrees),isPhoto,isVideo,rc_elevator,rc_aileron,rc_throttle,rc_rudder,rc_elevator(percent),rc_aileron(percent),rc_throttle(percent),rc_rudder(percent),gimbal_heading(degrees),gimbal_pitch(degrees),gimbal_roll(degrees),battery_percent,voltageCell1,voltageCell2,voltageCell3,voltageCell4,voltageCell5,voltageCell6,current(A),battery_temperature(f),altitude(feet),ascent(feet),flycStateRaw,flycState,message
532200,2025-05-01 19:11:17,-23.0259324620946,-44.2865949279798,0,0,20.5380584,0,18.700788,0,0,0,20,4,0,0,0,0,0,0,0,0,96.2, 5, -5.6,0,1,364,364,364,1684,-100,-100,-100,100,109,-61.7,0.2,54,3.912,3.91,0,0,0,0,0,108.68,0,0,6,P-GPS,"Error de calibración del estabilizador. Reinicia la aeronave o contacta con la Asistencia DJI (Code: 40011)"
532300,2025-05-01 19:11:17,-23.0259324506304,-44.2865949468203,0,0,20.5380584,0,18.700788,0,0.007583989744,0.007583989744,20,4,0,0,0,0,0.007583989744,0,0,0,96.3, 4.9, -5.6,0,1,364,364,364,1684,-100,-100,-100,100,109.1,-61.8,0.2,54,3.912,3.91,0,0,0,0,0,108.68,0,0,41,Motors_Started,
532400,2025-05-01 19:11:17,-23.0259324329129,-44.2865949685649,0,0,20.5380584,0,18.700788,0,0.0172936685324,0.0173357617096,19,4,0,0,0,0,0.0172936685324,0,0,0,96.3, 4.9, -5.6,0,1,364,364,364,1684,-100,-100,-100,100,109.1,-61.7,0.2,54,3.912,3.91,0,0,0,0,0,108.68,0,0,41,Motors_Started,
532500,2025-05-01 19:11:17,-23.0259320743947,-44.2865949227671,0,0,20.5380584,0,18.700788,0,0.141462931036,0.149041671436,19,4,7.822,0,0,0,0.141462931036,0,0,0,96.3, 5, -5.6,0,1,364,364,364,1684,-100,-100,-100,100,109.2,-61.7,0.1,54,3.912,3.91,0,0,0,0,1.084,108.68,0,0,41,Motors_Started,
532600,2025-05-01 19:11:17,-23.0259320495902,-44.2865949663309,0,0,20.5380584,0,18.700788,0,0.151051842104,0.166242787472,18,4,7.822,0,0,0,0.151051842104,0,0,0,96.3, 4.9, -5.6,0,1,364,364,364,1684,-100,-100,-100,100,109.2,-61.8,0.1,54,3.912,3.91,0,0,0,0,1.084,108.68,0,0,41,Motors_Started,
532700,2025-05-01 19:11:17,-23.0259321059734,-44.2865950542031,0,0,20.5380584,0,18.700788,0,0.136668639544,0.202211948728,18,4,7.822,0,0,0,0.151051842104,0,0,0,96.3, 5, -5.6,0,1,364,364,364,1684,-100,-100,-100,100,109.1,-61.8,0.1,54,3.912,3.91,0,0,0,0,1.084,108.68,0,0,41,Motors_Started,
532800,2025-05-01 19:11:17,-23.0259321538106,-44.2865951396179,0,0,20.5380584,0,18.700788,0,0.133045936016,0.2357857687,19,4,7.822,0,0,0,0.151051842104,0,0,0,96.3, 5, -5.6,0,1,364,364,364,1684,-100,-100,-100,100,109.1,-61.8,0.1,54,3.912,3.91,0,0,0,0,1.084,108.68,0,0,41,Motors_Started,
532900,2025-05-01 19:11:18,-23.0259319470373,-44.2865951787881,0,0,20.5380584,0,18.700788,0,0.205926515776,0.312364839392,19,4,7.822,0,0,0,0.205926515776,0,0,0,96.3, 5, -5.6,0,1,364,364,364,1684,-100,-100,-100,100,109.1,-61.8,0.1,54,3.912,3.91,0,0,0,0,1.084,108.68,0,0,41,Motors_Started,
533000,2025-05-01 19:11:18,-23.025931900555,-44.2865952289051,0,0,20.5380584,0,18.700788,0,0.22843996794,0.33625657244,19,4,7.822,0,0,0,0.22843996794,0,0,0,96.3, 5, -5.6,0,1,364,364,1024,1024,-100,-100,0,0,109.1,-61.8,0.1,54,3.912,3.91,0,0,0,0,1.084,108.68,0,0,41,Motors_Started,
533100,2025-05-01 19:11:18,-23.0259319086842,-44.2865952648731,0,0,20.5380584,0,18.700788,0,0.231440952288,0.34869095604,19,4,7.822,0,0,0,0.231440952288,0,0,0,96.2, 5, -5.6,0,1,926,1024,1024,1024,-15,0,0,0,109.2,-61.9,0.1,54,3.912,3.91,0,0,0,0,1.084,108.68,0,0,41,Motors_Started,"Setting new Return-To-Home altitude to 100m (328 ft). Data Recorder File Index is 55. Setting new Maximum Flight Altitude to 500m (1640 ft)"
533200,2025-05-01 19:11:18,-23.0259319243173,-44.2865953041178,0,0,20.5380584,0,18.700788,0,439.1076256,0.36305119272,19,4,7.822,0,0,0,439.1076256,0,0,0,96.2, 5, -5.6,0,1,1024,1024,1684,1024,0,0,100,0,109.2,-61.8,0,54,3.912,3.91,0,0,0,0,1.084,108.68,0,0,41,Motors_Started,
533300,2025-05-01 19:11:18,-23.0259319020141,-44.2865951554796,0,0,20.5380584,0,18.700788,0,439.13059148,0.41361877964,19,4,7.822,0,0,0,439.13059148,0,0,0,96.2, 5, -5.6,0,1,1024,1024,1684,1024,0,0,100,0,109.2,-61.9,0,54,3.912,3.91,0,0,0,0,1.084,108.68,0,0,41,Motors_Started,
533400,2025-05-01 19:11:18,-23.0259319424516,-44.2865951852668,0,0,20.5380584,0,18.700788,0,439.13715316,0.43144358336,19,4,7.822,0,0,0,439.13715316,0,0,0,96.2, 5, -5.5,0,1,1024,1024,1684,1086,0,0,100,9,109.1,-61.8,0,54,3.912,3.91,0,0,0,0,1.084,108.68,0,0,10,Assisted_Takeoff,
533500,2025-05-01 19:11:18,-23.0259319868495,-44.2865952137881,0,0,20.5380584,0,18.700788,0,439.14371484,0.4502624816,19,4,7.797,0,0,0,439.14371484,0,0,0,96.2, 4.9, -5.6,0,1,1024,1024,1684,1086,0,0,100,9,109.1,-61.9,0,54,3.899,3.895,0,0,0,0,1.757,108.68,0,0,10,Assisted_Takeoff,
533600,2025-05-01 19:11:18,-23.0259320326023,-44.2865952432774,0,0,20.5380584,0,18.700788,0,439.15027652,0.46967193104,20,4,7.797,0,0,0,439.15027652,0,0,0,96.2, 4.9, -5.5,0,1,1024,1024,1684,1055,0,0,100,5,109.2,-61.9,0.1,54,3.899,3.895,0,0,0,0,1.757,108.68,0,0,10,Assisted_Takeoff,
533700,2025-05-01 19:11:18,-23.0259320737693,-44.2865952758199,0,0,20.5380584,0,18.700788,0,439.1568382,0.48824476628,20,4,7.797,0,0,0,439.1568382,0,0,0,96.1, 4.9, -5.5,0,1,1024,1024,1684,1024,0,0,100,0,109.1,-62.3,0,54,3.899,3.895,0,0,0,0,1.757,108.68,0,0,10,Assisted_Takeoff,
533800,2025-05-01 19:11:18,-23.0259320625135,-44.2865951527243,0,0,20.5380584,0,18.700788,0,439.17652324,0.52978348152,20,4,7.797,0,0,0,439.17652324,0,0,0,96.5, 3.4, -5.2,0,1,1024,1024,1684,1024,0,0,100,0,109.2,-65.2,0,54,3.899,3.895,0,0,0,0,1.757,108.68,0,0,10,Assisted_Takeoff,
533900,2025-05-01 19:11:19,-23.0259321465152,-44.2865951355222,0,0,20.5380584,0,0.328084,0,439.2060508,0.56097114656,20,4,7.797,0,0,0,439.2060508,0,0,-0.223694,96.8, 0, -2.8,0,1,1024,1024,1684,1024,0,0,100,0,109.1,-68,0.1,54,3.899,3.895,0,0,0,0,1.757,108.68,0,0,10,Assisted_Takeoff,
534000,2025-05-01 19:11:19,-23.025932193727,-44.2865951075222,0,0,20.5380584,0,0.328084,0,439.22573584,0.5805938506,20,4,7.797,0,0,0,439.22573584,0,0,-0.223694,96.9, -1, 0.4,0,1,1024,1024,1684,1024,0,0,100,0,109.1,-68.2,0,54,3.899,3.895,0,0,0,0,1.757,108.68,0,0,6,P-GPS,
534100,2025-05-01 19:11:19,-23.0259321624609,-44.2865950036393,0,0,20.5380584,0,0.328084,0,439.23557836,0.61729332684,20,4,7.797,0,0,0,439.23557836,0,0,-0.671082,96.9, -0.1, 1,0,1,1024,1024,1684,1024,0,0,100,0,109.1,-68.2,0,54,3.899,3.895,0,0,0,0,1.757,108.68,0,0,6,P-GPS,
534200,2025-05-01 19:11:19,-23.0259321910173,-44.2865945526611,0,0,20.5380584,0,0.656168,0,439.3372844,0.76908138944,20,5,7.797,0,0,0,439.3372844,0,0,-0.894776,96.6, -1.4, 0.6,0,1,1024,1024,1684,1024,0,0,100,0,109.1,-68.1,0.1,54,3.899,3.895,0,0,0,0,1.757,108.68,0,0,6,P-GPS,"Punto de origen actualizado. Altitud de RPO establecida en 100m (Code: 30213)"
534300,2025-05-01 19:11:19,-23.0259321837219,-44.2865945182569,0,0,20.5380584,0,0.656168,0,439.34056524,0.78093506436,20,5,7.797,0,0,0,439.34056524,0,0,-1.342164,96.2, 0, -0.4,0,1,1024,1024,1684,1024,0,0,100,0,109.2,-67.6,0,54,3.899,3.895,0,0,0,0,1.757,108.68,0,0,6,P-GPS,
534400,2025-05-01 19:11:19,-23.02593219133,-44.2865944842994,0,0.065616799999999,20.4724416,0,0.656168,0,439.35040776,0.79267062904,20,5,7.797,0,0,0,439.35040776,0,0,-1.789552,96.1, -0.7, -0.9,0,1,1024,1024,1684,1024,0,0,100,0,109.1,-68.1,0,54,3.899,3.895,0,0,0,0,1.757,108.68,0,0,6,P-GPS,
534500,2025-05-01 19:11:19,-23.0259321931017,-44.2865944393952,0.328084,0.3937008,20.4724416,0.328084,0.984252,0,439.36025028,0.80776249304,20,5,7.797,0.328084,0.328084,0,439.36025028,0,0,-2.23694,96.1, -0.5, -1.8,0,1,1024,1024,1024,1024,0,0,0,0,109.1,-68.1,0,54,3.899,3.895,0,0,0,0,1.757,108.68,0.328084,0.328084,6,P-GPS,
534600,2025-05-01 19:11:19,-23.0259319494344,-44.2865943191294,0.984252,1.0498688,20.4724416,0.984252,1.312336,0,439.31103768,0.90540685312,22,5,7.753,0.984252,0.984252,0,439.36025028,0,0,-2.684328,96.3, -1.1, -2.1,0,1,1024,1024,1024,1024,0,0,0,0,109.2,-68.2,0,54,3.861,3.847,0,0,0,0,2.948,108.68,0.984252,0.984252,6,P-GPS,
534700,2025-05-01 19:11:19,-23.0259318413578,-44.2865943570336,1.312336,1.3779528,20.4724416,1.312336,1.64042,0,439.2716676,0.94684386232,22,5,7.753,1.312336,1.312336,0,439.36025028,0,0,-2.684328,96.5, -1.2, -0.8,0,1,1024,1024,1684,1024,0,0,100,0,109.1,-68.6,0,54,3.861,3.847,0,0,0,0,2.948,108.68,1.312336,1.312336,6,P-GPS,
534800,2025-05-01 19:11:19,-23.0259317292166,-44.2865944057357,1.64042,1.7060368,20.4724416,1.64042,2.296588,0.223694,439.23229752,0.99090554352,23,5,7.753,1.64042,1.64042,0.223694,439.36025028,0,-0.223694,-2.460634,96.6, -1.6, -0.9,0,1,1024,1024,1684,1024,0,0,100,0,109,-69.2,0,54,3.861,3.847,0,0,0,0,2.948,108.68,1.64042,1.64042,6,P-GPS,
534900,2025-05-01 19:11:20,-23.025931596544,-44.2865944036506,1.968504,2.0341208,20.4724416,1.968504,2.624672,0.223694,439.19292744,1.03931433772,23,5,7.753,1.968504,1.968504,0.223694,439.36025028,0,-0.223694,-2.460634,96.8, -2.4, -1,0,1,1024,1024,1684,1024,0,0,100,0,109.2,-70.3,0,54,3.861,3.847,0,0,0,0,2.948,108.68,1.968504,1.968504,6,P-GPS,
535000,2025-05-01 19:11:20,-23.0259314447991,-44.2865944207038,2.296588,2.46063,20.3740164,2.296588,2.952756,0.223694,439.14371484,1.09497378832,23,5,7.753,2.296588,2.296588,0.223694,439.36025028,0,-0.223694,-2.908022,96.8, -3.4, -0.9,0,1,1024,1024,1376,1024,0,0,53,0,109.1,-71,0,54,3.861,3.847,0,0,0,0,2.948,108.68,2.296588,2.296588,6,P-GPS,
535100,2025-05-01 19:11:20,-23.0259310460518,-44.2865946085121,2.952756,3.0839896,20.4068248,2.952756,3.28084,0.223694,438.98951536,1.25353678552,23,5,7.753,2.952756,2.952756,0.223694,439.36025028,0,-0.223694,-3.35541,96.8, -3.6, -0.8,0,1,1024,493,1024,1024,0,-80,0,0,109.1,-70.9,0,54,3.861,3.847,0,0,0,0,2.948,108.68,2.952756,2.952756,6,P-GPS,"Sobrecarga del motor del estabilizador Error de calibración del estabilizador. Reinicia la aeronave o contacta con la Asistencia DJI (Code: 40011). Sobrecarga del motor del estabilizador. Aterriza la aeronave y comprueba manualmente si el estabilizador puede girar libremente (Code: 40003)"
535200,2025-05-01 19:11:20,-23.0259306757567,-44.2865947485864,3.28084,3.4120736,20.4068248,3.28084,3.937008,0,438.85500092,1.39659125204,23,5,7.753,3.28084,3.28084,0.223694,439.36025028,0,0,-3.802798,96.8, -3.2, -0.7,0,1,1024,364,1024,1024,0,-100,0,0,109.1,-69.9,0,54,3.861,3.847,0,0,0,0,2.948,108.68,3.28084,3.28084,6,P-GPS,
535300,2025-05-01 19:11:20,-23.0259304682538,-44.2865947485864,3.937008,4.1666668,20.3083996,3.937008,4.593176,0,438.79266496,1.47229991588,23,5,7.753,3.937008,3.937008,0.223694,439.36025028,0,0,-3.802798,96.8, -2.4, -4,0,1,1024,364,1024,1024,0,-100,0,0,109.2,-69.4,0,54,3.861,3.847,0,0,0,0,2.948,108.68,3.937008,3.937008,6,P-GPS,
535400,2025-05-01 19:11:20,-23.0259302505374,-44.2865947374162,4.265092,4.4947508,20.3083996,4.265092,4.92126,0.223694,438.73360984,1.5518209158,23,5,7.753,4.265092,4.265092,0.223694,439.36025028,0.223694,0,-3.35541,96.5, -2.4, -17.6,0,1,1024,552,1024,513,0,-72,0,-77,109.1,-68.4,0.1,54,3.861,3.847,0,0,0,0,2.948,108.68,4.265092,4.265092,6,P-GPS,
535500,2025-05-01 19:11:20,-23.0259298563758,-44.2865946047887,4.92126,5.1509188,20.3083996,4.92126,5.249344,0.671082,438.64502716,1.70236882088,23,5,7.753,4.92126,4.92126,0.671082,439.36025028,0.671082,0,-2.684328,96.7, -2.1, -23.1,0,1,1024,972,794,364,0,-8,-35,-100,108.8,-68.5,0,54,3.861,3.847,0,0,0,0,2.948,108.68,4.92126,4.92126,6,P-GPS,
535600,2025-05-01 19:11:20,-23.0259294009325,-44.2865945190015,5.249344,5.577428,20.2099744,5.249344,5.577428,1.11847,438.52691692,1.8710138394,23,5,7.69,5.249344,5.249344,1.11847,439.36025028,1.11847,0,-2.013246,95.9, -2.3, -13.2,0,1,1024,1024,1024,677,0,0,0,-53,106,-69.8,0,54,3.837,3.825,0,0,0,0,5.832,108.68,5.249344,5.249344,6,P-GPS,
535700,2025-05-01 19:11:20,-23.0259286599254,-44.2865942801826,5.249344,5.6430448,20.1443576,5.249344,5.905512,1.565858,438.35959408,2.15301187992,23,5,7.69,5.249344,5.249344,1.565858,439.36025028,1.565858,0,-1.342164,91.9, -2.3, -3.5,0,1,1024,1024,1024,1024,0,0,0,0,101.8,-68.8,-0.1,54,3.837,3.825,0,0,0,0,5.832,108.68,5.249344,5.249344,6,P-GPS,
535800,2025-05-01 19:11:20,-23.0259279299656,-44.2865940409169,5.577428,6.069554,20.0459324,5.577428,6.233596,1.342164,438.19555208,2.43119430352,23,5,7.69,5.577428,5.577428,1.565858,439.36025028,1.342164,0,-0.894776,88.5, -0.6, 3.6,0,1,1056,364,1677,891,5,-100,99,-20,99.3,-68.2,-0.1,54,3.837,3.825,0,0,0,0,5.832,108.68,5.577428,5.577428,6,P-GPS,
535900,2025-05-01 19:11:21,-23.0259272827568,-44.2865933395027,5.577428,6.233596,19.8818904,5.577428,6.233596,1.11847,438.14962032,2.76470481288,23,5,7.69,5.577428,5.577428,1.565858,439.36025028,1.11847,0,-0.447388,86.7, -0.7, 1.9,0,1,1024,566,1684,1024,0,-69,100,0,98.1,-68.4,-0.1,54,3.837,3.825,0,0,0,0,5.832,108.68,5.577428,5.577428,6,P-GPS,
536000,2025-05-01 19:11:21,-23.0259267172568,-44.286593121237,5.577428,6.233596,19.8818904,5.577428,6.233596,1.342164,438.02822924,2.98365495112,23,5,7.69,5.577428,5.577428,1.565858,439.36025028,1.342164,0,-0.447388,85.3, -1.7, -12.1,0,1,1024,1024,1575,1024,0,0,83,0,97.6,-69.2,0,54,3.837,3.825,0,0,0,0,5.832,108.68,5.577428,5.577428,6,P-GPS,
536100,2025-05-01 19:11:21,-23.0259257705186,-44.2865929592691,5.577428,6.3320212,19.7834652,5.577428,6.233596,1.789552,437.78544708,3.33333344,23,5,7.69,5.577428,5.577428,1.789552,439.36025028,1.789552,0,-0.671082,85.3, -2.4, -13.9,0,1,1024,1024,1575,1024,0,0,83,0,97.6,-70,0,54,3.837,3.825,0,0,0,0,5.832,108.68,5.577428,5.577428,6,P-GPS,
536200,2025-05-01 19:11:21,-23.0259246645315,-44.2865928077267,5.905512,6.7585304,19.68504,5.905512,6.56168,2.23694,437.49345232,3.7400591748,23,5,7.69,5.905512,5.905512,2.23694,439.36025028,2.23694,0,-1.342164,85.8, -2.4, 3.3,0,1,1024,1024,1024,1024,0,0,0,0,97.5,-69.3,0,54,3.837,3.825,0,0,0,0,5.832,108.68,5.905512,5.905512,6,P-GPS,
536300,2025-05-01 19:11:21,-23.0259231996094,-44.2865923010463,6.233596,7.3490816,19.4225728,6.233596,6.889764,2.013246,437.16864916,4.3009515812,23,5,7.69,6.233596,6.233596,2.23694,439.36025028,2.013246,0,-1.565858,85.7, -0.8, 8.9,0,1,1024,1024,1024,1024,0,0,0,0,97.4,-68.1,0,54,3.837,3.825,0,0,0,0,5.832,108.68,6.233596,6.233596,6,P-GPS,
536400,2025-05-01 19:11:21,-23.0259223092544,-44.2865920873231,6.233596,7.4803152,19.2913392,6.233596,7.217848,1.8119214,436.95211372,4.6336287572,23,5,7.69,6.233596,6.233596,2.23694,439.36025028,1.789552,0.223694,-1.11847,85.5, -0.3, 9.2,0,1,1060,1024,1024,1024,5,0,0,0,97.4,-68,0,54,3.837,3.825,0,0,0,0,5.832,108.68,6.233596,6.233596,6,P-GPS,
536500,2025-05-01 19:11:21,-23.0259215911757,-44.2865919807594,6.56168,7.8083992,19.2913392,6.56168,7.545932,1.5882274,436.76510584,4.8980316528,23,5,7.69,6.56168,6.56168,2.23694,439.36025028,1.565858,0.223694,-0.894776,85.2, 0, 8.2,0,1,1206,1024,1549,1024,28,0,80,0,97.4,-67.5,0,54,3.837,3.825,0,0,0,0,5.832,108.68,6.56168,6.56168,6,P-GPS,
536600,2025-05-01 19:11:21,-23.0259210243208,-44.2865919029403,6.56168,7.9068244,19.192914,6.56168,7.545932,1.342164,436.61746804,5.1064962264,23,5,7.727,6.56168,6.56168,2.23694,439.36025028,1.342164,0,-0.447388,85, -0.7, 6.1,0,1,1211,1024,1684,1024,28,0,100,0,97.5,-69.6,0,54,3.862,3.852,0,0,0,0,4.652,108.68,6.56168,6.56168,6,P-GPS,
536700,2025-05-01 19:11:21,-23.0259202015007,-44.2865919148552,6.56168,8.0052496,19.0944888,6.56168,7.874016,1.11847,436.37468588,5.4067258948,23,5,7.727,6.56168,6.56168,2.23694,439.36025028,1.11847,0,-0.447388,84.9, -3.3, 4.6,0,1,1075,1024,1465,1024,8,0,67,0,97.5,-72.4,0,54,3.862,3.852,0,0,0,0,4.652,108.68,6.56168,6.56168,6,P-GPS,
536800,2025-05-01 19:11:22,-23.0259197142702,-44.2865918283234,6.56168,8.0052496,19.0944888,6.56168,7.874016,0.9171454,436.2532948,5.5868768192,23,5,7.727,6.56168,6.56168,2.23694,439.36025028,0.894776,0.223694,-0.894776,84.9, -4.7, 2.6,0,1,1024,1024,1260,1024,0,0,36,0,97.5,-71.9,0,54,3.862,3.852,0,0,0,0,4.652,108.68,6.56168,6.56168,6,P-GPS,
536900,2025-05-01 19:11:22,-23.0259193759708,-44.2865915717811,6.889764,8.4645672,18.9632552,6.889764,8.2021,0.7158208,436.20736304,5.73736895,23,5,7.727,6.889764,6.889764,2.23694,439.36025028,0.671082,0.223694,-1.565858,85, -3, 1.4,0,1,1024,1024,1260,1024,0,0,36,0,97.5,-68.7,0,54,3.862,3.852,0,0,0,0,4.652,108.68,6.889764,6.889764,6,P-GPS,
537000,2025-05-01 19:11:22,-23.0259190982233,-44.2865913075686,7.217848,8.8254596,18.9304468,7.217848,8.2021,0.4921268,436.17783548,5.872047432,23,5,7.727,7.217848,7.217848,2.23694,439.36025028,0.447388,0.223694,-1.342164,85.1, 0, 2,0,1,1024,1024,1684,1024,0,0,100,0,97.5,-67.4,0,54,3.862,3.852,0,0,0,0,4.652,108.68,7.217848,7.217848,6,P-GPS,
537100,2025-05-01 19:11:22,-23.0259188468437,-44.2865911334624,7.217848,8.8254596,18.9304468,7.217848,8.2021,0.4921268,436.14174624,5.9808400864,23,5,7.727,7.217848,7.217848,2.23694,439.36025028,0.447388,0.223694,-1.565858,85.1, 0.6, 2.4,0,1,1217,1024,1684,1024,29,0,100,0,97.4,-67.2,0,54,3.862,3.852,0,0,0,0,4.652,108.68,7.217848,7.217848,6,P-GPS,
537200,2025-05-01 19:11:22,-23.0259186722745,-44.2865908542073,7.545932,9.1535436,18.9304468,7.545932,8.530184,0.3131716,436.14830792,6.0941931084,23,5,7.727,7.545932,7.545932,2.23694,439.36025028,0.223694,0.223694,-2.013246,85, -0.2, 1.9,0,1,1684,1024,1526,1024,100,0,76,0,97.4,-71,0,54,3.862,3.852,0,0,0,0,4.652,108.68,7.545932,7.545932,6,P-GPS,
537300,2025-05-01 19:11:22,-23.0259184273565,-44.2865905433034,7.874016,9.5800528,18.8320216,7.874016,8.858268,0.4921268,436.1384654,6.2315946876,23,5,7.727,7.874016,7.874016,2.23694,439.36025028,0.223694,0.447388,-2.684328,85, -11.5, 0.4,0,1,1684,1024,1253,1024,100,0,35,0,97.4,-84.2,0,54,3.862,3.852,0,0,0,0,4.652,108.68,7.874016,7.874016,6,P-GPS,
537400,2025-05-01 19:11:22,-23.0259182071388,-44.2865901110166,8.530184,10.3018376,18.7664048,8.530184,9.186352,0.9171454,436.16471212,6.3975067664,23,5,7.727,8.530184,8.530184,2.23694,439.36025028,0.223694,0.894776,-2.908022,85.2, -16.9, 0.2,0,1,1684,1024,1024,1024,100,0,0,0,97.5,-82.3,0,54,3.862,3.852,0,0,0,0,4.652,108.68,8.530184,8.530184,6,P-GPS,
537500,2025-05-01 19:11:22,-23.0259179832733,-44.2865895067087,8.858268,10.6299216,18.7664048,8.858268,9.514436,1.1408394,436.2204864,6.6162403692,23,5,7.727,8.858268,8.858268,2.23694,439.36025028,0.223694,1.11847,-2.460634,85.1, -16.8, 0.1,0,1,1684,1024,1332,830,100,0,47,-29,97.5,-84.6,0,54,3.862,3.852,0,0,0,0,4.652,108.68,8.858268,8.858268,6,P-GPS,
537600,2025-05-01 19:11:22,-23.0259175011497,-44.2865884064439,9.186352,11.0236224,18.700788,9.186352,9.84252,1.6329662,436.30578824,7.025426734,23,5,7.658,9.186352,9.186352,2.23694,439.36025028,0.447388,1.565858,-1.789552,85.1, -15, 0.2,0,1,1589,1024,1684,612,86,0,100,-62,97.5,-83.8,0,54,3.82,3.82,0,0,0,0,5.35,108.68,9.186352,9.186352,6,P-GPS,
537700,2025-05-01 19:11:22,-23.0259172370552,-44.2865875088809,9.186352,11.154856,18.5695544,9.186352,10.170604,2.0579848,436.41405596,7.3418309436,23,5,7.658,9.186352,9.186352,2.23694,439.36025028,0.447388,2.013246,-1.342164,85, -16, 0.1,0,1,1589,1024,1684,612,86,0,100,-62,97.1,-82.1,0,54,3.82,3.82,0,0,0,0,5.35,108.68,9.186352,9.186352,6,P-GPS,
537800,2025-05-01 19:11:22,-23.025916967958,-44.2865864789884,9.514436,11.5485568,18.5039376,9.514436,10.170604,2.7290668,436.54528956,7.7013125824,23,5,7.658,9.514436,9.514436,2.7290668,439.36025028,0.447388,2.684328,-1.565858,84.2, -15.3, 1.3,0,1,1216,1024,1664,1024,29,0,97,0,95.6,-81.9,0,54,3.82,3.82,0,0,0,0,5.35,108.68,9.514436,9.514436,6,P-GPS,
537900,2025-05-01 19:11:23,-23.0259166724932,-44.286585172745,9.84252,11.9422576,18.4383208,9.84252,10.498688,3.3777794,436.7290166,8.1529858252,23,5,7.658,9.84252,9.84252,3.3777794,439.36025028,0.447388,3.35541,-2.23694,82.5, -10.4, 1.3,0,1,1024,1024,1527,1024,0,0,76,0,94.3,-74.6,0,54,3.82,3.82,0,0,0,0,5.35,108.68,9.84252,9.84252,6,P-GPS,
538000,2025-05-01 19:11:23,-23.025916182553,-44.2865837690975,10.170604,12.4015752,18.3070872,10.170604,10.826772,3.6014734,436.87337356,8.6570540828,23,5,7.658,10.170604,10.170604,3.6014734,439.36025028,0.447388,3.579104,-2.684328,81.5, 3.1, 0.6,0,1,1204,1024,1684,971,27,0,100,-8,93.7,-58.1,0,54,3.82,3.82,0,0,0,0,5.35,108.68,10.170604,10.170604,6,P-GPS,
538100,2025-05-01 19:11:23,-23.0259159186669,-44.2865823102691,10.498688,12.8280844,18.208662,10.498688,11.154856,3.1540854,437.09647068,9.1562995056,23,5,7.658,10.498688,10.498688,3.6014734,439.36025028,0.447388,3.131716,-3.131716,81.1, 9, 0.1,0,1,1478,1024,1684,1024,69,0,100,0,93.4,-62.5,0,54,3.82,3.82,0,0,0,0,5.35,108.68,10.498688,10.498688,6,P-GPS,
538200,2025-05-01 19:11:23,-23.0259156960521,-44.2865811439512,11.154856,13.5170608,18.1758536,11.154856,11.811024,2.7290668,437.2703552,9.5562339016,23,5,7.658,11.154856,11.154856,3.6014734,439.36025028,0.447388,2.684328,-3.802798,81.2, -1.7, 0.2,0,1,1355,1024,1080,1024,50,0,8,0,93.3,-74.6,0,54,3.82,3.82,0,0,0,0,5.35,108.68,11.154856,11.154856,6,P-GPS,
538300,2025-05-01 19:11:23,-23.0259154491539,-44.2865799463566,11.811024,14.3372708,18.0118116,11.811024,12.467192,2.7290668,437.44752056,9.968340214,23,5,7.658,11.811024,11.811024,3.6014734,439.36025028,0.447388,2.684328,-4.47388,81, -10.6, 0.7,0,1,1024,1024,1024,1024,0,0,0,0,93.2,-79.1,0,54,3.82,3.82,0,0,0,0,5.35,108.68,11.811024,11.811024,6,P-GPS,
538400,2025-05-01 19:11:23,-23.0259151992334,-44.2865787247834,12.467192,15.0262472,17.9790032,12.467192,13.12336,2.7290668,437.62468592,10.3885502012,23,5,7.658,12.467192,12.467192,3.6014734,439.36025028,0.447388,2.684328,-4.250186,80.9, -9.8, 0.6,0,1,1024,1024,1024,1024,0,0,0,0,93.2,-75.9,0,54,3.82,3.82,0,0,0,0,5.35,108.68,12.467192,12.467192,6,P-GPS,
538500,2025-05-01 19:11:23,-23.0259148345661,-44.2865772768274,13.12336,15.7808404,17.880578,13.12336,13.12336,2.7290668,437.81825548,10.8926184588,23,5,7.658,13.12336,13.12336,3.6014734,439.36025028,0.447388,2.684328,-3.579104,81, -4.2, 0.9,0,1,1024,1024,1024,1024,0,0,0,0,93.2,-65.5,0,54,3.82,3.82,0,0,0,0,5.35,108.68,13.12336,13.12336,6,P-GPS,
538600,2025-05-01 19:11:23,-23.0259144964751,-44.2865759439245,13.451444,16.2729664,17.716536,13.451444,14.107612,2.5053728,437.99870168,11.3568573188,23,5,7.64,13.451444,13.451444,3.6014734,439.36025028,0.447388,2.460634,-3.131716,80.9, 7.9, 0.9,0,1,1024,1024,1024,1024,0,0,0,0,93.2,-57.8,0,53,3.829,3.846,0,0,0,0,6.099,108.68,13.451444,13.451444,6,P-GPS,
538700,2025-05-01 19:11:23,-23.0259142451997,-44.2865750708615,13.779528,16.6338588,17.6837276,13.779528,14.107612,2.0579848,438.1069694,11.6640095596,23,5,7.64,13.779528,13.779528,3.6014734,439.36025028,0.447388,2.013246,-2.460634,80.9, 10.7, 0.7,0,1,1024,1024,1024,1024,0,0,0,0,93.2,-56.7,0,53,3.829,3.846,0,0,0,0,6.099,108.68,13.779528,13.779528,6,P-GPS,
538800,2025-05-01 19:11:23,-23.0259140236271,-44.2865744138303,14.107612,16.9947512,17.6509192,14.107612,14.107612,1.8342908,438.17586704,11.8989833204,23,5,7.64,14.107612,14.107612,3.6014734,439.36025028,0.447388,1.789552,-1.565858,81.1, 10.4, 0.8,0,1,1024,1024,1024,1024,0,0,0,0,93.2,-57.6,0,53,3.829,3.846,0,0,0,0,6.099,108.68,14.107612,14.107612,6,P-GPS,
538900,2025-05-01 19:11:24,-23.025913554531,-44.2865741534156,14.107612,16.9947512,17.6509192,14.107612,14.435696,1.4092722,438.09712688,12.0911749276,23,5,7.64,14.107612,14.107612,3.6014734,439.36025028,0.447388,1.342164,-0.894776,81.2, 9, 1.2,0,1,1024,1024,1024,1024,0,0,0,0,93.2,-59.2,0,53,3.829,3.846,0,0,0,0,6.099,108.68,14.107612,14.107612,6,P-GPS,
539000,2025-05-01 19:11:24,-23.0259133599515,-44.2865737194905,14.107612,17.1259848,17.5196856,14.107612,14.435696,0.9171454,438.12993528,12.2532484236,23,5,7.64,14.107612,14.107612,3.6014734,439.36025028,0.223694,0.894776,-0.447388,81.2, 7.1, 1.5,0,1,1024,1024,1024,1024,0,0,0,0,93.2,-61.6,0,53,3.829,3.846,0,0,0,0,6.099,108.68,14.107612,14.107612,6,P-GPS,
539100,2025-05-01 19:11:24,-23.0259132486441,-44.2865734938525,14.107612,17.1587932,17.4868772,14.107612,10.498688,0.4921268,438.14633948,12.3392064316,23,5,7.64,14.107612,14.107612,3.6014734,439.36025028,0.223694,0.447388,0,81.1, 4.4, 1.5,0,1,1024,1024,1024,1024,0,0,0,0,93.2,-64.3,0,53,3.829,3.846,0,0,0,0,6.099,108.68,14.107612,14.107612,6,P-GPS,
539200,2025-05-01 19:11:24,-23.0259131690197,-44.2865733971185,14.107612,17.1587932,17.4868772,14.107612,10.170604,0.3131716,438.14305864,12.3828087952,23,5,7.64,14.107612,14.107612,3.6014734,439.36025028,0.223694,0.223694,0,80.9, 2.1, 1.1,0,1,1024,1024,1024,1024,0,0,0,0,93.2,-66.2,0,53,3.829,3.846,0,0,0,0,6.099,108.68,14.107612,14.107612,6,P-GPS,
539300,2025-05-01 19:11:24,-23.0259128399958,-44.2865735086716,14.107612,17.1259848,17.5196856,14.107612,10.170604,0,438.0249484,12.5085633924,23,5,7.64,14.107612,14.107612,3.6014734,439.36025028,0,0,0,80.9, 0.7, 0.6,0,1,1024,1024,1024,1024,0,0,0,0,93.2,-67.1,0,53,3.829,3.846,0,0,0,0,6.099,108.68,14.107612,14.107612,6,P-GPS,
539400,2025-05-01 19:11:24,-23.0259127156609,-44.2865735340652,14.107612,17.1259848,17.5196856,14.107612,10.170604,0,437.98229748,12.5546920028,23,5,7.64,14.107612,14.107612,3.6014734,439.36025028,0,0,0,80.9, 0, 0.9,0,1,1024,1024,1024,1024,0,0,0,0,93.2,-67.9,0,53,3.829,3.846,0,0,0,0,6.099,108.68,14.107612,14.107612,6,P-GPS,
539500,2025-05-01 19:11:24,-23.0259126629253,-44.2865736760012,14.107612,17.1259848,17.5196856,14.107612,10.170604,0,437.93964656,12.6061027656,23,5,7.64,14.107612,14.107612,3.6014734,439.36025028,0,0,0,80.9, -0.6, 0.9,0,1,1024,1024,1024,1024,0,0,0,0,93.2,-68.6,0,53,3.829,3.846,0,0,0,0,6.099,108.68,14.107612,14.107612,6,P-GPS,
539600,2025-05-01 19:11:24,-23.0259126365576,-44.2865738327564,14.107612,17.1259848,17.5196856,14.107612,15.091864,0,437.90027648,12.659613266,23,5,7.64,14.107612,14.107612,3.6014734,439.36025028,0,0,0,80.8, -1.1, 0.6,0,1,1024,1024,1024,1024,0,0,0,0,93.2,-68.5,0,53,3.829,3.846,0,0,0,0,6.099,108.68,14.107612,14.107612,6,P-GPS,
539700,2025-05-01 19:11:24,-23.0259127341079,-44.2865739626286,14.435696,17.4540688,17.5196856,14.435696,15.419948,0,437.90027648,12.7159124804,23,5,7.718,14.435696,14.435696,3.6014734,439.36025028,0,0,0,80.8, -0.8, 0.4,0,1,1024,1024,1024,1024,0,0,0,0,93.2,-68.5,0,53,3.844,3.839,0,0,0,0,4.757,108.68,14.435696,14.435696,6,P-GPS,
539800,2025-05-01 19:11:24,-23.0259127921586,-44.2865740487136,14.435696,17.4540688,17.5196856,14.435696,15.419948,0,437.90027648,12.7517392532,22,5,7.718,14.435696,14.435696,3.6014734,439.36025028,0,0,0,80.8, -0.8, 0.7,0,1,1024,1024,1024,1024,0,0,0,0,93.2,-68.5,0,53,3.844,3.839,0,0,0,0,4.757,108.68,14.435696,14.435696,6,P-GPS,
539900,2025-05-01 19:11:25,-23.0259128182137,-44.2865740054477,14.435696,17.4540688,17.5196856,14.435696,15.419948,0,437.91668068,12.7690948968,22,5,7.718,14.435696,14.435696,3.6014734,439.36025028,0,0,0,80.7, -1.2, 0.5,0,1,1024,1024,1024,1024,0,0,0,0,93.2,-68.9,0,53,3.844,3.839,0,0,0,0,4.757,108.68,14.435696,14.435696,6,P-GPS,
540000,2025-05-01 19:11:25,-23.0259128513558,-44.2865739651605,14.435696,17.4540688,17.5196856,14.435696,15.748032,0,437.93308488,12.787237942,21,5,7.718,14.435696,14.435696,3.6014734,439.36025028,0,0,0,80.8, -1.4, 0.1,0,1,1024,1024,1024,1024,0,0,0,0,93.2,-69.2,0,53,3.844,3.839,0,0,0,0,4.757,108.68,14.435696,14.435696,6,P-GPS,
540100,2025-05-01 19:11:25,-23.0259127903869,-44.2865734826823,14.435696,17.4868772,17.4868772,14.435696,15.748032,0,438.01510588,12.9507550076,21,5,7.718,14.435696,14.435696,3.6014734,439.36025028,0,0,0,80.8, -1.6, 0.3,0,1,1024,1024,1024,1024,0,0,0,0,93.2,-69.2,0,53,3.844,3.839,0,0,0,0,4.757,108.68,14.435696,14.435696,6,P-GPS,
540200,2025-05-01 19:11:25,-23.02591280602,-44.2865734715865,14.435696,17.4868772,17.4868772,14.435696,15.748032,0,438.02166756,12.9575791548,22,5,7.718,14.435696,14.435696,3.6014734,439.36025028,0,0,0,80.8, -1.1, 0.4,0,1,1024,1024,1024,1024,0,0,0,0,93.2,-69,0,53,3.844,3.839,0,0,0,0,4.757,108.68,14.435696,14.435696,6,P-GPS,
540300,2025-05-01 19:11:25,-23.025912740778,-44.28657340531,14.435696,17.4868772,17.4868772,14.435696,15.419948,0,438.01838672,12.990157896,22,5,7.718,14.435696,14.435696,3.6014734,439.36025028,0,0,0,80.9, -1.1, 0.3,0,1,1024,1024,1024,1024,0,0,0,0,93.2,-68.8,0,53,3.844,3.839,0,0,0,0,4.757,108.68,14.435696,14.435696,6,P-GPS,
540400,2025-05-01 19:11:25,-23.0259126723052,-44.2865733473739,14.435696,17.4868772,17.4868772,14.435696,15.419948,0,438.0085442,13.021818002,22,5,7.718,14.435696,14.435696,3.6014734,439.36025028,0,0,0,81, -1.2, 0.8,0,1,1024,1024,1024,1024,0,0,0,0,93.2,-69,0,53,3.844,3.839,0,0,0,0,4.757,108.68,14.435696,14.435696,6,P-GPS,
540500,2025-05-01 19:11:25,-23.0259126042492,-44.2865733038101,14.435696,17.4868772,17.4868772,14.435696,15.419948,0,437.99870168,13.0506565856,22,5,7.718,14.435696,14.435696,3.6014734,439.36025028,0,0,0,81, -1.5, 1.4,0,1,1024,1024,1024,1024,0,0,0,0,93.2,-68.7,0,53,3.844,3.839,0,0,0,0,4.757,108.68,14.435696,14.435696,6,P-GPS,
540600,2025-05-01 19:11:25,-23.0259122526096,-44.2865728444914,14.435696,17.5853024,17.388452,14.435696,15.748032,0,437.99214,13.2512471432,22,5,7.718,14.435696,14.435696,3.6014734,439.36025028,0,0,0,81.1, -0.3, 1.9,0,1,1024,1024,1024,1024,0,0,0,0,93.2,-68,0,53,3.844,3.839,0,0,0,0,4.757,108.68,14.435696,14.435696,6,P-GPS,
540700,2025-05-01 19:11:25,-23.0259121697543,-44.2865727062043,14.435696,17.5853024,17.388452,14.435696,15.748032,0,437.99870168,13.3066605308,22,5,7.682,14.435696,14.435696,3.6014734,439.36025028,0,0,0,80.9, -0.6, 1.6,0,1,1024,1024,1024,1024,0,0,0,0,93.2,-68.2,0,53,3.844,3.836,0,0,0,0,4.639,108.68,14.435696,14.435696,6,P-GPS,
540800,2025-05-01 19:11:25,-23.0259121121204,-44.2865725972576,14.435696,17.5853024,17.388452,14.435696,15.748032,0,438.00526336,13.3488521332,22,5,7.682,14.435696,14.435696,3.6014734,439.36025028,0,0,0,80.9, -0.8, 1.5,0,1,1024,1024,1024,1024,0,0,0,0,93.2,-68.7,0,53,3.844,3.836,0,0,0,0,4.639,108.68,14.435696,14.435696,6,P-GPS,
540900,2025-05-01 19:11:26,-23.025912073142,-44.2865726083534,14.435696,17.5853024,17.388452,14.435696,16.076116,0,437.99214,13.3635831048,22,5,7.682,14.435696,14.435696,3.6014734,439.36025028,0,0,0,80.9, -1.3, 1,0,1,1024,1024,1024,1024,0,0,0,0,93.2,-69.2,0,53,3.844,3.836,0,0,0,0,4.639,108.68,14.435696,14.435696,6,P-GPS,
541000,2025-05-01 19:11:26,-23.0259117716323,-44.2865724469067,14.435696,17.6509192,17.3228352,14.435696,16.076116,0,437.93964656,13.4861880956,22,5,7.682,14.435696,14.435696,3.6014734,439.36025028,0,0,0,80.8, -0.7, 0.8,0,1,1024,1024,1024,1024,0,0,0,0,93.2,-68.3,0,53,3.844,3.836,0,0,0,0,4.639,108.68,14.435696,14.435696,6,P-GPS,
541100,2025-05-01 19:11:26,-23.0259117181673,-44.2865725281513,14.435696,17.5853024,17.388452,14.435696,16.076116,0,437.90683816,13.5197510888,22,5,7.682,14.435696,14.435696,3.6014734,439.36025028,0,0,0,81, -0.8, 0.4,0,1,1024,1024,1024,1024,0,0,0,0,93.2,-68.6,0,53,3.844,3.836,0,0,0,0,4.639,108.68,14.435696,14.435696,6,P-GPS,
541200,2025-05-01 19:11:26,-23.0259116766875,-44.2865726099917,14.435696,17.5853024,17.388452,14.435696,16.4042,0,437.8773106,13.5511159192,22,5,7.682,14.435696,14.435696,3.6014734,439.36025028,0,0,0,81, -0.8, 0.5,0,1,1024,1024,1024,1024,0,0,0,0,93.2,-68.5,0,53,3.844,3.836,0,0,0,0,4.639,108.68,14.435696,14.435696,6,P-GPS,
541300,2025-05-01 19:11:26,-23.0259116924248,-44.2865726430555,14.435696,17.5853024,17.388452,14.435696,16.4042,0,437.87402976,13.5636159196,22,5,7.682,14.435696,14.435696,3.6014734,439.36025028,0,0,0,80.9, -0.9, 0.4,0,1,1024,1024,1024,877,0,0,0,-22,93.2,-68.5,0,53,3.844,3.836,0,0,0,0,4.639,108.68,14.435696,14.435696,6,P-GPS,
541400,2025-05-01 19:11:26,-23.0259115443276,-44.286572678949,14.435696,17.5853024,17.388452,14.435696,16.4042,0,437.82481716,13.6189636904,22,5,7.682,14.435696,14.435696,3.6014734,439.36025028,0,0,0,80.9, -0.6, 0.8,0,1,1024,1684,1024,387,0,100,0,-97,93.2,-67.9,0,53,3.844,3.836,0,0,0,0,4.639,108.68,14.435696,14.435696,6,P-GPS,
541500,2025-05-01 19:11:26,-23.0259116024826,-44.2865727735979,14.435696,17.5853024,17.388452,14.435696,16.4042,0,437.82153632,13.6571854764,22,5,7.682,14.435696,14.435696,3.6014734,439.36025028,0,0,0,80.7, -0.6, 3.4,0,1,1024,1684,1024,364,0,100,0,-100,92.9,-68.5,0,53,3.844,3.836,0,0,0,0,4.639,108.68,14.435696,14.435696,6,P-GPS,
541600,2025-05-01 19:11:26,-23.0259117070157,-44.2865728581936,14.435696,17.5853024,17.388452,14.435696,16.4042,0.223694,437.83465968,13.7047576564,22,5,7.682,14.435696,14.435696,3.6014734,439.36025028,-0.223694,0,0,80, -0.8, 16.8,0,1,1024,1684,1024,364,0,100,0,-100,90.6,-67.8,-0.1,53,3.844,3.836,0,0,0,0,4.639,108.68,14.435696,14.435696,6,P-GPS,
541700,2025-05-01 19:11:26,-23.0259119753832,-44.2865728276617,14.435696,17.5853024,17.388452,14.435696,16.4042,0.894776,437.91668068,13.8031828564,22,5,7.682,14.435696,14.435696,3.6014734,439.36025028,-0.894776,0,0,76.4, 0.4, 21.7,0,1,1024,1684,1024,364,0,100,0,-100,86.4,-66.4,-0.2,53,3.843,3.835,0,0,0,0,4.639,108.68,14.435696,14.435696,6,P-GPS,
541800,2025-05-01 19:11:27,-23.0259125226446,-44.2865727297362,14.435696,17.4868772,17.4868772,14.435696,16.4042,1.8119214,438.09384604,14.0055450676,22,5,7.682,14.435696,14.435696,3.6014734,439.36025028,-1.789552,0.223694,0,71.7, 1.1, 21.1,0,1,1024,1684,1024,364,0,100,0,-100,81.7,-66.4,-0.2,53,3.843,3.835,0,0,0,0,4.639,108.68,14.435696,14.435696,6,P-GPS,
541900,2025-05-01 19:11:27,-23.025913346507,-44.28657239746,14.435696,17.5196856,17.4540688,14.435696,16.076116,1.8119214,438.39896416,14.3261815608,22,5,7.682,14.435696,14.435696,3.6014734,439.36025028,-2.684328,0.223694,0,66.8, 0.7, 20.4,0,1,1024,1024,1024,1024,0,0,0,0,76.9,-67,-0.2,53,3.843,3.835,0,0,0,0,4.639,108.68,14.435696,14.435696,6,P-GPS,
542000,2025-05-01 19:11:27,-23.0259144031978,-44.2865720042689,14.435696,17.4212604,17.552494,14.435696,16.4042,3.3777794,438.78610328,14.7336946972,22,5,7.682,14.435696,14.435696,3.6014734,439.36025028,-3.35541,0.447388,0,62.4, -0.6, 10.1,0,1,1033,1024,1024,1024,1,0,0,0,73.5,-70.1,-0.1,53,3.843,3.835,0,0,0,0,4.639,108.68,14.435696,14.435696,6,P-GPS,
542100,2025-05-01 19:11:27,-23.0259157487876,-44.2865716439926,14.76378,17.5196856,17.7821528,14.76378,16.4042,3.3777794,439.24542088,15.2393049496,22,5,7.682,14.76378,14.76378,3.6014734,439.36025028,-3.35541,0.447388,0,60.1, -5.3, -11.1,0,1,1545,1024,1684,1024,79,0,100,0,72,-72.9,0,53,3.843,3.835,0,0,0,0,4.639,108.68,14.76378,14.76378,6,P-GPS,
542200,2025-05-01 19:11:27,-23.025916919704,-44.2865713324185,14.76378,17.4540688,17.8477696,14.76378,16.4042,2.7290668,439.64568336,15.67913436,22,5,7.682,14.76378,14.76378,3.6014734,439.64568336,-2.684328,0.447388,0,60.2, -5.6, -8.3,0,1,1684,1024,1684,1024,100,0,100,0,71.8,-77.8,0,53,3.843,3.835,0,0,0,0,4.639,108.68,14.76378,14.76378,6,P-GPS,
542300,2025-05-01 19:11:27,-23.0259182228761,-44.2865706389724,14.76378,17.3556436,17.9461948,14.76378,16.4042,2.0579848,440.16405608,16.2085635108,22,5,7.682,14.76378,14.76378,3.6014734,440.16405608,-2.013246,0.447388,-0.671082,61, -15.1, -3.9,0,1,1684,1024,1684,1024,100,0,100,0,71.8,-84.7,0,53,3.843,3.835,0,0,0,0,4.639,108.68,14.76378,14.76378,6,P-GPS,
542400,2025-05-01 19:11:27,-23.0259190957221,-44.2865701596963,14.76378,17.2900268,18.0118116,14.76378,16.4042,1.6105968,440.51510596,16.5653548608,22,5,7.682,14.76378,14.76378,3.6014734,440.51510596,-1.342164,0.894776,-1.342164,60.1, -15.1, -1.6,0,1,1299,1024,1638,1024,42,0,93,0,71.7,-83.4,0,53,3.843,3.835,0,0,0,0,4.639,108.68,14.76378,14.76378,6,P-GPS,
542500,2025-05-01 19:11:27,-23.0259198241185,-44.2865693730907,15.091864,17.552494,18.0774284,15.091864,16.732284,1.8119214,440.88584088,16.9400595972,22,5,7.682,15.091864,15.091864,3.6014734,440.88584088,-0.894776,1.565858,-2.013246,59.7, -14.9, -0.3,0,1,1024,1024,1024,1024,0,0,0,0,71.7,-81.3,0,53,3.843,3.835,0,0,0,0,4.639,108.68,15.091864,15.091864,6,P-GPS,
542600,2025-05-01 19:11:27,-23.0259203502232,-44.2865684146874,15.419948,17.9133864,18.04462,15.419948,17.060368,2.0579848,441.23689076,17.3147643336,22,5,7.682,15.419948,15.419948,3.6014734,441.23689076,-0.447388,2.013246,-2.908022,59.6, -9.5, 0.7,0,1,1024,1024,1024,1024,0,0,0,0,71.8,-71.2,0,53,3.843,3.835,0,0,0,0,4.639,108.68,15.419948,15.419948,6,P-GPS,
542700,2025-05-01 19:11:27,-23.0259205315667,-44.2865673472629,15.748032,18.1758536,18.1102368,15.748032,17.060368,2.0356154,441.50920048,17.6792328492,22,5,7.681,15.748032,15.748032,3.6014734,441.50920048,-0.223694,2.013246,-2.908022,59.6, 4.1, -0.7,0,1,1024,1024,1024,1024,0,0,0,0,71.7,-62.6,0,53,3.816,3.804,0,0,0,0,4.572,108.68,15.748032,15.748032,6,P-GPS,
542800,2025-05-01 19:11:27,-23.0259207593926,-44.2865664526787,16.076116,18.536746,18.0774284,16.076116,17.716536,2.0356154,441.76182516,17.9909126492,23,5,7.681,16.076116,16.076116,3.6014734,441.76182516,-0.223694,2.013246,-2.23694,59.2, 5.1, -5.8,0,1,1024,1024,1024,1024,0,0,0,0,71.7,-61.3,0,53,3.816,3.804,0,0,0,0,4.572,108.68,16.076116,16.076116,6,P-GPS,
542900,2025-05-01 19:11:28,-23.0259207144736,-44.2865655579456,16.4042,18.86483,18.0774284,16.4042,18.04462,1.5882274,441.93242884,18.2917984856,23,5,7.681,16.4042,16.4042,3.6014734,441.93242884,-0.223694,1.565858,-1.565858,59, 6, -6.7,0,1,1024,1024,1024,1024,0,0,0,0,71.8,-61.5,0,53,3.816,3.804,0,0,0,0,4.572,108.68,16.4042,16.4042,6,P-GPS,
543000,2025-05-01 19:11:28,-23.0259206404771,-44.2865648449888,16.4042,18.9304468,18.0118116,16.4042,18.04462,1.342164,442.0603816,18.5327105668,23,5,7.681,16.4042,16.4042,3.6014734,442.0603816,0,1.342164,-0.894776,59, 5.4, -6.5,0,1,1024,1024,1012,1024,0,0,-2,0,71.7,-62.5,0,53,3.816,3.804,0,0,0,0,4.572,108.68,16.4042,16.4042,6,P-GPS,
543100,2025-05-01 19:11:28,-23.0259195564805,-44.286564053245,16.732284,19.4225728,17.8477696,16.732284,18.04462,0.894776,441.9127438,19.0092525768,23,5,7.681,16.732284,16.732284,3.6014734,442.0603816,0,0.894776,-0.447388,59.3, 4.3, -5.3,0,1,1024,1024,1024,1024,0,0,0,0,71.7,-63.8,0,53,3.816,3.804,0,0,0,0,4.572,108.68,16.732284,16.732284,6,P-GPS,
543200,2025-05-01 19:11:28,-23.0259194311034,-44.2865636024901,16.732284,19.520998,17.7493444,16.732284,17.716536,0.447388,441.97179892,19.1673562564,22,5,7.681,16.732284,16.732284,3.6014734,442.0603816,0,0.447388,0,59.5, 3.1, -3.5,0,1,1024,1024,1024,1024,0,0,0,0,71.7,-64.7,0,53,3.816,3.804,0,0,0,0,4.572,108.68,16.732284,16.732284,6,P-GPS,
543300,2025-05-01 19:11:28,-23.0259193821198,-44.2865632798202,16.732284,19.5538064,17.716536,16.732284,17.716536,0.223694,442.02429236,19.2771659712,22,5,7.681,16.732284,16.732284,3.6014734,442.0603816,0,0.223694,0,59.7, 2.6, -2.3,0,1,1024,1024,1024,1024,0,0,0,0,71.7,-65.4,0,53,3.816,3.804,0,0,0,0,4.572,108.68,16.732284,16.732284,6,P-GPS,
543400,2025-05-01 19:11:28,-23.0259193279251,-44.2865630628949,16.732284,19.5538064,17.716536,16.732284,17.716536,0,442.05381992,19.3526580996,23,5,7.681,16.732284,16.732284,3.6014734,442.0603816,0,0,0,59.6, 1.7, -0.7,0,1,1383,1024,872,1024,54,0,-23,0,71.7,-66.3,0,53,3.816,3.804,0,0,0,0,4.572,108.68,16.732284,16.732284,6,P-GPS,
543500,2025-05-01 19:11:28,-23.025919343454,-44.28656302998,16.732284,19.5538064,17.716536,16.732284,17.716536,0,442.06366244,19.3650596748,23,5,7.681,16.732284,16.732284,3.6014734,442.06366244,0,0,0,59.6, 0.7, 0,0,1,1684,1024,818,1024,100,0,-31,0,71.7,-67.9,0,53,3.816,3.804,0,0,0,0,4.572,108.68,16.732284,16.732284,6,P-GPS,
543600,2025-05-01 19:11:28,-23.025919377013,-44.2865629575227,16.732284,19.5538064,17.716536,16.732284,18.04462,0,442.08990916,19.3923234552,23,5,7.681,16.732284,16.732284,3.6014734,442.08990916,0,0,0,59.6, -5.6, 0.3,0,1,1684,1024,1024,1024,100,0,0,0,71.7,-78.1,0,53,3.816,3.804,0,0,0,0,4.572,108.68,16.732284,16.732284,6,P-GPS,
543700,2025-05-01 19:11:28,-23.0259193810776,-44.2865629321291,16.732284,19.5538064,17.716536,16.732284,18.04462,0,442.09647084,19.4009520644,23,5,7.67,16.732284,16.732284,3.6014734,442.09647084,0,0,0.447388,59.6, -16.5, 0.6,0,1,1684,1024,1024,1024,100,0,0,0,71.7,-84.4,0,53,3.838,3.833,0,0,0,0,4.765,108.68,16.732284,16.732284,6,P-GPS,
543800,2025-05-01 19:11:28,-23.0259193235479,-44.286562779693,16.4042,19.2257224,17.716536,16.4042,17.716536,0.4921268,442.1095942,19.4562998352,23,5,7.67,16.732284,16.732284,3.6014734,442.1095942,0.223694,0.447388,0.447388,59.4, -14, 0.6,0,1,1684,1024,1024,1024,100,0,0,0,71.8,-84.8,0,53,3.838,3.833,0,0,0,0,4.765,108.68,16.4042,16.4042,6,P-GPS,
543900,2025-05-01 19:11:29,-23.0259191122931,-44.2865623462892,16.4042,19.2913392,17.6509192,16.4042,17.716536,1.2079476,442.13912176,19.6209651948,23,5,7.67,16.732284,16.732284,3.6014734,442.13912176,0.447388,1.11847,0.223694,59.4, -14.7, 0.2,0,1,1684,1024,1024,1024,100,0,0,0,71.8,-82,0,53,3.838,3.833,0,0,0,0,4.765,108.68,16.4042,16.4042,6,P-GPS,
544000,2025-05-01 19:11:29,-23.0259187548171,-44.286561940662,16.4042,19.2913392,17.6509192,16.4042,17.716536,1.7000744,442.12271756,19.809547878,23,5,7.67,16.732284,16.732284,3.6014734,442.13912176,0.671082,1.565858,0,59.3, -17.2, -0.6,0,1,1684,1024,1024,1024,100,0,0,0,71.8,-81.9,0,53,3.838,3.833,0,0,0,0,4.765,108.68,16.4042,16.4042,6,P-GPS,
544100,2025-05-01 19:11:29,-23.0259183344961,-44.2865610460778,16.076116,19.0944888,17.5196856,16.076116,17.388452,1.7000744,442.18833436,20.14681823,23,5,7.67,16.732284,16.732284,3.6014734,442.18833436,1.11847,2.013246,0,59.4, -15.4, -0.6,0,1,1684,1024,1024,1024,100,0,0,0,71.8,-84.2,0,53,3.838,3.833,0,0,0,0,4.765,108.68,16.076116,16.076116,6,P-GPS,
544200,2025-05-01 19:11:29,-23.0259178297567,-44.2865600405362,16.076116,19.1601056,17.4540688,16.076116,17.388452,2.796175,442.25395116,20.5313982948,23,5,7.67,16.732284,16.732284,3.6014734,442.25395116,1.342164,2.460634,0,59.3, -14.6, -0.1,0,1,1684,1024,1024,1024,100,0,0,0,71.7,-83.7,0,53,3.838,3.833,0,0,0,0,4.765,108.68,16.076116,16.076116,6,P-GPS,
544300,2025-05-01 19:11:29,-23.0259171651431,-44.2865587763673,16.076116,19.2913392,17.3228352,16.076116,17.388452,2.796175,442.32612964,21.0202762632,23,5,7.67,16.732284,16.732284,3.6014734,442.32612964,1.789552,2.908022,0,59.4, -15, -1.2,0,1,1684,1024,1024,1024,100,0,0,0,71.8,-81.8,0,53,3.838,3.833,0,0,0,0,4.765,108.68,16.076116,16.076116,6,P-GPS,
544400,2025-05-01 19:11:29,-23.0259162408122,-44.2865571548264,15.748032,19.1601056,17.1259848,15.748032,17.388452,3.914645,442.40158896,21.6607290396,21,5,7.67,16.732284,16.732284,3.914645,442.40158896,2.013246,3.35541,0,59.5, -16.3, 0.2,0,1,1684,1024,1024,1024,100,0,0,0,71.8,-82.4,0,53,3.838,3.833,0,0,0,0,4.765,108.68,15.748032,15.748032,6,P-GPS,
544500,2025-05-01 19:11:29,-23.025915273751,-44.2865554616472,15.748032,19.356956,16.9291344,15.748032,17.388452,4.2278166,442.48032912,22.3298563576,21,5,7.67,16.732284,16.732284,4.2278166,442.48032912,2.23694,3.579104,0,59.3, -16.1, -0.6,0,1,1684,1024,1024,1024,100,0,0,0,71.8,-84.3,0,53,3.838,3.833,0,0,0,0,4.765,108.68,15.748032,15.748032,6,P-GPS,
544600,2025-05-01 19:11:29,-23.0259142586441,-44.2865537135107,15.748032,19.520998,16.7650924,15.748032,17.716536,4.7199434,442.55906928,23.0239180596,22,5,7.67,16.732284,16.732284,4.7199434,442.55906928,2.460634,4.026492,0,59.3, -15.4, 0.4,0,1,1684,1024,1024,1024,100,0,0,0,71.8,-83.8,0,53,3.838,3.833,0,0,0,0,4.765,108.68,15.748032,15.748032,6,P-GPS,
544700,2025-05-01 19:11:29,-23.0259131170137,-44.2865517373531,15.748032,19.7178484,16.568242,15.748032,17.388452,5.033115,442.6509328,23.8073826516,22,5,7.686,16.732284,16.732284,5.033115,442.6509328,2.684328,4.250186,0,59.4, -15.8, 0.9,0,1,1684,1024,1024,1024,100,0,0,0,71.8,-83.2,0,53,3.827,3.824,0,0,0,0,5.405,108.86,15.748032,15.748032,6,P-GPS,
544800,2025-05-01 19:11:29,-23.0259116081105,-44.2865493041109,15.748032,19.9803156,16.3057748,15.748032,17.716536,5.5252418,442.7329538,24.7925860952,23,5,7.686,16.732284,16.732284,5.5252418,442.7329538,2.908022,4.697574,0,59.2, -15.6, 1.5,0,1,1684,1024,1024,1024,100,0,0,0,71.8,-82.8,0,53,3.827,3.824,0,0,0,0,5.405,108.86,15.748032,15.748032,6,P-GPS,
544900,2025-05-01 19:11:30,-23.0259102803424,-44.2865470101238,15.419948,19.9475072,16.0104992,15.419948,17.716536,5.8384134,442.84122152,25.7025270692,23,5,7.686,16.732284,16.732284,5.8384134,442.84122152,3.131716,4.921268,0,59.3, -15.1, 1.6,0,1,1684,1024,1024,1024,100,0,0,0,71.8,-82.5,0,53,3.827,3.824,0,0,0,0,5.405,108.86,15.419948,15.419948,6,P-GPS,
545000,2025-05-01 19:11:30,-23.0259089563262,-44.2865446896261,15.419948,20.1443576,15.8136488,15.419948,17.716536,6.3305402,442.95933176,26.6192921904,23,5,7.686,16.732284,16.732284,6.3305402,442.95933176,3.35541,5.368656,0,59.2, -15.3, 1.5,0,1,1684,1024,1024,1024,100,0,0,0,71.8,-82.8,0,53,3.827,3.824,0,0,0,0,5.405,108.86,15.419948,15.419948,6,P-GPS,
545100,2025-05-01 19:11:30,-23.0259074968235,-44.2865420768415,15.419948,20.50525,15.4527564,15.419948,18.04462,6.5318648,443.10040788,27.6455717508,23,5,7.686,16.732284,16.732284,6.5318648,443.10040788,3.35541,5.59235,0,59.1, -15.4, 1.1,0,1,1684,1024,1024,1024,100,0,0,0,71.8,-83,0,53,3.827,3.824,0,0,0,0,5.405,108.86,15.419948,15.419948,6,P-GPS,
545200,2025-05-01 19:11:30,-23.0259058644192,-44.2865392056529,15.419948,20.7349088,15.2230976,15.419948,18.04462,6.822667,443.25132652,28.7788066952,23,5,7.686,16.732284,16.732284,6.822667,443.25132652,3.579104,5.816044,0,59.1, -15.5, 1.3,0,1,1684,1024,1024,1024,100,0,0,0,71.8,-83.1,0,53,3.827,3.824,0,0,0,0,5.405,108.86,15.419948,15.419948,6,P-GPS,
545300,2025-05-01 19:11:30,-23.02590432623,-44.2865363844324,15.419948,21.0958012,14.8622052,15.419948,18.04462,7.0239916,443.4219302,29.8798565992,23,5,7.686,16.732284,16.732284,7.0239916,443.4219302,3.579104,6.039738,0,59.2, -15.7, 0.8,0,1,1684,1024,1024,1024,100,0,0,0,71.8,-83.3,0,53,3.827,3.824,0,0,0,0,5.405,108.86,15.419948,15.419948,6,P-GPS,
545400,2025-05-01 19:11:30,-23.0259028135749,-44.2865335934458,15.091864,20.9645676,14.6653548,15.091864,18.04462,7.5161184,443.59581472,30.9674550592,23,5,7.686,16.732284,16.732284,7.5161184,443.59581472,3.802798,6.487126,0,59.3, -15.7, 0.6,0,1,1684,1024,1024,1024,100,0,0,0,71.8,-83.2,0,53,3.827,3.824,0,0,0,0,5.405,108.86,15.091864,15.091864,6,P-GPS,
545500,2025-05-01 19:11:30,-23.0259011089458,-44.2865305646084,15.091864,21.32546,14.3044624,15.091864,17.716536,7.82929,443.76969924,32.1595810816,23,5,7.686,16.732284,16.732284,7.82929,443.76969924,4.026492,6.71082,0,59.3, -15.5, 0.6,0,1,1684,1024,1024,1024,100,0,0,0,71.8,-82.9,0,53,3.827,3.824,0,0,0,0,5.405,108.86,15.091864,15.091864,6,P-GPS,
545600,2025-05-01 19:11:30,-23.0258994336026,-44.2865275918455,15.091864,21.6863524,13.94357,15.091864,18.04462,8.0082452,443.94358376,33.33005356,23,5,7.686,16.732284,16.732284,8.0082452,443.94358376,4.026492,6.934514,0,59.3, -15.3, 0.6,0,1,1684,1024,1024,1024,100,0,0,0,71.8,-83.4,0,53,3.827,3.824,0,0,0,0,5.405,108.86,15.091864,15.091864,6,P-GPS,
545700,2025-05-01 19:11:30,-23.025897436531,-44.2865245309869,15.091864,22.0472448,13.5826776,15.091864,18.04462,8.3214168,444.04857064,34.58989612,23,5,7.671,16.732284,16.732284,8.3214168,444.04857064,4.250186,7.158208,0,59.4, -16.2, 0.9,0,1,1684,1024,1024,1024,100,0,0,0,71.8,-83.5,0,53,3.836,3.832,0,0,0,0,4.691,108.86,15.091864,15.091864,6,P-GPS,
545800,2025-05-01 19:11:30,-23.0258956564463,-44.2865214309581,15.091864,22.3425204,13.287402,15.091864,18.04462,8.6345884,444.225736,35.81693028,23,5,7.671,16.732284,16.732284,8.6345884,444.225736,4.47388,7.381902,0,59.2, -16.1, 0.9,0,1,1684,1024,1024,1024,100,0,0,0,71.8,-82.5,0,53,3.836,3.832,0,0,0,0,4.691,108.86,15.091864,15.091864,6,P-GPS,
545900,2025-05-01 19:11:31,-23.0258936858467,-44.2865179238127,15.091864,22.7034128,12.9265096,15.091864,18.372704,8.94776,444.44227144,37.1965235,23,5,7.671,16.732284,16.732284,8.94776,444.44227144,4.697574,7.605596,0,59.2, -14.8, 0.6,0,1,1684,1024,1024,1024,100,0,0,0,71.8,-82.4,0,53,3.836,3.832,0,0,0,0,4.691,108.86,15.091864,15.091864,6,P-GPS,
546000,2025-05-01 19:11:31,-23.0258917523495,-44.286514490614,14.76378,22.7690296,12.5328088,14.76378,18.700788,9.1267152,444.65552604,38.54822958,23,5,7.671,16.732284,16.732284,9.1267152,444.65552604,4.697574,7.82929,0,59.3, -15.7, 1.2,0,1,1684,1024,1024,1024,100,0,0,0,71.8,-83.3,0,53,3.836,3.832,0,0,0,0,4.691,108.86,14.76378,14.76378,6,P-GPS,
546100,2025-05-01 19:11:31,-23.0258893908191,-44.2865103968096,14.76378,23.293964,12.0078744,14.76378,18.700788,9.4398868,444.90158904,40.170276876,23,5,7.671,16.732284,16.732284,9.4398868,444.90158904,4.921268,8.052984,0,59.3, -15.3, 1.3,0,1,1684,1024,1024,1024,100,0,0,0,71.8,-82.7,0,53,3.836,3.832,0,0,0,0,4.691,108.86,14.76378,14.76378,6,P-GPS,
546200,2025-05-01 19:11:31,-23.0258873605012,-44.2865067944196,14.76378,23.6548564,11.646982,14.76378,18.700788,9.4398868,445.13780952,41.588912092,22,5,7.671,16.732284,16.732284,9.4398868,445.13780952,4.921268,8.052984,0,59.4, -15.4, 1.2,0,1,1543,1024,1024,1024,79,0,0,0,71.8,-83.5,0,53,3.836,3.832,0,0,0,0,4.691,108.86,14.76378,14.76378,6,P-GPS,
546300,2025-05-01 19:11:31,-23.025885227422,-44.2865031295509,14.76378,24.0485572,11.2532812,14.76378,19.028872,9.618842,445.36090664,43.044948884,22,5,7.671,16.732284,16.732284,9.618842,445.36090664,4.921268,8.276678,0,59.4, -15.5, 1.3,0,1,1024,1024,1024,1024,0,0,0,0,71.8,-81.2,0,53,3.836,3.832,0,0,0,0,4.691,108.86,14.76378,14.76378,6,P-GPS,
546400,2025-05-01 19:11:31,-23.0258831680266,-44.2864995724375,14.76378,24.4094496,10.8923888,14.76378,19.356956,9.9320136,445.5872846,44.456038168,22,5,7.671,16.732284,16.732284,9.9320136,445.5872846,5.144962,8.500372,0,59.4, -8.7, 1.3,0,1,1024,1024,1024,1024,0,0,0,0,71.7,-66.2,0,53,3.836,3.832,0,0,0,0,4.691,108.86,14.76378,14.76378,6,P-GPS,
546500,2025-05-01 19:11:31,-23.0258810033685,-44.286495928271,14.76378,24.8359588,10.4658796,14.76378,19.356956,9.4398868,445.80710088,45.912403044,22,5,7.671,16.732284,16.732284,9.9320136,445.80710088,4.921268,8.052984,0,59.7, 17.3, 1.3,0,1,1024,1024,1024,1024,0,0,0,0,71.7,-47.4,0,53,3.836,3.832,0,0,0,0,4.691,108.86,14.76378,14.76378,6,P-GPS,
546600,2025-05-01 19:11:31,-23.0258790793554,-44.2864925518914,14.76378,25.1968512,10.1049872,14.76378,19.356956,8.4332638,446.03675968,47.24573642,23,5,7.671,16.732284,16.732284,9.9320136,446.03675968,4.47388,7.158208,-0.447388,59.4, 18.9, -0.2,0,1,1024,1024,1024,1024,0,0,0,0,71.8,-47.8,0,53,3.836,3.832,0,0,0,0,4.691,108.86,14.76378,14.76378,6,P-GPS,
546700,2025-05-01 19:11:31,-23.0258771192821,-44.2864892758202,14.76378,25.590552,9.7112864,14.76378,19.356956,7.4490102,446.24017176,48.557744336,23,5,7.667,16.732284,16.732284,9.9320136,446.24017176,4.026492,6.263432,-0.223694,59.3, 18.9, 0,0,1,1024,1024,1024,1024,0,0,0,0,71.8,-48.5,0,53,3.835,3.829,0,0,0,0,4.651,108.86,14.76378,14.76378,6,P-GPS,
546800,2025-05-01 19:11:32,-23.0258754279932,-44.2864865168549,14.435696,25.590552,9.3832024,14.435696,19.356956,6.6437118,446.40093292,49.670933348,23,5,7.667,16.732284,16.732284,9.9320136,446.40093292,3.579104,5.59235,-0.223694,59.4, 19, 0.1,0,1,882,1024,1024,1024,-22,0,0,0,71.7,-48.2,0,53,3.835,3.829,0,0,0,0,4.651,108.86,14.435696,14.435696,6,P-GPS,
546900,2025-05-01 19:11:32,-23.0258737139842,-44.2864841518998,14.435696,25.8530192,9.1207352,14.435696,19.356956,6.6437118,446.4731114,50.681760152,23,5,7.667,16.732284,16.732284,9.9320136,446.4731114,3.131716,4.697574,0,59.6, 19.8, 1.2,0,1,882,1024,1024,1024,-22,0,0,0,71.7,-47.2,0,53,3.835,3.829,0,0,0,0,4.651,108.86,14.435696,14.435696,6,P-GPS,
547000,2025-05-01 19:11:32,-23.025872449061,-44.2864822679336,14.435696,26.1482948,8.8254596,14.435696,19.356956,4.6528352,446.5551324,51.46489666,24,5,7.667,16.732284,16.732284,9.9320136,446.5551324,2.684328,3.802798,0,60.3, 25.7, 2.2,0,1,364,1024,1024,1024,-100,0,0,0,71.7,-41.2,0,53,3.835,3.829,0,0,0,0,4.651,108.86,14.435696,14.435696,6,P-GPS,
547100,2025-05-01 19:11:32,-23.0258714256165,-44.2864808565414,14.435696,26.3123368,8.6614176,14.435696,19.356956,4.6528352,446.60106416,52.068243136,24,5,7.667,16.732284,16.732284,9.9320136,446.60106416,2.013246,2.684328,0.223694,60.4, 26.8, 2.2,0,1,1024,1024,1024,1024,0,0,0,0,71.7,-40.5,0,53,3.835,3.829,0,0,0,0,4.651,108.86,14.435696,14.435696,6,P-GPS,
547200,2025-05-01 19:11:32,-23.0258707063914,-44.2864799694785,14.435696,26.3779536,8.5958008,14.435696,19.356956,2.0579848,446.60762584,52.465224776,24,5,7.667,16.732284,16.732284,9.9320136,446.60762584,1.342164,1.565858,0.223694,60.9, 26.6, 4.6,0,1,1024,1024,1024,1024,0,0,0,0,71.7,-46.6,0,53,3.835,3.829,0,0,0,0,4.651,108.86,14.435696,14.435696,6,P-GPS,
547300,2025-05-01 19:11:32,-23.0258704772107,-44.2864797148724,14.435696,26.4763788,8.4973756,14.435696,19.356956,1.11847,446.604345,52.584647352,24,5,7.667,16.732284,16.732284,9.9320136,446.60762584,0.894776,0.671082,0,60.4, 10.7, 3.9,0,1,1024,1024,1024,1024,0,0,0,0,71.7,-61.4,0,53,3.835,3.829,0,0,0,0,4.651,108.86,14.435696,14.435696,6,P-GPS,
547400,2025-05-01 19:11:32,-23.0258709390114,-44.2864805845098,14.435696,26.3123368,8.6614176,14.435696,19.356956,0.7158208,446.52888568,52.921917704,24,5,7.667,16.732284,16.732284,9.9320136,446.60762584,0.671082,0.223694,0,59.5, 3.2, 3.5,0,1,1024,1024,1024,1024,0,0,0,0,71.7,-65.6,0,53,3.835,3.829,0,0,0,0,4.651,108.86,14.435696,14.435696,6,P-GPS,
547500,2025-05-01 19:11:32,-23.0258706424001,-44.2864806749884,14.76378,26.6404208,8.6614176,14.76378,19.356956,0.447388,446.43046048,53.034122432,24,5,7.667,16.732284,16.732284,9.9320136,446.60762584,0.447388,0,0,59.3, 1.5, 3,0,1,1024,1024,1024,1024,0,0,0,0,71.7,-67.1,0,53,3.835,3.829,0,0,0,0,4.651,108.86,14.76378,14.76378,6,P-GPS,
547600,2025-05-01 19:11:32,-23.0258704132194,-44.2864808340521,14.76378,26.7716544,8.530184,14.76378,19.356956,0.447388,446.33203528,53.133531884,24,5,7.667,16.732284,16.732284,9.9320136,446.60762584,0.447388,0,0,59.2, 0, 2.9,0,1,1024,1024,1024,1024,0,0,0,0,71.7,-68.2,0,53,3.835,3.829,0,0,0,0,4.651,108.86,14.76378,14.76378,6,P-GPS,
547700,2025-05-01 19:11:32,-23.0258702069672,-44.2864810280413,14.76378,26.7716544,8.530184,14.76378,19.356956,0.447388,446.23361008,53.232941336,24,5,7.657,16.732284,16.732284,9.9320136,446.60762584,0.447388,0,0,59.4, -0.8, 3.2,0,1,1024,1024,1024,1024,0,0,0,0,71.7,-68.8,0,53,3.836,3.83,0,0,0,0,4.425,108.86,14.76378,14.76378,6,P-GPS,
547800,2025-05-01 19:11:32,-23.025869653661,-44.2864815731471,15.091864,27.0341216,8.5958008,15.091864,20.997376,0.447388,445.96130036,53.50557914,24,5,7.657,16.732284,16.732284,9.9320136,446.60762584,0.447388,0,0,59.3, -1.1, 3.4,0,1,1024,1024,1024,1024,0,0,0,0,71.7,-68.4,0,53,3.836,3.83,0,0,0,0,4.425,108.86,15.091864,15.091864,6,P-GPS,
547900,2025-05-01 19:11:33,-23.0258693532978,-44.286481801466,15.091864,27.1653552,8.4645672,15.091864,20.997376,0.4921268,445.82678592,53.639109328,24,5,7.657,16.732284,16.732284,9.9320136,446.60762584,0.447388,0.223694,0,59.3, -0.9, 3,0,1,1024,1024,1024,1024,0,0,0,0,71.7,-68.2,0,53,3.836,3.83,0,0,0,0,4.425,108.86,15.091864,15.091864,6,P-GPS,
548000,2025-05-01 19:11:33,-23.0258691029603,-44.2864820186892,15.091864,27.1653552,8.4645672,15.091864,20.997376,0.4921268,445.71195652,53.756235316,24,5,7.657,16.732284,16.732284,9.9320136,446.60762584,0.447388,0.223694,0,59.4, 0.2, 2.7,0,1,1024,1024,1024,1024,0,0,0,0,71.7,-66.7,0,53,3.836,3.83,0,0,0,0,4.425,108.86,15.091864,15.091864,6,P-GPS,
548100,2025-05-01 19:11:33,-23.0258689304756,-44.2864820222637,15.091864,27.1653552,8.4645672,15.091864,21.32546,0.4921268,445.66274392,53.81889936,24,5,7.657,16.732284,16.732284,9.9320136,446.60762584,0.447388,0.223694,0,59.5, 1.3, 2.7,0,1,1024,1024,1024,1024,0,0,0,0,71.7,-65.8,0,53,3.836,3.83,0,0,0,0,4.425,108.86,15.091864,15.091864,6,P-GPS,
548200,2025-05-01 19:11:33,-23.0258682156277,-44.2864815854343,15.419948,27.5918644,8.366142,15.419948,21.32546,0.3131716,445.5708804,54.118440052,24,5,7.657,16.732284,16.732284,9.9320136,446.60762584,0.223694,0.223694,0,59.6, 2.9, 2.6,0,1,1024,1024,1024,1024,0,0,0,0,71.7,-62,0,53,3.836,3.83,0,0,0,0,4.425,108.86,15.419948,15.419948,6,P-GPS,
548300,2025-05-01 19:11:33,-23.0258680880619,-44.2864816593811,15.419948,27.5918644,8.366142,15.419948,21.32546,0.223694,445.51838696,54.170933492,24,5,7.657,16.732284,16.732284,9.9320136,446.60762584,0.223694,0,0,59.5, 3.8, 2.1,0,1,1024,1024,1024,1024,0,0,0,0,71.7,-64.4,0,53,3.836,3.83,0,0,0,0,4.425,108.86,15.419948,15.419948,6,P-GPS,
548400,2025-05-01 19:11:33,-23.0258680142739,-44.2864818085405,15.419948,27.5918644,8.366142,15.419948,21.653544,0,445.46589352,54.228020108,24,5,7.657,16.732284,16.732284,9.9320136,446.60762584,0,0,0,59.5, 2.6, 2.1,0,1,1024,1024,1024,1024,0,0,0,0,71.7,-65.5,0,53,3.836,3.83,0,0,0,0,4.425,108.86,15.419948,15.419948,6,P-GPS,
548500,2025-05-01 19:11:33,-23.0258679593497,-44.2864820601679,15.419948,27.5918644,8.366142,15.419948,21.653544,0,445.39371504,54.314634284,24,5,7.657,16.732284,16.732284,9.9320136,446.60762584,0,0,0,59.5, 1.6, 2.2,0,1,1024,1024,1024,1297,0,0,0,41,71.8,-66.2,0,53,3.836,3.83,0,0,0,0,4.425,108.86,15.419948,15.419948,6,P-GPS,
548600,2025-05-01 19:11:33,-23.025867938193,-44.2864823086676,15.748032,27.9199484,8.366142,15.748032,21.653544,0.223694,445.33137908,54.398623788,24,5,7.657,16.732284,16.732284,9.9320136,446.60762584,0,-0.223694,0,59.5, 0.6, 2.2,0,1,1024,1024,1024,1547,0,0,0,79,71.8,-67.4,0,53,3.836,3.83,0,0,0,0,4.425,108.86,15.748032,15.748032,6,P-GPS,
548700,2025-05-01 19:11:33,-23.0258679034876,-44.286482271657,15.748032,27.9199484,8.366142,15.748032,21.653544,0.3131716,445.33137908,54.416340324,24,5,7.652,16.732284,16.732284,9.9320136,446.60762584,-0.223694,-0.223694,0,59.7, 0, 1.4,0,1,1024,1024,1122,1684,0,0,15,100,72.6,-67.7,0,53,3.835,3.827,0,0,0,0,4.647,108.86,15.748032,15.748032,6,P-GPS,
548800,2025-05-01 19:11:33,-23.0258678998399,-44.2864822971251,15.748032,27.9199484,8.366142,15.748032,21.653544,0.7158208,445.3248174,54.424870508,24,5,7.652,16.732284,16.732284,9.9320136,446.60762584,-0.223694,-0.671082,0,61.2, -1.9, 2,0,1,1024,1024,1036,1684,0,0,2,100,74.9,-70.1,0.1,53,3.835,3.827,0,0,0,0,4.647,108.86,15.748032,15.748032,6,P-GPS,
548900,2025-05-01 19:11:34,-23.0258680390783,-44.2864828205607,15.748032,27.88714,8.3989504,15.748032,21.32546,0.7158208,445.2427964,54.60794138,24,5,7.652,16.732284,16.732284,9.9320136,446.60762584,-0.223694,-0.671082,0,64.6, -3.1, 2.2,0,1,1024,1024,1024,1024,0,0,0,0,79.2,-71.2,0.1,53,3.835,3.827,0,0,0,0,4.647,108.86,15.748032,15.748032,6,P-GPS,
549000,2025-05-01 19:11:34,-23.0258681714383,-44.286483315773,15.748032,27.88714,8.3989504,15.748032,21.653544,0.9171454,445.16733708,54.781169732,24,5,7.652,16.732284,16.732284,9.9320136,446.60762584,-0.223694,-0.894776,0,69.1, -4.3, 2.3,0,1,1024,1024,1024,1024,0,0,0,0,83.9,-72.6,0.1,53,3.835,3.827,0,0,0,0,4.647,108.86,15.748032,15.748032,6,P-GPS,
549100,2025-05-01 19:11:34,-23.025867934441,-44.2864840171127,16.076116,28.1824156,8.4317588,16.076116,21.653544,0.7158208,444.94423996,55.031825908,24,5,7.652,16.732284,16.732284,9.9320136,446.60762584,-0.223694,-0.671082,0,72.9, -7.1, 3.1,0,1,1024,1024,1024,1359,0,0,0,51,86.8,-73.9,0,53,3.835,3.827,0,0,0,0,4.647,108.86,16.076116,16.076116,6,P-GPS,
549200,2025-05-01 19:11:34,-23.025868005832,-44.2864844558038,16.076116,28.1824156,8.4317588,16.076116,21.32546,0.4921268,444.86221896,55.181432212,24,5,7.652,16.732284,16.732284,9.9320136,446.60762584,-0.223694,-0.447388,0,74.7, -6.2, 2,0,1,1024,1024,1024,1684,0,0,0,100,88.1,-73.5,0,53,3.835,3.827,0,0,0,0,4.647,108.86,16.076116,16.076116,6,P-GPS,
549300,2025-05-01 19:11:34,-23.0258680974418,-44.2864848218141,16.076116,28.1167988,8.4973756,16.076116,21.32546,0.4921268,444.80644468,55.308728804,24,5,7.652,16.732284,16.732284,9.9320136,446.60762584,-0.223694,-0.447388,0,76.4, -5.7, 1.4,0,1,1024,1024,1024,1684,0,0,0,100,90.5,-73.1,0.1,53,3.835,3.827,0,0,0,0,4.647,108.86,16.076116,16.076116,6,P-GPS,
549400,2025-05-01 19:11:34,-23.0258681765451,-44.2864851206542,16.076116,28.1167988,8.4973756,16.076116,21.32546,0.447388,444.76051292,55.4133876,24,5,7.652,16.732284,16.732284,9.9320136,446.60762584,0,-0.447388,0,80.1, -5.4, 1.1,0,1,1024,1024,1024,1174,0,0,0,23,94.8,-73,0.1,53,3.835,3.827,0,0,0,0,4.647,108.86,16.076116,16.076116,6,P-GPS,
549500,2025-05-01 19:11:34,-23.0258679403816,-44.2864853264838,16.076116,28.1167988,8.4973756,16.076116,21.32546,0.3131716,444.64896436,55.523623824,24,5,7.652,16.732284,16.732284,9.9320136,446.60762584,-0.223694,-0.223694,0,84.5, -5.6, 1.1,0,1,1024,1024,1024,1641,0,0,0,93,98.7,-72.9,0.1,53,3.835,3.827,0,0,0,0,4.647,108.86,16.076116,16.076116,6,P-GPS,
