time(millisecond),datetime(utc),latitude,longitude,height_above_takeoff(feet),height_above_ground_at_drone_location(feet),ground_elevation_at_drone_location(feet),altitude_above_seaLevel(feet),height_sonar(feet),speed(mph),distance(feet),mileage(feet),satellites,gpslevel,voltage(v),max_altitude(feet),max_ascent(feet),max_speed(mph),max_distance(feet), xSpeed(mph), ySpeed(mph), zSpeed(mph), compass_heading(degrees), pitch(degrees), roll(degrees),isPhoto,isVideo,rc_elevator,rc_aileron,rc_throttle,rc_rudder,rc_elevator(percent),rc_aileron(percent),rc_throttle(percent),rc_rudder(percent),gimbal_heading(degrees),gimbal_pitch(degrees),gimbal_roll(degrees),battery_percent,voltageCell1,voltageCell2,voltageCell3,voltageCell4,voltageCell5,voltageCell6,current(A),battery_temperature(f),altitude(feet),ascent(feet),flycStateRaw,flycState,message
0,2025-05-20 04:49:06,0,0,0,,,3.28084E-5,0.328084,0,0,0,0,0,0,3.28084E-5,0,0,0,0,0,0,200.8, 0.4, -0.3,0,0,1024,1024,1024,1024,0,0,0,0,202.6,5.5,0,69,3.931,3.928,0,0,0,0,0,104.72,3.28084E-5,0,6,P-GPS,"No hay posicionamiento por satélite. Vuela con cuidado Señal de posicionamiento por satélite débil. Vuelo estacionario inestable. Vuela con cuidado (Code: 30002)"
100,2025-05-20 04:49:06,0,0,0,,,3.28084E-5,0.328084,0,0,0,0,0,0,3.28084E-5,0,0,0,0,0,0,200.8, 0.4, -0.3,0,0,1024,1024,1024,1024,0,0,0,0,202.6,5.5,0,69,3.931,3.928,0,0,0,0,0,104.72,3.28084E-5,0,6,P-GPS,
200,2025-05-20 04:49:06,0,0,0,,,3.28084E-5,0.328084,0,0,0,0,0,0,3.28084E-5,0,0,0,0,0,0,200.8, 0.4, -0.3,0,0,1024,1024,1024,1024,0,0,0,0,202.6,5.5,0,69,3.931,3.928,0,0,0,0,0,104.72,3.28084E-5,0,6,P-GPS,
300,2025-05-20 04:49:06,0,0,0,,,3.28084E-5,0.328084,0,0,0,0,0,0,3.28084E-5,0,0,0,0,0,0,200.8, 0.4, -0.3,0,0,1024,1024,1024,1024,0,0,0,0,202.6,5.5,0,69,3.931,3.928,0,0,0,0,0,104.72,3.28084E-5,0,6,P-GPS,
400,2025-05-20 04:49:06,0,0,0,,,3.28084E-5,0.328084,0,0,0,0,0,0,3.28084E-5,0,0,0,0,0,0,200.8, 0.4, -0.3,0,0,1024,1024,1024,1024,0,0,0,0,202.6,5.5,0,69,3.931,3.928,0,0,0,0,0,104.72,3.28084E-5,0,6,P-GPS,
500,2025-05-20 04:49:06,0,0,0,,,3.28084E-5,0.328084,0,0,0,0,0,0,3.28084E-5,0,0,0,0,0,0,200.8, 0.4, -0.3,0,0,1024,1024,1024,1024,0,0,0,0,202.6,5.5,0,69,3.931,3.928,0,0,0,0,0,104.72,3.28084E-5,0,6,P-GPS,
600,2025-05-20 04:49:07,0,0,0,,,3.28084E-5,0.328084,0,0,0,0,0,0,3.28084E-5,0,0,0,0,0,0,200.8, 0.4, -0.3,0,0,1024,1024,1024,1024,0,0,0,0,202.6,5.5,0,69,3.931,3.928,0,0,0,0,0,104.72,3.28084E-5,0,6,P-GPS,
700,2025-05-20 04:49:07,0,0,0,,,3.28084E-5,0.328084,0,0,0,0,0,0,3.28084E-5,0,0,0,0,0,0,200.8, 0.4, -0.3,0,0,1024,1024,1024,1024,0,0,0,0,202.6,5.5,0,69,3.931,3.928,0,0,0,0,0,104.72,3.28084E-5,0,6,P-GPS,"Setting new Return-To-Home altitude to 30m (98 ft). Data Recorder File Index is 4. Setting new Maximum Flight Altitude to 30m (98 ft)"
800,2025-05-20 04:49:07,0,0,0,,,3.28084E-5,0.328084,0,0,0,0,0,0,3.28084E-5,0,0,0,0,0,0,200.8, 0.4, -0.3,0,0,1024,1024,1024,1024,0,0,0,0,202.6,5.5,0,69,3.931,3.928,0,0,0,0,0,104.72,3.28084E-5,0,6,P-GPS,
900,2025-05-20 04:49:07,0,0,0,,,3.28084E-5,0.328084,0,0,0,0,0,0,3.28084E-5,0,0,0,0,0,0,200.8, 0.4, -0.3,0,0,1024,1024,1024,1024,0,0,0,0,202.6,5.5,0,69,3.931,3.928,0,0,0,0,0,104.72,3.28084E-5,0,6,P-GPS,
1000,2025-05-20 04:49:07,0,0,0,,,3.28084E-5,0.328084,0,0,0,0,0,0,3.28084E-5,0,0,0,0,0,0,200.8, 0.4, -0.4,0,0,1024,1024,1024,1024,0,0,0,0,202.6,5.5,0,69,3.931,3.928,0,0,0,0,0,104.72,3.28084E-5,0,6,P-GPS,
1100,2025-05-20 04:49:07,0,0,0,,,3.28084E-5,0.328084,0,0,0,0,0,7.909,3.28084E-5,0,0,0,0,0,0,200.8, 0.4, -0.4,0,0,1024,1024,1024,1024,0,0,0,0,202.6,5.5,0,69,3.931,3.928,0,0,0,0,0.537,104.72,3.28084E-5,0,6,P-GPS,
1200,2025-05-20 04:49:07,0,0,0,,,3.28084E-5,0.328084,0,0,0,0,0,7.909,3.28084E-5,0,0,0,0,0,0,200.8, 0.4, -0.4,0,0,1024,1024,1024,1024,0,0,0,0,202.6,5.5,0,69,3.931,3.928,0,0,0,0,0.537,104.72,3.28084E-5,0,6,P-GPS,
1300,2025-05-20 04:49:07,0,0,0,,,3.28084E-5,0.328084,0,0,0,0,0,7.909,3.28084E-5,0,0,0,0,0,0,200.8, 0.4, -0.4,0,0,1024,1024,1024,1024,0,0,0,0,202.6,5.5,0,69,3.931,3.928,0,0,0,0,0.537,104.72,3.28084E-5,0,6,P-GPS,
1400,2025-05-20 04:49:07,0,0,0,,,3.28084E-5,0.328084,0,0,0,0,0,7.909,3.28084E-5,0,0,0,0,0,0,200.7, 0.4, -0.4,0,0,1024,1024,1024,1024,0,0,0,0,202.6,5.5,0,69,3.931,3.928,0,0,0,0,0.537,104.72,3.28084E-5,0,6,P-GPS,
1500,2025-05-20 04:49:08,0,0,0,,,3.28084E-5,0.328084,0,0,0,0,0,7.909,3.28084E-5,0,0,0,0,0,0,200.7, 0.4, -0.4,0,0,1024,1024,1024,1024,0,0,0,0,202.6,5.5,0,69,3.931,3.928,0,0,0,0,0.537,104.72,3.28084E-5,0,6,P-GPS,
1600,2025-05-20 04:49:08,0,0,0,,,3.28084E-5,0.328084,0,0,0,0,0,7.909,3.28084E-5,0,0,0,0,0,0,200.7, 0.4, -0.4,0,0,1024,1024,1024,1024,0,0,0,0,202.6,5.5,0,69,3.931,3.928,0,0,0,0,0.537,104.72,3.28084E-5,0,6,P-GPS,
1700,2025-05-20 04:49:08,0,0,0,,,3.28084E-5,0.328084,0,0,0,0,0,7.909,3.28084E-5,0,0,0,0,0,0,200.7, 0.4, -0.4,0,0,1024,1024,1024,1024,0,0,0,0,202.6,5.5,0,69,3.931,3.928,0,0,0,0,0.537,104.72,3.28084E-5,0,6,P-GPS,
1800,2025-05-20 04:49:08,0,0,0,,,3.28084E-5,0.328084,0,0,0,0,0,7.909,3.28084E-5,0,0,0,0,0,0,200.8, 0.4, -0.4,0,0,1024,1024,1024,1024,0,0,0,0,202.6,5.5,0,69,3.931,3.928,0,0,0,0,0.537,104.72,3.28084E-5,0,6,P-GPS,
1900,2025-05-20 04:49:08,0,0,0,,,3.28084E-5,0.328084,0,0,0,0,0,7.909,3.28084E-5,0,0,0,0,0,0,200.8, 0.4, -0.4,0,0,1024,1024,1024,1024,0,0,0,0,202.6,5.5,0,69,3.931,3.928,0,0,0,0,0.537,104.72,3.28084E-5,0,6,P-GPS,
2000,2025-05-20 04:49:08,0,0,0,,,3.28084E-5,0.328084,0,0,0,0,0,7.909,3.28084E-5,0,0,0,0,0,0,200.7, 0.4, -0.4,0,0,1024,1024,1024,1024,0,0,0,0,202.6,5.5,0,69,3.931,3.928,0,0,0,0,0.537,104.72,3.28084E-5,0,6,P-GPS,
2100,2025-05-20 04:49:08,0,0,0,,,3.28084E-5,0.328084,0,0,0,0,0,7.858,3.28084E-5,0,0,0,0,0,0,200.7, 0.4, -0.4,0,0,1024,1024,1024,1024,0,0,0,0,202.6,5.5,0,69,3.946,3.943,0,0,0,0,2.106,104.72,3.28084E-5,0,6,P-GPS,
2200,2025-05-20 04:49:08,0,0,0,,,3.28084E-5,0.328084,0,0,0,0,0,7.858,3.28084E-5,0,0,0,0,0,0,200.7, 0.4, -0.4,0,0,1024,1024,1024,1024,0,0,0,0,202.7,5.5,0,69,3.946,3.943,0,0,0,0,2.106,104.72,3.28084E-5,0,6,P-GPS,
2300,2025-05-20 04:49:08,0,0,0,,,3.28084E-5,0.328084,0,0,0,0,0,7.858,3.28084E-5,0,0,0,0,0,0,200.8, 0, -0.4,0,0,1024,1024,1024,1024,0,0,0,0,202.6,5.5,0,69,3.946,3.943,0,0,0,0,2.106,104.72,3.28084E-5,0,6,P-GPS,
2400,2025-05-20 04:49:08,0,0,0,,,3.28084E-5,0.328084,0,0,0,0,0,7.858,3.28084E-5,0,0,0,0,0,-0.223694,200.7, 0, -0.2,0,0,1024,1024,1024,1024,0,0,0,0,202.6,5.5,0.5,69,3.946,3.943,0,0,0,0,2.106,104.72,3.28084E-5,0,11,AutoTakeoff,
2500,2025-05-20 04:49:08,0,0,0,,,3.28084E-5,0,0,0,0,0,0,7.858,3.28084E-5,0,0,0,0,0,-0.671082,200.8, -0.5, 0.6,0,0,1024,1024,1024,1024,0,0,0,0,202.6,5.5,1.1,69,3.946,3.943,0,0,0,0,2.106,104.72,3.28084E-5,0,11,AutoTakeoff,
2600,2025-05-20 04:49:09,0,0,0,,,3.28084E-5,0,0,0,0,0,0,7.858,3.28084E-5,0,0,0,0,0,-0.671082,200.8, -0.3, 0.7,0,0,1024,1024,1024,1024,0,0,0,0,202.6,5.5,0.3,69,3.946,3.943,0,0,0,0,2.106,104.72,3.28084E-5,0,11,AutoTakeoff,
2700,2025-05-20 04:49:09,0,0,0.328084,,,0.3281168084,0.328084,0,0,0,0,0,7.858,0.3281168084,0.328084,0,0,0,0,-0.671082,200.8, -0.4, -0.3,0,0,1024,1024,1024,1024,0,0,0,0,202.6,5.5,-0.4,69,3.946,3.943,0,0,0,0,2.106,104.72,0.3281168084,0.328084,11,AutoTakeoff,
2800,2025-05-20 04:49:09,0,0,0.328084,,,0.3281168084,0.328084,0,0,0,0,0,7.858,0.3281168084,0.328084,0,0,0,0,-0.671082,200.8, -0.1, -0.9,0,0,1024,1024,1024,1024,0,0,0,0,202.5,5.5,-0.8,69,3.946,3.943,0,0,0,0,2.106,104.72,0.3281168084,0.328084,11,AutoTakeoff,
2900,2025-05-20 04:49:09,0,0,0.328084,,,0.3281168084,0.656168,0,0,0,0,0,7.858,0.3281168084,0.328084,0,0,0,0,-0.671082,200.7, 0.1, -1.1,0,0,1024,1024,1024,1024,0,0,0,0,202.5,5.5,-0.8,69,3.946,3.943,0,0,0,0,2.106,104.72,0.3281168084,0.328084,11,AutoTakeoff,
3000,2025-05-20 04:49:09,0,0,0.656168,,,0.6562008084,0.656168,0,0,0,0,0,7.858,0.6562008084,0.656168,0,0,0,0,-0.894776,200.7, 0.4, -1.1,0,0,1024,1024,1024,1024,0,0,0,0,202.5,5.5,-0.9,69,3.946,3.943,0,0,0,0,2.106,104.72,0.6562008084,0.656168,11,AutoTakeoff,
3100,2025-05-20 04:49:09,0,0,0.656168,,,0.6562008084,0.984252,0,0,0,0,0,7.858,0.6562008084,0.656168,0,0,0,0,-0.894776,200.7, 0.5, -1.2,0,0,1024,1024,1024,1024,0,0,0,0,202.5,5.5,-0.7,69,3.946,3.943,0,0,0,0,2.106,104.72,0.6562008084,0.656168,11,AutoTakeoff,
3200,2025-05-20 04:49:09,0,0,0.984252,,,0.9842848084,0.984252,0,0,0,0,0,7.87,0.9842848084,0.984252,0,0,0,0,-0.894776,200.7, 0.3, -0.7,0,0,1024,1024,1024,1024,0,0,0,0,202.5,5.5,-0.1,69,3.878,3.875,0,0,0,0,1.557,104.72,0.9842848084,0.984252,11,AutoTakeoff,
3300,2025-05-20 04:49:09,0,0,0.984252,,,0.9842848084,1.312336,0,0,0,0,0,7.87,0.9842848084,0.984252,0,0,0,0,-0.894776,200.7, -0.1, -0.2,0,0,1024,1024,1024,1024,0,0,0,0,202.6,5.5,0,69,3.878,3.875,0,0,0,0,1.557,104.72,0.9842848084,0.984252,11,AutoTakeoff,
3400,2025-05-20 04:49:09,0,0,1.312336,,,1.3123688084,1.312336,0,0,0,0,0,7.87,1.3123688084,1.312336,0,0,0,0,-1.11847,200.7, -0.3, -0.2,0,0,1024,1024,1024,1024,0,0,0,0,202.6,5.5,0,69,3.878,3.875,0,0,0,0,1.557,104.72,1.3123688084,1.312336,11,AutoTakeoff,
3500,2025-05-20 04:49:09,0,0,1.312336,,,1.3123688084,1.64042,0,0,0,0,0,7.87,1.3123688084,1.312336,0,0,0,0,-1.11847,200.8, -0.1, -0.2,0,0,1024,1024,1024,1024,0,0,0,0,202.6,5.5,0,69,3.878,3.875,0,0,0,0,1.557,104.72,1.3123688084,1.312336,11,AutoTakeoff,
3600,2025-05-20 04:49:10,0,0,1.64042,,,1.6404528084,1.64042,0,0,0,0,0,7.87,1.6404528084,1.64042,0,0,0,0,-0.894776,200.7, 0.1, -0.2,0,0,1024,1024,1024,1024,0,0,0,0,202.5,5.5,0,69,3.878,3.875,0,0,0,0,1.557,104.72,1.6404528084,1.64042,6,P-GPS,
3700,2025-05-20 04:49:10,0,0,1.64042,,,1.6404528084,1.64042,0,0,0,0,0,7.87,1.6404528084,1.64042,0,0,0,0,-0.447388,200.7, 0.2, -0.2,0,0,1024,1024,1024,1024,0,0,0,0,202.5,5.5,0,69,3.878,3.875,0,0,0,0,1.557,104.72,1.6404528084,1.64042,6,P-GPS,
3800,2025-05-20 04:49:10,0,0,1.64042,,,1.6404528084,1.64042,0,0,0,0,0,7.87,1.6404528084,1.64042,0,0,0,0,-0.223694,200.7, 0.3, -0.1,0,0,1024,1024,1024,1024,0,0,0,0,202.6,5.5,0,69,3.878,3.875,0,0,0,0,1.557,104.72,1.6404528084,1.64042,6,P-GPS,
3900,2025-05-20 04:49:10,0,0,1.64042,,,1.6404528084,1.64042,0,0,0,0,0,7.87,1.6404528084,1.64042,0,0,0,0,0,200.8, 0.3, -0.2,0,0,1024,1024,1024,1024,0,0,0,0,202.6,5.5,0,69,3.878,3.875,0,0,0,0,1.557,104.72,1.6404528084,1.64042,6,P-GPS,
4000,2025-05-20 04:49:10,0,0,1.64042,,,1.6404528084,1.64042,0,0,0,0,0,7.87,1.6404528084,1.64042,0,0,0,0,0,200.8, 0.4, -0.1,0,0,1024,1024,1024,1024,0,0,0,0,202.6,5.5,0,69,3.878,3.875,0,0,0,0,1.557,104.72,1.6404528084,1.64042,6,P-GPS,
4100,2025-05-20 04:49:10,0,0,1.64042,,,1.6404528084,1.64042,0,0,0,0,0,7.752,1.6404528084,1.64042,0,0,0,0,0,200.8, 0.5, -0.2,0,0,1024,1024,1024,1024,0,0,0,0,202.6,5.5,0,69,3.88,3.877,0,0,0,0,5.141,104.72,1.6404528084,1.64042,6,P-GPS,
4200,2025-05-20 04:49:10,0,0,1.64042,,,1.6404528084,1.64042,0,0,0,0,0,7.752,1.6404528084,1.64042,0,0,0,0,0,200.7, 0.7, -0.2,0,0,1024,1024,1024,1024,0,0,0,0,202.6,5.5,0,69,3.88,3.877,0,0,0,0,5.141,104.72,1.6404528084,1.64042,6,P-GPS,
4300,2025-05-20 04:49:10,0,0,1.64042,,,1.6404528084,1.64042,0,0,0,0,0,7.752,1.6404528084,1.64042,0,0,0,0,0,200.7, 0.9, -0.3,0,0,1024,1024,1024,1024,0,0,0,0,202.5,5.5,0,69,3.88,3.877,0,0,0,0,5.141,104.72,1.6404528084,1.64042,6,P-GPS,
4400,2025-05-20 04:49:10,0,0,1.64042,,,1.6404528084,1.64042,0,0,0,0,0,7.752,1.6404528084,1.64042,0,0,0,0,0,200.7, 1, -0.4,0,0,1024,1024,1024,1024,0,0,0,0,202.5,5.5,-0.4,69,3.88,3.877,0,0,0,0,5.141,104.72,1.6404528084,1.64042,6,P-GPS,
4500,2025-05-20 04:49:11,0,0,1.64042,,,1.6404528084,1.64042,0,0,0,0,0,7.752,1.6404528084,1.64042,0,0,0,0,0,200.7, 1.1, -0.8,0,0,1024,1024,1024,1024,0,0,0,0,202.6,5.5,-0.7,69,3.88,3.877,0,0,0,0,5.141,104.72,1.6404528084,1.64042,6,P-GPS,
4600,2025-05-20 04:49:11,0,0,1.64042,,,1.6404528084,1.64042,0,0,0,0,0,7.752,1.6404528084,1.64042,0,0,0,0,0,200.7, 1, -1,0,0,1024,1024,1024,1024,0,0,0,0,202.6,5.5,-0.7,69,3.88,3.877,0,0,0,0,5.141,104.72,1.6404528084,1.64042,6,P-GPS,
4700,2025-05-20 04:49:11,0,0,1.64042,,,1.6404528084,1.64042,0,0,0,0,0,7.752,1.6404528084,1.64042,0,0,0,0,0,200.7, 0.7, -0.9,0,0,1024,1024,1024,1024,0,0,0,0,202.6,5.5,-0.5,69,3.88,3.877,0,0,0,0,5.141,104.72,1.6404528084,1.64042,6,P-GPS,
4800,2025-05-20 04:49:11,0,0,1.64042,,,1.6404528084,1.64042,0,0,0,0,0,7.752,1.6404528084,1.64042,0,0,0,0,0,200.8, 0.5, -0.7,0,0,1024,1024,1024,1024,0,0,0,0,202.7,5.5,-0.6,69,3.88,3.877,0,0,0,0,5.141,104.72,1.6404528084,1.64042,6,P-GPS,
4900,2025-05-20 04:49:11,0,0,1.64042,,,1.6404528084,1.64042,0,0,0,0,0,7.752,1.6404528084,1.64042,0,0,0,0,0,200.8, 0.2, -0.9,0,0,1024,1024,1024,1024,0,0,0,0,202.7,5.5,-0.5,69,3.88,3.877,0,0,0,0,5.141,104.72,1.6404528084,1.64042,6,P-GPS,
5000,2025-05-20 04:49:11,0,0,1.64042,,,1.6404528084,1.64042,0,0,0,0,0,7.752,1.6404528084,1.64042,0,0,0,0,0,200.8, 0, -0.5,0,0,1024,1024,1024,1024,0,0,0,0,202.6,5.5,0.1,69,3.88,3.877,0,0,0,0,5.141,104.72,1.6404528084,1.64042,6,P-GPS,
5100,2025-05-20 04:49:11,0,0,1.64042,,,1.6404528084,1.64042,0,0,0,0,0,7.747,1.6404528084,1.64042,0,0,0,0,0,200.7, 0, 0.2,0,0,1024,1024,1024,1024,0,0,0,0,202.5,5.5,0.4,69,3.868,3.863,0,0,0,0,4.797,104.72,1.6404528084,1.64042,6,P-GPS,
5200,2025-05-20 04:49:11,0,0,1.64042,,,1.6404528084,1.64042,0,0,0,0,0,7.747,1.6404528084,1.64042,0,0,0,0,0,200.7, 0, 0,0,0,1024,1024,1024,1024,0,0,0,0,202.5,5.5,0.4,69,3.868,3.863,0,0,0,0,4.797,104.72,1.6404528084,1.64042,6,P-GPS,
5300,2025-05-20 04:49:11,0,0,1.64042,,,1.6404528084,1.64042,0,0,0,0,0,7.747,1.6404528084,1.64042,0,0,0,0,0,200.8, 0.1, -0.4,0,0,1024,1024,1024,1024,0,0,0,0,202.6,5.5,0,69,3.868,3.863,0,0,0,0,4.797,104.72,1.6404528084,1.64042,6,P-GPS,
5400,2025-05-20 04:49:11,0,0,1.64042,,,1.6404528084,1.64042,0,0,0,0,0,7.747,1.6404528084,1.64042,0,0,0,0,0,200.8, -0.1, -0.3,0,0,1024,1024,1024,1024,0,0,0,0,202.6,5.5,0,69,3.868,3.863,0,0,0,0,4.797,104.72,1.6404528084,1.64042,6,P-GPS,
5500,2025-05-20 04:49:11,0,0,1.64042,,,1.6404528084,1.64042,0,0,0,0,0,7.747,1.6404528084,1.64042,0,0,0,0,0,200.7, -0.2, -0.3,0,0,1684,1024,1024,1024,100,0,0,0,202.6,5.5,-0.5,69,3.868,3.863,0,0,0,0,4.797,104.72,1.6404528084,1.64042,6,P-GPS,
5600,2025-05-20 04:49:12,0,0,1.64042,,,1.6404528084,1.64042,0,0,0,0,0,7.747,1.6404528084,1.64042,0,0,0,0,0,200.7, 0, -0.7,0,0,1024,1024,1024,1024,0,0,0,0,202.6,5.5,-0.5,69,3.868,3.863,0,0,0,0,4.797,104.72,1.6404528084,1.64042,6,P-GPS,
5700,2025-05-20 04:49:12,0,0,1.64042,,,1.6404528084,1.64042,0,0,0,0,0,7.747,1.6404528084,1.64042,0,0,0,0,0,200.7, -0.3, 0,0,0,1024,1024,1024,1024,0,0,0,0,202.6,5.5,0.4,69,3.868,3.863,0,0,0,0,4.797,104.72,1.6404528084,1.64042,6,P-GPS,
5800,2025-05-20 04:49:12,0,0,1.64042,,,1.6404528084,1.64042,0,0,0,0,0,7.747,1.6404528084,1.64042,0,0,0,0,0,200.7, -2.8, 0.1,0,0,1024,1024,1024,1024,0,0,0,0,202.5,5.5,0.3,69,3.868,3.863,0,0,0,0,4.797,104.72,1.6404528084,1.64042,6,P-GPS,
5900,2025-05-20 04:49:12,0,0,1.64042,,,1.6404528084,1.64042,0,0,0,0,0,7.747,1.6404528084,1.64042,0,0,0,0,0,200.6, 0, -0.2,0,0,1684,1024,1024,1024,100,0,0,0,202.5,5.5,-0.1,69,3.868,3.863,0,0,0,0,4.797,104.72,1.6404528084,1.64042,6,P-GPS,
6000,2025-05-20 04:49:12,0,0,1.64042,,,1.6404528084,1.64042,0,0,0,0,0,7.747,1.6404528084,1.64042,0,0,0,0,0,200.7, 0.6, -0.4,0,0,1684,1024,1024,1024,100,0,0,0,202.6,5.5,0,69,3.868,3.863,0,0,0,0,4.797,104.72,1.6404528084,1.64042,6,P-GPS,Volando
6100,2025-05-20 04:49:12,0,0,1.64042,,,1.6404528084,1.64042,0,0,0,0,0,7.731,1.6404528084,1.64042,0,0,0,0,0,200.8, -0.2, -0.1,0,0,1024,1024,1024,1024,0,0,0,0,202.7,5.5,0.1,69,3.863,3.859,0,0,0,0,4.976,105.08,1.6404528084,1.64042,6,P-GPS,
6200,2025-05-20 04:49:12,0,0,1.64042,,,1.6404528084,1.64042,0,0,0,0,0,7.731,1.6404528084,1.64042,0,0,0,0,0,200.8, -2.6, 0,0,0,1024,1024,1024,1024,0,0,0,0,202.6,5.5,0,69,3.863,3.859,0,0,0,0,4.976,105.08,1.6404528084,1.64042,6,P-GPS,
6300,2025-05-20 04:49:12,0,0,1.64042,,,1.6404528084,1.64042,0.223694,0,0,0,0,7.731,1.6404528084,1.64042,0,0,-0.223694,0,0,200.7, -0.6, -0.1,0,0,1024,1024,1024,1024,0,0,0,0,202.6,5.5,0,69,3.863,3.859,0,0,0,0,4.976,105.08,1.6404528084,1.64042,6,P-GPS,
6400,2025-05-20 04:49:12,0,0,1.64042,,,1.6404528084,1.64042,0.223694,0,0,0,0,7.731,1.6404528084,1.64042,0,0,-0.223694,0,0,200.6, -2.7, -0.4,0,0,1684,1024,1024,1024,100,0,0,0,202.4,5.5,-0.2,69,3.863,3.859,0,0,0,0,4.976,105.08,1.6404528084,1.64042,6,P-GPS,
6500,2025-05-20 04:49:13,0,0,1.64042,,,1.6404528084,1.64042,0.223694,0,0,0,0,7.731,1.6404528084,1.64042,0,0,-0.223694,0,0,200.5, 0.2, -0.4,0,0,1684,1024,1024,1024,100,0,0,0,202.5,5.5,-0.2,69,3.863,3.859,0,0,0,0,4.976,105.08,1.6404528084,1.64042,6,P-GPS,
6600,2025-05-20 04:49:13,0,0,1.64042,,,1.6404528084,1.64042,0.223694,0,0,0,0,7.731,1.6404528084,1.64042,0,0,-0.223694,0,0,200.7, 0.3, -0.5,0,0,1024,1024,1024,1024,0,0,0,0,202.8,5.5,0,69,3.863,3.859,0,0,0,0,4.976,105.08,1.6404528084,1.64042,6,P-GPS,
6700,2025-05-20 04:49:13,0,0,1.64042,,,1.6404528084,1.64042,0.223694,0,0,0,0,7.731,1.6404528084,1.64042,0,0,-0.223694,0,0,200.9, -3.6, -0.1,0,0,1024,1024,1024,1024,0,0,0,0,202.9,5.5,0.3,69,3.863,3.859,0,0,0,0,4.976,105.08,1.6404528084,1.64042,6,P-GPS,
6800,2025-05-20 04:49:13,0,0,1.64042,,,1.6404528084,1.64042,0.447388,0,0,0,0,7.731,1.6404528084,1.64042,0,0,-0.447388,0,0,200.9, -4.5, 0.1,0,0,1024,1024,1024,1024,0,0,0,0,202.8,5.5,0.6,69,3.863,3.859,0,0,0,0,4.976,105.08,1.6404528084,1.64042,6,P-GPS,
6900,2025-05-20 04:49:13,0,0,1.64042,,,1.6404528084,1.64042,0.447388,0,0,0,0,7.731,1.6404528084,1.64042,0,0,-0.447388,0,0,200.8, 0, 0.3,0,0,1024,1024,1024,1024,0,0,0,0,202.7,5.5,0.4,69,3.863,3.859,0,0,0,0,4.976,105.08,1.6404528084,1.64042,6,P-GPS,
7000,2025-05-20 04:49:13,0,0,1.64042,,,1.6404528084,1.64042,0.447388,0,0,0,0,7.731,1.6404528084,1.64042,0,0,-0.447388,0,0,200.8, 0.4, 0,0,0,1024,1024,1024,1024,0,0,0,0,202.8,5.5,0.5,69,3.863,3.859,0,0,0,0,4.976,105.08,1.6404528084,1.64042,6,P-GPS,
7100,2025-05-20 04:49:13,0,0,1.64042,,,1.6404528084,1.64042,0.447388,0,0,0,0,7.731,1.6404528084,1.64042,0,0,-0.447388,0,0,200.9, 0.8, 0.3,0,0,1024,1024,1024,1024,0,0,0,0,202.8,5.5,0.6,69,3.863,3.859,0,0,0,0,4.976,105.08,1.6404528084,1.64042,6,P-GPS,
7200,2025-05-20 04:49:13,0,0,1.64042,,,1.6404528084,1.64042,0.4921268,0,0,0,0,7.713,1.6404528084,1.64042,0,0,-0.447388,-0.223694,0,200.9, 1.5, 0.2,0,0,1024,1024,1024,1024,0,0,0,0,202.8,5.5,0.4,68,3.858,3.855,0,0,0,0,4.987,105.08,1.6404528084,1.64042,6,P-GPS,
7300,2025-05-20 04:49:13,0,0,1.64042,,,1.6404528084,1.64042,0.447388,0,0,0,0,7.713,1.6404528084,1.64042,0,0,-0.447388,0,0,200.9, 1.8, 0,0,0,1024,1024,1024,1024,0,0,0,0,202.7,5.5,0.2,68,3.858,3.855,0,0,0,0,4.987,105.08,1.6404528084,1.64042,6,P-GPS,
7400,2025-05-20 04:49:13,0,0,1.64042,,,1.6404528084,1.64042,0.223694,0,0,0,0,7.713,1.6404528084,1.64042,0,0,-0.223694,0,0,200.7, 1.8, -0.2,0,0,1024,1024,1024,1024,0,0,0,0,202.5,5.5,-0.2,68,3.858,3.855,0,0,0,0,4.987,105.08,1.6404528084,1.64042,6,P-GPS,
7500,2025-05-20 04:49:13,0,0,1.64042,,,1.6404528084,1.64042,0.223694,0,0,0,0,7.713,1.6404528084,1.64042,0,0,-0.223694,0,0,200.5, 1.7, -1,0,0,364,1024,1024,1024,-100,0,0,0,202.5,5.5,-0.6,68,3.858,3.855,0,0,0,0,4.987,105.08,1.6404528084,1.64042,6,P-GPS,
7600,2025-05-20 04:49:14,0,0,1.64042,,,1.6404528084,1.64042,0,0,0,0,0,7.713,1.6404528084,1.64042,0,0,0,0,0,200.6, 2.9, -0.7,0,0,364,1024,1024,1024,-100,0,0,0,202.6,5.5,0.3,68,3.858,3.855,0,0,0,0,4.987,105.08,1.6404528084,1.64042,6,P-GPS,
7700,2025-05-20 04:49:14,0,0,1.64042,,,1.6404528084,1.64042,0,0,0,0,0,7.713,1.6404528084,1.64042,0,0,0,0,0,200.7, 2.9, 0.1,0,0,364,1024,1024,1024,-100,0,0,0,202.7,5.5,0.6,68,3.858,3.855,0,0,0,0,4.987,105.08,1.6404528084,1.64042,6,P-GPS,
7800,2025-05-20 04:49:14,0,0,1.64042,,,1.6404528084,1.64042,0,0,0,0,0,7.713,1.6404528084,1.64042,0,0,0,0,0,200.9, 6.1, -0.2,0,0,364,1024,1024,1024,-100,0,0,0,202.8,5.5,0,68,3.858,3.855,0,0,0,0,4.987,105.08,1.6404528084,1.64042,6,P-GPS,
7900,2025-05-20 04:49:14,0,0,1.64042,,,1.6404528084,1.64042,0.223694,0,0,0,0,7.713,1.6404528084,1.64042,0,0,0.223694,0,0,200.9, 6.7, -0.6,0,0,364,1024,1024,1024,-100,0,0,0,202.8,5.5,-0.1,68,3.858,3.855,0,0,0,0,4.987,105.08,1.6404528084,1.64042,6,P-GPS,
8000,2025-05-20 04:49:14,0,0,1.64042,,,1.6404528084,1.64042,0.447388,0,0,0,0,7.713,1.6404528084,1.64042,0,0,0.447388,0,0,200.9, 6.4, -0.6,0,0,364,1024,1024,1024,-100,0,0,0,202.7,5.5,-0.1,68,3.858,3.855,0,0,0,0,4.987,105.08,1.6404528084,1.64042,6,P-GPS,
8100,2025-05-20 04:49:14,0,0,1.64042,,,1.6404528084,1.64042,0.7158208,0,0,0,0,7.713,1.6404528084,1.64042,0,0,0.671082,0.223694,0,200.7, 6, -0.6,0,0,364,1024,1024,1024,-100,0,0,0,202.6,5.5,0,68,3.85,3.846,0,0,0,0,4.987,105.08,1.6404528084,1.64042,6,P-GPS,
8200,2025-05-20 04:49:14,0,0,1.64042,,,1.6404528084,1.64042,0.9171454,0,0,0,0,7.713,1.6404528084,1.64042,0,0,0.894776,0.223694,0,200.6, 6, -0.2,0,0,364,1024,1024,1024,-100,0,0,0,202.4,5.5,1,68,3.85,3.846,0,0,0,0,4.987,105.08,1.6404528084,1.64042,6,P-GPS,
8300,2025-05-20 04:49:14,0,0,1.64042,,,1.6404528084,1.64042,1.006623,0,0,0,0,7.713,1.6404528084,1.64042,0,0,0.894776,0.447388,0,200.6, 5.9, 1.2,0,0,1024,1024,1024,1024,0,0,0,0,202.3,5.5,2.1,68,3.85,3.846,0,0,0,0,4.987,105.08,1.6404528084,1.64042,6,P-GPS,
8400,2025-05-20 04:49:14,0,0,1.64042,,,1.6404528084,1.64042,1.2079476,0,0,0,0,7.713,1.6404528084,1.64042,0,0,1.11847,0.447388,0,200.6, 5.7, 1.5,0,0,1024,1024,1024,1024,0,0,0,0,202.5,5.5,1.3,68,3.85,3.846,0,0,0,0,4.987,105.08,1.6404528084,1.64042,6,P-GPS,
8500,2025-05-20 04:49:15,0,0,1.64042,,,1.6404528084,1.64042,1.4092722,0,0,0,0,7.713,1.6404528084,1.64042,0,0,1.342164,0.447388,0,200.7, 4.9, 0.1,0,0,1024,1024,1024,1024,0,0,0,0,202.7,5.5,-0.2,68,3.85,3.846,0,0,0,0,4.987,105.08,1.6404528084,1.64042,6,P-GPS,
8600,2025-05-20 04:49:15,0,0,1.64042,,,1.6404528084,1.64042,1.3645334,0,0,0,0,7.713,1.6404528084,1.64042,0,0,1.342164,0.223694,0,200.8, 0.1, -0.8,0,0,1024,1024,1024,1024,0,0,0,0,202.7,5.5,-0.8,68,3.85,3.846,0,0,0,0,4.987,105.08,1.6404528084,1.64042,6,P-GPS,
8700,2025-05-20 04:49:15,0,0,1.64042,,,1.6404528084,1.64042,1.3645334,0,0,0,0,7.713,1.6404528084,1.64042,0,0,1.342164,0.223694,0,200.8, -0.7, -1.3,0,0,1024,1024,1024,1024,0,0,0,0,202.8,5.5,-1.4,68,3.85,3.846,0,0,0,0,4.987,105.08,1.6404528084,1.64042,6,P-GPS,
8800,2025-05-20 04:49:15,0,0,1.64042,,,1.6404528084,1.64042,1.3645334,0,0,0,0,7.713,1.6404528084,1.64042,0,0,1.342164,0.223694,0,200.8, -1.2, -1.9,0,0,1024,1024,1024,1024,0,0,0,0,202.6,5.5,-1.2,68,3.85,3.846,0,0,0,0,4.987,105.08,1.6404528084,1.64042,6,P-GPS,
8900,2025-05-20 04:49:15,0,0,1.64042,,,1.6404528084,1.64042,1.1408394,0,0,0,0,7.713,1.6404528084,1.64042,0,0,1.11847,0.223694,0,200.6, -2.1, -1,0,0,1024,1024,1024,1024,0,0,0,0,202.5,5.5,0,68,3.85,3.846,0,0,0,0,4.987,105.08,1.6404528084,1.64042,6,P-GPS,
9000,2025-05-20 04:49:15,0,0,1.64042,,,1.6404528084,1.64042,0.9171454,0,0,0,0,7.713,1.6404528084,1.64042,0,0,0.894776,0.223694,0,200.5, -2.7, 0.2,0,0,1024,1024,1024,1024,0,0,0,0,202.5,5.5,0.6,68,3.85,3.846,0,0,0,0,4.987,105.08,1.6404528084,1.64042,6,P-GPS,
9100,2025-05-20 04:49:15,0,0,1.64042,,,1.6404528084,1.64042,0.7158208,0,0,0,0,7.696,1.6404528084,1.64042,0,0,0.671082,0.223694,0,200.5, -2.8, 0.1,0,0,1024,1024,1024,1024,0,0,0,0,202.5,5.5,0.3,68,3.848,3.845,0,0,0,0,5.17,105.08,1.6404528084,1.64042,6,P-GPS,
9200,2025-05-20 04:49:15,0,0,1.64042,,,1.6404528084,1.64042,0.7158208,0,0,0,0,7.696,1.6404528084,1.64042,0,0,0.671082,0.223694,0,200.5, -2.7, -0.1,0,0,1024,1024,1024,1024,0,0,0,0,202.5,5.5,0,68,3.848,3.845,0,0,0,0,5.17,105.08,1.6404528084,1.64042,6,P-GPS,
9300,2025-05-20 04:49:15,0,0,1.64042,,,1.6404528084,1.64042,0.4921268,0,0,0,0,7.696,1.6404528084,1.64042,0,0,0.447388,0.223694,0,200.6, -2.3, 0,0,0,1024,1024,1024,1024,0,0,0,0,202.7,5.5,0.3,68,3.848,3.845,0,0,0,0,5.17,105.08,1.6404528084,1.64042,6,P-GPS,
9400,2025-05-20 04:49:15,0,0,1.64042,,,1.6404528084,1.64042,0.223694,0,0,0,0,7.696,1.6404528084,1.64042,0,0,0.223694,0,0,200.8, -1.8, 0.1,0,0,1024,1024,1024,1024,0,0,0,0,202.8,5.5,0.4,68,3.848,3.845,0,0,0,0,5.17,105.08,1.6404528084,1.64042,6,P-GPS,
9500,2025-05-20 04:49:15,0,0,1.64042,,,1.6404528084,1.64042,0.223694,0,0,0,0,7.696,1.6404528084,1.64042,0,0,0.223694,0,0,200.9, -1.4, 0.1,0,0,1024,1024,1024,1024,0,0,0,0,203,5.5,0.4,68,3.848,3.845,0,0,0,0,5.17,105.08,1.6404528084,1.64042,6,P-GPS,
9600,2025-05-20 04:49:16,0,0,1.64042,,,1.6404528084,1.64042,0,0,0,0,0,7.696,1.6404528084,1.64042,0,0,0,0,0,201, -1, 0.1,0,0,1024,364,1024,1024,0,-100,0,0,202.9,5.5,0.2,68,3.848,3.845,0,0,0,0,5.17,105.08,1.6404528084,1.64042,6,P-GPS,
9700,2025-05-20 04:49:16,0,0,1.64042,,,1.6404528084,1.64042,0,0,0,0,0,7.696,1.6404528084,1.64042,0,0,0,0,0,200.9, -0.9, 0,0,0,1024,1024,1024,1024,0,0,0,0,202.9,5.5,0.5,68,3.848,3.845,0,0,0,0,5.17,105.08,1.6404528084,1.64042,6,P-GPS,
9800,2025-05-20 04:49:16,0,0,1.64042,,,1.6404528084,1.64042,0,0,0,0,0,7.696,1.6404528084,1.64042,0,0,0,0,0,201, -0.8, -0.7,0,0,1024,1024,1024,1024,0,0,0,0,202.8,5.5,-2.7,68,3.848,3.845,0,0,0,0,5.17,105.08,1.6404528084,1.64042,6,P-GPS,
9900,2025-05-20 04:49:16,0,0,1.64042,,,1.6404528084,1.64042,0,0,0,0,0,7.696,1.6404528084,1.64042,0,0,0,0,0,200.8, -0.4, -2.7,0,0,1024,1024,1024,1024,0,0,0,0,202.7,5.5,0.1,68,3.848,3.845,0,0,0,0,5.17,105.08,1.6404528084,1.64042,6,P-GPS,
10000,2025-05-20 04:49:16,0,0,1.64042,,,1.6404528084,1.64042,0,0,0,0,0,7.696,1.6404528084,1.64042,0,0,0,0,0,200.7, 0, 0.6,0,0,1024,1024,1024,1024,0,0,0,0,202.6,5.5,1,68,3.848,3.845,0,0,0,0,5.17,105.08,1.6404528084,1.64042,6,P-GPS,
10100,2025-05-20 04:49:16,0,0,1.64042,,,1.6404528084,1.64042,0,0,0,0,0,7.693,1.6404528084,1.64042,0,0,0,0,0,200.7, 0.1, 0.4,0,0,1024,1024,1024,1024,0,0,0,0,202.6,5.5,0.6,68,3.844,3.842,0,0,0,0,5.035,105.08,1.6404528084,1.64042,6,P-GPS,
10200,2025-05-20 04:49:16,0,0,1.64042,,,1.6404528084,1.64042,0,0,0,0,0,7.693,1.6404528084,1.64042,0,0,0,0,0,200.6, 0, 0.1,0,0,1024,1024,1024,1024,0,0,0,0,202.5,5.5,0.2,68,3.844,3.842,0,0,0,0,5.035,105.08,1.6404528084,1.64042,6,P-GPS,
10300,2025-05-20 04:49:16,0,0,1.64042,,,1.6404528084,1.64042,0,0,0,0,0,7.693,1.6404528084,1.64042,0,0,0,0,0,200.6, 0, -0.2,0,0,1024,1024,1024,1024,0,0,0,0,202.5,5.5,-0.1,68,3.844,3.842,0,0,0,0,5.035,105.08,1.6404528084,1.64042,6,P-GPS,
10400,2025-05-20 04:49:16,0,0,1.64042,,,1.6404528084,1.64042,0,0,0,0,0,7.693,1.6404528084,1.64042,0,0,0,0,0,200.6, 0.2, -0.4,0,0,1024,1024,1024,1024,0,0,0,0,202.6,5.5,0,68,3.844,3.842,0,0,0,0,5.035,105.08,1.6404528084,1.64042,6,P-GPS,
10500,2025-05-20 04:49:16,0,0,1.64042,,,1.6404528084,1.64042,0,0,0,0,0,7.693,1.6404528084,1.64042,0,0,0,0,0,200.7, 0.2, -0.2,0,0,1024,1024,1024,1024,0,0,0,0,202.7,5.5,0.2,68,3.844,3.842,0,0,0,0,5.035,105.08,1.6404528084,1.64042,6,P-GPS,
10600,2025-05-20 04:49:17,0,0,1.64042,,,1.6404528084,1.64042,0,0,0,0,0,7.693,1.6404528084,1.64042,0,0,0,0,0,200.8, 0.3, 0.1,0,0,1024,1024,1024,1024,0,0,0,0,202.7,5.5,0.9,68,3.844,3.842,0,0,0,0,5.035,105.08,1.6404528084,1.64042,6,P-GPS,
10700,2025-05-20 04:49:17,0,0,1.64042,,,1.6404528084,1.64042,0,0,0,0,0,7.693,1.6404528084,1.64042,0,0,0,0,0,200.8, 0.2, 0.7,0,0,1024,1024,1024,1024,0,0,0,0,202.7,5.5,0.8,68,3.844,3.842,0,0,0,0,5.035,105.08,1.6404528084,1.64042,6,P-GPS,
10800,2025-05-20 04:49:17,0,0,1.64042,,,1.6404528084,1.64042,0,0,0,0,0,7.693,1.6404528084,1.64042,0,0,0,0,0,200.7, 0.2, 0.1,0,0,1024,1024,1024,1024,0,0,0,0,202.6,5.5,0,68,3.844,3.842,0,0,0,0,5.035,105.08,1.6404528084,1.64042,6,P-GPS,
10900,2025-05-20 04:49:17,0,0,1.64042,,,1.6404528084,1.64042,0,0,0,0,0,7.693,1.6404528084,1.64042,0,0,0,0,0,200.7, 0.4, -0.6,0,0,1024,1024,1024,1024,0,0,0,0,202.6,5.5,-0.6,68,3.844,3.842,0,0,0,0,5.035,105.08,1.6404528084,1.64042,6,P-GPS,
11000,2025-05-20 04:49:17,0,0,1.64042,,,1.6404528084,1.64042,0,0,0,0,0,7.693,1.6404528084,1.64042,0,0,0,0,0,200.7, 0.5, -1.1,0,0,1024,1024,1024,1024,0,0,0,0,202.6,5.5,-1,68,3.844,3.842,0,0,0,0,5.035,105.08,1.6404528084,1.64042,6,P-GPS,
11100,2025-05-20 04:49:17,0,0,1.64042,,,1.6404528084,1.64042,0,0,0,0,0,7.686,1.6404528084,1.64042,0,0,0,0,0,200.8, 0.7, -1.4,0,0,1024,1684,1024,1024,0,100,0,0,202.6,5.5,-1,68,3.843,3.839,0,0,0,0,5.056,105.26,1.6404528084,1.64042,6,P-GPS,
11200,2025-05-20 04:49:17,0,0,1.64042,,,1.6404528084,1.64042,0,0,0,0,0,7.686,1.6404528084,1.64042,0,0,0,0,0,200.8, 1, -1.3,0,0,1024,1024,1024,1024,0,0,0,0,202.6,5.5,-0.8,68,3.843,3.839,0,0,0,0,5.056,105.26,1.6404528084,1.64042,6,P-GPS,
11300,2025-05-20 04:49:17,0,0,1.64042,,,1.6404528084,1.64042,0,0,0,0,0,7.686,1.6404528084,1.64042,0,0,0,0,0,200.8, 1, -1.1,0,0,1024,1024,1024,1024,0,0,0,0,202.6,5.5,1.2,68,3.843,3.839,0,0,0,0,5.056,105.26,1.6404528084,1.64042,6,P-GPS,
11400,2025-05-20 04:49:17,0,0,1.64042,,,1.6404528084,1.64042,0,0,0,0,0,7.686,1.6404528084,1.64042,0,0,0,0,0,200.7, 1.1, 2.5,0,0,1024,1024,1024,1024,0,0,0,0,202.4,5.5,1.7,68,3.843,3.839,0,0,0,0,5.056,105.26,1.6404528084,1.64042,6,P-GPS,
11500,2025-05-20 04:49:18,0,0,1.64042,,,1.6404528084,1.64042,0,0,0,0,0,7.686,1.6404528084,1.64042,0,0,0,0,0,200.6, 1.1, 0.2,0,0,1024,1024,1024,1024,0,0,0,0,202.3,5.5,0,68,3.843,3.839,0,0,0,0,5.056,105.26,1.6404528084,1.64042,6,P-GPS,
11600,2025-05-20 04:49:18,0,0,1.64042,,,1.6404528084,1.64042,0,0,0,0,0,7.686,1.6404528084,1.64042,0,0,0,0,0,200.6, 1.2, -0.4,0,0,1024,1024,1024,1024,0,0,0,0,202.5,5.5,0.1,68,3.843,3.839,0,0,0,0,5.056,105.26,1.6404528084,1.64042,6,P-GPS,
11700,2025-05-20 04:49:18,0,0,1.64042,,,1.6404528084,1.64042,0,0,0,0,0,7.686,1.6404528084,1.64042,0,0,0,0,0,200.7, 1.1, -0.1,0,0,1024,1024,1024,1024,0,0,0,0,202.4,5.5,0.5,68,3.843,3.839,0,0,0,0,5.056,105.26,1.6404528084,1.64042,6,P-GPS,
11800,2025-05-20 04:49:18,0,0,1.64042,,,1.6404528084,1.64042,0,0,0,0,0,7.686,1.6404528084,1.64042,0,0,0,0,0,200.5, 1.1, 0.4,0,0,1024,1024,1024,1024,0,0,0,0,202.3,5.5,1,68,3.843,3.839,0,0,0,0,5.056,105.26,1.6404528084,1.64042,6,P-GPS,
11900,2025-05-20 04:49:18,0,0,1.64042,,,1.6404528084,1.64042,0,0,0,0,0,7.686,1.6404528084,1.64042,0,0,0,0,0,200.6, 1.1, 0.6,0,0,1024,1024,1024,1024,0,0,0,0,202.4,5.5,0.7,68,3.843,3.839,0,0,0,0,5.056,105.26,1.6404528084,1.64042,6,P-GPS,
12000,2025-05-20 04:49:18,0,0,1.64042,,,1.6404528084,1.64042,0,0,0,0,0,7.686,1.6404528084,1.64042,0,0,0,0,0,200.8, 1.2, 0,0,0,1024,1024,1024,1024,0,0,0,0,202.5,5.5,-0.3,68,3.843,3.839,0,0,0,0,5.056,105.26,1.6404528084,1.64042,6,P-GPS,
12100,2025-05-20 04:49:18,0,0,1.64042,,,1.6404528084,1.64042,0,0,0,0,0,7.682,1.6404528084,1.64042,0,0,0,0,0,200.8, 1.3, -1,0,0,1024,1024,1024,364,0,0,0,-100,202.5,5.5,-0.6,68,3.839,3.835,0,0,0,0,4.961,105.44,1.6404528084,1.64042,6,P-GPS,
12200,2025-05-20 04:49:18,0,0,1.64042,,,1.6404528084,1.64042,0,0,0,0,0,7.682,1.6404528084,1.64042,0,0,0,0,0,200.8, 0.9, -0.8,0,0,1024,1024,1024,364,0,0,0,-100,202.5,5.5,-0.2,68,3.839,3.835,0,0,0,0,4.961,105.44,1.6404528084,1.64042,6,P-GPS,
12300,2025-05-20 04:49:18,0,0,1.64042,,,1.6404528084,1.64042,0,0,0,0,0,7.682,1.6404528084,1.64042,0,0,0,0,0,200.2, 0.8, -0.6,0,0,1024,1024,1024,364,0,0,0,-100,199.4,5.5,-0.4,68,3.839,3.835,0,0,0,0,4.961,105.44,1.6404528084,1.64042,6,P-GPS,
12400,2025-05-20 04:49:18,0,0,1.64042,,,1.6404528084,1.64042,0,0,0,0,0,7.682,1.6404528084,1.64042,0,0,0,0,0,195.6, 0.9, -0.6,0,0,1024,1024,1024,364,0,0,0,-100,194.2,5.5,0,68,3.839,3.835,0,0,0,0,4.961,105.44,1.6404528084,1.64042,6,P-GPS,
12500,2025-05-20 04:49:18,0,0,1.64042,,,1.6404528084,1.64042,0,0,0,0,0,7.682,1.6404528084,1.64042,0,0,0,0,0,190.3, 0.9, -0.5,0,0,1024,1024,1024,364,0,0,0,-100,189,5.5,0,68,3.839,3.835,0,0,0,0,4.961,105.44,1.6404528084,1.64042,6,P-GPS,
12600,2025-05-20 04:49:19,0,0,1.64042,,,1.6404528084,1.64042,0,0,0,0,0,7.682,1.6404528084,1.64042,0,0,0,0,0,185.3, 0.6, -0.3,0,0,1024,1024,1024,364,0,0,0,-100,184.1,5.5,0.2,68,3.839,3.835,0,0,0,0,4.961,105.44,1.6404528084,1.64042,6,P-GPS,
12700,2025-05-20 04:49:19,0,0,1.64042,,,1.6404528084,1.968504,0,0,0,0,0,7.682,1.6404528084,1.64042,0,0,0,0,0,180.4, 0.7, 0.1,0,0,1024,1024,1024,364,0,0,0,-100,179.1,5.5,0.9,68,3.839,3.835,0,0,0,0,4.961,105.44,1.6404528084,1.64042,6,P-GPS,
12800,2025-05-20 04:49:19,0,0,1.64042,,,1.6404528084,1.968504,0,0,0,0,0,7.682,1.6404528084,1.64042,0,0,0,0,0,175.4, 0.8, 0.6,0,0,1024,1024,1024,364,0,0,0,-100,174.2,5.5,1,68,3.839,3.835,0,0,0,0,4.961,105.44,1.6404528084,1.64042,6,P-GPS,
12900,2025-05-20 04:49:19,0,0,1.64042,,,1.6404528084,1.968504,0,0,0,0,0,7.682,1.6404528084,1.64042,0,0,0,0,0,170.5, 0.8, 0.5,0,0,1024,1024,1024,364,0,0,0,-100,169.2,5.5,0.7,68,3.839,3.835,0,0,0,0,4.961,105.44,1.6404528084,1.64042,6,P-GPS,
13000,2025-05-20 04:49:19,0,0,1.64042,,,1.6404528084,1.968504,0,0,0,0,0,7.682,1.6404528084,1.64042,0,0,0,0,0,165.5, 0.5, 0.3,0,0,1024,1024,1024,364,0,0,0,-100,164.2,5.5,0.6,68,3.839,3.835,0,0,0,0,4.961,105.44,1.6404528084,1.64042,6,P-GPS,
13100,2025-05-20 04:49:19,0,0,1.64042,,,1.6404528084,1.968504,0,0,0,0,0,7.674,1.6404528084,1.64042,0,0,0,0,0,160.5, 0.2, 0.2,0,0,1024,1024,1024,364,0,0,0,-100,159.3,5.5,0.5,68,3.838,3.834,0,0,0,0,5.053,105.44,1.6404528084,1.64042,6,P-GPS,
13200,2025-05-20 04:49:19,0,0,1.64042,,,1.6404528084,1.968504,0,0,0,0,0,7.674,1.6404528084,1.64042,0,0,0,0,0,155.6, 0.1, 0,0,0,1024,1024,1024,364,0,0,0,-100,154.3,5.5,-0.2,68,3.838,3.834,0,0,0,0,5.053,105.44,1.6404528084,1.64042,6,P-GPS,
13300,2025-05-20 04:49:19,0,0,1.64042,,,1.6404528084,1.968504,0,0,0,0,0,7.674,1.6404528084,1.64042,0,0,0,0,0,150.7, 0, -0.6,0,0,1024,1024,1024,364,0,0,0,-100,149.4,5.5,-0.4,68,3.838,3.834,0,0,0,0,5.053,105.44,1.6404528084,1.64042,6,P-GPS,
13400,2025-05-20 04:49:19,0,0,1.64042,,,1.6404528084,1.968504,0,0,0,0,0,7.674,1.6404528084,1.64042,0,0,0,0,0,145.8, -0.1, -0.7,0,0,1024,1024,1024,364,0,0,0,-100,144.5,5.5,-0.7,68,3.838,3.834,0,0,0,0,5.053,105.44,1.6404528084,1.64042,6,P-GPS,
13500,2025-05-20 04:49:20,0,0,1.64042,,,1.6404528084,1.64042,0,0,0,0,0,7.674,1.6404528084,1.64042,0,0,0,0,0,140.9, -0.3, -0.9,0,0,1024,1024,1024,364,0,0,0,-100,139.6,5.5,-0.1,68,3.838,3.834,0,0,0,0,5.053,105.44,1.6404528084,1.64042,6,P-GPS,
13600,2025-05-20 04:49:20,0,0,1.64042,,,1.6404528084,1.64042,0,0,0,0,0,7.674,1.6404528084,1.64042,0,0,0,0,0,135.9, 0.1, -0.3,0,0,1024,1024,1024,364,0,0,0,-100,134.5,5.5,0.2,68,3.838,3.834,0,0,0,0,5.053,105.44,1.6404528084,1.64042,6,P-GPS,
13700,2025-05-20 04:49:20,0,0,1.64042,,,1.6404528084,1.64042,0,0,0,0,0,7.674,1.6404528084,1.64042,0,0,0,0,0,130.8, 0.2, 0,0,0,1024,1024,1024,364,0,0,0,-100,129.3,5.5,0.3,68,3.838,3.834,0,0,0,0,5.053,105.44,1.6404528084,1.64042,6,P-GPS,
13800,2025-05-20 04:49:20,0,0,1.64042,,,1.6404528084,1.64042,0,0,0,0,0,7.674,1.6404528084,1.64042,0,0,0,0,0,125.6, 0, 0,0,0,1024,1024,1024,364,0,0,0,-100,124.1,5.5,0,68,3.838,3.834,0,0,0,0,5.053,105.44,1.6404528084,1.64042,6,P-GPS,
13900,2025-05-20 04:49:20,0,0,1.64042,,,1.6404528084,1.64042,0,0,0,0,0,7.674,1.6404528084,1.64042,0,0,0,0,0,120.7, 0.4, -0.4,0,0,1024,1024,1024,364,0,0,0,-100,119.4,5.5,-0.3,68,3.838,3.834,0,0,0,0,5.053,105.44,1.6404528084,1.64042,6,P-GPS,
14000,2025-05-20 04:49:20,0,0,1.64042,,,1.6404528084,1.64042,0,0,0,0,0,7.674,1.6404528084,1.64042,0,0,0,0,0,116, 1, -0.7,0,0,1024,1024,1024,364,0,0,0,-100,119.4,5.5,-0.3,68,3.838,3.834,0,0,0,0,5.053,105.44,1.6404528084,1.64042,6,P-GPS,
14100,2025-05-20 04:49:20,0,0,1.64042,,,1.6404528084,1.64042,0,0,0,0,0,7.672,1.6404528084,1.64042,0,0,0,0,0,111.4, 1, -0.8,0,0,1024,1024,1024,364,0,0,0,-100,110.3,5.5,-0.6,68,3.835,3.832,0,0,0,0,4.874,105.62,1.6404528084,1.64042,6,P-GPS,
14200,2025-05-20 04:49:20,0,0,1.64042,,,1.6404528084,1.64042,0,0,0,0,0,7.672,1.6404528084,1.64042,0,0,0,0,0,106.9, 0.6, -0.9,0,0,1024,1024,1024,364,0,0,0,-100,105.6,5.5,-0.4,68,3.835,3.832,0,0,0,0,4.874,105.62,1.6404528084,1.64042,6,P-GPS,
14300,2025-05-20 04:49:20,0,0,1.64042,,,1.6404528084,1.64042,0,0,0,0,0,7.672,1.6404528084,1.64042,0,0,0,0,0,102, 0.4, -0.5,0,0,1024,1024,1024,364,0,0,0,-100,100.6,5.5,-0.3,68,3.835,3.832,0,0,0,0,4.874,105.62,1.6404528084,1.64042,6,P-GPS,
14400,2025-05-20 04:49:20,0,0,1.64042,,,1.6404528084,1.64042,0,0,0,0,0,7.672,1.6404528084,1.64042,0,0,0,0,0,97, 0.2, -0.8,0,0,1024,1024,1024,364,0,0,0,-100,95.4,5.5,-0.8,68,3.835,3.832,0,0,0,0,4.874,105.62,1.6404528084,1.64042,6,P-GPS,
14500,2025-05-20 04:49:20,0,0,1.64042,,,1.6404528084,1.64042,0,0,0,0,0,7.672,1.6404528084,1.64042,0,0,0,0,0,91.7, 0, -1,0,0,1024,1024,1024,364,0,0,0,-100,90.1,5.5,-0.5,68,3.835,3.832,0,0,0,0,4.874,105.62,1.6404528084,1.64042,6,P-GPS,
14600,2025-05-20 04:49:21,0,0,1.64042,,,1.6404528084,1.64042,0,0,0,0,0,7.672,1.6404528084,1.64042,0,0,0,0,0,86.4, 0, -0.8,0,0,1024,1024,1024,364,0,0,0,-100,84.7,5.5,-0.4,68,3.835,3.832,0,0,0,0,4.874,105.62,1.6404528084,1.64042,6,P-GPS,
14700,2025-05-20 04:49:21,0,0,1.64042,,,1.6404528084,1.64042,0,0,0,0,0,7.672,1.6404528084,1.64042,0,0,0,0,0,80.9, -0.1, -0.8,0,0,1024,1024,1024,364,0,0,0,-100,79.3,5.5,-0.9,68,3.835,3.832,0,0,0,0,4.874,105.62,1.6404528084,1.64042,6,P-GPS,
14800,2025-05-20 04:49:21,0,0,1.64042,,,1.6404528084,1.64042,0,0,0,0,0,7.672,1.6404528084,1.64042,0,0,0,0,0,75.6, -0.3, -1.2,0,0,1024,1024,1024,364,0,0,0,-100,74.1,5.5,-1,68,3.835,3.832,0,0,0,0,4.874,105.62,1.6404528084,1.64042,6,P-GPS,
14900,2025-05-20 04:49:21,0,0,1.64042,,,1.6404528084,1.64042,0,0,0,0,0,7.672,1.6404528084,1.64042,0,0,0,0,0,70.4, -0.5, -1.2,0,0,1024,1024,1024,364,0,0,0,-100,69,5.5,-0.9,68,3.835,3.832,0,0,0,0,4.874,105.62,1.6404528084,1.64042,6,P-GPS,
15000,2025-05-20 04:49:21,0,0,1.64042,,,1.6404528084,1.64042,0,0,0,0,0,7.672,1.6404528084,1.64042,0,0,0,0,0,65.3, -0.5, -0.9,0,0,1024,1024,1024,364,0,0,0,-100,64,5.5,-0.8,68,3.835,3.832,0,0,0,0,4.874,105.62,1.6404528084,1.64042,6,P-GPS,
15100,2025-05-20 04:49:21,0,0,1.64042,,,1.6404528084,1.64042,0,0,0,0,0,7.667,1.6404528084,1.64042,0,0,0,0,0,60.5, -0.3, -1.3,0,0,1024,1024,1024,364,0,0,0,-100,59.4,5.5,-1.4,68,3.83,3.827,0,0,0,0,4.907,105.62,1.6404528084,1.64042,6,P-GPS,
15200,2025-05-20 04:49:21,0,0,1.64042,,,1.6404528084,1.64042,0,0,0,0,0,7.667,1.6404528084,1.64042,0,0,0,0,0,55.9, 0, -1.5,0,0,1024,1024,1024,364,0,0,0,-100,54.7,5.5,-0.9,68,3.83,3.827,0,0,0,0,4.907,105.62,1.6404528084,1.64042,6,P-GPS,
15300,2025-05-20 04:49:21,0,0,1.64042,,,1.6404528084,1.64042,0,0,0,0,0,7.667,1.6404528084,1.64042,0,0,0,0,0,51.2, 0, -0.6,0,0,1024,1024,1024,364,0,0,0,-100,49.9,5.5,-0.2,68,3.83,3.827,0,0,0,0,4.907,105.62,1.6404528084,1.64042,6,P-GPS,
15400,2025-05-20 04:49:21,0,0,1.64042,,,1.6404528084,1.64042,0,0,0,0,0,7.667,1.6404528084,1.64042,0,0,0,0,0,46.2, 0.4, -0.3,0,0,1024,1024,1024,364,0,0,0,-100,44.8,5.5,-0.1,68,3.83,3.827,0,0,0,0,4.907,105.62,1.6404528084,1.64042,6,P-GPS,
15500,2025-05-20 04:49:21,0,0,1.64042,,,1.6404528084,1.64042,0,0,0,0,0,7.667,1.6404528084,1.64042,0,0,0,0,0,41.1, 0.7, -0.3,0,0,1024,1024,1024,364,0,0,0,-100,39.6,5.5,-0.4,68,3.83,3.827,0,0,0,0,4.907,105.62,1.6404528084,1.64042,6,P-GPS,
15600,2025-05-20 04:49:22,0,0,1.64042,,,1.6404528084,1.64042,0,0,0,0,0,7.667,1.6404528084,1.64042,0,0,0,0,0,35.8, 1, -0.5,0,0,1024,1024,1024,364,0,0,0,-100,34.1,5.5,-0.8,68,3.83,3.827,0,0,0,0,4.907,105.62,1.6404528084,1.64042,6,P-GPS,
15700,2025-05-20 04:49:22,0,0,1.64042,,,1.6404528084,1.64042,0,0,0,0,0,7.667,1.6404528084,1.64042,0,0,0,0,0,30.3, 0.9, -1.4,0,0,1024,1024,1024,364,0,0,0,-100,28.8,5.5,-1.7,68,3.83,3.827,0,0,0,0,4.907,105.62,1.6404528084,1.64042,6,P-GPS,
15800,2025-05-20 04:49:22,0,0,1.64042,,,1.6404528084,1.64042,0,0,0,0,0,7.667,1.6404528084,1.64042,0,0,0,0,0,25.2, 0.4, -1.6,0,0,1024,1024,1024,364,0,0,0,-100,23.8,5.5,-0.7,68,3.83,3.827,0,0,0,0,4.907,105.62,1.6404528084,1.64042,6,P-GPS,
15900,2025-05-20 04:49:22,0,0,1.64042,,,1.6404528084,1.64042,0,0,0,0,0,7.667,1.6404528084,1.64042,0,0,0,0,0,20.3, 0.6, -0.4,0,0,1024,1024,1024,364,0,0,0,-100,19,5.5,-0.1,68,3.83,3.827,0,0,0,0,4.907,105.62,1.6404528084,1.64042,6,P-GPS,
16000,2025-05-20 04:49:22,0,0,1.64042,,,1.6404528084,1.64042,0,0,0,0,0,7.667,1.6404528084,1.64042,0,0,0,0,0,15.6, 0.9, -0.3,0,0,1024,1024,1024,364,0,0,0,-100,14.4,5.5,-0.4,68,3.83,3.827,0,0,0,0,4.907,105.62,1.6404528084,1.64042,6,P-GPS,
16100,2025-05-20 04:49:22,0,0,1.64042,,,1.6404528084,1.64042,0,0,0,0,0,7.657,1.6404528084,1.64042,0,0,0,0,0,10.8, 0.8, -0.7,0,0,1024,1024,1024,364,0,0,0,-100,9.4,5.5,-0.8,68,3.829,3.826,0,0,0,0,5.024,105.62,1.6404528084,1.64042,6,P-GPS,
16200,2025-05-20 04:49:22,0,0,1.64042,,,1.6404528084,1.64042,0,0,0,0,0,7.657,1.6404528084,1.64042,0,0,0,0,0,5.8, 0.5, -0.9,0,0,1024,1024,1024,364,0,0,0,-100,4.5,5.5,-0.7,68,3.829,3.826,0,0,0,0,5.024,105.62,1.6404528084,1.64042,6,P-GPS,
16300,2025-05-20 04:49:22,0,0,1.64042,,,1.6404528084,1.64042,0,0,0,0,0,7.657,1.6404528084,1.64042,0,0,0,0,0,0.9, 0, -0.4,0,0,1024,1024,1024,364,0,0,0,-100,359.7,5.5,0.1,68,3.829,3.826,0,0,0,0,5.024,105.62,1.6404528084,1.64042,6,P-GPS,
16400,2025-05-20 04:49:22,0,0,1.64042,,,1.6404528084,1.64042,0,0,0,0,0,7.657,1.6404528084,1.64042,0,0,0,0,0,356.2, 0, 0.3,0,0,1024,1024,1024,364,0,0,0,-100,354.9,5.5,0.3,68,3.829,3.826,0,0,0,0,5.024,105.62,1.6404528084,1.64042,6,P-GPS,
16500,2025-05-20 04:49:23,0,0,1.64042,,,1.6404528084,1.64042,0,0,0,0,0,7.657,1.6404528084,1.64042,0,0,0,0,0,351.4, 0.4, 0.3,0,0,1024,1024,1024,364,0,0,0,-100,350.1,5.5,0.1,68,3.829,3.826,0,0,0,0,5.024,105.62,1.6404528084,1.64042,6,P-GPS,
16600,2025-05-20 04:49:23,0,0,1.64042,,,1.6404528084,1.64042,0,0,0,0,0,7.657,1.6404528084,1.64042,0,0,0,0,0,346.6, 0.6, -0.1,0,0,1024,1024,1024,364,0,0,0,-100,345.4,5.5,-0.2,68,3.829,3.826,0,0,0,0,5.024,105.62,1.6404528084,1.64042,6,P-GPS,
16700,2025-05-20 04:49:23,0,0,1.64042,,,1.6404528084,1.64042,0,0,0,0,0,7.657,1.6404528084,1.64042,0,0,0,0,0,341.9, 0.8, -0.2,0,0,1024,1024,1024,364,0,0,0,-100,340.7,5.5,0.1,68,3.829,3.826,0,0,0,0,5.024,105.62,1.6404528084,1.64042,6,P-GPS,
16800,2025-05-20 04:49:23,0,0,1.64042,,,1.6404528084,1.64042,0,0,0,0,0,7.657,1.6404528084,1.64042,0,0,0,0,0,337.2, 0.9, 0.1,0,0,1024,1024,1024,364,0,0,0,-100,335.9,5.5,0.1,68,3.829,3.826,0,0,0,0,5.024,105.62,1.6404528084,1.64042,6,P-GPS,
16900,2025-05-20 04:49:23,0,0,1.64042,,,1.6404528084,1.64042,0,0,0,0,0,7.657,1.6404528084,1.64042,0,0,0,0,0,332.4, 0.8, 0,0,0,1024,1024,1024,364,0,0,0,-100,331,5.5,-0.2,68,3.829,3.826,0,0,0,0,5.024,105.62,1.6404528084,1.64042,6,P-GPS,
17000,2025-05-20 04:49:23,0,0,1.64042,,,1.6404528084,1.64042,0,0,0,0,0,7.657,1.6404528084,1.64042,0,0,0,0,0,327.4, 0.5, -0.3,0,0,1024,1024,1024,364,0,0,0,-100,325.9,5.5,0,68,3.829,3.826,0,0,0,0,5.024,105.62,1.6404528084,1.64042,6,P-GPS,
17100,2025-05-20 04:49:23,0,0,1.64042,,,1.6404528084,1.64042,0,0,0,0,0,7.649,1.6404528084,1.64042,0,0,0,0,0,322.4, 0.6, 0,0,0,1024,1024,1024,364,0,0,0,-100,320.9,5.5,0.1,67,3.827,3.824,0,0,0,0,4.951,105.8,1.6404528084,1.64042,6,P-GPS,
17200,2025-05-20 04:49:23,0,0,1.64042,,,1.6404528084,1.968504,0,0,0,0,0,7.649,1.6404528084,1.64042,0,0,0,0,0,317.4, 0.3, 0,0,0,1024,1024,1024,364,0,0,0,-100,316,5.5,-0.2,67,3.827,3.824,0,0,0,0,4.951,105.8,1.6404528084,1.64042,6,P-GPS,
17300,2025-05-20 04:49:23,0,0,1.64042,,,1.6404528084,1.64042,0,0,0,0,0,7.649,1.6404528084,1.64042,0,0,0,0,0,312.4, 0, -0.4,0,0,1024,1024,1024,364,0,0,0,-100,310.9,5.5,-0.3,67,3.827,3.824,0,0,0,0,4.951,105.8,1.6404528084,1.64042,6,P-GPS,
17400,2025-05-20 04:49:23,0,0,1.64042,,,1.6404528084,1.64042,0,0,0,0,0,7.649,1.6404528084,1.64042,0,0,0,0,0,307.4, -0.4, -0.2,0,0,1024,1024,1024,364,0,0,0,-100,306.1,5.5,0,67,3.827,3.824,0,0,0,0,4.951,105.8,1.6404528084,1.64042,6,P-GPS,
17500,2025-05-20 04:49:23,0,0,1.64042,,,1.6404528084,1.968504,0,0,0,0,0,7.649,1.6404528084,1.64042,0,0,0,0,0,302.7, -0.6, 0.1,0,0,1024,1024,1024,364,0,0,0,-100,301.5,5.5,0.1,67,3.827,3.824,0,0,0,0,4.951,105.8,1.6404528084,1.64042,6,P-GPS,
17600,2025-05-20 04:49:24,0,0,1.64042,,,1.6404528084,1.968504,0,0,0,0,0,7.649,1.6404528084,1.64042,0,0,0,0,0,298.1, -0.5, 0,0,0,1024,1024,1024,364,0,0,0,-100,296.8,5.5,0.3,67,3.827,3.824,0,0,0,0,4.951,105.8,1.6404528084,1.64042,6,P-GPS,
17700,2025-05-20 04:49:24,0,0,1.64042,,,1.6404528084,1.64042,0,0,0,0,0,7.649,1.6404528084,1.64042,0,0,0,0,0,293.4, -0.3, 0.3,0,0,1024,1024,1024,364,0,0,0,-100,292.1,5.5,0.3,67,3.827,3.824,0,0,0,0,4.951,105.8,1.6404528084,1.64042,6,P-GPS,
17800,2025-05-20 04:49:24,0,0,1.64042,,,1.6404528084,1.64042,0,0,0,0,0,7.649,1.6404528084,1.64042,0,0,0,0,0,288.7, -0.1, 0,0,0,1024,1024,1024,364,0,0,0,-100,287.2,5.5,0,67,3.827,3.824,0,0,0,0,4.951,105.8,1.6404528084,1.64042,6,P-GPS,
17900,2025-05-20 04:49:24,0,0,1.64042,,,1.6404528084,1.64042,0,0,0,0,0,7.649,1.6404528084,1.64042,0,0,0,0,0,283.8, 0.1, 0,0,0,1024,1024,1024,364,0,0,0,-100,282.4,5.5,0,67,3.827,3.824,0,0,0,0,4.951,105.8,1.6404528084,1.64042,6,P-GPS,
18000,2025-05-20 04:49:24,0,0,1.64042,,,1.6404528084,1.64042,0,0,0,0,0,7.649,1.6404528084,1.64042,0,0,0,0,0,278.9, 0.5, -0.2,0,0,1024,1024,1024,364,0,0,0,-100,277.4,5.5,-0.1,67,3.827,3.824,0,0,0,0,4.951,105.8,1.6404528084,1.64042,6,P-GPS,
18100,2025-05-20 04:49:24,0,0,1.64042,,,1.6404528084,1.64042,0,0,0,0,0,7.65,1.6404528084,1.64042,0,0,0,0,0,273.9, 0.4, -0.2,0,0,1024,1024,1024,364,0,0,0,-100,272.3,5.5,0.2,67,3.822,3.817,0,0,0,0,4.885,105.8,1.6404528084,1.64042,6,P-GPS,
18200,2025-05-20 04:49:24,0,0,1.64042,,,1.6404528084,1.64042,0,0,0,0,0,7.65,1.6404528084,1.64042,0,0,0,0,0,268.7, 0.6, 0.1,0,0,1024,1024,1024,364,0,0,0,-100,267.1,5.5,0.3,67,3.822,3.817,0,0,0,0,4.885,105.8,1.6404528084,1.64042,6,P-GPS,
18300,2025-05-20 04:49:24,0,0,1.64042,,,1.6404528084,1.64042,0,0,0,0,0,7.65,1.6404528084,1.64042,0,0,0,0,0,263.5, 0.9, 0,0,0,1024,1024,1024,364,0,0,0,-100,261.9,5.5,0,67,3.822,3.817,0,0,0,0,4.885,105.8,1.6404528084,1.64042,6,P-GPS,
18400,2025-05-20 04:49:24,0,0,1.64042,,,1.6404528084,1.64042,0,0,0,0,0,7.65,1.6404528084,1.64042,0,0,0,0,0,258.3, 0.7, -0.2,0,0,1024,1024,1024,364,0,0,0,-100,256.6,5.5,-0.2,67,3.822,3.817,0,0,0,0,4.885,105.8,1.6404528084,1.64042,6,P-GPS,
18500,2025-05-20 04:49:25,0,0,1.64042,,,1.6404528084,1.64042,0,0,0,0,0,7.65,1.6404528084,1.64042,0,0,0,0,0,253, 0.6, -0.8,0,0,1024,1024,1024,364,0,0,0,-100,251.5,5.5,-0.9,67,3.822,3.817,0,0,0,0,4.885,105.8,1.6404528084,1.64042,6,P-GPS,
18600,2025-05-20 04:49:25,0,0,1.64042,,,1.6404528084,1.64042,0,0,0,0,0,7.65,1.6404528084,1.64042,0,0,0,0,0,247.9, 0.5, -1,0,0,1024,1024,1024,364,0,0,0,-100,246.4,5.5,-0.8,67,3.822,3.817,0,0,0,0,4.885,105.8,1.6404528084,1.64042,6,P-GPS,
18700,2025-05-20 04:49:25,0,0,1.64042,,,1.6404528084,1.64042,0,0,0,0,0,7.65,1.6404528084,1.64042,0,0,0,0,0,242.9, 0.8, -0.6,0,0,1024,1024,1024,364,0,0,0,-100,241.3,5.5,0,67,3.822,3.817,0,0,0,0,4.885,105.8,1.6404528084,1.64042,6,P-GPS,
18800,2025-05-20 04:49:25,0,0,1.64042,,,1.6404528084,1.968504,0,0,0,0,0,7.65,1.6404528084,1.64042,0,0,0,0,0,237.6, 0.7, -0.2,0,0,1024,1024,1024,364,0,0,0,-100,235.9,5.5,-0.3,67,3.822,3.817,0,0,0,0,4.885,105.8,1.6404528084,1.64042,6,P-GPS,
18900,2025-05-20 04:49:25,0,0,1.64042,,,1.6404528084,1.968504,0,0,0,0,0,7.65,1.6404528084,1.64042,0,0,0,0,0,232.2, 0.5, -0.6,0,0,1024,1024,1024,364,0,0,0,-100,230.6,5.5,-0.5,67,3.822,3.817,0,0,0,0,4.885,105.8,1.6404528084,1.64042,6,P-GPS,
19000,2025-05-20 04:49:25,0,0,1.64042,,,1.6404528084,1.968504,0,0,0,0,0,7.65,1.6404528084,1.64042,0,0,0,0,0,227, 0.6, -0.7,0,0,1024,1024,1024,364,0,0,0,-100,225.4,5.5,-0.1,67,3.822,3.817,0,0,0,0,4.885,105.8,1.6404528084,1.64042,6,P-GPS,
19100,2025-05-20 04:49:25,0,0,1.64042,,,1.6404528084,1.968504,0,0,0,0,0,7.64,1.6404528084,1.64042,0,0,0,0,0,221.9, 0.1, 0.2,0,0,1024,1024,1024,364,0,0,0,-100,220.3,5.5,0.6,67,3.824,3.821,0,0,0,0,5.134,105.98,1.6404528084,1.64042,6,P-GPS,
19200,2025-05-20 04:49:25,0,0,1.64042,,,1.6404528084,1.968504,0,0,0,0,0,7.64,1.6404528084,1.64042,0,0,0,0,0,216.9, 0.3, 0.3,0,0,1024,1024,1024,364,0,0,0,-100,215.3,5.5,0,67,3.824,3.821,0,0,0,0,5.134,105.98,1.6404528084,1.64042,6,P-GPS,
19300,2025-05-20 04:49:25,0,0,1.64042,,,1.6404528084,1.968504,0,0,0,0,0,7.64,1.6404528084,1.64042,0,0,0,0,0,211.9, 0.5, -0.3,0,0,1024,1024,1024,364,0,0,0,-100,210.2,5.5,-0.4,67,3.824,3.821,0,0,0,0,5.134,105.98,1.6404528084,1.64042,6,P-GPS,
19400,2025-05-20 04:49:25,0,0,1.64042,,,1.6404528084,1.64042,0,0,0,0,0,7.64,1.6404528084,1.64042,0,0,0,0,0,206.9, 0.5, -0.9,0,0,1024,1024,1024,364,0,0,0,-100,205.2,5.5,-1.1,67,3.824,3.821,0,0,0,0,5.134,105.98,1.6404528084,1.64042,6,P-GPS,
19500,2025-05-20 04:49:25,0,0,1.64042,,,1.6404528084,1.64042,0,0,0,0,0,7.64,1.6404528084,1.64042,0,0,0,0,0,201.8, 0.4, -1.2,0,0,1024,1024,1024,1024,0,0,0,0,200,5.5,-1.1,67,3.824,3.821,0,0,0,0,5.134,105.98,1.6404528084,1.64042,6,P-GPS,
19600,2025-05-20 04:49:26,0,0,1.64042,,,1.6404528084,1.64042,0,0,0,0,0,7.64,1.6404528084,1.64042,0,0,0,0,0,196.6, 0.5, -1.3,0,0,1024,1024,1024,1024,0,0,0,0,194.7,5.5,-1.2,67,3.824,3.821,0,0,0,0,5.134,105.98,1.6404528084,1.64042,6,P-GPS,
19700,2025-05-20 04:49:26,0,0,1.64042,,,1.6404528084,1.968504,0,0,0,0,0,7.64,1.6404528084,1.64042,0,0,0,0,0,192.2, 0.4, -1.6,0,0,1024,1024,1024,1024,0,0,0,0,193.4,5.5,-1.6,67,3.824,3.821,0,0,0,0,5.134,105.98,1.6404528084,1.64042,6,P-GPS,
19800,2025-05-20 04:49:26,0,0,1.64042,,,1.6404528084,1.64042,0,0,0,0,0,7.64,1.6404528084,1.64042,0,0,0,0,0,192.1, 0.6, -1.7,0,0,1024,1024,1024,1024,0,0,0,0,193.5,5.5,-1.8,67,3.824,3.821,0,0,0,0,5.134,105.98,1.6404528084,1.64042,6,P-GPS,
19900,2025-05-20 04:49:26,0,0,1.64042,,,1.6404528084,1.64042,0,0,0,0,0,7.64,1.6404528084,1.64042,0,0,0,0,0,192.2, 0.7, -2.2,0,0,1024,1024,1024,1024,0,0,0,0,193.6,5.5,-2.3,67,3.824,3.821,0,0,0,0,5.134,105.98,1.6404528084,1.64042,6,P-GPS,
20000,2025-05-20 04:49:26,0,0,1.64042,,,1.6404528084,1.64042,0,0,0,0,0,7.64,1.6404528084,1.64042,0,0,0,0,0,192.3, 0.6, -2.2,0,0,1024,1024,1024,1024,0,0,0,0,193.6,5.5,-1.8,67,3.824,3.821,0,0,0,0,5.134,105.98,1.6404528084,1.64042,6,P-GPS,
20100,2025-05-20 04:49:26,0,0,1.64042,,,1.6404528084,1.64042,0,0,0,0,0,7.641,1.6404528084,1.64042,0,0,0,0,0,192.3, 0.3, -1.6,0,0,1024,1024,1024,1024,0,0,0,0,193.5,5.5,-1,67,3.82,3.817,0,0,0,0,4.904,105.98,1.6404528084,1.64042,6,P-GPS,
20200,2025-05-20 04:49:26,0,0,1.64042,,,1.6404528084,1.968504,0,0,0,0,0,7.641,1.6404528084,1.64042,0,0,0,0,0,192.3, 0.2, -0.9,0,0,1024,1024,1024,1024,0,0,0,0,193.5,5.5,-0.4,67,3.82,3.817,0,0,0,0,4.904,105.98,1.6404528084,1.64042,6,P-GPS,
20300,2025-05-20 04:49:26,0,0,1.64042,,,1.6404528084,1.968504,0,0,0,0,0,7.641,1.6404528084,1.64042,0,0,0,0,0,192.3, 0.4, -0.5,0,0,1024,1024,1024,1024,0,0,0,0,193.4,5.5,0,67,3.82,3.817,0,0,0,0,4.904,105.98,1.6404528084,1.64042,6,P-GPS,
20400,2025-05-20 04:49:26,0,0,1.64042,,,1.6404528084,1.968504,0,0,0,0,0,7.641,1.6404528084,1.64042,0,0,0,0,0,192.2, 0.5, 0,0,0,1024,1024,1684,1024,0,0,100,0,193.3,5.5,0.7,67,3.82,3.817,0,0,0,0,4.904,105.98,1.6404528084,1.64042,6,P-GPS,
20500,2025-05-20 04:49:26,0,0,1.64042,,,1.6404528084,1.968504,0,0,0,0,0,7.641,1.6404528084,1.64042,0,0,0,0,0,192.2, 0.5, 0.5,0,0,1024,1024,1684,1024,0,0,100,0,193.4,5.5,0.5,67,3.82,3.817,0,0,0,0,4.904,105.98,1.6404528084,1.64042,6,P-GPS,
20600,2025-05-20 04:49:27,0,0,1.64042,,,1.6404528084,1.968504,0,0,0,0,0,7.641,1.6404528084,1.64042,0,0,0,0,0,192.3, 0.7, 0,0,0,1024,1024,1684,1024,0,0,100,0,193.6,5.5,0,67,3.82,3.817,0,0,0,0,4.904,105.98,1.6404528084,1.64042,6,P-GPS,
20700,2025-05-20 04:49:27,0,0,1.64042,,,1.6404528084,1.968504,0,0,0,0,0,7.641,1.6404528084,1.64042,0,0,0,0,0,192.5, 0.8, -0.2,0,0,1024,1024,1684,1024,0,0,100,0,193.7,5.5,0,67,3.82,3.817,0,0,0,0,4.904,105.98,1.6404528084,1.64042,6,P-GPS,
20800,2025-05-20 04:49:27,0,0,1.64042,,,1.6404528084,1.968504,0,0,0,0,0,7.641,1.6404528084,1.64042,0,0,0,0,-0.447388,192.6, 0.6, 0,0,0,1024,1024,1024,1024,0,0,0,0,193.6,5.5,0.5,67,3.82,3.817,0,0,0,0,4.904,105.98,1.6404528084,1.64042,6,P-GPS,
20900,2025-05-20 04:49:27,0,0,1.968504,,,1.9685368084,1.968504,0,0,0,0,0,7.641,1.9685368084,1.968504,0,0,0,0,-0.671082,192.5, 0.4, 0.3,0,0,1024,1024,1024,1024,0,0,0,0,193.5,5.5,0.7,67,3.82,3.817,0,0,0,0,4.904,105.98,1.9685368084,1.968504,6,P-GPS,
21000,2025-05-20 04:49:27,0,0,1.968504,,,1.9685368084,2.296588,0,0,0,0,0,7.641,1.9685368084,1.968504,0,0,0,0,-0.671082,192.5, 0.2, 0.5,0,0,1024,1024,1024,1024,0,0,0,0,193.4,5.5,0.9,67,3.82,3.817,0,0,0,0,4.904,105.98,1.9685368084,1.968504,6,P-GPS,
21100,2025-05-20 04:49:27,0,0,1.968504,,,1.9685368084,2.296588,0,0,0,0,0,7.635,1.9685368084,1.968504,0,0,0,0,-0.447388,192.4, 0, 0.7,0,0,1024,1024,1024,1024,0,0,0,0,193.1,5.5,1.2,67,3.81,3.805,0,0,0,0,4.976,106.16,1.9685368084,1.968504,6,P-GPS,
21200,2025-05-20 04:49:27,0,0,1.968504,,,1.9685368084,2.296588,0,0,0,0,0,7.635,1.9685368084,1.968504,0,0,0,0,-0.223694,192.1, 0.1, 1,0,0,1024,1024,1024,1024,0,0,0,0,192.8,5.5,1.5,67,3.81,3.805,0,0,0,0,4.976,106.16,1.9685368084,1.968504,6,P-GPS,
21300,2025-05-20 04:49:27,0,0,2.296588,,,2.2966208084,2.296588,0,0,0,0,0,7.635,2.2966208084,2.296588,0,0,0,0,0,192, 0.2, 1.5,0,0,1024,1024,1024,1024,0,0,0,0,192.9,5.5,1.9,67,3.81,3.805,0,0,0,0,4.976,106.16,2.2966208084,2.296588,6,P-GPS,
21400,2025-05-20 04:49:27,0,0,2.296588,,,2.2966208084,2.296588,0,0,0,0,0,7.635,2.2966208084,2.296588,0,0,0,0,0,192.1, 0.5, 1.7,0,0,1024,1024,1024,1024,0,0,0,0,193.1,5.5,1.7,67,3.81,3.805,0,0,0,0,4.976,106.16,2.2966208084,2.296588,6,P-GPS,
21500,2025-05-20 04:49:27,0,0,2.296588,,,2.2966208084,2.296588,0,0,0,0,0,7.635,2.2966208084,2.296588,0,0,0,0,0,192.2, 0.5, 1.1,0,0,1024,1024,1024,1024,0,0,0,0,193.1,5.5,0.8,67,3.81,3.805,0,0,0,0,4.976,106.16,2.2966208084,2.296588,6,P-GPS,
21600,2025-05-20 04:49:28,0,0,2.296588,,,2.2966208084,2.296588,0,0,0,0,0,7.635,2.2966208084,2.296588,0,0,0,0,0,192.2, 0.1, 0.3,0,0,1024,1024,1024,1024,0,0,0,0,193.2,5.5,0.5,67,3.81,3.805,0,0,0,0,4.976,106.16,2.2966208084,2.296588,6,P-GPS,
21700,2025-05-20 04:49:28,0,0,2.296588,,,2.2966208084,2.296588,0,0,0,0,0,7.635,2.2966208084,2.296588,0,0,0,0,0,192.2, 0, 0.4,0,0,1024,1024,1024,1024,0,0,0,0,193.1,5.5,0.8,67,3.81,3.805,0,0,0,0,4.976,106.16,2.2966208084,2.296588,6,P-GPS,
21800,2025-05-20 04:49:28,0,0,2.296588,,,2.2966208084,2.296588,0,0,0,0,0,7.635,2.2966208084,2.296588,0,0,0,0,0,192.1, 0, 0.6,0,0,1024,1024,1024,1024,0,0,0,0,193.1,5.5,0.5,67,3.81,3.805,0,0,0,0,4.976,106.16,2.2966208084,2.296588,6,P-GPS,
21900,2025-05-20 04:49:28,0,0,2.296588,,,2.2966208084,2.296588,0,0,0,0,0,7.635,2.2966208084,2.296588,0,0,0,0,0,192.1, 0, 0.1,0,0,1024,1024,1024,1024,0,0,0,0,193.2,5.5,0.3,67,3.81,3.805,0,0,0,0,4.976,106.16,2.2966208084,2.296588,6,P-GPS,
22000,2025-05-20 04:49:28,0,0,2.296588,,,2.2966208084,2.296588,0,0,0,0,0,7.635,2.2966208084,2.296588,0,0,0,0,0,192.1, 0, 0,0,0,1024,1024,1024,1024,0,0,0,0,193.1,5.5,0,67,3.81,3.805,0,0,0,0,4.976,106.16,2.2966208084,2.296588,6,P-GPS,
22100,2025-05-20 04:49:28,0,0,2.296588,,,2.2966208084,2.296588,0,0,0,0,0,7.64,2.2966208084,2.296588,0,0,0,0,0,192, 0, -0.1,0,0,1024,1024,1024,1684,0,0,0,100,193,5.5,0.1,67,3.821,3.816,0,0,0,0,4.768,106.16,2.2966208084,2.296588,6,P-GPS,
22200,2025-05-20 04:49:28,0,0,2.296588,,,2.2966208084,2.296588,0,0,0,0,0,7.64,2.2966208084,2.296588,0,0,0,0,0,192, 0, 0,0,0,1024,1024,1024,1684,0,0,0,100,193.1,5.5,0.2,67,3.821,3.816,0,0,0,0,4.768,106.16,2.2966208084,2.296588,6,P-GPS,
22300,2025-05-20 04:49:28,0,0,2.296588,,,2.2966208084,2.296588,0,0,0,0,0,7.64,2.2966208084,2.296588,0,0,0,0,0,192.9, 0, 0.1,0,0,1024,1024,1024,1024,0,0,0,0,196.7,5.5,0.5,67,3.821,3.816,0,0,0,0,4.768,106.16,2.2966208084,2.296588,6,P-GPS,
22400,2025-05-20 04:49:28,0,0,2.296588,,,2.2966208084,2.296588,0,0,0,0,0,7.64,2.2966208084,2.296588,0,0,0,0,0,197.5, 0, 0.3,0,0,1024,1024,1024,1024,0,0,0,0,201.6,5.5,1,67,3.821,3.816,0,0,0,0,4.768,106.16,2.2966208084,2.296588,6,P-GPS,
22500,2025-05-20 04:49:28,0,0,2.296588,,,2.2966208084,2.296588,0,0,0,0,0,7.64,2.2966208084,2.296588,0,0,0,0,0,200.5, 0.2, 0.7,0,0,1024,1024,1024,1024,0,0,0,0,201.8,5.5,1.1,67,3.821,3.816,0,0,0,0,4.768,106.16,2.2966208084,2.296588,6,P-GPS,
22600,2025-05-20 04:49:29,0,0,2.296588,,,2.2966208084,2.296588,0,0,0,0,0,7.64,2.2966208084,2.296588,0,0,0,0,0,200.3, 0.7, 0.7,0,0,1024,1024,1024,1024,0,0,0,0,201.6,5.5,1.4,67,3.821,3.816,0,0,0,0,4.768,106.16,2.2966208084,2.296588,6,P-GPS,
22700,2025-05-20 04:49:29,0,0,2.296588,,,2.2966208084,2.296588,0,0,0,0,0,7.64,2.2966208084,2.296588,0,0,0,0,0,200.2, 0.5, 1.1,0,0,1024,1024,1024,1024,0,0,0,0,201.7,5.5,1.1,67,3.821,3.816,0,0,0,0,4.768,106.16,2.2966208084,2.296588,6,P-GPS,
22800,2025-05-20 04:49:29,0,0,2.296588,,,2.2966208084,2.296588,0,0,0,0,0,7.64,2.2966208084,2.296588,0,0,0,0,0,200.2, 0.2, 0.7,0,0,1024,1024,1024,1024,0,0,0,0,201.8,5.5,0.9,67,3.821,3.816,0,0,0,0,4.768,106.16,2.2966208084,2.296588,6,P-GPS,
22900,2025-05-20 04:49:29,0,0,2.296588,,,2.2966208084,2.296588,0,0,0,0,0,7.64,2.2966208084,2.296588,0,0,0,0,0,200.3, 0, 0.5,0,0,1684,1024,1024,1024,100,0,0,0,201.8,5.5,0.7,67,3.821,3.816,0,0,0,0,4.768,106.16,2.2966208084,2.296588,6,P-GPS,
23000,2025-05-20 04:49:29,0,0,2.296588,,,2.2966208084,2.296588,0,0,0,0,0,7.64,2.2966208084,2.296588,0,0,0,0,0,200.3, -0.2, 0.3,0,0,1684,1024,1024,1024,100,0,0,0,201.9,5.5,0.7,67,3.821,3.816,0,0,0,0,4.768,106.16,2.2966208084,2.296588,6,P-GPS,
23100,2025-05-20 04:49:29,0,0,2.296588,,,2.2966208084,2.296588,0,0,0,0,0,7.637,2.2966208084,2.296588,0,0,0,0,0,200.3, -0.2, 0.6,0,0,1024,1024,1024,1024,0,0,0,0,201.9,5.5,1.1,67,3.818,3.814,0,0,0,0,4.866,106.16,2.2966208084,2.296588,6,P-GPS,
23200,2025-05-20 04:49:29,0,0,2.296588,,,2.2966208084,2.296588,0,0,0,0,0,7.637,2.2966208084,2.296588,0,0,0,0,0,200.2, -3.9, 0.7,0,0,1024,1024,1024,1024,0,0,0,0,201.9,5.5,0.8,67,3.818,3.814,0,0,0,0,4.866,106.16,2.2966208084,2.296588,6,P-GPS,
23300,2025-05-20 04:49:29,0,0,2.296588,,,2.2966208084,2.296588,0.223694,0,0,0,0,7.637,2.2966208084,2.296588,0,0,-0.223694,0,0,200.1, -5, 0.5,0,0,1024,1024,1024,1024,0,0,0,0,201.8,5.5,0.6,67,3.818,3.814,0,0,0,0,4.866,106.16,2.2966208084,2.296588,6,P-GPS,
23400,2025-05-20 04:49:29,0,0,2.296588,,,2.2966208084,2.296588,0.223694,0,0,0,0,7.637,2.2966208084,2.296588,0,0,-0.223694,0,0,200, -0.5, 0.2,0,0,1684,1024,1024,1024,100,0,0,0,201.8,5.5,0.6,67,3.818,3.814,0,0,0,0,4.866,106.16,2.2966208084,2.296588,6,P-GPS,
23500,2025-05-20 04:49:29,0,0,2.296588,,,2.2966208084,2.296588,0.223694,0,0,0,0,7.637,2.2966208084,2.296588,0,0,-0.223694,0,0,200, 0, 0.1,0,0,1684,1024,1024,1024,100,0,0,0,201.8,5.5,0.3,67,3.818,3.814,0,0,0,0,4.866,106.16,2.2966208084,2.296588,6,P-GPS,
23600,2025-05-20 04:49:30,0,0,2.296588,,,2.2966208084,2.296588,0.223694,0,0,0,0,7.637,2.2966208084,2.296588,0,0,-0.223694,0,0,200, -0.3, 0,0,0,1024,1024,1024,1024,0,0,0,0,201.9,5.5,0.2,67,3.818,3.814,0,0,0,0,4.866,106.16,2.2966208084,2.296588,6,P-GPS,
23700,2025-05-20 04:49:30,0,0,2.296588,,,2.2966208084,2.296588,0.223694,0,0,0,0,7.637,2.2966208084,2.296588,0,0,-0.223694,0,0,200, -4.1, 0.2,0,0,1024,1024,1024,1024,0,0,0,0,202,5.5,0.6,67,3.818,3.814,0,0,0,0,4.866,106.16,2.2966208084,2.296588,6,P-GPS,
23800,2025-05-20 04:49:30,0,0,2.296588,,,2.2966208084,2.296588,0.447388,0,0,0,0,7.637,2.2966208084,2.296588,0,0,-0.447388,0,0,200, -5.6, 0.3,0,0,1024,1024,1024,1684,0,0,0,100,202,5.5,0.3,67,3.818,3.814,0,0,0,0,4.866,106.16,2.2966208084,2.296588,6,P-GPS,
23900,2025-05-20 04:49:30,0,0,2.296588,,,2.2966208084,2.296588,0.7158208,0,0,0,0,7.637,2.2966208084,2.296588,0,0,-0.671082,-0.223694,0,200, -4.3, 0.1,0,0,1684,1024,1024,1024,100,0,0,0,201.9,5.5,0.3,67,3.818,3.814,0,0,0,0,4.866,106.16,2.2966208084,2.296588,6,P-GPS,
24000,2025-05-20 04:49:30,0,0,2.296588,,,2.2966208084,2.296588,0.7158208,0,0,0,0,7.637,2.2966208084,2.296588,0,0,-0.671082,-0.223694,0,200.2, 0, 0,0,0,1684,1024,1024,1024,100,0,0,0,204.6,5.5,0.2,67,3.818,3.814,0,0,0,0,4.866,106.16,2.2966208084,2.296588,6,P-GPS,
24100,2025-05-20 04:49:30,0,0,2.296588,,,2.2966208084,2.296588,0.7158208,0,0,0,0,7.632,2.2966208084,2.296588,0,0,-0.671082,-0.223694,0,204.5, 0.4, 0.1,0,0,1024,1024,1024,1024,0,0,0,0,206.9,5.5,0.8,67,3.812,3.811,0,0,0,0,4.801,106.34,2.2966208084,2.296588,6,P-GPS,
24200,2025-05-20 04:49:30,0,0,2.296588,,,2.2966208084,2.296588,0.7158208,0,0,0,0,7.632,2.2966208084,2.296588,0,0,-0.671082,-0.223694,0,204.9, -2.9, 0.8,0,0,1024,1024,1024,1024,0,0,0,0,206.8,5.5,0.8,67,3.812,3.811,0,0,0,0,4.801,106.34,2.2966208084,2.296588,6,P-GPS,
24300,2025-05-20 04:49:30,0,0,2.296588,,,2.2966208084,2.296588,0.7158208,0,0,0,0,7.632,2.2966208084,2.296588,0,0,-0.671082,-0.223694,0,204.7, -3.2, 0.4,0,0,1024,1024,1024,1024,0,0,0,0,206.4,5.5,0.4,67,3.812,3.811,0,0,0,0,4.801,106.34,2.2966208084,2.296588,6,P-GPS,
24400,2025-05-20 04:49:30,0,0,2.296588,,,2.2966208084,2.296588,0.8052984,0,0,0,0,7.632,2.2966208084,2.296588,0,0,-0.671082,-0.447388,0,204.6, 0.2, 0,0,0,1024,1024,1024,1024,0,0,0,0,206.3,5.5,0,67,3.812,3.811,0,0,0,0,4.801,106.34,2.2966208084,2.296588,6,P-GPS,
24500,2025-05-20 04:49:30,0,0,2.296588,,,2.2966208084,2.296588,0.8052984,0,0,0,0,7.632,2.2966208084,2.296588,0,0,-0.671082,-0.447388,0,204.5, 0.5, -0.3,0,0,1024,1024,1024,1024,0,0,0,0,206.3,5.5,-0.1,67,3.812,3.811,0,0,0,0,4.801,106.34,2.2966208084,2.296588,6,P-GPS,
24600,2025-05-20 04:49:31,0,0,2.296588,,,2.2966208084,2.296588,0.7158208,0,0,0,0,7.632,2.2966208084,2.296588,0,0,-0.671082,-0.223694,0,204.5, 1.2, -0.4,0,0,1024,1024,1024,1024,0,0,0,0,206.3,5.5,-0.1,67,3.812,3.811,0,0,0,0,4.801,106.34,2.2966208084,2.296588,6,P-GPS,
