time(millisecond),datetime(utc),latitude,longitude,height_above_takeoff(feet),height_above_ground_at_drone_location(feet),ground_elevation_at_drone_location(feet),altitude_above_seaLevel(feet),height_sonar(feet),speed(mph),distance(feet),mileage(feet),satellites,gpslevel,voltage(v),max_altitude(feet),max_ascent(feet),max_speed(mph),max_distance(feet), xSpeed(mph), ySpeed(mph), zSpeed(mph), compass_heading(degrees), pitch(degrees), roll(degrees),isPhoto,isVideo,rc_elevator,rc_aileron,rc_throttle,rc_rudder,rc_elevator(percent),rc_aileron(percent),rc_throttle(percent),rc_rudder(percent),gimbal_heading(degrees),gimbal_pitch(degrees),gimbal_roll(degrees),battery_percent,voltageCell1,voltageCell2,voltageCell3,voltageCell4,voltageCell5,voltageCell6,current(A),battery_temperature(f),altitude(feet),ascent(feet),flycStateRaw,flycState,message
0,2022-10-20 22:27:21,-34.955711431397,-54.9407683411377,0,0,11.829785155456,11.829785155456,0,0,0,0,19,5,0,11.829785155456,0,0,0,0,0,0,257.3, -1.1, 2.4,0,0,364,364,364,1684,-100,-100,-100,100,278.5,0,0,98,4.256,4.247,0,0,0,0,0,69.08,11.829785155456,0,41,Motors_Started,
100,2022-10-20 22:27:21,-34.9557114244956,-54.9407684147875,0,0,11.829785155456,11.829785155456,0,0,0.0221668642264,0.0221668642264,19,5,0,11.829785155456,0,0,0.0221668642264,0,0,0,257.1, -1.4, 2.6,0,0,364,364,364,1684,-100,-100,-100,100,279,0,0,98,4.256,4.247,0,0,0,0,0,69.08,11.829785155456,0,41,Motors_Started,"En vuelo"
200,2022-10-20 22:27:21,-34.9557113602507,-54.9407685255369,0,0.1312336,11.698551555456,11.829785155456,0,0,0.06094488384,0.062739831404,19,5,0,11.829785155456,0,0,0.06094488384,0,0,0,256.7, -1.3, 1.9,0,0,364,364,364,1684,-100,-100,-100,100,279.1,0,0,98,4.256,4.247,0,0,0,0,0,69.08,11.829785155456,0,41,Motors_Started,
300,2022-10-20 22:27:21,-34.9557113035193,-54.9407686454103,0,0.1312336,11.698551555456,11.829785155456,0.328084,0,0.102250987524,0.10413222118,19,5,0,11.829785155456,0,0,0.102250987524,0,0,0,257, -1.6, 1.5,0,0,1024,975,821,1285,0,-7,-31,40,279,0,0,98,4.256,4.247,0,0,0,0,0,69.08,11.829785155456,0,41,Motors_Started,
400,2022-10-20 22:27:22,-34.9557109995752,-54.9407689970491,0,0.1312336,11.698551555456,11.829785155456,0.328084,0,0.25157809204,0.256952436044,19,5,0,11.829785155456,0,0,0.25157809204,0,0,0,256.9, -1.8, 2.5,0,0,1024,1024,1024,1024,0,0,0,0,279,0,0,98,4.256,4.247,0,0,0,0,0,69.08,11.829785155456,0,41,Motors_Started,
500,2022-10-20 22:27:22,-34.9557109572458,-54.9407691129815,0,0.1312336,11.698551555456,11.829785155456,0.328084,0,0.288438985608,0.294904208912,19,5,0,11.829785155456,0,0,0.288438985608,0,0,0,257.1, -2, 2.8,0,0,1024,1024,1024,918,0,0,0,-16,279.2,0,0,98,4.256,4.247,0,0,0,0,0,69.08,11.829785155456,0,41,Motors_Started,"Setting new Return-To-Home altitude to 100m (328 ft). Data Recorder File Index is 9. Setting new Maximum Flight Altitude to 120m (394 ft)"
600,2022-10-20 22:27:22,-34.9557109276521,-54.9407692371169,0,0.1312336,11.698551555456,11.829785155456,0.328084,0,0.32490322562,0.3335630028,19,5,0,11.829785155456,0,0,0.32490322562,0,0,0,256.7, -3, 2.4,0,0,1024,1024,1524,1024,0,0,76,0,279.2,0,0,98,4.256,4.247,0,0,0,0,0,69.08,11.829785155456,0,41,Motors_Started,
700,2022-10-20 22:27:22,-34.9557109132921,-54.9407693253283,0,0.1312336,11.698551555456,11.829785155456,0.328084,0,0.34978019492,0.36045604828,19,5,0,11.829785155456,0,0,0.34978019492,0,0,0,256.7, -3.2, 1.9,0,0,1024,1024,1524,1024,0,0,76,0,279.1,0,0,98,4.256,4.247,0,0,0,0,0,69.08,11.829785155456,0,41,Motors_Started,
800,2022-10-20 22:27:22,-34.9557108964816,-54.9407693772755,0,0.1312336,11.698551555456,11.829785155456,0.328084,0,0.36617783324,0.37715552388,19,5,0,11.829785155456,0,0,0.36617783324,0,0,0,256.4, -3.1, 2.6,0,0,1024,1024,1684,1024,0,0,100,0,279.1,0,0,98,4.256,4.247,0,0,0,0,0,69.08,11.829785155456,0,41,Motors_Started,
900,2022-10-20 22:27:22,-34.9557108457552,-54.9407694154261,0,0.1312336,11.698551555456,11.829785155456,0.328084,0,0.38581366064,0.39889765056,19,5,0,11.829785155456,0,0,0.38581366064,0,0,0,256.2, -3.3, 2.5,0,0,1024,1024,1684,1022,0,0,100,-0,278.7,0,0,98,4.256,4.247,0,0,0,0,0,69.08,11.829785155456,0,41,Motors_Started,
1000,2022-10-20 22:27:22,-34.9557108028872,-54.9407695041954,0,0.2624672,11.567317955456,11.829785155456,0.328084,0,0.41658137816,0.429708019,19,5,0,11.829785155456,0,0,0.41658137816,0,0,0,255.9, -3.9, 2.2,0,0,1024,1024,1667,1024,0,0,97,0,278.6,0,0,98,4.256,4.247,0,0,0,0,0,69.08,11.829785155456,0,41,Motors_Started,
1100,2022-10-20 22:27:22,-34.9557107747392,-54.9407696045006,0,0.2624672,11.567317955456,11.829785155456,0.328084,0,0.44734581484,0.46141077592,19,5,0,11.829785155456,0,0,0.44734581484,0,0,0,256, -4.2, 2.5,0,0,1024,1024,1535,1024,0,0,77,0,278.4,0,0,98,4.256,4.247,0,0,0,0,0,69.08,11.829785155456,0,10,Assisted_Takeoff,
1200,2022-10-20 22:27:22,-34.9557107739323,-54.9407696880243,0,0.2624672,11.567317955456,11.829785155456,0.328084,0,0.46877954256,0.48638781084,19,5,0,11.829785155456,0,0,0.46877954256,0,0,0,255.5, -4.1, 2.6,0,0,1024,1024,1684,1024,0,0,100,0,278.3,0,0,98,4.256,4.247,0,0,0,0,0,69.08,11.829785155456,0,10,Assisted_Takeoff,
1300,2022-10-20 22:27:23,-34.9557107196754,-54.9407696927765,0,0.2624672,11.567317955456,11.829785155456,0.328084,0,0.48040683952,0.506233612,19,5,0,11.829785155456,0,0,0.48040683952,0,0,0,255.8, -3.6, 2.1,0,0,1024,1024,1684,1024,0,0,100,0,278.1,0,0,98,4.256,4.247,0,0,0,0,0,69.08,11.829785155456,0,10,Assisted_Takeoff,
1400,2022-10-20 22:27:23,-34.9557106748252,-54.9407697720697,0,0.2624672,11.567317955456,11.829785155456,0.328084,0.223694,0.50919949136,0.53504266804,19,5,0,11.829785155456,0,0.223694,0.50919949136,0,-0.223694,0,255.7, -2.9, 2,0,0,1024,1024,1684,1024,0,0,100,0,278.1,0,0,98,4.256,4.247,0,0,0,0,0,69.08,11.829785155456,0,10,Assisted_Takeoff,
1500,2022-10-20 22:27:23,-34.9557106113993,-54.940769879166,0,0.2624672,11.567317955456,11.829785155456,0.328084,0.223694,0.54866143488,0.57455382416,19,5,0,11.829785155456,0,0.223694,0.54866143488,0,-0.223694,0,254.7, -2.5, 2.2,0,0,1024,1024,1684,1024,0,0,100,0,277.8,0,0,98,4.256,4.247,0,0,0,0,0,69.08,11.829785155456,0,10,Assisted_Takeoff,
1600,2022-10-20 22:27:23,-34.9557105616442,-54.9407700457955,0,0.2624672,11.567317955456,11.829785155456,0.328084,0.223694,0.60044621344,0.62758532192,19,5,8.638,11.829785155456,0,0.223694,0.60044621344,0,-0.223694,0,254.5, -4.2, 1,0,0,1024,1024,1684,1024,0,0,100,0,277.1,0,0,98,4.256,4.247,0,0,0,0,0.634,69.08,11.829785155456,0,10,Assisted_Takeoff,
1700,2022-10-20 22:27:23,-34.9557105118232,-54.940770154723,0,0.2624672,11.567317955456,11.829785155456,0.328084,0.447388,0.63770671332,0.66488519188,19,5,8.638,11.829785155456,0,0.447388,0.63770671332,0,-0.447388,0,254.5, -5, 0.6,0,0,1024,1024,1684,1024,0,0,100,0,277,0,0,98,4.256,4.247,0,0,0,0,0.634,69.08,11.829785155456,0,10,Assisted_Takeoff,
1800,2022-10-20 22:27:23,-34.9557104851574,-54.9407704678315,0,0.2952756,11.534509555456,11.829785155456,0.328084,0.671082,0.72360894704,0.75901905316,19,5,8.638,11.829785155456,0,0.671082,0.72360894704,0,-0.671082,-0.223694,254.1, -3.8, 0.4,0,0,1024,1024,1627,1024,0,0,91,0,276.9,0,0,98,4.256,4.247,0,0,0,0,0.634,69.08,11.829785155456,0,6,P-GPS,
1900,2022-10-20 22:27:23,-34.9557104535921,-54.940770896163,0,0.4265092,11.403275955456,11.829785155456,0.328084,0.894776,0.84321196924,0.88761813864,19,5,8.638,11.829785155456,0,0.894776,0.84321196924,0,-0.894776,-0.894776,254.4, 1.5, -0.8,0,0,1024,1024,1324,1024,0,0,45,0,276.9,0,0,98,4.256,4.247,0,0,0,0,0.634,69.08,11.829785155456,0,6,P-GPS,
2000,2022-10-20 22:27:23,-34.9557103907488,-54.9407714340206,0.328084,0.7545932,11.403275955456,12.157869155456,0.656168,0.894776,0.99976381152,1.0500820546,19,5,8.638,12.157869155456,0.328084,0.894776,0.99976381152,0,-0.894776,-1.565858,254.3, 4, -1,0,0,1024,1024,1024,1024,0,0,0,0,276.9,0,0,98,4.256,4.247,0,0,0,0,0.634,69.08,12.157869155456,0.328084,6,P-GPS,
2100,2022-10-20 22:27:23,-34.9557104257603,-54.940772000327,0.328084,0.8858268,11.272042355456,12.157869155456,0.984252,0.671082,1.15408140176,1.21990489468,19,5,8.638,12.157869155456,0.328084,0.894776,1.15408140176,0,-0.671082,-2.013246,254.3, 4.1, -1.6,0,0,1024,1024,1024,1024,0,0,0,0,276.9,0,0,98,4.256,4.247,0,0,0,0,0.634,69.08,12.157869155456,0.328084,6,P-GPS,
2200,2022-10-20 22:27:23,-34.9557104244181,-54.9407723990217,0.656168,1.2139108,11.272042355456,12.485953155456,1.312336,0.447388,1.26782484372,1.33912733944,19,5,8.638,12.485953155456,0.656168,0.894776,1.26782484372,0,-0.447388,-2.013246,254.3, 4.2, -1.7,0,0,1024,1024,1024,1024,0,0,0,0,276.9,0,0,98,4.256,4.247,0,0,0,0,0.634,69.08,12.485953155456,0.656168,6,P-GPS,
2300,2022-10-20 22:27:24,-34.9557104169533,-54.9407727274987,0.984252,1.6732284,11.140808755456,12.814037155456,2.952756,0.447388,1.36286749768,1.43738849744,19,5,8.638,12.814037155456,0.984252,0.894776,1.36286749768,0,-0.447388,-1.789552,254.4, 4, -1.6,0,0,1024,1024,1024,1024,0,0,0,0,276.9,0,0,98,4.256,4.247,0,0,0,0,0.634,69.08,12.814037155456,0.984252,6,P-GPS,
2400,2022-10-20 22:27:24,-34.9557103873706,-54.9407730353946,1.312336,2.0013124,11.140808755456,13.142121155456,3.28084,0.223694,1.45448167384,1.53008863164,19,5,8.638,13.142121155456,1.312336,0.894776,1.45448167384,0,-0.223694,-1.565858,254.5, 3.4, -1.4,0,0,1024,1024,1024,1024,0,0,0,0,276.9,0,0,98,4.256,4.247,0,0,0,0,0.634,69.08,13.142121155456,1.312336,6,P-GPS,
2500,2022-10-20 22:27:24,-34.9557103524922,-54.9407733106816,1.312336,2.0013124,11.140808755456,13.142121155456,3.28084,0.223694,1.53729007544,1.6133858784,19,5,8.638,13.142121155456,1.312336,0.894776,1.53729007544,0,-0.223694,-0.894776,254.5, 2.8, -1.5,0,0,1024,1024,1024,1024,0,0,0,0,276.9,0,0,98,4.256,4.247,0,0,0,0,0.634,69.08,13.142121155456,1.312336,6,P-GPS,
2600,2022-10-20 22:27:24,-34.955710265379,-54.9407737718987,1.64042,2.46063,11.009575155456,13.470205155456,3.608924,0.223694,1.67875333456,1.75491803516,19,5,8.573,13.470205155456,1.64042,0.894776,1.67875333456,0,-0.223694,-0.447388,254.6, 2.8, -1.1,0,0,1024,1024,1024,1024,0,0,0,0,276.9,0,0,98,4.222,4.219,0,0,0,0,1.436,69.08,13.470205155456,1.64042,6,P-GPS,
2700,2022-10-20 22:27:24,-34.9557102115536,-54.9407739695658,1.64042,2.46063,11.009575155456,13.470205155456,3.608924,0.223694,1.7409121292,1.81720150172,19,5,8.573,13.470205155456,1.64042,0.894776,1.7409121292,0,-0.223694,-0.223694,254.6, 2.5, -1.2,0,0,1024,1024,1024,1024,0,0,0,0,276.9,0,0,98,4.222,4.219,0,0,0,0,1.436,69.08,13.470205155456,1.64042,6,P-GPS,
2800,2022-10-20 22:27:24,-34.9557101484359,-54.9407740063757,1.64042,2.46063,11.009575155456,13.470205155456,3.608924,0,1.75754926884,1.84272643692,19,5,8.573,13.470205155456,1.64042,0.894776,1.75754926884,0,0,0,254.6, 1.9, -1.1,0,0,1024,1024,1024,1024,0,0,0,0,276.9,0,0,98,4.222,4.219,0,0,0,0,1.436,69.08,13.470205155456,1.64042,6,P-GPS,
2900,2022-10-20 22:27:24,-34.9557101137326,-54.940774033394,1.64042,2.46063,11.009575155456,13.470205155456,3.608924,0,1.76873693324,1.85774612244,19,5,8.573,13.470205155456,1.64042,0.894776,1.76873693324,0,0,0,254.6, 1.6, -1.1,0,0,1024,1024,1024,1024,0,0,0,0,276.9,0,0,98,4.222,4.219,0,0,0,0,1.436,69.08,13.470205155456,1.64042,6,P-GPS,
3000,2022-10-20 22:27:24,-34.955710247703,-54.9407738075826,1.64042,2.46063,11.009575155456,13.470205155456,3.608924,0,1.69071199636,1.94110242432,19,5,8.573,13.470205155456,1.64042,0.894776,1.76873693324,0,0,0,254.5, 1.4, -1.1,0,0,1024,1024,1024,1024,0,0,0,0,276.9,0,0,98,4.222,4.219,0,0,0,0,1.436,69.08,13.470205155456,1.64042,6,P-GPS,
3100,2022-10-20 22:27:24,-34.9557102926562,-54.9407738596104,1.64042,2.46063,11.009575155456,13.470205155456,3.608924,0,1.70167984448,1.96371069276,19,5,8.573,13.470205155456,1.64042,0.894776,1.76873693324,0,0,0,254.5, 1.4, -0.9,0,0,1024,1024,1024,1024,0,0,0,0,276.9,0,0,98,4.222,4.219,0,0,0,0,1.436,69.08,13.470205155456,1.64042,6,P-GPS,
3200,2022-10-20 22:27:24,-34.9557103628658,-54.9407739026775,1.64042,2.46063,11.009575155456,13.470205155456,3.608924,0,1.70814309928,1.99238195352,19,5,8.573,13.470205155456,1.64042,0.894776,1.76873693324,0,0,0,254.5, 1.7, -1.1,0,0,1024,1024,1024,1024,0,0,0,0,276.9,0,0,98,4.222,4.219,0,0,0,0,1.436,69.08,13.470205155456,1.64042,6,P-GPS,
3300,2022-10-20 22:27:25,-34.9557104195478,-54.940773916319,1.64042,2.46063,11.009575155456,13.470205155456,3.608924,0,1.70752630136,2.01346135052,19,5,8.573,13.470205155456,1.64042,0.894776,1.76873693324,0,0,0,254.5, 1.6, -1,0,0,1024,1024,1024,1024,0,0,0,0,276.9,0,0,98,4.222,4.219,0,0,0,0,1.436,69.08,13.470205155456,1.64042,6,P-GPS,
3400,2022-10-20 22:27:25,-34.9557106075651,-54.9407737295387,1.64042,2.46063,11.009575155456,13.470205155456,3.608924,0,1.63908141728,2.1019193586,19,5,8.573,13.470205155456,1.64042,0.894776,1.76873693324,0,0,0,254.5, 1.6, -0.9,0,0,1024,1024,1024,1024,0,0,0,0,276.9,0,0,98,4.222,4.219,0,0,0,0,1.436,69.08,13.470205155456,1.64042,6,P-GPS,
3500,2022-10-20 22:27:25,-34.9557106275661,-54.9407737074283,1.312336,2.132546,11.009575155456,13.142121155456,3.608924,0,1.63125661388,2.11176844028,19,5,8.573,13.470205155456,1.64042,0.894776,1.76873693324,0,0,0,254.5, 1.6, -0.9,0,0,1024,1024,1024,1024,0,0,0,0,276.9,0,0,97,4.222,4.219,0,0,0,0,1.436,69.08,13.142121155456,1.312336,6,P-GPS,"Punto de origen actualizado. Altitud de RPO establecida en 100m (Code: 3000001)"
3600,2022-10-20 22:27:25,-34.9557106341853,-54.9407737241562,1.312336,2.132546,11.009575155456,13.142121155456,3.608924,0,1.635744803,2.1173229024,19,5,8.573,13.470205155456,1.64042,0.894776,1.76873693324,0,0,0,254.6, 1.5, -0.7,0,0,1024,1024,1024,1024,0,0,0,0,276.9,0,0,97,4.222,4.219,0,0,0,0,1.436,69.08,13.142121155456,1.312336,6,P-GPS,
3700,2022-10-20 22:27:25,-34.9557106495627,-54.9407737186336,1.312336,2.132546,11.009575155456,13.142121155456,3.28084,0,1.63312997352,2.12316935928,19,5,8.573,13.470205155456,1.64042,0.894776,1.76873693324,0,0,0,254.6, 1.4, -0.5,0,0,1024,1024,1024,1024,0,0,0,0,276.9,0,0,97,4.222,4.219,0,0,0,0,1.436,69.08,13.142121155456,1.312336,6,P-GPS,
3800,2022-10-20 22:27:25,-34.9557107380849,-54.9407736529984,1.312336,2.132546,11.009575155456,13.142121155456,3.28084,0,1.6084154058,2.16096463608,19,5,8.415,13.470205155456,1.64042,0.894776,1.76873693324,0,0,0,254.6, 1.5, -0.6,0,0,1024,1024,1024,1024,0,0,0,0,276.9,0,0,97,4.198,4.192,0,0,0,0,3.632,69.08,13.142121155456,1.312336,6,P-GPS,
3900,2022-10-20 22:27:25,-34.9557107852353,-54.940773600706,1.312336,2.132546,11.009575155456,13.142121155456,3.28084,0,1.59033469656,2.18420938748,19,5,8.415,13.470205155456,1.64042,0.894776,1.76873693324,0,0,0,254.6, 1.5, -0.2,0,0,1024,1024,1024,1024,0,0,0,0,276.9,0,0,97,4.198,4.192,0,0,0,0,3.632,69.08,13.142121155456,1.312336,6,P-GPS,
4000,2022-10-20 22:27:25,-34.95571083545,-54.9407735473073,1.312336,2.132546,11.009575155456,13.142121155456,3.28084,0,1.57190621828,2.2085138502,19,5,8.415,13.470205155456,1.64042,0.894776,1.76873693324,0,0,0,254.6, 1.4, -0.3,0,0,1024,1024,1024,1024,0,0,0,0,276.9,0,0,97,4.198,4.192,0,0,0,0,3.632,69.08,13.142121155456,1.312336,6,P-GPS,
4100,2022-10-20 22:27:25,-34.9557108982053,-54.940773483322,1.312336,2.0013124,11.140808755456,13.142121155456,3.28084,0,1.5499180286,2.23835309,19,5,8.415,13.470205155456,1.64042,0.894776,1.76873693324,0,0,0,254.6, 1.3, 0,0,0,1024,1024,1024,1024,0,0,0,0,276.9,0,0,97,4.198,4.192,0,0,0,0,3.632,69.08,13.142121155456,1.312336,6,P-GPS,
4200,2022-10-20 22:27:25,-34.9557109858006,-54.9407734023471,1.312336,2.0013124,11.140808755456,13.142121155456,3.28084,0,1.52215556052,2.27844823564,19,5,8.415,13.470205155456,1.64042,0.894776,1.76873693324,0,0,0,254.6, 1.4, 0.1,0,0,1024,1024,1024,1024,0,0,0,0,276.9,0,0,97,4.198,4.192,0,0,0,0,3.632,69.08,13.142121155456,1.312336,6,P-GPS,
4300,2022-10-20 22:27:25,-34.9557112454967,-54.9407732074464,1.312336,2.0013124,11.140808755456,13.142121155456,3.28084,0,1.45674545344,2.38968839668,19,5,8.415,13.470205155456,1.64042,0.894776,1.76873693324,0,0,0,254.6, 0.8, 0.9,0,0,1024,1024,1024,1024,0,0,0,0,276.9,0,0,97,4.198,4.192,0,0,0,0,3.632,69.08,13.142121155456,1.312336,6,P-GPS,
4400,2022-10-20 22:27:26,-34.9557113209433,-54.9407731454565,1.64042,2.3293964,11.140808755456,13.470205155456,3.28084,0,1.43719492788,2.42287409328,19,5,8.415,13.470205155456,1.64042,0.894776,1.76873693324,0,0,0,254.6, 0.9, 0.8,0,0,1024,1024,1024,1024,0,0,0,0,276.9,0,0,97,4.198,4.192,0,0,0,0,3.632,69.08,13.470205155456,1.64042,6,P-GPS,
4500,2022-10-20 22:27:26,-34.9557113795559,-54.9407730886865,1.64042,2.3293964,11.140808755456,13.470205155456,3.28084,0,1.41978022916,2.45017724376,19,5,8.415,13.470205155456,1.64042,0.894776,1.76873693324,0,0,0,254.6, 1, 0.9,0,0,1024,1024,1024,1024,0,0,0,0,276.9,0,0,97,4.198,4.192,0,0,0,0,3.632,69.08,13.470205155456,1.64042,6,P-GPS,
4600,2022-10-20 22:27:26,-34.9557114189899,-54.940773024269,1.64042,2.3293964,11.140808755456,13.470205155456,3.28084,0,1.40039702644,2.47421923928,19,5,8.415,13.470205155456,1.64042,0.894776,1.76873693324,0,0,0,254.6, 0.8, 0.6,0,0,1024,1086,1024,1024,0,9,0,0,276.9,0,0,97,4.198,4.192,0,0,0,0,3.632,69.08,13.470205155456,1.64042,6,P-GPS,
4700,2022-10-20 22:27:26,-34.955711663653,-54.9407728733435,1.64042,2.3293964,11.140808755456,13.470205155456,3.28084,0,1.3579068676,2.5742454892,19,5,8.415,13.470205155456,1.64042,0.894776,1.76873693324,0,0,0,254.5, 0.4, 1.6,0,0,1024,1340,1024,1024,0,48,0,0,276.9,0,0,97,4.198,4.192,0,0,0,0,3.632,69.08,13.470205155456,1.64042,6,P-GPS,
4800,2022-10-20 22:27:26,-34.9557116811071,-54.9407728428922,1.64042,2.3293964,11.140808755456,13.470205155456,3.28084,0,1.34923232664,2.58535769428,19,5,8.383,13.470205155456,1.64042,0.894776,1.76873693324,0,0,0,254.5, 0.7, 1.4,0,0,1024,1340,1024,1024,0,48,0,0,276.9,0,0,97,4.194,4.187,0,0,0,0,4.198,69.26,13.470205155456,1.64042,6,P-GPS,
4900,2022-10-20 22:27:26,-34.9557116821497,-54.9407728246309,1.64042,2.3293964,11.140808755456,13.470205155456,3.28084,0,1.34381237896,2.5908301354,19,5,8.383,13.470205155456,1.64042,0.894776,1.76873693324,0,0,0,254.6, 0.9, 4.4,0,0,1024,1024,1024,1024,0,0,0,0,276.9,0,0,97,4.194,4.187,0,0,0,0,4.198,69.26,13.470205155456,1.64042,6,P-GPS,
5000,2022-10-20 22:27:26,-34.9557116452638,-54.9407728172644,1.64042,2.3293964,11.140808755456,13.470205155456,3.28084,0,1.3407644786,2.60446858728,19,5,8.383,13.470205155456,1.64042,0.894776,1.76873693324,0,0,0,254.5, 0.9, 0.7,0,0,1024,1024,1024,1024,0,0,0,0,276.9,0,0,97,4.194,4.187,0,0,0,0,4.198,69.26,13.470205155456,1.64042,6,P-GPS,
5100,2022-10-20 22:27:26,-34.9557116424861,-54.9407728038268,1.64042,2.3293964,11.140808755456,13.470205155456,3.28084,0,1.33669295616,2.6086122882,19,5,8.383,13.470205155456,1.64042,0.894776,1.76873693324,0,0,0,254.4, 1, -0.9,0,0,1024,1024,1024,1024,0,0,0,0,276.9,0,0,97,4.194,4.187,0,0,0,0,4.198,69.26,13.470205155456,1.64042,6,P-GPS,
5200,2022-10-20 22:27:26,-34.9557117425458,-54.9407727649541,1.64042,2.3293964,11.140808755456,13.470205155456,3.28084,0,1.32771001624,2.64692593772,19,5,8.383,13.470205155456,1.64042,0.894776,1.76873693324,0,0,0,254.5, 1, -1,0,0,1024,1024,1024,1024,0,0,0,0,276.9,0,0,97,4.194,4.187,0,0,0,0,4.198,69.26,13.470205155456,1.64042,6,P-GPS,
5300,2022-10-20 22:27:27,-34.9557118099125,-54.9407727333598,1.64042,2.3293964,11.140808755456,13.470205155456,3.28084,0,1.32064308688,2.67325795956,19,5,8.383,13.470205155456,1.64042,0.894776,1.76873693324,0,0,0,254.5, 1, -1,0,0,1024,1086,1024,1024,0,9,0,0,276.9,0,0,97,4.194,4.187,0,0,0,0,4.198,69.26,13.470205155456,1.64042,6,P-GPS,
5400,2022-10-20 22:27:27,-34.9557118046771,-54.9407727183023,1.64042,2.3293964,11.140808755456,13.470205155456,3.28084,0,1.31596460904,2.67814641116,19,5,8.383,13.470205155456,1.64042,0.894776,1.76873693324,0,0,0,254.6, 0.9, -0.7,0,0,1024,1258,1024,1024,0,35,0,0,276.9,0,0,97,4.194,4.187,0,0,0,0,4.198,69.26,13.470205155456,1.64042,6,P-GPS,
5500,2022-10-20 22:27:27,-34.9557119282768,-54.9407725279877,1.64042,2.3293964,11.140808755456,13.470205155456,3.28084,0,1.26504597224,2.75075796204,19,5,8.383,13.470205155456,1.64042,0.894776,1.76873693324,0,0,0,254.6, 0.8, 0.3,0,0,1024,1181,1024,1024,0,24,0,0,276.9,0,0,97,4.194,4.187,0,0,0,0,4.198,69.26,13.470205155456,1.64042,6,P-GPS,
5600,2022-10-20 22:27:27,-34.9557119359459,-54.9407724613278,1.64042,2.1981628,11.272042355456,13.470205155456,3.28084,0,1.24573166716,2.77088591544,19,5,8.383,13.470205155456,1.64042,0.894776,1.76873693324,0,0,0,254.7, 0.7, 3.2,0,0,1024,1024,1024,1024,0,0,0,0,276.9,0,0,97,4.194,4.187,0,0,0,0,4.198,69.26,13.470205155456,1.64042,6,P-GPS,
5700,2022-10-20 22:27:27,-34.9557119135174,-54.9407724175936,1.64042,2.1981628,11.272042355456,13.470205155456,3.28084,0,1.23160437012,2.78631242512,19,5,8.383,13.470205155456,1.64042,0.894776,1.76873693324,0,0,0,254.7, 0.8, 3.4,0,0,1024,1024,1024,1024,0,0,0,0,276.9,0,0,97,4.194,4.187,0,0,0,0,4.198,69.26,13.470205155456,1.64042,6,P-GPS,
5800,2022-10-20 22:27:27,-34.9557118606613,-54.9407723793618,1.64042,2.1981628,11.272042355456,13.470205155456,3.28084,0,1.21766080012,2.80873368568,19,5,8.372,13.470205155456,1.64042,0.894776,1.76873693324,0,0,0,254.4, 0.9, -0.7,0,0,1024,1024,1024,1024,0,0,0,0,276.9,0,0,97,4.189,4.182,0,0,0,0,4.242,69.08,13.470205155456,1.64042,6,P-GPS,
5900,2022-10-20 22:27:27,-34.9557118208638,-54.9407723474366,1.64042,2.1981628,11.272042355456,13.470205155456,3.28084,0,1.2063976764,2.82610901432,19,5,8.372,13.470205155456,1.64042,0.894776,1.76873693324,0,0,0,254.5, 0.8, -1.1,0,0,1024,1024,1024,1024,0,0,0,0,276.9,0,0,97,4.189,4.182,0,0,0,0,4.242,69.08,13.470205155456,1.64042,6,P-GPS,
6000,2022-10-20 22:27:27,-34.9557119718999,-54.9407722244767,1.64042,2.1981628,11.272042355456,13.470205155456,3.28084,0,1.1778543684,2.8923557356,19,5,8.372,13.470205155456,1.64042,0.894776,1.76873693324,0,0,0,254.6, 0.6, -0.8,0,0,1024,1024,1024,1024,0,0,0,0,276.9,0,0,97,4.189,4.182,0,0,0,0,4.242,69.08,13.470205155456,1.64042,6,P-GPS,
6100,2022-10-20 22:27:27,-34.9557119811198,-54.9407722032613,1.64042,2.1981628,11.272042355456,13.470205155456,3.28084,0,1.17217195352,2.89953749436,19,5,8.372,13.470205155456,1.64042,0.894776,1.76873693324,0,0,0,254.6, 0.6, -0.8,0,0,1024,1024,1024,1024,0,0,0,0,276.9,0,0,97,4.189,4.182,0,0,0,0,4.242,69.08,13.470205155456,1.64042,6,P-GPS,
6200,2022-10-20 22:27:27,-34.9557120057826,-54.9407721909081,1.64042,2.1981628,11.272042355456,13.470205155456,3.28084,0,1.170111586,2.90926190412,19,5,8.372,13.470205155456,1.64042,0.894776,1.76873693324,0,0,0,254.5, 0.7, -0.5,0,0,1024,1024,1024,1024,0,0,0,0,276.9,0,0,97,4.189,4.182,0,0,0,0,4.242,69.08,13.470205155456,1.64042,6,P-GPS,
6300,2022-10-20 22:27:28,-34.9557120404273,-54.9407721731653,1.64042,2.1981628,11.272042355456,13.470205155456,3.28084,0,1.16723100848,2.92297253448,19,5,8.372,13.470205155456,1.64042,0.894776,1.76873693324,0,0,0,254.5, 0.8, -1,0,0,1024,1024,1024,1024,0,0,0,0,276.9,0,0,97,4.189,4.182,0,0,0,0,4.242,69.08,13.470205155456,1.64042,6,P-GPS,
6400,2022-10-20 22:27:28,-34.9557122503757,-54.940772067701,1.64042,2.1981628,11.272042355456,13.470205155456,3.28084,0,1.15371394768,3.00581046364,19,5,8.372,13.470205155456,1.64042,0.894776,1.76873693324,0,0,0,254.5, 0.6, -0.3,0,0,1024,1024,1024,1024,0,0,0,0,276.9,0,0,97,4.189,4.182,0,0,0,0,4.242,69.08,13.470205155456,1.64042,6,P-GPS,
6500,2022-10-20 22:27:28,-34.9557123189625,-54.9407720454007,1.64042,2.1981628,11.272042355456,13.470205155456,3.28084,0,1.15404531252,3.03170613376,19,5,8.372,13.470205155456,1.64042,0.894776,1.76873693324,0,0,0,254.5, 0.8, 0.1,0,0,1024,1024,1024,1024,0,0,0,0,276.9,0,0,97,4.189,4.182,0,0,0,0,4.242,69.08,13.470205155456,1.64042,6,P-GPS,
6600,2022-10-20 22:27:28,-34.9557123879942,-54.9407720553785,1.64042,2.1981628,11.272042355456,13.470205155456,3.28084,0,1.16421263568,3.05706702696,19,5,8.372,13.470205155456,1.64042,0.894776,1.76873693324,0,0,0,254.6, 1, 0.5,0,0,1024,1024,1024,1024,0,0,0,0,276.9,0,0,97,4.189,4.182,0,0,0,0,4.242,69.08,13.470205155456,1.64042,6,P-GPS,
6700,2022-10-20 22:27:28,-34.9557124494155,-54.9407720591598,1.64042,2.1981628,11.272042355456,13.470205155456,3.28084,0,1.17219820024,3.07950797256,19,5,8.372,13.470205155456,1.64042,0.894776,1.76873693324,0,0,0,254.6, 1.2, 0.7,0,0,1024,1025,1024,1024,0,0,0,0,276.9,0,0,97,4.189,4.182,0,0,0,0,4.242,69.08,13.470205155456,1.64042,6,P-GPS,
6800,2022-10-20 22:27:28,-34.9557126030099,-54.9407720102463,1.64042,2.1981628,11.272042355456,13.470205155456,3.608924,0,1.17750003768,3.13742136024,19,5,8.372,13.470205155456,1.64042,0.894776,1.76873693324,0,0,0,254.6, 1.2, 0.7,0,0,1024,1088,1024,1024,0,10,0,0,276.9,0,0,97,4.189,4.182,0,0,0,0,4.242,69.08,13.470205155456,1.64042,6,P-GPS,
6900,2022-10-20 22:27:28,-34.9557126633943,-54.9407719757308,1.64042,2.1981628,11.272042355456,13.470205155456,3.608924,0,1.1761319274,3.16175206968,19,5,8.365,13.470205155456,1.64042,0.894776,1.76873693324,0,0,0,254.6, 0.9, 0.4,0,0,1024,1088,1024,1024,0,10,0,0,276.9,0,0,97,4.185,4.18,0,0,0,0,4.239,69.26,13.470205155456,1.64042,6,P-GPS,
7000,2022-10-20 22:27:28,-34.9557127323393,-54.9407719306325,1.64042,2.1981628,11.272042355456,13.470205155456,3.608924,0,1.17362536564,3.19029209684,19,5,8.365,13.470205155456,1.64042,0.894776,1.76873693324,0,0,0,254.6, 0.7, 0.9,0,0,1024,1087,1024,1024,0,10,0,0,276.9,0,0,97,4.185,4.18,0,0,0,0,4.239,69.26,13.470205155456,1.64042,6,P-GPS,
7100,2022-10-20 22:27:28,-34.9557127855992,-54.9407719054111,1.64042,2.1981628,11.272042355456,13.470205155456,3.608924,0,1.1747703788,3.2111385542,19,5,8.365,13.470205155456,1.64042,0.894776,1.76873693324,0,0,0,254.6, 0.6, 1,0,0,1024,1092,1024,1024,0,10,0,0,276.9,0,0,97,4.185,4.18,0,0,0,0,4.239,69.26,13.470205155456,1.64042,6,P-GPS,
7200,2022-10-20 22:27:28,-34.9557129894845,-54.9407718742323,1.64042,2.1981628,11.272042355456,13.470205155456,3.608924,0,1.19972444784,3.2861221524,19,5,8.365,13.470205155456,1.64042,0.894776,1.76873693324,0,0,0,254.5, 0.6, 1,0,0,1024,1098,1024,1024,0,11,0,0,276.9,0,0,97,4.185,4.18,0,0,0,0,4.239,69.26,13.470205155456,1.64042,6,P-GPS,
7300,2022-10-20 22:27:28,-34.9557129988277,-54.9407718777013,1.64042,2.1981628,11.272042355456,13.470205155456,3.608924,0,1.20225725632,3.2896654596,19,5,8.365,13.470205155456,1.64042,0.894776,1.76873693324,0,0,0,254.5, 0.6, 0.8,0,0,1024,1130,1024,1024,0,16,0,0,276.9,0,0,97,4.185,4.18,0,0,0,0,4.239,69.26,13.470205155456,1.64042,6,P-GPS,
7400,2022-10-20 22:27:29,-34.9557129637607,-54.9407718649016,1.64042,2.1981628,11.272042355456,13.470205155456,3.608924,0,1.19284124552,3.3030184784,19,5,8.365,13.470205155456,1.64042,0.894776,1.76873693324,0,0,0,254.5, 0.7, 1,0,0,1024,1178,1024,1024,0,23,0,0,276.9,0,0,97,4.185,4.18,0,0,0,0,4.239,69.26,13.470205155456,1.64042,6,P-GPS,
7500,2022-10-20 22:27:29,-34.9557129161459,-54.9407718552563,1.64042,2.1981628,11.272042355456,13.470205155456,3.608924,0,1.1822342898,3.3206365892,19,5,8.365,13.470205155456,1.64042,0.894776,1.76873693324,0,0,0,254.6, 0.8, 1.3,0,0,1024,1178,1024,1024,0,23,0,0,276.9,0,0,97,4.185,4.18,0,0,0,0,4.239,69.26,13.470205155456,1.64042,6,P-GPS,
7600,2022-10-20 22:27:29,-34.9557128524904,-54.9407718451966,1.64042,2.1981628,11.272042355456,13.470205155456,3.608924,0,1.1690781214,3.3440617868,19,5,8.365,13.470205155456,1.64042,0.894776,1.76873693324,0,0,0,254.6, 0.8, 1.8,0,0,1024,1176,1024,1024,0,23,0,0,276.9,0,0,97,4.185,4.18,0,0,0,0,4.239,69.26,13.470205155456,1.64042,6,P-GPS,
7700,2022-10-20 22:27:29,-34.955712778182,-54.9407717282134,1.64042,2.1981628,11.272042355456,13.470205155456,3.608924,0,1.12573494416,3.3883203184,19,5,8.365,13.470205155456,1.64042,0.894776,1.76873693324,0,0,0,254.6, 0.9, 2.2,0,0,1024,1176,1024,1024,0,23,0,0,276.9,0,0,97,4.185,4.18,0,0,0,0,4.239,69.26,13.470205155456,1.64042,6,P-GPS,
7800,2022-10-20 22:27:29,-34.9557126941816,-54.9407717242835,1.64042,2.1981628,11.272042355456,13.470205155456,3.608924,0.223694,1.111630613,3.4189961724,19,5,8.365,13.470205155456,1.64042,0.894776,1.76873693324,0.223694,0,0,254.5, 0.8, 1.9,0,0,1024,1172,1024,1024,0,22,0,0,276.9,0,0,97,4.185,4.18,0,0,0,0,4.239,69.26,13.470205155456,1.64042,6,P-GPS,
7900,2022-10-20 22:27:29,-34.9557125841912,-54.9407717393272,1.64042,2.1981628,11.272042355456,13.470205155456,3.608924,0.223694,1.09976053388,3.4593505044,19,5,8.357,13.470205155456,1.64042,0.894776,1.76873693324,0.223694,0,0,254.5, 0.8, 1.7,0,0,1024,1170,1024,1024,0,22,0,0,276.9,0,0,97,4.183,4.175,0,0,0,0,4.244,69.26,13.470205155456,1.64042,6,P-GPS,
8000,2022-10-20 22:27:29,-34.9557124321984,-54.9407717912419,1.64042,2.1981628,11.272042355456,13.470205155456,3.608924,0.223694,1.09439307964,3.5169620548,19,5,8.357,13.470205155456,1.64042,0.894776,1.76873693324,0.223694,0,0,254.5, 0.8, 1.6,0,0,1024,1162,1024,1024,0,21,0,0,276.9,0,0,97,4.183,4.175,0,0,0,0,4.244,69.26,13.470205155456,1.64042,6,P-GPS,
8100,2022-10-20 22:27:29,-34.955712377823,-54.940771809673,1.64042,2.1981628,11.272042355456,13.470205155456,3.608924,0.223694,1.09316276464,3.5375329216,19,5,8.357,13.470205155456,1.64042,0.894776,1.76873693324,0.223694,0,0,254.5, 0.8, 1.6,0,0,1024,1156,1024,1024,0,20,0,0,276.9,0,0,97,4.183,4.175,0,0,0,0,4.244,69.26,13.470205155456,1.64042,6,P-GPS,
8200,2022-10-20 22:27:29,-34.9557122100069,-54.9407718757107,1.64042,2.1981628,11.272042355456,13.470205155456,3.608924,0.447388,1.09444885392,3.601870194,19,5,8.357,13.470205155456,1.64042,0.894776,1.76873693324,0.447388,0,0,254.5, 0.8, 1.3,0,0,1024,1112,1024,1024,0,13,0,0,276.9,0,0,97,4.183,4.175,0,0,0,0,4.244,69.26,13.470205155456,1.64042,6,P-GPS,
8300,2022-10-20 22:27:30,-34.9557120355387,-54.9407719380226,1.64042,2.1981628,11.272042355456,13.470205155456,3.608924,0.447388,1.09792654432,3.6682087788,19,5,8.357,13.470205155456,1.64042,0.894776,1.76873693324,0.447388,0,0,254.5, 0.8, 1.3,0,0,1024,1090,1063,1024,0,10,6,0,276.9,0,0,97,4.183,4.175,0,0,0,0,4.244,69.26,13.470205155456,1.64042,6,P-GPS,
8400,2022-10-20 22:27:30,-34.9557118449806,-54.9407719932665,1.64042,2.1981628,11.272042355456,13.470205155456,3.608924,0.447388,1.10246722688,3.739665474,19,5,8.357,13.470205155456,1.64042,0.894776,1.76873693324,0.447388,0,0,254.5, 0.7, 0.9,0,0,1024,1024,1343,1024,0,0,48,0,276.9,0,0,97,4.183,4.175,0,0,0,0,4.244,69.26,13.470205155456,1.64042,6,P-GPS,
8500,2022-10-20 22:27:30,-34.9557118225586,-54.9407720230692,1.64042,2.1981628,11.272042355456,13.470205155456,3.608924,0.447388,1.11021329012,3.7517717736,19,5,8.357,13.470205155456,1.64042,0.894776,1.76873693324,0.447388,0,0,254.5, 0.8, 0.3,0,0,1024,1024,1563,1024,0,0,82,0,276.9,0,0,97,4.183,4.175,0,0,0,0,4.244,69.26,13.470205155456,1.64042,6,P-GPS,
8600,2022-10-20 22:27:30,-34.9557116314839,-54.940772104144,1.64042,2.1981628,11.272042355456,13.470205155456,3.608924,0.447388,1.12761158464,3.8255578652,19,5,8.357,13.470205155456,1.64042,0.894776,1.76873693324,0.447388,0,-0.223694,254.4, 0.5, -1.7,0,0,1024,1024,1563,1024,0,0,82,0,276.9,0,0,97,4.183,4.175,0,0,0,0,4.244,69.26,13.470205155456,1.64042,6,P-GPS,
8700,2022-10-20 22:27:30,-34.9557114609524,-54.9407721728765,1.64042,2.1981628,11.272042355456,13.470205155456,3.608924,0.223694,1.1458497742,3.89107624,19,5,8.357,13.470205155456,1.64042,0.894776,1.76873693324,0.223694,0,-0.894776,254.5, 0.6, -2.1,0,0,1024,1024,1609,1024,0,0,89,0,276.9,0,0,97,4.183,4.175,0,0,0,0,4.244,69.26,13.470205155456,1.64042,6,P-GPS,
8800,2022-10-20 22:27:30,-34.9557112859106,-54.9407722262197,1.968504,2.5262468,11.272042355456,13.798289155456,3.937008,0.223694,1.16296263564,3.9569226988,19,5,8.357,13.798289155456,1.968504,0.894776,1.76873693324,0.223694,0,-1.565858,254.6, 0.5, -1.4,0,0,1024,1024,1468,1024,0,0,67,0,276.9,0,0,97,4.183,4.175,0,0,0,0,4.244,69.26,13.798289155456,1.968504,6,P-GPS,
8900,2022-10-20 22:27:30,-34.9557112522726,-54.9407722210596,2.296588,2.8543308,11.272042355456,14.126373155456,4.265092,0,1.16204728128,3.9692914656,19,5,8.362,14.126373155456,2.296588,0.894776,1.76873693324,0,0,-2.460634,254.6, 0.6, -1.1,0,0,1024,1024,1103,1024,0,0,12,0,276.9,0,0,97,4.183,4.176,0,0,0,0,4.143,69.26,14.126373155456,2.296588,6,P-GPS,
9000,2022-10-20 22:27:30,-34.9557111987094,-54.9407722474168,2.624672,3.1824148,11.272042355456,14.454457155456,4.593176,0,1.17117129732,3.9903544584,19,5,8.362,14.454457155456,2.624672,0.894776,1.76873693324,0,0,-2.908022,254.6, 1.4, -1,0,0,1222,1024,1024,1024,30,0,0,0,276.9,0,0,97,4.183,4.176,0,0,0,0,4.143,69.26,14.454457155456,2.624672,6,P-GPS,
9100,2022-10-20 22:27:30,-34.9557111733611,-54.9407722617629,3.28084,3.8385828,11.272042355456,15.110625155456,5.249344,0,1.17615489328,4.0005578708,19,5,8.362,15.110625155456,3.28084,0.894776,1.76873693324,0,0,-2.460634,254.5, 1.6, -1.8,0,0,1665,1024,1024,1024,97,0,0,0,276.9,0,0,97,4.183,4.176,0,0,0,0,4.143,69.26,15.110625155456,3.28084,6,P-GPS,
9200,2022-10-20 22:27:30,-34.9557111878261,-54.9407722603227,3.28084,3.8385828,11.272042355456,15.110625155456,5.249344,0,1.17531499824,4.0058400232,19,5,8.362,15.110625155456,3.28084,0.894776,1.76873693324,0,0,-1.789552,254.7, -2.2, -1.2,0,0,1684,1024,1024,1024,100,0,0,0,276.9,0,0,97,4.183,4.176,0,0,0,0,4.143,69.26,15.110625155456,3.28084,6,P-GPS,
9300,2022-10-20 22:27:31,-34.9557112094409,-54.9407723116596,3.608924,4.1666668,11.272042355456,15.438709155456,5.577428,0,1.1900590932,4.0230972416,19,5,8.362,15.438709155456,3.608924,0.894776,1.76873693324,0,0,-1.11847,254.8, -11, -0.7,0,0,1684,1024,1024,1024,100,0,0,0,276.9,0,0,97,4.183,4.176,0,0,0,0,4.143,69.26,15.438709155456,3.608924,6,P-GPS,
9400,2022-10-20 22:27:31,-34.9557113128629,-54.9407725995454,3.608924,4.2979004,11.140808755456,15.438709155456,5.577428,0.447388,1.27412077568,4.1170933076,19,5,8.362,15.438709155456,3.608924,0.894776,1.76873693324,0,-0.447388,-0.447388,254.8, -17.2, -0.4,0,0,1684,1024,1024,1024,100,0,0,0,276.9,0,0,97,4.183,4.176,0,0,0,0,4.143,69.26,15.438709155456,3.608924,6,P-GPS,
9500,2022-10-20 22:27:31,-34.9557113981669,-54.9407730490877,3.608924,4.2979004,11.140808755456,15.438709155456,5.577428,0.9171454,1.40786421828,4.255085438,19,5,8.362,15.438709155456,3.608924,0.9171454,1.76873693324,-0.223694,-0.894776,0,254.7, -18.5, -0.1,0,0,1684,1024,1024,1024,100,0,0,0,276.9,0,0,97,4.183,4.176,0,0,0,0,4.143,69.26,15.438709155456,3.608924,6,P-GPS,
9600,2022-10-20 22:27:31,-34.9557115727406,-54.9407738017458,3.608924,4.429134,11.009575155456,15.438709155456,5.249344,1.6329662,1.633694278,4.4889765216,19,5,8.362,15.438709155456,3.608924,1.6329662,1.76873693324,-0.447388,-1.565858,0,254.6, -18.1, -0.1,0,0,1684,1024,1024,1024,100,0,0,0,276.9,0,0,97,4.183,4.176,0,0,0,0,4.143,69.26,15.438709155456,3.608924,6,P-GPS,
9700,2022-10-20 22:27:31,-34.9557118257068,-54.9407748113035,3.937008,4.8884516,10.878341555456,15.766793155456,5.249344,2.3264176,1.9401083298,4.8046589464,19,5,8.362,15.766793155456,3.937008,2.3264176,1.9401083298,-0.671082,-2.23694,0,254.5, -17, -0.4,0,0,1684,1024,1024,1024,100,0,0,0,276.9,0,0,97,4.183,4.176,0,0,0,0,4.143,69.26,15.766793155456,3.937008,6,P-GPS,
9800,2022-10-20 22:27:31,-34.9557123599647,-54.9407759678758,3.937008,5.0196852,10.747107955456,15.766793155456,5.249344,3.0422384,2.30563983756,5.2016733948,19,5,8.362,15.766793155456,3.937008,3.0422384,2.30563983756,-0.894776,-2.908022,0,254.5, -16, -0.5,0,0,1684,1024,1024,1024,100,0,0,0,276.9,0,0,97,4.183,4.176,0,0,0,0,4.143,69.26,15.766793155456,3.937008,6,P-GPS,
9900,2022-10-20 22:27:31,-34.9557128320791,-54.9407775435035,3.937008,5.3149608,10.451832355456,15.766793155456,5.577428,3.7580592,2.79882226804,5.7033138308,19,5,8.383,15.766793155456,3.937008,3.7580592,2.79882226804,-1.11847,-3.579104,0,254.5, -15.2, -0.1,0,0,1684,1024,1024,1024,100,0,0,0,276.9,0,0,97,4.177,4.166,0,0,0,0,4.584,69.26,15.766793155456,3.937008,6,P-GPS,
10000,2022-10-20 22:27:31,-34.9557134323146,-54.9407795606611,3.937008,5.577428,10.189365155456,15.766793155456,5.577428,4.1830778,3.4334646768,6.3450461348,19,5,8.383,15.766793155456,3.937008,4.1830778,3.4334646768,-1.11847,-4.026492,0,254.6, -14.6, 0.1,0,0,1684,1024,1318,1024,100,0,45,0,276.9,0,0,97,4.177,4.166,0,0,0,0,4.584,69.26,15.766793155456,3.937008,6,P-GPS,
10100,2022-10-20 22:27:31,-34.955714069173,-54.9407817641933,3.937008,5.8398952,9.926897955456,15.766793155456,5.577428,4.6752046,4.1276576124,7.0437338212,19,5,8.383,15.766793155456,3.937008,4.6752046,4.1276576124,-1.342164,-4.47388,0,254.6, -14.5, 0.4,0,0,1684,1024,1534,1024,100,0,77,0,276.9,0,0,97,4.177,4.166,0,0,0,0,4.584,69.26,15.766793155456,3.937008,6,P-GPS,
10200,2022-10-20 22:27:31,-34.9557151510794,-54.9407848322227,3.937008,6.2664044,9.500388755456,15.766793155456,5.577428,5.3239172,5.1146327096,8.0424543256,19,5,8.383,15.766793155456,3.937008,5.3239172,5.1146327096,-1.342164,-5.144962,-0.447388,254.5, -13.8, 0.3,0,0,1684,1024,1665,1024,100,0,97,0,276.9,0,0,97,4.177,4.166,0,0,0,0,4.584,69.26,15.766793155456,3.937008,6,P-GPS,
10300,2022-10-20 22:27:32,-34.9557159306546,-54.9407876448165,3.937008,6.6601052,9.106687955456,15.766793155456,5.905512,5.816044,6.0012469112,8.9303152464,19,5,8.383,15.766793155456,3.937008,5.816044,6.0012469112,-1.565858,-5.59235,-1.11847,254.5, -13, 0.5,0,0,1684,1024,1684,1024,100,0,100,0,276.9,0,0,97,4.177,4.166,0,0,0,0,4.584,69.26,15.766793155456,3.937008,6,P-GPS,
10400,2022-10-20 22:27:32,-34.9557168325146,-54.9407908417802,4.265092,7.4146984,8.680178755456,16.094877155456,6.233596,6.5094954,7.010991038,9.9413389008,19,5,8.383,16.094877155456,4.265092,6.5094954,7.010991038,-1.789552,-6.263432,-2.013246,254.6, -12.6, 0.2,0,0,1684,1024,1684,1024,100,0,100,0,276.9,0,0,97,4.177,4.166,0,0,0,0,4.584,69.26,16.094877155456,4.265092,6,P-GPS,
10500,2022-10-20 22:27:32,-34.9557177560679,-54.9407940925571,4.593176,8.1364832,8.286477955456,16.422961155456,6.56168,7.0016222,8.0387469764,10.970144708,19,5,8.383,16.422961155456,4.593176,7.0016222,8.0387469764,-2.013246,-6.71082,-2.684328,254.7, -12.4, 0,0,0,1684,1024,1684,1024,100,0,100,0,276.9,0,0,97,4.177,4.166,0,0,0,0,4.584,69.26,16.422961155456,4.593176,6,P-GPS,
10600,2022-10-20 22:27:32,-34.9557192468701,-54.9407977688773,5.249344,9.350394,7.728735155456,17.079129155456,7.217848,7.4266408,9.2501971464,12.196686742,19,5,8.383,17.079129155456,5.249344,7.4266408,9.2501971464,-2.013246,-7.158208,-3.579104,254.7, -12, 0,0,0,1684,1024,1684,1024,100,0,100,0,276.9,0,0,97,4.177,4.166,0,0,0,0,4.584,69.26,17.079129155456,5.249344,6,P-GPS,
10700,2022-10-20 22:27:32,-34.9557202895782,-54.9408013651583,5.905512,10.4002628,7.335034355456,17.735297155456,7.874016,7.4266408,10.3905515136,13.3373691932,19,5,8.383,17.735297155456,5.905512,7.4266408,10.3905515136,-2.23694,-7.381902,-4.47388,254.7, -11.9, -0.2,0,0,1684,1024,1684,1024,100,0,100,0,276.9,0,0,97,4.177,4.166,0,0,0,0,4.584,69.26,17.735297155456,5.905512,6,P-GPS,
10800,2022-10-20 22:27:32,-34.9557214123546,-54.9408053121803,6.56168,11.6141736,6.777291555456,18.391465155456,8.530184,8.1424616,11.6396985352,14.5867130652,19,5,8.383,18.391465155456,6.56168,8.1424616,11.6396985352,-2.23694,-7.82929,-5.144962,254.7, -11.4, 0.2,0,0,1684,1024,1684,1024,100,0,100,0,276.9,0,0,97,4.177,4.166,0,0,0,0,4.584,69.26,18.391465155456,6.56168,6,P-GPS,
10900,2022-10-20 22:27:32,-34.9557225509691,-54.940809276154,7.545932,13.12336,6.252357155456,19.375717155456,9.514436,8.4108944,12.8955384704,15.8427498508,19,5,8.233,19.375717155456,7.545932,8.4108944,12.8955384704,-2.460634,-8.052984,-5.816044,254.7, -11.7, 0.3,0,0,1684,1024,1684,1024,100,0,100,0,276.9,0,0,97,4.091,4.076,0,0,0,0,4.947,69.44,19.375717155456,7.545932,6,P-GPS,
11000,2022-10-20 22:27:32,-34.9557238464419,-54.9408137135339,8.530184,14.7965884,5.563380755456,20.359969155456,10.170604,8.8582824,14.303806232,17.251312888,19,5,8.233,20.359969155456,8.530184,8.8582824,14.303806232,-2.460634,-8.500372,-6.039738,254.8, -12.4, 0.1,0,0,1684,1024,1684,1024,100,0,100,0,276.9,0,0,97,4.091,4.076,0,0,0,0,4.947,69.44,20.359969155456,8.530184,6,P-GPS,
11100,2022-10-20 22:27:32,-34.955725538221,-54.9408180571712,9.514436,16.3385832,5.005637955456,21.344221155456,11.154856,9.1267152,15.7322511596,18.6894034852,19,5,8.233,21.344221155456,9.514436,9.1267152,15.7322511596,-2.684328,-8.724066,-6.263432,254.7, -12.2, 0.3,0,0,1684,1024,1684,1024,100,0,100,0,276.9,0,0,97,4.091,4.076,0,0,0,0,4.947,69.44,21.344221155456,9.514436,6,P-GPS,
11200,2022-10-20 22:27:32,-34.9557269881028,-54.9408227651902,10.498688,18.0118116,4.316661555456,22.328473155456,12.139108,9.4175174,17.235728898,20.1933405412,19,5,8.233,22.328473155456,10.498688,9.4175174,17.235728898,-2.908022,-8.94776,-6.487126,254.8, -12.5, 0.7,0,0,1684,1024,1684,1024,100,0,100,0,276.9,0,0,97,4.091,4.076,0,0,0,0,4.947,69.44,22.328473155456,10.498688,6,P-GPS,
11300,2022-10-20 22:27:32,-34.9557283541035,-54.9408273200613,11.48294,19.5538064,3.758918755456,23.312725155456,13.12336,9.618842,18.6859257948,21.64370148,19,5,8.233,23.312725155456,11.48294,9.618842,18.6859257948,-2.908022,-9.171454,-6.487126,254.7, -13, 0.6,0,0,1684,1024,1684,1024,100,0,100,0,276.9,0,0,97,4.091,4.076,0,0,0,0,4.947,69.44,23.312725155456,11.48294,6,P-GPS,
11400,2022-10-20 22:27:33,-34.9557297541973,-54.9408321332556,12.467192,21.1942264,3.102750755456,24.296977155456,14.107612,10.0438606,20.2131568148,23.1709325,19,5,8.233,24.296977155456,12.467192,10.0438606,20.2131568148,-2.908022,-9.618842,-6.487126,254.5, -13.2, 0.8,0,0,1684,1024,1684,1024,100,0,100,0,276.9,0,0,97,4.091,4.076,0,0,0,0,4.947,69.44,24.296977155456,12.467192,6,P-GPS,
11500,2022-10-20 22:27:33,-34.9557314855525,-54.9408366351313,13.779528,22.7034128,2.905900355456,25.609313155456,15.091864,10.3346628,21.6930453136,24.65797323,19,5,8.233,25.609313155456,13.779528,10.3346628,21.6930453136,-3.131716,-9.842536,-6.487126,254.6, -13.5, 0.9,0,0,1684,1024,1684,1024,100,0,100,0,276.9,0,0,97,4.091,4.076,0,0,0,0,4.947,69.44,25.609313155456,13.779528,6,P-GPS,
11600,2022-10-20 22:27:33,-34.9557328970307,-54.9408418570164,14.76378,23.6876648,2.905900355456,26.593565155456,16.076116,10.5359874,23.3367461536,26.302166196,19,5,8.233,26.593565155456,14.76378,10.5359874,23.3367461536,-3.131716,-10.06623,-6.487126,254.7, -12.8, 1.1,0,0,1684,1024,1684,1024,100,0,100,0,276.9,0,0,97,4.091,4.076,0,0,0,0,4.947,69.44,26.593565155456,14.76378,6,P-GPS,
11700,2022-10-20 22:27:33,-34.9557342695517,-54.9408469517912,15.748032,24.6719168,2.905900355456,27.577817155456,17.388452,10.7596814,24.939961428,27.905840788,19,5,8.233,27.577817155456,15.748032,10.7596814,24.939961428,-3.131716,-10.289924,-6.71082,254.7, -12.6, 1.3,0,0,1684,1024,1684,1024,100,0,100,0,276.9,0,0,97,4.091,4.076,0,0,0,0,4.947,69.44,27.577817155456,15.748032,6,P-GPS,
11800,2022-10-20 22:27:33,-34.9557357530545,-54.940852425984,16.732284,25.6561688,2.905900355456,28.562069155456,18.372704,11.2518082,26.663714764,29.6299550164,19,5,8.233,28.562069155456,16.732284,11.2518082,26.663714764,-3.35541,-10.737312,-6.71082,254.7, -12.7, 1.4,0,0,1684,1024,1684,1024,100,0,100,0,276.9,0,0,97,4.091,4.076,0,0,0,0,4.947,69.44,28.562069155456,16.732284,6,P-GPS,
11900,2022-10-20 22:27:33,-34.9557373155823,-54.9408576515485,17.716536,26.6404208,2.905900355456,29.546321155456,19.356956,11.4531328,28.3269694104,31.293308088,19,5,8.233,29.546321155456,17.716536,11.4531328,28.3269694104,-3.35541,-10.961006,-6.71082,254.7, -13, 1.4,0,0,1684,1024,1684,1024,100,0,100,0,276.9,0,0,97,4.091,4.076,0,0,0,0,4.947,69.44,29.546321155456,17.716536,6,P-GPS,
12000,2022-10-20 22:27:33,-34.9557390314835,-54.9408635739225,19.028872,27.9527568,2.905900355456,30.858657155456,20.669292,11.6768268,30.2053159272,33.171588988,19,5,8.213,30.858657155456,19.028872,11.6768268,30.2053159272,-3.35541,-11.1847,-6.71082,254.6, -12.9, 1.3,0,0,1684,1024,1684,1024,100,0,100,0,276.9,0,0,97,4.116,4.106,0,0,0,0,6.685,69.44,30.858657155456,19.028872,6,P-GPS,
12100,2022-10-20 22:27:33,-34.9557405105764,-54.9408687438053,20.013124,28.9370088,2.905900355456,31.842909155456,21.653544,11.967629,31.8427175544,34.809056232,19,5,8.213,31.842909155456,20.013124,11.967629,31.8427175544,-3.579104,-11.408394,-6.71082,254.5, -12.9, 1.2,0,0,1684,1024,1684,1024,100,0,100,0,276.9,0,0,97,4.116,4.106,0,0,0,0,6.685,69.44,31.842909155456,20.013124,6,P-GPS,
12200,2022-10-20 22:27:33,-34.9557421522824,-54.9408745554118,20.997376,29.9212608,2.905900355456,32.827161155456,22.637796,12.1689536,33.680775356,36.647310884,19,5,8.213,32.827161155456,20.997376,12.1689536,33.680775356,-3.579104,-11.632088,-6.71082,254.5, -12.6, 1.1,0,0,1684,1024,1684,1024,100,0,100,0,276.9,0,0,97,4.116,4.106,0,0,0,0,6.685,69.44,32.827161155456,20.997376,6,P-GPS,
12300,2022-10-20 22:27:33,-34.9557443333422,-54.9408798053311,21.981628,30.9055128,2.905900355456,33.811413155456,23.622048,12.3926476,35.426838404,38.40715346,19,5,8.213,33.811413155456,21.981628,12.3926476,35.426838404,-3.579104,-11.855782,-6.487126,254.5, -12.7, 1.2,0,0,1684,1024,1684,1024,100,0,100,0,276.9,0,0,97,4.116,4.106,0,0,0,0,6.685,69.44,33.811413155456,21.981628,6,P-GPS,
12400,2022-10-20 22:27:34,-34.9557460450615,-54.9408858891159,22.96588,31.8897648,2.905900355456,34.795665155456,24.6063,12.3926476,37.350066812,40.330709952,19,5,8.213,34.795665155456,22.96588,12.3926476,37.350066812,-3.579104,-11.855782,-6.71082,254.5, -12.8, 1.3,0,0,1684,1024,1684,1024,100,0,100,0,276.9,0,0,97,4.116,4.106,0,0,0,0,6.685,69.44,34.795665155456,22.96588,6,P-GPS,
12500,2022-10-20 22:27:34,-34.9557476807456,-54.940891758087,23.950132,32.8740168,2.905900355456,35.779917155456,25.918636,12.6610804,39.203413328,42.184384552,19,5,8.213,35.779917155456,23.950132,12.6610804,39.203413328,-3.802798,-12.079476,-6.71082,254.5, -12.8, 1.4,0,0,1684,1024,1684,1024,100,0,100,0,276.9,0,0,97,4.116,4.106,0,0,0,0,6.685,69.44,35.779917155456,23.950132,6,P-GPS,
12600,2022-10-20 22:27:34,-34.9557493957707,-54.940898017467,24.934384,33.8582688,2.905900355456,36.764169155456,26.902888,12.8847744,41.176510504,44.157809812,19,5,8.213,36.764169155456,24.934384,12.8847744,41.176510504,-3.802798,-12.30317,-6.71082,254.6, -13.1, 2,0,0,1684,1024,1684,1024,100,0,100,0,276.9,0,0,97,4.116,4.106,0,0,0,0,6.685,69.44,36.764169155456,24.934384,6,P-GPS,
12700,2022-10-20 22:27:34,-34.9557510298133,-54.9409040464692,25.918636,34.8425208,2.905900355456,37.748421155456,28.215224,13.086099,43.074804528,46.056760004,19,5,8.213,37.748421155456,25.918636,13.086099,43.074804528,-3.802798,-12.526864,-6.71082,254.5, -13.4, 2.2,0,0,1684,1024,1684,1024,100,0,100,0,276.9,0,0,97,4.116,4.106,0,0,0,0,6.685,69.44,37.748421155456,25.918636,6,P-GPS,
12800,2022-10-20 22:27:34,-34.9557530405671,-54.9409103715863,26.902888,35.8267728,2.905900355456,38.732673155456,29.199476,13.3769012,45.102691732,48.08563146,19,5,8.213,38.732673155456,26.902888,13.3769012,45.102691732,-4.026492,-12.750558,-6.71082,254.5, -13.4, 1.9,0,0,1684,1024,1684,1024,100,0,100,0,276.9,0,0,97,4.116,4.106,0,0,0,0,6.685,69.44,38.732673155456,26.902888,6,P-GPS,
12900,2022-10-20 22:27:34,-34.9557546935354,-54.9409165662327,27.88714,36.8110248,2.905900355456,39.716925155456,30.183728,13.5782258,47.050198356,50.033466168,19,5,8.213,39.716925155456,27.88714,13.5782258,47.050198356,-4.026492,-12.974252,-6.71082,254.5, -13.1, 1.8,0,0,1684,1024,1684,1024,100,0,100,0,276.9,0,0,97,4.116,4.106,0,0,0,0,6.685,69.44,39.716925155456,27.88714,6,P-GPS,
13000,2022-10-20 22:27:34,-34.955756439742,-54.9409231755279,28.871392,37.7952768,2.905900355456,40.701177155456,31.16798,13.5782258,49.12565774,52.110237888,19,5,8.229,40.701177155456,28.871392,13.5782258,49.12565774,-4.026492,-12.974252,-6.487126,254.6, -12.7, 1.8,0,0,1684,1024,1684,1024,100,0,100,0,276.9,0,0,97,4.126,4.114,0,0,0,0,5.933,69.44,40.701177155456,28.871392,6,P-GPS,
13100,2022-10-20 22:27:34,-34.9557581067573,-54.9409295429995,29.855644,38.7795288,2.905900355456,41.685429155456,32.152232,13.8019198,51.1236893,54.108925616,19,5,8.229,41.685429155456,29.855644,13.8019198,51.1236893,-4.026492,-13.197946,-6.487126,254.4, -12.8, 1.4,0,0,1684,1024,1684,1024,100,0,100,0,276.9,0,0,97,4.126,4.114,0,0,0,0,5.933,69.44,41.685429155456,29.855644,6,P-GPS,
13200,2022-10-20 22:27:34,-34.9557601728456,-54.9409363054375,30.839896,39.7637808,2.905900355456,42.669681155456,33.136484,14.0032444,53.281497768,56.267062168,19,5,8.229,42.669681155456,30.839896,14.0032444,53.281497768,-4.026492,-13.42164,-6.487126,254.6, -13.1, 1.3,0,0,1684,1024,1684,1024,100,0,100,0,276.9,0,0,97,4.126,4.114,0,0,0,0,5.933,69.44,42.669681155456,30.839896,6,P-GPS,
13300,2022-10-20 22:27:35,-34.9557618630207,-54.9409428300448,31.824148,40.7480328,2.905900355456,43.653933155456,34.120736,14.0032444,55.32644534,58.313322076,19,5,8.229,43.653933155456,31.824148,14.0032444,55.32644534,-4.026492,-13.42164,-6.487126,254.7, -13.2, 0.7,0,0,1684,1024,1684,1024,100,0,100,0,276.9,0,0,97,4.126,4.114,0,0,0,0,5.933,69.44,43.653933155456,31.824148,6,P-GPS,
13400,2022-10-20 22:27:35,-34.9557636150636,-54.9409497861299,32.8084,41.7322848,2.905900355456,44.638185155456,35.104988,14.2269384,57.500658008,60.489175164,19,5,8.229,44.638185155456,32.8084,14.2269384,57.500658008,-4.026492,-13.645334,-6.487126,254.6, -13, 1.8,0,0,1684,1024,1684,1024,100,0,100,0,276.9,0,0,97,4.126,4.114,0,0,0,0,5.933,69.44,44.638185155456,32.8084,6,P-GPS,
13500,2022-10-20 22:27:35,-34.9557652801476,-54.9409564770399,33.792652,42.7165368,2.905900355456,45.622437155456,36.08924,14.4506324,59.58989692,62.58038258,19,5,8.229,45.622437155456,33.792652,14.4506324,59.58989692,-4.026492,-13.869028,-6.487126,254.6, -12.7, 2.3,0,0,1684,1024,1684,1024,100,0,100,0,276.9,0,0,97,4.126,4.114,0,0,0,0,5.933,69.44,45.622437155456,33.792652,6,P-GPS,
13600,2022-10-20 22:27:35,-34.9557670384763,-54.9409635404221,34.776904,43.7007888,2.905900355456,46.606689155456,37.073492,14.651957,61.795605652,64.787731732,19,5,8.229,46.606689155456,34.776904,14.651957,61.795605652,-4.026492,-14.092722,-6.71082,254.8, -12.7, 2.1,0,0,1684,1024,1684,1024,100,0,100,0,276.9,0,0,97,4.126,4.114,0,0,0,0,5.933,69.44,46.606689155456,34.776904,6,P-GPS,
13700,2022-10-20 22:27:35,-34.9557686696691,-54.9409703610922,35.761156,44.6850408,2.905900355456,47.590941155456,37.72966,14.875651,63.917652964,66.912403716,19,5,8.229,47.590941155456,35.761156,14.875651,63.917652964,-4.026492,-14.316416,-6.71082,254.8, -11.7, 1.5,0,0,1684,1024,1684,1024,100,0,100,0,276.9,0,0,97,4.126,4.114,0,0,0,0,5.933,69.44,47.590941155456,35.761156,6,P-GPS,
13800,2022-10-20 22:27:35,-34.9557703653873,-54.9409775752235,36.745408,45.6692928,2.905900355456,48.575193155456,37.72966,14.875651,66.158794768,69.156498276,19,5,8.229,48.575193155456,36.745408,14.875651,66.158794768,-4.026492,-14.316416,-6.71082,254.8, -11.7, 0.5,0,0,1684,1024,1684,1024,100,0,100,0,276.9,0,0,97,4.126,4.114,0,0,0,0,5.933,69.44,48.575193155456,36.745408,6,P-GPS,
13900,2022-10-20 22:27:35,-34.9557720012831,-54.9409845329287,37.72966,46.6535448,2.905900355456,49.559445155456,37.72966,15.0769756,68.32021216,71.320868424,19,5,8.229,49.559445155456,37.72966,15.0769756,68.32021216,-4.026492,-14.54011,-6.487126,254.4, -12.2, -0.1,0,0,1684,1024,1684,1024,100,0,100,0,276.9,0,0,97,4.126,4.114,0,0,0,0,5.933,69.44,49.559445155456,37.72966,6,P-GPS,
14000,2022-10-20 22:27:35,-34.9557741251779,-54.9409921596705,38.713912,47.6377968,2.905900355456,50.543697155456,37.72966,15.3677778,70.729004888,73.729661152,19,5,8.229,50.543697155456,38.713912,15.3677778,70.729004888,-4.250186,-14.763804,-6.487126,254.4, -11, 0.7,0,0,1684,1024,1684,1024,100,0,100,0,276.9,0,0,97,4.123,4.111,0,0,0,0,5.58,69.44,50.543697155456,38.713912,6,P-GPS,
14100,2022-10-20 22:27:35,-34.955775966922,-54.9409993550078,39.698164,48.6220488,2.905900355456,51.527949155456,37.72966,15.434886,72.9822858,75.983598232,19,5,8.229,51.527949155456,39.698164,15.434886,72.9822858,-4.47388,-14.763804,-6.487126,254.5, -11.8, 0.7,0,0,1684,1024,1684,1024,100,0,100,0,276.9,0,0,97,4.123,4.111,0,0,0,0,5.58,69.44,51.527949155456,39.698164,6,P-GPS,
14200,2022-10-20 22:27:35,-34.955778060847,-54.9410070304176,40.682416,49.6063008,2.905900355456,52.512201155456,37.72966,15.6362106,75.401249132,78.402889648,19,5,8.229,52.512201155456,40.682416,15.6362106,75.401249132,-4.47388,-14.987498,-6.487126,254.4, -11.8, 1.9,0,0,1684,1024,1684,1024,100,0,100,0,276.9,0,0,97,4.123,4.111,0,0,0,0,5.58,69.44,52.512201155456,40.682416,6,P-GPS,
14300,2022-10-20 22:27:36,-34.9557800081598,-54.9410143483652,41.666668,50.5905528,2.905900355456,53.496453155456,37.72966,15.6362106,77.70177414,80.703414656,19,5,8.229,53.496453155456,41.666668,15.6362106,77.70177414,-4.47388,-14.987498,-6.487126,254.3, -10.9, 1.3,0,0,1684,1024,1684,1024,100,0,100,0,276.9,0,0,97,4.123,4.111,0,0,0,0,5.58,69.44,53.496453155456,41.666668,6,P-GPS,
14400,2022-10-20 22:27:36,-34.955781943761,-54.9410220000682,42.65092,51.5748048,2.905900355456,54.480705155456,37.72966,15.6362106,80.095475004,83.098099772,19,5,8.229,54.480705155456,42.65092,15.6362106,80.095475004,-4.47388,-14.987498,-6.487126,254.2, -11.1, 1.2,0,0,1684,1024,1684,1024,100,0,100,0,276.9,0,0,97,4.123,4.111,0,0,0,0,5.58,69.44,54.480705155456,42.65092,6,P-GPS,
14500,2022-10-20 22:27:36,-34.9557841877828,-54.9410293979582,43.635172,52.5590568,2.905900355456,55.464957155456,37.72966,15.5691024,82.453414712,85.457023732,19,5,8.229,55.464957155456,43.635172,15.6362106,82.453414712,-4.250186,-14.987498,-6.71082,254.2, -11, 1.3,0,0,1684,1024,1684,1024,100,0,100,0,276.9,0,0,97,4.123,4.111,0,0,0,0,5.58,69.44,55.464957155456,43.635172,6,P-GPS,
14600,2022-10-20 22:27:36,-34.9557859717823,-54.9410369098247,44.619424,53.5433088,2.905900355456,56.449209155456,37.72966,15.5691024,84.789700876,87.795606484,19,5,8.229,56.449209155456,44.619424,15.6362106,84.789700876,-4.250186,-14.987498,-6.71082,254.2, -11.4, 1.9,0,0,1684,1024,1684,1024,100,0,100,0,276.9,0,0,97,4.123,4.111,0,0,0,0,5.58,69.44,56.449209155456,44.619424,6,P-GPS,
14700,2022-10-20 22:27:36,-34.9557876257147,-54.9410440323066,45.603676,54.5275608,2.905900355456,57.433461155456,37.72966,15.5691024,87.000658952,90.009189232,19,5,8.229,57.433461155456,45.603676,15.6362106,87.000658952,-4.250186,-14.987498,-6.71082,254.3, -11.9, 1.8,0,0,1684,1024,1684,1024,100,0,100,0,276.9,0,0,97,4.123,4.111,0,0,0,0,5.58,69.44,57.433461155456,45.603676,6,P-GPS,
14800,2022-10-20 22:27:36,-34.9557892821224,-54.9410514785718,46.587928,55.5118128,2.905900355456,58.417713155456,37.72966,15.5691024,89.303808632,92.31627592,19,5,8.229,58.417713155456,46.587928,15.6362106,89.303808632,-4.250186,-14.987498,-6.71082,254.2, -12.7, 1.5,0,0,1684,1024,1684,1024,100,0,100,0,276.9,0,0,97,4.123,4.111,0,0,0,0,5.58,69.44,58.417713155456,46.587928,6,P-GPS,
14900,2022-10-20 22:27:36,-34.9557904529996,-54.9410580423559,47.57218,56.4960648,2.905900355456,59.401965155456,37.72966,15.5691024,91.300527856,94.325134252,19,5,8.229,59.401965155456,47.57218,15.6362106,91.300527856,-4.250186,-14.987498,-6.71082,254.4, -13.2, 0.8,0,0,1684,1024,1684,1024,100,0,100,0,276.9,0,0,97,4.123,4.111,0,0,0,0,5.58,69.44,59.401965155456,47.57218,6,P-GPS,
15000,2022-10-20 22:27:36,-34.9557920540141,-54.941065589908,48.556432,57.4803168,2.905900355456,60.386217155456,37.72966,15.7927964,93.626643416,96.656499156,19,5,8.227,60.386217155456,48.556432,15.7927964,93.626643416,-4.250186,-15.211192,-6.71082,254.4, -13.6, 1,0,0,1684,1024,1684,1024,100,0,100,0,276.9,0,0,97,4.116,4.101,0,0,0,0,5.777,69.62,60.386217155456,48.556432,6,P-GPS,
15100,2022-10-20 22:27:36,-34.9557936603504,-54.9410731636964,49.540684,58.4645688,2.905900355456,61.370469155456,37.72966,15.7256882,95.960961076,98.995738076,19,5,8.227,61.370469155456,49.540684,15.7927964,95.960961076,-4.026492,-15.211192,-6.487126,254.4, -13.7, 0.9,0,0,1684,1024,1684,1024,100,0,100,0,276.9,0,0,97,4.116,4.101,0,0,0,0,5.777,69.62,61.370469155456,49.540684,6,P-GPS,
15200,2022-10-20 22:27:36,-34.9557951997706,-54.9410803613333,50.196852,59.1207368,2.905900355456,62.026637155456,37.72966,15.7256882,98.181105504,101.220147596,19,5,8.227,62.026637155456,50.196852,15.7927964,98.181105504,-4.026492,-15.211192,-6.487126,254.4, -13.6, 0.6,0,0,1684,1024,1684,1024,100,0,100,0,276.9,0,0,97,4.116,4.101,0,0,0,0,5.777,69.62,62.026637155456,50.196852,6,P-GPS,
15300,2022-10-20 22:27:36,-34.9557964052165,-54.9410872958753,51.181104,60.1049888,2.905900355456,63.010889155456,37.72966,15.9493822,100.289045204,103.33989832,19,5,8.227,63.010889155456,51.181104,15.9493822,100.289045204,-4.026492,-15.434886,-6.487126,254.4, -13.3, 0.5,0,0,1684,1024,1684,1024,100,0,100,0,276.9,0,0,97,4.116,4.101,0,0,0,0,5.777,69.62,63.010889155456,51.181104,6,P-GPS,
15400,2022-10-20 22:27:37,-34.9557980579243,-54.9410948767924,52.165356,61.0892408,2.905900355456,63.995141155456,37.72966,16.0164904,102.63123688,105.68569892,19,5,8.227,63.995141155456,52.165356,16.0164904,102.63123688,-4.250186,-15.434886,-6.487126,254.5, -13.4, 0.8,0,0,1684,1024,1684,1024,100,0,100,0,276.9,0,0,97,4.116,4.101,0,0,0,0,5.777,69.62,63.995141155456,52.165356,6,P-GPS,
15500,2022-10-20 22:27:37,-34.9557996697386,-54.9411022127397,53.149608,62.0734928,2.905900355456,64.979393155456,37.72966,16.0164904,104.899609656,107.956696368,19,5,8.227,64.979393155456,53.149608,16.0164904,104.899609656,-4.250186,-15.434886,-6.487126,254.5, -13.4, 0.9,0,0,1684,1024,1684,1024,100,0,100,0,276.9,0,0,97,4.116,4.101,0,0,0,0,5.777,69.62,64.979393155456,53.149608,6,P-GPS,
15600,2022-10-20 22:27:37,-34.9558014409581,-54.9411101553417,54.13386,63.0577448,2.905900355456,65.963645155456,37.72966,16.217815,107.358271152,110.41831062,19,5,8.227,65.963645155456,54.13386,16.217815,107.358271152,-4.250186,-15.65858,-6.487126,254.5, -12.8, 0.6,0,0,1684,1024,1684,1024,100,0,100,0,276.9,0,0,97,4.116,4.101,0,0,0,0,5.777,69.62,65.963645155456,54.13386,6,P-GPS,
15700,2022-10-20 22:27:37,-34.9558031151939,-54.9411175604233,55.118112,64.0419968,2.905900355456,66.947897155456,37.72966,16.1730762,109.653218732,112.715226704,19,5,8.227,66.947897155456,55.118112,16.217815,109.653218732,-4.026492,-15.65858,-6.487126,254.6, -13, 0.4,0,0,1684,1024,1684,1024,100,0,100,0,276.9,0,0,97,4.116,4.101,0,0,0,0,5.777,69.62,66.947897155456,55.118112,6,P-GPS,
15800,2022-10-20 22:27:37,-34.9558048353649,-54.9411253550985,55.77428,64.6981648,2.905900355456,67.604065155456,37.72966,16.1730762,112.064636132,115.128940692,19,5,8.227,67.604065155456,55.77428,16.217815,112.064636132,-4.026492,-15.65858,-6.71082,254.5, -13.4, 0,0,0,1667,1024,1684,1024,97,0,100,0,276.9,0,0,97,4.116,4.101,0,0,0,0,5.777,69.62,67.604065155456,55.77428,6,P-GPS,
15900,2022-10-20 22:27:37,-34.9558065226869,-54.9411328985322,56.758532,65.6824168,2.905900355456,68.588317155456,37.72966,16.217815,114.400594212,117.46719536,19,5,8.227,68.588317155456,56.758532,16.217815,114.400594212,-4.250186,-15.65858,-6.487126,254.6, -13.9, -0.3,0,0,1246,1024,1024,1024,34,0,0,0,276.9,0,0,97,4.116,4.101,0,0,0,0,5.777,69.62,68.588317155456,56.758532,6,P-GPS,
16000,2022-10-20 22:27:37,-34.9558084011036,-54.9411410798744,57.742784,66.6666688,2.905900355456,69.572569155456,37.72966,16.441509,116.939964372,120.007877856,19,5,8.197,69.572569155456,57.742784,16.441509,116.939964372,-4.250186,-15.882274,-6.487126,254.6, -13.5, 0.2,0,0,1024,1024,1024,1024,0,0,0,0,276.9,0,0,97,4.117,4.106,0,0,0,0,5.749,69.62,69.572569155456,57.742784,6,P-GPS,
16100,2022-10-20 22:27:37,-34.9558101920337,-54.9411488605847,58.727036,67.6509208,2.905900355456,70.556821155456,37.72966,16.217815,119.35531878,122.4245446,19,5,8.197,70.556821155456,58.727036,16.441509,119.35531878,-4.250186,-15.65858,-6.039738,254.6, -6.6, 0.2,0,0,1024,1024,1024,1024,0,0,0,0,276.9,0,0,97,4.117,4.106,0,0,0,0,5.749,69.62,70.556821155456,58.727036,6,P-GPS,
16200,2022-10-20 22:27:37,-34.9558123783501,-54.9411572266055,59.383204,68.3070888,2.905900355456,71.212989155456,37.72966,15.7927964,121.980975032,125.050200852,19,5,8.197,71.212989155456,59.383204,16.441509,121.980975032,-4.250186,-15.211192,-5.59235,254.7, 16.4, 0.5,0,0,1024,1024,1024,1024,0,0,0,0,276.9,0,0,97,4.117,4.106,0,0,0,0,5.749,69.62,71.212989155456,59.383204,6,P-GPS,
16300,2022-10-20 22:27:37,-34.9558140550416,-54.9411644808334,60.039372,68.9632568,2.905900355456,71.869157155456,37.72966,14.8085428,124.233599776,127.304137932,19,5,8.197,71.869157155456,60.039372,16.441509,124.233599776,-3.802798,-14.316416,-5.144962,254.6, 22.3, -0.1,0,0,1024,1024,1024,1024,0,0,0,0,276.9,0,0,97,4.117,4.106,0,0,0,0,5.749,69.62,71.869157155456,60.039372,6,P-GPS,
