time(millisecond),datetime(utc),latitude,longitude,height_above_takeoff(feet),height_above_ground_at_drone_location(feet),ground_elevation_at_drone_location(feet),altitude_above_seaLevel(feet),height_sonar(feet),speed(mph),distance(feet),mileage(feet),satellites,gpslevel,voltage(v),max_altitude(feet),max_ascent(feet),max_speed(mph),max_distance(feet), xSpeed(mph), ySpeed(mph), zSpeed(mph), compass_heading(degrees), pitch(degrees), roll(degrees),isPhoto,isVideo,rc_elevator,rc_aileron,rc_throttle,rc_rudder,rc_elevator(percent),rc_aileron(percent),rc_throttle(percent),rc_rudder(percent),gimbal_heading(degrees),gimbal_pitch(degrees),gimbal_roll(degrees),battery_percent,voltageCell1,voltageCell2,voltageCell3,voltageCell4,voltageCell5,voltageCell6,current(A),battery_temperature(f),altitude(feet),ascent(feet),flycStateRaw,flycState,message
0,2022-09-03 21:21:47,-34.8694532386993,-55.2752517666971,0,0,15.019950283788,15.019950283788,0.328084,0,0,0,23,5,0,15.019950283788,0,0,0,0,0,0,260.2, -14.2, -2.9,0,0,364,364,364,1684,-100,-100,-100,100,272.1,0,0,97,4.289,4.286,0,0,0,0,0,66.92,15.019950283788,0,41,Motors_Started,"En vuelo"
100,2022-09-03 21:21:47,-34.8694532176216,-55.2752517259091,0,0,15.019950283788,15.019950283788,0.328084,0.223694,0.014429626446,0.014429626446,23,5,0,15.019950283788,0,0.223694,0.014429626446,0,0.223694,0,261, -11.8, -2.1,0,0,364,364,364,1684,-100,-100,-100,100,271.8,0,0,97,4.289,4.286,0,0,0,0,0,66.92,15.019950283788,0,41,Motors_Started,
200,2022-09-03 21:21:48,-34.8694532087233,-55.2752516574818,0,0,15.019950283788,15.019950283788,0.328084,0.223694,0.034473754384,0.035168636296,23,5,0,15.019950283788,0,0.223694,0.034473754384,0,0.223694,0,260.6, -9.9, -1.9,0,0,364,364,364,1684,-100,-100,-100,100,271.8,0,0,97,4.289,4.286,0,0,0,0,0,66.92,15.019950283788,0,41,Motors_Started,
300,2022-09-03 21:21:48,-34.8694530039954,-55.2752512158525,0,-0.032808399999999,15.052758683788,15.019950283788,0.328084,0,0.185800858964,0.187009848504,23,5,0,15.019950283788,0,0.223694,0.185800858964,0,0,0,260.9, -7.2, -1.8,0,0,364,364,364,1684,-100,-100,-100,100,271.1,0,0,97,4.289,4.286,0,0,0,0,0,66.92,15.019950283788,0,41,Motors_Started,
400,2022-09-03 21:21:48,-34.8694529253765,-55.2752510847122,0,-0.032808399999999,15.052758683788,15.019950283788,0.328084,0,0.233975073104,0.235628944548,23,5,0,15.019950283788,0,0.223694,0.233975073104,0,0,0,261, -8.5, -0.9,0,0,364,364,364,1684,-100,-100,-100,100,271.2,0,0,97,4.289,4.286,0,0,0,0,0,66.92,15.019950283788,0,41,Motors_Started,
500,2022-09-03 21:21:48,-34.8694527964233,-55.2752510272526,0,-0.032808399999999,15.052758683788,15.019950283788,0.328084,0.223694,0.273921924776,0.285723106256,23,5,0,15.019950283788,0,0.223694,0.273921924776,0.223694,0,0,260.3, -8.6, -0.1,0,0,364,364,364,1684,-100,-100,-100,100,271.2,0,0,97,4.289,4.286,0,0,0,0,0,66.92,15.019950283788,0,41,Motors_Started,
600,2022-09-03 21:21:48,-34.8694526783884,-55.2752509416735,0,-0.032808399999999,15.052758683788,15.019950283788,0.328084,0,0.320598107372,0.33583006324,23,5,0,15.019950283788,0,0.223694,0.320598107372,0,0,0,260.3, -7.8, 1.3,0,0,364,364,364,1684,-100,-100,-100,100,271.1,0,0,97,4.289,4.286,0,0,0,0,0,66.92,15.019950283788,0,41,Motors_Started,
700,2022-09-03 21:21:48,-34.8694526320278,-55.2752510774095,0,-0.032808399999999,15.052758683788,15.019950283788,0.328084,0,0.302599747216,0.37984253184,23,5,0,15.019950283788,0,0.223694,0.320598107372,0,0,0,259.5, -7.3, 1.2,0,0,364,364,364,1684,-100,-100,-100,100,270.7,0,0,97,4.289,4.286,0,0,0,0,0,66.92,15.019950283788,0,41,Motors_Started,
800,2022-09-03 21:21:48,-34.8694525974669,-55.2752511436701,0,-0.032808399999999,15.052758683788,15.019950283788,0.328084,0,0.299192266792,0.4033464696,23,5,0,15.019950283788,0,0.223694,0.320598107372,0,0,0,259.6, -7.4, 2,0,0,1024,1024,1024,1024,0,0,0,0,270.7,0,0,97,4.289,4.286,0,0,0,0,0,66.92,15.019950283788,0,41,Motors_Started,"Setting new Return-To-Home altitude to 60m (197 ft). Data Recorder File Index is 53. Setting new Maximum Flight Altitude to 120m (394 ft)"
900,2022-09-03 21:21:48,-34.8694525664145,-55.2752512340968,0,-0.032808399999999,15.052758683788,15.019950283788,0.328084,0,0.292543316448,0.43269030256,23,5,0,15.019950283788,0,0.223694,0.320598107372,0,0,0,258.5, -6.4, 0,0,0,1024,1024,1024,1024,0,0,0,0,269.9,0,0,97,4.289,4.286,0,0,0,0,0,66.92,15.019950283788,0,41,Motors_Started,
1000,2022-09-03 21:21:48,-34.8694525638265,-55.2752513437651,0,-0.032808399999999,15.052758683788,15.019950283788,0.328084,0,0.276867791012,0.46553151096,23,5,0,15.019950283788,0,0.223694,0.320598107372,0,0,0,258.4, -3.5, -2.4,0,0,1024,1024,1024,1024,0,0,0,0,269.3,0,0,97,4.289,4.286,0,0,0,0,0,66.92,15.019950283788,0,41,Motors_Started,
1100,2022-09-03 21:21:48,-34.8694525625564,-55.275251431336,-0.328084,-0.3608924,15.052758683788,14.691866283788,0.328084,0.223694,0.266334326108,0.49175198424,23,5,8.581,15.019950283788,0,0.223694,0.320598107372,0,-0.223694,0,258.3, -4.3, -2.5,0,0,1024,1024,1024,1024,0,0,0,0,269.2,0,0,97,4.289,4.286,0,0,0,0,1.017,66.92,14.691866283788,-0.328084,10,Assisted_Takeoff,
1200,2022-09-03 21:21:49,-34.8694525384757,-55.2752516730256,-0.328084,-0.328084,15.019950283788,14.691866283788,0.328084,0.223694,0.257010178828,0.56462928316,23,5,8.581,15.019950283788,0,0.223694,0.320598107372,0,-0.223694,0,259.2, -5.8, -3.3,0,0,1024,1024,1024,1024,0,0,0,0,269.2,0,0,97,4.289,4.286,0,0,0,0,1.017,66.92,14.691866283788,-0.328084,10,Assisted_Takeoff,
1300,2022-09-03 21:21:49,-34.8694525968245,-55.2752518012462,0,0,15.019950283788,15.019950283788,0.328084,0.223694,0.234416018,0.60852036068,23,5,8.581,15.019950283788,0,0.223694,0.320598107372,0,-0.223694,0,260.6, -5.3, -4.7,0,0,1024,1024,1024,1024,0,0,0,0,270.1,0,0,97,4.289,4.286,0,0,0,0,1.017,66.92,15.019950283788,0,10,Assisted_Takeoff,
1400,2022-09-03 21:21:49,-34.8694526456526,-55.2752519349395,-0.328084,-0.328084,15.019950283788,14.691866283788,0.328084,0.223694,0.222156503172,0.65232613636,23,5,8.581,15.019950283788,0,0.223694,0.320598107372,0,-0.223694,0,260.6, -6.6, -4.3,0,0,1024,1024,1024,1024,0,0,0,0,271,0,0,97,4.289,4.286,0,0,0,0,1.017,66.92,14.691866283788,-0.328084,10,Assisted_Takeoff,
1500,2022-09-03 21:21:49,-34.869452673258,-55.2752520773021,-0.328084,-0.328084,15.019950283788,14.691866283788,0.328084,0.223694,0.226285112228,0.69611550784,23,5,8.581,15.019950283788,0,0.223694,0.320598107372,0,-0.223694,0,259.7, -7.9, -3.7,0,0,1024,1024,1024,1024,0,0,0,0,270.5,0,0,97,4.289,4.286,0,0,0,0,1.017,66.92,14.691866283788,-0.328084,10,Assisted_Takeoff,
1600,2022-09-03 21:21:49,-34.8694528359623,-55.2752522491522,-0.328084,-0.328084,15.019950283788,14.691866283788,0.328084,0,0.206028877984,0.77466537912,23,5,8.581,15.019950283788,0,0.223694,0.320598107372,0,0,0,260.3, -8.8, -4.1,0,0,1024,1024,1024,1024,0,0,0,0,270.3,0,0,97,4.289,4.286,0,0,0,0,1.017,66.92,14.691866283788,-0.328084,10,Assisted_Takeoff,
1700,2022-09-03 21:21:49,-34.869452817039,-55.2752523429007,-0.328084,-0.328084,15.019950283788,14.691866283788,0.328084,0,0.231122710808,0.80356629868,23,5,8.581,15.019950283788,0,0.223694,0.320598107372,0,0,0,261, -8.7, -4,0,0,1024,1024,1024,1024,0,0,0,0,270.7,0,0,97,4.289,4.286,0,0,0,0,1.017,66.92,14.691866283788,-0.328084,10,Assisted_Takeoff,
1800,2022-09-03 21:21:49,-34.8694527738083,-55.2752524391187,0,0,15.019950283788,15.019950283788,0.328084,0,0.26322015278,0.83640422624,23,5,8.581,15.019950283788,0,0.223694,0.320598107372,0,0,0,261.5, -9.1, -2.6,0,0,1024,1024,1024,1024,0,0,0,0,271.4,0,0,97,4.289,4.286,0,0,0,0,1.017,66.92,15.019950283788,0,10,Assisted_Takeoff,
1900,2022-09-03 21:21:49,-34.8694527285738,-55.2752524974397,0,0,15.019950283788,15.019950283788,0.328084,0,0.287208342524,0.86042981756,23,5,8.581,15.019950283788,0,0.223694,0.320598107372,0,0,0,261.4, -8.7, -2.4,0,0,1024,1024,1024,1024,0,0,0,0,272,0,0,97,4.289,4.286,0,0,0,0,1.017,66.92,15.019950283788,0,10,Assisted_Takeoff,
2000,2022-09-03 21:21:49,-34.8694526583842,-55.2752526144419,0,0.032808400000002,14.987141883788,15.019950283788,0.328084,0,0.33049213656,0.90381564572,23,5,8.581,15.019950283788,0,0.223694,0.33049213656,0,0,0,261, -8.2, -2.6,0,0,1024,1024,1024,1024,0,0,0,0,271.8,0,0,97,4.289,4.286,0,0,0,0,1.017,66.92,15.019950283788,0,10,Assisted_Takeoff,
2100,2022-09-03 21:21:49,-34.8694526920539,-55.2752525718162,0,0.032808400000002,14.987141883788,15.019950283788,0.328084,0,0.312829078252,0.92152890088,23,5,8.581,15.019950283788,0,0.223694,0.33049213656,0,0,0,261.3, -8.1, -2.9,0,0,1024,1024,1024,1024,0,0,0,0,271.8,0,0,97,4.289,4.286,0,0,0,0,1.017,66.92,15.019950283788,0,10,Assisted_Takeoff,
2200,2022-09-03 21:21:50,-34.8694527082821,-55.2752525319901,0,0.032808400000002,14.987141883788,15.019950283788,0.328084,0,0.299884852116,0.93483926876,23,5,8.591,15.019950283788,0,0.223694,0.33049213656,0,0,0,260.2, -7.6, -2.1,0,0,1024,1024,1144,1024,0,0,18,0,271.5,0,0,97,4.296,4.296,0,0,0,0,1.294,66.92,15.019950283788,0,10,Assisted_Takeoff,
2300,2022-09-03 21:21:50,-34.8694527006423,-55.2752525383478,0,0.032808400000002,14.987141883788,15.019950283788,0.328084,0,0.303138789228,0.93821525312,23,5,8.591,15.019950283788,0,0.223694,0.33049213656,0,0,0,260.5, -7.3, -2,0,0,1024,1024,1684,1024,0,0,100,0,271.2,0,0,97,4.296,4.296,0,0,0,0,1.294,66.92,15.019950283788,0,10,Assisted_Takeoff,
2400,2022-09-03 21:21:50,-34.8694527913556,-55.275252417567,0,0,15.019950283788,15.019950283788,0.328084,0,0.254162409708,0.98723100272,23,5,8.591,15.019950283788,0,0.223694,0.33049213656,0,0,0,261.1, -6.9, -2,0,0,1024,1024,1684,1024,0,0,100,0,271.4,0,0,97,4.296,4.296,0,0,0,0,1.294,66.92,15.019950283788,0,10,Assisted_Takeoff,
2500,2022-09-03 21:21:50,-34.8694527726077,-55.2752524034367,0,0,15.019950283788,15.019950283788,0.328084,0,0.255436687964,0.99527234156,23,5,8.591,15.019950283788,0,0.223694,0.33049213656,0,0,0,261.8, -4.8, -2,0,0,1024,1024,1684,1024,0,0,100,0,272,0,0,97,4.296,4.296,0,0,0,0,1.294,66.92,15.019950283788,0,10,Assisted_Takeoff,
2600,2022-09-03 21:21:50,-34.8694527601123,-55.2752523737339,0,0,15.019950283788,15.019950283788,0.328084,0,0.2520095225,1.0052657802,23,5,8.591,15.019950283788,0,0.223694,0.33049213656,0,0,0,262.9, -4.2, -2,0,0,1024,1024,1409,1024,0,0,58,0,273,0,0,97,4.296,4.296,0,0,0,0,1.294,66.92,15.019950283788,0,10,Assisted_Takeoff,
2700,2022-09-03 21:21:50,-34.8694527376422,-55.2752524020218,0,0,15.019950283788,15.019950283788,0.328084,0,0.263795612116,1.01705055748,23,5,8.591,15.019950283788,0,0.223694,0.33049213656,0,0,-0.223694,263.1, -3.2, -1.5,0,0,1024,1024,1035,1024,0,0,2,0,273.6,0,0,97,4.296,4.296,0,0,0,0,1.294,66.92,15.019950283788,0,10,Assisted_Takeoff,
2800,2022-09-03 21:21:50,-34.8694527100445,-55.2752524189883,0,0,15.019950283788,15.019950283788,0.328084,0,0.27446031062,1.02832680456,23,5,8.591,15.019950283788,0,0.223694,0.33049213656,0,0,-0.223694,263.8, -2.2, -1.3,0,0,1024,1024,1211,1024,0,0,28,0,273.9,0,0,97,4.296,4.296,0,0,0,0,1.294,66.92,15.019950283788,0,6,P-GPS,
2900,2022-09-03 21:21:50,-34.869452935856,-55.2752524075572,0,0,15.019950283788,15.019950283788,0.328084,0,0.221381896848,1.11078743712,23,5,8.591,15.019950283788,0,0.223694,0.33049213656,0,0,-0.447388,264.1, -0.1, 2.9,0,0,1024,1024,1684,953,0,0,100,-11,273.9,0,0,97,4.296,4.296,0,0,0,0,1.294,66.92,15.019950283788,0,6,P-GPS,
3000,2022-09-03 21:21:50,-34.8694530068883,-55.2752523307974,0,0,15.019950283788,15.019950283788,0.656168,0,0.188856305256,1.145423265,23,5,8.591,15.019950283788,0,0.223694,0.33049213656,0,0,-0.447388,262.9, 0, 1.1,0,0,1024,1024,1684,1024,0,0,100,0,273.9,0,0,97,4.296,4.296,0,0,0,0,1.294,66.92,15.019950283788,0,6,P-GPS,
3100,2022-09-03 21:21:50,-34.8694530285637,-55.2752522472283,0,0,15.019950283788,15.019950283788,0.656168,0,0.163000005216,1.17165686164,23,5,8.591,15.019950283788,0,0.223694,0.33049213656,0,0,-0.671082,262.7, -0.6, 0.4,0,0,1024,1024,1684,1024,0,0,100,0,273.8,0,0,97,4.296,4.296,0,0,0,0,1.294,66.92,15.019950283788,0,6,P-GPS,
3200,2022-09-03 21:21:51,-34.8694530324113,-55.2752521613907,0.328084,0.328084,15.019950283788,15.348034283788,0.656168,0,0.140084978236,1.1973917706,23,5,8.574,15.348034283788,0.328084,0.223694,0.33049213656,0,0,-0.894776,262.6, -1, 0.1,0,0,1024,1024,1684,1024,0,0,100,0,273.8,0,0,97,4.219,4.214,0,0,0,0,1.319,66.92,15.348034283788,0.328084,6,P-GPS,
3300,2022-09-03 21:21:51,-34.8694530178962,-55.2752521208364,0.328084,0.328084,15.019950283788,15.348034283788,0.984252,0,0.133146001636,1.21063652168,23,5,8.574,15.348034283788,0.328084,0.223694,0.33049213656,0,0,-1.342164,262.6, -1.1, -0.1,0,0,1024,1024,1024,1024,0,0,0,0,273.8,0,0,97,4.219,4.214,0,0,0,0,1.319,66.92,15.348034283788,0.328084,6,P-GPS,
3400,2022-09-03 21:21:51,-34.8694529860682,-55.2752520732129,0.656168,0.656168,15.019950283788,15.676118283788,1.312336,0,0.130055450356,1.22902234904,23,5,8.574,15.676118283788,0.656168,0.223694,0.33049213656,0,0,-2.013246,262.5, -1.2, -0.4,0,0,1024,1024,1024,1024,0,0,0,0,273.8,0,0,97,4.219,4.214,0,0,0,0,1.319,66.92,15.676118283788,0.656168,6,P-GPS,
3500,2022-09-03 21:21:51,-34.8694529701885,-55.2752519764715,1.312336,1.312336,15.019950283788,16.332286283788,1.64042,0,0.116363520784,1.25855647072,23,5,8.574,16.332286283788,1.312336,0.223694,0.33049213656,0,0,-2.23694,262.5, -1.1, -0.8,0,0,1024,1024,1024,1024,0,0,0,0,273.8,0,0,97,4.219,4.214,0,0,0,0,1.319,66.92,16.332286283788,1.312336,6,P-GPS,
3600,2022-09-03 21:21:51,-34.8694529588097,-55.2752518737327,1.64042,1.64042,15.019950283788,16.660370283788,1.968504,0,0.107026250144,1.28958993628,23,5,8.574,16.660370283788,1.64042,0.223694,0.33049213656,0,0,-2.23694,262.5, -1.1, -0.7,0,0,1024,1024,1024,1024,0,0,0,0,273.8,0,0,97,4.219,4.214,0,0,0,0,1.319,66.92,16.660370283788,1.64042,6,P-GPS,
3700,2022-09-03 21:21:51,-34.869452962742,-55.2752517851581,1.968504,1.968504,15.019950283788,16.988454283788,2.296588,0,0.100834320812,1.3161417744,23,5,8.574,16.988454283788,1.968504,0.223694,0.33049213656,0,0,-1.789552,262.5, -1, -0.5,0,0,1024,1024,1024,1024,0,0,0,0,273.8,0,0,97,4.219,4.214,0,0,0,0,1.319,66.92,16.988454283788,1.968504,6,P-GPS,
3800,2022-09-03 21:21:51,-34.8694529499595,-55.2752517299748,1.968504,1.968504,15.019950283788,16.988454283788,4.593176,0,0.10591863856,1.33330712928,23,5,8.574,16.988454283788,1.968504,0.223694,0.33049213656,0,0,-1.342164,262.5, -0.9, -0.5,0,0,1024,1024,1024,1024,0,0,0,0,273.8,0,0,97,4.219,4.214,0,0,0,0,1.319,66.92,16.988454283788,1.968504,6,P-GPS,"Punto de origen actualizado. Altitud de RPO establecida en 60m (Code: 3000001)"
3900,2022-09-03 21:21:51,-34.8694529088881,-55.2752516846995,2.296588,2.296588,15.019950283788,17.316538283788,4.593176,0,0.122809387132,1.353510542,23,5,8.574,17.316538283788,2.296588,0.223694,0.33049213656,0,0,-0.894776,262.5, -1, -0.6,0,0,1024,1024,1024,1024,0,0,0,0,273.8,0,0,97,4.219,4.214,0,0,0,0,1.319,66.92,17.316538283788,2.296588,6,P-GPS,
4000,2022-09-03 21:21:51,-34.8694528636707,-55.2752516312848,2.296588,2.296588,15.019950283788,17.316538283788,4.593176,0,0.14270669748,1.37648626452,23,5,8.574,17.316538283788,2.296588,0.223694,0.33049213656,0,0,-0.447388,262.6, -1, -0.7,0,0,1024,1024,1024,1024,0,0,0,0,273.8,0,0,97,4.219,4.214,0,0,0,0,1.319,66.92,17.316538283788,2.296588,6,P-GPS,
4100,2022-09-03 21:21:51,-34.8694528600446,-55.2752516210767,2.624672,2.624672,15.019950283788,17.644622283788,4.92126,0,0.144865818284,1.37981631712,23,5,8.574,17.644622283788,2.624672,0.223694,0.33049213656,0,0,-0.223694,262.8, -0.9, -0.8,0,0,1024,1024,1024,1024,0,0,0,0,273.8,0,0,97,4.219,4.214,0,0,0,0,1.319,66.92,17.644622283788,2.624672,6,P-GPS,
4200,2022-09-03 21:21:52,-34.8694528655756,-55.2752515480942,2.624672,2.624672,15.019950283788,17.644622283788,4.92126,0,0.151044624256,1.4017552942,23,5,8.295,17.644622283788,2.624672,0.223694,0.33049213656,0,0,0,263.1, -0.8, -0.9,0,0,1024,1024,1024,1024,0,0,0,0,273.8,0,0,97,4.218,4.213,0,0,0,0,4.331,66.92,17.644622283788,2.624672,6,P-GPS,
4300,2022-09-03 21:21:52,-34.8694528857601,-55.2752514757969,2.624672,2.5918636,15.052758683788,17.644622283788,4.92126,0,0.155448823872,1.42461618732,23,5,8.295,17.644622283788,2.624672,0.223694,0.33049213656,0,0,0,263.4, -0.9, -0.8,0,0,1024,1024,1024,1024,0,0,0,0,273.8,0,0,97,4.218,4.213,0,0,0,0,4.331,66.92,17.644622283788,2.624672,6,P-GPS,
4400,2022-09-03 21:21:52,-34.8694529119704,-55.2752513988844,2.624672,2.5918636,15.052758683788,17.644622283788,4.92126,0,0.16227362724,1.44954400964,23,5,8.295,17.644622283788,2.624672,0.223694,0.33049213656,0,0,0,263.6, -1, -0.8,0,0,1024,1024,1024,1024,0,0,0,0,273.8,0,0,97,4.218,4.213,0,0,0,0,4.331,66.92,17.644622283788,2.624672,6,P-GPS,
4500,2022-09-03 21:21:52,-34.8694529496232,-55.2752513388261,2.624672,2.5918636,15.052758683788,17.644622283788,4.92126,0,0.165916671976,1.47217196312,23,5,8.295,17.644622283788,2.624672,0.223694,0.33049213656,0,0,0,263.9, -1.1, -0.7,0,0,1024,1024,1024,1024,0,0,0,0,273.8,0,0,97,4.218,4.213,0,0,0,0,4.331,66.92,17.644622283788,2.624672,6,P-GPS,
4600,2022-09-03 21:21:52,-34.8694530639494,-55.2752513059712,2.624672,2.5918636,15.052758683788,17.644622283788,4.92126,0,0.151939309324,1.5150262952,23,5,8.295,17.644622283788,2.624672,0.223694,0.33049213656,0,0,0,264.2, -1.3, -0.7,0,0,1024,1024,1024,1024,0,0,0,0,273.8,0,0,97,4.218,4.213,0,0,0,0,4.331,66.92,17.644622283788,2.624672,6,P-GPS,
4700,2022-09-03 21:21:52,-34.8694531014866,-55.2752512598657,2.624672,2.5918636,15.052758683788,17.644622283788,4.92126,0,0.159762472304,1.53446855304,23,5,8.295,17.644622283788,2.624672,0.223694,0.33049213656,0,0,0,264.5, -1.3, -0.6,0,0,1024,1024,1024,1024,0,0,0,0,273.8,0,0,97,4.218,4.213,0,0,0,0,4.331,66.92,17.644622283788,2.624672,6,P-GPS,
4800,2022-09-03 21:21:52,-34.8694531402237,-55.275251217287,2.624672,2.5918636,15.052758683788,17.644622283788,4.92126,0,0.168340884652,1.55350070588,23,5,8.295,17.644622283788,2.624672,0.223694,0.33049213656,0,0,0,264.8, -1.3, -0.5,0,0,1024,1024,1024,1024,0,0,0,0,273.8,0,0,97,4.218,4.213,0,0,0,0,4.331,66.92,17.644622283788,2.624672,6,P-GPS,
4900,2022-09-03 21:21:52,-34.8694531582338,-55.2752511901593,2.624672,2.5918636,15.052758683788,17.644622283788,4.92126,0,0.175061685392,1.56394690044,23,5,8.295,17.644622283788,2.624672,0.223694,0.33049213656,0,0,0,265, -1.3, -0.5,0,0,1024,1024,1024,1024,0,0,0,0,273.8,0,0,97,4.218,4.213,0,0,0,0,4.331,66.92,17.644622283788,2.624672,6,P-GPS,
5000,2022-09-03 21:21:52,-34.8694531598957,-55.2752512323792,2.624672,2.5918636,15.052758683788,17.644622283788,4.92126,0,0.1625082073,1.57660110032,23,5,8.295,17.644622283788,2.624672,0.223694,0.33049213656,0,0,0,265.1, -1.2, -0.3,0,0,1024,1024,1489,1024,0,0,70,0,273.8,0,0,97,4.218,4.213,0,0,0,0,4.331,66.92,17.644622283788,2.624672,6,P-GPS,
5100,2022-09-03 21:21:52,-34.8694532056847,-55.2752512128531,2.624672,2.5918636,15.052758683788,17.644622283788,4.92126,0,0.166226383272,1.59429795128,23,5,8.295,17.644622283788,2.624672,0.223694,0.33049213656,0,0,0,265.4, -1.2, -0.2,0,0,1024,1024,1684,1024,0,0,100,0,273.8,0,0,97,4.218,4.213,0,0,0,0,4.331,66.92,17.644622283788,2.624672,6,P-GPS,
5200,2022-09-03 21:21:53,-34.8694532504225,-55.2752511966306,2.624672,2.5918636,15.052758683788,17.644622283788,4.92126,0,0.170699152444,1.61132879172,23,5,8.295,17.644622283788,2.624672,0.223694,0.33049213656,0,0,-0.223694,265.6, -1.1, 0,0,0,1024,1024,1684,1024,0,0,100,0,273.8,0,0,97,4.218,4.213,0,0,0,0,4.331,66.92,17.644622283788,2.624672,6,P-GPS,
5300,2022-09-03 21:21:53,-34.8694533469469,-55.2752511741091,2.952756,2.9199476,15.052758683788,17.972706283788,4.92126,0,0.18173064886,1.64718509208,23,5,8.39,17.972706283788,2.952756,0.223694,0.33049213656,0,0,-0.894776,265.7, -1.1, -0.1,0,0,1024,1024,1684,1024,0,0,100,0,273.8,0,0,97,4.194,4.188,0,0,0,0,3.565,66.92,17.972706283788,2.952756,6,P-GPS,
5400,2022-09-03 21:21:53,-34.869453582974,-55.2752511708212,2.952756,2.9199476,15.052758683788,17.972706283788,5.249344,0,0.218160111968,1.73330386124,23,5,8.39,17.972706283788,2.952756,0.223694,0.33049213656,0,0,-1.565858,265.8, -1, -0.2,0,0,1024,1024,1684,1024,0,0,100,0,273.8,0,0,97,4.194,4.188,0,0,0,0,3.565,66.92,17.972706283788,2.952756,6,P-GPS,
5500,2022-09-03 21:21:53,-34.869453631145,-55.2752511919044,3.28084,3.2480316,15.052758683788,18.300790283788,5.577428,0,0.223844167268,1.75197840252,23,5,8.39,18.300790283788,3.28084,0.223694,0.33049213656,0,0,-2.23694,266, -1, -0.3,0,0,1024,1024,1684,1024,0,0,100,0,273.8,0,0,97,4.194,4.188,0,0,0,0,3.565,66.92,18.300790283788,3.28084,6,P-GPS,
5600,2022-09-03 21:21:53,-34.8694536799173,-55.2752512110506,3.937008,3.9041996,15.052758683788,18.956958283788,5.905512,0,0.231472120268,1.77067262884,24,5,8.39,18.956958283788,3.937008,0.223694,0.33049213656,0,0,-3.131716,266.1, -1.1, -0.3,0,0,1024,1024,1684,1024,0,0,100,0,273.8,0,0,97,4.194,4.188,0,0,0,0,3.565,66.92,18.956958283788,3.937008,6,P-GPS,
5700,2022-09-03 21:21:53,-34.8694537202526,-55.2752512243508,4.265092,4.2322836,15.052758683788,19.285042283788,6.56168,0,0.239218183508,1.78591869232,24,5,8.39,19.285042283788,4.265092,0.223694,0.33049213656,0,0,-4.026492,266.3, -1.3, -0.2,0,0,1024,1024,1684,1024,0,0,100,0,273.8,0,0,97,4.194,4.188,0,0,0,0,3.565,66.92,19.285042283788,4.265092,6,P-GPS,
5800,2022-09-03 21:21:53,-34.8694537691283,-55.2752513360447,4.92126,4.8884516,15.052758683788,19.941210283788,7.217848,0,0.232531831588,1.82381239432,24,5,8.39,19.941210283788,4.92126,0.223694,0.33049213656,0,0,-4.921268,266.5, -1.4, -0.1,0,0,1024,1024,1684,1024,0,0,100,0,273.8,0,0,97,4.194,4.188,0,0,0,0,3.565,66.92,19.941210283788,4.92126,6,P-GPS,
5900,2022-09-03 21:21:53,-34.8694538574246,-55.275251389462,5.905512,5.8727036,15.052758683788,20.925462283788,7.874016,0,0.252410113064,1.8597769624,24,5,8.39,20.925462283788,5.905512,0.223694,0.33049213656,0,0,-5.59235,266.6, -0.9, -0.1,0,0,1024,1024,1684,1024,0,0,100,0,273.8,0,0,97,4.194,4.188,0,0,0,0,3.565,66.92,20.925462283788,5.905512,6,P-GPS,
6000,2022-09-03 21:21:53,-34.8694539476204,-55.2752514405169,6.56168,6.5288716,15.052758683788,21.581630283788,8.858268,0,0.276465231944,1.89605977196,24,5,8.39,21.581630283788,6.56168,0.223694,0.33049213656,0,0,-6.039738,266.7, -1, -0.1,0,0,1024,1024,1684,1024,0,0,100,0,273.8,0,0,97,4.194,4.188,0,0,0,0,3.565,66.92,21.581630283788,6.56168,6,P-GPS,
6100,2022-09-03 21:21:53,-34.8694540080707,-55.2752513946777,7.545932,7.5131236,15.052758683788,22.565882283788,9.514436,0,0.301987542472,1.92203746308,24,5,8.39,22.565882283788,7.545932,0.223694,0.33049213656,0,0,-6.487126,266.8, -1.1, -0.2,0,0,1024,1024,1684,1024,0,0,100,0,273.8,0,0,97,4.194,4.188,0,0,0,0,3.565,66.92,22.565882283788,7.545932,6,P-GPS,
6200,2022-09-03 21:21:54,-34.8694540688577,-55.2752513440418,8.530184,8.4973756,15.052758683788,23.550134283788,10.498688,0,0.32824476116,1.94889770016,23,5,8.39,23.550134283788,8.530184,0.223694,0.33049213656,0,0,-6.487126,266.9, -0.9, -0.1,0,0,1024,1024,1684,1024,0,0,100,0,273.8,0,0,97,4.194,4.188,0,0,0,0,3.565,66.92,23.550134283788,8.530184,6,P-GPS,
6300,2022-09-03 21:21:54,-34.8694544274154,-55.275251423506,9.514436,9.4816276,15.052758683788,24.534386283788,11.48294,0,0.445702114,2.08186358368,23,5,8.259,24.534386283788,9.514436,0.223694,0.445702114,0,0,-6.487126,267, -0.5, -0.1,0,0,1024,1024,1684,1024,0,0,100,0,273.8,0,0,97,4.119,4.115,0,0,0,0,5.026,66.92,24.534386283788,9.514436,6,P-GPS,
6400,2022-09-03 21:21:54,-34.869454568744,-55.2752514483064,10.498688,10.498688,15.019950283788,25.518638283788,12.467192,0,0.4945374174,2.13396004204,25,5,8.259,25.518638283788,10.498688,0.223694,0.4945374174,0,0,-6.71082,267.1, -0.4, -0.1,0,0,1024,1024,1684,1024,0,0,100,0,273.8,0,0,97,4.119,4.115,0,0,0,0,5.026,66.92,25.518638283788,10.498688,6,P-GPS,
6500,2022-09-03 21:21:54,-34.8694546394262,-55.2752514883152,11.48294,11.48294,15.019950283788,26.502890283788,13.12336,0,0.51780513468,2.16239180148,25,5,8.259,26.502890283788,11.48294,0.223694,0.51780513468,0,0,-6.71082,267.2, -0.6, -0.2,0,0,1024,1024,1024,1024,0,0,0,0,273.8,0,0,97,4.119,4.115,0,0,0,0,5.026,66.92,26.502890283788,11.48294,6,P-GPS,
6600,2022-09-03 21:21:54,-34.8694547094985,-55.2752515197958,12.467192,12.5000004,14.987141883788,27.487142283788,14.107612,0,0.54168636904,2.18963917768,25,5,8.259,27.487142283788,12.467192,0.223694,0.54168636904,0,0,-6.487126,267.2, -0.9, -0.3,0,0,1024,1024,1024,1024,0,0,0,0,273.8,0,0,97,4.119,4.115,0,0,0,0,5.026,66.92,27.487142283788,12.467192,6,P-GPS,
6700,2022-09-03 21:21:54,-34.8694546610479,-55.2752515792719,13.451444,13.4842524,14.987141883788,28.471394283788,14.76378,0,0.52196852064,2.21472776116,25,5,8.259,28.471394283788,13.451444,0.223694,0.54168636904,0,0,-6.039738,267.3, -0.7, -0.9,0,0,1024,1024,1024,1024,0,0,0,0,273.8,0,0,97,4.119,4.115,0,0,0,0,5.026,66.92,28.471394283788,13.451444,6,P-GPS,
6800,2022-09-03 21:21:54,-34.8694546967149,-55.2752515645804,14.107612,14.1404204,14.987141883788,29.127562283788,15.419948,0,0.53538715624,2.22846463824,25,5,8.259,29.127562283788,14.107612,0.223694,0.54168636904,0,0,-5.368656,267.4, -0.7, -1,0,0,1024,1024,1024,1024,0,0,0,0,273.8,0,0,97,4.119,4.115,0,0,0,0,5.026,66.92,29.127562283788,14.107612,6,P-GPS,
6900,2022-09-03 21:21:54,-34.8694548248433,-55.2752515264471,14.76378,14.7965884,14.987141883788,29.783730283788,16.076116,0,0.58315618664,2.27658799936,25,5,8.259,29.783730283788,14.76378,0.223694,0.58315618664,0,0,-4.47388,267.5, -0.8, -1,0,0,1024,1024,1024,1024,0,0,0,0,273.8,0,0,97,4.119,4.115,0,0,0,0,5.026,66.92,29.783730283788,14.76378,6,P-GPS,
7000,2022-09-03 21:21:54,-34.8694549685388,-55.2752514754863,15.419948,15.419948,15.019950283788,30.439898283788,16.4042,0,0.6371227238,2.33118773864,25,5,8.259,30.439898283788,15.419948,0.223694,0.6371227238,0,0,-3.802798,267.5, -1.1, -1,0,0,1024,1024,1024,1024,0,0,0,0,273.8,0,0,97,4.119,4.115,0,0,0,0,5.026,66.92,30.439898283788,15.419948,6,P-GPS,
7100,2022-09-03 21:21:54,-34.8694551480666,-55.2752512765516,15.748032,15.748032,15.019950283788,30.767982283788,16.732284,0,0.71191603328,2.41971136352,25,5,8.259,30.767982283788,15.748032,0.223694,0.71191603328,0,0,-2.908022,267.6, -1, -1.2,0,0,1024,1024,1024,1024,0,0,0,0,273.8,0,0,97,4.119,4.115,0,0,0,0,5.026,66.92,30.767982283788,15.748032,6,P-GPS,
7200,2022-09-03 21:21:55,-34.8694552397492,-55.2752511698815,16.076116,16.076116,15.019950283788,31.096066283788,17.060368,0,0.7516240398,2.46595480332,25,5,8.259,31.096066283788,16.076116,0.223694,0.7516240398,0,0,-2.013246,267.6, -1.4, -1.2,0,0,1024,1024,1024,1024,0,0,0,0,273.8,0,0,97,4.119,4.115,0,0,0,0,5.026,66.92,31.096066283788,16.076116,6,P-GPS,
7300,2022-09-03 21:21:55,-34.869455304409,-55.2752510621515,16.4042,16.4042,15.019950283788,31.424150283788,17.060368,0,0.78262469696,2.50591215368,25,5,8.295,31.424150283788,16.4042,0.223694,0.78262469696,0,0,-1.11847,267.7, -1.3, -1.2,0,0,1024,1024,1024,1024,0,0,0,0,273.8,0,0,97,4.217,4.214,0,0,0,0,5.529,66.92,31.424150283788,16.4042,6,P-GPS,
7400,2022-09-03 21:21:55,-34.8694553783665,-55.2752509515031,16.4042,16.4042,15.019950283788,31.424150283788,17.388452,0,0.81790685032,2.54863525216,24,5,8.295,31.424150283788,16.4042,0.223694,0.81790685032,0,0,-0.671082,267.8, -1.4, -1.1,0,0,1024,1024,1024,1024,0,0,0,0,273.8,0,0,97,4.217,4.214,0,0,0,0,5.529,66.92,31.424150283788,16.4042,6,P-GPS,
7500,2022-09-03 21:21:55,-34.8694555864022,-55.2752508106467,16.732284,16.7650924,14.987141883788,31.752234283788,17.060368,0,0.90310370344,2.63545940192,24,5,8.295,31.752234283788,16.732284,0.223694,0.90310370344,0,0,-0.223694,267.8, -1.5, -0.9,0,0,1024,1024,1024,1024,0,0,0,0,273.8,0,0,97,4.217,4.214,0,0,0,0,5.529,66.92,31.752234283788,16.732284,6,P-GPS,
7600,2022-09-03 21:21:55,-34.869455761911,-55.275250731095,16.732284,16.7650924,14.987141883788,31.752234283788,17.060368,0,0.97138454552,2.70377961408,25,5,8.295,31.752234283788,16.732284,0.223694,0.97138454552,0,0,0,267.9, -1.4, -0.7,0,0,1024,1024,1024,1024,0,0,0,0,273.8,0,0,97,4.217,4.214,0,0,0,0,5.529,66.92,31.752234283788,16.732284,6,P-GPS,
7700,2022-09-03 21:21:55,-34.8694559083643,-55.2752505446187,16.732284,16.7650924,14.987141883788,31.752234283788,17.060368,0,1.04045607004,2.7810532386,25,5,8.295,31.752234283788,16.732284,0.223694,1.04045607004,0,0,0,267.9, -1.4, -0.7,0,0,1024,1024,1024,1024,0,0,0,0,273.8,0,0,97,4.217,4.214,0,0,0,0,5.529,66.92,31.752234283788,16.732284,6,P-GPS,
7800,2022-09-03 21:21:55,-34.8694560605896,-55.2752503556507,16.732284,16.6994756,15.052758683788,31.752234283788,17.060368,0,1.11284124296,2.86032489468,25,5,8.295,31.752234283788,16.732284,0.223694,1.11284124296,0,0,0,267.9, -1.4, -0.8,0,0,1024,1024,1024,1024,0,0,0,0,273.8,0,0,97,4.217,4.214,0,0,0,0,5.529,66.92,31.752234283788,16.732284,6,P-GPS,
7900,2022-09-03 21:21:55,-34.8694562733688,-55.2752503459921,16.732284,16.6994756,15.052758683788,31.752234283788,17.060368,0,1.18606303008,2.93801190504,25,5,8.295,31.752234283788,16.732284,0.223694,1.18606303008,0,0,0,268, -1.4, -0.6,0,0,1024,1024,1024,1024,0,0,0,0,273.8,0,0,97,4.217,4.214,0,0,0,0,5.529,66.92,31.752234283788,16.732284,6,P-GPS,
8000,2022-09-03 21:21:55,-34.8694566532457,-55.2752503120277,16.732284,16.732284,15.019950283788,31.752234283788,17.060368,0,1.31970476664,3.07698172576,25,5,8.295,31.752234283788,16.732284,0.223694,1.31970476664,0,0,0,268, -1.7, 0,0,0,1024,1024,1024,1024,0,0,0,0,273.8,0,0,97,4.217,4.214,0,0,0,0,5.529,66.92,31.752234283788,16.732284,6,P-GPS,
8100,2022-09-03 21:21:55,-34.8694568800833,-55.2752502947127,16.732284,16.732284,15.019950283788,31.752234283788,17.060368,0,1.3997211734,3.15990495676,25,5,8.295,31.752234283788,16.732284,0.223694,1.3997211734,0,0,0,268.1, -1.6, 0,0,0,1060,1024,1024,1024,5,0,0,0,273.8,0,0,97,4.217,4.214,0,0,0,0,5.529,66.92,31.752234283788,16.732284,6,P-GPS,
8200,2022-09-03 21:21:56,-34.8694570946904,-55.2752502830036,16.732284,16.732284,15.019950283788,31.752234283788,17.060368,0,1.4752953228,3.23828422436,25,5,8.295,31.752234283788,16.732284,0.223694,1.4752953228,0,0,0,268.1, -1.5, 0,0,0,1585,1024,1024,1024,85,0,0,0,273.8,0,0,97,4.217,4.214,0,0,0,0,5.529,66.92,31.752234283788,16.732284,6,P-GPS,
8300,2022-09-03 21:21:56,-34.8694572408691,-55.2752502926688,16.732284,16.732284,15.019950283788,31.752234283788,17.060368,0,1.52540031128,3.2916995804,25,5,8.376,31.752234283788,16.732284,0.223694,1.52540031128,0,0,0,268.1, -2.9, 0,0,0,1684,1024,1024,1024,100,0,0,0,273.8,0,0,97,4.183,4.177,0,0,0,0,3.24,66.92,31.752234283788,16.732284,6,P-GPS,
8400,2022-09-03 21:21:56,-34.8694574645347,-55.2752504083201,16.732284,16.732284,15.019950283788,31.752234283788,17.060368,0,1.59451120588,3.3803478772,25,5,8.376,31.752234283788,16.732284,0.223694,1.59451120588,0,0,0,268.1, -11.5, 0,0,0,1684,1024,1024,1024,100,0,0,0,273.8,0,0,97,4.183,4.177,0,0,0,0,3.24,66.92,31.752234283788,16.732284,6,P-GPS,
8500,2022-09-03 21:21:56,-34.8694575953222,-55.2752506544187,16.732284,16.7979008,14.954333483788,31.752234283788,17.060368,0.447388,1.62400923832,3.4681103472,25,5,8.376,31.752234283788,16.732284,0.447388,1.62400923832,0,-0.447388,0,268.2, -17.2, -0.2,0,0,1684,1024,1024,1024,100,0,0,0,273.8,0,0,97,4.183,4.177,0,0,0,0,3.24,66.92,31.752234283788,16.732284,6,P-GPS,
8600,2022-09-03 21:21:56,-34.8694577284351,-55.2752511772886,16.732284,16.7979008,14.954333483788,31.752234283788,16.732284,1.11847,1.64755254616,3.6319883052,25,5,8.376,31.752234283788,16.732284,1.11847,1.64755254616,0,-1.11847,0,268.2, -18.5, -0.3,0,0,1684,1024,1024,1024,100,0,0,0,273.8,0,0,97,4.183,4.177,0,0,0,0,3.24,66.92,31.752234283788,16.732284,6,P-GPS,
8700,2022-09-03 21:21:56,-34.8694578264286,-55.2752519780026,16.732284,16.8307092,14.921525083788,31.752234283788,16.732284,1.789552,1.67502630032,3.874343956,25,5,8.376,31.752234283788,16.732284,1.789552,1.67502630032,0,-1.789552,0,268.3, -18.3, -0.4,0,0,1118,1024,1024,1024,14,0,0,0,273.8,0,0,97,4.183,4.177,0,0,0,0,3.24,66.92,31.752234283788,16.732284,6,P-GPS,
8800,2022-09-03 21:21:56,-34.8694579020505,-55.2752532334776,16.732284,16.8635176,14.888716683788,31.752234283788,16.732284,2.460634,1.75716212972,4.25114843,25,5,8.376,31.752234283788,16.732284,2.460634,1.75716212972,0,-2.460634,0,268.3, -17.8, -0.3,0,0,1118,1024,1024,1024,14,0,0,0,273.8,0,0,97,4.183,4.177,0,0,0,0,3.24,66.92,31.752234283788,16.732284,6,P-GPS,
8900,2022-09-03 21:21:56,-34.8694580075585,-55.2752545575039,16.732284,16.9291344,14.823099883788,31.752234283788,16.732284,2.908022,1.93008208276,4.6493767892,25,5,8.376,31.752234283788,16.732284,2.908022,1.93008208276,0,-2.908022,0,268.2, -10.7, -0.4,0,0,1024,1024,1024,1024,0,0,0,0,273.8,0,0,97,4.183,4.177,0,0,0,0,3.24,66.92,31.752234283788,16.732284,6,P-GPS,
9000,2022-09-03 21:21:56,-34.86945811274,-55.2752560816747,16.732284,16.9619428,14.790291483788,31.752234283788,16.732284,2.908022,2.19788720944,5.1072180112,25,5,8.376,31.752234283788,16.732284,2.908022,2.19788720944,0,-3.131716,0,268, 8.3, -0.4,0,0,1024,1024,1024,1024,0,0,0,0,273.8,0,0,97,4.183,4.177,0,0,0,0,3.24,66.92,31.752234283788,16.732284,6,P-GPS,
9100,2022-09-03 21:21:57,-34.8694582735797,-55.2752575534515,16.4042,16.732284,14.691866283788,31.424150283788,17.060368,2.684328,2.52489181308,5.551673406,25,5,8.376,31.752234283788,16.732284,2.908022,2.52489181308,0,-2.684328,0,268, 12.3, -0.4,0,0,1175,1024,1024,1024,23,0,0,0,273.8,0,0,97,4.183,4.177,0,0,0,0,3.24,66.92,31.424150283788,16.4042,6,P-GPS,
9200,2022-09-03 21:21:57,-34.8694585460213,-55.2752590562965,16.732284,17.0931764,14.659057883788,31.752234283788,17.060368,2.684328,2.9173721406,6.0124017672,24,5,8.376,31.752234283788,16.732284,2.908022,2.9173721406,0,-2.013246,0,268, 10.3, -0.6,0,0,1570,1024,1024,1024,83,0,0,0,273.8,0,0,97,4.183,4.177,0,0,0,0,3.24,66.92,31.752234283788,16.732284,6,P-GPS,
9300,2022-09-03 21:21:57,-34.8694586148781,-55.2752601064295,16.732284,17.1587932,14.593441083788,31.752234283788,17.060368,1.565858,3.1748524638,6.327756108,24,5,8.376,31.752234283788,16.732284,2.908022,3.1748524638,0,-1.565858,0,268.2, 1.8, -0.7,0,0,1684,1024,1024,1024,100,0,0,0,273.8,0,0,97,4.183,4.177,0,0,0,0,3.24,66.92,31.752234283788,16.732284,6,P-GPS,
9400,2022-09-03 21:21:57,-34.8694586799247,-55.2752611106503,16.732284,17.1916016,14.560632683788,31.752234283788,17.060368,1.565858,3.429954178,6.6292981124,25,5,8.335,31.752234283788,16.732284,2.908022,3.429954178,0,-1.565858,0,268.4, -8.8, -0.7,0,0,1684,1024,1024,1024,100,0,0,0,273.8,0,0,97,4.171,4.166,0,0,0,0,4.134,66.92,31.752234283788,16.732284,6,P-GPS,
9500,2022-09-03 21:21:57,-34.8694586705286,-55.2752620771398,16.4042,16.896326,14.527824283788,31.424150283788,17.060368,1.789552,3.6678478864,6.918635392,25,5,8.335,31.752234283788,16.732284,2.908022,3.6678478864,0,-1.789552,0,268.4, -15.6, -0.6,0,0,1684,1024,1024,1024,100,0,0,0,273.8,0,0,97,4.171,4.166,0,0,0,0,4.134,66.92,31.424150283788,16.4042,6,P-GPS,
9600,2022-09-03 21:21:57,-34.8694586626931,-55.2752632981571,16.4042,16.9291344,14.495015883788,31.424150283788,17.060368,2.23694,3.9789043268,7.2841537764,25,5,8.335,31.752234283788,16.732284,2.908022,3.9789043268,0,-2.23694,0,268.4, -17.5, -0.4,0,0,1684,1024,1024,1024,100,0,0,0,273.8,0,0,97,4.171,4.166,0,0,0,0,4.134,66.92,31.424150283788,16.4042,6,P-GPS,
9700,2022-09-03 21:21:57,-34.869458672016,-55.2752641618583,16.4042,16.9619428,14.462207483788,31.424150283788,17.060368,2.908022,4.2067586648,7.5427167768,25,5,8.335,31.752234283788,16.732284,2.908022,4.2067586648,0,-2.908022,0,268.4, -17.8, -0.5,0,0,1684,1024,1024,1024,100,0,0,0,273.8,0,0,97,4.171,4.166,0,0,0,0,4.134,66.92,31.424150283788,16.4042,6,P-GPS,
9800,2022-09-03 21:21:57,-34.8694587728215,-55.2752655824588,16.4042,17.0275596,14.396590683788,31.424150283788,17.060368,3.35541,4.6022311184,7.9695540608,25,5,8.335,31.752234283788,16.732284,3.35541,4.6022311184,-0.223694,-3.35541,0,268.4, -17.5, -0.3,0,0,1684,1024,1024,1024,100,0,0,0,273.8,0,0,97,4.171,4.166,0,0,0,0,4.134,66.92,31.424150283788,16.4042,6,P-GPS,
9900,2022-09-03 21:21:57,-34.8694588873207,-55.2752671673314,16.4042,17.060368,14.363782283788,31.424150283788,17.060368,4.026492,5.0497705028,8.4458007952,25,5,8.335,31.752234283788,16.732284,4.026492,5.0497705028,-0.223694,-4.026492,0,268.3, -17.3, -0.3,0,0,1304,1024,1024,1024,42,0,0,0,273.8,0,0,97,4.171,4.166,0,0,0,0,4.134,66.92,31.424150283788,16.4042,6,P-GPS,
10100,2022-09-03 21:21:57,-34.8694593765101,-55.2752714146296,16.4042,17.22441,14.199740283788,31.424150283788,17.060368,4.921268,6.2933729048,9.729659104,25,5,8.335,31.752234283788,16.732284,4.921268,6.2933729048,-0.223694,-4.921268,0,268.4, -13.4, 0,0,0,1024,1024,1024,1024,0,0,0,0,273.8,0,0,97,4.171,4.166,0,0,0,0,4.134,66.92,31.424150283788,16.4042,6,P-GPS,
10200,2022-09-03 21:21:58,-34.8694595420781,-55.2752740343329,16.4042,17.3556436,14.068506683788,31.424150283788,17.060368,5.144962,7.0512469448,10.5161748772,24,5,8.335,31.752234283788,16.732284,5.144962,7.0512469448,-0.223694,-5.144962,0,268.3, -0.4, 0,0,0,1024,1024,1024,1024,0,0,0,0,273.8,0,0,97,4.171,4.166,0,0,0,0,4.134,66.92,31.424150283788,16.4042,6,P-GPS,
10300,2022-09-03 21:21:58,-34.8694596485194,-55.2752765993998,16.4042,17.4540688,13.970081483788,31.424150283788,17.388452,4.697574,7.7926839764,11.2850069228,24,5,8.335,31.752234283788,16.732284,5.144962,7.7926839764,0,-4.697574,0,268.5, 17.7, 0.5,0,0,1024,1024,1024,1024,0,0,0,0,273.8,0,0,97,4.171,4.166,0,0,0,0,4.134,66.92,31.424150283788,16.4042,6,P-GPS,
10400,2022-09-03 21:21:58,-34.8694597345495,-55.2752789500979,16.4042,17.5196856,13.904464683788,31.424150283788,17.388452,3.802798,8.4752955468,11.9893704624,25,5,8.331,31.752234283788,16.732284,5.144962,8.4752955468,0,-3.802798,0,267.8, 21.8, -0.8,0,0,1024,1024,1024,1024,0,0,0,0,273.8,0,0,97,4.168,4.165,0,0,0,0,4.166,67.1,31.424150283788,16.4042,6,P-GPS,
10500,2022-09-03 21:21:58,-34.8694597783346,-55.2752811494091,16.4042,17.552494,13.871656283788,31.424150283788,17.716536,2.908022,9.1133861184,12.6479006672,25,5,8.331,31.752234283788,16.732284,5.144962,9.1133861184,0,-2.908022,0,268, 16.2, -0.6,0,0,1024,1024,1024,1024,0,0,0,0,273.8,0,0,97,4.168,4.165,0,0,0,0,4.166,67.1,31.424150283788,16.4042,6,P-GPS,
10600,2022-09-03 21:21:58,-34.8694598158194,-55.2752825390578,16.4042,17.6181108,13.806039483788,31.424150283788,18.04462,2.013246,9.5189307508,13.0641080296,25,5,8.331,31.752234283788,16.732284,5.144962,9.5189307508,0,-2.013246,0,268.4, 11, 0.1,0,0,1024,1024,1024,1024,0,0,0,0,273.8,0,0,97,4.168,4.165,0,0,0,0,4.166,67.1,31.424150283788,16.4042,6,P-GPS,
10700,2022-09-03 21:21:58,-34.8694598241083,-55.2752835352828,16.4042,17.6509192,13.773231083788,31.424150283788,18.04462,1.565858,9.8085304976,13.3623363856,25,5,8.331,31.752234283788,16.732284,5.144962,9.8085304976,0,-1.565858,0,268.4, 8.6, -0.1,0,0,1024,1024,1024,1024,0,0,0,0,273.8,0,0,97,4.168,4.165,0,0,0,0,4.166,67.1,31.424150283788,16.4042,6,P-GPS,
10800,2022-09-03 21:21:58,-34.8694598173718,-55.2752843373333,16.4042,17.6509192,13.773231083788,31.424150283788,18.04462,0.894776,10.0409123948,13.6024282568,25,5,8.331,31.752234283788,16.732284,5.144962,10.0409123948,0,-0.894776,0,268.4, 6.4, -0.3,0,0,1024,1024,1024,1024,0,0,0,0,273.8,0,0,97,4.168,4.165,0,0,0,0,4.166,67.1,31.424150283788,16.4042,6,P-GPS,
10900,2022-09-03 21:21:58,-34.8694597035984,-55.2752842592239,16.732284,17.9790032,13.773231083788,31.752234283788,18.04462,0.447388,10.0083336536,13.6500660536,25,5,8.331,31.752234283788,16.732284,5.144962,10.0409123948,0,-0.447388,0,268.4, 4.6, -0.4,0,0,1024,1024,1024,1024,0,0,0,0,273.8,0,0,97,4.168,4.165,0,0,0,0,4.166,67.1,31.752234283788,16.732284,6,P-GPS,
11000,2022-09-03 21:21:58,-34.8694596583646,-55.2752845143781,16.732284,17.9790032,13.773231083788,31.752234283788,18.04462,0.223694,10.07874048,13.7282156624,25,5,8.331,31.752234283788,16.732284,5.144962,10.07874048,0,-0.223694,0,268.5, 3.1, -0.4,0,0,1024,1024,1024,1024,0,0,0,0,273.8,0,0,97,4.168,4.165,0,0,0,0,4.166,67.1,31.752234283788,16.732284,6,P-GPS,
11100,2022-09-03 21:21:58,-34.8694596303938,-55.2752844110572,16.732284,17.9790032,13.773231083788,31.752234283788,18.04462,0,10.046260164,13.7607944036,25,5,8.331,31.752234283788,16.732284,5.144962,10.07874048,0,0,0,268.4, 1.8, -0.4,0,0,1024,1024,1024,1024,0,0,0,0,273.8,0,0,97,4.168,4.165,0,0,0,0,4.166,67.1,31.752234283788,16.732284,6,P-GPS,
11200,2022-09-03 21:21:59,-34.8694595932878,-55.2752842290891,16.732284,17.9790032,13.773231083788,31.752234283788,18.04462,0,9.9901578,13.816929576,25,5,8.331,31.752234283788,16.732284,5.144962,10.07874048,0,0,0,268.5, 0.6, -0.5,0,0,1024,1024,1024,1024,0,0,0,0,273.8,0,0,97,4.168,4.165,0,0,0,0,4.166,67.1,31.752234283788,16.732284,6,P-GPS,
11300,2022-09-03 21:21:59,-34.8694596454291,-55.2752841570776,16.732284,17.9790032,13.773231083788,31.752234283788,18.04462,0,9.9736223664,13.8456697344,25,5,8.331,31.752234283788,16.732284,5.144962,10.07874048,0,0,0,268.5, -0.2, -0.4,0,0,1024,1024,681,1024,0,0,-52,0,273.8,0,0,97,4.168,4.165,0,0,0,0,4.166,67.1,31.752234283788,16.732284,6,P-GPS,
11400,2022-09-03 21:21:59,-34.8694598356994,-55.2752833449404,16.732284,17.9461948,13.806039483788,31.752234283788,18.04462,0.223694,9.7543638292,14.0984912648,25,5,8.325,31.752234283788,16.732284,5.144962,10.07874048,0,0.223694,0,268.4, -0.9, -0.5,0,0,1024,1024,529,1024,0,0,-75,0,273.8,0,0,97,4.17,4.166,0,0,0,0,4.181,67.1,31.752234283788,16.732284,6,P-GPS,
11500,2022-09-03 21:21:59,-34.8694598861074,-55.2752834079302,16.732284,17.9461948,13.806039483788,31.752234283788,18.04462,0.223694,9.7771656672,14.12483641,25,5,8.325,31.752234283788,16.732284,5.144962,10.07874048,0,0.223694,0.223694,268.5, -1.4, -0.7,0,0,1024,1024,811,1024,0,0,-32,0,273.8,0,0,97,4.17,4.166,0,0,0,0,4.181,67.1,31.752234283788,16.732284,6,P-GPS,
11600,2022-09-03 21:21:59,-34.8694599324335,-55.2752834680119,16.4042,17.6181108,13.806039483788,31.424150283788,18.04462,0,9.7987864028,14.1495083268,25,5,8.325,31.752234283788,16.732284,5.144962,10.07874048,0,0,0.894776,268.5, -0.8, -0.4,0,0,1024,1024,1024,1024,0,0,0,0,273.8,0,0,97,4.17,4.166,0,0,0,0,4.181,67.1,31.424150283788,16.4042,6,P-GPS,
11700,2022-09-03 21:21:59,-34.8694599776318,-55.2752835468157,16.4042,17.6509192,13.773231083788,31.424150283788,17.716536,0,9.8257549076,14.1782812936,25,5,8.325,31.752234283788,16.732284,5.144962,10.07874048,0,0,0.894776,268.5, -0.7, 0,0,0,1024,1024,1024,1024,0,0,0,0,273.8,0,0,97,4.17,4.166,0,0,0,0,4.181,67.1,31.424150283788,16.4042,6,P-GPS,
11800,2022-09-03 21:21:59,-34.8694601877501,-55.2752839935496,16.4042,17.6509192,13.773231083788,31.424150283788,17.716536,0,9.9745081932,14.3324479652,25,5,8.325,31.752234283788,16.732284,5.144962,10.07874048,0,0,0.447388,268.5, 0, 0,0,0,1024,1024,1024,1024,0,0,0,0,273.8,0,0,97,4.17,4.166,0,0,0,0,4.181,67.1,31.424150283788,16.4042,6,P-GPS,
11900,2022-09-03 21:21:59,-34.8694602154079,-55.2752841463383,16.076116,17.3228352,13.773231083788,31.096066283788,17.716536,0,10.0212929716,14.379265552,25,5,8.325,31.752234283788,16.732284,5.144962,10.07874048,0,0,0.223694,268.4, -0.5, -0.2,0,0,1024,1024,1024,1024,0,0,0,0,273.8,0,0,97,4.17,4.166,0,0,0,0,4.181,67.1,31.096066283788,16.076116,6,P-GPS,
12000,2022-09-03 21:21:59,-34.8694602336116,-55.2752842825403,16.076116,17.3228352,13.773231083788,31.096066283788,17.388452,0,10.0624018968,14.4205713276,25,5,8.325,31.752234283788,16.732284,5.144962,10.07874048,0,0,0.223694,268.4, -0.6, -0.3,0,0,1024,1024,1024,1024,0,0,0,0,273.8,0,0,97,4.17,4.166,0,0,0,0,4.181,67.1,31.096066283788,16.076116,6,P-GPS,
12100,2022-09-03 21:21:59,-34.8694602481499,-55.2752844048966,16.076116,17.3228352,13.773231083788,31.096066283788,17.388452,0,10.0991801132,14.4575792028,25,5,8.325,31.752234283788,16.732284,5.144962,10.0991801132,0,0,0,268.4, -0.6, -0.3,0,0,1024,1024,1024,1024,0,0,0,0,273.8,0,0,97,4.17,4.166,0,0,0,0,4.181,67.1,31.096066283788,16.076116,6,P-GPS,
12200,2022-09-03 21:22:00,-34.8694603526474,-55.2752849606422,16.076116,17.3228352,13.773231083788,31.096066283788,17.388452,0,10.2697837932,14.6282484996,25,5,8.325,31.752234283788,16.732284,5.144962,10.2697837932,0,0,0,268.4, 0.1, -0.5,0,0,1024,1024,1024,1024,0,0,0,0,273.8,0,0,97,4.17,4.166,0,0,0,0,4.181,67.1,31.096066283788,16.076116,6,P-GPS,
12300,2022-09-03 21:22:00,-34.869460269359,-55.2752850891852,16.076116,17.3228352,13.773231083788,31.096066283788,17.388452,0,10.2994097784,14.6772970576,25,5,8.325,31.752234283788,16.732284,5.144962,10.2994097784,0,0,0,268.5, 0.3, -0.5,0,0,1024,1024,1024,1565,0,0,0,82,273.8,0,0,97,4.17,4.166,0,0,0,0,4.181,67.1,31.096066283788,16.076116,6,P-GPS,
12400,2022-09-03 21:22:00,-34.8694601787724,-55.2752851865752,16.076116,17.3228352,13.773231083788,31.096066283788,17.388452,0,10.3194885192,14.7213587388,25,5,8.253,31.752234283788,16.732284,5.144962,10.3194885192,0,0,0,268.5, 0.2, -0.4,0,0,1024,1024,1024,1684,0,0,0,100,274.1,0,0,97,4.153,4.146,0,0,0,0,3.941,67.1,31.096066283788,16.076116,6,P-GPS,
12500,2022-09-03 21:22:00,-34.8694601741792,-55.2752851873062,16.076116,17.3228352,13.773231083788,31.096066283788,17.388452,0,10.3192916688,14.7230647756,25,5,8.253,31.752234283788,16.732284,5.144962,10.3194885192,0,0,0,269.7, 0, -0.3,0,0,1024,1024,1024,1684,0,0,0,100,276.8,0,0,97,4.153,4.146,0,0,0,0,3.941,67.1,31.096066283788,16.076116,6,P-GPS,
12600,2022-09-03 21:22:00,-34.8694601256587,-55.2752853727775,16.076116,17.3228352,13.773231083788,31.096066283788,17.388452,0,10.3687995444,14.781332494,25,5,8.253,31.752234283788,16.732284,5.144962,10.3687995444,0,0,0,273.3, 0, -0.2,0,0,1024,1024,1024,1597,0,0,0,87,281.2,0,0,97,4.153,4.146,0,0,0,0,3.941,67.1,31.096066283788,16.076116,6,P-GPS,
12700,2022-09-03 21:22:00,-34.869460174614,-55.2752853277684,16.076116,17.3228352,13.773231083788,31.096066283788,17.388452,0,10.3601053184,14.8037078228,25,5,8.253,31.752234283788,16.732284,5.144962,10.3687995444,0,0,0,277.8, 0.2, 0.1,0,0,1024,1024,1024,1024,0,0,0,0,286,0,0,97,4.153,4.146,0,0,0,0,3.941,67.1,31.096066283788,16.076116,6,P-GPS,
12800,2022-09-03 21:22:00,-34.8694602160952,-55.2752852570674,16.076116,17.3228352,13.773231083788,31.096066283788,17.388452,0,10.3432746092,14.829724884,25,5,8.253,31.752234283788,16.732284,5.144962,10.3687995444,0,0,0,282.3, -0.1, 0.2,0,0,1024,1024,1024,1024,0,0,0,0,289.9,0,0,97,4.153,4.146,0,0,0,0,3.941,67.1,31.096066283788,16.076116,6,P-GPS,
12900,2022-09-03 21:22:00,-34.8694602142575,-55.2752851202285,16.076116,17.3228352,13.773231083788,31.096066283788,17.388452,0,10.3034124032,14.8706697672,25,5,8.253,31.752234283788,16.732284,5.144962,10.3687995444,0,0,0,285.1, -0.2, 0.2,0,0,1024,1024,1024,1024,0,0,0,0,291.7,0,0,97,4.153,4.146,0,0,0,0,3.941,67.1,31.096066283788,16.076116,6,P-GPS,
13000,2022-09-03 21:22:00,-34.8694601960146,-55.2752849601828,16.076116,17.3228352,13.773231083788,31.096066283788,17.388452,0,10.2553480972,14.9190621572,25,5,8.253,31.752234283788,16.732284,5.144962,10.3687995444,0,0,0,286.5, -0.3, -0.1,0,0,1024,1024,1024,1024,0,0,0,0,292.3,0,0,97,4.153,4.146,0,0,0,0,3.941,67.1,31.096066283788,16.076116,6,P-GPS,
13100,2022-09-03 21:22:01,-34.8694604496818,-55.2752848385574,16.076116,17.3228352,13.773231083788,31.096066283788,17.388452,0,10.2434714564,15.0185044176,25,5,8.253,31.752234283788,16.732284,5.144962,10.3687995444,0,0,0,286.8, -0.2, 0,0,0,1024,1024,1024,1024,0,0,0,0,292.3,0,0,97,4.153,4.146,0,0,0,0,3.941,67.1,31.096066283788,16.076116,6,P-GPS,
13200,2022-09-03 21:22:01,-34.869460456037,-55.2752847051591,16.076116,17.3228352,13.773231083788,31.096066283788,17.388452,0,10.2054793292,15.0584978572,25,5,8.253,31.752234283788,16.732284,5.144962,10.3687995444,0,0.223694,0,286.9, -0.3, -0.4,0,0,1024,1024,1024,1024,0,0,0,0,292.3,0,0,97,4.153,4.146,0,0,0,0,3.941,67.1,31.096066283788,16.076116,6,P-GPS,
13300,2022-09-03 21:22:01,-34.869460437762,-55.2752845841133,16.076116,17.3228352,13.773231083788,31.096066283788,17.388452,0.223694,10.1687339212,15.0953416904,25,5,8.253,31.752234283788,16.732284,5.144962,10.3687995444,0,0.223694,0,287, -0.4, -0.5,0,0,1024,1024,1024,1024,0,0,0,0,292.3,0,0,97,4.153,4.146,0,0,0,0,3.941,67.1,31.096066283788,16.076116,6,P-GPS,
13400,2022-09-03 21:22:01,-34.8694604181517,-55.2752844584992,16.076116,17.3228352,13.773231083788,31.096066283788,17.388452,0.223694,10.130577752,15.1336290932,25,5,8.253,31.752234283788,16.732284,5.144962,10.3687995444,0,0.223694,0,287, -0.5, -0.7,0,0,1024,1024,1024,1024,0,0,0,0,292.3,0,0,97,4.153,4.146,0,0,0,0,3.941,67.1,31.096066283788,16.076116,6,P-GPS,
13500,2022-09-03 21:22:01,-34.8694604532854,-55.2752843818673,16.076116,17.3228352,13.773231083788,31.096066283788,17.388452,0.223694,10.1117457304,15.1599086216,25,5,8.253,31.752234283788,16.732284,5.144962,10.3687995444,0,0.223694,0,287, -0.7, -0.7,0,0,1024,1024,1024,1244,0,0,0,33,292.3,0,0,97,4.153,4.146,0,0,0,0,3.941,67.1,31.096066283788,16.076116,6,P-GPS,
13600,2022-09-03 21:22:01,-34.8694604416521,-55.2752842385179,16.076116,17.3228352,13.773231083788,31.096066283788,17.388452,0.223694,10.0691932356,15.2030188592,25,5,8.333,31.752234283788,16.732284,5.144962,10.3687995444,0,0.223694,0,287, -0.8, -0.7,0,0,1024,1024,1024,1684,0,0,0,100,292.3,0,0,97,4.168,4.163,0,0,0,0,4.056,67.1,31.096066283788,16.076116,6,P-GPS,
13700,2022-09-03 21:22:01,-34.8694604435447,-55.2752841242645,16.076116,17.3228352,13.773231083788,31.096066283788,17.388452,0.223694,10.0363848356,15.2372380204,25,5,8.333,31.752234283788,16.732284,5.144962,10.3687995444,0,0.223694,0,287.2, -1.1, -0.7,0,0,1024,1024,1024,1321,0,0,0,45,293.1,0,0,97,4.168,4.163,0,0,0,0,4.056,67.1,31.096066283788,16.076116,6,P-GPS,
13800,2022-09-03 21:22:01,-34.8694604465671,-55.2752840090086,15.748032,16.9947512,13.773231083788,30.767982283788,17.388452,0.223694,10.0033795852,15.2717524572,25,5,8.333,31.752234283788,16.732284,5.144962,10.3687995444,0,0.223694,0,289, -1.2, -0.7,0,0,1024,1024,1024,1024,0,0,0,0,296.4,0,0,97,4.168,4.163,0,0,0,0,4.056,67.1,30.767982283788,15.748032,6,P-GPS,
13900,2022-09-03 21:22:01,-34.8694605258164,-55.2752839036724,15.748032,16.9947512,13.773231083788,30.767982283788,17.388452,0.223694,9.9806105556,15.3145346108,25,5,8.333,31.752234283788,16.732284,5.144962,10.3687995444,0,0.223694,0,292.7, -1.2, -0.5,0,0,1024,1024,1024,1024,0,0,0,0,299.7,0,0,97,4.168,4.163,0,0,0,0,4.056,67.1,30.767982283788,15.748032,6,P-GPS,
14000,2022-09-03 21:22:01,-34.8694605374157,-55.2752837802877,15.748032,16.9947512,13.773231083788,30.767982283788,17.388452,0,9.9461617356,15.351706528,25,5,8.333,31.752234283788,16.732284,5.144962,10.3687995444,0,0,0,294.8, -1.1, -0.3,0,0,1024,1024,1024,1024,0,0,0,0,301.1,0,0,97,4.168,4.163,0,0,0,0,4.056,67.1,30.767982283788,15.748032,6,P-GPS,
14100,2022-09-03 21:22:01,-34.869460536252,-55.275283654282,15.748032,16.9947512,13.773231083788,30.767982283788,17.388452,0,9.9097116032,15.389436188,25,5,8.333,31.752234283788,16.732284,5.144962,10.3687995444,0,0,0,295.8, -1, -0.4,0,0,1024,1024,1024,1024,0,0,0,0,301.4,0,0,97,4.168,4.163,0,0,0,0,4.056,67.1,30.767982283788,15.748032,6,P-GPS,
14200,2022-09-03 21:22:02,-34.8694605235557,-55.2752835259583,15.748032,16.9947512,13.773231083788,30.767982283788,17.388452,0,9.8714570088,15.4281172916,25,5,8.333,31.752234283788,16.732284,5.144962,10.3687995444,0,0,0,296, -0.9, -0.7,0,0,1024,1024,1024,1024,0,0,0,0,301.4,0,0,97,4.168,4.163,0,0,0,0,4.056,67.1,30.767982283788,15.748032,6,P-GPS,
14300,2022-09-03 21:22:02,-34.8694605180343,-55.275283466289,15.748032,16.9947512,13.773231083788,30.767982283788,17.388452,0,9.8537076644,15.4460962948,25,5,8.333,31.752234283788,16.732284,5.144962,10.3687995444,0,0,0,296, -0.9, -0.8,0,0,1024,1024,1024,1024,0,0,0,0,301.4,0,0,97,4.168,4.163,0,0,0,0,4.056,67.1,30.767982283788,15.748032,6,P-GPS,
14400,2022-09-03 21:22:02,-34.8694604888642,-55.2752833953113,15.748032,16.9619428,13.806039483788,30.767982283788,17.388452,0,9.830380892,15.4698495764,25,5,8.333,31.752234283788,16.732284,5.144962,10.3687995444,0,0,0,296, -1, -0.8,0,0,1024,1024,1024,1000,0,0,0,-4,301.4,0,0,97,4.168,4.163,0,0,0,0,4.056,67.1,30.767982283788,15.748032,6,P-GPS,
14500,2022-09-03 21:22:02,-34.869460462512,-55.2752832946687,15.748032,16.9619428,13.806039483788,30.767982283788,17.388452,0,9.7987864028,15.501476874,25,5,8.333,31.752234283788,16.732284,5.144962,10.3687995444,0,0,0,296.1, -1, -1,0,0,1024,1024,1024,364,0,0,0,-100,301.4,0,0,97,4.168,4.163,0,0,0,0,4.056,67.1,30.767982283788,15.748032,6,P-GPS,
14600,2022-09-03 21:22:02,-34.8694604328494,-55.275283197571,15.748032,16.9619428,13.806039483788,30.767982283788,17.388452,0,9.76788089,15.532480812,25,5,8.333,31.752234283788,16.732284,5.144962,10.3687995444,0,0,0,296, -1.1, -1.2,0,0,1024,1024,1024,364,0,0,0,-100,300.6,0,0,97,4.168,4.163,0,0,0,0,4.056,67.1,30.767982283788,15.748032,6,P-GPS,
14700,2022-09-03 21:22:02,-34.8694604156412,-55.2752831357559,15.748032,16.9619428,13.806039483788,30.767982283788,17.388452,0,9.748359892,15.5520346184,25,5,8.325,31.752234283788,16.732284,5.144962,10.3687995444,0,0,0,294.2, -1, -0.9,0,0,1024,1024,1024,641,0,0,0,-58,297.1,0,0,97,4.165,4.16,0,0,0,0,3.981,67.1,30.767982283788,15.748032,6,P-GPS,
14800,2022-09-03 21:22:02,-34.8694604386675,-55.2752830451687,15.748032,16.9619428,13.806039483788,30.767982283788,17.388452,0,9.7245081852,15.5804138844,25,5,8.325,31.752234283788,16.732284,5.144962,10.3687995444,0,0,0,290.1, -1.1, -1,0,0,1024,1024,1024,1024,0,0,0,0,292.5,0,0,97,4.165,4.16,0,0,0,0,3.981,67.1,30.767982283788,15.748032,6,P-GPS,
14900,2022-09-03 21:22:02,-34.8694603872624,-55.2752829486192,15.748032,16.9619428,13.806039483788,30.767982283788,17.388452,0,9.6916341684,15.6148627044,25,5,8.325,31.752234283788,16.732284,5.144962,10.3687995444,0,0,0,285.8, -0.9, -1,0,0,1024,1024,1024,1024,0,0,0,0,289.2,0,0,97,4.165,4.16,0,0,0,0,3.981,67.1,30.767982283788,15.748032,6,P-GPS,
15000,2022-09-03 21:22:02,-34.8694603364304,-55.2752828510464,15.748032,16.9619428,13.806039483788,30.767982283788,17.388452,0,9.6585304928,15.6494755664,25,5,8.325,31.752234283788,16.732284,5.144962,10.3687995444,0,0,0,283.6, -1.1, -0.9,0,0,1024,1024,1024,1024,0,0,0,0,287.7,0,0,97,4.165,4.16,0,0,0,0,3.981,67.1,30.767982283788,15.748032,6,P-GPS,
15100,2022-09-03 21:22:02,-34.8694603356785,-55.275282781708,15.748032,16.9619428,13.806039483788,30.767982283788,17.388452,0,9.638451752,15.6702432836,25,5,8.325,31.752234283788,16.732284,5.144962,10.3687995444,0,0,0,282.5, -1.3, -0.6,0,0,1024,1024,1024,1024,0,0,0,0,287.3,0,0,97,4.165,4.16,0,0,0,0,3.981,67.1,30.767982283788,15.748032,6,P-GPS,
15200,2022-09-03 21:22:03,-34.8694603436032,-55.2752826169688,15.748032,16.9619428,13.806039483788,30.767982283788,17.388452,0,9.5917325904,15.7196199256,24,5,8.325,31.752234283788,16.732284,5.144962,10.3687995444,0,0,0,282.3, -1.5, -0.2,0,0,1024,1024,1024,1024,0,0,0,0,287.3,0,0,97,4.165,4.16,0,0,0,0,3.981,67.1,30.767982283788,15.748032,6,P-GPS,
15300,2022-09-03 21:22:03,-34.8694603078016,-55.2752825535979,15.748032,16.9619428,13.806039483788,30.767982283788,17.388452,0,9.5699478128,15.7426514224,24,5,8.325,31.752234283788,16.732284,5.144962,10.3687995444,0,0,0,282.2, -1.4, -0.1,0,0,1024,1024,1024,1024,0,0,0,0,287.3,0,0,97,4.165,4.16,0,0,0,0,3.981,67.1,30.767982283788,15.748032,6,P-GPS,
15400,2022-09-03 21:22:03,-34.8694602607139,-55.2752824948945,15.748032,16.9291344,13.838847883788,30.767982283788,17.388452,0,9.548392694,15.767224914,25,5,8.325,31.752234283788,16.732284,5.144962,10.3687995444,0,0,0,282.2, -1.3, -0.1,0,0,1024,1024,1024,1024,0,0,0,0,287.3,0,0,97,4.165,4.16,0,0,0,0,3.981,67.1,30.767982283788,15.748032,6,P-GPS,
15500,2022-09-03 21:22:03,-34.8694602319796,-55.2752824177405,15.748032,16.9291344,13.838847883788,30.767982283788,17.388452,0,9.5233270764,15.7926186156,25,5,8.325,31.752234283788,16.732284,5.144962,10.3687995444,0,0,0,282.2, -1.3, -0.2,0,0,1024,1024,1024,1024,0,0,0,0,287.3,0,0,97,4.165,4.16,0,0,0,0,3.981,67.1,30.767982283788,15.748032,6,P-GPS,
15600,2022-09-03 21:22:03,-34.869460179758,-55.2752822630514,15.748032,16.9291344,13.838847883788,30.767982283788,17.388452,0,9.4736223504,15.842684234,25,5,8.325,31.752234283788,16.732284,5.144962,10.3687995444,0,0,0,282.2, -1.2, 0,0,0,1024,1024,1024,1024,0,0,0,0,287.3,0,0,97,4.165,4.16,0,0,0,0,3.981,67.1,30.767982283788,15.748032,6,P-GPS,
15700,2022-09-03 21:22:03,-34.869460102318,-55.2752821909408,15.748032,16.9291344,13.838847883788,30.767982283788,17.388452,0,9.4453087012,15.8782157312,25,5,8.325,31.752234283788,16.732284,5.144962,10.3687995444,0,0,0,282.2, -1.1, 0,0,0,1035,1024,1024,1024,2,0,0,0,287.3,0,0,97,4.164,4.158,0,0,0,0,3.981,67.1,30.767982283788,15.748032,6,P-GPS,
15800,2022-09-03 21:22:03,-34.8694600121402,-55.2752821183133,15.748032,16.9291344,13.838847883788,30.767982283788,17.388452,0,9.4156499076,15.917651428,24,5,8.325,31.752234283788,16.732284,5.144962,10.3687995444,0,0,0,282.1, -1.1, -0.1,0,0,1210,1024,1024,1024,28,0,0,0,287.3,0,0,97,4.164,4.158,0,0,0,0,3.981,67.1,30.767982283788,15.748032,6,P-GPS,
15900,2022-09-03 21:22:03,-34.869459961361,-55.2752820862363,15.748032,16.9291344,13.838847883788,30.767982283788,17.388452,0,9.4015422956,15.9385503788,24,5,8.325,31.752234283788,16.732284,5.144962,10.3687995444,0,0,0,282.1, -1, -0.2,0,0,1210,1024,1024,1024,28,0,0,0,287.3,0,0,97,4.164,4.158,0,0,0,0,3.981,67.1,30.767982283788,15.748032,6,P-GPS,
16000,2022-09-03 21:22:03,-34.8694599015549,-55.2752820300128,15.748032,16.9291344,13.838847883788,30.767982283788,17.388452,0,9.379593476,15.9660766264,25,5,8.325,31.752234283788,16.732284,5.144962,10.3687995444,0,0,0,282.1, -2.3, 0,0,0,1476,1024,1024,1024,68,0,0,0,287.3,0,0,97,4.164,4.158,0,0,0,0,3.981,67.1,30.767982283788,15.748032,6,P-GPS,
16100,2022-09-03 21:22:03,-34.8694598141456,-55.2752820247502,15.748032,16.9291344,13.838847883788,30.767982283788,17.388452,0,9.3698821896,15.998032008,25,5,8.325,31.752234283788,16.732284,5.144962,10.3687995444,0,0,0,282.1, -6.2, -0.2,0,0,1655,1024,1024,1024,96,0,0,0,287.3,0,0,97,4.164,4.158,0,0,0,0,3.981,67.1,30.767982283788,15.748032,6,P-GPS,
16200,2022-09-03 21:22:04,-34.8694597046359,-55.2752821044676,15.748032,16.9291344,13.838847883788,30.767982283788,17.060368,0.3131716,9.3828086992,16.0445543192,25,5,8.325,31.752234283788,16.732284,5.144962,10.3687995444,0.223694,-0.223694,0,282.2, -12.1, -0.5,0,0,1684,1024,1024,1024,100,0,0,0,287.3,0,0,97,4.164,4.158,0,0,0,0,3.981,67.1,30.767982283788,15.748032,6,P-GPS,
16300,2022-09-03 21:22:04,-34.8694595721041,-55.2752824048084,15.748032,16.9291344,13.838847883788,30.767982283788,17.060368,0.7158208,9.4579399352,16.14665406,25,5,8.325,31.752234283788,16.732284,5.144962,10.3687995444,0.223694,-0.671082,0,282.2, -16.7, -0.7,0,0,1684,1024,1024,1024,100,0,0,0,287.3,0,0,97,4.164,4.158,0,0,0,0,3.981,67.1,30.767982283788,15.748032,6,P-GPS,
16400,2022-09-03 21:22:04,-34.8694593868367,-55.2752829811765,15.748032,16.9291344,13.838847883788,30.767982283788,17.060368,1.4092722,9.6093178928,16.3319559032,25,5,8.325,31.752234283788,16.732284,5.144962,10.3687995444,0.447388,-1.342164,0,282.3, -17.8, -0.7,0,0,1684,1024,1024,1024,100,0,0,0,287.3,0,0,97,4.164,4.158,0,0,0,0,3.981,67.1,30.767982283788,15.748032,6,P-GPS,
16500,2022-09-03 21:22:04,-34.8694592073899,-55.275283856528,15.748032,16.9619428,13.806039483788,30.767982283788,16.732284,2.0579848,9.8496066144,16.602034652,25,5,8.325,31.752234283788,16.732284,5.144962,10.3687995444,0.447388,-2.013246,0,282.3, -17.7, -0.8,0,0,1684,1024,1024,1024,100,0,0,0,287.3,0,0,97,4.164,4.158,0,0,0,0,3.981,67.1,30.767982283788,15.748032,6,P-GPS,
16600,2022-09-03 21:22:04,-34.8694589351346,-55.2752849819277,15.748032,16.9947512,13.773231083788,30.767982283788,17.060368,2.5501116,10.157644682,16.953248574,24,5,8.325,31.752234283788,16.732284,5.144962,10.3687995444,0.671082,-2.460634,0,282.3, -17.4, -0.9,0,0,1684,1024,1024,1024,100,0,0,0,287.3,0,0,97,4.164,4.158,0,0,0,0,3.981,67.1,30.767982283788,15.748032,6,P-GPS,
16700,2022-09-03 21:22:04,-34.8694586054487,-55.2752864013719,15.748032,16.9947512,13.773231083788,30.767982283788,16.732284,3.1988242,10.5509189728,17.394849638,24,5,8.321,31.752234283788,16.732284,5.144962,10.5509189728,0.671082,-3.131716,0,282.3, -17, -0.9,0,0,1684,1024,1024,1024,100,0,0,0,287.3,0,0,97,4.152,4.147,0,0,0,0,3.997,67.28,30.767982283788,15.748032,6,P-GPS,
16800,2022-09-03 21:22:04,-34.8694582163967,-55.2752881478511,15.748032,17.0275596,13.740422683788,30.767982283788,16.732284,3.914645,11.04084681,17.9365819388,24,5,8.321,31.752234283788,16.732284,5.144962,11.04084681,0.894776,-3.802798,0,282.2, -16.9, -1,0,0,1684,1024,1024,897,100,0,0,-19,287.3,0,0,97,4.152,4.147,0,0,0,0,3.997,67.28,30.767982283788,15.748032,6,P-GPS,
