time(millisecond),datetime(utc),latitude,longitude,height_above_takeoff(feet),height_above_ground_at_drone_location(feet),ground_elevation_at_drone_location(feet),altitude_above_seaLevel(feet),height_sonar(feet),speed(mph),distance(feet),mileage(feet),satellites,gpslevel,voltage(v),max_altitude(feet),max_ascent(feet),max_speed(mph),max_distance(feet), xSpeed(mph), ySpeed(mph), zSpeed(mph), compass_heading(degrees), pitch(degrees), roll(degrees),isPhoto,isVideo,rc_elevator,rc_aileron,rc_throttle,rc_rudder,rc_elevator(percent),rc_aileron(percent),rc_throttle(percent),rc_rudder(percent),gimbal_heading(degrees),gimbal_pitch(degrees),gimbal_roll(degrees),battery_percent,voltageCell1,voltageCell2,voltageCell3,voltageCell4,voltageCell5,voltageCell6,current(A),battery_temperature(f),altitude(feet),ascent(feet),flycStateRaw,flycState,message
0,2023-12-29 04:56:50,-34.955307034849,-54.9406397279594,0,0,17.008256449776,17.008256449776,0.984252,0,0,0,18,5,0,17.008256449776,0,0,0,0,0,-0.223694,228.5, -16.9, 0.2,0,0,364,364,364,1684,-100,-100,-100,100,239.3,0,0,96,4.288,4.286,0,0,0,0,0,80.78,17.008256449776,0,41,Motors_Started,"Error de calibración del estabilizador. Reinicia la aeronave o contacta con la Asistencia DJI (Code: 40011). Tarjeta SD llena. Cámbiala o elimina archivos (Code: 10027)"
100,2023-12-29 04:56:50,-34.9553069938513,-54.9406397318504,0,0,17.008256449776,17.008256449776,0.984252,0,0.0150031828948,0.0150031828948,19,5,0,17.008256449776,0,0,0.0150031828948,0,0,-0.223694,228.6, -16.6, 0.5,0,0,364,364,364,1684,-100,-100,-100,100,239.6,0,0,96,4.288,4.286,0,0,0,0,0,80.78,17.008256449776,0,41,Motors_Started,
200,2023-12-29 04:56:50,-34.9553068613627,-54.9406397981282,0,0,17.008256449776,17.008256449776,0.328084,0,0.066683729168,0.067246721312,19,5,0,17.008256449776,0,0,0.066683729168,0,0,-0.223694,228.7, -16.3, 0.5,0,0,364,364,364,1684,-100,-100,-100,100,240,0,0,96,4.288,4.286,0,0,0,0,0,80.78,17.008256449776,0,41,Motors_Started,
300,2023-12-29 04:56:51,-34.9553069067222,-54.9406398153306,0,0,17.008256449776,17.008256449776,0.328084,0,0.053552495152,0.084577102444,20,5,0,17.008256449776,0,0,0.066683729168,0,0,-0.223694,229.3, -16.2, 0.3,0,0,364,364,364,1684,-100,-100,-100,100,240.3,0,0,96,4.288,4.286,0,0,0,0,0,80.78,17.008256449776,0,41,Motors_Started,"Setting new Return-To-Home altitude to 100m (328 ft). Data Recorder File Index is 32. Setting new Maximum Flight Altitude to 120m (394 ft)"
400,2023-12-29 04:56:51,-34.9553068621167,-54.9406398078034,0,0,17.008256449776,17.008256449776,0.328084,0.223694,0.067392390608,0.101006564912,20,5,0,17.008256449776,0,0.223694,0.067392390608,-0.223694,0,-0.223694,229.4, -16.2, 0.5,0,0,364,364,470,1684,-100,-100,-84,100,240.6,0,0,96,4.288,4.286,0,0,0,0,0,80.78,17.008256449776,0,41,Motors_Started,
500,2023-12-29 04:56:51,-34.955306845382,-54.9406398075107,0,0,17.008256449776,17.008256449776,0.328084,0.223694,0.073105645384,0.107112536236,20,5,0,17.008256449776,0,0.223694,0.073105645384,-0.223694,0,-0.223694,229.7, -16.9, 0.5,0,0,1024,1024,1024,1191,0,0,0,25,240.9,0,0,96,4.288,4.286,0,0,0,0,0,80.78,17.008256449776,0,41,Motors_Started,
600,2023-12-29 04:56:51,-34.9553066889887,-54.9406396615419,0,0,17.008256449776,17.008256449776,0.328084,0.223694,0.127740489652,0.1789534178,20,5,0,17.008256449776,0,0.223694,0.127740489652,-0.223694,0,-0.223694,230, -16.8, 1.7,0,0,1024,1024,1024,1105,0,0,0,12,241.3,0,0,96,4.288,4.286,0,0,0,0,0,80.78,17.008256449776,0,41,Motors_Started,
700,2023-12-29 04:56:51,-34.9553067314447,-54.9406396183933,0,0,17.008256449776,17.008256449776,0.328084,0,0.115443901332,0.199113195348,20,5,0,17.008256449776,0,0.223694,0.127740489652,0,0,-0.223694,229.8, -17.2, 3.2,0,0,1024,1024,1117,1024,0,0,14,0,241.7,0,0,96,4.288,4.286,0,0,0,0,0,80.78,17.008256449776,0,41,Motors_Started,
800,2023-12-29 04:56:51,-34.9553067509493,-54.9406396358166,0,0,17.008256449776,17.008256449776,0.328084,0,0.107182746212,0.20793307752,20,5,0,17.008256449776,0,0.223694,0.127740489652,0,0,-0.223694,228.9, -18, 5.3,0,0,1024,1024,1117,1024,0,0,14,0,241.9,0,0,96,4.288,4.286,0,0,0,0,0,80.78,17.008256449776,0,41,Motors_Started,
900,2023-12-29 04:56:51,-34.955306784742,-54.9406396643001,0,0,17.008256449776,17.008256449776,0.328084,0,0.093215882248,0.22291831422,20,5,0,17.008256449776,0,0.223694,0.127740489652,0,0,-0.223694,228.8, -20.1, 5.4,0,0,1024,1024,1539,1024,0,0,78,0,241.8,0,0,96,4.288,4.286,0,0,0,0,0,80.78,17.008256449776,0,41,Motors_Started,
1000,2023-12-29 04:56:51,-34.955306804013,-54.940639709747,0,0,17.008256449776,17.008256449776,0.328084,0,0.08439632816,0.238219167728,20,5,8.591,17.008256449776,0,0.223694,0.127740489652,0,0,-0.447388,230.8, -19.9, 4.7,0,0,1024,1024,1684,1024,0,0,100,0,242.6,0,0,96,4.288,4.286,0,0,0,0,0.839,80.78,17.008256449776,0,41,Motors_Started,
1100,2023-12-29 04:56:51,-34.9553067324746,-54.9406397717091,0,0,17.008256449776,17.008256449776,0.328084,0,0.11109416366,0.27022802702,20,5,8.591,17.008256449776,0,0.223694,0.127740489652,0,0,-0.447388,232.5, -18.3, 5.6,0,0,1024,1024,1684,1024,0,0,100,0,244.6,0,0,96,4.288,4.286,0,0,0,0,0.839,80.78,17.008256449776,0,10,Assisted_Takeoff,
1200,2023-12-29 04:56:51,-34.9553067319381,-54.9406397937968,0.328084,0.328084,17.008256449776,17.336340449776,0.328084,0,0.112256565272,0.27683563878,20,5,8.591,17.336340449776,0.328084,0.223694,0.127740489652,0,0,-0.447388,232.4, -15.9, 6.3,0,0,1024,1024,1684,1024,0,0,100,0,245.3,0,0,96,4.288,4.286,0,0,0,0,0.839,80.78,17.336340449776,0.328084,10,Assisted_Takeoff,
1300,2023-12-29 04:56:52,-34.955306722327,-54.9406398027247,0.328084,0.328084,17.008256449776,17.336340449776,0.656168,0,0.116194557524,0.281243119236,19,5,8.591,17.336340449776,0.328084,0.223694,0.127740489652,0,0,-0.447388,233.2, -11.5, 6,0,0,1024,1024,1684,1015,0,0,100,-1,245.4,0,0,96,4.288,4.286,0,0,0,0,0.839,80.78,17.336340449776,0.328084,10,Assisted_Takeoff,
1400,2023-12-29 04:56:52,-34.9553066714813,-54.9406398119048,0.328084,0.328084,17.008256449776,17.336340449776,0.656168,0,0.134930122428,0.299996072592,19,5,8.591,17.336340449776,0.328084,0.223694,0.134930122428,0,0,-0.447388,234.2, -6.1, 4.8,0,0,1024,1024,1684,855,0,0,100,-26,245.8,0,0,96,4.288,4.286,0,0,0,0,0.839,80.78,17.336340449776,0.328084,10,Assisted_Takeoff,
1500,2023-12-29 04:56:52,-34.9553064469734,-54.9406398333406,0.328084,0.3608924,16.975448049776,17.336340449776,0.656168,0,0.216788720848,0.38215880488,19,5,8.591,17.336340449776,0.328084,0.223694,0.216788720848,0,0,-0.447388,234.4, -3.5, 3.9,0,0,1024,1024,1684,509,0,0,100,-78,245.9,0,0,96,4.288,4.286,0,0,0,0,0.839,80.78,17.336340449776,0.328084,10,Assisted_Takeoff,
1600,2023-12-29 04:56:52,-34.9553063320305,-54.9406397877225,0.328084,0.3608924,16.975448049776,17.336340449776,0.656168,0,0.257044955732,0.42625657532,19,5,8.591,17.336340449776,0.328084,0.223694,0.257044955732,0,0,-0.671082,235.3, 0.2, 2.9,0,0,1024,1024,1684,364,0,0,100,-100,246.2,0,0,96,4.288,4.286,0,0,0,0,0.839,80.78,17.336340449776,0.328084,10,Assisted_Takeoff,
1700,2023-12-29 04:56:52,-34.9553061756567,-54.9406397298618,0.328084,0.3608924,16.975448049776,17.336340449776,0.656168,0.223694,0.313476387984,0.4858759998,19,5,8.591,17.336340449776,0.328084,0.223694,0.313476387984,0.223694,0,-0.894776,232.8, 3.7, 3,0,0,1024,1024,1684,364,0,0,100,-100,246.2,0,0,96,4.288,4.286,0,0,0,0,0.839,80.78,17.336340449776,0.328084,6,P-GPS,
1800,2023-12-29 04:56:52,-34.9553059201449,-54.9406396381619,0.328084,0.3608924,16.975448049776,17.336340449776,0.656168,0.671082,0.40758531488,0.58304791892,19,5,8.591,17.336340449776,0.328084,0.671082,0.40758531488,0.671082,0,-1.342164,232.6, -0.9, -0.6,0,0,1024,1024,1684,364,0,0,100,-100,243.3,0,0,96,4.288,4.286,0,0,0,0,0.839,80.78,17.336340449776,0.328084,6,P-GPS,
1900,2023-12-29 04:56:52,-34.9553054906786,-54.9406394552873,0.656168,0.6233596,17.041064849776,17.664424449776,0.984252,0.671082,0.5692585484,0.74900921032,19,5,8.591,17.664424449776,0.656168,0.671082,0.5692585484,0.671082,0,-1.789552,229.1, -3.5, -1.9,0,0,1024,1024,1684,664,0,0,100,-55,238.7,0,0,96,4.288,4.286,0,0,0,0,0.839,80.78,17.664424449776,0.656168,6,P-GPS,
2000,2023-12-29 04:56:52,-34.9553051147165,-54.9406393855327,0.656168,0.6233596,17.041064849776,17.664424449776,1.312336,0.894776,0.70800199116,0.88775593392,19,5,8.591,17.664424449776,0.656168,0.894776,0.70800199116,0.894776,0,-2.460634,225, -4.8, -2.8,0,0,1024,1024,1684,797,0,0,100,-34,234.6,0,0,96,4.288,4.286,0,0,0,0,0.839,80.78,17.664424449776,0.656168,6,P-GPS,
2100,2023-12-29 04:56:52,-34.9553047519855,-54.9406393179968,1.312336,1.2795276,17.041064849776,18.320592449776,1.968504,0.894776,0.84187338652,1.02162732928,20,5,8.546,18.320592449776,1.312336,0.894776,0.84187338652,0.894776,0,-3.131716,222.5, -6.2, -3.1,0,0,1024,1024,1569,858,0,0,83,-25,233,0,0,96,4.219,4.207,0,0,0,0,1.704,80.78,18.320592449776,1.312336,6,P-GPS,
2200,2023-12-29 04:56:52,-34.9553043898488,-54.9406393236151,1.64042,1.64042,17.008256449776,18.648676449776,2.624672,0.671082,0.9725722096,1.15376316028,20,5,8.546,18.648676449776,1.64042,0.894776,0.9725722096,0.671082,0,-3.802798,221.5, -6.2, -3.4,0,0,1024,1024,1024,1024,0,0,0,0,232.3,0,0,96,4.219,4.207,0,0,0,0,1.704,80.78,18.648676449776,1.64042,6,P-GPS,
2300,2023-12-29 04:56:53,-34.9553040647088,-54.9406393239104,2.296588,2.296588,17.008256449776,19.304844449776,3.608924,0.671082,1.09036748896,1.272391773,20,5,8.546,19.304844449776,2.296588,0.894776,1.09036748896,0.671082,0,-4.026492,220.9, -6.6, -3.9,0,0,1024,1024,1024,1024,0,0,0,0,231.9,0,0,96,4.219,4.207,0,0,0,0,1.704,80.78,19.304844449776,2.296588,6,P-GPS,
2400,2023-12-29 04:56:53,-34.955303395617,-54.9406394537743,2.624672,2.6574804,16.975448049776,19.632928449776,4.265092,0.7158208,1.33030187984,1.51958010112,20,5,8.546,19.632928449776,2.624672,0.894776,1.33030187984,0.671082,0.223694,-4.026492,220.6, -6.5, -4.2,0,0,1024,1024,1024,1024,0,0,0,0,231.7,0,0,96,4.219,4.207,0,0,0,0,1.704,80.78,19.632928449776,2.624672,6,P-GPS,
2500,2023-12-29 04:56:53,-34.955302738973,-54.9406395353717,3.28084,3.4120736,16.877022849776,20.289096449776,4.92126,0.7158208,1.568405562,1.76039375712,20,5,8.546,20.289096449776,3.28084,0.894776,1.568405562,0.671082,0.223694,-3.802798,220.6, -7.1, -2.9,0,0,1024,1024,1024,1024,0,0,0,0,231.7,0,0,96,4.219,4.207,0,0,0,0,1.704,80.78,20.289096449776,3.28084,6,P-GPS,
2600,2023-12-29 04:56:53,-34.9553023616007,-54.9406394500766,3.608924,3.6745408,16.942639649776,20.617180449776,5.577428,0.8052984,1.70705714124,1.90042000832,20,5,8.546,20.617180449776,3.608924,0.894776,1.70705714124,0.671082,0.447388,-3.35541,220.4, -7.7, -2.5,0,0,1024,1024,1024,1024,0,0,0,0,231.7,0,0,96,4.219,4.207,0,0,0,0,1.704,80.78,20.617180449776,3.608924,6,P-GPS,
2700,2023-12-29 04:56:53,-34.9553019786786,-54.9406393365424,3.937008,4.0026248,16.942639649776,20.945264449776,5.905512,0.8052984,1.84845150272,2.04419625964,20,5,8.546,20.945264449776,3.937008,0.894776,1.84845150272,0.671082,0.447388,-2.908022,220.4, -8.9, -1.6,0,0,1024,1024,1024,1024,0,0,0,0,231.7,0,0,96,4.219,4.207,0,0,0,0,1.704,80.78,20.945264449776,3.937008,6,P-GPS,
2800,2023-12-29 04:56:53,-34.9553015583658,-54.9406391936793,3.937008,4.0026248,16.942639649776,20.945264449776,6.56168,0.8052984,2.00446856808,2.20338589728,20,5,8.546,20.945264449776,3.937008,0.894776,2.00446856808,0.671082,0.447388,-2.013246,220.4, -9.6, -1.4,0,0,1024,1024,1024,1024,0,0,0,0,231.7,0,0,96,4.219,4.207,0,0,0,0,1.704,80.78,20.945264449776,3.937008,6,P-GPS,
2900,2023-12-29 04:56:53,-34.9553011955631,-54.9406390043306,4.265092,4.3635172,16.909831249776,21.273348449776,6.56168,0.8052984,2.1414206722,2.34735571816,21,5,8.546,21.273348449776,4.265092,0.894776,2.1414206722,0.671082,0.447388,-1.342164,220.4, -9.6, -0.8,0,0,1118,1112,1024,1024,14,13,0,0,231.7,0,0,96,4.219,4.207,0,0,0,0,1.704,80.78,21.273348449776,4.265092,6,P-GPS,
3000,2023-12-29 04:56:53,-34.9553007935654,-54.9406388954282,4.265092,4.3635172,16.909831249776,21.273348449776,6.889764,0.8052984,2.29069561136,2.49759522428,21,5,8.546,21.273348449776,4.265092,0.894776,2.29069561136,0.671082,0.447388,-0.671082,220.1, -9.7, -1.5,0,0,1024,1024,1024,1024,0,0,0,0,231.7,0,0,96,4.219,4.207,0,0,0,0,1.704,80.78,21.273348449776,4.265092,6,P-GPS,
3100,2023-12-29 04:56:53,-34.9553004042892,-54.9406388001286,4.265092,4.3963256,16.877022849776,21.273348449776,6.889764,1.006623,2.43501320128,2.6424541528,21,5,8.324,21.273348449776,4.265092,1.006623,2.43501320128,0.894776,0.447388,0,220.3, -9.1, -0.8,0,0,1459,1024,1024,1024,66,0,0,0,231.7,0,0,96,4.236,4.236,0,0,0,0,4.819,80.78,21.273348449776,4.265092,6,P-GPS,
3200,2023-12-29 04:56:53,-34.9552996313287,-54.9406386362674,4.265092,4.3963256,16.877022849776,21.273348449776,6.889764,0.9171454,2.72082357788,2.92869431944,21,5,8.324,21.273348449776,4.265092,1.006623,2.72082357788,0.894776,0.223694,0,220.4, -8.9, -1.4,0,0,1684,1024,1024,1024,100,0,0,0,231.7,0,0,96,4.236,4.236,0,0,0,0,4.819,80.78,21.273348449776,4.265092,6,P-GPS,
3300,2023-12-29 04:56:54,-34.9552991234675,-54.9406385030403,4.265092,4.429134,16.844214449776,21.273348449776,6.56168,0.9171454,2.90960967316,3.11822188456,21,5,8.324,21.273348449776,4.265092,1.006623,2.90960967316,0.894776,0.223694,0,220.7, -17.9, -2.2,0,0,1684,1024,1024,1024,100,0,0,0,231.7,0,0,96,4.236,4.236,0,0,0,0,4.819,80.78,21.273348449776,4.265092,6,P-GPS,"Punto de origen actualizado. Altitud de RPO establecida en 100m (Code: 3000001)"
3400,2023-12-29 04:56:54,-34.9552986493167,-54.9406384296796,3.937008,4.0026248,16.942639649776,20.945264449776,6.56168,0.447388,3.0839896,3.2925854072,21,5,8.324,21.273348449776,4.265092,1.006623,3.0839896,0.447388,0,0,221.1, -23.6, -2.3,0,0,1684,1024,1024,1024,100,0,0,0,231.7,0,0,96,4.236,4.236,0,0,0,0,4.819,80.78,20.945264449776,3.937008,6,P-GPS,
3500,2023-12-29 04:56:54,-34.9552983386568,-54.9406385103376,3.937008,4.1338584,16.811406049776,20.945264449776,6.56168,0.4921268,3.19362543028,3.4084974844,21,5,8.324,21.273348449776,4.265092,1.006623,3.19362543028,0.223694,-0.447388,0,220.8, -23.8, -2.6,0,0,1684,1024,1024,1024,100,0,0,0,231.7,0,0,96,4.236,4.236,0,0,0,0,4.819,80.78,20.945264449776,3.937008,6,P-GPS,
3600,2023-12-29 04:56:54,-34.9552980945531,-54.940638623638,3.937008,4.1338584,16.811406049776,20.945264449776,6.56168,0.7158208,3.27853356948,3.503773078,21,5,8.324,21.273348449776,4.265092,1.006623,3.27853356948,-0.223694,-0.671082,0,220.6, -23.8, -3.5,0,0,1684,999,1024,1024,100,-4,0,0,231.7,0,0,96,4.236,4.236,0,0,0,0,4.819,80.78,20.945264449776,3.937008,6,P-GPS,
3700,2023-12-29 04:56:54,-34.9552982338892,-54.9406390267254,3.937008,4.1338584,16.811406049776,20.945264449776,6.56168,1.2974252,3.2178642762,3.6345801688,21,5,8.324,21.273348449776,4.265092,1.2974252,3.27853356948,-0.671082,-1.11847,0,221, -24.5, -1.9,0,0,1684,999,1024,1024,100,-4,0,0,231.7,0,0,96,4.236,4.236,0,0,0,0,4.819,80.78,20.945264449776,3.937008,6,P-GPS,
3800,2023-12-29 04:56:54,-34.9552986324086,-54.9406396682133,3.608924,3.8713912,16.745789249776,20.617180449776,6.56168,1.7448132,3.06567595112,3.8752953996,21,5,8.324,21.273348449776,4.265092,1.7448132,3.27853356948,-1.11847,-1.342164,0,220.7, -23.9, -2.2,0,0,1684,933,1024,1024,100,-14,0,0,231.7,0,0,96,4.236,4.236,0,0,0,0,4.819,80.78,20.617180449776,3.608924,6,P-GPS,
3900,2023-12-29 04:56:54,-34.9552991911391,-54.9406404284827,3.608924,3.8713912,16.745789249776,20.617180449776,6.56168,2.3711564,2.86942922568,4.1806431784,21,5,8.324,21.273348449776,4.265092,2.3711564,3.27853356948,-1.565858,-1.789552,0,220.5, -24.1, -2.3,0,0,1684,973,1024,1024,100,-8,0,0,231.7,0,0,96,4.236,4.236,0,0,0,0,4.819,80.78,20.617180449776,3.608924,6,P-GPS,
4000,2023-12-29 04:56:54,-34.9553000171396,-54.9406414766511,3.608924,3.9041996,16.712980849776,20.617180449776,6.56168,2.8409138,2.61325795764,4.6154529036,21,5,8.324,21.273348449776,4.265092,2.8409138,3.27853356948,-2.013246,-2.013246,0,220.6, -24.5, -2.3,0,0,1684,898,1024,1024,100,-19,0,0,231.7,0,0,96,4.236,4.236,0,0,0,0,4.819,80.78,20.617180449776,3.608924,6,P-GPS,
4100,2023-12-29 04:56:54,-34.9553009118931,-54.9406425430359,3.608924,4.0354332,16.581747249776,20.617180449776,6.56168,3.3330406,2.38729666432,5.0718177476,21,5,8.435,21.273348449776,4.265092,3.3330406,3.27853356948,-2.460634,-2.23694,0,220.7, -24.5, -2.1,0,0,1684,701,1024,1024,100,-49,0,0,231.7,0,0,96,4.188,4.187,0,0,0,0,3.231,80.78,20.617180449776,3.608924,6,P-GPS,
4200,2023-12-29 04:56:55,-34.9553021753279,-54.9406438656103,3.608924,4.10105,16.516130449776,20.617180449776,6.56168,3.9593838,2.16203090908,5.6791668484,21,5,8.435,21.273348449776,4.265092,3.9593838,3.27853356948,-2.908022,-2.684328,0,221, -24.8, -2.3,0,0,1684,848,1024,1024,100,-27,0,0,231.7,0,0,96,4.188,4.187,0,0,0,0,3.231,80.78,20.617180449776,3.608924,6,P-GPS,
4300,2023-12-29 04:56:55,-34.9553035412015,-54.9406452916021,3.608924,4.1338584,16.483322049776,20.617180449776,6.56168,4.4291412,2.09586292796,6.3350395728,21,5,8.435,21.273348449776,4.265092,4.4291412,3.27853356948,-3.35541,-2.908022,0,221.2, -24.8, -5.5,0,0,1684,822,1024,1024,100,-31,0,0,231.7,0,0,96,4.188,4.187,0,0,0,0,3.231,80.78,20.617180449776,3.608924,6,P-GPS,
4400,2023-12-29 04:56:55,-34.9553051438526,-54.9406470321224,3.608924,4.265092,16.352088449776,20.617180449776,6.56168,4.7646822,2.29054141188,7.1178479968,21,5,8.435,21.273348449776,4.265092,4.7646822,3.27853356948,-3.579104,-3.131716,0,221.9, -24.8, -5.8,0,0,1684,713,1024,1024,100,-47,0,0,231.7,0,0,96,4.188,4.187,0,0,0,0,3.231,80.78,20.617180449776,3.608924,6,P-GPS,
4500,2023-12-29 04:56:55,-34.9553072989761,-54.9406490715706,3.608924,4.3963256,16.220854849776,20.617180449776,6.56168,5.2344396,2.795685785,8.1129267688,21,5,8.435,21.273348449776,4.265092,5.2344396,3.27853356948,-4.026492,-3.35541,0,222.7, -24.7, -5.3,0,0,1684,713,1024,1024,100,-47,0,0,231.7,0,0,96,4.188,4.187,0,0,0,0,3.231,80.78,20.617180449776,3.608924,6,P-GPS,
4600,2023-12-29 04:56:55,-34.9553091711664,-54.9406507988579,3.608924,4.4947508,16.122429649776,20.617180449776,6.56168,5.7265664,3.4010499776,8.969324434,21,5,8.435,21.273348449776,4.265092,5.7265664,3.4010499776,-4.47388,-3.579104,0,222.5, -23.7, -6.6,0,0,1684,718,1024,1024,100,-46,0,0,231.7,0,0,96,4.188,4.187,0,0,0,0,3.231,80.78,20.617180449776,3.608924,6,P-GPS,
4700,2023-12-29 04:56:55,-34.9553112051516,-54.9406526124318,3.608924,4.6259844,15.991196049776,20.617180449776,6.56168,6.0844768,4.142388584,9.88845176,20,5,8.435,21.273348449776,4.265092,6.0844768,4.142388584,-4.921268,-3.579104,0,222.7, -23.6, -6.9,0,0,1684,795,1024,1024,100,-35,0,0,231.7,0,0,96,4.188,4.187,0,0,0,0,3.231,80.78,20.617180449776,3.608924,6,P-GPS,
4800,2023-12-29 04:56:55,-34.9553134520041,-54.9406546250272,3.608924,4.7244096,15.892770849776,20.617180449776,6.56168,6.3976484,5.032480476,10.9054137348,20,5,8.435,21.273348449776,4.265092,6.3976484,5.032480476,-5.144962,-3.802798,0,222.9, -24.3, -7.3,0,0,1684,870,1024,1024,100,-23,0,0,231.7,0,0,96,4.188,4.187,0,0,0,0,3.231,80.78,20.617180449776,3.608924,6,P-GPS,
4900,2023-12-29 04:56:55,-34.9553157625219,-54.9406565416409,3.608924,4.8228348,15.794345649776,20.617180449776,6.56168,6.5766036,5.9513453348,11.9247707228,20,5,8.435,21.273348449776,4.265092,6.5766036,5.9513453348,-5.368656,-3.802798,0,222.6, -24.1, -7,0,0,1684,867,1059,1024,100,-24,5,0,231.7,0,0,96,4.188,4.187,0,0,0,0,3.231,80.78,20.617180449776,3.608924,6,P-GPS,
5000,2023-12-29 04:56:55,-34.9553181377378,-54.9406584784779,3.608924,4.8556432,15.761537249776,20.617180449776,6.56168,6.7555588,6.9172246308,12.9670935908,20,5,8.435,21.273348449776,4.265092,6.7555588,6.9172246308,-5.59235,-3.802798,0,222.4, -23.4, -5.7,0,0,1684,887,1196,1095,100,-21,26,11,231.7,0,0,96,4.188,4.187,0,0,0,0,3.231,80.78,20.617180449776,3.608924,6,P-GPS,
5100,2023-12-29 04:56:55,-34.9553204906357,-54.9406603660646,3.608924,4.9540684,15.663112049776,20.617180449776,6.56168,7.0687304,7.8859254492,13.9944886368,20,5,8.353,21.273348449776,4.265092,7.0687304,7.8859254492,-5.816044,-4.026492,0,222.4, -24, -4.9,0,0,1684,1024,1684,1585,100,0,100,85,231.7,0,0,96,4.187,4.18,0,0,0,0,4.585,80.96,20.617180449776,3.608924,6,P-GPS,
5200,2023-12-29 04:56:56,-34.9553231657853,-54.9406623094058,3.937008,5.3805776,15.564686849776,20.945264449776,6.56168,7.5608572,8.957349368,15.13041387,20,5,8.353,21.273348449776,4.265092,7.5608572,8.957349368,-6.263432,-4.250186,-0.223694,222.3, -23.7, -4.3,0,0,1684,1024,1684,1684,100,0,100,100,231.9,0,0,96,4.187,4.18,0,0,0,0,4.585,80.96,20.945264449776,3.937008,6,P-GPS,
5300,2023-12-29 04:56:56,-34.9553257867228,-54.9406637173171,3.937008,5.4790028,15.466261649776,20.945264449776,6.56168,7.8740288,9.9129924432,16.1752301764,20,5,8.353,21.273348449776,4.265092,7.8740288,9.9129924432,-6.487126,-4.47388,-1.11847,222.2, -22.8, -3.8,0,0,1684,1024,1684,1684,100,0,100,100,233.5,0,0,96,4.187,4.18,0,0,0,0,4.585,80.96,20.945264449776,3.937008,6,P-GPS,
5400,2023-12-29 04:56:56,-34.9553286739043,-54.9406659731852,4.265092,5.905512,15.367836449776,21.273348449776,6.889764,8.3661556,11.1321197788,17.4261160432,20,5,8.353,21.273348449776,4.265092,8.3661556,11.1321197788,-6.934514,-4.697574,-1.789552,225.3, -25, -4.8,0,0,1684,1024,1684,1684,100,0,100,100,237.7,0,0,96,4.187,4.18,0,0,0,0,4.585,80.96,21.273348449776,4.265092,6,P-GPS,
5500,2023-12-29 04:56:56,-34.9553315077682,-54.9406682107035,4.593176,6.3320212,15.269411249776,21.601432449776,7.217848,8.500372,12.3396985576,18.657644954,20,5,8.353,21.601432449776,4.593176,8.500372,12.3396985576,-6.934514,-4.921268,-2.23694,229.9, -24.9, -5.6,0,0,1684,1024,1684,1684,100,0,100,100,242.4,0,0,96,4.187,4.18,0,0,0,0,4.585,80.96,21.601432449776,4.593176,6,P-GPS,
5600,2023-12-29 04:56:56,-34.955334600185,-54.9406708041169,5.249344,7.1850396,15.072560849776,22.257600449776,7.545932,9.1267152,13.6931106744,20.026739486,20,5,8.353,22.257600449776,5.249344,9.1267152,13.6931106744,-7.381902,-5.368656,-2.908022,235.3, -25.2, -7.4,0,0,1684,1022,1684,1684,100,-0,100,100,247.2,-0.1,0,96,4.187,4.18,0,0,0,0,4.585,80.96,22.257600449776,5.249344,6,P-GPS,
5700,2023-12-29 04:56:56,-34.9553376485507,-54.9406734115551,5.905512,7.9396328,14.974135649776,22.913768449776,8.2021,9.4398868,15.0402235784,21.385007246,20,5,8.353,22.913768449776,5.905512,9.4398868,15.0402235784,-7.605596,-5.59235,-3.35541,240.5, -26.2, -7.5,0,0,1684,1020,1684,1684,100,-1,100,100,252,-4.1,0,96,4.187,4.18,0,0,0,0,4.585,80.96,22.913768449776,5.905512,6,P-GPS,
5800,2023-12-29 04:56:56,-34.9553410099734,-54.9406765043419,6.889764,9.2191604,14.678860049776,23.898020449776,8.858268,10.0214912,16.5709322888,22.9210309172,20,5,8.353,23.898020449776,6.889764,10.0214912,16.5709322888,-7.82929,-6.263432,-3.802798,245.5, -26.1, -8.9,0,0,1684,1020,1684,1684,100,-1,100,100,256.8,-4.2,0,96,4.187,4.18,0,0,0,0,4.585,80.96,23.898020449776,6.889764,6,P-GPS,
5900,2023-12-29 04:56:56,-34.9553443174181,-54.9406797251687,7.874016,10.4002628,14.482009649776,24.882272449776,9.514436,10.4912486,18.1129598972,24.4649942212,20,5,8.353,24.882272449776,7.874016,10.4912486,18.1129598972,-8.052984,-6.71082,-4.47388,250.3, -25.4, -10,0,0,1684,1014,1684,1684,100,-2,100,100,261.6,-4.2,0,96,4.187,4.18,0,0,0,0,4.585,80.96,24.882272449776,7.874016,6,P-GPS,
6000,2023-12-29 04:56:56,-34.9553478988875,-54.9406833420939,8.858268,11.5485568,14.317967649776,25.866524449776,10.170604,11.408394,19.8084980092,26.161254118,20,5,8.353,25.866524449776,8.858268,11.408394,19.8084980092,-8.500372,-7.605596,-5.368656,255.1, -24.8, -11.2,0,0,1684,988,1684,1684,100,-5,100,100,266.4,-4.2,0,96,4.187,4.18,0,0,0,0,4.585,80.96,25.866524449776,8.858268,6,P-GPS,
6100,2023-12-29 04:56:56,-34.9553513932352,-54.9406871181714,10.170604,13.1889768,13.989883649776,27.178860449776,11.154856,11.855782,21.5115492448,27.8643053536,20,5,8.168,27.178860449776,10.170604,11.855782,21.5115492448,-8.500372,-8.276678,-6.039738,260, -23.8, -12.8,0,0,1684,982,1684,1684,100,-6,100,100,271.2,-4.2,0,96,4.038,4.005,0,0,0,0,7.024,80.96,27.178860449776,10.170604,6,P-GPS,
6200,2023-12-29 04:56:57,-34.9553551642165,-54.9406916222039,11.811024,15.1902892,13.628991249776,28.819280449776,12.139108,12.191323,23.4341542932,29.7896334992,20,5,8.168,28.819280449776,11.811024,12.191323,23.4341542932,-8.500372,-8.724066,-6.487126,264.8, -22.3, -14.3,0,0,1684,973,1581,1639,100,-8,84,93,276,-4.2,0,96,4.038,4.005,0,0,0,0,7.024,80.96,28.819280449776,11.811024,6,P-GPS,
6300,2023-12-29 04:56:57,-34.9553586916118,-54.9406960021006,13.12336,16.7979008,13.333715649776,30.131616449776,13.12336,12.5044946,25.2661425408,31.6258540304,21,5,8.168,30.131616449776,13.12336,12.5044946,25.2661425408,-8.500372,-9.171454,-6.71082,269.2, -21.9, -14.8,0,0,1684,973,1581,1639,100,-8,84,93,280.8,-4.2,0,96,4.038,4.005,0,0,0,0,7.024,80.96,30.131616449776,13.12336,6,P-GPS,
6400,2023-12-29 04:56:57,-34.955362284425,-54.9407009720083,14.76378,18.86483,12.907206449776,31.772036449776,14.435696,12.6834498,27.234744966,33.607612624,21,5,8.168,31.772036449776,14.76378,12.6834498,27.234744966,-8.276678,-9.618842,-6.934514,273.5, -21, -17.6,0,0,1684,969,1024,1024,100,-8,0,0,285.3,-4.2,0,96,4.038,4.005,0,0,0,0,7.024,80.96,31.772036449776,14.76378,6,P-GPS,
6500,2023-12-29 04:56:57,-34.9553657725813,-54.9407060613587,16.076116,20.5708668,12.513505649776,33.084372449776,15.419948,12.3926476,29.2013460788,35.591208488,21,5,8.168,33.084372449776,16.076116,12.6834498,29.2013460788,-7.82929,-9.618842,-6.039738,277.2, -21.1, -16.7,0,0,1684,921,1024,1024,100,-16,0,0,287.8,-4.2,0,96,4.038,4.005,0,0,0,0,7.024,80.96,33.084372449776,16.076116,6,P-GPS,
6600,2023-12-29 04:56:57,-34.9553683809839,-54.9407112311528,17.388452,22.3425204,12.054188049776,34.396708449776,16.4042,12.4373864,30.9537083396,37.406825344,21,5,8.168,34.396708449776,17.388452,12.6834498,30.9537083396,-7.605596,-9.842536,-5.59235,278.6, -20.5, -16.2,0,0,1684,865,1024,750,100,-24,0,-42,288.9,-4.2,0,96,4.038,4.005,0,0,0,0,7.024,80.96,34.396708449776,17.388452,6,P-GPS,
6700,2023-12-29 04:56:57,-34.955371260975,-54.9407161297525,18.372704,23.7532816,11.627678849776,35.380960449776,17.060368,12.1689536,32.727035168,39.20931884,21,5,8.168,35.380960449776,18.372704,12.6834498,32.727035168,-7.158208,-9.842536,-4.921268,279.8, -20.4, -14.6,0,0,1684,825,995,364,100,-30,-4,-100,289,-4.2,0,96,4.038,4.005,0,0,0,0,7.024,80.96,35.380960449776,18.372704,6,P-GPS,
6800,2023-12-29 04:56:57,-34.9553742008082,-54.940721492879,19.356956,25.1640428,11.201169649776,36.365212449776,18.04462,12.1689536,34.616799008,41.138780844,21,5,8.168,36.365212449776,19.356956,12.6834498,34.616799008,-6.71082,-10.06623,-4.250186,279.9, -20.9, -13.9,0,0,1684,819,982,364,100,-31,-6,-100,287.3,-4.2,0,96,4.038,4.005,0,0,0,0,7.024,80.96,36.365212449776,19.356956,6,P-GPS,
6900,2023-12-29 04:56:57,-34.9553769855451,-54.9407269209271,20.013124,26.3451452,10.676235249776,37.021380449776,18.700788,12.1689536,36.485237388,43.053807152,22,5,8.168,37.021380449776,20.013124,12.6834498,36.485237388,-6.487126,-10.289924,-3.802798,277.1, -21.2, -12.5,0,0,1684,791,1024,364,100,-35,0,-100,283.1,-4.2,0,96,4.038,4.005,0,0,0,0,7.024,80.96,37.021380449776,20.013124,6,P-GPS,
7000,2023-12-29 04:56:57,-34.9553789301678,-54.9407320984144,20.341208,27.1325468,10.216917649776,37.349464449776,19.028872,11.9228902,38.09219282,44.756891196,22,5,8.168,37.349464449776,20.341208,12.6834498,38.09219282,-6.039738,-10.289924,-3.131716,273.1, -22, -10.9,0,0,1684,784,1024,538,100,-36,0,-74,278.3,-4.2,0,96,4.038,4.005,0,0,0,0,7.024,80.96,37.349464449776,20.341208,6,P-GPS,
7100,2023-12-29 04:56:57,-34.9553812648419,-54.9407374702794,20.341208,27.6246728,9.724791649776,37.349464449776,19.356956,11.9005208,39.846457968,46.575132724,22,5,8.168,37.349464449776,20.341208,12.6834498,39.846457968,-5.59235,-10.513618,-2.460634,268.3, -21.7, -9.8,0,0,1684,784,1024,538,100,-36,0,-74,273.5,-4.2,0,96,4.038,4.005,0,0,0,0,7.024,80.96,37.349464449776,20.341208,6,P-GPS,
7200,2023-12-29 04:56:57,-34.9553832820672,-54.9407426615851,20.341208,28.1824156,9.167048849776,37.349464449776,19.68504,11.8110432,41.488518388,48.292980548,22,5,8.224,37.349464449776,20.341208,12.6834498,41.488518388,-5.368656,-10.513618,-1.565858,263.7, -22.7, -9.2,0,0,1684,797,1024,1024,100,-34,0,0,269.8,-4.2,0,96,4.132,4.131,0,0,0,0,9.755,80.96,37.349464449776,20.341208,6,P-GPS,
7300,2023-12-29 04:56:58,-34.9553852962961,-54.9407481219841,20.341208,28.6745416,8.674922849776,37.349464449776,20.013124,11.8110432,43.196195608,50.08366302,22,5,8.224,37.349464449776,20.341208,12.6834498,43.196195608,-4.921268,-10.737312,-0.894776,261.1, -22, -9.6,0,0,1684,844,1024,1024,100,-27,0,0,268.3,-4.2,0,96,4.132,4.131,0,0,0,0,9.755,80.96,37.349464449776,20.341208,6,P-GPS,
7400,2023-12-29 04:56:58,-34.9553865385448,-54.9407534889991,20.013124,28.8057752,8.215605249776,37.021380449776,20.013124,11.8110432,44.706038176,51.751313992,22,5,8.224,37.349464449776,20.341208,12.6834498,44.706038176,-4.921268,-10.737312,-0.671082,259.3, -20.5, -8.3,0,0,1684,844,1024,1024,100,-27,0,0,267.7,-4.2,0,96,4.132,4.131,0,0,0,0,9.755,80.96,37.021380449776,20.013124,6,P-GPS,
7500,2023-12-29 04:56:58,-34.9553883699385,-54.9407590689349,19.68504,29.0682424,7.625054049776,36.693296449776,20.013124,11.7215656,46.412731144,53.548558144,22,5,8.224,37.349464449776,20.341208,12.6834498,46.412731144,-4.697574,-10.737312,-0.223694,259, -22.2, -9.2,0,0,1684,899,1024,1024,100,-19,0,0,267.7,-4.2,0,96,4.132,4.131,0,0,0,0,9.755,80.96,36.693296449776,19.68504,6,P-GPS,
7600,2023-12-29 04:56:58,-34.955390065748,-54.9407643051138,19.356956,29.2322844,7.132928049776,36.365212449776,20.013124,11.9228902,48.0150934,55.232285232,22,5,8.224,37.349464449776,20.341208,12.6834498,48.0150934,-4.697574,-10.961006,0,259.2, -23.5, -9.9,0,0,1684,930,1024,1024,100,-14,0,0,267.7,-4.2,0,96,4.132,4.131,0,0,0,0,9.755,80.96,36.365212449776,19.356956,6,P-GPS,
7700,2023-12-29 04:56:58,-34.9553918049978,-54.9407698787048,19.028872,29.4947516,6.542376849776,36.037128449776,20.013124,12.0571066,49.711615764,57.015749856,22,5,8.224,37.349464449776,20.341208,12.6834498,49.711615764,-4.47388,-11.1847,0.223694,259, -21.9, -9.2,0,0,1684,1024,1024,1024,100,0,0,0,267.7,-4.2,0,96,4.132,4.131,0,0,0,0,9.755,80.96,36.037128449776,19.028872,6,P-GPS,
7800,2023-12-29 04:56:58,-34.9553934008925,-54.9407750976578,19.028872,29.9868776,6.050250849776,36.037128449776,20.013124,12.1689536,51.298229988,58.681432324,22,5,8.224,37.349464449776,20.341208,12.6834498,51.298229988,-4.250186,-11.408394,0,259.1, -22.9, -8.2,0,0,1327,1024,1024,1024,46,0,0,0,267.7,-4.2,0,96,4.132,4.131,0,0,0,0,9.755,80.96,36.037128449776,19.028872,6,P-GPS,
7900,2023-12-29 04:56:58,-34.9553947356303,-54.9407802691975,18.700788,30.1509196,5.558124849776,35.709044449776,20.013124,12.1018454,52.820867832,60.302495368,21,5,8.224,37.349464449776,20.341208,12.6834498,52.820867832,-4.026492,-11.408394,0.223694,258.8, -23.1, -8.3,0,0,1024,1024,1024,1024,0,0,0,0,267.7,-4.2,0,96,4.132,4.131,0,0,0,0,9.755,80.96,35.709044449776,18.700788,6,P-GPS,
8000,2023-12-29 04:56:58,-34.9553963487148,-54.9407857470943,18.372704,30.4461952,4.934765249776,35.380960449776,20.341208,12.30317,54.48326946,62.043309072,21,5,8.224,37.349464449776,20.341208,12.6834498,54.48326946,-4.026492,-11.632088,0,258.2, -21.7, -9.6,0,0,1024,1024,1024,1024,0,0,0,0,267.7,-4.2,0,96,4.132,4.131,0,0,0,0,9.755,80.96,35.380960449776,18.372704,6,P-GPS,
8100,2023-12-29 04:56:58,-34.9553980405769,-54.9407915584312,18.04462,30.7086624,4.344214049776,35.052876449776,20.341208,12.30317,56.247705212,63.887469236,21,5,8.224,37.349464449776,20.341208,12.6834498,56.247705212,-4.026492,-11.632088,-0.223694,255.7, -3.7, -15.6,0,0,1024,1024,1024,1024,0,0,0,0,267.7,-4.2,0,96,4.132,4.131,0,0,0,0,9.755,80.96,35.052876449776,18.04462,6,P-GPS,
8200,2023-12-29 04:56:58,-34.9553997546641,-54.9407969891029,18.04462,31.2007884,3.852088049776,35.052876449776,20.669292,11.4755022,57.929463796,65.627626772,21,5,8.395,37.349464449776,20.341208,12.6834498,57.929463796,-4.026492,-10.737312,-1.11847,254.1, 16.6, -6.2,0,0,1024,1024,1024,1024,0,0,0,0,267.7,-4.2,0,96,4.117,4.112,0,0,0,0,4.517,80.96,35.052876449776,18.04462,6,P-GPS,
8300,2023-12-29 04:56:59,-34.9554018815357,-54.9408023355261,18.04462,31.7257228,3.327153649776,35.052876449776,20.997376,10.3346628,59.681104272,67.404529716,21,5,8.395,37.349464449776,20.341208,12.6834498,59.681104272,-3.802798,-9.618842,-1.342164,256.5, 19.4, -3,0,0,1024,1024,1024,1024,0,0,0,0,267.7,-4.2,0,96,4.117,4.112,0,0,0,0,4.517,80.96,35.052876449776,18.04462,6,P-GPS,
8400,2023-12-29 04:56:59,-34.9554033291573,-54.9408067815463,17.716536,31.9225732,2.802219249776,34.724792449776,20.997376,9.1490846,61.071524264,68.83530404,21,5,8.395,37.349464449776,20.341208,12.6834498,61.071524264,-3.35541,-8.500372,-1.11847,257, 21.2, 1.1,0,0,1024,1024,1024,1024,0,0,0,0,267.7,-4.2,0,96,4.117,4.112,0,0,0,0,4.517,80.96,34.724792449776,17.716536,6,P-GPS,
8500,2023-12-29 04:56:59,-34.9554046466336,-54.9408109908972,17.716536,32.316274,2.408518449776,34.724792449776,21.32546,8.3437862,62.37861092,70.182416944,21,5,8.395,37.349464449776,20.341208,12.6834498,62.37861092,-2.908022,-7.82929,-0.894776,256.6, 19.1, 0.2,0,0,1024,1024,1024,1024,0,0,0,0,267.7,-4.2,0,96,4.117,4.112,0,0,0,0,4.517,80.96,34.724792449776,17.716536,6,P-GPS,
8600,2023-12-29 04:56:59,-34.9554056844279,-54.9408146844509,17.388452,32.4146992,1.982009249776,34.396708449776,21.32546,7.5608572,63.50229862,71.3500679,21,5,8.395,37.349464449776,20.341208,12.6834498,63.50229862,-2.460634,-7.158208,-0.223694,256.3, 19.8, 0.8,0,0,1024,1024,1024,1024,0,0,0,0,267.7,-4.2,0,96,4.117,4.112,0,0,0,0,4.517,80.96,34.396708449776,17.388452,6,P-GPS,
8700,2023-12-29 04:56:59,-34.9554065891849,-54.940818506447,17.388452,32.8084,1.588308449776,34.396708449776,21.32546,6.8002976,64.631891832,72.539700484,21,5,8.395,37.349464449776,20.341208,12.6834498,64.631891832,-2.013246,-6.487126,0,256.1, 19.6, 0.5,0,0,1024,1024,1024,1024,0,0,0,0,267.7,-4.2,0,96,4.117,4.112,0,0,0,0,4.517,80.96,34.396708449776,17.388452,6,P-GPS,
8800,2023-12-29 04:56:59,-34.9554073324328,-54.9408213102908,17.060368,32.7099748,1.358649649776,34.068624449776,21.32546,5.816044,65.478348552,73.420934108,21,5,8.395,37.349464449776,20.341208,12.6834498,65.478348552,-1.565858,-5.59235,0,256, 20.7, 0.8,0,0,1024,1024,1024,1024,0,0,0,0,267.7,-4.2,0,96,4.117,4.112,0,0,0,0,4.517,80.96,34.068624449776,17.060368,6,P-GPS,
8900,2023-12-29 04:56:59,-34.9554079516389,-54.9408238120317,17.060368,33.0052504,1.063374049776,34.068624449776,21.32546,4.8317904,66.22539582,74.202430196,21,5,8.395,37.349464449776,20.341208,12.6834498,66.22539582,-1.11847,-4.697574,0,255.9, 20.4, -0.3,0,0,1024,1024,1024,1024,0,0,0,0,267.7,-4.2,0,96,4.117,4.112,0,0,0,0,4.517,80.96,34.068624449776,17.060368,6,P-GPS,
9000,2023-12-29 04:56:59,-34.9554082914495,-54.9408256519725,16.732284,32.9068252,0.833715249776,33.740540449776,21.32546,3.914645,66.75197064,74.766406592,21,5,8.395,37.349464449776,20.341208,12.6834498,66.75197064,-0.894776,-3.802798,0,255.6, 20, -0.8,0,0,1024,1024,1024,1024,0,0,0,0,267.7,-4.2,0,96,4.117,4.112,0,0,0,0,4.517,80.96,33.740540449776,16.732284,6,P-GPS,
9100,2023-12-29 04:56:59,-34.9554083766888,-54.9408267060611,16.4042,32.6771664,0.735290049776,33.412456449776,21.32546,2.9751302,67.031826292,75.083007652,21,5,8.395,37.349464449776,20.341208,12.6834498,67.031826292,-0.671082,-2.908022,-0.223694,255.5, 19.5, -3.5,0,0,1024,1024,1024,1024,0,0,0,0,267.7,-4.2,0,96,4.117,4.112,0,0,0,0,4.517,80.96,33.412456449776,16.4042,6,P-GPS,
9200,2023-12-29 04:56:59,-34.9554083996564,-54.9408277011966,16.4042,32.7755916,0.636864849776,33.412456449776,21.32546,2.0579848,67.284779056,75.380907924,21,5,8.395,37.349464449776,20.341208,12.6834498,67.284779056,-0.447388,-2.013246,-0.447388,255.3, 17.6, -6.5,0,0,1024,1024,1024,1024,0,0,0,0,267.7,-4.2,0,96,4.117,4.112,0,0,0,0,4.517,80.96,33.412456449776,16.4042,6,P-GPS,
9300,2023-12-29 04:57:00,-34.9554083627102,-54.9408283445581,16.076116,32.4475076,0.636864849776,33.084372449776,21.653544,1.3645334,67.438322368,75.573821316,21,5,8.395,37.349464449776,20.341208,12.6834498,67.438322368,-0.223694,-1.342164,-0.223694,255.9, 13, -5.4,0,0,1024,1024,1024,1024,0,0,0,0,267.7,-4.2,0,96,4.117,4.112,0,0,0,0,4.517,80.96,33.084372449776,16.076116,6,P-GPS,
9400,2023-12-29 04:57:00,-34.9554082787867,-54.9408287401915,16.076116,32.5459328,0.538439649776,33.084372449776,21.653544,0.7158208,67.520671452,75.695868564,21,5,8.432,37.349464449776,20.341208,12.6834498,67.520671452,-0.223694,-0.671082,0,256.1, 7.8, -5.6,0,0,1024,1024,1024,1024,0,0,0,0,267.7,-4.2,0,96,4.211,4.201,0,0,0,0,3.434,80.96,33.084372449776,16.076116,6,P-GPS,
9500,2023-12-29 04:57:00,-34.9554081603077,-54.9408288680067,16.076116,32.5459328,0.538439649776,33.084372449776,21.653544,0.223694,67.528873552,75.753611348,20,5,8.432,37.349464449776,20.341208,12.6834498,67.528873552,0,-0.223694,0,256.1, 4.3, -6.2,0,0,1024,1024,1024,1024,0,0,0,0,267.7,-4.2,0,96,4.211,4.201,0,0,0,0,3.434,80.96,33.084372449776,16.076116,6,P-GPS,
9600,2023-12-29 04:57:00,-34.9554074360539,-54.9408284490848,16.076116,32.4475076,0.636864849776,33.084372449776,21.653544,0,67.279857796,76.045934192,20,5,8.432,37.349464449776,20.341208,12.6834498,67.528873552,0,0,0,256.2, 0.9, -5.2,0,0,1024,1024,1024,1024,0,0,0,0,267.7,-4.2,0,96,4.211,4.201,0,0,0,0,3.434,80.96,33.084372449776,16.076116,6,P-GPS,
9700,2023-12-29 04:57:00,-34.9554072406993,-54.9408280713046,16.076116,32.4475076,0.636864849776,33.084372449776,21.653544,0.223694,67.146327608,76.17946438,20,5,8.432,37.349464449776,20.341208,12.6834498,67.528873552,0,0.223694,0,256.5, -2.4, -4.7,0,0,1024,1024,1024,1024,0,0,0,0,267.7,-4.2,0,96,4.211,4.201,0,0,0,0,3.434,80.96,33.084372449776,16.076116,6,P-GPS,
9800,2023-12-29 04:57:00,-34.9554070567503,-54.9408275296684,16.4042,32.7755916,0.636864849776,33.412456449776,21.653544,0.447388,66.973755424,76.35498932,20,5,8.432,37.349464449776,20.341208,12.6834498,67.528873552,0,0.447388,-0.223694,256.9, -5.2, -4,0,0,1024,1024,1024,1024,0,0,0,0,267.7,-4.2,0,96,4.211,4.201,0,0,0,0,3.434,80.96,33.412456449776,16.4042,6,P-GPS,
9900,2023-12-29 04:57:00,-34.9554068456844,-54.9408269135674,16.4042,32.6771664,0.735290049776,33.412456449776,22.637796,0.4921268,66.777561192,76.554464392,20,5,8.432,37.349464449776,20.341208,12.6834498,67.528873552,0.223694,0.447388,-0.671082,257, -7.5, -4.5,0,0,1024,1024,1024,1024,0,0,0,0,267.7,-4.2,0,96,4.211,4.201,0,0,0,0,3.434,80.96,33.412456449776,16.4042,6,P-GPS,
10000,2023-12-29 04:57:00,-34.9554067531953,-54.9408265695911,16.732284,33.0052504,0.735290049776,33.740540449776,22.637796,0.7158208,66.672902396,76.662732112,20,5,8.432,37.349464449776,20.341208,12.6834498,67.528873552,0.223694,0.671082,-0.447388,257, -8.5, -4.9,0,0,1024,1024,1024,1024,0,0,0,0,267.7,-4.2,0,96,4.211,4.201,0,0,0,0,3.434,80.96,33.740540449776,16.732284,6,P-GPS,
10100,2023-12-29 04:57:00,-34.9554065623481,-54.9408261131232,17.060368,33.2349092,0.833715249776,34.068624449776,22.96588,0.4921268,66.520343336,76.81594734,21,5,8.432,37.349464449776,20.341208,12.6834498,67.528873552,0.223694,0.447388,-0.447388,256.9, -8.3, -6.5,0,0,1024,1024,1024,1024,0,0,0,0,267.7,-4.2,0,96,4.211,4.201,0,0,0,0,3.434,80.96,34.068624449776,17.060368,6,P-GPS,
10200,2023-12-29 04:57:00,-34.9554065711613,-54.940825890147,17.388452,33.5629932,0.833715249776,34.396708449776,23.293964,0.4921268,66.466209476,76.882876476,21,5,8.432,37.349464449776,20.341208,12.6834498,67.528873552,0.223694,0.447388,-0.671082,256.8, -7.1, -5.3,0,0,1024,1024,1024,1024,0,0,0,0,267.7,-4.2,0,96,4.211,4.201,0,0,0,0,3.434,80.96,34.396708449776,17.388452,6,P-GPS,
10300,2023-12-29 04:57:01,-34.9554065772647,-54.9408256598329,17.388452,33.5629932,0.833715249776,34.396708449776,23.293964,0.4921268,66.409779028,76.951774116,21,5,8.432,37.349464449776,20.341208,12.6834498,67.528873552,0.223694,0.447388,-0.671082,256.7, -7.4, -6.5,0,0,1024,1024,1024,1024,0,0,0,0,267.7,-4.2,0,96,4.211,4.201,0,0,0,0,3.434,80.96,34.396708449776,17.388452,6,P-GPS,
10400,2023-12-29 04:57:01,-34.9554069402579,-54.9408261040503,17.716536,33.8910772,0.833715249776,34.724792449776,23.293964,0.4921268,66.593506068,77.139438164,21,5,8.356,37.349464449776,20.341208,12.6834498,67.528873552,0.223694,0.447388,-0.671082,256.6, -7.2, -6.6,0,0,1024,1024,1024,1024,0,0,0,0,267.7,-4.2,0,95,4.18,4.175,0,0,0,0,3.504,81.14,34.724792449776,17.716536,6,P-GPS,
10500,2023-12-29 04:57:01,-34.9554068635777,-54.9408258543988,18.04462,34.2191612,0.833715249776,35.052876449776,23.293964,0.4921268,66.51575016,77.219162576,21,5,8.356,37.349464449776,20.341208,12.6834498,67.528873552,0.223694,0.447388,-0.447388,256.7, -6.5, -6.1,0,0,1024,1024,1024,1024,0,0,0,0,267.7,-4.2,0,95,4.18,4.175,0,0,0,0,3.504,81.14,35.052876449776,18.04462,6,P-GPS,
10600,2023-12-29 04:57:01,-34.9554066984014,-54.9408255961971,18.04462,34.2191612,0.833715249776,35.052876449776,23.293964,0.4921268,66.417981128,77.316931608,21,5,8.356,37.349464449776,20.341208,12.6834498,67.528873552,0.223694,0.447388,-0.671082,256.7, -6, -5.8,0,0,1024,1024,1024,1024,0,0,0,0,267.7,-4.2,0,95,4.18,4.175,0,0,0,0,3.504,81.14,35.052876449776,18.04462,6,P-GPS,
10700,2023-12-29 04:57:01,-34.9554065371463,-54.9408253135989,18.04462,34.0879276,0.964948849776,35.052876449776,23.293964,0.4921268,66.315290836,77.419949984,20,5,8.356,37.349464449776,20.341208,12.6834498,67.528873552,0.223694,0.447388,-0.447388,256.8, -6.8, -6,0,0,1024,1024,1024,1024,0,0,0,0,267.7,-4.2,0,95,4.18,4.175,0,0,0,0,3.504,81.14,35.052876449776,18.04462,6,P-GPS,
10800,2023-12-29 04:57:01,-34.955406275755,-54.9408255316205,18.04462,34.2191612,0.833715249776,35.052876449776,23.622048,0.7158208,66.317587424,77.535435552,20,5,8.356,37.349464449776,20.341208,12.6834498,67.528873552,0.223694,0.671082,-0.447388,256.8, -7, -6.1,0,0,1024,1024,1024,1024,0,0,0,0,267.7,-4.2,0,95,4.18,4.175,0,0,0,0,3.504,81.14,35.052876449776,18.04462,6,P-GPS,
10900,2023-12-29 04:57:01,-34.9554061600899,-54.9408253530472,18.04462,34.0879276,0.964948849776,35.052876449776,23.622048,0.7158208,66.25000212,77.603677024,20,5,8.356,37.349464449776,20.341208,12.6834498,67.528873552,0.223694,0.671082,-0.223694,257, -8.7, -6.4,0,0,1024,1024,1024,1024,0,0,0,0,267.7,-4.2,0,95,4.18,4.175,0,0,0,0,3.504,81.14,35.052876449776,18.04462,6,P-GPS,
11000,2023-12-29 04:57:01,-34.955405893709,-54.940825010158,18.04462,34.0879276,0.964948849776,35.052876449776,23.622048,0.7158208,66.110894504,77.744753144,20,5,8.356,37.349464449776,20.341208,12.6834498,67.528873552,0.223694,0.671082,0,256.7, -7.8, -5.9,0,0,1024,1024,1024,1024,0,0,0,0,267.7,-4.2,0,95,4.18,4.175,0,0,0,0,3.504,81.14,35.052876449776,18.04462,6,P-GPS,
11100,2023-12-29 04:57:01,-34.955405623244,-54.940824669422,18.04462,34.0879276,0.964948849776,35.052876449776,23.622048,0.7158208,65.971786888,77.886813516,20,5,8.356,37.349464449776,20.341208,12.6834498,67.528873552,0.223694,0.671082,0,256.7, -8.4, -6.9,0,0,1024,1024,1024,1024,0,0,0,0,267.7,-4.2,0,95,4.18,4.175,0,0,0,0,3.504,81.14,35.052876449776,18.04462,6,P-GPS,
11200,2023-12-29 04:57:02,-34.9554054334326,-54.9408243054811,18.04462,33.9895024,1.063374049776,35.052876449776,23.622048,0.7158208,65.842849876,78.015750528,20,5,8.356,37.349464449776,20.341208,12.6834498,67.528873552,0.223694,0.671082,0,256.7, -6.8, -4.9,0,0,1024,1024,1024,1024,0,0,0,0,267.7,-4.2,0,95,4.18,4.175,0,0,0,0,3.504,81.14,35.052876449776,18.04462,6,P-GPS,
11300,2023-12-29 04:57:02,-34.9554049153855,-54.9408237489812,18.04462,33.9895024,1.063374049776,35.052876449776,23.622048,0.7158208,65.600067716,78.267390956,20,5,8.356,37.349464449776,20.341208,12.6834498,67.528873552,0.223694,0.671082,0,256.7, -8.1, -6.3,0,0,1024,1024,1024,1024,0,0,0,0,267.7,-4.2,0,95,4.18,4.175,0,0,0,0,3.504,81.14,35.052876449776,18.04462,6,P-GPS,
11400,2023-12-29 04:57:02,-34.9554046866542,-54.9408233700303,18.04462,33.8910772,1.161799249776,35.052876449776,23.622048,0.7158208,65.459647764,78.408138992,20,5,8.368,37.349464449776,20.341208,12.6834498,67.528873552,0.223694,0.671082,-0.223694,257.2, -9.3, -5.1,0,0,1024,1024,1024,1024,0,0,0,0,267.7,-4.2,0,95,4.177,4.167,0,0,0,0,4.077,81.14,35.052876449776,18.04462,6,P-GPS,
11500,2023-12-29 04:57:02,-34.9554044247288,-54.9408230202005,18.04462,33.8910772,1.161799249776,35.052876449776,23.622048,0.8052984,65.31988398,78.54987128,20,5,8.368,37.349464449776,20.341208,12.6834498,67.528873552,0.447388,0.671082,-0.223694,257.3, -9.2, -6.6,0,0,1024,1024,1024,1024,0,0,0,0,267.7,-4.2,0,95,4.177,4.167,0,0,0,0,4.077,81.14,35.052876449776,18.04462,6,P-GPS,
11600,2023-12-29 04:57:02,-34.9554041565566,-54.940822651096,18.372704,34.2191612,1.161799249776,35.380960449776,23.622048,0.8052984,65.174214684,78.69750908,20,5,8.368,37.349464449776,20.341208,12.6834498,67.528873552,0.447388,0.671082,-0.223694,257.2, -9.9, -7.5,0,0,1024,1024,1024,1024,0,0,0,0,267.7,-4.2,0,95,4.177,4.167,0,0,0,0,4.077,81.14,35.380960449776,18.372704,6,P-GPS,
11700,2023-12-29 04:57:02,-34.9554037253968,-54.9408222541247,18.372704,34.120736,1.260224449776,35.380960449776,23.622048,0.8052984,64.988847224,78.89435948,20,5,8.368,37.349464449776,20.341208,12.6834498,67.528873552,0.447388,0.671082,0,256.8, -8.5, -8.1,0,0,1024,1024,1024,1024,0,0,0,0,267.7,-4.2,0,95,4.177,4.167,0,0,0,0,4.077,81.14,35.380960449776,18.372704,6,P-GPS,
11800,2023-12-29 04:57:02,-34.9554035029969,-54.940821970962,18.372704,34.120736,1.260224449776,35.380960449776,23.622048,0.8052984,64.87368974,79.011813552,20,5,8.368,37.349464449776,20.341208,12.6834498,67.528873552,0.447388,0.671082,-0.223694,256.5, -8, -7.9,0,0,1026,1024,1024,1024,0,0,0,0,267.7,-4.2,0,95,4.177,4.167,0,0,0,0,4.077,81.14,35.380960449776,18.372704,6,P-GPS,
11900,2023-12-29 04:57:02,-34.955403311518,-54.940821671514,18.372704,34.120736,1.260224449776,35.380960449776,23.622048,0.7158208,64.760828844,79.125330616,20,5,8.368,37.349464449776,20.341208,12.6834498,67.528873552,0.223694,0.671082,-0.447388,256.6, -8.9, -8.5,0,0,1024,1024,1024,1024,0,0,0,0,267.7,-4.2,0,95,4.177,4.167,0,0,0,0,4.077,81.14,35.380960449776,18.372704,6,P-GPS,
12000,2023-12-29 04:57:02,-34.9554031272367,-54.9408212536583,18.372704,34.0223108,1.358649649776,35.380960449776,23.622048,0.7158208,64.619096556,79.267062904,20,5,8.368,37.349464449776,20.341208,12.6834498,67.528873552,0.223694,0.671082,-0.223694,257, -10.1, -7.2,0,0,1024,1024,1024,1024,0,0,0,0,267.7,-4.2,0,95,4.177,4.167,0,0,0,0,4.077,81.14,35.380960449776,18.372704,6,P-GPS,
12100,2023-12-29 04:57:02,-34.9554029113311,-54.9408208233639,18.372704,34.0223108,1.358649649776,35.380960449776,23.622048,0.7158208,64.468506,79.417981544,20,5,8.368,37.349464449776,20.341208,12.6834498,67.528873552,0.223694,0.671082,-0.223694,257.1, -10, -6,0,0,1024,1024,1024,1024,0,0,0,0,267.7,-4.2,0,95,4.177,4.167,0,0,0,0,4.077,81.14,35.380960449776,18.372704,6,P-GPS,
12200,2023-12-29 04:57:03,-34.9554027447152,-54.9408203921078,18.372704,33.9238856,1.457074849776,35.380960449776,23.622048,0.7158208,64.327101796,79.560698084,20,5,8.368,37.349464449776,20.341208,12.6834498,67.528873552,0.223694,0.671082,-0.223694,256.8, -9.5, -6.8,0,0,1024,1024,1024,1024,0,0,0,0,267.7,-4.2,0,95,4.177,4.167,0,0,0,0,4.077,81.14,35.380960449776,18.372704,6,P-GPS,
12300,2023-12-29 04:57:03,-34.9554025740348,-54.940819954622,18.372704,33.9238856,1.457074849776,35.380960449776,23.622048,0.7158208,64.183401004,79.705383128,20,5,8.368,37.349464449776,20.341208,12.6834498,67.528873552,0.223694,0.671082,0,256.7, -9.5, -7.6,0,0,1283,1024,1024,1024,39,0,0,0,267.7,-4.2,0,95,4.177,4.167,0,0,0,0,4.077,81.14,35.380960449776,18.372704,6,P-GPS,
12400,2023-12-29 04:57:03,-34.9554023918379,-54.94081956664,18.372704,33.9238856,1.457074849776,35.380960449776,23.622048,0.7158208,64.049870816,79.8392414,20,5,8.368,37.349464449776,20.341208,12.6834498,67.528873552,0.223694,0.671082,0,256.7, -10.8, -5.2,0,0,1283,1024,1024,1024,39,0,0,0,267.7,-4.2,0,95,4.177,4.167,0,0,0,0,4.077,81.14,35.380960449776,18.372704,6,P-GPS,
12500,2023-12-29 04:57:03,-34.9554021557331,-54.9408190763682,18.372704,33.8254604,1.555500049776,35.380960449776,23.622048,0.7158208,63.879923304,80.009188912,20,5,8.31,37.349464449776,20.341208,12.6834498,67.528873552,0.223694,0.671082,-0.223694,256.8, -11.9, -6.5,0,0,1684,1024,1024,1024,100,0,0,0,267.7,-4.2,0,95,4.179,4.166,0,0,0,0,4.349,81.14,35.380960449776,18.372704,6,P-GPS,
12600,2023-12-29 04:57:03,-34.9554020145926,-54.9408188045989,18.04462,33.4973764,1.555500049776,35.052876449776,23.622048,0.447388,63.783794692,80.105645608,20,5,8.31,37.349464449776,20.341208,12.6834498,67.528873552,0,0.447388,-0.223694,257.9, -23.4, -6,0,0,1684,1024,1024,1024,100,0,0,0,267.7,-4.2,0,95,4.179,4.166,0,0,0,0,4.349,81.14,35.052876449776,18.04462,6,P-GPS,
12700,2023-12-29 04:57:03,-34.9554019158242,-54.9408186913965,18.04462,33.4973764,1.555500049776,35.052876449776,23.622048,0,63.735894428,80.154858208,20,5,8.31,37.349464449776,20.341208,12.6834498,67.528873552,0,0,0,257.5, -24.9, -5.8,0,0,1684,1024,1024,1024,100,0,0,0,267.7,-4.2,0,95,4.179,4.166,0,0,0,0,4.349,81.14,35.052876449776,18.04462,6,P-GPS,
12800,2023-12-29 04:57:03,-34.9554019340563,-54.9408188541236,17.716536,33.1692924,1.555500049776,34.724792449776,23.622048,0.447388,63.780185768,80.204070808,20,5,8.31,37.349464449776,20.341208,12.6834498,67.528873552,0,-0.447388,0,257, -24.5, -3.7,0,0,1684,1024,1024,1024,100,0,0,0,267.7,-4.2,0,95,4.179,4.166,0,0,0,0,4.349,81.14,34.724792449776,17.716536,6,P-GPS,
12900,2023-12-29 04:57:03,-34.9554020077987,-54.9408192947243,17.716536,33.1692924,1.555500049776,34.724792449776,23.622048,1.11847,63.905513856,80.338585248,21,5,8.31,37.349464449776,20.341208,12.6834498,67.528873552,0,-1.11847,0,257, -24.8, -4.3,0,0,1684,1024,1024,1024,100,0,0,0,267.7,-4.2,0,95,4.179,4.166,0,0,0,0,4.349,81.14,34.724792449776,17.716536,6,P-GPS,
13000,2023-12-29 04:57:03,-34.9554023167276,-54.9408200833988,17.716536,33.2677176,1.457074849776,34.724792449776,23.622048,1.5882274,64.1650283,80.600068196,21,5,8.31,37.349464449776,20.341208,12.6834498,67.528873552,-0.223694,-1.565858,0,257.4, -24.6, -4.2,0,0,1684,1024,1024,1024,100,0,0,0,267.7,-4.2,0,95,4.179,4.166,0,0,0,0,4.349,81.14,34.724792449776,17.716536,6,P-GPS,
13100,2023-12-29 04:57:03,-34.9554025070406,-54.9408210145431,17.388452,33.0380588,1.358649649776,34.396708449776,23.622048,1.5882274,64.436681852,80.886813612,21,5,8.31,37.349464449776,20.341208,12.6834498,67.528873552,-0.223694,-2.23694,0,257.3, -24.9, -4.8,0,0,1684,1024,1024,1024,100,0,0,0,267.7,-4.2,0,95,4.179,4.166,0,0,0,0,4.349,81.14,34.396708449776,17.388452,6,P-GPS,
13200,2023-12-29 04:57:03,-34.9554027256103,-54.9408223442685,17.388452,33.136484,1.260224449776,34.396708449776,23.622048,2.908022,64.814306536,81.292325436,21,5,8.31,37.349464449776,20.341208,12.6834498,67.528873552,-0.223694,-2.908022,0,257.4, -25.2, -5.4,0,0,1684,1024,1024,1024,100,0,0,0,267.7,-4.2,0,95,4.179,4.166,0,0,0,0,4.349,81.14,34.396708449776,17.388452,6,P-GPS,
13300,2023-12-29 04:57:04,-34.9554029491371,-54.9408238568945,17.388452,33.3333344,1.063374049776,34.396708449776,23.622048,3.35541,65.2395034,81.75197112,21,5,8.31,37.349464449776,20.341208,12.6834498,67.528873552,-0.223694,-3.35541,0,257.3, -24.8, -5.7,0,0,1684,1024,1024,1024,100,0,0,0,267.7,-4.2,0,95,4.179,4.166,0,0,0,0,4.349,81.14,34.396708449776,17.388452,6,P-GPS,
13400,2023-12-29 04:57:04,-34.9554032132121,-54.9408262252385,17.716536,33.8910772,0.833715249776,34.724792449776,23.622048,3.802798,65.889765888,82.466866156,21,5,8.31,37.349464449776,20.341208,12.6834498,67.528873552,-0.223694,-3.802798,-0.223694,257.5, -24.5, -6.2,0,0,1684,1024,1024,1024,100,0,0,0,267.7,-4.2,0,95,4.179,4.166,0,0,0,0,4.349,81.14,34.724792449776,17.716536,6,P-GPS,
13500,2023-12-29 04:57:04,-34.9554034210276,-54.9408284354545,17.716536,34.0879276,0.636864849776,34.724792449776,23.622048,4.47388,66.490159608,83.131892424,21,5,8.271,37.349464449776,20.341208,12.6834498,67.528873552,-0.223694,-4.47388,-0.447388,257.4, -23.9, -5.5,0,0,1684,1024,1024,1024,100,0,0,0,267.7,-4.2,0,95,4.134,4.112,0,0,0,0,4.704,81.32,34.724792449776,17.716536,6,P-GPS,
13600,2023-12-29 04:57:04,-34.9554034787201,-54.940831025834,18.04462,34.7440956,0.308780849776,35.052876449776,23.622048,4.921268,67.159779052,83.906826832,21,5,8.271,37.349464449776,20.341208,12.6834498,67.528873552,-0.223694,-4.921268,-0.894776,257.6, -23.5, -6.5,0,0,1684,1024,1024,1024,100,0,0,0,267.7,-4.2,0,95,4.134,4.112,0,0,0,0,4.704,81.32,35.052876449776,18.04462,6,P-GPS,
13700,2023-12-29 04:57:04,-34.9554035156727,-54.9408337039113,18.372704,35.3018384,0.079122049775999,35.380960449776,23.622048,5.368656,67.850067788,84.70800796,20,5,8.271,37.349464449776,20.341208,12.6834498,67.850067788,-0.223694,-5.368656,-0.894776,257.6, -23.1, -7.7,0,0,1684,1024,1024,1024,100,0,0,0,267.7,-4.2,0,95,4.134,4.112,0,0,0,0,4.704,81.32,35.380960449776,18.372704,6,P-GPS,
13800,2023-12-29 04:57:04,-34.9554035345041,-54.9408368753962,18.372704,35.3018384,0.079122049775999,35.380960449776,23.622048,5.59235,68.66634078,85.65617072,20,5,8.271,37.349464449776,20.341208,12.6834498,68.66634078,-0.223694,-5.59235,-0.894776,257.5, -24.1, -7.6,0,0,1684,1024,1024,1024,100,0,0,0,267.7,-4.2,0,95,4.134,4.112,0,0,0,0,4.704,81.32,35.380960449776,18.372704,6,P-GPS,
13900,2023-12-29 04:57:04,-34.9554037007486,-54.9408398217517,18.700788,35.6299224,0.079122049775999,35.709044449776,23.622048,5.816044,69.455054716,86.539372848,21,5,8.271,37.349464449776,20.341208,12.6834498,69.455054716,-0.223694,-5.816044,-0.894776,257.4, -23.4, -8.6,0,0,1684,1024,1024,1024,100,0,0,0,267.7,-4.2,0,95,4.134,4.112,0,0,0,0,4.704,81.32,35.709044449776,18.700788,6,P-GPS,
14000,2023-12-29 04:57:04,-34.9554038609159,-54.9408430181139,18.700788,35.6299224,0.079122049775999,35.709044449776,23.622048,6.263432,70.309385452,87.497050044,21,5,8.271,37.349464449776,20.341208,12.6834498,70.309385452,-0.223694,-6.263432,-0.671082,257.3, -23.5, -7.8,0,0,1684,1024,1024,1024,100,0,0,0,267.7,-4.2,0,95,4.134,4.112,0,0,0,0,4.704,81.32,35.709044449776,18.700788,6,P-GPS,
14100,2023-12-29 04:57:04,-34.9554040332834,-54.9408461870902,18.700788,35.6299224,0.079122049775999,35.709044449776,23.622048,6.487126,71.1614196,88.44652514,20,5,8.271,37.349464449776,20.341208,12.6834498,71.1614196,-0.223694,-6.487126,-0.223694,257.5, -24, -6.9,0,0,1684,1024,1024,1024,100,0,0,0,267.7,-4.2,0,95,4.134,4.112,0,0,0,0,4.704,81.32,35.709044449776,18.700788,6,P-GPS,
14200,2023-12-29 04:57:04,-34.9554042059245,-54.9408498928945,18.700788,35.6299224,0.079122049775999,35.709044449776,23.622048,6.7331894,72.155842204,89.556761396,20,5,8.271,37.349464449776,20.341208,12.6834498,72.155842204,-0.447388,-6.71082,0,257.6, -25.1, -6.7,0,0,1684,1024,1024,1024,100,0,0,0,267.7,-4.2,0,95,4.134,4.112,0,0,0,0,4.704,81.32,35.709044449776,18.700788,6,P-GPS,
14300,2023-12-29 04:57:05,-34.9554043977943,-54.9408534596574,18.700788,35.6299224,0.079122049775999,35.709044449776,23.622048,7.1805774,73.120737248,90.625330984,21,5,8.271,37.349464449776,20.341208,12.6834498,73.120737248,-0.447388,-7.158208,0,256.9, -22.3, -6.2,0,0,1684,1024,1024,1024,100,0,0,0,267.7,-4.2,0,95,4.134,4.112,0,0,0,0,4.704,81.32,35.709044449776,18.700788,6,P-GPS,
14400,2023-12-29 04:57:05,-34.9554046185788,-54.9408574134825,18.700788,35.6299224,0.079122049775999,35.709044449776,23.622048,7.6279654,74.194884264,91.810370392,21,5,8.271,37.349464449776,20.341208,12.6834498,74.194884264,-0.447388,-7.605596,-0.223694,257.1, -24, -7,0,0,1684,1024,1024,1024,100,0,0,0,267.7,-4.2,0,95,4.134,4.112,0,0,0,0,4.704,81.32,35.709044449776,18.700788,6,P-GPS,
14500,2023-12-29 04:57:05,-34.9554048618683,-54.940861319309,18.700788,35.6299224,0.079122049775999,35.709044449776,23.622048,7.8516594,75.263781936,92.981958356,19,5,8.264,37.349464449776,20.341208,12.6834498,75.263781936,-0.671082,-7.82929,0,257.5, -24.2, -6.6,0,0,1483,1024,1024,1024,70,0,0,0,267.7,-4.2,0,95,4.121,4.101,0,0,0,0,5.82,81.32,35.709044449776,18.700788,6,P-GPS,
14600,2023-12-29 04:57:05,-34.9554052580752,-54.9408655719549,18.700788,35.6299224,0.079122049775999,35.709044449776,23.622048,8.0753534,76.45341452,94.26181404,19,5,8.264,37.349464449776,20.341208,12.6834498,76.45341452,-0.671082,-8.052984,0,257.8, -24.1, -6,0,0,1483,1024,1024,1024,70,0,0,0,267.7,-4.2,0,95,4.121,4.101,0,0,0,0,5.82,81.32,35.709044449776,18.700788,6,P-GPS,
14700,2023-12-29 04:57:05,-34.9554057152185,-54.9408699040828,18.700788,35.6299224,0.079122049775999,35.709044449776,23.622048,8.5227414,77.67716784,95.567916444,19,5,8.264,37.349464449776,20.341208,12.6834498,77.67716784,-0.671082,-8.500372,-0.223694,257.8, -23.9, -7.6,0,0,1265,1024,1024,1024,37,0,0,0,267.7,-4.2,0,95,4.121,4.101,0,0,0,0,5.82,81.32,35.709044449776,18.700788,6,P-GPS,
14800,2023-12-29 04:57:05,-34.9554060770327,-54.9408745088372,18.700788,35.6299224,0.079122049775999,35.709044449776,23.622048,8.9701294,78.960304364,96.951118588,19,5,8.264,37.349464449776,20.341208,12.6834498,78.960304364,-0.671082,-8.94776,-0.223694,258.2, -23.6, -9.1,0,0,1077,1024,1024,1024,8,0,0,0,267.7,-4.2,0,95,4.121,4.101,0,0,0,0,5.82,81.32,35.709044449776,18.700788,6,P-GPS,
14900,2023-12-29 04:57:05,-34.9554064462205,-54.9408790265418,19.028872,35.9580064,0.079122049775999,36.037128449776,23.622048,9.2161928,80.2247401,98.30873018,19,5,8.264,37.349464449776,20.341208,12.6834498,80.2247401,-0.894776,-9.171454,-0.223694,258.4, -22.5, -11.8,0,0,1024,1024,1024,1024,0,0,0,0,267.7,-4.2,0,95,4.121,4.101,0,0,0,0,5.82,81.32,36.037128449776,19.028872,6,P-GPS,
15000,2023-12-29 04:57:05,-34.9554068918801,-54.9408837408819,19.028872,35.9580064,0.079122049775999,36.037128449776,23.622048,9.2161928,81.557089224,99.72769348,19,5,8.264,37.349464449776,20.341208,12.6834498,81.557089224,-0.894776,-9.171454,-0.223694,257.1, -12.6, -15.6,0,0,1024,1024,1024,552,0,0,0,-72,267.7,-4.2,0,95,4.121,4.101,0,0,0,0,5.82,81.32,36.037128449776,19.028872,6,P-GPS,
15100,2023-12-29 04:57:05,-34.9554074417144,-54.9408880033951,19.356956,36.2860904,0.079122049775999,36.365212449776,23.622048,8.7911742,82.788060392,101.018047852,21,5,8.264,37.349464449776,20.341208,12.6834498,82.788060392,-1.11847,-8.724066,-0.671082,252.8, 13.8, -12.4,0,0,1024,1024,1024,364,0,0,0,-100,267.6,-4.2,0,95,4.121,4.101,0,0,0,0,5.82,81.32,36.365212449776,19.356956,6,P-GPS,
15200,2023-12-29 04:57:05,-34.955408068509,-54.9408922630442,19.68504,36.6141744,0.079122049775999,36.693296449776,23.622048,7.4713796,84.03215492,102.312339232,21,5,8.264,37.349464449776,20.341208,12.6834498,84.03215492,-1.11847,-7.381902,-1.11847,253.2, 16.9, -10.6,0,0,1024,1024,1024,364,0,0,0,-100,265.4,-4.2,0,95,4.121,4.101,0,0,0,0,5.82,81.32,36.693296449776,19.68504,6,P-GPS,
15300,2023-12-29 04:57:06,-34.9554086326216,-54.9408958031738,20.013124,36.9422584,0.079122049775999,37.021380449776,23.622048,6.5766036,85.074149704,103.39075134,21,5,8.264,37.349464449776,20.341208,12.6834498,85.074149704,-1.11847,-6.487126,-0.894776,250.8, 17.9, -8.4,0,0,1024,1024,1024,364,0,0,0,-100,261.1,-4.2,0,95,4.121,4.101,0,0,0,0,5.82,81.32,37.021380449776,20.013124,6,P-GPS,
15400,2023-12-29 04:57:06,-34.9554091409176,-54.9408989126744,20.341208,37.2703424,0.079122049775999,37.349464449776,23.622048,5.4357642,85.99245682,104.3389141,21,5,8.214,37.349464449776,20.341208,12.6834498,85.99245682,-0.894776,-5.368656,-0.894776,246.5, 17.1, -9.5,0,0,1024,1024,1024,364,0,0,0,-100,256.3,-4.2,0,95,4.185,4.162,0,0,0,0,6.096,81.5,37.349464449776,20.341208,6,P-GPS,
15600,2023-12-29 04:57:06,-34.9554099372658,-54.9409037045105,20.341208,37.2703424,0.079122049775999,37.349464449776,23.622048,3.6014734,87.410435868,105.800856404,21,5,8.214,37.349464449776,20.341208,12.6834498,87.410435868,-0.447388,-3.579104,-0.223694,236.7, 15.3, -12.8,0,0,1024,1024,1024,364,0,0,0,-100,246.7,-4.2,0,95,4.185,4.162,0,0,0,0,6.096,81.5,37.349464449776,20.341208,6,P-GPS,
15700,2023-12-29 04:57:06,-34.9554100988009,-54.9409053689929,20.341208,37.2703424,0.079122049775999,37.349464449776,23.622048,2.908022,87.8855015,106.302168756,21,5,8.214,37.349464449776,20.341208,12.6834498,87.8855015,-0.223694,-2.908022,0,231.4, 14, -15.9,0,0,1024,1024,1024,364,0,0,0,-100,241.9,-4.2,0,95,4.185,4.162,0,0,0,0,6.096,81.5,37.349464449776,20.341208,6,P-GPS,
