time(millisecond),datetime(utc),latitude,longitude,height_above_takeoff(feet),height_above_ground_at_drone_location(feet),ground_elevation_at_drone_location(feet),altitude_above_seaLevel(feet),height_sonar(feet),speed(mph),distance(feet),mileage(feet),satellites,gpslevel,voltage(v),max_altitude(feet),max_ascent(feet),max_speed(mph),max_distance(feet), xSpeed(mph), ySpeed(mph), zSpeed(mph), compass_heading(degrees), pitch(degrees), roll(degrees),isPhoto,isVideo,rc_elevator,rc_aileron,rc_throttle,rc_rudder,rc_elevator(percent),rc_aileron(percent),rc_throttle(percent),rc_rudder(percent),gimbal_heading(degrees),gimbal_pitch(degrees),gimbal_roll(degrees),battery_percent,voltageCell1,voltageCell2,voltageCell3,voltageCell4,voltageCell5,voltageCell6,current(A),battery_temperature(f),altitude(feet),ascent(feet),flycStateRaw,flycState,message
0,2022-09-05 20:26:58,-34.9581994900971,-54.944567069132,0,0,11.197841237596,11.197841237596,0.328084,0,0,0,18,5,0,11.197841237596,0,0,0,0,0,0,284.6, -7.6, 3.9,0,0,364,364,364,1684,-100,-100,-100,100,296,0,0,100,4.325,4.322,0,0,0,0,0,72.68,11.197841237596,0,41,Motors_Started,
100,2022-09-05 20:26:58,-34.9581993884235,-54.94456694774,0,0,11.197841237596,11.197841237596,0.328084,0,0.051900592212,0.051900592212,18,5,0,11.197841237596,0,0,0.051900592212,0,0,0,284.8, -7.9, 4.5,0,0,1024,804,364,1612,0,-33,-100,89,296.5,0,0,100,4.325,4.322,0,0,0,0,0,72.68,11.197841237596,0,41,Motors_Started,"En vuelo"
200,2022-09-05 20:26:58,-34.9581993091965,-54.9445668454548,0,0,11.197841237596,11.197841237596,0.328084,0,0.093966210356,0.093983926892,18,5,0,11.197841237596,0,0,0.093966210356,0,0,0,284.8, -7.9, 4.2,0,0,1024,1024,1024,1024,0,0,0,0,296.8,0,0,100,4.325,4.322,0,0,0,0,0,72.68,11.197841237596,0,41,Motors_Started,
300,2022-09-05 20:26:59,-34.9581992164354,-54.9445666310417,0,0,11.197841237596,11.197841237596,0.328084,0,0.164710307108,0.166481960708,18,5,0,11.197841237596,0,0,0.164710307108,0,0,0,285.6, -8.2, 3.8,0,0,1024,1024,1024,1024,0,0,0,0,297.1,0,0,100,4.325,4.322,0,0,0,0,0,72.68,11.197841237596,0,41,Motors_Started,
400,2022-09-05 20:26:59,-34.9581991784976,-54.9445665056292,0,0,11.197841237596,11.197841237596,0.328084,0,0.2032644422,0.206455715268,18,5,0,11.197841237596,0,0,0.2032644422,0,0,0,285.2, -7.9, 4.6,0,0,1024,1024,1024,1024,0,0,0,0,297.3,0,0,100,4.325,4.322,0,0,0,0,0,72.68,11.197841237596,0,41,Motors_Started,
500,2022-09-05 20:26:59,-34.9581991398342,-54.9445663697497,0,-0.032808399999999,11.230649637596,11.197841237596,0.328084,0,0.24508366926,0.249465559164,18,5,0,11.197841237596,0,0,0.24508366926,0,0,0,286.5, -8.4, 4.3,0,0,1024,1024,1024,1024,0,0,0,0,297.8,0,0,100,4.325,4.322,0,0,0,0,0,72.68,11.197841237596,0,41,Motors_Started,
600,2022-09-05 20:26:59,-34.958199063001,-54.9445662755192,0,-0.032808399999999,11.230649637596,11.197841237596,0.328084,0,0.283894037956,0.289211623428,18,5,0,11.197841237596,0,0,0.283894037956,0,0,0,286.7, -9, 3.9,0,0,1024,1024,1198,1020,0,0,26,-1,298.3,0,0,100,4.325,4.322,0,0,0,0,0,72.68,11.197841237596,0,41,Motors_Started,
700,2022-09-05 20:26:59,-34.958198971252,-54.9445661740184,0,-0.032808399999999,11.230649637596,11.197841237596,0.328084,0,0.327833343824,0.33439633616,18,5,0,11.197841237596,0,0,0.327833343824,0,0,0,287.2, -9, 4.1,0,0,1024,1024,1198,1020,0,0,26,-1,298.9,0,0,100,4.325,4.322,0,0,0,0,0,72.68,11.197841237596,0,41,Motors_Started,"Setting new Return-To-Home altitude to 60m (197 ft). Data Recorder File Index is 56. Setting new Maximum Flight Altitude to 120m (394 ft)"
800,2022-09-05 20:26:59,-34.9581988663086,-54.9445661116768,-0.328084,-0.3608924,11.230649637596,10.869757237596,0.328084,0,0.36573491984,0.37698163936,18,5,0,11.197841237596,0,0,0.36573491984,0,0,0,287.4, -9.1, 3.6,0,0,1024,1024,1513,1024,0,0,74,0,299.1,0,0,100,4.325,4.322,0,0,0,0,0,72.68,10.869757237596,-0.328084,41,Motors_Started,
900,2022-09-05 20:26:59,-34.9581987578876,-54.9445660528751,-0.328084,-0.3608924,11.230649637596,10.869757237596,0.328084,0,0.40461287384,0.42027232316,18,5,0,11.197841237596,0,0,0.40461287384,0,0,0,286, -9.1, 3.7,0,0,1024,1024,1409,1024,0,0,58,0,298.8,0,0,100,4.325,4.322,0,0,0,0,0,72.68,10.869757237596,-0.328084,41,Motors_Started,
1000,2022-09-05 20:26:59,-34.958198692074,-54.9445660411596,-0.328084,-0.3608924,11.230649637596,10.869757237596,0.328084,0,0.42338912116,0.4445374158,18,5,0,11.197841237596,0,0,0.42338912116,0,0,0,285.9, -11, 3.4,0,0,1024,1024,1024,1024,0,0,0,0,298,0,0,100,4.325,4.322,0,0,0,0,0,72.68,10.869757237596,-0.328084,41,Motors_Started,
1100,2022-09-05 20:26:59,-34.9581986295263,-54.9445660197675,-0.328084,-0.3608924,11.230649637596,10.869757237596,0.328084,0,0.44389437116,0.46823820396,18,5,0,11.197841237596,0,0,0.44389437116,0,0,0,285.9, -11.1, 3.8,0,0,1024,1024,1024,1024,0,0,0,0,298,0,0,100,4.325,4.322,0,0,0,0,0,72.68,10.869757237596,-0.328084,10,Assisted_Takeoff,
1200,2022-09-05 20:26:59,-34.9581986223563,-54.9445664133221,-0.328084,-0.3608924,11.230649637596,10.869757237596,0.328084,0,0.3724081484,0.58594818148,18,5,0,11.197841237596,0,0,0.44389437116,0,0,0,289.5, -11.7, 2.6,0,0,1024,1024,1024,1024,0,0,0,0,299.7,0,0,100,4.325,4.322,0,0,0,0,0,72.68,10.869757237596,-0.328084,10,Assisted_Takeoff,
1300,2022-09-05 20:27:00,-34.9581985835024,-54.9445665013513,-0.328084,-0.328084,11.197841237596,10.869757237596,0.328084,0,0.37179791216,0.61584319556,18,5,0,11.197841237596,0,0,0.44389437116,0,0,0,290.8, -11.4, 1.3,0,0,1024,1024,1224,1024,0,0,30,0,302,0,0,100,4.325,4.322,0,0,0,0,0,72.68,10.869757237596,-0.328084,10,Assisted_Takeoff,
1400,2022-09-05 20:27:00,-34.9581985783573,-54.9445666660165,-0.328084,-0.328084,11.197841237596,10.869757237596,0.328084,0,0.35381234728,0.66511813152,18,5,0,11.197841237596,0,0,0.44389437116,0,0,0,289.7, -11.2, 1.4,0,0,1024,1024,1452,1024,0,0,65,0,302.1,0,0,100,4.325,4.322,0,0,0,0,0,72.68,10.869757237596,-0.328084,10,Assisted_Takeoff,
1500,2022-09-05 20:27:00,-34.9581985689026,-54.9445668267321,-0.328084,-0.328084,11.197841237596,10.869757237596,0.328084,0,0.34382547032,0.71330054776,18,5,8.654,11.197841237596,0,0,0.44389437116,0,0,0,290.3, -10.3, 0.5,0,0,1024,1024,1505,1024,0,0,73,0,301.4,0,0,100,4.325,4.322,0,0,0,0,1.363,72.68,10.869757237596,-0.328084,10,Assisted_Takeoff,
1600,2022-09-05 20:27:00,-34.9581986439413,-54.944567318808,-0.328084,-0.328084,11.197841237596,10.869757237596,0.328084,0,0.317618448484,0.86296590688,18,5,8.654,11.197841237596,0,0,0.44389437116,0,0,0,292.9, -6.9, -0.8,0,0,1024,1024,1505,1024,0,0,73,0,303,0,0,100,4.325,4.322,0,0,0,0,1.363,72.68,10.869757237596,-0.328084,10,Assisted_Takeoff,
1700,2022-09-05 20:27:00,-34.9581986425718,-54.9445674114121,-0.328084,-0.328084,11.197841237596,10.869757237596,0.328084,0,0.325717202024,0.89065947732,18,5,8.654,11.197841237596,0,0,0.44389437116,0,0,0,293.6, -5.6, 0.3,0,0,1024,1024,1024,1024,0,0,0,0,304.8,0,0,100,4.325,4.322,0,0,0,0,1.363,72.68,10.869757237596,-0.328084,10,Assisted_Takeoff,
1800,2022-09-05 20:27:00,-34.9581986558843,-54.944567510201,-0.328084,-0.2624672,11.132224437596,10.869757237596,0.328084,0,0.3317093282,0.92059714232,18,5,8.654,11.197841237596,0,0,0.44389437116,0,0,0,291.3, -3.1, -0.1,0,0,1024,1024,1024,1024,0,0,0,0,303.6,0,0,100,4.325,4.322,0,0,0,0,1.363,72.68,10.869757237596,-0.328084,10,Assisted_Takeoff,
1900,2022-09-05 20:27:00,-34.9581986606483,-54.9445675791404,-0.328084,-0.2624672,11.132224437596,10.869757237596,0.328084,0,0.3388779636,0.94128283852,18,5,8.654,11.197841237596,0,0,0.44389437116,0,0,0,291.6, -1.8, 1.2,0,0,1024,1024,1024,1024,0,0,0,0,303.1,0,0,100,4.325,4.322,0,0,0,0,1.363,72.68,10.869757237596,-0.328084,10,Assisted_Takeoff,
2000,2022-09-05 20:27:00,-34.9581985136185,-54.9445676860199,-0.328084,-0.2624672,11.132224437596,10.869757237596,0.328084,0,0.40118767688,1.00372706624,18,5,8.654,11.197841237596,0,0,0.44389437116,0,0,0,291.5, -1.3, 2.5,0,0,1024,1024,1277,1024,0,0,38,0,303.1,0,0,100,4.325,4.322,0,0,0,0,1.363,72.68,10.869757237596,-0.328084,10,Assisted_Takeoff,
2100,2022-09-05 20:27:00,-34.9581984536161,-54.9445677031015,-0.328084,-0.2296588,11.099416037596,10.869757237596,0.328084,0,0.4230151054,1.02620410108,18,5,8.654,11.197841237596,0,0,0.44389437116,0,0,0,291.2, -1.6, 2.8,0,0,1024,1024,1370,1024,0,0,52,0,303,0,0,100,4.325,4.322,0,0,0,0,1.363,72.68,10.869757237596,-0.328084,10,Assisted_Takeoff,
2200,2022-09-05 20:27:00,-34.9581984264203,-54.9445677477062,-0.328084,-0.2296588,11.099416037596,10.869757237596,0.328084,0,0.4379265232,1.04282811736,18,5,8.654,11.197841237596,0,0,0.44389437116,0,0,0,291.3, -1.4, 2,0,0,1024,1024,1428,1024,0,0,61,0,302.9,0,0,100,4.325,4.322,0,0,0,0,1.363,72.68,10.869757237596,-0.328084,10,Assisted_Takeoff,
2300,2022-09-05 20:27:01,-34.9581984104631,-54.9445677993559,-0.656168,-0.5577428,11.099416037596,10.541673237596,0.328084,0,0.45037403016,1.0593340234,18,5,8.654,11.197841237596,0,0,0.45037403016,0,0,0,291.8, -1.2, 2.3,0,0,1024,1024,1428,1024,0,0,61,0,303,0,0,100,4.325,4.322,0,0,0,0,1.363,72.68,10.541673237596,-0.656168,10,Assisted_Takeoff,
2400,2022-09-05 20:27:01,-34.9581983821567,-54.9445678606097,-0.656168,-0.5577428,11.099416037596,10.541673237596,0.328084,0,0.46841865016,1.08036092696,18,5,8.654,11.197841237596,0,0,0.46841865016,0,0,0,291.4, -0.4, 2.2,0,0,1024,1024,1419,1024,0,0,60,0,303,0,0,100,4.325,4.322,0,0,0,0,1.363,72.68,10.541673237596,-0.656168,10,Assisted_Takeoff,
2500,2022-09-05 20:27:01,-34.9581982375175,-54.9445680556386,-0.656168,-0.5577428,11.099416037596,10.541673237596,0.328084,0,0.54393702528,1.15901250428,18,5,8.606,11.197841237596,0,0,0.54393702528,0,0,0,291.5, 0.8, 2.6,0,0,1024,1024,1419,1024,0,0,60,0,303,0,0,100,4.302,4.296,0,0,0,0,1.749,72.68,10.541673237596,-0.656168,10,Assisted_Takeoff,
2600,2022-09-05 20:27:01,-34.9581981856247,-54.9445680906961,-0.328084,-0.2296588,11.099416037596,10.869757237596,0.328084,0,0.56553151416,1.18065292492,18,5,8.606,11.197841237596,0,0,0.56553151416,0,0,0,292.4, 2.5, 3.5,0,0,1024,1024,1416,1024,0,0,59,0,303.2,0,0,100,4.302,4.296,0,0,0,0,1.749,72.68,10.869757237596,-0.328084,10,Assisted_Takeoff,
2700,2022-09-05 20:27:01,-34.9581981173106,-54.9445680765947,-0.328084,-0.2296588,11.099416037596,10.869757237596,0.328084,0.223694,0.58447836516,1.20593179712,18,5,8.606,11.197841237596,0,0.223694,0.58447836516,0,0.223694,-0.223694,293.4, 2.5, 3.5,0,0,1024,1024,1356,1024,0,0,50,0,303.9,0,0,100,4.302,4.296,0,0,0,0,1.749,72.68,10.869757237596,-0.328084,10,Assisted_Takeoff,
2800,2022-09-05 20:27:01,-34.9581980376472,-54.9445679661408,-0.328084,-0.2296588,11.099416037596,10.869757237596,0.328084,0.223694,0.59394030772,1.24992786152,18,5,8.606,11.197841237596,0,0.223694,0.59394030772,0,0.447388,-0.671082,293.2, 0.9, 1.2,0,0,1024,1024,1138,1024,0,0,17,0,304.1,0,0,100,4.302,4.296,0,0,0,0,1.749,72.68,10.869757237596,-0.328084,6,P-GPS,
2900,2022-09-05 20:27:01,-34.9581979434197,-54.9445678382268,0,0.098425200000001,11.099416037596,11.197841237596,0.656168,0.4921268,0.6093668174,1.30135502852,18,5,8.606,11.197841237596,0,0.4921268,0.6093668174,0.223694,0.447388,-1.11847,292.8, -1.5, -1.5,0,0,1024,1024,1024,1024,0,0,0,0,304.1,0,0,100,4.302,4.296,0,0,0,0,1.749,72.68,11.197841237596,0,6,P-GPS,
3000,2022-09-05 20:27:01,-34.9581978132818,-54.9445676702542,0,0.098425200000001,11.099416037596,11.197841237596,0.984252,0.4921268,0.63764437736,1.3704724848,18,5,8.606,11.197841237596,0,0.4921268,0.63764437736,0,0.447388,-1.565858,292.7, -2.2, -2.2,0,0,1024,1024,1024,1024,0,0,0,0,304.1,0,0,100,4.302,4.296,0,0,0,0,1.749,72.68,11.197841237596,0,6,P-GPS,
3100,2022-09-05 20:27:01,-34.9581976842952,-54.9445675211127,0,0.098425200000001,11.099416037596,11.197841237596,1.312336,0.223694,0.67256563832,1.43530844488,18,5,8.606,11.197841237596,0,0.4921268,0.67256563832,0,0.223694,-1.565858,292.7, -2.3, -2.3,0,0,1024,1024,1024,1024,0,0,0,0,304.1,0,0,100,4.302,4.296,0,0,0,0,1.749,72.68,11.197841237596,0,6,P-GPS,
3200,2022-09-05 20:27:01,-34.9581975843673,-54.9445673609484,0.328084,0.3937008,11.132224437596,11.525925237596,1.64042,0.223694,0.70075789644,1.49549873552,18,5,8.606,11.525925237596,0.328084,0.4921268,0.70075789644,0,0.223694,-1.565858,292.7, -2.3, -2.2,0,0,1024,1024,1024,1024,0,0,0,0,304.1,0,0,100,4.302,4.296,0,0,0,0,1.749,72.68,11.525925237596,0.328084,6,P-GPS,
3300,2022-09-05 20:27:02,-34.9581974323887,-54.9445671349893,0.656168,0.7545932,11.099416037596,11.854009237596,1.64042,0.223694,0.75101052272,1.58290359396,18,5,8.606,11.854009237596,0.656168,0.4921268,0.75101052272,0,0.223694,-1.11847,292.7, -2.7, -2.6,0,0,1024,1024,1024,1024,0,0,0,0,304.1,0,0,100,4.302,4.296,0,0,0,0,1.749,72.68,11.854009237596,0.656168,6,P-GPS,
3400,2022-09-05 20:27:02,-34.9581973280991,-54.9445669370178,0.656168,0.7545932,11.099416037596,11.854009237596,1.968504,0.223694,0.78979333236,1.65327433112,18,5,8.606,11.854009237596,0.656168,0.4921268,0.78979333236,0,0.223694,-0.671082,292.7, -2.2, -2.5,0,0,1024,1024,1024,1024,0,0,0,0,304.1,0,0,100,4.302,4.296,0,0,0,0,1.749,72.68,11.854009237596,0.656168,6,P-GPS,
3500,2022-09-05 20:27:02,-34.9581972267236,-54.9445667370615,0.656168,0.7545932,11.099416037596,11.854009237596,1.968504,0,0.83173887176,1.72358273232,18,5,8.606,11.854009237596,0.656168,0.4921268,0.83173887176,0,0,-0.447388,292.7, -1.9, -2.3,0,0,1024,1024,1024,1024,0,0,0,0,304.1,0,0,100,4.302,4.296,0,0,0,0,1.749,72.68,11.854009237596,0.656168,6,P-GPS,
3600,2022-09-05 20:27:02,-34.9581972223186,-54.9445667325043,0.984252,1.0826772,11.099416037596,12.182093237596,1.968504,0,0.833497402,1.7256890316,18,5,8.46,12.182093237596,0.984252,0.4921268,0.833497402,0,0,0,292.7, -1.8, -2.2,0,0,1024,1024,1024,1024,0,0,0,0,304.1,0,0,100,4.262,4.262,0,0,0,0,3.633,72.68,12.182093237596,0.984252,6,P-GPS,
3700,2022-09-05 20:27:02,-34.9581972983776,-54.9445668367445,0.984252,1.0826772,11.099416037596,12.182093237596,1.968504,0,0.80266078684,1.7674213164,18,5,8.46,12.182093237596,0.984252,0.4921268,0.833497402,0,0,0,292.7, -1.6, -2.1,0,0,1024,1024,1024,1024,0,0,0,0,304.1,0,0,100,4.262,4.262,0,0,0,0,3.633,72.68,12.182093237596,0.984252,6,P-GPS,"Punto de origen actualizado. Altitud de RPO establecida en 60m (Code: 3000001)"
3800,2022-09-05 20:27:02,-34.9581973044313,-54.9445668419694,0.984252,1.0826772,11.099416037596,12.182093237596,1.968504,0,0.8003281096,1.7701280094,18,5,8.46,12.182093237596,0.984252,0.4921268,0.833497402,0,0,0,292.7, -1.4, -2.3,0,0,1024,1024,1024,1024,0,0,0,0,304.1,0,0,100,4.262,4.262,0,0,0,0,3.633,72.68,12.182093237596,0.984252,6,P-GPS,
3900,2022-09-05 20:27:02,-34.958197317809,-54.9445668403377,0.984252,1.0826772,11.099416037596,12.182093237596,1.968504,0,0.7955052748,1.7750328652,18,5,8.46,12.182093237596,0.984252,0.4921268,0.833497402,0,0,0,292.7, -1.5, -2.1,0,0,1024,1024,1024,1024,0,0,0,0,304.1,0,0,100,4.262,4.262,0,0,0,0,3.633,72.68,12.182093237596,0.984252,6,P-GPS,
4000,2022-09-05 20:27:02,-34.9581973469345,-54.9445668653505,0.984252,1.0826772,11.099416037596,12.182093237596,1.968504,0,0.7843012062,1.7880249916,18,5,8.46,12.182093237596,0.984252,0.4921268,0.833497402,0,0,0,292.7, -1.6, -1.8,0,0,1024,1024,1024,1024,0,0,0,0,304.1,0,0,100,4.262,4.262,0,0,0,0,3.633,72.68,12.182093237596,0.984252,6,P-GPS,
4100,2022-09-05 20:27:02,-34.95819738824,-54.9445669001542,0.984252,1.0826772,11.099416037596,12.182093237596,1.968504,0,0.76852364664,1.80634192132,18,5,8.46,12.182093237596,0.984252,0.4921268,0.833497402,0,0,0,292.7, -1.5, -1.6,0,0,1030,1024,1024,1024,1,0,0,0,304.1,0,0,100,4.262,4.262,0,0,0,0,3.633,72.68,12.182093237596,0.984252,6,P-GPS,
4200,2022-09-05 20:27:02,-34.9581974043078,-54.9445668713499,0.984252,1.0826772,11.099416037596,12.182093237596,1.968504,0,0.76329398768,1.81675858832,18,5,8.46,12.182093237596,0.984252,0.4921268,0.833497402,0,0,0,292.7, -1.5, -1.4,0,0,1336,1024,1024,1024,47,0,0,0,304.1,0,0,100,4.262,4.262,0,0,0,0,3.633,72.68,12.182093237596,0.984252,6,P-GPS,
4300,2022-09-05 20:27:03,-34.9581974186251,-54.9445668325871,0.984252,1.0826772,11.099416037596,12.182093237596,1.968504,0,0.75907810828,1.82947184332,18,5,8.46,12.182093237596,0.984252,0.4921268,0.833497402,0,0,0,292.8, -1.7, -1.2,0,0,1666,1024,1024,1024,97,0,0,0,304.1,0,0,100,4.262,4.262,0,0,0,0,3.633,72.68,12.182093237596,0.984252,6,P-GPS,
4400,2022-09-05 20:27:03,-34.9581974091761,-54.9445668465374,0.984252,1.0826772,11.099416037596,12.182093237596,1.968504,0,0.76213585116,1.83488522932,18,5,8.46,12.182093237596,0.984252,0.4921268,0.833497402,0,0,0,292.8, -5.4, -0.9,0,0,1684,1024,1024,1024,100,0,0,0,304.1,0,0,100,4.262,4.262,0,0,0,0,3.633,72.68,12.182093237596,0.984252,6,P-GPS,
4500,2022-09-05 20:27:03,-34.9581973736556,-54.9445669328029,0.984252,1.0826772,11.099416037596,12.182093237596,1.968504,0,0.77325789876,1.86375334048,18,5,8.46,12.182093237596,0.984252,0.4921268,0.833497402,0,0,0,292.9, -12, -0.9,0,0,1684,1024,1024,1024,100,0,0,0,304.1,0,0,100,4.262,4.262,0,0,0,0,3.633,72.68,12.182093237596,0.984252,6,P-GPS,
4600,2022-09-05 20:27:03,-34.9581971718833,-54.9445670867427,0.984252,1.0826772,11.099416037596,12.182093237596,1.968504,0.4921268,0.8458169562,1.9505742094,18,5,8.51,12.182093237596,0.984252,0.4921268,0.8458169562,0.223694,-0.447388,0,293, -17.5, -1.1,0,0,1684,1024,1024,1024,100,0,0,0,304.1,0,0,100,4.249,4.247,0,0,0,0,3.671,72.68,12.182093237596,0.984252,6,P-GPS,
4700,2022-09-05 20:27:03,-34.9581970054327,-54.9445675395302,0.984252,1.1154856,11.066607637596,12.182093237596,1.968504,1.2079476,0.91737535744,2.09896332176,18,5,8.51,12.182093237596,0.984252,1.2079476,0.91737535744,0.447388,-1.11847,0,293, -18.7, -1.2,0,0,1684,1024,1024,1024,100,0,0,0,304.1,0,0,100,4.249,4.247,0,0,0,0,3.671,72.68,12.182093237596,0.984252,6,P-GPS,
4800,2022-09-05 20:27:03,-34.9581967467592,-54.9445683163838,0.984252,1.1154856,11.066607637596,12.182093237596,1.968504,1.901399,1.06813323628,2.34969823792,18,5,8.51,12.182093237596,0.984252,1.901399,1.06813323628,0.671082,-1.789552,0,293, -18.5, -1.2,0,0,1567,1024,1024,1024,82,0,0,0,304.1,0,0,100,4.249,4.247,0,0,0,0,3.671,72.68,12.182093237596,0.984252,6,P-GPS,
4900,2022-09-05 20:27:03,-34.9581963827068,-54.9445694248355,0.984252,1.2139108,10.968182437596,12.182093237596,1.968504,2.4158952,1.33473757552,2.70677174016,18,5,8.51,12.182093237596,0.984252,2.4158952,1.33473757552,0.894776,-2.23694,0,293, -16.9, -1.2,0,0,1203,1024,1024,1024,27,0,0,0,304.1,0,0,100,4.249,4.247,0,0,0,0,3.671,72.68,12.182093237596,0.984252,6,P-GPS,
5000,2022-09-05 20:27:03,-34.9581960528459,-54.9445709240831,0.984252,1.312336,10.869757237596,12.182093237596,1.968504,3.1093466,1.7033629154,3.1709482642,18,5,8.51,12.182093237596,0.984252,3.1093466,1.7033629154,1.11847,-2.908022,0,292.9, -14.3, -1.2,0,0,1035,1024,1024,1024,2,0,0,0,304.1,0,0,100,4.249,4.247,0,0,0,0,3.671,72.68,12.182093237596,0.984252,6,P-GPS,
5100,2022-09-05 20:27:03,-34.9581956098171,-54.9445725098497,0.984252,1.4107612,10.771332037596,12.182093237596,2.296588,3.3330406,2.15661752308,3.671916128,18,5,8.51,12.182093237596,0.984252,3.3330406,2.15661752308,1.11847,-3.131716,0,292.8, -7, -1.1,0,0,1280,1024,1024,1024,39,0,0,0,304.1,0,0,100,4.249,4.247,0,0,0,0,3.671,72.68,12.182093237596,0.984252,6,P-GPS,
5200,2022-09-05 20:27:03,-34.9581951070326,-54.9445742276237,0.984252,1.5091864,10.672906837596,12.182093237596,2.296588,3.6238428,2.67192265768,4.2173229696,18,5,8.51,12.182093237596,0.984252,3.6238428,2.67192265768,1.342164,-3.35541,0,292.6, 2.4, -0.6,0,0,1684,955,1024,1024,100,-10,0,0,304.1,0,0,100,4.249,4.247,0,0,0,0,3.671,72.68,12.182093237596,0.984252,6,P-GPS,
5300,2022-09-05 20:27:04,-34.9581945754482,-54.9445759927636,0.984252,1.6076116,10.574481637596,12.182093237596,2.624672,3.3330406,3.21485246508,4.7796589456,18,5,8.51,12.182093237596,0.984252,3.6238428,3.21485246508,1.11847,-3.131716,0,292.6, -0.4, -1.1,0,0,1684,1024,1024,1024,100,0,0,0,304.1,0,0,100,4.249,4.247,0,0,0,0,3.671,72.68,12.182093237596,0.984252,6,P-GPS,
5400,2022-09-05 20:27:04,-34.9581939715206,-54.9445782672247,0.984252,1.7388452,10.443248037596,12.182093237596,2.624672,3.3330406,3.9071851644,5.4945539816,18,5,8.51,12.182093237596,0.984252,3.6238428,3.9071851644,1.11847,-3.131716,0,292.9, -10.5, -1.5,0,0,1684,1024,1024,1024,100,0,0,0,304.1,0,0,100,4.249,4.247,0,0,0,0,3.671,72.68,12.182093237596,0.984252,6,P-GPS,
5500,2022-09-05 20:27:04,-34.958193427501,-54.9445800996455,0.984252,1.8700788,10.312014437596,12.182093237596,2.624672,3.6238428,4.4804463376,6.0773295908,18,5,8.51,12.182093237596,0.984252,3.6238428,4.4804463376,1.342164,-3.35541,0,293.1, -16.4, -1.9,0,0,1684,1024,1024,1024,100,0,0,0,304.1,0,0,100,4.249,4.247,0,0,0,0,3.671,72.68,12.182093237596,0.984252,6,P-GPS,
5600,2022-09-05 20:27:04,-34.9581929063623,-54.9445819987266,0.984252,1.968504,10.213589237596,12.182093237596,2.952756,4.026492,5.0694555428,6.676181316,18,5,8.476,12.182093237596,0.984252,4.026492,5.0694555428,1.342164,-3.802798,0,293.1, -17.9, -1.5,0,0,1684,1024,1024,1024,100,0,0,0,304.1,0,0,100,4.238,4.25,0,0,0,0,4.107,72.86,12.182093237596,0.984252,6,P-GPS,
5700,2022-09-05 20:27:04,-34.9581922972359,-54.9445842185888,0.656168,1.7716536,10.082355637596,11.854009237596,2.952756,4.5186188,5.7605316804,7.3761813384,18,5,8.476,12.182093237596,0.984252,4.5186188,5.7605316804,1.565858,-4.250186,0,293.1, -18.1, -1.1,0,0,1684,1024,1024,1024,100,0,0,0,304.1,0,0,100,4.238,4.25,0,0,0,0,4.107,72.86,11.854009237596,0.656168,6,P-GPS,
5800,2022-09-05 20:27:04,-34.9581916596431,-54.9445863341717,0.656168,1.8700788,9.983930437596,11.854009237596,2.952756,5.033115,6.4301511244,8.050197108,18,5,8.476,12.182093237596,0.984252,5.033115,6.4301511244,1.789552,-4.697574,0,293.1, -18, -1.1,0,0,1684,1024,1024,1024,100,0,0,0,304.1,0,0,100,4.238,4.25,0,0,0,0,4.107,72.86,11.854009237596,0.656168,6,P-GPS,
5900,2022-09-05 20:27:04,-34.9581910850002,-54.9445884147709,0.656168,2.0341208,9.819888437596,11.854009237596,3.28084,5.5252418,7.0812338224,8.7067260004,18,5,8.476,12.182093237596,0.984252,5.5252418,7.0812338224,2.013246,-5.144962,0,293.1, -17.9, -1,0,0,1684,1010,1024,1024,100,-2,0,0,304.1,0,0,100,4.238,4.25,0,0,0,0,4.107,72.86,11.854009237596,0.656168,6,P-GPS,
6000,2022-09-05 20:27:04,-34.9581903486128,-54.944591006706,0.656168,2.2309712,9.623038037596,11.854009237596,3.28084,6.0173686,7.8967194128,9.5270016172,18,5,8.476,12.182093237596,0.984252,6.0173686,7.8967194128,2.23694,-5.59235,0,293.1, -17.7, -0.9,0,0,1684,868,1024,1024,100,-24,0,0,304.1,0,0,100,4.238,4.25,0,0,0,0,4.107,72.86,11.854009237596,0.656168,6,P-GPS,
6100,2022-09-05 20:27:04,-34.958189509569,-54.9445939612253,0.656168,2.3622048,9.491804437596,11.854009237596,3.608924,6.4423872,8.8273296788,10.4620082088,18,5,8.476,12.182093237596,0.984252,6.4423872,8.8273296788,2.23694,-6.039738,0,293.1, -17.7, -0.9,0,0,1684,805,1024,1024,100,-33,0,0,304.1,0,0,100,4.238,4.25,0,0,0,0,4.107,72.86,11.854009237596,0.656168,6,P-GPS,
6200,2022-09-05 20:27:04,-34.9581886557468,-54.9445969993662,0.656168,2.5590552,9.294954037596,11.854009237596,3.608924,6.934514,9.7838257724,11.422408502,18,5,8.476,12.182093237596,0.984252,6.934514,9.7838257724,2.460634,-6.487126,0,293.2, -17.6, -2.1,0,0,1684,864,1024,1024,100,-24,0,0,304.1,0,0,100,4.238,4.25,0,0,0,0,4.107,72.86,11.854009237596,0.656168,6,P-GPS,
6300,2022-09-05 20:27:05,-34.9581879208282,-54.9446004866214,0.656168,2.7559056,9.098103637596,11.854009237596,3.937008,7.2924244,10.847441292,12.4990817648,18,5,8.476,12.182093237596,0.984252,7.2924244,10.847441292,2.23694,-6.934514,0,289.6, -17.3, -4,0,0,1684,864,1024,1024,100,-24,0,0,304.1,0,0,100,4.238,4.25,0,0,0,0,4.107,72.86,11.854009237596,0.656168,6,P-GPS,
6400,2022-09-05 20:27:05,-34.9581869548724,-54.944603994895,0.656168,2.9855644,8.868444837596,11.854009237596,3.937008,7.717443,11.9512471016,13.6057419052,18,5,8.476,12.182093237596,0.984252,7.717443,11.9512471016,2.23694,-7.381902,0,289.7, -17.4, -4,0,0,1684,1024,1024,1024,100,0,0,0,304.1,0,0,100,4.238,4.25,0,0,0,0,4.107,72.86,11.854009237596,0.656168,6,P-GPS,
6500,2022-09-05 20:27:05,-34.9581859202027,-54.944607890286,0.656168,3.2152232,8.638786037596,11.854009237596,3.937008,7.9187676,13.1721788992,14.8301842016,18,5,8.476,12.182093237596,0.984252,7.9187676,13.1721788992,2.23694,-7.605596,0,289.7, -17.4, -2.4,0,0,1563,1024,1024,1024,82,0,0,0,304.1,0,0,100,4.238,4.25,0,0,0,0,4.107,72.86,11.854009237596,0.656168,6,P-GPS,
6600,2022-09-05 20:27:05,-34.9581848997754,-54.9446118970461,0.656168,3.4776904,8.376318837596,11.854009237596,3.937008,7.9187676,14.4227694904,16.0847774176,18,5,8.473,12.182093237596,0.984252,7.9187676,14.4227694904,2.23694,-8.052984,0,289.6, -15.9, -1,0,0,1331,1024,1024,1024,47,0,0,0,304.1,0,0,99,4.236,4.234,0,0,0,0,4.046,72.86,11.854009237596,0.656168,6,P-GPS,
6700,2022-09-05 20:27:05,-34.9581840258003,-54.944616938682,0.656168,3.7401576,8.113851637596,11.854009237596,8.2021,8.5674802,15.9436684892,17.6256895404,18,5,8.473,12.182093237596,0.984252,8.5674802,15.9436684892,2.23694,-8.276678,0,289.5, -12.4, -0.5,0,0,1076,1024,1024,1024,8,0,0,0,304.1,0,0,99,4.236,4.234,0,0,0,0,4.046,72.86,11.854009237596,0.656168,6,P-GPS,
6800,2022-09-05 20:27:05,-34.958183020218,-54.944620992115,0.328084,3.6745408,7.851384437596,11.525925237596,8.2021,8.6345884,17.207349632,18.892060972,18,5,8.473,12.182093237596,0.984252,8.6345884,17.207349632,2.460634,-8.276678,0,289.4, -6.1, -0.2,0,0,1024,1024,1024,1024,0,0,0,0,304.1,0,0,99,4.236,4.234,0,0,0,0,4.046,72.86,11.525925237596,0.328084,6,P-GPS,
6900,2022-09-05 20:27:05,-34.9581819644371,-54.9446252039008,0.328084,3.9041996,7.621725637596,11.525925237596,8.530184,8.4108944,18.522146262,20.2090557648,18,5,8.473,12.182093237596,0.984252,8.6345884,18.522146262,2.460634,-8.052984,0,289.1, 10.8, -0.1,0,0,1024,1024,1024,1024,0,0,0,0,304.1,0,0,99,4.236,4.234,0,0,0,0,4.046,72.86,11.525925237596,0.328084,6,P-GPS,
7000,2022-09-05 20:27:05,-34.9581810615399,-54.9446289751124,0.328084,4.1666668,7.359258437596,11.525925237596,8.530184,7.4266408,19.694390394,21.383858952,18,5,8.473,12.182093237596,0.984252,8.6345884,19.694390394,2.013246,-7.158208,0,289.2, 22.8, 1.6,0,0,1024,1024,1024,1024,0,0,0,0,304.1,0,0,99,4.236,4.234,0,0,0,0,4.046,72.86,11.525925237596,0.328084,6,P-GPS,
7100,2022-09-05 20:27:05,-34.9581803580704,-54.9446322987882,0.328084,4.3635172,7.162408037596,11.525925237596,8.530184,6.3081708,20.716372054,22.4103025544,18,5,8.473,12.182093237596,0.984252,8.6345884,20.716372054,1.789552,-6.039738,0,289.1, 21.6, 2,0,0,1024,1024,1024,1024,0,0,0,0,304.1,0,0,99,4.236,4.234,0,0,0,0,4.046,72.86,11.525925237596,0.328084,6,P-GPS,
7200,2022-09-05 20:27:05,-34.9581796610271,-54.9446351648461,0.328084,4.4947508,7.031174437596,11.525925237596,8.858268,5.368656,21.6090230012,23.3042658376,18,5,8.473,12.182093237596,0.984252,8.6345884,21.6090230012,1.565858,-5.144962,0,289.1, 21.1, 1.8,0,0,1024,1024,1024,1024,0,0,0,0,304.1,0,0,99,4.236,4.234,0,0,0,0,4.046,72.86,11.525925237596,0.328084,6,P-GPS,
7300,2022-09-05 20:27:06,-34.9581789996786,-54.944637742965,0,4.3635172,6.834324037596,11.197841237596,8.858268,4.4515106,22.4162408748,24.112041454,18,5,8.473,12.182093237596,0.984252,8.6345884,22.4162408748,1.342164,-4.250186,0,288.9, 21.6, -0.9,0,0,1024,1024,1024,1024,0,0,0,0,304.1,0,0,99,4.236,4.234,0,0,0,0,4.046,72.86,11.197841237596,0,6,P-GPS,
7400,2022-09-05 20:27:06,-34.9581783839175,-54.944639645144,0,4.5275592,6.670282037596,11.197841237596,8.858268,3.3330406,23.02739575,24.72359003,18,5,8.473,12.182093237596,0.984252,8.6345884,23.02739575,1.11847,-3.131716,0,288.1, 21.4, -3.1,0,0,1024,1024,1024,1024,0,0,0,0,304.1,0,0,99,4.236,4.234,0,0,0,0,4.046,72.86,11.197841237596,0,6,P-GPS,
7500,2022-09-05 20:27:06,-34.9581778616779,-54.9446411783783,0,4.5603676,6.637473637596,11.197841237596,8.858268,2.3264176,23.5231962908,25.2200795472,18,5,8.473,12.182093237596,0.984252,8.6345884,23.5231962908,0.671082,-2.23694,0,288.5, 18.2, -2,0,0,1024,1024,1024,1024,0,0,0,0,304.1,0,0,99,4.236,4.234,0,0,0,0,4.046,72.86,11.197841237596,0,6,P-GPS,
7600,2022-09-05 20:27:06,-34.9581776536092,-54.9446416141441,0.328084,4.9540684,6.571856837596,11.525925237596,9.186352,1.6329662,23.671424642,25.370899762,18,5,8.481,12.182093237596,0.984252,8.6345884,23.671424642,0.447388,-1.565858,0,289.1, 10.8, -0.7,0,0,1024,1024,1024,1024,0,0,0,0,304.1,0,0,99,4.23,4.233,0,0,0,0,4.179,72.86,11.525925237596,0.328084,6,P-GPS,
7700,2022-09-05 20:27:06,-34.9581775532474,-54.9446416714319,0.328084,4.9540684,6.571856837596,11.525925237596,9.186352,1.1408394,23.6999023332,25.4113197108,18,5,8.481,12.182093237596,0.984252,8.6345884,23.6999023332,0.223694,-1.11847,0,289.3, 7.6, -0.6,0,0,1024,1024,1024,1024,0,0,0,0,304.1,0,0,99,4.23,4.233,0,0,0,0,4.179,72.86,11.525925237596,0.328084,6,P-GPS,
7800,2022-09-05 20:27:06,-34.9581774388891,-54.944641802816,0.328084,4.9868768,6.539048437596,11.525925237596,9.186352,0.9171454,23.750985012,25.4686031772,18,5,8.481,12.182093237596,0.984252,8.6345884,23.750985012,0.223694,-0.894776,0,289.2, 5.5, -0.9,0,0,1024,1024,1024,1024,0,0,0,0,304.1,0,0,99,4.23,4.233,0,0,0,0,4.179,72.86,11.525925237596,0.328084,6,P-GPS,
7900,2022-09-05 20:27:06,-34.9581773416132,-54.9446418956337,0.328084,4.9868768,6.539048437596,11.525925237596,9.186352,0.447388,23.7891411812,25.5136819188,18,5,8.481,12.182093237596,0.984252,8.6345884,23.7891411812,0,-0.447388,0,289.3, 4.2, -0.6,0,0,1024,1024,1024,1024,0,0,0,0,304.1,0,0,99,4.23,4.233,0,0,0,0,4.179,72.86,11.525925237596,0.328084,6,P-GPS,
8000,2022-09-05 20:27:06,-34.9581774028362,-54.9446409076449,0.656168,5.2821524,6.571856837596,11.854009237596,9.186352,0.447388,23.5038393348,25.8099417708,18,5,8.481,12.182093237596,0.984252,8.6345884,23.7891411812,0,-0.447388,0,289.3, 2.9, -0.4,0,0,1024,1024,1024,1024,0,0,0,0,304.1,0,0,99,4.23,4.233,0,0,0,0,4.179,72.86,11.854009237596,0.656168,6,P-GPS,
8100,2022-09-05 20:27:06,-34.9581773797171,-54.944640758151,0.656168,5.2821524,6.571856837596,11.854009237596,9.186352,0.223694,23.464731722,25.8554470216,18,5,8.481,12.182093237596,0.984252,8.6345884,23.7891411812,0,-0.223694,0,289.3, 2, -0.2,0,0,1024,1024,1024,1024,0,0,0,0,304.1,0,0,99,4.23,4.233,0,0,0,0,4.179,72.86,11.854009237596,0.656168,6,P-GPS,
8200,2022-09-05 20:27:06,-34.9581773989083,-54.944640689877,0.656168,5.2821524,6.571856837596,11.854009237596,9.186352,0.223694,23.4431437948,25.8770021404,18,5,8.481,12.182093237596,0.984252,8.6345884,23.7891411812,0,-0.223694,0,289.2, 1.5, -0.1,0,0,1024,1024,1024,1024,0,0,0,0,304.1,0,0,99,4.23,4.233,0,0,0,0,4.179,72.86,11.854009237596,0.656168,6,P-GPS,
8300,2022-09-05 20:27:07,-34.9581774312476,-54.9446406024636,0.656168,5.2821524,6.571856837596,11.854009237596,9.186352,0.223694,23.4145676784,25.9057094904,18,5,8.481,12.182093237596,0.984252,8.6345884,23.7891411812,0,-0.223694,0,289.2, 1.1, -0.3,0,0,1024,1024,1024,1024,0,0,0,0,304.1,0,0,99,4.23,4.233,0,0,0,0,4.179,72.86,11.854009237596,0.656168,6,P-GPS,
8400,2022-09-05 20:27:07,-34.9581774744828,-54.9446409304221,0.656168,5.2821524,6.571856837596,11.854009237596,9.186352,0,23.5012802796,26.0050205172,18,5,8.481,12.182093237596,0.984252,8.6345884,23.7891411812,0,0,0,289.2, 0.7, -0.3,0,0,1024,1024,1024,1024,0,0,0,0,304.1,0,0,99,4.23,4.233,0,0,0,0,4.179,72.86,11.854009237596,0.656168,6,P-GPS,
8500,2022-09-05 20:27:07,-34.9581774590101,-54.9446409302862,0.656168,5.2821524,6.571856837596,11.854009237596,9.186352,0,23.5031831668,26.010663562,18,5,8.481,12.182093237596,0.984252,8.6345884,23.7891411812,0,0,0,289.2, 0.8, -0.4,0,0,1024,1024,1024,1024,0,0,0,0,304.1,0,0,99,4.23,4.233,0,0,0,0,4.179,72.86,11.854009237596,0.656168,6,P-GPS,
8600,2022-09-05 20:27:07,-34.9581774210764,-54.9446410323861,0.656168,5.2821524,6.571856837596,11.854009237596,9.186352,0,23.536582118,26.0441937468,18,5,8.481,12.182093237596,0.984252,8.6345884,23.7891411812,0,0,0,289.2, 0.9, -0.5,0,0,1024,1024,1024,1024,0,0,0,0,304.1,0,0,99,4.23,4.233,0,0,0,0,4.179,72.86,11.854009237596,0.656168,6,P-GPS,
8700,2022-09-05 20:27:07,-34.9581773829854,-54.9446411448712,0.656168,5.2821524,6.571856837596,11.854009237596,9.186352,0,23.5729666336,26.0805782624,18,5,8.469,12.182093237596,0.984252,8.6345884,23.7891411812,0,0,0,289.1, 0.8, -0.5,0,0,1024,1024,1024,1024,0,0,0,0,304.1,0,0,99,4.239,4.235,0,0,0,0,4.078,72.86,11.854009237596,0.656168,6,P-GPS,
8800,2022-09-05 20:27:07,-34.9581772182423,-54.9446421235567,0.656168,5.3149608,6.539048437596,11.854009237596,9.186352,0,23.8685375092,26.3793315528,18,5,8.469,12.182093237596,0.984252,8.6345884,23.8685375092,0,0,0,289.1, 0.5, -0.4,0,0,1024,1024,1024,1024,0,0,0,0,304.1,0,0,99,4.239,4.235,0,0,0,0,4.078,72.86,11.854009237596,0.656168,6,P-GPS,
8900,2022-09-05 20:27:07,-34.9581772132861,-54.9446422401863,0.656168,5.3149608,6.539048437596,11.854009237596,9.186352,0,23.9019364604,26.4142724988,18,5,8.469,12.182093237596,0.984252,8.6345884,23.9019364604,0,0,0,289.2, 0.5, 0,0,0,1024,1024,1024,1024,0,0,0,0,304.1,0,0,99,4.239,4.235,0,0,0,0,4.078,72.86,11.854009237596,0.656168,6,P-GPS,
9000,2022-09-05 20:27:07,-34.9581772060664,-54.944642344011,0.656168,5.3149608,6.539048437596,11.854009237596,9.186352,0,23.9320545716,26.4454076704,18,5,8.469,12.182093237596,0.984252,8.6345884,23.9320545716,0,0,0,289.1, 0.2, 0,0,0,1024,1024,1024,1024,0,0,0,0,304.1,0,0,99,4.239,4.235,0,0,0,0,4.078,72.86,11.854009237596,0.656168,6,P-GPS,
9100,2022-09-05 20:27:07,-34.9581771983744,-54.944642418677,0.656168,5.3149608,6.539048437596,11.854009237596,9.186352,0,23.9540033912,26.4679142328,18,5,8.469,12.182093237596,0.984252,8.6345884,23.9540033912,0,0,0,289.2, 0, -0.2,0,0,1024,1024,1024,1024,0,0,0,0,304.1,0,0,99,4.239,4.235,0,0,0,0,4.078,72.86,11.854009237596,0.656168,6,P-GPS,
9200,2022-09-05 20:27:07,-34.9581772186811,-54.9446424286178,0.656168,5.3149608,6.539048437596,11.854009237596,9.186352,0,23.9542658584,26.475886674,18,5,8.469,12.182093237596,0.984252,8.6345884,23.9542658584,0,0,0,289.2, -0.4, -0.1,0,0,1024,1024,1024,1024,0,0,0,0,304.1,0,0,99,4.239,4.235,0,0,0,0,4.078,72.86,11.854009237596,0.656168,6,P-GPS,
9300,2022-09-05 20:27:08,-34.9581772071941,-54.9446428129599,0.984252,5.7086616,6.473431637596,12.182093237596,9.186352,0,24.0638459144,26.5909129244,18,5,8.469,12.182093237596,0.984252,8.6345884,24.0638459144,0,0,0,289.1, -0.4, -0.2,0,0,1024,1024,1024,1024,0,0,0,0,304.1,0,0,99,4.239,4.235,0,0,0,0,4.078,72.86,12.182093237596,0.984252,6,P-GPS,
9400,2022-09-05 20:27:08,-34.9581772217972,-54.9446427958954,0.984252,5.7086616,6.473431637596,12.182093237596,9.186352,0,24.0572186176,26.5982948144,18,5,8.469,12.182093237596,0.984252,8.6345884,24.0638459144,0,0,0,289.2, -0.9, -0.3,0,0,1024,1024,1024,1024,0,0,0,0,304.1,0,0,99,4.239,4.235,0,0,0,0,4.078,72.86,12.182093237596,0.984252,6,P-GPS,
9500,2022-09-05 20:27:08,-34.9581772363009,-54.9446427742419,0.984252,5.7086616,6.473431637596,12.182093237596,9.186352,0,24.0493446016,26.606628148,18,5,8.469,12.182093237596,0.984252,8.6345884,24.0638459144,0,0,0,289.2, -1.1, -0.3,0,0,1024,1024,1024,1024,0,0,0,0,304.1,0,0,99,4.239,4.235,0,0,0,0,4.078,72.86,12.182093237596,0.984252,6,P-GPS,
9600,2022-09-05 20:27:08,-34.958177198144,-54.9446427229542,0.984252,5.7086616,6.473431637596,12.182093237596,9.186352,0,24.0396333152,26.6273630568,18,5,8.469,12.182093237596,0.984252,8.6345884,24.0638459144,0,0,0,289.2, -1.2, -0.3,0,0,1024,1024,1024,1024,0,0,0,0,304.1,0,0,99,4.239,4.235,0,0,0,0,4.078,72.86,12.182093237596,0.984252,6,P-GPS,
9700,2022-09-05 20:27:08,-34.9581770690882,-54.9446427790608,0.984252,5.7086616,6.473431637596,12.182093237596,9.186352,0,24.071359038,26.67733025,18,5,8.47,12.182093237596,0.984252,8.6345884,24.071359038,0,0,0,289.3, -0.9, -0.2,0,0,1024,1024,1024,1024,0,0,0,0,304.1,0,0,99,4.234,4.23,0,0,0,0,3.914,72.86,12.182093237596,0.984252,6,P-GPS,
9800,2022-09-05 20:27:08,-34.9581770455743,-54.9446427083931,0.984252,5.7086616,6.473431637596,12.182093237596,9.186352,0,24.0544299036,26.700132088,18,5,8.47,12.182093237596,0.984252,8.6345884,24.071359038,0,0,0,289.2, -0.9, -0.1,0,0,1024,1024,1024,1024,0,0,0,0,304.1,0,0,99,4.234,4.23,0,0,0,0,3.914,72.86,12.182093237596,0.984252,6,P-GPS,
9900,2022-09-05 20:27:08,-34.9581770241651,-54.9446426276957,0.984252,5.7086616,6.473431637596,12.182093237596,9.186352,0,24.0343839712,26.7255257896,18,5,8.47,12.182093237596,0.984252,8.6345884,24.071359038,0,0,0,289.2, -0.9, 0,0,0,1024,1024,1024,1024,0,0,0,0,304.1,0,0,99,4.234,4.23,0,0,0,0,3.914,72.86,12.182093237596,0.984252,6,P-GPS,
10000,2022-09-05 20:27:08,-34.9581770504368,-54.944642603821,0.984252,5.7086616,6.473431637596,12.182093237596,9.186352,0,24.0244102176,26.7374680472,18,5,8.47,12.182093237596,0.984252,8.6345884,24.071359038,0,0,0,289.1, -0.9, 0,0,0,1024,1024,1024,1024,0,0,0,0,304.1,0,0,99,4.234,4.23,0,0,0,0,3.914,72.86,12.182093237596,0.984252,6,P-GPS,
10100,2022-09-05 20:27:08,-34.9581771543926,-54.9446426218786,0.984252,5.7086616,6.473431637596,12.182093237596,9.186352,0,24.0166018184,26.77575545,18,5,8.47,12.182093237596,0.984252,8.6345884,24.071359038,0,0,0,289, -1, -0.2,0,0,1024,1024,1024,1024,0,0,0,0,304.1,0,0,99,4.234,4.23,0,0,0,0,3.914,72.86,12.182093237596,0.984252,6,P-GPS,
10200,2022-09-05 20:27:08,-34.9581771562857,-54.9446425902425,0.984252,5.7086616,6.473431637596,12.182093237596,9.186352,0,24.0074482748,26.785269886,18,5,8.47,12.182093237596,0.984252,8.6345884,24.071359038,0,0,0,289.1, -1.2, -0.5,0,0,1024,1024,1024,1024,0,0,0,0,304.1,0,0,99,4.234,4.23,0,0,0,0,3.914,72.86,12.182093237596,0.984252,6,P-GPS,
10300,2022-09-05 20:27:09,-34.958177150078,-54.9446425549165,0.984252,5.7086616,6.473431637596,12.182093237596,9.186352,0,23.9982947312,26.7960638496,18,5,8.47,12.182093237596,0.984252,8.6345884,24.071359038,0,0,0,289.2, -1.3, -0.5,0,0,1024,1024,1024,1024,0,0,0,0,304.1,0,0,99,4.234,4.23,0,0,0,0,3.914,72.86,12.182093237596,0.984252,6,P-GPS,
10400,2022-09-05 20:27:09,-34.9581771322368,-54.9446425176463,0.984252,5.7086616,6.473431637596,12.182093237596,9.186352,0,23.9900270144,26.8089575508,18,5,8.47,12.182093237596,0.984252,8.6345884,24.071359038,0,0,0,289.3, -1.1, -0.5,0,0,1024,1024,1024,1024,0,0,0,0,304.1,0,0,99,4.234,4.23,0,0,0,0,3.914,72.86,12.182093237596,0.984252,6,P-GPS,
10500,2022-09-05 20:27:09,-34.958177111089,-54.9446425032524,0.984252,5.7086616,6.473431637596,12.182093237596,9.186352,0,23.9886162532,26.8178158188,18,5,8.47,12.182093237596,0.984252,8.6345884,24.071359038,0,0,0,289.3, -1.1, -0.2,0,0,1024,1024,1024,1024,0,0,0,0,304.1,0,0,99,4.234,4.23,0,0,0,0,3.914,72.86,12.182093237596,0.984252,6,P-GPS,
10600,2022-09-05 20:27:09,-34.9581770911113,-54.9446424683759,0.984252,5.6430448,6.539048437596,12.182093237596,9.186352,0,23.9812671716,26.8305126696,18,5,8.47,12.182093237596,0.984252,8.6345884,24.071359038,0,0,0,289.2, -1.1, -0.2,0,0,1024,1024,1024,1024,0,0,0,0,304.1,0,0,99,4.234,4.23,0,0,0,0,3.914,72.86,12.182093237596,0.984252,6,P-GPS,
10700,2022-09-05 20:27:09,-34.9581770645139,-54.9446424344506,0.984252,5.6430448,6.539048437596,12.182093237596,9.186352,0,23.975066384,26.8445546648,18,5,8.462,12.182093237596,0.984252,8.6345884,24.071359038,0,0,0,289.2, -1.1, -0.4,0,0,1024,1024,1024,1024,0,0,0,0,304.1,0,0,99,4.234,4.231,0,0,0,0,3.985,73.04,12.182093237596,0.984252,6,P-GPS,
10800,2022-09-05 20:27:09,-34.958177043406,-54.9446424046334,0.984252,5.6430448,6.539048437596,12.182093237596,9.186352,0,23.9692921056,26.8563328804,18,5,8.462,12.182093237596,0.984252,8.6345884,24.071359038,0,0,0,289.1, -1.1, -0.5,0,0,1024,1024,1024,1024,0,0,0,0,304.1,0,0,99,4.234,4.231,0,0,0,0,3.985,73.04,12.182093237596,0.984252,6,P-GPS,
10900,2022-09-05 20:27:09,-34.9581770188043,-54.9446423789189,0.984252,5.6430448,6.539048437596,12.182093237596,9.186352,0,23.9651582472,26.8681767128,19,5,8.462,12.182093237596,0.984252,8.6345884,24.071359038,0,0,0,289.1, -1.1, -0.7,0,0,1024,1024,1024,1024,0,0,0,0,304.1,0,0,99,4.234,4.231,0,0,0,0,3.985,73.04,12.182093237596,0.984252,6,P-GPS,
11000,2022-09-05 20:27:09,-34.9581770193221,-54.9446423278245,0.984252,5.6430448,6.539048437596,12.182093237596,9.186352,0,23.9507225512,26.8834326188,19,5,8.462,12.182093237596,0.984252,8.6345884,24.071359038,0,0,0,289.2, -1.2, -0.9,0,0,1024,1024,1024,1024,0,0,0,0,304.1,0,0,99,4.234,4.231,0,0,0,0,3.985,73.04,12.182093237596,0.984252,6,P-GPS,
11100,2022-09-05 20:27:09,-34.9581769985896,-54.944642306678,0.984252,5.6430448,6.539048437596,12.182093237596,9.186352,0,23.9473760944,26.8933079472,19,5,8.462,12.182093237596,0.984252,8.6345884,24.071359038,0,0,0,289.1, -1, -0.9,0,0,1024,1024,1024,1024,0,0,0,0,304.1,0,0,99,4.234,4.231,0,0,0,0,3.985,73.04,12.182093237596,0.984252,6,P-GPS,
11200,2022-09-05 20:27:09,-34.9581769861979,-54.9446422887929,0.984252,5.6430448,6.539048437596,12.182093237596,9.186352,0,23.943898404,26.9002961364,19,5,8.462,12.182093237596,0.984252,8.6345884,24.071359038,0,0,0,289.1, -1, -1,0,0,1024,1024,1024,1024,0,0,0,0,304.1,0,0,99,4.234,4.231,0,0,0,0,3.985,73.04,12.182093237596,0.984252,6,P-GPS,
11300,2022-09-05 20:27:10,-34.9581769776559,-54.9446422765995,0.984252,5.6430448,6.539048437596,12.182093237596,9.186352,0,23.9415361992,26.9050861628,19,5,8.462,12.182093237596,0.984252,8.6345884,24.071359038,0,0,0,289.2, -1, -1,0,0,1024,1024,1024,1024,0,0,0,0,304.1,0,0,99,4.234,4.231,0,0,0,0,3.985,73.04,12.182093237596,0.984252,6,P-GPS,
11400,2022-09-05 20:27:10,-34.9581769673365,-54.9446421972819,0.984252,5.6430448,6.539048437596,12.182093237596,9.186352,0,23.9205716316,26.9291019116,19,5,8.462,12.182093237596,0.984252,8.6345884,24.071359038,0,0,0,289.2, -1, -0.8,0,0,1024,1024,1024,1024,0,0,0,0,304.1,0,0,99,4.234,4.231,0,0,0,0,3.985,73.04,12.182093237596,0.984252,6,P-GPS,
11500,2022-09-05 20:27:10,-34.9581769247112,-54.944642187017,0.984252,5.6430448,6.539048437596,12.182093237596,9.186352,0,23.9230322616,26.9449811772,19,5,8.462,12.182093237596,0.984252,8.6345884,24.071359038,0,0,0,289.1, -1, -0.8,0,0,1024,1024,1024,1024,0,0,0,0,304.1,0,0,99,4.234,4.231,0,0,0,0,3.985,73.04,12.182093237596,0.984252,6,P-GPS,
11600,2022-09-05 20:27:10,-34.9581768755378,-54.9446422093917,0.984252,5.6430448,6.539048437596,12.182093237596,9.186352,0,23.9354994536,26.9641084744,19,5,8.462,12.182093237596,0.984252,8.6345884,24.071359038,0,0,0,289.1, -0.7, -1,0,0,1024,1024,1024,1024,0,0,0,0,304.1,0,0,99,4.234,4.231,0,0,0,0,3.985,73.04,12.182093237596,0.984252,6,P-GPS,
11700,2022-09-05 20:27:10,-34.9581768294016,-54.9446422386132,0.984252,5.6430448,6.539048437596,12.182093237596,9.186352,0,23.9495086404,26.9830717296,19,5,8.461,12.182093237596,0.984252,8.6345884,24.071359038,0,0,0,289.1, -0.6, -1,0,0,1024,1024,1024,1024,0,0,0,0,304.1,0,0,99,4.231,4.228,0,0,0,0,3.918,73.04,12.182093237596,0.984252,6,P-GPS,
11800,2022-09-05 20:27:10,-34.9581767091955,-54.9446421847069,0.984252,5.6430448,6.539048437596,12.182093237596,9.186352,0,23.9495414488,27.0297908912,19,5,8.461,12.182093237596,0.984252,8.6345884,24.071359038,0,0,0,289.1, -0.9, -0.7,0,0,1024,1024,1024,1024,0,0,0,0,304.1,0,0,99,4.231,4.228,0,0,0,0,3.918,73.04,12.182093237596,0.984252,6,P-GPS,
11900,2022-09-05 20:27:10,-34.9581766775044,-54.9446421437049,0.984252,5.6430448,6.539048437596,12.182093237596,9.186352,0,23.9420611336,27.0466544088,19,5,8.461,12.182093237596,0.984252,8.6345884,24.071359038,0,0,0,289.2, -1.1, -0.5,0,0,1024,1024,1024,1024,0,0,0,0,304.1,0,0,99,4.231,4.228,0,0,0,0,3.918,73.04,12.182093237596,0.984252,6,P-GPS,
12000,2022-09-05 20:27:10,-34.9581766506188,-54.944642072316,0.984252,5.6430448,6.539048437596,12.182093237596,9.186352,0,23.9254600832,27.0701452232,19,5,8.461,12.182093237596,0.984252,8.6345884,24.071359038,0,0,0,289.2, -1.3, -0.3,0,0,1024,1024,1024,1024,0,0,0,0,304.1,0,0,99,4.231,4.228,0,0,0,0,3.918,73.04,12.182093237596,0.984252,6,P-GPS,
12100,2022-09-05 20:27:10,-34.9581766194202,-54.9446419902127,0.984252,5.6430448,6.539048437596,12.182093237596,9.186352,0,23.9064312112,27.0972121532,19,5,8.461,12.182093237596,0.984252,8.6345884,24.071359038,0,0,0,289.2, -1.6, -0.3,0,0,1024,1024,1032,1024,0,0,1,0,304.1,0,0,99,4.231,4.228,0,0,0,0,3.918,73.04,12.182093237596,0.984252,6,P-GPS,
12200,2022-09-05 20:27:10,-34.9581766573532,-54.9446418698879,0.984252,5.6430448,6.539048437596,12.182093237596,9.186352,0,23.8678813412,27.1357620232,19,5,8.461,12.182093237596,0.984252,8.6345884,24.071359038,0,0,0,289.2, -1.7, -0.5,0,0,1024,1024,1163,1024,0,0,21,0,304.1,0,0,99,4.231,4.228,0,0,0,0,3.918,73.04,12.182093237596,0.984252,6,P-GPS,
12300,2022-09-05 20:27:11,-34.9581766618648,-54.9446418382152,0.984252,5.6430448,6.539048437596,12.182093237596,9.186352,0,23.858432522,27.1453748844,19,5,8.461,12.182093237596,0.984252,8.6345884,24.071359038,0,0,0,289.2, -1.6, -0.6,0,0,1024,1024,1235,1024,0,0,32,0,304.1,0,0,99,4.231,4.228,0,0,0,0,3.918,73.04,12.182093237596,0.984252,6,P-GPS,
12400,2022-09-05 20:27:11,-34.9581766260114,-54.9446418372692,0.984252,5.6430448,6.539048437596,12.182093237596,9.186352,0,23.8627304224,27.158465436,19,5,8.461,12.182093237596,0.984252,8.6345884,24.071359038,0,0,-0.223694,289.2, -1.6, -0.5,0,0,1024,1024,1306,1024,0,0,43,0,304.1,0,0,99,4.231,4.228,0,0,0,0,3.918,73.04,12.182093237596,0.984252,6,P-GPS,
12500,2022-09-05 20:27:11,-34.958176580936,-54.9446418463581,0.984252,5.6430448,6.539048437596,12.182093237596,9.186352,0,23.8710309476,27.1751321032,19,5,8.461,12.182093237596,0.984252,8.6345884,24.071359038,0,0,-0.671082,289.2, -1.5, -0.4,0,0,1024,1024,1255,1024,0,0,35,0,304.1,0,0,99,4.231,4.228,0,0,0,0,3.918,73.04,12.182093237596,0.984252,6,P-GPS,
12600,2022-09-05 20:27:11,-34.9581765572837,-54.9446418345984,0.984252,5.6430448,6.539048437596,12.182093237596,9.514436,0,23.8707684804,27.1844496888,19,5,8.461,12.182093237596,0.984252,8.6345884,24.071359038,0,0,-1.11847,289.3, -1.6, -0.5,0,0,1024,1024,1231,1024,0,0,31,0,304.1,0,0,99,4.231,4.228,0,0,0,0,3.918,73.04,12.182093237596,0.984252,6,P-GPS,
12700,2022-09-05 20:27:11,-34.9581765240284,-54.9446418627066,1.312336,5.9711288,6.539048437596,12.510177237596,9.514436,0,23.8829075884,27.1992134688,19,5,8.454,12.510177237596,1.312336,8.6345884,24.071359038,0,0,-1.342164,289.2, -1.8, -0.5,0,0,1189,1024,1088,1024,25,0,10,0,304.1,0,0,99,4.209,4.21,0,0,0,0,3.939,73.04,12.510177237596,1.312336,6,P-GPS,
12800,2022-09-05 20:27:11,-34.9581765245772,-54.944641877989,1.64042,6.2992128,6.539048437596,12.838261237596,9.84252,0,23.8871070636,27.2037738364,19,5,8.454,12.838261237596,1.64042,8.6345884,24.071359038,0,0,-1.342164,289.2, -1.9, -0.6,0,0,1189,1024,1088,1024,25,0,10,0,304.1,0,0,99,4.209,4.21,0,0,0,0,3.939,73.04,12.838261237596,1.64042,6,P-GPS,
12900,2022-09-05 20:27:11,-34.9581765282005,-54.9446419032382,1.64042,6.2992128,6.539048437596,12.838261237596,9.84252,0,23.893701552,27.211451002,19,5,8.454,12.838261237596,1.64042,8.6345884,24.071359038,0,0,-1.11847,289.3, -2.5, -0.6,0,0,1298,1024,1051,1024,42,0,4,0,304.1,0,0,99,4.209,4.21,0,0,0,0,3.939,73.04,12.838261237596,1.64042,6,P-GPS,
13000,2022-09-05 20:27:11,-34.9581765341281,-54.9446418979229,1.64042,6.2992128,6.539048437596,12.838261237596,10.170604,0,23.8914705808,27.2141412908,19,5,8.454,12.838261237596,1.64042,8.6345884,24.071359038,0,0,-0.671082,289.3, -4.6, -0.6,0,0,1393,1024,1043,1024,56,0,3,0,304.1,0,0,99,4.209,4.21,0,0,0,0,3.939,73.04,12.838261237596,1.64042,6,P-GPS,
13100,2022-09-05 20:27:11,-34.9581766056998,-54.9446419053863,1.64042,6.2992128,6.539048437596,12.838261237596,10.170604,0,23.8844167748,27.240322394,19,5,8.454,12.838261237596,1.64042,8.6345884,24.071359038,0,0,-0.223694,289.3, -7.1, -0.4,0,0,1397,1024,1039,1024,57,0,2,0,304.1,0,0,99,4.209,4.21,0,0,0,0,3.939,73.04,12.838261237596,1.64042,6,P-GPS,
13200,2022-09-05 20:27:11,-34.9581765739582,-54.9446420217129,1.64042,6.2992128,6.539048437596,12.838261237596,10.170604,0.223694,23.9210637576,27.2770021852,19,5,8.454,12.838261237596,1.64042,8.6345884,24.071359038,0,-0.223694,0,289.3, -8.7, -0.4,0,0,1396,1024,1062,1024,56,0,6,0,304.1,0,0,99,4.209,4.21,0,0,0,0,3.939,73.04,12.838261237596,1.64042,6,P-GPS,
13300,2022-09-05 20:27:12,-34.9581765003932,-54.944642259399,1.64042,6.2992128,6.539048437596,12.838261237596,10.170604,0.4921268,23.9970152036,27.3529536312,19,5,8.454,12.838261237596,1.64042,8.6345884,24.071359038,0.223694,-0.447388,0,289.3, -9, -0.6,0,0,1396,1024,1125,1024,56,0,15,0,304.1,0,0,99,4.209,4.21,0,0,0,0,3.939,73.04,12.838261237596,1.64042,6,P-GPS,
13400,2022-09-05 20:27:12,-34.9581763862572,-54.9446426114465,1.64042,6.397638,6.440623237596,12.838261237596,10.170604,0.7158208,24.1102041836,27.4661754196,19,5,8.454,12.838261237596,1.64042,8.6345884,24.1102041836,0.223694,-0.671082,0,289.3, -8.9, -0.8,0,0,1395,1024,1101,1024,56,0,12,0,304.1,0,0,99,4.209,4.21,0,0,0,0,3.939,73.04,12.838261237596,1.64042,6,P-GPS,
13500,2022-09-05 20:27:12,-34.9581762449335,-54.9446431156012,1.968504,6.725722,6.440623237596,13.166345237596,10.170604,1.2079476,24.2694889656,27.62549301,19,5,8.454,13.166345237596,1.968504,8.6345884,24.2694889656,0.447388,-1.11847,0,289.2, -8.6, -0.9,0,0,1392,1024,1090,1024,56,0,10,0,304.1,0,0,99,4.209,4.21,0,0,0,0,3.939,73.04,13.166345237596,1.968504,6,P-GPS,
13600,2022-09-05 20:27:12,-34.9581760207676,-54.9446437300562,1.968504,6.7913388,6.375006437596,13.166345237596,10.170604,1.4092722,24.4702107568,27.826608502,19,5,8.454,13.166345237596,1.968504,8.6345884,24.4702107568,0.447388,-1.342164,0,289.2, -8.5, -1.2,0,0,1392,1024,1090,1024,56,0,10,0,304.1,0,0,99,4.209,4.21,0,0,0,0,3.939,73.04,13.166345237596,1.968504,6,P-GPS,
13700,2022-09-05 20:27:12,-34.9581757484877,-54.94464448973,1.968504,6.7913388,6.375006437596,13.166345237596,10.170604,1.6329662,24.7177829432,28.0745415808,19,5,8.454,13.166345237596,1.968504,8.6345884,24.7177829432,0.447388,-1.565858,0,289.2, -8.2, -1.1,0,0,1358,1024,1110,1024,51,0,13,0,304.1,0,0,99,4.209,4.21,0,0,0,0,3.939,73.04,13.166345237596,1.968504,6,P-GPS,
13800,2022-09-05 20:27:12,-34.9581754490095,-54.9446453221672,1.64042,6.56168,6.276581237596,12.838261237596,10.170604,1.901399,24.9892068364,28.3463919832,19,5,8.473,13.166345237596,1.968504,8.6345884,24.9892068364,0.671082,-1.789552,0,289.1, -7.6, -1.1,0,0,1351,1024,1102,1024,50,0,12,0,304.1,0,0,99,4.229,4.225,0,0,0,0,4.078,73.04,12.838261237596,1.64042,6,P-GPS,
13900,2022-09-05 20:27:12,-34.9581749822624,-54.9446463826634,1.64042,6.5944884,6.243772837596,12.838261237596,10.170604,2.125093,25.3459325696,28.7063329396,19,5,8.473,13.166345237596,1.968504,8.6345884,25.3459325696,0.671082,-2.013246,-0.223694,289.1, -7.1, -1.2,0,0,1348,1024,1100,1024,49,0,12,0,304.1,0,0,99,4.229,4.225,0,0,0,0,4.078,73.04,12.838261237596,1.64042,6,P-GPS,
14000,2022-09-05 20:27:12,-34.9581746656327,-54.9446474342274,1.968504,6.9881892,6.178156037596,13.166345237596,10.170604,2.125093,25.680939142,29.0413067036,19,5,8.473,13.166345237596,1.968504,8.6345884,25.680939142,0.671082,-2.013246,-0.223694,289.2, -6.7, -0.9,0,0,1342,1024,1100,1024,48,0,12,0,304.1,0,0,99,4.229,4.225,0,0,0,0,4.078,73.04,13.166345237596,1.968504,6,P-GPS,
14100,2022-09-05 20:27:12,-34.9581743197495,-54.9446486118445,1.968504,7.1194228,6.046922437596,13.166345237596,10.170604,2.3264176,26.0549220936,29.4153880804,19,5,8.473,13.166345237596,1.968504,8.6345884,26.0549220936,0.671082,-2.23694,0,289.1, -6.7, -0.9,0,0,1342,1024,1101,1024,48,0,12,0,304.1,0,0,99,4.229,4.225,0,0,0,0,4.078,73.04,13.166345237596,1.968504,6,P-GPS,
14200,2022-09-05 20:27:12,-34.958173957884,-54.9446498067823,1.968504,7.1850396,5.981305637596,13.166345237596,10.170604,2.4158952,26.435860426,29.7962936044,19,5,8.473,13.166345237596,1.968504,8.6345884,26.435860426,0.894776,-2.23694,0,289.1, -6.6, -1.1,0,0,1345,1024,1100,1024,49,0,12,0,304.1,0,0,99,4.229,4.225,0,0,0,0,4.078,73.04,13.166345237596,1.968504,6,P-GPS,
14300,2022-09-05 20:27:13,-34.9581735570686,-54.944651117043,1.968504,7.217848,5.948497237596,13.166345237596,10.170604,2.6172198,26.8540362924,30.2145022792,19,5,8.473,13.166345237596,1.968504,8.6345884,26.8540362924,0.894776,-2.460634,0,289.2, -6.7, -1,0,0,1345,1024,1096,1024,49,0,11,0,304.1,0,0,99,4.229,4.225,0,0,0,0,4.078,73.04,13.166345237596,1.968504,6,P-GPS,
14400,2022-09-05 20:27:13,-34.9581729924936,-54.9446526338399,1.968504,7.38189,5.784455237596,13.166345237596,10.498688,2.6172198,27.3511163608,30.7126322164,19,5,8.473,13.166345237596,1.968504,8.6345884,27.3511163608,0.894776,-2.460634,0,289.2, -6.9, -1.1,0,0,1345,1024,1096,1024,49,0,11,0,304.1,0,0,99,4.229,4.225,0,0,0,0,4.078,73.04,13.166345237596,1.968504,6,P-GPS,
14500,2022-09-05 20:27:13,-34.9581724965917,-54.9446540177893,1.968504,7.4803152,5.686030037596,13.166345237596,10.498688,2.8185444,27.802166244,31.1642726508,19,5,8.473,13.166345237596,1.968504,8.6345884,27.802166244,0.894776,-2.684328,0,289.2, -7, -1.2,0,0,1345,1024,1096,1024,49,0,11,0,304.1,0,0,99,4.229,4.225,0,0,0,0,4.078,73.04,13.166345237596,1.968504,6,P-GPS,
14600,2022-09-05 20:27:13,-34.9581720413423,-54.9446553680172,1.968504,7.545932,5.620413237596,13.166345237596,10.498688,2.8185444,28.2385835808,31.6008540296,19,5,8.473,13.166345237596,1.968504,8.6345884,28.2385835808,0.894776,-2.684328,0,289.2, -6.9, -1.3,0,0,1345,1024,1096,1024,49,0,11,0,304.1,0,0,99,4.229,4.225,0,0,0,0,4.078,73.04,13.166345237596,1.968504,6,P-GPS,
14700,2022-09-05 20:27:13,-34.9581715556018,-54.9446568423644,1.968504,7.6443572,5.521988037596,13.166345237596,10.498688,3.0422384,28.7136492128,32.0760180868,19,5,8.473,13.166345237596,1.968504,8.6345884,28.7136492128,0.894776,-2.908022,0,289.2, -6.8, -1.2,0,0,1344,1024,1097,1024,48,0,11,0,304.1,0,0,99,4.229,4.225,0,0,0,0,4.078,73.04,13.166345237596,1.968504,6,P-GPS,
14800,2022-09-05 20:27:13,-34.9581711991208,-54.9446581330414,1.968504,7.7427824,5.423562837596,13.166345237596,10.498688,3.0422384,29.1206374148,32.483268756,19,5,8.448,13.166345237596,1.968504,8.6345884,29.1206374148,0.894776,-2.908022,0,289.2, -6.6, -1.3,0,0,1342,1024,1098,1024,48,0,11,0,304.1,0,0,99,4.225,4.221,0,0,0,0,3.964,73.04,13.166345237596,1.968504,6,P-GPS,
14900,2022-09-05 20:27:13,-34.9581707470143,-54.9446596613262,1.968504,7.8412076,5.325137637596,13.166345237596,10.498688,3.1093466,29.6063985852,32.96916116,19,5,8.448,13.166345237596,1.968504,8.6345884,29.6063985852,1.11847,-2.908022,0,289.2, -6.7, -1.2,0,0,1342,1024,1097,1024,48,0,11,0,304.1,0,0,99,4.225,4.221,0,0,0,0,3.964,73.04,13.166345237596,1.968504,6,P-GPS,
15000,2022-09-05 20:27:13,-34.9581703183589,-54.9446611564854,1.968504,7.9396328,5.226712437596,13.166345237596,10.826772,3.3330406,30.079889414,33.442914456,19,5,8.448,13.166345237596,1.968504,8.6345884,30.079889414,1.11847,-3.131716,0,289.2, -6.7, -1,0,0,1341,1024,1098,1024,48,0,11,0,304.1,0,0,99,4.225,4.221,0,0,0,0,3.964,73.04,13.166345237596,1.968504,6,P-GPS,
15100,2022-09-05 20:27:13,-34.9581698593706,-54.9446627741017,1.968504,8.038058,5.128287237596,13.166345237596,10.826772,3.3330406,30.5915692204,33.954725496,19,5,8.448,13.166345237596,1.968504,8.6345884,30.5915692204,1.11847,-3.131716,0,289.2, -6.8, -1,0,0,1342,1024,1103,1024,48,0,12,0,304.1,0,0,99,4.225,4.221,0,0,0,0,3.964,73.04,13.166345237596,1.968504,6,P-GPS,
15200,2022-09-05 20:27:13,-34.9581694159355,-54.9446642852853,1.968504,8.1364832,5.029862037596,13.166345237596,10.826772,3.5343652,31.0714576872,34.434712388,19,5,8.448,13.166345237596,1.968504,8.6345884,31.0714576872,1.11847,-3.35541,0,289.2, -6.8, -0.9,0,0,1342,1024,1116,1024,48,0,14,0,304.1,0,0,99,4.225,4.221,0,0,0,0,3.964,73.04,13.166345237596,1.968504,6,P-GPS,
15300,2022-09-05 20:27:14,-34.9581688899872,-54.9446660051323,1.968504,8.2349084,4.931436837596,13.166345237596,10.826772,3.5343652,31.6203750276,34.98359692,19,5,8.448,13.166345237596,1.968504,8.6345884,31.6203750276,1.11847,-3.35541,0,289.2, -6.7, -0.8,0,0,1342,1024,1115,1024,48,0,14,0,304.1,0,0,99,4.225,4.221,0,0,0,0,3.964,73.04,13.166345237596,1.968504,6,P-GPS,
15400,2022-09-05 20:27:14,-34.95816838849,-54.9446676563865,1.968504,8.3989504,4.767394837596,13.166345237596,10.826772,3.5343652,32.1469170392,35.51017174,19,5,8.448,13.166345237596,1.968504,8.6345884,32.1469170392,1.11847,-3.35541,-0.223694,289.2, -6.6, -0.9,0,0,1342,1024,1115,1024,48,0,14,0,304.1,0,0,99,4.225,4.221,0,0,0,0,3.964,73.04,13.166345237596,1.968504,6,P-GPS,
15500,2022-09-05 20:27:14,-34.9581678512712,-54.9446694261884,1.968504,8.4317588,4.734586437596,13.166345237596,10.826772,3.7580592,32.7112543276,36.07447622,19,5,8.448,13.166345237596,1.968504,8.6345884,32.7112543276,1.11847,-3.579104,-0.223694,289.2, -6.5, -0.8,0,0,1340,1024,1119,1024,48,0,14,0,304.1,0,0,99,4.225,4.221,0,0,0,0,3.964,73.04,13.166345237596,1.968504,6,P-GPS,
15600,2022-09-05 20:27:14,-34.9581674116369,-54.9446712634542,1.968504,8.5958008,4.570544437596,13.166345237596,11.154856,3.7580592,33.281825212,36.646654716,19,5,8.448,13.166345237596,1.968504,8.6345884,33.281825212,1.11847,-3.579104,-0.223694,289.2, -6.4, -0.8,0,0,1338,1024,1118,1024,48,0,14,0,304.1,0,0,99,4.225,4.221,0,0,0,0,3.964,73.04,13.166345237596,1.968504,6,P-GPS,
15700,2022-09-05 20:27:14,-34.9581668803407,-54.9446732010377,1.968504,8.694226,4.472119237596,13.166345237596,11.154856,3.7580592,33.892389536,37.257547124,19,5,8.448,13.166345237596,1.968504,8.6345884,33.892389536,1.11847,-3.579104,-0.223694,289.3, -6.4, -0.9,0,0,1338,1024,1115,1024,48,0,14,0,304.1,0,0,99,4.225,4.221,0,0,0,0,3.964,73.04,13.166345237596,1.968504,6,P-GPS,
15800,2022-09-05 20:27:14,-34.9581663866535,-54.9446750351363,1.968504,8.858268,4.308077237596,13.166345237596,11.154856,4.026492,34.469161208,37.834974964,19,5,8.44,13.166345237596,1.968504,8.6345884,34.469161208,1.342164,-3.802798,-0.223694,289.2, -6.3, -0.8,0,0,1340,1024,1113,1024,48,0,13,0,304.1,0,0,99,4.22,4.217,0,0,0,0,3.948,73.04,13.166345237596,1.968504,6,P-GPS,
15900,2022-09-05 20:27:14,-34.9581658606938,-54.9446769808836,1.968504,8.9566932,4.209652037596,13.166345237596,11.154856,4.026492,35.081365952,38.447507792,19,5,8.44,13.166345237596,1.968504,8.6345884,35.081365952,1.342164,-3.802798,-0.223694,289.2, -6.4, -1,0,0,1312,1024,1111,1024,44,0,13,0,304.1,0,0,99,4.22,4.217,0,0,0,0,3.948,73.04,13.166345237596,1.968504,6,P-GPS,
16000,2022-09-05 20:27:14,-34.95816529266,-54.9446787737449,1.968504,9.0879268,4.078418437596,13.166345237596,11.48294,4.026492,35.65616912,39.02231096,19,5,8.44,13.166345237596,1.968504,8.6345884,35.65616912,1.342164,-3.802798,-0.223694,289.2, -6.3, -1.1,0,0,1290,1024,1112,1024,40,0,13,0,304.1,0,0,99,4.22,4.217,0,0,0,0,3.948,73.04,13.166345237596,1.968504,6,P-GPS,
16100,2022-09-05 20:27:14,-34.958164675851,-54.9446805019439,1.968504,9.186352,3.979993237596,13.166345237596,11.48294,4.026492,36.21883318,39.585959272,19,5,8.44,13.166345237596,1.968504,8.6345884,36.21883318,1.342164,-3.802798,-0.223694,289.2, -5.7, -1,0,0,1270,1024,1113,1024,37,0,13,0,304.1,0,0,99,4.22,4.217,0,0,0,0,3.948,73.04,13.166345237596,1.968504,6,P-GPS,
16200,2022-09-05 20:27:14,-34.958164124367,-54.944682400433,1.968504,9.3175856,3.848759637596,13.166345237596,11.48294,4.026492,36.821195404,40.188321496,19,5,8.44,13.166345237596,1.968504,8.6345884,36.821195404,1.342164,-3.802798,-0.223694,289.2, -5.1, -0.9,0,0,1259,1024,1118,1024,36,0,14,0,304.1,0,0,99,4.22,4.217,0,0,0,0,3.948,73.04,13.166345237596,1.968504,6,P-GPS,
16300,2022-09-05 20:27:15,-34.9581635498813,-54.9446844217244,2.296588,9.7440948,3.750334437596,13.494429237596,11.48294,4.026492,37.46063112,40.828085296,19,5,8.44,13.494429237596,2.296588,8.6345884,37.46063112,1.342164,-3.802798,-0.223694,289.2, -4.5, -0.9,0,0,1259,1024,1118,1024,36,0,14,0,304.1,0,0,99,4.22,4.217,0,0,0,0,3.948,73.04,13.494429237596,2.296588,6,P-GPS,
16400,2022-09-05 20:27:15,-34.9581629546443,-54.9446863271021,2.296588,9.8753284,3.619100837596,13.494429237596,11.48294,4.026492,38.070539276,41.437665368,19,5,8.44,13.494429237596,2.296588,8.6345884,38.070539276,1.342164,-3.802798,-0.223694,289.2, -4.1, -1,0,0,1257,1024,1120,1024,35,0,15,0,304.1,0,0,99,4.22,4.217,0,0,0,0,3.948,73.04,13.494429237596,2.296588,6,P-GPS,
16500,2022-09-05 20:27:15,-34.9581622430468,-54.9446883316895,2.296588,10.0393704,3.455058837596,13.494429237596,11.48294,4.026492,38.722770268,42.090880612,19,5,8.44,13.494429237596,2.296588,8.6345884,38.722770268,1.342164,-3.802798,-0.223694,289.2, -4, -1,0,0,1252,1024,1123,1024,35,0,15,0,304.1,0,0,99,4.22,4.217,0,0,0,0,3.948,73.04,13.494429237596,2.296588,6,P-GPS,
