time(millisecond),datetime(utc),latitude,longitude,height_above_takeoff(feet),height_above_ground_at_drone_location(feet),ground_elevation_at_drone_location(feet),altitude_above_seaLevel(feet),height_sonar(feet),speed(mph),distance(feet),mileage(feet),satellites,gpslevel,voltage(v),max_altitude(feet),max_ascent(feet),max_speed(mph),max_distance(feet), xSpeed(mph), ySpeed(mph), zSpeed(mph), compass_heading(degrees), pitch(degrees), roll(degrees),isPhoto,isVideo,rc_elevator,rc_aileron,rc_throttle,rc_rudder,rc_elevator(percent),rc_aileron(percent),rc_throttle(percent),rc_rudder(percent),gimbal_heading(degrees),gimbal_pitch(degrees),gimbal_roll(degrees),battery_percent,voltageCell1,voltageCell2,voltageCell3,voltageCell4,voltageCell5,voltageCell6,current(A),battery_temperature(f),altitude(feet),ascent(feet),flycStateRaw,flycState,message
0,2022-10-28 01:19:44,-34.9065378844564,-56.16311405458,0,0,119.6402617025,119.6402617025,0,0,0,0,13,4,0,119.6402617025,0,0,0,0,0,0,283.2, -10.3, -3.2,0,1,364,364,364,1684,-100,-100,-100,100,295,-0.1,0,100,4.334,4.331,0,0,0,0,0,74.3,119.6402617025,0,41,Motors_Started,"Aeronave en Zona de altitud restringida (150). Vuela con precaución (Code: 190001). Error de calibración del estabilizador. Reinicia la aeronave o contacta con la Asistencia DJI (Code: 40011)"
100,2022-10-28 01:19:44,-34.9065379715058,-56.1631139940117,0,0,119.6402617025,119.6402617025,0,0,0.03656660222,0.03656660222,13,4,0,119.6402617025,0,0,0.03656660222,0,0,-0.223694,283.6, -9.2, -3.8,0,1,364,364,364,1684,-100,-100,-100,100,295.4,-0.1,0,100,4.334,4.331,0,0,0,0,0,74.3,119.6402617025,0,41,Motors_Started,"Error de calibración del estabilizador. Reinicia la aeronave o contacta con la Asistencia DJI (Code: 40011)"
200,2022-10-28 01:19:44,-34.906538018194,-56.1631137743367,0,0,119.6402617025,119.6402617025,0,0,0.097014766884,0.104466538776,13,4,0,119.6402617025,0,0,0.097014766884,0,0,-0.223694,284.2, -7.4, -4,0,1,364,364,364,1684,-100,-100,-100,100,296,-0.1,0,100,4.334,4.331,0,0,0,0,0,74.3,119.6402617025,0,41,Motors_Started,"Error de calibración del estabilizador. Reinicia la aeronave o contacta con la Asistencia DJI (Code: 40011)"
300,2022-10-28 01:19:45,-34.9065374839347,-56.1631136291969,0,-0.06561680000001,119.7058785025,119.6402617025,0.328084,0,0.19378773586,0.304169629156,13,4,0,119.6402617025,0,0,0.19378773586,0,0,-0.223694,284.8, -5.6, -4,0,1,364,364,364,1684,-100,-100,-100,100,296.8,-0.1,0,100,4.334,4.331,0,0,0,0,0,74.3,119.6402617025,0,41,Motors_Started,
400,2022-10-28 01:19:45,-34.9065374846266,-56.1631134021337,0,-0.098425200000004,119.7386869025,119.6402617025,0.328084,0,0.2437007952,0.37210959196,13,4,0,119.6402617025,0,0,0.2437007952,0,0,0,284.2, -5.7, -3.9,0,1,364,364,364,1684,-100,-100,-100,100,296.5,-0.1,0,100,4.334,4.331,0,0,0,0,0,74.3,119.6402617025,0,41,Motors_Started,
500,2022-10-28 01:19:45,-34.9065375002253,-56.16311316447,0,-0.032808400000017,119.6730701025,119.6402617025,0.328084,0.223694,0.300969825904,0.44344817692,13,4,0,119.6402617025,0,0.223694,0.300969825904,-0.223694,0,0,284.4, -5.7, -3.9,0,1,1024,1024,702,1024,0,0,-49,0,296.5,-0.1,0,100,4.334,4.331,0,0,0,0,0,74.3,119.6402617025,0,41,Motors_Started,"Setting new Return-To-Home altitude to 100m (328 ft). Data Recorder File Index is 64. Setting new Maximum Flight Altitude to 120m (394 ft)"
600,2022-10-28 01:19:45,-34.9065375541647,-56.163112809783,0,-0.032808400000017,119.6730701025,119.6402617025,0.328084,0.223694,0.39146326712,0.55138125124,13,4,0,119.6402617025,0,0.223694,0.39146326712,-0.223694,0,0,284.9, -5.5, -3.9,0,1,1024,1024,1394,1024,0,0,56,0,297,-0.1,0,100,4.334,4.331,0,0,0,0,0,74.3,119.6402617025,0,41,Motors_Started,"Error de calibración del estabilizador. Reinicia la aeronave o contacta con la Asistencia DJI (Code: 40011)"
700,2022-10-28 01:19:45,-34.9065375864714,-56.1631124776054,0,-0.06561680000001,119.7058785025,119.6402617025,0.328084,0,0.48420605224,0.65146983712,13,4,0,119.6402617025,0,0.223694,0.48420605224,0,0,0,284.6, -5.1, -3.2,0,1,1024,1024,1684,1024,0,0,100,0,296.9,-0.1,0,100,4.334,4.331,0,0,0,0,0,74.3,119.6402617025,0,41,Motors_Started,
800,2022-10-28 01:19:45,-34.906537263638,-56.1631119564914,0,-0.1312336,119.7714953025,119.6402617025,0.328084,0.223694,0.66737863028,0.84687994836,13,4,0,119.6402617025,0,0.223694,0.66737863028,-0.223694,0,0,284.1, -5.3, -2.6,0,1,1024,1024,1684,1024,0,0,100,0,296.5,-0.1,0,100,4.334,4.331,0,0,0,0,0,74.3,119.6402617025,0,41,Motors_Started,
900,2022-10-28 01:19:45,-34.9065372325016,-56.1631116865039,0,-0.1312336,119.7714953025,119.6402617025,0.328084,0,0.7474081604,0.92845475412,13,4,0,119.6402617025,0,0.223694,0.7474081604,0,0,0,284.4, -5, -2.2,0,1,1024,1024,1684,1012,0,0,100,-2,296.8,-0.1,0,100,4.334,4.331,0,0,0,0,0,74.3,119.6402617025,0,41,Motors_Started,
1000,2022-10-28 01:19:45,-34.9065371310351,-56.1631114517548,0,-0.1312336,119.7714953025,119.6402617025,0.328084,0,0.82587601068,1.00785436296,13,4,0,119.6402617025,0,0.223694,0.82587601068,0,0,0,285, -5.4, -2.4,0,1,1024,1024,1684,1009,0,0,100,-2,297.2,-0.1,0,100,4.334,4.331,0,0,0,0,0,74.3,119.6402617025,0,41,Motors_Started,
1100,2022-10-28 01:19:45,-34.9065370215711,-56.1631112315862,0,-0.1312336,119.7714953025,119.6402617025,0.328084,0,0.9014271942,1.084891767,13,4,8.68,119.6402617025,0,0.223694,0.9014271942,0,0,0,285, -5.5, -2.3,0,1,1024,1024,1684,1010,0,0,100,-2,297.3,-0.1,0,100,4.334,4.331,0,0,0,0,0.99,74.3,119.6402617025,0,10,Assisted_Takeoff,
1200,2022-10-28 01:19:45,-34.9065364090198,-56.1631112959831,0,-0.19685040000001,119.8371121025,119.6402617025,0.328084,0,0.98542325988,1.30920935948,13,4,8.68,119.6402617025,0,0.223694,0.98542325988,0,0,0,284.8, -3.3, -1.7,0,1,1024,1024,1684,1022,0,0,100,-0,297.3,-0.1,0,100,4.334,4.331,0,0,0,0,0.99,74.3,119.6402617025,0,10,Assisted_Takeoff,
1300,2022-10-28 01:19:46,-34.906536300676,-56.1631110859789,0,-0.19685040000001,119.8371121025,119.6402617025,0.328084,0,1.0596457032,1.38344492616,13,4,8.68,119.6402617025,0,0.223694,1.0596457032,0,0,-0.223694,284.9, -2.1, -1.1,0,1,1024,1024,1684,1016,0,0,100,-1,297.4,0,0,100,4.334,4.331,0,0,0,0,0.99,74.3,119.6402617025,0,6,P-GPS,"Error de calibración del estabilizador. Reinicia la aeronave o contacta con la Asistencia DJI (Code: 40011)"
1400,2022-10-28 01:19:46,-34.9065361886123,-56.1631108774816,0,-0.19685040000001,119.8371121025,119.6402617025,0.328084,0,1.1342356006,1.45803154272,13,4,8.68,119.6402617025,0,0.223694,1.1342356006,0,0,-0.223694,284.9, -2.2, -0.3,0,1,1024,1024,1684,1024,0,0,100,0,297.5,0,0,100,4.334,4.331,0,0,0,0,0.99,74.3,119.6402617025,0,6,P-GPS,
1500,2022-10-28 01:19:46,-34.9065360723427,-56.1631106754924,0,-0.19685040000001,119.8371121025,119.6402617025,0.328084,0,1.20803153472,1.53187012776,13,4,8.68,119.6402617025,0,0.223694,1.20803153472,0,0,0,284.9, -1.7, 0.9,0,1,1024,1024,1024,1024,0,0,0,0,297.5,0,0,100,4.334,4.331,0,0,0,0,0.99,74.3,119.6402617025,0,6,P-GPS,
1600,2022-10-28 01:19:46,-34.9065355779771,-56.1631107336815,0,-0.19685040000001,119.8371121025,119.6402617025,0.328084,0,1.30210306004,1.71307748264,13,4,8.68,119.6402617025,0,0.223694,1.30210306004,0,0,0,284.8, -1.2, 2,0,1,1024,1024,1024,1024,0,0,0,0,297.5,0,0,100,4.334,4.331,0,0,0,0,0.99,74.3,119.6402617025,0,6,P-GPS,
1700,2022-10-28 01:19:46,-34.9065354123624,-56.1631105478242,0,-0.2296588,119.8699205025,119.6402617025,0.328084,0,1.3836286532,1.79519690784,13,4,8.68,119.6402617025,0,0.223694,1.3836286532,0,0,0,284.3, -0.8, 1.4,0,1,1024,1024,1024,1024,0,0,0,0,297.4,-0.3,0.1,100,4.334,4.331,0,0,0,0,0.99,74.3,119.6402617025,0,6,P-GPS,
1800,2022-10-28 01:19:46,-34.9065352284672,-56.1631103345973,0,-0.26246719999999,119.9027289025,119.6402617025,0.328084,0,1.47577432544,1.88778221264,13,4,8.68,119.6402617025,0,0.223694,1.47577432544,0,0,-0.223694,284, -1.8, 1,0,1,1024,1024,1024,1024,0,0,0,0,297.5,0,0,100,4.334,4.331,0,0,0,0,0.99,74.3,119.6402617025,0,6,P-GPS,
1900,2022-10-28 01:19:46,-34.9065350225474,-56.1631101373481,0,-0.26246719999999,119.9027289025,119.6402617025,0.328084,0,1.56972117884,1.98332027344,13,4,8.68,119.6402617025,0,0.223694,1.56972117884,0,0,-0.447388,284.8, -1.3, 0.2,0,1,1024,1024,1189,1024,0,0,25,0,297.5,0,0,100,4.334,4.331,0,0,0,0,0.99,74.3,119.6402617025,0,6,P-GPS,
2000,2022-10-28 01:19:46,-34.9065345909704,-56.1631100824888,0,-0.26246719999999,119.9027289025,119.6402617025,0.656168,0,1.69008863676,2.1416339268,13,4,8.68,119.6402617025,0,0.223694,1.69008863676,0,0,-0.671082,284.9, -0.7, -0.5,0,1,1024,1024,1543,1024,0,0,79,0,297.5,0,0,100,4.334,4.331,0,0,0,0,0.99,74.3,119.6402617025,0,6,P-GPS,
2100,2022-10-28 01:19:46,-34.90653438826,-56.1631099481924,0.328084,0.032808399999989,119.9355373025,119.9683457025,0.656168,0,1.77108273384,2.225803877,13,4,8.635,119.9683457025,0.328084,0.223694,1.77108273384,0,0,-1.11847,284.9, 0, -0.9,0,1,1024,1024,1522,1024,0,0,75,0,297.5,0,0,100,4.278,4.259,0,0,0,0,1.908,74.3,119.9683457025,0.328084,6,P-GPS,
2200,2022-10-28 01:19:46,-34.9065342256139,-56.16310989642,0.328084,0.032808399999989,119.9355373025,119.9683457025,0.656168,0,1.82481633136,2.28713589996,13,4,8.635,119.9683457025,0.328084,0.223694,1.82481633136,0,0,-1.565858,284.9, 0, -0.9,0,1,1024,1024,1024,1024,0,0,0,0,297.5,0,0,100,4.278,4.259,0,0,0,0,1.908,74.3,119.9683457025,0.328084,6,P-GPS,
2300,2022-10-28 01:19:47,-34.9065340858262,-56.1631098751093,0.656168,0.36089239999999,119.9355373025,120.2964297025,0.984252,0,1.866715939,2.3385335394,13,4,8.635,120.2964297025,0.656168,0.223694,1.866715939,0,0,-2.013246,284.9, -0.2, -0.7,0,1,1024,1024,1024,1024,0,0,0,0,297.5,0,0,100,4.278,4.259,0,0,0,0,1.908,74.3,120.2964297025,0.656168,6,P-GPS,
2400,2022-10-28 01:19:47,-34.9065339447828,-56.1631099553978,0.984252,0.68897639999999,119.9355373025,120.6245137025,1.64042,0,1.8895505854,2.3953248798,13,4,8.635,120.6245137025,0.984252,0.223694,1.8895505854,0,0,-1.789552,284.9, -0.2, -0.9,0,1,1024,1024,1024,1024,0,0,0,0,297.5,0,0,100,4.278,4.259,0,0,0,0,1.908,74.3,120.6245137025,0.984252,6,P-GPS,
2500,2022-10-28 01:19:47,-34.9065338336481,-56.1631106790024,1.312336,1.0170604,119.9355373025,120.9525977025,1.968504,0,1.79008207828,2.61559719656,13,4,8.635,120.9525977025,1.312336,0.223694,1.8895505854,0,0,-1.342164,284.9, -0.1, -1.2,0,1,1024,1024,1024,1024,0,0,0,0,297.5,0,0,100,4.278,4.259,0,0,0,0,1.908,74.3,120.9525977025,1.312336,6,P-GPS,
2600,2022-10-28 01:19:47,-34.9065337368063,-56.1631107684472,1.312336,1.0170604,119.9355373025,120.9525977025,2.296588,0,1.8046424462,2.65992134496,13,4,8.635,120.9525977025,1.312336,0.223694,1.8895505854,0,0,-0.894776,284.9, -0.4, -1.5,0,1,1024,1024,1024,1024,0,0,0,0,297.5,0,0,100,4.278,4.259,0,0,0,0,1.908,74.3,120.9525977025,1.312336,6,P-GPS,
2700,2022-10-28 01:19:47,-34.9065336552893,-56.1631107049722,1.312336,1.0170604,119.9355373025,120.9525977025,2.296588,0,1.83993116124,2.69521006,12,4,8.635,120.9525977025,1.312336,0.223694,1.8895505854,0,0,-0.447388,284.9, -0.5, -2.3,0,1,1024,1024,1024,1024,0,0,0,0,297.5,0,0,100,4.278,4.259,0,0,0,0,1.908,74.3,120.9525977025,1.312336,6,P-GPS,
2800,2022-10-28 01:19:47,-34.906533587979,-56.1631101934375,1.312336,1.0170604,119.9355373025,120.9525977025,2.624672,0,1.9472933694,2.85021990748,12,4,8.635,120.9525977025,1.312336,0.223694,1.9472933694,0,0,-0.223694,284.9, -0.6, -2.3,0,1,1024,1024,1024,1024,0,0,0,0,297.5,0,0,100,4.278,4.259,0,0,0,0,1.908,74.3,120.9525977025,1.312336,6,P-GPS,
2900,2022-10-28 01:19:47,-34.9065337163455,-56.1631093198799,1.312336,0.984252,119.9683457025,120.9525977025,2.624672,0,2.07835308488,3.11576125456,13,4,8.635,120.9525977025,1.312336,0.223694,2.07835308488,0,0,0,285, -1.4, -1.3,0,1,1024,1024,1024,1024,0,0,0,0,297.5,0,0,100,4.278,4.259,0,0,0,0,1.908,74.3,120.9525977025,1.312336,6,P-GPS,
3000,2022-10-28 01:19:47,-34.9065340844889,-56.16310898285,1.312336,0.984252,119.9683457025,120.9525977025,2.624672,0,2.05547250672,3.2837271392,13,4,8.635,120.9525977025,1.312336,0.223694,2.07835308488,0,0,0,285, -1.3, -0.6,0,1,1024,1024,1024,1024,0,0,0,0,297.5,0,0,100,4.278,4.259,0,0,0,0,1.908,74.3,120.9525977025,1.312336,6,P-GPS,
3100,2022-10-28 01:19:47,-34.9065344025069,-56.1631086937142,1.312336,0.984252,119.9683457025,120.9525977025,2.624672,0.223694,2.04615492112,3.4284449916,13,4,8.464,120.9525977025,1.312336,0.223694,2.07835308488,-0.223694,0,0,284.9, -1.4, -0.2,0,1,1024,1024,1144,1024,0,0,18,0,297.5,0,0,100,4.271,4.271,0,0,0,0,4.488,74.3,120.9525977025,1.312336,6,P-GPS,
3200,2022-10-28 01:19:47,-34.9065345710966,-56.1631084925137,1.312336,0.984252,119.9683457025,120.9525977025,2.624672,0.223694,2.0569390422,3.5145014248,13,4,8.464,120.9525977025,1.312336,0.223694,2.07835308488,-0.223694,0,0,284.9, -1.6, -0.1,0,1,1108,1024,1684,1120,13,0,100,15,297.5,0,0,100,4.271,4.271,0,0,0,0,4.488,74.3,120.9525977025,1.312336,6,P-GPS,
3300,2022-10-28 01:19:47,-34.9065353968149,-56.1631082542728,1.312336,0.984252,119.9683457025,120.9525977025,2.624672,0,1.95850071884,3.8241142956,13,4,8.464,120.9525977025,1.312336,0.223694,2.07835308488,0,0,0,285, -1.7, 0.4,0,1,1587,795,1684,1024,85,-35,100,0,297.8,0,0,100,4.271,4.271,0,0,0,0,4.488,74.3,120.9525977025,1.312336,6,P-GPS,
3400,2022-10-28 01:19:48,-34.9065356065376,-56.1631082335707,1.312336,1.0170604,119.9355373025,120.9525977025,2.624672,0,1.9298228964,3.9008531432,13,4,8.464,120.9525977025,1.312336,0.223694,2.07835308488,0,0,-0.671082,285.5, -4.1, 0.6,0,1,1684,819,1684,1024,100,-31,100,0,298.1,0,0,100,4.271,4.271,0,0,0,0,4.488,74.3,120.9525977025,1.312336,6,P-GPS,
3500,2022-10-28 01:19:48,-34.906535770524,-56.1631083050111,1.64042,1.3451444,119.9355373025,121.2806817025,2.952756,0,1.88529861676,3.964403014,13,4,8.464,121.2806817025,1.64042,0.223694,2.07835308488,0,0,-1.342164,285.8, -11.4, -1.5,0,1,1024,1024,1024,1024,0,0,0,0,298.3,0,0,100,4.271,4.271,0,0,0,0,4.488,74.3,121.2806817025,1.64042,6,P-GPS,
3600,2022-10-28 01:19:48,-34.9065358707302,-56.1631086682432,1.968504,1.7060368,119.9027289025,121.6087657025,2.952756,0.671082,1.77120412492,4.079068372,13,4,8.464,121.6087657025,1.968504,0.671082,2.07835308488,0,-0.671082,-2.013246,286.2, -16.3, -3.2,0,1,1024,1024,1024,1024,0,0,0,0,298.3,0,0,100,4.271,4.271,0,0,0,0,4.488,74.3,121.6087657025,1.968504,6,P-GPS,
3700,2022-10-28 01:19:48,-34.9065358735099,-56.1631102359179,2.296588,2.0669292,119.8699205025,121.9368497025,3.28084,1.342164,1.357857655,4.5481300668,13,4,8.464,121.9368497025,2.296588,1.342164,2.07835308488,0,-1.342164,-2.460634,285.9, -9.6, -1.8,0,1,1024,1024,1024,1024,0,0,0,0,298.3,0,0,100,4.271,4.271,0,0,0,0,4.488,74.3,121.9368497025,2.296588,6,P-GPS,
3800,2022-10-28 01:19:48,-34.9065357748648,-56.1631111303683,2.296588,2.0997376,119.8371121025,121.9368497025,3.608924,1.342164,1.16530843624,4.8181760072,13,4,8.464,121.9368497025,2.296588,1.342164,2.07835308488,0,-1.342164,-2.23694,285.6, 4.8, 0.2,0,1,1024,1024,1024,1024,0,0,0,0,298.3,0,0,100,4.271,4.271,0,0,0,0,4.488,74.3,121.9368497025,2.296588,6,P-GPS,
3900,2022-10-28 01:19:48,-34.9065357049115,-56.1631120580619,2.624672,2.46063,119.8043037025,122.2649337025,3.937008,1.11847,0.99458992684,5.0969161736,13,4,8.464,122.2649337025,2.624672,1.342164,2.07835308488,0,-1.11847,-1.789552,285.8, 6.6, 0.7,0,1,1390,1024,1024,1024,55,0,0,0,298.3,0,0,100,4.271,4.271,0,0,0,0,4.488,74.3,122.2649337025,2.624672,6,P-GPS,
4000,2022-10-28 01:19:48,-34.9065357057986,-56.1631132936138,2.952756,2.8215224,119.7714953025,122.5930177025,4.265092,1.11847,0.82685042016,5.4666012248,13,4,8.464,122.5930177025,2.952756,1.342164,2.07835308488,0,-1.11847,-1.11847,285.8, 3.4, 0.6,0,1,1444,1024,1024,1024,64,0,0,0,298.3,0,0,100,4.271,4.271,0,0,0,0,4.488,74.3,122.5930177025,2.952756,6,P-GPS,
4100,2022-10-28 01:19:48,-34.9065357108093,-56.16311442718,2.952756,2.8543308,119.7386869025,122.5930177025,4.265092,0.894776,0.800853044,5.805774464,13,4,8.464,122.5930177025,2.952756,1.342164,2.07835308488,0,-0.894776,-0.447388,285.8, -5, 0.5,0,1,1024,1024,1024,1024,0,0,0,0,298.3,0,0,100,4.271,4.271,0,0,0,0,4.488,74.3,122.5930177025,2.952756,6,P-GPS,
4200,2022-10-28 01:19:48,-34.9065357124895,-56.1631173293445,2.952756,2.9199476,119.6730701025,122.5930177025,4.593176,1.11847,1.26017392484,6.6741143868,13,4,8.473,122.5930177025,2.952756,1.342164,2.07835308488,0,-1.11847,-0.223694,285.8, -3.6, -0.1,0,1,1024,1024,1024,1024,0,0,0,0,298.3,0,0,100,4.261,4.25,0,0,0,0,4.228,74.3,122.5930177025,2.952756,6,P-GPS,
4300,2022-10-28 01:19:49,-34.9065357134935,-56.1631184921894,2.952756,2.952756,119.6402617025,122.5930177025,4.593176,0.894776,1.54607616496,7.0220474688,13,4,8.473,122.5930177025,2.952756,1.342164,2.07835308488,0,-0.894776,0,285.8, 3.1, 0.2,0,1,1024,1024,1024,1024,0,0,0,0,298.3,0,0,100,4.261,4.25,0,0,0,0,4.228,74.3,122.5930177025,2.952756,6,P-GPS,
4400,2022-10-28 01:19:49,-34.9065357616546,-56.1631194852331,2.952756,2.9855644,119.6074533025,122.5930177025,4.593176,0.671082,1.80003942768,7.319718082,13,4,8.473,122.5930177025,2.952756,1.342164,2.07835308488,0,-0.671082,0,286, 4.2, 1.1,0,1,1024,1024,1055,1063,0,0,5,6,298.3,0,0,100,4.261,4.25,0,0,0,0,4.228,74.3,122.5930177025,2.952756,6,P-GPS,
4500,2022-10-28 01:19:49,-34.9065357569535,-56.1631202348179,2.952756,3.0183728,119.5746449025,122.5930177025,4.593176,0.447388,2.00548562848,7.5439963044,13,4,8.473,122.5930177025,2.952756,1.342164,2.07835308488,0,-0.447388,0,285.9, 3.7, 1.4,0,1,1024,1024,1150,1684,0,0,19,100,298.3,0,0,100,4.261,4.25,0,0,0,0,4.228,74.3,122.5930177025,2.952756,6,P-GPS,
4600,2022-10-28 01:19:49,-34.9065354611731,-56.1631201763415,2.952756,2.9855644,119.6074533025,122.5930177025,4.593176,0.447388,2.03389770288,7.6533138932,13,4,8.473,122.5930177025,2.952756,1.342164,2.07835308488,0,-0.447388,0,285.8, 2.8, 0.8,0,1,1024,1024,1150,1684,0,0,19,100,298.4,0,0,100,4.261,4.25,0,0,0,0,4.228,74.3,122.5930177025,2.952756,6,P-GPS,
4700,2022-10-28 01:19:49,-34.9065352925564,-56.1631204737326,2.952756,2.9855644,119.6074533025,122.5930177025,4.593176,0.223694,2.14084324436,7.761483188,13,4,8.473,122.5930177025,2.952756,1.342164,2.14084324436,0,-0.223694,0,286.3, 1.9, 0.1,0,1,1024,1024,1183,1684,0,0,24,100,300.2,0,0,100,4.261,4.25,0,0,0,0,4.228,74.3,122.5930177025,2.952756,6,P-GPS,
4800,2022-10-28 01:19:49,-34.9065351468173,-56.1631207959887,2.952756,3.0183728,119.5746449025,122.5930177025,4.593176,0,2.25083996704,7.8716209868,13,4,8.473,122.5930177025,2.952756,1.342164,2.25083996704,0,0,-0.223694,288.7, 1.2, 0.1,0,1,1024,1024,1084,1684,0,0,9,100,303.1,0,0,100,4.261,4.25,0,0,0,0,4.228,74.3,122.5930177025,2.952756,6,P-GPS,
4900,2022-10-28 01:19:49,-34.9065350005419,-56.1631210634429,2.952756,3.0183728,119.5746449025,122.5930177025,4.593176,0,2.34626976012,7.9677824072,12,4,8.473,122.5930177025,2.952756,1.342164,2.34626976012,0,0,-0.223694,291.7, 0.8, 0,0,1,1024,1024,1024,1024,0,0,0,0,306.3,0,0,100,4.261,4.25,0,0,0,0,4.228,74.3,122.5930177025,2.952756,6,P-GPS,
5000,2022-10-28 01:19:49,-34.9065346739034,-56.1631209884038,2.952756,3.0183728,119.5746449025,122.5930177025,4.593176,0,2.38250007624,8.089075062,12,4,8.473,122.5930177025,2.952756,1.342164,2.38250007624,0,0,0,294.6, 0.6, -0.2,0,1,1024,1024,1024,1024,0,0,0,0,308.9,0,0,100,4.261,4.25,0,0,0,0,4.228,74.3,122.5930177025,2.952756,6,P-GPS,
5100,2022-10-28 01:19:49,-34.9065345161021,-56.1631211546688,2.952756,3.0183728,119.5746449025,122.5930177025,4.593176,0,2.45425860872,8.1651577416,12,4,8.473,122.5930177025,2.952756,1.342164,2.45425860872,0,0,0,296.6, 0.6, -0.2,0,1,1024,1024,1024,1024,0,0,0,0,310.1,0,0,100,4.261,4.25,0,0,0,0,4.228,74.3,122.5930177025,2.952756,6,P-GPS,
5200,2022-10-28 01:19:49,-34.9065343599707,-56.1631211169207,2.952756,2.952756,119.6402617025,122.5930177025,4.593176,0,2.47361884556,8.2232286096,12,4,8.492,122.5930177025,2.952756,1.342164,2.47361884556,0,0,0,297.5, 0.1, -0.5,0,1,1024,1024,1024,1024,0,0,0,0,310.5,0,0,100,4.231,4.239,0,0,0,0,4.213,74.3,122.5930177025,2.952756,6,P-GPS,
5300,2022-10-28 01:19:50,-34.9065342164458,-56.1631210607164,3.28084,3.28084,119.6402617025,122.9211017025,4.593176,0,2.48705060452,8.278215488,13,4,8.492,122.9211017025,3.28084,1.342164,2.48705060452,0,0,0,297.8, -0.2, -1.1,0,1,1160,1024,1024,1024,21,0,0,0,310.5,0,0,100,4.231,4.239,0,0,0,0,4.213,74.3,122.9211017025,3.28084,6,P-GPS,
5400,2022-10-28 01:19:50,-34.9065341206428,-56.16312030618,3.28084,3.2480316,119.6730701025,122.9211017025,4.593176,0,2.32047907688,8.5066931856,13,4,8.492,122.9211017025,3.28084,1.342164,2.48705060452,0,0,0,297.8, -0.4, -1.2,0,1,1684,1024,1024,1024,100,0,0,0,310.5,0,0,100,4.231,4.239,0,0,0,0,4.213,74.3,122.9211017025,3.28084,6,P-GPS,
5500,2022-10-28 01:19:50,-34.906534012141,-56.1631202462332,3.28084,3.2480316,119.6730701025,122.9211017025,4.593176,0,2.32983603256,8.5501315072,13,4,8.492,122.9211017025,3.28084,1.342164,2.48705060452,0,0,0,297.9, -1.8, -1.1,0,1,1684,1024,1024,1024,100,0,0,0,310.5,0,0,100,4.231,4.239,0,0,0,0,4.213,74.3,122.9211017025,3.28084,6,P-GPS,
5600,2022-10-28 01:19:50,-34.9065338994946,-56.1631201669711,3.28084,3.2480316,119.6730701025,122.9211017025,4.593176,0,2.33637474668,8.597605262,13,4,8.492,122.9211017025,3.28084,1.342164,2.48705060452,0,0,0,298, -10.6, -0.6,0,1,1684,1024,1024,1024,100,0,0,0,310.5,0,0,100,4.231,4.239,0,0,0,0,4.213,74.3,122.9211017025,3.28084,6,P-GPS,"Punto de origen actualizado. Altitud de RPO establecida en 100m (Code: 3000001)"
5700,2022-10-28 01:19:50,-34.9065337306144,-56.1631202545251,3.28084,3.2480316,119.6730701025,122.9211017025,4.593176,0.4921268,2.39543642836,8.664534398,13,4,8.492,122.9211017025,3.28084,1.342164,2.48705060452,0.223694,-0.447388,0,298, -16.4, -0.7,0,1,1684,1024,1024,1024,100,0,0,0,310.5,0,0,100,4.231,4.239,0,0,0,0,4.213,74.3,122.9211017025,3.28084,6,P-GPS,
5800,2022-10-28 01:19:50,-34.9065334423486,-56.1631207010648,3.28084,3.2480316,119.6730701025,122.9211017025,4.593176,1.006623,2.56544955716,8.8345803352,13,4,8.492,122.9211017025,3.28084,1.342164,2.56544955716,0.447388,-0.894776,0,297.9, -17.4, -1.1,0,1,1684,1024,1024,1024,100,0,0,0,310.5,0,0,100,4.231,4.239,0,0,0,0,4.213,74.3,122.9211017025,3.28084,6,P-GPS,
5900,2022-10-28 01:19:50,-34.9065331951767,-56.1631211150064,3.28084,3.2480316,119.6730701025,122.9211017025,4.593176,1.4987498,2.71844168804,8.9877955632,13,4,8.492,122.9211017025,3.28084,1.4987498,2.71844168804,0.671082,-1.342164,0,297.9, -17.5, -1.3,0,1,1684,1024,1024,1024,100,0,0,0,310.5,0,0,100,4.231,4.239,0,0,0,0,4.213,74.3,122.9211017025,3.28084,6,P-GPS,
6000,2022-10-28 01:19:50,-34.9065327180027,-56.1631220997739,2.952756,2.952756,119.6402617025,122.5930177025,4.593176,2.1922012,3.0573983918,9.3300199836,13,4,8.492,122.9211017025,3.28084,2.1922012,3.0573983918,0.894776,-2.013246,0,298, -17.4, -1.2,0,1,1680,1024,1024,1024,99,0,0,0,310.5,0,0,100,4.231,4.239,0,0,0,0,4.213,74.3,122.5930177025,2.952756,6,P-GPS,
6100,2022-10-28 01:19:50,-34.906532178796,-56.1631233376006,2.952756,2.9199476,119.6730701025,122.5930177025,4.593176,2.7066974,3.4710631032,9.7494097608,13,4,8.492,122.9211017025,3.28084,2.7066974,3.4710631032,1.11847,-2.460634,0,298, -17.3, -0.7,0,1,1410,1024,1024,1024,58,0,0,0,310.5,0,0,100,4.231,4.239,0,0,0,0,4.213,74.3,122.5930177025,2.952756,6,P-GPS,
6200,2022-10-28 01:19:50,-34.9065315305511,-56.1631250639222,2.952756,2.9855644,119.6074533025,122.5930177025,4.593176,3.1988242,4.02805131,10.3175200152,13,4,8.492,122.9211017025,3.28084,3.1988242,4.02805131,1.342164,-2.908022,0,297.9, -16.2, -0.5,0,1,1024,1024,1203,1024,0,0,27,0,310.5,0,0,100,4.244,4.242,0,0,0,0,4.213,74.3,122.5930177025,2.952756,6,P-GPS,
6300,2022-10-28 01:19:51,-34.9065310712505,-56.163127292779,2.952756,3.0183728,119.5746449025,122.5930177025,4.593176,3.7133204,4.6763781024,11.0051184624,13,4,8.492,122.9211017025,3.28084,3.7133204,4.6763781024,1.565858,-3.35541,0,297.9, -10.3, -0.5,0,1,1024,1024,1684,1024,0,0,100,0,310.5,0,0,100,4.244,4.242,0,0,0,0,4.213,74.3,122.5930177025,2.952756,6,P-GPS,
6400,2022-10-28 01:19:51,-34.9065302912287,-56.1631294960995,2.952756,3.0183728,119.5746449025,122.5930177025,4.593176,3.7133204,5.3871720884,11.7231959132,13,4,8.492,122.9211017025,3.28084,3.7133204,5.3871720884,1.565858,-3.35541,0,297.6, 7.6, -0.1,0,1,1024,1024,1684,1024,0,0,100,0,310.5,0,0,100,4.244,4.242,0,0,0,0,4.213,74.3,122.5930177025,2.952756,6,P-GPS,
6500,2022-10-28 01:19:51,-34.9065295616638,-56.1631314519863,2.952756,3.0839896,119.5090281025,122.5930177025,4.593176,3.7133204,6.0263781456,12.3661093196,13,4,8.492,122.9211017025,3.28084,3.7133204,6.0263781456,1.342164,-2.684328,-0.671082,297.4, 13.8, -0.7,0,1,1024,1024,1684,1024,0,0,100,0,310.5,0,0,100,4.244,4.242,0,0,0,0,4.213,74.3,122.5930177025,2.952756,6,P-GPS,
6600,2022-10-28 01:19:51,-34.9065288337843,-56.1631331401055,3.28084,3.4120736,119.5090281025,122.9211017025,4.92126,2.1922012,6.5965553292,12.9367458208,13,4,8.492,122.9211017025,3.28084,3.7133204,6.5965553292,0.894776,-2.013246,-1.342164,297.7, 11, -0.9,0,1,1066,1024,1684,1024,6,0,100,0,310.5,0,0,100,4.244,4.242,0,0,0,0,4.213,74.3,122.9211017025,3.28084,6,P-GPS,
6700,2022-10-28 01:19:51,-34.9065283525596,-56.1631351871424,3.608924,3.772966,119.4762197025,123.2491857025,5.249344,1.4987498,7.2163060052,13.5739177572,13,4,8.492,123.2491857025,3.608924,3.7133204,7.2163060052,0.671082,-1.342164,-2.23694,297.9, 7.3, -0.8,0,1,1234,1024,1684,1024,32,0,100,0,310.5,0,0,100,4.244,4.242,0,0,0,0,4.213,74.3,123.2491857025,3.608924,6,P-GPS,
6800,2022-10-28 01:19:51,-34.9065281955833,-56.1631360143467,3.937008,4.1338584,119.4434113025,123.5772697025,5.577428,1.006623,7.4610894776,13.8279531984,13,4,8.492,123.5772697025,3.937008,3.7133204,7.4610894776,0.447388,-0.894776,-3.131716,298, 1, -0.9,0,1,1448,1024,1609,1024,64,0,89,0,310.5,0,0,100,4.244,4.242,0,0,0,0,4.213,74.3,123.5772697025,3.937008,6,P-GPS,
6900,2022-10-28 01:19:51,-34.90652805765,-56.16313667737,4.593176,4.8228348,119.4106029025,124.2334377025,6.233596,0.9171454,7.6598099564,14.0326119976,13,4,8.492,124.2334377025,4.593176,3.7133204,7.6598099564,0.223694,-0.894776,-3.802798,298.1, -3.8, -0.7,0,1,1546,1024,1024,1024,79,0,0,0,310.5,0,0,100,4.244,4.242,0,0,0,0,4.213,74.3,124.2334377025,4.593176,6,P-GPS,
7000,2022-10-28 01:19:51,-34.9065277861054,-56.1631373193229,5.249344,5.4790028,119.4106029025,124.8896057025,6.56168,0.9171454,7.8759188872,14.2487537368,13,4,8.492,124.8896057025,5.249344,3.7133204,7.8759188872,0.223694,-0.894776,-4.250186,298.3, -8, -1.1,0,1,1540,1024,1024,1024,78,0,0,0,310.5,0,0,100,4.244,4.242,0,0,0,0,4.213,74.3,124.8896057025,5.249344,6,P-GPS,
7100,2022-10-28 01:19:51,-34.9065286274377,-56.1631364142144,5.577428,5.8070868,119.4106029025,125.2176897025,7.217848,1.2079476,7.4943571952,14.6581041436,13,4,8.492,125.2176897025,5.577428,3.7133204,7.8759188872,0.447388,-1.11847,-3.802798,298.2, -12, -0.6,0,1,1541,1024,1024,1024,78,0,0,0,310.5,0,0,100,4.244,4.242,0,0,0,0,4.213,74.3,125.2176897025,5.577428,6,P-GPS,
7200,2022-10-28 01:19:51,-34.9065286052339,-56.1631367986424,6.233596,6.4960632,119.3777945025,125.8738577025,7.874016,1.4092722,7.6008204532,14.7733928612,13,4,8.495,125.8738577025,6.233596,3.7133204,7.8759188872,0.447388,-1.342164,-3.131716,298.2, -14.3, -0.4,0,1,1354,1024,1024,1024,50,0,0,0,310.5,0,0,100,4.192,4.187,0,0,0,0,4.123,74.48,125.8738577025,6.233596,6,P-GPS,
7300,2022-10-28 01:19:51,-34.9065285774892,-56.163137313546,6.56168,6.8241472,119.3777945025,126.2019417025,8.2021,1.901399,7.7435041848,14.9277891916,13,4,8.495,126.2019417025,6.56168,3.7133204,7.8759188872,0.671082,-1.789552,-2.23694,298.2, -15.4, 0,0,1,1354,1024,1024,1024,50,0,0,0,310.5,0,0,100,4.192,4.187,0,0,0,0,4.123,74.48,126.2019417025,6.56168,6,P-GPS,
7400,2022-10-28 01:19:52,-34.9065285764951,-56.1631381740952,6.889764,7.1850396,119.3449861025,126.5300257025,8.530184,2.125093,7.9758532736,15.1852695148,13,4,8.495,126.5300257025,6.889764,3.7133204,7.9758532736,0.671082,-2.013246,-1.565858,298.2, -14.1, 0.3,0,1,1176,1024,1024,1024,23,0,0,0,310.5,0,0,100,4.192,4.187,0,0,0,0,4.123,74.48,126.5300257025,6.889764,6,P-GPS,
7500,2022-10-28 01:19:52,-34.9065284831803,-56.1631391622317,6.889764,7.1522312,119.3777945025,126.5300257025,8.530184,2.4158952,8.2584320228,15.4829073196,13,4,8.495,126.5300257025,6.889764,3.7133204,8.2584320228,0.894776,-2.23694,-0.894776,298.2, -8.2, 0.5,0,1,1489,1024,1024,1024,70,0,0,0,310.5,0,0,100,4.192,4.187,0,0,0,0,4.123,74.48,126.5300257025,6.889764,6,P-GPS,
7600,2022-10-28 01:19:52,-34.9065287744886,-56.1631406140008,7.217848,7.6115488,119.2465609025,126.8581097025,8.858268,2.4158952,8.6138782284,15.9300858116,13,4,8.495,126.8581097025,7.217848,3.7133204,8.6138782284,0.894776,-2.23694,-0.447388,298.2, -6.7, 0.6,0,1,1552,1024,1024,1024,80,0,0,0,310.5,0,0,100,4.192,4.187,0,0,0,0,4.123,74.48,126.8581097025,7.217848,6,P-GPS,
7700,2022-10-28 01:19:52,-34.9065284301256,-56.1631419398646,7.217848,7.5787404,119.2793693025,126.8581097025,8.858268,2.7066974,9.0284123624,16.3462275572,13,4,8.495,126.8581097025,7.217848,3.7133204,9.0284123624,1.11847,-2.460634,-0.223694,298.1, -11, 0.4,0,1,1549,1024,1024,1024,80,0,0,0,310.5,0,0,100,4.192,4.187,0,0,0,0,4.123,74.48,126.8581097025,7.217848,6,P-GPS,
7800,2022-10-28 01:19:52,-34.9065279524525,-56.1631434142763,7.217848,7.6115488,119.2465609025,126.8581097025,8.858268,2.908022,9.5026905928,16.820538596,13,4,8.495,126.8581097025,7.217848,3.7133204,9.5026905928,1.11847,-2.684328,0,298.1, -13.7, 0.3,0,1,1524,1024,1266,1024,76,0,37,0,310.5,0,0,100,4.192,4.187,0,0,0,0,4.123,74.48,126.8581097025,7.217848,6,P-GPS,
7900,2022-10-28 01:19:52,-34.9065274291423,-56.1631449424504,7.217848,7.6115488,119.2465609025,126.8581097025,8.858268,3.1988242,9.998195858,17.3160438612,13,4,8.495,126.8581097025,7.217848,3.7133204,9.998195858,1.342164,-2.908022,0,298.1, -14.7, 0.2,0,1,1505,1024,1617,1024,73,0,90,0,310.5,0,0,100,4.192,4.187,0,0,0,0,4.123,74.48,126.8581097025,7.217848,6,P-GPS,
8000,2022-10-28 01:19:52,-34.9065267766321,-56.1631468225694,7.217848,7.6771656,119.1809441025,126.8581097025,8.858268,3.7133204,10.6090226492,17.9269034608,13,4,8.495,126.8581097025,7.217848,3.7133204,10.6090226492,1.565858,-3.35541,-0.223694,298.1, -14.1, 0.1,0,1,1521,1024,1684,1024,75,0,100,0,310.5,0,0,100,4.192,4.187,0,0,0,0,4.123,74.48,126.8581097025,7.217848,6,P-GPS,
8100,2022-10-28 01:19:52,-34.9065261294127,-56.1631486435095,7.217848,7.709974,119.1481357025,126.8581097025,8.858268,4.2054472,11.202756264,18.5207026924,13,4,8.495,126.8581097025,7.217848,4.2054472,11.202756264,1.789552,-3.802798,-0.671082,298.2, -12.5, 0.1,0,1,1521,1024,1684,1024,75,0,100,0,310.5,0,0,100,4.192,4.187,0,0,0,0,4.123,74.48,126.8581097025,7.217848,6,P-GPS,
8200,2022-10-28 01:19:52,-34.9065254440764,-56.1631507471294,7.545932,8.038058,119.1481357025,127.1861937025,9.186352,4.4962494,11.8799544484,19.1979664936,13,4,8.411,127.1861937025,7.545932,4.4962494,11.8799544484,2.013246,-4.026492,-1.565858,298.2, -11.7, -0.1,0,1,1526,1024,1684,1024,76,0,100,0,310.5,0,0,100,4.248,4.248,0,0,0,0,5.002,74.48,127.1861937025,7.545932,6,P-GPS,
8300,2022-10-28 01:19:53,-34.9065247386271,-56.1631529587966,7.874016,8.4317588,119.0825189025,127.5142777025,9.514436,4.8988986,12.5898626076,19.9080386948,13,4,8.411,127.5142777025,7.874016,4.8988986,12.5898626076,2.013246,-4.47388,-2.23694,298.3, -12, 0.2,0,1,1531,1024,1684,1024,77,0,100,0,310.5,0,0,100,4.248,4.248,0,0,0,0,5.002,74.48,127.5142777025,7.874016,6,P-GPS,
8400,2022-10-28 01:19:53,-34.906524365904,-56.1631558186793,8.2021,8.7926512,119.0497105025,127.8423617025,9.84252,5.2120702,13.4343180152,20.7744757304,13,4,8.411,127.8423617025,8.2021,5.2120702,13.4343180152,2.23694,-4.697574,-3.131716,298.3, -12.2, 0.7,0,1,1534,1024,1684,1024,77,0,100,0,310.5,0,0,100,4.248,4.248,0,0,0,0,5.002,74.48,127.8423617025,8.2021,6,P-GPS,
8500,2022-10-28 01:19:53,-34.9065235519556,-56.1631585034331,8.858268,9.5472444,118.9512853025,128.4985297025,10.498688,5.5028724,14.2905516384,21.630906204,13,4,8.411,128.4985297025,8.858268,5.5028724,14.2905516384,2.460634,-4.921268,-3.802798,298.3, -12, 0.6,0,1,1533,1024,1675,1024,77,0,99,0,310.5,0,0,100,4.248,4.248,0,0,0,0,5.002,74.48,128.4985297025,8.858268,6,P-GPS,
8600,2022-10-28 01:19:53,-34.9065226158486,-56.1631615751376,9.514436,10.2690292,118.8856685025,129.1546977025,11.154856,5.9949992,15.2708994388,22.611385238,13,4,8.411,129.1546977025,9.514436,5.9949992,15.2708994388,2.684328,-5.368656,-4.47388,298.3, -11, 0.6,0,1,1534,1024,1671,1024,77,0,98,0,310.5,0,0,100,4.248,4.248,0,0,0,0,5.002,74.48,129.1546977025,9.514436,6,P-GPS,
8700,2022-10-28 01:19:53,-34.9065216579897,-56.1631645734352,10.498688,11.2860896,118.8528601025,130.1389497025,11.811024,6.1963238,16.2336619368,23.5741805444,13,4,8.411,130.1389497025,10.498688,6.1963238,16.2336619368,2.684328,-5.59235,-5.368656,298.4, -10.3, 0.2,0,1,1540,1024,1652,1024,78,0,95,0,310.5,0,0,100,4.248,4.248,0,0,0,0,5.002,74.48,130.1389497025,10.498688,6,P-GPS,
8800,2022-10-28 01:19:53,-34.9065209520902,-56.1631677738761,11.48294,12.30315,118.8200517025,131.1232017025,12.795276,6.5094954,17.2195871652,24.565781626,13,4,8.411,131.1232017025,11.48294,6.5094954,17.2195871652,2.908022,-5.816044,-5.59235,298.4, -10.8, 0.3,0,1,1538,1024,1645,1024,78,0,94,0,310.5,0,0,100,4.248,4.248,0,0,0,0,5.002,74.48,131.1232017025,11.48294,6,P-GPS,
8900,2022-10-28 01:19:53,-34.9065199278819,-56.1631707534904,12.467192,13.3530188,118.7544349025,132.1074537025,13.779528,6.5094954,18.185860162,25.5324483236,13,4,8.411,132.1074537025,12.467192,6.5094954,18.185860162,2.908022,-5.816044,-5.816044,298.5, -11.2, 0.2,0,1,1537,1024,1647,1024,78,0,94,0,310.5,0,0,100,4.248,4.248,0,0,0,0,5.002,74.48,132.1074537025,12.467192,6,P-GPS,
9000,2022-10-28 01:19:53,-34.9065188290942,-56.1631739480343,13.451444,14.3700792,118.7216265025,133.0917057025,14.76378,6.8002976,19.221949434,26.5689641048,13,4,8.411,133.0917057025,13.451444,6.8002976,19.221949434,3.131716,-6.039738,-6.039738,298.5, -11.7, 0.5,0,1,1537,1024,1647,1024,78,0,94,0,310.5,0,0,100,4.248,4.248,0,0,0,0,5.002,74.48,133.0917057025,13.451444,6,P-GPS,
9100,2022-10-28 01:19:53,-34.9065177426159,-56.1631770487903,14.435696,15.419948,118.6560097025,134.0759577025,15.748032,7.0016222,20.230315608,27.5778880216,13,4,8.411,134.0759577025,14.435696,7.0016222,20.230315608,3.131716,-6.263432,-6.039738,298.4, -12.2, 0.4,0,1,1544,1024,1643,1024,79,0,94,0,310.5,0,0,100,4.248,4.248,0,0,0,0,5.002,74.48,134.0759577025,14.435696,6,P-GPS,
9200,2022-10-28 01:19:53,-34.9065165575386,-56.1631803543273,15.419948,16.4370084,118.6232013025,135.0602097025,17.060368,7.2924244,21.308891758,28.6572843816,13,4,8.525,135.0602097025,15.419948,7.2924244,21.308891758,3.35541,-6.487126,-6.039738,298.4, -12, 0.3,0,1,1550,1024,1643,1024,80,0,94,0,310.5,0,0,100,4.176,4.187,0,0,0,0,3.891,74.48,135.0602097025,15.419948,6,P-GPS,
9300,2022-10-28 01:19:54,-34.9065157508905,-56.1631831394346,16.4042,17.4868772,118.5575845025,136.0444617025,18.04462,7.493749,22.1921595028,29.5410770608,13,4,8.525,136.0444617025,16.4042,7.493749,22.1921595028,3.35541,-6.71082,-6.039738,298.4, -12.7, 0.7,0,1,1552,1024,1643,1024,80,0,94,0,310.5,0,0,100,4.176,4.187,0,0,0,0,3.891,74.48,136.0444617025,16.4042,6,P-GPS,
9400,2022-10-28 01:19:54,-34.9065146079085,-56.1631866167315,17.388452,18.536746,118.4919677025,137.0287137025,19.028872,7.6950736,23.3130256804,30.6619760468,13,4,8.525,137.0287137025,17.388452,7.6950736,23.3130256804,3.35541,-6.934514,-6.039738,298.3, -12.9, 0.8,0,1,1552,1024,1643,1024,80,0,94,0,310.5,0,0,100,4.176,4.187,0,0,0,0,3.891,74.48,137.0287137025,17.388452,6,P-GPS,
9500,2022-10-28 01:19:54,-34.9065134770697,-56.1631899759526,18.372704,19.520998,118.4919677025,138.0129657025,20.013124,8.0082452,24.3993774212,31.7484590212,13,4,8.525,138.0129657025,18.372704,8.0082452,24.3993774212,3.579104,-7.158208,-6.039738,298.4, -12.6, 0.6,0,1,1552,1024,1643,1024,80,0,94,0,310.5,0,0,100,4.176,4.187,0,0,0,0,3.891,74.48,138.0129657025,18.372704,6,P-GPS,
9600,2022-10-28 01:19:54,-34.9065122464595,-56.1631934859154,19.356956,20.5708668,118.4263509025,138.9972177025,20.997376,8.2095698,25.5410441244,32.890749084,13,4,8.525,138.9972177025,19.356956,8.2095698,25.5410441244,3.579104,-7.381902,-6.039738,298.5, -12.3, 0.7,0,1,1554,1024,1643,1024,80,0,94,0,310.5,0,0,100,4.176,4.187,0,0,0,0,3.891,74.48,138.9972177025,19.356956,6,P-GPS,
9700,2022-10-28 01:19:54,-34.906511593955,-56.1631963355711,20.013124,21.32546,118.3279257025,139.6533857025,22.309712,8.2990474,26.4217856224,33.775919716,13,4,8.525,139.6533857025,20.013124,8.2990474,26.4217856224,3.802798,-7.381902,-6.039738,298.4, -12.5, 0.6,0,1,1555,1024,1645,1024,80,0,94,0,310.5,0,0,100,4.176,4.187,0,0,0,0,3.891,74.48,139.6533857025,20.013124,6,P-GPS,
9800,2022-10-28 01:19:54,-34.9065103527794,-56.1631999882737,20.997376,22.3425204,118.2951173025,140.6376377025,23.293964,8.500372,27.6045284424,34.95899062,13,4,8.525,140.6376377025,20.997376,8.500372,27.6045284424,3.802798,-7.605596,-6.039738,298.3, -12.5, 0.6,0,1,1571,1024,1684,1024,83,0,100,0,310.5,0,0,100,4.176,4.187,0,0,0,0,3.891,74.48,140.6376377025,20.997376,6,P-GPS,
9900,2022-10-28 01:19:54,-34.9065091218826,-56.1632035669425,21.981628,23.3923892,118.2295005025,141.6218897025,24.278216,8.8135436,28.7653224428,36.120079896,13,4,8.525,141.6218897025,21.981628,8.8135436,28.7653224428,4.026492,-7.82929,-6.039738,298.3, -12.8, 0.5,0,1,1571,1024,1684,1024,83,0,100,0,310.5,0,0,100,4.176,4.187,0,0,0,0,3.891,74.48,141.6218897025,21.981628,6,P-GPS,
10000,2022-10-28 01:19:54,-34.9065077343636,-56.1632075298827,22.96588,24.4750664,118.1310753025,142.6061417025,25.262468,8.9924988,30.0540692032,37.409450016,13,4,8.525,142.6061417025,22.96588,8.9924988,30.0540692032,4.026492,-8.052984,-6.263432,298.3, -12.8, 0.6,0,1,1597,1024,1684,1024,87,0,100,0,310.5,0,0,100,4.176,4.187,0,0,0,0,3.891,74.48,142.6061417025,22.96588,6,P-GPS,
10100,2022-10-28 01:19:54,-34.9065068030369,-56.1632111298518,23.950132,25.4921268,118.0982669025,143.5903937025,26.24672,9.3056704,31.180939318,38.538715144,13,4,8.525,143.5903937025,23.950132,9.3056704,31.180939318,4.250186,-8.276678,-6.263432,298.4, -13.1, 0.9,0,1,1607,1024,1684,1024,88,0,100,0,310.5,0,0,100,4.176,4.187,0,0,0,0,3.891,74.48,143.5903937025,23.950132,6,P-GPS,
10200,2022-10-28 01:19:54,-34.9065054355772,-56.1632151964099,24.934384,26.5091872,118.0654585025,144.5746457025,27.230972,9.3056704,32.4958015648,39.853675816,13,4,8.312,144.5746457025,24.934384,9.3056704,32.4958015648,4.250186,-8.276678,-6.487126,298.4, -13.6, 0.8,0,1,1607,1024,1684,1024,88,0,100,0,310.5,0,0,100,4.199,4.196,0,0,0,0,6.347,74.48,144.5746457025,24.934384,6,P-GPS,
10300,2022-10-28 01:19:55,-34.9065040911501,-56.1632191512227,25.918636,27.5918644,117.9670333025,145.5588977025,28.215224,9.5964726,33.776575884,41.134843836,13,4,8.312,145.5588977025,25.918636,9.5964726,33.776575884,4.47388,-8.500372,-6.487126,298.3, -13.9, 0.4,0,1,1612,1024,1684,1024,89,0,100,0,310.5,0,0,100,4.199,4.196,0,0,0,0,6.347,74.48,145.5588977025,25.918636,6,P-GPS,
10400,2022-10-28 01:19:55,-34.9065026374153,-56.1632234135152,26.902888,28.6417332,117.9014165025,146.5431497025,28.871392,9.7977972,35.15748144,42.516077476,13,4,8.312,146.5431497025,26.902888,9.7977972,35.15748144,4.47388,-8.724066,-6.487126,298.5, -13.9, 0.6,0,1,1614,1024,1684,1024,89,0,100,0,310.5,0,0,100,4.199,4.196,0,0,0,0,6.347,74.48,146.5431497025,26.902888,6,P-GPS,
10500,2022-10-28 01:19:55,-34.9065018555928,-56.1632272553292,28.215224,30.0524944,117.8029913025,147.8554857025,29.855644,9.7977972,36.33202216,43.700460716,13,4,8.312,147.8554857025,28.215224,9.7977972,36.33202216,4.47388,-8.94776,-6.487126,297.8, -13.8, 0.5,0,1,1616,1024,1684,1024,90,0,100,0,310.5,0,0,100,4.199,4.196,0,0,0,0,6.347,74.48,147.8554857025,28.215224,6,P-GPS,
10600,2022-10-28 01:19:55,-34.9065002809657,-56.1632316580423,29.199476,31.1023632,117.7373745025,148.8397377025,30.839896,10.2004464,37.768045828,45.137468636,13,4,8.312,148.8397377025,29.199476,10.2004464,37.768045828,4.47388,-9.171454,-6.71082,297.9, -13.9, 0.7,0,1,1616,1024,1684,1024,90,0,100,0,310.5,0,0,100,4.199,4.196,0,0,0,0,6.347,74.48,148.8397377025,29.199476,6,P-GPS,
10700,2022-10-28 01:19:55,-34.9064987493033,-56.1632359032445,30.183728,32.1850404,117.6389493025,149.8239897025,31.496064,10.2004464,39.154528812,46.525263956,13,4,8.312,149.8239897025,30.183728,10.2004464,39.154528812,4.47388,-9.171454,-6.71082,297.9, -14.2, 0.4,0,1,1616,1024,1684,1024,90,0,100,0,310.5,0,0,100,4.199,4.196,0,0,0,0,6.347,74.48,149.8239897025,30.183728,6,P-GPS,
10800,2022-10-28 01:19:55,-34.9064971382609,-56.1632403927986,31.16798,33.2021008,117.6061409025,150.8082417025,32.480316,10.513618,40.619751956,47.991471352,13,4,8.312,150.8082417025,31.16798,10.513618,40.619751956,4.697574,-9.395148,-6.487126,297.8, -14.5, 0.2,0,1,1618,1024,1684,1024,90,0,100,0,310.5,0,0,100,4.199,4.196,0,0,0,0,6.347,74.48,150.8082417025,31.16798,6,P-GPS,
10900,2022-10-28 01:19:55,-34.9064955738441,-56.1632447874471,32.152232,34.3175864,117.4749073025,151.7924937025,33.464568,10.513618,42.0521667,49.424870348,13,4,8.312,151.7924937025,32.152232,10.513618,42.0521667,4.697574,-9.395148,-6.487126,297.8, -14.3, 0.2,0,1,1622,1024,1684,1024,91,0,100,0,310.5,0,0,100,4.199,4.196,0,0,0,0,6.347,74.48,151.7924937025,32.152232,6,P-GPS,
11000,2022-10-28 01:19:55,-34.9064944191112,-56.1632493629962,33.136484,35.3346468,117.4420989025,152.7767457025,34.44882,10.7149426,43.480644436,50.857285092,13,4,8.312,152.7767457025,33.136484,10.7149426,43.480644436,4.697574,-9.618842,-6.487126,297.8, -14.1, 0.8,0,1,1625,1024,1684,1024,91,0,100,0,310.5,0,0,100,4.199,4.196,0,0,0,0,6.347,74.48,152.7767457025,33.136484,6,P-GPS,
11100,2022-10-28 01:19:55,-34.9064927976499,-56.1632539760582,34.44882,36.745408,117.3436737025,154.0890817025,35.433072,10.9162672,44.981300652,52.35892556,13,4,8.312,154.0890817025,34.44882,10.9162672,44.981300652,4.697574,-9.842536,-6.487126,297.8, -14.2, 1.2,0,1,1637,1024,1684,1024,93,0,100,0,310.5,0,0,100,4.199,4.196,0,0,0,0,6.347,74.48,154.0890817025,34.44882,6,P-GPS,
11200,2022-10-28 01:19:55,-34.9064909929432,-56.1632587427348,35.433072,37.8280852,117.2452485025,155.0733337025,36.417324,11.2070694,46.549870256,53.929791752,13,4,8.403,155.0733337025,35.433072,11.2070694,46.549870256,4.921268,-10.06623,-6.487126,297.8, -14.3, 0.7,0,1,1640,1024,1684,1024,93,0,100,0,310.5,0,0,100,4.19,4.187,0,0,0,0,5.583,74.48,155.0733337025,35.433072,6,P-GPS,
11300,2022-10-28 01:19:56,-34.9064892326538,-56.1632633773478,36.417324,38.8451456,117.2124401025,156.0575857025,37.401576,11.2070694,48.075460856,55.458007024,13,4,8.403,156.0575857025,36.417324,11.2070694,48.075460856,4.921268,-10.06623,-6.487126,297.8, -13.8, 0.4,0,1,1643,1024,1684,1024,94,0,100,0,310.5,0,0,100,4.19,4.187,0,0,0,0,5.583,74.48,156.0575857025,36.417324,6,P-GPS,
11400,2022-10-28 01:19:56,-34.9064878255284,-56.1632678424992,37.401576,39.9606312,117.0812065025,157.0418377025,38.385828,11.4978716,49.506891348,56.889437516,13,4,8.403,157.0418377025,37.401576,11.4978716,49.506891348,5.144962,-10.289924,-6.487126,297.9, -13.4, 0.3,0,1,1644,1024,1684,1024,94,0,100,0,310.5,0,0,100,4.19,4.187,0,0,0,0,5.583,74.48,157.0418377025,37.401576,6,P-GPS,
11500,2022-10-28 01:19:56,-34.9064860646072,-56.1632727166275,38.385828,41.0105,117.0155897025,158.0260897025,39.37008,11.6991962,51.099411084,58.482941504,13,4,8.403,158.0260897025,38.385828,11.6991962,51.099411084,5.144962,-10.513618,-6.71082,297.7, -14, 0.7,0,1,1644,1024,1684,1024,94,0,100,0,310.5,0,0,100,4.19,4.187,0,0,0,0,5.583,74.48,158.0260897025,38.385828,6,P-GPS,
11600,2022-10-28 01:19:56,-34.9064841842429,-56.1632780126029,39.37008,42.0931772,116.9171645025,159.0103417025,40.354332,11.9005208,52.825461008,60.209647596,13,4,8.403,159.0103417025,39.37008,11.9005208,52.825461008,5.144962,-10.737312,-6.487126,297.6, -14.4, 0.8,0,1,1644,1024,1684,1024,94,0,100,0,310.5,0,0,100,4.19,4.187,0,0,0,0,5.583,74.48,159.0103417025,39.37008,6,P-GPS,
11700,2022-10-28 01:19:56,-34.9064823559205,-56.1632830996082,40.682416,43.47113,116.8515477025,160.3226777025,41.338584,11.9005208,54.486222216,61.87172114,13,4,8.403,160.3226777025,40.682416,11.9005208,54.486222216,5.144962,-10.737312,-6.71082,297.6, -14.6, 0.9,0,1,1647,1024,1684,1024,94,0,100,0,310.5,0,0,100,4.19,4.187,0,0,0,0,5.583,74.48,160.3226777025,40.682416,6,P-GPS,
11800,2022-10-28 01:19:56,-34.9064807812379,-56.1632884178343,41.666668,44.5866156,116.7203141025,161.3069297025,42.322836,12.2136924,56.177167152,63.563322244,13,4,8.403,161.3069297025,41.666668,12.2136924,56.177167152,5.368656,-10.961006,-6.71082,297.5, -14.7, 1,0,1,1661,1024,1684,1024,97,0,100,0,310.5,0,0,100,4.19,4.187,0,0,0,0,5.583,74.48,161.3069297025,41.666668,6,P-GPS,
11900,2022-10-28 01:19:56,-34.9064788934479,-56.1632935941147,42.65092,45.6692928,116.6218889025,162.2911817025,43.307088,12.2136924,57.87073676,65.258532272,13,4,8.403,162.2911817025,42.65092,12.2136924,57.87073676,5.368656,-10.961006,-6.71082,297.5, -14.9, 1.3,0,1,1683,1024,1684,1024,100,0,100,0,310.5,0,0,100,4.19,4.187,0,0,0,0,5.583,74.48,162.2911817025,42.65092,6,P-GPS,
12000,2022-10-28 01:19:56,-34.9064768953993,-56.1632991655619,43.635172,46.75197,116.5234637025,163.2754337025,43.635172,12.415017,59.689306372,67.077758052,13,4,8.403,163.2754337025,43.635172,12.415017,59.689306372,5.368656,-11.1847,-6.71082,297.5, -15.7, 1.2,0,1,1684,1024,1684,1024,100,0,100,0,310.5,0,0,100,4.19,4.187,0,0,0,0,5.583,74.48,163.2754337025,43.635172,6,P-GPS,
12100,2022-10-28 01:19:56,-34.9064749650287,-56.1633045152735,44.619424,47.8674556,116.3922301025,164.2596857025,43.635172,12.6163416,61.437337924,68.826773856,13,4,8.403,164.2596857025,44.619424,12.6163416,61.437337924,5.368656,-11.408394,-6.71082,297.6, -15.9, 1.6,0,1,1684,1024,1684,1024,100,0,100,0,310.5,0,0,100,4.19,4.187,0,0,0,0,5.583,74.48,164.2596857025,44.619424,6,P-GPS,
12200,2022-10-28 01:19:56,-34.9064733365066,-56.1633100114648,45.603676,48.9173244,116.3266133025,165.2439377025,43.635172,12.7058192,63.184713308,70.575133492,13,4,8.38,165.2439377025,45.603676,12.7058192,63.184713308,5.59235,-11.408394,-6.71082,297.6, -16.6, 1.4,0,1,1684,1024,1684,1024,100,0,100,0,310.5,0,0,100,4.179,4.176,0,0,0,0,5.799,74.48,165.2439377025,45.603676,6,P-GPS,
12300,2022-10-28 01:19:57,-34.906471331879,-56.1633154097105,46.587928,50.0000016,116.2281881025,166.2281897025,43.635172,12.7058192,64.956366908,72.348427512,13,4,8.38,166.2281897025,46.587928,12.7058192,64.956366908,5.59235,-11.408394,-6.71082,297.6, -17.1, 1.2,0,1,1684,1024,1684,1024,100,0,100,0,310.5,0,0,100,4.179,4.176,0,0,0,0,5.799,74.48,166.2281897025,46.587928,6,P-GPS,
12400,2022-10-28 01:19:57,-34.9064691130589,-56.1633211823973,47.57218,51.0826788,116.1297629025,167.2124417025,43.635172,12.9966214,66.860894528,74.255907888,13,4,8.38,167.2124417025,47.57218,12.9966214,66.860894528,5.816044,-11.632088,-6.71082,297.6, -17.5, 0.9,0,1,1684,1024,1684,1024,100,0,100,0,310.5,0,0,100,4.179,4.176,0,0,0,0,5.799,74.48,167.2124417025,47.57218,6,P-GPS,
12500,2022-10-28 01:19:57,-34.9064669430009,-56.1633267904487,48.556432,52.1981644,115.9985293025,168.1966937025,43.635172,13.197946,68.713584876,76.111222908,13,4,8.38,168.1966937025,48.556432,13.197946,68.713584876,5.816044,-11.855782,-6.71082,297.6, -17.8, 1.2,0,1,1684,1024,1671,1024,100,0,98,0,310.5,0,0,100,4.179,4.176,0,0,0,0,5.799,74.48,168.1966937025,48.556432,6,P-GPS,
12600,2022-10-28 01:19:57,-34.9064645769565,-56.1633328935556,49.540684,53.31365,115.8672957025,169.1809457025,43.635172,13.5111176,70.730317224,78.130908012,13,4,8.38,169.1809457025,49.540684,13.5111176,70.730317224,6.039738,-12.079476,-6.487126,297.6, -17.3, 1.5,0,1,1684,1024,1671,1024,100,0,98,0,310.5,0,0,100,4.179,4.176,0,0,0,0,5.799,74.48,169.1809457025,49.540684,6,P-GPS,
12700,2022-10-28 01:19:57,-34.906462299317,-56.1633389393534,50.524936,54.297902,115.8672957025,170.1651977025,43.635172,13.5111176,72.719162432,80.121721724,13,4,8.38,170.1651977025,50.524936,13.5111176,72.719162432,6.039738,-12.079476,-6.71082,297.5, -17.3, 0.9,0,1,1684,1024,1675,1024,100,0,99,0,310.5,0,0,100,4.179,4.176,0,0,0,0,5.799,74.48,170.1651977025,50.524936,6,P-GPS,
12800,2022-10-28 01:19:57,-34.9064599299375,-56.1633450629143,51.509188,55.3149624,115.8344873025,171.1494497025,43.635172,13.7124422,74.74245646,82.147640424,13,4,8.38,171.1494497025,51.509188,13.7124422,74.74245646,6.039738,-12.30317,-6.487126,297.6, -17.7, 1.2,0,1,1684,1024,1684,1024,100,0,100,0,310.5,0,0,100,4.179,4.176,0,0,0,0,5.799,74.48,171.1494497025,51.509188,6,P-GPS,
12900,2022-10-28 01:19:57,-34.9064576378439,-56.1633509533322,52.49344,56.3320228,115.8016789025,172.1337017025,43.635172,13.7124422,76.690619252,84.098427888,13,4,8.38,172.1337017025,52.49344,13.7124422,76.690619252,6.039738,-12.30317,-6.487126,297.5, -17.7, 1.4,0,1,1684,1024,1639,1024,100,0,93,0,310.5,0,0,100,4.179,4.176,0,0,0,0,5.799,74.48,172.1337017025,52.49344,6,P-GPS,
13000,2022-10-28 01:19:57,-34.9064551651104,-56.1633572359084,53.477692,57.3162748,115.8016789025,173.1179537025,43.635172,14.0032444,78.772640316,86.183401708,13,4,8.38,173.1179537025,53.477692,14.0032444,78.772640316,6.263432,-12.526864,-6.487126,297.6, -17.8, 1.3,0,1,1604,1024,1530,1024,88,0,77,0,310.5,0,0,100,4.179,4.176,0,0,0,0,5.799,74.48,173.1179537025,53.477692,6,P-GPS,
13100,2022-10-28 01:19:57,-34.9064529016514,-56.1633631934759,54.461944,58.3661436,115.7360621025,174.1022057025,43.635172,14.0032444,80.735566888,88.1479687,13,4,8.38,174.1022057025,54.461944,14.0032444,80.735566888,6.263432,-12.526864,-6.039738,297.5, -17.8, 1.4,0,1,1609,1024,1134,1024,89,0,17,0,310.5,0,0,100,4.179,4.176,0,0,0,0,5.799,74.48,174.1022057025,54.461944,6,P-GPS,
13200,2022-10-28 01:19:57,-34.9064504138514,-56.1633694345798,55.118112,59.0223116,115.7360621025,174.7583737025,43.635172,14.204569,82.8084016,90.224412336,13,4,8.356,174.7583737025,55.118112,14.204569,82.8084016,6.263432,-12.750558,-5.59235,297.6, -16.8, 1.5,0,1,1611,1024,1194,1024,89,0,26,0,310.5,0,0,100,4.199,4.2,0,0,0,0,5.885,74.66,174.7583737025,55.118112,6,P-GPS,
13300,2022-10-28 01:19:58,-34.9064480612058,-56.163375382056,56.102364,60.039372,115.7032537025,175.7426257025,43.635172,14.204569,84.781498776,92.200134184,13,4,8.356,175.7426257025,56.102364,14.204569,84.781498776,6.263432,-12.750558,-4.921268,297.6, -16.7, 1.8,0,1,1653,1024,1224,1024,95,0,30,0,310.5,0,0,100,4.199,4.2,0,0,0,0,5.885,74.66,175.7426257025,56.102364,6,P-GPS,
13400,2022-10-28 01:19:58,-34.9064456269426,-56.1633816528696,56.430448,60.4658812,115.6048285025,176.0707097025,43.635172,14.204569,86.85531774,94.275921652,13,4,8.356,176.0707097025,56.430448,14.204569,86.85531774,6.263432,-12.750558,-4.026492,297.6, -17, 2.1,0,1,1684,1024,1251,1024,100,0,34,0,310.5,0,0,100,4.199,4.2,0,0,0,0,5.885,74.66,176.0707097025,56.430448,6,P-GPS,
13500,2022-10-28 01:19:58,-34.9064435449379,-56.1633872652876,57.086616,61.1220492,115.6048285025,176.7268777025,43.635172,14.204569,88.6975094,96.119097564,13,4,8.356,176.7268777025,57.086616,14.204569,88.6975094,6.263432,-12.750558,-3.35541,297.6, -17.7, 2.3,0,1,1684,1024,1251,1024,100,0,34,0,310.5,0,0,100,4.199,4.2,0,0,0,0,5.885,74.66,176.7268777025,57.086616,6,P-GPS,
13600,2022-10-28 01:19:58,-34.9064410881174,-56.1633935319434,57.4147,61.51575,115.5392117025,177.0549617025,43.635172,14.204569,90.773624952,98.197509704,13,4,8.356,177.0549617025,57.4147,14.204569,90.773624952,6.263432,-12.750558,-2.684328,297.5, -18.9, 2.5,0,1,1641,1024,1074,1024,93,0,8,0,310.5,0,0,100,4.199,4.2,0,0,0,0,5.885,74.66,177.0549617025,57.4147,6,P-GPS,
13700,2022-10-28 01:19:58,-34.9064387489879,-56.1633995215813,57.742784,61.8766424,115.5064033025,177.3830457025,43.635172,14.204569,92.756564648,100.182417904,13,4,8.356,177.3830457025,57.742784,14.204569,92.756564648,6.263432,-12.750558,-2.013246,297.4, -19.4, 2.6,0,1,1470,1024,1024,1024,68,0,0,0,310.5,0,0,100,4.199,4.2,0,0,0,0,5.885,74.66,177.3830457025,57.742784,6,P-GPS,
13800,2022-10-28 01:19:58,-34.9064363113896,-56.1634058456716,57.742784,61.9094508,115.4735949025,177.3830457025,43.635172,14.4058936,94.84580356,102.273297236,13,4,8.356,177.3830457025,57.742784,14.4058936,94.84580356,6.263432,-12.974252,-1.11847,297.5, -17.5, 3.1,0,1,1144,1024,1024,1024,18,0,0,0,310.5,0,0,100,4.199,4.2,0,0,0,0,5.885,74.66,177.3830457025,57.742784,6,P-GPS,
13900,2022-10-28 01:19:58,-34.9064343887705,-56.1634114398502,57.742784,61.9750676,115.4079781025,177.3830457025,43.635172,14.4058936,96.660764248,104.08792984,13,4,8.356,177.3830457025,57.742784,14.4058936,96.660764248,6.263432,-12.974252,-0.671082,297.7, -11.6, 3.1,0,1,1024,1024,1024,1024,0,0,0,0,310.5,0,0,100,4.199,4.2,0,0,0,0,5.885,74.66,177.3830457025,57.742784,6,P-GPS,
14000,2022-10-28 01:19:58,-34.9064320035886,-56.1634176471495,57.742784,62.0406844,115.3423613025,177.3830457025,43.635172,14.204569,98.71063308,106.139111008,13,4,8.356,177.3830457025,57.742784,14.4058936,98.71063308,6.263432,-12.750558,-0.447388,298.3, 3.3, 3.2,0,1,1024,1024,1102,1108,0,0,12,13,310.5,0,0,100,4.199,4.2,0,0,0,0,5.885,74.66,177.3830457025,57.742784,6,P-GPS,
14100,2022-10-28 01:19:58,-34.9064298141521,-56.1634233814354,57.742784,62.0734928,115.3095529025,177.3830457025,43.635172,14.204569,100.60203734,108.031827604,13,4,8.356,177.3830457025,57.742784,14.4058936,100.60203734,5.816044,-12.30317,-0.671082,297.6, 19.4, -0.1,0,1,1024,1024,1057,1561,0,0,5,81,310.5,0,0,100,4.199,4.2,0,0,0,0,5.885,74.66,177.3830457025,57.742784,6,P-GPS,
14200,2022-10-28 01:19:58,-34.9064277230346,-56.1634290832955,57.742784,62.1391096,115.2439361025,177.3830457025,43.635172,12.6163416,102.47047572,109.900594068,13,4,8.356,177.3830457025,57.742784,14.4058936,102.47047572,5.368656,-11.408394,-0.447388,297.8, 20.3, 0.9,0,1,1024,1024,1024,1684,0,0,0,100,310.8,0,0,100,4.199,4.2,0,0,0,0,5.885,74.66,177.3830457025,57.742784,6,P-GPS,
14300,2022-10-28 01:19:58,-34.9064258898952,-56.1634341145588,57.4147,61.8766424,115.1783193025,177.0549617025,43.635172,12.6163416,104.117785484,111.547903832,13,4,8.356,177.3830457025,57.742784,14.4058936,104.117785484,4.921268,-10.737312,-0.223694,298.4, 20.6, -0.2,0,1,1024,1024,1024,1684,0,0,0,100,312.5,0,0,100,4.199,4.2,0,0,0,0,5.885,74.66,177.0549617025,57.4147,6,P-GPS,
14400,2022-10-28 01:19:59,-34.9064242470558,-56.1634388135217,57.086616,61.5813668,115.1455109025,176.7268777025,43.635172,10.8044202,105.646000756,113.076119104,13,4,8.476,177.3830457025,57.742784,14.4058936,105.646000756,4.47388,-9.842536,0,300.9, 21.3, 0.5,0,1,1024,1024,1024,1684,0,0,0,100,315.4,0,0,100,4.23,4.203,0,0,0,0,3.762,74.66,176.7268777025,57.086616,6,P-GPS,
14500,2022-10-28 01:19:59,-34.9064227487179,-56.1634429228892,57.086616,61.6469836,115.0798941025,176.7268777025,43.635172,9.730689,106.99147324,114.421919672,13,4,8.476,177.3830457025,57.742784,14.4058936,106.99147324,3.802798,-8.94776,0,304.4, 21.8, 3,0,1,1024,1024,1024,1684,0,0,0,100,318.6,0,0,100,4.23,4.203,0,0,0,0,3.762,74.66,176.7268777025,57.086616,6,P-GPS,
14600,2022-10-28 01:19:59,-34.9064213719272,-56.1634466757415,56.758532,61.351708,115.0470857025,176.3987937025,43.635172,8.6345884,108.221460156,115.651906588,13,4,8.476,177.3830457025,57.742784,14.4058936,108.221460156,3.131716,-8.052984,0.223694,308, 21.9, 5,0,1,1024,1024,1024,1684,0,0,0,100,321.8,0,0,100,4.23,4.203,0,0,0,0,3.762,74.66,176.3987937025,56.758532,6,P-GPS,
14700,2022-10-28 01:19:59,-34.9064203125918,-56.1634497164829,56.758532,61.3845164,115.0142773025,176.3987937025,43.635172,7.6503348,109.209977248,116.64042368,13,4,8.476,177.3830457025,57.742784,14.4058936,109.209977248,2.684328,-7.158208,0.223694,311.6, 21.7, 7.7,0,1,1024,1024,1024,1671,0,0,0,98,325,0,0,100,4.23,4.203,0,0,0,0,3.762,74.66,176.3987937025,56.758532,6,P-GPS,
14800,2022-10-28 01:19:59,-34.9064197738243,-56.1634514080494,56.758532,61.4173248,114.9814689025,176.3987937025,43.635172,6.375279,109.752628184,117.1834027,13,4,8.476,177.3830457025,57.742784,14.4058936,109.752628184,2.013246,-6.039738,0.223694,315.6, 22.2, 9.6,0,1,1024,1024,1024,1577,0,0,0,84,328.1,0,0,100,4.23,4.203,0,0,0,0,3.762,74.66,176.3987937025,56.758532,6,P-GPS,
14900,2022-10-28 01:19:59,-34.9064192837539,-56.1634532439017,56.758532,61.4173248,114.9814689025,176.3987937025,43.635172,5.1673314,110.32808752,117.761158624,13,4,8.476,177.3830457025,57.742784,14.4058936,110.32808752,1.565858,-4.921268,0,318, 18.5, 10.1,0,1,1024,1024,1024,1499,0,0,0,72,331.3,0,0,100,4.23,4.203,0,0,0,0,3.762,74.66,176.3987937025,56.758532,6,P-GPS,
15000,2022-10-28 01:19:59,-34.9064190018376,-56.163454583842,56.758532,61.4829416,114.9158521025,176.3987937025,43.635172,4.1830778,110.737208268,118.174872548,13,4,8.476,177.3830457025,57.742784,14.4058936,110.737208268,1.11847,-4.026492,0,320.5, 15, 10.6,0,1,1024,1024,1024,1479,0,0,0,69,334,0,0,100,4.23,4.203,0,0,0,0,3.762,74.66,176.3987937025,56.758532,6,P-GPS,
15100,2022-10-28 01:19:59,-34.9064188846809,-56.1634553842042,56.758532,61.4829416,114.9158521025,176.3987937025,43.635172,3.2659324,110.974413,118.418310876,13,4,8.476,177.3830457025,57.742784,14.4058936,110.974413,0.894776,-3.131716,-0.223694,323.1, 13.3, 11.6,0,1,1024,1024,1024,1478,0,0,0,69,336.4,0,0,100,4.23,4.203,0,0,0,0,3.762,74.66,176.3987937025,56.758532,6,P-GPS,
15200,2022-10-28 01:19:59,-34.9064192412059,-56.1634546720515,57.086616,61.8110256,114.9158521025,176.7268777025,43.635172,2.3264176,110.727365748,118.6679828,13,4,8.476,177.3830457025,57.742784,14.4058936,110.974413,0.671082,-2.23694,-0.223694,325.5, 12.7, 12.3,0,1,1024,1024,1024,1478,0,0,0,69,338.6,0,0,100,4.23,4.203,0,0,0,0,3.762,74.66,176.7268777025,57.086616,6,P-GPS,
15300,2022-10-28 01:20:00,-34.9064193078288,-56.1634546015591,57.086616,61.8110256,114.9158521025,176.7268777025,43.635172,1.7000744,110.698494356,118.700135032,13,4,8.476,177.3830457025,57.742784,14.4058936,110.974413,0.671082,-1.565858,-0.223694,326.9, 9.3, 9.5,0,1,1024,1024,1024,1478,0,0,0,69,340.7,0,0,100,4.23,4.203,0,0,0,0,3.762,74.66,176.7268777025,57.086616,6,P-GPS,
15400,2022-10-28 01:20:00,-34.9064193738003,-56.1634540930696,57.4147,62.1063012,114.9486605025,177.0549617025,43.635172,1.11847,110.548888052,118.854006428,13,4,8.461,177.3830457025,57.742784,14.4058936,110.974413,0.671082,-0.894776,-0.223694,328.7, 5.9, 6.8,0,1,1024,1024,1024,1417,0,0,0,60,342.9,0,0,100,4.211,4.208,0,0,0,0,3.597,74.84,177.0549617025,57.4147,6,P-GPS,
15500,2022-10-28 01:20:00,-34.9064194930936,-56.1634534317282,57.4147,62.0734928,114.9814689025,177.0549617025,43.635172,0.4921268,110.349741064,119.05676234,13,4,8.461,177.3830457025,57.742784,14.4058936,110.974413,0.447388,-0.223694,-0.223694,330.7, 3.6, 4.6,0,1,1024,1024,1024,1317,0,0,0,44,345,0,0,100,4.211,4.208,0,0,0,0,3.597,74.84,177.0549617025,57.4147,6,P-GPS,
15600,2022-10-28 01:20:00,-34.9064194766007,-56.1634518681929,57.742784,62.4015768,114.9814689025,177.3830457025,43.635172,0.671082,109.921919528,119.524610124,13,4,8.461,177.3830457025,57.742784,14.4058936,110.974413,0.671082,0,-0.223694,332.6, 2.3, 2.8,0,1,1024,1024,1024,1248,0,0,0,34,346.7,0,0,100,4.211,4.208,0,0,0,0,3.597,74.84,177.3830457025,57.742784,6,P-GPS,
15700,2022-10-28 01:20:00,-34.9064196602892,-56.1634511304674,57.742784,62.4015768,114.9814689025,177.3830457025,43.635172,0.6263432,109.692588812,119.755253176,13,4,8.461,177.3830457025,57.742784,14.4058936,110.974413,0.447388,0.447388,0,334.2, 1.4, 1.2,0,1,1024,1024,1024,1209,0,0,0,28,348,0,0,100,4.211,4.208,0,0,0,0,3.597,74.84,177.3830457025,57.742784,6,P-GPS,
15800,2022-10-28 01:20:00,-34.9064198534748,-56.1634503960011,58.070868,62.6968524,115.0142773025,177.7111297025,43.635172,1.006623,109.462930012,119.986224312,13,4,8.461,177.7111297025,58.070868,14.4058936,110.974413,0.447388,0.894776,0,335.6, 0.7, -0.1,0,1,1024,1024,1024,1160,0,0,0,21,349.1,0,0,100,4.211,4.208,0,0,0,0,3.597,74.84,177.7111297025,58.070868,6,P-GPS,
15900,2022-10-28 01:20:00,-34.906420062085,-56.163449698348,58.070868,62.6968524,115.0142773025,177.7111297025,43.635172,0.9171454,109.240817144,120.20833718,13,4,8.461,177.7111297025,58.070868,14.4058936,110.974413,0.223694,0.894776,0,336.6, 0, -1.1,0,1,1178,1024,1048,1117,23,0,4,14,350,0,0,100,4.211,4.208,0,0,0,0,3.597,74.84,177.7111297025,58.070868,6,P-GPS,
