time(millisecond),datetime(utc),latitude,longitude,height_above_takeoff(feet),height_above_ground_at_drone_location(feet),ground_elevation_at_drone_location(feet),altitude_above_seaLevel(feet),height_sonar(feet),speed(mph),distance(feet),mileage(feet),satellites,gpslevel,voltage(v),max_altitude(feet),max_ascent(feet),max_speed(mph),max_distance(feet), xSpeed(mph), ySpeed(mph), zSpeed(mph), compass_heading(degrees), pitch(degrees), roll(degrees),isPhoto,isVideo,rc_elevator,rc_aileron,rc_throttle,rc_rudder,rc_elevator(percent),rc_aileron(percent),rc_throttle(percent),rc_rudder(percent),gimbal_heading(degrees),gimbal_pitch(degrees),gimbal_roll(degrees),battery_percent,voltageCell1,voltageCell2,voltageCell3,voltageCell4,voltageCell5,voltageCell6,current(A),battery_temperature(f),altitude(feet),ascent(feet),flycStateRaw,flycState,message
0,2022-10-27 21:14:00,-34.9108302184839,-56.1438447749791,0,0,38.629280435612,38.629280435612,0.328084,0,0,0,15,2,0,38.629280435612,0,0,0,0,0,0,164.9, -8.5, -2.1,0,0,364,364,364,1684,-100,-100,-100,100,0,0,0,72,4.072,4.071,0,0,0,0,0,94.64,38.629280435612,0,41,Motors_Started,"Aeronave en Zona de altitud restringida (150). Vuela con precaución (Code: 190001). Error de calibración del estabilizador. Reinicia la aeronave o contacta con la Asistencia DJI (Code: 40011). Señal débil del GPS. Vuelo estacionario inestable. Vuela "
100,2022-10-27 21:14:00,-34.9108302799255,-56.1438447569256,0,0,38.629280435612,38.629280435612,0.328084,0,0.0230584981132,0.0230584981132,15,2,0,38.629280435612,0,0,0.0230584981132,0,0,-0.223694,165.5, -7.9, -2.7,0,0,364,364,364,1684,-100,-100,-100,100,0,0,0,72,4.072,4.071,0,0,0,0,0,94.64,38.629280435612,0,41,Motors_Started,
200,2022-10-27 21:14:00,-34.9108303221553,-56.1438446600727,0,0,38.629280435612,38.629280435612,0.328084,0,0.05111384678,0.05587762646,15,2,0,38.629280435612,0,0,0.05111384678,0,0,0,165.8, -7.7, -2.8,0,0,364,364,364,1684,-100,-100,-100,100,0,0,0,72,4.072,4.071,0,0,0,0,0,94.64,38.629280435612,0,41,Motors_Started,
300,2022-10-27 21:14:00,-34.9108303703563,-56.1438445662956,0,0,38.629280435612,38.629280435612,0.328084,0,0.083478349128,0.088990816496,16,2,0,38.629280435612,0,0,0.083478349128,0,0,0,165.6, -7.6, -2.3,0,0,364,364,364,1684,-100,-100,-100,100,172.1,0,0,72,4.072,4.071,0,0,0,0,0,94.64,38.629280435612,0,41,Motors_Started,"Setting new Return-To-Home altitude to 100m (328 ft). Data Recorder File Index is 60. Setting new Maximum Flight Altitude to 120m (394 ft)"
400,2022-10-27 21:14:00,-34.910830179158,-56.1438446654467,0,0,38.629280435612,38.629280435612,0.328084,0,0.035774607444,0.164795280864,16,5,0,38.629280435612,0,0,0.083478349128,0,0,0,164.9, -7.5, -1.4,0,0,364,364,364,1541,-100,-100,-100,78,172,0,0,72,4.072,4.071,0,0,0,0,0,94.64,38.629280435612,0,41,Motors_Started,"Error de calibración del estabilizador. Reinicia la aeronave o contacta con la Asistencia DJI (Code: 40011)"
500,2022-10-27 21:14:00,-34.9108301089411,-56.1438446925295,0,0,38.629280435612,38.629280435612,0.328084,0,0.046966536936,0.191664704296,16,5,0,38.629280435612,0,0,0.083478349128,0,0,0,164.4, -6.1, -1.8,0,0,1024,1024,1024,1024,0,0,0,0,171.9,0,0,72,4.072,4.071,0,0,0,0,0,94.64,38.629280435612,0,41,Motors_Started,
600,2022-10-27 21:14:00,-34.9108300462247,-56.1438446696478,0,0,38.629280435612,38.629280435612,0.328084,0,0.070307416948,0.215548891412,16,5,0,38.629280435612,0,0,0.083478349128,0,0,0,163.7, -5.2, -1.4,0,0,1024,1024,364,364,0,0,-100,-100,171.6,0,0,72,4.072,4.071,0,0,0,0,0,94.64,38.629280435612,0,41,Motors_Started,
700,2022-10-27 21:14:01,-34.9108299930018,-56.1438446385236,0,0,38.629280435612,38.629280435612,0.328084,0,0.09184055412,0.237084653256,16,5,0,38.629280435612,0,0,0.09184055412,0,0,0,163.6, -5.6, -1,0,0,1024,1024,1024,1024,0,0,0,0,171.4,0,0,72,4.072,4.071,0,0,0,0,0,94.64,38.629280435612,0,41,Motors_Started,
800,2022-10-27 21:14:01,-34.9108299685683,-56.143844634123,0,0,38.629280435612,38.629280435612,0.328084,0,0.10044947828,0.2460958084,16,5,0,38.629280435612,0,0,0.10044947828,0,0,0,163.1, -5.9, -0.8,0,0,1024,1024,1024,1024,0,0,0,0,171.3,0,0,72,4.072,4.071,0,0,0,0,0,94.64,38.629280435612,0,41,Motors_Started,
900,2022-10-27 21:14:01,-34.9108298548922,-56.1438446637425,0,0,38.629280435612,38.629280435612,0.328084,0,0.136767392828,0.288506898996,16,5,0,38.629280435612,0,0,0.136767392828,0,0,0,163, -5.4, -1.6,0,0,1024,1024,1024,1024,0,0,0,0,171.1,0,0,72,4.072,4.071,0,0,0,0,0,94.64,38.629280435612,0,41,Motors_Started,
1000,2022-10-27 21:14:01,-34.9108298175808,-56.1438446290786,0,0,38.629280435612,38.629280435612,0.328084,0,0.152644033756,0.305620416604,16,5,0,38.629280435612,0,0,0.152644033756,0,0,-0.223694,161.7, -5.1, -1.2,0,0,1024,1024,1024,1024,0,0,0,0,170.6,0,0,72,4.072,4.071,0,0,0,0,0,94.64,38.629280435612,0,41,Motors_Started,
1100,2022-10-27 21:14:01,-34.910829778772,-56.1438445865379,0,0,38.629280435612,38.629280435612,0.328084,0,0.170047249536,0.324659459208,16,5,8.159,38.629280435612,0,0,0.170047249536,0,0,0,160.4, -4.7, -2.2,0,0,1024,1024,1024,1024,0,0,0,0,169.3,0,0,72,4.072,4.071,0,0,0,0,0.732,94.64,38.629280435612,0,10,Assisted_Takeoff,
1200,2022-10-27 21:14:01,-34.9108297911807,-56.1438445549803,0,0,38.629280435612,38.629280435612,0.328084,0,0.169227039536,0.33513124432,16,5,8.159,38.629280435612,0,0,0.170047249536,0,0,0,159.7, -5.2, -1.8,0,0,1024,1024,1024,1024,0,0,0,0,168.7,0,0,72,4.072,4.071,0,0,0,0,0.732,94.64,38.629280435612,0,10,Assisted_Takeoff,
1300,2022-10-27 21:14:01,-34.9108298865258,-56.1438445637121,0,0,38.629280435612,38.629280435612,0.328084,0,0.136617130356,0.37001641604,16,5,8.159,38.629280435612,0,0,0.170047249536,0,0,0,159.3, -5.8, -2,0,0,1024,1024,1024,1024,0,0,0,0,168,0,0,72,4.072,4.071,0,0,0,0,0.732,94.64,38.629280435612,0,10,Assisted_Takeoff,"Error de calibración del estabilizador. Reinicia la aeronave o contacta con la Asistencia DJI (Code: 40011)"
1400,2022-10-27 21:14:01,-34.9108298585025,-56.1438444779405,0,0.065616799999999,38.563663635612,38.629280435612,0.328084,0,0.158581697988,0.397637808,16,5,8.159,38.629280435612,0,0,0.170047249536,0,0,0,159, -5.8, -2.4,0,0,1024,1024,1024,1024,0,0,0,0,167.9,0,0,72,4.072,4.071,0,0,0,0,0.732,94.64,38.629280435612,0,10,Assisted_Takeoff,
1500,2022-10-27 21:14:01,-34.9108298464368,-56.1438443900064,0,0.065616799999999,38.563663635612,38.629280435612,0.328084,0,0.17802329966,0.42431431804,16,5,8.159,38.629280435612,0,0,0.17802329966,0,0,0,159.9, -10, -3.2,0,0,1024,1024,1024,1024,0,0,0,0,167.8,0,0,72,4.072,4.071,0,0,0,0,0.732,94.64,38.629280435612,0,10,Assisted_Takeoff,
1600,2022-10-27 21:14:01,-34.9108299226578,-56.1438442744341,0,0.065616799999999,38.563663635612,38.629280435612,0.328084,0.223694,0.184600071524,0.46868767904,16,5,8.159,38.629280435612,0,0.223694,0.184600071524,-0.223694,0,0,164.1, -19.8, -3.4,0,0,1024,1024,1231,1024,0,0,31,0,170.2,0,0,72,4.072,4.071,0,0,0,0,0.732,94.64,38.629280435612,0,10,Assisted_Takeoff,
1700,2022-10-27 21:14:02,-34.9108300685695,-56.1438441238773,0,0.065616799999999,38.563663635612,38.629280435612,0.328084,0.223694,0.2023376049,0.53842521408,16,5,8.159,38.629280435612,0,0.223694,0.2023376049,-0.223694,0,0,165.7, -20.5, -3.8,0,0,1024,1024,1400,1024,0,0,57,0,172.5,0,0,72,4.072,4.071,0,0,0,0,0.732,94.64,38.629280435612,0,10,Assisted_Takeoff,
1800,2022-10-27 21:14:02,-34.9108301995092,-56.1438440494942,0,0.065616799999999,38.563663635612,38.629280435612,0.328084,0,0.217169954456,0.591125347,16,5,8.159,38.629280435612,0,0.223694,0.217169954456,0,0,0,164.9, -16.3, -4.4,0,0,1024,1024,1653,1024,0,0,95,0,172.9,0,0,72,4.072,4.071,0,0,0,0,0.732,94.64,38.629280435612,0,10,Assisted_Takeoff,
1900,2022-10-27 21:14:02,-34.9108303084934,-56.1438439865776,0,0.065616799999999,38.563663635612,38.629280435612,0.328084,0,0.238158800272,0.6351214114,15,5,8.159,38.629280435612,0,0.223694,0.238158800272,0,0,-0.223694,162.3, -12.7, -5.3,0,0,1024,1024,1653,1024,0,0,95,0,171.5,0,0,72,4.072,4.071,0,0,0,0,0.732,94.64,38.629280435612,0,10,Assisted_Takeoff,
2000,2022-10-27 21:14:02,-34.910830354951,-56.1438439140382,0,0.065616799999999,38.563663635612,38.629280435612,0.328084,0,0.262354995272,0.66265750152,15,5,8.159,38.629280435612,0,0.223694,0.262354995272,0,0,-0.223694,160.6, -11.1, -5.5,0,0,1024,1024,1684,1024,0,0,100,0,168.8,0,0,72,4.072,4.071,0,0,0,0,0.732,94.64,38.629280435612,0,10,Assisted_Takeoff,
2100,2022-10-27 21:14:02,-34.9108304023004,-56.1438438333999,0,0.065616799999999,38.563663635612,38.629280435612,0.328084,0,0.289586295356,0.69233269932,15,5,8.128,38.629280435612,0,0.223694,0.289586295356,0,0.223694,-0.447388,159.2, -7.6, -4.8,0,0,1024,1024,1684,1024,0,0,100,0,167.9,0,0,72,4.069,4.067,0,0,0,0,1.527,94.64,38.629280435612,0,10,Assisted_Takeoff,"Error de calibración del estabilizador. Reinicia la aeronave o contacta con la Asistencia DJI (Code: 40011)"
2200,2022-10-27 21:14:02,-34.9108303569123,-56.1438436789513,0,0.065616799999999,38.563663635612,38.629280435612,0.328084,0.223694,0.3317913492,0.74141734656,15,5,8.128,38.629280435612,0,0.223694,0.3317913492,0,0.223694,-0.447388,159, -3, -3.1,0,0,1024,1024,1684,1024,0,0,100,0,167.6,0,0,72,4.069,4.067,0,0,0,0,1.527,94.64,38.629280435612,0,6,P-GPS,
2300,2022-10-27 21:14:02,-34.91083030005,-56.1438435190574,0,0.065616799999999,38.563663635612,38.629280435612,0.656168,0,0.37693898844,0.79356301752,15,5,8.128,38.629280435612,0,0.223694,0.37693898844,0,0,-0.447388,159.5, -0.2, -0.6,0,0,1024,1024,1684,1024,0,0,100,0,167.6,0,0,72,4.069,4.067,0,0,0,0,1.527,94.64,38.629280435612,0,6,P-GPS,"Error de calibración del estabilizador. Reinicia la aeronave o contacta con la Asistencia DJI (Code: 40011)"
2400,2022-10-27 21:14:02,-34.9108301944917,-56.1438434565988,0,0.164042,38.465238435612,38.629280435612,0.656168,0,0.39454725672,0.83637141784,15,5,8.128,38.629280435612,0,0.223694,0.39454725672,0,0,-0.671082,159, -0.4, 0.6,0,0,1024,1024,1684,1024,0,0,100,0,167.6,0,0,72,4.069,4.067,0,0,0,0,1.527,94.64,38.629280435612,0,6,P-GPS,
2500,2022-10-27 21:14:02,-34.9108300822016,-56.1438433817042,0,0.164042,38.465238435612,38.629280435612,0.656168,0,0.41981300556,0.88306761356,16,5,8.128,38.629280435612,0,0.223694,0.41981300556,0,0,-0.894776,158.8, -0.8, 1.5,0,0,1024,1024,1345,1024,0,0,49,0,167.6,0,0,72,4.069,4.067,0,0,0,0,1.527,94.64,38.629280435612,0,6,P-GPS,
2600,2022-10-27 21:14:02,-34.9108299187708,-56.1438434511784,0.328084,0.492126,38.465238435612,38.957364435612,0.984252,0,0.41088912076,0.94621394104,16,5,8.128,38.957364435612,0.328084,0.223694,0.41981300556,0,0,-1.11847,158.7, -1, 1.4,0,0,1024,1024,1345,1024,0,0,49,0,167.6,0,0,72,4.069,4.067,0,0,0,0,1.527,94.64,38.957364435612,0.328084,6,P-GPS,
2700,2022-10-27 21:14:02,-34.9108297593538,-56.1438435279456,0.656168,0.7217848,38.563663635612,39.285448435612,1.312336,0,0.40898295272,1.00874675144,16,5,8.128,39.285448435612,0.656168,0.223694,0.41981300556,0,0,-1.565858,158.6, -0.8, 1.3,0,0,1024,1024,1024,1024,0,0,0,0,167.6,0,0,72,4.069,4.067,0,0,0,0,1.527,94.64,39.285448435612,0.656168,6,P-GPS,
2800,2022-10-27 21:14:03,-34.9108297884218,-56.1438434313803,0.656168,0.82021,38.465238435612,39.285448435612,1.968504,0,0.43153216604,1.03952431148,16,5,8.128,39.285448435612,0.656168,0.223694,0.43153216604,0,0,-1.565858,158.5, -0.5, 2,0,0,1024,1024,1024,1024,0,0,0,0,167.6,0,0,72,4.069,4.067,0,0,0,0,1.527,94.64,39.285448435612,0.656168,6,P-GPS,
2900,2022-10-27 21:14:03,-34.9108298320577,-56.1438433287133,0.984252,1.148294,38.465238435612,39.613532435612,2.296588,0,0.4551017206,1.07412076928,16,5,8.128,39.613532435612,0.984252,0.223694,0.4551017206,0,0,-1.342164,158.4, -0.2, 1.7,0,0,1024,1024,1024,1024,0,0,0,0,167.6,0,0,72,4.069,4.067,0,0,0,0,1.527,94.64,39.613532435612,0.984252,6,P-GPS,
3000,2022-10-27 21:14:03,-34.9108299928627,-56.1438431524166,0.984252,1.148294,38.465238435612,39.613532435612,2.624672,0,0.4923884672,1.15301512876,16,5,8.109,39.613532435612,0.984252,0.223694,0.4923884672,0,0,-0.894776,158.4, 0.4, 1.7,0,0,1024,1024,1024,1024,0,0,0,0,167.6,0,0,72,4.018,4.013,0,0,0,0,1.783,94.64,39.613532435612,0.984252,6,P-GPS,
3100,2022-10-27 21:14:03,-34.9108299785733,-56.1438430663005,1.312336,1.476378,38.465238435612,39.941616435612,2.624672,0,0.51866471476,1.17930449968,16,5,8.109,39.941616435612,1.312336,0.223694,0.51866471476,0,0,-0.447388,158.4, 0.3, 1.5,0,0,1253,1024,1024,1024,35,0,0,0,167.6,0,0,72,4.018,4.013,0,0,0,0,1.783,94.64,39.941616435612,1.312336,6,P-GPS,
3200,2022-10-27 21:14:03,-34.910830079256,-56.1438429944274,1.312336,1.476378,38.465238435612,39.941616435612,2.952756,0,0.53514437408,1.22187011784,16,5,8.109,39.941616435612,1.312336,0.223694,0.53514437408,0,0,-0.223694,158.3, 0.7, 1.3,0,0,1684,722,1024,1024,100,-46,0,0,167.6,0,0,72,4.018,4.013,0,0,0,0,1.783,94.64,39.941616435612,1.312336,6,P-GPS,
3300,2022-10-27 21:14:03,-34.9108301771567,-56.143842921421,1.312336,1.476378,38.465238435612,39.941616435612,2.952756,0,0.55477692064,1.26373691708,16,5,8.109,39.941616435612,1.312336,0.223694,0.55477692064,0,0,0,158.2, -6.3, 1,0,0,1684,683,1024,1024,100,-52,0,0,167.6,0,0,72,4.018,4.013,0,0,0,0,1.783,94.64,39.941616435612,1.312336,6,P-GPS,
3400,2022-10-27 21:14:03,-34.9108304818598,-56.1438426429986,1.312336,1.476378,38.465238435612,39.941616435612,2.952756,0.3131716,0.64506891828,1.40265424436,16,5,8.109,39.941616435612,1.312336,0.3131716,0.64506891828,-0.223694,0.223694,0,158.3, -13.9, -2,0,0,1684,814,1559,1024,100,-32,81,0,167.6,0,0,72,4.018,4.013,0,0,0,0,1.783,94.64,39.941616435612,1.312336,6,P-GPS,
3500,2022-10-27 21:14:03,-34.9108306999559,-56.143842340892,1.312336,1.5091864,38.432430035612,39.941616435612,2.952756,0.8052984,0.7491470056,1.52307747656,16,5,8.109,39.941616435612,1.312336,0.8052984,0.7491470056,-0.671082,0.447388,0,158.9, -16, -3.9,0,0,1684,920,1684,1187,100,-16,100,25,167.6,0,0,72,4.018,4.013,0,0,0,0,1.783,94.64,39.941616435612,1.312336,6,P-GPS,
3600,2022-10-27 21:14:03,-34.9108310747632,-56.1438419425823,1.312336,1.5091864,38.432430035612,39.941616435612,2.952756,1.6105968,0.90318572444,1.70446527764,16,5,8.109,39.941616435612,1.312336,1.6105968,0.90318572444,-1.342164,0.894776,0,159.2, -16.5, -2.6,0,0,1684,920,1684,1187,100,-16,100,25,167.6,0,0,72,4.018,4.013,0,0,0,0,1.783,94.64,39.941616435612,1.312336,6,P-GPS,
3700,2022-10-27 21:14:03,-34.9108317146258,-56.1438413558249,1.312336,1.5419948,38.399621635612,39.941616435612,2.952756,2.3040482,1.15951119196,1.99656174368,16,5,8.109,39.941616435612,1.312336,2.3040482,1.15951119196,-2.013246,1.11847,-0.671082,159.1, -15.6, -0.5,0,0,1684,1020,1684,1514,100,-1,100,74,168,0,0.2,72,4.018,4.013,0,0,0,0,1.783,94.64,39.941616435612,1.312336,6,P-GPS,
3800,2022-10-27 21:14:04,-34.9108327387758,-56.1438407237066,1.64042,1.804462,38.465238435612,40.269700435612,2.952756,2.9974996,1.52142721404,2.41535768884,16,5,8.109,40.269700435612,1.64042,2.9974996,1.52142721404,-2.684328,1.342164,-1.342164,160, -15.2, 0.2,0,0,1024,1024,1684,1234,0,0,100,32,169.5,0,2.5,72,4.018,4.013,0,0,0,0,1.783,94.64,40.269700435612,1.64042,6,P-GPS,
3900,2022-10-27 21:14:04,-34.9108339756318,-56.1438398687575,1.64042,1.8700788,38.399621635612,40.269700435612,3.28084,3.7133204,2.00843510364,2.93407817788,17,5,8.109,40.269700435612,1.64042,3.7133204,2.00843510364,-3.35541,1.565858,-2.013246,162.3, -10.2, 1.3,0,0,1024,1024,1684,1191,0,0,100,25,171.1,0,6.6,72,4.018,4.013,0,0,0,0,1.783,94.64,40.269700435612,1.64042,6,P-GPS,
4000,2022-10-27 21:14:04,-34.9108353695004,-56.1438389948728,2.296588,2.624672,38.301196435612,40.925868435612,3.937008,3.7133204,2.55394693212,3.505905624,17,5,8.051,40.925868435612,2.296588,3.7133204,2.55394693212,-3.35541,1.565858,-2.684328,164.3, 9.6, 3.7,0,0,1024,1024,1684,1173,0,0,100,23,172.1,0,8.7,72,4.02,4.015,0,0,0,0,4.243,94.64,40.925868435612,2.296588,6,P-GPS,
4100,2022-10-27 21:14:04,-34.9108366781347,-56.1438381552206,2.624672,3.0183728,38.235579635612,41.253952435612,4.593176,2.9974996,3.07850731636,4.0454069536,18,5,8.051,41.253952435612,2.624672,3.7133204,3.07850731636,-2.684328,1.342164,-3.579104,165.6, 12.8, 5.2,0,0,1024,1024,1684,1040,0,0,100,2,172.9,0,8.7,72,4.02,4.015,0,0,0,0,4.243,94.64,41.253952435612,2.624672,6,P-GPS,
4200,2022-10-27 21:14:04,-34.910837707611,-56.1438374333029,3.28084,3.7401576,38.169962835612,41.910120435612,5.249344,2.1922012,3.5058400072,4.4787074924,18,5,8.051,41.910120435612,3.28084,3.7133204,3.5058400072,-2.013246,0.894776,-4.250186,166.6, 10.2, 4.4,0,0,1684,1024,1684,1024,100,0,100,0,173.4,0,7.8,72,4.02,4.015,0,0,0,0,4.243,94.64,41.910120435612,3.28084,6,P-GPS,
4300,2022-10-27 21:14:04,-34.9108389072783,-56.1438366288408,3.937008,4.3963256,38.169962835612,42.566288435612,6.233596,1.4987498,3.9987206004,4.9782153824,18,5,8.051,42.566288435612,3.937008,3.7133204,3.9987206004,-1.342164,0.671082,-4.921268,167.2, 6.5, 4,0,0,1684,1024,1684,1024,100,0,100,0,173.7,0,6.4,72,4.02,4.015,0,0,0,0,4.243,94.64,42.566288435612,3.937008,6,P-GPS,
4400,2022-10-27 21:14:04,-34.9108394965438,-56.1438362087617,4.92126,5.4790028,38.071537635612,43.550540435612,6.889764,1.2079476,4.245899086,5.2272311384,18,5,8.051,43.550540435612,4.92126,3.7133204,4.245899086,-1.11847,0.447388,-5.816044,167.1, -8.4, 3.1,0,0,1684,1024,1684,1024,100,0,100,0,173.8,0,4.7,72,4.02,4.015,0,0,0,0,4.243,94.64,43.550540435612,4.92126,6,P-GPS,
4500,2022-10-27 21:14:04,-34.9108401985351,-56.1438357925342,5.905512,6.4304464,38.104346035612,44.534792435612,7.874016,1.2079476,4.525590696,5.5120408588,18,5,8.051,44.534792435612,5.905512,3.7133204,4.525590696,-1.11847,0.447388,-6.039738,167.3, -15.5, 2.1,0,0,1684,1024,1684,1024,100,0,100,0,173.8,0,3.1,72,4.02,4.015,0,0,0,0,4.243,94.64,44.534792435612,5.905512,6,P-GPS,
4600,2022-10-27 21:14:04,-34.9108409768255,-56.1438355017792,6.889764,7.4146984,38.104346035612,45.519044435612,8.858268,1.8342908,4.8067258756,5.8090224956,18,5,8.051,45.519044435612,6.889764,3.7133204,4.8067258756,-1.789552,0.447388,-6.487126,167.8, -15.8, 1.5,0,0,1684,1024,1684,1024,100,0,100,0,173.8,0,1.9,72,4.02,4.015,0,0,0,0,4.243,94.64,45.519044435612,6.889764,6,P-GPS,
4700,2022-10-27 21:14:05,-34.9108418264279,-56.1438354174478,7.874016,8.4973756,38.005920835612,46.503296435612,9.84252,2.5501116,5.0769030496,6.1200133192,18,5,8.051,46.503296435612,7.874016,3.7133204,5.0769030496,-2.460634,0.671082,-6.71082,168, -15.4, 2,0,0,1684,1024,1684,1024,100,0,100,0,173.8,-0.1,1.1,72,4.02,4.015,0,0,0,0,4.243,94.64,46.503296435612,7.874016,6,P-GPS,
4800,2022-10-27 21:14:05,-34.910842928562,-56.1438349736037,9.186352,9.7769032,38.038729235612,47.815632435612,10.826772,3.467257,5.4866799656,6.5435041464,18,5,8.051,47.815632435612,9.186352,3.7133204,5.4866799656,-3.35541,0.894776,-6.71082,168.3, -15.5, 2.8,0,0,1684,1024,1684,1024,100,0,100,0,173.8,-0.1,0.6,72,4.02,4.015,0,0,0,0,4.243,94.64,47.815632435612,9.186352,6,P-GPS,
4900,2022-10-27 21:14:05,-34.9108442831441,-56.1438344399664,10.170604,10.8595804,37.940304035612,48.799884435612,11.811024,4.1830778,5.9911091156,7.0628611184,18,5,8.051,48.799884435612,10.170604,4.1830778,5.9911091156,-4.026492,1.11847,-6.71082,168.5, -15.2, 3.7,0,0,1684,1024,1684,1024,100,0,100,0,173.8,-0.1,0.3,72,4.02,4.015,0,0,0,0,4.243,94.64,48.799884435612,10.170604,6,P-GPS,
5000,2022-10-27 21:14:05,-34.9108459361336,-56.143833739307,11.154856,11.8438324,37.940304035612,49.784136435612,12.795276,4.8317904,6.6171918128,7.7013453908,18,5,7.94,49.784136435612,11.154856,4.8317904,6.6171918128,-4.697574,1.11847,-6.71082,168.5, -15, 4.3,0,0,1684,1024,1670,1024,100,0,98,0,173.8,-0.1,0.2,72,3.979,3.975,0,0,0,0,6.63,94.64,49.784136435612,11.154856,6,P-GPS,
5100,2022-10-27 21:14:05,-34.9108478141155,-56.1438327901056,12.467192,13.2217852,37.874687235612,51.096472435612,13.779528,5.480503,7.3533138836,8.4430448896,18,5,7.94,51.096472435612,12.467192,5.480503,7.3533138836,-5.368656,1.11847,-6.487126,168.9, -13.9, 4.6,0,0,1684,1024,1324,1024,100,0,45,0,173.8,-0.2,0.1,72,3.979,3.975,0,0,0,0,6.63,94.64,51.096472435612,12.467192,6,P-GPS,
5200,2022-10-27 21:14:05,-34.9108501484965,-56.1438320440279,13.451444,14.271654,37.809070435612,52.080724435612,14.76378,5.9726298,8.2086944884,9.3235239204,18,5,7.94,52.080724435612,13.451444,5.9726298,8.2086944884,-5.816044,1.342164,-6.487126,169.1, -13.2, 4.3,0,0,1684,1024,1360,1024,100,0,51,0,173.8,-0.2,0.1,72,3.979,3.975,0,0,0,0,6.63,94.64,52.080724435612,13.451444,6,P-GPS,
5300,2022-10-27 21:14:05,-34.9108527696676,-56.1438312539343,14.435696,15.3215228,37.743453635612,53.064976435612,15.748032,6.3976484,9.1685042304,10.3086289388,18,5,7.94,53.064976435612,14.435696,6.3976484,9.1685042304,-6.263432,1.342164,-5.816044,169.3, -13.3, 4.4,0,0,1684,1024,1666,828,100,0,97,-30,173.8,-0.2,0,72,3.979,3.975,0,0,0,0,6.63,94.64,53.064976435612,14.435696,6,P-GPS,"Punto de origen actualizado. Altitud de RPO establecida en 100m (Code: 3000001)"
5400,2022-10-27 21:14:05,-34.9108553852174,-56.1438304559233,15.419948,16.3713916,37.677836835612,54.049228435612,16.4042,6.6213424,10.1323494056,11.292323196,18,5,7.94,54.049228435612,15.419948,6.6213424,10.1323494056,-6.487126,1.342164,-5.144962,169.2, -14, 4.4,0,0,1684,1024,1666,828,100,0,97,-30,173.8,-0.2,0,72,3.979,3.975,0,0,0,0,6.63,94.64,54.049228435612,15.419948,6,P-GPS,
5500,2022-10-27 21:14:05,-34.9108589949989,-56.1438293779966,16.076116,17.0931764,37.612220035612,54.705396435612,17.388452,7.0687304,11.4652562724,12.6482615596,18,5,7.94,54.705396435612,16.076116,7.0687304,11.4652562724,-6.934514,1.342164,-4.921268,169.2, -14.3, 3.3,0,0,1684,981,1684,545,100,-7,100,-73,173.5,-0.3,-0.1,72,3.979,3.975,0,0,0,0,6.63,94.64,54.705396435612,16.076116,6,P-GPS,
5600,2022-10-27 21:14:05,-34.9108619147209,-56.1438286202391,16.732284,17.716536,37.645028435612,55.361564435612,18.04462,7.7621818,12.533793052,13.7374020144,18,5,7.94,55.361564435612,16.732284,7.7621818,12.533793052,-7.605596,1.565858,-5.368656,168.7, -12.5, 4.1,0,0,1684,746,1684,462,100,-42,100,-85,172,-0.3,-2.3,72,3.979,3.975,0,0,0,0,6.63,94.64,55.361564435612,16.732284,6,P-GPS,
5700,2022-10-27 21:14:06,-34.9108651696547,-56.1438278090752,17.716536,18.7664048,37.579411635612,56.345816435612,18.700788,8.2095698,13.725066056,14.9495083524,18,5,7.94,56.345816435612,17.716536,8.2095698,13.725066056,-8.052984,1.565858,-5.59235,167.1, -11.9, 2.3,0,0,1684,788,1684,364,100,-36,100,-100,169.7,-0.3,-7,72,3.979,3.975,0,0,0,0,6.63,94.64,56.345816435612,17.716536,6,P-GPS,
5800,2022-10-27 21:14:06,-34.910868332702,-56.1438269234635,18.700788,19.8162736,37.513794835612,57.330068435612,19.68504,8.2095698,14.8963915528,16.1335635084,18,5,7.94,57.330068435612,18.700788,8.2095698,14.8963915528,-8.276678,1.789552,-6.039738,165, -10.7, 0,0,0,1684,651,1684,364,100,-57,100,-100,166.9,-0.3,-11.6,72,3.979,3.975,0,0,0,0,6.63,94.64,57.330068435612,18.700788,6,P-GPS,
5900,2022-10-27 21:14:06,-34.9108717735455,-56.1438259007361,19.68504,20.8661424,37.448178035612,58.314320435612,20.669292,8.94776,16.1788391004,17.425689534,19,5,7.94,58.314320435612,19.68504,8.94776,16.1788391004,-8.724066,2.013246,-6.263432,162.2, -10.2, -1.2,0,0,1684,648,1684,364,100,-57,100,-100,163.8,-0.4,-14.9,72,3.979,3.975,0,0,0,0,6.63,94.64,58.314320435612,19.68504,6,P-GPS,
6000,2022-10-27 21:14:06,-34.9108751828266,-56.1438248177727,20.669292,21.9160112,37.382561235612,59.298572435612,21.653544,9.2161928,17.4580714248,18.7110898376,19,5,8.022,59.298572435612,20.669292,9.2161928,17.4580714248,-8.94776,2.23694,-6.487126,159.3, -9.7, -3.6,0,0,1684,560,1684,364,100,-70,100,-100,160.5,-0.4,-17,71,3.967,3.965,0,0,0,0,5.221,94.64,59.298572435612,20.669292,6,P-GPS,
6100,2022-10-27 21:14:06,-34.9108787276886,-56.1438235119407,21.653544,22.96588,37.316944435612,60.282824435612,22.637796,9.4846256,18.8071856412,20.0621397496,19,5,8.022,60.282824435612,21.653544,9.4846256,18.8071856412,-8.94776,3.131716,-6.71082,155.9, -9.5, -3.9,0,0,1684,364,1684,364,100,-100,100,-100,157.3,-0.4,-18.3,71,3.967,3.965,0,0,0,0,5.221,94.64,60.282824435612,21.653544,6,P-GPS,
6200,2022-10-27 21:14:06,-34.910882248036,-56.143821963869,22.637796,24.0813656,37.185710835612,61.267076435612,23.622048,9.5517338,20.1725400156,21.427494124,19,5,8.022,61.267076435612,22.637796,9.5517338,20.1725400156,-8.94776,3.35541,-6.71082,152.8, -9, -4.6,0,0,1684,364,1684,364,100,-100,100,-100,154.1,-0.5,-18.9,71,3.967,3.965,0,0,0,0,5.221,94.64,61.267076435612,22.637796,6,P-GPS,
6300,2022-10-27 21:14:06,-34.9108859660635,-56.1438201383158,23.622048,25.1968512,37.054477235612,62.251328435612,24.6063,9.730689,21.6339245768,22.8898629372,19,5,8.022,62.251328435612,23.622048,9.730689,21.6339245768,-8.94776,3.802798,-6.71082,149.6, -7.3, -8,0,0,1684,364,1684,364,100,-100,100,-100,150.9,-0.5,-19.2,71,3.967,3.965,0,0,0,0,5.221,94.64,62.251328435612,23.622048,6,P-GPS,
6400,2022-10-27 21:14:06,-34.9108890429629,-56.1438178357605,24.934384,26.6404208,36.923243635612,63.563664435612,25.262468,9.7977972,22.9256240932,24.2069889636,19,5,8.022,63.563664435612,24.934384,9.7977972,22.9256240932,-8.724066,4.47388,-6.487126,146.5, -6.7, -9,0,0,1684,364,1684,364,100,-100,100,-100,147.8,-0.5,-19.2,71,3.967,3.965,0,0,0,0,5.221,94.64,63.563664435612,24.934384,6,P-GPS,
6500,2022-10-27 21:14:06,-34.9108925014522,-56.1438155018615,25.918636,27.7559064,36.792010035612,64.547916435612,26.24672,9.8201666,24.3533144276,25.6491478024,19,5,8.022,64.547916435612,25.918636,9.8201666,24.3533144276,-8.500372,4.921268,-6.487126,143.4, -6.5, -9.4,0,0,1684,364,1684,364,100,-100,100,-100,144.6,-0.5,-19.2,71,3.967,3.965,0,0,0,0,5.221,94.64,64.547916435612,25.918636,6,P-GPS,
6600,2022-10-27 21:14:06,-34.9108957292823,-56.1438129937379,26.902888,28.9698172,36.562351235612,65.532168435612,27.230972,9.9991218,25.7235572536,27.0455717316,19,5,8.022,65.532168435612,26.902888,9.9991218,25.7235572536,-8.276678,5.59235,-6.487126,140.4, -6.7, -8.7,0,0,1684,364,1684,364,100,-100,100,-100,141.4,-0.6,-19.2,71,3.967,3.965,0,0,0,0,5.221,94.64,65.532168435612,26.902888,6,P-GPS,
6700,2022-10-27 21:14:06,-34.9108990395181,-56.1438101163102,28.215224,30.4790036,36.365500835612,66.844504435612,28.215224,9.8872748,27.1662738352,28.5287410704,19,5,8.022,66.844504435612,28.215224,9.9991218,27.1662738352,-7.82929,6.039738,-6.487126,137.2, -6.3, -8.8,0,0,1684,364,1684,364,100,-100,100,-100,138.2,-0.6,-19.2,71,3.967,3.965,0,0,0,0,5.221,94.64,66.844504435612,28.215224,6,P-GPS,
6800,2022-10-27 21:14:07,-34.9109018389566,-56.1438069277787,29.199476,31.6929144,36.135842035612,67.828756435612,29.199476,9.9991218,28.4787082604,29.926346102,19,5,8.022,67.828756435612,29.199476,9.9991218,28.4787082604,-7.605596,6.487126,-6.487126,133.8, -6.4, -9.3,0,0,1684,364,1684,364,100,-100,100,-100,135,-0.6,-19.2,71,3.967,3.965,0,0,0,0,5.221,94.64,67.828756435612,29.199476,6,P-GPS,
6900,2022-10-27 21:14:07,-34.9109048332873,-56.1438035736153,30.183728,32.8740168,35.938991635612,68.813008435612,30.183728,9.9767524,29.8840888828,31.409777908,19,5,8.022,68.813008435612,30.183728,9.9991218,29.8840888828,-7.158208,6.934514,-6.487126,130.6, -6.7, -8.7,0,0,1684,364,1684,364,100,-100,100,-100,131.8,-0.6,-19.2,71,3.967,3.965,0,0,0,0,5.221,94.64,68.813008435612,30.183728,6,P-GPS,
7000,2022-10-27 21:14:07,-34.9109074725782,-56.1438001340789,31.16798,34.1535444,35.643716035612,69.797260435612,30.839896,9.9767524,31.190453754,32.819226772,19,5,8.022,69.797260435612,31.16798,9.9991218,31.190453754,-6.71082,7.381902,-6.71082,127.5, -7.2, -8.2,0,0,1684,364,1684,364,100,-100,100,-100,128.6,-0.7,-19.2,71,3.967,3.965,0,0,0,0,5.221,94.64,69.797260435612,31.16798,6,P-GPS,
7100,2022-10-27 21:14:07,-34.9109101064756,-56.1437963180928,32.480316,35.761156,35.348440435612,71.109596435612,31.824148,9.9991218,32.5536755824,34.311352804,19,5,7.959,71.109596435612,32.480316,9.9991218,32.5536755824,-6.487126,7.605596,-6.71082,124.3, -7.5, -8.3,0,0,1684,971,1684,364,100,-8,100,-100,125.4,-0.7,-19.2,71,3.973,3.968,0,0,0,0,6.377,94.64,71.109596435612,32.480316,6,P-GPS,
7200,2022-10-27 21:14:07,-34.9109121613049,-56.1437924195179,33.464568,37.0078752,35.085973235612,72.093848435612,32.8084,10.06623,33.751969584,35.698163872,19,5,7.959,72.093848435612,33.464568,10.06623,33.751969584,-6.039738,8.052984,-6.71082,121.2, -8.2, -7.5,0,0,1684,1024,1684,364,100,0,100,-100,122.2,-0.7,-19.2,71,3.973,3.968,0,0,0,0,6.377,94.64,72.093848435612,33.464568,6,P-GPS,
7300,2022-10-27 21:14:07,-34.9109145246787,-56.1437882803642,34.44882,38.2874028,34.790697635612,73.078100435612,33.792652,10.1109688,35.097442068,37.207022188,19,5,7.959,73.078100435612,34.44882,10.1109688,35.097442068,-5.816044,8.276678,-6.487126,117.9, -11.3, -1.1,0,0,1684,1024,1684,364,100,0,100,-100,119,-0.7,-19.3,71,3.973,3.968,0,0,0,0,6.377,94.64,73.078100435612,34.44882,6,P-GPS,
7400,2022-10-27 21:14:07,-34.9109166829011,-56.1437841771169,35.433072,39.5669304,34.495422035612,74.062352435612,34.776904,10.289924,36.385499852,38.665683652,19,5,7.959,74.062352435612,35.433072,10.289924,36.385499852,-5.816044,8.500372,-6.487126,114.4, -12.8, 3.3,0,0,1684,1024,1684,628,100,0,100,-60,115.9,-0.8,-19.5,71,3.973,3.968,0,0,0,0,6.377,94.64,74.062352435612,35.433072,6,P-GPS,
7500,2022-10-27 21:14:07,-34.910919000952,-56.1437797117504,36.417324,40.8136496,34.232954835612,75.046604435612,35.761156,10.6030956,37.791667876,40.246720448,19,5,7.959,75.046604435612,36.417324,10.6030956,37.791667876,-6.039738,8.724066,-6.487126,111, -12.8, 3.2,0,0,1684,1024,1684,848,100,0,100,-27,113.3,-0.8,-19.7,71,3.973,3.968,0,0,0,0,6.377,94.64,75.046604435612,36.417324,6,P-GPS,
7600,2022-10-27 21:14:07,-34.9109212861084,-56.1437753796459,37.401576,42.158794,33.872062435612,76.030856435612,36.745408,10.8044202,39.17979128,41.787730996,19,5,7.959,76.030856435612,37.401576,10.8044202,39.17979128,-6.039738,8.94776,-6.487126,108.6, -12.8, 2.6,0,0,1684,1024,1588,1024,100,0,85,0,111.5,-0.8,-19.5,71,3.973,3.968,0,0,0,0,6.377,94.64,76.030856435612,37.401576,6,P-GPS,
7700,2022-10-27 21:14:08,-34.9109235343447,-56.1437708053381,38.385828,43.4055132,33.609595235612,77.015108435612,37.72966,11.0952224,40.60695668,43.383531572,19,5,7.959,77.015108435612,38.385828,11.0952224,40.60695668,-6.263432,9.171454,-6.263432,107.1, -13.2, 2,0,0,1684,1024,1605,1024,100,0,88,0,110.5,-0.8,-17.3,71,3.973,3.968,0,0,0,0,6.377,94.64,77.015108435612,38.385828,6,P-GPS,
7800,2022-10-27 21:14:08,-34.9109259075087,-56.14376622331,39.041996,44.4225736,33.248702835612,77.671276435612,38.713912,11.4755022,42.085631268,45.0049227,19,5,7.959,77.671276435612,39.041996,11.4755022,42.085631268,-6.263432,9.618842,-5.816044,106.5, -13.8, 0.7,0,0,1684,1024,1684,1024,100,0,100,0,110.2,-0.8,-13.5,71,3.973,3.968,0,0,0,0,6.377,94.64,77.671276435612,39.041996,6,P-GPS,
7900,2022-10-27 21:14:08,-34.91092839923,-56.1437612577465,40.026248,45.767718,32.887810435612,78.655528435612,39.698164,11.5426104,43.675526332,46.746720656,19,5,7.959,78.655528435612,40.026248,11.5426104,43.675526332,-6.039738,9.842536,-5.816044,106.4, -13.2, 0,0,0,1684,1024,1684,1024,100,0,100,0,110.2,-0.8,-9.2,71,3.973,3.968,0,0,0,0,6.377,94.64,78.655528435612,40.026248,6,P-GPS,
8000,2022-10-27 21:14:08,-34.9109307926844,-56.1437564619414,41.0105,47.080054,32.559726435612,79.639780435612,40.354332,11.9228902,45.217521132,48.426182652,19,5,7.959,79.639780435612,41.0105,11.9228902,45.217521132,-6.039738,10.289924,-6.039738,106.4, -13, -0.4,0,0,1684,1024,1612,1024,100,0,89,0,110.2,-0.8,-5.8,71,3.973,3.968,0,0,0,0,6.377,94.64,79.639780435612,41.0105,6,P-GPS,
8100,2022-10-27 21:14:08,-34.9109334361701,-56.1437515682532,41.666668,48.0314976,32.264450835612,80.295948435612,41.338584,12.1242148,46.859909636,50.179463548,19,5,7.942,80.295948435612,41.666668,12.1242148,46.859909636,-6.039738,10.513618,-6.263432,106.3, -12.3, 0.4,0,0,1684,1024,1582,1024,100,0,85,0,110.2,-0.8,-3.4,71,3.983,3.975,0,0,0,0,6.271,94.64,80.295948435612,41.666668,6,P-GPS,
8200,2022-10-27 21:14:08,-34.9109359096332,-56.1437463471664,42.65092,49.4094504,31.870750035612,81.280200435612,41.338584,12.2136924,48.52034276,51.983597464,19,5,7.942,81.280200435612,42.65092,12.2136924,48.52034276,-5.816044,10.737312,-6.263432,106.1, -12.6, 1.2,0,0,1684,1024,1582,1024,100,0,85,0,110.2,-0.8,-2,71,3.983,3.975,0,0,0,0,6.271,94.64,81.280200435612,42.65092,6,P-GPS,
8300,2022-10-27 21:14:08,-34.9109384906127,-56.1437407567573,43.307088,50.4265108,31.509857635612,81.936368435612,41.338584,12.415017,50.289371688,53.903216948,19,5,7.942,81.936368435612,43.307088,12.415017,50.289371688,-5.816044,10.961006,-6.039738,106.2, -13.8, 1.1,0,0,1684,1024,1543,1024,100,0,79,0,110.2,-0.8,-1.2,71,3.983,3.975,0,0,0,0,6.271,94.64,81.936368435612,43.307088,6,P-GPS,
8400,2022-10-27 21:14:08,-34.9109409359624,-56.1437353609967,44.29134,51.8044636,31.116156835612,82.920620435612,41.338584,12.6163416,51.994424236,55.747705196,19,5,7.942,82.920620435612,44.29134,12.6163416,51.994424236,-5.816044,11.1847,-5.59235,106.3, -14.9, 1.6,0,0,1684,1024,1487,1024,100,0,70,0,110.2,-0.8,-0.7,71,3.983,3.975,0,0,0,0,6.271,94.64,82.920620435612,44.29134,6,P-GPS,
8500,2022-10-27 21:14:08,-34.9109439211738,-56.1437294550046,44.947508,52.8543324,30.722456035612,83.576788435612,41.338584,12.7952968,53.957350808,57.823492664,19,5,7.942,83.576788435612,44.947508,12.7952968,53.957350808,-5.816044,11.408394,-5.144962,106.2, -14.4, 0.9,0,0,1684,1024,1325,1024,100,0,46,0,110.2,-0.8,-0.4,71,3.983,3.975,0,0,0,0,6.271,94.64,83.576788435612,44.947508,6,P-GPS,
8600,2022-10-27 21:14:08,-34.9109462691947,-56.1437238382064,45.603676,53.8385844,30.394372035612,84.232956435612,41.338584,12.9966214,55.69553984,59.70964758,19,5,7.942,84.232956435612,45.603676,12.9966214,55.69553984,-5.816044,11.632088,-4.47388,106.1, -14.6, 0.9,0,0,1684,1024,1024,1024,100,0,0,0,110.2,-0.8,-0.3,71,3.983,3.975,0,0,0,0,6.271,94.64,84.232956435612,45.603676,6,P-GPS,
8700,2022-10-27 21:14:09,-34.9109487141535,-56.1437178512918,46.259844,54.8884532,30.000671235612,84.889124435612,41.338584,13.197946,57.54265276,61.710631896,22,5,7.942,84.889124435612,46.259844,13.197946,57.54265276,-5.816044,11.855782,-3.802798,106.3, -15.5, 1.1,0,0,1684,1024,1024,1024,100,0,0,0,110.2,-0.8,-0.2,71,3.983,3.975,0,0,0,0,6.271,94.64,84.889124435612,46.259844,6,P-GPS,
8800,2022-10-27 21:14:09,-34.9109510996025,-56.1437120181676,46.587928,55.6430464,29.574162035612,85.217208435612,41.338584,13.197946,59.353020272,63.660763192,22,5,7.942,85.217208435612,46.587928,13.197946,59.353020272,-5.816044,11.855782,-3.131716,106.3, -15.7, 0.9,0,0,1684,1024,1024,1024,100,0,0,0,110.2,-0.8,-0.2,71,3.983,3.975,0,0,0,0,6.271,94.64,85.217208435612,46.587928,6,P-GPS,
8900,2022-10-27 21:14:09,-34.9109536366792,-56.1437056912658,46.916012,56.3648312,29.180461235612,85.545292435612,41.338584,13.309793,61.312666004,65.768046724,22,5,7.942,85.545292435612,46.916012,13.309793,61.312666004,-5.59235,12.079476,-2.23694,106.4, -15.7, 0.7,0,0,1684,1024,1024,1024,100,0,0,0,110.2,-0.8,-0.2,71,3.983,3.975,0,0,0,0,6.271,94.64,85.545292435612,46.916012,6,P-GPS,
9000,2022-10-27 21:14:09,-34.9109557031746,-56.143700367203,47.244096,57.086616,28.786760435612,85.873376435612,41.338584,13.5111176,62.950789416,67.530513972,22,5,7.942,85.873376435612,47.244096,13.5111176,62.950789416,-5.59235,12.30317,-1.565858,106.3, -16.6, 0.7,0,0,1684,1024,1024,1024,100,0,0,0,110.2,-0.8,-0.1,71,3.983,3.975,0,0,0,0,6.271,94.64,85.873376435612,47.244096,6,P-GPS,
9100,2022-10-27 21:14:09,-34.9109577796752,-56.1436948724048,47.244096,57.4147,28.458676435612,85.873376435612,41.338584,13.5111176,64.633860336,69.3405534,22,5,7.942,85.873376435612,47.244096,13.5111176,64.633860336,-5.59235,12.30317,-0.894776,106.2, -16.4, 1.1,0,0,1684,1024,1024,1024,100,0,0,0,110.2,-0.8,-0.1,71,4.001,4.003,0,0,0,0,6.271,94.64,85.873376435612,47.244096,6,P-GPS,
9200,2022-10-27 21:14:09,-34.9109601115809,-56.1436887106493,47.244096,57.8084008,28.064975635612,85.873376435612,41.338584,13.5111176,66.529857772,71.371065276,22,5,7.942,85.873376435612,47.244096,13.5111176,66.529857772,-5.59235,12.526864,-0.447388,106, -16.5, 0.4,0,0,1684,1024,1024,1024,100,0,0,0,110.2,-0.8,-0.1,71,4.001,4.003,0,0,0,0,6.271,94.64,85.873376435612,47.244096,6,P-GPS,
9300,2022-10-27 21:14:09,-34.9109626335587,-56.143681936407,47.244096,58.2677184,27.605658035612,85.873376435612,41.338584,13.9137668,68.61220692,73.596787132,22,5,7.942,85.873376435612,47.244096,13.9137668,68.61220692,-5.59235,12.750558,-0.223694,106.1, -15.2, 0.4,0,0,1024,1024,1024,1024,0,0,0,0,110.2,-0.8,-0.1,71,4.001,4.003,0,0,0,0,6.271,94.64,85.873376435612,47.244096,6,P-GPS,
9400,2022-10-27 21:14:09,-34.9109647800172,-56.1436759928162,47.244096,58.6614192,27.211957235612,85.873376435612,41.338584,14.1374608,70.42979228,75.540028664,22,5,7.942,85.873376435612,47.244096,14.1374608,70.42979228,-5.59235,12.974252,-0.223694,106.1, -9.8, 0.3,0,0,1024,1024,1024,1024,0,0,0,0,110.2,-0.9,-0.1,71,4.001,4.003,0,0,0,0,6.271,94.64,85.873376435612,47.244096,6,P-GPS,
9500,2022-10-27 21:14:09,-34.910967178129,-56.143669257489,47.244096,59.1207368,26.752639635612,85.873376435612,41.338584,13.8242892,72.488847464,77.736879128,22,5,7.942,85.873376435612,47.244096,14.1374608,72.488847464,-5.368656,12.750558,0,106, 17.8, -0.9,0,0,1024,1024,1024,1024,0,0,0,0,110.2,-0.8,-0.1,71,4.001,4.003,0,0,0,0,6.271,94.64,85.873376435612,47.244096,6,P-GPS,
9600,2022-10-27 21:14:09,-34.910969347034,-56.143663201384,47.244096,59.5144376,26.358938835612,85.873376435612,41.338584,12.8400356,74.350067996,79.713913312,22,5,7.942,85.873376435612,47.244096,14.1374608,74.350067996,-4.921268,11.855782,-0.223694,105.8, 19.5, -2.8,0,0,1024,1024,1024,1024,0,0,0,0,110.2,-0.8,-0.1,71,4.001,4.003,0,0,0,0,6.271,94.64,85.873376435612,47.244096,6,P-GPS,
9700,2022-10-27 21:14:09,-34.9109714532895,-56.1436572638733,46.916012,59.5800544,25.965238035612,85.545292435612,41.338584,11.8334126,76.175527372,81.649608912,22,5,7.942,85.873376435612,47.244096,14.1374608,76.175527372,-4.47388,10.961006,0,106.2, 20.7, -2.2,0,0,1024,1024,1024,1024,0,0,0,0,110.2,-0.8,-0.1,71,4.001,4.003,0,0,0,0,6.271,94.64,85.545292435612,46.916012,6,P-GPS,
9800,2022-10-27 21:14:10,-34.9109734452543,-56.1436517263782,46.916012,59.87533,25.669962435612,85.545292435612,41.338584,10.849159,77.889438188,83.458664088,22,5,7.942,85.873376435612,47.244096,14.1374608,77.889438188,-4.026492,10.06623,0,106.5, 21.8, -2.7,0,0,1024,1024,1024,1024,0,0,0,0,110.2,-0.8,-0.1,71,4.001,4.003,0,0,0,0,6.271,94.64,85.545292435612,46.916012,6,P-GPS,
9900,2022-10-27 21:14:10,-34.9109751492321,-56.1436466376863,46.916012,60.203414,25.341878435612,85.545292435612,41.338584,9.6412114,79.437666584,85.10334918,22,5,7.942,85.873376435612,47.244096,14.1374608,79.437666584,-3.579104,8.94776,0,106.8, 22.5, -0.1,0,0,1024,1024,1024,1024,0,0,0,0,110.2,-0.9,-0.1,71,4.001,4.003,0,0,0,0,6.271,94.64,85.545292435612,46.916012,6,P-GPS,
10000,2022-10-27 21:14:10,-34.9109766966708,-56.1436423389129,46.916012,60.4986896,25.046602835612,85.545292435612,41.338584,8.6345884,80.7742808,86.507876784,22,5,7.942,85.873376435612,47.244096,14.1374608,80.7742808,-3.131716,8.052984,0.223694,107.2, 20.8, 0.2,0,0,1024,1024,1024,1024,0,0,0,0,110.2,-0.8,-0.1,71,4.001,4.003,0,0,0,0,6.271,94.64,85.545292435612,46.916012,6,P-GPS,
10100,2022-10-27 21:14:10,-34.9109781731353,-56.1436382858321,46.916012,60.7611568,24.784135635612,85.545292435612,41.338584,7.6503348,82.041013124,87.83464848,22,5,7.969,85.873376435612,47.244096,14.1374608,82.041013124,-2.684328,7.158208,0,106.6, 18.4, -1,0,0,1024,1024,1024,1024,0,0,0,0,110.2,-0.8,-0.1,71,3.995,3.988,0,0,0,0,5.559,94.64,85.545292435612,46.916012,6,P-GPS,
10200,2022-10-27 21:14:10,-34.9109793106621,-56.1436359409403,46.916012,60.8923904,24.652902035612,85.545292435612,41.338584,6.8674058,82.842522336,88.64993722,22,5,7.969,85.873376435612,47.244096,14.1374608,82.842522336,-2.23694,6.487126,0,106.2, 17.5, -1.6,0,0,1024,1024,1024,1024,0,0,0,0,110.2,-0.8,-0.1,71,3.995,3.988,0,0,0,0,5.559,94.64,85.545292435612,46.916012,6,P-GPS,
10300,2022-10-27 21:14:10,-34.9109803410502,-56.143633058613,46.916012,61.0892408,24.456051635612,85.545292435612,41.338584,5.9502604,83.74016016,89.590554048,22,5,7.969,85.873376435612,47.244096,14.1374608,83.74016016,-2.013246,5.59235,0,106, 17.1, -1.1,0,0,1024,1024,1024,1024,0,0,0,0,110.2,-0.8,-0.1,71,3.995,3.988,0,0,0,0,5.559,94.64,85.545292435612,46.916012,6,P-GPS,
10400,2022-10-27 21:14:10,-34.9109811820308,-56.1436306976954,46.916012,61.187666,24.357626435612,85.545292435612,41.338584,5.2344396,84.475724488,90.36089528,22,5,7.969,85.873376435612,47.244096,14.1374608,84.475724488,-1.789552,4.921268,0,105.9, 16.4, -1.3,0,0,1024,1024,1024,1024,0,0,0,0,110.2,-0.8,-0.1,71,3.995,3.988,0,0,0,0,5.559,94.64,85.545292435612,46.916012,6,P-GPS,
10500,2022-10-27 21:14:10,-34.9109819526757,-56.1436285278535,46.916012,61.3188996,24.226392835612,85.545292435612,41.338584,4.4515106,85.151249444,91.068244384,22,5,7.969,85.873376435612,47.244096,14.1374608,85.151249444,-1.342164,4.250186,0,106.1, 16.4, -0.9,0,0,1024,1024,1024,1024,0,0,0,0,110.2,-0.8,-0.1,71,3.995,3.988,0,0,0,0,5.559,94.64,85.545292435612,46.916012,6,P-GPS,
10600,2022-10-27 21:14:10,-34.9109823451958,-56.1436277160172,46.916012,61.3845164,24.160776035612,85.545292435612,41.338584,3.7580592,85.429136592,91.350396624,22,5,7.969,85.873376435612,47.244096,14.1374608,85.429136592,-1.11847,3.579104,0,106.1, 16.8, -0.5,0,0,1024,1024,1024,1024,0,0,0,0,110.2,-0.9,-0.1,71,3.995,3.988,0,0,0,0,5.559,94.64,85.545292435612,46.916012,6,P-GPS,
10700,2022-10-27 21:14:10,-34.9109828747919,-56.1436262692957,46.916012,61.4829416,24.062350835612,85.545292435612,41.338584,3.3330406,85.883861016,91.82414992,22,5,7.969,85.873376435612,47.244096,14.1374608,85.883861016,-1.11847,3.131716,0,106.3, 17, -0.9,0,0,1024,1024,1024,1024,0,0,0,0,110.2,-0.8,-0.1,71,3.995,3.988,0,0,0,0,5.559,94.64,85.545292435612,46.916012,6,P-GPS,
10800,2022-10-27 21:14:11,-34.9109832959726,-56.1436251602213,46.916012,61.5813668,23.963925635612,85.545292435612,41.338584,2.5501116,86.236223232,92.18996358,22,5,7.969,85.873376435612,47.244096,14.1374608,86.236223232,-0.671082,2.460634,0,106.4, 17.4, -0.6,0,0,1024,1024,1024,1024,0,0,0,0,110.2,-0.9,-0.1,71,3.995,3.988,0,0,0,0,5.559,94.64,85.545292435612,46.916012,6,P-GPS,
10900,2022-10-27 21:14:11,-34.910983649384,-56.1436242936844,46.916012,61.6141752,23.931117235612,85.545292435612,41.338584,1.901399,86.517063136,92.479333668,22,5,7.969,85.873376435612,47.244096,14.1374608,86.517063136,-0.671082,1.789552,0,106.4, 15.9, -0.6,0,0,1024,1024,1024,1024,0,0,0,0,110.2,-0.8,-0.1,71,3.995,3.988,0,0,0,0,5.559,94.64,85.545292435612,46.916012,6,P-GPS,
11000,2022-10-27 21:14:11,-34.9109840052186,-56.143623524033,46.916012,61.6141752,23.931117235612,85.545292435612,41.338584,1.4092722,86.776905664,92.743769372,22,5,7.969,85.873376435612,47.244096,14.1374608,86.776905664,-0.447388,1.342164,0,106.3, 12.2, -0.4,0,0,1024,1024,1024,1024,0,0,0,0,110.2,-0.8,-0.1,71,3.995,3.988,0,0,0,0,5.559,94.64,85.545292435612,46.916012,6,P-GPS,
11100,2022-10-27 21:14:11,-34.9109844116001,-56.1436228759847,46.916012,61.679792,23.865500435612,85.545292435612,41.338584,1.2079476,87.020672076,92.987863868,22,5,7.992,85.873376435612,47.244096,14.1374608,87.020672076,-0.447388,1.11847,0,106.6, 9.4, -0.3,0,0,1024,1024,1024,1024,0,0,0,0,110.2,-0.8,-0.1,71,3.987,3.982,0,0,0,0,3.579,94.64,85.545292435612,46.916012,6,P-GPS,
11200,2022-10-27 21:14:11,-34.9109846954834,-56.1436224290203,46.916012,61.7454088,23.799883635612,85.545292435612,41.338584,0.9171454,87.189635336,93.157155212,22,5,7.992,85.873376435612,47.244096,14.1374608,87.189635336,-0.223694,0.894776,0,106.6, 7.4, -0.5,0,0,1024,1024,1024,1024,0,0,0,0,110.2,-0.8,-0.1,71,3.987,3.982,0,0,0,0,3.579,94.64,85.545292435612,46.916012,6,P-GPS,
11300,2022-10-27 21:14:11,-34.9109849398673,-56.1436220697062,46.916012,61.7454088,23.799883635612,85.545292435612,41.338584,0.7158208,87.329071036,93.296590912,22,5,7.992,85.873376435612,47.244096,14.1374608,87.329071036,-0.223694,0.671082,0,106.6, 5.8, -0.2,0,0,1024,1024,1024,1024,0,0,0,0,110.2,-0.8,-0.1,71,3.987,3.982,0,0,0,0,3.579,94.64,85.545292435612,46.916012,6,P-GPS,
11400,2022-10-27 21:14:11,-34.910985120833,-56.1436217775871,46.916012,61.7454088,23.799883635612,85.545292435612,41.338584,0.447388,87.438651092,93.406170968,22,5,7.992,85.873376435612,47.244096,14.1374608,87.438651092,0,0.447388,0,106.6, 4.5, 0.3,0,0,1024,1024,1024,1024,0,0,0,0,110.2,-0.9,-0.1,71,3.987,3.982,0,0,0,0,3.579,94.64,85.545292435612,46.916012,6,P-GPS,
11500,2022-10-27 21:14:11,-34.9109854439424,-56.1436211652258,46.916012,61.8110256,23.734266835612,85.545292435612,41.338584,0.447388,87.654530364,93.624018744,22,5,7.992,85.873376435612,47.244096,14.1374608,87.654530364,0,0.447388,0,106.4, 3.9, 0.4,0,0,1024,1024,1024,1024,0,0,0,0,110.2,-0.9,-0.1,71,3.987,3.982,0,0,0,0,3.579,94.64,85.545292435612,46.916012,6,P-GPS,
11600,2022-10-27 21:14:11,-34.9109854853309,-56.1436209853075,46.916012,61.8110256,23.734266835612,85.545292435612,41.338584,0.447388,87.705383384,93.680121108,22,5,7.992,85.873376435612,47.244096,14.1374608,87.705383384,0,0.447388,0,106.4, 3.5, 1,0,0,1024,1024,1024,1024,0,0,0,0,110.2,-0.9,-0.1,71,3.987,3.982,0,0,0,0,3.579,94.64,85.545292435612,46.916012,6,P-GPS,
11700,2022-10-27 21:14:12,-34.9109855048462,-56.1436208379631,46.916012,61.7782172,23.767075235612,85.545292435612,41.338584,0.223694,87.743769212,93.724740532,22,5,7.992,85.873376435612,47.244096,14.1374608,87.743769212,0,0.223694,0,106.4, 3.3, 0.8,0,0,1024,1024,1024,1024,0,0,0,0,110.2,-0.9,-0.1,71,3.987,3.982,0,0,0,0,3.579,94.64,85.545292435612,46.916012,6,P-GPS,
11800,2022-10-27 21:14:12,-34.9109855061619,-56.1436207389464,46.916012,61.7782172,23.767075235612,85.545292435612,41.338584,0.223694,87.766407008,93.754268092,22,5,7.992,85.873376435612,47.244096,14.1374608,87.766407008,0,0.223694,0,106.2, 2.8, 0.9,0,0,1024,1024,1024,1024,0,0,0,0,110.2,-0.9,0,71,3.987,3.982,0,0,0,0,3.579,94.64,85.545292435612,46.916012,6,P-GPS,
11900,2022-10-27 21:14:12,-34.9109854279315,-56.1436205636666,46.916012,61.8110256,23.734266835612,85.545292435612,41.338584,0.223694,87.788060552,93.81397938,22,5,7.992,85.873376435612,47.244096,14.1374608,87.788060552,0,0.223694,0,106.2, 2.3, 1.8,0,0,1024,1024,1024,1024,0,0,0,0,110.2,-0.8,0,71,3.987,3.982,0,0,0,0,3.579,94.64,85.545292435612,46.916012,6,P-GPS,
12000,2022-10-27 21:14:12,-34.9109854576734,-56.1436204572744,46.916012,61.8766424,23.668650035612,85.545292435612,41.338584,0.223694,87.819556616,93.847772032,22,5,7.992,85.873376435612,47.244096,14.1374608,87.819556616,0,0.223694,0,106.2, 2, 1.9,0,0,1024,1024,1024,1024,0,0,0,0,110.2,-0.9,0,71,3.987,3.982,0,0,0,0,3.579,94.64,85.545292435612,46.916012,6,P-GPS,
12100,2022-10-27 21:14:12,-34.9109854954663,-56.143620355437,46.916012,61.8766424,23.668650035612,85.545292435612,41.338584,0,87.851708848,93.8812366,22,5,7.965,85.873376435612,47.244096,14.1374608,87.851708848,0,0,0,106.1, 2.9, 2,0,0,1024,1024,1024,1024,0,0,0,0,110.2,-0.9,0,71,3.988,3.984,0,0,0,0,4.485,94.64,85.545292435612,46.916012,6,P-GPS,
12200,2022-10-27 21:14:12,-34.910985514226,-56.1436202539967,46.916012,61.843834,23.701458435612,85.545292435612,41.338584,0,87.879267904,93.912076496,22,5,7.965,85.873376435612,47.244096,14.1374608,87.879267904,0,0,0,106.3, 3, 1.7,0,0,1024,1024,1024,1024,0,0,0,0,110.2,-0.8,0,71,3.988,3.984,0,0,0,0,4.485,94.64,85.545292435612,46.916012,6,P-GPS,
12300,2022-10-27 21:14:12,-34.9109855593274,-56.1436199382883,46.916012,61.843834,23.701458435612,85.545292435612,41.338584,0,87.962273156,94.008205108,22,5,7.965,85.873376435612,47.244096,14.1374608,87.962273156,0,0,0,106.3, 2.7, 1.8,0,0,1024,1024,1024,1024,0,0,0,0,110.2,-0.9,0,71,3.988,3.984,0,0,0,0,4.485,94.64,85.545292435612,46.916012,6,P-GPS,
12400,2022-10-27 21:14:12,-34.9109856036341,-56.1436199108963,46.916012,61.843834,23.701458435612,85.545292435612,41.338584,0,87.978677356,94.026249728,22,5,7.965,85.873376435612,47.244096,14.1374608,87.978677356,0,0,0,106.3, 2.4, 1.2,0,0,1024,1024,1024,1024,0,0,0,0,110.2,-0.9,0,71,3.988,3.984,0,0,0,0,4.485,94.64,85.545292435612,46.916012,6,P-GPS,
12500,2022-10-27 21:14:12,-34.9109856555359,-56.1436198869518,46.916012,61.843834,23.701458435612,85.545292435612,41.338584,0,87.996393892,94.046590936,22,5,7.965,85.873376435612,47.244096,14.1374608,87.996393892,0,0,0,106.3, 2.5, 0.8,0,0,1024,1024,1024,1024,0,0,0,0,110.2,-0.9,0,71,3.988,3.984,0,0,0,0,4.485,94.64,85.545292435612,46.916012,6,P-GPS,
12600,2022-10-27 21:14:12,-34.9109856833757,-56.1436197954987,46.916012,61.843834,23.701458435612,85.545292435612,41.338584,0,88.023952948,94.075790412,22,5,7.965,85.873376435612,47.244096,14.1374608,88.023952948,0,0,0,106.3, 2.6, 0.7,0,0,1024,1024,1024,1024,0,0,0,0,110.2,-0.9,0,71,3.988,3.984,0,0,0,0,4.485,94.64,85.545292435612,46.916012,6,P-GPS,
12700,2022-10-27 21:14:13,-34.9109857068123,-56.1436196856589,46.916012,61.843834,23.701458435612,85.545292435612,41.338584,0,88.054792844,94.109583064,22,5,7.965,85.873376435612,47.244096,14.1374608,88.054792844,0,0,0,106.3, 2.8, 0.8,0,0,1024,1024,1024,1024,0,0,0,0,110.2,-0.8,0,71,3.988,3.984,0,0,0,0,4.485,94.64,85.545292435612,46.916012,6,P-GPS,
12800,2022-10-27 21:14:13,-34.9109858488908,-56.1436194198873,46.916012,61.9094508,23.635841635612,85.545292435612,41.338584,0,88.148952952,94.20439934,22,5,7.965,85.873376435612,47.244096,14.1374608,88.148952952,0,0,0,106.4, 3.3, 0.9,0,0,1024,1024,1024,1024,0,0,0,0,110.2,-0.9,0,71,3.988,3.984,0,0,0,0,4.485,94.64,85.545292435612,46.916012,6,P-GPS,
12900,2022-10-27 21:14:13,-34.9109859454249,-56.1436192897594,47.244096,62.2375348,23.635841635612,85.873376435612,41.338584,0,88.201446392,94.25689278,22,5,7.965,85.873376435612,47.244096,14.1374608,88.201446392,0,0,0,106.4, 3.8, 0.8,0,0,1024,1024,1024,1024,0,0,0,0,110.2,-0.8,0,71,3.988,3.984,0,0,0,0,4.485,94.64,85.873376435612,47.244096,6,P-GPS,
13000,2022-10-27 21:14:13,-34.9109859995675,-56.1436192043657,47.244096,62.2375348,23.635841635612,85.873376435612,41.338584,0,88.233598624,94.289373096,22,5,7.965,85.873376435612,47.244096,14.1374608,88.233598624,0,0,0,106.3, 3.9, 0.1,0,0,1024,1024,1024,1024,0,0,0,0,110.2,-0.8,0,71,3.988,3.984,0,0,0,0,4.485,94.64,85.873376435612,47.244096,6,P-GPS,
13100,2022-10-27 21:14:13,-34.9109860327095,-56.1436191350603,46.916012,61.9094508,23.635841635612,85.545292435612,41.338584,0,88.257220672,94.313323228,22,5,7.977,85.873376435612,47.244096,14.1374608,88.257220672,0,0,0,106.4, 3.1, 0.8,0,0,1024,1024,1024,1024,0,0,0,0,110.2,-0.8,0,71,3.984,3.981,0,0,0,0,4.28,94.82,85.545292435612,46.916012,6,P-GPS,
13200,2022-10-27 21:14:13,-34.9109861176752,-56.1436189353345,46.916012,61.9094508,23.635841635612,85.545292435612,41.338584,0,88.322837472,94.380580448,22,5,7.977,85.873376435612,47.244096,14.1374608,88.322837472,0,0,0,106.4, 2.7, 1.5,0,0,1024,1024,1024,1024,0,0,0,0,110.2,-0.8,0,71,3.984,3.981,0,0,0,0,4.28,94.82,85.545292435612,46.916012,6,P-GPS,
13300,2022-10-27 21:14:13,-34.9109861039963,-56.1436188501706,46.916012,61.9094508,23.635841635612,85.545292435612,41.338584,0,88.339241672,94.406499084,22,5,7.977,85.873376435612,47.244096,14.1374608,88.339241672,0,0,0,106.4, 2.6, 1.9,0,0,1024,1024,1024,1024,0,0,0,0,110.2,-0.8,0,71,3.984,3.981,0,0,0,0,4.28,94.82,85.545292435612,46.916012,6,P-GPS,
13400,2022-10-27 21:14:13,-34.9109860954372,-56.1436187738866,46.916012,61.9094508,23.635841635612,85.545292435612,41.338584,0,88.35466162,94.429793048,22,5,7.977,85.873376435612,47.244096,14.1374608,88.35466162,0,0,0,106.5, 2.6, 2.2,0,0,1024,1024,1024,1024,0,0,0,0,110.2,-0.8,0,71,3.984,3.981,0,0,0,0,4.28,94.82,85.545292435612,46.916012,6,P-GPS,
13500,2022-10-27 21:14:13,-34.9109860929359,-56.1436186934656,46.916012,61.9094508,23.635841635612,85.545292435612,41.338584,0,88.372378156,94.45374318,22,5,7.977,85.873376435612,47.244096,14.1374608,88.372378156,0,0,0,106.4, 2.6, 1.9,0,0,1024,1024,1024,1024,0,0,0,0,110.2,-0.9,0,71,3.984,3.981,0,0,0,0,4.28,94.82,85.545292435612,46.916012,6,P-GPS,
13600,2022-10-27 21:14:13,-34.910986046636,-56.1436186996711,46.916012,61.9094508,23.635841635612,85.545292435612,41.338584,0,88.360239048,94.470803548,22,5,7.977,85.873376435612,47.244096,14.1374608,88.372378156,0,0,0,106.5, 3, 1.7,0,0,1024,1024,1024,1024,0,0,0,0,110.2,-0.8,0,71,3.984,3.981,0,0,0,0,4.28,94.82,85.545292435612,46.916012,6,P-GPS,
13700,2022-10-27 21:14:13,-34.9109860256616,-56.1436186650079,46.916012,61.9094508,23.635841635612,85.545292435612,41.338584,0,88.363191804,94.483598824,22,5,7.977,85.873376435612,47.244096,14.1374608,88.372378156,0,0,0,106.5, 3.1, 1.7,0,0,1024,1024,1024,1024,0,0,0,0,110.2,-0.8,0,71,3.984,3.981,0,0,0,0,4.28,94.82,85.545292435612,46.916012,6,P-GPS,
13800,2022-10-27 21:14:14,-34.9109860205679,-56.1436186371145,46.916012,61.9094508,23.635841635612,85.545292435612,41.338584,0,88.368441148,94.492129008,22,5,7.977,85.873376435612,47.244096,14.1374608,88.372378156,0,0,0,106.5, 3.1, 1.1,0,0,1024,1024,1024,1024,0,0,0,0,110.2,-0.8,0,71,3.984,3.981,0,0,0,0,4.28,94.82,85.545292435612,46.916012,6,P-GPS,
13900,2022-10-27 21:14:14,-34.9109860078399,-56.1436186196471,46.916012,61.9094508,23.635841635612,85.545292435612,41.338584,0,88.3694254,94.499018772,22,5,7.977,85.873376435612,47.244096,14.1374608,88.372378156,0,0,0,106.4, 2.6, 1.6,0,0,1024,1024,1024,1024,0,0,0,0,110.2,-0.8,0,71,3.984,3.981,0,0,0,0,4.28,94.82,85.545292435612,46.916012,6,P-GPS,
14000,2022-10-27 21:14:14,-34.91098600883,-56.1436186429857,46.916012,61.9094508,23.635841635612,85.545292435612,41.338584,0,88.364176056,94.50623662,22,5,7.977,85.873376435612,47.244096,14.1374608,88.372378156,0,0,0,106.5, 2.4, 1.8,0,0,1024,1024,1024,1024,0,0,0,0,110.2,-0.8,0,71,3.984,3.981,0,0,0,0,4.28,94.82,85.545292435612,46.916012,6,P-GPS,
14100,2022-10-27 21:14:14,-34.91098599605,-56.1436186367384,46.916012,61.9094508,23.635841635612,85.545292435612,41.338584,0,88.36286372,94.51115788,22,5,7.967,85.873376435612,47.244096,14.1374608,88.372378156,0,0,0,106.5, 2.1, 2.2,0,0,1024,1024,1024,1024,0,0,0,0,110.2,-0.8,0,71,3.98,3.976,0,0,0,0,4.294,94.82,85.545292435612,46.916012,6,P-GPS,
14200,2022-10-27 21:14:14,-34.9109859843122,-56.1436186339595,46.916012,61.9094508,23.635841635612,85.545292435612,41.338584,0,88.360567132,94.515422972,22,5,7.967,85.873376435612,47.244096,14.1374608,88.372378156,0,0,0,106.4, 2, 1.6,0,0,1024,1024,1024,1024,0,0,0,0,110.2,-0.8,0,71,3.98,3.976,0,0,0,0,4.294,94.82,85.545292435612,46.916012,6,P-GPS,
14300,2022-10-27 21:14:14,-34.9109859712586,-56.1436186293837,46.916012,61.9094508,23.635841635612,85.545292435612,41.338584,0,88.358598628,94.520344232,22,5,7.967,85.873376435612,47.244096,14.1374608,88.372378156,0,0,0,106.4, 2, 1.7,0,0,1024,1024,1024,1024,0,0,0,0,110.2,-0.8,0,71,3.98,3.976,0,0,0,0,4.294,94.82,85.545292435612,46.916012,6,P-GPS,
14400,2022-10-27 21:14:14,-34.9109859557558,-56.1436186491912,46.916012,61.9094508,23.635841635612,85.545292435612,41.338584,0,88.350396528,94.528546332,22,5,7.967,85.873376435612,47.244096,14.1374608,88.372378156,0,0,0,106.3, 2, 1.7,0,0,1024,1024,1024,1024,0,0,0,0,110.2,-0.8,0,71,3.98,3.976,0,0,0,0,4.294,94.82,85.545292435612,46.916012,6,P-GPS,
14500,2022-10-27 21:14:14,-34.9109859234214,-56.1436187245558,46.916012,61.9094508,23.635841635612,85.545292435612,41.338584,0,88.325462144,94.554136884,22,5,7.967,85.873376435612,47.244096,14.1374608,88.372378156,0,0,0,106.3, 1.7, 2.3,0,0,1024,1024,1047,1024,0,0,3,0,110.2,-0.8,0,71,3.98,3.976,0,0,0,0,4.294,94.82,85.545292435612,46.916012,6,P-GPS,
14600,2022-10-27 21:14:14,-34.9109858652664,-56.1436187685586,46.916012,61.9094508,23.635841635612,85.545292435612,41.338584,0,88.301840096,94.579071268,22,5,7.967,85.873376435612,47.244096,14.1374608,88.372378156,0,0,0,106.3, 1.9, 2.6,0,0,1024,1024,1621,1006,0,0,90,-3,110.2,-0.8,0,71,3.98,3.976,0,0,0,0,4.294,94.82,85.545292435612,46.916012,6,P-GPS,
14700,2022-10-27 21:14:15,-34.910985811645,-56.1436188109525,46.916012,61.9094508,23.635841635612,85.545292435612,41.338584,0,88.279530384,94.602365232,22,5,7.967,85.873376435612,47.244096,14.1374608,88.372378156,0,0,0,106.4, 2.1, 2.8,0,0,1024,1024,1621,1006,0,0,90,-3,110.2,-0.8,0,71,3.98,3.976,0,0,0,0,4.294,94.82,85.545292435612,46.916012,6,P-GPS,
14800,2022-10-27 21:14:15,-34.9109858104074,-56.1436188568984,46.916012,61.9094508,23.635841635612,85.545292435612,41.338584,0,88.268703612,94.61614476,22,5,7.967,85.873376435612,47.244096,14.1374608,88.372378156,0,0,-0.223694,106.2, 1.7, 1.9,0,0,1024,1024,1684,1024,0,0,100,0,110.2,-0.8,0,71,3.98,3.976,0,0,0,0,4.294,94.82,85.545292435612,46.916012,6,P-GPS,
14900,2022-10-27 21:14:15,-34.9109858195397,-56.1436190634774,46.916012,61.9094508,23.635841635612,85.545292435612,41.338584,0,88.22342802,94.678152636,22,5,7.967,85.873376435612,47.244096,14.1374608,88.372378156,0,0,-0.894776,106.4, 1.6, 1.9,0,0,1024,1024,1684,1024,0,0,100,0,110.2,-0.8,0,71,3.98,3.976,0,0,0,0,4.294,94.82,85.545292435612,46.916012,6,P-GPS,
15000,2022-10-27 21:14:15,-34.9109858257148,-56.1436191049938,47.244096,62.2375348,23.635841635612,85.873376435612,41.338584,0,88.215554004,94.690619828,22,5,7.967,85.873376435612,47.244096,14.1374608,88.372378156,0,0,-1.789552,106.4, 2.3, 1.6,0,0,1024,1024,1684,1024,0,0,100,0,110.2,-0.8,0,71,3.98,3.976,0,0,0,0,4.294,94.82,85.873376435612,47.244096,6,P-GPS,
15100,2022-10-27 21:14:15,-34.9109858309388,-56.1436191483697,47.57218,62.5656188,23.635841635612,86.201460435612,41.338584,0,88.206695736,94.703743188,22,5,7.959,86.201460435612,47.57218,14.1374608,88.372378156,0,0,-2.460634,106.3, 2.8, 1.9,0,0,1024,1024,1684,1005,0,0,100,-3,110.2,-0.8,0,71,3.952,3.951,0,0,0,0,4.473,94.82,86.201460435612,47.57218,6,P-GPS,
15200,2022-10-27 21:14:15,-34.910985827734,-56.143619174529,47.900264,62.8937028,23.635841635612,86.529544435612,41.338584,0,88.200134056,94.711617204,22,5,7.959,86.529544435612,47.900264,14.1374608,88.372378156,0,0,-3.35541,106.3, 2.2, 1.6,0,0,1024,1024,1684,1004,0,0,100,-3,110.2,-0.8,0,71,3.952,3.951,0,0,0,0,4.473,94.82,86.529544435612,47.900264,6,P-GPS,
15300,2022-10-27 21:14:15,-34.9109857697614,-56.1436192232538,48.556432,63.5498708,23.635841635612,87.185712435612,41.338584,0,88.175199672,94.73753584,22,5,7.959,87.185712435612,48.556432,14.1374608,88.372378156,0,0,-4.026492,106.4, 1.8, 1.3,0,0,1034,1024,1684,1008,2,0,100,-2,110.2,-0.9,0,71,3.952,3.951,0,0,0,0,4.473,94.82,87.185712435612,48.556432,6,P-GPS,
15400,2022-10-27 21:14:15,-34.9109858010666,-56.1436192931861,49.2126,64.2060388,23.635841635612,87.841880435612,41.338584,0,88.166669488,94.761157888,22,5,7.959,87.841880435612,49.2126,14.1374608,88.372378156,0,0,-4.921268,106.3, 1.8, 1.1,0,0,1602,1024,1684,1024,88,0,100,0,110.2,-0.9,0,71,3.952,3.951,0,0,0,0,4.473,94.82,87.841880435612,49.2126,6,P-GPS,
15500,2022-10-27 21:14:15,-34.9109858387684,-56.1436193698461,50.196852,65.1902908,23.635841635612,88.826132435612,41.338584,0,88.15781122,94.788060776,22,5,7.959,88.826132435612,50.196852,14.1374608,88.372378156,0,0,-5.59235,106.3, 2.6, 0.6,0,0,1684,1024,1682,1024,100,0,100,0,110.2,-0.8,0,71,3.952,3.951,0,0,0,0,4.473,94.82,88.826132435612,50.196852,6,P-GPS,
15600,2022-10-27 21:14:15,-34.91098590005,-56.143619470994,50.85302,65.8464588,23.635841635612,89.482300435612,41.338584,0,88.149281036,94.825790436,22,5,7.959,89.482300435612,50.85302,14.1374608,88.372378156,0,0,-6.039738,106.6, -5.1, 1.4,0,0,1684,1024,1682,1024,100,0,100,0,110.2,-0.8,0,71,3.952,3.951,0,0,0,0,4.473,94.82,89.482300435612,50.85302,6,P-GPS,
15700,2022-10-27 21:14:16,-34.9109860902001,-56.1436195519791,51.837272,66.765094,23.701458435612,90.466552435612,41.338584,0.3131716,88.175527756,94.898953168,22,5,7.959,90.466552435612,51.837272,14.1374608,88.372378156,-0.223694,0.223694,-6.263432,106.5, -13.8, 0.9,0,0,1684,1024,1573,1024,100,0,83,0,110.2,-0.8,0,71,3.952,3.951,0,0,0,0,4.473,94.82,90.466552435612,51.837272,6,P-GPS,
15800,2022-10-27 21:14:16,-34.9109862044387,-56.1436193448569,52.821524,67.8149628,23.635841635612,91.450804435612,41.338584,1.006623,88.24967474,94.97375632,22,5,7.959,91.450804435612,52.821524,14.1374608,88.372378156,-0.447388,0.894776,-6.039738,106.6, -15.9, 0.9,0,0,1684,1024,1329,1024,100,0,46,0,110.2,-0.8,0,71,3.952,3.951,0,0,0,0,4.473,94.82,91.450804435612,52.821524,6,P-GPS,
