time(millisecond),datetime(utc),latitude,longitude,height_above_takeoff(feet),height_above_ground_at_drone_location(feet),ground_elevation_at_drone_location(feet),altitude_above_seaLevel(feet),height_sonar(feet),speed(mph),distance(feet),mileage(feet),satellites,gpslevel,voltage(v),max_altitude(feet),max_ascent(feet),max_speed(mph),max_distance(feet), xSpeed(mph), ySpeed(mph), zSpeed(mph), compass_heading(degrees), pitch(degrees), roll(degrees),isPhoto,isVideo,rc_elevator,rc_aileron,rc_throttle,rc_rudder,rc_elevator(percent),rc_aileron(percent),rc_throttle(percent),rc_rudder(percent),gimbal_heading(degrees),gimbal_pitch(degrees),gimbal_roll(degrees),battery_percent,voltageCell1,voltageCell2,voltageCell3,voltageCell4,voltageCell5,voltageCell6,current(A),battery_temperature(f),altitude(feet),ascent(feet),flycStateRaw,flycState,message
0,2022-08-13 20:40:28,-34.9272325596639,-56.1653443521795,0,0,7.235913289292,7.235913289292,0.328084,0,0,0,21,5,0,7.235913289292,0,0,0,0,0,0,207.4, -4, -2.2,0,0,1024,1024,1024,1024,0,0,0,0,216.1,0,0,96,4.269,4.267,0,0,0,0,0,66.38,7.235913289292,0,41,Motors_Started,"En vuelo Aeronave en Zona de altitud restringida (150). Vuela con precaución (Code: 190001)"
100,2022-08-13 20:40:28,-34.9272325745153,-56.1653451320483,0,0,7.235913289292,7.235913289292,0.328084,0.223694,0.233347120328,0.233347120328,21,5,0,7.235913289292,0,0.223694,0.233347120328,-0.223694,0,0,209.3, -4.2, -4.5,0,0,364,364,364,1684,-100,-100,-100,100,217.5,0,0,96,4.269,4.267,0,0,0,0,0,66.38,7.235913289292,0,41,Motors_Started,
200,2022-08-13 20:40:28,-34.9272328077476,-56.1653457658805,0,0,7.235913289292,7.235913289292,0.328084,0.223694,0.4324639246,0.44116799312,21,5,0,7.235913289292,0,0.223694,0.4324639246,-0.223694,0,0,210.4, -5.3, -4.4,0,0,364,364,364,1684,-100,-100,-100,100,219.2,0,0,96,4.269,4.267,0,0,0,0,0,66.38,7.235913289292,0,41,Motors_Started,
300,2022-08-13 20:40:28,-34.9272330662663,-56.1653464888121,0,0,7.235913289292,7.235913289292,0.328084,0,0.66532482444,0.67709319752,21,5,0,7.235913289292,0,0.223694,0.66532482444,0,0,0,209.8, -4.9, -4.2,0,0,364,364,364,1684,-100,-100,-100,100,219.9,0,0,96,4.269,4.267,0,0,0,0,0,66.38,7.235913289292,0,41,Motors_Started,
400,2022-08-13 20:40:28,-34.9272332839046,-56.1653471547021,0,0,7.235913289292,7.235913289292,0.328084,0,0.87898296776,0.89152889992,21,5,0,7.235913289292,0,0.223694,0.87898296776,0,0,0,209.1, -4.9, -3.8,0,0,364,364,364,1684,-100,-100,-100,100,219.8,0,0,96,4.269,4.267,0,0,0,0,0,66.38,7.235913289292,0,41,Motors_Started,"Setting new Return-To-Home altitude to 40m (131 ft). Data Recorder File Index is 47. Setting new Maximum Flight Altitude to 120m (394 ft)"
500,2022-08-13 20:40:28,-34.9272334463191,-56.1653478014076,0,0,7.235913289292,7.235913289292,0.328084,0,1.08130252804,1.09385174104,21,5,0,7.235913289292,0,0.223694,1.08130252804,0,0,0,207.5, -4.1, -3.1,0,0,364,364,364,1684,-100,-100,-100,100,218.9,0,0,96,4.269,4.267,0,0,0,0,0,66.38,7.235913289292,0,41,Motors_Started,
600,2022-08-13 20:40:28,-34.9272335195209,-56.1653486357998,0,0,7.235913289292,7.235913289292,0.328084,0,1.32836618424,1.34486880944,21,5,0,7.235913289292,0,0.223694,1.32836618424,0,0,0,207, -4.5, -2.6,0,0,364,364,364,1684,-100,-100,-100,100,218.2,0,0,96,4.269,4.267,0,0,0,0,0,66.38,7.235913289292,0,41,Motors_Started,
700,2022-08-13 20:40:28,-34.9272337185298,-56.1653493808313,0,0,7.235913289292,7.235913289292,0.328084,0,1.56252629672,1.57926186156,21,5,0,7.235913289292,0,0.223694,1.56252629672,0,0,0,206.1, -5, -2.6,0,0,469,364,547,1618,-84,-100,-72,90,217.2,0,0,96,4.269,4.267,0,0,0,0,0,66.38,7.235913289292,0,41,Motors_Started,
800,2022-08-13 20:40:29,-34.9272339179556,-56.1653500904195,0,0,7.235913289292,7.235913289292,0.328084,0,1.78660110704,1.80364835168,21,5,0,7.235913289292,0,0.223694,1.78660110704,0,0,0,206.6, -5.1, -2.5,0,0,1024,1024,1024,1024,0,0,0,0,216.9,0,0,96,4.269,4.267,0,0,0,0,0,66.38,7.235913289292,0,41,Motors_Started,
900,2022-08-13 20:40:29,-34.9272340948567,-56.1653507726206,0,0,7.235913289292,7.235913289292,0.328084,0,2.000574211,2.01768051076,21,5,0,7.235913289292,0,0.223694,2.000574211,0,0,0,207.1, -5.6, -2.9,0,0,1024,1024,1024,1024,0,0,0,0,217.2,0,0,96,4.269,4.267,0,0,0,0,0,66.38,7.235913289292,0,41,Motors_Started,
1000,2022-08-13 20:40:29,-34.9272342394495,-56.1653515023232,0,0,7.235913289292,7.235913289292,0.328084,0,2.22491476936,2.2422408854,22,5,0,7.235913289292,0,0.223694,2.22491476936,0,0,0,206.9, -6.1, -3.7,0,0,1024,1024,1024,1024,0,0,0,0,217.3,0,0,96,4.269,4.267,0,0,0,0,0,66.38,7.235913289292,0,41,Motors_Started,
1100,2022-08-13 20:40:29,-34.9272345075565,-56.1653521882233,0,0.032808400000001,7.203104889292,7.235913289292,0.328084,0,2.44938656132,2.46954076144,22,5,0,7.235913289292,0,0.223694,2.44938656132,0,0,0,207, -6.6, -3.1,0,0,1024,1024,1024,1024,0,0,0,0,217.4,0,0,96,4.269,4.267,0,0,0,0,0,66.38,7.235913289292,0,10,Assisted_Takeoff,
1200,2022-08-13 20:40:29,-34.9272347489571,-56.1653528521488,0,0.032808400000001,7.203104889292,7.235913289292,0.328084,0,2.66513131888,2.68679798624,22,5,0,7.235913289292,0,0.223694,2.66513131888,0,0,0,207, -7.2, -2,0,0,1024,1024,1024,1024,0,0,0,0,217.4,0,0,96,4.269,4.267,0,0,0,0,0,66.38,7.235913289292,0,10,Assisted_Takeoff,
1300,2022-08-13 20:40:29,-34.9272350253496,-56.1653535996777,0,0.032808400000001,7.203104889292,7.235913289292,0.328084,0,2.90883211408,2.93209326968,22,5,8.593,7.235913289292,0,0.223694,2.90883211408,0,0,0,207.3, -8.4, -0.7,0,0,1024,1024,1024,1024,0,0,0,0,217.5,0,0,96,4.269,4.267,0,0,0,0,0.673,66.38,7.235913289292,0,10,Assisted_Takeoff,
1400,2022-08-13 20:40:29,-34.9272354878016,-56.1653543761088,0,0.032808400000001,7.203104889292,7.235913289292,0.328084,0.447388,3.18311689976,3.21916676968,22,5,8.593,7.235913289292,0,0.447388,3.18311689976,-0.447388,0,-0.447388,206.9, -8.4, -0.1,0,0,1024,1024,1024,1024,0,0,0,0,217.7,0,0,96,4.269,4.267,0,0,0,0,0.673,66.38,7.235913289292,0,6,P-GPS,
1500,2022-08-13 20:40:29,-34.9272362790951,-56.1653550414032,0,0.032808400000001,7.203104889292,7.235913289292,0.656168,2.013246,3.4735565416,3.5698163872,22,5,8.593,7.235913289292,0,2.013246,3.4735565416,-2.013246,0,-3.131716,207.8, -4.4, 1.6,0,0,1024,1024,1024,1024,0,0,0,0,217.7,0,0,96,4.269,4.267,0,0,0,0,0.673,66.38,7.235913289292,0,6,P-GPS,
1600,2022-08-13 20:40:29,-34.927237470087,-56.1653557876886,0.656168,0.6889764,7.203104889292,7.892081289292,0.984252,2.2816788,3.8614830632,4.0583334632,22,5,8.593,7.892081289292,0.656168,2.2816788,3.8614830632,-2.23694,-0.447388,-4.47388,211.2, 8.2, 12.9,0,0,1024,1024,1024,1024,0,0,0,0,217.6,0,0,96,4.269,4.267,0,0,0,0,0.673,66.38,7.892081289292,0.656168,6,P-GPS,
1700,2022-08-13 20:40:29,-34.9272386019207,-56.1653567699879,1.312336,1.3779528,7.170296489292,8.548249289292,1.64042,1.8342908,4.3194883272,4.5651576264,22,5,8.593,8.548249289292,1.312336,2.2816788,4.3194883272,-1.789552,-0.447388,-3.131716,211.5, 17.8, 7.5,0,0,1024,1024,1024,1024,0,0,0,0,217.6,0,0,96,4.269,4.267,0,0,0,0,0.673,66.38,8.548249289292,1.312336,6,P-GPS,
1800,2022-08-13 20:40:30,-34.9272397267195,-56.1653578407702,1.64042,1.7060368,7.170296489292,8.876333289292,1.968504,1.901399,4.8081038284,5.0857613176,22,5,8.593,8.876333289292,1.64042,2.2816788,4.8081038284,-1.789552,-0.671082,-1.565858,210, 16, 3.6,0,0,1024,1024,1024,1024,0,0,0,0,217.7,0,0,96,4.269,4.267,0,0,0,0,0.673,66.38,8.876333289292,1.64042,6,P-GPS,
1900,2022-08-13 20:40:30,-34.9272406474939,-56.1653589135483,1.968504,2.0669292,7.137488089292,9.204417289292,1.968504,1.7000744,5.2612206408,5.5503282616,22,5,8.593,9.204417289292,1.968504,2.2816788,5.2612206408,-1.565858,-0.671082,-0.223694,209.1, 15.5, 2,0,0,1024,1024,1024,1024,0,0,0,0,217.7,0,0,96,4.269,4.267,0,0,0,0,0.673,66.38,9.204417289292,1.968504,6,P-GPS,
2000,2022-08-13 20:40:30,-34.9272414399989,-56.1653599158472,1.968504,2.0669292,7.137488089292,9.204417289292,3.28084,1.2974252,5.6720474256,5.966863708,22,5,8.593,9.204417289292,1.968504,2.2816788,5.6720474256,-1.11847,-0.671082,0.671082,208.4, 13.4, 1.2,0,0,1024,1024,1024,1024,0,0,0,0,217.7,0,0,96,4.269,4.267,0,0,0,0,0.673,66.38,9.204417289292,1.968504,6,P-GPS,
2100,2022-08-13 20:40:30,-34.9272423090018,-56.1653609493575,1.64042,1.7388452,7.137488089292,8.876333289292,3.28084,0.9395148,6.1074805104,6.4096786828,22,5,8.593,9.204417289292,1.968504,2.2816788,6.1074805104,-0.671082,-0.671082,1.11847,207.9, 10.1, 0.1,0,0,1024,1024,1024,1024,0,0,0,0,217.7,0,0,96,4.269,4.267,0,0,0,0,0.673,66.38,8.876333289292,1.64042,6,P-GPS,
2200,2022-08-13 20:40:30,-34.9272429905252,-56.1653619183969,1.64042,1.7388452,7.137488089292,8.876333289292,2.952756,0.8052984,6.488025142,6.7916012672,22,5,8.593,9.204417289292,1.968504,2.2816788,6.488025142,-0.447388,-0.671082,1.342164,207.6, 6.9, -1.8,0,0,1024,1024,1024,1024,0,0,0,0,217.7,0,0,96,4.269,4.267,0,0,0,0,0.673,66.38,8.876333289292,1.64042,6,P-GPS,
2300,2022-08-13 20:40:30,-34.9272434120707,-56.1653626440976,1.64042,1.7388452,7.137488089292,8.876333289292,2.952756,0.8052984,6.7540356492,7.0576445828,22,5,8.516,9.204417289292,1.968504,2.2816788,6.7540356492,-0.447388,-0.671082,0.894776,207.5, 5.3, -3.1,0,0,1024,1024,1024,1024,0,0,0,0,217.7,0,0,96,4.266,4.221,0,0,0,0,1.474,66.56,8.876333289292,1.64042,6,P-GPS,
2400,2022-08-13 20:40:30,-34.9272436303994,-56.1653634277281,1.64042,1.7716536,7.104679689292,8.876333289292,2.624672,0.4921268,6.9910435308,7.3052167692,22,5,8.516,9.204417289292,1.968504,2.2816788,6.9910435308,-0.223694,-0.447388,0.447388,207.4, 4.7, -3.4,0,0,1024,1024,1024,1024,0,0,0,0,217.7,0,0,96,4.266,4.221,0,0,0,0,1.474,66.56,8.876333289292,1.64042,6,P-GPS,
2500,2022-08-13 20:40:30,-34.9272438762163,-56.1653642026649,1.64042,1.7716536,7.104679689292,8.876333289292,2.624672,0.447388,7.2323165044,7.5537732076,22,5,8.516,9.204417289292,1.968504,2.2816788,7.2323165044,0,-0.447388,0,207.4, 3.8, -3.8,0,0,1024,1024,1024,1024,0,0,0,0,217.7,0,0,96,4.266,4.221,0,0,0,0,1.474,66.56,8.876333289292,1.64042,6,P-GPS,
2600,2022-08-13 20:40:30,-34.9272440762674,-56.1653649072584,1.64042,1.7716536,7.104679689292,8.876333289292,2.624672,0.223694,7.4472771412,7.7768047108,22,5,8.516,9.204417289292,1.968504,2.2816788,7.4472771412,0,-0.223694,0,207.4, 3.3, -3.9,0,0,1024,1024,1024,1024,0,0,0,0,217.7,0,0,96,4.266,4.221,0,0,0,0,1.474,66.56,8.876333289292,1.64042,6,P-GPS,
2700,2022-08-13 20:40:30,-34.9272438929306,-56.1653652959337,1.968504,2.0997376,7.104679689292,9.204417289292,2.624672,0.223694,7.5064963032,7.9109582584,22,5,8.516,9.204417289292,1.968504,2.2816788,7.5064963032,0,-0.223694,0,207.5, 3, -3.9,0,0,1024,1024,1024,1024,0,0,0,0,217.7,0,0,96,4.266,4.221,0,0,0,0,1.474,66.56,9.204417289292,1.968504,6,P-GPS,
2800,2022-08-13 20:40:31,-34.9272439818697,-56.1653659242905,1.968504,2.0997376,7.104679689292,9.204417289292,2.624672,0.223694,7.6816275424,8.101706296,22,5,8.516,9.204417289292,1.968504,2.2816788,7.6816275424,0,-0.223694,-0.223694,207.8, 2.6, -3.9,0,0,1024,1024,1024,1024,0,0,0,0,217.7,0,0,96,4.266,4.221,0,0,0,0,1.474,66.56,9.204417289292,1.968504,6,P-GPS,
2900,2022-08-13 20:40:31,-34.9272441350347,-56.1653665546013,1.968504,2.0997376,7.104679689292,9.204417289292,2.624672,0,7.8705055012,8.2983598456,22,5,8.516,9.204417289292,1.968504,2.2816788,7.8705055012,0,0,-0.223694,208.2, 2.4, -3.5,0,0,1024,1024,1024,1024,0,0,0,0,217.7,0,0,96,4.266,4.221,0,0,0,0,1.474,66.56,9.204417289292,1.968504,6,P-GPS,
3000,2022-08-13 20:40:31,-34.9272442770741,-56.1653671370552,1.968504,2.0997376,7.104679689292,9.204417289292,2.952756,0,8.0455055068,8.4801183816,22,5,8.516,9.204417289292,1.968504,2.2816788,8.0455055068,0,0,-0.223694,208.6, 2.1, -3.5,0,0,1024,1024,1024,1024,0,0,0,0,217.7,0,0,96,4.266,4.221,0,0,0,0,1.474,66.56,9.204417289292,1.968504,6,P-GPS,
3100,2022-08-13 20:40:31,-34.9272443097081,-56.1653674888557,1.968504,2.0997376,7.104679689292,9.204417289292,2.952756,0,8.1411091844,8.5860238968,22,5,8.516,9.204417289292,1.968504,2.2816788,8.1411091844,0,0,0,209, 1.8, -3.1,0,0,1024,1024,1024,1024,0,0,0,0,217.7,0,0,96,4.266,4.221,0,0,0,0,1.474,66.56,9.204417289292,1.968504,6,P-GPS,
3200,2022-08-13 20:40:31,-34.9272444121307,-56.1653680631175,1.968504,2.0997376,7.104679689292,9.204417289292,2.952756,0,8.3070212632,8.761811304,21,5,8.516,9.204417289292,1.968504,2.2816788,8.3070212632,0,0,0,209.4, 1.7, -3,0,0,1024,1024,1024,1024,0,0,0,0,217.7,0,0,96,4.266,4.221,0,0,0,0,1.474,66.56,9.204417289292,1.968504,6,P-GPS,
3300,2022-08-13 20:40:31,-34.9272444914164,-56.1653687481607,1.968504,2.0997376,7.104679689292,9.204417289292,2.952756,0,8.4974412168,8.9687666912,21,5,8.427,9.204417289292,1.968504,2.2816788,8.4974412168,0,0,0,209.8, 1.6, -3.1,0,0,1024,1024,1024,1024,0,0,0,0,217.7,0,0,96,4.147,4.141,0,0,0,0,2.337,66.56,9.204417289292,1.968504,6,P-GPS,
3400,2022-08-13 20:40:31,-34.9272445671065,-56.165369398074,1.968504,2.0997376,7.104679689292,9.204417289292,2.952756,0,8.6788716688,9.1651249652,21,5,8.427,9.204417289292,1.968504,2.2816788,8.6788716688,0,0,0,210.2, 1.5, -3.3,0,0,1024,1024,1024,1024,0,0,0,0,217.7,0,0,96,4.147,4.141,0,0,0,0,2.337,66.56,9.204417289292,1.968504,6,P-GPS,
3500,2022-08-13 20:40:31,-34.9272444805254,-56.1653700505578,1.968504,2.0997376,7.104679689292,9.204417289292,2.952756,0,8.8323165556,9.362861192,21,5,8.427,9.204417289292,1.968504,2.2816788,8.8323165556,0,0,0,210.5, 2, -3.1,0,0,1024,1024,1024,1024,0,0,0,0,217.7,0,0,96,4.147,4.141,0,0,0,0,2.337,66.56,9.204417289292,1.968504,6,P-GPS,
3600,2022-08-13 20:40:31,-34.9272445714056,-56.1653706223118,1.968504,2.0997376,7.104679689292,9.204417289292,2.952756,0,8.9976708916,9.537073796,21,5,8.427,9.204417289292,1.968504,2.2816788,8.9976708916,0,0,0,210.8, 2.1, -3.2,0,0,1024,1024,1024,1024,0,0,0,0,217.7,0,0,96,4.147,4.141,0,0,0,0,2.337,66.56,9.204417289292,1.968504,6,P-GPS,
3700,2022-08-13 20:40:31,-34.9272447229551,-56.165371212519,1.968504,2.0997376,7.104679689292,9.204417289292,2.952756,0,9.1788716848,9.7220803636,21,5,8.427,9.204417289292,1.968504,2.2816788,9.1788716848,0,0,0,211.1, 2.3, -3.2,0,0,1024,1024,1024,1024,0,0,0,0,217.7,0,0,96,4.147,4.141,0,0,0,0,2.337,66.56,9.204417289292,1.968504,6,P-GPS,
3800,2022-08-13 20:40:32,-34.9272448686422,-56.1653717643779,1.968504,2.0997376,7.104679689292,9.204417289292,2.952756,0,9.3491472808,9.895505566,22,5,8.427,9.204417289292,1.968504,2.2816788,9.3491472808,0,0,0,211.4, 2.2, -3.2,0,0,1024,1024,1024,1024,0,0,0,0,217.7,0,0,96,4.147,4.141,0,0,0,0,2.337,66.56,9.204417289292,1.968504,6,P-GPS,
3900,2022-08-13 20:40:32,-34.9272450856551,-56.1653723387651,1.968504,2.0997376,7.104679689292,9.204417289292,2.952756,0,9.537894006,10.0846788004,22,5,8.427,9.204417289292,1.968504,2.2816788,9.537894006,0,0,0,211.8, 2, -3.4,0,0,1024,1024,1024,1024,0,0,0,0,217.7,0,0,96,4.147,4.141,0,0,0,0,2.337,66.56,9.204417289292,1.968504,6,P-GPS,
4000,2022-08-13 20:40:32,-34.92724547144,-56.1653728191731,1.968504,2.0997376,7.104679689292,9.204417289292,2.952756,0,9.731627608,10.2858271008,22,5,8.427,9.204417289292,1.968504,2.2816788,9.731627608,0,0,0,212, 2.4, -3.5,0,0,1024,1024,1024,1024,0,0,0,0,217.7,0,0,96,4.147,4.141,0,0,0,0,2.337,66.56,9.204417289292,1.968504,6,P-GPS,
4100,2022-08-13 20:40:32,-34.9272457530697,-56.1653734272482,1.968504,2.132546,7.071871289292,9.204417289292,2.952756,0,9.9405186908,10.494750992,22,5,8.427,9.204417289292,1.968504,2.2816788,9.9405186908,0,0,0,212.3, 2.3, -3.4,0,0,1024,1024,1024,1024,0,0,0,0,217.7,0,0,96,4.147,4.141,0,0,0,0,2.337,66.56,9.204417289292,1.968504,6,P-GPS,
4200,2022-08-13 20:40:32,-34.9272460259969,-56.1653739925865,1.968504,2.132546,7.071871289292,9.204417289292,2.952756,0,10.1367129228,10.6910108408,22,5,8.427,9.204417289292,1.968504,2.2816788,10.1367129228,0,0,0,212.6, 2.3, -3.3,0,0,1024,1024,1024,1024,0,0,0,0,217.7,0,0,96,4.147,4.141,0,0,0,0,2.337,66.56,9.204417289292,1.968504,6,P-GPS,
4300,2022-08-13 20:40:32,-34.9272462707715,-56.1653745511747,1.968504,2.132546,7.071871289292,9.204417289292,2.952756,0,10.3261486244,10.8804793508,22,5,8.312,9.204417289292,1.968504,2.2816788,10.3261486244,0,0,0,212.7, 2.5, -3.3,0,0,1024,1024,1024,1024,0,0,0,0,217.7,0,0,96,4.16,4.154,0,0,0,0,4.505,66.56,9.204417289292,1.968504,6,P-GPS,
4400,2022-08-13 20:40:32,-34.9272467329109,-56.1653751650386,1.968504,2.132546,7.071871289292,9.204417289292,2.952756,0,10.5686355088,11.129757574,23,5,8.312,9.204417289292,1.968504,2.2816788,10.5686355088,0,0,0,213.1, 2.3, -3.3,0,0,1024,1024,1024,1024,0,0,0,0,217.7,0,0,96,4.16,4.154,0,0,0,0,4.505,66.56,9.204417289292,1.968504,6,P-GPS,
4500,2022-08-13 20:40:32,-34.9272469374956,-56.1653757023942,1.968504,2.132546,7.071871289292,9.204417289292,2.952756,0,10.7453415512,11.3069885508,23,5,8.312,9.204417289292,1.968504,2.2816788,10.7453415512,0,0,0,213.4, 2.2, -3.1,0,0,1024,1024,1024,1024,0,0,0,0,217.7,0,0,96,4.16,4.154,0,0,0,0,4.505,66.56,9.204417289292,1.968504,6,P-GPS,
4600,2022-08-13 20:40:32,-34.927247126838,-56.1653762042228,1.968504,2.132546,7.071871289292,9.204417289292,2.952756,0,10.9100725276,11.4722444616,23,5,8.312,9.204417289292,1.968504,2.2816788,10.9100725276,0,0,0,213.5, 2.1, -2.9,0,0,1024,1024,1024,1024,0,0,0,0,217.7,0,0,96,4.16,4.154,0,0,0,0,4.505,66.56,9.204417289292,1.968504,6,P-GPS,
4700,2022-08-13 20:40:32,-34.9272473117511,-56.1653767025197,1.968504,2.132546,7.071871289292,9.204417289292,2.952756,0,11.0731302756,11.6358599524,23,5,8.312,9.204417289292,1.968504,2.2816788,11.0731302756,0,0,0,213.7, 1.7, -2.8,0,0,1024,1024,1308,1024,0,0,43,0,217.7,0,0,96,4.16,4.154,0,0,0,0,4.505,66.56,9.204417289292,1.968504,6,P-GPS,
4800,2022-08-13 20:40:32,-34.9272474711041,-56.1653771921646,1.968504,2.132546,7.071871289292,9.204417289292,2.952756,0,11.2293966848,11.7934386976,23,5,8.312,9.204417289292,1.968504,2.2816788,11.2293966848,0,0,0,213.9, 1.8, -2.8,0,0,1024,1024,1348,1024,0,0,49,0,217.7,0,0,96,4.16,4.154,0,0,0,0,4.505,66.56,9.204417289292,1.968504,6,P-GPS,
4900,2022-08-13 20:40:33,-34.9272476536722,-56.1653777145153,2.296588,2.46063,7.071871289292,9.532501289292,3.28084,0,11.3983927532,11.9632877844,23,5,8.312,9.532501289292,2.296588,2.2816788,11.3983927532,0,0,-0.671082,214.2, 1.9, -2.5,0,0,1024,1024,1024,1024,0,0,0,0,217.7,0,0,96,4.16,4.154,0,0,0,0,4.505,66.56,9.532501289292,2.296588,6,P-GPS,
5000,2022-08-13 20:40:33,-34.9272478290882,-56.1653782131883,2.296588,2.46063,7.071871289292,9.532501289292,3.28084,0,11.5599085064,12.1256237476,23,5,8.312,9.532501289292,2.296588,2.2816788,11.5599085064,0,0,-0.894776,214.2, 2.3, -3.5,0,0,1024,1024,1024,1024,0,0,0,0,217.7,0,0,96,4.16,4.154,0,0,0,0,4.505,66.56,9.532501289292,2.296588,6,P-GPS,
5100,2022-08-13 20:40:33,-34.9272480296213,-56.165378808014,2.296588,2.46063,7.071871289292,9.532501289292,3.28084,0,11.7511158616,12.3180122052,23,5,8.312,9.532501289292,2.296588,2.2816788,11.7511158616,0,0,-0.671082,214.3, 2.9, -3.4,0,0,1024,1024,1024,1024,0,0,0,0,217.7,0,0,96,4.16,4.154,0,0,0,0,4.505,66.56,9.532501289292,2.296588,6,P-GPS,
5200,2022-08-13 20:40:33,-34.9272482120331,-56.1653795196606,2.296588,2.46063,7.071871289292,9.532501289292,3.608924,0,11.9698822728,12.5410437084,23,5,8.312,9.532501289292,2.296588,2.2816788,11.9698822728,0,0,-0.447388,214.4, 2.8, -2.8,0,0,1391,1024,1024,1024,56,0,0,0,217.7,0,0,96,4.16,4.154,0,0,0,0,4.505,66.56,9.532501289292,2.296588,6,P-GPS,
5300,2022-08-13 20:40:33,-34.9272483552711,-56.1653801630119,2.296588,2.46063,7.071871289292,9.532501289292,3.608924,0,12.1640095756,12.7404531636,23,5,8.312,9.532501289292,2.296588,2.2816788,12.1640095756,0,0,-0.223694,214.7, 2.3, -2.4,0,0,1684,1024,1024,1024,100,0,0,0,217.7,0,0,96,4.156,4.15,0,0,0,0,4.166,66.56,9.532501289292,2.296588,6,P-GPS,
5400,2022-08-13 20:40:33,-34.9272484786811,-56.1653807778789,2.296588,2.46063,7.071871289292,9.532501289292,3.608924,0,12.3474085316,12.9298232484,23,5,8.312,9.532501289292,2.296588,2.2816788,12.3474085316,0,0,0,215, -1.9, -2.2,0,0,1684,1024,1024,1024,100,0,0,0,217.7,0,0,96,4.156,4.15,0,0,0,0,4.166,66.56,9.532501289292,2.296588,6,P-GPS,
5500,2022-08-13 20:40:33,-34.9272486714888,-56.1653815730348,2.296588,2.4934384,7.039062889292,9.532501289292,3.608924,0,12.5905187756,13.1778547524,23,5,8.312,9.532501289292,2.296588,2.2816788,12.5905187756,0,0,0,215.2, -11.1, -2.4,0,0,1684,1024,1025,1024,100,0,0,0,217.7,0,0,96,4.156,4.15,0,0,0,0,4.166,66.56,9.532501289292,2.296588,6,P-GPS,"Punto de origen actualizado. Altitud de RPO establecida en 40m (Code: 3000001)"
5600,2022-08-13 20:40:33,-34.9272489515161,-56.1653824368413,2.296588,2.4934384,7.039062889292,9.532501289292,3.608924,0.4921268,12.8667326952,13.455709092,23,5,8.312,9.532501289292,2.296588,2.2816788,12.8667326952,-0.447388,-0.223694,0,215.4, -15.6, -2.6,0,0,1684,1024,1024,1024,100,0,0,0,217.7,0,0,96,4.156,4.15,0,0,0,0,4.166,66.56,9.532501289292,2.296588,6,P-GPS,
5700,2022-08-13 20:40:33,-34.9272490600225,-56.1653841038494,2.296588,2.4934384,7.039062889292,9.532501289292,3.608924,1.11847,13.3281172244,13.9559387668,23,5,8.312,9.532501289292,2.296588,2.2816788,13.3281172244,-0.894776,-0.671082,0,215.5, -16.4, -2.5,0,0,1684,1024,1024,1024,100,0,0,0,217.7,0,0,96,4.156,4.15,0,0,0,0,4.166,66.56,9.532501289292,2.296588,6,P-GPS,
5800,2022-08-13 20:40:34,-34.9272495574014,-56.1653852621116,2.296588,2.4934384,7.039062889292,9.532501289292,3.608924,1.7448132,13.7191933524,14.3470477032,23,5,8.312,9.532501289292,2.296588,2.2816788,13.7191933524,-1.342164,-1.11847,0,215.5, -16.4, -2.8,0,0,1684,1024,1024,1024,100,0,0,0,217.7,0,0,96,4.156,4.15,0,0,0,0,4.166,66.56,9.532501289292,2.296588,6,P-GPS,
5900,2022-08-13 20:40:34,-34.9272502666735,-56.1653866698148,2.296588,2.4934384,7.039062889292,9.532501289292,3.608924,2.3711564,14.2118442868,14.8413062492,23,5,8.312,9.532501289292,2.296588,2.3711564,14.2118442868,-1.789552,-1.565858,0,215.7, -15.9, -3,0,0,1684,1024,1024,1024,100,0,0,0,217.7,0,0,96,4.156,4.15,0,0,0,0,4.166,66.56,9.532501289292,2.296588,6,P-GPS,
6000,2022-08-13 20:40:34,-34.9272511197567,-56.1653881670668,2.296588,2.4934384,7.039062889292,9.532501289292,3.608924,3.0422384,14.7524282936,15.3867130908,23,5,8.312,9.532501289292,2.296588,3.0422384,14.7524282936,-2.460634,-1.789552,0,215.8, -16.1, -3.3,0,0,1684,1024,1195,1024,100,0,26,0,217.7,0,0,96,4.156,4.15,0,0,0,0,4.166,66.56,9.532501289292,2.296588,6,P-GPS,
6100,2022-08-13 20:40:34,-34.9272524843667,-56.1653902039314,2.296588,2.5262468,7.006254489292,9.532501289292,3.608924,3.6685816,15.523130418,16.173556948,23,5,8.312,9.532501289292,2.296588,3.6685816,15.523130418,-2.908022,-2.23694,0,215.8, -15.8, -3.3,0,0,1684,1024,1385,1024,100,0,55,0,217.7,0,0,96,4.156,4.15,0,0,0,0,4.166,66.56,9.532501289292,2.296588,6,P-GPS,
6200,2022-08-13 20:40:34,-34.9272538977909,-56.1653920692426,2.296588,2.5262468,7.006254489292,9.532501289292,3.608924,4.2949248,16.2587931712,16.9333338752,23,5,8.312,9.532501289292,2.296588,4.2949248,16.2587931712,-3.35541,-2.684328,0,216, -15, -2.9,0,0,1684,1024,1554,1024,100,0,80,0,217.7,0,0,96,4.156,4.15,0,0,0,0,4.166,66.56,9.532501289292,2.296588,6,P-GPS,
6300,2022-08-13 20:40:34,-34.9272557734979,-56.165394249448,2.296588,2.5590552,6.973446089292,9.532501289292,3.608924,4.9660068,17.1614506804,17.8786751128,23,5,8.226,9.532501289292,2.296588,4.9660068,17.1614506804,-4.026492,-2.908022,-0.671082,216, -13.5, -2.9,0,0,1684,1024,1369,1024,100,0,52,0,217.7,0,0,96,4.155,4.152,0,0,0,0,4.339,66.56,9.532501289292,2.296588,6,P-GPS,
6400,2022-08-13 20:40:34,-34.9272577532689,-56.1653964832364,2.624672,2.9199476,6.940637689292,9.860585289292,3.937008,5.59235,18.1015753824,18.8626646456,23,5,8.226,9.860585289292,2.624672,5.59235,18.1015753824,-4.47388,-3.35541,-1.565858,216.1, -12.5, -3,0,0,1684,1024,1369,1024,100,0,52,0,217.7,0,0,96,4.155,4.152,0,0,0,0,4.339,66.56,9.860585289292,2.624672,6,P-GPS,
6500,2022-08-13 20:40:34,-34.9272608922315,-56.1653990599435,2.952756,3.28084,6.907829289292,10.188669289292,4.265092,6.0844768,19.3562670236,20.243110884,23,5,8.226,10.188669289292,2.952756,6.0844768,19.3562670236,-4.921268,-3.579104,-2.23694,216.2, -12.6, -3.2,0,0,1684,1024,1265,1024,100,0,37,0,217.7,0,0,96,4.155,4.152,0,0,0,0,4.339,66.56,10.188669289292,2.952756,6,P-GPS,
6600,2022-08-13 20:40:34,-34.9272632340121,-56.1654014773435,2.952756,3.3136484,6.875020889292,10.188669289292,4.593176,6.3976484,20.4267066904,21.3624678752,23,5,8.226,10.188669289292,2.952756,6.3976484,20.4267066904,-5.144962,-3.802798,-2.23694,216.3, -13.2, -3.4,0,0,1684,1024,1024,1024,100,0,0,0,217.7,0,0,96,4.155,4.152,0,0,0,0,4.339,66.56,10.188669289292,2.952756,6,P-GPS,
6700,2022-08-13 20:40:34,-34.9272658191865,-56.1654039602386,3.28084,3.6745408,6.842212489292,10.516753289292,4.92126,6.71082,21.5681765432,22.562992848,23,5,8.226,10.516753289292,3.28084,6.71082,21.5681765432,-5.368656,-4.026492,-1.789552,216.4, -14.3, -3.5,0,0,1684,1024,1026,1024,100,0,0,0,217.7,0,0,96,4.155,4.152,0,0,0,0,4.339,66.56,10.516753289292,3.28084,6,P-GPS,
6800,2022-08-13 20:40:35,-34.9272683677535,-56.165406392748,3.608924,4.0026248,6.842212489292,10.844837289292,5.249344,7.0239916,22.695702826,23.7437015472,22,5,8.226,10.844837289292,3.608924,7.0239916,22.695702826,-5.59235,-4.250186,-1.11847,216.6, -14.9, -3.1,0,0,1684,1024,1097,1024,100,0,11,0,217.7,0,0,96,4.155,4.152,0,0,0,0,4.339,66.56,10.844837289292,3.608924,6,P-GPS,
6900,2022-08-13 20:40:35,-34.9272718425403,-56.1654082948819,3.608924,4.0682416,6.776595689292,10.844837289292,5.577428,7.3371632,23.9012802924,25.1333013292,22,5,8.226,10.844837289292,3.608924,7.3371632,23.9012802924,-5.816044,-4.47388,-0.671082,216.7, -15.3, -3,0,0,1684,1024,1239,1024,100,0,33,0,217.7,0,0,96,4.155,4.152,0,0,0,0,4.339,66.56,10.844837289292,3.608924,6,P-GPS,
7000,2022-08-13 20:40:35,-34.9272746583023,-56.1654107896262,3.608924,4.10105,6.743787289292,10.844837289292,5.577428,7.82929,25.1173236384,26.403052026,23,5,8.226,10.844837289292,3.608924,7.82929,25.1173236384,-6.263432,-4.697574,-0.447388,216.8, -14.6, -2.6,0,0,1684,1024,1113,1024,100,0,13,0,217.7,0,0,96,4.155,4.152,0,0,0,0,4.339,66.56,10.844837289292,3.608924,6,P-GPS,
7100,2022-08-13 20:40:35,-34.9272775523079,-56.1654134320372,3.608924,4.1338584,6.710978889292,10.844837289292,5.577428,8.1424616,26.390748876,27.7220153228,23,5,8.226,10.844837289292,3.608924,8.1424616,26.390748876,-6.487126,-4.921268,-0.447388,216.7, -14.2, -2.8,0,0,1684,1024,1033,1024,100,0,1,0,217.7,0,0,96,4.155,4.152,0,0,0,0,4.339,66.56,10.844837289292,3.608924,6,P-GPS,
7200,2022-08-13 20:40:35,-34.9272804253391,-56.1654160506661,3.608924,4.1666668,6.678170489292,10.844837289292,9.514436,8.4556332,27.658137368,29.0305783568,23,5,8.226,10.844837289292,3.608924,8.4556332,27.658137368,-6.71082,-5.144962,-0.447388,216.7, -14, -3.5,0,0,1684,1024,1033,1024,100,0,1,0,217.7,0,0,96,4.155,4.152,0,0,0,0,4.339,66.56,10.844837289292,3.608924,6,P-GPS,
7300,2022-08-13 20:40:35,-34.9272835458677,-56.1654188409319,3.937008,4.5275592,6.645362089292,11.172921289292,9.514436,8.94776,29.02641169,30.4422910004,23,5,8.266,11.172921289292,3.937008,8.94776,29.02641169,-7.158208,-5.368656,-0.223694,216.8, -14.5, -3.2,0,0,1684,1024,1041,1024,100,0,3,0,217.7,0,0,96,4.074,4.067,0,0,0,0,4.285,66.74,11.172921289292,3.937008,6,P-GPS,
7400,2022-08-13 20:40:35,-34.9272864315225,-56.1654207230035,3.937008,4.5603676,6.612553689292,11.172921289292,9.84252,9.3056704,30.136647946,31.6361886764,23,5,8.266,11.172921289292,3.937008,9.3056704,30.136647946,-8.276678,-4.250186,0,207.5, -14.3, -3.3,0,0,1684,1024,1034,1024,100,0,2,0,217.7,0,0,96,4.074,4.067,0,0,0,0,4.285,66.74,11.172921289292,3.937008,6,P-GPS,
7500,2022-08-13 20:40:35,-34.9272898926695,-56.1654235356513,3.937008,4.593176,6.579745289292,11.172921289292,10.170604,9.506995,31.6006571792,33.153544368,23,5,8.266,11.172921289292,3.937008,9.506995,31.6006571792,-8.500372,-4.250186,0,207.4, -14.6, -3.5,0,0,1684,1024,1063,1024,100,0,6,0,217.7,0,0,96,4.074,4.067,0,0,0,0,4.285,66.74,11.172921289292,3.937008,6,P-GPS,
7600,2022-08-13 20:40:35,-34.9272932948277,-56.1654262574129,3.608924,4.2979004,6.546936889292,10.844837289292,10.498688,9.7083196,33.03477796,34.638124468,23,5,8.266,11.172921289292,3.937008,9.7083196,33.03477796,-8.724066,-4.250186,0,207.5, -14.5, -3.1,0,0,1684,1024,1062,1024,100,0,6,0,217.7,0,0,96,4.074,4.067,0,0,0,0,4.285,66.74,10.844837289292,3.608924,6,P-GPS,
7700,2022-08-13 20:40:35,-34.9272970772211,-56.1654291388994,3.608924,4.3635172,6.481320089292,10.844837289292,10.498688,9.9991218,34.602691396,36.265093024,23,5,8.266,11.172921289292,3.937008,9.9991218,34.602691396,-8.94776,-4.47388,0,207.5, -14.5, -2.7,0,0,1684,1024,1067,1024,100,0,7,0,217.7,0,0,96,4.074,4.067,0,0,0,0,4.285,66.74,10.844837289292,3.608924,6,P-GPS,
7800,2022-08-13 20:40:36,-34.9273015595458,-56.1654303825099,3.608924,4.429134,6.415703289292,10.844837289292,10.498688,10.3122934,36.000329236,37.942258432,23,5,8.266,11.172921289292,3.937008,10.3122934,36.000329236,-9.171454,-4.697574,0,207.4, -14.3, -2.9,0,0,1684,1024,1068,1024,100,0,7,0,217.7,0,0,96,4.074,4.067,0,0,0,0,4.285,66.74,10.844837289292,3.608924,6,P-GPS,
7900,2022-08-13 20:40:36,-34.9273055364405,-56.1654333772438,3.608924,4.4619424,6.382894889292,10.844837289292,10.498688,10.513618,37.65748152,39.647639064,23,5,8.266,11.172921289292,3.937008,10.513618,37.65748152,-9.395148,-4.697574,0,207.4, -14.2, -2.8,0,0,1684,1024,1069,1024,100,0,7,0,217.7,0,0,96,4.074,4.067,0,0,0,0,4.285,66.74,10.844837289292,3.608924,6,P-GPS,
8000,2022-08-13 20:40:36,-34.9273094251257,-56.1654362854591,3.608924,4.4947508,6.350086489292,10.844837289292,12.467192,11.0057448,39.277888396,41.311681112,23,5,8.266,11.172921289292,3.937008,11.0057448,39.277888396,-9.842536,-4.921268,0,207.4, -13.7, -2.7,0,0,1684,1024,1069,1024,100,0,7,0,217.7,0,0,96,4.074,4.067,0,0,0,0,4.285,66.74,10.844837289292,3.608924,6,P-GPS,
8100,2022-08-13 20:40:36,-34.9273136644996,-56.1654393713092,3.608924,4.5603676,6.284469689292,10.844837289292,12.467192,11.296547,41.030513124,43.112862272,23,5,8.266,11.172921289292,3.937008,11.296547,41.030513124,-10.06623,-5.144962,0,207.3, -13.3, -2.7,0,0,1684,1024,1069,1024,100,0,7,0,217.7,0,0,96,4.074,4.067,0,0,0,0,4.285,66.74,10.844837289292,3.608924,6,P-GPS,
8200,2022-08-13 20:40:36,-34.9273178786781,-56.1654420734891,3.608924,4.593176,6.251661289292,10.844837289292,12.795276,11.4978716,42.702101104,44.850067052,23,5,8.266,11.172921289292,3.937008,11.4978716,42.702101104,-10.289924,-5.144962,0,207.3, -13.6, -2.8,0,0,1684,1024,1069,1024,100,0,7,0,217.7,0,0,96,4.074,4.067,0,0,0,0,4.285,66.74,10.844837289292,3.608924,6,P-GPS,
8300,2022-08-13 20:40:36,-34.927322243377,-56.1654452317723,3.608924,4.6587928,6.186044489292,10.844837289292,12.795276,11.6991962,44.511484364,46.701773148,23,5,8.311,11.172921289292,3.937008,11.6991962,44.511484364,-10.513618,-5.144962,0,207.3, -13.9, -2.9,0,0,1684,1024,1068,1024,100,0,7,0,217.7,0,0,96,4.15,4.14,0,0,0,0,4.853,66.74,10.844837289292,3.608924,6,P-GPS,
8400,2022-08-13 20:40:36,-34.9273264941891,-56.1654482895352,3.608924,4.6916012,6.153236089292,10.844837289292,13.12336,11.8110432,46.273295444,48.50229814,23,5,8.311,11.172921289292,3.937008,11.8110432,46.273295444,-10.513618,-5.368656,0,207.3, -13.8, -2.4,0,0,1684,1024,1053,1024,100,0,4,0,217.7,0,0,96,4.15,4.14,0,0,0,0,4.853,66.74,10.844837289292,3.608924,6,P-GPS,
8500,2022-08-13 20:40:36,-34.9273311858795,-56.165451643363,3.608924,4.757218,6.087619289292,10.844837289292,13.451444,12.0123678,48.21686506,50.486222088,23,5,8.311,11.172921289292,3.937008,12.0123678,48.21686506,-10.737312,-5.368656,0,207.2, -13.5, -2.5,0,0,1684,1024,1053,1024,100,0,4,0,217.7,0,0,96,4.15,4.14,0,0,0,0,4.853,66.74,10.844837289292,3.608924,6,P-GPS,
8600,2022-08-13 20:40:36,-34.9273358513065,-56.1654547578645,3.608924,4.8228348,6.022002489292,10.844837289292,13.451444,12.30317,50.109253572,52.426838948,23,5,8.311,11.172921289292,3.937008,12.30317,50.109253572,-10.961006,-5.59235,0,207.2, -13.4, -2.3,0,0,1684,1024,1053,1024,100,0,4,0,217.7,0,0,96,4.15,4.14,0,0,0,0,4.853,66.74,10.844837289292,3.608924,6,P-GPS,
8700,2022-08-13 20:40:36,-34.9273404832135,-56.1654581082859,3.608924,4.8556432,5.989194089292,10.844837289292,13.779528,12.5044946,52.041996416,54.39140594,23,5,8.311,11.172921289292,3.937008,12.5044946,52.041996416,-11.1847,-5.59235,0,207.2, -13.6, -2.5,0,0,1684,1024,1024,1024,100,0,0,0,217.7,0,0,96,4.15,4.14,0,0,0,0,4.853,66.74,10.844837289292,3.608924,6,P-GPS,
8800,2022-08-13 20:40:37,-34.9273449560411,-56.1654613252095,3.608924,4.92126,5.923577289292,10.844837289292,14.107612,12.7058192,53.907153956,56.28609104,23,5,8.311,11.172921289292,3.937008,12.7058192,53.907153956,-11.408394,-5.59235,0,207.3, -14, -2.4,0,0,1684,1024,1035,1024,100,0,2,0,217.7,0,0,96,4.15,4.14,0,0,0,0,4.853,66.74,10.844837289292,3.608924,6,P-GPS,
8900,2022-08-13 20:40:37,-34.9273498274596,-56.1654646467287,3.608924,4.9868768,5.857960489292,10.844837289292,14.107612,12.7952968,55.9055136,58.322180344,23,5,8.311,11.172921289292,3.937008,12.7952968,55.9055136,-11.408394,-5.816044,0,207.3, -14.3, -2.1,0,0,1684,1024,1024,1024,100,0,0,0,217.7,0,0,96,4.15,4.14,0,0,0,0,4.853,66.74,10.844837289292,3.608924,6,P-GPS,
9000,2022-08-13 20:40:37,-34.9273545223809,-56.1654678553348,3.608924,5.0524936,5.792343689292,10.844837289292,14.107612,12.9966214,57.835303688,60.285763084,23,5,8.311,11.172921289292,3.937008,12.9966214,57.835303688,-11.632088,-5.816044,0,207.4, -14, -2.3,0,0,1684,1024,1024,1024,100,0,0,0,217.7,0,0,96,4.15,4.14,0,0,0,0,4.853,66.74,10.844837289292,3.608924,6,P-GPS,
9100,2022-08-13 20:40:37,-34.9273594192814,-56.1654706668124,3.608924,5.085302,5.759535289292,10.844837289292,14.435696,13.197946,59.74901766,62.26050068,23,5,8.311,11.172921289292,3.937008,13.197946,59.74901766,-11.855782,-5.816044,0,207.4, -14, -2.4,0,0,1684,1024,1024,1024,100,0,0,0,217.7,0,0,96,4.15,4.14,0,0,0,0,4.853,66.74,10.844837289292,3.608924,6,P-GPS,
9200,2022-08-13 20:40:37,-34.9273642958328,-56.1654739662003,3.608924,5.1509188,5.693918489292,10.844837289292,14.435696,13.5111176,61.752626648,64.294949564,23,5,8.311,11.172921289292,3.937008,13.5111176,61.752626648,-12.079476,-6.039738,0,207.3, -13.6, -2.7,0,0,1684,1024,1024,1024,100,0,0,0,217.7,0,0,96,4.15,4.14,0,0,0,0,4.853,66.74,10.844837289292,3.608924,6,P-GPS,
9300,2022-08-13 20:40:37,-34.9273696656594,-56.1654776727689,3.608924,5.2165356,5.628301689292,10.844837289292,14.435696,13.7124422,63.97473958,66.546261972,23,5,8.247,11.172921289292,3.937008,13.7124422,63.97473958,-12.30317,-6.039738,0,207.1, -13, -2.5,0,0,1684,1024,1024,1024,100,0,0,0,217.7,0,0,96,4.121,4.119,0,0,0,0,4.674,66.74,10.844837289292,3.608924,6,P-GPS,
9400,2022-08-13 20:40:37,-34.9273748372328,-56.1654812268433,3.608924,5.2821524,5.562684889292,10.844837289292,14.76378,13.7124422,66.113519176,68.711944456,23,5,8.247,11.172921289292,3.937008,13.7124422,66.113519176,-12.30317,-6.039738,0,207.2, -13.1, -2.1,0,0,1684,1024,1024,1024,100,0,0,0,217.7,0,0,96,4.121,4.119,0,0,0,0,4.674,66.74,10.844837289292,3.608924,6,P-GPS,
9500,2022-08-13 20:40:37,-34.9273804994238,-56.1654853303943,3.608924,5.3477692,5.497068089292,10.844837289292,14.435696,14.0032444,68.496721352,71.114831672,23,5,8.247,11.172921289292,3.937008,14.0032444,68.496721352,-12.526864,-6.263432,0,207.2, -13.3, -1.7,0,0,1684,1024,1024,1024,100,0,0,0,217.7,0,0,96,4.121,4.119,0,0,0,0,4.674,66.74,10.844837289292,3.608924,6,P-GPS,
9600,2022-08-13 20:40:37,-34.9273856794651,-56.1654889502353,3.608924,5.413386,5.431451289292,10.844837289292,14.435696,14.0032444,70.653217484,73.292981348,23,5,8.247,11.172921289292,3.937008,14.0032444,70.653217484,-12.526864,-6.263432,0,207.2, -13.3, -1.8,0,0,1024,1024,1024,1024,0,0,0,0,217.7,0,0,96,4.121,4.119,0,0,0,0,4.674,66.74,10.844837289292,3.608924,6,P-GPS,
9700,2022-08-13 20:40:37,-34.9273911872014,-56.1654927779717,3.608924,5.4790028,5.365834489292,10.844837289292,14.76378,14.204569,72.943899972,75.605973548,23,5,8.247,11.172921289292,3.937008,14.204569,72.943899972,-12.750558,-6.263432,0,207, -11.3, -2,0,0,1024,1024,1024,1024,0,0,0,0,217.7,0,0,96,4.121,4.119,0,0,0,0,4.674,66.74,10.844837289292,3.608924,6,P-GPS,
9800,2022-08-13 20:40:38,-34.9273964523125,-56.1654964335487,3.608924,5.5446196,5.300217689292,10.844837289292,14.76378,14.204569,75.134188756,77.816275456,23,5,8.247,11.172921289292,3.937008,14.204569,75.134188756,-12.750558,-6.263432,0,206.5, 9.4, -1.6,0,0,1024,1024,1024,1024,0,0,0,0,217.7,0,0,96,4.121,4.119,0,0,0,0,4.674,66.74,10.844837289292,3.608924,6,P-GPS,
9900,2022-08-13 20:40:38,-34.9274017284972,-56.1655002844403,3.608924,5.6102364,5.234600889292,10.844837289292,14.76378,13.197946,77.364175704,80.059713848,23,5,8.247,11.172921289292,3.937008,14.204569,77.364175704,-11.855782,-5.816044,-0.223694,206.3, 19.6, -0.5,0,0,1024,1024,1024,1024,0,0,0,0,217.7,0,0,96,4.121,4.119,0,0,0,0,4.674,66.74,10.844837289292,3.608924,6,P-GPS,
10000,2022-08-13 20:40:38,-34.9274064280823,-56.1655036516012,3.28084,5.3149608,5.201792489292,10.516753289292,14.76378,12.1018454,79.339569468,82.048230972,23,5,8.247,11.172921289292,3.937008,14.204569,79.339569468,-10.737312,-5.59235,0,206.5, 20.4, -0.2,0,0,1024,1024,1024,1024,0,0,0,0,217.7,0,0,96,4.121,4.119,0,0,0,0,4.674,66.74,10.516753289292,3.28084,6,P-GPS,
10100,2022-08-13 20:40:38,-34.9274110203986,-56.165506921042,3.28084,5.3805776,5.136175689292,10.516753289292,15.091864,11.0952224,81.267062968,83.988191664,23,5,8.247,11.172921289292,3.937008,14.204569,81.267062968,-9.842536,-5.144962,0,206.4, 20.8, -0.3,0,0,1024,1024,1024,1024,0,0,0,0,217.7,0,0,96,4.121,4.119,0,0,0,0,4.674,66.74,10.516753289292,3.28084,6,P-GPS,
10200,2022-08-13 20:40:38,-34.9274150366365,-56.1655098628616,3.28084,5.413386,5.103367289292,10.516753289292,15.091864,11.0952224,82.967850424,85.697509304,22,5,8.247,11.172921289292,3.937008,14.204569,82.967850424,-8.94776,-4.697574,0,205.9, 21.4, -0.9,0,0,1024,1024,1024,1024,0,0,0,0,217.7,0,0,96,4.121,4.119,0,0,0,0,4.674,66.74,10.516753289292,3.28084,6,P-GPS,
10300,2022-08-13 20:40:38,-34.9274188765335,-56.1655127254562,3.28084,5.4790028,5.037750489292,10.516753289292,15.419948,9.1043458,84.60302108,87.339569724,22,5,8.222,11.172921289292,3.937008,14.204569,84.60302108,-8.052984,-4.250186,0,206, 21, -1.6,0,0,1024,1024,1024,958,0,0,0,-10,217.7,0,0,95,4.121,4.114,0,0,0,0,4.745,66.74,10.516753289292,3.28084,6,P-GPS,
10400,2022-08-13 20:40:38,-34.9274221293309,-56.1655153352242,2.952756,5.1837272,5.004942089292,10.188669289292,15.419948,8.2095698,86.021328212,88.760173444,22,5,8.222,11.172921289292,3.937008,14.204569,86.021328212,-7.158208,-4.026492,0,206.2, 18.7, -0.8,0,0,1024,1024,1024,524,0,0,0,-76,217.6,0,0,95,4.121,4.114,0,0,0,0,4.745,66.74,10.188669289292,2.952756,6,P-GPS,
10500,2022-08-13 20:40:38,-34.9274249283786,-56.1655176755517,3.28084,5.5446196,4.972133689292,10.516753289292,15.419948,7.2029468,87.25886106,89.998034376,22,5,8.222,11.172921289292,3.937008,14.204569,87.25886106,-6.263432,-3.579104,0,206.3, 17.5, -0.6,0,0,1024,1024,1024,364,0,0,0,-100,217,0,0,95,4.121,4.114,0,0,0,0,4.745,66.74,10.516753289292,3.28084,6,P-GPS,
10600,2022-08-13 20:40:38,-34.9274272656517,-56.1655197509317,3.28084,5.577428,4.939325289292,10.516753289292,15.419948,6.5318648,88.31365112,91.05315252,22,5,8.222,11.172921289292,3.937008,14.204569,88.31365112,-5.59235,-3.35541,0,204.8, 17.4, -1.3,0,0,1024,1024,1024,364,0,0,0,-100,213.9,0,0,95,4.121,4.114,0,0,0,0,4.745,66.74,10.516753289292,3.28084,6,P-GPS,
10700,2022-08-13 20:40:38,-34.9274291474034,-56.1655217368255,3.28084,5.577428,4.939325289292,10.516753289292,15.748032,6.5318648,89.218834876,91.960960948,22,5,8.222,11.172921289292,3.937008,14.204569,89.218834876,-4.921268,-3.131716,0,200.8, 17.2, -3.4,0,0,1024,1024,1024,364,0,0,0,-100,209.3,0,0,95,4.121,4.114,0,0,0,0,4.745,66.74,10.516753289292,3.28084,6,P-GPS,
10800,2022-08-13 20:40:38,-34.9274295147022,-56.1655230021911,3.28084,5.6102364,4.906516889292,10.516753289292,16.076116,4.8317904,89.551840136,92.362535764,22,5,8.222,11.172921289292,3.937008,14.204569,89.551840136,-4.026492,-2.684328,0,196.1, 16.5, -5.6,0,0,1024,1024,1024,364,0,0,0,-100,204.5,0,0,95,4.121,4.114,0,0,0,0,4.745,66.74,10.516753289292,3.28084,6,P-GPS,
10900,2022-08-13 20:40:39,-34.9274307082865,-56.1655246660227,3.28084,5.6102364,4.906516889292,10.516753289292,16.076116,4.3396636,90.1984937,93.023625024,22,5,8.222,11.172921289292,3.937008,14.204569,90.1984937,-3.579104,-2.460634,0,191.3, 15.9, -8,0,0,1024,1024,1024,364,0,0,0,-100,199.7,0,0,95,4.121,4.114,0,0,0,0,4.745,66.74,10.516753289292,3.28084,6,P-GPS,
11000,2022-08-13 20:40:39,-34.9274315944988,-56.1655260769442,3.28084,5.6430448,4.873708489292,10.516753289292,16.076116,3.5343652,90.709976656,93.555449188,22,5,8.222,11.172921289292,3.937008,14.204569,90.709976656,-2.908022,-2.013246,0,186.4, 15, -9.8,0,0,1024,1024,1024,364,0,0,0,-100,194.9,0,0,95,4.121,4.114,0,0,0,0,4.745,66.74,10.516753289292,3.28084,6,P-GPS,
11100,2022-08-13 20:40:39,-34.9274323622385,-56.1655273265316,3.28084,5.6430448,4.873708489292,10.516753289292,16.076116,2.8632832,91.158467484,94.022640804,22,5,8.222,11.172921289292,3.937008,14.204569,91.158467484,-2.23694,-1.789552,0,181.2, 14.4, -11.6,0,0,1024,1024,1024,364,0,0,0,-100,194.9,0,0,95,4.121,4.114,0,0,0,0,4.745,66.74,10.516753289292,3.28084,6,P-GPS,
11200,2022-08-13 20:40:39,-34.9274320783421,-56.1655278934581,3.608924,5.9711288,4.873708489292,10.844837289292,16.4042,2.23694,91.177496356,94.221131624,21,5,8.222,11.172921289292,3.937008,14.204569,91.177496356,-1.789552,-1.342164,0,176.3, 13.1, -12.5,0,0,1024,1024,1024,1024,0,0,0,0,185.5,0,0,95,4.121,4.114,0,0,0,0,4.745,66.74,10.844837289292,3.608924,6,P-GPS,
11300,2022-08-13 20:40:39,-34.9274324634365,-56.165528746293,3.608924,5.9711288,4.873708489292,10.844837289292,16.732284,1.5882274,91.44357248,94.512470216,21,5,8.263,11.172921289292,3.937008,14.204569,91.44357248,-1.11847,-1.11847,0,173.3, 9.1, -10.6,0,0,1024,1024,1024,1024,0,0,0,0,182.9,0,0,95,4.126,4.128,0,0,0,0,4.364,66.74,10.844837289292,3.608924,6,P-GPS,
11400,2022-08-13 20:40:39,-34.9274326481672,-56.1655294226426,3.608924,5.9711288,4.873708489292,10.844837289292,16.732284,0.9395148,91.619425504,94.725724816,23,5,8.263,11.172921289292,3.937008,14.204569,91.619425504,-0.671082,-0.671082,0,171.9, 5.3, -8.5,0,0,1024,1024,1024,1058,0,0,0,5,181.9,0,0,95,4.126,4.128,0,0,0,0,4.364,66.74,10.844837289292,3.608924,6,P-GPS,
11500,2022-08-13 20:40:39,-34.9274327627836,-56.1655300242601,3.608924,5.9711288,4.873708489292,10.844837289292,16.732284,0.8052984,91.761485876,94.910436108,23,5,8.263,11.172921289292,3.937008,14.204569,91.761485876,-0.447388,-0.671082,0,171.3, 3.3, -7.4,0,0,1024,1024,1024,1186,0,0,0,25,181.8,0,0,95,4.126,4.128,0,0,0,0,4.364,66.74,10.844837289292,3.608924,6,P-GPS,
11600,2022-08-13 20:40:39,-34.9274328796668,-56.1655301634422,3.937008,6.2992128,4.873708489292,11.172921289292,16.732284,0.4921268,91.820540996,94.970147396,23,5,8.263,11.172921289292,3.937008,14.204569,91.820540996,-0.223694,-0.447388,0,171.2, 2.2, -5.8,0,0,1024,1024,1024,1239,0,0,0,33,182,0,0,95,4.126,4.128,0,0,0,0,4.364,66.74,11.172921289292,3.937008,6,P-GPS,
11700,2022-08-13 20:40:39,-34.9274328926943,-56.1655307007142,3.937008,6.2992128,4.873708489292,11.172921289292,16.732284,0.223694,91.921918952,95.130908556,23,5,8.263,11.172921289292,3.937008,14.204569,91.921918952,0,-0.223694,0,171.3, 1.3, -5.1,0,0,1024,1024,1024,1340,0,0,0,48,182.3,0,0,95,4.126,4.128,0,0,0,0,4.364,66.74,11.172921289292,3.937008,6,P-GPS,
11800,2022-08-13 20:40:40,-34.9274328662745,-56.1655311864721,3.937008,6.2992128,4.873708489292,11.172921289292,16.732284,0.223694,92.002299532,95.276577852,23,5,8.263,11.172921289292,3.937008,14.204569,92.002299532,0,-0.223694,0,171.7, 0.6, -4.6,0,0,1024,1024,1024,1024,0,0,0,0,182.9,0,0,95,4.126,4.128,0,0,0,0,4.364,66.74,11.172921289292,3.937008,6,P-GPS,
11900,2022-08-13 20:40:40,-34.9274328020486,-56.1655316488449,4.265092,6.6272968,4.873708489292,11.501005289292,16.732284,0.223694,92.067916332,95.41666972,23,5,8.263,11.501005289292,4.265092,14.204569,92.067916332,0,-0.223694,0,172.5, 0.1, -4.5,0,0,1024,1024,1024,1024,0,0,0,0,183.9,0,0,95,4.126,4.128,0,0,0,0,4.364,66.74,11.501005289292,4.265092,6,P-GPS,
12000,2022-08-13 20:40:40,-34.9274329404273,-56.1655319731642,4.265092,6.6272968,4.873708489292,11.501005289292,16.732284,0.223694,92.1669977,95.526249776,23,5,8.263,11.501005289292,4.265092,14.204569,92.1669977,0,-0.223694,0,173.6, -0.1, -4,0,0,1024,1024,1024,1024,0,0,0,0,184.5,0,0,95,4.126,4.128,0,0,0,0,4.364,66.74,11.501005289292,4.265092,6,P-GPS,
12100,2022-08-13 20:40:40,-34.9274329725793,-56.1655323909402,4.265092,6.6272968,4.873708489292,11.501005289292,16.732284,0.223694,92.25229954,95.651577864,23,5,8.263,11.501005289292,4.265092,14.204569,92.25229954,0,-0.223694,0,174, -0.7, -4,0,0,1024,1024,1024,1024,0,0,0,0,184.7,0,0,95,4.126,4.128,0,0,0,0,4.364,66.74,11.501005289292,4.265092,6,P-GPS,
12200,2022-08-13 20:40:40,-34.9274330240902,-56.1655327811307,4.265092,6.6272968,4.873708489292,11.501005289292,16.732284,0.223694,92.338585632,95.770016188,23,5,8.263,11.501005289292,4.265092,14.204569,92.338585632,0,-0.223694,0,173.9, -0.2, -4.4,0,0,1024,1024,1024,1024,0,0,0,0,184.7,0,0,95,4.126,4.128,0,0,0,0,4.364,66.74,11.501005289292,4.265092,6,P-GPS,
12300,2022-08-13 20:40:40,-34.927433148347,-56.1655332438378,4.593176,6.9553808,4.873708489292,11.829089289292,16.732284,0.223694,92.45899246,95.9153574,23,5,8.263,11.829089289292,4.593176,14.204569,92.45899246,0,-0.223694,0,173.9, 0.2, -4.2,0,0,1024,1024,1024,1024,0,0,0,0,184.7,0,0,95,4.126,4.128,0,0,0,0,4.364,66.74,11.829089289292,4.593176,6,P-GPS,
12400,2022-08-13 20:40:40,-34.927433271301,-56.1655336766188,4.593176,6.9553808,4.873708489292,11.829089289292,16.732284,0.223694,92.573493776,96.052496512,23,5,8.229,11.829089289292,4.593176,14.204569,92.573493776,0,-0.223694,0,174, -0.4, -3.9,0,0,1024,1024,1024,364,0,0,0,-100,184.7,0,0,95,4.13,4.125,0,0,0,0,4.446,66.92,11.829089289292,4.593176,6,P-GPS,
12500,2022-08-13 20:40:40,-34.9274339510787,-56.1655341049902,4.593176,6.9553808,4.873708489292,11.829089289292,16.732284,0.223694,92.848100084,96.331695996,23,5,8.229,11.829089289292,4.593176,14.204569,92.848100084,0,-0.223694,0,173.9, -0.8, -4.2,0,0,1024,1024,1024,364,0,0,0,-100,184.2,0,0,95,4.13,4.125,0,0,0,0,4.446,66.92,11.829089289292,4.593176,6,P-GPS,
12600,2022-08-13 20:40:40,-34.9274341055073,-56.1655344975839,4.593176,6.9553808,4.873708489292,11.829089289292,16.4042,0.223694,92.964569904,96.461945344,23,5,8.229,11.829089289292,4.593176,14.204569,92.964569904,0,-0.223694,0,172.3, -0.6, -3.7,0,0,1024,1024,1024,364,0,0,0,-100,180.7,0,0,95,4.13,4.125,0,0,0,0,4.446,66.92,11.829089289292,4.593176,6,P-GPS,
12700,2022-08-13 20:40:40,-34.9274342686644,-56.1655349224445,4.265092,6.6272968,4.873708489292,11.501005289292,16.4042,0.223694,93.089569908,96.602365296,23,5,8.229,11.829089289292,4.593176,14.204569,93.089569908,0,-0.223694,0,168.4, -0.6, -3.9,0,0,1024,1024,1024,364,0,0,0,-100,176,0,0,95,4.13,4.125,0,0,0,0,4.446,66.92,11.501005289292,4.265092,6,P-GPS,
12800,2022-08-13 20:40:41,-34.9274344365113,-56.165535322666,4.265092,6.6272968,4.873708489292,11.501005289292,16.732284,0,93.211289072,96.736879736,23,5,8.229,11.829089289292,4.593176,14.204569,93.211289072,0,0,0,163.7, -1.1, -4,0,0,1024,1024,1024,364,0,0,0,-100,171.2,0,0,95,4.13,4.125,0,0,0,0,4.446,66.92,11.501005289292,4.265092,6,P-GPS,
12900,2022-08-13 20:40:41,-34.9274348817931,-56.1655357614239,4.265092,6.6601052,4.840900089292,11.501005289292,16.4042,0,93.419950496,96.94554116,23,5,8.229,11.829089289292,4.593176,14.204569,93.419950496,0,0,0,159, -0.9, -3.5,0,0,1024,1024,1024,364,0,0,0,-100,166.4,0,0,95,4.13,4.125,0,0,0,0,4.446,66.92,11.501005289292,4.265092,6,P-GPS,
13000,2022-08-13 20:40:41,-34.9274351277272,-56.1655361468913,4.265092,6.6601052,4.840900089292,11.501005289292,16.732284,0,93.561682784,97.09153854,23,5,8.229,11.829089289292,4.593176,14.204569,93.561682784,0,0,0,154.2, -0.6, -3.2,0,0,1024,1024,1024,364,0,0,0,-100,161.6,0,0,95,4.13,4.125,0,0,0,0,4.446,66.92,11.501005289292,4.265092,6,P-GPS,
13100,2022-08-13 20:40:41,-34.9274353329893,-56.1655365252115,4.265092,6.6601052,4.840900089292,11.501005289292,16.4042,0,93.689963628,97.227365316,23,5,8.229,11.829089289292,4.593176,14.204569,93.689963628,0,0,0,149.3, -0.8, -3.7,0,0,1024,1024,1024,1024,0,0,0,0,156.8,0,0,95,4.13,4.125,0,0,0,0,4.446,66.92,11.501005289292,4.265092,6,P-GPS,
13200,2022-08-13 20:40:41,-34.9274355266048,-56.1655368801676,4.265092,6.6601052,4.840900089292,11.501005289292,16.4042,0,93.811026624,97.354989992,23,5,8.229,11.829089289292,4.593176,14.204569,93.811026624,0,0,0,144.8, -0.6, -3.9,0,0,1024,1024,1024,1024,0,0,0,0,153.4,0,0,95,4.13,4.125,0,0,0,0,4.446,66.92,11.501005289292,4.265092,6,P-GPS,
13300,2022-08-13 20:40:41,-34.9274356715233,-56.1655370267476,4.265092,6.6601052,4.840900089292,11.501005289292,16.4042,0,93.87959618,97.423559548,23,5,8.246,11.829089289292,4.593176,14.204569,93.87959618,0,0,0,142.3, -0.7, -3.6,0,0,1024,1024,1024,1024,0,0,0,0,151.9,0,0,95,4.125,4.117,0,0,0,0,4.27,66.92,11.501005289292,4.265092,6,P-GPS,
13400,2022-08-13 20:40:41,-34.9274358159728,-56.1655373036697,3.937008,6.3320212,4.840900089292,11.172921289292,16.4042,0,93.972115868,97.521656664,23,5,8.246,11.829089289292,4.593176,14.204569,93.972115868,0,0,0,141.3, -1.3, -3.6,0,0,1024,1024,1024,1024,0,0,0,0,151.6,0,0,95,4.125,4.117,0,0,0,0,4.27,66.92,11.172921289292,3.937008,6,P-GPS,
13500,2022-08-13 20:40:41,-34.9274359728245,-56.1655376365991,3.937008,6.3320212,4.840900089292,11.172921289292,16.732284,0,94.078415084,97.636814148,23,5,8.246,11.829089289292,4.593176,14.204569,94.078415084,0,0,0,141.1, -1.7, -2.9,0,0,1086,1024,1024,1024,9,0,0,0,151.6,0,0,95,4.125,4.117,0,0,0,0,4.27,66.92,11.172921289292,3.937008,6,P-GPS,
13600,2022-08-13 20:40:41,-34.9274361156586,-56.1655379533532,3.937008,6.3320212,4.840900089292,11.172921289292,16.4042,0,94.177824536,97.744753784,23,5,8.246,11.829089289292,4.593176,14.204569,94.177824536,0,0,0,141, -1.9, -2.7,0,0,1404,1024,1024,1024,58,0,0,0,151.6,0,0,95,4.125,4.117,0,0,0,0,4.27,66.92,11.172921289292,3.937008,6,P-GPS,
13700,2022-08-13 20:40:41,-34.9274363340785,-56.1655381904851,3.937008,6.3320212,4.840900089292,11.172921289292,16.4042,0,94.284451836,97.851381084,23,5,8.246,11.829089289292,4.593176,14.204569,94.284451836,0,0,0,141, -3, -2.3,0,0,1684,1024,1024,1024,100,0,0,0,151.6,0,0,95,4.125,4.117,0,0,0,0,4.27,66.92,11.172921289292,3.937008,6,P-GPS,
13800,2022-08-13 20:40:42,-34.9274364970792,-56.1655384907506,3.937008,6.3320212,4.840900089292,11.172921289292,16.4042,0,94.38648596,97.95932072,23,5,8.246,11.829089289292,4.593176,14.204569,94.38648596,0,0,0,141, -8.2, -2.4,0,0,1684,1024,1024,1024,100,0,0,0,151.6,0,0,95,4.125,4.117,0,0,0,0,4.27,66.92,11.172921289292,3.937008,6,P-GPS,
13900,2022-08-13 20:40:42,-34.9274367549206,-56.1655386957411,3.937008,6.3320212,4.840900089292,11.172921289292,16.4042,0.223694,94.498362604,98.071525448,23,5,8.246,11.829089289292,4.593176,14.204569,94.498362604,-0.223694,0,0,141.3, -15.5, -2.7,0,0,1684,1024,1024,1024,100,0,0,0,151.6,0,0,95,4.125,4.117,0,0,0,0,4.27,66.92,11.172921289292,3.937008,6,P-GPS,
14000,2022-08-13 20:40:42,-34.9274371307394,-56.1655387654993,3.608924,6.0039372,4.840900089292,10.844837289292,16.4042,0.8052984,94.6194256,98.21030498,23,5,8.246,11.829089289292,4.593176,14.204569,94.6194256,-0.671082,0.447388,0,141.5, -18.9, -2.9,0,0,1684,1024,1024,1024,100,0,0,0,151.6,0,0,95,4.125,4.117,0,0,0,0,4.27,66.92,10.844837289292,3.608924,6,P-GPS,
14100,2022-08-13 20:40:42,-34.9274377140871,-56.1655386237259,3.608924,6.0367456,4.808091689292,10.844837289292,16.4042,1.4316416,94.761157888,98.427168504,23,5,8.246,11.829089289292,4.593176,14.204569,94.761157888,-1.11847,0.894776,0,141.4, -19.3, -2.7,0,0,1684,1024,1024,1024,100,0,0,0,151.6,0,0,95,4.125,4.117,0,0,0,0,4.27,66.92,10.844837289292,3.608924,6,P-GPS,
14200,2022-08-13 20:40:42,-34.9274385080122,-56.1655380685859,3.608924,6.0367456,4.808091689292,10.844837289292,16.4042,2.23694,94.888782564,98.761158016,23,5,8.246,11.829089289292,4.593176,14.204569,94.888782564,-1.789552,1.342164,0,141.3, -18.9, -3.4,0,0,1684,1024,1024,1024,100,0,0,0,151.6,0,0,95,4.125,4.117,0,0,0,0,4.27,66.92,10.844837289292,3.608924,6,P-GPS,
14300,2022-08-13 20:40:42,-34.927439434688,-56.1655375201961,3.608924,6.0367456,4.808091689292,10.844837289292,16.4042,2.8632832,95.056761572,99.136814196,23,5,8.243,11.829089289292,4.593176,14.204569,95.056761572,-2.23694,1.789552,0,141.3, -18.3, -3,0,0,1684,1024,1024,1024,100,0,0,0,151.6,0,0,95,4.125,4.119,0,0,0,0,4.291,66.92,10.844837289292,3.608924,6,P-GPS,
14400,2022-08-13 20:40:42,-34.9274404789766,-56.1655368241395,3.608924,6.0367456,4.808091689292,10.844837289292,16.4042,3.35541,95.233598848,99.571197412,23,5,8.243,11.829089289292,4.593176,14.204569,95.233598848,-2.684328,2.013246,0,141.3, -18.2, -2.5,0,0,1684,1024,1024,1024,100,0,0,0,151.6,0,0,95,4.125,4.119,0,0,0,0,4.291,66.92,10.844837289292,3.608924,6,P-GPS,
14500,2022-08-13 20:40:42,-34.9274418738626,-56.1655358563435,3.608924,6.069554,4.775283289292,10.844837289292,16.4042,3.9817532,95.465554236,100.156499268,23,5,8.243,11.829089289292,4.593176,14.204569,95.465554236,-3.131716,2.460634,0,141.4, -17.6, -2.2,0,0,1684,1024,1024,1024,100,0,0,0,151.6,0,0,95,4.125,4.119,0,0,0,0,4.291,66.92,10.844837289292,3.608924,6,P-GPS,
14600,2022-08-13 20:40:42,-34.9274434210147,-56.1655345643746,3.608924,6.069554,4.775283289292,10.844837289292,16.076116,4.47388,95.68733902,100.840554408,23,5,8.243,11.829089289292,4.593176,14.204569,95.68733902,-3.579104,2.684328,0,141.4, -17.3, -2.6,0,0,1684,1024,1024,1024,100,0,0,0,151.6,0,0,95,4.125,4.119,0,0,0,0,4.291,66.92,10.844837289292,3.608924,6,P-GPS,
14700,2022-08-13 20:40:42,-34.9274452049816,-56.165533196169,3.28084,5.7742784,4.742474889292,10.516753289292,16.076116,5.1002232,95.970147428,101.609583304,23,5,8.243,11.829089289292,4.593176,14.204569,95.970147428,-4.026492,3.131716,0,141.4, -17.4, -2.7,0,0,1684,1024,1024,1024,100,0,0,0,151.6,0,0,95,4.125,4.119,0,0,0,0,4.291,66.92,10.516753289292,3.28084,6,P-GPS,
14800,2022-08-13 20:40:43,-34.9274470422051,-56.1655317604831,3.28084,5.8070868,4.709666489292,10.516753289292,16.076116,5.4133948,96.262142188,102.405515088,23,5,8.243,11.829089289292,4.593176,14.204569,96.262142188,-4.250186,3.35541,0,141.5, -16.8, -2.8,0,0,1684,1024,1024,1024,100,0,0,0,151.6,0,0,95,4.125,4.119,0,0,0,0,4.291,66.92,10.516753289292,3.28084,6,P-GPS,
14900,2022-08-13 20:40:43,-34.927449135837,-56.1655301326173,3.28084,5.8398952,4.676858089292,10.516753289292,16.4042,5.9055216,96.603021464,103.311355012,23,5,8.243,11.829089289292,4.593176,14.204569,96.603021464,-4.697574,3.579104,0,141.4, -17, -2.9,0,0,1684,1024,1024,1024,100,0,0,0,151.6,0,0,95,4.125,4.119,0,0,0,0,4.291,66.92,10.516753289292,3.28084,6,P-GPS,
15000,2022-08-13 20:40:43,-34.9274515855639,-56.1655281332441,3.28084,5.8727036,4.644049689292,10.516753289292,16.4042,6.2186932,96.995081844,104.386814364,23,5,8.243,11.829089289292,4.593176,14.204569,96.995081844,-4.921268,3.802798,0,141.4, -17.4, -2.8,0,0,1684,1024,1024,1024,100,0,0,0,151.6,0,0,95,4.125,4.119,0,0,0,0,4.291,66.92,10.516753289292,3.28084,6,P-GPS,
15100,2022-08-13 20:40:43,-34.9274538378452,-56.1655262317581,3.28084,5.8727036,4.644049689292,10.516753289292,16.4042,6.71082,97.354333824,105.386158228,23,5,8.243,11.829089289292,4.593176,14.204569,97.354333824,-5.368656,4.026492,0,141.4, -17.8, -2.7,0,0,1684,1024,1024,1024,100,0,0,0,151.6,0,0,95,4.125,4.119,0,0,0,0,4.291,66.92,10.516753289292,3.28084,6,P-GPS,
15200,2022-08-13 20:40:43,-34.9274560992198,-56.1655242918194,3.28084,5.905512,4.611241289292,10.516753289292,16.076116,7.158208,97.718835148,106.395016528,23,5,8.243,11.829089289292,4.593176,14.204569,97.718835148,-5.59235,4.47388,0,141.4, -17.6, -2.9,0,0,1684,1024,1024,1024,100,0,0,0,151.6,0,0,95,4.125,4.119,0,0,0,0,4.291,66.92,10.516753289292,3.28084,6,P-GPS,
15300,2022-08-13 20:40:43,-34.9274586257051,-56.1655221097958,2.952756,5.6102364,4.578432889292,10.188669289292,16.076116,7.4713796,98.134189492,107.52460974,23,5,8.218,11.829089289292,4.593176,14.204569,98.134189492,-5.816044,4.697574,0,141.4, -17.5, -2.4,0,0,1684,1024,1024,1024,100,0,0,0,151.6,0,0,95,4.114,4.108,0,0,0,0,4.436,67.1,10.188669289292,2.952756,6,P-GPS,
15400,2022-08-13 20:40:43,-34.9274611117528,-56.1655197793323,2.952756,5.6430448,4.545624489292,10.188669289292,16.076116,7.7845512,98.524609452,108.668638648,23,5,8.218,11.829089289292,4.593176,14.204569,98.524609452,-6.039738,4.921268,0,141.3, -17.3, -2.3,0,0,1684,1024,1024,1024,100,0,0,0,151.6,0,0,95,4.114,4.108,0,0,0,0,4.436,67.1,10.188669289292,2.952756,6,P-GPS,
15500,2022-08-13 20:40:43,-34.9274638835208,-56.16551739422,2.952756,5.6758532,4.512816089292,10.188669289292,16.4042,8.276678,99.007221016,109.906171496,23,5,8.218,11.829089289292,4.593176,14.204569,99.007221016,-6.487126,5.144962,0,141.3, -17.1, -2.2,0,0,1684,1024,1024,1024,100,0,0,0,151.6,0,0,95,4.114,4.108,0,0,0,0,4.436,67.1,10.188669289292,2.952756,6,P-GPS,
15600,2022-08-13 20:40:43,-34.9274666176913,-56.1655150131411,2.952756,5.7086616,4.480007689292,10.188669289292,16.4042,8.5898496,99.491801084,111.13189332,23,5,8.218,11.829089289292,4.593176,14.204569,99.491801084,-6.71082,5.368656,0,141.3, -17.2, -2,0,0,1684,1024,1024,1024,100,0,0,0,151.6,0,0,95,4.114,4.108,0,0,0,0,4.436,67.1,10.188669289292,2.952756,6,P-GPS,
15700,2022-08-13 20:40:43,-34.9274695554304,-56.1655123299367,2.624672,5.413386,4.447199289292,9.860585289292,16.4042,8.9030212,100.007549132,112.470804124,23,5,8.218,11.829089289292,4.593176,14.204569,100.007549132,-6.934514,5.59235,0,141.2, -17.5, -1.6,0,0,1684,1024,1024,1024,100,0,0,0,151.6,0,0,95,4.114,4.108,0,0,0,0,4.436,67.1,9.860585289292,2.624672,6,P-GPS,
15800,2022-08-13 20:40:44,-34.9274724427267,-56.1655096768885,2.624672,5.4461944,4.414390889292,9.860585289292,16.076116,9.2161928,100.526906104,113.789701804,23,5,8.218,11.829089289292,4.593176,14.204569,100.526906104,-7.158208,5.816044,0,141.1, -17.3, -1.8,0,0,1684,1024,1024,1024,100,0,0,0,151.6,0,0,95,4.114,4.108,0,0,0,0,4.436,67.1,9.860585289292,2.624672,6,P-GPS,
15900,2022-08-13 20:40:44,-34.9274754231701,-56.1655068699041,2.624672,5.4790028,4.381582489292,9.860585289292,16.076116,9.5293644,101.068572788,115.163717596,23,5,8.218,11.829089289292,4.593176,14.204569,101.068572788,-7.381902,6.039738,0,141.1, -17, -1.5,0,0,1684,1024,1024,1024,100,0,0,0,151.6,0,0,95,4.114,4.108,0,0,0,0,4.436,67.1,9.860585289292,2.624672,6,P-GPS,
16000,2022-08-13 20:40:44,-34.927478485218,-56.1655040519063,2.624672,5.5118112,4.348774089292,9.860585289292,16.076116,9.842536,101.650593804,116.56332394,23,5,8.218,11.829089289292,4.593176,14.204569,101.650593804,-7.605596,6.263432,0,141.1, -17.1, -1.1,0,0,1684,1024,1024,1024,100,0,0,0,151.6,0,0,95,4.114,4.108,0,0,0,0,4.436,67.1,9.860585289292,2.624672,6,P-GPS,
16100,2022-08-13 20:40:44,-34.9274817760818,-56.165500958303,2.624672,5.577428,4.283157289292,9.860585289292,16.076116,10.178077,102.284780176,118.07907202,23,5,8.218,11.829089289292,4.593176,14.204569,102.284780176,-7.82929,6.487126,0,141, -17.1, -1,0,0,1684,1024,1024,1024,100,0,0,0,151.6,0,0,95,4.114,4.108,0,0,0,0,4.436,67.1,9.860585289292,2.624672,6,P-GPS,
16200,2022-08-13 20:40:44,-34.9274849986813,-56.165497916778,2.624672,5.6102364,4.250348889292,9.860585289292,16.076116,10.178077,102.921919304,119.565620624,23,5,8.218,11.829089289292,4.593176,14.204569,102.921919304,-8.052984,6.71082,0,141, -17.1, -0.9,0,0,1684,1024,1024,1024,100,0,0,0,151.6,0,0,95,4.114,4.108,0,0,0,0,4.436,67.1,9.860585289292,2.624672,6,P-GPS,
16300,2022-08-13 20:40:44,-34.9274884603103,-56.1654943405724,2.624672,5.6430448,4.217540489292,9.860585289292,16.076116,10.8044202,103.58596132,121.220804404,23,5,8.218,11.829089289292,4.593176,14.204569,103.58596132,-8.276678,6.934514,0,140.9, -17.1, -1.2,0,0,1684,1024,1024,1024,100,0,0,0,151.6,0,0,95,4.117,4.111,0,0,0,0,4.462,67.1,9.860585289292,2.624672,6,P-GPS,
16400,2022-08-13 20:40:44,-34.9274918875726,-56.1654910688328,2.296588,5.3477692,4.184732089292,9.532501289292,16.4042,10.961006,104.298887852,122.808730964,23,5,8.218,11.829089289292,4.593176,14.204569,104.298887852,-8.500372,6.934514,0,140.9, -17, -1,0,0,1684,1024,1024,1024,100,0,0,0,151.6,0,0,95,4.117,4.111,0,0,0,0,4.462,67.1,9.532501289292,2.296588,6,P-GPS,
