time(millisecond),datetime(utc),latitude,longitude,height_above_takeoff(feet),height_above_ground_at_drone_location(feet),ground_elevation_at_drone_location(feet),altitude_above_seaLevel(feet),height_sonar(feet),speed(mph),distance(feet),mileage(feet),satellites,gpslevel,voltage(v),max_altitude(feet),max_ascent(feet),max_speed(mph),max_distance(feet), xSpeed(mph), ySpeed(mph), zSpeed(mph), compass_heading(degrees), pitch(degrees), roll(degrees),isPhoto,isVideo,rc_elevator,rc_aileron,rc_throttle,rc_rudder,rc_elevator(percent),rc_aileron(percent),rc_throttle(percent),rc_rudder(percent),gimbal_heading(degrees),gimbal_pitch(degrees),gimbal_roll(degrees),battery_percent,voltageCell1,voltageCell2,voltageCell3,voltageCell4,voltageCell5,voltageCell6,current(A),battery_temperature(f),altitude(feet),ascent(feet),flycStateRaw,flycState,message
138300,2022-08-13 20:13:20,-34.927283771161,-56.165461903421,0,0,5.289046429092,5.223429629092,0,0,0,0,24,5,0,5.223429629092,0,0,0,0,0,0,340.4, -0.4, -10.6,0,0,364,364,364,1684,-100,-100,-100,100,358.1,0,0,92,4.26,4.252,0,0,0,0,0,81.86,5.223429629092,0,6,P-GPS,"Aeronave en Zona de altitud restringida (150). Vuela con precaución (Code: 190001). Motor del estabilizador sobrecalentado. Aterriza la aeronave y comprueba que los tres ejes del estabilizador puedan girar libremente (Code: 40003)"
138400,2022-08-13 20:13:20,-34.9272838507089,-56.1654618894871,0,0,5.289046429092,5.223429629092,0,0,0.0293207358464,0.0293207358464,24,5,0,5.223429629092,0,0,0.0293207358464,0,0,0,340.5, -0.1, -10.2,0,0,364,364,364,1684,-100,-100,-100,100,358.1,0,0,92,4.26,4.252,0,0,0,0,0,81.86,5.223429629092,0,41,Motors_Started,
138500,2022-08-13 20:13:20,-34.9272838863604,-56.1654618667839,0,0,5.289046429092,5.223429629092,0.328084,0,0.043435696928,0.04399442398,24,5,0,5.223429629092,0,0,0.043435696928,0,0,0,340.4, -0.2, -10,0,0,364,364,364,1684,-100,-100,-100,100,358.1,0,0,92,4.26,4.252,0,0,0,0,0,81.86,5.223429629092,0,41,Motors_Started,
138600,2022-08-13 20:13:20,-34.9272839194308,-56.1654618360871,0,0,5.289046429092,5.223429629092,0.328084,0,0.057724083212,0.05915682604,24,5,0,5.223429629092,0,0,0.057724083212,0,0,0,340.9, -0.1, -9.6,0,0,364,364,364,1684,-100,-100,-100,100,358.1,0,0,92,4.26,4.252,0,0,0,0,0,81.86,5.223429629092,0,41,Motors_Started,
138700,2022-08-13 20:13:20,-34.9272840466791,-56.1654621418114,0,0,5.289046429092,5.223429629092,0.328084,0,0.123247379272,0.161718509112,24,5,0,5.223429629092,0,0,0.123247379272,0,0,0,340.5, -0.5, -9.7,0,0,364,364,364,1684,-100,-100,-100,100,358.3,0,0,92,4.26,4.252,0,0,0,0,0,81.86,5.223429629092,0,41,Motors_Started,
138800,2022-08-13 20:13:20,-34.9272841317897,-56.1654620969744,0,0,5.289046429092,5.223429629092,0.328084,0,0.143750660768,0.195543641428,24,5,0,5.223429629092,0,0,0.143750660768,0,0,0,341, -0.2, -9.8,0,0,364,364,364,1684,-100,-100,-100,100,358.3,0,0,92,4.26,4.252,0,0,0,0,0,81.86,5.223429629092,0,41,Motors_Started,
138900,2022-08-13 20:13:20,-34.9272842310271,-56.1654620503533,0,0,5.289046429092,5.223429629092,0.328084,0,0.17344324702,0.234343511436,24,5,0,5.223429629092,0,0,0.17344324702,0,0,0,340.6, -0.7, -9.9,0,0,1024,1024,874,1058,0,0,-23,5,358.4,0,0,92,4.26,4.252,0,0,0,0,0,81.86,5.223429629092,0,41,Motors_Started,
139000,2022-08-13 20:13:20,-34.9272843380126,-56.1654620077576,0,0,5.289046429092,5.223429629092,0.328084,0,0.209157158924,0.275403880204,24,5,0,5.223429629092,0,0,0.209157158924,0,0,0,341.2, -0.6, -9.9,0,0,1024,1024,1024,1024,0,0,0,0,358.4,0,0,92,4.26,4.252,0,0,0,0,0,81.86,5.223429629092,0,41,Motors_Started,
139100,2022-08-13 20:13:20,-34.9272846071553,-56.165462022415,0,0.0328084,5.256238029092,5.223429629092,0.328084,0,0.307082030824,0.37369751852,24,5,0,5.223429629092,0,0,0.307082030824,0,0,0,340.1, -0.7, -10.1,0,0,1024,1024,1024,1024,0,0,0,0,358.3,0,0,92,4.26,4.252,0,0,0,0,0,81.86,5.223429629092,0,41,Motors_Started,"Setting new Return-To-Home altitude to 40m (131 ft). Data Recorder File Index is 44. Setting new Maximum Flight Altitude to 120m (394 ft)"
139200,2022-08-13 20:13:20,-34.9272847642171,-56.1654619686807,-0.328084,-0.2952756,5.256238029092,4.895345629092,0.328084,0,3.0918800202,0.43321523696,24,5,8.487,5.223429629092,0,0,3.0918800202,0,0,0,337.6, -0.3, -9.9,0,0,1024,1024,1024,1024,0,0,0,0,356.7,0,0,92,4.243,4.235,0,0,0,0,0.854,81.86,4.895345629092,-0.328084,41,Motors_Started,
139300,2022-08-13 20:13:21,-34.9272848308237,-56.1654618807021,-0.328084,-0.2952756,5.256238029092,4.895345629092,0.328084,0,3.05813001912,0.46903544808,24,5,8.487,5.223429629092,0,0,3.0918800202,0,0,0.223694,335.2, -1.1, -9.8,0,0,1024,1024,1024,1024,0,0,0,0,354,0,0,92,4.243,4.235,0,0,0,0,0.854,81.86,4.895345629092,-0.328084,41,Motors_Started,
139400,2022-08-13 20:13:21,-34.9272848877834,-56.1654618216152,-0.328084,-0.2952756,5.256238029092,4.895345629092,0.328084,0,3.03375665876,0.49631563268,24,5,8.487,5.223429629092,0,0,3.0918800202,0,0,0.223694,329.4, -1.3, -10.6,0,0,1024,1024,1024,1024,0,0,0,0,349.4,0,0,92,4.243,4.235,0,0,0,0,0.854,81.86,4.895345629092,-0.328084,41,Motors_Started,
139500,2022-08-13 20:13:21,-34.9272846527876,-56.1654617317191,-0.328084,-0.2952756,5.256238029092,4.895345629092,0.328084,0,3.04351387692,0.5861712786,24,5,8.487,5.223429629092,0,0,3.0918800202,0,0,0.223694,326.3, -2.6, -11.1,0,0,1024,1024,1024,1024,0,0,0,0,344.5,0,0,92,4.243,4.235,0,0,0,0,0.854,81.86,4.895345629092,-0.328084,10,Assisted_Takeoff,
139600,2022-08-13 20:13:21,-34.927284642517,-56.1654616811952,-0.328084,-0.2952756,5.256238029092,4.895345629092,0.328084,0,3.03132883716,0.60174214524,24,5,8.487,5.223429629092,0,0,3.0918800202,0,0,0.223694,325.9, -1.8, -11.8,0,0,1024,1024,1024,1024,0,0,0,0,343.7,0,0,92,4.243,4.235,0,0,0,0,0.854,81.86,4.895345629092,-0.328084,10,Assisted_Takeoff,
139700,2022-08-13 20:13:21,-34.9272847052854,-56.1654616163979,-0.328084,-0.2952756,5.256238029092,4.895345629092,0.328084,0,3.004183167,0.63174542704,24,5,8.487,5.223429629092,0,0,3.0918800202,0,0,0.447388,324.7, -1.1, -14,0,0,1024,1024,1024,1024,0,0,0,0,342.8,0,0,92,4.243,4.235,0,0,0,0,0.854,81.86,4.895345629092,-0.328084,10,Assisted_Takeoff,
139800,2022-08-13 20:13:21,-34.9272848185192,-56.1654615665349,-0.328084,-0.2952756,5.256238029092,4.895345629092,0,0,2.97368119752,0.67566931296,23,5,8.487,5.223429629092,0,0,3.0918800202,0,0,0.223694,322.8, -1.6, -14.9,0,0,1024,1024,1024,1024,0,0,0,0,341.3,0,0,92,4.243,4.235,0,0,0,0,0.854,81.86,4.895345629092,-0.328084,10,Assisted_Takeoff,
139900,2022-08-13 20:13:21,-34.9272849393888,-56.1654615486827,-0.328084,-0.2952756,5.256238029092,4.895345629092,0.328084,0,2.95123369024,0.72009188656,23,5,8.487,5.223429629092,0,0,3.0918800202,0,0,0,322.2, -1.3, -13.5,0,0,1024,1024,1024,1024,0,0,0,0,340.1,0,0,92,4.243,4.235,0,0,0,0,0.854,81.86,4.895345629092,-0.328084,6,P-GPS,
140000,2022-08-13 20:13:21,-34.9272851291612,-56.1654616184355,-0.328084,-0.2952756,5.256238029092,4.895345629092,0.328084,0,2.9441601992,0.792404881,24,5,8.487,5.223429629092,0,0,3.0918800202,0,0,-0.223694,321.7, -0.9, -10.2,0,0,1024,1024,1024,1024,0,0,0,0,340.1,0,0,92,4.243,4.235,0,0,0,0,0.854,81.86,4.895345629092,-0.328084,6,P-GPS,
140100,2022-08-13 20:13:21,-34.9272852359692,-56.1654616209459,-0.328084,-0.2952756,5.256238029092,4.895345629092,0.328084,0,2.93068578932,0.8313812602,24,5,8.487,5.223429629092,0,0,3.0918800202,0,0,0,321.1, -1.7, -8.9,0,0,1024,1024,1024,1024,0,0,0,0,340.1,0,0,92,4.243,4.235,0,0,0,0,0.854,81.86,4.895345629092,-0.328084,6,P-GPS,
140200,2022-08-13 20:13:22,-34.9272853420249,-56.1654616330015,-0.328084,-0.2952756,5.256238029092,4.895345629092,0.328084,0,2.92044628768,0.87024281,24,5,8.47,5.223429629092,0,0,3.0918800202,0,0,0,322.4, -1.5, -7.8,0,0,1024,1024,1024,1024,0,0,0,0,340.1,0,0,92,4.246,4.237,0,0,0,0,1.414,81.86,4.895345629092,-0.328084,6,P-GPS,
140300,2022-08-13 20:13:22,-34.9272854191724,-56.1654616344226,-0.328084,-0.2952756,5.256238029092,4.895345629092,0.328084,0,2.91123040812,0.8983924172,24,5,8.47,5.223429629092,0,0,3.0918800202,0,0,0.223694,324, 0, -8.4,0,0,1024,1024,1024,1024,0,0,0,0,340.1,0,0,92,4.246,4.237,0,0,0,0,1.414,81.86,4.895345629092,-0.328084,6,P-GPS,
140400,2022-08-13 20:13:22,-34.927285619629,-56.1654616037336,-0.328084,-0.2952756,5.256238029092,4.895345629092,0.328084,0,2.87867135196,0.97210304948,24,5,8.47,5.223429629092,0,0,3.0918800202,0,0,0.223694,324.5, 0.4, -9.6,0,0,1024,1024,1024,1024,0,0,0,0,340.1,0,0,92,4.246,4.237,0,0,0,0,1.414,81.86,4.895345629092,-0.328084,6,P-GPS,
140500,2022-08-13 20:13:22,-34.927285661265,-56.1654616081849,-0.328084,-0.2952756,5.256238029092,4.895345629092,0.328084,0.223694,2.87517725736,0.9873523938,24,5,8.47,5.223429629092,0,0.223694,3.0918800202,-0.223694,0,0.223694,324.2, 0.6, -13.1,0,0,1024,1024,1024,1024,0,0,0,0,340.1,0,0,92,4.246,4.237,0,0,0,0,1.414,81.86,4.895345629092,-0.328084,6,P-GPS,
140600,2022-08-13 20:13:22,-34.9272859489329,-56.1654619981209,-0.328084,-0.2952756,5.256238029092,4.895345629092,0.328084,2.3711564,2.95655193188,1.14426512848,24,5,8.47,5.223429629092,0,2.3711564,3.0918800202,-1.565858,-1.789552,-0.894776,326.3, 2.7, -19.5,0,0,1024,1024,1024,1024,0,0,0,0,340.1,0,0,92,4.246,4.237,0,0,0,0,1.414,81.86,4.895345629092,-0.328084,6,P-GPS,
140700,2022-08-13 20:13:22,-34.9272868689093,-56.1654631916614,0,0.0328084,5.256238029092,5.223429629092,0.984252,3.1764548,3.23829078604,1.63429467172,24,5,8.47,5.223429629092,0,3.1764548,3.23829078604,-2.013246,-2.460634,-5.368656,325.2, 3.6, 3.8,0,0,1024,1024,1024,1024,0,0,0,0,340.1,0,0,92,4.246,4.237,0,0,0,0,1.414,81.86,5.223429629092,0,6,P-GPS,
140800,2022-08-13 20:13:22,-34.9272875667953,-56.1654645146738,0.656168,0.7217848,5.223429629092,5.879597629092,1.64042,3.1764548,3.6076444724,2.10488523796,24,5,8.47,5.879597629092,0.656168,3.1764548,3.6076444724,-2.013246,-2.460634,-3.579104,324.6, 1.5, 32.6,0,0,1024,1024,1024,1024,0,0,0,0,340.1,0,0,92,4.246,4.237,0,0,0,0,1.414,81.86,5.879597629092,0.656168,6,P-GPS,
140900,2022-08-13 20:13:22,-34.9272882958138,-56.165465610053,0.984252,1.0498688,5.223429629092,6.207681629092,2.296588,2.684328,3.93044632,2.52691609136,24,5,8.47,6.207681629092,0.984252,3.1764548,3.93044632,-1.789552,-2.013246,-2.23694,321, -2.8, 24.4,0,0,1024,1024,1024,1024,0,0,0,0,340.1,0,0,92,4.246,4.237,0,0,0,0,1.414,81.86,6.207681629092,0.984252,6,P-GPS,
141000,2022-08-13 20:13:22,-34.9272889310764,-56.1654666206641,1.312336,1.3779528,5.223429629092,6.535765629092,2.624672,2.684328,4.2427494796,2.90784786208,23,5,8.47,6.535765629092,1.312336,3.1764548,4.2427494796,-1.789552,-2.013246,-0.894776,320.8, -1.2, 21.3,0,0,1024,1024,1024,1024,0,0,0,0,340.1,0,0,92,4.246,4.237,0,0,0,0,1.414,81.86,6.535765629092,1.312336,6,P-GPS,
141100,2022-08-13 20:13:22,-34.9272897057109,-56.1654678235161,1.312336,1.3779528,5.223429629092,6.535765629092,2.952756,2.1027236,4.6287074972,3.3653872468,23,5,8.47,6.535765629092,1.312336,3.1764548,4.6287074972,-1.11847,-1.789552,0,320.2, -1.1, 20.6,0,0,1024,1024,1024,1024,0,0,0,0,340.1,0,0,92,4.246,4.237,0,0,0,0,1.414,81.86,6.535765629092,1.312336,6,P-GPS,
141200,2022-08-13 20:13:23,-34.9272908779463,-56.1654698329779,1.312336,1.4107612,5.190621229092,6.535765629092,2.952756,1.6105968,5.2903216916,4.1031169292,24,5,8.47,6.535765629092,1.312336,3.1764548,5.2903216916,-0.894776,-1.342164,0.447388,320.4, -0.7, 20.2,0,0,1024,1024,1024,1024,0,0,0,0,340.1,0,0,92,4.246,4.237,0,0,0,0,1.414,81.86,6.535765629092,1.312336,6,P-GPS,
141300,2022-08-13 20:13:23,-34.9272912719907,-56.1654708249478,1.312336,1.4107612,5.190621229092,6.535765629092,2.952756,1.006623,5.6096786572,4.4328413492,24,5,8.298,6.535765629092,1.312336,3.1764548,5.6096786572,-0.447388,-0.894776,0.671082,320.3, -0.8, 19.4,0,0,1024,1024,1024,1024,0,0,0,0,340.1,0,0,91,4.195,4.168,0,0,0,0,3.218,81.86,6.535765629092,1.312336,6,P-GPS,"En vuelo"
141400,2022-08-13 20:13:23,-34.9272914156911,-56.1654715998408,1.312336,1.4107612,5.190621229092,6.535765629092,2.952756,0.4921268,5.8473098984,4.6704725904,24,5,8.298,6.535765629092,1.312336,3.1764548,5.8473098984,0.223694,-0.447388,0.447388,321, 0.5, 18.8,0,0,1024,1024,1024,1024,0,0,0,0,340.1,0,0,91,4.195,4.168,0,0,0,0,3.218,81.86,6.535765629092,1.312336,6,P-GPS,
141500,2022-08-13 20:13:23,-34.9272911624517,-56.1654718273643,0.984252,1.0826772,5.190621229092,6.207681629092,2.952756,0.671082,5.8957679052,4.7852363736,24,5,8.298,6.535765629092,1.312336,3.1764548,5.8957679052,0.671082,0,0.223694,321.6, 3, 13.6,0,0,1024,1024,1024,1024,0,0,0,0,340.1,0,0,91,4.195,4.168,0,0,0,0,3.218,81.86,6.207681629092,0.984252,6,P-GPS,
141600,2022-08-13 20:13:23,-34.9272907221921,-56.1654717887419,1.312336,1.4107612,5.190621229092,6.535765629092,2.952756,1.2079476,5.856135358,4.9462928092,24,5,8.298,6.535765629092,1.312336,3.1764548,5.8957679052,1.11847,0.447388,0,321.7, 3.4, 8.1,0,0,1024,1024,1024,1024,0,0,0,0,340.1,0,0,91,4.195,4.168,0,0,0,0,3.218,81.86,6.535765629092,1.312336,6,P-GPS,
141700,2022-08-13 20:13:23,-34.9272896515097,-56.1654717390761,1.312336,1.3779528,5.223429629092,6.535765629092,2.952756,1.2974252,5.7906169832,5.3372048952,24,5,8.298,6.535765629092,1.312336,3.1764548,5.8957679052,1.11847,0.671082,0,322, 5.7, 3.7,0,0,1024,1024,1024,1024,0,0,0,0,340.1,0,0,91,4.195,4.168,0,0,0,0,3.218,81.86,6.535765629092,1.312336,6,P-GPS,
141800,2022-08-13 20:13:23,-34.9272889072978,-56.1654713070003,1.312336,1.3779528,5.223429629092,6.535765629092,2.952756,1.2974252,5.6415028052,5.6379266896,24,5,8.298,6.535765629092,1.312336,3.1764548,5.8957679052,1.11847,0.671082,0,322.2, 5.2, 2.4,0,0,1024,1024,1024,1024,0,0,0,0,340.1,0,0,91,4.195,4.168,0,0,0,0,3.218,81.86,6.535765629092,1.312336,6,P-GPS,
141900,2022-08-13 20:13:23,-34.9272881402095,-56.1654707110007,1.312336,1.3779528,5.223429629092,6.535765629092,2.952756,1.4316416,5.4557416444,5.9697508472,24,5,8.298,6.535765629092,1.312336,3.1764548,5.8957679052,1.11847,0.894776,-0.223694,322.1, 4.4, 1.3,0,0,1024,1024,1024,1024,0,0,0,0,340.1,0,0,91,4.195,4.168,0,0,0,0,3.218,81.86,6.535765629092,1.312336,6,P-GPS,
142000,2022-08-13 20:13:23,-34.9272873649887,-56.1654700422297,1.312336,1.3451444,5.256238029092,6.535765629092,3.28084,1.11847,5.2626970188,6.3161747428,24,5,8.298,6.535765629092,1.312336,3.1764548,5.8957679052,0.894776,0.671082,0,322, 4.4, 0.6,0,0,1024,1024,1024,1024,0,0,0,0,340.1,0,0,91,4.195,4.168,0,0,0,0,3.218,81.86,6.535765629092,1.312336,6,P-GPS,
142100,2022-08-13 20:13:23,-34.9272851587793,-56.1654681287937,1.312336,1.3451444,5.256238029092,6.535765629092,3.28084,0.9395148,4.8055447732,7.3038716248,24,5,8.298,6.535765629092,1.312336,3.1764548,5.8957679052,0.671082,0.671082,0,322.1, 4.3, -0.6,0,0,1024,1024,1024,1024,0,0,0,0,340.1,0,0,91,4.195,4.168,0,0,0,0,3.218,81.86,6.535765629092,1.312336,6,P-GPS,
142200,2022-08-13 20:13:24,-34.9272845110722,-56.1654675366367,1.312336,1.3451444,5.256238029092,6.535765629092,3.28084,0.9395148,4.6936353208,7.5992128416,24,5,8.298,6.535765629092,1.312336,3.1764548,5.8957679052,0.671082,0.671082,0,322.1, 3.8, -0.2,0,0,1024,1024,1024,1024,0,0,0,0,340.1,0,0,91,4.195,4.168,0,0,0,0,3.218,81.86,6.535765629092,1.312336,6,P-GPS,
142300,2022-08-13 20:13:24,-34.9272841731571,-56.1654672061311,1.312336,1.312336,5.289046429092,6.535765629092,3.28084,0.6263432,4.6355316444,7.7572509044,24,5,8.329,6.535765629092,1.312336,3.1764548,5.8957679052,0.447388,0.447388,0,322.1, 3.8, 0.2,0,0,1024,1024,1024,1024,0,0,0,0,340.1,0,0,91,4.177,4.166,0,0,0,0,3.803,82.04,6.535765629092,1.312336,6,P-GPS,
142400,2022-08-13 20:13:24,-34.9272839361517,-56.1654669494731,1.312336,1.312336,5.289046429092,6.535765629092,3.28084,0.4921268,4.590551328,7.872867706,24,5,8.329,6.535765629092,1.312336,3.1764548,5.8957679052,0.223694,0.447388,0,322.2, 3.6, 0.3,0,0,1024,1024,1024,1024,0,0,0,0,340.1,0,0,91,4.177,4.166,0,0,0,0,3.803,82.04,6.535765629092,1.312336,6,P-GPS,
142500,2022-08-13 20:13:24,-34.9272844157464,-56.1654672173926,1.312336,1.312336,5.289046429092,6.535765629092,3.28084,0.3131716,4.6120736384,8.0653545888,24,5,8.329,6.535765629092,1.312336,3.1764548,5.8957679052,0.223694,0.223694,0,322.3, 3.2, 1.2,0,0,1024,1024,1024,1024,0,0,0,0,340.1,0,0,91,4.177,4.166,0,0,0,0,3.803,82.04,6.535765629092,1.312336,6,P-GPS,
142600,2022-08-13 20:13:24,-34.9272843450605,-56.1654670406844,1.64042,1.64042,5.289046429092,6.863849629092,3.28084,0.3131716,4.5692586764,8.1241472416,24,5,8.329,6.863849629092,1.64042,3.1764548,5.8957679052,0.223694,0.223694,0,322.2, 3.2, 2.1,0,0,1024,1024,1024,1024,0,0,0,0,340.1,0.1,0,91,4.177,4.166,0,0,0,0,3.803,82.04,6.863849629092,1.64042,6,P-GPS,
142700,2022-08-13 20:13:24,-34.9272843475781,-56.1654669399487,1.64042,1.64042,5.289046429092,6.863849629092,3.28084,0.3131716,4.5402232424,8.1542981612,24,5,8.329,6.863849629092,1.64042,3.1764548,5.8957679052,0.223694,0.223694,0,322.3, 3.2, 2.1,0,0,1024,1024,1024,1024,0,0,0,0,340.1,0.4,0,91,4.177,4.166,0,0,0,0,3.803,82.04,6.863849629092,1.64042,6,P-GPS,
142800,2022-08-13 20:13:24,-34.9272843655854,-56.1654668503192,1.64042,1.64042,5.289046429092,6.863849629092,3.28084,0.3131716,4.5126969948,8.1818900256,24,5,8.329,6.863849629092,1.64042,3.1764548,5.8957679052,0.223694,0.223694,0,322.3, 3.8, 2.4,0,0,1024,1024,1024,1024,0,0,0,0,340.1,0.7,0,91,4.177,4.166,0,0,0,0,3.803,82.04,6.863849629092,1.64042,6,P-GPS,
142900,2022-08-13 20:13:24,-34.9272847625121,-56.1654673555855,1.64042,1.6732284,5.256238029092,6.863849629092,3.28084,0.223694,4.6165683892,8.391240426,24,5,8.329,6.863849629092,1.64042,3.1764548,5.8957679052,0,0.223694,0,322.4, 3.7, 2.6,0,0,1024,1024,1024,1024,0,0,0,0,340.1,0.9,0,91,4.177,4.166,0,0,0,0,3.803,82.04,6.863849629092,1.64042,6,P-GPS,
143000,2022-08-13 20:13:24,-34.9272847540019,-56.1654673223745,1.64042,1.6732284,5.256238029092,6.863849629092,3.28084,0.223694,4.6078085464,8.4016406888,24,5,8.329,6.863849629092,1.64042,3.1764548,5.8957679052,0,0.223694,0,322.4, 3.9, 3.1,0,0,1024,1024,1024,1024,0,0,0,0,340.1,1.1,0,91,4.177,4.166,0,0,0,0,3.803,82.04,6.863849629092,1.64042,6,P-GPS,
143100,2022-08-13 20:13:24,-34.9272847183846,-56.1654672424064,1.64042,1.6732284,5.256238029092,6.863849629092,3.28084,0.223694,4.5882219316,8.4288716608,24,5,8.329,6.863849629092,1.64042,3.1764548,5.8957679052,0,0.223694,0,322.5, 3.8, 3,0,0,1024,1024,1024,1024,0,0,0,0,340.1,1.1,0,91,4.177,4.166,0,0,0,0,3.803,82.04,6.863849629092,1.64042,6,P-GPS,
143200,2022-08-13 20:13:25,-34.9272846771068,-56.1654671293813,1.64042,1.6732284,5.256238029092,6.863849629092,3.28084,0.223694,4.5598098572,8.465879536,24,5,8.329,6.863849629092,1.64042,3.1764548,5.8957679052,0,0.223694,0,322.5, 3.8, 2.9,0,0,1024,1024,1024,1024,0,0,0,0,340.1,1.2,0,91,4.177,4.166,0,0,0,0,3.803,82.04,6.863849629092,1.64042,6,P-GPS,
143300,2022-08-13 20:13:25,-34.9272846053152,-56.165467008014,1.64042,1.6732284,5.256238029092,6.863849629092,3.28084,0.223694,4.5322179928,8.5106301936,24,5,8.345,6.863849629092,1.64042,3.1764548,5.8957679052,0,0.223694,0,322.5, 3.5, 2.8,0,0,1024,1024,1024,1024,0,0,0,0,340.1,1.2,0,91,4.177,4.163,0,0,0,0,3.901,82.04,6.863849629092,1.64042,6,P-GPS,
143400,2022-08-13 20:13:25,-34.9272844122583,-56.1654669944276,1.64042,1.64042,5.289046429092,6.863849629092,2.952756,0.223694,4.548720618,8.581201062,24,5,8.345,6.863849629092,1.64042,3.1764548,5.8957679052,0,0.223694,0,322.4, 3.6, 2.6,0,0,1024,1024,1024,1024,0,0,0,0,340.1,1.2,0,91,4.177,4.163,0,0,0,0,3.901,82.04,6.863849629092,1.64042,6,P-GPS,
143500,2022-08-13 20:13:25,-34.9272843491072,-56.1654668110176,1.64042,1.64042,5.289046429092,6.863849629092,2.952756,0.223694,4.5033137924,8.6407154996,24,5,8.345,6.863849629092,1.64042,3.1764548,5.8957679052,0,0.223694,0,322.4, 3.3, 2.4,0,0,1024,1024,1024,1024,0,0,0,0,340.1,1.2,0,91,4.177,4.163,0,0,0,0,3.901,82.04,6.863849629092,1.64042,6,P-GPS,
143600,2022-08-13 20:13:25,-34.9272842938052,-56.1654666003995,1.64042,1.64042,5.289046429092,6.863849629092,2.952756,0.223694,4.44963925,8.706857234,24,5,8.345,6.863849629092,1.64042,3.1764548,5.8957679052,0,0.223694,0,322.4, 3.1, 2.3,0,0,1024,1024,1024,1024,0,0,0,0,340.1,1.2,0,91,4.177,4.163,0,0,0,0,3.901,82.04,6.863849629092,1.64042,6,P-GPS,
143700,2022-08-13 20:13:25,-34.9272843126919,-56.1654663978742,1.312336,1.312336,5.289046429092,6.535765629092,2.952756,0.223694,4.3899607704,8.7678152412,24,5,8.345,6.863849629092,1.64042,3.1764548,5.8957679052,0,0.223694,0,322.4, 3.1, 2,0,0,1024,1024,1024,1024,0,0,0,0,340.1,1.2,0,91,4.177,4.163,0,0,0,0,3.901,82.04,6.535765629092,1.312336,6,P-GPS,
143800,2022-08-13 20:13:25,-34.9272844221462,-56.1654660875836,1.312336,1.312336,5.289046429092,6.535765629092,2.952756,0.223694,4.2892717908,8.8688651132,24,5,8.345,6.863849629092,1.64042,3.1764548,5.8957679052,0,0.223694,0,322.4, 2.8, 2,0,0,1024,1024,1024,1024,0,0,0,0,340.1,1.2,0,91,4.177,4.163,0,0,0,0,3.901,82.04,6.535765629092,1.312336,6,P-GPS,
143900,2022-08-13 20:13:25,-34.9272844464474,-56.165465873328,1.312336,1.312336,5.289046429092,6.535765629092,2.952756,0.223694,4.2256563032,8.933563278,24,5,8.345,6.863849629092,1.64042,3.1764548,5.8957679052,0,0.223694,0,322.5, 2.8, 2,0,0,1024,1024,1024,1024,0,0,0,0,340.1,1.2,0,91,4.177,4.163,0,0,0,0,3.901,82.04,6.535765629092,1.312336,6,P-GPS,"Punto de origen actualizado. Altitud de RPO establecida en 40m (Code: 3000001)"
144000,2022-08-13 20:13:25,-34.9272844684803,-56.1654656534846,1.312336,1.312336,5.289046429092,6.535765629092,2.952756,0.223694,4.160761288,8.999836246,24,5,8.345,6.863849629092,1.64042,3.1764548,5.8957679052,0,0.223694,0,322.4, 2.6, 2,0,0,1024,1024,1024,1024,0,0,0,0,340.1,1.2,0,91,4.177,4.163,0,0,0,0,3.901,82.04,6.535765629092,1.312336,6,P-GPS,
144100,2022-08-13 20:13:25,-34.9272845102841,-56.1654654687084,1.312336,1.3451444,5.256238029092,6.535765629092,2.952756,0.223694,4.10351063,9.0571525208,24,5,8.345,6.863849629092,1.64042,3.1764548,5.8957679052,0,0.223694,0,322.4, 2.6, 2.1,0,0,1024,1024,1024,1024,0,0,0,0,340.1,1.2,0,91,4.177,4.163,0,0,0,0,3.901,82.04,6.535765629092,1.312336,6,P-GPS,
144200,2022-08-13 20:13:25,-34.9272845728652,-56.1654652220501,1.312336,1.3451444,5.256238029092,6.535765629092,2.952756,0.223694,4.0263124648,9.1343834944,24,5,8.345,6.863849629092,1.64042,3.1764548,5.8957679052,0,0.223694,0,322.4, 2.4, 2.3,0,0,1024,1024,1024,1024,0,0,0,0,340.1,1.2,0,91,4.177,4.163,0,0,0,0,3.901,82.04,6.535765629092,1.312336,6,P-GPS,
144300,2022-08-13 20:13:26,-34.9272846219953,-56.1654650991115,1.312336,1.3451444,5.256238029092,6.535765629092,2.952756,0.223694,3.985728474,9.1752955692,24,5,8.336,6.863849629092,1.64042,3.1764548,5.8957679052,0,0.223694,0,322.2, 2.3, 2.4,0,0,1024,1024,1024,1024,0,0,0,0,340.1,1.2,0,91,4.173,4.162,0,0,0,0,4.011,82.04,6.535765629092,1.312336,6,P-GPS,
144400,2022-08-13 20:13:26,-34.9272846698634,-56.1654649861701,1.312336,1.3451444,5.256238029092,6.535765629092,2.952756,0.223694,3.9481300476,9.2133533132,24,5,8.336,6.863849629092,1.64042,3.1764548,5.8957679052,0,0.223694,0,322.3, 2.3, 2.5,0,0,1024,1024,1024,1024,0,0,0,0,340.1,1.2,0,91,4.173,4.162,0,0,0,0,4.011,82.04,6.535765629092,1.312336,6,P-GPS,
144500,2022-08-13 20:13:26,-34.9272847377907,-56.1654648486576,1.312336,1.3451444,5.256238029092,6.535765629092,2.952756,0.223694,3.9012796524,9.2613520024,24,5,8.336,6.863849629092,1.64042,3.1764548,5.8957679052,0,0.223694,0,322.4, 2.6, 2.5,0,0,1024,1024,1024,1024,0,0,0,0,340.1,1.2,0,91,4.173,4.162,0,0,0,0,4.011,82.04,6.535765629092,1.312336,6,P-GPS,
144600,2022-08-13 20:13:26,-34.9272848570938,-56.165464751988,1.312336,1.3451444,5.256238029092,6.535765629092,2.952756,0,3.860236344,9.3136157836,24,5,8.336,6.863849629092,1.64042,3.1764548,5.8957679052,0,0,0,322.5, 2.7, 2.1,0,0,1024,1024,1024,1024,0,0,0,0,340.1,1.2,0,91,4.173,4.162,0,0,0,0,4.011,82.04,6.535765629092,1.312336,6,P-GPS,
144700,2022-08-13 20:13:26,-34.9272848957286,-56.1654646524684,1.312336,1.3451444,5.256238029092,6.535765629092,2.952756,0.223694,3.8275591776,9.3465554172,24,5,8.336,6.863849629092,1.64042,3.1764548,5.8957679052,0,0.223694,0,322.5, 2.8, 2.3,0,0,1024,1024,1024,1024,0,0,0,0,340.1,1.2,0,91,4.173,4.162,0,0,0,0,4.011,82.04,6.535765629092,1.312336,6,P-GPS,
144800,2022-08-13 20:13:26,-34.9272849372539,-56.1654645569795,1.312336,1.3451444,5.256238029092,6.535765629092,2.952756,0,3.7957350296,9.3789044996,24,5,8.336,6.863849629092,1.64042,3.1764548,5.8957679052,0,0,0,322.6, 2.2, 2.3,0,0,1024,1024,1646,1024,0,0,94,0,340.1,1.2,0,91,4.173,4.162,0,0,0,0,4.011,82.04,6.535765629092,1.312336,6,P-GPS,
144900,2022-08-13 20:13:26,-34.9272850017306,-56.1654644728357,1.312336,1.3451444,5.256238029092,6.535765629092,2.952756,0.223694,3.7646326664,9.4133533196,24,5,8.336,6.863849629092,1.64042,3.1764548,5.8957679052,0,0.223694,0,322.6, 1.9, 2.5,0,0,1024,1024,1684,1024,0,0,100,0,340.1,1.2,0,91,4.173,4.162,0,0,0,0,4.011,82.04,6.535765629092,1.312336,6,P-GPS,
145000,2022-08-13 20:13:26,-34.9272850789351,-56.1654643766389,1.312336,1.3451444,5.256238029092,6.535765629092,2.952756,0.223694,3.7287402768,9.4536092264,24,5,8.336,6.863849629092,1.64042,3.1764548,5.8957679052,0,0.223694,-0.447388,322.6, 1.2, 2.4,0,0,1024,1024,1024,1024,0,0,0,0,340.1,1.2,0,91,4.173,4.162,0,0,0,0,4.011,82.04,6.535765629092,1.312336,6,P-GPS,
145100,2022-08-13 20:13:26,-34.9272850479214,-56.1654644374786,1.64042,1.6732284,5.256238029092,6.863849629092,2.952756,0.223694,3.7494751856,9.4750331116,24,5,8.336,6.863849629092,1.64042,3.1764548,5.8957679052,0,0.223694,-1.11847,322.5, 1, 2.1,0,0,1024,1024,1096,1024,0,0,11,0,340.1,1.2,0,91,4.173,4.162,0,0,0,0,4.011,82.04,6.863849629092,1.64042,6,P-GPS,
145200,2022-08-13 20:13:26,-34.9272850675523,-56.1654643339544,1.64042,1.6732284,5.256238029092,6.863849629092,3.28084,0.223694,3.7177822712,9.5068244512,24,5,8.336,6.863849629092,1.64042,3.1764548,5.8957679052,0,0.223694,-0.894776,322.5, 2, 2.3,0,0,1024,1024,1684,1024,0,0,100,0,340.1,1.2,0,91,4.173,4.162,0,0,0,0,4.011,82.04,6.863849629092,1.64042,6,P-GPS,
145300,2022-08-13 20:13:27,-34.9272850577018,-56.1654642794808,1.64042,1.6732284,5.256238029092,6.863849629092,3.28084,0.223694,3.7033137668,9.5235239268,24,5,8.331,6.863849629092,1.64042,3.1764548,5.8957679052,0,0.223694,-0.447388,322.4, 1.6, 1.9,0,0,1024,1024,1684,1024,0,0,100,0,340.1,1.2,0,91,4.171,4.159,0,0,0,0,3.997,81.86,6.863849629092,1.64042,6,P-GPS,
145400,2022-08-13 20:13:27,-34.9272850414532,-56.1654642373579,1.968504,2.0013124,5.256238029092,7.191933629092,3.28084,0,3.6931103544,9.5374346884,24,5,8.331,7.191933629092,1.968504,3.1764548,5.8957679052,0,0,-0.894776,322.3, 1, 1.6,0,0,1024,1024,1684,1024,0,0,100,0,340.1,1.2,0,91,4.171,4.159,0,0,0,0,3.997,81.86,7.191933629092,1.968504,6,P-GPS,
145500,2022-08-13 20:13:27,-34.9272848719647,-56.16546421571,1.968504,2.0013124,5.256238029092,7.191933629092,3.608924,0,3.7061680976,9.5996066064,24,5,8.331,7.191933629092,1.968504,3.1764548,5.8957679052,0,0,-1.565858,322.5, 1.7, 1.6,0,0,1024,1024,1684,1024,0,0,100,0,340.1,1.2,0,91,4.171,4.159,0,0,0,0,3.997,81.86,7.191933629092,1.968504,6,P-GPS,
145600,2022-08-13 20:13:27,-34.9272848732984,-56.1654641187766,2.296588,2.3293964,5.256238029092,7.520017629092,3.937008,0,3.6785434248,9.628609232,24,5,8.331,7.520017629092,2.296588,3.1764548,5.8957679052,0,0,-2.460634,322.5, 1.9, 1.6,0,0,1024,1024,1024,1024,0,0,0,0,340.1,1.2,0,91,4.171,4.159,0,0,0,0,3.997,81.86,7.520017629092,2.296588,6,P-GPS,
145700,2022-08-13 20:13:27,-34.9272848598866,-56.1654640877115,2.624672,2.6574804,5.256238029092,7.848101629092,4.265092,0,3.6713255768,9.63910792,24,5,8.331,7.848101629092,2.624672,3.1764548,5.8957679052,0,0,-3.131716,322.5, 1.7, 1.7,0,0,1024,1024,1024,1024,0,0,0,0,340.1,1.2,0,91,4.171,4.159,0,0,0,0,3.997,81.86,7.848101629092,2.624672,6,P-GPS,
145800,2022-08-13 20:13:27,-34.927284842573,-56.1654640866039,3.28084,3.3136484,5.256238029092,8.504269629092,4.92126,0,3.673064422,9.6454399412,24,5,8.331,8.504269629092,3.28084,3.1764548,5.8957679052,0,0,-3.131716,322.4, 2.2, 2,0,0,1024,1024,1024,1024,0,0,0,0,340.1,1.2,0,91,4.171,4.159,0,0,0,0,3.997,81.86,8.504269629092,3.28084,6,P-GPS,
145900,2022-08-13 20:13:27,-34.9272847586771,-56.1654641427468,3.608924,3.6417324,5.256238029092,8.832353629092,5.249344,0,3.6989502496,9.6803480788,24,5,8.331,8.832353629092,3.608924,3.1764548,5.8957679052,0,0,-2.460634,322.4, 2.6, 2.2,0,0,1024,1024,1106,1024,0,0,12,0,340.1,1.2,0,91,4.171,4.159,0,0,0,0,3.997,81.86,8.832353629092,3.608924,6,P-GPS,
146000,2022-08-13 20:13:27,-34.9272847438778,-56.1654641357459,3.937008,3.9698164,5.256238029092,9.160437629092,5.577428,0,3.6987862076,9.6861551656,24,5,8.331,9.160437629092,3.937008,3.1764548,5.8957679052,0,0,-1.789552,322.5, 2.7, 2.5,0,0,1024,1024,1684,1024,0,0,100,0,340.1,1.2,0,91,4.171,4.159,0,0,0,0,3.997,81.86,9.160437629092,3.937008,6,P-GPS,
146100,2022-08-13 20:13:27,-34.9272847776941,-56.1654640702746,3.937008,3.9698164,5.256238029092,9.160437629092,5.577428,0,3.6762140284,9.7092850876,24,5,8.331,9.160437629092,3.937008,3.1764548,5.8957679052,0,0,-1.11847,322.5, 2.6, 2,0,0,1024,1024,1684,1024,0,0,100,0,340.1,1.2,0,91,4.171,4.159,0,0,0,0,3.997,81.86,9.160437629092,3.937008,6,P-GPS,
146200,2022-08-13 20:13:28,-34.92728483297,-56.1654639878209,4.265092,4.2979004,5.256238029092,9.488521629092,5.905512,0,3.6462599592,9.741142044,24,5,8.331,9.488521629092,4.265092,3.1764548,5.8957679052,0,0,-1.565858,322.4, 2, 1.7,0,0,1024,1024,1684,1024,0,0,100,0,340.1,1.2,0,91,4.171,4.159,0,0,0,0,3.997,81.86,9.488521629092,4.265092,6,P-GPS,
146300,2022-08-13 20:13:28,-34.9272851890309,-56.1654638074725,4.593176,4.6259844,5.256238029092,9.816605629092,6.233596,0,3.5542652056,9.8818244632,24,5,8.331,9.816605629092,4.593176,3.1764548,5.8957679052,0,0,-2.23694,322.4, 2.2, 2.1,0,0,1024,1024,1684,1024,0,0,100,0,340.1,1.2,0,91,4.181,4.11,0,0,0,0,3.997,81.86,9.816605629092,4.593176,6,P-GPS,
146400,2022-08-13 20:13:28,-34.9272853183619,-56.1654638091835,4.92126,4.9540684,5.256238029092,10.144689629092,6.56168,0,3.5408793784,9.9290029424,24,5,8.331,10.144689629092,4.92126,3.1764548,5.8957679052,0,0,-2.908022,322.5, 2.6, 2.6,0,0,1024,1024,1684,1024,0,0,100,0,340.1,1.2,0,91,4.181,4.11,0,0,0,0,3.997,81.86,10.144689629092,4.92126,6,P-GPS,
146500,2022-08-13 20:13:28,-34.9272853746003,-56.1654638054715,5.577428,5.6102364,5.256238029092,10.800857629092,7.217848,0,3.533956806,9.9495410008,24,5,8.331,10.800857629092,5.577428,3.1764548,5.8957679052,0,0,-3.802798,322.5, 2.9, 2.7,0,0,1024,1024,1684,1024,0,0,100,0,340.1,1.2,0,91,4.181,4.11,0,0,0,0,3.997,81.86,10.800857629092,5.577428,6,P-GPS,
146600,2022-08-13 20:13:28,-34.9272854090695,-56.1654637867389,6.233596,6.2664044,5.256238029092,11.457025629092,7.874016,0,3.5250657296,9.9633205288,24,5,8.331,11.457025629092,6.233596,3.1764548,5.8957679052,0,0,-4.697574,322.4, 3, 2.4,0,0,1024,1024,1684,1024,0,0,100,0,340.1,1.2,0,91,4.181,4.11,0,0,0,0,3.997,81.86,11.457025629092,6.233596,6,P-GPS,
146700,2022-08-13 20:13:28,-34.9272854489192,-56.1654636956674,6.889764,6.9225724,5.256238029092,12.113193629092,8.530184,0,3.4948491932,9.9941932332,24,5,8.331,12.113193629092,6.889764,3.1764548,5.8957679052,0,0,-5.368656,322.4, 3, 2.4,0,0,1024,1024,1684,1024,0,0,100,0,340.1,1.2,0,91,4.181,4.11,0,0,0,0,3.997,81.86,12.113193629092,6.889764,6,P-GPS,
146800,2022-08-13 20:13:28,-34.927285455205,-56.1654634515247,7.874016,7.9068244,5.256238029092,13.097445629092,9.514436,0,3.4240814744,10.06725754,24,5,8.331,13.097445629092,7.874016,3.1764548,5.8957679052,0,0,-5.816044,322.5, 3.1, 2.1,0,0,1024,1024,1684,1024,0,0,100,0,340.1,1.2,0,91,4.181,4.11,0,0,0,0,3.997,81.86,13.097445629092,7.874016,6,P-GPS,
146900,2022-08-13 20:13:28,-34.9272854613458,-56.1654634007187,8.858268,8.8910764,5.256238029092,14.081697629092,10.170604,0,3.4088911852,10.0826446796,24,5,8.331,14.081697629092,8.858268,3.1764548,5.8957679052,0,0,-6.263432,322.5, 2.9, 1.6,0,0,1024,1024,1684,1024,0,0,100,0,340.1,1.2,0,91,4.181,4.11,0,0,0,0,3.997,81.86,14.081697629092,8.858268,6,P-GPS,
147000,2022-08-13 20:13:28,-34.927285461341,-56.1654633745725,9.84252,9.8753284,5.256238029092,15.065949629092,11.154856,0,3.4013780616,10.0904530788,24,5,8.331,15.065949629092,9.84252,3.1764548,5.8957679052,0,0,-6.487126,322.5, 2.8, 1.7,0,0,1024,1024,1684,1024,0,0,100,0,340.1,1.2,0,91,4.181,4.11,0,0,0,0,3.997,81.86,15.065949629092,9.84252,6,P-GPS,
147100,2022-08-13 20:13:28,-34.9272854176873,-56.1654633581178,10.826772,10.8595804,5.256238029092,16.050201629092,12.139108,0,3.401246828,10.107119746,24,5,8.331,16.050201629092,10.826772,3.1764548,5.8957679052,0,0,-6.487126,322.5, 2.8, 1.8,0,0,1024,1024,1024,1024,0,0,0,0,340.1,1.2,0,91,4.181,4.11,0,0,0,0,3.997,81.86,16.050201629092,10.826772,6,P-GPS,
147200,2022-08-13 20:13:29,-34.9272851519203,-56.1654634642021,11.811024,11.8438324,5.256238029092,17.034453629092,13.12336,0,3.460630032,10.20915387,24,5,8.331,17.034453629092,11.811024,3.1764548,5.8957679052,0,0,-6.487126,322.4, 2.8, 1.6,0,0,1024,1024,1024,1024,0,0,0,0,340.1,1.2,0,91,4.181,4.11,0,0,0,0,3.997,81.86,17.034453629092,11.811024,6,P-GPS,
147300,2022-08-13 20:13:29,-34.9272852131026,-56.1654634475488,12.467192,12.5000004,5.256238029092,17.690621629092,13.779528,0,3.44898305,10.2320213248,24,5,8.237,17.690621629092,12.467192,3.1764548,5.8957679052,0,0,-6.039738,322.5, 3.2, 1.8,0,0,1024,1024,1024,1024,0,0,0,0,340.1,1.2,0,91,4.13,4.117,0,0,0,0,4.958,81.86,17.690621629092,12.467192,6,P-GPS,
147400,2022-08-13 20:13:29,-34.9272853171846,-56.1654634376614,13.451444,13.4842524,5.256238029092,18.674873629092,14.435696,0,3.434711396,10.2701118772,24,5,8.237,18.674873629092,13.451444,3.1764548,5.8957679052,0,0,-5.368656,322.5, 3.1, 1.8,0,0,1024,1024,1024,1024,0,0,0,0,340.1,1.2,0,91,4.13,4.117,0,0,0,0,4.958,81.86,18.674873629092,13.451444,6,P-GPS,
147500,2022-08-13 20:13:29,-34.9272854216932,-56.1654634864978,14.107612,14.1404204,5.256238029092,19.331041629092,15.091864,0,3.4375985352,10.3109583352,24,5,8.237,19.331041629092,14.107612,3.1764548,5.8957679052,0,0,-4.697574,322.5, 3, 2.1,0,0,1024,1024,1024,1024,0,0,0,0,340.1,1.2,0,91,4.13,4.117,0,0,0,0,4.958,81.86,19.331041629092,14.107612,6,P-GPS,
147600,2022-08-13 20:13:29,-34.9272856982144,-56.1654636402559,14.76378,14.7965884,5.256238029092,19.987209629092,15.748032,0,3.4546260948,10.4218179188,24,5,8.237,19.987209629092,14.76378,3.1764548,5.8957679052,0,0,-3.802798,322.5, 3.2, 2,0,0,1024,1024,1024,1024,0,0,0,0,340.1,1.2,0,91,4.13,4.117,0,0,0,0,4.958,81.86,19.987209629092,14.76378,6,P-GPS,
147700,2022-08-13 20:13:29,-34.9272855934908,-56.1654636173019,15.091864,15.1246724,5.256238029092,20.315293629092,16.076116,0,3.4579397432,10.460630256,24,5,8.237,20.315293629092,15.091864,3.1764548,5.8957679052,0,0,-2.908022,322.5, 3.5, 1.7,0,0,1024,1024,1024,1024,0,0,0,0,340.1,1.2,0,91,4.13,4.117,0,0,0,0,4.958,81.86,20.315293629092,15.091864,6,P-GPS,
147800,2022-08-13 20:13:29,-34.9272854309298,-56.1654635745156,15.419948,15.4527564,5.256238029092,20.643377629092,16.4042,0,3.4618767512,10.521325796,24,5,8.237,20.643377629092,15.419948,3.1764548,5.8957679052,0,0,-2.013246,322.5, 3.6, 1.9,0,0,1024,1024,1024,1024,0,0,0,0,340.1,1.2,0,91,4.13,4.117,0,0,0,0,4.958,81.86,20.643377629092,15.419948,6,P-GPS,
147900,2022-08-13 20:13:29,-34.927285351846,-56.1654635154051,15.748032,15.7808404,5.256238029092,20.971461629092,16.732284,0,3.4532153336,10.5551512564,24,5,8.237,20.971461629092,15.748032,3.1764548,5.8957679052,0,0,-1.342164,322.5, 3.4, 1.9,0,0,1024,1024,1024,1024,0,0,0,0,340.1,1.2,0,91,4.13,4.117,0,0,0,0,4.958,81.86,20.971461629092,15.748032,6,P-GPS,
148000,2022-08-13 20:13:29,-34.9272848612007,-56.1654631598962,15.748032,15.7808404,5.256238029092,20.971461629092,16.732284,0,3.4096785868,10.7633861712,24,5,8.237,20.971461629092,15.748032,3.1764548,5.8957679052,0,0,-0.671082,322.4, 3.3, 2.1,0,0,1024,1024,1024,1024,0,0,0,0,340.1,1.2,0,91,4.13,4.117,0,0,0,0,4.958,81.86,20.971461629092,15.748032,6,P-GPS,
148100,2022-08-13 20:13:29,-34.9272848315907,-56.1654632250488,15.748032,15.7808404,5.256238029092,20.971461629092,16.732284,0,3.4317258316,10.7856630748,24,5,8.237,20.971461629092,15.748032,3.1764548,5.8957679052,0,0,-0.223694,322.4, 3.3, 2.2,0,0,1024,1024,1024,1024,0,0,0,0,340.1,1.2,0,91,4.13,4.117,0,0,0,0,4.958,81.86,20.971461629092,15.748032,6,P-GPS,
148200,2022-08-13 20:13:30,-34.9272848110463,-56.1654633297224,16.076116,16.1089244,5.256238029092,21.299545629092,16.732284,0,3.4636812132,10.8178481152,24,5,8.237,21.299545629092,16.076116,3.1764548,5.8957679052,0,0,0,322.4, 3.2, 2.8,0,0,1024,1024,1024,1024,0,0,0,0,340.1,1.2,0,91,4.13,4.117,0,0,0,0,4.958,81.86,21.299545629092,16.076116,6,P-GPS,
148300,2022-08-13 20:13:30,-34.9272848730183,-56.165463447447,16.076116,16.1089244,5.256238029092,21.299545629092,16.732284,0,3.489009298,10.8597116336,24,5,8.203,21.299545629092,16.076116,3.1764548,5.8957679052,0,0,0,322.4, 3.2, 3,0,0,1024,1024,1024,1024,0,0,0,0,340.1,1.2,0,91,4.172,4.161,0,0,0,0,5.482,81.86,21.299545629092,16.076116,6,P-GPS,
148400,2022-08-13 20:13:30,-34.9272849638236,-56.1654635699572,16.076116,16.1089244,5.256238029092,21.299545629092,16.732284,0,3.5125329208,10.909121084,24,5,8.203,21.299545629092,16.076116,3.1764548,5.8957679052,0,0,0,322.5, 3.7, 3,0,0,1024,1024,1024,1024,0,0,0,0,340.1,1.2,0,91,4.172,4.161,0,0,0,0,5.482,81.86,21.299545629092,16.076116,6,P-GPS,
148500,2022-08-13 20:13:30,-34.9272851846911,-56.1654638506402,16.076116,16.1089244,5.256238029092,21.299545629092,16.732284,0,3.5670604816,11.0254924788,24,5,8.203,21.299545629092,16.076116,3.1764548,5.8957679052,0,0,0,322.5, 3.7, 3.3,0,0,1024,1024,1024,1024,0,0,0,0,340.1,1.2,0,91,4.172,4.161,0,0,0,0,5.482,81.86,21.299545629092,16.076116,6,P-GPS,
148600,2022-08-13 20:13:30,-34.9272853675865,-56.1654639262497,16.076116,16.1089244,5.256238029092,21.299545629092,16.732284,0,3.5693570696,11.0959321136,24,5,8.203,21.299545629092,16.076116,3.1764548,5.8957679052,0,0,0,322.5, 3.4, 3.5,0,0,1024,1024,1024,1024,0,0,0,0,340.1,1.2,0,91,4.172,4.161,0,0,0,0,5.482,81.86,21.299545629092,16.076116,6,P-GPS,
148700,2022-08-13 20:13:30,-34.9272855897519,-56.1654639591696,16.076116,16.1089244,5.256238029092,21.299545629092,16.732284,0,3.5569883028,11.1775922212,24,5,8.203,21.299545629092,16.076116,3.1764548,5.8957679052,0,0,0,322.5, 3.1, 3.9,0,0,1024,1024,1024,1024,0,0,0,0,340.1,1.2,0,91,4.172,4.161,0,0,0,0,5.482,81.86,21.299545629092,16.076116,6,P-GPS,
148800,2022-08-13 20:13:30,-34.9272858304962,-56.1654639729388,16.076116,16.1089244,5.256238029092,21.299545629092,16.732284,0,3.5393045752,11.2655187332,24,5,8.203,21.299545629092,16.076116,3.1764548,5.8957679052,0,0,0,322.4, 2.9, 4.1,0,0,1024,1024,1024,1024,0,0,0,0,340.1,1.2,0,91,4.172,4.161,0,0,0,0,5.482,81.86,21.299545629092,16.076116,6,P-GPS,
148900,2022-08-13 20:13:30,-34.9272862916096,-56.1654639704624,16.076116,16.1089244,5.256238029092,21.299545629092,16.732284,0,3.5028544428,11.4337602084,24,5,8.203,21.299545629092,16.076116,3.1764548,5.8957679052,0,0,0,322.4, 2.3, 4.4,0,0,1024,1024,1024,1024,0,0,0,0,340.1,1.2,0,91,4.172,4.161,0,0,0,0,5.482,81.86,21.299545629092,16.076116,6,P-GPS,
149000,2022-08-13 20:13:30,-34.9272863940485,-56.1654639937638,16.4042,16.4370084,5.256238029092,21.627629629092,16.732284,0,3.5028216344,11.471785144,24,5,8.203,21.627629629092,16.4042,3.1764548,5.8957679052,0,0,0,322.4, 2.3, 4.3,0,0,1024,1024,1024,1024,0,0,0,0,340.1,1.2,0,91,4.172,4.161,0,0,0,0,5.482,81.86,21.627629629092,16.4042,6,P-GPS,
149100,2022-08-13 20:13:30,-34.9272864646904,-56.1654639505935,16.4042,16.4370084,5.256238029092,21.627629629092,16.732284,0,3.4855972244,11.5006237276,24,5,8.203,21.627629629092,16.4042,3.1764548,5.8957679052,0,0,0,322.4, 2.3, 4.3,0,0,1024,1024,1024,1024,0,0,0,0,340.1,1.2,0,91,4.172,4.161,0,0,0,0,5.482,81.86,21.627629629092,16.4042,6,P-GPS,
149200,2022-08-13 20:13:30,-34.9272865248452,-56.1654638818516,16.4042,16.4370084,5.256238029092,21.627629629092,16.732284,0,3.4615814756,11.530676222,24,5,8.203,21.627629629092,16.4042,3.1764548,5.8957679052,0,0,0,322.5, 2.1, 4,0,0,1024,1024,1024,1024,0,0,0,0,340.1,1.2,0,91,4.172,4.161,0,0,0,0,5.482,81.86,21.627629629092,16.4042,6,P-GPS,
149300,2022-08-13 20:13:31,-34.9272864225463,-56.165463642782,16.4042,16.4370084,5.256238029092,21.627629629092,16.732284,0,3.3976707124,11.6113520776,24,5,8.347,21.627629629092,16.4042,3.1764548,5.8957679052,0,0,0,322.4, 2, 3.9,0,0,1024,1024,1024,1024,0,0,0,0,340.1,1.2,0,91,4.157,4.146,0,0,0,0,3.848,81.86,21.627629629092,16.4042,6,P-GPS,
149400,2022-08-13 20:13:31,-34.9272864324863,-56.1654635538943,16.4042,16.4370084,5.256238029092,21.627629629092,16.732284,0,3.3708662496,11.6381893488,24,5,8.347,21.627629629092,16.4042,3.1764548,5.8957679052,0,0,0,322.4, 1.9, 3.4,0,0,1024,1024,1024,1024,0,0,0,0,340.1,1.2,0,91,4.157,4.146,0,0,0,0,3.848,81.86,21.627629629092,16.4042,6,P-GPS,
149500,2022-08-13 20:13:31,-34.9272864402866,-56.1654634931408,16.4042,16.4370084,5.256238029092,21.627629629092,16.732284,0,3.3524935456,11.6565948612,24,5,8.347,21.627629629092,16.4042,3.1764548,5.8957679052,0,0,0,322.5, 2, 3.4,0,0,1024,1024,1024,1024,0,0,0,0,340.1,1.2,0,91,4.157,4.146,0,0,0,0,3.848,81.86,21.627629629092,16.4042,6,P-GPS,
149600,2022-08-13 20:13:31,-34.9272864443903,-56.1654634407073,16.4042,16.4370084,5.256238029092,21.627629629092,16.732284,0,3.336778322,11.6723428932,24,5,8.347,21.627629629092,16.4042,3.1764548,5.8957679052,0,0,0,322.4, 2, 3,0,0,1024,1024,1024,1024,0,0,0,0,340.1,1.2,0,91,4.157,4.146,0,0,0,0,3.848,81.86,21.627629629092,16.4042,6,P-GPS,
149700,2022-08-13 20:13:31,-34.9272863815095,-56.1654632062144,16.4042,16.4370084,5.256238029092,21.627629629092,16.732284,0,3.27218514408,11.7461289848,24,5,8.347,21.627629629092,16.4042,3.1764548,5.8957679052,0,0,0,322.5, 2, 3,0,0,1024,1024,1024,1024,0,0,0,0,340.1,1.2,0,91,4.157,4.146,0,0,0,0,3.848,81.86,21.627629629092,16.4042,6,P-GPS,
149800,2022-08-13 20:13:31,-34.9272863582228,-56.1654630953262,16.4042,16.4370084,5.256238029092,21.627629629092,16.732284,0,3.24130915884,11.7803809544,25,5,8.347,21.627629629092,16.4042,3.1764548,5.8957679052,0,0,0,322.4, 2.3, 2.7,0,0,1024,1024,1024,1024,0,0,0,0,340.1,1.2,0,91,4.157,4.146,0,0,0,0,3.848,81.86,21.627629629092,16.4042,6,P-GPS,
149900,2022-08-13 20:13:31,-34.9272863126003,-56.1654629651516,16.4042,16.4370084,5.256238029092,21.627629629092,16.732284,0,3.20650928896,11.8227365988,25,5,8.347,21.627629629092,16.4042,3.1764548,5.8957679052,0,0,0,322.5, 2.5, 2.7,0,0,1024,1024,1024,1024,0,0,0,0,340.1,1.2,0,91,4.157,4.146,0,0,0,0,3.848,81.86,21.627629629092,16.4042,6,P-GPS,
150000,2022-08-13 20:13:31,-34.9272862576778,-56.165462831069,16.4042,16.4370084,5.256238029092,21.627629629092,16.732284,0,3.17146991776,11.8675528732,24,5,8.347,21.627629629092,16.4042,3.1764548,5.8957679052,0,0,0,322.4, 2.5, 2.9,0,0,1024,1024,1024,1024,0,0,0,0,340.1,1.2,0,91,4.157,4.146,0,0,0,0,3.848,81.86,21.627629629092,16.4042,6,P-GPS,
150100,2022-08-13 20:13:31,-34.9272862129118,-56.1654627854902,16.4042,16.4370084,5.256238029092,21.627629629092,16.732284,0,3.16168645288,11.8888455248,24,5,8.347,21.627629629092,16.4042,3.1764548,5.8957679052,0,0,0,322.5, 2.5, 2.8,0,0,1024,1024,1024,1024,0,0,0,0,340.1,1.2,0,91,4.157,4.146,0,0,0,0,3.848,81.86,21.627629629092,16.4042,6,P-GPS,
150200,2022-08-13 20:13:31,-34.9272861157279,-56.16546270591,16.4042,16.4370084,5.256238029092,21.627629629092,16.732284,0,3.14647647864,11.9315620616,24,5,8.347,21.627629629092,16.4042,3.1764548,5.8957679052,0,0,0,322.4, 2.6, 2.6,0,0,1024,1024,1024,1024,0,0,0,0,340.1,1.2,0,91,4.157,4.146,0,0,0,0,3.848,81.86,21.627629629092,16.4042,6,P-GPS,
150300,2022-08-13 20:13:32,-34.9272860557377,-56.1654627236917,16.732284,16.7650924,5.256238029092,21.955713629092,16.732284,0,3.15677831624,11.954068624,24,5,8.305,21.955713629092,16.732284,3.1764548,5.8957679052,0,0,0,322.4, 2.7, 2.8,0,0,1024,1024,1024,1024,0,0,0,0,340.1,1.2,0,91,4.155,4.144,0,0,0,0,3.717,82.04,21.955713629092,16.732284,6,P-GPS,
150400,2022-08-13 20:13:32,-34.9272859848434,-56.1654627609192,16.732284,16.7650924,5.256238029092,21.955713629092,16.732284,0,3.17381571836,11.9822182312,24,5,8.305,21.955713629092,16.732284,3.1764548,5.8957679052,0,0,0,322.5, 2.8, 2.7,0,0,1024,1024,1024,1024,0,0,0,0,340.1,1.2,0,91,4.155,4.144,0,0,0,0,3.717,82.04,21.955713629092,16.732284,6,P-GPS,
150500,2022-08-13 20:13:32,-34.9272859141624,-56.1654628334723,16.732284,16.7650924,5.256238029092,21.955713629092,16.732284,0,3.20122385572,12.0159452664,24,5,8.305,21.955713629092,16.732284,3.1764548,5.8957679052,0,0,0,322.5, 3, 3,0,0,1024,1024,1024,1024,0,0,0,0,340.1,1.2,0,91,4.155,4.144,0,0,0,0,3.717,82.04,21.955713629092,16.732284,6,P-GPS,
150600,2022-08-13 20:13:32,-34.9272857559102,-56.1654631085573,16.732284,16.7650924,5.256238029092,21.955713629092,16.732284,0,3.2955381632,12.116470204,24,5,8.305,21.955713629092,16.732284,3.1764548,5.8957679052,0,0,0,322.5, 3.6, 2.8,0,0,1024,1024,1024,1024,0,0,0,0,340.1,1.2,0,91,4.155,4.144,0,0,0,0,3.717,82.04,21.955713629092,16.732284,6,P-GPS,
150700,2022-08-13 20:13:32,-34.9272856566044,-56.1654631894488,16.732284,16.7650924,5.256238029092,21.955713629092,16.732284,0,3.3284777968,12.1600397592,24,5,8.305,21.955713629092,16.732284,3.1764548,5.8957679052,0,0,0,322.5, 4, 3.1,0,0,1024,1024,1024,1024,0,0,0,0,340.1,1.2,0,91,4.155,4.144,0,0,0,0,3.717,82.04,21.955713629092,16.732284,6,P-GPS,
150800,2022-08-13 20:13:32,-34.9272855496124,-56.165463268517,16.732284,16.7650924,5.256238029092,21.955713629092,16.732284,0,3.361876748,12.2056762436,24,5,8.305,21.955713629092,16.732284,3.1764548,5.8957679052,0,0,0,322.6, 4, 3.2,0,0,1024,1024,1024,1024,0,0,0,0,340.1,1.2,0,91,4.155,4.144,0,0,0,0,3.717,82.04,21.955713629092,16.732284,6,P-GPS,
150900,2022-08-13 20:13:32,-34.9272854835057,-56.1654633143728,16.732284,16.7650924,5.256238029092,21.955713629092,16.732284,0,3.3818242552,12.23343215,24,5,8.305,21.955713629092,16.732284,3.1764548,5.8957679052,0,0,0,322.6, 4.5, 3.1,0,0,1024,1024,1024,1024,0,0,0,0,340.1,1.2,0,91,4.155,4.144,0,0,0,0,3.717,82.04,21.955713629092,16.732284,6,P-GPS,
151000,2022-08-13 20:13:32,-34.9272853462539,-56.165463345895,16.732284,16.7650924,5.256238029092,21.955713629092,16.732284,0,3.405347878,12.2843835952,24,5,8.305,21.955713629092,16.732284,3.1764548,5.8957679052,0,0,0,322.6, 4.3, 3,0,0,1024,1024,1024,1024,0,0,0,0,340.1,1.2,0,91,4.155,4.144,0,0,0,0,3.717,82.04,21.955713629092,16.732284,6,P-GPS,
151100,2022-08-13 20:13:32,-34.9272852882048,-56.1654633370002,16.732284,16.7650924,5.256238029092,21.955713629092,16.732284,0,3.4091536524,12.3057090552,24,5,8.305,21.955713629092,16.732284,3.1764548,5.8957679052,0,0,0,322.5, 3.9, 2.5,0,0,1024,1024,1024,1024,0,0,0,0,340.1,1.2,0,91,4.155,4.144,0,0,0,0,3.717,82.04,21.955713629092,16.732284,6,P-GPS,
151200,2022-08-13 20:13:33,-34.9272852325153,-56.1654633210576,16.732284,16.7650924,5.256238029092,21.955713629092,16.732284,0,3.4108268808,12.3265751976,25,5,8.305,21.955713629092,16.732284,3.1764548,5.8957679052,0,0,0,322.5, 3.5, 2.7,0,0,1024,1024,1024,1024,0,0,0,0,340.1,1.2,0,91,4.155,4.144,0,0,0,0,3.717,82.04,21.955713629092,16.732284,6,P-GPS,
151300,2022-08-13 20:13:33,-34.9272851777377,-56.1654633739064,16.732284,16.7650924,5.256238029092,21.955713629092,16.732284,0,3.4320211072,12.3520673244,25,5,8.298,21.955713629092,16.732284,3.1764548,5.8957679052,0,0,0,322.5, 3.5, 2.9,0,0,1024,1024,1024,1024,0,0,0,0,340.1,1.2,0,91,4.151,4.138,0,0,0,0,4.018,82.04,21.955713629092,16.732284,6,P-GPS,
151400,2022-08-13 20:13:33,-34.9272850328908,-56.165463459769,16.732284,16.7650924,5.256238029092,21.955713629092,16.732284,0,3.4731628408,12.4108271688,25,5,8.298,21.955713629092,16.732284,3.1764548,5.8957679052,0,0,0,322.5, 3.6, 2.9,0,0,1024,1024,1024,1024,0,0,0,0,340.1,1.2,0,91,4.151,4.138,0,0,0,0,4.018,82.04,21.955713629092,16.732284,6,P-GPS,
151500,2022-08-13 20:13:33,-34.92728500857,-56.1654634947003,16.732284,16.7650924,5.256238029092,21.955713629092,16.732284,0,3.4859253084,12.42454108,25,5,8.298,21.955713629092,16.732284,3.1764548,5.8957679052,0,0,0,322.6, 3.8, 2.7,0,0,1024,1024,1024,1024,0,0,0,0,340.1,1.2,0,91,4.151,4.138,0,0,0,0,4.018,82.04,21.955713629092,16.732284,6,P-GPS,
151600,2022-08-13 20:13:33,-34.9272850015873,-56.1654635199688,16.732284,16.7650924,5.256238029092,21.955713629092,16.732284,0,3.4938977496,12.4325135212,25,5,8.298,21.955713629092,16.732284,3.1764548,5.8957679052,0,0,0,322.6, 3.7, 2.9,0,0,1024,1024,1024,1024,0,0,0,0,340.1,1.2,0,91,4.151,4.138,0,0,0,0,4.018,82.04,21.955713629092,16.732284,6,P-GPS,
151700,2022-08-13 20:13:33,-34.9272850410966,-56.1654635322099,16.732284,16.7650924,5.256238029092,21.955713629092,16.732284,0,3.4927166472,12.4473757264,25,5,8.298,21.955713629092,16.732284,3.1764548,5.8957679052,0,0,0,322.6, 3.6, 3,0,0,1024,1024,1024,1024,0,0,0,0,340.1,1.2,0,91,4.151,4.138,0,0,0,0,4.018,82.04,21.955713629092,16.732284,6,P-GPS,
151800,2022-08-13 20:13:33,-34.9272850992923,-56.1654635431056,16.732284,16.7650924,5.256238029092,21.955713629092,16.732284,0,3.4890749148,12.4688652284,25,5,8.298,21.955713629092,16.732284,3.1764548,5.8957679052,0,0,0,322.5, 3.4, 3.2,0,0,1024,1024,1024,1024,0,0,0,0,340.1,1.2,0,91,4.151,4.138,0,0,0,0,4.018,82.04,21.955713629092,16.732284,6,P-GPS,
151900,2022-08-13 20:13:33,-34.9272852335444,-56.1654634930781,16.732284,16.7650924,5.256238029092,21.955713629092,16.732284,0,3.4596785884,12.5200791408,25,5,8.298,21.955713629092,16.732284,3.1764548,5.8957679052,0,0,0,322.5, 3.3, 3.4,0,0,1024,1024,1024,1024,0,0,0,0,340.1,1.2,0,91,4.151,4.138,0,0,0,0,4.018,82.04,21.955713629092,16.732284,6,P-GPS,
152000,2022-08-13 20:13:33,-34.9272852387261,-56.1654635496154,16.732284,16.7650924,5.256238029092,21.955713629092,16.732284,0,3.47522977,12.5371067004,25,5,8.298,21.955713629092,16.732284,3.1764548,5.8957679052,0,0,0,322.5, 3.4, 3.4,0,0,1024,1024,1024,1024,0,0,0,0,340.1,1.2,0,91,4.151,4.138,0,0,0,0,4.018,82.04,21.955713629092,16.732284,6,P-GPS,
152100,2022-08-13 20:13:33,-34.9272852532942,-56.1654636137101,16.732284,16.7650924,5.256238029092,21.955713629092,16.732284,0,3.4919292456,12.5569885908,25,5,8.298,21.955713629092,16.732284,3.1764548,5.8957679052,0,0,0,322.5, 3.5, 3.5,0,0,1024,1024,1024,1024,0,0,0,0,340.1,1.2,0,91,4.151,4.138,0,0,0,0,4.018,82.04,21.955713629092,16.732284,6,P-GPS,
152200,2022-08-13 20:13:34,-34.9272852719399,-56.1654636870861,16.732284,16.7650924,5.256238029092,21.955713629092,16.732284,0,3.5108925008,12.5799872792,25,5,8.298,21.955713629092,16.732284,3.1764548,5.8957679052,0,0,0,322.6, 3.3, 3.1,0,0,1024,1024,1024,1024,0,0,0,0,340.1,1.2,0,91,4.151,4.138,0,0,0,0,4.018,82.04,21.955713629092,16.732284,6,P-GPS,
152300,2022-08-13 20:13:34,-34.9272851227581,-56.1654639316284,16.732284,16.7650924,5.256238029092,21.955713629092,17.060368,0,3.596948934,12.6711618228,25,5,8.298,21.955713629092,16.732284,3.1764548,5.8957679052,0,0,0,322.5, 3.4, 3.2,0,0,1024,1024,1024,1024,0,0,0,0,340.1,1.2,0,91,4.151,4.138,0,0,0,0,4.018,82.04,21.955713629092,16.732284,6,P-GPS,
152400,2022-08-13 20:13:34,-34.9272850871994,-56.1654640493869,16.732284,16.7650924,5.256238029092,21.955713629092,17.060368,0,3.6344489352,12.7086946324,25,5,8.298,21.955713629092,16.732284,3.1764548,5.8957679052,0,0,0,322.4, 3.1, 3.4,0,0,1024,1024,1024,1024,0,0,0,0,340.1,1.2,0,91,4.151,4.138,0,0,0,0,4.018,82.04,21.955713629092,16.732284,6,P-GPS,
152500,2022-08-13 20:13:34,-34.9272850331644,-56.1654641308479,16.732284,16.7650924,5.256238029092,21.955713629092,17.060368,0,3.6636812196,12.7400266544,25,5,8.289,21.955713629092,16.732284,3.1764548,5.8957679052,0,0,0,322.5, 3.2, 3.5,0,0,1024,1024,1024,1024,0,0,0,0,340.1,1.2,0,91,4.151,4.138,0,0,0,0,4.082,82.22,21.955713629092,16.732284,6,P-GPS,
152600,2022-08-13 20:13:34,-34.9272849728387,-56.1654642039366,16.732284,16.7650924,5.256238029092,21.955713629092,17.060368,0,3.691273084,12.7710634008,25,5,8.289,21.955713629092,16.732284,3.1764548,5.8957679052,0,0,0,322.4, 3.3, 3.5,0,0,1024,1024,1024,1024,0,0,0,0,340.1,1.2,0,91,4.151,4.138,0,0,0,0,4.082,82.22,21.955713629092,16.732284,6,P-GPS,
152700,2022-08-13 20:13:34,-34.927284748431,-56.1654643248506,16.732284,16.7650924,5.256238029092,21.955713629092,17.060368,0,3.75164054,12.860564716,25,5,8.289,21.955713629092,16.732284,3.1764548,5.8957679052,0,0,0,322.4, 3, 3.2,0,0,1024,1024,1024,1024,0,0,0,0,340.1,1.2,0,91,4.151,4.138,0,0,0,0,4.082,82.22,21.955713629092,16.732284,6,P-GPS,
152800,2022-08-13 20:13:34,-34.9272846857668,-56.165464419919,16.732284,16.7650924,5.256238029092,21.955713629092,17.060368,0,3.7859909348,12.8970476568,25,5,8.289,21.955713629092,16.732284,3.1764548,5.8957679052,0,0,0,322.5, 3.6, 3.5,0,0,1024,1024,1024,1024,0,0,0,0,340.1,1.2,0,91,4.151,4.138,0,0,0,0,4.082,82.22,21.955713629092,16.732284,6,P-GPS,
152900,2022-08-13 20:13:34,-34.9272846620925,-56.1654644805785,16.732284,16.7650924,5.256238029092,21.955713629092,17.060368,0,3.8059712504,12.917159206,25,5,8.289,21.955713629092,16.732284,3.1764548,5.8957679052,0,0,0,322.5, 3.8, 3.6,0,0,1024,1024,1024,1024,0,0,0,0,340.1,1.2,0,91,4.151,4.138,0,0,0,0,4.082,82.22,21.955713629092,16.732284,6,P-GPS,
153000,2022-08-13 20:13:34,-34.9272846496968,-56.1654645346289,16.732284,16.7650924,5.256238029092,21.955713629092,17.060368,0,3.8227363428,12.9339571068,25,5,8.289,21.955713629092,16.732284,3.1764548,5.8957679052,0,0,0,322.6, 4, 3.1,0,0,1024,1024,1024,1024,0,0,0,0,340.1,1.2,0,91,4.151,4.138,0,0,0,0,4.082,82.22,21.955713629092,16.732284,6,P-GPS,
153100,2022-08-13 20:13:34,-34.927284512984,-56.1654644826108,16.732284,16.7650924,5.256238029092,21.955713629092,17.060368,0,3.8248688888,12.9861880796,25,5,8.289,21.955713629092,16.732284,3.1764548,5.8957679052,0,0,0,322.5, 3.9, 3.1,0,0,1024,1024,1024,1024,0,0,0,0,340.1,1.2,0,91,4.151,4.138,0,0,0,0,4.082,82.22,21.955713629092,16.732284,6,P-GPS,
153200,2022-08-13 20:13:35,-34.9272844321253,-56.1654645232603,16.732284,16.732284,5.289046429092,21.955713629092,16.732284,0,3.8464896244,13.0181106528,25,5,8.289,21.955713629092,16.732284,3.1764548,5.8957679052,0,0,0,322.6, 3.4, 3.2,0,0,1024,1024,1024,1024,0,0,0,0,340.1,1.2,0,91,4.151,4.138,0,0,0,0,4.082,82.22,21.955713629092,16.732284,6,P-GPS,
153300,2022-08-13 20:13:35,-34.9272843795949,-56.1654645643539,16.732284,16.732284,5.289046429092,21.955713629092,16.732284,0,3.8647310948,13.0408796824,25,5,8.289,21.955713629092,16.732284,3.1764548,5.8957679052,0,0,0,322.5, 3.1, 3.3,0,0,1024,1024,1024,1024,0,0,0,0,340.1,1.2,0,91,4.151,4.138,0,0,0,0,4.082,82.22,21.955713629092,16.732284,6,P-GPS,
153400,2022-08-13 20:13:35,-34.927284331958,-56.1654646091099,16.732284,16.732284,5.289046429092,21.955713629092,16.732284,0,3.8833990744,13.0627956936,25,5,8.289,21.955713629092,16.732284,3.1764548,5.8957679052,0,0,0,322.5, 3.3, 3.5,0,0,1024,1024,1024,1024,0,0,0,0,340.1,1.2,0,91,4.151,4.138,0,0,0,0,4.082,82.22,21.955713629092,16.732284,6,P-GPS,
153500,2022-08-13 20:13:35,-34.92728429921,-56.1654646954297,16.732284,16.732284,5.289046429092,21.955713629092,16.732284,0,3.9117783404,13.0912733848,25,5,8.291,21.955713629092,16.732284,3.1764548,5.8957679052,0,0,0,322.5, 3.2, 3.4,0,0,1024,1024,1024,1024,0,0,0,0,340.1,1.2,0,91,4.149,4.137,0,0,0,0,3.976,82.22,21.955713629092,16.732284,6,P-GPS,
153600,2022-08-13 20:13:35,-34.9272842381711,-56.1654648427617,16.732284,16.732284,5.289046429092,21.955713629092,16.732284,0,3.9608925152,13.1406500268,25,5,8.291,21.955713629092,16.732284,3.1764548,5.8957679052,0,0,0,322.5, 3.3, 3.5,0,0,1024,1024,1024,1024,0,0,0,0,340.1,1.2,0,91,4.149,4.137,0,0,0,0,3.976,82.22,21.955713629092,16.732284,6,P-GPS,
153700,2022-08-13 20:13:35,-34.9272842040763,-56.1654648859686,16.732284,16.732284,5.289046429092,21.955713629092,16.732284,0,3.9773951404,13.1585962216,25,5,8.291,21.955713629092,16.732284,3.1764548,5.8957679052,0,0,0,322.5, 3.4, 3.8,0,0,1024,1024,1024,1024,0,0,0,0,340.1,1.2,0,91,4.149,4.137,0,0,0,0,3.976,82.22,21.955713629092,16.732284,6,P-GPS,
153800,2022-08-13 20:13:35,-34.9272841655881,-56.165464916156,16.732284,16.732284,5.289046429092,21.955713629092,16.732284,0,3.9908793928,13.1752628888,25,5,8.291,21.955713629092,16.732284,3.1764548,5.8957679052,0,0,0,322.5, 3.6, 3.8,0,0,1024,1024,1024,1024,0,0,0,0,340.1,1.2,0,91,4.149,4.137,0,0,0,0,3.976,82.22,21.955713629092,16.732284,6,P-GPS,
153900,2022-08-13 20:13:35,-34.9272841561024,-56.1654649520381,16.732284,16.732284,5.289046429092,21.955713629092,16.732284,0,4.002132674,13.1865489784,25,5,8.291,21.955713629092,16.732284,3.1764548,5.8957679052,0,0,0,322.6, 3.4, 3.7,0,0,1024,1024,1024,1024,0,0,0,0,340.1,1.2,0,91,4.149,4.137,0,0,0,0,3.976,82.22,21.955713629092,16.732284,6,P-GPS,
154000,2022-08-13 20:13:35,-34.927284190855,-56.1654648857466,16.732284,16.732284,5.289046429092,21.955713629092,16.732284,0,3.9790683688,13.2101054096,25,5,8.291,21.955713629092,16.732284,3.1764548,5.8957679052,0,0,0,322.5, 3, 3.7,0,0,1024,1024,1024,1024,0,0,0,0,340.1,1.2,0,91,4.149,4.137,0,0,0,0,3.976,82.22,21.955713629092,16.732284,6,P-GPS,
154100,2022-08-13 20:13:35,-34.9272841435927,-56.1654649273809,16.4042,16.4042,5.289046429092,21.627629629092,16.732284,0,3.9969161384,13.2313652528,25,5,8.291,21.955713629092,16.732284,3.1764548,5.8957679052,0,0,0,322.6, 3.6, 3.7,0,0,1024,1024,1024,1024,0,0,0,0,340.1,1.2,0,91,4.149,4.137,0,0,0,0,3.976,82.22,21.627629629092,16.4042,6,P-GPS,
154200,2022-08-13 20:13:35,-34.9272840704316,-56.1654649711913,16.4042,16.4042,5.289046429092,21.627629629092,16.732284,0,4.018864958,13.2610896632,25,5,8.291,21.955713629092,16.732284,3.1764548,5.8957679052,0,0,0,322.5, 4.2, 3.3,0,0,1024,1024,1024,1024,0,0,0,0,340.1,1.2,0,91,4.149,4.137,0,0,0,0,3.976,82.22,21.627629629092,16.4042,6,P-GPS,
154300,2022-08-13 20:13:36,-34.9272839863648,-56.165465003236,16.4042,16.4042,5.289046429092,21.627629629092,16.732284,0,4.0391077408,13.2932418952,25,5,8.291,21.955713629092,16.732284,3.1764548,5.8957679052,0,0,0,322.6, 4.3, 2.9,0,0,1024,1024,1024,1024,0,0,0,0,340.1,1.2,0,91,4.149,4.137,0,0,0,0,3.976,82.22,21.627629629092,16.4042,6,P-GPS,
154400,2022-08-13 20:13:36,-34.9272838287395,-56.1654650047433,16.4042,16.4042,5.289046429092,21.627629629092,17.060368,0,4.0612862192,13.3507550204,25,5,8.291,21.955713629092,16.732284,3.1764548,5.8957679052,0,0,0,322.5, 4.2, 2.7,0,0,1024,1024,1024,1024,0,0,0,0,340.1,1.2,0,91,4.149,4.137,0,0,0,0,3.976,82.22,21.627629629092,16.4042,6,P-GPS,
154500,2022-08-13 20:13:36,-34.9272837960697,-56.1654649896287,16.4042,16.4042,5.289046429092,21.627629629092,16.732284,0,4.0617127284,13.3634846796,25,5,8.284,21.955713629092,16.732284,3.1764548,5.8957679052,0,0,0,322.5, 3.7, 2.7,0,0,1024,1024,1024,1024,0,0,0,0,340.1,1.2,0,91,4.144,4.132,0,0,0,0,4.082,82.22,21.627629629092,16.4042,6,P-GPS,
154600,2022-08-13 20:13:36,-34.9272837813877,-56.1654649628033,16.4042,16.4042,5.289046429092,21.627629629092,16.732284,0,4.0563977676,13.3731303492,25,5,8.284,21.955713629092,16.732284,3.1764548,5.8957679052,0,0,0,322.5, 3.6, 2.7,0,0,1024,1024,1024,1024,0,0,0,0,340.1,1.2,0,91,4.144,4.132,0,0,0,0,4.082,82.22,21.627629629092,16.4042,6,P-GPS,
154700,2022-08-13 20:13:36,-34.9272837247862,-56.1654649684249,16.4042,16.4042,5.289046429092,21.627629629092,16.732284,0,4.0660434372,13.393865258,25,5,8.284,21.955713629092,16.732284,3.1764548,5.8957679052,0,0,0,322.5, 3.5, 2.6,0,0,1024,1024,1024,1024,0,0,0,0,340.1,1.2,0,91,4.144,4.132,0,0,0,0,4.082,82.22,21.627629629092,16.4042,6,P-GPS,
154800,2022-08-13 20:13:36,-34.9272836467039,-56.1654649233241,16.4042,16.4042,5.289046429092,21.627629629092,16.732284,0,4.06496076,13.4253941304,25,5,8.284,21.955713629092,16.732284,3.1764548,5.8957679052,0,0,0,322.5, 3.3, 2.6,0,0,1024,1024,1024,1024,0,0,0,0,340.1,1.2,0,91,4.144,4.132,0,0,0,0,4.082,82.22,21.627629629092,16.4042,6,P-GPS,
154900,2022-08-13 20:13:36,-34.9272836082385,-56.1654649321353,16.4042,16.4042,5.289046429092,21.627629629092,16.732284,0,4.0730316264,13.4396657844,25,5,8.284,21.955713629092,16.732284,3.1764548,5.8957679052,0,0,0,322.5, 3.4, 2.5,0,0,1024,1024,1024,1024,0,0,0,0,340.1,1.2,0,91,4.144,4.132,0,0,0,0,4.082,82.22,21.627629629092,16.4042,6,P-GPS,
155000,2022-08-13 20:13:36,-34.9272835806494,-56.1654649438017,16.076116,16.076116,5.289046429092,21.299545629092,16.732284,0,4.0802822828,13.4503285144,25,5,8.284,21.955713629092,16.732284,3.1764548,5.8957679052,0,0,0,322.5, 3.3, 2.7,0,0,1024,1024,1024,1024,0,0,0,0,340.1,1.2,0,91,4.144,4.132,0,0,0,0,4.082,82.22,21.299545629092,16.076116,6,P-GPS,
