time(millisecond),datetime(utc),latitude,longitude,height_above_takeoff(feet),height_above_ground_at_drone_location(feet),ground_elevation_at_drone_location(feet),altitude_above_seaLevel(feet),height_sonar(feet),speed(mph),distance(feet),mileage(feet),satellites,gpslevel,voltage(v),max_altitude(feet),max_ascent(feet),max_speed(mph),max_distance(feet), xSpeed(mph), ySpeed(mph), zSpeed(mph), compass_heading(degrees), pitch(degrees), roll(degrees),isPhoto,isVideo,rc_elevator,rc_aileron,rc_throttle,rc_rudder,rc_elevator(percent),rc_aileron(percent),rc_throttle(percent),rc_rudder(percent),gimbal_heading(degrees),gimbal_pitch(degrees),gimbal_roll(degrees),battery_percent,voltageCell1,voltageCell2,voltageCell3,voltageCell4,voltageCell5,voltageCell6,current(A),battery_temperature(f),altitude(feet),ascent(feet),flycStateRaw,flycState,message
0,2022-12-07 22:33:25,-34.911831002101,-56.1322566441965,0,0,0,0,0,0,0,0,21,5,0,0,0,0,0,-0.223694,0,0,247.8, -1.3, 3.2,0,0,364,364,364,1684,-100,-100,-100,100,260.1,0,0,100,4.34,4.336,0,0,0,0,0,80.24,0,0,41,Motors_Started,"Error de calibración del estabilizador. Reinicia la aeronave o contacta con la Asistencia DJI (Code: 40011)"
100,2022-12-07 22:33:25,-34.9118312910301,-56.132256798606,0,0,0,0,0,0.223694,0.115094163788,0.115094163788,21,5,0,0,0,0.223694,0.115094163788,-0.223694,0,0,245.5, -0.8, 1.8,0,0,364,364,364,1684,-100,-100,-100,100,257.7,0,0,100,4.34,4.336,0,0,0,0,0,80.24,0,0,41,Motors_Started,"Error de calibración del estabilizador. Reinicia la aeronave o contacta con la Asistencia DJI (Code: 40011)"
200,2022-12-07 22:33:25,-34.9118315252744,-56.1322569777031,0,0.0328084,-0.0328084,0,0,0,0.215386489832,0.215966870428,21,5,0,0,0,0.223694,0.215386489832,0,0,0,245.6, -1.6, 2.5,0,0,364,364,364,1684,-100,-100,-100,100,256.6,0,0,100,4.34,4.336,0,0,0,0,0,80.24,0,0,41,Motors_Started,
300,2022-12-07 22:33:25,-34.9118318846875,-56.1322571639906,0,0.0328084,-0.0328084,0,0.328084,0,0.35759843664,0.35845145504,21,5,0,0,0,0.223694,0.35759843664,0,0,0,244.7, -2.2, 1.5,0,0,364,364,364,1684,-100,-100,-100,100,255.9,0,0,100,4.34,4.336,0,0,0,0,0,80.24,0,0,41,Motors_Started,
400,2022-12-07 22:33:25,-34.9118322515043,-56.1322573503297,0,0.0328084,-0.0328084,0,0.328084,0,0.50242127592,0.50343177464,21,5,0,0,0,0.223694,0.50242127592,0,0,0,244.2, -2.7, -0.1,0,0,1024,1024,1024,1558,0,0,0,81,255.1,0,0,100,4.34,4.336,0,0,0,0,0,80.24,0,0,41,Motors_Started,
500,2022-12-07 22:33:26,-34.9118321509462,-56.1322574301555,0,0.0328084,-0.0328084,0,0.328084,0,0.4806102516,0.54720802276,21,5,0,0,0,0.223694,0.50242127592,0,0,0,244.2, -2.9, -0.3,0,0,1024,1024,1548,1324,0,0,79,45,254.9,0,0,100,4.34,4.336,0,0,0,0,0,80.24,0,0,41,Motors_Started,
600,2022-12-07 22:33:26,-34.9118320537045,-56.1322575012014,0,0.0328084,-0.0328084,0,0.328084,0,0.4614665502,0.58856957264,20,5,0,0,0,0.223694,0.50242127592,0,0,0,243.8, -3.9, -0.7,0,0,1024,1024,1684,1287,0,0,100,40,254.9,0,0,100,4.34,4.336,0,0,0,0,0,80.24,0,0,41,Motors_Started,
700,2022-12-07 22:33:26,-34.9118316038705,-56.1322574211292,0,0.0328084,-0.0328084,0,0.328084,0,0.31974574514,0.754429158,20,5,0,0,0,0.223694,0.50242127592,0,0,0,242.8, -4.4, 0.5,0,0,1024,1024,1684,1174,0,0,100,23,254.5,0,0,100,4.34,4.336,0,0,0,0,0,80.24,0,0,41,Motors_Started,"Setting new Return-To-Home altitude to 100m (328 ft). Data Recorder File Index is 78. Setting new Maximum Flight Altitude to 120m (394 ft)"
800,2022-12-07 22:33:26,-34.9118315602103,-56.1322573966466,0,0.0328084,-0.0328084,0,0.328084,0,0.30355315932,0.77196196696,20,5,0,0,0,0.223694,0.50242127592,0,0,0.223694,242.3, -5.6, 0.1,0,0,1024,1024,1684,1124,0,0,100,15,253.8,0,0,100,4.34,4.336,0,0,0,0,0,80.24,0,0,41,Motors_Started,
900,2022-12-07 22:33:26,-34.9118316068066,-56.1322574095446,-0.328084,-0.2952756,-0.0328084,-0.328084,0.328084,0,0.31797737238,0.78939635072,20,5,0,0,0,0.223694,0.50242127592,0,0,0.223694,241.6, -7.5, 0.5,0,0,1024,1024,1684,1082,0,0,100,9,253.3,0,0,100,4.34,4.336,0,0,0,0,0,80.24,-0.328084,-0.328084,41,Motors_Started,
1000,2022-12-07 22:33:26,-34.9118316571458,-56.1322574426718,-0.328084,-0.2952756,-0.0328084,-0.328084,0.328084,0,0.33791667748,0.81026577396,20,5,0,0,0,0.223694,0.50242127592,0,0,0.223694,240.4, -9.8, 1.1,0,0,1024,1024,1684,1024,0,0,100,0,252.2,0,0,100,4.34,4.336,0,0,0,0,0,80.24,-0.328084,-0.328084,41,Motors_Started,
1100,2022-12-07 22:33:26,-34.9118319092485,-56.1322575417489,-0.328084,-0.2952756,-0.0328084,-0.328084,0.328084,0,0.42621064356,0.90690291616,20,5,0,0,0,0.223694,0.50242127592,0,0,0.223694,240, -10.5, -0.6,0,0,1024,1024,1684,1024,0,0,100,0,251.4,0,0,100,4.34,4.336,0,0,0,0,0,80.24,-0.328084,-0.328084,10,Assisted_Takeoff,
1200,2022-12-07 22:33:26,-34.9118320033367,-56.1322575988454,-0.328084,-0.2952756,-0.0328084,-0.328084,0.328084,0,0.46370736392,0.94524609324,20,5,0,0,0,0.223694,0.50242127592,0,0,0,239.1, -10.1, 0.4,0,0,1024,1024,1684,1024,0,0,100,0,250.5,0,0,100,4.34,4.336,0,0,0,0,0,80.24,-0.328084,-0.328084,10,Assisted_Takeoff,
1300,2022-12-07 22:33:26,-34.9118321327174,-56.1322575783367,-0.328084,-0.2952756,-0.0328084,-0.328084,0.328084,0,0.49826773248,0.9928478008,20,5,0,0,0,0.223694,0.50242127592,0,0,0,240, -8.3, 1,0,0,1024,1024,1684,1024,0,0,100,0,250.5,0,0,100,4.34,4.336,0,0,0,0,0,80.24,-0.328084,-0.328084,10,Assisted_Takeoff,
1400,2022-12-07 22:33:26,-34.911832242648,-56.1322575667802,-0.328084,-0.2952756,-0.0328084,-0.328084,0.328084,0,0.53014109308,1.0331037076,20,5,0,0,0,0.223694,0.53014109308,0,0,0,239.5, -8, 1.4,0,0,1024,1024,1684,1024,0,0,100,0,250.7,0,0,100,4.34,4.336,0,0,0,0,0,80.24,-0.328084,-0.328084,10,Assisted_Takeoff,
1500,2022-12-07 22:33:27,-34.9118323637228,-56.1322575621256,-0.328084,-0.2952756,-0.0328084,-0.328084,0.328084,0,0.56764437512,1.07729990324,20,5,8.686,0,0,0.223694,0.56764437512,0,0,0,239.1, -7.4, 1.2,0,0,1024,1024,1684,1024,0,0,100,0,250.5,0,0,100,4.34,4.336,0,0,0,0,0.808,80.24,-0.328084,-0.328084,10,Assisted_Takeoff,
1600,2022-12-07 22:33:27,-34.9118323919633,-56.1322575810052,-0.328084,-0.2952756,-0.0328084,-0.328084,0.328084,0,0.579396344,1.08905187212,20,5,8.686,0,0,0.223694,0.579396344,0,0,0,239.4, -6.9, 1.3,0,0,1024,1024,1684,1024,0,0,100,0,250.4,0,0,100,4.34,4.336,0,0,0,0,0.808,80.24,-0.328084,-0.328084,10,Assisted_Takeoff,
1700,2022-12-07 22:33:27,-34.911832396794,-56.1322576405082,-0.328084,-0.2952756,-0.0328084,-0.328084,0.328084,0.223694,0.58973427084,1.10694229264,20,5,8.686,0,0,0.223694,0.58973427084,0,-0.223694,0,237.9, -6.6, 0.8,0,0,1024,1024,1684,1024,0,0,100,0,249.9,0,0,100,4.34,4.336,0,0,0,0,0.808,80.24,-0.328084,-0.328084,10,Assisted_Takeoff,
1800,2022-12-07 22:33:27,-34.911832436204,-56.1322578305068,0,0.0328084,-0.0328084,0,0.328084,0.447388,0.63225723808,1.16557746512,20,5,8.686,0,0,0.447388,0.63225723808,0,-0.447388,-0.447388,236.1, -6, -1.6,0,0,1024,1024,1684,1024,0,0,100,0,247.5,0,0,100,4.34,4.336,0,0,0,0,0.808,80.24,0,0,6,P-GPS,"Error de calibración del estabilizador. Reinicia la aeronave o contacta con la Asistencia DJI (Code: 40011)"
1900,2022-12-07 22:33:27,-34.9118325178501,-56.1322581252597,0,0.0328084,-0.0328084,0,0.328084,0.447388,0.70864831664,1.25865817676,20,5,8.686,0,0,0.447388,0.70864831664,-0.223694,-0.671082,-0.894776,236.6, 0.5, -0.2,0,0,1024,1024,1684,1024,0,0,100,0,247.3,0,0,100,4.34,4.336,0,0,0,0,0.808,80.24,0,0,6,P-GPS,
2000,2022-12-07 22:33:27,-34.9118326794349,-56.1322584823402,0,0.0328084,-0.0328084,0,0.656168,0.7158208,0.82277561688,1.38067917804,20,5,8.686,0,0,0.7158208,0.82277561688,-0.223694,-0.671082,-1.789552,236.1, 3.3, 0.5,0,0,1024,1024,1121,1024,0,0,15,0,247.3,0,0,100,4.34,4.336,0,0,0,0,0.808,80.24,0,0,6,P-GPS,
2100,2022-12-07 22:33:27,-34.9118328470352,-56.1322588806282,0.328084,0.3608924,-0.0328084,0.328084,0.984252,0.7158208,0.94911092276,1.5146161902,20,5,8.686,0.328084,0.328084,0.7158208,0.94911092276,-0.223694,-0.671082,-2.460634,236.4, 4, -0.7,0,0,1024,1024,1024,1024,0,0,0,0,247.3,0,0,100,4.34,4.336,0,0,0,0,0.808,80.24,0.328084,0.328084,6,P-GPS,
2200,2022-12-07 22:33:27,-34.9118329710249,-56.1322592263643,0.984252,1.0170604,-0.0328084,0.984252,1.312336,0.7158208,1.05493441696,1.62751645628,20,5,8.686,0.984252,0.984252,0.7158208,1.05493441696,0,-0.671082,-3.131716,236.7, 5.2, -0.3,0,0,1024,1024,1024,1024,0,0,0,0,247.3,0,0,100,4.34,4.336,0,0,0,0,0.808,80.24,0.984252,0.984252,6,P-GPS,
2300,2022-12-07 22:33:27,-34.9118330135004,-56.1322596632629,1.312336,1.3451444,-0.0328084,1.312336,2.952756,0.447388,1.16380581152,1.75914703792,20,5,8.686,1.312336,1.312336,0.7158208,1.16380581152,0,-0.447388,-3.131716,236.4, 5, -1.1,0,0,1024,1024,1024,1024,0,0,0,0,247.3,0,0,100,4.34,4.336,0,0,0,0,0.808,80.24,1.312336,1.312336,6,P-GPS,
2400,2022-12-07 22:33:27,-34.9118329818972,-56.132260393091,1.968504,2.0013124,-0.0328084,1.968504,3.608924,0.447388,1.33409453088,1.97780846224,20,5,8.686,1.968504,1.968504,0.7158208,1.33409453088,0,-0.447388,-2.908022,236.4, 4.8, -1.9,0,0,1024,1024,1024,1024,0,0,0,0,247.3,0,0,100,4.34,4.336,0,0,0,0,0.808,80.24,1.968504,1.968504,6,P-GPS,
2500,2022-12-07 22:33:27,-34.9118329874315,-56.1322608844808,2.296588,2.3293964,-0.0328084,2.296588,3.937008,0.447388,1.46086946932,2.12483930684,20,5,8.677,2.296588,2.296588,0.7158208,1.46086946932,0,-0.447388,-2.460634,236.3, 5.2, -2,0,0,1024,1024,1024,1024,0,0,0,0,247.3,0,0,100,4.281,4.273,0,0,0,0,1.624,80.24,2.296588,2.296588,6,P-GPS,
2600,2022-12-07 22:33:28,-34.9118329901388,-56.1322613435984,2.624672,2.6574804,-0.0328084,2.624672,4.265092,0.671082,1.58207682228,2.26220807764,20,5,8.677,2.624672,2.624672,0.7158208,1.58207682228,0,-0.671082,-1.789552,236.4, 5.2, -1.8,0,0,1024,1024,1024,1024,0,0,0,0,247.3,0,0,100,4.281,4.273,0,0,0,0,1.624,80.24,2.624672,2.624672,6,P-GPS,
2700,2022-12-07 22:33:28,-34.9118329841754,-56.132261757827,2.952756,2.9855644,-0.0328084,2.952756,4.593176,0.671082,1.6922408678,2.38615821284,20,5,8.677,2.952756,2.952756,0.7158208,1.6922408678,0,-0.671082,-1.342164,236.4, 5.3, -3,0,0,1024,1024,1024,1053,0,0,0,4,247.3,0,0,100,4.281,4.273,0,0,0,0,1.624,80.24,2.952756,2.952756,6,P-GPS,
2800,2022-12-07 22:33:28,-34.9118328496765,-56.1322624312236,2.952756,2.9855644,-0.0328084,2.952756,4.593176,0.671082,1.8580053088,2.5935204242,20,5,8.677,2.952756,2.952756,0.7158208,1.8580053088,0,-0.671082,-0.671082,236.3, 5.3, -3.7,0,0,1024,1024,1024,1024,0,0,0,0,247.3,0,0,100,4.281,4.273,0,0,0,0,1.624,80.24,2.952756,2.952756,6,P-GPS,"Punto de origen actualizado. Altitud de RPO establecida en 100m (Code: 3000001)"
2900,2022-12-07 22:33:28,-34.9118328585833,-56.1322628902913,2.952756,2.9855644,-0.0328084,2.952756,4.593176,0.447388,1.98772644156,2.73090888004,20,5,8.677,2.952756,2.952756,0.7158208,1.98772644156,0,-0.447388,-0.223694,236.3, 6, -3.4,0,0,1024,1024,1410,1024,0,0,58,0,247.3,0,0,100,4.281,4.273,0,0,0,0,1.624,80.24,2.952756,2.952756,6,P-GPS,
3000,2022-12-07 22:33:28,-34.9118328751438,-56.1322632824679,2.952756,2.9855644,-0.0328084,2.952756,4.92126,0.447388,2.1003773638,2.84839904128,20,5,8.677,2.952756,2.952756,0.7158208,2.1003773638,0,-0.447388,0,236.4, 5.4, -3.3,0,0,1024,1024,1684,1503,0,0,100,73,247.3,0,0,100,4.281,4.273,0,0,0,0,1.624,80.24,2.952756,2.952756,6,P-GPS,
3100,2022-12-07 22:33:28,-34.9118329772146,-56.132263518908,3.28084,3.3136484,-0.0328084,3.28084,4.92126,0.223694,2.17941936108,2.92834326956,20,5,8.677,3.28084,3.28084,0.7158208,2.17941936108,0,-0.223694,0,236.4, 4.7, -2.9,0,0,1024,1024,1684,1684,0,0,100,100,247.3,0,0,100,4.281,4.273,0,0,0,0,1.624,80.24,3.28084,3.28084,6,P-GPS,
3200,2022-12-07 22:33:28,-34.9118332007919,-56.1322637636587,3.28084,3.3136484,-0.0328084,3.28084,4.92126,0,2.27611227756,3.0379594148,20,5,8.677,3.28084,3.28084,0.7158208,2.27611227756,0,0,-0.671082,236.7, 4.4, -1.5,0,0,1024,1024,1684,1684,0,0,100,100,248.3,0,0,100,4.281,4.273,0,0,0,0,1.624,80.24,3.28084,3.28084,6,P-GPS,
3300,2022-12-07 22:33:28,-34.9118331875909,-56.1322639075431,3.608924,3.6417324,-0.0328084,3.608924,4.92126,0,2.31478353864,3.08127634532,20,5,8.677,3.608924,3.608924,0.7158208,2.31478353864,0,0,-1.342164,238.6, 4.3, -1,0,0,1024,1024,1684,1684,0,0,100,100,251.1,0,0,100,4.281,4.273,0,0,0,0,1.624,80.24,3.608924,3.608924,6,P-GPS,
3400,2022-12-07 22:33:28,-34.9118331762789,-56.1322640042299,3.937008,3.9698164,-0.0328084,3.937008,5.249344,0,2.34056109852,3.1104987872,20,5,8.677,3.937008,3.937008,0.7158208,2.34056109852,0,0,-2.013246,241.6, 4.9, -0.5,0,0,1024,1024,1684,1684,0,0,100,100,254.2,0,0,100,4.281,4.273,0,0,0,0,1.624,80.24,3.937008,3.937008,6,P-GPS,
3500,2022-12-07 22:33:28,-34.9118332626385,-56.1322639766756,4.265092,4.2979004,-0.0328084,4.265092,5.577428,0,2.34370742408,3.14306768588,20,5,8.429,4.265092,4.265092,0.7158208,2.34370742408,0,0,-2.684328,244.9, 4.7, 0.3,0,0,1096,1024,1684,1684,11,0,100,100,257.4,0,0,100,4.284,4.283,0,0,0,0,4.876,80.24,4.265092,4.265092,6,P-GPS,
3600,2022-12-07 22:33:29,-34.9118334263574,-56.1322635992993,4.593176,4.6259844,-0.0328084,4.593176,6.233596,0,2.26106634532,3.2708006296,20,5,8.429,4.593176,4.593176,0.7158208,2.34370742408,0,0,-3.35541,248.4, 4.3, 0.4,0,0,1684,1024,1684,1684,100,0,100,100,260.6,0,0,100,4.284,4.283,0,0,0,0,4.876,80.24,4.593176,4.593176,6,P-GPS,
3700,2022-12-07 22:33:29,-34.9118334767553,-56.1322635032216,5.249344,5.2821524,-0.0328084,5.249344,6.56168,0,2.24198169904,3.3049213656,20,5,8.429,5.249344,5.249344,0.7158208,2.34370742408,0,0,-4.026492,251.8, -4.3, 0.1,0,0,1684,1024,1684,1684,100,0,100,100,263.8,0,0,100,4.284,4.283,0,0,0,0,4.876,80.24,5.249344,5.249344,6,P-GPS,
3800,2022-12-07 22:33:29,-34.9118335492789,-56.1322635485726,5.905512,5.9383204,-0.0328084,5.905512,7.545932,0.447388,2.26513458692,3.334645776,20,5,8.429,5.905512,5.905512,0.7158208,2.34370742408,0,-0.447388,-4.921268,255.3, -11.2, -0.4,0,0,1684,998,1684,1657,100,-4,100,96,267,0,0,100,4.284,4.283,0,0,0,0,4.876,80.24,5.905512,5.905512,6,P-GPS,
3900,2022-12-07 22:33:29,-34.911833679076,-56.1322639936679,6.56168,6.5944884,-0.0328084,6.56168,8.2021,1.1408394,2.40603354156,3.4759843632,20,5,8.429,6.56168,6.56168,1.1408394,2.40603354156,-0.223694,-1.11847,-5.59235,258.6, -11.9, -0.2,0,0,1684,1024,1024,1024,100,0,0,0,270.2,0,0,100,4.284,4.283,0,0,0,0,4.876,80.24,6.56168,6.56168,6,P-GPS,
4000,2022-12-07 22:33:29,-34.911833860788,-56.1322647734884,7.545932,7.5787404,-0.0328084,7.545932,9.186352,2.0579848,2.6463911608,3.7185368644,21,5,8.429,7.545932,7.545932,2.0579848,2.6463911608,-0.447388,-2.013246,-6.039738,261.7, -10.3, 0.4,0,0,1684,1024,1024,1024,100,0,0,0,272.7,0,0,100,4.284,4.283,0,0,0,0,4.876,80.24,7.545932,7.545932,6,P-GPS,
4100,2022-12-07 22:33:29,-34.9118340692158,-56.1322660437749,8.530184,8.5629924,-0.0328084,8.530184,9.84252,2.7290668,3.02671269528,4.106135302,21,5,8.429,8.530184,8.530184,2.7290668,3.02671269528,-0.447388,-2.684328,-5.816044,263.8, -9.9, 1,0,0,1684,1024,1024,1024,100,0,0,0,274,0,0,100,4.284,4.283,0,0,0,0,4.876,80.24,8.530184,8.530184,6,P-GPS,
4200,2022-12-07 22:33:29,-34.9118342857345,-56.1322673952002,9.186352,9.2191604,-0.0328084,9.186352,10.498688,3.1540854,3.4324476164,4.5181103808,21,5,8.429,9.186352,9.186352,3.1540854,3.4324476164,-0.447388,-3.131716,-5.144962,264.6, -11.2, 0.7,0,0,1684,1024,1024,1024,100,0,0,0,274.2,0,0,100,4.284,4.283,0,0,0,0,4.876,80.24,9.186352,9.186352,6,P-GPS,
4300,2022-12-07 22:33:29,-34.9118345806242,-56.1322690462374,9.84252,9.9081368,-0.0656168,9.84252,11.154856,3.8251674,3.933563118,5.0236550164,21,5,8.429,9.84252,9.84252,3.8251674,3.933563118,-0.447388,-3.802798,-4.47388,264.9, -12, 1,0,0,1684,1024,1083,1024,100,0,9,0,274.2,0,0,100,4.284,4.283,0,0,0,0,4.876,80.24,9.84252,9.84252,6,P-GPS,
4400,2022-12-07 22:33:29,-34.9118348664751,-56.132270835812,10.498688,10.5643048,-0.0656168,10.498688,11.811024,4.4962494,4.4739502744,5.5691602832,21,5,8.429,10.498688,10.498688,4.4962494,4.4739502744,-0.447388,-4.47388,-3.579104,265, -12.2, 1.2,0,0,1684,1024,1571,1024,100,0,83,0,274.2,0,0,100,4.284,4.283,0,0,0,0,4.876,80.24,10.498688,10.498688,6,P-GPS,
4500,2022-12-07 22:33:30,-34.9118352610512,-56.1322737544846,10.826772,10.8923888,-0.0656168,10.826772,12.467192,4.9436374,5.3498361292,6.4541668732,21,5,8.491,10.826772,10.826772,4.9436374,5.3498361292,-0.447388,-4.921268,-2.908022,265, -13, 1.1,0,0,1684,1024,1684,1024,100,0,100,0,274.2,0,0,100,4.209,4.206,0,0,0,0,3.854,80.24,10.826772,10.826772,6,P-GPS,
4600,2022-12-07 22:33:30,-34.9118355187581,-56.132276269321,11.48294,11.5485568,-0.0656168,11.48294,12.795276,5.6147194,6.0984910088,7.212434614,21,5,8.491,11.48294,11.48294,5.6147194,6.0984910088,-0.447388,-5.59235,-3.131716,265.1, -11.9, 0.7,0,0,1684,1024,1684,1024,100,0,100,0,274.2,0,0,100,4.209,4.206,0,0,0,0,3.854,80.24,11.48294,11.48294,6,P-GPS,
4700,2022-12-07 22:33:30,-34.911835800551,-56.1322792338617,11.811024,11.8766408,-0.0656168,11.811024,13.451444,6.2858014,6.98162752,8.10531522,21,5,8.491,11.811024,11.811024,6.2858014,6.98162752,-0.447388,-6.263432,-3.802798,265.3, -8.8, 0.7,0,0,1684,1024,1684,1024,100,0,100,0,274.2,0,0,100,4.209,4.206,0,0,0,0,3.854,80.24,11.811024,11.811024,6,P-GPS,
4800,2022-12-07 22:33:30,-34.9118360684956,-56.1322823227847,12.467192,12.5328088,-0.0656168,12.467192,14.107612,6.7331894,7.9020015652,9.0346459584,21,5,8.491,12.467192,12.467192,6.7331894,7.9020015652,-0.447388,-6.71082,-4.250186,265.4, -7.2, 0.5,0,0,1684,1024,1684,1024,100,0,100,0,274.2,0,0,100,4.209,4.206,0,0,0,0,3.854,80.24,12.467192,12.467192,6,P-GPS,
4900,2022-12-07 22:33:30,-34.9118362473903,-56.1322860490425,13.12336,13.1889768,-0.0656168,13.12336,14.76378,7.1805774,9.0033467448,10.151411086,21,5,8.491,13.12336,13.12336,7.1805774,9.0033467448,-0.447388,-7.158208,-5.144962,265.5, -6.8, 0.3,0,0,1684,1024,1684,1024,100,0,100,0,274.2,0,0,100,4.209,4.206,0,0,0,0,3.854,80.24,13.12336,13.12336,6,P-GPS,
5000,2022-12-07 22:33:30,-34.9118364641537,-56.1322895281787,14.107612,14.1732288,-0.0656168,14.107612,15.748032,7.6279654,10.0383205312,11.1953415656,21,5,8.491,14.107612,14.107612,7.6279654,10.0383205312,-0.447388,-7.605596,-5.816044,265.7, -6.7, 0.4,0,0,1684,1024,1684,1024,100,0,100,0,274.2,0,0,100,4.209,4.206,0,0,0,0,3.854,80.24,14.107612,14.107612,6,P-GPS,
5100,2022-12-07 22:33:30,-34.9118367281355,-56.1322934539896,15.091864,15.1574808,-0.0656168,15.091864,16.732284,7.8516594,11.209481986,12.373852102,21,5,8.491,15.091864,15.091864,7.8516594,11.209481986,-0.447388,-7.82929,-6.263432,265.9, -6.7, 0.6,0,0,1684,1024,1684,1024,100,0,100,0,274.2,0,0,100,4.209,4.206,0,0,0,0,3.854,80.24,15.091864,15.091864,6,P-GPS,
5200,2022-12-07 22:33:30,-34.9118369816293,-56.1322973394094,15.748032,15.8136488,-0.0656168,15.748032,17.716536,8.2990474,12.3694557764,13.5399938716,21,5,8.491,15.748032,15.748032,8.2990474,12.3694557764,-0.447388,-8.276678,-6.487126,266, -6.8, 0.7,0,0,1684,1024,1684,1024,100,0,100,0,274.2,0,0,100,4.209,4.206,0,0,0,0,3.854,80.24,15.748032,15.748032,6,P-GPS,
5300,2022-12-07 22:33:30,-34.9118372535141,-56.1323015947279,16.732284,16.7979008,-0.0656168,16.732284,18.700788,8.2990474,13.640748468,14.8169952248,21,5,8.491,16.732284,16.732284,8.2990474,13.640748468,-0.447388,-8.500372,-6.487126,266.1, -7.4, 0.6,0,0,1684,1024,1684,1024,100,0,100,0,274.2,0,0,100,4.209,4.206,0,0,0,0,3.854,80.24,16.732284,16.732284,6,P-GPS,
5400,2022-12-07 22:33:30,-34.911837509148,-56.1323056772432,17.716536,17.8149612,-0.0984252,17.716536,19.68504,8.7464354,14.8609912892,16.041995264,21,5,8.491,17.716536,17.716536,8.7464354,14.8609912892,-0.447388,-8.724066,-6.487126,266.2, -7.7, 0.6,0,0,1684,1024,1684,1024,100,0,100,0,274.2,0,0,100,4.209,4.206,0,0,0,0,3.854,80.24,17.716536,17.716536,6,P-GPS,
5500,2022-12-07 22:33:30,-34.911837771814,-56.132310067664,18.700788,18.7992132,-0.0984252,18.700788,20.669292,9.171454,16.1734257144,17.3590556736,21,5,8.513,18.700788,18.700788,9.171454,16.1734257144,-0.447388,-9.171454,-6.71082,266.4, -8, 0.6,0,0,1684,1024,1684,1024,100,0,100,0,274.2,0,0,99,4.218,4.218,0,0,0,0,5.272,80.24,18.700788,18.700788,6,P-GPS,
5600,2022-12-07 22:33:31,-34.9118380217547,-56.1323143940021,19.68504,19.7834652,-0.0984252,19.68504,21.653544,9.395148,17.466864076,18.6566278936,21,5,8.513,19.68504,19.68504,9.395148,17.466864076,-0.223694,-9.395148,-6.487126,268.9, -8.2, 0.7,0,0,1684,1024,1684,1024,100,0,100,0,274.2,0,0,99,4.218,4.218,0,0,0,0,5.272,80.24,19.68504,19.68504,6,P-GPS,
5700,2022-12-07 22:33:31,-34.9118383281403,-56.1323191077093,20.669292,20.7677172,-0.0984252,20.669292,22.309712,9.842536,18.8785767196,20.07135891,21,5,8.513,20.669292,20.669292,9.842536,18.8785767196,-0.223694,-9.842536,-6.487126,269, -8.1, 0.5,0,0,1684,1024,1684,1024,100,0,100,0,274.2,0,0,99,4.218,4.218,0,0,0,0,5.272,80.24,20.669292,20.669292,6,P-GPS,
5800,2022-12-07 22:33:31,-34.9118386048891,-56.1323234702729,21.981628,22.0800532,-0.0984252,21.981628,23.293964,10.06623,20.1851056328,21.3804796868,21,5,8.513,21.981628,21.981628,10.06623,20.1851056328,-0.223694,-10.06623,-6.487126,269, -8, 0.6,0,0,1684,1024,1684,1024,100,0,100,0,274.2,0,0,99,4.218,4.218,0,0,0,0,5.272,80.24,21.981628,21.981628,6,P-GPS,
5900,2022-12-07 22:33:31,-34.911838917581,-56.1323286573864,22.96588,23.0643052,-0.0984252,22.96588,24.278216,10.289924,21.7382224804,22.9366149072,21,5,8.513,22.96588,22.96588,10.289924,21.7382224804,-0.223694,-10.289924,-6.487126,269, -7.8, 0.5,0,0,1684,1024,1684,1024,100,0,100,0,274.2,0,0,99,4.218,4.218,0,0,0,0,5.272,80.24,22.96588,22.96588,6,P-GPS,
6000,2022-12-07 22:33:31,-34.9118392161423,-56.1323337354475,23.950132,24.0485572,-0.0984252,23.950132,25.262468,10.289924,23.2587277784,24.459810494,21,5,8.513,23.950132,23.950132,10.289924,23.2587277784,-0.223694,-10.513618,-6.487126,269, -7.7, 0.6,0,0,1684,1024,1684,1024,100,0,100,0,274.2,0,0,99,4.218,4.218,0,0,0,0,5.272,80.24,23.950132,23.950132,6,P-GPS,
6100,2022-12-07 22:33:31,-34.9118395296867,-56.1323391659895,24.934384,25.0328092,-0.0984252,24.934384,26.24672,10.961006,24.8848761244,26.088583512,21,5,8.513,24.934384,24.934384,10.961006,24.8848761244,-0.223694,-10.961006,-6.487126,269, -7.6, 0.7,0,0,1684,1024,1684,1024,100,0,100,0,274.2,0,0,99,4.218,4.218,0,0,0,0,5.272,80.24,24.934384,24.934384,6,P-GPS,
6200,2022-12-07 22:33:31,-34.9118399703226,-56.1323445692489,25.918636,26.0170612,-0.0984252,25.918636,27.230972,11.1847,26.5088919244,27.7131570548,21,5,8.513,25.918636,25.918636,11.1847,26.5088919244,-0.223694,-11.1847,-6.487126,269, -7.5, 0.7,0,0,1684,1024,1684,1024,100,0,100,0,274.2,0,0,99,4.218,4.218,0,0,0,0,5.272,80.24,25.918636,25.918636,6,P-GPS,
6300,2022-12-07 22:33:31,-34.9118402730353,-56.1323502792463,26.902888,27.0013132,-0.0984252,26.902888,28.215224,11.408394,28.218012714,29.4250665584,21,5,8.513,26.902888,26.902888,11.408394,28.218012714,-0.223694,-11.408394,-6.487126,269, -7.5, 0.6,0,0,1684,1024,1684,1024,100,0,100,0,274.2,0,0,99,4.218,4.218,0,0,0,0,5.272,80.24,26.902888,26.902888,6,P-GPS,
6400,2022-12-07 22:33:31,-34.9118405561342,-56.132355836397,27.88714,28.0183736,-0.1312336,27.88714,29.199476,11.632088,29.8812017436,31.0909130684,21,5,8.513,27.88714,27.88714,11.632088,29.8812017436,-0.223694,-11.632088,-6.487126,269, -7.4, 0.6,0,0,1684,1024,1684,1024,100,0,100,0,274.2,0,0,99,4.218,4.218,0,0,0,0,5.272,80.24,27.88714,27.88714,6,P-GPS,
6500,2022-12-07 22:33:31,-34.9118408448762,-56.1323617989903,28.871392,29.0026256,-0.1312336,28.871392,30.183728,12.079476,31.6654209608,32.877953808,21,5,8.425,28.871392,28.871392,12.079476,31.6654209608,-0.223694,-12.079476,-6.487126,269, -7.2, 0.5,0,0,1684,1024,1684,1024,100,0,100,0,274.2,0,0,99,4.226,4.224,0,0,0,0,5.608,80.24,28.871392,28.871392,6,P-GPS,
6600,2022-12-07 22:33:32,-34.9118412021566,-56.1323675119391,29.855644,29.9868776,-0.1312336,29.855644,31.16798,12.079476,33.378609992,34.592192708,21,5,8.425,29.855644,29.855644,12.079476,33.378609992,-0.447388,-12.079476,-6.487126,269, -7, 0.6,0,0,1684,1016,1684,1024,100,-1,100,0,274.2,0,0,99,4.226,4.224,0,0,0,0,5.608,80.24,29.855644,29.855644,6,P-GPS,
6700,2022-12-07 22:33:32,-34.9118414963088,-56.1323737754619,31.16798,31.2992136,-0.1312336,31.16798,32.152232,12.30317,35.252953884,36.469161272,21,5,8.425,31.16798,31.16798,12.30317,35.252953884,-0.447388,-12.30317,-6.487126,269, -6.9, 0.9,0,0,1684,1024,1684,1024,100,0,100,0,274.2,0,0,99,4.226,4.224,0,0,0,0,5.608,80.24,31.16798,31.16798,6,P-GPS,
6800,2022-12-07 22:33:32,-34.9118417697911,-56.1323798404788,32.152232,32.2834656,-0.1312336,32.152232,33.136484,12.526864,37.067586488,38.286418548,21,5,8.425,32.152232,32.152232,12.526864,37.067586488,-0.447388,-12.526864,-6.487126,269, -6.9, 1,0,0,1684,1024,1684,978,100,0,100,-7,274.2,0,0,99,4.226,4.224,0,0,0,0,5.608,80.24,32.152232,32.152232,6,P-GPS,
6900,2022-12-07 22:33:32,-34.9118420524785,-56.1323862719705,33.136484,33.2677176,-0.1312336,33.136484,34.120736,12.750558,38.992127232,40.213583964,21,5,8.425,33.136484,33.136484,12.750558,38.992127232,-0.447388,-12.750558,-6.487126,268.9, -7.1, 1.1,0,0,1684,1024,1684,1013,100,0,100,-2,274.2,0,0,99,4.226,4.224,0,0,0,0,5.608,80.24,33.136484,33.136484,6,P-GPS,
7000,2022-12-07 22:33:32,-34.9118423676551,-56.1323923561579,34.120736,34.2519696,-0.1312336,34.120736,35.104988,12.974252,40.814633852,42.03740292,21,5,8.425,34.120736,34.120736,12.974252,40.814633852,-0.447388,-12.974252,-6.487126,268.9, -6.9, 0.9,0,0,1684,1024,1684,1024,100,0,100,0,274.1,0,0,99,4.226,4.224,0,0,0,0,5.608,80.24,34.120736,34.120736,6,P-GPS,
7100,2022-12-07 22:33:32,-34.9118426458183,-56.1323990148851,35.104988,35.2362216,-0.1312336,35.104988,36.08924,13.197946,42.807087984,44.03215364,21,5,8.425,35.104988,35.104988,13.197946,42.807087984,-0.447388,-13.197946,-6.487126,268.8, -7, 1.2,0,0,1684,1024,1684,1024,100,0,100,0,274,0,0,99,4.226,4.224,0,0,0,0,5.608,80.24,35.104988,35.104988,6,P-GPS,
7200,2022-12-07 22:33:32,-34.9118429033329,-56.1324054493542,36.08924,36.2204736,-0.1312336,36.08924,37.073492,13.42164,44.731956812,45.95964714,21,5,8.425,36.08924,36.08924,13.42164,44.731956812,-0.447388,-13.42164,-6.487126,268.7, -6.8, 1.2,0,0,1684,1003,1684,1017,100,-3,100,-1,274,0,0,99,4.226,4.224,0,0,0,0,5.608,80.24,36.08924,36.08924,6,P-GPS,
7300,2022-12-07 22:33:32,-34.9118431694785,-56.132412336675,37.073492,37.2047256,-0.1312336,37.073492,38.057744,13.645334,46.792652416,48.022639332,21,5,8.425,37.073492,37.073492,13.645334,46.792652416,-0.447388,-13.645334,-6.487126,268.7, -6.5, 1.2,0,0,1684,1003,1684,1017,100,-3,100,-1,274,0,0,99,4.226,4.224,0,0,0,0,5.608,80.24,37.073492,37.073492,6,P-GPS,
7400,2022-12-07 22:33:32,-34.9118434153943,-56.1324189654502,38.057744,38.1889776,-0.1312336,38.057744,39.041996,13.869028,48.775264028,50.007875616,21,5,8.425,38.057744,38.057744,13.869028,48.775264028,-0.447388,-13.869028,-6.487126,268.7, -6.5, 1.2,0,0,1684,845,1684,1013,100,-27,100,-2,274,0,0,99,4.226,4.224,0,0,0,0,5.608,80.24,38.057744,38.057744,6,P-GPS,
7500,2022-12-07 22:33:33,-34.9118435847285,-56.1324257326708,39.041996,39.206038,-0.164042,39.041996,40.026248,14.092722,50.79724572,52.033466232,21,5,8.441,39.041996,39.041996,14.092722,50.79724572,-0.447388,-14.092722,-6.487126,268.7, -6.4, 0.6,0,0,1684,1024,1684,1008,100,0,100,-2,274,0,0,99,4.219,4.216,0,0,0,0,5.179,80.24,39.041996,39.041996,6,P-GPS,
7600,2022-12-07 22:33:33,-34.9118437900087,-56.1324324455872,40.026248,40.19029,-0.164042,40.026248,41.0105,14.092722,52.804463632,54.043308816,21,5,8.441,40.026248,40.026248,14.092722,52.804463632,-0.447388,-14.092722,-6.487126,268.7, -6.3, -0.2,0,0,1684,1024,1684,1010,100,0,100,-2,274,0,0,99,4.219,4.216,0,0,0,0,5.179,80.24,40.026248,40.026248,6,P-GPS,
7700,2022-12-07 22:33:33,-34.9118440881039,-56.1324399228572,41.0105,41.174542,-0.164042,41.0105,41.994752,14.316416,55.042324596,56.283138284,21,5,8.441,41.0105,41.0105,14.316416,55.042324596,-0.447388,-14.316416,-6.487126,268.8, -6.4, 0.8,0,0,1684,1024,1684,1011,100,0,100,-2,274,0,0,99,4.219,4.216,0,0,0,0,5.179,80.24,41.0105,41.0105,6,P-GPS,
7800,2022-12-07 22:33:33,-34.911844374178,-56.132447076423,41.994752,42.158794,-0.164042,41.994752,41.994752,14.54011,57.183728864,58.425854888,21,5,8.441,41.994752,41.994752,14.54011,57.183728864,-0.447388,-14.54011,-6.487126,268.7, -6.6, 1.3,0,0,1684,1024,1684,1012,100,0,100,-2,274,0,0,99,4.219,4.216,0,0,0,0,5.179,80.24,41.994752,41.994752,6,P-GPS,
7900,2022-12-07 22:33:33,-34.9118447249399,-56.1324545280244,42.979004,43.143046,-0.164042,42.979004,41.994752,14.54011,59.4160124,60.659122676,21,5,8.441,42.979004,42.979004,14.54011,59.4160124,-0.447388,-14.54011,-6.487126,268.7, -6.5, 1.3,0,0,1684,1024,1684,1012,100,0,100,-2,274,0,0,99,4.219,4.216,0,0,0,0,5.179,80.24,42.979004,42.979004,6,P-GPS,
8000,2022-12-07 22:33:33,-34.911844967655,-56.1324615148331,43.963256,44.127298,-0.164042,43.963256,41.994752,14.763804,61.506563648,62.751314344,21,5,8.441,43.963256,43.963256,14.763804,61.506563648,-0.447388,-14.763804,-6.487126,268.7, -6.2, 1.1,0,0,1684,1024,1684,1012,100,0,100,-2,274,0,0,99,4.219,4.216,0,0,0,0,5.179,80.24,43.963256,43.963256,6,P-GPS,
8100,2022-12-07 22:33:33,-34.9118451708408,-56.132469028198,44.947508,45.11155,-0.164042,44.947508,41.994752,14.987498,63.752954796,65.000330164,21,5,8.441,44.947508,44.947508,14.987498,63.752954796,-0.447388,-14.987498,-6.487126,268.7, -6.1, 0.9,0,0,1684,1024,1684,1012,100,0,100,-2,274,0,0,99,4.219,4.216,0,0,0,0,5.179,80.24,44.947508,44.947508,6,P-GPS,
8200,2022-12-07 22:33:33,-34.9118453643908,-56.1324762374887,45.93176,46.095802,-0.164042,45.93176,41.994752,14.987498,65.908466676,67.158466716,21,5,8.441,45.93176,45.93176,14.987498,65.908466676,-0.447388,-14.987498,-6.487126,268.7, -6, 1,0,0,1684,1024,1684,1012,100,0,100,-2,274,0,0,99,4.219,4.216,0,0,0,0,5.179,80.24,45.93176,45.93176,6,P-GPS,
8300,2022-12-07 22:33:33,-34.911845556471,-56.1324839824873,46.916012,47.1128624,-0.1968504,46.916012,41.994752,15.211192,68.224083548,69.47670826,21,5,8.441,46.916012,46.916012,15.211192,68.224083548,-0.447388,-15.211192,-6.71082,268.7, -5.8, 1,0,0,1684,1024,1684,1011,100,0,100,-2,274,0,0,99,4.219,4.216,0,0,0,0,5.179,80.24,46.916012,46.916012,6,P-GPS,
8400,2022-12-07 22:33:33,-34.9118457861606,-56.1324913459985,47.900264,48.0971144,-0.1968504,47.900264,41.994752,14.987498,70.427167608,71.68143274,21,5,8.441,47.900264,47.900264,15.211192,70.427167608,-0.447388,-14.987498,-6.487126,268.7, -5.9, 1.1,0,0,1684,1024,1684,1011,100,0,100,-2,274,0,0,99,4.219,4.216,0,0,0,0,5.179,80.24,47.900264,47.900264,6,P-GPS,
8500,2022-12-07 22:33:34,-34.9118460423474,-56.1324989270398,48.884516,49.0813664,-0.1968504,48.884516,41.994752,15.211192,72.695868468,73.951445936,21,5,8.428,48.884516,48.884516,15.211192,72.695868468,-0.447388,-15.211192,-6.487126,268.7, -6.4, 1.4,0,0,1684,1024,1684,1011,100,0,100,-2,274,0,0,99,4.213,4.209,0,0,0,0,5.311,80.42,48.884516,48.884516,6,P-GPS,
8600,2022-12-07 22:33:34,-34.9118462787393,-56.1325061952942,49.868768,50.0656184,-0.1968504,49.868768,41.994752,15.434886,74.870737304,76.127955192,21,5,8.428,49.868768,49.868768,15.434886,74.870737304,-0.447388,-15.434886,-6.487126,268.7, -6.4, 1.5,0,0,1684,1024,1684,1011,100,0,100,-2,274,0,0,99,4.213,4.209,0,0,0,0,5.311,80.42,49.868768,49.868768,6,P-GPS,
8700,2022-12-07 22:33:34,-34.9118462439895,-56.1325141174133,50.85302,51.0826788,-0.2296588,50.85302,41.994752,15.65858,77.233598272,78.498034008,21,5,8.428,50.85302,50.85302,15.65858,77.233598272,-0.447388,-15.65858,-6.487126,268.7, -6.2, 1.4,0,0,1684,1024,1684,1011,100,0,100,-2,274,0,0,99,4.213,4.209,0,0,0,0,5.311,80.42,50.85302,50.85302,6,P-GPS,
8800,2022-12-07 22:33:34,-34.9118463724774,-56.1325216853539,51.837272,52.0997392,-0.2624672,51.837272,41.994752,15.65858,79.495409368,80.76279786,21,5,8.428,51.837272,51.837272,15.65858,79.495409368,-0.447388,-15.65858,-6.487126,268.7, -6.1, 1.2,0,0,1684,1024,1684,1011,100,0,100,-2,274,0,0,99,4.213,4.209,0,0,0,0,5.311,80.42,51.837272,51.837272,6,P-GPS,
8900,2022-12-07 22:33:34,-34.9118465743292,-56.132529465225,53.149608,53.477692,-0.328084,53.149608,41.994752,15.882274,81.82250918,83.091538092,21,5,8.428,53.149608,53.149608,15.882274,81.82250918,-0.223694,-15.882274,-6.71082,268.7, -6.1, 1.1,0,0,1684,1024,1684,1011,100,0,100,-2,274,0,0,99,4.213,4.209,0,0,0,0,5.311,80.42,53.149608,53.149608,6,P-GPS,
9000,2022-12-07 22:33:34,-34.9118467658496,-56.1325369359028,54.13386,54.4947524,-0.3608924,54.13386,41.994752,16.105968,84.057089304,85.327758636,21,5,8.428,54.13386,54.13386,16.105968,84.057089304,-0.223694,-16.105968,-6.71082,268.7, -5.9, 1,0,0,1684,1024,1684,1011,100,0,100,-2,274,0,0,99,4.213,4.209,0,0,0,0,5.311,80.42,54.13386,54.13386,6,P-GPS,
9100,2022-12-07 22:33:34,-34.9118469665032,-56.1325453892166,55.118112,55.5118128,-0.3937008,55.118112,41.994752,16.105968,86.585304608,87.857942444,21,5,8.428,55.118112,55.118112,16.105968,86.585304608,-0.223694,-16.105968,-6.71082,268.8, -5.6, 0.7,0,0,1684,1024,1684,1010,100,0,100,-2,274,0,0,99,4.213,4.209,0,0,0,0,5.311,80.42,55.118112,55.118112,6,P-GPS,
9200,2022-12-07 22:33:34,-34.9118471917122,-56.1325539677496,56.102364,56.5288732,-0.4265092,56.102364,41.994752,16.105968,89.15190574,90.425855912,21,5,8.428,56.102364,56.102364,16.105968,89.15190574,-0.447388,-16.105968,-6.487126,268.7, -5.8, 0.9,0,0,1684,1024,1684,1010,100,0,100,-2,274,0,0,99,4.213,4.209,0,0,0,0,5.311,80.42,56.102364,56.102364,6,P-GPS,
9300,2022-12-07 22:33:34,-34.9118474158581,-56.1325621681593,57.086616,57.5459336,-0.4593176,57.086616,41.994752,16.105968,91.605317892,92.880908484,21,5,8.428,57.086616,57.086616,16.105968,91.605317892,-0.223694,-16.105968,-6.71082,268.7, -6, 1.2,0,0,1684,1024,1684,1010,100,0,100,-2,274,0,0,99,4.213,4.209,0,0,0,0,5.311,80.42,57.086616,57.086616,6,P-GPS,
9400,2022-12-07 22:33:34,-34.9118476241768,-56.1325700021047,58.070868,58.562994,-0.492126,58.070868,41.994752,16.329662,93.949149988,95.225724832,21,5,8.428,58.070868,58.070868,16.329662,93.949149988,-0.223694,-16.329662,-6.71082,268.7, -5.8, 1,0,0,1684,1024,1684,1010,100,0,100,-2,274,0,0,99,4.213,4.209,0,0,0,0,5.311,80.42,58.070868,58.070868,6,P-GPS,
9500,2022-12-07 22:33:34,-34.9118477546706,-56.1325783651344,59.05512,59.5800544,-0.5249344,59.05512,41.994752,16.329662,96.449150068,97.728349584,21,5,8.42,59.05512,59.05512,16.329662,96.449150068,-0.223694,-16.553356,-6.71082,268.7, -5.8, 0.7,0,0,1684,1024,1684,1010,100,0,100,-2,274,0,0,99,4.209,4.207,0,0,0,0,5.322,80.42,59.05512,59.05512,6,P-GPS,
9600,2022-12-07 22:33:35,-34.9118476196351,-56.1325867483479,60.039372,60.5971148,-0.5577428,60.039372,41.994752,16.77705,98.949478232,100.237207932,21,5,8.42,60.039372,60.039372,16.77705,98.949478232,-0.223694,-16.77705,-6.71082,268.7, -5.6, 0.5,0,0,1684,1024,1684,1010,100,0,100,-2,274,0,0,99,4.209,4.207,0,0,0,0,5.322,80.42,60.039372,60.039372,6,P-GPS,
9700,2022-12-07 22:33:35,-34.9118477075825,-56.1325953219708,61.023624,61.6141752,-0.5905512,61.023624,41.994752,16.77705,101.511814272,102.802496728,21,5,8.42,61.023624,61.023624,16.77705,101.511814272,-0.223694,-16.77705,-6.487126,268.8, -4.9, 0.4,0,0,1684,1024,1684,1010,100,0,100,-2,274,0,0,99,4.209,4.207,0,0,0,0,5.322,80.42,61.023624,61.023624,6,P-GPS,
9800,2022-12-07 22:33:35,-34.9118478010161,-56.1326034834963,62.007876,62.6312356,-0.6233596,62.007876,41.994752,16.553356,103.951118812,105.24442594,21,5,8.42,62.007876,62.007876,16.77705,103.951118812,-0.223694,-16.553356,-6.487126,268.7, -4.9, 0.3,0,0,1684,1024,1684,1008,100,0,100,-2,274,0,0,99,4.209,4.207,0,0,0,0,5.322,80.42,62.007876,62.007876,6,P-GPS,
9900,2022-12-07 22:33:35,-34.9118479631146,-56.1326118260705,62.992128,63.648296,-0.656168,62.992128,41.994752,16.553356,106.446525716,107.74114518,21,5,8.42,62.992128,62.992128,16.77705,106.446525716,-0.223694,-16.553356,-6.487126,268.8, -5.5, 0.8,0,0,1684,1024,1684,1008,100,0,100,-2,274,0,0,99,4.209,4.207,0,0,0,0,5.322,80.42,62.992128,62.992128,6,P-GPS,
10000,2022-12-07 22:33:35,-34.9118480868617,-56.1326196136933,63.97638,64.6653564,-0.6889764,63.97638,41.994752,16.553356,108.775265948,110.071525832,21,5,8.42,63.97638,63.97638,16.77705,108.775265948,-0.447388,-16.553356,-6.487126,268.8, -5.5, 0.9,0,0,1684,1024,1684,1008,100,0,100,-2,274,0,0,99,4.209,4.207,0,0,0,0,5.322,80.42,63.97638,63.97638,6,P-GPS,
10100,2022-12-07 22:33:35,-34.9118482976581,-56.1326278522141,64.960632,65.6824168,-0.7217848,64.960632,41.994752,16.553356,111.240489124,112.53773326,21,5,8.42,64.960632,64.960632,16.77705,111.240489124,-0.447388,-16.553356,-6.487126,268.8, -5.9, 1.2,0,0,1684,1024,1684,1008,100,0,100,-2,274,0,0,99,4.209,4.207,0,0,0,0,5.322,80.42,64.960632,64.960632,6,P-GPS,
10200,2022-12-07 22:33:35,-34.911848490772,-56.1326357464394,65.6168,66.3713932,-0.7545932,65.6168,41.994752,16.553356,113.60236584,114.900594228,21,5,8.42,65.6168,65.6168,16.77705,113.60236584,-0.447388,-16.553356,-6.487126,268.7, -6, 1.1,0,0,1684,1024,1684,1008,100,0,100,-2,274,0,0,99,4.209,4.207,0,0,0,0,5.322,80.42,65.6168,65.6168,6,P-GPS,
10300,2022-12-07 22:33:35,-34.9118486350017,-56.1326443964934,66.601052,67.3884536,-0.7874016,66.601052,41.994752,16.77705,116.18930818,117.489176988,21,5,8.42,66.601052,66.601052,16.77705,116.18930818,-0.447388,-16.77705,-6.487126,268.7, -5.9, 0.9,0,0,1684,1024,1684,1008,100,0,100,-2,274,0,0,99,4.209,4.207,0,0,0,0,5.322,80.42,66.601052,66.601052,6,P-GPS,
10400,2022-12-07 22:33:35,-34.9118485952253,-56.1326523663559,67.585304,68.405514,-0.82021,67.585304,41.994752,16.77705,118.5695576,119.8736915,21,5,8.42,67.585304,67.585304,16.77705,118.5695576,-0.223694,-16.77705,-6.71082,268.7, -5.9, 1,0,0,1684,1024,1684,1008,100,0,100,-2,274,0,0,99,4.209,4.207,0,0,0,0,5.322,80.42,67.585304,67.585304,6,P-GPS,
10500,2022-12-07 22:33:35,-34.911848728029,-56.132660660163,68.569556,69.4553828,-0.8858268,68.569556,41.994752,16.77705,121.04987264,122.35564696,21,5,8.414,68.569556,68.569556,16.77705,121.04987264,-0.223694,-16.77705,-6.71082,268.8, -6, 1,0,0,1684,1024,1684,1008,100,0,100,-2,274,0,0,99,4.207,4.203,0,0,0,0,5.352,80.42,68.569556,68.569556,6,P-GPS,
10600,2022-12-07 22:33:36,-34.911848856992,-56.1326685697664,69.553808,70.4724432,-0.9186352,69.553808,41.994752,16.77705,123.415686364,124.722444936,21,5,8.414,69.553808,69.553808,16.77705,123.415686364,-0.223694,-16.77705,-6.71082,268.8, -6, 1.1,0,0,1684,1024,1684,1008,100,0,100,-2,274,0,0,99,4.207,4.203,0,0,0,0,5.352,80.42,69.553808,69.553808,6,P-GPS,
10700,2022-12-07 22:33:36,-34.9118490469801,-56.1326770733935,70.53806,71.4895036,-0.9514436,70.53806,41.994752,16.77705,125.959977784,127.267720608,21,5,8.414,70.53806,70.53806,16.77705,125.959977784,-0.223694,-16.77705,-6.71082,268.7, -5.9, 1.1,0,0,1684,1024,1684,1008,100,0,100,-2,274,0,0,99,4.207,4.203,0,0,0,0,5.352,80.42,70.53806,70.53806,6,P-GPS,
10800,2022-12-07 22:33:36,-34.9118492286053,-56.132685163398,71.522312,72.506564,-0.984252,71.522312,41.994752,16.553356,128.380581536,129.688980528,21,5,8.414,71.522312,71.522312,16.77705,128.380581536,-0.447388,-16.553356,-6.71082,268.7, -6.3, 1,0,0,1684,1024,1684,1008,100,0,100,-2,274,0,0,99,4.207,4.203,0,0,0,0,5.352,80.42,71.522312,71.522312,6,P-GPS,
10900,2022-12-07 22:33:36,-34.9118495050011,-56.1326930350993,72.506564,73.5236244,-1.0170604,72.506564,41.994752,16.553356,130.737536992,132.046264068,21,5,8.414,72.506564,72.506564,16.77705,130.737536992,-0.447388,-16.553356,-6.71082,268.6, -7, 1.1,0,0,1684,1024,1684,1007,100,0,100,-3,274,0,0,99,4.207,4.203,0,0,0,0,5.352,80.42,72.506564,72.506564,6,P-GPS,
11000,2022-12-07 22:33:36,-34.9118496789173,-56.1327009433237,73.490816,74.5406848,-1.0498688,73.490816,41.994752,16.553356,133.104006884,134.413062044,21,5,8.414,73.490816,73.490816,16.77705,133.104006884,-0.447388,-16.553356,-6.487126,268.7, -7.2, 1.5,0,0,1684,1024,1684,1007,100,0,100,-3,274,0,0,99,4.207,4.203,0,0,0,0,5.352,80.42,73.490816,73.490816,6,P-GPS,
11100,2022-12-07 22:33:36,-34.91184989431,-56.1327093520074,74.475068,75.5577452,-1.0826772,74.475068,41.994752,16.77705,135.620411164,136.930122492,21,5,8.414,74.475068,74.475068,16.77705,135.620411164,-0.447388,-16.77705,-6.487126,268.7, -7.3, 1.3,0,0,1684,1024,1684,1008,100,0,100,-2,274,0,0,99,4.207,4.203,0,0,0,0,5.352,80.42,74.475068,74.475068,6,P-GPS,
11200,2022-12-07 22:33:36,-34.9118501064726,-56.1327173827975,75.45932,76.5748056,-1.1154856,75.45932,41.994752,16.77705,138.023954548,139.33399396,21,5,8.414,75.45932,75.45932,16.77705,138.023954548,-0.447388,-16.77705,-6.487126,268.6, -7.2, 1.7,0,0,1684,1024,1684,1007,100,0,100,-3,274,0,0,99,4.207,4.203,0,0,0,0,5.352,80.42,75.45932,75.45932,6,P-GPS,
11300,2022-12-07 22:33:36,-34.9118505112346,-56.1327255206498,76.443572,77.591866,-1.148294,76.443572,41.994752,17.000744,140.462931004,141.7732985,21,5,8.414,76.443572,76.443572,17.000744,140.462931004,-0.447388,-17.000744,-6.487126,268.6, -6.9, 2.2,0,0,1684,1024,1684,1007,100,0,100,-3,274,0,0,99,4.207,4.203,0,0,0,0,5.352,80.42,76.443572,76.443572,6,P-GPS,
11400,2022-12-07 22:33:36,-34.9118507531139,-56.1327335904704,77.427824,78.6089264,-1.1811024,77.427824,41.994752,17.224438,142.87894158,144.189309076,21,5,8.414,77.427824,77.427824,17.224438,142.87894158,-0.223694,-17.224438,-6.487126,268.6, -6.8, 2,0,0,1684,1024,1684,1007,100,0,100,-3,274,0,0,99,4.207,4.203,0,0,0,0,5.352,80.42,77.427824,77.427824,6,P-GPS,
11500,2022-12-07 22:33:37,-34.9118508648252,-56.1327423948077,78.412076,79.6259868,-1.2139108,78.412076,41.994752,17.224438,145.51181568,146.823823596,21,5,8.404,78.412076,78.412076,17.224438,145.51181568,-0.223694,-17.224438,-6.487126,268.6, -6.3, 1.6,0,0,1684,1024,1684,1006,100,0,100,-3,274,0,0,99,4.207,4.204,0,0,0,0,5.404,80.42,78.412076,78.412076,6,P-GPS,
11600,2022-12-07 22:33:37,-34.9118509629145,-56.1327508062075,79.396328,80.6430472,-1.2467192,79.396328,41.994752,17.671826,148.026907624,149.34055596,21,5,8.404,79.396328,79.396328,17.671826,148.026907624,0,-17.671826,-6.71082,268.6, -6.1, 1.4,0,0,1684,1024,1684,1008,100,0,100,-2,274,0,0,99,4.207,4.204,0,0,0,0,5.404,80.42,79.396328,79.396328,6,P-GPS,
11700,2022-12-07 22:33:37,-34.9118506473416,-56.1327607670835,80.38058,81.6601076,-1.2795276,80.38058,41.994752,17.448132,150.998036328,152.323167604,21,5,8.404,80.38058,80.38058,17.671826,150.998036328,-0.223694,-17.448132,-6.71082,268.7, -5.4, 0.9,0,0,1684,1024,1684,1008,100,0,100,-2,274,0,0,99,4.207,4.204,0,0,0,0,5.404,80.42,80.38058,80.38058,6,P-GPS,
11800,2022-12-07 22:33:37,-34.9118506937433,-56.132769385838,81.364832,82.677168,-1.312336,81.364832,41.994752,17.000744,153.574808064,154.901907844,21,5,8.404,81.364832,81.364832,17.671826,153.574808064,-0.447388,-17.000744,-6.71082,268.7, -5.9, 1,0,0,1684,1024,1684,1008,100,0,100,-2,274,0,0,99,4.207,4.204,0,0,0,0,5.404,80.42,81.364832,81.364832,6,P-GPS,
11900,2022-12-07 22:33:37,-34.9118508893113,-56.1327780170872,82.349084,83.6942284,-1.3451444,82.349084,41.994752,17.000744,156.157485312,157.48524126,21,5,8.404,82.349084,82.349084,17.671826,156.157485312,-0.447388,-17.000744,-6.71082,268.7, -6.7, 1.3,0,0,1684,1024,1684,1008,100,0,100,-2,274,0,0,99,4.207,4.204,0,0,0,0,5.404,80.42,82.349084,82.349084,6,P-GPS,
12000,2022-12-07 22:33:37,-34.9118510899079,-56.1327862399791,83.333336,84.7440972,-1.4107612,83.333336,41.994752,17.000744,158.618443396,159.946527428,21,5,8.404,83.333336,83.333336,17.671826,158.618443396,-0.447388,-17.000744,-6.487126,268.7, -6.6, 1.9,0,0,1684,1024,1684,1008,100,0,100,-2,274,0,0,99,4.207,4.204,0,0,0,0,5.404,80.42,83.333336,83.333336,6,P-GPS,
12100,2022-12-07 22:33:37,-34.9118516090094,-56.1327942508779,84.317588,85.793966,-1.476378,84.317588,41.994752,17.224438,161.021658696,162.35072698,21,5,8.404,84.317588,84.317588,17.671826,161.021658696,-0.447388,-17.224438,-6.487126,268.7, -6.7, 2.1,0,0,1684,1024,1684,1008,100,0,100,-2,274,0,0,99,4.207,4.204,0,0,0,0,5.404,80.42,84.317588,84.317588,6,P-GPS,
12200,2022-12-07 22:33:37,-34.9118518972456,-56.1328024371213,85.30184,86.8438348,-1.5419948,85.30184,41.994752,17.224438,163.473102344,164.802170628,21,5,8.404,85.30184,85.30184,17.671826,163.473102344,-0.447388,-17.224438,-6.487126,268.7, -6.3, 2.1,0,0,1684,1024,1684,1008,100,0,100,-2,274,0,0,99,4.207,4.204,0,0,0,0,5.404,80.42,85.30184,85.30184,6,P-GPS,
12300,2022-12-07 22:33:37,-34.9118522038963,-56.1328111096994,86.286092,87.8937036,-1.6076116,86.286092,41.994752,17.448132,166.070215288,167.399283572,21,5,8.404,86.286092,86.286092,17.671826,166.070215288,-0.447388,-17.448132,-6.487126,268.7, -6, 1.8,0,0,1684,1024,1684,1008,100,0,100,-2,274,0,0,99,4.207,4.204,0,0,0,0,5.404,80.42,86.286092,86.286092,6,P-GPS,
12400,2022-12-07 22:33:37,-34.9118525008292,-56.1328193821942,87.270344,88.9435724,-1.6732284,87.270344,41.994752,17.4705014,168.547577572,169.876645856,21,5,8.404,87.270344,87.270344,17.671826,168.547577572,-0.671082,-17.448132,-6.487126,268.7, -5.9, 1.9,0,0,1684,1024,1684,1007,100,0,100,-3,274,0,0,99,4.207,4.204,0,0,0,0,5.404,80.42,87.270344,87.270344,6,P-GPS,
12500,2022-12-07 22:33:38,-34.9118528757068,-56.1328282135268,88.254596,89.9934412,-1.7388452,88.254596,41.994752,17.4705014,171.193246948,172.522315232,21,5,8.401,88.254596,88.254596,17.671826,171.193246948,-0.671082,-17.448132,-6.71082,268.7, -5.7, 2.2,0,0,1684,1024,1684,1007,100,0,100,-3,274,0,0,99,4.201,4.197,0,0,0,0,5.317,80.42,88.254596,88.254596,6,P-GPS,
12600,2022-12-07 22:33:38,-34.9118536645967,-56.1328364329921,89.238848,91.04331,-1.804462,89.238848,41.994752,17.224438,173.663391384,174.99836518,21,5,8.401,89.238848,89.238848,17.671826,173.663391384,-0.447388,-17.224438,-6.71082,268.6, -5.7, 2.1,0,0,1684,1024,1684,1007,100,0,100,-3,274,0,0,99,4.201,4.197,0,0,0,0,5.317,80.42,89.238848,89.238848,6,P-GPS,
12700,2022-12-07 22:33:38,-34.9118539345023,-56.1328451583072,90.2231,92.0931788,-1.8700788,90.2231,41.994752,17.448132,176.275596192,177.610898072,21,5,8.401,90.2231,90.2231,17.671826,176.275596192,-0.447388,-17.448132,-6.71082,268.6, -5.9, 2.2,0,0,1684,1024,1684,1006,100,0,100,-3,274,0,0,99,4.201,4.197,0,0,0,0,5.317,80.42,90.2231,90.2231,6,P-GPS,
12800,2022-12-07 22:33:38,-34.9118541805122,-56.1328534963265,91.207352,93.1430476,-1.9356956,91.207352,41.994752,17.224438,178.771659264,180.106961144,21,5,8.401,91.207352,91.207352,17.671826,178.771659264,-0.447388,-17.224438,-6.71082,268.6, -6.3, 2.4,0,0,1684,1024,1684,1006,100,0,100,-3,274,0,0,99,4.201,4.197,0,0,0,0,5.317,80.42,91.207352,91.207352,6,P-GPS,
12900,2022-12-07 22:33:38,-34.9118543556595,-56.1328624742532,92.191604,94.1929164,-2.0013124,92.191604,41.994752,17.448132,181.457682972,182.793969104,21,5,8.401,92.191604,92.191604,17.671826,181.457682972,-0.447388,-17.448132,-6.71082,268.6, -6.4, 2.4,0,0,1684,1024,1684,1006,100,0,100,-3,274,0,0,99,4.201,4.197,0,0,0,0,5.317,80.42,92.191604,92.191604,6,P-GPS,
13000,2022-12-07 22:33:38,-34.9118543278164,-56.1328711129408,93.175856,95.2427852,-2.0669292,93.175856,41.994752,17.448132,184.039047884,185.378614856,21,5,8.401,93.175856,93.175856,17.671826,184.039047884,-0.447388,-17.448132,-6.71082,268.6, -6.5, 2.1,0,0,1684,1024,1684,1006,100,0,100,-3,274,0,0,99,4.201,4.197,0,0,0,0,5.317,80.42,93.175856,93.175856,6,P-GPS,
13100,2022-12-07 22:33:38,-34.9118544588002,-56.1328796888202,94.160108,96.292654,-2.132546,94.160108,41.994752,17.448132,186.60433668,187.944887904,21,5,8.401,94.160108,94.160108,17.671826,186.60433668,-0.447388,-17.448132,-6.71082,268.6, -6.5, 2.1,0,0,1684,1024,1684,1004,100,0,100,-3,274,0,0,99,4.201,4.197,0,0,0,0,5.317,80.42,94.160108,94.160108,6,P-GPS,
13200,2022-12-07 22:33:38,-34.9118545787921,-56.1328878609391,95.14436,97.3425228,-2.1981628,95.14436,41.994752,17.448132,189.048890564,190.390097956,21,5,8.401,95.14436,95.14436,17.671826,189.048890564,-0.223694,-17.448132,-6.487126,268.6, -6.3, 1.9,0,0,1684,1024,1684,1006,100,0,100,-3,274,0,0,99,4.201,4.197,0,0,0,0,5.317,80.42,95.14436,95.14436,6,P-GPS,
13300,2022-12-07 22:33:38,-34.9118546829328,-56.1328965723804,96.128612,98.3923916,-2.2637796,96.128612,41.994752,17.448132,191.654205608,192.996725336,21,5,8.401,96.128612,96.128612,17.671826,191.654205608,-0.223694,-17.448132,-6.71082,268.6, -6.4, 1.8,0,0,1684,1024,1684,1006,100,0,100,-3,274,0,0,99,4.201,4.197,0,0,0,0,5.317,80.42,96.128612,96.128612,6,P-GPS,
13400,2022-12-07 22:33:38,-34.9118545246903,-56.1329042005801,97.112864,99.409452,-2.296588,97.112864,41.994752,17.448132,193.931436652,195.279861892,21,5,8.401,97.112864,97.112864,17.671826,193.931436652,-0.447388,-17.448132,-6.487126,268.6, -6.4, 1.8,0,0,1684,1024,1684,1001,100,0,100,-3,274,0,0,99,4.201,4.197,0,0,0,0,5.317,80.42,97.112864,97.112864,6,P-GPS,
13500,2022-12-07 22:33:38,-34.9118546997188,-56.1329128129827,98.097116,100.4593208,-2.3622048,98.097116,41.994752,17.448132,196.508536472,197.857289796,21,5,8.388,98.097116,98.097116,17.671826,196.508536472,-0.447388,-17.448132,-6.487126,268.6, -6.3, 2,0,0,1684,1024,1684,1006,100,0,100,-3,274,0,0,99,4.197,4.194,0,0,0,0,5.411,80.6,98.097116,98.097116,6,P-GPS,
13600,2022-12-07 22:33:39,-34.9118548625143,-56.1329210399699,99.081368,101.5091896,-2.4278216,99.081368,41.994752,17.671826,198.970150724,200.319560216,21,5,8.388,99.081368,99.081368,17.671826,198.970150724,-0.223694,-17.671826,-6.487126,268.6, -6.2, 1.9,0,0,1684,1024,1684,1008,100,0,100,-2,274,0,0,99,4.197,4.194,0,0,0,0,5.411,80.6,99.081368,99.081368,6,P-GPS,
13700,2022-12-07 22:33:39,-34.9118549790751,-56.1329301517452,100.06562,102.5590584,-2.4934384,100.06562,41.994752,17.671826,201.695544512,203.045938256,21,5,8.388,100.06562,100.06562,17.671826,201.695544512,-0.223694,-17.671826,-6.487126,268.7, -6.1, 1.8,0,0,1684,1024,1684,1008,100,0,100,-2,274,0,0,99,4.197,4.194,0,0,0,0,5.411,80.6,100.06562,100.06562,6,P-GPS,
13800,2022-12-07 22:33:39,-34.9118549827456,-56.1329393366085,101.049872,103.6089272,-2.5590552,101.049872,41.994752,17.671826,204.441279508,205.79396984,21,5,8.388,101.049872,101.049872,17.671826,204.441279508,-0.223694,-17.671826,-6.487126,268.6, -6.1, 1.6,0,0,1684,1024,1684,1008,100,0,100,-2,274,0,0,99,4.197,4.194,0,0,0,0,5.411,80.6,101.049872,101.049872,6,P-GPS,
13900,2022-12-07 22:33:39,-34.9118551166704,-56.132948444999,102.034124,104.658796,-2.624672,102.034124,41.994752,17.671826,207.166017128,208.519363628,21,5,8.388,102.034124,102.034124,17.671826,207.166017128,-0.223694,-17.671826,-6.71082,268.7, -5.9, 1.5,0,0,1684,1024,1684,1010,100,0,100,-2,274,0,0,99,4.197,4.194,0,0,0,0,5.411,80.6,102.034124,102.034124,6,P-GPS,
14000,2022-12-07 22:33:39,-34.9118552462604,-56.1329571091775,103.018376,105.7414732,-2.7230972,103.018376,41.994752,17.89552,209.757880728,211.11221148,21,5,8.388,103.018376,103.018376,17.89552,209.757880728,0,-17.89552,-6.487126,268.7, -5.7, 1.3,0,0,1684,1024,1684,1010,100,0,100,-2,274,0,0,99,4.197,4.194,0,0,0,0,5.411,80.6,103.018376,103.018376,6,P-GPS,
14100,2022-12-07 22:33:39,-34.9118552449707,-56.1329660307733,104.002628,106.791342,-2.788714,104.002628,41.994752,17.89552,212.424875564,213.781502904,21,5,8.388,104.002628,104.002628,17.89552,212.424875564,-0.223694,-17.89552,-6.487126,268.7, -5.3, 1,0,0,1684,1024,1684,1017,100,0,100,-1,274,0,0,99,4.197,4.194,0,0,0,0,5.411,80.6,104.002628,104.002628,6,P-GPS,
14200,2022-12-07 22:33:39,-34.9118552507565,-56.1329745158463,104.98688,107.8412108,-2.8543308,104.98688,41.994752,17.671826,214.961292968,216.319888812,21,5,8.388,104.98688,104.98688,17.89552,214.961292968,-0.223694,-17.671826,-6.71082,268.7, -5.3, 1.1,0,0,1684,1024,1684,1017,100,0,100,-1,274,0,0,99,4.197,4.194,0,0,0,0,5.411,80.6,104.98688,104.98688,6,P-GPS,
14300,2022-12-07 22:33:39,-34.9118552225421,-56.132983077643,105.971132,108.8910796,-2.9199476,105.971132,41.994752,17.671826,217.520348168,218.881568684,21,5,8.388,105.971132,105.971132,17.89552,217.520348168,-0.223694,-17.671826,-6.487126,268.7, -5.5, 1.4,0,0,1684,1024,1684,1024,100,0,100,0,274,0,0,99,4.197,4.194,0,0,0,0,5.411,80.6,105.971132,105.971132,6,P-GPS,
14400,2022-12-07 22:33:39,-34.9118553765327,-56.1329915332969,106.955384,109.9409484,-2.9855644,106.955384,41.994752,17.671826,220.050203892,221.412080576,21,5,8.388,106.955384,106.955384,17.89552,220.050203892,-0.447388,-17.671826,-6.487126,268.7, -5.5, 1.6,0,0,1684,1024,1684,1024,100,0,100,0,274,0,0,99,4.197,4.194,0,0,0,0,5.411,80.6,106.955384,106.955384,6,P-GPS,
14500,2022-12-07 22:33:39,-34.9118555444464,-56.1330007129785,107.939636,110.9580088,-3.0183728,107.939636,41.994752,17.671826,222.79692314,224.159127908,21,5,8.388,107.939636,107.939636,17.89552,222.79692314,-0.447388,-17.671826,-6.487126,268.7, -5.5, 1.7,0,0,1684,1024,1684,1024,100,0,100,0,274,0,0,99,4.196,4.192,0,0,0,0,5.337,80.6,107.939636,107.939636,6,P-GPS,
14600,2022-12-07 22:33:40,-34.9118557052162,-56.1330094393384,108.923888,112.0078776,-3.0839896,108.923888,41.994752,17.89552,225.408143696,226.770676548,21,5,8.388,108.923888,108.923888,17.89552,225.408143696,-0.447388,-17.89552,-6.487126,268.7, -5.5, 1.8,0,0,1684,1024,1684,1024,100,0,100,0,274,0,0,99,4.196,4.192,0,0,0,0,5.337,80.6,108.923888,108.923888,6,P-GPS,
14700,2022-12-07 22:33:40,-34.9118561006708,-56.1330184997556,109.90814,113.0577464,-3.1496064,109.90814,41.994752,17.89552,228.122382628,229.485243564,21,5,8.388,109.90814,109.90814,17.89552,228.122382628,-0.447388,-17.89552,-6.487126,268.7, -5.4, 1.8,0,0,1684,1024,1684,1024,100,0,100,0,274,0,0,99,4.196,4.192,0,0,0,0,5.337,80.6,109.90814,109.90814,6,P-GPS,
14800,2022-12-07 22:33:40,-34.9118563363994,-56.1330269701191,110.892392,114.1076152,-3.2152232,110.892392,41.994752,17.89552,230.658143864,232.0210048,21,5,8.388,110.892392,110.892392,17.89552,230.658143864,-0.447388,-17.89552,-6.71082,268.7, -5.3, 1.8,0,0,1684,1024,1684,1024,100,0,100,0,274,0,0,99,4.196,4.192,0,0,0,0,5.337,80.6,110.892392,110.892392,6,P-GPS,
14900,2022-12-07 22:33:40,-34.9118565356461,-56.1330361320823,111.876644,115.157484,-3.28084,111.876644,41.994752,17.89552,233.399941852,234.763130872,21,5,8.388,111.876644,111.876644,17.89552,233.399941852,-0.447388,-17.89552,-6.71082,268.7, -5.4, 1.9,0,0,1684,1024,1684,1024,100,0,100,0,274,0,0,99,4.196,4.192,0,0,0,0,5.337,80.6,111.876644,111.876644,6,P-GPS,
15000,2022-12-07 22:33:40,-34.9118567266674,-56.1330448491652,112.860896,116.2073528,-3.3464568,112.860896,41.994752,17.89552,236.00886582,237.37205484,21,5,8.388,112.860896,112.860896,17.89552,236.00886582,-0.447388,-17.89552,-6.71082,268.6, -5.5, 1.8,0,0,1684,1024,1684,1024,100,0,100,0,274,0,0,99,4.196,4.192,0,0,0,0,5.337,80.6,112.860896,112.860896,6,P-GPS,
15100,2022-12-07 22:33:40,-34.9118569877624,-56.1330541406728,113.517064,116.9291376,-3.4120736,113.517064,41.994752,17.89552,238.790361972,240.153879076,21,5,8.388,113.517064,113.517064,17.89552,238.790361972,-0.447388,-17.89552,-6.71082,268.7, -5.4, 1.9,0,0,1684,1024,1684,1024,100,0,100,0,274,0,0,99,4.196,4.192,0,0,0,0,5.337,80.6,113.517064,113.517064,6,P-GPS,
15200,2022-12-07 22:33:40,-34.9118571865286,-56.1330627435058,114.501316,117.782156,-3.28084,114.501316,41.994752,17.89552,241.36483712,242.728682308,21,5,8.388,114.501316,114.501316,17.89552,241.36483712,-0.447388,-17.89552,-6.71082,268.7, -5.5, 1.9,0,0,1684,1024,1684,1024,100,0,100,0,274,0,0,99,4.196,4.192,0,0,0,0,5.337,80.6,114.501316,114.501316,6,P-GPS,
15300,2022-12-07 22:33:40,-34.9118573450642,-56.1330717246084,115.485568,118.6351744,-3.1496064,115.485568,41.994752,17.89552,244.052173164,245.416346436,21,5,8.388,115.485568,115.485568,17.89552,244.052173164,-0.447388,-17.89552,-6.487126,268.6, -5.4, 1.9,0,0,1684,1024,1684,1024,100,0,100,0,274,0,0,99,4.196,4.192,0,0,0,0,5.337,80.6,115.485568,115.485568,6,P-GPS,
15400,2022-12-07 22:33:40,-34.9118574947019,-56.1330802736179,116.46982,119.4881928,-3.0183728,116.46982,41.994752,17.89552,246.610244112,247.974745468,21,5,8.388,116.46982,116.46982,17.89552,246.610244112,-0.223694,-17.89552,-6.487126,268.6, -5.4, 1.8,0,0,1684,1024,1684,1024,100,0,100,0,274,0,0,99,4.196,4.192,0,0,0,0,5.337,80.6,116.46982,116.46982,6,P-GPS,
15500,2022-12-07 22:33:41,-34.9118575874157,-56.1330894536338,117.454072,120.3084028,-2.8543308,117.454072,41.994752,17.89552,249.355979108,250.721464716,21,5,8.388,117.454072,117.454072,17.89552,249.355979108,-0.223694,-17.89552,-6.487126,268.6, -5.3, 1.7,0,0,1684,1024,1684,1024,100,0,100,0,274,0,0,99,4.194,4.191,0,0,0,0,5.312,80.6,117.454072,117.454072,6,P-GPS,
15600,2022-12-07 22:33:41,-34.9118577511997,-56.1330981290952,118.438324,121.1614212,-2.7230972,118.438324,41.994752,18.119214,251.951779716,253.317593408,20,5,8.388,118.438324,118.438324,18.119214,251.951779716,-0.223694,-18.119214,-6.487126,268.7, -5, 1.6,0,0,1684,1024,1684,1024,100,0,100,0,274,0,0,99,4.194,4.191,0,0,0,0,5.312,80.6,118.438324,118.438324,6,P-GPS,
15700,2022-12-07 22:33:41,-34.9118577842767,-56.1331071132066,119.422576,122.0144396,-2.5918636,119.422576,41.994752,18.119214,254.638459592,256.00558562,20,5,8.388,119.422576,119.422576,18.119214,254.638459592,-0.223694,-18.119214,-6.71082,268.7, -4.8, 1.2,0,0,1684,1024,1684,1024,100,0,100,0,274,0,0,99,4.194,4.191,0,0,0,0,5.312,80.6,119.422576,119.422576,6,P-GPS,
15800,2022-12-07 22:33:41,-34.9118578183877,-56.1331156665621,120.406828,122.867458,-2.46063,120.406828,41.994752,17.89552,257.195874372,258.56464082,21,5,8.388,120.406828,120.406828,18.119214,257.195874372,-0.223694,-17.89552,-6.71082,268.7, -4.8, 1.2,0,0,1684,1024,1684,1024,100,0,100,0,274,0,0,99,4.194,4.191,0,0,0,0,5.312,80.6,120.406828,120.406828,6,P-GPS,
15900,2022-12-07 22:33:41,-34.9118579437339,-56.1331248672215,121.39108,123.687668,-2.296588,121.39108,41.994752,17.89552,259.948499132,261.317921748,21,5,8.388,121.39108,121.39108,18.119214,259.948499132,-0.223694,-17.89552,-6.71082,268.7, -5, 1.4,0,0,1684,1024,1684,1024,100,0,100,0,274,0,0,99,4.194,4.191,0,0,0,0,5.312,80.6,121.39108,121.39108,6,P-GPS,
16000,2022-12-07 22:33:41,-34.9118579480037,-56.1331336291852,122.375332,124.5406864,-2.1653544,122.375332,41.994752,17.89552,262.568249872,263.939312908,21,5,8.388,122.375332,122.375332,18.119214,262.568249872,-0.447388,-17.89552,-6.71082,268.7, -5.1, 1.6,0,0,1684,1024,1684,1024,100,0,100,0,274,0,0,99,4.194,4.191,0,0,0,0,5.312,80.6,122.375332,122.375332,6,P-GPS,
16100,2022-12-07 22:33:41,-34.9118581347374,-56.1331426621055,123.359584,125.3937048,-2.0341208,123.359584,41.994752,17.89552,265.271333948,266.642725068,21,5,8.388,123.359584,123.359584,18.119214,265.271333948,-0.447388,-17.89552,-6.71082,268.7, -5.2, 1.8,0,0,1684,1024,1684,1024,100,0,100,0,274,0,0,99,4.194,4.191,0,0,0,0,5.312,80.6,123.359584,123.359584,6,P-GPS,
16200,2022-12-07 22:33:41,-34.9118583138401,-56.1331512407848,124.343836,126.2467232,-1.9028872,124.343836,41.994752,17.671826,267.838591248,269.210310452,21,5,8.388,124.343836,124.343836,18.119214,267.838591248,-0.447388,-17.671826,-6.71082,268.6, -5.4, 1.8,0,0,1684,1024,1684,1024,100,0,100,0,274,0,0,99,4.194,4.191,0,0,0,0,5.312,80.6,124.343836,124.343836,6,P-GPS,
16300,2022-12-07 22:33:41,-34.9118585005868,-56.1331600711145,125.328088,127.0669332,-1.7388452,125.328088,41.994752,17.671826,270.481307868,271.853027072,21,5,8.388,125.328088,125.328088,18.119214,270.481307868,-0.447388,-17.671826,-6.487126,268.7, -5.7, 2,0,0,1684,1024,1684,1024,100,0,100,0,274,0,0,99,4.194,4.191,0,0,0,0,5.312,80.6,125.328088,125.328088,6,P-GPS,
16400,2022-12-07 22:33:41,-34.9118587244556,-56.1331680640024,126.31234,127.95276,-1.64042,126.31234,41.994752,17.89552,272.87402448,274.245743684,19,5,8.383,126.31234,126.31234,18.119214,272.87402448,-0.447388,-17.89552,-6.487126,268.6, -5.7, 2,0,0,1684,1024,1684,1024,100,0,100,0,274,0,0,99,4.193,4.189,0,0,0,0,5.293,80.78,126.31234,126.31234,6,P-GPS,
16500,2022-12-07 22:33:42,-34.9118588799329,-56.1331770283061,127.296592,128.77297,-1.476378,127.296592,41.994752,17.89552,275.556439264,276.928486552,19,5,8.383,127.296592,127.296592,18.119214,275.556439264,-0.447388,-17.89552,-6.487126,268.6, -5.6, 1.9,0,0,1684,1024,1684,1024,100,0,100,0,274,0,0,99,4.193,4.189,0,0,0,0,5.293,80.78,127.296592,127.296592,6,P-GPS,
16600,2022-12-07 22:33:42,-34.911859026058,-56.1331855516574,128.280844,129.6259884,-1.3451444,128.280844,41.994752,17.89552,278.106636196,279.479011568,20,5,8.383,128.280844,128.280844,18.119214,278.106636196,-0.223694,-17.89552,-6.487126,268.7, -5.5, 1.8,0,0,1684,1024,1684,1024,100,0,100,0,274,0,0,99,4.193,4.189,0,0,0,0,5.293,80.78,128.280844,128.280844,6,P-GPS,
16700,2022-12-07 22:33:42,-34.9118591604096,-56.1331942754263,129.265096,130.4790068,-1.2139108,129.265096,41.994752,17.89552,280.7168725,282.089575956,20,5,8.383,129.265096,129.265096,18.119214,280.7168725,-0.223694,-17.89552,-6.487126,268.6, -5.5, 1.7,0,0,1684,1024,1684,1024,100,0,100,0,274,0,0,99,4.193,4.189,0,0,0,0,5.293,80.78,129.265096,129.265096,6,P-GPS,
