time(millisecond),datetime(utc),latitude,longitude,height_above_takeoff(feet),height_above_ground_at_drone_location(feet),ground_elevation_at_drone_location(feet),altitude_above_seaLevel(feet),height_sonar(feet),speed(mph),distance(feet),mileage(feet),satellites,gpslevel,voltage(v),max_altitude(feet),max_ascent(feet),max_speed(mph),max_distance(feet), xSpeed(mph), ySpeed(mph), zSpeed(mph), compass_heading(degrees), pitch(degrees), roll(degrees),isPhoto,isVideo,rc_elevator,rc_aileron,rc_throttle,rc_rudder,rc_elevator(percent),rc_aileron(percent),rc_throttle(percent),rc_rudder(percent),gimbal_heading(degrees),gimbal_pitch(degrees),gimbal_roll(degrees),battery_percent,voltageCell1,voltageCell2,voltageCell3,voltageCell4,voltageCell5,voltageCell6,current(A),battery_temperature(f),altitude(feet),ascent(feet),flycStateRaw,flycState,message
0,2022-11-02 22:59:09,-34.9191647712796,-56.1671427839924,0,0,62.72141604908,62.72141604908,0.328084,0,0,0,19,5,0,62.72141604908,0,0,0,-0.671082,-0.223694,0,291.9, -0.4, 1.3,0,0,364,364,364,1684,-100,-100,-100,100,300.2,0,0,16,3.72,3.719,0,0,0,0,0,97.88,62.72141604908,0,41,Motors_Started,"Setting new Return-To-Home altitude to 80m (262 ft). Data Recorder File Index is 72. Setting new Maximum Flight Altitude to 120m (394 ft) Entorno demasiado oscuro. El posicionamiento visual no será preciso. Vuela con precaución (Code: 180032). Batería baja. Regresa al punto de origen cuanto antes (Code: 30183). Batería muy baja (Code: 30183). Error de calibración del estabilizador. Rei"
100,2022-11-02 22:59:09,-34.9191649198686,-56.1671429368914,0,0,62.72141604908,62.72141604908,0.328084,1.006623,0.0709317608,0.0709317608,19,5,0,62.72141604908,0,1.006623,0.0709317608,-0.894776,-0.447388,0,291.7, -1.3, -4.3,0,0,364,364,364,1684,-100,-100,-100,100,299.6,0,0,16,3.72,3.719,0,0,0,0,0,97.88,62.72141604908,0,41,Motors_Started,
200,2022-11-02 22:59:09,-34.9191640170674,-56.1671425597359,0,0.032808400000005,62.68860764908,62.72141604908,0.328084,0.4921268,0.283234261032,0.41910762496,19,5,0,62.72141604908,0,1.006623,0.283234261032,-0.447388,-0.223694,0,292.7, -2.3, -5.1,0,0,364,364,364,1684,-100,-100,-100,100,300,0,0,16,3.72,3.719,0,0,0,0,0,97.88,62.72141604908,0,41,Motors_Started,
300,2022-11-02 22:59:09,-34.9191640511092,-56.1671426265798,0,0.032808400000005,62.68860764908,62.72141604908,0.328084,0.4921268,0.266940297256,0.44264765196,19,5,0,62.72141604908,0,1.006623,0.283234261032,-0.447388,-0.223694,0,292.1, -0.7, -2.6,0,0,364,364,364,1684,-100,-100,-100,100,299.7,0,0,16,3.72,3.719,0,0,0,0,0,97.88,62.72141604908,0,41,Motors_Started,
400,2022-11-02 22:59:09,-34.9191641156111,-56.1671427106681,0,0.032808400000005,62.68860764908,62.72141604908,0.328084,0.4921268,0.240223760968,0.47709647196,19,5,0,62.72141604908,0,1.006623,0.283234261032,-0.447388,-0.223694,0,291.9, -0.8, -1,0,0,364,364,364,1684,-100,-100,-100,100,298.8,-0.2,3.3,16,3.72,3.719,0,0,0,0,0,97.88,62.72141604908,0,41,Motors_Started,
500,2022-11-02 22:59:10,-34.9191642188496,-56.1671427662098,0,0.032808400000005,62.68860764908,62.72141604908,0.328084,0.4921268,0.2016240222,0.51826445228,19,5,0,62.72141604908,0,1.006623,0.283234261032,-0.447388,-0.223694,0,291.4, -1.1, 0.1,0,0,1024,1024,814,1684,0,0,-32,100,299.3,0,0.4,16,3.72,3.719,0,0,0,0,0,97.88,62.72141604908,0,41,Motors_Started,
600,2022-11-02 22:59:10,-34.9191635238871,-56.1671423254024,0,0,62.72141604908,62.72141604908,0.328084,0.3131716,0.47533794172,0.80406498636,19,5,0,62.72141604908,0,1.006623,0.47533794172,-0.223694,-0.223694,0,290.7, -2.6, 0.4,0,0,1024,1024,1358,1184,0,0,51,24,298.8,0,0,16,3.72,3.719,0,0,0,0,0,97.88,62.72141604908,0,41,Motors_Started,"Batería baja"
700,2022-11-02 22:59:10,-34.9191636134442,-56.1671423927033,0,0,62.72141604908,62.72141604908,0.328084,0.3131716,0.4383530324,0.84244425268,19,5,0,62.72141604908,0,1.006623,0.47533794172,-0.223694,-0.223694,0,291.8, -2.8, -0.5,0,0,1024,1024,1684,1024,0,0,100,0,298.8,0,0,16,3.72,3.719,0,0,0,0,0,97.88,62.72141604908,0,41,Motors_Started,
800,2022-11-02 22:59:10,-34.9191637284078,-56.167142478466,0,0,62.72141604908,62.72141604908,0.328084,0.3131716,0.39131562932,0.89161420176,19,5,0,62.72141604908,0,1.006623,0.47533794172,-0.223694,-0.223694,0,291.6, -2.6, -0.3,0,0,1024,1024,1684,991,0,0,100,-5,299.2,0,0,16,3.72,3.719,0,0,0,0,0,97.88,62.72141604908,0,41,Motors_Started,
900,2022-11-02 22:59:10,-34.9191637507997,-56.1671425988455,0,0.032808400000005,62.68860764908,62.72141604908,0.328084,0.3131716,0.37641733488,0.92854005596,19,5,0,62.72141604908,0,1.006623,0.47533794172,-0.223694,-0.223694,0,291.4, -1.7, 0.6,0,0,1024,1024,1684,1024,0,0,100,0,299.2,0,0,16,3.72,3.719,0,0,0,0,0,97.88,62.72141604908,0,41,Motors_Started,
1000,2022-11-02 22:59:10,-34.9191632009548,-56.1671425442729,0,0.065616799999999,62.65579924908,62.72141604908,0.328084,0.3131716,0.57740159328,1.12981302828,19,5,0,62.72141604908,0,1.006623,0.57740159328,-0.223694,-0.223694,0,291.5, -2.1, 0.6,0,0,1024,1024,1684,1024,0,0,100,0,299.2,0,0,16,3.72,3.719,0,0,0,0,0,97.88,62.72141604908,0,41,Motors_Started,
1100,2022-11-02 22:59:10,-34.9191632759333,-56.1671425847328,0,0.065616799999999,62.65579924908,62.72141604908,0.328084,0.3131716,0.54882219604,1.1597277274,19,5,7.449,62.72141604908,0,1.006623,0.57740159328,-0.223694,-0.223694,0,291.6, -3.5, 0,0,0,1024,1024,1684,1024,0,0,100,0,299.2,0,0,16,3.72,3.719,0,0,0,0,0.996,97.88,62.72141604908,0,10,Assisted_Takeoff,
1200,2022-11-02 22:59:10,-34.9191633849002,-56.1671426102495,0,0.065616799999999,62.65579924908,62.72141604908,0.328084,0.223694,0.50848426824,1.20021001216,19,5,7.449,62.72141604908,0,1.006623,0.57740159328,-0.223694,0,0,291.3, -2.7, -0.1,0,0,1024,1024,1684,1024,0,0,100,0,299.2,0,0,16,3.72,3.719,0,0,0,0,0.996,97.88,62.72141604908,0,10,Assisted_Takeoff,
1300,2022-11-02 22:59:10,-34.9191634357024,-56.1671425992974,0,0.065616799999999,62.65579924908,62.72141604908,0.328084,0.223694,0.49040683984,1.21903547208,19,5,7.449,62.72141604908,0,1.006623,0.57740159328,-0.223694,0,0,291.4, -1.6, -0.6,0,0,1024,1024,1684,1024,0,0,100,0,299.1,0,0,16,3.72,3.719,0,0,0,0,0.996,97.88,62.72141604908,0,10,Assisted_Takeoff,
1400,2022-11-02 22:59:10,-34.9191635021673,-56.1671425840407,0,0.032808400000005,62.68860764908,62.72141604908,0.328084,0.223694,0.46688321704,1.24371066972,19,5,7.449,62.72141604908,0,1.006623,0.57740159328,-0.223694,0,0,292, -0.8, -0.2,0,0,1024,1024,1684,1024,0,0,100,0,299.3,0,0,16,3.72,3.719,0,0,0,0,0.996,97.88,62.72141604908,0,10,Assisted_Takeoff,
1500,2022-11-02 22:59:11,-34.9191630818704,-56.1671421021672,0,0.065616799999999,62.65579924908,62.72141604908,0.328084,0.223694,0.64925527012,1.45417655572,19,5,7.449,62.72141604908,0,1.006623,0.64925527012,-0.223694,0,0,292.7, -0.5, 0.2,0,0,1024,1024,1684,1024,0,0,100,0,299.9,0,0,16,3.72,3.719,0,0,0,0,0.996,97.88,62.72141604908,0,10,Assisted_Takeoff,
1600,2022-11-02 22:59:11,-34.9191632077059,-56.1671421893064,0,0.065616799999999,62.65579924908,62.72141604908,0.328084,0.223694,0.59756563592,1.506971833,19,5,7.449,62.72141604908,0,1.006623,0.64925527012,-0.223694,0,0,292.7, -0.9, 0,0,0,1024,1024,1684,1024,0,0,100,0,300.4,0,0,16,3.72,3.719,0,0,0,0,0.996,97.88,62.72141604908,0,10,Assisted_Takeoff,
1700,2022-11-02 22:59:11,-34.919163327671,-56.1671422944031,0,0.065616799999999,62.65579924908,62.72141604908,0.328084,0.223694,0.5466863692,1.56086291084,19,5,7.449,62.72141604908,0,1.006623,0.64925527012,-0.223694,0,0,290.8, -1.8, -1.1,0,0,1024,1024,1684,1024,0,0,100,0,299.6,0,0,16,3.72,3.719,0,0,0,0,0.996,97.88,62.72141604908,0,10,Assisted_Takeoff,
1800,2022-11-02 22:59:11,-34.9191634690447,-56.1671424093209,0,0.065616799999999,62.65579924908,62.72141604908,0.328084,0.223694,0.48816274528,1.6228511018,19,5,7.449,62.72141604908,0,1.006623,0.64925527012,-0.223694,0,0,289.1, -2, -1.9,0,0,1024,1024,1684,1024,0,0,100,0,297.7,0,0,16,3.72,3.719,0,0,0,0,0.996,97.88,62.72141604908,0,10,Assisted_Takeoff,
1900,2022-11-02 22:59:11,-34.9191632360824,-56.1671423339436,0,0.065616799999999,62.65579924908,62.72141604908,0.328084,0.3131716,0.57606957224,1.71078745632,19,5,7.449,62.72141604908,0,1.006623,0.64925527012,-0.223694,-0.223694,-0.223694,288.1, -2.1, -2.8,0,0,1024,1024,1684,1024,0,0,100,0,296.4,0,0,16,3.72,3.719,0,0,0,0,0.996,97.88,62.72141604908,0,10,Assisted_Takeoff,
2000,2022-11-02 22:59:11,-34.919163326358,-56.1671424746655,0,0.065616799999999,62.65579924908,62.72141604908,0.328084,0.3131716,0.53523951844,1.7642389016,19,5,7.449,62.72141604908,0,1.006623,0.64925527012,-0.223694,-0.223694,-0.447388,287.4, -2, -2.3,0,0,1024,1024,1684,1024,0,0,100,0,295.7,0,0,16,3.72,3.719,0,0,0,0,0.996,97.88,62.72141604908,0,6,P-GPS,"Batería baja. Regresa al punto de origen cuanto antes (Code: 30183). Error de calibración del estabilizador. Reinicia la aeronave o contacta con la Asistencia DJI (Code: 40011)"
2100,2022-11-02 22:59:11,-34.9191634513716,-56.167142684407,0,0.065616799999999,62.65579924908,62.72141604908,0.656168,0.3131716,0.48248689208,1.84181108256,19,5,7.433,62.72141604908,0,1.006623,0.64925527012,-0.223694,-0.223694,-1.11847,287.7, 0.1, 1.4,0,0,1024,1024,1005,1024,0,0,-3,0,295.7,0,0,15,3.691,3.687,0,0,0,0,1.812,97.88,62.72141604908,0,6,P-GPS,"Batería baja. Regresa al punto de origen cuanto antes (Code: 30183). Error de calibración del estabilizador. Reinicia la aeronave o contacta con la Asistencia DJI (Code: 40011)"
2200,2022-11-02 22:59:11,-34.9191635782519,-56.1671429102281,0,0.032808400000005,62.68860764908,62.72141604908,0.984252,0.3131716,0.4369094628,1.92370741064,19,5,7.433,62.72141604908,0,1.006623,0.64925527012,-0.223694,-0.223694,-1.789552,287.7, 1, 2.6,0,0,1024,1024,1005,1024,0,0,-3,0,295.7,0,0,15,3.691,3.687,0,0,0,0,1.812,97.88,62.72141604908,0,6,P-GPS,
2300,2022-11-02 22:59:11,-34.9191634747984,-56.1671429413449,0.328084,0.3937008,62.65579924908,63.04950004908,1.312336,0.223694,0.47535762676,1.96258536464,19,5,7.433,63.04950004908,0.328084,1.006623,0.64925527012,0,-0.223694,-2.460634,287.7, 1.1, 2.5,0,0,1024,1024,1024,1024,0,0,0,0,295.7,0,0,15,3.691,3.687,0,0,0,0,1.812,97.88,63.04950004908,0.328084,6,P-GPS,
2400,2022-11-02 22:59:11,-34.9191635269034,-56.1671430291397,0.984252,1.0170604,62.68860764908,63.70566804908,1.64042,0,0.45989502784,1.99500662552,19,5,7.433,63.70566804908,0.984252,1.006623,0.64925527012,0,0,-2.684328,287.7, 1.1, 2,0,0,1024,1024,1024,1024,0,0,0,0,295.7,0,0,15,3.691,3.687,0,0,0,0,1.812,97.88,63.70566804908,0.984252,6,P-GPS,
2500,2022-11-02 22:59:12,-34.9191635198913,-56.1671430406665,1.312336,1.3451444,62.68860764908,64.03375204908,1.968504,0,0.46297901744,1.99930124508,19,5,7.433,64.03375204908,1.312336,1.006623,0.64925527012,0,0,-2.684328,287.7, 0.9, 1.8,0,0,1024,1024,1024,1024,0,0,0,0,295.7,0,0,15,3.691,3.687,0,0,0,0,1.812,97.88,64.03375204908,1.312336,6,P-GPS,
2600,2022-11-02 22:59:12,-34.9191634985574,-56.1671430332823,1.64042,1.7060368,62.65579924908,64.36183604908,3.608924,0,0.47030185232,2.00739179652,19,5,7.433,64.36183604908,1.64042,1.006623,0.64925527012,0,0,-2.23694,287.8, 0.9, 1.6,0,0,1024,1024,1024,1024,0,0,0,0,295.7,0,0,15,3.691,3.687,0,0,0,0,1.812,97.88,64.36183604908,1.64042,6,P-GPS,
2700,2022-11-02 22:59:12,-34.9191632732427,-56.1671426960252,1.968504,2.0341208,62.65579924908,64.68992004908,3.937008,0,0.54719161856,2.13753615764,19,5,7.433,64.68992004908,1.968504,1.006623,0.64925527012,0,0,-1.789552,287.8, 0.8, 1.1,0,0,1024,1024,1024,1024,0,0,0,0,295.7,0,0,15,3.691,3.687,0,0,0,0,1.812,97.88,64.68992004908,1.968504,6,P-GPS,
2800,2022-11-02 22:59:12,-34.9191632315346,-56.1671426213532,1.968504,2.0341208,62.65579924908,64.68992004908,4.265092,0,0.5638779708,2.1645669984,19,5,7.433,64.68992004908,1.968504,1.006623,0.64925527012,0,0,-1.342164,287.9, 0.6, 1,0,0,1024,1024,1024,1024,0,0,0,0,295.7,0,0,15,3.691,3.687,0,0,0,0,1.812,97.88,64.68992004908,1.968504,6,P-GPS,
2900,2022-11-02 22:59:12,-34.9191631488112,-56.1671425363402,2.296588,2.3622048,62.65579924908,65.01800404908,4.265092,0,0.59657482224,2.2040355036,19,5,7.433,65.01800404908,2.296588,1.006623,0.64925527012,0,0,-0.671082,287.8, 0.2, 0.5,0,0,1024,1024,1024,1024,0,0,0,0,295.7,0,0,15,3.691,3.687,0,0,0,0,1.812,97.88,65.01800404908,2.296588,6,P-GPS,
3000,2022-11-02 22:59:12,-34.919163057732,-56.1671424462469,2.296588,2.3622048,62.65579924908,65.01800404908,4.593176,0,0.6333005452,2.24682093804,18,5,7.433,65.01800404908,2.296588,1.006623,0.64925527012,0,0,-0.223694,287.8, 0, 0.1,0,0,1024,1024,1024,1024,0,0,0,0,295.7,0,0,15,3.691,3.687,0,0,0,0,1.812,97.88,65.01800404908,2.296588,6,P-GPS,
3100,2022-11-02 22:59:12,-34.919163003554,-56.1671423333194,2.296588,2.3622048,62.65579924908,65.01800404908,4.593176,0,0.65889437804,2.28596135924,18,5,7.305,65.01800404908,2.296588,1.006623,0.65889437804,0,0,0,287.8, -0.2, -0.3,0,0,1024,1024,1024,1024,0,0,0,0,295.7,0,0,15,3.686,3.685,0,0,0,0,5.196,97.88,65.01800404908,2.296588,6,P-GPS,
3200,2022-11-02 22:59:12,-34.9191628304692,-56.1671420147642,2.296588,2.3622048,62.65579924908,65.01800404908,4.593176,0,0.74455711044,2.40028550988,18,5,7.305,65.01800404908,2.296588,1.006623,0.74455711044,0,0,0,287.8, -0.4, -0.9,0,0,1024,1024,1024,1024,0,0,0,0,295.7,0,0,15,3.686,3.685,0,0,0,0,5.196,97.88,65.01800404908,2.296588,6,P-GPS,
3300,2022-11-02 22:59:12,-34.919162844898,-56.1671419033282,2.296588,2.3622048,62.65579924908,65.01800404908,4.593176,0,0.75059713688,2.43403551096,18,5,7.305,65.01800404908,2.296588,1.006623,0.75059713688,0,0,0,287.8, -0.4, -0.6,0,0,1024,1024,1024,1024,0,0,0,0,295.7,0,0,15,3.686,3.685,0,0,0,0,5.196,97.88,65.01800404908,2.296588,6,P-GPS,
3400,2022-11-02 22:59:12,-34.9191628801982,-56.1671418028835,2.296588,2.3622048,62.65579924908,65.01800404908,4.265092,0,0.74979661192,2.46672908156,18,5,7.305,65.01800404908,2.296588,1.006623,0.75059713688,0,0,0,287.8, -0.4, -0.4,0,0,1032,1024,1024,1024,1,0,0,0,295.7,0,0,15,3.686,3.685,0,0,0,0,5.196,97.88,65.01800404908,2.296588,6,P-GPS,
3500,2022-11-02 22:59:12,-34.9191629015731,-56.1671416045564,2.296588,2.3622048,62.65579924908,65.01800404908,4.265092,0,0.7680118356,2.52657160316,18,5,7.305,65.01800404908,2.296588,1.006623,0.7680118356,0,0,0,287.8, -0.7, -0.5,0,0,1024,1024,1024,1024,0,0,0,0,295.7,0,0,15,3.686,3.685,0,0,0,0,5.196,97.88,65.01800404908,2.296588,6,P-GPS,
3600,2022-11-02 22:59:13,-34.919162973201,-56.1671410261197,2.296588,2.3293964,62.68860764908,65.01800404908,4.265092,0,0.84079399016,2.70158145128,18,5,7.305,65.01800404908,2.296588,1.006623,0.84079399016,0,0,0,287.8, -1, -0.4,0,0,1024,1024,1024,1024,0,0,0,0,295.7,0,0,15,3.686,3.685,0,0,0,0,5.196,97.88,65.01800404908,2.296588,6,P-GPS,
3700,2022-11-02 22:59:13,-34.91916303534,-56.1671409508703,2.296588,2.3293964,62.68860764908,65.01800404908,4.265092,0,0.83778545988,2.7335302712,18,5,7.305,65.01800404908,2.296588,1.006623,0.84079399016,0,0,0,287.9, -0.8, -0.2,0,0,1169,1024,1024,1024,22,0,0,0,295.7,0,0,15,3.686,3.685,0,0,0,0,5.196,97.88,65.01800404908,2.296588,6,P-GPS,
3800,2022-11-02 22:59:13,-34.9191631076609,-56.1671409138634,2.296588,2.3293964,62.68860764908,65.01800404908,4.265092,0,0.82548230988,2.76214575768,18,5,7.305,65.01800404908,2.296588,1.006623,0.84079399016,0,0,0,287.9, -0.7, 0,0,0,1684,1024,1024,1024,100,0,0,0,295.7,0,0,15,3.686,3.685,0,0,0,0,5.196,97.88,65.01800404908,2.296588,6,P-GPS,
3900,2022-11-02 22:59:13,-34.9191632077059,-56.1671408462778,2.296588,2.3293964,62.68860764908,65.01800404908,4.265092,0,0.81331039348,2.8038714808,18,5,7.305,65.01800404908,2.296588,1.006623,0.84079399016,0,0,0,287.9, -5.1, 0.3,0,0,1684,1024,1024,1024,100,0,0,0,295.7,0,0,15,3.686,3.685,0,0,0,0,5.196,97.88,65.01800404908,2.296588,6,P-GPS,
4000,2022-11-02 22:59:13,-34.9191634109997,-56.1671407430095,2.296588,2.3293964,62.68860764908,65.01800404908,3.937008,0.223694,0.7868438572,2.8842192524,18,5,7.305,65.01800404908,2.296588,1.006623,0.84079399016,0,-0.223694,0,287.8, -13.2, 0.5,0,0,1684,1024,1024,1024,100,0,0,0,295.7,0,0,15,3.686,3.685,0,0,0,0,5.196,97.88,65.01800404908,2.296588,6,P-GPS,
4100,2022-11-02 22:59:13,-34.9191634257151,-56.1671409952327,2.296588,2.3293964,62.68860764908,65.01800404908,3.937008,0.894776,0.72620409148,2.95986558028,18,5,7.357,65.01800404908,2.296588,1.006623,0.84079399016,0,-0.894776,0,287.8, -16.9, 0.4,0,0,1684,1024,1024,1024,100,0,0,0,295.7,0,0,15,3.672,3.669,0,0,0,0,4.013,97.88,65.01800404908,2.296588,6,P-GPS,
4200,2022-11-02 22:59:13,-34.9191633624672,-56.1671415550066,2.296588,2.3622048,62.65579924908,65.01800404908,3.608924,1.3645334,0.63196524332,3.12891086128,18,5,7.357,65.01800404908,2.296588,1.3645334,0.84079399016,0.223694,-1.342164,0,287.7, -17.3, 0.4,0,0,1684,1024,1024,1024,100,0,0,0,295.7,0,0,15,3.672,3.669,0,0,0,0,4.013,97.88,65.01800404908,2.296588,6,P-GPS,
4300,2022-11-02 22:59:13,-34.9191631974932,-56.1671423781283,2.296588,2.3622048,62.65579924908,65.01800404908,3.608924,2.0579848,0.5868930634,3.3824148064,18,5,7.357,65.01800404908,2.296588,2.0579848,0.84079399016,0.447388,-2.013246,0,287.6, -16.9, 0.4,0,0,1684,1024,1266,1024,100,0,37,0,295.7,0,0,15,3.672,3.669,0,0,0,0,4.013,97.88,65.01800404908,2.296588,6,P-GPS,
4400,2022-11-02 22:59:13,-34.9191629352559,-56.1671434746775,2.296588,2.3622048,62.65579924908,65.01800404908,3.608924,2.7738056,0.7010170828,3.7241142924,19,5,7.357,65.01800404908,2.296588,2.7738056,0.84079399016,0.671082,-2.684328,0,287.6, -16.4, 0.6,0,0,1684,1024,1266,1024,100,0,37,0,295.7,0,0,15,3.672,3.669,0,0,0,0,4.013,97.88,65.01800404908,2.296588,6,P-GPS,
4500,2022-11-02 22:59:14,-34.9191626239601,-56.1671448595165,2.296588,2.4278216,62.59018244908,65.01800404908,3.937008,3.1988242,0.99966538632,4.153707482,19,5,7.357,65.01800404908,2.296588,3.1988242,0.99966538632,0.671082,-3.131716,0,287.4, -15.8, 0.6,0,0,1684,1024,1684,1024,100,0,100,0,295.7,0,0,15,3.672,3.669,0,0,0,0,4.013,97.88,65.01800404908,2.296588,6,P-GPS,
4600,2022-11-02 22:59:14,-34.9191622246493,-56.1671466039949,2.296588,2.4934384,62.52456564908,65.01800404908,3.937008,3.690951,1.472851097,4.695538208,18,5,7.357,65.01800404908,2.296588,3.690951,1.472851097,0.894776,-3.579104,-0.447388,287.2, -15.6, 0.3,0,0,1684,1024,1684,1024,100,0,100,0,295.7,0,0,15,3.672,3.669,0,0,0,0,4.013,97.88,65.01800404908,2.296588,6,P-GPS,
4700,2022-11-02 22:59:14,-34.9191617663417,-56.1671486569983,2.624672,2.8871392,62.45894884908,65.34608804908,4.265092,4.3844024,2.0709810374,5.3320867848,18,5,7.357,65.34608804908,2.624672,4.3844024,2.0709810374,1.11847,-4.250186,-1.11847,287.2, -14.8, 0.5,0,0,1684,1024,1684,1024,100,0,100,0,295.7,0,0,15,3.672,3.669,0,0,0,0,4.013,97.88,65.34608804908,2.624672,6,P-GPS,
4800,2022-11-02 22:59:14,-34.9191612138774,-56.1671511258997,2.624672,2.952756,62.39333204908,65.34608804908,4.593176,5.1002232,2.81292003752,6.0976707988,18,5,7.357,65.34608804908,2.624672,5.1002232,2.81292003752,1.342164,-4.921268,-1.789552,287.4, -13.9, 1.1,0,0,1684,1024,1684,1024,100,0,100,0,295.7,0,0,15,3.672,3.669,0,0,0,0,4.013,97.88,65.34608804908,2.624672,6,P-GPS,
4900,2022-11-02 22:59:14,-34.9191606293291,-56.1671540556637,3.28084,3.7073492,62.29490684908,66.00225604908,4.92126,5.59235,3.6951772836,6.9997377568,18,5,7.357,66.00225604908,3.28084,5.59235,3.6951772836,1.565858,-5.368656,-2.684328,287.4, -13.4, 1,0,0,1684,1024,1684,1024,100,0,100,0,295.7,0,0,15,3.672,3.669,0,0,0,0,4.013,97.88,66.00225604908,3.28084,6,P-GPS,
5000,2022-11-02 22:59:14,-34.9191599760564,-56.1671571342062,3.608924,4.1338584,62.19648164908,66.33034004908,5.577428,6.0173686,4.6358597284,7.9510501232,19,5,7.357,66.33034004908,3.608924,6.0173686,4.6358597284,1.565858,-5.816044,-3.579104,287.5, -13.2, 1.1,0,0,1547,1024,1171,1024,79,0,22,0,295.7,0,0,15,3.672,3.669,0,0,0,0,4.013,97.88,66.33034004908,3.608924,6,P-GPS,
5100,2022-11-02 22:59:14,-34.9191593405738,-56.1671603511904,4.265092,4.8884516,62.09805644908,66.98650804908,6.233596,6.7331894,5.6165356128,8.9409779764,19,5,7.331,66.98650804908,4.265092,6.7331894,5.6165356128,1.789552,-6.487126,-4.250186,287.4, -12.7, 1.1,0,0,1024,1024,1024,1024,0,0,0,0,295.7,0,0,15,3.645,3.641,0,0,0,0,5.286,97.88,66.98650804908,4.265092,6,P-GPS,
5200,2022-11-02 22:59:14,-34.9191586082582,-56.1671639427141,4.92126,5.6430448,61.99963124908,67.64267604908,6.889764,6.934514,6.7174214748,10.0481630512,19,5,7.331,67.64267604908,4.92126,6.934514,6.7174214748,1.789552,-6.71082,-4.47388,287.5, -10.3, 0.8,0,0,1024,1024,1024,1024,0,0,0,0,295.7,0,0,15,3.645,3.641,0,0,0,0,5.286,97.88,67.64267604908,4.92126,6,P-GPS,
5300,2022-11-02 22:59:14,-34.9191582926286,-56.1671674625509,5.577428,6.397638,61.90120604908,68.29884404908,7.545932,7.0016222,7.7520343688,11.107447862,19,5,7.331,68.29884404908,5.577428,7.0016222,7.7520343688,2.013246,-6.71082,-4.026492,287.6, -1.7, 0.5,0,0,1024,1024,1024,1024,0,0,0,0,295.7,0,0,15,3.645,3.641,0,0,0,0,5.286,97.88,68.29884404908,5.577428,6,P-GPS,
5400,2022-11-02 22:59:14,-34.9191576080443,-56.1671709406731,5.905512,6.8241472,61.80278084908,68.62692804908,8.2021,6.5094954,8.819554088,12.1775266364,19,5,7.331,68.62692804908,5.905512,7.0016222,8.819554088,1.789552,-6.263432,-3.579104,287.7, 20.2, 0.6,0,0,1024,1024,1024,1024,0,0,0,0,295.7,0,0,15,3.645,3.641,0,0,0,0,5.286,97.88,68.62692804908,5.905512,6,P-GPS,
5500,2022-11-02 22:59:15,-34.9191571356357,-56.1671738804567,6.56168,7.5787404,61.70435564908,69.28309604908,8.858268,5.816044,9.7110567412,13.0737208908,19,5,7.331,69.28309604908,6.56168,7.0016222,9.7110567412,1.565858,-5.59235,-3.131716,287.6, 21, 0,0,0,1024,1024,1024,1024,0,0,0,0,295.7,0,0,15,3.645,3.641,0,0,0,0,5.286,97.88,69.28309604908,6.56168,6,P-GPS,
5600,2022-11-02 22:59:15,-34.9191567524265,-56.1671766369904,6.56168,7.6443572,61.63873884908,69.28309604908,9.514436,5.0554844,10.541667004,13.9101382404,19,5,7.331,69.28309604908,6.56168,7.0016222,10.541667004,1.11847,-4.921268,-2.23694,287.9, 21, 0.7,0,0,1024,1024,1024,1024,0,0,0,0,295.7,0,0,15,3.645,3.641,0,0,0,0,5.286,97.88,69.28309604908,6.56168,6,P-GPS,
5700,2022-11-02 22:59:15,-34.9191568379728,-56.1671787161272,6.889764,8.038058,61.57312204908,69.61118004908,9.84252,4.3396636,11.1324150544,14.5329400976,19,5,7.331,69.61118004908,6.889764,7.0016222,11.1324150544,0.894776,-4.250186,-1.342164,288, 20.5, 0.9,0,0,1024,1024,1024,1024,0,0,0,0,295.7,0,0,15,3.645,3.641,0,0,0,0,5.286,97.88,69.61118004908,6.889764,6,P-GPS,
5800,2022-11-02 22:59:15,-34.9191565679143,-56.1671809235061,7.217848,8.3989504,61.54031364908,69.93926404908,9.84252,3.6462122,11.795932136,15.2005910376,19,5,7.331,69.93926404908,7.217848,7.0016222,11.795932136,0.671082,-3.579104,-0.671082,288, 19.9, 1.1,0,0,1024,1024,1024,1024,0,0,0,0,295.7,0,0,15,3.645,3.641,0,0,0,0,5.286,97.88,69.93926404908,7.217848,6,P-GPS,
5900,2022-11-02 22:59:15,-34.9191564701426,-56.1671825138382,7.217848,8.4973756,61.44188844908,69.93926404908,10.170604,2.9527608,12.2654859568,15.6776907904,19,5,7.331,69.93926404908,7.217848,7.0016222,12.2654859568,0.447388,-2.908022,-0.223694,287.9, 19.3, 1.5,0,0,1024,1024,1024,1024,0,0,0,0,295.7,0,0,15,3.645,3.641,0,0,0,0,5.286,97.88,69.93926404908,7.217848,6,P-GPS,
6000,2022-11-02 22:59:15,-34.9191564533417,-56.1671838283371,7.217848,8.530184,61.40908004908,69.93926404908,10.170604,2.23694,12.6483927932,16.0709978896,19,5,7.331,69.93926404908,7.217848,7.0016222,12.6483927932,0.223694,-2.23694,0,287.8, 18.6, 1.9,0,0,1024,1024,1024,1024,0,0,0,0,295.7,0,0,15,3.645,3.641,0,0,0,0,5.286,97.88,69.93926404908,7.217848,6,P-GPS,
6100,2022-11-02 22:59:15,-34.9191571391589,-56.1671836007987,7.217848,8.4645672,61.47469684908,69.93926404908,10.170604,1.565858,12.5243114244,16.3303154832,19,5,7.331,69.93926404908,7.217848,7.0016222,12.6483927932,0,-1.565858,0,287.6, 13.8, 2,0,0,1024,1024,1024,1024,0,0,0,0,295.7,0,0,15,3.645,3.641,0,0,0,0,5.286,97.88,69.93926404908,7.217848,6,P-GPS,
6200,2022-11-02 22:59:15,-34.9191573553101,-56.1671840684785,7.545932,8.7926512,61.47469684908,70.26734804908,10.170604,1.11847,12.6436683836,16.4909126012,19,5,7.357,70.26734804908,7.545932,7.0016222,12.6483927932,0,-1.11847,0,287.4, 9.6, 1.8,0,0,1024,1024,1024,1024,0,0,0,0,295.7,0,0,15,3.683,3.679,0,0,0,0,5.371,97.88,70.26734804908,7.545932,6,P-GPS,
6300,2022-11-02 22:59:15,-34.9191576262938,-56.1671842073889,7.545932,8.7598428,61.50750524908,70.26734804908,10.170604,0.671082,12.6635174656,16.5981632608,19,5,7.357,70.26734804908,7.545932,7.0016222,12.6635174656,0,-0.671082,0,287.4, 6.8, 1.6,0,0,1024,1024,1024,1024,0,0,0,0,295.7,0,0,15,3.683,3.679,0,0,0,0,5.371,97.88,70.26734804908,7.545932,6,P-GPS,
6400,2022-11-02 22:59:15,-34.9191579137419,-56.1671842264187,7.545932,8.7598428,61.50750524908,70.26734804908,10.170604,0.447388,12.6479334756,16.7031829492,19,5,7.357,70.26734804908,7.545932,7.0016222,12.6635174656,0,-0.447388,0,287.3, 4.8, 1.2,0,0,1024,1024,1024,1024,0,0,0,0,295.7,0,0,15,3.683,3.679,0,0,0,0,5.371,97.88,70.26734804908,7.545932,6,P-GPS,
6500,2022-11-02 22:59:16,-34.919158129231,-56.1671840037921,7.217848,8.4317588,61.50750524908,69.93926404908,9.84252,0.3131716,12.56725762,16.8062341336,19,5,7.357,70.26734804908,7.545932,7.0016222,12.6635174656,-0.223694,-0.223694,0,287.3, 3.3, 1,0,0,1024,1024,1024,1024,0,0,0,0,295.7,0,0,15,3.683,3.679,0,0,0,0,5.371,97.88,69.93926404908,7.217848,6,P-GPS,
6600,2022-11-02 22:59:16,-34.9191585979214,-56.1671826087624,7.217848,8.366142,61.57312204908,69.93926404908,9.84252,0.223694,12.1250988132,17.2572512084,19,5,7.357,70.26734804908,7.545932,7.0016222,12.6635174656,-0.223694,0,0,287.3, 2.3, 0.9,0,0,1024,1024,1024,1024,0,0,0,0,295.7,0,0,15,3.683,3.679,0,0,0,0,5.371,97.88,69.93926404908,7.217848,6,P-GPS,
6700,2022-11-02 22:59:16,-34.9191587407082,-56.1671822678949,7.217848,8.366142,61.57312204908,69.93926404908,9.84252,0.223694,12.01525629,17.3717525244,19,5,7.357,70.26734804908,7.545932,7.0016222,12.6635174656,-0.223694,0,0,287.3, 1.5, 0.8,0,0,1024,1024,1024,1024,0,0,0,0,295.7,0,0,15,3.683,3.679,0,0,0,0,5.371,97.88,69.93926404908,7.217848,6,P-GPS,
6800,2022-11-02 22:59:16,-34.9191588816172,-56.1671818873353,7.217848,8.366142,61.57312204908,69.93926404908,9.84252,0.223694,11.8939636352,17.4966869116,19,5,7.357,70.26734804908,7.545932,7.0016222,12.6635174656,-0.223694,0,0,287.3, 1, 0.8,0,0,1024,1024,1024,1024,0,0,0,0,295.7,0,0,15,3.683,3.679,0,0,0,0,5.371,97.88,69.93926404908,7.217848,6,P-GPS,
6900,2022-11-02 22:59:16,-34.9191589763424,-56.1671817179708,7.217848,8.366142,61.57312204908,69.93926404908,9.514436,0.223694,11.8378940796,17.5580058112,19,5,7.357,70.26734804908,7.545932,7.0016222,12.6635174656,-0.223694,0,0,287.4, 0.6, 0.9,0,0,1024,1024,1024,1024,0,0,0,0,295.7,0,0,15,3.683,3.679,0,0,0,0,5.371,97.88,69.93926404908,7.217848,6,P-GPS,
7000,2022-11-02 22:59:16,-34.9191588358315,-56.1671814987,7.217848,8.3333336,61.60593044908,69.93926404908,9.514436,0.223694,11.7826775424,17.6412735304,19,5,7.357,70.26734804908,7.545932,7.0016222,12.6635174656,-0.223694,0,0,287.4, -0.1, 1.1,0,0,1024,1024,1024,1024,0,0,0,0,295.7,0,0,15,3.683,3.679,0,0,0,0,5.371,97.88,69.93926404908,7.217848,6,P-GPS,
7100,2022-11-02 22:59:16,-34.9191588904306,-56.1671814132776,7.217848,8.3333336,61.60593044908,69.93926404908,9.514436,0.223694,11.7539045756,17.6736554212,19,5,7.357,70.26734804908,7.545932,7.0016222,12.6635174656,-0.223694,0,0,287.5, -0.6, 1.2,0,0,1024,1024,1024,1024,0,0,0,0,295.7,0,0,15,3.683,3.679,0,0,0,0,5.371,97.88,69.93926404908,7.217848,6,P-GPS,
7200,2022-11-02 22:59:16,-34.9191589343556,-56.1671813309426,7.217848,8.3333336,61.60593044908,69.93926404908,9.514436,0.223694,11.7267720288,17.7030517476,19,5,7.333,70.26734804908,7.545932,7.0016222,12.6635174656,-0.223694,0,0,287.5, -0.6, 1.4,0,0,1024,1024,1024,1024,0,0,0,0,295.7,0,0,15,3.666,3.664,0,0,0,0,4.343,98.06,69.93926404908,7.217848,6,P-GPS,
7300,2022-11-02 22:59:16,-34.9191590421285,-56.1671813281542,6.889764,8.0052496,61.60593044908,69.61118004908,9.186352,0,11.7188652044,17.7423890192,19,5,7.333,70.26734804908,7.545932,7.0016222,12.6635174656,0,0,0,287.5, -0.8, 1.8,0,0,1024,1024,1024,1024,0,0,0,0,295.7,0,0,15,3.666,3.664,0,0,0,0,4.343,98.06,69.61118004908,6.889764,6,P-GPS,
7400,2022-11-02 22:59:16,-34.9191590854058,-56.1671818510153,6.889764,8.038058,61.57312204908,69.61118004908,9.186352,0,11.8700463116,17.899606872,19,5,7.333,70.26734804908,7.545932,7.0016222,12.6635174656,0,0,0,287.5, -1, 1.7,0,0,1024,1024,1024,1024,0,0,0,0,295.7,0,0,15,3.666,3.664,0,0,0,0,4.343,98.06,69.61118004908,6.889764,6,P-GPS,
7500,2022-11-02 22:59:16,-34.9191591501562,-56.1671818356521,6.889764,8.038058,61.57312204908,69.61118004908,9.186352,0,11.8614177024,17.9236554292,19,5,7.333,70.26734804908,7.545932,7.0016222,12.6635174656,0,0,0,287.6, -1.4, 1.6,0,0,1024,1024,1024,1024,0,0,0,0,295.7,0,0,15,3.666,3.664,0,0,0,0,4.343,98.06,69.61118004908,6.889764,6,P-GPS,
7600,2022-11-02 22:59:17,-34.9191591907356,-56.1671818282269,6.889764,8.038058,61.57312204908,69.61118004908,9.186352,0,11.8566932928,17.938648868,19,5,7.333,70.26734804908,7.545932,7.0016222,12.6635174656,0,0,0,287.6, -1.2, 1.6,0,0,1024,1024,1024,1024,0,0,0,0,295.7,0,0,15,3.666,3.664,0,0,0,0,4.343,98.06,69.61118004908,6.889764,6,P-GPS,
7700,2022-11-02 22:59:17,-34.9191592614518,-56.1671818305953,6.889764,8.038058,61.57312204908,69.61118004908,9.186352,0,11.8529859436,17.9644362704,19,5,7.333,70.26734804908,7.545932,7.0016222,12.6635174656,0,0,0,287.7, -1.3, 1.6,0,0,1024,1024,1024,1024,0,0,0,0,295.7,-0.5,0,15,3.666,3.664,0,0,0,0,4.343,98.06,69.61118004908,6.889764,6,P-GPS,
7800,2022-11-02 22:59:17,-34.919159584275,-56.1671819979727,6.889764,8.0052496,61.60593044908,69.61118004908,9.186352,0,11.8830056296,18.0924218388,19,5,7.333,70.26734804908,7.545932,7.0016222,12.6635174656,0,0,0,287.7, -1, 1.5,0,0,1024,1024,1024,1024,0,0,0,0,295.7,-1.4,0,15,3.666,3.664,0,0,0,0,4.343,98.06,69.61118004908,6.889764,6,P-GPS,
7900,2022-11-02 22:59:17,-34.9191596804527,-56.1671820513105,6.56168,7.6771656,61.60593044908,69.28309604908,8.858268,0,11.893209042,18.1309717088,19,5,7.333,70.26734804908,7.545932,7.0016222,12.6635174656,0,0,0,287.7, -1.3, 2.1,0,0,1024,1024,1024,1024,0,0,0,0,295.7,-2.6,0,15,3.666,3.664,0,0,0,0,4.343,98.06,69.28309604908,6.56168,6,P-GPS,
8000,2022-11-02 22:59:17,-34.9191597535861,-56.1671821231179,6.56168,7.6771656,61.60593044908,69.28309604908,8.858268,0,11.9103022184,18.1652236784,19,5,7.333,70.26734804908,7.545932,7.0016222,12.6635174656,0,0,0,287.7, -1.1, 1.9,0,0,1024,1024,1024,1024,0,0,0,0,295.7,-3.9,0,15,3.666,3.664,0,0,0,0,4.343,98.06,69.28309604908,6.56168,6,P-GPS,
8100,2022-11-02 22:59:17,-34.9191598363159,-56.1671821439303,6.56168,7.6771656,61.60593044908,69.28309604908,8.858268,0,11.9118770216,18.1960635744,19,5,7.333,70.26734804908,7.545932,7.0016222,12.6635174656,0,0,0,287.7, -1.1, 1.9,0,0,1024,1024,1024,1024,0,0,0,0,295.7,-5.3,0,15,3.666,3.664,0,0,0,0,4.343,98.06,69.28309604908,6.56168,6,P-GPS,
8200,2022-11-02 22:59:17,-34.9191598961,-56.1671821722059,6.56168,7.6771656,61.60593044908,69.28309604908,8.858268,0,11.9169623236,18.2194559636,19,5,7.32,70.26734804908,7.545932,7.0016222,12.6635174656,0,0,0,287.8, -0.8, 1.9,0,0,1024,1024,1024,1024,0,0,0,0,295.7,-6.7,0,15,3.66,3.658,0,0,0,0,4.662,97.88,69.28309604908,6.56168,6,P-GPS,
8300,2022-11-02 22:59:17,-34.9191605976994,-56.1671820746912,6.56168,7.6115488,61.67154724908,69.28309604908,8.858268,0,11.8524938176,18.4770675204,19,5,7.32,70.26734804908,7.545932,7.0016222,12.6635174656,0,0,0,287.8, -1.6, 2.9,0,0,1024,1024,1024,1024,0,0,0,0,295.7,-8.1,0,15,3.66,3.658,0,0,0,0,4.662,97.88,69.28309604908,6.56168,6,P-GPS,
8400,2022-11-02 22:59:17,-34.9191606563018,-56.1671821015486,6.56168,7.6115488,61.67154724908,69.28309604908,8.858268,0,11.8577431616,18.4999349752,19,5,7.32,70.26734804908,7.545932,7.0016222,12.6635174656,0,0,0,287.8, -1, 2.5,0,0,1024,1024,1024,1024,0,0,0,0,295.7,-9.5,0,15,3.66,3.658,0,0,0,0,4.662,97.88,69.28309604908,6.56168,6,P-GPS,
8500,2022-11-02 22:59:18,-34.9191606705063,-56.1671821562538,6.56168,7.6115488,61.67154724908,69.28309604908,8.858268,0,11.8733271516,18.5170937684,19,5,7.32,70.26734804908,7.545932,7.0016222,12.6635174656,0,0,0,287.8, -0.8, 2.1,0,0,1024,1024,1024,1024,0,0,0,0,295.7,-10.9,0,15,3.66,3.658,0,0,0,0,4.662,97.88,69.28309604908,6.56168,6,P-GPS,
8600,2022-11-02 22:59:18,-34.9191606486437,-56.1671822259369,6.56168,7.6115488,61.67154724908,69.28309604908,8.858268,0,11.895013504,18.5394034804,19,5,7.32,70.26734804908,7.545932,7.0016222,12.6635174656,0,0,0,287.8, -0.4, 1.7,0,0,1024,1024,1024,1024,0,0,0,0,295.7,-12.1,0,15,3.66,3.658,0,0,0,0,4.662,97.88,69.28309604908,6.56168,6,P-GPS,
8700,2022-11-02 22:59:18,-34.91916090533,-56.167182380298,6.56168,7.6115488,61.67154724908,69.28309604908,8.858268,0,11.9293967072,18.6438326176,19,5,7.32,70.26734804908,7.545932,7.0016222,12.6635174656,0,0,0,287.9, -0.4, 2.1,0,0,1024,1024,1024,1024,0,0,0,0,295.7,-13.1,0,15,3.66,3.658,0,0,0,0,4.662,97.88,69.28309604908,6.56168,6,P-GPS,
8800,2022-11-02 22:59:18,-34.9191608793913,-56.1671824969855,6.56168,7.6115488,61.67154724908,69.28309604908,8.858268,0.223694,11.9651906716,18.6799874744,19,5,7.32,70.26734804908,7.545932,7.0016222,12.6635174656,0.223694,0,0,288, -0.2, 1.9,0,0,1024,1024,1024,1024,0,0,0,0,295.7,-13.7,0,15,3.66,3.658,0,0,0,0,4.662,97.88,69.28309604908,6.56168,6,P-GPS,
8900,2022-11-02 22:59:18,-34.9191607969961,-56.1671825976966,6.56168,7.6443572,61.63873884908,69.28309604908,8.858268,0.223694,11.998688048,18.7225727776,19,5,7.32,70.26734804908,7.545932,7.0016222,12.6635174656,0.223694,0,0,287.9, -0.2, 1.5,0,0,1024,1024,1024,1024,0,0,0,0,295.7,-13.8,0,15,3.66,3.658,0,0,0,0,4.662,97.88,69.28309604908,6.56168,6,P-GPS,
9000,2022-11-02 22:59:18,-34.9191606821188,-56.1671827017028,6.56168,7.6443572,61.63873884908,69.28309604908,8.858268,0.223694,12.0347116712,18.774770942,19,5,7.32,70.26734804908,7.545932,7.0016222,12.6635174656,0.223694,0,0,288, 0, 1.3,0,0,1024,1024,1024,1024,0,0,0,0,295.7,-13.2,0,15,3.66,3.658,0,0,0,0,4.662,97.88,69.28309604908,6.56168,6,P-GPS,
9100,2022-11-02 22:59:18,-34.9191608941401,-56.1671828430019,6.56168,7.6443572,61.63873884908,69.28309604908,8.858268,0.223694,12.0673232208,18.8628943044,19,5,7.32,70.26734804908,7.545932,7.0016222,12.6635174656,0.223694,0,0,288.1, 0, 1.5,0,0,1024,1024,1024,1024,0,0,0,0,295.7,-12.5,0,15,3.66,3.658,0,0,0,0,4.662,97.88,69.28309604908,6.56168,6,P-GPS,
9200,2022-11-02 22:59:18,-34.9191608591099,-56.1671829595654,6.56168,7.6443572,61.63873884908,69.28309604908,9.186352,0.223694,12.1034780776,18.9000662216,19,5,7.317,70.26734804908,7.545932,7.0016222,12.6635174656,0.223694,0,0,288.1, 0.1, 1.5,0,0,1024,1024,1024,1024,0,0,0,0,295.7,-11.9,0,15,3.659,3.656,0,0,0,0,4.675,98.06,69.28309604908,6.56168,6,P-GPS,
9300,2022-11-02 22:59:18,-34.9191608355544,-56.1671830590058,6.56168,7.6443572,61.63873884908,69.28309604908,9.186352,0.223694,12.134022698,18.9310045428,19,5,7.317,70.26734804908,7.545932,7.0016222,12.6635174656,0.223694,0,0,288, 0, 1.1,0,0,1024,1024,1024,1024,0,0,0,0,295.7,-11.6,0,15,3.659,3.656,0,0,0,0,4.675,98.06,69.28309604908,6.56168,6,P-GPS,
9400,2022-11-02 22:59:18,-34.9191607973788,-56.1671831568764,6.56168,7.6443572,61.63873884908,69.28309604908,9.186352,0.223694,12.1647641688,18.9634520504,19,5,7.317,70.26734804908,7.545932,7.0016222,12.6635174656,0.223694,0,0,288, 0, 0.9,0,0,1024,1024,1024,1024,0,0,0,0,295.7,-11.4,0,15,3.659,3.656,0,0,0,0,4.675,98.06,69.28309604908,6.56168,6,P-GPS,
9500,2022-11-02 22:59:19,-34.9191608899705,-56.1671832429903,6.56168,7.6443572,61.63873884908,69.28309604908,9.186352,0.223694,12.186352096,19.00590612,19,5,7.317,70.26734804908,7.545932,7.0016222,12.6635174656,0.223694,0,0,288.1, 0.1, 0.8,0,0,1024,1024,1024,1024,0,0,0,0,295.7,-11.3,0,15,3.659,3.656,0,0,0,0,4.675,98.06,69.28309604908,6.56168,6,P-GPS,
9600,2022-11-02 22:59:19,-34.9191607889691,-56.1671833236295,6.889764,7.9724412,61.63873884908,69.61118004908,9.186352,0,12.2146329368,19.0499678012,19,5,7.317,70.26734804908,7.545932,7.0016222,12.6635174656,0,0,0,288.2, -0.2, 1.4,0,0,1024,1024,1024,1024,0,0,0,0,295.7,-11.3,0,15,3.659,3.656,0,0,0,0,4.675,98.06,69.61118004908,6.889764,6,P-GPS,
9700,2022-11-02 22:59:19,-34.9191607641121,-56.1671833951514,6.889764,7.9724412,61.63873884908,69.61118004908,9.186352,0.223694,12.2369754572,19.0731961484,19,5,7.317,70.26734804908,7.545932,7.0016222,12.6635174656,0.223694,0,0,288.2, -0.2, 1.6,0,0,1024,1024,1024,1024,0,0,0,0,295.7,-11.3,0,15,3.659,3.656,0,0,0,0,4.675,98.06,69.61118004908,6.889764,6,P-GPS,
9800,2022-11-02 22:59:19,-34.9191607367001,-56.1671834663064,6.889764,7.9724412,61.63873884908,69.61118004908,9.186352,0.223694,12.2593179776,19.0967197712,19,5,7.317,70.26734804908,7.545932,7.0016222,12.6635174656,0.223694,0,0,288.2, -0.1, 1.5,0,0,1024,1024,1024,1024,0,0,0,0,295.7,-11.3,0,15,3.659,3.656,0,0,0,0,4.675,98.06,69.61118004908,6.889764,6,P-GPS,
9900,2022-11-02 22:59:19,-34.9191606647103,-56.1671835396072,6.889764,8.0052496,61.60593044908,69.61118004908,9.186352,0.223694,12.2842523616,19.1309389324,19,5,7.317,70.26734804908,7.545932,7.0016222,12.6635174656,0.223694,0,0,288.1, 0, 1.3,0,0,1024,1024,1024,1024,0,0,0,0,295.7,-11.3,0,15,3.659,3.656,0,0,0,0,4.675,98.06,69.61118004908,6.889764,6,P-GPS,
10000,2022-11-02 22:59:19,-34.9191608007875,-56.1671836133846,6.889764,8.0052496,61.60593044908,69.61118004908,9.186352,0.223694,12.300197244,19.1852696428,19,5,7.317,70.26734804908,7.545932,7.0016222,12.6635174656,0.223694,0,0,288.1, -0.1, 1.7,0,0,1024,1024,1024,1024,0,0,0,0,295.7,-11.3,0,15,3.659,3.656,0,0,0,0,4.675,98.06,69.61118004908,6.889764,6,P-GPS,
10100,2022-11-02 22:59:19,-34.9191607777149,-56.1671836863053,6.889764,8.0052496,61.60593044908,69.61118004908,9.186352,0.223694,12.3228678484,19.208662032,19,5,7.317,70.26734804908,7.545932,7.0016222,12.6635174656,0.223694,0,0,288.1, -0.1, 1.4,0,0,1024,1024,1024,1024,0,0,0,0,295.7,-11.3,0,15,3.659,3.656,0,0,0,0,4.675,98.06,69.61118004908,6.889764,6,P-GPS,
10200,2022-11-02 22:59:19,-34.9191607465123,-56.1671837608742,6.889764,8.0052496,61.60593044908,69.61118004908,9.186352,0.223694,12.3463586628,19.2336948412,19,5,7.314,70.26734804908,7.545932,7.0016222,12.6635174656,0.223694,0,0,288, 0, 0.7,0,0,1024,1024,1024,1024,0,0,0,0,295.7,-11.3,0,15,3.658,3.654,0,0,0,0,4.608,98.06,69.61118004908,6.889764,6,P-GPS,
10300,2022-11-02 22:59:19,-34.9191607086917,-56.1671838415108,6.889764,8.0052496,61.60593044908,69.61118004908,9.186352,0.223694,12.3719492148,19.261483556,19,5,7.314,70.26734804908,7.545932,7.0016222,12.6635174656,0.223694,0,0,287.9, 0, 0.5,0,0,1024,1024,1024,1024,0,0,0,0,295.7,-11.3,0,15,3.658,3.654,0,0,0,0,4.608,98.06,69.61118004908,6.889764,6,P-GPS,
10400,2022-11-02 22:59:19,-34.9191609553896,-56.1671839951882,6.889764,8.0052496,61.60593044908,69.61118004908,9.186352,0,12.4071854364,19.3625662364,19,5,7.314,70.26734804908,7.545932,7.0016222,12.6635174656,0,0,0,287.9, 0, 1.1,0,0,1024,1024,1024,1024,0,0,0,0,295.7,-11.3,0,15,3.658,3.654,0,0,0,0,4.608,98.06,69.61118004908,6.889764,6,P-GPS,
10500,2022-11-02 22:59:20,-34.9191609740076,-56.1671840843033,6.889764,8.0052496,61.60593044908,69.61118004908,9.186352,0.223694,12.432907222,19.3900596756,19,5,7.314,70.26734804908,7.545932,7.0016222,12.6635174656,0.223694,0,0,287.8, 0, 1.3,0,0,1024,1024,1024,1024,0,0,0,0,295.7,-11.3,0,15,3.658,3.654,0,0,0,0,4.608,98.06,69.61118004908,6.889764,6,P-GPS,
10600,2022-11-02 22:59:20,-34.9191609907061,-56.1671841749373,6.889764,8.0052496,61.60593044908,69.61118004908,9.186352,0,12.4591867504,19.4178811988,19,5,7.314,70.26734804908,7.545932,7.0016222,12.6635174656,0,0,0,287.8, 0, 1.3,0,0,1024,1024,1024,1024,0,0,0,0,295.7,-11.3,0,15,3.658,3.654,0,0,0,0,4.608,98.06,69.61118004908,6.889764,6,P-GPS,
10700,2022-11-02 22:59:20,-34.919160993474,-56.1671842681246,6.889764,8.0052496,61.60593044908,69.61118004908,9.186352,0.223694,12.4867786148,19.4457683388,19,5,7.314,70.26734804908,7.545932,7.0016222,12.6635174656,0.223694,0,0,287.8, 0, 1.5,0,0,1024,1024,1024,1024,0,0,0,0,295.7,-11.3,0,15,3.658,3.654,0,0,0,0,4.608,98.06,69.61118004908,6.889764,6,P-GPS,
10800,2022-11-02 22:59:20,-34.919161261706,-56.1671844507796,6.889764,8.0052496,61.60593044908,69.61118004908,9.186352,0,12.5307090624,19.5578418332,19,5,7.314,70.26734804908,7.545932,7.0016222,12.6635174656,0,0,0,287.8, 0, 1.7,0,0,1024,1024,1024,1024,0,0,0,0,295.7,-11.3,0,15,3.658,3.654,0,0,0,0,4.608,98.06,69.61118004908,6.889764,6,P-GPS,
10900,2022-11-02 22:59:20,-34.9191612457619,-56.1671844955991,6.889764,8.0052496,61.60593044908,69.61118004908,9.514436,0.223694,12.5446526324,19.5724743796,19,5,7.314,70.26734804908,7.545932,7.0016222,12.6635174656,0.223694,0,0,287.8, -0.4, 2,0,0,1024,1024,1024,1024,0,0,0,0,295.7,-11.3,0,15,3.658,3.654,0,0,0,0,4.608,98.06,69.61118004908,6.889764,6,P-GPS,
11000,2022-11-02 22:59:20,-34.9191612078411,-56.1671845340491,6.889764,8.038058,61.57312204908,69.61118004908,9.514436,0.223694,12.5575135252,19.5904533828,19,5,7.314,70.26734804908,7.545932,7.0016222,12.6635174656,0.223694,0,0,287.8, -0.3, 1.9,0,0,1024,1024,1024,1024,0,0,0,0,295.7,-11.3,0,15,3.658,3.654,0,0,0,0,4.608,98.06,69.61118004908,6.889764,6,P-GPS,
11100,2022-11-02 22:59:20,-34.9191611515865,-56.1671845976541,6.889764,8.038058,61.57312204908,69.61118004908,9.514436,0.223694,12.578576518,19.618438948,19,5,7.314,70.26734804908,7.545932,7.0016222,12.6635174656,0.223694,0,0,287.8, -0.3, 1.8,0,0,1024,1024,1024,1024,0,0,0,0,295.7,-11.3,0,15,3.658,3.654,0,0,0,0,4.608,98.06,69.61118004908,6.889764,6,P-GPS,
11200,2022-11-02 22:59:20,-34.9191611885754,-56.1671846438918,6.889764,8.038058,61.57312204908,69.61118004908,9.514436,0.223694,12.5909452848,19.6377630956,19,5,7.314,70.26734804908,7.545932,7.0016222,12.6635174656,0.223694,0,0,287.8, -0.2, 1.4,0,0,1024,1024,1024,1024,0,0,0,0,295.7,-11.3,0,15,3.658,3.654,0,0,0,0,4.608,98.06,69.61118004908,6.889764,6,P-GPS,
11300,2022-11-02 22:59:20,-34.9191611590131,-56.1671846387318,6.889764,8.038058,61.57312204908,69.61118004908,9.514436,0.223694,12.5905187756,19.6486554844,19,5,7.309,70.26734804908,7.545932,7.0016222,12.6635174656,0.223694,0,0,287.9, -0.4, 1.7,0,0,1024,1024,1024,1024,0,0,0,0,295.7,-11.3,0,15,3.657,3.652,0,0,0,0,4.656,98.06,69.61118004908,6.889764,6,P-GPS,
11400,2022-11-02 22:59:20,-34.9191611178672,-56.1671846242339,6.889764,8.038058,61.57312204908,69.61118004908,9.514436,0.223694,12.5877956784,19.6643050912,19,5,7.309,70.26734804908,7.545932,7.0016222,12.6635174656,0.223694,0,0,287.9, -0.2, 1.3,0,0,1024,1024,1024,1024,0,0,0,0,295.7,-11.3,0,15,3.657,3.652,0,0,0,0,4.656,98.06,69.61118004908,6.889764,6,P-GPS,
11500,2022-11-02 22:59:20,-34.9191610601869,-56.1671846374297,6.889764,8.038058,61.57312204908,69.61118004908,9.514436,0.223694,12.5939636576,19.685696168,19,5,7.309,70.26734804908,7.545932,7.0016222,12.6635174656,0.223694,0,0,287.9, -0.1, 1.1,0,0,1024,1024,1024,1024,0,0,0,0,295.7,-11.3,0,15,3.657,3.652,0,0,0,0,4.656,98.06,69.61118004908,6.889764,6,P-GPS,
11600,2022-11-02 22:59:21,-34.9191609903771,-56.1671846562701,6.889764,8.038058,61.57312204908,69.61118004908,9.514436,0.223694,12.6023297996,19.711778846,19,5,7.309,70.26734804908,7.545932,7.0016222,12.6635174656,0.223694,0,0,287.9, 0, 1,0,0,1024,1024,1024,1024,0,0,0,0,295.7,-11.3,0,15,3.657,3.652,0,0,0,0,4.656,98.06,69.61118004908,6.889764,6,P-GPS,
11700,2022-11-02 22:59:21,-34.9191612061972,-56.1671846103693,6.889764,8.038058,61.57312204908,69.61118004908,9.514436,0.223694,12.5802825548,19.7917329168,19,5,7.309,70.26734804908,7.545932,7.0016222,12.6635174656,0.223694,0,0,287.9, -0.1, 1.7,0,0,1024,1024,1024,1024,0,0,0,0,295.7,-11.3,0,15,3.657,3.652,0,0,0,0,4.656,98.06,69.61118004908,6.889764,6,P-GPS,
11800,2022-11-02 22:59:21,-34.9191611501254,-56.1671846510774,6.889764,8.038058,61.57312204908,69.61118004908,9.514436,0.223694,12.5945214004,19.8155190068,19,5,7.309,70.26734804908,7.545932,7.0016222,12.6635174656,0.223694,0,0,287.8, 0, 1.5,0,0,1024,1024,1024,1024,0,0,0,0,295.7,-11.3,0,15,3.657,3.652,0,0,0,0,4.656,98.06,69.61118004908,6.889764,6,P-GPS,
11900,2022-11-02 22:59:21,-34.919161069059,-56.16718469629,6.889764,8.038058,61.57312204908,69.61118004908,9.514436,0.223694,12.6111224508,19.8480649396,19,5,7.309,70.26734804908,7.545932,7.0016222,12.6635174656,0.223694,0,0,287.8, 0, 1.6,0,0,1024,1024,1024,1024,0,0,0,0,295.7,-11.3,0,15,3.657,3.652,0,0,0,0,4.656,98.06,69.61118004908,6.889764,6,P-GPS,
12000,2022-11-02 22:59:21,-34.9191609675085,-56.1671847394978,6.889764,8.038058,61.57312204908,69.61118004908,9.514436,0.223694,12.6279859684,19.887303786,19,5,7.309,70.26734804908,7.545932,7.0016222,12.6635174656,0.223694,0,0,287.8, 0, 1.4,0,0,1024,1024,1024,1024,0,0,0,0,295.7,-11.3,0,15,3.657,3.652,0,0,0,0,4.656,98.06,69.61118004908,6.889764,6,P-GPS,
12100,2022-11-02 22:59:21,-34.9191610463121,-56.1671847000095,6.889764,8.038058,61.57312204908,69.61118004908,9.514436,0.223694,12.6131237632,19.9183733408,19,5,7.309,70.26734804908,7.545932,7.0016222,12.6635174656,0.223694,0,0,287.8, -0.1, 1.6,0,0,1024,1024,1024,1024,0,0,0,0,295.7,-11.3,0,15,3.657,3.652,0,0,0,0,4.656,98.06,69.61118004908,6.889764,6,P-GPS,
12200,2022-11-02 22:59:21,-34.9191609836138,-56.167184683162,6.889764,8.038058,61.57312204908,69.61118004908,9.514436,0.223694,12.6105975164,19.9417985384,19,5,7.309,70.26734804908,7.545932,7.0016222,12.6635174656,0.223694,0,0,287.8, -0.1, 1.3,0,0,1024,1024,1024,1024,0,0,0,0,295.7,-11.3,0,15,3.657,3.652,0,0,0,0,4.656,98.06,69.61118004908,6.889764,6,P-GPS,
12300,2022-11-02 22:59:21,-34.9191608942895,-56.1671846533316,6.889764,8.038058,61.57312204908,69.61118004908,9.514436,0.223694,12.6053481724,19.9755911904,19,5,7.307,70.26734804908,7.545932,7.0016222,12.6635174656,0.223694,0,0,287.8, 0, 1,0,0,1024,1024,1024,1024,0,0,0,0,295.7,-11.3,0,15,3.655,3.652,0,0,0,0,4.606,98.06,69.61118004908,6.889764,6,P-GPS,
12400,2022-11-02 22:59:21,-34.9191607868322,-56.167184620709,6.889764,8.038058,61.57312204908,69.61118004908,9.514436,0.223694,12.6000988284,20.0159783308,19,5,7.307,70.26734804908,7.545932,7.0016222,12.6635174656,0.223694,0,0,287.8, 0, 1,0,0,1024,1024,1024,1024,0,0,0,0,295.7,-11.3,0,15,3.655,3.652,0,0,0,0,4.606,98.06,69.61118004908,6.889764,6,P-GPS,
12500,2022-11-02 22:59:22,-34.9191607695544,-56.1671846337063,6.889764,8.038058,61.57312204908,69.61118004908,9.514436,0.223694,12.6046920044,20.0233930292,19,5,7.307,70.26734804908,7.545932,7.0016222,12.6635174656,0.223694,0,0,287.7, -0.1, 0.9,0,0,1024,1024,1024,1024,0,0,0,0,295.7,-11.3,0,15,3.655,3.652,0,0,0,0,4.606,98.06,69.61118004908,6.889764,6,P-GPS,
12600,2022-11-02 22:59:22,-34.9191606614652,-56.1671846589775,6.889764,8.038058,61.57312204908,69.61118004908,9.514436,0.223694,12.6168311124,20.0635505108,19,5,7.307,70.26734804908,7.545932,7.0016222,12.6635174656,0.223694,0,0,287.8, -0.1, 0.7,0,0,1024,1024,1024,1024,0,0,0,0,295.7,-11.3,0,15,3.655,3.652,0,0,0,0,4.606,98.06,69.61118004908,6.889764,6,P-GPS,
12700,2022-11-02 22:59:22,-34.9191606178746,-56.1671846682096,6.889764,8.038058,61.57312204908,69.61118004908,9.514436,0.223694,12.6214570968,20.0796922436,19,5,7.307,70.26734804908,7.545932,7.0016222,12.6635174656,0.223694,0,0,287.8, -0.2, 0.7,0,0,1024,1024,1024,1024,0,0,0,0,295.7,-11.3,0,15,3.655,3.652,0,0,0,0,4.606,98.06,69.61118004908,6.889764,6,P-GPS,
12800,2022-11-02 22:59:22,-34.9191605765117,-56.1671846744262,6.889764,8.038058,61.57312204908,69.61118004908,9.514436,0.223694,12.6251316376,20.0949153412,19,5,7.307,70.26734804908,7.545932,7.0016222,12.6635174656,0.223694,0,0,287.8, -0.2, 0.7,0,0,1024,1024,1024,1024,0,0,0,0,295.7,-11.3,0,15,3.655,3.652,0,0,0,0,4.606,98.06,69.61118004908,6.889764,6,P-GPS,
12900,2022-11-02 22:59:22,-34.9191607498799,-56.1671845534942,6.889764,8.038058,61.57312204908,69.61118004908,9.514436,0.223694,12.581693316,20.1677827976,19,5,7.307,70.26734804908,7.545932,7.0016222,12.6635174656,0.223694,0,0,287.8, -0.3, 0.8,0,0,1024,1024,1024,1024,0,0,0,0,295.7,-11.3,0,15,3.655,3.652,0,0,0,0,4.606,98.06,69.61118004908,6.889764,6,P-GPS,
13000,2022-11-02 22:59:22,-34.9191607020277,-56.1671845000799,6.889764,8.038058,61.57312204908,69.61118004908,9.514436,0,12.5678809796,20.191437654,19,5,7.307,70.26734804908,7.545932,7.0016222,12.6635174656,0,0,0,287.8, -0.7, 1,0,0,1024,1024,1024,1024,0,0,0,0,295.7,-11.3,0,15,3.655,3.652,0,0,0,0,4.606,98.06,69.61118004908,6.889764,6,P-GPS,
13100,2022-11-02 22:59:22,-34.9191606480257,-56.1671844778805,6.889764,8.0052496,61.60593044908,69.61118004908,9.514436,0.223694,12.5636158876,20.2122381796,19,5,7.307,70.26734804908,7.545932,7.0016222,12.6635174656,0.223694,0,0,287.8, -0.8, 1.2,0,0,1024,1024,1024,1024,0,0,0,0,295.7,-11.3,0,15,3.655,3.652,0,0,0,0,4.606,98.06,69.61118004908,6.889764,6,P-GPS,
13200,2022-11-02 22:59:22,-34.9191605756401,-56.1671844678047,6.889764,8.0052496,61.60593044908,69.61118004908,9.514436,0.223694,12.563812738,20.2388129836,19,5,7.307,70.26734804908,7.545932,7.0016222,12.6635174656,0.223694,0,0,287.8, -0.9, 0.9,0,0,1024,1024,1024,1024,0,0,0,0,295.7,-11.3,0,15,3.655,3.652,0,0,0,0,4.606,98.06,69.61118004908,6.889764,6,P-GPS,
13300,2022-11-02 22:59:22,-34.9191605430655,-56.1671844807811,6.889764,8.0052496,61.60593044908,69.61118004908,9.514436,0.223694,12.5691276988,20.251312984,19,5,7.303,70.26734804908,7.545932,7.0016222,12.6635174656,0.223694,0,0,287.8, -0.6, 0.7,0,0,1024,1024,1024,1024,0,0,0,0,295.7,-11.3,0,15,3.652,3.649,0,0,0,0,4.605,98.24,69.61118004908,6.889764,6,P-GPS,
13400,2022-11-02 22:59:22,-34.9191606654402,-56.1671845161673,6.889764,8.038058,61.57312204908,69.61118004908,9.514436,0.223694,12.5742458092,20.2972119356,19,5,7.303,70.26734804908,7.545932,7.0016222,12.6635174656,0.223694,0,0,287.8, -0.5, 0.7,0,0,1024,1024,1024,1024,0,0,0,0,295.7,-11.6,0,15,3.652,3.649,0,0,0,0,4.605,98.24,69.61118004908,6.889764,6,P-GPS,
13500,2022-11-02 22:59:23,-34.9191606025204,-56.1671845079277,6.889764,8.038058,61.57312204908,69.61118004908,9.514436,0.223694,12.5745410848,20.3202762408,19,5,7.303,70.26734804908,7.545932,7.0016222,12.6635174656,0.223694,0,0,287.9, -0.4, 0.6,0,0,1024,1024,1024,1024,0,0,0,0,295.7,-12.4,0,15,3.652,3.649,0,0,0,0,4.605,98.24,69.61118004908,6.889764,6,P-GPS,
13600,2022-11-02 22:59:23,-34.9191605270673,-56.1671844997012,6.889764,8.0052496,61.60593044908,69.61118004908,9.514436,0.223694,12.57545972,20.347933722,19,5,7.303,70.26734804908,7.545932,7.0016222,12.6635174656,0.223694,0,0,287.9, -0.3, 0.5,0,0,1024,1024,1024,1024,0,0,0,0,295.7,-13.6,0,15,3.652,3.649,0,0,0,0,4.605,98.24,69.61118004908,6.889764,6,P-GPS,
13700,2022-11-02 22:59:23,-34.9191604924547,-56.1671845233595,6.889764,8.0708664,61.54031364908,69.61118004908,9.514436,0.223694,12.5840555208,20.3624022264,19,5,7.303,70.26734804908,7.545932,7.0016222,12.6635174656,0.223694,0,0,287.9, 0, 0.8,0,0,1024,1024,1024,1024,0,0,0,0,295.7,-14.8,0,15,3.652,3.649,0,0,0,0,4.605,98.24,69.61118004908,6.889764,6,P-GPS,
13800,2022-11-02 22:59:23,-34.9191605776174,-56.1671845225223,6.889764,8.038058,61.57312204908,69.61118004908,9.514436,0,12.5799872792,20.3934717812,19,5,7.303,70.26734804908,7.545932,7.0016222,12.6635174656,0,0,0,287.8, 0, 1.2,0,0,1024,1024,1024,1024,0,0,0,0,295.7,-15.8,0,15,3.652,3.649,0,0,0,0,4.605,98.24,69.61118004908,6.889764,6,P-GPS,
13900,2022-11-02 22:59:23,-34.9191605254604,-56.1671845487456,6.889764,8.038058,61.57312204908,69.61118004908,9.514436,0,12.5900922664,20.414042648,19,5,7.303,70.26734804908,7.545932,7.0016222,12.6635174656,0,0,0,287.8, -0.2, 1.1,0,0,1024,1024,1024,1024,0,0,0,0,295.7,-16.5,0,15,3.652,3.649,0,0,0,0,4.605,98.24,69.61118004908,6.889764,6,P-GPS,
14000,2022-11-02 22:59:23,-34.9191604568252,-56.167184572221,6.889764,8.0708664,61.54031364908,69.61118004908,9.514436,0,12.6001644452,20.4400597092,19,5,7.303,70.26734804908,7.545932,7.0016222,12.6635174656,0,0,0,287.8, -0.4, 1,0,0,1024,1024,1024,1024,0,0,0,0,295.7,-17,0,15,3.652,3.649,0,0,0,0,4.605,98.24,69.61118004908,6.889764,6,P-GPS,
14100,2022-11-02 22:59:23,-34.9191604237386,-56.1671845796077,6.889764,8.0708664,61.54031364908,69.61118004908,9.514436,0,12.6038717944,20.4523300508,19,5,7.303,70.26734804908,7.545932,7.0016222,12.6635174656,0,0,0,287.8, -0.4, 1.1,0,0,1024,1024,1024,1024,0,0,0,0,295.7,-17.2,0,15,3.652,3.649,0,0,0,0,4.605,98.24,69.61118004908,6.889764,6,P-GPS,
14200,2022-11-02 22:59:23,-34.9191605214695,-56.1671845690121,6.889764,8.038058,61.57312204908,69.61118004908,9.514436,0,12.596293054,20.4881240152,19,5,7.303,70.26734804908,7.545932,7.0016222,12.6635174656,0,0,0,287.8, -0.2, 1.3,0,0,1024,1024,1024,1024,0,0,0,0,295.7,-17.2,0,15,3.652,3.649,0,0,0,0,4.605,98.24,69.61118004908,6.889764,6,P-GPS,
14300,2022-11-02 22:59:23,-34.9191604494601,-56.1671845598936,6.889764,8.0708664,61.54031364908,69.61118004908,9.514436,0.223694,12.5968507968,20.5145347772,19,5,7.299,70.26734804908,7.545932,7.0016222,12.6635174656,0.223694,0,0,287.8, -0.3, 1.5,0,0,1024,1024,1024,1024,0,0,0,0,295.7,-17,0,15,3.65,3.648,0,0,0,0,4.663,98.24,69.61118004908,6.889764,6,P-GPS,
14400,2022-11-02 22:59:23,-34.9191603533528,-56.1671845467173,6.889764,8.0708664,61.54031364908,69.61118004908,9.514436,0.223694,12.5973757312,20.5498366156,19,5,7.299,70.26734804908,7.545932,7.0016222,12.6635174656,0.223694,0,0,287.8, -0.1, 1,0,0,1024,1024,1024,1024,0,0,0,0,295.7,-16.3,0,15,3.65,3.648,0,0,0,0,4.663,98.24,69.61118004908,6.889764,6,P-GPS,
14500,2022-11-02 22:59:24,-34.9191602921068,-56.167184531761,6.889764,8.0708664,61.54031364908,69.61118004908,9.514436,0.223694,12.595800928,20.5726384536,19,5,7.299,70.26734804908,7.545932,7.0016222,12.6635174656,0.223694,0,0,287.8, -0.2, 0.8,0,0,1024,1024,1024,1024,0,0,0,0,295.7,-15.2,0,15,3.65,3.648,0,0,0,0,4.663,98.24,69.61118004908,6.889764,6,P-GPS,
14600,2022-11-02 22:59:24,-34.919160315279,-56.1671844607209,6.889764,8.038058,61.57312204908,69.61118004908,9.514436,0.223694,12.573655258,20.5955059084,19,5,7.299,70.26734804908,7.545932,7.0016222,12.6635174656,0.223694,0,0,287.8, -0.3, 0.6,0,0,1024,1024,1024,1024,0,0,0,0,295.7,-13.9,0,15,3.65,3.648,0,0,0,0,4.663,98.24,69.61118004908,6.889764,6,P-GPS,
14700,2022-11-02 22:59:24,-34.9191602401273,-56.1671844954515,6.889764,8.038058,61.57312204908,69.61118004908,9.514436,0.223694,12.5875332112,20.6248038096,19,5,7.299,70.26734804908,7.545932,7.0016222,12.6635174656,0.223694,0,0,287.9, -0.2, 1,0,0,1024,1024,1024,1024,0,0,0,0,295.7,-12.5,0,15,3.65,3.648,0,0,0,0,4.663,98.24,69.61118004908,6.889764,6,P-GPS,
14800,2022-11-02 22:59:24,-34.9191601534682,-56.1671845387272,6.889764,8.0708664,61.54031364908,69.61118004908,9.514436,0,12.6045279624,20.6589901624,19,5,7.299,70.26734804908,7.545932,7.0016222,12.6635174656,0,0,0,287.8, -0.2, 0.7,0,0,1024,1024,1024,1024,0,0,0,0,295.7,-11.1,0,15,3.65,3.648,0,0,0,0,4.663,98.24,69.61118004908,6.889764,6,P-GPS,
14900,2022-11-02 22:59:24,-34.9191600777332,-56.1671845541798,6.889764,8.0708664,61.54031364908,69.61118004908,9.514436,0,12.612861296,20.687008536,19,5,7.299,70.26734804908,7.545932,7.0016222,12.6635174656,0,0,0,287.8, -0.1, 0.8,0,0,1024,1024,1024,1024,0,0,0,0,295.7,-9.6,0,15,3.65,3.648,0,0,0,0,4.663,98.24,69.61118004908,6.889764,6,P-GPS,
15000,2022-11-02 22:59:24,-34.9191599965752,-56.1671845635687,6.889764,8.0708664,61.54031364908,69.61118004908,9.514436,0,12.6196854432,20.7167329464,19,5,7.299,70.26734804908,7.545932,7.0016222,12.6635174656,0,0,0,287.7, 0, 1,0,0,1024,1024,1024,1024,0,0,0,0,295.7,-8.2,0,15,3.65,3.648,0,0,0,0,4.663,98.24,69.61118004908,6.889764,6,P-GPS,
15100,2022-11-02 22:59:24,-34.9191601823059,-56.1671847196818,6.889764,8.0708664,61.54031364908,69.61118004908,9.514436,0,12.6567917436,20.799049222,19,5,7.299,70.26734804908,7.545932,7.0016222,12.6635174656,0,0,0,287.7, -0.2, 1.6,0,0,1024,1024,1024,1024,0,0,0,0,295.7,-6.8,0,15,3.65,3.648,0,0,0,0,4.663,98.24,69.61118004908,6.889764,6,P-GPS,
15200,2022-11-02 22:59:24,-34.9191601655723,-56.1671847601758,6.889764,8.0708664,61.54031364908,69.61118004908,9.514436,0,12.669619828,20.8125990912,19,5,7.299,70.26734804908,7.545932,7.0016222,12.669619828,0,0,0,287.7, -0.2, 1.3,0,0,1024,1024,1024,1024,0,0,0,0,295.7,-5.6,0,15,3.65,3.648,0,0,0,0,4.663,98.24,69.61118004908,6.889764,6,P-GPS,
15300,2022-11-02 22:59:24,-34.9191601194612,-56.167184766203,6.889764,8.0708664,61.54031364908,69.61118004908,9.514436,0,12.6736552612,20.8295282256,19,5,7.297,70.26734804908,7.545932,7.0016222,12.6736552612,0,0,0,287.7, -0.3, 1.2,0,0,1024,1024,1024,1024,0,0,0,0,295.7,-4.8,0,15,3.648,3.646,0,0,0,0,4.643,98.24,69.61118004908,6.889764,6,P-GPS,
15400,2022-11-02 22:59:24,-34.9191600570947,-56.1671847671759,6.889764,8.0708664,61.54031364908,69.61118004908,9.514436,0,12.677001718,20.8522972552,19,5,7.297,70.26734804908,7.545932,7.0016222,12.677001718,0,0,0,287.7, -0.4, 0.9,0,0,1024,1024,1024,1024,0,0,0,0,295.7,-4.2,0,15,3.648,3.646,0,0,0,0,4.643,98.24,69.61118004908,6.889764,6,P-GPS,
15500,2022-11-02 22:59:24,-34.9191601595411,-56.1671846947776,6.889764,8.0708664,61.54031364908,69.61118004908,9.514436,0,12.6505253392,20.8954731096,19,5,7.297,70.26734804908,7.545932,7.0016222,12.677001718,0,0,0,287.7, -0.4, 1.2,0,0,1024,1024,1024,1024,0,0,0,0,295.7,-3.8,0,15,3.648,3.646,0,0,0,0,4.643,98.24,69.61118004908,6.889764,6,P-GPS,
15600,2022-11-02 22:59:25,-34.9191601282414,-56.167184685599,6.889764,8.0708664,61.54031364908,69.61118004908,9.514436,0,12.6493114284,20.9072185168,19,5,7.297,70.26734804908,7.545932,7.0016222,12.677001718,0,0,0,287.7, -0.3, 1.2,0,0,1024,1024,1024,1024,0,0,0,0,295.7,-3.8,0,15,3.648,3.646,0,0,0,0,4.643,98.24,69.61118004908,6.889764,6,P-GPS,
15700,2022-11-02 22:59:25,-34.9191601075854,-56.1671846824255,6.889764,8.0708664,61.54031364908,69.61118004908,9.514436,0,12.6493770452,20.9148300656,19,5,7.297,70.26734804908,7.545932,7.0016222,12.677001718,0,0,0,287.7, -0.3, 1.3,0,0,1024,1024,1024,1024,0,0,0,0,295.7,-3.8,0,15,3.648,3.646,0,0,0,0,4.643,98.24,69.61118004908,6.889764,6,P-GPS,
15800,2022-11-02 22:59:25,-34.9191600759993,-56.1671846824372,6.889764,8.0708664,61.54031364908,69.61118004908,9.514436,0,12.6509518484,20.926345814,19,5,7.297,70.26734804908,7.545932,7.0016222,12.677001718,0,0,0,287.7, -0.3, 1.2,0,0,1024,1024,1024,1024,0,0,0,0,295.7,-3.8,0,15,3.648,3.646,0,0,0,0,4.643,98.24,69.61118004908,6.889764,6,P-GPS,
15900,2022-11-02 22:59:25,-34.9191602245606,-56.1671848030401,6.889764,8.0708664,61.54031364908,69.61118004908,9.514436,0,12.6794951564,20.991470488,19,5,7.297,70.26734804908,7.545932,7.0016222,12.6794951564,0,0,0,287.7, -0.3, 1.5,0,0,1024,1024,1024,1024,0,0,0,0,295.7,-3.8,0,15,3.648,3.646,0,0,0,0,4.643,98.24,69.61118004908,6.889764,6,P-GPS,
16000,2022-11-02 22:59:25,-34.9191601978531,-56.1671848651719,6.889764,8.0708664,61.54031364908,69.61118004908,9.514436,0,12.6991801964,21.0124350556,19,5,7.297,70.26734804908,7.545932,7.0016222,12.6991801964,0,0,0,287.7, -0.2, 1.6,0,0,1024,1024,1024,1024,0,0,0,0,295.7,-3.8,0,15,3.648,3.646,0,0,0,0,4.643,98.24,69.61118004908,6.889764,6,P-GPS,
16100,2022-11-02 22:59:25,-34.9191601269384,-56.1671848925118,6.889764,8.0708664,61.54031364908,69.61118004908,9.514436,0,12.7107287532,21.0395676024,19,5,7.297,70.26734804908,7.545932,7.0016222,12.7107287532,0,0,0,287.6, -0.2, 1.5,0,0,1024,1024,1024,1024,0,0,0,0,295.7,-4.1,0,15,3.648,3.646,0,0,0,0,4.643,98.24,69.61118004908,6.889764,6,P-GPS,
16200,2022-11-02 22:59:25,-34.9191600373127,-56.1671849120444,6.889764,8.0708664,61.54031364908,69.61118004908,9.514436,0,12.7209321656,21.0728025116,19,5,7.297,70.26734804908,7.545932,7.0016222,12.7209321656,0,0,0,287.6, -0.1, 1.3,0,0,1024,1024,1024,1024,0,0,0,0,295.7,-4.6,0,15,3.648,3.646,0,0,0,0,4.643,98.24,69.61118004908,6.889764,6,P-GPS,
16300,2022-11-02 22:59:25,-34.919160032184,-56.1671848520348,6.889764,8.0708664,61.54031364908,69.61118004908,9.514436,0,12.7033796716,21.0908471316,19,5,7.297,70.26734804908,7.545932,7.0016222,12.7209321656,0,0,0,287.7, -0.1, 1.3,0,0,1024,1024,1024,1024,0,0,0,0,295.7,-5,0,15,3.648,3.646,0,0,0,0,4.643,98.24,69.61118004908,6.889764,6,P-GPS,
16400,2022-11-02 22:59:25,-34.9191599749828,-56.1671848384406,6.889764,8.0708664,61.54031364908,69.61118004908,9.514436,0,12.7021985692,21.1121069748,19,5,7.294,70.26734804908,7.545932,7.0016222,12.7209321656,0,0,0,287.7, -0.2, 1.4,0,0,1024,1024,1024,1024,0,0,0,0,295.7,-5.3,0,15,3.647,3.645,0,0,0,0,4.656,98.24,69.61118004908,6.889764,6,P-GPS,
