time(millisecond),datetime(utc),latitude,longitude,height_above_takeoff(feet),height_above_ground_at_drone_location(feet),ground_elevation_at_drone_location(feet),altitude_above_seaLevel(feet),height_sonar(feet),speed(mph),distance(feet),mileage(feet),satellites,gpslevel,voltage(v),max_altitude(feet),max_ascent(feet),max_speed(mph),max_distance(feet), xSpeed(mph), ySpeed(mph), zSpeed(mph), compass_heading(degrees), pitch(degrees), roll(degrees),isPhoto,isVideo,rc_elevator,rc_aileron,rc_throttle,rc_rudder,rc_elevator(percent),rc_aileron(percent),rc_throttle(percent),rc_rudder(percent),gimbal_heading(degrees),gimbal_pitch(degrees),gimbal_roll(degrees),battery_percent,voltageCell1,voltageCell2,voltageCell3,voltageCell4,voltageCell5,voltageCell6,current(A),battery_temperature(f),altitude(feet),ascent(feet),flycStateRaw,flycState,message
0,2022-08-29 20:36:35,-34.9137310992386,-56.1671491587504,0,0,57.842990039952,57.842990039952,0.328084,0,0,0,16,5,0,57.842990039952,0,0,0,0,0,0,5.7, -5, 1.1,0,0,364,364,364,1684,-100,-100,-100,100,14.9,0,0,95,4.271,4.264,0,0,0,0,0,68.18,57.842990039952,0,41,Motors_Started,"Aeronave en Zona de altitud restringida (150). Vuela con precaución (Code: 190001)"
100,2022-08-29 20:36:35,-34.9137308913925,-56.1671486214122,0,0,57.842990039952,57.842990039952,0.328084,0,0.177749677604,0.177749677604,16,5,0,57.842990039952,0,0,0.177749677604,0,0,0,6.1, -4.7, 1,0,0,364,364,364,1684,-100,-100,-100,100,15.7,0,0,95,4.271,4.264,0,0,0,0,0,68.18,57.842990039952,0,41,Motors_Started,"Setting new Return-To-Home altitude to 100m (328 ft). Data Recorder File Index is 25. Setting new Maximum Flight Altitude to 120m (394 ft)"
200,2022-08-29 20:36:35,-34.9137306983299,-56.1671481186757,0,0,57.842990039952,57.842990039952,0.328084,0,0.34383531284,0.34383531284,16,5,0,57.842990039952,0,0,0.34383531284,0,0,0,6.4, -4.8, 1.2,0,0,364,364,364,1684,-100,-100,-100,100,16.3,0,0,95,4.271,4.264,0,0,0,0,0,68.18,57.842990039952,0,41,Motors_Started,"En vuelo"
300,2022-08-29 20:36:35,-34.9137303283242,-56.1671474218067,0,0.032808399999993,57.810181639952,57.842990039952,0.328084,0,0.59089896904,0.59221458588,16,5,0,57.842990039952,0,0,0.59089896904,0,0,0,7.1, -5.1, 1.5,0,0,364,364,364,1684,-100,-100,-100,100,16.9,0,0,95,4.271,4.264,0,0,0,0,0,68.18,57.842990039952,0,41,Motors_Started,
400,2022-08-29 20:36:35,-34.9137301968958,-56.1671470115605,0,0.032808399999993,57.810181639952,57.842990039952,0.328084,0,0.72184713596,0.72398952448,17,5,0,57.842990039952,0,0,0.72184713596,0,0,0,7.8, -5.6, 1.4,0,0,364,364,364,1684,-100,-100,-100,100,17.6,0,0,95,4.271,4.264,0,0,0,0,0,68.18,57.842990039952,0,41,Motors_Started,
500,2022-08-29 20:36:36,-34.9137300576255,-56.1671466031843,0,0.032808399999993,57.810181639952,57.842990039952,0.328084,0,0.85381892496,0.85631236336,17,5,0,57.842990039952,0,0,0.85381892496,0,0,0,8, -6.5, 0.8,0,0,1024,1024,1024,1024,0,0,0,0,18.1,0,0,95,4.271,4.264,0,0,0,0,0,68.18,57.842990039952,0,41,Motors_Started,
600,2022-08-29 20:36:36,-34.9137299216594,-56.1671462278218,0,0.065616799999999,57.777373239952,57.842990039952,0.328084,0,0.97647969004,0.97908139616,16,5,0,57.842990039952,0,0,0.97647969004,0,0,0,8.1, -7.1, 0.8,0,0,1024,1024,1024,1024,0,0,0,0,18.3,0,0,95,4.271,4.264,0,0,0,0,0,68.18,57.842990039952,0,41,Motors_Started,
700,2022-08-29 20:36:36,-34.9137298800262,-56.1671460349221,0,0.065616799999999,57.777373239952,57.842990039952,0.328084,0,1.03505252656,1.03875987576,16,5,0,57.842990039952,0,0,1.03505252656,0,0,0,8.4, -7.5, 0.2,0,0,1024,1024,1024,1024,0,0,0,0,18.5,0,0,95,4.271,4.264,0,0,0,0,0,68.18,57.842990039952,0,41,Motors_Started,
800,2022-08-29 20:36:36,-34.9137299541013,-56.16714621657,0,0.065616799999999,57.777373239952,57.842990039952,0.328084,0,0.97437010992,1.09945541576,17,5,0,57.842990039952,0,0,1.03505252656,0,0,0,8.4, -7.5, 0.1,0,0,1024,1024,1024,1024,0,0,0,0,18.6,0,0,95,4.271,4.264,0,0,0,0,0,68.18,57.842990039952,0,41,Motors_Started,
900,2022-08-29 20:36:36,-34.9137300115792,-56.1671461052431,0,0.065616799999999,57.777373239952,57.842990039952,0.328084,0,0.99602037308,1.1388123724,17,5,0,57.842990039952,0,0,1.03505252656,0,0,0,8.4, -7.4, 0.6,0,0,1024,1024,1290,1055,0,0,40,5,18.7,0,0,95,4.271,4.264,0,0,0,0,0,68.18,57.842990039952,0,41,Motors_Started,
1000,2022-08-29 20:36:36,-34.9137300869656,-56.1671460015951,0,0.065616799999999,57.777373239952,57.842990039952,0.328084,0,1.01419950752,1.18026250496,17,5,0,57.842990039952,0,0,1.03505252656,0,0,0,8.6, -7.3, 0.4,0,0,1024,1024,1684,1024,0,0,100,0,18.8,0,0,95,4.271,4.264,0,0,0,0,0,68.18,57.842990039952,0,41,Motors_Started,
1100,2022-08-29 20:36:36,-34.9137300747625,-56.1671458366315,0,0.065616799999999,57.777373239952,57.842990039952,0.328084,0,1.0618766744,1.22981959316,17,5,0,57.842990039952,0,0,1.0618766744,0,0,0,8.8, -7.8, 1.2,0,0,1024,1024,1146,1024,0,0,18,0,19,0,0,95,4.271,4.264,0,0,0,0,0,68.18,57.842990039952,0,10,Assisted_Takeoff,
1200,2022-08-29 20:36:36,-34.9137303548939,-56.167146066191,0,0.065616799999999,57.777373239952,57.842990039952,0.328084,0.223694,0.9642716844,1.35295608004,17,5,0,57.842990039952,0,0.223694,1.0618766744,0,0.223694,-0.671082,9.8, -5.6, 0.5,0,0,1024,1024,1146,1024,0,0,18,0,19.1,0,0,95,4.271,4.264,0,0,0,0,0,68.18,57.842990039952,0,6,P-GPS,
1300,2022-08-29 20:36:36,-34.9137303010759,-56.16714577354,0,0.065616799999999,57.777373239952,57.842990039952,0.328084,0,1.05382877388,1.44268705404,17,5,8.577,57.842990039952,0,0.223694,1.0618766744,0,0,-0.223694,9.3, -4.4, 0.4,0,0,1024,1024,1024,1024,0,0,0,0,19.1,0,0,95,4.271,4.264,0,0,0,0,0.555,68.18,57.842990039952,0,6,P-GPS,
1400,2022-08-29 20:36:37,-34.9137302756221,-56.1671456176135,0,0.065616799999999,57.777373239952,57.842990039952,0.328084,0,1.10123691188,1.49025267236,17,5,8.577,57.842990039952,0,0.223694,1.10123691188,0,0,0,8.4, -4.6, 0.1,0,0,1024,1024,1024,1024,0,0,0,0,19.1,0,0,95,4.271,4.264,0,0,0,0,0.555,68.18,57.842990039952,0,6,P-GPS,
1500,2022-08-29 20:36:37,-34.9137303441002,-56.1671455102148,0,0.065616799999999,57.777373239952,57.842990039952,0.328084,0,1.12580712264,1.5309547734,17,5,8.577,57.842990039952,0,0.223694,1.12580712264,0,0,0,7.9, -4.1, 0,0,0,1024,1024,1275,1024,0,0,38,0,19.1,0,0,95,4.271,4.264,0,0,0,0,0.555,68.18,57.842990039952,0,6,P-GPS,
1600,2022-08-29 20:36:37,-34.913730488353,-56.1671455098491,0,0.065616799999999,57.777373239952,57.842990039952,0.328084,0,1.1142060724,1.58358600868,17,5,8.577,57.842990039952,0,0.223694,1.12580712264,0,0,0,7.4, -2.6, -0.7,0,0,1024,1024,1617,1024,0,0,90,0,19.1,0,0,95,4.271,4.264,0,0,0,0,0.555,68.18,57.842990039952,0,6,P-GPS,
1700,2022-08-29 20:36:37,-34.9137303229715,-56.1671454313374,0,0.065616799999999,57.777373239952,57.842990039952,0.328084,0.223694,1.15057746464,1.64833666692,17,5,8.577,57.842990039952,0,0.223694,1.15057746464,0.223694,0,-0.223694,7.4, 6.3, -1,0,0,1024,1024,1684,1024,0,0,100,0,19.1,0,0,95,4.271,4.264,0,0,0,0,0.555,68.18,57.842990039952,0,6,P-GPS,
1800,2022-08-29 20:36:37,-34.9137302329678,-56.1671453496392,0,0.065616799999999,57.777373239952,57.842990039952,0.328084,0,1.18263127144,1.6892717076,17,5,8.577,57.842990039952,0,0.223694,1.18263127144,0,0,0,8.8, 4.7, -0.1,0,0,1024,1024,1684,1024,0,0,100,0,19.1,0,0,95,4.271,4.264,0,0,0,0,0.555,68.18,57.842990039952,0,6,P-GPS,
1900,2022-08-29 20:36:37,-34.9137301758803,-56.1671454229586,0,0.065616799999999,57.777373239952,57.842990039952,0.328084,0,1.16734911872,1.7195210524,17,5,8.577,57.842990039952,0,0.223694,1.18263127144,0,0,-0.223694,8.9, 3, 0,0,0,1024,1024,1684,1024,0,0,100,0,19.1,0,0,95,4.271,4.264,0,0,0,0,0.555,68.18,57.842990039952,0,6,P-GPS,
2000,2022-08-29 20:36:37,-34.9137301135296,-56.1671459693337,0,0.065616799999999,57.777373239952,57.842990039952,0.656168,0,1.01973756544,1.88456042776,17,5,8.577,57.842990039952,0,0.223694,1.18263127144,0,0,-0.671082,9, 1.6, -0.1,0,0,1024,1024,1024,1024,0,0,0,0,19.1,0,0,95,4.271,4.264,0,0,0,0,0.555,68.18,57.842990039952,0,6,P-GPS,
2100,2022-08-29 20:36:37,-34.9137300131043,-56.167145933562,0.328084,0.3937008,57.777373239952,58.171074039952,0.656168,0,1.04312011212,1.92273300116,17,5,8.577,58.171074039952,0.328084,0.223694,1.18263127144,0,0,-1.11847,8.9, 1, -0.6,0,0,1024,1024,1024,1024,0,0,0,0,19.1,0,0,95,4.271,4.264,0,0,0,0,0.555,68.18,58.171074039952,0.328084,6,P-GPS,
2200,2022-08-29 20:36:37,-34.9137299156794,-56.167145918967,0.328084,0.3937008,57.777373239952,58.171074039952,0.984252,0,1.0611220812,1.9585466506,16,5,8.577,58.171074039952,0.328084,0.223694,1.18263127144,0,0,-1.565858,8.9, 0.6, -0.3,0,0,1024,1024,1024,1024,0,0,0,0,19.1,0,0,95,4.271,4.264,0,0,0,0,0.555,68.18,58.171074039952,0.328084,6,P-GPS,
2300,2022-08-29 20:36:37,-34.9137298512614,-56.1671459436332,0.656168,0.7217848,57.777373239952,58.499158039952,0.984252,0,1.06422903668,1.98317919732,16,5,8.517,58.499158039952,0.656168,0.223694,1.18263127144,0,0,-1.565858,8.9, 0.8, -0.6,0,0,1024,1024,1024,1024,0,0,0,0,19.1,0,0,95,4.232,4.243,0,0,0,0,1.405,68.18,58.499158039952,0.656168,6,P-GPS,
2400,2022-08-29 20:36:37,-34.9137297945687,-56.167145987815,0.984252,1.0498688,57.777373239952,58.827242039952,0.984252,0,1.06141079512,2.0077264422,16,5,8.517,58.827242039952,0.984252,0.223694,1.18263127144,0,0,-1.342164,8.9, 1, -0.2,0,0,1024,1024,1024,1024,0,0,0,0,19.1,0,0,95,4.232,4.243,0,0,0,0,1.405,68.18,58.827242039952,0.984252,6,P-GPS,
2500,2022-08-29 20:36:38,-34.9137295229669,-56.1671463449887,0.984252,1.0498688,57.777373239952,58.827242039952,3.937008,0,1.01951774916,2.153461355,16,5,8.517,58.827242039952,0.984252,0.223694,1.18263127144,0,0,-0.894776,8.8, 1.8, -0.4,0,0,1024,1024,1024,1024,0,0,0,0,19.1,0,0,95,4.232,4.243,0,0,0,0,1.405,68.18,58.827242039952,0.984252,6,P-GPS,
2600,2022-08-29 20:36:38,-34.9137295641199,-56.1671465091269,1.312336,1.3451444,57.810181639952,59.155326039952,4.265092,0,0.9706201098,2.20481306268,17,5,8.517,59.155326039952,1.312336,0.223694,1.18263127144,0,0,-0.447388,8.8, 1.4, 0,0,0,1024,1024,1024,1024,0,0,0,0,19.1,0,0,95,4.232,4.243,0,0,0,0,1.405,68.18,59.155326039952,1.312336,6,P-GPS,
2700,2022-08-29 20:36:38,-34.9137296722775,-56.1671466840781,1.312336,1.3451444,57.810181639952,59.155326039952,4.265092,0,0.905101735,2.27036424588,17,5,8.517,59.155326039952,1.312336,0.223694,1.18263127144,0,0,-0.223694,8.8, 1.3, 0,0,0,1024,1024,1024,1024,0,0,0,0,19.1,0,0,95,4.232,4.243,0,0,0,0,1.405,68.18,59.155326039952,1.312336,6,P-GPS,
2800,2022-08-29 20:36:38,-34.9137297887874,-56.167146848279,1.312336,1.3451444,57.810181639952,59.155326039952,4.265092,0,0.84049215288,2.33532815872,17,5,8.517,59.155326039952,1.312336,0.223694,1.18263127144,0,0,0,8.8, 1.1, 0.2,0,0,1684,1024,1024,1024,100,0,0,0,19.1,0,0,95,4.232,4.243,0,0,0,0,1.405,68.18,59.155326039952,1.312336,6,P-GPS,
2900,2022-08-29 20:36:38,-34.9137301282023,-56.1671466922375,1.312336,1.3451444,57.810181639952,59.155326039952,4.265092,0,0.81857614168,2.46767068264,17,5,8.517,59.155326039952,1.312336,0.223694,1.18263127144,0,0,0,8.8, -1.8, 0.5,0,0,1684,1024,1024,1024,100,0,0,0,19.1,0,0,95,4.232,4.243,0,0,0,0,1.405,68.18,59.155326039952,1.312336,6,P-GPS,
3000,2022-08-29 20:36:38,-34.9137302035813,-56.1671466687728,1.312336,1.3451444,57.810181639952,59.155326039952,4.265092,0,0.81347771632,2.49605322948,17,5,8.517,59.155326039952,1.312336,0.223694,1.18263127144,0,0,0,8.7, -11.5, 0.3,0,0,1684,1024,1024,1024,100,0,0,0,19.1,0,0,95,4.232,4.243,0,0,0,0,1.405,68.18,59.155326039952,1.312336,6,P-GPS,
3100,2022-08-29 20:36:38,-34.9137297687282,-56.1671468640545,1.64042,1.6732284,57.810181639952,59.483410039952,4.265092,0.447388,0.84081695604,2.6651247572,17,5,8.517,59.483410039952,1.64042,0.447388,1.18263127144,0.447388,0,0,8.7, -16.2, 0.4,0,0,1659,1024,1024,1024,96,0,0,0,19.1,0,0,95,4.232,4.243,0,0,0,0,1.405,68.18,59.483410039952,1.64042,6,P-GPS,
3200,2022-08-29 20:36:38,-34.9137291470133,-56.1671470143604,1.64042,1.7060368,57.777373239952,59.483410039952,3.937008,1.11847,0.95860895456,2.89637148376,17,5,8.517,59.483410039952,1.64042,1.11847,1.18263127144,1.11847,0,0,8.7, -16.8, 0.4,0,0,1684,1024,1024,1024,100,0,0,0,19.1,0,0,95,4.232,4.243,0,0,0,0,1.405,68.18,59.483410039952,1.64042,6,P-GPS,
3300,2022-08-29 20:36:38,-34.9137281421811,-56.1671476784665,1.64042,1.7388452,57.744564839952,59.483410039952,3.608924,1.789552,1.16624347564,3.3133531244,17,5,8.329,59.483410039952,1.64042,1.789552,1.18263127144,1.789552,0,0,8.7, -16.4, 0.3,0,0,1684,1024,1024,1024,100,0,0,0,19.1,0,0,95,4.172,4.163,0,0,0,0,3.26,68.18,59.483410039952,1.64042,6,P-GPS,
3400,2022-08-29 20:36:38,-34.9137273239312,-56.1671478018078,1.64042,1.7716536,57.711756439952,59.483410039952,3.608924,2.460634,1.43600070212,3.614173344,17,5,8.329,59.483410039952,1.64042,2.460634,1.43600070212,2.460634,0,0,8.7, -15.9, 0.5,0,0,1550,1024,1024,1024,80,0,0,0,19.1,0,0,95,4.172,4.163,0,0,0,0,3.26,68.18,59.483410039952,1.64042,6,P-GPS,
3500,2022-08-29 20:36:39,-34.9137261902992,-56.1671477790849,1.64042,1.804462,57.678948039952,59.483410039952,3.608924,3.131716,1.83797249976,4.0278216512,17,5,8.329,59.483410039952,1.64042,3.131716,1.83797249976,3.131716,0.223694,0,8.7, -14.1, 0.7,0,0,1262,1024,1024,1024,36,0,0,0,19.1,0,0,95,4.172,4.163,0,0,0,0,3.26,68.18,59.483410039952,1.64042,6,P-GPS,
3600,2022-08-29 20:36:39,-34.9137249236038,-56.1671477138935,1.64042,1.8372704,57.646139639952,59.483410039952,3.937008,3.579104,2.29426844612,4.4903872828,16,5,8.329,59.483410039952,1.64042,3.579104,2.29426844612,3.579104,0.223694,0,8.7, -6.4, 0.9,0,0,1104,1024,1024,1024,12,0,0,0,19.1,0,0,95,4.172,4.163,0,0,0,0,3.26,68.18,59.483410039952,1.64042,6,P-GPS,
3700,2022-08-29 20:36:39,-34.9137231392317,-56.1671475004856,1.64042,1.8700788,57.613331239952,59.483410039952,3.937008,3.8251674,2.946276341,5.1445539704,16,5,8.329,59.483410039952,1.64042,3.8251674,2.946276341,3.802798,0.447388,0,8.7, -1.3, 0.5,0,0,1024,1024,1024,1024,0,0,0,0,19.1,0,0,95,4.172,4.163,0,0,0,0,3.26,68.18,59.483410039952,1.64042,6,P-GPS,
3800,2022-08-29 20:36:39,-34.9137216207744,-56.1671473464396,1.64042,1.9356956,57.547714439952,59.483410039952,4.265092,3.8251674,3.5004594296,5.7004595,15,5,8.329,59.483410039952,1.64042,3.8251674,3.5004594296,3.802798,0.447388,0,8.7, 4.1, 0.4,0,0,1062,1024,1024,1024,6,0,0,0,19.1,0,0,95,4.172,4.163,0,0,0,0,3.26,68.18,59.483410039952,1.64042,6,P-GPS,
3900,2022-08-29 20:36:39,-34.9137201675807,-56.167147225731,1.64042,2.0013124,57.482097639952,59.483410039952,4.265092,3.35541,4.0301182392,6.2318899632,15,5,8.329,59.483410039952,1.64042,3.8251674,4.0301182392,3.35541,0.223694,0,8.7, 13.1, 0.7,0,0,1684,1024,1024,1024,100,0,0,0,19.1,0,0,95,4.172,4.163,0,0,0,0,3.26,68.18,59.483410039952,1.64042,6,P-GPS,
4000,2022-08-29 20:36:39,-34.9137189589516,-56.1671471459133,1.64042,2.0013124,57.482097639952,59.483410039952,4.265092,2.908022,4.4701116916,6.6735238356,16,5,8.329,59.483410039952,1.64042,3.8251674,4.4701116916,2.908022,0.223694,0,8.7, 8.3, 0.7,0,0,1684,1024,1024,1024,100,0,0,0,19.1,0,0,95,4.172,4.163,0,0,0,0,3.26,68.18,59.483410039952,1.64042,6,P-GPS,
4100,2022-08-29 20:36:39,-34.9137178165412,-56.1671472400021,1.64042,2.0341208,57.449289239952,59.483410039952,4.593176,2.460634,4.8800526496,7.0912731928,16,5,8.329,59.483410039952,1.64042,3.8251674,4.8800526496,2.460634,0.223694,0,8.6, -5.6, 0.3,0,0,1024,1024,1024,1024,0,0,0,0,19.1,0,0,95,4.172,4.163,0,0,0,0,3.26,68.18,59.483410039952,1.64042,6,P-GPS,
4200,2022-08-29 20:36:39,-34.9137166204157,-56.1671475800735,1.64042,2.0669292,57.416480839952,59.483410039952,4.593176,2.684328,5.3036747104,7.53937032,17,5,8.329,59.483410039952,1.64042,3.8251674,5.3036747104,2.684328,0.223694,0,8.6, -12.5, 0.4,0,0,1024,1024,1024,1024,0,0,0,0,19.1,0,0,95,4.172,4.163,0,0,0,0,3.26,68.18,59.483410039952,1.64042,6,P-GPS,
4300,2022-08-29 20:36:39,-34.9137154027499,-56.1671478187116,1.968504,2.46063,57.350864039952,59.811494039952,4.593176,2.684328,5.7408794488,7.989337526,17,5,8.36,59.811494039952,1.968504,3.8251674,5.7408794488,2.908022,0.223694,0,8.6, -4.8, 0.7,0,0,1024,1024,1024,1024,0,0,0,0,19.1,0,0,95,4.167,4.154,0,0,0,0,3.987,68.18,59.811494039952,1.968504,6,P-GPS,
4400,2022-08-29 20:36:40,-34.9137141954737,-56.1671480397147,1.968504,2.4934384,57.318055639952,59.811494039952,4.593176,2.684328,6.1764109588,8.4347443644,17,5,8.36,59.811494039952,1.968504,3.8251674,6.1764109588,2.684328,0.223694,0,8.7, 10.4, 0.5,0,0,1024,1024,1024,1024,0,0,0,0,19.1,0,0,95,4.167,4.154,0,0,0,0,3.987,68.18,59.811494039952,1.968504,6,P-GPS,
4500,2022-08-29 20:36:40,-34.9137131549574,-56.1671483479426,1.968504,2.4934384,57.318055639952,59.811494039952,4.593176,2.684328,6.5514437792,8.8254267916,17,5,8.36,59.811494039952,1.968504,3.8251674,6.5514437792,2.23694,0.223694,0,8.7, 13, 0.5,0,0,1024,1024,1024,1024,0,0,0,0,19.1,0,0,95,4.167,4.154,0,0,0,0,3.987,68.18,59.811494039952,1.968504,6,P-GPS,
4600,2022-08-29 20:36:40,-34.9137126227045,-56.1671494437538,1.968504,2.4934384,57.318055639952,59.811494039952,4.593176,1.8119214,6.7416996908,9.2064635492,16,5,8.36,59.811494039952,1.968504,3.8251674,6.7416996908,1.789552,0.223694,0,8.8, 11.3, 0.4,0,0,1079,1024,1024,1024,8,0,0,0,19.1,0,0,95,4.167,4.154,0,0,0,0,3.987,68.18,59.811494039952,1.968504,6,P-GPS,
4700,2022-08-29 20:36:40,-34.9137119658432,-56.1671495683593,1.968504,2.4934384,57.318055639952,59.811494039952,4.593176,1.342164,6.9818899872,9.4490160504,16,5,8.36,59.811494039952,1.968504,3.8251674,6.9818899872,1.342164,0,0,8.8, 9.1, 0.3,0,0,1024,1024,1310,1024,0,0,43,0,19.1,0,0,95,4.167,4.154,0,0,0,0,3.987,68.18,59.811494039952,1.968504,6,P-GPS,
4800,2022-08-29 20:36:40,-34.913711481272,-56.1671496948244,1.968504,2.5262468,57.285247239952,59.811494039952,4.593176,1.11847,7.1594162396,9.6297903344,16,5,8.36,59.811494039952,1.968504,3.8251674,7.1594162396,1.11847,0,0,8.8, 5.8, 0.2,0,0,1024,1024,1684,1024,0,0,100,0,19.1,0,0,95,4.167,4.154,0,0,0,0,3.987,68.18,59.811494039952,1.968504,6,P-GPS,
4900,2022-08-29 20:36:40,-34.9137110307841,-56.1671494912684,1.968504,2.5590552,57.252438839952,59.811494039952,4.593176,0.671082,7.3226380296,9.8050856156,16,5,8.36,59.811494039952,1.968504,3.8251674,7.3226380296,0.671082,0,-0.223694,8.8, 5.1, 0.6,0,0,1024,1024,1024,1024,0,0,0,0,19.1,0,0,95,4.167,4.154,0,0,0,0,3.987,68.18,59.811494039952,1.968504,6,P-GPS,
5000,2022-08-29 20:36:40,-34.9137107613515,-56.1671484080044,1.968504,2.5590552,57.252438839952,59.811494039952,4.92126,0.447388,7.4236550932,10.1437667288,16,5,8.36,59.811494039952,1.968504,3.8251674,7.4236550932,0.447388,0,-0.894776,8.8, 3.6, 0.7,0,0,1291,1024,1024,1024,40,0,0,0,19.1,0,0,95,4.167,4.154,0,0,0,0,3.987,68.18,59.811494039952,1.968504,6,P-GPS,
5100,2022-08-29 20:36:40,-34.9137107698943,-56.1671483478695,2.296588,2.8871392,57.252438839952,60.139578039952,4.92126,0.223694,7.4211288464,10.1620081992,16,5,8.36,60.139578039952,2.296588,3.8251674,7.4236550932,0.223694,0,-1.11847,8.7, 2.3, 0.2,0,0,1673,1024,1024,1024,98,0,0,0,19.1,0,0,95,4.167,4.154,0,0,0,0,3.987,68.18,60.139578039952,2.296588,6,P-GPS,"Punto de origen actualizado. Altitud de RPO establecida en 100m (Code: 3000001)"
5200,2022-08-29 20:36:40,-34.9137108187346,-56.1671483074174,2.296588,2.8871392,57.252438839952,60.139578039952,5.249344,0.223694,7.403707586,10.183563318,16,5,8.36,60.139578039952,2.296588,3.8251674,7.4236550932,0.223694,0,-0.894776,8.7, 1.1, 0.5,0,0,1673,1024,1024,1024,98,0,0,0,19.1,0,0,95,4.167,4.154,0,0,0,0,3.987,68.18,60.139578039952,2.296588,6,P-GPS,
5300,2022-08-29 20:36:40,-34.9137107799532,-56.1671485042558,2.624672,3.2152232,57.252438839952,60.467662039952,5.249344,0.223694,7.4160763528,10.2441276244,16,5,8.332,60.467662039952,2.624672,3.8251674,7.4236550932,0.223694,0,-0.447388,8.6, -7.9, 0.6,0,0,1684,1024,1024,1024,100,0,0,0,19.1,0,0,95,4.162,4.154,0,0,0,0,4.281,68.36,60.467662039952,2.624672,6,P-GPS,
5400,2022-08-29 20:36:40,-34.9137110715033,-56.167148652211,2.624672,3.2152232,57.252438839952,60.467662039952,5.249344,0.671082,7.3086944596,10.3593507252,15,5,8.332,60.467662039952,2.624672,3.8251674,7.4236550932,0.671082,0,-0.223694,8.6, -15, 0.6,0,0,1684,1024,1024,1024,100,0,0,0,19.1,0,0,95,4.162,4.154,0,0,0,0,4.281,68.36,60.467662039952,2.624672,6,P-GPS,
5500,2022-08-29 20:36:41,-34.9137107783818,-56.1671488414959,2.624672,3.2152232,57.252438839952,60.467662039952,5.249344,1.342164,7.4146655916,10.4803481044,15,5,8.332,60.467662039952,2.624672,3.8251674,7.4236550932,1.342164,0,0,8.6, -16.8, 0.7,0,0,1684,1024,1024,1024,100,0,0,0,19.1,0,0,95,4.162,4.154,0,0,0,0,4.281,68.36,60.467662039952,2.624672,6,P-GPS,
5600,2022-08-29 20:36:41,-34.9137102787736,-56.1671489839245,2.624672,3.2480316,57.219630439952,60.467662039952,5.249344,2.013246,7.5965225528,10.6675528348,14,5,8.332,60.467662039952,2.624672,3.8251674,7.5965225528,2.013246,0,0,8.6, -16.7, 0.9,0,0,1684,1024,1024,1024,100,0,0,0,19.1,0,0,95,4.162,4.154,0,0,0,0,4.281,68.36,60.467662039952,2.624672,6,P-GPS,
5700,2022-08-29 20:36:41,-34.9137093312943,-56.1671490496697,2.624672,3.28084,57.186822039952,60.467662039952,5.249344,2.684328,7.94209343,11.01377988,14,5,8.332,60.467662039952,2.624672,3.8251674,7.94209343,2.684328,0.223694,0,8.5, -16.2, 1,0,0,1684,1024,1024,1024,100,0,0,0,19.1,0,0,95,4.162,4.154,0,0,0,0,4.281,68.36,60.467662039952,2.624672,6,P-GPS,
5800,2022-08-29 20:36:41,-34.9137082144179,-56.1671490627915,2.624672,3.3136484,57.154013639952,60.467662039952,5.249344,3.131716,8.349573758,11.4212930164,15,5,8.332,60.467662039952,2.624672,3.8251674,8.349573758,3.131716,0.223694,0,8.4, -15.7, 0.9,0,0,1684,1024,1024,1024,100,0,0,0,19.1,0,0,95,4.162,4.154,0,0,0,0,4.281,68.36,60.467662039952,2.624672,6,P-GPS,
5900,2022-08-29 20:36:41,-34.9137064233721,-56.1671490487816,2.624672,3.3464568,57.121205239952,60.467662039952,5.249344,3.8251674,9.0030514692,12.0747707276,15,5,8.332,60.467662039952,2.624672,3.8251674,9.0030514692,3.802798,0.447388,0,8.3, -15.2, 0.8,0,0,1684,1024,1024,1024,100,0,0,0,19.1,0,0,95,4.162,4.154,0,0,0,0,4.281,68.36,60.467662039952,2.624672,6,P-GPS,
6000,2022-08-29 20:36:41,-34.9137048646353,-56.1671488514523,2.624672,3.3792652,57.088396839952,60.467662039952,5.249344,4.4962494,9.5721131672,12.6465555228,16,5,8.332,60.467662039952,2.624672,4.4962494,9.5721131672,4.47388,0.447388,0,8.4, -14.8, 0.8,0,0,1684,1024,1024,1024,100,0,0,0,19.1,0,0,95,4.162,4.154,0,0,0,0,4.281,68.36,60.467662039952,2.624672,6,P-GPS,
6100,2022-08-29 20:36:41,-34.9137029197944,-56.1671485658951,2.624672,3.444882,57.022780039952,60.467662039952,5.249344,4.9436374,10.2827759196,13.3612537084,16,5,8.332,60.467662039952,2.624672,4.9436374,10.2827759196,4.921268,0.447388,0,8.3, -14.6, 0.8,0,0,1684,1024,1024,1024,100,0,0,0,19.1,0,0,95,4.162,4.154,0,0,0,0,4.281,68.36,60.467662039952,2.624672,6,P-GPS,
6200,2022-08-29 20:36:41,-34.9137008790789,-56.1671482626296,2.624672,3.5104988,56.957163239952,60.467662039952,5.249344,5.4133948,11.0290685944,14.1112865408,16,5,8.332,60.467662039952,2.624672,5.4133948,11.0290685944,5.368656,0.671082,0,8.3, -14.3, 0.5,0,0,1684,1024,1024,1024,100,0,0,0,19.1,0,0,95,4.162,4.154,0,0,0,0,4.281,68.36,60.467662039952,2.624672,6,P-GPS,
6300,2022-08-29 20:36:41,-34.91369755534,-56.1671477488085,2.624672,3.608924,56.858738039952,60.467662039952,5.249344,5.8607828,12.2457353,15.333661908,16,5,8.32,60.467662039952,2.624672,5.8607828,12.2457353,5.816044,0.671082,0,8.2, -14.2, 0.7,0,0,1684,1024,1024,1024,100,0,0,0,19.1,0,0,95,4.162,4.174,0,0,0,0,4.613,68.36,60.467662039952,2.624672,6,P-GPS,
6400,2022-08-29 20:36:42,-34.9136950022688,-56.1671474419909,2.624672,3.7073492,56.760312839952,60.467662039952,5.577428,6.3081708,13.17995449,16.2696527516,16,5,8.32,60.467662039952,2.624672,6.3081708,13.17995449,6.263432,0.671082,0,8.2, -14.2, 1,0,0,1251,1024,1024,1024,34,0,0,0,19.1,0,0,95,4.162,4.174,0,0,0,0,4.613,68.36,60.467662039952,2.624672,6,P-GPS,
6500,2022-08-29 20:36:42,-34.9136922466354,-56.1671472713859,2.624672,3.8057744,56.661887639952,60.467662039952,5.577428,6.7331894,14.1865818188,17.2763456972,16,5,8.32,60.467662039952,2.624672,6.7331894,14.1865818188,6.71082,0.671082,0,8.2, -10.4, 1,0,0,1024,1024,1024,1024,0,0,0,0,19.1,0,0,95,4.162,4.174,0,0,0,0,4.613,68.36,60.467662039952,2.624672,6,P-GPS,
6600,2022-08-29 20:36:42,-34.9136895390085,-56.1671471025255,2.624672,3.8713912,56.596270839952,60.467662039952,5.577428,6.5318648,15.175689462,18.2655189572,17,5,8.32,60.467662039952,2.624672,6.7331894,15.175689462,6.487126,0.671082,0,8.3, 12.8, 0.7,0,0,1024,1024,1024,1024,0,0,0,0,19.1,0,0,95,4.162,4.174,0,0,0,0,4.613,68.36,60.467662039952,2.624672,6,P-GPS,
6700,2022-08-29 20:36:42,-34.9136867903937,-56.1671477934186,2.296588,3.608924,56.530654039952,60.139578039952,5.577428,5.8607828,16.1712275516,19.2894363128,17,5,8.32,60.467662039952,2.624672,6.7331894,16.1712275516,5.816044,0.671082,0,8.5, 20.7, 0.9,0,0,1024,1024,1024,1024,0,0,0,0,19.1,0,0,95,4.162,4.174,0,0,0,0,4.613,68.36,60.139578039952,2.296588,6,P-GPS,
6800,2022-08-29 20:36:42,-34.9136846709967,-56.1671479172719,2.296588,3.6745408,56.465037239952,60.139578039952,5.905512,4.7199434,16.9433732456,20.0635833192,17,5,8.32,60.467662039952,2.624672,6.7331894,16.9433732456,4.697574,0.447388,0,8.6, 20.6, 1.2,0,0,1024,1024,1024,1024,0,0,0,0,19.1,0,0,95,4.162,4.174,0,0,0,0,4.613,68.36,60.139578039952,2.296588,6,P-GPS,
6900,2022-08-29 20:36:42,-34.9136827376982,-56.1671480014774,2.296588,3.7401576,56.399420439952,60.139578039952,5.905512,3.802798,17.6480648692,20.7693904284,17,5,8.32,60.467662039952,2.624672,6.7331894,17.6480648692,3.802798,0.223694,0,8.6, 19.6, 1.2,0,0,1024,1024,1024,1024,0,0,0,0,19.1,0,0,95,4.162,4.174,0,0,0,0,4.613,68.36,60.139578039952,2.296588,6,P-GPS,
7000,2022-08-29 20:36:42,-34.9136812321203,-56.1671481397062,2.624672,4.1338584,56.333803639952,60.467662039952,5.905512,2.908022,18.1965557004,21.3202434644,17,5,8.32,60.467662039952,2.624672,6.7331894,18.1965557004,2.908022,0.223694,0,8.6, 18.6, 1.4,0,0,1024,1024,1024,1024,0,0,0,0,19.1,0,0,95,4.162,4.174,0,0,0,0,4.613,68.36,60.467662039952,2.624672,6,P-GPS,
7100,2022-08-29 20:36:42,-34.9136801793996,-56.1671484605441,2.624672,4.1666668,56.300995239952,60.467662039952,5.905512,2.908022,18.579232878,21.7161424272,17,5,8.32,60.467662039952,2.624672,6.7331894,18.579232878,2.013246,0,0,8.4, 14.7, 1.5,0,0,1024,1024,1024,1024,0,0,0,0,19.1,0,0,95,4.162,4.174,0,0,0,0,4.613,68.36,60.467662039952,2.624672,6,P-GPS,
7200,2022-08-29 20:36:42,-34.9136794442549,-56.1671486561914,2.624672,4.1666668,56.300995239952,60.467662039952,5.905512,1.342164,18.8468838052,21.9906831184,17,5,8.32,60.467662039952,2.624672,6.7331894,18.8468838052,1.342164,0,0,7, 11, 1.4,0,0,1024,1024,1024,1024,0,0,0,0,19.1,0,0,95,4.162,4.174,0,0,0,0,4.613,68.36,60.467662039952,2.624672,6,P-GPS,
7300,2022-08-29 20:36:42,-34.9136793738963,-56.1671486747041,2.624672,4.1666668,56.300995239952,60.467662039952,5.905512,0.894776,18.8725071656,22.0169298384,17,5,8.302,60.467662039952,2.624672,6.7331894,18.8725071656,0.894776,0,0,7.4, 8, 1.5,0,0,1024,1024,1024,1024,0,0,0,0,19.1,0,0,95,4.153,4.142,0,0,0,0,4.082,68.36,60.467662039952,2.624672,6,P-GPS,
7400,2022-08-29 20:36:42,-34.9136794637766,-56.1671487058163,2.624672,4.1666668,56.300995239952,60.467662039952,5.905512,0.447388,18.8396659572,22.051017766,17,5,8.302,60.467662039952,2.624672,6.7331894,18.8725071656,0.447388,0,0,7.1, 6, 1.4,0,0,1024,1024,1024,1024,0,0,0,0,19.1,0,0,95,4.153,4.142,0,0,0,0,4.082,68.36,60.467662039952,2.624672,6,P-GPS,
7500,2022-08-29 20:36:43,-34.9136796488526,-56.1671488406079,2.624672,4.1338584,56.333803639952,60.467662039952,19.68504,0.223694,18.7718838028,22.1296923092,17,5,8.302,60.467662039952,2.624672,6.7331894,18.8725071656,0.223694,0,0,7, 4.1, 1.3,0,0,1024,1024,1024,1024,0,0,0,0,19.1,0,0,95,4.153,4.142,0,0,0,0,4.082,68.36,60.467662039952,2.624672,6,P-GPS,
7600,2022-08-29 20:36:43,-34.9136809314313,-56.1671486650508,2.624672,4.10105,56.366612039952,60.467662039952,19.68504,0.3131716,18.304298486,22.600558466,16,5,8.302,60.467662039952,2.624672,6.7331894,18.8725071656,0.223694,-0.223694,0,6.9, 3.2, 1.3,0,0,1024,1024,1024,1024,0,0,0,0,19.1,0,0,95,4.153,4.142,0,0,0,0,4.082,68.36,60.467662039952,2.624672,6,P-GPS,
7700,2022-08-29 20:36:43,-34.9136809363786,-56.1671486551989,2.624672,4.10105,56.366612039952,60.467662039952,19.68504,0.3131716,18.302494024,22.6040361564,16,5,8.302,60.467662039952,2.624672,6.7331894,18.8725071656,0.223694,-0.223694,0,6.8, 2.8, 1.4,0,0,1024,1024,1024,1024,0,0,0,0,19.1,0,0,95,4.153,4.142,0,0,0,0,4.082,68.36,60.467662039952,2.624672,6,P-GPS,
7800,2022-08-29 20:36:43,-34.9136809855999,-56.1671486392354,2.624672,4.10105,56.366612039952,60.467662039952,19.68504,0,18.2845806376,22.6226057108,16,5,8.302,60.467662039952,2.624672,6.7331894,18.8725071656,0,0,0,6.8, 2, 1.3,0,0,1024,1024,1024,1024,0,0,0,0,19.1,0,0,95,4.153,4.142,0,0,0,0,4.082,68.36,60.467662039952,2.624672,6,P-GPS,
7900,2022-08-29 20:36:43,-34.9136811688878,-56.1671487205575,2.624672,4.10105,56.366612039952,60.467662039952,9.84252,0,18.217520268,22.6937671304,16,5,8.302,60.467662039952,2.624672,6.7331894,18.8725071656,0,0,0,6.8, 1.3, 1.1,0,0,1024,1024,1024,1024,0,0,0,0,19.1,0,0,95,4.153,4.142,0,0,0,0,4.082,68.36,60.467662039952,2.624672,6,P-GPS,
8000,2022-08-29 20:36:43,-34.9136814303475,-56.1671482880271,2.624672,4.1338584,56.333803639952,60.467662039952,9.84252,0,18.123524202,22.8545282904,16,5,8.302,60.467662039952,2.624672,6.7331894,18.8725071656,0,0,0,6.8, 1.3, 1.3,0,0,1024,1024,1024,1024,0,0,0,0,19.1,0,0,95,4.153,4.142,0,0,0,0,4.082,68.36,60.467662039952,2.624672,6,P-GPS,
8100,2022-08-29 20:36:43,-34.9136814277648,-56.1671484438597,2.624672,4.1338584,56.333803639952,60.467662039952,9.84252,0,18.1238850944,22.9011818352,16,5,8.302,60.467662039952,2.624672,6.7331894,18.8725071656,0,0,0,6.8, 1.4, 1.6,0,0,1024,1024,1024,1024,0,0,0,0,19.1,0,0,95,4.153,4.142,0,0,0,0,4.082,68.36,60.467662039952,2.624672,6,P-GPS,
8200,2022-08-29 20:36:43,-34.9136814385027,-56.1671485915433,2.624672,4.10105,56.366612039952,60.467662039952,9.84252,0,18.1194887688,22.945538792,16,5,8.302,60.467662039952,2.624672,6.7331894,18.8725071656,0,0,0,6.9, 1, 1.3,0,0,1024,1024,1024,1024,0,0,0,0,19.1,0,0,95,4.153,4.142,0,0,0,0,4.082,68.36,60.467662039952,2.624672,6,P-GPS,
8300,2022-08-29 20:36:43,-34.9136814723516,-56.1671487231485,2.624672,4.10105,56.366612039952,60.467662039952,9.84252,0,18.1068247264,22.9867789508,16,5,8.293,60.467662039952,2.624672,6.7331894,18.8725071656,0,0,0,6.9, 0.9, 1.3,0,0,1024,1024,1024,1024,0,0,0,0,19.1,0,0,95,4.155,4.142,0,0,0,0,4.381,68.54,60.467662039952,2.624672,6,P-GPS,
8400,2022-08-29 20:36:43,-34.9136812324101,-56.167148922024,2.624672,4.10105,56.366612039952,60.467662039952,9.84252,0,18.1940294536,23.0926516576,16,5,8.293,60.467662039952,2.624672,6.7331894,18.8725071656,0,0,0,6.8, 0, 0.9,0,0,1024,1024,1024,1024,0,0,0,0,19.1,0,0,95,4.155,4.142,0,0,0,0,4.381,68.54,60.467662039952,2.624672,6,P-GPS,
8500,2022-08-29 20:36:44,-34.9136812455875,-56.1671489842798,2.624672,4.10105,56.366612039952,60.467662039952,9.84252,0,18.189141002,23.11187738,16,5,8.293,60.467662039952,2.624672,6.7331894,18.8725071656,0,0,0,6.5, -0.8, 1.1,0,0,1024,1024,1024,1024,0,0,0,0,19.1,0,0,95,4.155,4.142,0,0,0,0,4.381,68.54,60.467662039952,2.624672,6,P-GPS,
8600,2022-08-29 20:36:44,-34.9136812351817,-56.1671490381254,2.624672,4.10105,56.366612039952,60.467662039952,9.84252,0,18.192913968,23.1284128136,16,5,8.293,60.467662039952,2.624672,6.7331894,18.8725071656,0,0,0,6.5, -0.9, 1.5,0,0,1024,1024,1024,1024,0,0,0,0,19.1,0,0,95,4.155,4.142,0,0,0,0,4.381,68.54,60.467662039952,2.624672,6,P-GPS,
8700,2022-08-29 20:36:44,-34.9136811422562,-56.1671489706669,2.624672,4.10105,56.366612039952,60.467662039952,9.84252,0,18.226870662,23.1678813188,16,5,8.293,60.467662039952,2.624672,6.7331894,18.8725071656,0,0,0,6.7, -0.5, 1.9,0,0,1024,1024,1024,1024,0,0,0,0,19.1,0,0,95,4.155,4.142,0,0,0,0,4.381,68.54,60.467662039952,2.624672,6,P-GPS,
8800,2022-08-29 20:36:44,-34.9136806656856,-56.1671485346053,2.624672,4.10105,56.366612039952,60.467662039952,9.84252,0,18.4016082004,23.3852697772,16,5,8.293,60.467662039952,2.624672,6.7331894,18.8725071656,0,0,0,6.8, 0, 1.2,0,0,1024,1024,1024,1024,0,0,0,0,19.1,0,0,95,4.155,4.142,0,0,0,0,4.381,68.54,60.467662039952,2.624672,6,P-GPS,
8900,2022-08-29 20:36:44,-34.9136805974635,-56.1671484559995,2.624672,4.1338584,56.333803639952,60.467662039952,9.84252,0,18.4267394348,23.4195217468,16,5,8.293,60.467662039952,2.624672,6.7331894,18.8725071656,0,0,0,6.8, 0, 0.7,0,0,1024,1024,1024,1024,0,0,0,0,19.1,0,0,95,4.155,4.142,0,0,0,0,4.381,68.54,60.467662039952,2.624672,6,P-GPS,
9000,2022-08-29 20:36:44,-34.9136805259781,-56.1671483889171,2.624672,4.1338584,56.333803639952,60.467662039952,9.84252,0,18.4530517716,23.452428572,16,5,8.293,60.467662039952,2.624672,6.7331894,18.8725071656,0,0,0,6.8, 0.1, 0.4,0,0,1024,1024,1024,1024,0,0,0,0,19.1,0,0,95,4.155,4.142,0,0,0,0,4.381,68.54,60.467662039952,2.624672,6,P-GPS,
9100,2022-08-29 20:36:44,-34.9136805599833,-56.1671484983426,2.624672,4.1338584,56.333803639952,60.467662039952,9.84252,0,18.440289304,23.4874351348,16,5,8.293,60.467662039952,2.624672,6.7331894,18.8725071656,0,0,0,6.8, 0.2, 0.6,0,0,1024,1024,1024,1024,0,0,0,0,19.1,0,0,95,4.155,4.142,0,0,0,0,4.381,68.54,60.467662039952,2.624672,6,P-GPS,
9200,2022-08-29 20:36:44,-34.9136805844686,-56.1671486208899,2.624672,4.10105,56.366612039952,60.467662039952,9.84252,0,18.4309717184,23.5251647948,16,5,8.293,60.467662039952,2.624672,6.7331894,18.8725071656,0,0,0,6.8, 0.5, 0.5,0,0,1024,1024,1024,1024,0,0,0,0,19.1,0,0,95,4.155,4.142,0,0,0,0,4.381,68.54,60.467662039952,2.624672,6,P-GPS,
9300,2022-08-29 20:36:44,-34.9136808288068,-56.1671489838096,2.624672,4.10105,56.366612039952,60.467662039952,9.84252,0,18.341207936,23.6656503636,16,5,8.296,60.467662039952,2.624672,6.7331894,18.8725071656,0,0,0,6.8, 0.7, 0.5,0,0,1024,1024,1024,1024,0,0,0,0,19.1,0,0,95,4.153,4.143,0,0,0,0,4.215,68.54,60.467662039952,2.624672,6,P-GPS,
9400,2022-08-29 20:36:45,-34.9136808381932,-56.1671491585623,2.624672,4.10105,56.366612039952,60.467662039952,9.84252,0,18.3376974372,23.7180453784,16,5,8.296,60.467662039952,2.624672,6.7331894,18.8725071656,0,0,0,6.8, 0.7, 0.9,0,0,1024,1024,1024,1024,0,0,0,0,19.1,0,0,95,4.153,4.143,0,0,0,0,4.215,68.54,60.467662039952,2.624672,6,P-GPS,
9500,2022-08-29 20:36:45,-34.9136808623821,-56.167149408118,2.624672,4.10105,56.366612039952,60.467662039952,9.84252,0,18.3290360196,23.7932094228,16,5,8.296,60.467662039952,2.624672,6.7331894,18.8725071656,0,0,0,6.8, 1, 1,0,0,1024,1024,1024,1024,0,0,0,0,19.1,0,0,95,4.153,4.143,0,0,0,0,4.215,68.54,60.467662039952,2.624672,6,P-GPS,
9600,2022-08-29 20:36:45,-34.9136808912055,-56.1671496541946,2.624672,4.10105,56.366612039952,60.467662039952,9.84252,0,18.3189638408,23.8675860656,16,5,8.296,60.467662039952,2.624672,6.7331894,18.8725071656,0,0,0,6.8, 0.8, 1,0,0,1024,1024,1024,1024,0,0,0,0,19.1,0,0,95,4.153,4.143,0,0,0,0,4.215,68.54,60.467662039952,2.624672,6,P-GPS,
9700,2022-08-29 20:36:45,-34.9136812449003,-56.1671502117902,2.624672,4.10105,56.366612039952,60.467662039952,9.84252,0,18.1920609496,24.0785112692,16,5,8.296,60.467662039952,2.624672,6.7331894,18.8725071656,0,0,0,6.8, 1.2, 0.6,0,0,1024,1024,1024,1024,0,0,0,0,19.1,0,0,95,4.153,4.143,0,0,0,0,4.215,68.54,60.467662039952,2.624672,6,P-GPS,
9800,2022-08-29 20:36:45,-34.9136813460658,-56.1671504672695,2.624672,4.10105,56.366612039952,60.467662039952,9.84252,0,18.1566278776,24.1633866,16,5,8.296,60.467662039952,2.624672,6.7331894,18.8725071656,0,0,0,6.8, 1.3, 0.7,0,0,1024,1024,1024,1024,0,0,0,0,19.1,0,0,95,4.153,4.143,0,0,0,0,4.215,68.54,60.467662039952,2.624672,6,P-GPS,
9900,2022-08-29 20:36:45,-34.9136814794483,-56.167150797092,2.624672,4.0682416,56.399420439952,60.467662039952,9.84252,0,18.110400842,24.2733931652,16,5,8.296,60.467662039952,2.624672,6.7331894,18.8725071656,0,0,0,6.8, 1.4, 0.7,0,0,1024,1024,1024,1024,0,0,0,0,19.1,0,0,95,4.153,4.143,0,0,0,0,4.215,68.54,60.467662039952,2.624672,6,P-GPS,
10000,2022-08-29 20:36:45,-34.9136816036205,-56.1671511141375,2.624672,4.0354332,56.432228839952,60.467662039952,9.84252,0,18.067913964,24.3785112788,16,5,8.296,60.467662039952,2.624672,6.7331894,18.8725071656,0,0,0,6.8, 1.6, 0.5,0,0,1024,1024,1024,1024,0,0,0,0,19.1,0,0,95,4.153,4.143,0,0,0,0,4.215,68.54,60.467662039952,2.624672,6,P-GPS,
10100,2022-08-29 20:36:45,-34.9136816286985,-56.1671514179358,2.624672,4.0354332,56.432228839952,60.467662039952,9.84252,0,18.0619428352,24.4698826728,16,5,8.296,60.467662039952,2.624672,6.7331894,18.8725071656,0,0,0,6.9, 2.1, 0,0,0,1024,1024,1024,1024,0,0,0,0,19.1,0,0,94,4.153,4.143,0,0,0,0,4.215,68.54,60.467662039952,2.624672,6,P-GPS,
10200,2022-08-29 20:36:45,-34.9136816273697,-56.1671516479758,2.624672,4.0354332,56.432228839952,60.467662039952,9.84252,0,18.06512525,24.538714696,16,5,8.296,60.467662039952,2.624672,6.7331894,18.8725071656,0,0,0,6.9, 1.9, 0.1,0,0,1024,1024,1024,1024,0,0,0,0,19.1,0,0,94,4.153,4.143,0,0,0,0,4.215,68.54,60.467662039952,2.624672,6,P-GPS,
10300,2022-08-29 20:36:45,-34.9136816330074,-56.1671519051475,2.624672,4.0354332,56.432228839952,60.467662039952,9.84252,0,18.0664047776,24.6156832024,16,5,8.293,60.467662039952,2.624672,6.7331894,18.8725071656,0,0,0,6.9, 1.6, 0.5,0,0,1024,1024,1024,1024,0,0,0,0,19.1,0,0,94,4.152,4.141,0,0,0,0,4.191,68.54,60.467662039952,2.624672,6,P-GPS,
10400,2022-08-29 20:36:45,-34.9136816427617,-56.1671521614208,2.296588,3.7073492,56.432228839952,60.139578039952,9.84252,0,18.0665032028,24.69242205,16,5,8.293,60.467662039952,2.624672,6.7331894,18.8725071656,0,0,0,6.9, 1.3, 0.6,0,0,1024,1024,1024,1024,0,0,0,0,19.1,0,0,94,4.152,4.141,0,0,0,0,4.191,68.54,60.139578039952,2.296588,6,P-GPS,
10500,2022-08-29 20:36:46,-34.9136813780614,-56.1671524448468,2.296588,3.7401576,56.399420439952,60.139578039952,9.84252,0,18.1673562244,24.8209325528,16,5,8.293,60.467662039952,2.624672,6.7331894,18.8725071656,0,0,0,6.9, 1.1, 0.7,0,0,1024,1024,1024,1024,0,0,0,0,19.1,0,0,94,4.152,4.141,0,0,0,0,4.191,68.54,60.139578039952,2.296588,6,P-GPS,
10600,2022-08-29 20:36:46,-34.9136813475965,-56.1671527536284,2.296588,3.7073492,56.432228839952,60.139578039952,9.84252,0,18.1836948076,24.9139771752,16,5,8.293,60.467662039952,2.624672,6.7331894,18.8725071656,0,0,0,6.9, 0.3, 1,0,0,1024,1024,1024,1024,0,0,0,0,19.1,0,0,94,4.152,4.141,0,0,0,0,4.191,68.54,60.139578039952,2.296588,6,P-GPS,
10700,2022-08-29 20:36:46,-34.9136812473039,-56.1671531278313,2.296588,3.7073492,56.432228839952,60.139578039952,9.84252,0,18.2271659376,25.0317593312,16,5,8.293,60.467662039952,2.624672,6.7331894,18.8725071656,0,0,0,6.8, 0.2, 0.9,0,0,1024,1024,1024,1024,0,0,0,0,19.1,0,0,94,4.152,4.141,0,0,0,0,4.191,68.54,60.139578039952,2.296588,6,P-GPS,
10800,2022-08-29 20:36:46,-34.9136811432789,-56.1671534862169,2.296588,3.7073492,56.432228839952,60.139578039952,9.84252,0,18.2723431044,25.145506054,17,5,8.293,60.467662039952,2.624672,6.7331894,18.8725071656,0,0,0,6.8, 0.1, 1.1,0,0,1024,1024,1024,1024,0,0,0,0,19.1,0,0,94,4.152,4.141,0,0,0,0,4.191,68.54,60.139578039952,2.296588,6,P-GPS,
10900,2022-08-29 20:36:46,-34.9136810926929,-56.1671538441585,2.296588,3.6745408,56.465037239952,60.139578039952,9.84252,0,18.2986226328,25.2542002832,17,5,8.293,60.467662039952,2.624672,6.7331894,18.8725071656,0,0,0,6.8, 0.1, 1.1,0,0,1024,1140,1024,1024,0,18,0,0,19.1,0,0,94,4.152,4.141,0,0,0,0,4.191,68.54,60.139578039952,2.296588,6,P-GPS,
11000,2022-08-29 20:36:46,-34.9136808127047,-56.1671542789768,2.296588,3.6745408,56.465037239952,60.139578039952,9.514436,0,18.4108601692,25.4195874276,17,5,8.293,60.467662039952,2.624672,6.7331894,18.8725071656,0,0,0,6.9, 0.2, 1.4,0,0,1024,1532,1024,1024,0,77,0,0,19.1,0,0,94,4.152,4.141,0,0,0,0,4.191,68.54,60.139578039952,2.296588,6,P-GPS,
11100,2022-08-29 20:36:46,-34.9136807625324,-56.1671544922123,2.296588,3.6745408,56.465037239952,60.139578039952,9.514436,0,18.4345150256,25.4859588208,17,5,8.293,60.467662039952,2.624672,6.7331894,18.8725071656,0,0,0,7.1, 0.5, 4.2,0,0,1024,1684,1024,1024,0,100,0,0,19.1,0,0,94,4.152,4.141,0,0,0,0,4.191,68.54,60.139578039952,2.296588,6,P-GPS,
11200,2022-08-29 20:36:46,-34.9136807191734,-56.1671546412071,2.296588,3.6745408,56.465037239952,60.139578039952,9.514436,0,18.4541672572,25.5332685336,16,5,8.293,60.467662039952,2.624672,6.7331894,18.8725071656,0,0,0,7.2, 0.5, 12.5,0,0,1024,1684,1024,1024,0,100,0,0,19.1,0,0,94,4.152,4.141,0,0,0,0,4.191,68.54,60.139578039952,2.296588,6,P-GPS,
11300,2022-08-29 20:36:46,-34.9136807073249,-56.1671545705465,2.296588,3.6745408,56.465037239952,60.139578039952,9.514436,0.671082,18.4566278872,25.5548236524,16,5,8.293,60.467662039952,2.624672,6.7331894,18.8725071656,0,0.671082,0,7.2, 0.7, 17.3,0,0,1024,1684,1024,1024,0,100,0,0,19.1,0,0,94,4.152,4.142,0,0,0,0,4.098,68.54,60.139578039952,2.296588,6,P-GPS,
11400,2022-08-29 20:36:46,-34.9136808012731,-56.1671538374878,2.296588,3.6745408,56.465037239952,60.139578039952,9.514436,1.11847,18.4044953396,25.7768052868,17,5,8.293,60.467662039952,2.624672,6.7331894,18.8725071656,0,1.11847,0,7.1, 0.4, 18.2,0,0,1024,1684,1024,1024,0,100,0,0,19.1,0,0,94,4.152,4.142,0,0,0,0,4.098,68.54,60.139578039952,2.296588,6,P-GPS,
11500,2022-08-29 20:36:47,-34.9136809761256,-56.1671530445346,2.296588,3.7073492,56.432228839952,60.139578039952,9.514436,1.8119214,18.32431161,26.022474586,17,5,8.293,60.467662039952,2.624672,6.7331894,18.8725071656,-0.223694,1.789552,0,7, 0.4, 17.7,0,0,1024,1024,1024,1024,0,0,0,0,19.1,0,0,94,4.152,4.142,0,0,0,0,4.098,68.54,60.139578039952,2.296588,6,P-GPS,
11600,2022-08-29 20:36:47,-34.9136811687803,-56.1671520071867,2.296588,3.7401576,56.399420439952,60.139578039952,9.514436,2.460634,18.2370084576,26.340716066,17,5,8.293,60.467662039952,2.624672,6.7331894,18.8725071656,-0.223694,2.460634,0,7, 0.4, 14.1,0,0,1024,1024,1024,1024,0,0,0,0,19.1,0,0,94,4.152,4.142,0,0,0,0,4.098,68.54,60.139578039952,2.296588,6,P-GPS,
11700,2022-08-29 20:36:47,-34.9136813852429,-56.1671507343766,2.296588,3.7401576,56.399420439952,60.139578039952,9.514436,2.684328,18.1442591108,26.7295940312,17,5,8.293,60.467662039952,2.624672,6.7331894,18.8725071656,-0.223694,2.684328,0,6.5, 0.7, -2.9,0,0,1024,1024,1024,1024,0,0,0,0,19.1,0,0,94,4.152,4.142,0,0,0,0,4.098,68.54,60.139578039952,2.296588,6,P-GPS,
11800,2022-08-29 20:36:47,-34.9136819450889,-56.1671491719454,2.296588,3.7401576,56.399420439952,60.139578039952,9.514436,2.460634,17.9338588416,27.2397318428,17,5,8.293,60.467662039952,2.624672,6.7331894,18.8725071656,-0.223694,2.460634,0,6.3, 0.9, -10.3,0,0,1024,1024,1024,1024,0,0,0,0,19.1,0,0,94,4.152,4.142,0,0,0,0,4.098,68.54,60.139578039952,2.296588,6,P-GPS,
11900,2022-08-29 20:36:47,-34.913682190554,-56.1671480587916,2.296588,3.772966,56.366612039952,60.139578039952,9.514436,2.23694,17.8473430908,27.5846137436,17,5,8.293,60.467662039952,2.624672,6.7331894,18.8725071656,0,2.23694,0,6.5, 1.5, -10.5,0,0,1024,1024,1024,1024,0,0,0,0,19.1,0,0,94,4.152,4.142,0,0,0,0,4.098,68.54,60.139578039952,2.296588,6,P-GPS,
12000,2022-08-29 20:36:47,-34.9136824108141,-56.1671472215729,2.624672,4.10105,56.366612039952,60.467662039952,5.249344,1.565858,17.7733929572,27.8476714948,16,5,8.293,60.467662039952,2.624672,6.7331894,18.8725071656,0,1.565858,0,6.7, 1.4, -9.2,0,0,1024,1641,1024,1024,0,93,0,0,19.1,0,0,94,4.152,4.142,0,0,0,0,4.098,68.54,60.467662039952,2.624672,6,P-GPS,
12100,2022-08-29 20:36:47,-34.9136825844681,-56.167146542433,2.624672,4.0682416,56.399420439952,60.467662039952,5.577428,1.342164,17.7178811444,28.0604995856,16,5,8.293,60.467662039952,2.624672,6.7331894,18.8725071656,0,1.342164,0,7.1, 1.5, -0.2,0,0,1024,1684,1024,1024,0,100,0,0,19.1,0,0,94,4.152,4.142,0,0,0,0,4.098,68.54,60.467662039952,2.624672,6,P-GPS,
12200,2022-08-29 20:36:47,-34.9136829888563,-56.1671456176448,2.296588,3.772966,56.366612039952,60.139578039952,5.577428,1.11847,17.584974316,28.3740494644,16,5,8.293,60.467662039952,2.624672,6.7331894,18.8725071656,0,1.11847,0,7.4, 1.2, 10.2,0,0,1024,1684,1024,1024,0,100,0,0,19.1,0,0,94,4.152,4.142,0,0,0,0,4.098,68.54,60.139578039952,2.296588,6,P-GPS,
12300,2022-08-29 20:36:47,-34.9136831315895,-56.1671452032301,2.296588,3.772966,56.366612039952,60.139578039952,5.577428,1.565858,17.5409454432,28.508531096,16,5,8.291,60.467662039952,2.624672,6.7331894,18.8725071656,0,1.565858,0,7.5, 0.9, 15.4,0,0,1024,1684,1024,1024,0,100,0,0,19.1,0,0,94,4.141,4.129,0,0,0,0,4.1,68.54,60.139578039952,2.296588,6,P-GPS,
12400,2022-08-29 20:36:48,-34.9136832882197,-56.1671446183879,2.296588,3.772966,56.366612039952,60.139578039952,5.905512,2.0356154,17.4966212948,28.6926190284,17,5,8.291,60.467662039952,2.624672,6.7331894,18.8725071656,-0.223694,2.013246,0,7.3, 1.3, 16.6,0,0,1024,1684,1024,1024,0,100,0,0,19.1,0,0,94,4.141,4.129,0,0,0,0,4.1,68.54,60.139578039952,2.296588,6,P-GPS,
12500,2022-08-29 20:36:48,-34.9136834387661,-56.1671439759182,2.296588,3.8057744,56.333803639952,60.139578039952,5.905512,2.684328,17.4579073828,28.8925206096,17,5,8.291,60.467662039952,2.624672,6.7331894,18.8725071656,-0.223694,2.684328,0,7.1, 1.2, 16.9,0,0,1024,1684,1024,1024,0,100,0,0,19.1,0,0,94,4.141,4.129,0,0,0,0,4.1,68.54,60.139578039952,2.296588,6,P-GPS,
12600,2022-08-29 20:36:48,-34.9136836038252,-56.1671431336535,2.296588,3.8057744,56.333803639952,60.139578039952,6.233596,3.131716,17.4221790352,29.1516085444,17,5,8.291,60.467662039952,2.624672,6.7331894,18.8725071656,-0.223694,3.131716,0,7, 1, 16.9,0,0,1024,1123,1024,1024,0,15,0,0,19.1,0,0,94,4.141,4.129,0,0,0,0,4.1,68.54,60.139578039952,2.296588,6,P-GPS,
12700,2022-08-29 20:36:48,-34.9136833933488,-56.1671432363718,2.296588,3.8385828,56.300995239952,60.139578039952,6.233596,3.8251674,17.495407384,29.2343185208,17,5,8.291,60.467662039952,2.624672,6.7331894,18.8725071656,-0.447388,3.802798,0,7.2, 1.1, 16.3,0,0,1024,1024,1024,1024,0,0,0,0,19.1,0,0,94,4.141,4.129,0,0,0,0,4.1,68.54,60.139578039952,2.296588,6,P-GPS,
12800,2022-08-29 20:36:48,-34.913683565091,-56.1671418840783,2.296588,3.8057744,56.333803639952,60.139578039952,6.233596,3.8251674,17.478839142,29.6437345444,17,5,8.291,60.467662039952,2.624672,6.7331894,18.8725071656,-0.447388,4.250186,0,7, 1.1, 7.8,0,0,1024,1024,1024,1024,0,0,0,0,19.1,0,0,94,4.141,4.129,0,0,0,0,4.1,68.54,60.139578039952,2.296588,6,P-GPS,
12900,2022-08-29 20:36:48,-34.9136838840185,-56.1671399358685,2.296588,3.8385828,56.300995239952,60.139578039952,6.233596,4.0488614,17.446030742,30.2380915188,17,5,8.291,60.467662039952,2.624672,6.7331894,18.8725071656,-0.447388,4.026492,0,6.4, 0.4, -11.4,0,0,1024,1024,1024,1024,0,0,0,0,19.1,0,0,94,4.141,4.129,0,0,0,0,4.1,68.54,60.139578039952,2.296588,6,P-GPS,
13000,2022-08-29 20:36:48,-34.9136841751908,-56.1671382367129,2.624672,4.1994752,56.268186839952,60.467662039952,6.233596,3.3777794,17.4292656496,30.7574156824,17,5,8.291,60.467662039952,2.624672,6.7331894,18.8725071656,-0.447388,3.35541,0,6.6, 0.5, -16.4,0,0,1024,1024,1024,1024,0,0,0,0,19.1,0,0,94,4.141,4.129,0,0,0,0,4.1,68.54,60.467662039952,2.624672,6,P-GPS,
13100,2022-08-29 20:36:48,-34.9136846353402,-56.1671358670782,2.624672,4.1994752,56.268186839952,60.467662039952,6.233596,2.684328,17.4125005572,31.4859918212,17,5,8.291,60.467662039952,2.624672,6.7331894,18.8725071656,-0.223694,2.684328,0,7, 0.5, -14.9,0,0,1024,1024,1024,1024,0,0,0,0,19.1,0,0,94,4.141,4.129,0,0,0,0,4.1,68.54,60.467662039952,2.624672,6,P-GPS,
13200,2022-08-29 20:36:48,-34.9136848502004,-56.1671347274926,2.624672,4.2322836,56.235378439952,60.467662039952,6.233596,1.8119214,17.4175530508,31.8358277904,17,5,8.291,60.467662039952,2.624672,6.7331894,18.8725071656,-0.223694,1.789552,0,7, 0.5, -12.2,0,0,1024,1024,1024,1024,0,0,0,0,19.1,0,0,94,4.141,4.129,0,0,0,0,4.1,68.54,60.467662039952,2.624672,6,P-GPS,
13300,2022-08-29 20:36:48,-34.9136851154772,-56.1671339149924,2.624672,4.2322836,56.235378439952,60.467662039952,6.233596,1.1408394,17.38599137,32.0974747804,17,5,8.288,60.467662039952,2.624672,6.7331894,18.8725071656,-0.223694,1.11847,0,6.9, 0.5, -9.2,0,0,1024,1024,1024,1024,0,0,0,0,19.1,0,0,94,4.147,4.132,0,0,0,0,4.251,68.72,60.467662039952,2.624672,6,P-GPS,
13400,2022-08-29 20:36:48,-34.9136853446188,-56.167133349039,2.624672,4.265092,56.202570039952,60.467662039952,8.530184,0.671082,17.35072234,32.2863199308,17,5,8.288,60.467662039952,2.624672,6.7331894,18.8725071656,0,0.671082,0,6.9, 0.7, -6.4,0,0,1024,1024,1024,1024,0,0,0,0,19.1,0,0,94,4.147,4.132,0,0,0,0,4.251,68.72,60.467662039952,2.624672,6,P-GPS,
13500,2022-08-29 20:36:49,-34.9136857364973,-56.1671331581138,2.624672,4.2322836,56.235378439952,60.467662039952,8.858268,0.447388,17.2289703676,32.440289752,17,5,8.288,60.467662039952,2.624672,6.7331894,18.8725071656,0,0.447388,0,6.6, 0.8, -4.5,0,0,1024,1024,1024,1024,0,0,0,0,19.1,0,0,94,4.147,4.132,0,0,0,0,4.251,68.72,60.467662039952,2.624672,6,P-GPS,
13600,2022-08-29 20:36:49,-34.9136859034389,-56.1671330806468,2.624672,4.2322836,56.235378439952,60.467662039952,8.858268,0.223694,17.1769690536,32.5054472344,17,5,8.288,60.467662039952,2.624672,6.7331894,18.8725071656,0,0.223694,0,6.8, 0.8, -3.3,0,0,1024,1024,1024,1024,0,0,0,0,19.1,0,0,94,4.147,4.132,0,0,0,0,4.251,68.72,60.467662039952,2.624672,6,P-GPS,
13700,2022-08-29 20:36:49,-34.9136860969697,-56.1671332909518,2.624672,4.2322836,56.235378439952,60.467662039952,9.186352,0.223694,17.0916015968,32.6000338516,17,5,8.288,60.467662039952,2.624672,6.7331894,18.8725071656,0,0.223694,0,7.2, 0.6, -2.4,0,0,1024,1024,1024,1024,0,0,0,0,19.1,0,0,94,4.147,4.132,0,0,0,0,4.251,68.72,60.467662039952,2.624672,6,P-GPS,
13800,2022-08-29 20:36:49,-34.9136862602896,-56.1671335657169,2.624672,4.1994752,56.268186839952,60.467662039952,9.186352,0,17.011647526,32.7015430412,17,5,8.288,60.467662039952,2.624672,6.7331894,18.8725071656,0,0,0,7, 0.4, -1.7,0,0,1024,1024,1024,1024,0,0,0,0,19.1,0,0,94,4.147,4.132,0,0,0,0,4.251,68.72,60.467662039952,2.624672,6,P-GPS,
13900,2022-08-29 20:36:49,-34.9136857678156,-56.1671345684527,2.624672,4.1994752,56.268186839952,60.467662039952,9.186352,0,17.10547955,33.05118216,17,5,8.288,60.467662039952,2.624672,6.7331894,18.8725071656,0,0,0,6.8, 0.4, -0.9,0,0,1024,1024,1024,1024,0,0,0,0,19.1,0,0,94,4.147,4.132,0,0,0,0,4.251,68.72,60.467662039952,2.624672,6,P-GPS,
14000,2022-08-29 20:36:49,-34.9136856626018,-56.1671348996439,2.624672,4.1994752,56.268186839952,60.467662039952,9.186352,0,17.1176514664,33.157481376,16,5,8.288,60.467662039952,2.624672,6.7331894,18.8725071656,0,0,0,6.9, 0.4, -0.4,0,0,1024,1024,1024,1024,0,0,0,0,19.1,0,0,94,4.147,4.132,0,0,0,0,4.251,68.72,60.467662039952,2.624672,6,P-GPS,
14100,2022-08-29 20:36:49,-34.9136857026355,-56.1671351251707,2.296588,3.8713912,56.268186839952,60.139578039952,9.186352,0,17.0868115704,33.226379016,16,5,8.288,60.467662039952,2.624672,6.7331894,18.8725071656,0,0,0,6.9, 0.4, -0.5,0,0,1024,1024,1024,1024,0,0,0,0,19.1,0,0,94,4.147,4.132,0,0,0,0,4.251,68.72,60.139578039952,2.296588,6,P-GPS,
14200,2022-08-29 20:36:49,-34.913685733628,-56.1671353556181,2.296588,3.8713912,56.268186839952,60.139578039952,9.186352,0,17.0590228556,33.296260908,16,5,8.288,60.467662039952,2.624672,6.7331894,18.8725071656,0,0,0,6.9, 0.2, -0.1,0,0,1024,1024,1024,1024,0,0,0,0,19.1,0,0,94,4.147,4.132,0,0,0,0,4.251,68.72,60.139578039952,2.296588,6,P-GPS,
14300,2022-08-29 20:36:49,-34.9136857511436,-56.1671355087762,2.296588,3.8385828,56.300995239952,60.139578039952,9.186352,0,17.0417656372,33.342520752,16,5,8.254,60.467662039952,2.624672,6.7331894,18.8725071656,0,0,0,6.9, 0.2, 0.3,0,0,1024,1024,1024,1024,0,0,0,0,19.1,0,0,94,4.145,4.133,0,0,0,0,4.326,68.72,60.139578039952,2.296588,6,P-GPS,
14400,2022-08-29 20:36:49,-34.9136857210076,-56.1671354017954,2.296588,3.8713912,56.268186839952,60.139578039952,9.186352,0,17.0601383412,33.376641488,16,5,8.254,60.467662039952,2.624672,6.7331894,18.8725071656,0,0,0,6.9, 0, 0.7,0,0,1051,1024,1024,1024,4,0,0,0,19.1,0,0,94,4.145,4.133,0,0,0,0,4.326,68.72,60.139578039952,2.296588,6,P-GPS,
14500,2022-08-29 20:36:50,-34.91368582983,-56.1671355261083,2.296588,3.8385828,56.300995239952,60.139578039952,9.186352,0,17.0126645864,33.430775348,16,5,8.254,60.467662039952,2.624672,6.7331894,18.8725071656,0,0,0,6.9, 0, 1,0,0,1481,1024,1024,1024,69,0,0,0,19.1,0,0,94,4.145,4.133,0,0,0,0,4.326,68.72,60.139578039952,2.296588,6,P-GPS,
14600,2022-08-29 20:36:50,-34.9136859280479,-56.167135634186,2.296588,3.8385828,56.300995239952,60.139578039952,9.186352,0,16.9701449,33.47933178,17,5,8.254,60.467662039952,2.624672,6.7331894,18.8725071656,0,0,0,6.9, -0.8, 1.3,0,0,1561,1024,1024,1024,81,0,0,0,19.1,0,0,94,4.145,4.133,0,0,0,0,4.326,68.72,60.139578039952,2.296588,6,P-GPS,
14700,2022-08-29 20:36:50,-34.9136859978626,-56.167135721087,2.296588,3.8385828,56.300995239952,60.139578039952,8.858268,0,16.9392065788,33.51542102,17,5,8.254,60.467662039952,2.624672,6.7331894,18.8725071656,0,0,0,6.8, -7.3, 1.4,0,0,1609,1024,1024,1024,89,0,0,0,19.1,0,0,94,4.145,4.133,0,0,0,0,4.326,68.72,60.139578039952,2.296588,6,P-GPS,
14800,2022-08-29 20:36:50,-34.9136862087037,-56.1671354045326,2.296588,3.8713912,56.268186839952,60.139578039952,8.858268,0.447388,16.88730369,33.637468268,17,5,8.254,60.467662039952,2.624672,6.7331894,18.8725071656,0.447388,0,0,6.7, -11.5, 1.1,0,0,1442,1024,1024,1024,63,0,0,0,19.1,0,0,94,4.145,4.133,0,0,0,0,4.326,68.72,60.139578039952,2.296588,6,P-GPS,
14900,2022-08-29 20:36:50,-34.9136859561321,-56.1671354973259,2.296588,3.8713912,56.268186839952,60.139578039952,8.858268,0.894776,16.9700136664,33.733924964,17,5,8.254,60.467662039952,2.624672,6.7331894,18.8725071656,0.894776,0,0,6.8, -13.9, 0.9,0,0,1442,1024,1024,1024,63,0,0,0,19.1,0,0,94,4.145,4.133,0,0,0,0,4.326,68.72,60.139578039952,2.296588,6,P-GPS,
15000,2022-08-29 20:36:50,-34.9136855250504,-56.1671355550056,2.296588,3.8385828,56.300995239952,60.139578039952,8.858268,1.342164,17.1185701016,33.892061452,17,5,8.254,60.467662039952,2.624672,6.7331894,18.8725071656,1.342164,0,0,6.9, -11.9, 0.6,0,0,1170,1024,1024,1024,22,0,0,0,19.1,0,0,94,4.145,4.133,0,0,0,0,4.326,68.72,60.139578039952,2.296588,6,P-GPS,
15100,2022-08-29 20:36:50,-34.9136849165237,-56.1671356577343,2.296588,3.8713912,56.268186839952,60.139578039952,7.545932,1.789552,17.3271331004,34.116142824,17,5,8.254,60.467662039952,2.624672,6.7331894,18.8725071656,1.789552,0,0,6.9, -5.2, 0.4,0,0,1146,1024,1024,1024,18,0,0,0,19.1,0,0,94,4.145,4.133,0,0,0,0,4.326,68.72,60.139578039952,2.296588,6,P-GPS,
15200,2022-08-29 20:36:50,-34.9136843275643,-56.1671358805448,2.296588,3.9041996,56.235378439952,60.139578039952,7.874016,1.789552,17.5209323192,34.341208448,17,5,8.254,60.467662039952,2.624672,6.7331894,18.8725071656,1.789552,0,0,7, -0.8, 0.4,0,0,1220,1024,1024,1024,30,0,0,0,19.1,0,0,94,4.145,4.133,0,0,0,0,4.326,68.72,60.139578039952,2.296588,6,P-GPS,
15300,2022-08-29 20:36:50,-34.9136835212696,-56.1671358737958,2.296588,3.9041996,56.235378439952,60.139578039952,7.874016,2.013246,17.8080058192,34.635499796,17,5,8.277,60.467662039952,2.624672,6.7331894,18.8725071656,2.013246,0,0,7, 0, 0.6,0,0,1268,1024,1024,1024,37,0,0,0,19.1,0,0,94,4.144,4.134,0,0,0,0,4.047,68.72,60.139578039952,2.296588,6,P-GPS,
15400,2022-08-29 20:36:51,-34.9136827374474,-56.1671358614262,2.296588,3.937008,56.202570039952,60.139578039952,7.874016,2.013246,18.0876974292,34.92126096,17,5,8.277,60.467662039952,2.624672,6.7331894,18.8725071656,2.013246,0,0,7, -1.5, 0.7,0,0,1024,1024,1024,1024,0,0,0,0,19.1,0,0,94,4.144,4.134,0,0,0,0,4.047,68.72,60.139578039952,2.296588,6,P-GPS,
15500,2022-08-29 20:36:51,-34.9136816527376,-56.1671357238242,2.296588,3.9698164,56.169761639952,60.139578039952,7.874016,2.23694,18.4828746072,35.319226852,17,5,8.277,60.467662039952,2.624672,6.7331894,18.8725071656,2.23694,0,0,7, -0.8, 0.6,0,0,1024,1024,662,1024,0,0,-55,0,19.1,0,0,94,4.144,4.134,0,0,0,0,4.047,68.72,60.139578039952,2.296588,6,P-GPS,
15600,2022-08-29 20:36:51,-34.9136800538564,-56.1671352236682,2.296588,4.0682416,56.071336439952,60.139578039952,9.514436,2.013246,19.084810322,35.921589076,17,5,8.277,60.467662039952,2.624672,6.7331894,19.084810322,2.013246,0,0,7, 6.5, 0.4,0,0,1024,1024,528,1024,0,0,-75,0,19.1,0,0,94,4.144,4.134,0,0,0,0,4.047,68.72,60.139578039952,2.296588,6,P-GPS,
15700,2022-08-29 20:36:51,-34.9136791838895,-56.1671352783496,2.296588,4.10105,56.038528039952,60.139578039952,9.186352,1.789552,19.3911751612,36.239174388,17,5,8.277,60.467662039952,2.624672,6.7331894,19.3911751612,1.789552,0,0.447388,7.1, 9.6, 0.4,0,0,1024,1024,527,1024,0,0,-75,0,19.1,0,0,94,4.144,4.134,0,0,0,0,4.047,68.72,60.139578039952,2.296588,6,P-GPS,
15800,2022-08-29 20:36:51,-34.9136784460675,-56.167135355639,1.968504,3.8057744,56.005719639952,59.811494039952,9.186352,1.789552,19.6493444608,36.509515604,17,5,8.277,60.467662039952,2.624672,6.7331894,19.6493444608,1.565858,0,1.11847,7, 10.4, 0.4,0,0,1024,1024,527,1024,0,0,-75,0,19.1,0,0,94,4.144,4.134,0,0,0,0,4.047,68.72,59.811494039952,1.968504,6,P-GPS,
15900,2022-08-29 20:36:51,-34.9136778927516,-56.1671354864397,1.968504,3.8057744,56.005719639952,59.811494039952,8.858268,1.342164,19.8386489288,36.715224272,17,5,8.277,60.467662039952,2.624672,6.7331894,19.8386489288,1.342164,0,1.789552,7, 9.9, 0.6,0,0,1024,1024,606,1024,0,0,-63,0,19.1,0,0,94,4.144,4.134,0,0,0,0,4.047,68.72,59.811494039952,1.968504,6,P-GPS,
16000,2022-08-29 20:36:51,-34.9136774693529,-56.1671356283773,1.64042,3.4776904,56.005719639952,59.483410039952,8.858268,0.894776,19.9811686184,36.875329264,17,5,8.277,60.467662039952,2.624672,6.7331894,19.9811686184,0.894776,0,2.23694,7, 8.5, 0.4,0,0,1024,1024,996,1024,0,0,-4,0,19.1,0,0,94,4.144,4.134,0,0,0,0,4.047,68.72,59.483410039952,1.64042,6,P-GPS,
16100,2022-08-29 20:36:51,-34.9136774947371,-56.1671360191288,1.312336,3.1496064,56.005719639952,59.155326039952,7.545932,0.671082,19.9487539192,36.992783336,17,5,8.277,60.467662039952,2.624672,6.7331894,19.9811686184,0.671082,0,2.460634,7, 6.9, 0.6,0,0,1024,1024,1024,1024,0,0,0,0,19.1,0,0,94,4.144,4.134,0,0,0,0,4.047,68.72,59.155326039952,1.312336,6,P-GPS,
16200,2022-08-29 20:36:51,-34.9136773494115,-56.167136153701,0.984252,2.8215224,56.005719639952,58.827242039952,7.545932,0.447388,19.9928484088,37.059056304,17,5,8.277,60.467662039952,2.624672,6.7331894,19.9928484088,0.447388,0,1.789552,7, 4.6, 0.5,0,0,1024,1024,1024,1024,0,0,0,0,19.1,0,0,94,4.144,4.134,0,0,0,0,4.047,68.72,58.827242039952,0.984252,6,P-GPS,
16300,2022-08-29 20:36:51,-34.9136773591789,-56.1671363165646,0.656168,2.4934384,56.005719639952,58.499158039952,7.545932,0.223694,19.9799218992,37.10794082,17,5,8.271,60.467662039952,2.624672,6.7331894,19.9928484088,0.223694,0,1.342164,6.9, 3.1, 0.6,0,0,1024,1024,1024,1024,0,0,0,0,19.1,0,0,94,4.139,4.128,0,0,0,0,4.033,68.9,58.499158039952,0.656168,6,P-GPS,
16400,2022-08-29 20:36:51,-34.9136774293257,-56.1671364786551,0.656168,2.4934384,56.005719639952,58.499158039952,7.545932,0,19.945538696,37.162730848,17,5,8.271,60.467662039952,2.624672,6.7331894,19.9928484088,0,0,0.671082,6.9, 2.3, 0.7,0,0,1024,1024,922,1024,0,0,-15,0,19.1,0,0,94,4.139,4.128,0,0,0,0,4.033,68.9,58.499158039952,0.656168,6,P-GPS,
16500,2022-08-29 20:36:52,-34.9136779037989,-56.1671365842046,0.656168,2.4278216,56.071336439952,58.499158039952,7.545932,0,19.7695872468,37.338911956,17,5,8.271,60.467662039952,2.624672,6.7331894,19.9928484088,0,0,0.223694,6.9, 1.8, 0.8,0,0,1024,1024,566,1024,0,0,-69,0,19.1,0,0,94,4.139,4.128,0,0,0,0,4.033,68.9,58.499158039952,0.656168,6,P-GPS,
16600,2022-08-29 20:36:52,-34.9136780292575,-56.1671367107533,0.656168,2.4278216,56.071336439952,58.499158039952,7.545932,0,19.7174546992,37.39829516,16,5,8.271,60.467662039952,2.624672,6.7331894,19.9928484088,0,0,0,6.8, 1.3, 0.8,0,0,1024,1024,699,1024,0,0,-49,0,19.1,0,0,94,4.139,4.128,0,0,0,0,4.033,68.9,58.499158039952,0.656168,6,P-GPS,
16700,2022-08-29 20:36:52,-34.9136781854905,-56.1671367920754,0.328084,2.0997376,56.071336439952,58.171074039952,7.545932,0,19.6568903928,37.460303036,16,5,8.271,60.467662039952,2.624672,6.7331894,19.9928484088,0,0,0.447388,6.8, 1.5, 1.1,0,0,1024,1024,665,1024,0,0,-54,0,19.1,0,0,94,4.139,4.128,0,0,0,0,4.033,68.9,58.171074039952,0.328084,6,P-GPS,
16800,2022-08-29 20:36:52,-34.9136783527251,-56.1671368629606,0.328084,2.0997376,56.071336439952,58.171074039952,7.545932,0,19.5929796296,37.524935584,15,5,8.271,60.467662039952,2.624672,6.7331894,19.9928484088,0,0,1.11847,6.8, 1.2, 1.3,0,0,1024,1024,665,1024,0,0,-54,0,19.1,0,0,94,4.139,4.128,0,0,0,0,4.033,68.9,58.171074039952,0.328084,6,P-GPS,
