time(millisecond),datetime(utc),latitude,longitude,height_above_takeoff(feet),height_above_ground_at_drone_location(feet),ground_elevation_at_drone_location(feet),altitude_above_seaLevel(feet),height_sonar(feet),speed(mph),distance(feet),mileage(feet),satellites,gpslevel,voltage(v),max_altitude(feet),max_ascent(feet),max_speed(mph),max_distance(feet), xSpeed(mph), ySpeed(mph), zSpeed(mph), compass_heading(degrees), pitch(degrees), roll(degrees),isPhoto,isVideo,rc_elevator,rc_aileron,rc_throttle,rc_rudder,rc_elevator(percent),rc_aileron(percent),rc_throttle(percent),rc_rudder(percent),gimbal_heading(degrees),gimbal_pitch(degrees),gimbal_roll(degrees),battery_percent,voltageCell1,voltageCell2,voltageCell3,voltageCell4,voltageCell5,voltageCell6,current(A),battery_temperature(f),altitude(feet),ascent(feet),flycStateRaw,flycState,message
0,2023-10-20 21:06:59,-34.9105512375479,-56.1387052348664,0,0,43.493063399652,43.493063399652,0.656168,0,0,0,21,5,0,43.493063399652,0,0,0,0,0,0,238.8, -6, -0.4,0,0,364,364,364,1684,-100,-100,-100,100,247.8,0,0,52,3.893,3.891,0,0,0,0,0,87.98,43.493063399652,0,41,Motors_Started,"Aeronave en Zona de altitud restringida (150). Vuela con precaución (Code: 190001). Error de calibración del estabilizador. Reinicia la aeronave o contacta con la Asistencia DJI (Code: 40011)"
100,2023-10-20 21:06:59,-34.9105509102884,-56.1387055717177,0,0.065616799999999,43.427446599652,43.493063399652,0.656168,0,0.156249348832,0.156249348832,21,5,0,43.493063399652,0,0,0.156249348832,0,0,0,237.5, -6, 0.3,0,0,364,364,364,1684,-100,-100,-100,100,247.6,0,0,52,3.893,3.891,0,0,0,0,0,87.98,43.493063399652,0,41,Motors_Started,
200,2023-10-20 21:06:59,-34.9105507436909,-56.138705733023,0,0.065616799999999,43.427446599652,43.493063399652,0.328084,0,0.23383859016,0.233861884124,21,5,0,43.493063399652,0,0,0.23383859016,0,0,0,237.4, -5.4, 0.5,0,0,364,364,364,1684,-100,-100,-100,100,247.2,0,0,52,3.893,3.891,0,0,0,0,0,87.98,43.493063399652,0,41,Motors_Started,
300,2023-10-20 21:06:59,-34.9105506228904,-56.138705885052,0,0.065616799999999,43.427446599652,43.493063399652,0.328084,0,0.29687336908,0.297198500324,21,5,0,43.493063399652,0,0,0.29687336908,0,0,-0.223694,237.7, -5.7, -0.4,0,0,364,364,364,1684,-100,-100,-100,100,247,0,0,52,3.893,3.891,0,0,0,0,0,87.98,43.493063399652,0,41,Motors_Started,
400,2023-10-20 21:06:59,-34.9105505042131,-56.1387060448369,0,0.065616799999999,43.427446599652,43.493063399652,0.328084,0,0.3609908252,0.36169948664,21,5,0,43.493063399652,0,0,0.3609908252,0,0,0,237, -5.3, -0.1,0,0,364,364,364,1684,-100,-100,-100,100,246.9,0,0,52,3.893,3.891,0,0,0,0,0,87.98,43.493063399652,0,41,Motors_Started,
500,2023-10-20 21:06:59,-34.9105505271005,-56.1387062119376,0,0.065616799999999,43.427446599652,43.493063399652,0.328084,0,0.3906988314,0.41238846464,21,5,0,43.493063399652,0,0,0.3906988314,0,0,0,236.8, -4.9, 0,0,0,364,364,364,1684,-100,-100,-100,100,246.6,0,0,52,3.893,3.891,0,0,0,0,0,87.98,43.493063399652,0,41,Motors_Started,
600,2023-10-20 21:07:00,-34.910550375108,-56.1387063500735,0,-0.065616800000004,43.558680199652,43.493063399652,0.328084,0,0.45863190444,0.48154857184,21,5,0,43.493063399652,0,0,0.45863190444,0,0,0,236.3, -4.7, 0.5,0,0,364,364,364,1684,-100,-100,-100,100,246.4,0,0,52,3.893,3.891,0,0,0,0,0,87.98,43.493063399652,0,41,Motors_Started,
700,2023-10-20 21:07:00,-34.9105502374125,-56.1387064776084,0,-0.065616800000004,43.558680199652,43.493063399652,0.328084,0,0.52096130276,0.5446358442,21,5,0,43.493063399652,0,0,0.52096130276,0,0,0,236.3, -4.3, 0.5,0,0,364,364,364,1684,-100,-100,-100,100,246.1,0,0,52,3.893,3.891,0,0,0,0,0,87.98,43.493063399652,0,41,Motors_Started,
800,2023-10-20 21:07:00,-34.9105501701342,-56.138706583018,0,0,43.493063399652,43.493063399652,0.328084,0,0.56068243264,0.58459975624,21,5,0,43.493063399652,0,0,0.56068243264,0,0,0,235.9, -4.1, 0.8,0,0,1024,1024,561,1024,0,0,-70,0,246,0,0,52,3.893,3.891,0,0,0,0,0,87.98,43.493063399652,0,41,Motors_Started,
900,2023-10-20 21:07:00,-34.9105501162489,-56.1387066854894,0,0,43.493063399652,43.493063399652,0.328084,0,0.59643702696,0.62102036108,21,5,0,43.493063399652,0,0,0.59643702696,0,0,0,235.8, -3.9, 0.7,0,0,1024,1024,1360,1024,0,0,51,0,245.8,0,0,52,3.893,3.891,0,0,0,0,0,87.98,43.493063399652,0,41,Motors_Started,"Setting new Return-To-Home altitude to 100m (328 ft). Data Recorder File Index is 21. Setting new Maximum Flight Altitude to 120m (394 ft)"
1000,2023-10-20 21:07:00,-34.9105502450015,-56.1387067894723,0,0,43.493063399652,43.493063399652,0.328084,0,0.58947508448,0.6773622264,21,5,7.797,43.493063399652,0,0,0.59643702696,0,0,0,235.5, -4.2, 0.2,0,0,1024,1024,1684,1017,0,0,100,-1,245.6,0,0,52,3.893,3.891,0,0,0,0,0.867,87.98,43.493063399652,0,41,Motors_Started,
1100,2023-10-20 21:07:00,-34.9105501929405,-56.1387069336596,0,0,43.493063399652,43.493063399652,0.328084,0,0.63528873424,0.72449805468,21,5,7.797,43.493063399652,0,0,0.63528873424,0,0,0,235.2, -4.2, 0.8,0,0,1024,1024,1684,1017,0,0,100,-1,245.4,0,0,52,3.893,3.891,0,0,0,0,0.867,87.98,43.493063399652,0,10,Assisted_Takeoff,
1200,2023-10-20 21:07:00,-34.9105501865314,-56.1387070954572,0,0,43.493063399652,43.493063399652,0.328084,0,0.6759678694,0.772965904,21,5,7.797,43.493063399652,0,0,0.6759678694,0,0,0,234.6, -3.4, 1.1,0,0,1024,1024,1684,1024,0,0,100,0,245,0,0,52,3.893,3.891,0,0,0,0,0.867,87.98,43.493063399652,0,10,Assisted_Takeoff,
1300,2023-10-20 21:07:00,-34.910550187425,-56.1387072354941,0,0,43.493063399652,43.493063399652,0.328084,0,0.71069227996,0.81486551164,21,5,7.797,43.493063399652,0,0,0.71069227996,0,0,0,234.9, -2.6, 1.7,0,0,1024,1024,1684,1024,0,0,100,0,244.8,0,0,52,3.893,3.891,0,0,0,0,0.867,87.98,43.493063399652,0,10,Assisted_Takeoff,
1400,2023-10-20 21:07:00,-34.9105504161827,-56.1387072905834,0,0,43.493063399652,43.493063399652,0.328084,0,0.68417981192,0.89993769284,21,5,7.797,43.493063399652,0,0,0.71069227996,0,0,0,234.8, -2.9, 0.3,0,0,1024,1024,1684,1024,0,0,100,0,244.8,0,0,52,3.893,3.891,0,0,0,0,0.867,87.98,43.493063399652,0,10,Assisted_Takeoff,
1500,2023-10-20 21:07:00,-34.910550419203,-56.1387074064664,0,0,43.493063399652,43.493063399652,0.328084,0,0.71504595464,0.93462601416,22,5,7.797,43.493063399652,0,0,0.71504595464,0,0,0,234.4, -3.5, 0.6,0,0,1024,1024,1684,1024,0,0,100,0,244.7,0,0,52,3.893,3.891,0,0,0,0,0.867,87.98,43.493063399652,0,10,Assisted_Takeoff,
1600,2023-10-20 21:07:01,-34.9105503940436,-56.1387075998411,0,0.032808399999999,43.460254999652,43.493063399652,0.328084,0,0.77161419792,0.9932086932,22,5,7.797,43.493063399652,0,0,0.77161419792,0,0,0,235.5, -4.3, 1.1,0,0,1024,1024,1684,1024,0,0,100,0,244.7,0,0,52,3.893,3.891,0,0,0,0,0.867,87.98,43.493063399652,0,10,Assisted_Takeoff,
1700,2023-10-20 21:07:01,-34.9105503850033,-56.1387078186352,0,0.032808399999999,43.460254999652,43.493063399652,0.328084,0,0.83327758572,1.05875331472,22,5,7.797,43.493063399652,0,0,0.83327758572,0,0,0,238.7, -7.4, -0.1,0,0,1024,1024,1684,1024,0,0,100,0,247.2,0,0,52,3.893,3.891,0,0,0,0,0.867,87.98,43.493063399652,0,10,Assisted_Takeoff,
1800,2023-10-20 21:07:01,-34.9105506514692,-56.1387083506976,0.328084,0.492126,43.329021399652,43.821147399652,0.328084,0.4921268,0.956446881,1.24528219208,22,5,7.797,43.821147399652,0.328084,0.4921268,0.956446881,-0.223694,-0.447388,0,241.3, -7.1, 1.9,0,0,1024,1024,1684,1024,0,0,100,0,250,0,0,52,3.893,3.891,0,0,0,0,0.867,87.98,43.821147399652,0.328084,10,Assisted_Takeoff,
1900,2023-10-20 21:07:01,-34.9105508315682,-56.1387089202717,0.328084,0.5249344,43.296212999652,43.821147399652,0.328084,1.006623,1.11255252904,1.42792327404,22,5,7.797,43.821147399652,0.328084,1.006623,1.11255252904,-0.447388,-0.894776,-0.223694,244, -7.5, 2.7,0,0,1024,1024,1684,1024,0,0,100,0,252.9,0,0,52,3.893,3.891,0,0,0,0,0.867,87.98,43.821147399652,0.328084,10,Assisted_Takeoff,
2000,2023-10-20 21:07:01,-34.9105510306545,-56.1387097756688,0.328084,0.5577428,43.263404599652,43.821147399652,0.328084,1.4092722,1.36067261572,1.69396002796,22,5,7.788,43.821147399652,0.328084,1.4092722,1.36067261572,-0.447388,-1.342164,-0.671082,244.3, -2.2, 1.8,0,0,1024,1024,1684,1024,0,0,100,0,254.2,0,0,52,3.859,3.856,0,0,0,0,1.675,87.98,43.821147399652,0.328084,6,P-GPS,
2100,2023-10-20 21:07:01,-34.9105512350726,-56.1387107255244,0.656168,0.9514436,43.197787799652,44.149231399652,0.656168,1.4092722,1.64276908144,1.98777565416,22,5,7.788,44.149231399652,0.656168,1.4092722,1.64276908144,-0.447388,-1.342164,-1.342164,243.7, 5.2, -0.6,0,0,1024,1024,1590,1024,0,0,86,0,254.3,0,0,52,3.859,3.856,0,0,0,0,1.675,87.98,44.149231399652,0.656168,6,P-GPS,
2200,2023-10-20 21:07:01,-34.9105517101416,-56.1387118748244,0.984252,1.4435696,43.033745799652,44.477315399652,0.984252,1.3645334,1.99410111368,2.3728511258,22,5,7.788,44.477315399652,0.984252,1.4092722,1.99410111368,-0.223694,-1.342164,-2.013246,243.6, 6.6, -2,0,0,1024,1024,1024,1024,0,0,0,0,254.3,0,0,52,3.859,3.856,0,0,0,0,1.675,87.98,44.477315399652,0.984252,6,P-GPS,
2300,2023-10-20 21:07:01,-34.9105519477021,-56.1387127493929,1.312336,1.804462,43.000937399652,44.805399399652,0.984252,1.1408394,2.26317920628,2.64849746008,22,5,7.788,44.805399399652,1.312336,1.4092722,2.26317920628,-0.223694,-1.11847,-2.684328,243.5, 8.5, -1.8,0,0,1024,1024,1024,1024,0,0,0,0,254.3,0,0,52,3.859,3.856,0,0,0,0,1.675,87.98,44.805399399652,1.312336,6,P-GPS,
2400,2023-10-20 21:07:01,-34.9105521824631,-56.1387136061173,1.64042,2.1981628,42.935320599652,45.133483399652,3.608924,1.1408394,2.52823826988,2.91875665508,22,5,7.788,45.133483399652,1.64042,1.4092722,2.52823826988,-0.223694,-1.11847,-2.908022,243.6, 8.8, -2.2,0,0,1024,1024,1024,1024,0,0,0,0,254.3,0,0,52,3.859,3.856,0,0,0,0,1.675,87.98,45.133483399652,1.64042,6,P-GPS,
2500,2023-10-20 21:07:01,-34.9105523970647,-56.1387143612519,1.968504,2.5262468,42.935320599652,45.461567399652,3.937008,0.9171454,2.76313329052,3.15787083596,22,5,7.788,45.461567399652,1.968504,1.4092722,2.76313329052,-0.223694,-0.894776,-2.908022,243.5, 8.5, -2,0,0,1024,1024,1024,1024,0,0,0,0,254.3,0,0,52,3.859,3.856,0,0,0,0,1.675,87.98,45.461567399652,1.968504,6,P-GPS,
2600,2023-10-20 21:07:02,-34.9105525792801,-56.1387151321025,2.296588,3.0183728,42.771278599652,45.789651399652,4.265092,0.7158208,3.0013780488,3.3979003712,22,5,7.788,45.789651399652,2.296588,1.4092722,3.0013780488,-0.223694,-0.671082,-2.460634,243.6, 8.6, -1.5,0,0,1024,1024,1024,1024,0,0,0,0,254.3,0,0,52,3.859,3.856,0,0,0,0,1.675,87.98,45.789651399652,2.296588,6,P-GPS,
2700,2023-10-20 21:07:02,-34.9105528287992,-56.1387160205478,2.624672,3.3792652,42.738470199652,46.117735399652,4.593176,0.7158208,3.27881572172,3.6788715088,22,5,7.788,46.117735399652,2.624672,1.4092722,3.27881572172,-0.223694,-0.671082,-1.789552,243.7, 8.7, -1.1,0,0,1024,1024,1024,1024,0,0,0,0,254.3,0,0,52,3.859,3.856,0,0,0,0,1.675,87.98,46.117735399652,2.624672,6,P-GPS,
2800,2023-10-20 21:07:02,-34.9105529438531,-56.1387165746559,2.952756,3.7401576,42.705661799652,46.445819399652,4.92126,0.4921268,3.4494423676,3.849901698,22,5,7.788,46.445819399652,2.952756,1.4092722,3.4494423676,-0.223694,-0.447388,-1.342164,243.9, 7.3, 0,0,0,1024,1024,1024,1024,0,0,0,0,254.3,0,0,52,3.859,3.856,0,0,0,0,1.675,87.98,46.445819399652,2.952756,6,P-GPS,
2900,2023-10-20 21:07:02,-34.9105530226791,-56.1387170555518,2.952756,3.7401576,42.705661799652,46.445819399652,5.249344,0.4921268,3.596128724,3.9966208628,22,5,7.788,46.445819399652,2.952756,1.4092722,3.596128724,-0.223694,-0.447388,-0.671082,243.9, 6.6, 0,0,0,1024,1024,1024,1024,0,0,0,0,254.3,0,0,52,3.859,3.856,0,0,0,0,1.675,87.98,46.445819399652,2.952756,6,P-GPS,
3000,2023-10-20 21:07:02,-34.9105530091554,-56.1387174754351,2.952756,3.7401576,42.705661799652,46.445819399652,5.249344,0.4921268,3.7188977568,4.1223426516,22,5,7.611,46.445819399652,2.952756,1.4092722,3.7188977568,-0.223694,-0.447388,-0.223694,243.9, 6.5, -0.1,0,0,1024,1024,1024,1024,0,0,0,0,254.3,0,0,52,3.842,3.84,0,0,0,0,4.883,87.98,46.445819399652,2.952756,6,P-GPS,
3100,2023-10-20 21:07:02,-34.9105527115885,-56.1387176089365,2.952756,3.8057744,42.640044999652,46.445819399652,5.249344,0.4921268,3.7411090436,4.23802507,21,5,7.611,46.445819399652,2.952756,1.4092722,3.7411090436,-0.223694,-0.447388,0,244.1, 5.5, 0.4,0,0,1024,1024,1024,1024,0,0,0,0,254.3,0,0,52,3.842,3.84,0,0,0,0,4.883,87.98,46.445819399652,2.952756,6,P-GPS,
3200,2023-10-20 21:07:02,-34.9105526596792,-56.1387177914627,2.952756,3.8057744,42.640044999652,46.445819399652,5.249344,0.4921268,3.7925198064,4.2958334708,21,5,7.611,46.445819399652,2.952756,1.4092722,3.7925198064,-0.223694,-0.447388,0,244.1, 5.3, 0.2,0,0,1024,1024,1024,1024,0,0,0,0,254.3,0,0,52,3.842,3.84,0,0,0,0,4.883,87.98,46.445819399652,2.952756,6,P-GPS,
3300,2023-10-20 21:07:02,-34.9105526067352,-56.1387179298467,2.952756,3.8057744,42.640044999652,46.445819399652,5.249344,0.223694,3.8309712512,4.3415027636,21,5,7.611,46.445819399652,2.952756,1.4092722,3.8309712512,0,-0.223694,0,244.3, 4.8, 0.5,0,0,1024,1024,1024,1024,0,0,0,0,254.3,0,0,52,3.842,3.84,0,0,0,0,4.883,87.98,46.445819399652,2.952756,6,P-GPS,
3400,2023-10-20 21:07:02,-34.9105526036548,-56.138718066968,2.952756,3.8057744,42.640044999652,46.445819399652,5.249344,0.223694,3.8714896252,4.382546072,21,5,7.611,46.445819399652,2.952756,1.4092722,3.8714896252,0,-0.223694,0,244.4, 4.4, 0,0,0,1024,1024,1024,1024,0,0,0,0,254.3,0,0,52,3.842,3.84,0,0,0,0,4.883,87.98,46.445819399652,2.952756,6,P-GPS,
3500,2023-10-20 21:07:02,-34.9105524468348,-56.1387176468419,2.952756,3.6745408,42.771278599652,46.445819399652,5.249344,0.223694,3.7396982824,4.520669436,21,5,7.611,46.445819399652,2.952756,1.4092722,3.8714896252,0,-0.223694,0,244.6, 5, 0.6,0,0,1024,1024,1024,1024,0,0,0,0,254.3,0,0,52,3.842,3.84,0,0,0,0,4.883,87.98,46.445819399652,2.952756,6,P-GPS,
3600,2023-10-20 21:07:03,-34.9105525118446,-56.1387178119936,2.952756,3.8057744,42.640044999652,46.445819399652,4.92126,0.223694,3.7916011712,4.575459464,21,5,7.611,46.445819399652,2.952756,1.4092722,3.8714896252,0,-0.223694,0,244.9, 5.6, 0.6,0,0,1024,1024,1024,1024,0,0,0,0,254.3,0,0,52,3.842,3.84,0,0,0,0,4.883,87.98,46.445819399652,2.952756,6,P-GPS,
3700,2023-10-20 21:07:03,-34.9105525613678,-56.1387179364361,2.952756,3.8057744,42.640044999652,46.445819399652,4.92126,0,3.8308072092,4.6168636648,21,5,7.611,46.445819399652,2.952756,1.4092722,3.8714896252,0,0,0.223694,244.9, 4.7, 0.5,0,0,1024,1024,1024,1024,0,0,0,0,254.3,0,0,52,3.842,3.84,0,0,0,0,4.883,87.98,46.445819399652,2.952756,6,P-GPS,
3800,2023-10-20 21:07:03,-34.9105525484956,-56.1387180262863,2.952756,3.8057744,42.640044999652,46.445819399652,4.92126,0,3.8568898872,4.6441274452,21,5,7.611,46.445819399652,2.952756,1.4092722,3.8714896252,0,0,0,245.2, 3.4, 0.6,0,0,1024,1024,1024,1024,0,0,0,0,254.3,0,0,52,3.842,3.84,0,0,0,0,4.883,87.98,46.445819399652,2.952756,6,P-GPS,
3900,2023-10-20 21:07:03,-34.9105525482969,-56.1387179491305,2.952756,3.8057744,42.640044999652,46.445819399652,4.92126,0,3.8339568156,4.6672245588,21,5,7.611,46.445819399652,2.952756,1.4092722,3.8714896252,0,0,0,245.4, 3, 0.3,0,0,1024,1024,1024,1024,0,0,0,0,254.3,0,0,52,3.842,3.84,0,0,0,0,4.883,87.98,46.445819399652,2.952756,6,P-GPS,
4000,2023-10-20 21:07:03,-34.9105524970656,-56.13871797898,2.952756,3.6745408,42.771278599652,46.445819399652,4.92126,0,3.840551304,4.6879266592,21,5,7.611,46.445819399652,2.952756,1.4092722,3.8714896252,0,0,0,245.3, 2.6, 0,0,0,1024,1024,1024,1024,0,0,0,0,254.3,0,0,52,3.842,3.84,0,0,0,0,4.883,87.98,46.445819399652,2.952756,6,P-GPS,
4100,2023-10-20 21:07:03,-34.9105524361921,-56.1387180112271,2.952756,3.6745408,42.771278599652,46.445819399652,4.92126,0,3.8475394932,4.7121720668,21,5,7.656,46.445819399652,2.952756,1.4092722,3.8714896252,0,0,-0.223694,245.5, 2, -0.2,0,0,1024,1024,1024,1024,0,0,0,0,254.3,0,0,52,3.82,3.817,0,0,0,0,4.126,87.98,46.445819399652,2.952756,6,P-GPS,
4200,2023-10-20 21:07:03,-34.9105523696987,-56.1387181108595,2.952756,3.6745408,42.771278599652,46.445819399652,4.92126,0,3.874507998,4.7505907032,21,5,7.656,46.445819399652,2.952756,1.4092722,3.874507998,0,0,-0.223694,245.6, 1.6, -1.1,0,0,1024,1024,1024,1024,0,0,0,0,254.3,0,0,52,3.82,3.817,0,0,0,0,4.126,87.98,46.445819399652,2.952756,6,P-GPS,
4300,2023-10-20 21:07:03,-34.9105523284787,-56.1387182079742,2.952756,3.6745408,42.771278599652,46.445819399652,4.92126,0,3.9018373952,4.783300678,21,5,7.656,46.445819399652,2.952756,1.4092722,3.9018373952,0,0,-0.223694,245.5, 2.1, -0.5,0,0,1024,1024,1024,1024,0,0,0,0,254.3,0,0,52,3.82,3.817,0,0,0,0,4.126,87.98,46.445819399652,2.952756,6,P-GPS,
4400,2023-10-20 21:07:03,-34.9105523069694,-56.1387182775286,3.28084,4.0026248,42.771278599652,46.773903399652,5.249344,0,3.921752094,4.8055447732,21,5,7.656,46.773903399652,3.28084,1.4092722,3.921752094,0,0,-0.223694,245.6, 1.7, 0.4,0,0,1024,1024,1024,1024,0,0,0,0,254.3,0,0,52,3.82,3.817,0,0,0,0,4.126,87.98,46.773903399652,3.28084,6,P-GPS,
4500,2023-10-20 21:07:04,-34.9105522936029,-56.1387183665012,3.28084,4.0026248,42.771278599652,46.773903399652,5.249344,0,3.9477363468,4.8326117032,21,5,7.656,46.773903399652,3.28084,1.4092722,3.9477363468,0,0,-0.223694,245.6, 2.1, 0.4,0,0,1026,1024,1024,1024,0,0,0,0,254.3,0,0,52,3.82,3.817,0,0,0,0,4.126,87.98,46.773903399652,3.28084,6,P-GPS,
4600,2023-10-20 21:07:04,-34.9105522612118,-56.1387185295518,3.28084,4.0682416,42.705661799652,46.773903399652,5.249344,0,3.9951772932,4.8828085552,21,5,7.656,46.773903399652,3.28084,1.4092722,3.9951772932,0,0,0,245.9, 2.7, -0.2,0,0,1095,1024,1024,1024,11,0,0,0,254.3,0,0,52,3.82,3.817,0,0,0,0,4.126,87.98,46.773903399652,3.28084,6,P-GPS,
4700,2023-10-20 21:07:04,-34.91055222841,-56.1387187084804,2.952756,3.7401576,42.705661799652,46.445819399652,5.249344,0,4.047408266,4.9376642,22,5,7.656,46.773903399652,3.28084,1.4092722,4.047408266,0,0,0,245.9, 2.6, 0,0,0,1095,1024,1024,1024,11,0,0,0,254.3,0,0,52,3.82,3.817,0,0,0,0,4.126,87.98,46.445819399652,2.952756,6,P-GPS,
4800,2023-10-20 21:07:04,-34.9105521685362,-56.138719030084,2.952756,3.7401576,42.705661799652,46.445819399652,5.249344,0.223694,4.141404332,5.0363190588,22,5,7.656,46.773903399652,3.28084,1.4092722,4.141404332,0,-0.223694,0,246, 3.5, -0.1,0,0,1679,1024,1024,1024,99,0,0,0,254.3,0,0,52,3.82,3.817,0,0,0,0,4.126,87.98,46.445819399652,2.952756,6,P-GPS,
4900,2023-10-20 21:07:04,-34.9105520955434,-56.1387192740774,2.952756,3.7401576,42.705661799652,46.445819399652,5.249344,0.223694,4.2120736256,5.1140421584,22,5,7.656,46.773903399652,3.28084,1.4092722,4.2120736256,0,-0.223694,0,246.2, -1.7, -1.8,0,0,1684,1024,1024,1024,100,0,0,0,254.3,0,0,52,3.82,3.817,0,0,0,0,4.126,87.98,46.445819399652,2.952756,6,P-GPS,
5000,2023-10-20 21:07:04,-34.9105520102779,-56.1387196141095,2.952756,3.772966,42.672853399652,46.445819399652,5.249344,0.671082,4.3114174608,5.2204397996,22,5,7.656,46.773903399652,3.28084,1.4092722,4.3114174608,0,-0.671082,0,246.5, -10.1, -2.9,0,0,1684,1024,1024,1024,100,0,0,0,254.3,0,0,52,3.82,3.817,0,0,0,0,4.126,87.98,46.445819399652,2.952756,6,P-GPS,
5100,2023-10-20 21:07:04,-34.910552012504,-56.1387201384974,2.952756,3.772966,42.672853399652,46.445819399652,5.249344,1.1408394,4.468011954,5.3773295684,22,5,7.664,46.773903399652,3.28084,1.4092722,4.468011954,-0.223694,-1.11847,0,246.7, -13.2, -2.1,0,0,1684,1024,1024,1024,100,0,0,0,254.3,0,0,52,3.833,3.83,0,0,0,0,4.494,87.98,46.445819399652,2.952756,6,P-GPS,
5200,2023-10-20 21:07:04,-34.910552166209,-56.1387210831171,2.952756,3.8385828,42.607236599652,46.445819399652,5.249344,1.8342908,4.753773118,5.6654529372,22,5,7.664,46.773903399652,3.28084,1.8342908,4.753773118,-0.447388,-1.789552,0,246.6, -12.8, -3.1,0,0,1684,1024,1024,1024,100,0,0,0,254.3,0,0,52,3.833,3.83,0,0,0,0,4.494,87.98,46.445819399652,2.952756,6,P-GPS,
5300,2023-10-20 21:07:04,-34.9105524250648,-56.1387221856645,2.952756,3.8713912,42.574428199652,46.445819399652,5.249344,2.3264176,5.0900264096,6.0085959928,22,5,7.664,46.773903399652,3.28084,2.3264176,5.0900264096,-0.671082,-2.23694,0,246.1, -11.8, -2.6,0,0,1684,1024,1056,1024,100,0,5,0,254.3,0,0,52,3.833,3.83,0,0,0,0,4.494,87.98,46.445819399652,2.952756,6,P-GPS,
5400,2023-10-20 21:07:04,-34.9105527609965,-56.138723612127,2.952756,4.10105,42.344769399652,46.445819399652,4.92126,2.3264176,5.5263781296,6.4526248784,22,5,7.664,46.773903399652,3.28084,2.3264176,5.5263781296,-1.11847,-2.684328,0,246.3, -11.4, -0.4,0,0,1684,1024,1613,1024,100,0,89,0,254.3,0,0,52,3.833,3.83,0,0,0,0,4.494,87.98,46.445819399652,2.952756,6,P-GPS,
5500,2023-10-20 21:07:05,-34.9105531815363,-56.138725196124,2.952756,4.1338584,42.311960999652,46.445819399652,5.249344,3.6238428,6.0142390376,6.9507548156,22,5,7.664,46.773903399652,3.28084,3.6238428,6.0142390376,-1.342164,-3.35541,0,246.4, -12.4, -0.1,0,0,1684,1024,1684,1024,100,0,100,0,254.3,0,0,52,3.833,3.83,0,0,0,0,4.494,87.98,46.445819399652,2.952756,6,P-GPS,"Punto de origen actualizado. Altitud de RPO establecida en 100m (Code: 3000001)"
5600,2023-10-20 21:07:05,-34.9105540279456,-56.1387273801839,2.952756,4.3307088,42.115110599652,46.445819399652,5.249344,3.6238428,6.7035107132,7.6735238676,22,5,7.664,46.773903399652,3.28084,3.6238428,6.7035107132,-1.565858,-4.026492,-0.447388,246.3, -12, -0.9,0,0,1684,1024,1684,1024,100,0,100,0,254.3,0,0,52,3.833,3.83,0,0,0,0,4.494,87.98,46.445819399652,2.952756,6,P-GPS,
5700,2023-10-20 21:07:05,-34.9105547781798,-56.1387295800134,2.952756,4.593176,41.852643399652,46.445819399652,5.249344,5.033115,7.3975724152,8.3863519744,22,5,7.664,46.773903399652,3.28084,5.033115,7.3975724152,-1.789552,-4.697574,-1.342164,246.3, -9.8, -1.7,0,0,1684,1024,1684,1024,100,0,100,0,254.3,0,0,52,3.833,3.83,0,0,0,0,4.494,87.98,46.445819399652,2.952756,6,P-GPS,
5800,2023-10-20 21:07:05,-34.9105556916222,-56.1387322510284,3.28084,5.085302,41.688601399652,46.773903399652,5.577428,5.5252418,8.2447837284,9.2521984588,22,5,7.664,46.773903399652,3.28084,5.5252418,8.2447837284,-2.013246,-5.144962,-2.013246,246.6, -8.9, -0.8,0,0,1672,1024,1684,1024,98,0,100,0,254.3,0,0,52,3.833,3.83,0,0,0,0,4.494,87.98,46.773903399652,3.28084,6,P-GPS,
5900,2023-10-20 21:07:05,-34.9105566529298,-56.1387350101268,3.608924,5.6102364,41.491750999652,47.101987399652,6.233596,6.0173686,9.1250331004,10.149114498,22,5,7.664,47.101987399652,3.608924,6.0173686,9.1250331004,-2.23694,-5.59235,-2.908022,246.3, -7.5, -1.8,0,0,1108,1024,1420,1024,13,0,60,0,254.3,0,0,52,3.833,3.83,0,0,0,0,4.494,87.98,47.101987399652,3.608924,6,P-GPS,
6000,2023-10-20 21:07:05,-34.91055779428,-56.1387380512349,3.937008,6.1023624,41.327708999652,47.430071399652,6.56168,6.5318648,10.1056761764,11.149770698,22,5,7.664,47.430071399652,3.937008,6.5318648,10.1056761764,-2.460634,-6.039738,-3.579104,245.9, -2, -1.5,0,0,1024,1024,1024,1024,0,0,0,0,254.3,0,0,52,3.833,3.83,0,0,0,0,4.494,87.98,47.430071399652,3.937008,6,P-GPS,
6100,2023-10-20 21:07:05,-34.9105592886332,-56.1387412296158,4.593176,6.9225724,41.163666999652,48.086239399652,7.217848,6.4423872,11.1627956328,12.2459321504,22,5,7.664,48.086239399652,4.593176,6.5318648,11.1627956328,-2.23694,-6.039738,-3.579104,245.7, 19, -1.6,0,0,1024,1024,1024,1024,0,0,0,0,254.3,0,0,52,3.833,3.83,0,0,0,0,4.494,87.98,48.086239399652,4.593176,6,P-GPS,
6200,2023-10-20 21:07:05,-34.9105603598774,-56.1387442664538,4.92126,7.4146984,40.999624999652,48.414323399652,7.874016,5.9502604,12.1430121996,13.2350069852,22,5,7.629,48.414323399652,4.92126,6.5318648,12.1430121996,-2.013246,-5.59235,-2.908022,245.7, 20.1, -1.8,0,0,1141,1024,1684,1024,18,0,100,0,254.3,0,0,52,3.777,3.772,0,0,0,0,4.708,87.98,48.414323399652,4.92126,6,P-GPS,
6300,2023-10-20 21:07:05,-34.9105612970897,-56.1387469120332,5.249344,7.9396328,40.802774599652,48.742407399652,8.530184,5.2344396,12.9984584212,14.0972445456,22,5,7.629,48.742407399652,5.249344,6.5318648,12.9984584212,-1.789552,-4.921268,-2.23694,246.1, 20.5, -1.3,0,0,1684,1024,1684,1024,100,0,100,0,254.3,0,0,52,3.777,3.772,0,0,0,0,4.708,87.98,48.742407399652,5.249344,6,P-GPS,
6400,2023-10-20 21:07:05,-34.9105621877691,-56.138749270711,5.577428,8.366142,40.704349399652,49.070491399652,8.858268,4.5186188,13.7676513592,14.874180266,22,5,7.629,49.070491399652,5.577428,6.5318648,13.7676513592,-1.565858,-4.250186,-2.23694,246.2, 18.2, -1.2,0,0,1684,1024,1684,1024,100,0,100,0,254.3,0,0,52,3.777,3.772,0,0,0,0,4.708,87.98,49.070491399652,5.577428,6,P-GPS,
6500,2023-10-20 21:07:05,-34.9105631100921,-56.1387510939311,5.905512,8.8254596,40.573115799652,49.398575399652,9.514436,3.8251674,14.3882550536,15.5151251684,22,5,7.629,49.398575399652,5.905512,6.5318648,14.3882550536,-1.342164,-3.579104,-2.908022,246.4, 9, -1.9,0,0,1684,1005,1684,1024,100,-3,100,0,254.3,0,0,52,3.777,3.772,0,0,0,0,4.708,87.98,49.398575399652,5.905512,6,P-GPS,
6600,2023-10-20 21:07:06,-34.910563714275,-56.1387527555684,6.56168,9.6128612,40.441882199652,50.054743399652,10.170604,3.5343652,14.9288390604,16.0589572068,22,5,7.629,50.054743399652,6.56168,6.5318648,14.9288390604,-1.11847,-3.35541,-3.579104,246.7, -2.8, -2.4,0,0,1684,1005,1684,1024,100,-3,100,0,254.3,0,0,52,3.777,3.772,0,0,0,0,4.708,87.98,50.054743399652,6.56168,6,P-GPS,
6700,2023-10-20 21:07:06,-34.9105643156879,-56.1387543329303,6.889764,9.9737536,40.409073799652,50.382827399652,10.498688,3.914645,15.4453417016,16.579396856,22,5,7.629,50.382827399652,6.889764,6.5318648,15.4453417016,-1.565858,-3.579104,-4.250186,244.4, -6.2, -1.5,0,0,1684,1005,1684,1024,100,-3,100,0,254.3,0,0,52,3.777,3.772,0,0,0,0,4.708,87.98,50.382827399652,6.889764,6,P-GPS,
6800,2023-10-20 21:07:06,-34.9105649691702,-56.1387560000627,7.545932,10.7611552,40.277840199652,51.038995399652,11.154856,4.2054472,15.9935700656,17.1322512044,22,5,7.629,51.038995399652,7.545932,6.5318648,15.9935700656,-1.789552,-3.802798,-5.144962,244.3, -6.7, -1.5,0,0,1684,963,1684,1024,100,-9,100,0,254.3,0,0,52,3.777,3.772,0,0,0,0,4.708,87.98,51.038995399652,7.545932,6,P-GPS,
6900,2023-10-20 21:07:06,-34.9105651621685,-56.1387569459492,8.530184,11.7782156,40.245031799652,52.023247399652,12.139108,4.6080964,16.2843837232,17.423885072,22,5,7.629,52.023247399652,8.530184,6.5318648,16.2843837232,-1.789552,-4.250186,-5.59235,244.4, -7.1, -0.8,0,0,1684,960,1684,1024,100,-10,100,0,254.3,0,0,52,3.777,3.772,0,0,0,0,4.708,87.98,52.023247399652,8.530184,6,P-GPS,
7000,2023-10-20 21:07:06,-34.9105657785338,-56.1387588757489,9.514436,12.8937012,40.113798199652,53.007499399652,12.795276,5.1002232,16.9031501472,18.0435373228,22,5,7.629,53.007499399652,9.514436,6.5318648,16.9031501472,-2.013246,-4.697574,-6.039738,244.6, -8.3, -2.1,0,0,1684,958,1684,1024,100,-10,100,0,254.3,0,0,52,3.777,3.772,0,0,0,0,4.708,87.98,53.007499399652,9.514436,6,P-GPS,
7100,2023-10-20 21:07:06,-34.9105664771517,-56.138760935075,10.170604,13.6482944,40.015372999652,53.663667399652,13.779528,5.704197,17.5682092236,18.710302436,22,5,7.629,53.663667399652,10.170604,6.5318648,17.5682092236,-2.460634,-5.144962,-6.263432,244.5, -7.6, -2.2,0,0,1684,933,1684,1024,100,-14,100,0,254.3,0,0,52,3.777,3.772,0,0,0,0,4.708,87.98,53.663667399652,10.170604,6,P-GPS,
7200,2023-10-20 21:07:06,-34.9105674782482,-56.1387635099834,11.154856,14.7965884,39.851330999652,54.647919399652,14.76378,6.3976484,18.4148956024,19.5628943268,22,5,7.537,54.647919399652,11.154856,6.5318648,18.4148956024,-2.684328,-5.816044,-6.487126,244.5, -6.7, -2.5,0,0,1684,921,1684,1024,100,-16,100,0,254.3,0,0,52,3.771,3.773,0,0,0,0,5.969,87.98,54.647919399652,11.154856,6,P-GPS,
7300,2023-10-20 21:07:06,-34.910568461142,-56.138765988195,12.467192,16.240158,39.720097399652,55.960255399652,15.748032,6.71082,19.2325793556,20.3865164004,22,5,7.537,55.960255399652,12.467192,6.71082,19.2325793556,-2.908022,-6.039738,-6.487126,244.4, -6.6, -2.5,0,0,1684,880,1684,1024,100,-22,100,0,254.3,0,0,52,3.771,3.773,0,0,0,0,5.969,87.98,55.960255399652,12.467192,6,P-GPS,
7400,2023-10-20 21:07:06,-34.9105696875102,-56.1387691346397,13.451444,17.4212604,39.523246999652,56.944507399652,16.732284,7.2029468,20.2688326696,21.4288392684,22,5,7.537,56.944507399652,13.451444,7.2029468,20.2688326696,-3.131716,-6.487126,-6.487126,244.4, -7.3, -2.8,0,0,1684,843,1684,1024,100,-27,100,0,254.3,0,0,52,3.771,3.773,0,0,0,0,5.969,87.98,56.944507399652,13.451444,6,P-GPS,
7500,2023-10-20 21:07:06,-34.9105709333496,-56.1387722830849,14.435696,18.5695544,39.359204999652,57.928759399652,17.716536,7.4042714,21.3086292908,22.4747710604,22,5,7.537,57.928759399652,14.435696,7.4042714,21.3086292908,-3.131716,-6.71082,-6.487126,244.3, -6.5, -3.6,0,0,1684,843,1684,1024,100,-27,100,0,254.3,0,0,52,3.771,3.773,0,0,0,0,5.969,87.98,57.928759399652,14.435696,6,P-GPS,
7600,2023-10-20 21:07:07,-34.9105723085201,-56.1387757324541,15.419948,19.7834652,39.129546199652,58.913011399652,18.700788,8.0082452,22.4497382512,23.6223104672,22,5,7.537,58.913011399652,15.419948,8.0082452,22.4497382512,-3.579104,-7.158208,-6.487126,244.3, -6.7, -4.2,0,0,1684,829,1684,1024,100,-30,100,0,254.3,0,0,52,3.771,3.773,0,0,0,0,5.969,87.98,58.913011399652,15.419948,6,P-GPS,
7700,2023-10-20 21:07:07,-34.9105737265333,-56.1387791437285,16.4042,20.9645676,38.932695799652,59.897263399652,19.68504,8.0977228,23.5862212272,24.766569034,22,5,7.537,59.897263399652,16.4042,8.0977228,23.5862212272,-3.802798,-7.158208,-6.487126,244.4, -6.4, -4.9,0,0,1684,812,1684,1024,100,-32,100,0,254.3,0,0,52,3.771,3.773,0,0,0,0,5.969,87.98,59.897263399652,16.4042,6,P-GPS,
7800,2023-10-20 21:07:07,-34.9105754797552,-56.1387831898423,17.388452,22.14567,38.735845399652,60.881515399652,20.669292,8.4108944,24.9443577536,26.1357291828,22,5,7.537,60.881515399652,17.388452,8.4108944,24.9443577536,-4.026492,-7.381902,-6.487126,244.2, -7.6, -3.6,0,0,1684,793,1684,1024,100,-35,100,0,254.3,0,0,52,3.771,3.773,0,0,0,0,5.969,87.98,60.881515399652,17.388452,6,P-GPS,
7900,2023-10-20 21:07:07,-34.910577139366,-56.1387868184862,18.372704,23.3923892,38.473378199652,61.865767399652,21.653544,8.7016966,26.1748039872,27.3788394588,22,5,7.537,61.865767399652,18.372704,8.7016966,26.1748039872,-4.250186,-7.605596,-6.487126,244.3, -8.2, -4.2,0,0,1684,790,1684,1024,100,-35,100,0,254.3,0,0,52,3.771,3.773,0,0,0,0,5.969,87.98,61.865767399652,18.372704,6,P-GPS,
8000,2023-10-20 21:07:07,-34.9105789994854,-56.1387907068042,19.356956,24.6063,38.243719399652,62.850019399652,22.637796,9.0148682,27.5055454996,28.7256898956,22,5,7.537,62.850019399652,19.356956,9.0148682,27.5055454996,-4.47388,-7.82929,-6.71082,244.4, -9, -4.2,0,0,1684,730,1684,1024,100,-45,100,0,254.3,0,0,52,3.771,3.773,0,0,0,0,5.969,87.98,62.850019399652,19.356956,6,P-GPS,
8100,2023-10-20 21:07:07,-34.910580876982,-56.1387945027296,20.341208,25.8202108,38.014060599652,63.834271399652,23.622048,9.3280398,28.8145350428,30.052002274,22,5,7.537,63.834271399652,20.341208,9.3280398,28.8145350428,-4.697574,-8.052984,-6.487126,244.3, -7.9, -4.6,0,0,1684,726,1684,1024,100,-45,100,0,254.3,0,0,52,3.771,3.773,0,0,0,0,5.969,87.98,63.834271399652,20.341208,6,P-GPS,
8200,2023-10-20 21:07:07,-34.9105831067941,-56.1387984897922,21.32546,27.0013132,37.817210199652,64.818523399652,24.6063,9.7530584,30.2271007048,31.495899958,22,5,7.549,64.818523399652,21.32546,9.7530584,30.2271007048,-5.144962,-8.276678,-6.487126,244.2, -7.8, -4.8,0,0,1684,706,1684,1024,100,-48,100,0,254.3,0,0,52,3.773,3.773,0,0,0,0,6.572,87.98,64.818523399652,21.32546,6,P-GPS,
8300,2023-10-20 21:07:07,-34.9105852225076,-56.1388023968416,22.309712,28.215224,37.587551399652,65.802775399652,25.918636,9.8649054,31.604167678,32.896654596,22,5,7.549,65.802775399652,22.309712,9.8649054,31.604167678,-5.368656,-8.276678,-6.487126,244.2, -7.9, -4.5,0,0,1684,706,1684,1024,100,-48,100,0,254.3,0,0,52,3.773,3.773,0,0,0,0,6.572,87.98,65.802775399652,22.309712,6,P-GPS,
8400,2023-10-20 21:07:07,-34.9105875906332,-56.1388065217619,23.293964,29.52756,37.259467399652,66.787027399652,26.902888,10.178077,33.079725468,34.403216324,22,5,7.549,66.787027399652,23.293964,10.178077,33.079725468,-5.59235,-8.500372,-6.71082,244.5, -7.7, -4.9,0,0,1684,706,1684,1024,100,-48,100,0,254.3,0,0,52,3.773,3.773,0,0,0,0,6.572,87.98,66.787027399652,23.293964,6,P-GPS,
8500,2023-10-20 21:07:07,-34.9105899438846,-56.1388105352969,24.278216,30.7414708,37.029808599652,67.771279399652,27.88714,10.289924,34.525591656,35.879594324,22,5,7.549,67.771279399652,24.278216,10.289924,34.525591656,-5.816044,-8.500372,-6.71082,244.3, -7.4, -5.3,0,0,1684,691,1684,1024,100,-50,100,0,254.3,0,0,52,3.773,3.773,0,0,0,0,6.572,87.98,67.771279399652,24.278216,6,P-GPS,
8600,2023-10-20 21:07:08,-34.9105924890612,-56.1388148058893,25.590552,32.2834656,36.800149799652,69.083615399652,28.871392,10.6030956,36.0728358,37.4589907,22,5,7.549,69.083615399652,25.590552,10.6030956,36.0728358,-6.039738,-8.724066,-6.71082,244.3, -7.9, -5.6,0,0,1684,670,1684,1024,100,-54,100,0,254.3,0,0,52,3.773,3.773,0,0,0,0,6.572,87.98,69.083615399652,25.590552,6,P-GPS,
8700,2023-10-20 21:07:08,-34.9105949820624,-56.1388190589412,26.574804,33.5301848,36.537682599652,70.067867399652,29.855644,10.737312,37.60990934,39.022967128,22,5,7.549,70.067867399652,26.574804,10.737312,37.60990934,-6.263432,-8.724066,-6.487126,244.5, -8.2, -5.4,0,0,1684,666,1684,1024,100,-54,100,0,254.3,0,0,52,3.773,3.773,0,0,0,0,6.572,87.98,70.067867399652,26.574804,6,P-GPS,
8800,2023-10-20 21:07:08,-34.9105977137088,-56.1388236326096,27.559056,34.8425208,36.209598599652,71.052119399652,31.16798,11.0504836,39.27329522,40.715880568,22,5,7.549,71.052119399652,27.559056,11.0504836,39.27329522,-6.487126,-8.94776,-6.487126,244, -7.4, -5.5,0,0,1684,668,1684,1024,100,-54,100,0,254.3,0,0,52,3.773,3.773,0,0,0,0,6.572,87.98,71.052119399652,27.559056,6,P-GPS,
8900,2023-10-20 21:07:08,-34.9106003984462,-56.1388280306128,28.543308,36.0564316,35.979939799652,72.036371399652,32.152232,11.1847,40.88418766,42.356300568,22,5,7.549,72.036371399652,28.543308,11.1847,40.88418766,-6.71082,-8.94776,-6.487126,243.9, -7.9, -6.6,0,0,1684,665,1684,1024,100,-54,100,0,254.3,0,0,52,3.773,3.773,0,0,0,0,6.572,87.98,72.036371399652,28.543308,6,P-GPS,
9000,2023-10-20 21:07:08,-34.9106033386572,-56.1388324227553,29.52756,37.3031508,35.717472599652,73.020623399652,33.136484,11.632088,42.537402936,44.052822932,22,5,7.549,73.020623399652,29.52756,11.632088,42.537402936,-7.158208,-9.171454,-6.487126,244.2, -8, -6.3,0,0,1684,661,1684,1024,100,-55,100,0,254.3,0,0,52,3.773,3.773,0,0,0,0,6.572,87.98,73.020623399652,29.52756,6,P-GPS,
9100,2023-10-20 21:07:08,-34.9106062216024,-56.1388368353946,30.839896,38.9107624,35.422196999652,74.332959399652,34.120736,11.7663044,44.189962044,45.740815112,22,5,7.549,74.332959399652,30.839896,11.7663044,44.189962044,-7.381902,-9.171454,-6.71082,244.6, -8.1, -6.6,0,0,1684,657,1684,1024,100,-56,100,0,254.3,0,0,52,3.773,3.773,0,0,0,0,6.572,87.98,74.332959399652,30.839896,6,P-GPS,
9200,2023-10-20 21:07:08,-34.9106093244559,-56.138841525609,31.824148,40.19029,35.126921399652,75.317211399652,35.104988,12.079476,45.955710132,47.543636692,22,5,7.543,75.317211399652,31.824148,12.079476,45.955710132,-7.605596,-9.395148,-6.71082,244.8, -8.6, -6.4,0,0,1684,657,1684,1024,100,-56,100,0,254.3,0,0,52,3.767,3.764,0,0,0,0,6.366,87.98,75.317211399652,31.824148,6,P-GPS,
9300,2023-10-20 21:07:08,-34.9106123639498,-56.1388460604566,32.8084,41.4370092,34.864454199652,76.301463399652,36.08924,12.2360618,47.67224562,49.29626142,22,5,7.543,76.301463399652,32.8084,12.2360618,47.67224562,-7.82929,-9.395148,-6.71082,244.4, -7.5, -7.7,0,0,1684,637,1684,1024,100,-59,100,0,254.3,0,0,52,3.767,3.764,0,0,0,0,6.366,87.98,76.301463399652,32.8084,6,P-GPS,
9400,2023-10-20 21:07:08,-34.9106156876171,-56.1388508597997,33.792652,42.7493452,34.536370199652,77.285715399652,37.073492,12.5492334,49.510500272,51.175526572,22,5,7.543,77.285715399652,33.792652,12.5492334,49.510500272,-8.052984,-9.618842,-6.71082,244.4, -6.8, -7.3,0,0,1684,635,1684,1024,100,-59,100,0,254.3,0,0,52,3.767,3.764,0,0,0,0,6.366,87.98,77.285715399652,33.792652,6,P-GPS,
9500,2023-10-20 21:07:08,-34.9106188932286,-56.1388550993333,34.776904,43.9960644,34.273902999652,78.269967399652,38.057744,12.5492334,51.184056756,52.900920328,22,5,7.543,78.269967399652,34.776904,12.5492334,51.184056756,-8.052984,-9.618842,-6.71082,244.7, -6.8, -7.8,0,0,1684,635,1684,1024,100,-59,100,0,254.3,0,0,52,3.767,3.764,0,0,0,0,6.366,87.98,78.269967399652,34.776904,6,P-GPS,
9600,2023-10-20 21:07:09,-34.9106223958293,-56.1388599485501,35.761156,45.275592,33.978627399652,79.254219399652,39.041996,12.6834498,53.072836344,54.83431934,22,5,7.543,79.254219399652,35.761156,12.6834498,53.072836344,-8.276678,-9.618842,-6.71082,244.9, -7.8, -8.9,0,0,1684,616,1684,1024,100,-62,100,0,254.3,0,0,52,3.767,3.764,0,0,0,0,6.366,87.98,79.254219399652,35.761156,6,P-GPS,
9700,2023-10-20 21:07:09,-34.9106257865232,-56.1388645767828,36.745408,46.587928,33.650543399652,80.238471399652,40.026248,12.8400356,54.887140864,56.69127478,22,5,7.543,80.238471399652,36.745408,12.8400356,54.887140864,-8.500372,-9.618842,-6.71082,245, -7.9, -8.4,0,0,1684,610,1684,1024,100,-63,100,0,254.3,0,0,52,3.767,3.764,0,0,0,0,6.366,87.98,80.238471399652,36.745408,6,P-GPS,
9800,2023-10-20 21:07:09,-34.9106292990444,-56.1388693658148,37.72966,47.8018388,33.420884599652,81.222723399652,41.0105,13.1532072,56.76837452,58.613518936,22,5,7.543,81.222723399652,37.72966,13.1532072,56.76837452,-8.724066,-9.842536,-6.71082,245, -7.5, -8.7,0,0,1684,605,1684,1024,100,-63,100,0,254.3,0,0,52,3.767,3.764,0,0,0,0,6.366,87.98,81.222723399652,37.72966,6,P-GPS,
9900,2023-10-20 21:07:09,-34.9106325575413,-56.1388734404644,38.713912,49.048558,33.158417399652,82.206975399652,41.666668,13.309793,58.420933628,60.316274896,22,5,7.543,82.206975399652,38.713912,13.309793,58.420933628,-8.94776,-9.842536,-6.71082,244.5, -6.4, -9.5,0,0,1684,588,1684,1024,100,-66,100,0,254.3,0,0,52,3.767,3.764,0,0,0,0,6.366,87.98,82.206975399652,38.713912,6,P-GPS,
10000,2023-10-20 21:07:09,-34.9106364993919,-56.1388785399793,39.698164,50.3937024,32.797524999652,83.191227399652,41.666668,13.6229646,60.467193536,62.41305974,22,5,7.543,83.191227399652,39.698164,13.6229646,60.467193536,-9.171454,-10.06623,-6.487126,244.3, -5.9, -9.3,0,0,1684,588,1684,1024,100,-66,100,0,254.3,0,0,52,3.767,3.764,0,0,0,0,6.366,87.98,83.191227399652,39.698164,6,P-GPS,
10100,2023-10-20 21:07:09,-34.9106403141587,-56.1388834039263,40.682416,51.6404216,32.535057799652,84.175479399652,41.666668,13.7795504,62.43274478,64.426839332,22,5,7.543,84.175479399652,40.682416,13.7795504,62.43274478,-9.395148,-10.06623,-6.487126,244.5, -5.9, -9.6,0,0,1684,590,1684,1024,100,-66,100,0,254.3,0,0,52,3.767,3.764,0,0,0,0,6.366,87.98,84.175479399652,40.682416,6,P-GPS,
10200,2023-10-20 21:07:09,-34.9106443284621,-56.1388884806146,41.666668,52.9527576,32.206973799652,85.159731399652,41.666668,13.9137668,64.493768468,66.536747536,22,5,7.543,85.159731399652,41.666668,13.9137668,64.493768468,-9.618842,-10.06623,-6.487126,244.5, -5.8, -9.2,0,0,1684,569,1684,1024,100,-69,100,0,254.3,0,0,52,3.767,3.764,0,0,0,0,6.366,87.98,85.159731399652,41.666668,6,P-GPS,
10300,2023-10-20 21:07:09,-34.9106483979827,-56.1388934390646,42.65092,54.1994768,31.944506599652,86.143983399652,41.666668,14.0703526,66.53871604,68.635828968,22,5,7.542,86.143983399652,42.65092,14.0703526,66.53871604,-9.842536,-10.06623,-6.487126,244.7, -5.9, -8.9,0,0,1684,565,1684,1024,100,-70,100,0,254.3,0,0,52,3.778,3.77,0,0,0,0,6.181,87.98,86.143983399652,42.65092,6,P-GPS,
10400,2023-10-20 21:07:09,-34.9106526113731,-56.1388986001224,43.635172,55.4790044,31.649230999652,87.128235399652,41.666668,14.2269384,68.666012696,70.814634812,22,5,7.542,87.128235399652,43.635172,14.2269384,68.666012696,-10.06623,-10.06623,-6.487126,244.4, -4.6, -9.1,0,0,1684,564,1684,1024,100,-70,100,0,254.3,0,0,52,3.778,3.77,0,0,0,0,6.181,87.98,87.128235399652,43.635172,6,P-GPS,
10500,2023-10-20 21:07:10,-34.9106566872447,-56.1389035109343,44.619424,56.6929152,31.419572199652,88.112487399652,41.666668,14.4058936,70.706367092,72.90518606,22,5,7.542,88.112487399652,44.619424,14.4058936,70.706367092,-10.289924,-10.06623,-6.71082,244.6, -4.4, -9.4,0,0,1684,553,1684,1024,100,-71,100,0,254.3,0,0,52,3.778,3.77,0,0,0,0,6.181,87.98,88.112487399652,44.619424,6,P-GPS,
10600,2023-10-20 21:07:10,-34.9106609874312,-56.1389086177725,45.603676,57.906826,31.189913399652,89.096739399652,41.666668,14.5624794,72.843506268,75.09514676,22,5,7.542,89.096739399652,45.603676,14.5624794,72.843506268,-10.513618,-10.06623,-6.71082,244.7, -3.8, -9,0,0,1684,524,1684,1024,100,-76,100,0,254.3,0,0,52,3.778,3.77,0,0,0,0,6.181,87.98,89.096739399652,45.603676,6,P-GPS,
10700,2023-10-20 21:07:10,-34.9106651108142,-56.1389133596366,46.587928,59.0879284,30.993062999652,90.080991399652,41.666668,14.4058936,74.85728586,77.163060212,22,5,7.542,90.080991399652,46.587928,14.5624794,74.85728586,-10.513618,-9.842536,-6.934514,244.6, -4.3, -9,0,0,1684,524,1684,1024,100,-76,100,0,254.3,0,0,52,3.778,3.77,0,0,0,0,6.181,87.98,90.080991399652,46.587928,6,P-GPS,
10800,2023-10-20 21:07:10,-34.9106695957965,-56.1389184098106,47.244096,59.9737552,30.763404199652,90.737159399652,41.666668,14.5624794,77.02428068,79.390094404,22,5,7.542,90.737159399652,47.244096,14.5624794,77.02428068,-10.737312,-9.842536,-6.934514,244.8, -5.8, -10,0,0,1684,524,1684,1024,100,-76,100,0,254.3,0,0,52,3.778,3.77,0,0,0,0,6.181,87.98,90.737159399652,47.244096,6,P-GPS,
10900,2023-10-20 21:07:10,-34.9106739202012,-56.1389231965965,48.228348,61.1548576,30.566553799652,91.721411399652,41.666668,14.5624794,79.09613114,81.520999984,22,5,7.542,91.721411399652,48.228348,14.5624794,79.09613114,-10.737312,-9.842536,-6.71082,245.1, -6, -10.5,0,0,1684,524,1684,1024,100,-76,100,0,254.3,0,0,52,3.778,3.77,0,0,0,0,6.181,87.98,91.721411399652,48.228348,6,P-GPS,
11000,2023-10-20 21:07:10,-34.9106785480306,-56.1389282000309,49.2126,62.3687684,30.336894999652,92.705663399652,41.666668,14.7414346,81.28773226,83.777561736,22,5,7.542,92.705663399652,49.2126,14.7414346,81.28773226,-10.961006,-9.842536,-6.71082,244.9, -5.8, -10.1,0,0,1684,524,1684,1024,100,-76,100,0,254.3,0,0,52,3.778,3.77,0,0,0,0,6.181,87.98,92.705663399652,49.2126,6,P-GPS,
11100,2023-10-20 21:07:10,-34.9106830103449,-56.1389329570848,50.196852,63.5498708,30.140044599652,93.689915399652,41.666668,14.8980204,83.387797944,85.93996338,22,5,7.542,93.689915399652,50.196852,14.8980204,83.387797944,-11.1847,-9.842536,-6.487126,244.6, -4.8, -10.2,0,0,1684,524,1684,1142,100,-76,100,18,254.3,0,0,52,3.778,3.77,0,0,0,0,6.181,87.98,93.689915399652,50.196852,6,P-GPS,
11200,2023-10-20 21:07:10,-34.9106876221113,-56.1389376243369,50.85302,64.4028892,29.943194199652,94.346083399652,41.666668,14.9203898,85.500658904,88.12664324,22,5,7.542,94.346083399652,50.85302,14.9203898,85.500658904,-11.408394,-9.618842,-6.487126,244.9, -5.8, -10.4,0,0,1684,524,1684,1684,100,-76,100,100,254.4,0,0,52,3.778,3.77,0,0,0,0,6.181,87.98,94.346083399652,50.85302,6,P-GPS,
11300,2023-10-20 21:07:10,-34.9106921663169,-56.1389423048565,51.837272,65.5511832,29.779152199652,95.330335399652,41.666668,14.9203898,87.605973932,90.2969189,22,5,7.524,95.330335399652,51.837272,14.9203898,87.605973932,-11.408394,-9.618842,-6.487126,245.5, -5.9, -9.8,0,0,1684,506,1684,1684,100,-78,100,100,256.7,0,0,52,3.772,3.774,0,0,0,0,6.185,87.98,95.330335399652,51.837272,6,P-GPS,
11400,2023-10-20 21:07:10,-34.9106970344265,-56.1389472667122,52.49344,66.4042016,29.582301799652,95.986503399652,41.666668,15.2335614,89.85236508,92.61155152,22,5,7.524,95.986503399652,52.49344,15.2335614,89.85236508,-11.632088,-9.842536,-6.487126,248.6, -4.9, -10,0,0,1684,502,1684,1684,100,-79,100,100,261.1,0,0,52,3.772,3.774,0,0,0,0,6.185,87.98,95.986503399652,52.49344,6,P-GPS,
11500,2023-10-20 21:07:10,-34.9107017255307,-56.1389519936789,53.477692,67.5524956,29.418259799652,96.970755399652,41.666668,15.2559308,92.006892708,94.832024032,22,5,7.524,96.970755399652,53.477692,15.2559308,92.006892708,-11.855782,-9.618842,-6.487126,253.3, -4.5, -10.2,0,0,1684,502,1684,1684,100,-79,100,100,265.9,0,0,52,3.772,3.774,0,0,0,0,6.185,87.98,96.970755399652,53.477692,6,P-GPS,
11600,2023-10-20 21:07:11,-34.9107065501673,-56.1389570583533,54.461944,68.733598,29.221409399652,97.955007399652,41.666668,15.4125166,94.274609316,97.154530668,22,5,7.524,97.955007399652,54.461944,15.4125166,94.274609316,-11.855782,-9.842536,-6.487126,257.7, -4.4, -9.4,0,0,1684,487,1684,1684,100,-81,100,100,270.7,0,0,52,3.772,3.774,0,0,0,0,6.185,87.98,97.955007399652,54.461944,6,P-GPS,
11700,2023-10-20 21:07:11,-34.9107113160236,-56.1389618700029,55.446196,69.8490836,29.090175799652,98.939259399652,41.666668,15.546733,96.471787864,99.412076672,22,5,7.524,98.939259399652,55.446196,15.546733,96.471787864,-11.855782,-10.06623,-6.487126,262.6, -4, -8.5,0,0,1684,494,1684,1684,100,-80,100,100,275.5,0,0,52,3.772,3.774,0,0,0,0,6.185,87.98,98.939259399652,55.446196,6,P-GPS,
11800,2023-10-20 21:07:11,-34.9107162968606,-56.1389669628631,56.430448,70.9973776,28.926133799652,99.923511399652,41.666668,15.546733,98.7860924,101.783467824,22,5,7.524,99.923511399652,56.430448,15.546733,98.7860924,-12.079476,-10.06623,-6.487126,267.5, -4.6, -7.3,0,0,1684,494,1684,1684,100,-80,100,100,280.3,0,0,52,3.772,3.774,0,0,0,0,6.185,87.98,99.923511399652,56.430448,6,P-GPS,
11900,2023-10-20 21:07:11,-34.9107210578576,-56.1389718917691,57.4147,72.1456716,28.762091799652,100.90776339965,41.666668,15.8599046,101.015095096,104.062011204,22,5,7.524,100.90776339965,57.4147,15.8599046,101.015095096,-12.079476,-10.289924,-6.71082,272.5, -4.6, -6,0,0,1684,1024,1684,1097,100,0,100,11,285.1,0,0,52,3.772,3.774,0,0,0,0,6.185,87.98,100.90776339965,57.4147,6,P-GPS,
12000,2023-10-20 21:07:11,-34.910725908836,-56.1389771138788,58.398952,73.2611572,28.630858199652,101.89201539965,41.666668,16.0164904,103.335633228,106.422903668,22,5,7.524,101.89201539965,58.398952,16.0164904,103.335633228,-12.079476,-10.513618,-6.71082,277.2, -6.5, -0.1,0,0,1684,1179,1589,1024,100,23,86,0,288.5,0,0,52,3.772,3.774,0,0,0,0,6.185,87.98,101.89201539965,58.398952,6,P-GPS,
12100,2023-10-20 21:07:11,-34.9107306010345,-56.1389823225746,59.383204,74.3766428,28.499624599652,102.87626739965,41.666668,15.9717516,105.618769784,108.738192456,22,5,7.524,102.87626739965,59.383204,16.0164904,105.618769784,-11.632088,-10.961006,-6.487126,279.5, -8, 5.4,0,0,1684,1480,1684,1024,100,69,100,0,289.9,0,0,52,3.772,3.774,0,0,0,0,6.185,87.98,102.87626739965,59.383204,6,P-GPS,
12200,2023-10-20 21:07:11,-34.9107353526517,-56.138988028649,60.367456,75.4921284,28.368390999652,103.86051939965,41.666668,15.8151658,108.033468024,111.1712634,22,5,7.524,103.86051939965,60.367456,16.0164904,108.033468024,-11.1847,-11.1847,-6.263432,280, -7.2, 10.5,0,0,1684,1684,1684,1024,100,100,100,0,290.3,0,0,52,3.772,3.774,0,0,0,0,6.185,87.98,103.86051939965,60.367456,6,P-GPS,
12300,2023-10-20 21:07:11,-34.9107396608762,-56.1389936329703,61.351708,76.607614,28.237157399652,104.84477139965,41.666668,15.5243636,110.324150512,113.46949182,22,5,7.551,104.84477139965,61.351708,16.0164904,110.324150512,-10.289924,-11.632088,-6.487126,280.4, -4, 16.4,0,0,1684,1684,1684,1024,100,100,100,0,290.3,0,0,52,3.786,3.789,0,0,0,0,5.535,87.98,104.84477139965,61.351708,6,P-GPS,
12400,2023-10-20 21:07:11,-34.9107441701548,-56.1390000225459,62.33596,77.6902912,28.138732199652,105.82902339965,41.666668,14.9427592,112.8444918,115.991801612,22,5,7.551,105.82902339965,62.33596,16.0164904,112.8444918,-9.395148,-11.632088,-6.487126,280.4, -0.7, 17.6,0,0,1684,1684,1684,1024,100,100,100,0,290.3,0,0,52,3.786,3.789,0,0,0,0,5.535,87.98,105.82902339965,62.33596,6,P-GPS,
12500,2023-10-20 21:07:11,-34.9107478496045,-56.1390057883559,63.320212,78.7729684,28.040306999652,106.81327539965,41.666668,14.2716772,115.030187408,118.17749722,22,5,7.551,106.81327539965,63.320212,16.0164904,115.030187408,-8.276678,-11.632088,-6.487126,280.7, 2.1, 16.7,0,0,1684,1684,1684,1024,100,100,100,0,290.3,0,0,52,3.786,3.789,0,0,0,0,5.535,87.98,106.81327539965,63.320212,6,P-GPS,
12600,2023-10-20 21:07:12,-34.9107511586157,-56.139011739014,63.97638,79.5275616,27.941881799652,107.46944339965,41.666668,13.8913974,117.1752006,120.328744008,22,5,7.551,107.46944339965,63.97638,16.0164904,117.1752006,-7.605596,-11.632088,-6.263432,280.9, 2.6, 17.1,0,0,1684,1684,1684,1024,100,100,100,0,290.3,0,0,52,3.786,3.789,0,0,0,0,5.535,87.98,107.46944339965,63.97638,6,P-GPS,
12700,2023-10-20 21:07:12,-34.9107539594482,-56.1390173469291,64.960632,80.6102388,27.843456599652,108.45369539965,41.666668,13.2426848,119.124675728,122.293311,22,5,7.551,108.45369539965,64.960632,16.0164904,119.124675728,-6.71082,-11.408394,-6.487126,280.7, 1.6, 15.9,0,0,1684,1684,1684,1024,100,100,100,0,290.3,0,0,52,3.786,3.789,0,0,0,0,5.535,87.98,108.45369539965,64.960632,6,P-GPS,
12800,2023-10-20 21:07:12,-34.9107564687632,-56.1390232158085,65.944884,81.6601076,27.777839799652,109.43794739965,41.666668,12.7952968,121.070213848,124.273626024,22,5,7.551,109.43794739965,65.944884,16.0164904,121.070213848,-5.816044,-11.408394,-6.487126,280.8, 1.3, 15.4,0,0,1684,1684,1684,1024,100,100,100,0,290.3,0,0,52,3.786,3.789,0,0,0,0,5.535,87.98,109.43794739965,65.944884,6,P-GPS,
12900,2023-10-20 21:07:12,-34.9107580374758,-56.1390287408794,66.601052,82.3818924,27.712222999652,110.09411539965,41.666668,12.5044946,122.724413376,126.022969912,22,5,7.551,110.09411539965,66.601052,16.0164904,122.724413376,-5.144962,-11.408394,-6.71082,280.8, 1.3, 14.4,0,0,1684,1684,1684,1024,100,100,100,0,290.3,0,0,52,3.786,3.789,0,0,0,0,5.535,87.98,110.09411539965,66.601052,6,P-GPS,
13000,2023-10-20 21:07:12,-34.9107598196319,-56.1390344501714,67.585304,83.4317612,27.646606199652,111.07836739965,41.666668,12.0571066,124.472444928,127.850397792,22,5,7.551,111.07836739965,67.585304,16.0164904,124.472444928,-4.47388,-11.1847,-6.487126,280.7, 2.1, 14.4,0,0,1684,1024,1684,1024,100,0,100,0,290.3,0,0,52,3.786,3.789,0,0,0,0,5.535,87.98,111.07836739965,67.585304,6,P-GPS,
13100,2023-10-20 21:07:12,-34.9107612506564,-56.1390398558338,68.569556,84.5144384,27.548180999652,112.06261939965,41.666668,11.8110432,126.07283868,129.550200996,23,5,7.551,112.06261939965,68.569556,16.0164904,126.07283868,-3.802798,-11.1847,-6.263432,280.2, -0.7, 11.2,0,0,1684,1024,1684,1024,100,0,100,0,290.3,0,0,52,3.786,3.789,0,0,0,0,5.535,87.98,112.06261939965,68.569556,6,P-GPS,
13200,2023-10-20 21:07:12,-34.9107624834146,-56.1390455145209,69.553808,85.5643072,27.482564199652,113.04687139965,41.666668,11.8334126,127.692589388,131.301841472,23,5,7.551,113.04687139965,69.553808,16.0164904,127.692589388,-3.131716,-11.408394,-6.263432,279.6, -4.1, 4.1,0,0,1684,1024,1684,1024,100,0,100,0,290.3,0,0,52,3.786,3.789,0,0,0,0,5.535,87.98,113.04687139965,69.553808,6,P-GPS,
13300,2023-10-20 21:07:12,-34.9107629508301,-56.1390506019278,70.866144,86.9094516,27.449755799652,114.35920739965,41.666668,12.2136924,129.011487068,132.833337584,23,5,7.582,114.35920739965,70.866144,16.0164904,129.011487068,-2.908022,-11.855782,-6.263432,279.9, -3.8, 1.8,0,0,1684,1024,1684,1024,100,0,100,0,290.3,0,0,51,3.778,3.776,0,0,0,0,4.824,87.98,114.35920739965,70.866144,6,P-GPS,
13400,2023-10-20 21:07:12,-34.9107639474639,-56.1390564510835,71.850396,87.9593204,27.384138999652,115.34345939965,41.666668,12.415017,130.632878196,134.620739216,23,5,7.582,115.34345939965,71.850396,16.0164904,130.632878196,-2.908022,-12.079476,-6.263432,280, -1.8, 3.1,0,0,1684,1024,1684,1024,100,0,100,0,290.3,0,0,51,3.778,3.776,0,0,0,0,4.824,87.98,115.34345939965,71.850396,6,P-GPS,
13500,2023-10-20 21:07:12,-34.9107648353567,-56.1390621539821,72.834648,89.0091892,27.318522199652,116.32771139965,41.666668,12.8176662,132.200135464,136.357615912,23,5,7.582,116.32771139965,72.834648,16.0164904,132.200135464,-2.684328,-12.526864,-6.487126,280, -1.2, 4.2,0,0,1684,1024,1684,1024,100,0,100,0,290.3,0,0,51,3.778,3.776,0,0,0,0,4.824,87.98,116.32771139965,72.834648,6,P-GPS,
13600,2023-10-20 21:07:13,-34.9107657869542,-56.1390684070998,74.146984,90.387142,27.252905399652,117.64004739965,41.666668,12.7729274,133.918639456,138.260503112,23,5,7.582,117.64004739965,74.146984,16.0164904,133.918639456,-2.460634,-12.526864,-6.487126,280, -0.7, 4.4,0,0,1684,1024,1684,1024,100,0,100,0,290.3,0,0,51,3.778,3.776,0,0,0,0,4.824,87.98,117.64004739965,74.146984,6,P-GPS,
13700,2023-10-20 21:07:13,-34.9107666005509,-56.1390741805779,75.131236,91.4370108,27.187288599652,118.62429939965,41.666668,12.9966214,135.495739244,140.01312784,23,5,7.582,118.62429939965,75.131236,16.0164904,135.495739244,-2.460634,-12.750558,-6.487126,280.1, -2.3, 5.2,0,0,1684,1024,1684,1024,100,0,100,0,290.3,0,0,51,3.778,3.776,0,0,0,0,4.824,87.98,118.62429939965,75.131236,6,P-GPS,
13800,2023-10-20 21:07:13,-34.9107675920909,-56.1390808190622,76.115488,92.4868796,27.121671799652,119.60855139965,41.666668,12.9518826,137.326447964,142.032156776,23,5,7.582,119.60855139965,76.115488,16.0164904,137.326447964,-2.23694,-12.750558,-6.71082,280.1, -2, 4.4,0,0,1684,1024,1684,1024,100,0,100,0,290.3,0,0,51,3.778,3.776,0,0,0,0,4.824,87.98,119.60855139965,76.115488,6,P-GPS,
13900,2023-10-20 21:07:13,-34.9107684730009,-56.1390872226158,77.427824,93.8648324,27.056054999652,120.92088739965,41.666668,13.1308378,139.08136928,143.97474214,23,5,7.582,120.92088739965,77.427824,16.0164904,139.08136928,-2.013246,-12.974252,-6.71082,279.8, -3.2, 4.9,0,0,1684,1024,1684,1024,100,0,100,0,290.3,0,0,51,3.778,3.776,0,0,0,0,4.824,87.98,120.92088739965,77.427824,6,P-GPS,
14000,2023-10-20 21:07:13,-34.9107693219544,-56.1390940870047,78.412076,94.9147012,26.990438199652,121.90513939965,41.666668,13.309793,140.948495324,146.051841944,23,5,7.582,121.90513939965,78.412076,16.0164904,140.948495324,-1.789552,-13.197946,-6.487126,280, -3.3, 4.9,0,0,1684,1024,1684,1024,100,0,100,0,290.3,0,0,51,3.778,3.776,0,0,0,0,4.824,87.98,121.90513939965,78.412076,6,P-GPS,
14100,2023-10-20 21:07:13,-34.9107707288518,-56.1391013552303,79.724412,96.292654,26.924821399652,123.21747539965,41.666668,13.5111176,143.035437648,148.286093984,24,5,7.582,123.21747539965,79.724412,16.0164904,143.035437648,-1.565858,-13.42164,-6.487126,279.8, -3.8, 4.9,0,0,1684,1024,1684,1024,100,0,100,0,290.3,0,0,51,3.778,3.776,0,0,0,0,4.824,87.98,123.21747539965,79.724412,6,P-GPS,
14200,2023-10-20 21:07:13,-34.9107713762691,-56.139108196427,80.708664,97.3425228,26.859204599652,124.20172739965,41.666668,13.4887482,144.866802536,150.346461504,24,5,7.582,124.20172739965,80.708664,16.0164904,144.866802536,-1.342164,-13.42164,-6.487126,279.6, -4.4, 5,0,0,1684,1024,1684,1024,100,0,100,0,290.3,0,0,51,3.778,3.776,0,0,0,0,4.824,87.98,124.20172739965,80.708664,6,P-GPS,
14300,2023-10-20 21:07:13,-34.9107719148671,-56.1391147905327,82.021,98.7204756,26.793587799652,125.51406339965,41.666668,13.6900728,146.6207396,152.329073116,24,5,7.508,125.51406339965,82.021,16.0164904,146.6207396,-1.11847,-13.645334,-6.71082,279.7, -4.2, 5.2,0,0,1684,1024,1684,1024,100,0,100,0,290.3,0,0,51,3.745,3.737,0,0,0,0,5.928,87.98,125.51406339965,82.021,6,P-GPS,
14400,2023-10-20 21:07:13,-34.9107723816052,-56.1391217865947,83.005252,99.7703444,26.727970999652,126.49831539965,41.666668,13.8913974,148.466868268,154.4291388,24,5,7.508,126.49831539965,83.005252,16.0164904,148.466868268,-0.894776,-13.869028,-6.71082,280.1, -2, 4.9,0,0,1684,1024,1684,1024,100,0,100,0,290.3,0,0,51,3.745,3.737,0,0,0,0,5.928,87.98,126.49831539965,83.005252,6,P-GPS,
14500,2023-10-20 21:07:13,-34.910772767312,-56.1391285096993,84.317588,101.1482972,26.662354199652,127.81065139965,41.666668,14.1150914,150.235241028,156.445543064,24,5,7.508,127.81065139965,84.317588,16.0164904,150.235241028,-0.894776,-14.092722,-6.71082,280, -1.8, 4.5,0,0,1684,364,1684,1024,100,-100,100,0,290.3,0,0,51,3.745,3.737,0,0,0,0,5.928,87.98,127.81065139965,84.317588,6,P-GPS,
14600,2023-10-20 21:07:14,-34.9107733325123,-56.1391354546967,85.30184,102.198166,26.596737399652,128.79490339965,41.666668,14.1150914,152.100726652,158.533797724,24,5,7.508,128.79490339965,85.30184,16.0164904,152.100726652,-0.671082,-14.092722,-6.71082,280, -3.1, 3.3,0,0,1684,364,1684,1024,100,-100,100,0,290.3,0,0,51,3.745,3.737,0,0,0,0,5.928,87.98,128.79490339965,85.30184,6,P-GPS,
14700,2023-10-20 21:07:14,-34.9107736665909,-56.1391423198795,86.286092,103.2152264,26.563928999652,129.77915539965,41.666668,14.3387854,153.906829072,160.591212488,24,5,7.508,129.77915539965,86.286092,16.0164904,153.906829072,-0.671082,-14.316416,-6.71082,279.9, -0.2, -3.7,0,0,1684,364,1684,1024,100,-100,100,0,290.3,0,0,51,3.745,3.737,0,0,0,0,5.928,87.98,129.77915539965,86.286092,6,P-GPS,
14800,2023-10-20 21:07:14,-34.9107740852443,-56.1391495812937,87.598428,104.6259876,26.465503799652,131.09149139965,41.666668,14.3387854,155.836947244,162.769362164,24,5,7.508,131.09149139965,87.598428,16.0164904,155.836947244,-0.894776,-14.316416,-6.71082,279.9, 1.2, -8.1,0,0,1684,364,1684,1024,100,-100,100,0,290.3,0,0,51,3.745,3.737,0,0,0,0,5.928,87.98,131.09149139965,87.598428,6,P-GPS,
14900,2023-10-20 21:07:14,-34.9107746225526,-56.1391565595959,88.58268,105.643048,26.432695399652,132.07574339965,41.666668,14.3835242,157.72310216,164.866475092,24,5,7.508,132.07574339965,88.58268,16.0164904,157.72310216,-1.342164,-14.316416,-6.71082,280.1, 1.8, -8.3,0,0,1684,364,1684,1024,100,-100,100,0,290.3,0,0,51,3.745,3.737,0,0,0,0,5.928,87.98,132.07574339965,88.58268,6,P-GPS,
15000,2023-10-20 21:07:14,-34.9107754370873,-56.1391642222143,89.566932,106.6929168,26.367078599652,133.05999539965,41.666668,14.651957,159.841868632,167.178154956,24,5,7.508,133.05999539965,89.566932,16.0164904,159.841868632,-1.789552,-14.54011,-6.934514,280.3, 1.8, -6.1,0,0,1684,364,1684,1024,100,-100,100,0,290.3,0,0,51,3.745,3.737,0,0,0,0,5.928,87.98,133.05999539965,89.566932,6,P-GPS,
15100,2023-10-20 21:07:14,-34.9107762499023,-56.1391712784507,90.879268,108.0052528,26.367078599652,134.37233139965,41.666668,14.4953712,161.809716464,169.310044788,24,5,7.508,134.37233139965,90.879268,16.0164904,161.809716464,-2.23694,-14.316416,-6.71082,280.4, 2.3, -5.9,0,0,1684,364,1684,1024,100,-100,100,0,290.3,0,0,51,3.745,3.737,0,0,0,0,5.928,87.98,134.37233139965,90.879268,6,P-GPS,
15200,2023-10-20 21:07:14,-34.9107772221746,-56.1391783713767,91.86352,108.9566964,26.399886999652,135.35658339965,41.666668,14.5177406,163.820215216,171.46161966,24,5,7.508,135.35658339965,91.86352,16.0164904,163.820215216,-2.460634,-14.316416,-6.263432,280.4, 2.3, -7.1,0,0,1684,364,1684,364,100,-100,100,-100,290.3,0,0,51,3.745,3.737,0,0,0,0,5.928,87.98,135.35658339965,91.86352,6,P-GPS,
15300,2023-10-20 21:07:14,-34.910778262607,-56.1391851007911,93.175856,110.236224,26.432695399652,136.66891939965,41.666668,14.5624794,165.752629976,173.51050424,24,5,7.508,136.66891939965,93.175856,16.0164904,165.752629976,-2.684328,-14.316416,-6.263432,280, 1.5, -5.7,0,0,1684,364,1684,364,100,-100,100,-100,289.3,0,0,51,3.745,3.737,0,0,0,0,5.928,87.98,136.66891939965,93.175856,6,P-GPS,
15400,2023-10-20 21:07:14,-34.9107797346682,-56.1391915457982,94.160108,111.1548592,26.498312199652,137.65317139965,41.666668,14.6072182,167.6919345,175.512144724,24,5,7.478,137.65317139965,94.160108,16.0164904,167.6919345,-2.908022,-14.316416,-6.71082,277.8, 0, -6.4,0,0,1684,364,1684,364,100,-100,100,-100,285.6,0,0,51,3.734,3.733,0,0,0,0,7.134,88.16,137.65317139965,94.160108,6,P-GPS,
15500,2023-10-20 21:07:14,-34.9107811194188,-56.1391983558212,95.14436,112.1063028,26.531120599652,138.63742339965,41.666668,14.9203898,169.711947688,177.611226156,24,5,7.478,138.63742339965,95.14436,16.0164904,169.711947688,-3.35541,-14.54011,-6.934514,273.3, 1.2, -5.1,0,0,1684,364,1684,364,100,-100,100,-100,280.9,0,0,51,3.734,3.733,0,0,0,0,7.134,88.16,138.63742339965,95.14436,6,P-GPS,
15600,2023-10-20 21:07:15,-34.9107827582588,-56.1392056310254,96.128612,113.024938,26.596737399652,139.62167539965,41.666668,14.9651286,171.900596052,179.86877216,24,5,7.478,139.62167539965,96.128612,16.0164904,171.900596052,-3.579104,-14.54011,-6.934514,268.7, 3.7, -3.9,0,0,1684,364,1646,733,100,-100,94,-44,276.1,0,0,51,3.734,3.733,0,0,0,0,7.134,88.16,139.62167539965,96.128612,6,P-GPS,
15700,2023-10-20 21:07:15,-34.9107843788081,-56.1392124723892,97.112864,113.9763816,26.629545799652,140.60592739965,41.666668,14.763804,173.974415016,181.999349656,24,5,7.478,140.60592739965,97.112864,16.0164904,173.974415016,-3.579104,-14.316416,-6.934514,264.3, 1.4, -8.1,0,0,1684,364,1670,553,100,-100,98,-71,271.4,0,0,51,3.734,3.733,0,0,0,0,7.134,88.16,140.60592739965,97.112864,6,P-GPS,
