time(millisecond),datetime(utc),latitude,longitude,height_above_takeoff(feet),height_above_ground_at_drone_location(feet),ground_elevation_at_drone_location(feet),altitude_above_seaLevel(feet),height_sonar(feet),speed(mph),distance(feet),mileage(feet),satellites,gpslevel,voltage(v),max_altitude(feet),max_ascent(feet),max_speed(mph),max_distance(feet), xSpeed(mph), ySpeed(mph), zSpeed(mph), compass_heading(degrees), pitch(degrees), roll(degrees),isPhoto,isVideo,rc_elevator,rc_aileron,rc_throttle,rc_rudder,rc_elevator(percent),rc_aileron(percent),rc_throttle(percent),rc_rudder(percent),gimbal_heading(degrees),gimbal_pitch(degrees),gimbal_roll(degrees),battery_percent,voltageCell1,voltageCell2,voltageCell3,voltageCell4,voltageCell5,voltageCell6,current(A),battery_temperature(f),altitude(feet),ascent(feet),flycStateRaw,flycState,message
0,2022-08-12 02:38:01,-34.9064333463554,-56.1630703218034,0,0,122.0341718841,122.0341718841,0.328084,0,0,0,21,5,0,122.0341718841,0,0,0,0,0,0,314.1, 3, -2.2,0,0,364,364,364,1684,-100,-100,-100,100,324.7,0,0,28,3.76,3.757,0,0,0,0,0,91.22,122.0341718841,0,41,Motors_Started,"Aeronave en Zona de altitud restringida (150). Vuela con precaución (Code: 190001). Baja velocidad de la tarjeta SD. Puede afectar a su uso normal. Sustituye la tarjeta SD (Code: 10028)"
100,2022-08-12 02:38:01,-34.9064333079347,-56.1630703512727,0,0,122.0341718841,122.0341718841,0.328084,0,0.016560367984,0.016560367984,21,5,0,122.0341718841,0,0,0.016560367984,0,0,0,314.1, 3, -2.3,0,0,364,364,364,1684,-100,-100,-100,100,324.7,0,0,28,3.76,3.757,0,0,0,0,0,91.22,122.0341718841,0,41,Motors_Started,
200,2022-08-12 02:38:01,-34.9064332788898,-56.163070370575,0,0,122.0341718841,122.0341718841,0.328084,0,0.0286153880548,0.0286290035408,21,5,0,122.0341718841,0,0,0.0286153880548,0,0,0,314.1, 3, -2.3,0,0,364,364,364,1684,-100,-100,-100,100,324.7,0,0,28,3.76,3.757,0,0,0,0,0,91.22,122.0341718841,0,41,Motors_Started,
300,2022-08-12 02:38:01,-34.906433272981,-56.1630703672452,0,0,122.0341718841,122.0341718841,0.328084,0,0.0300255258952,0.0310039051916,21,5,0,122.0341718841,0,0,0.0300255258952,0,0,0,314.1, 3, -2.2,0,0,364,364,364,1684,-100,-100,-100,100,324.7,0,0,28,3.76,3.757,0,0,0,0,0,91.22,122.0341718841,0,41,Motors_Started,
400,2022-08-12 02:38:02,-34.9064332478663,-56.1630703311738,0,0,122.0341718841,122.0341718841,0.328084,0,0.036042980156,0.045161746852,20,5,0,122.0341718841,0,0,0.036042980156,0,0,0,314.1, 3.1, -2.3,0,0,364,364,364,1684,-100,-100,-100,100,324.7,0,0,28,3.76,3.757,0,0,0,0,0,91.22,122.0341718841,0,41,Motors_Started,
500,2022-08-12 02:38:02,-34.9064332445826,-56.1630703261334,0,0,122.0341718841,122.0341718841,0.328084,0,0.037154200664,0.047087928016,20,5,0,122.0341718841,0,0,0.037154200664,0,0,0,314.1, 3, -2.3,0,0,364,364,499,1684,-100,-100,-80,100,324.7,0,0,28,3.76,3.757,0,0,0,0,0,91.22,122.0341718841,0,41,Motors_Started,
600,2022-08-12 02:38:02,-34.9064332421961,-56.1630703221899,0,0,122.0341718841,122.0341718841,0.328084,0,0.038002625888,0.048554463496,20,5,0,122.0341718841,0,0,0.038002625888,0,0,0,314.1, 3, -2.3,0,0,1024,466,1024,1038,0,-85,0,2,324.7,0,0,28,3.76,3.757,0,0,0,0,0,91.22,122.0341718841,0,41,Motors_Started,
700,2022-08-12 02:38:02,-34.9064332411303,-56.1630703202025,0,0,122.0341718841,122.0341718841,0.328084,0,0.038394358184,0.049264765356,20,5,0,122.0341718841,0,0,0.038394358184,0,0,0,314.1, 3, -2.3,0,0,1024,466,1024,1038,0,-85,0,2,324.7,0,0,28,3.76,3.757,0,0,0,0,0,91.22,122.0341718841,0,41,Motors_Started,
800,2022-08-12 02:38:02,-34.9064332564564,-56.1630703189724,0,0,122.0341718841,122.0341718841,0.328084,0,0.032810696588,0.05486876816,20,5,0,122.0341718841,0,0,0.038394358184,0,0,0,314.1, 3, -2.3,0,0,1024,1024,1024,1024,0,0,0,0,324.7,0,0,28,3.76,3.757,0,0,0,0,0,91.22,122.0341718841,0,41,Motors_Started,"Setting new Return-To-Home altitude to 40m (131 ft). Data Recorder File Index is 37. Setting new Maximum Flight Altitude to 120m (394 ft)"
900,2022-08-12 02:38:02,-34.9064333836843,-56.1630703216545,0,0,122.0341718841,122.0341718841,0.328084,0,0.0136194558164,0.101294622664,20,5,0,122.0341718841,0,0,0.038394358184,0,0,0,314.1, 3.1, -2.2,0,0,1024,1024,1024,1024,0,0,0,0,324.7,0,0,28,3.76,3.757,0,0,0,0,0,91.22,122.0341718841,0,41,Motors_Started,
1000,2022-08-12 02:38:02,-34.9064334247015,-56.1630703212471,0,0,122.0341718841,122.0341718841,0.328084,0,0.0285850074764,0.116260174324,20,5,0,122.0341718841,0,0,0.038394358184,0,0,0,314.1, 3, -2.2,0,0,1024,1024,1024,1024,0,0,0,0,324.7,0,0,28,3.76,3.757,0,0,0,0,0,91.22,122.0341718841,0,41,Motors_Started,
1100,2022-08-12 02:38:02,-34.9064334421283,-56.1630703206752,0,0,122.0341718841,122.0341718841,0.328084,0,0.03494422684,0.122620738832,20,5,0,122.0341718841,0,0,0.038394358184,0,0,0,314.1, 3, -2.3,0,0,1024,1024,1024,1024,0,0,0,0,324.7,0,0,28,3.76,3.757,0,0,0,0,0,91.22,122.0341718841,0,10,Assisted_Takeoff,
1200,2022-08-12 02:38:02,-34.9064334536894,-56.1630703363343,0,0,122.0341718841,122.0341718841,0.328084,0,0.03940124798,0.128925200976,21,5,0,122.0341718841,0,0,0.03940124798,0,0,0,314.1, 3, -2.2,0,0,1024,1024,1024,1024,0,0,0,0,324.7,0,0,28,3.76,3.757,0,0,0,0,0,91.22,122.0341718841,0,10,Assisted_Takeoff,
1300,2022-08-12 02:38:03,-34.9064334242236,-56.1630704706122,0,0,122.0341718841,122.0341718841,0.328084,0,0.05281660274,0.170515753488,21,5,0,122.0341718841,0,0,0.05281660274,0,0,0,314.1, 3, -2.2,0,0,1024,1024,1024,1024,0,0,0,0,324.7,0,0,28,3.76,3.757,0,0,0,0,0,91.22,122.0341718841,0,10,Assisted_Takeoff,
1400,2022-08-12 02:38:03,-34.9064334223484,-56.163070512343,0,0.032808399999993,122.0013634841,122.0341718841,0.328084,0,0.06339567132,0.183020675148,21,5,0,122.0341718841,0,0,0.06339567132,0,0,0,314.1, 3, -2.2,0,0,1024,1024,1307,1024,0,0,43,0,324.7,0,0,28,3.76,3.757,0,0,0,0,0,91.22,122.0341718841,0,10,Assisted_Takeoff,
1500,2022-08-12 02:38:03,-34.9064334177879,-56.1630705301201,0,0.032808399999993,122.0013634841,122.0341718841,0.328084,0,0.067559385364,0.188593838056,21,5,0,122.0341718841,0,0,0.067559385364,0,0,0,314.1, 3, -2.3,0,0,1024,1024,1684,1024,0,0,100,0,324.7,0,0,28,3.76,3.757,0,0,0,0,0,91.22,122.0341718841,0,10,Assisted_Takeoff,
1600,2022-08-12 02:38:03,-34.9064334131452,-56.1630705572598,0,0.032808399999993,122.0013634841,122.0341718841,0.328084,0,0.074545934144,0.196889113912,21,5,0,122.0341718841,0,0,0.074545934144,0,0,0,314.1, 3, -2.3,0,0,1024,1024,1684,1024,0,0,100,0,324.7,0,0,28,3.76,3.757,0,0,0,0,0,91.22,122.0341718841,0,10,Assisted_Takeoff,
1700,2022-08-12 02:38:03,-34.9064333690649,-56.1630706482009,0,0.032808399999993,122.0013634841,122.0341718841,0.328084,0,0.09801181416,0.228496726472,21,5,7.538,122.0341718841,0,0,0.09801181416,0,0,0,314, 2.9, -2.1,0,0,1024,1024,1684,1024,0,0,100,0,324.7,0,0,28,3.76,3.757,0,0,0,0,0.692,91.22,122.0341718841,0,10,Assisted_Takeoff,
1800,2022-08-12 02:38:03,-34.9064333655116,-56.1630706849043,0,0.032808399999993,122.0013634841,122.0341718841,0.328084,0,0.108867457552,0.239555125776,21,5,7.538,122.0341718841,0,0,0.108867457552,0,0,0,313.9, 2.8, -2.1,0,0,1024,1024,1684,1024,0,0,100,0,324.7,0,0,28,3.76,3.757,0,0,0,0,0.692,91.22,122.0341718841,0,10,Assisted_Takeoff,
1900,2022-08-12 02:38:03,-34.9064333637619,-56.1630706959801,0,0.032808399999993,122.0013634841,122.0341718841,0.328084,0,0.112136814612,0.242930125884,21,5,7.538,122.0341718841,0,0,0.112136814612,0,0,0,313.8, 2.6, -2.1,0,0,1024,1024,1684,1024,0,0,100,0,324.6,0,0,28,3.76,3.757,0,0,0,0,0.692,91.22,122.0341718841,0,10,Assisted_Takeoff,
2000,2022-08-12 02:38:03,-34.9064333651257,-56.163070715332,0,0.032808399999993,122.0013634841,122.0341718841,0.328084,0,0.117946198,0.248741477776,21,5,7.538,122.0341718841,0,0,0.117946198,0,0,0,313.6, 2.4, -2,0,0,1024,1024,1684,1024,0,0,100,0,324.5,0,0,28,3.76,3.757,0,0,0,0,0.692,91.22,122.0341718841,0,10,Assisted_Takeoff,
2100,2022-08-12 02:38:03,-34.9064333563305,-56.1630707844349,0,0.032808399999993,122.0013634841,122.0341718841,0.328084,0,0.13847113304,0.26966536296,21,5,7.538,122.0341718841,0,0,0.13847113304,0,0,0,313.6, 1.6, -1.5,0,0,1024,1024,1684,1024,0,0,100,0,324.4,0,0,28,3.76,3.757,0,0,0,0,0.692,91.22,122.0341718841,0,10,Assisted_Takeoff,
2200,2022-08-12 02:38:03,-34.9064333770882,-56.16307083522,0,0.032808399999993,122.0013634841,122.0341718841,0.328084,0,0.1540272359,0.286643381876,21,5,7.538,122.0341718841,0,0,0.1540272359,0,0,0,313.7, 0.4, -0.3,0,0,1024,1024,1481,1024,0,0,69,0,324.3,0,0,28,3.76,3.757,0,0,0,0,0.692,91.22,122.0341718841,0,10,Assisted_Takeoff,
2300,2022-08-12 02:38:04,-34.9064334136916,-56.1630708822549,0,0.032808399999993,122.0013634841,122.0341718841,0.328084,0,0.169481960804,0.306044629216,21,5,7.538,122.0341718841,0,0,0.169481960804,0,0,-0.223694,313.9, -0.8, 1.1,0,0,1024,1024,1684,1024,0,0,100,0,324.3,0,0,28,3.76,3.757,0,0,0,0,0.692,91.22,122.0341718841,0,10,Assisted_Takeoff,"Baja velocidad de la tarjeta SD. Puede afectar a su uso normal. Sustituye la tarjeta SD (Code: 10028)"
2400,2022-08-12 02:38:04,-34.9064334635554,-56.1630709370175,0,0.032808399999993,122.0013634841,122.0341718841,0.328084,0,0.188978680588,0.3305282258,21,5,7.538,122.0341718841,0,0,0.188978680588,0,0,-0.671082,314, -0.9, 0.7,0,0,1024,1024,1684,1024,0,0,100,0,324.3,0,0,28,3.76,3.757,0,0,0,0,0.692,91.22,122.0341718841,0,6,P-GPS,
2500,2022-08-12 02:38:04,-34.9064335469227,-56.1630710117562,0,0.098425200000004,121.9357466841,122.0341718841,0.656168,0.223694,0.21902559756,0.36828085168,21,5,7.538,122.0341718841,0,0.223694,0.21902559756,0,-0.223694,-1.11847,313.7, -0.4, -0.3,0,0,1024,1024,1684,1024,0,0,100,0,324.3,0,0,28,3.76,3.757,0,0,0,0,0.692,91.22,122.0341718841,0,6,P-GPS,
2600,2022-08-12 02:38:04,-34.9064336769621,-56.1630710428734,0.328084,0.4265092,121.9357466841,122.3622558841,0.656168,0.223694,0.247179469852,0.41663059076,21,5,7.538,122.3622558841,0.328084,0.223694,0.247179469852,0,-0.223694,-1.565858,314, 0.4, 0.4,0,0,1024,1024,1313,1024,0,0,44,0,324.3,0,0,28,3.76,3.757,0,0,0,0,0.692,91.22,122.3622558841,0.328084,6,P-GPS,
2700,2022-08-12 02:38:04,-34.9064337303344,-56.1630712498608,0.656168,0.7545932,121.9357466841,122.6903398841,0.984252,0.223694,0.311021007328,0.48155185268,21,5,7.502,122.6903398841,0.656168,0.223694,0.311021007328,0,-0.223694,-2.23694,314.1, 1.4, 2,0,0,1024,1024,1313,1024,0,0,44,0,324.3,0,0,28,3.697,3.69,0,0,0,0,1.609,91.22,122.6903398841,0.656168,6,P-GPS,
2800,2022-08-12 02:38:04,-34.9064337949673,-56.1630714285542,0.984252,1.0826772,121.9357466841,123.0184238841,1.312336,0.223694,0.3693897756,0.53998689392,21,5,7.502,123.0184238841,0.984252,0.223694,0.3693897756,0,-0.223694,-2.684328,313.9, 1.1, 2.7,0,0,1024,1024,1024,1024,0,0,0,0,324.3,0,0,28,3.697,3.69,0,0,0,0,1.609,91.22,123.0184238841,0.984252,6,P-GPS,
2900,2022-08-12 02:38:04,-34.9064338739127,-56.163071552767,1.312336,1.4435696,121.9029382841,123.3465078841,1.64042,0.223694,0.41557744112,0.5870078928,21,5,7.502,123.3465078841,1.312336,0.223694,0.41557744112,0,-0.223694,-2.684328,314, 1.4, 3.1,0,0,1024,1024,1024,1024,0,0,0,0,324.3,0,0,28,3.697,3.69,0,0,0,0,1.609,91.22,123.3465078841,1.312336,6,P-GPS,"Baja velocidad de la tarjeta SD. Puede afectar a su uso normal. Sustituye la tarjeta SD (Code: 10028)"
3000,2022-08-12 02:38:04,-34.9064339602039,-56.1630715785983,1.64042,1.7716536,121.9029382841,123.6745918841,1.968504,0,0.43768374104,0.61942587284,21,5,7.502,123.6745918841,1.64042,0.223694,0.43768374104,0,0,-2.460634,314, 1, 3.2,0,0,1684,1024,1024,1024,100,0,0,0,324.3,0,0,28,3.697,3.69,0,0,0,0,1.609,91.22,123.6745918841,1.64042,6,P-GPS,
3100,2022-08-12 02:38:04,-34.9064340946751,-56.1630715864384,1.968504,2.0997376,121.9029382841,124.0026758841,2.296588,0,0.46660434564,0.66854332848,21,5,7.502,124.0026758841,1.968504,0.223694,0.46660434564,0,0,-2.013246,313.9, -4.6, 2.9,0,0,1684,1024,1024,1024,100,0,0,0,324.3,0,0,28,3.697,3.69,0,0,0,0,1.609,91.22,124.0026758841,1.968504,6,P-GPS,
3200,2022-08-12 02:38:04,-34.9064342042751,-56.1630716522976,2.296588,2.4278216,121.9029382841,124.3307598841,2.624672,0.223694,0.5064140582,0.7131233824,21,5,7.502,124.3307598841,2.296588,0.223694,0.5064140582,0,-0.223694,-1.342164,313.3, -17.7, 2.9,0,0,1684,1024,1024,1024,100,0,0,0,324.3,0,0,28,3.697,3.69,0,0,0,0,1.609,91.22,124.3307598841,2.296588,6,P-GPS,
3300,2022-08-12 02:38:05,-34.9064342371347,-56.163071917414,2.624672,2.7559056,121.9029382841,124.6588438841,2.952756,0.8052984,0.5775426694,0.79334976292,21,5,7.502,124.6588438841,2.624672,0.8052984,0.5775426694,0.447388,-0.671082,-0.894776,313.2, -22.2, 2.5,0,0,1684,1024,1024,1024,100,0,0,0,324.3,0,0,28,3.697,3.69,0,0,0,0,1.609,91.22,124.6588438841,2.624672,6,P-GPS,
3400,2022-08-12 02:38:05,-34.9064343077912,-56.1630722859601,2.624672,2.7559056,121.9029382841,124.6588438841,2.952756,1.6105968,0.68441931324,0.9065945172,22,5,7.502,124.6588438841,2.624672,1.6105968,0.68441931324,0.894776,-1.342164,-0.447388,313.2, -23.8, 2.3,0,0,1446,1024,1024,1024,64,0,0,0,324.3,0,0,28,3.697,3.69,0,0,0,0,1.609,91.22,124.6588438841,2.624672,6,P-GPS,
3500,2022-08-12 02:38:05,-34.906433902947,-56.1630733071993,2.624672,2.788714,121.8701298841,124.6588438841,2.952756,2.23694,0.91604661724,1.24598429184,22,5,7.502,124.6588438841,2.624672,2.23694,0.91604661724,1.342164,-1.789552,0,313.2, -23.1, 2.7,0,0,1099,1024,1024,1024,11,0,0,0,324.3,0,0,28,3.697,3.69,0,0,0,0,1.609,91.22,124.6588438841,2.624672,6,P-GPS,
3600,2022-08-12 02:38:05,-34.90643330675,-56.1630745172258,2.624672,2.788714,121.8701298841,124.6588438841,2.952756,2.23694,1.25539046012,1.6683563526,22,5,7.502,124.6588438841,2.624672,2.23694,1.25539046012,1.789552,-2.460634,0,313.5, -16.9, 3.2,0,0,1099,1024,1024,1024,11,0,0,0,324.3,0,0,28,3.697,3.69,0,0,0,0,1.609,91.22,124.6588438841,2.624672,6,P-GPS,
3700,2022-08-12 02:38:05,-34.9064324580938,-56.1630759236653,2.624672,2.788714,121.8701298841,124.6588438841,2.952756,3.4896264,1.7071686898,2.19081043756,22,5,7.47,124.6588438841,2.624672,3.4896264,1.7071686898,2.23694,-2.684328,0,313.8, -6.8, 3.1,0,0,1024,1024,1024,1024,0,0,0,0,324.3,0,0,28,3.707,3.7,0,0,0,0,2.084,91.22,124.6588438841,2.624672,6,P-GPS,
3800,2022-08-12 02:38:05,-34.9064310989961,-56.1630779354236,2.624672,2.8215224,121.8373214841,124.6588438841,2.952756,3.35541,2.4211286864,2.97068907144,19,5,7.47,124.6588438841,2.624672,3.4896264,2.4211286864,2.013246,-2.684328,0,314.4, 10.1, 3.4,0,0,1024,1024,1273,1024,0,0,38,0,324.3,0,0,28,3.707,3.7,0,0,0,0,2.084,91.22,124.6588438841,2.624672,6,P-GPS,
3900,2022-08-12 02:38:05,-34.9064301086383,-56.1630793559867,2.952756,3.116798,121.8701298841,124.9869278841,2.952756,2.8632832,2.94994760096,3.5285762284,19,5,7.47,124.9869278841,2.952756,3.4896264,2.94994760096,1.789552,-2.23694,0,314.6, 14.3, 3.4,0,0,1024,1024,1503,1024,0,0,73,0,324.3,0,0,28,3.707,3.7,0,0,0,0,2.084,91.22,124.9869278841,2.952756,6,P-GPS,
4000,2022-08-12 02:38:05,-34.906429276356,-56.1630805360973,2.952756,3.1496064,121.8373214841,124.9869278841,2.952756,2.23694,3.3978675628,3.994258658,22,5,7.47,124.9869278841,2.952756,3.4896264,3.3978675628,1.342164,-1.789552,-0.223694,314.7, 13.2, 3.7,0,0,1024,1024,1437,1024,0,0,63,0,324.3,0,0,28,3.707,3.7,0,0,0,0,2.084,91.22,124.9869278841,2.952756,6,P-GPS,
4100,2022-08-12 02:38:05,-34.9064285158002,-56.1630815734631,2.952756,3.1824148,121.8045130841,124.9869278841,2.952756,1.6105968,3.8000001216,4.4106300624,22,5,7.47,124.9869278841,2.952756,3.4896264,3.8000001216,0.894776,-1.342164,-0.671082,314.3, 9.1, 3.7,0,0,1024,1024,1101,1024,0,0,12,0,324.3,0,0,28,3.707,3.7,0,0,0,0,2.084,91.22,124.9869278841,2.952756,6,P-GPS,
4200,2022-08-12 02:38:05,-34.9064279476052,-56.1630822762781,3.28084,3.4776904,121.8373214841,125.3150118841,3.28084,1.11847,4.0833662724,4.7059056624,22,5,7.47,125.3150118841,3.28084,3.4896264,4.0833662724,0.671082,-0.894776,-1.11847,313.9, 6.3, 3.2,0,0,1024,1024,1024,1024,0,0,0,0,324.3,0,0,28,3.707,3.7,0,0,0,0,2.084,91.22,125.3150118841,3.28084,6,P-GPS,
4300,2022-08-12 02:38:05,-34.906426911594,-56.1630827271183,3.28084,3.444882,121.8701298841,125.3150118841,3.28084,0.7158208,4.3919292744,5.1072508196,22,5,7.47,125.3150118841,3.28084,3.4896264,4.3919292744,0.223694,-0.671082,-1.11847,313.6, 4.3, 2.5,0,0,1024,1024,1092,1024,0,0,10,0,324.3,0,0,28,3.707,3.7,0,0,0,0,2.084,91.22,125.3150118841,3.28084,6,P-GPS,
4400,2022-08-12 02:38:06,-34.9064266397187,-56.1630829832272,3.608924,3.772966,121.8701298841,125.6430958841,3.608924,0.4921268,4.5099082808,5.2325789076,22,5,7.47,125.6430958841,3.608924,3.4896264,4.5099082808,0.223694,-0.447388,-0.894776,313.7, 3.4, 3.2,0,0,1024,1024,1391,1024,0,0,56,0,324.3,0,0,28,3.707,3.7,0,0,0,0,2.084,91.22,125.6430958841,3.608924,6,P-GPS,
4500,2022-08-12 02:38:06,-34.9064266007827,-56.1630830005212,3.608924,3.772966,121.8701298841,125.6430958841,3.608924,0.447388,4.521981772,5.24770358,22,5,7.47,125.6430958841,3.608924,3.4896264,4.521981772,0,-0.447388,-0.447388,313.9, 3.4, 3.3,0,0,1024,1024,1391,1024,0,0,56,0,324.3,0,0,28,3.707,3.7,0,0,0,0,2.084,91.22,125.6430958841,3.608924,6,P-GPS,
4600,2022-08-12 02:38:06,-34.9064266399109,-56.1630829619558,3.937008,4.10105,121.8701298841,125.9711798841,3.608924,0.223694,4.5045277032,5.266076284,22,5,7.47,125.9711798841,3.937008,3.4896264,4.521981772,0,-0.223694,-0.671082,313.9, 2.9, 3.1,0,0,1024,1024,1470,1024,0,0,68,0,324.3,0,0,28,3.707,3.7,0,0,0,0,2.084,91.22,125.9711798841,3.937008,6,P-GPS,
4700,2022-08-12 02:38:06,-34.9064275266882,-56.1630820856967,3.937008,4.1338584,121.8373214841,125.9711798841,3.937008,0.223694,4.1106956696,5.6825133052,22,5,7.404,125.9711798841,3.937008,3.4896264,4.521981772,0,-0.223694,-1.11847,313.7, 1.8, 2.4,0,0,1024,1024,1503,1024,0,0,73,0,324.3,0,0,28,3.706,3.701,0,0,0,0,5.111,91.22,125.9711798841,3.937008,6,P-GPS,
4800,2022-08-12 02:38:06,-34.9064277239449,-56.1630820117781,4.265092,4.4619424,121.8373214841,126.2992638841,3.937008,0,4.0548885812,5.7577757748,23,5,7.404,126.2992638841,4.265092,3.4896264,4.521981772,0,0,-1.789552,314, 0.9, 3.1,0,0,1024,1024,1652,1024,0,0,95,0,324.3,0,0,28,3.706,3.701,0,0,0,0,5.111,91.22,126.2992638841,4.265092,6,P-GPS,
4900,2022-08-12 02:38:06,-34.9064279163032,-56.1630819592876,4.593176,4.7900264,121.8373214841,126.6273478841,4.265092,0,4.0062009156,5.829724596,23,5,7.404,126.6273478841,4.593176,3.4896264,4.521981772,0,0,-2.460634,314.1, 0.2, 3.5,0,0,1024,1024,1679,1024,0,0,99,0,324.3,0,0,28,3.706,3.701,0,0,0,0,5.111,91.22,126.6273478841,4.593176,6,P-GPS,
5000,2022-08-12 02:38:06,-34.9064281328627,-56.1630818719583,4.92126,5.1181104,121.8373214841,126.9554318841,4.92126,0,3.9447835908,5.9129266984,23,5,7.404,126.9554318841,4.92126,3.4896264,4.521981772,0,0,-3.131716,314, 0.3, 2.8,0,0,1024,1024,1569,1024,0,0,83,0,324.3,0,0,28,3.706,3.701,0,0,0,0,5.111,91.22,126.9554318841,4.92126,6,P-GPS,
5100,2022-08-12 02:38:06,-34.9064288851737,-56.1630817595969,5.577428,5.8070868,121.8045130841,127.6115998841,5.577428,0,3.7896326672,6.189468702,23,5,7.404,127.6115998841,5.577428,3.4896264,4.521981772,0,0,-3.802798,314, -0.1, 2.3,0,0,1024,1024,1300,1024,0,0,42,0,324.3,0,0,28,3.706,3.701,0,0,0,0,5.111,91.22,127.6115998841,5.577428,6,P-GPS,
5200,2022-08-12 02:38:06,-34.9064291630888,-56.1630816244807,6.233596,6.4632548,121.8045130841,128.2677678841,6.233596,0,3.710301956,6.2986222488,22,5,7.404,128.2677678841,6.233596,3.4896264,4.521981772,0,0,-4.47388,313.9, -1.2, 2.3,0,0,1024,1024,1077,1024,0,0,8,0,324.3,0,0,28,3.706,3.701,0,0,0,0,5.111,91.22,128.2677678841,6.233596,6,P-GPS,
5300,2022-08-12 02:38:06,-34.9064293747678,-56.1630814660873,6.889764,7.0866144,121.8373214841,128.9239358841,6.889764,0,3.6356956544,6.3892390496,22,5,7.404,128.9239358841,6.889764,3.4896264,4.521981772,0,0,-4.250186,313.6, -1, 2.6,0,0,1024,1024,1077,1024,0,0,8,0,324.3,0,0,28,3.706,3.701,0,0,0,0,5.111,91.22,128.9239358841,6.889764,6,P-GPS,
5400,2022-08-12 02:38:07,-34.9064295618068,-56.1630813564864,7.217848,7.4475068,121.8045130841,129.2520198841,7.217848,0,3.5787730804,6.4649608368,21,5,7.404,129.2520198841,7.217848,3.4896264,4.521981772,0,0,-3.802798,313.7, -1.1, 2.8,0,0,1024,1024,1024,1024,0,0,0,0,324.3,0,0,28,3.706,3.701,0,0,0,0,5.111,91.22,129.2520198841,7.217848,6,P-GPS,"Punto de origen actualizado. Altitud de RPO establecida en 40m (Code: 3000001)"
5500,2022-08-12 02:38:07,-34.9064295925583,-56.1630815557539,7.874016,8.1364832,121.7717046841,129.9081878841,7.874016,0,3.629593292,6.5256235684,21,5,7.404,129.9081878841,7.874016,3.4896264,4.521981772,0,0,-3.131716,313.8, -0.8, 2.5,0,0,1024,1024,1024,1024,0,0,0,0,324.3,0,0,28,3.706,3.701,0,0,0,0,5.111,91.22,129.9081878841,7.874016,6,P-GPS,
5600,2022-08-12 02:38:07,-34.9064297291946,-56.1630815591464,8.2021,8.4645672,121.7717046841,130.2362718841,8.2021,0,3.612040798,6.5754923364,23,5,7.404,130.2362718841,8.2021,3.4896264,4.521981772,0,0,-2.460634,313.8, -0.3, 2.4,0,0,1024,1024,1081,1024,0,0,9,0,324.3,0,0,28,3.706,3.701,0,0,0,0,5.111,91.22,130.2362718841,8.2021,6,P-GPS,
5700,2022-08-12 02:38:07,-34.9064298834448,-56.1630815487783,8.530184,8.7926512,121.7717046841,130.5643558841,8.530184,0,3.5889436844,6.6318243592,23,5,7.358,130.5643558841,8.530184,3.4896264,4.521981772,0,0,-1.565858,313.8, 0, 2.1,0,0,1024,1024,1491,1024,0,0,71,0,324.3,0,0,28,3.706,3.706,0,0,0,0,5.06,91.22,130.5643558841,8.530184,6,P-GPS,
5800,2022-08-12 02:38:07,-34.9064300434745,-56.1630815432783,8.530184,8.7926512,121.7717046841,130.5643558841,8.858268,0,3.567257332,6.6902561196,23,5,7.358,130.5643558841,8.530184,3.4896264,4.521981772,0,0,-1.11847,313.8, 0, 2,0,0,1024,1024,1617,1024,0,0,90,0,324.3,0,0,28,3.706,3.706,0,0,0,0,5.06,91.22,130.5643558841,8.530184,6,P-GPS,
5900,2022-08-12 02:38:07,-34.9064302458526,-56.163081541061,8.858268,9.1207352,121.7717046841,130.8924398841,8.858268,0,3.5423885648,6.7640750196,23,5,7.358,130.8924398841,8.858268,3.4896264,4.521981772,0,0,-1.342164,313.8, -0.1, 1.8,0,0,1024,1024,1414,1024,0,0,59,0,324.3,0,0,28,3.706,3.706,0,0,0,0,5.06,91.22,130.8924398841,8.858268,6,P-GPS,
6000,2022-08-12 02:38:07,-34.9064303275101,-56.1630817790168,9.186352,9.4488192,121.7717046841,131.2205238841,9.186352,0,3.6006890916,6.8412731848,23,5,7.358,131.2205238841,9.186352,3.4896264,4.521981772,0,0,-2.23694,313.9, -0.1, 1.7,0,0,1024,1024,1151,1024,0,0,19,0,324.3,0,0,28,3.706,3.706,0,0,0,0,5.06,91.22,131.2205238841,9.186352,6,P-GPS,
6100,2022-08-12 02:38:07,-34.9064301940909,-56.1630819608075,9.514436,9.7769032,121.7717046841,131.5486078841,9.514436,0,3.667486994,6.9142718748,23,5,7.358,131.5486078841,9.514436,3.4896264,4.521981772,0,0,-2.460634,313.8, -0.1, 2.3,0,0,1024,1024,1031,1024,0,0,1,0,324.3,0,0,28,3.706,3.706,0,0,0,0,5.06,91.22,131.5486078841,9.514436,6,P-GPS,
6200,2022-08-12 02:38:07,-34.9064300798881,-56.1630821252442,9.84252,10.1049872,121.7717046841,131.8766918841,9.84252,0,3.727362324,6.9787403808,22,5,7.358,131.8766918841,9.84252,3.4896264,4.521981772,0,0,-2.23694,314, 0.3, 3,0,0,1024,1024,1031,1024,0,0,1,0,324.3,0,0,28,3.706,3.706,0,0,0,0,5.06,91.22,131.8766918841,9.84252,6,P-GPS,
6300,2022-08-12 02:38:07,-34.9064300529724,-56.1630822222598,10.170604,10.4330712,121.7717046841,132.2047758841,10.170604,0,3.7580053696,7.0093834264,22,5,7.358,132.2047758841,10.170604,3.4896264,4.521981772,0,0,-1.565858,314, 0.3, 3.2,0,0,1024,1024,1024,1024,0,0,0,0,324.3,0,0,28,3.706,3.706,0,0,0,0,5.06,91.22,132.2047758841,10.170604,6,P-GPS,
6400,2022-08-12 02:38:08,-34.9064293613608,-56.1630827418712,10.170604,10.4330712,121.7717046841,132.2047758841,10.498688,0,3.990485692,7.305774512,22,5,7.358,132.2047758841,10.170604,3.4896264,4.521981772,0,0,-0.894776,314, -0.1, 2.7,0,0,1024,1024,1024,1024,0,0,0,0,324.3,0,0,28,3.706,3.706,0,0,0,0,5.06,91.22,132.2047758841,10.170604,6,P-GPS,
6500,2022-08-12 02:38:08,-34.9064293505479,-56.1630827976654,10.170604,10.4330712,121.7717046841,132.2047758841,10.498688,0,4.0074804432,7.3229333052,22,5,7.358,132.2047758841,10.170604,3.4896264,4.521981772,0,0,-0.447388,314.2, 0, 2.9,0,0,1024,1024,1024,1024,0,0,0,0,324.3,0,0,28,3.706,3.706,0,0,0,0,5.06,91.22,132.2047758841,10.170604,6,P-GPS,
6600,2022-08-12 02:38:08,-34.9064293689974,-56.1630828130529,10.170604,10.4330712,121.7717046841,132.2047758841,10.498688,0,4.0093177136,7.3310697884,22,5,7.358,132.2047758841,10.170604,3.4896264,4.521981772,0,0,0,314.2, -1, 2.7,0,0,1024,1024,1024,1024,0,0,0,0,324.3,0,0,28,3.706,3.706,0,0,0,0,5.06,91.22,132.2047758841,10.170604,6,P-GPS,
6700,2022-08-12 02:38:08,-34.90642946993,-56.1630827570602,10.170604,10.4330712,121.7717046841,132.2047758841,10.498688,0.223694,3.98047913,7.3715225456,22,5,7.358,132.2047758841,10.170604,3.4896264,4.521981772,0,0.223694,0,314, -1.1, 2,0,0,1024,1024,1024,1024,0,0,0,0,324.3,0,0,28,3.706,3.706,0,0,0,0,5.06,91.22,132.2047758841,10.170604,6,P-GPS,
6800,2022-08-12 02:38:08,-34.9064296510301,-56.1630826578508,10.170604,10.4658796,121.7388962841,132.2047758841,10.498688,0.223694,3.9295933016,7.4439634928,21,5,7.358,132.2047758841,10.170604,3.4896264,4.521981772,0,0.223694,0,313.8, -1.4, 1.1,0,0,1024,1024,1044,1024,0,0,3,0,324.3,0,0,27,3.706,3.706,0,0,0,0,5.06,91.22,132.2047758841,10.170604,6,P-GPS,
6900,2022-08-12 02:38:08,-34.9064300288453,-56.1630824953781,10.170604,10.4330712,121.7717046841,132.2047758841,10.498688,0.223694,3.8382875244,7.5901249148,21,5,7.346,132.2047758841,10.170604,3.4896264,4.521981772,0,0.223694,0,313.8, -2.2, 1.3,0,0,1024,1024,1372,1024,0,0,53,0,324.3,0,0,27,3.706,3.7,0,0,0,0,4.233,91.22,132.2047758841,10.170604,6,P-GPS,
7000,2022-08-12 02:38:08,-34.9064303268514,-56.1630823993262,10.170604,10.4330712,121.7717046841,132.2047758841,10.498688,0.223694,3.77788726,7.70259211,22,5,7.346,132.2047758841,10.170604,3.4896264,4.521981772,0,0.223694,0,313.9, -2.8, 1.3,0,0,1024,1024,1648,1024,0,0,95,0,324.3,0,0,27,3.706,3.7,0,0,0,0,4.233,91.22,132.2047758841,10.170604,6,P-GPS,
7100,2022-08-12 02:38:08,-34.9064304413335,-56.1630824460085,10.170604,10.4330712,121.7717046841,132.2047758841,10.498688,0.223694,3.7793308296,7.7466537912,22,5,7.346,132.2047758841,10.170604,3.4896264,4.521981772,0,0.223694,-0.223694,313.8, -3.2, 0.7,0,0,1024,1024,1684,1024,0,0,100,0,324.3,0,0,27,3.706,3.7,0,0,0,0,4.233,91.22,132.2047758841,10.170604,6,P-GPS,
7200,2022-08-12 02:38:08,-34.9064303021357,-56.1630829023408,10.498688,10.7939636,121.7388962841,132.5328598841,10.498688,0,3.9246392332,7.8923230872,22,5,7.346,132.5328598841,10.498688,3.4896264,4.521981772,0,0,-0.894776,313.9, -3.4, 0.7,0,0,1024,1024,1684,1024,0,0,100,0,324.3,0,0,27,3.706,3.7,0,0,0,0,4.233,91.22,132.5328598841,10.498688,6,P-GPS,
7300,2022-08-12 02:38:09,-34.9064302807428,-56.1630830358901,10.498688,10.7939636,121.7388962841,132.5328598841,10.826772,0,3.9651904156,7.9330383116,22,5,7.346,132.5328598841,10.498688,3.4896264,4.521981772,0,0,-1.565858,314, -2.8, 1.2,0,0,1024,1024,1684,1024,0,0,100,0,324.3,0,0,27,3.706,3.7,0,0,0,0,4.233,91.22,132.5328598841,10.498688,6,P-GPS,
7400,2022-08-12 02:38:09,-34.9064302750172,-56.163083191826,10.826772,11.1220476,121.7388962841,132.8609438841,11.154856,0,4.0105644328,7.9797246648,21,5,7.346,132.8609438841,10.826772,3.4896264,4.521981772,0,0,-2.23694,313.9, -2.4, 1.8,0,0,1024,1024,1670,1024,0,0,98,0,324.3,0,0,27,3.706,3.7,0,0,0,0,4.233,91.22,132.8609438841,10.826772,6,P-GPS,
7500,2022-08-12 02:38:09,-34.9064303304894,-56.1630833796077,11.48294,11.7782156,121.7388962841,133.5171118841,11.48294,0,4.0589896312,8.0394687612,21,5,7.346,133.5171118841,11.48294,3.4896264,4.521981772,0,0,-3.131716,314.2, -3.2, 1.2,0,0,1024,1024,1434,1024,0,0,62,0,324.3,0,0,27,3.706,3.7,0,0,0,0,4.233,91.22,133.5171118841,11.48294,6,P-GPS,
7600,2022-08-12 02:38:09,-34.9064303443898,-56.1630836215514,12.139108,12.467192,121.7060878841,134.1732798841,12.139108,0,4.1273623368,8.112040942,22,5,7.346,134.1732798841,12.139108,3.4896264,4.521981772,0,0,-3.579104,314.2, -1.9, 0.5,0,0,1024,1024,1487,1024,0,0,70,0,324.3,0,0,27,3.706,3.7,0,0,0,0,4.233,91.22,134.1732798841,12.139108,6,P-GPS,
7700,2022-08-12 02:38:09,-34.9064302979009,-56.1630845615412,12.467192,12.8280844,121.6732794841,134.5013638841,12.467192,0,4.4034450228,8.3937994812,22,5,7.346,134.5013638841,12.467192,3.4896264,4.521981772,0,0,-3.35541,314, -0.7, 0.1,0,0,1024,1024,1684,1024,0,0,100,0,324.3,0,0,27,3.706,3.7,0,0,0,0,4.233,91.22,134.5013638841,12.467192,6,P-GPS,
7800,2022-08-12 02:38:09,-34.906430246973,-56.1630849095419,13.12336,13.4842524,121.6732794841,135.1575318841,13.12336,0,4.5088912204,8.4995737628,22,5,7.346,135.1575318841,13.12336,3.4896264,4.521981772,0,0,-3.579104,313.6, -0.7, -0.7,0,0,1024,1024,1684,1024,0,0,100,0,324.3,0,0,27,3.706,3.7,0,0,0,0,4.233,91.22,135.1575318841,13.12336,6,P-GPS,
7900,2022-08-12 02:38:09,-34.9064302002635,-56.1630851550034,13.779528,14.1404204,121.6732794841,135.8136998841,13.779528,0,4.5842521152,8.574967466,22,5,7.382,135.8136998841,13.779528,3.4896264,4.5842521152,0,0,-4.026492,313.4, -0.5, -0.6,0,0,1024,1024,1682,1024,0,0,100,0,324.3,0,0,27,3.648,3.639,0,0,0,0,4.432,91.22,135.8136998841,13.779528,6,P-GPS,
8000,2022-08-12 02:38:09,-34.9064301767398,-56.1630853651586,14.76378,15.1246724,121.6732794841,136.7979518841,14.435696,0,4.6472770516,8.6384189116,22,5,7.382,136.7979518841,14.76378,3.4896264,4.6472770516,0,0,-4.697574,313.6, 0.1, 0,0,0,1024,1024,1355,1024,0,0,50,0,324.3,0,0,27,3.648,3.639,0,0,0,0,4.432,91.22,136.7979518841,14.76378,6,P-GPS,
8100,2022-08-12 02:38:09,-34.9064301945485,-56.1630853372824,15.419948,15.7808404,121.6732794841,137.4541198841,15.091864,0,4.6375985736,8.6489832164,22,5,7.382,137.4541198841,15.419948,3.4896264,4.6472770516,0,0,-5.368656,313.7, -0.1, -0.8,0,0,1024,1024,1355,1024,0,0,50,0,324.3,0,0,27,3.648,3.639,0,0,0,0,4.432,91.22,137.4541198841,15.419948,6,P-GPS,
8200,2022-08-12 02:38:09,-34.9064301472642,-56.163085415552,16.4042,16.7650924,121.6732794841,138.4383718841,15.748032,0,4.6645670784,8.6780842672,22,5,7.382,138.4383718841,16.4042,3.4896264,4.6645670784,0,0,-5.368656,313.7, 0.4, -0.7,0,0,1024,1024,1145,1024,0,0,18,0,324.3,0,0,27,3.648,3.639,0,0,0,0,4.432,91.22,138.4383718841,16.4042,6,P-GPS,
8300,2022-08-12 02:38:10,-34.9064299739782,-56.1630853641192,17.060368,17.4212604,121.6732794841,139.0945398841,16.4042,0,4.6659450312,8.7431433244,22,5,7.382,139.0945398841,17.060368,3.4896264,4.6659450312,0,0,-4.921268,313.7, 0.9, -0.1,0,0,1535,1024,1024,1024,77,0,0,0,324.3,0,0,27,3.648,3.639,0,0,0,0,4.432,91.22,139.0945398841,17.060368,6,P-GPS,
8400,2022-08-12 02:38:10,-34.9064298159515,-56.1630853884802,17.716536,18.0774284,121.6732794841,139.7507078841,17.060368,0,4.688484402,8.8012470008,22,5,7.382,139.7507078841,17.716536,3.4896264,4.688484402,0,0,-4.47388,313.6, -1.4, 0,0,0,1684,1024,1024,1024,100,0,0,0,324.3,0,0,27,3.648,3.639,0,0,0,0,4.432,91.22,139.7507078841,17.716536,6,P-GPS,
8500,2022-08-12 02:38:10,-34.9064291965151,-56.1630853979211,18.372704,18.700788,121.7060878841,140.4068758841,17.716536,0.223694,4.758202252,9.0272968768,22,5,7.382,140.4068758841,18.372704,3.4896264,4.758202252,0.223694,0,-3.579104,313.9, -15.5, -0.7,0,0,1684,1024,1024,1024,100,0,0,0,324.3,0,0,27,3.648,3.639,0,0,0,0,4.432,91.22,140.4068758841,18.372704,6,P-GPS,
8600,2022-08-12 02:38:10,-34.9064289704227,-56.1630857382724,18.700788,19.0616804,121.6732794841,140.7349598841,18.04462,0.6263432,4.881233752,9.1583336264,22,5,7.382,140.7349598841,18.700788,3.4896264,4.881233752,0.447388,-0.447388,-2.684328,314, -22.2, -0.8,0,0,1684,1024,1024,1024,100,0,0,0,324.3,0,0,27,3.648,3.639,0,0,0,0,4.432,91.22,140.7349598841,18.700788,6,P-GPS,
8700,2022-08-12 02:38:10,-34.9064286511345,-56.1630862493282,19.028872,19.3897644,121.6732794841,141.0630438841,18.04462,1.11847,5.0641733904,9.350558042,22,5,7.382,141.0630438841,19.028872,3.4896264,5.0641733904,0.894776,-0.671082,-1.789552,314, -24.1, -0.2,0,0,1684,1024,1024,1024,100,0,0,0,324.3,0,0,27,3.648,3.639,0,0,0,0,4.432,91.22,141.0630438841,19.028872,6,P-GPS,
8800,2022-08-12 02:38:10,-34.9064282272456,-56.1630868923898,19.356956,19.7178484,121.6732794841,141.3911278841,18.04462,1.5882274,5.2981628992,9.5974084436,22,5,7.382,141.3911278841,19.356956,3.4896264,5.2981628992,1.11847,-1.11847,-1.11847,313.7, -24.3, -0.7,0,0,1684,1024,1024,1024,100,0,0,0,324.3,0,0,27,3.648,3.639,0,0,0,0,4.432,91.22,141.3911278841,19.356956,6,P-GPS,
8900,2022-08-12 02:38:10,-34.9064277110346,-56.1630875840323,19.356956,19.7506568,121.6404710841,141.3911278841,18.04462,2.3711564,5.5591865296,9.8772312872,22,5,7.264,141.3911278841,19.356956,3.4896264,5.5591865296,1.565858,-1.789552,-0.671082,313.9, -24.1, -0.4,0,0,1684,1024,1024,1024,100,0,0,0,324.3,0,0,27,3.697,3.693,0,0,0,0,6.868,91.22,141.3911278841,19.356956,6,P-GPS,
9000,2022-08-12 02:38:10,-34.9064270386615,-56.1630886574278,19.68504,20.0459324,121.6732794841,141.7192118841,18.372704,3.019869,5.949311214,10.2813979668,22,5,7.264,141.7192118841,19.68504,3.4896264,5.949311214,2.013246,-2.23694,-0.223694,313.9, -24, 0.5,0,0,1684,1024,1024,1024,100,0,0,0,324.3,0,0,27,3.697,3.693,0,0,0,0,6.868,91.22,141.7192118841,19.68504,6,P-GPS,
9100,2022-08-12 02:38:10,-34.9064261955606,-56.1630901613583,19.68504,20.0459324,121.6732794841,141.7192118841,18.04462,3.019869,6.4841865592,10.8264767244,22,5,7.264,141.7192118841,19.68504,3.4896264,6.4841865592,2.684328,-2.908022,0,313.8, -23.9, 1.2,0,0,1684,1024,1024,1024,100,0,0,0,324.3,0,0,27,3.697,3.693,0,0,0,0,6.868,91.22,141.7192118841,19.68504,6,P-GPS,
9200,2022-08-12 02:38:10,-34.9064251738097,-56.163091789021,19.68504,20.0787408,121.6404710841,141.7192118841,18.04462,4.585727,7.081529098,11.4397641456,22,5,7.264,141.7192118841,19.68504,4.585727,7.081529098,3.131716,-3.35541,0,313.7, -23.7, 1.6,0,0,1684,1024,1024,1024,100,0,0,0,324.3,0,0,27,3.697,3.693,0,0,0,0,6.868,91.22,141.7192118841,19.68504,6,P-GPS,
9300,2022-08-12 02:38:10,-34.9064238114926,-56.163093623256,19.68504,20.0787408,121.6404710841,141.7192118841,18.04462,5.3910254,7.7916997244,12.1802169252,22,5,7.264,141.7192118841,19.68504,5.3910254,7.7916997244,3.579104,-4.026492,0,313.6, -23.5, 1.8,0,0,1684,1024,1024,1024,100,0,0,0,324.3,0,0,27,3.697,3.693,0,0,0,0,6.868,91.22,141.7192118841,19.68504,6,P-GPS,
9400,2022-08-12 02:38:11,-34.906422404188,-56.1630954656234,19.68504,20.0459324,121.6732794841,141.7192118841,18.04462,6.1739544,8.5168637896,12.9335305976,22,5,7.264,141.7192118841,19.68504,6.1739544,8.5168637896,4.250186,-4.47388,0,313.6, -23.5, 1.9,0,0,1684,1024,1024,1024,100,0,0,0,324.3,0,0,27,3.697,3.693,0,0,0,0,6.868,91.22,141.7192118841,19.68504,6,P-GPS,
9500,2022-08-12 02:38:11,-34.9064205794449,-56.1630978850756,19.68504,20.0787408,121.6404710841,141.7192118841,18.04462,6.8002976,9.4716866548,13.9170608128,22,5,7.264,141.7192118841,19.68504,6.8002976,9.4716866548,4.697574,-4.921268,0,313.7, -22.6, 1.5,0,0,1684,1024,1024,1024,100,0,0,0,324.3,0,0,27,3.697,3.693,0,0,0,0,6.868,91.22,141.7192118841,19.68504,6,P-GPS,
9600,2022-08-12 02:38:11,-34.9064186474931,-56.1631004037947,19.68504,20.0787408,121.6404710841,141.7192118841,18.372704,7.4266408,10.4773297316,14.9489506096,22,5,7.264,141.7192118841,19.68504,7.4266408,10.4773297316,5.144962,-5.368656,0,313.6, -21.9, 1.2,0,0,1684,1024,1024,1024,100,0,0,0,324.3,0,0,27,3.697,3.693,0,0,0,0,6.868,91.22,141.7192118841,19.68504,6,P-GPS,
9700,2022-08-12 02:38:11,-34.9064164049938,-56.163103282836,19.68504,20.0459324,121.6732794841,141.7192118841,18.372704,8.0753534,11.639107984,16.1370083904,22,5,7.264,141.7192118841,19.68504,8.0753534,11.639107984,5.59235,-5.816044,0,313.8, -21.7, 1.3,0,0,1538,1024,1024,1024,78,0,0,0,324.3,0,0,27,3.697,3.693,0,0,0,0,6.868,91.22,141.7192118841,19.68504,6,P-GPS,
9800,2022-08-12 02:38:11,-34.9064138576905,-56.163106112377,19.68504,20.0459324,121.6732794841,141.7192118841,18.372704,8.5451108,12.8544623536,17.39419347,22,5,7.264,141.7192118841,19.68504,8.5451108,12.8544623536,5.816044,-6.263432,0,313.6, -20.9, 1.7,0,0,1234,1024,1024,1024,32,0,0,0,324.3,0,0,27,3.697,3.693,0,0,0,0,6.868,91.22,141.7192118841,19.68504,6,P-GPS,
9900,2022-08-12 02:38:11,-34.906411312413,-56.1631091790198,19.68504,20.013124,121.7060878841,141.7192118841,18.372704,9.0148682,14.1350726308,18.6996725144,22,5,7.364,141.7192118841,19.68504,9.0148682,14.1350726308,6.263432,-6.487126,0,313.6, -16.3, 1.1,0,0,1064,1024,1024,1024,6,0,0,0,324.3,0,0,27,3.671,3.665,0,0,0,0,4.567,91.22,141.7192118841,19.68504,6,P-GPS,
10000,2022-08-12 02:38:11,-34.9064087424874,-56.1631122227066,19.356956,19.68504,121.7060878841,141.3911278841,18.372704,9.171454,15.4194886824,20.0067919788,22,5,7.364,141.7192118841,19.68504,9.171454,15.4194886824,6.263432,-6.71082,0,313.8, -8.2, 1.4,0,0,1024,1024,1024,1024,0,0,0,0,324.3,0,0,27,3.671,3.665,0,0,0,0,4.567,91.22,141.3911278841,19.356956,6,P-GPS,
10100,2022-08-12 02:38:11,-34.9064058983057,-56.1631154873764,19.356956,19.68504,121.7060878841,141.3911278841,18.372704,9.171454,16.82004647,21.431923258,22,5,7.364,141.7192118841,19.68504,9.171454,16.82004647,6.263432,-6.71082,0,313.8, -0.2, 1.1,0,0,1024,1024,1024,1024,0,0,0,0,324.3,0,0,27,3.671,3.665,0,0,0,0,4.567,91.22,141.3911278841,19.356956,6,P-GPS,
10200,2022-08-12 02:38:11,-34.9064032004984,-56.1631183661617,19.356956,19.6522316,121.7388962841,141.3911278841,18.372704,8.2319392,18.1002630464,22.7398629324,22,5,7.364,141.7192118841,19.68504,9.171454,18.1002630464,5.59235,-6.039738,0,314.2, 22.5, 1.1,0,0,1024,1024,1024,1024,0,0,0,0,324.3,0,0,27,3.671,3.665,0,0,0,0,4.567,91.22,141.3911278841,19.356956,6,P-GPS,
10300,2022-08-12 02:38:11,-34.9064004825211,-56.1631207801453,19.028872,19.2913392,121.7717046841,141.0630438841,18.372704,7.2924244,19.2796594096,23.966700242,22,5,7.364,141.7192118841,19.68504,9.171454,19.2796594096,4.921268,-5.368656,0,314.3, 23.1, 1.1,0,0,1024,1024,1024,1024,0,0,0,0,324.3,0,0,27,3.671,3.665,0,0,0,0,4.567,91.22,141.0630438841,19.028872,6,P-GPS,
10400,2022-08-12 02:38:12,-34.9063983018587,-56.1631227244695,19.028872,19.2585308,121.8045130841,141.0630438841,18.372704,6.0173686,20.2317263692,24.9522973864,22,5,7.364,141.7192118841,19.68504,9.171454,20.2317263692,4.250186,-4.250186,0,317.5, 23.6, 0.7,0,0,1024,1024,1024,1024,0,0,0,0,324.3,0,0,27,3.671,3.665,0,0,0,0,4.567,91.22,141.0630438841,19.028872,6,P-GPS,
10500,2022-08-12 02:38:12,-34.9063966465161,-56.1631244361108,19.028872,19.2585308,121.8045130841,141.0630438841,18.372704,5.0554844,21.0107946356,25.7441609288,22,5,7.364,141.7192118841,19.68504,9.171454,21.0107946356,3.579104,-3.579104,0,317.6, 22.6, 1.2,0,0,1024,1024,1024,1024,0,0,0,0,324.3,0,0,27,3.671,3.665,0,0,0,0,4.567,91.22,141.0630438841,19.028872,6,P-GPS,
10600,2022-08-12 02:38:12,-34.9063956008499,-56.1631249048352,18.700788,18.9304468,121.8045130841,140.7349598841,13.779528,3.802798,21.3629928096,26.1506241964,22,5,7.364,141.7192118841,19.68504,9.171454,21.3629928096,2.684328,-2.684328,0.223694,317.9, 19, 2.8,0,0,1024,1024,1024,1024,0,0,0,0,324.3,0,0,27,3.671,3.665,0,0,0,0,4.567,91.22,140.7349598841,18.700788,6,P-GPS,
10700,2022-08-12 02:38:12,-34.9063945977837,-56.1631259045027,18.700788,18.8976384,121.8373214841,140.7349598841,13.779528,2.8409138,21.8277237956,26.6232948152,22,5,7.364,141.7192118841,19.68504,9.171454,21.8277237956,2.013246,-2.013246,0,317.4, 16.1, 1.5,0,0,1024,1024,1065,1024,0,0,6,0,324.3,0,0,27,3.671,3.665,0,0,0,0,4.567,91.22,140.7349598841,18.700788,6,P-GPS,
10800,2022-08-12 02:38:12,-34.9063939883028,-56.1631265045956,18.700788,18.8976384,121.8373214841,140.7349598841,13.779528,2.2145706,22.1086293164,26.9090887876,23,5,7.364,141.7192118841,19.68504,9.171454,22.1086293164,1.565858,-1.565858,0,317.2, 13.4, 1.4,0,0,1201,1024,1088,1024,27,0,10,0,324.3,0,0,27,3.671,3.665,0,0,0,0,4.567,91.22,140.7349598841,18.700788,6,P-GPS,
10900,2022-08-12 02:38:12,-34.906393804725,-56.1631267267747,19.028872,19.2257224,121.8373214841,141.0630438841,13.779528,1.5882274,22.2026909992,27.0034785544,23,5,7.364,141.7192118841,19.68504,9.171454,22.2026909992,1.11847,-1.11847,0,317.2, 10.1, 1.4,0,0,1684,1024,1024,1024,100,0,0,0,324.3,0,0,27,3.671,3.665,0,0,0,0,4.567,91.22,141.0630438841,19.028872,6,P-GPS,
11000,2022-08-12 02:38:12,-34.9063938014421,-56.1631267617962,19.028872,19.2257224,121.8373214841,141.0630438841,14.107612,1.2750558,22.2114180336,27.0140100508,23,5,7.364,141.7192118841,19.68504,9.171454,22.2114180336,0.894776,-0.894776,0,317.1, 4, 2,0,0,1684,1024,1024,1024,100,0,0,0,324.3,0,0,27,3.671,3.665,0,0,0,0,4.567,91.22,141.0630438841,19.028872,6,P-GPS,
11100,2022-08-12 02:38:12,-34.9063951567406,-56.1631255984338,19.028872,19.2257224,121.8373214841,141.0630438841,14.107612,1.2974252,21.6260833692,27.6187344796,23,5,7.344,141.7192118841,19.68504,9.171454,22.2114180336,0.671082,-1.11847,0,316.7, -8.5, 2.2,0,0,1684,1024,1024,1024,100,0,0,0,324.3,0,0,27,3.679,3.672,0,0,0,0,4.936,91.4,141.0630438841,19.028872,6,P-GPS,
11200,2022-08-12 02:38:12,-34.9063952679959,-56.1631255882329,19.028872,19.2257224,121.8373214841,141.0630438841,14.107612,1.4316416,21.597605678,27.6594168956,23,5,7.344,141.7192118841,19.68504,9.171454,22.2114180336,0.894776,-1.11847,0,316.5, -17.3, 2.1,0,0,1684,1024,1024,1024,100,0,0,0,324.3,0,0,27,3.679,3.672,0,0,0,0,4.936,91.4,141.0630438841,19.028872,6,P-GPS,
11300,2022-08-12 02:38:12,-34.9063952018844,-56.1631258472617,19.028872,19.2257224,121.8373214841,141.0630438841,14.107612,2.0579848,21.6725072552,27.7406176856,23,5,7.344,141.7192118841,19.68504,9.171454,22.2114180336,1.342164,-1.565858,0,316.5, -19.4, 2,0,0,1684,1024,1024,1024,100,0,0,0,324.3,0,0,27,3.679,3.672,0,0,0,0,4.936,91.4,141.0630438841,19.028872,6,P-GPS,
11400,2022-08-12 02:38:13,-34.9063949004463,-56.1631263872983,19.028872,19.2257224,121.8373214841,141.0630438841,14.107612,2.8409138,21.8669954504,27.9360573244,22,5,7.344,141.7192118841,19.68504,9.171454,22.2114180336,2.013246,-2.013246,0,316.5, -19.6, 2,0,0,1480,1024,1024,1024,69,0,0,0,324.3,0,0,27,3.679,3.672,0,0,0,0,4.936,91.4,141.0630438841,19.028872,6,P-GPS,
11500,2022-08-12 02:38:13,-34.9063943878089,-56.1631277480035,19.028872,19.2585308,121.8045130841,141.0630438841,17.716536,3.4896264,22.2996070128,28.3840888348,22,5,7.344,141.7192118841,19.68504,9.171454,22.2996070128,2.460634,-2.460634,0,316.6, -17, 2.2,0,0,1024,1024,1024,1024,0,0,0,0,324.3,0,0,27,3.679,3.672,0,0,0,0,4.936,91.4,141.0630438841,19.028872,6,P-GPS,
11600,2022-08-12 02:38:13,-34.9063935660863,-56.1631290113327,19.028872,19.2913392,121.7717046841,141.0630438841,17.388452,3.9593838,22.781988918,28.8665691652,23,5,7.344,141.7192118841,19.68504,9.171454,22.781988918,2.684328,-2.908022,0,316.9, -4.5, 2,0,0,1024,1024,1024,1024,0,0,0,0,324.3,0,0,27,3.679,3.672,0,0,0,0,4.936,91.4,141.0630438841,19.028872,6,P-GPS,
11700,2022-08-12 02:38:13,-34.9063926190614,-56.1631305269579,19.028872,19.3241476,121.7388962841,141.0630438841,17.388452,3.802798,23.3516739756,29.436680732,23,5,7.344,141.7192118841,19.68504,9.171454,23.3516739756,2.684328,-2.684328,0,317.9, 13.9, 2.1,0,0,1024,1024,1024,1024,0,0,0,0,324.3,0,0,27,3.679,3.672,0,0,0,0,4.936,91.4,141.0630438841,19.028872,6,P-GPS,
11800,2022-08-12 02:38:13,-34.9063917724204,-56.1631318213599,19.028872,19.3241476,121.7388962841,141.0630438841,17.388452,3.1540854,23.8469823904,29.932087572,23,5,7.344,141.7192118841,19.68504,9.171454,23.8469823904,2.23694,-2.23694,0,317.7, 16.3, 2.4,0,0,1024,1024,1024,1024,0,0,0,0,324.3,0,0,27,3.679,3.672,0,0,0,0,4.936,91.4,141.0630438841,19.028872,6,P-GPS,
11900,2022-08-12 02:38:13,-34.9063897878878,-56.1631336876287,19.028872,19.2913392,121.7717046841,141.0630438841,17.388452,2.2145706,24.7392724452,30.84645768,23,5,7.344,141.7192118841,19.68504,9.171454,24.7392724452,1.565858,-1.565858,0,317.5, 14.1, 2.4,0,0,1024,1024,1024,1024,0,0,0,0,324.3,0,0,27,3.679,3.672,0,0,0,0,4.936,91.4,141.0630438841,19.028872,6,P-GPS,
12000,2022-08-12 02:38:13,-34.9063890324689,-56.1631344734742,19.028872,19.2585308,121.8045130841,141.0630438841,9.186352,1.5882274,25.0965887296,31.2087280328,24,5,7.344,141.7192118841,19.68504,9.171454,25.0965887296,1.11847,-1.11847,0,317.2, 10.7, 1.9,0,0,1024,1024,1024,1024,0,0,0,0,324.3,0,0,27,3.679,3.672,0,0,0,0,4.936,91.4,141.0630438841,19.028872,6,P-GPS,
12100,2022-08-12 02:38:13,-34.9063884082505,-56.1631350842433,19.028872,19.2585308,121.8045130841,141.0630438841,9.186352,0.9395148,25.3831372952,31.5007227928,24,5,7.344,141.7192118841,19.68504,9.171454,25.3831372952,0.671082,-0.671082,0,317.2, 7.8, 1.7,0,0,1024,1024,1024,1024,0,0,0,0,324.3,0,0,27,3.679,3.672,0,0,0,0,4.936,91.4,141.0630438841,19.028872,6,P-GPS,
12200,2022-08-12 02:38:13,-34.9063879399491,-56.1631355219889,19.028872,19.2913392,121.7717046841,141.0630438841,9.186352,0.8052984,25.5935375644,31.7160115136,24,5,7.346,141.7192118841,19.68504,9.171454,25.5935375644,0.671082,-0.447388,0,317.1, 5.6, 2,0,0,1024,1024,1024,1024,0,0,0,0,324.3,0,0,27,3.679,3.674,0,0,0,0,4.797,91.4,141.0630438841,19.028872,6,P-GPS,
12300,2022-08-12 02:38:14,-34.9063869047375,-56.1631360691709,19.028872,19.2913392,121.7717046841,141.0630438841,9.186352,0.6263432,25.9634522744,32.1276585084,24,5,7.346,141.7192118841,19.68504,9.171454,25.9634522744,0.447388,-0.447388,0,317.2, 4.4, 2,0,0,1024,1024,1024,1024,0,0,0,0,324.3,0,0,27,3.679,3.674,0,0,0,0,4.797,91.4,141.0630438841,19.028872,6,P-GPS,
12400,2022-08-12 02:38:14,-34.9063867024196,-56.1631362542497,19.028872,19.2913392,121.7717046841,141.0630438841,9.186352,0.3131716,26.0535769492,32.2199485376,24,5,7.346,141.7192118841,19.68504,9.171454,26.0535769492,0.223694,-0.223694,0,317, 3.4, 1.6,0,0,1024,1024,1024,1024,0,0,0,0,324.3,0,0,27,3.679,3.674,0,0,0,0,4.797,91.4,141.0630438841,19.028872,6,P-GPS,
12500,2022-08-12 02:38:14,-34.906386758627,-56.1631363312396,19.028872,19.2913392,121.7717046841,141.0630438841,9.186352,0.223694,26.0576451908,32.2507884336,24,5,7.346,141.7192118841,19.68504,9.171454,26.0576451908,0,-0.223694,0,317, 2.7, 2,0,0,1024,1024,1024,1024,0,0,0,0,324.3,0,0,27,3.679,3.674,0,0,0,0,4.797,91.4,141.0630438841,19.028872,6,P-GPS,
12600,2022-08-12 02:38:14,-34.9063868618898,-56.163136353762,19.028872,19.2913392,121.7717046841,141.0630438841,9.186352,0,26.0381898096,32.2890758364,24,5,7.346,141.7192118841,19.68504,9.171454,26.0576451908,0,0,0,317, 2.1, 1.9,0,0,1024,1024,1024,1024,0,0,0,0,324.3,0,0,27,3.679,3.674,0,0,0,0,4.797,91.4,141.0630438841,19.028872,6,P-GPS,
12700,2022-08-12 02:38:14,-34.9063870034212,-56.1631363438066,19.356956,19.6194232,121.7717046841,141.3911278841,9.186352,0,26.0023302284,32.3407818748,24,5,7.346,141.7192118841,19.68504,9.171454,26.0576451908,0,0,0,316.9, 1.1, 1.7,0,0,1024,1024,1024,1024,0,0,0,0,324.3,0,0,27,3.679,3.674,0,0,0,0,4.797,91.4,141.3911278841,19.356956,6,P-GPS,
12800,2022-08-12 02:38:14,-34.9063876343846,-56.1631361366128,19.356956,19.6194232,121.7717046841,141.3911278841,9.186352,0,25.8059063376,32.5792005176,24,5,7.346,141.7192118841,19.68504,9.171454,26.0576451908,0,0,0,316.9, 0.3, 1.5,0,0,1024,1024,1024,1024,0,0,0,0,324.3,0,0,27,3.679,3.674,0,0,0,0,4.797,91.4,141.3911278841,19.356956,6,P-GPS,
12900,2022-08-12 02:38:14,-34.90638787572,-56.1631359674753,19.356956,19.6194232,121.7717046841,141.3911278841,9.186352,0,25.7104010852,32.6807425156,24,5,7.346,141.7192118841,19.68504,9.171454,26.0576451908,0,0,0,316.9, 0.2, 1.3,0,0,1024,1024,1024,1024,0,0,0,0,324.3,0,0,27,3.679,3.674,0,0,0,0,4.797,91.4,141.3911278841,19.356956,6,P-GPS,
13000,2022-08-12 02:38:14,-34.9063881009924,-56.1631357985258,19.356956,19.6194232,121.7717046841,141.3911278841,9.186352,0,25.618767224,32.7772648284,23,5,7.346,141.7192118841,19.68504,9.171454,26.0576451908,0,0,0,316.8, -0.3, 1.5,0,0,1024,1024,1024,1024,0,0,0,0,324.3,0,0,27,3.679,3.674,0,0,0,0,4.797,91.4,141.3911278841,19.356956,6,P-GPS,
13100,2022-08-12 02:38:14,-34.906388284391,-56.1631356343294,19.356956,19.6194232,121.7717046841,141.3911278841,9.186352,0,25.5380913684,32.860237272,23,5,7.346,141.7192118841,19.68504,9.171454,26.0576451908,0,0,0,316.8, -0.6, 1.6,0,0,1024,1024,1024,1024,0,0,0,0,324.3,0,0,27,3.679,3.674,0,0,0,0,4.797,91.4,141.3911278841,19.356956,6,P-GPS,
13200,2022-08-12 02:38:14,-34.9063886551031,-56.1631352125564,19.356956,19.6194232,121.7717046841,141.3911278841,9.186352,0,25.3544299452,33.045276648,23,5,7.346,141.7192118841,19.68504,9.171454,26.0576451908,0,0,0,316.9, -0.6, 1.4,0,0,1024,1024,1024,1024,0,0,0,0,324.3,0,0,27,3.676,3.67,0,0,0,0,4.669,91.4,141.3911278841,19.356956,6,P-GPS,
13300,2022-08-12 02:38:15,-34.906388722664,-56.1631351685666,19.356956,19.6194232,121.7717046841,141.3911278841,9.186352,0,25.3285113092,33.073163788,23,5,7.346,141.7192118841,19.68504,9.171454,26.0576451908,0,0,0,317, -0.6, 1.5,0,0,1024,1024,1024,1024,0,0,0,0,324.3,0,0,27,3.676,3.67,0,0,0,0,4.669,91.4,141.3911278841,19.356956,6,P-GPS,
13400,2022-08-12 02:38:15,-34.9063887788909,-56.1631351432237,19.356956,19.6194232,121.7717046841,141.3911278841,9.186352,0,25.3095152456,33.095145416,23,5,7.346,141.7192118841,19.68504,9.171454,26.0576451908,0,0,0,317.1, -0.5, 1.8,0,0,1024,1024,1024,1024,0,0,0,0,324.3,0,0,27,3.676,3.67,0,0,0,0,4.669,91.4,141.3911278841,19.356956,6,P-GPS,
13500,2022-08-12 02:38:15,-34.9063888096163,-56.1631351574308,19.356956,19.6194232,121.7717046841,141.3911278841,9.186352,0,25.3055782376,33.10695644,23,5,7.346,141.7192118841,19.68504,9.171454,26.0576451908,0,0,0,317.1, -0.1, 2,0,0,1024,1024,1024,1024,0,0,0,0,324.3,0,0,27,3.676,3.67,0,0,0,0,4.669,91.4,141.3911278841,19.356956,6,P-GPS,
13600,2022-08-12 02:38:15,-34.9063885249904,-56.1631355057761,19.356956,19.6522316,121.7388962841,141.3911278841,9.186352,0,25.4521661688,33.254266156,23,5,7.346,141.7192118841,19.68504,9.171454,26.0576451908,0,0,0,317, 0.2, 1.7,0,0,1024,1024,1024,1024,0,0,0,0,324.3,0,0,27,3.676,3.67,0,0,0,0,4.669,91.4,141.3911278841,19.356956,6,P-GPS,
13700,2022-08-12 02:38:15,-34.9063885533318,-56.1631355601496,19.356956,19.6522316,121.7388962841,141.3911278841,9.186352,0,25.458006064,33.273295028,23,5,7.346,141.7192118841,19.68504,9.171454,26.0576451908,0,0,0,317, 0.4, 1.4,0,0,1024,1024,1031,1024,0,0,1,0,324.3,0,0,27,3.676,3.67,0,0,0,0,4.669,91.4,141.3911278841,19.356956,6,P-GPS,
13800,2022-08-12 02:38:15,-34.9063885902552,-56.1631355867357,19.028872,19.3241476,121.7388962841,141.0630438841,9.186352,0,25.4554470088,33.28904306,23,5,7.346,141.7192118841,19.68504,9.171454,26.0576451908,0,0,0,316.9, 0.4, 1.2,0,0,1024,1024,1086,1024,0,0,9,0,324.3,0,0,27,3.676,3.67,0,0,0,0,4.669,91.4,141.0630438841,19.028872,6,P-GPS,
13900,2022-08-12 02:38:15,-34.9063886539436,-56.1631355612256,19.028872,19.3241476,121.7388962841,141.0630438841,9.186352,0,25.4346792916,33.31364936,23,5,7.346,141.7192118841,19.68504,9.171454,26.0576451908,0,0,0,317.1, -0.3, 1,0,0,1024,1024,1045,1024,0,0,3,0,324.3,0,0,27,3.676,3.67,0,0,0,0,4.669,91.4,141.0630438841,19.028872,6,P-GPS,
14000,2022-08-12 02:38:15,-34.9063886063247,-56.1631358261252,19.028872,19.3241476,121.7388962841,141.0630438841,9.186352,0,25.5066937296,33.394686108,23,5,7.346,141.7192118841,19.68504,9.171454,26.0576451908,0,0,0,317.1, -0.9, 1.3,0,0,1433,1024,1024,1024,62,0,0,0,324.3,0,0,27,3.676,3.67,0,0,0,0,4.669,91.4,141.0630438841,19.028872,6,P-GPS,
14100,2022-08-12 02:38:15,-34.9063887422574,-56.1631357626216,19.028872,19.3241476,121.7388962841,141.0630438841,9.186352,0,25.4603682688,33.447835716,23,5,7.346,141.7192118841,19.68504,9.171454,26.0576451908,0,0,0,317.1, -1.5, 0.9,0,0,1684,1024,1024,1024,100,0,0,0,324.3,0,0,27,3.676,3.67,0,0,0,0,4.669,91.4,141.0630438841,19.028872,6,P-GPS,
14200,2022-08-12 02:38:15,-34.9063888798349,-56.1631357018027,19.028872,19.3241476,121.7388962841,141.0630438841,9.186352,0,25.4143052752,33.501313408,23,5,7.347,141.7192118841,19.68504,9.171454,26.0576451908,0,0,0,316.9, -7.4, 1.4,0,0,1684,1024,1024,1024,100,0,0,0,324.3,0,0,27,3.674,3.668,0,0,0,0,4.627,91.4,141.0630438841,19.028872,6,P-GPS,
14300,2022-08-12 02:38:16,-34.9063890048896,-56.1631356853914,19.028872,19.3241476,121.7388962841,141.0630438841,9.186352,0,25.38139845,33.547245168,23,5,7.347,141.7192118841,19.68504,9.171454,26.0576451908,0,0,0,316.8, -18.4, 0.9,0,0,1684,1024,1024,1024,100,0,0,0,324.3,0,0,27,3.674,3.668,0,0,0,0,4.627,91.4,141.0630438841,19.028872,6,P-GPS,
14400,2022-08-12 02:38:16,-34.9063889876118,-56.1631358399562,19.028872,19.3241476,121.7388962841,141.0630438841,9.186352,0.8052984,25.4210638056,33.593833096,23,5,7.347,141.7192118841,19.68504,9.171454,26.0576451908,0.671082,-0.447388,0,316.8, -22.1, 0.9,0,0,1684,1024,1024,1024,100,0,0,0,324.3,0,0,27,3.674,3.668,0,0,0,0,4.627,91.4,141.0630438841,19.028872,6,P-GPS,
14500,2022-08-12 02:38:16,-34.9063890438778,-56.1631361690698,19.028872,19.3241476,121.7388962841,141.0630438841,9.186352,1.5882274,25.4840559336,33.6942268,23,5,7.347,141.7192118841,19.68504,9.171454,26.0576451908,1.11847,-1.11847,0,316.9, -22.2, 1.1,0,0,1684,1024,1024,1024,100,0,0,0,324.3,0,0,27,3.674,3.668,0,0,0,0,4.627,91.4,141.0630438841,19.028872,6,P-GPS,
14600,2022-08-12 02:38:16,-34.9063885994396,-56.1631368222827,19.028872,19.356956,121.7060878841,141.0630438841,9.186352,2.5277422,25.738025758,33.948163816,23,5,7.347,141.7192118841,19.68504,9.171454,26.0576451908,1.789552,-1.789552,0,316.8, -21.2, 1,0,0,1684,1024,1024,1024,100,0,0,0,324.3,0,0,27,3.674,3.668,0,0,0,0,4.627,91.4,141.0630438841,19.028872,6,P-GPS,
14700,2022-08-12 02:38:16,-34.9063878912195,-56.1631377507162,19.028872,19.356956,121.7060878841,141.0630438841,13.451444,3.1540854,26.1167003108,34.327757004,23,5,7.347,141.7192118841,19.68504,9.171454,26.1167003108,2.23694,-2.23694,0,316.8, -20.9, 1.7,0,0,1684,1024,1024,1024,100,0,0,0,324.3,0,0,27,3.674,3.668,0,0,0,0,4.627,91.4,141.0630438841,19.028872,6,P-GPS,
14800,2022-08-12 02:38:16,-34.906387013752,-56.1631389023578,19.028872,19.3897644,121.6732794841,141.0630438841,13.451444,3.1540854,26.5861885148,34.797901376,23,5,7.347,141.7192118841,19.68504,9.171454,26.5861885148,2.684328,-2.908022,0,316.8, -20.9, 1.4,0,0,1684,1024,1024,1024,100,0,0,0,324.3,0,0,27,3.674,3.668,0,0,0,0,4.627,91.4,141.0630438841,19.028872,6,P-GPS,
14900,2022-08-12 02:38:16,-34.9063859317943,-56.1631405046567,19.028872,19.4225728,121.6404710841,141.0630438841,13.451444,4.585727,27.2072187184,35.418964388,23,5,7.347,141.7192118841,19.68504,9.171454,27.2072187184,3.35541,-3.131716,0,316.8, -20.4, 1.7,0,0,1684,1024,1024,1024,100,0,0,0,324.3,0,0,27,3.674,3.668,0,0,0,0,4.627,91.4,141.0630438841,19.028872,6,P-GPS,
15000,2022-08-12 02:38:16,-34.9063845698549,-56.1631422228688,19.028872,19.4553812,121.6076626841,141.0630438841,13.451444,5.2120702,27.9200140168,36.134187508,23,5,7.347,141.7192118841,19.68504,9.171454,27.9200140168,3.802798,-3.579104,0,316.7, -20.5, 2.1,0,0,1546,1024,1024,1024,79,0,0,0,324.3,0,0,27,3.674,3.668,0,0,0,0,4.627,91.4,141.0630438841,19.028872,6,P-GPS,
15100,2022-08-12 02:38:16,-34.9063827987657,-56.1631443029752,19.028872,19.4553812,121.6076626841,141.0630438841,8.858268,5.8607828,28.8116479036,37.031169164,23,5,7.347,141.7192118841,19.68504,9.171454,28.8116479036,4.250186,-4.026492,0,316.6, -20.6, 1.8,0,0,1312,1024,1024,1024,44,0,0,0,324.3,0,0,27,3.674,3.668,0,0,0,0,4.627,91.4,141.0630438841,19.028872,6,P-GPS,
15200,2022-08-12 02:38:16,-34.9063809549437,-56.1631464481208,19.028872,19.4881896,121.5748542841,141.0630438841,8.858268,6.487126,29.735565256,37.96095922,23,5,7.323,141.7192118841,19.68504,9.171454,29.735565256,4.697574,-4.47388,0,316.7, -16.6, 1.9,0,0,1191,1024,1024,1024,25,0,0,0,324.3,0,0,27,3.664,3.657,0,0,0,0,4.98,91.4,141.0630438841,19.028872,6,P-GPS,
15300,2022-08-12 02:38:16,-34.906378500579,-56.1631489603005,19.028872,19.5538064,121.5092374841,141.0630438841,8.858268,6.8002976,30.887632222,39.130250596,23,5,7.323,141.7192118841,19.68504,9.171454,30.887632222,4.921268,-4.697574,0,316.8, -8.5, 1.9,0,0,1132,1024,1024,1024,16,0,0,0,324.3,0,0,27,3.664,3.657,0,0,0,0,4.98,91.4,141.0630438841,19.028872,6,P-GPS,
15400,2022-08-12 02:38:17,-34.9063765182676,-56.1631512518001,18.700788,19.2585308,121.4764290841,140.7349598841,8.858268,6.8002976,31.8786755608,40.126641704,23,5,7.323,141.7192118841,19.68504,9.171454,31.8786755608,4.921268,-4.697574,0,317.1, -3, 1.9,0,0,1132,1024,1024,1024,16,0,0,0,324.3,0,0,27,3.664,3.657,0,0,0,0,4.98,91.4,140.7349598841,18.700788,6,P-GPS,
15500,2022-08-12 02:38:17,-34.9063744380672,-56.1631536798027,18.700788,19.2913392,121.4436206841,140.7349598841,8.858268,6.6437118,32.924213652,41.177494756,23,5,7.323,141.7192118841,19.68504,9.171454,32.924213652,4.697574,-4.697574,0,317.3, -0.2, 2.2,0,0,1024,1024,1024,1024,0,0,0,0,324.3,0,0,27,3.664,3.657,0,0,0,0,4.98,91.4,140.7349598841,18.700788,6,P-GPS,
15600,2022-08-12 02:38:17,-34.9063725138261,-56.1631559324209,18.700788,19.3241476,121.4108122841,140.7349598841,17.060368,6.487126,33.893373788,42.1505919,24,5,7.323,141.7192118841,19.68504,9.171454,33.893373788,4.697574,-4.47388,0,317.2, 4, 2.3,0,0,1024,1024,1024,1024,0,0,0,0,324.3,0,0,27,3.664,3.657,0,0,0,0,4.98,91.4,140.7349598841,18.700788,6,P-GPS,
15700,2022-08-12 02:38:17,-34.9063705118757,-56.163158179586,18.700788,19.356956,121.3780038841,140.7349598841,17.060368,5.5476112,34.879922376,43.143374084,24,5,7.323,141.7192118841,19.68504,9.171454,34.879922376,4.026492,-3.802798,0,317.5, 20.3, 1.8,0,0,1024,1024,1024,1024,0,0,0,0,324.3,0,0,27,3.664,3.657,0,0,0,0,4.98,91.4,140.7349598841,18.700788,6,P-GPS,
15800,2022-08-12 02:38:17,-34.9063689912217,-56.1631599984073,18.372704,19.028872,121.3780038841,140.4068758841,17.060368,4.585727,35.654856784,43.92060508,24,5,7.323,141.7192118841,19.68504,9.171454,35.654856784,3.35541,-3.131716,0,317.6, 20.4, 1.5,0,0,1024,1024,1024,1024,0,0,0,0,324.3,0,0,27,3.664,3.657,0,0,0,0,4.98,91.4,140.4068758841,18.372704,6,P-GPS,
15900,2022-08-12 02:38:17,-34.9063677450321,-56.1631615460924,18.372704,19.0944888,121.3123870841,140.4068758841,17.060368,3.4896264,36.302822684,44.569555232,24,5,7.323,141.7192118841,19.68504,9.171454,36.302822684,2.460634,-2.460634,0,317.5, 19, 2,0,0,1024,1024,1024,977,0,0,0,-7,324.3,0,0,27,3.664,3.657,0,0,0,0,4.98,91.4,140.4068758841,18.372704,6,P-GPS,
16000,2022-08-12 02:38:17,-34.9063668799571,-56.1631627168927,18.372704,19.0944888,121.3123870841,140.4068758841,17.388452,2.684328,36.774279392,45.04101194,23,5,7.323,141.7192118841,19.68504,9.171454,36.774279392,1.789552,-2.013246,0,317.5, 16.4, 2.8,0,0,1024,1024,1024,364,0,0,0,-100,324.3,0,0,27,3.664,3.657,0,0,0,0,4.98,91.4,140.4068758841,18.372704,6,P-GPS,
16100,2022-08-12 02:38:17,-34.9063663284356,-56.1631636338561,18.372704,19.1272972,121.2795786841,140.4068758841,17.388452,1.901399,37.113190164,45.381235048,23,5,7.323,141.7192118841,19.68504,9.171454,37.113190164,1.342164,-1.342164,0,317.2, 13.1, 2.8,0,0,1024,1024,1024,364,0,0,0,-100,323.7,0,0,27,3.664,3.657,0,0,0,0,4.98,91.4,140.4068758841,18.372704,6,P-GPS,
16200,2022-08-12 02:38:17,-34.9063663334773,-56.1631641567502,18.700788,19.4553812,121.2795786841,140.7349598841,17.388452,1.5882274,37.229659984,45.537731116,24,5,7.342,141.7192118841,19.68504,9.171454,37.229659984,1.11847,-1.11847,0,315.3, 9.8, 2,0,0,1024,1024,1024,364,0,0,0,-100,320.1,0,0,27,3.671,3.661,0,0,0,0,4.93,91.4,140.7349598841,18.700788,6,P-GPS,
16300,2022-08-12 02:38:17,-34.9063660865596,-56.163164565037,18.700788,19.4881896,121.2467702841,140.7349598841,17.388452,1.11847,37.381234792,45.689634008,24,5,7.342,141.7192118841,19.68504,9.171454,37.381234792,0.894776,-0.671082,0,311.3, 7.7, 1,0,0,1024,1024,1024,364,0,0,0,-100,315.5,0,0,27,3.671,3.661,0,0,0,0,4.93,91.4,140.7349598841,18.700788,6,P-GPS,
16400,2022-08-12 02:38:18,-34.906366011078,-56.1631647716562,18.700788,19.4881896,121.2467702841,140.7349598841,17.388452,0.8052984,37.44586734,45.757219312,23,5,7.342,141.7192118841,19.68504,9.171454,37.44586734,0.447388,-0.671082,0,306.6, 5.8, -0.2,0,0,1024,1024,1024,364,0,0,0,-100,310.7,0,0,27,3.671,3.661,0,0,0,0,4.93,91.4,140.7349598841,18.700788,6,P-GPS,
16500,2022-08-12 02:38:18,-34.906366139015,-56.1631647999868,18.700788,19.4881896,121.2467702841,140.7349598841,17.388452,0.6263432,37.421589124,45.804791492,23,5,7.342,141.7192118841,19.68504,9.171454,37.44586734,0.447388,-0.447388,0,301.7, 4.4, -0.2,0,0,1024,1024,1024,364,0,0,0,-100,305.9,0,0,27,3.671,3.661,0,0,0,0,4.93,91.4,140.7349598841,18.700788,6,P-GPS,
16600,2022-08-12 02:38:18,-34.9063670067477,-56.1631643127671,18.700788,19.4553812,121.2795786841,140.7349598841,17.388452,0.3131716,37.104331896,46.1532167,24,5,7.342,141.7192118841,19.68504,9.171454,37.44586734,0.223694,-0.223694,0,297.1, 3, -0.2,0,0,1024,1024,1024,364,0,0,0,-100,301.1,0,0,27,3.671,3.661,0,0,0,0,4.93,91.4,140.7349598841,18.700788,6,P-GPS,
