time(millisecond),datetime(utc),latitude,longitude,height_above_takeoff(feet),height_above_ground_at_drone_location(feet),ground_elevation_at_drone_location(feet),altitude_above_seaLevel(feet),height_sonar(feet),speed(mph),distance(feet),mileage(feet),satellites,gpslevel,voltage(v),max_altitude(feet),max_ascent(feet),max_speed(mph),max_distance(feet), xSpeed(mph), ySpeed(mph), zSpeed(mph), compass_heading(degrees), pitch(degrees), roll(degrees),isPhoto,isVideo,rc_elevator,rc_aileron,rc_throttle,rc_rudder,rc_elevator(percent),rc_aileron(percent),rc_throttle(percent),rc_rudder(percent),gimbal_heading(degrees),gimbal_pitch(degrees),gimbal_roll(degrees),battery_percent,voltageCell1,voltageCell2,voltageCell3,voltageCell4,voltageCell5,voltageCell6,current(A),battery_temperature(f),altitude(feet),ascent(feet),flycStateRaw,flycState,message
150900,2022-08-30 05:06:46,0,0,0,,,3.28084E-5,0.328084,0,0,0,0,0,0,3.28084E-5,0,0,0,0,0,0,209, 2.8, -0.1,0,0,1024,1024,1024,1024,0,0,0,0,209,0,0,92,4.251,4.244,0,0,0,0,0,82.58,3.28084E-5,0,41,Motors_Started,"Setting new Return-To-Home altitude to 60m (197 ft). Data Recorder File Index is 34. Setting new Maximum Flight Altitude to 30m (98 ft) Sin tarjeta SD. Inserta una tarjeta (Code: 10022)"
151000,2022-08-30 05:06:46,0,0,0,,,3.28084E-5,0.328084,0,0,0,0,0,0,3.28084E-5,0,0,0,0,0,0,209, 2.8, -0.1,0,0,364,455,364,1684,-100,-86,-100,100,209,0,0,92,4.251,4.244,0,0,0,0,0,82.58,3.28084E-5,0,41,Motors_Started,
151100,2022-08-30 05:06:46,0,0,0,,,3.28084E-5,0.328084,0,0,0,0,0,0,3.28084E-5,0,0,0,0,0,0,209, 2.8, -0.1,0,0,364,494,364,1684,-100,-80,-100,100,209,0,0,92,4.251,4.244,0,0,0,0,0,82.58,3.28084E-5,0,41,Motors_Started,
151200,2022-08-30 05:06:46,0,0,0,,,3.28084E-5,0.328084,0,0,0,0,0,8.5,3.28084E-5,0,0,0,0,0,0,209, 2.8, -0.1,0,0,1024,1024,1024,1024,0,0,0,0,209,0,0,92,4.251,4.244,0,0,0,0,0.552,82.58,3.28084E-5,0,41,Motors_Started,
151300,2022-08-30 05:06:46,0,0,0,,,3.28084E-5,0.328084,0,0,0,0,0,8.5,3.28084E-5,0,0,0,0,0,0,209, 2.8, -0.1,0,0,1024,1024,1024,1024,0,0,0,0,209,0,0,92,4.251,4.244,0,0,0,0,0.552,82.58,3.28084E-5,0,41,Motors_Started,
151400,2022-08-30 05:06:46,0,0,0,,,3.28084E-5,0.328084,0,0,0,0,0,8.5,3.28084E-5,0,0,0,0,0,0,209, 2.8, -0.1,0,0,1024,1024,1024,1024,0,0,0,0,209,0,0,92,4.251,4.244,0,0,0,0,0.552,82.58,3.28084E-5,0,41,Motors_Started,
151500,2022-08-30 05:06:46,0,0,0,,,3.28084E-5,0.328084,0,0,0,0,0,8.5,3.28084E-5,0,0,0,0,0,0,209.1, 2.8, -0.1,0,0,1024,1024,1024,1024,0,0,0,0,209,0,0,92,4.251,4.244,0,0,0,0,0.552,82.58,3.28084E-5,0,41,Motors_Started,
151600,2022-08-30 05:06:46,0,0,0,,,3.28084E-5,0.328084,0,0,0,0,0,8.5,3.28084E-5,0,0,0,0,0,0,209, 2.8, -0.1,0,0,1024,1024,1024,1024,0,0,0,0,209,0,0,92,4.251,4.244,0,0,0,0,0.552,82.58,3.28084E-5,0,41,Motors_Started,
151700,2022-08-30 05:06:47,0,0,0,,,3.28084E-5,0.328084,0,0,0,0,0,8.5,3.28084E-5,0,0,0,0,0,0,209, 2.8, -0.1,0,0,1024,1024,1024,1024,0,0,0,0,209,0,0,92,4.251,4.244,0,0,0,0,0.552,82.58,3.28084E-5,0,41,Motors_Started,
151800,2022-08-30 05:06:47,0,0,0,,,3.28084E-5,0.328084,0,0,0,0,0,8.5,3.28084E-5,0,0,0,0,0,0,209.1, 2.8, -0.1,0,0,1024,1024,1024,1024,0,0,0,0,209,0,0,92,4.251,4.244,0,0,0,0,0.552,82.58,3.28084E-5,0,41,Motors_Started,
151900,2022-08-30 05:06:47,0,0,0,,,3.28084E-5,0.328084,0,0,0,0,0,8.5,3.28084E-5,0,0,0,0,0,0,209, 2.8, -0.1,0,0,1024,1024,1024,1024,0,0,0,0,209,0,0,92,4.251,4.244,0,0,0,0,0.552,82.58,3.28084E-5,0,41,Motors_Started,
152000,2022-08-30 05:06:47,0,0,0,,,3.28084E-5,0.328084,0,0,0,0,0,8.5,3.28084E-5,0,0,0,0,0,0,209, 2.8, -0.1,0,0,1024,1024,1024,1024,0,0,0,0,209,0,0,92,4.251,4.244,0,0,0,0,0.552,82.58,3.28084E-5,0,10,Assisted_Takeoff,
152100,2022-08-30 05:06:47,0,0,0,,,3.28084E-5,0.328084,0,0,0,0,0,8.5,3.28084E-5,0,0,0,0,0,0,209, 2.8, -0.1,0,0,1024,1024,1024,1024,0,0,0,0,209,0,0,92,4.251,4.244,0,0,0,0,0.552,82.58,3.28084E-5,0,10,Assisted_Takeoff,
152200,2022-08-30 05:06:47,0,0,0,,,3.28084E-5,0.328084,0,0,0,0,0,8.468,3.28084E-5,0,0,0,0,0,0,209.1, 2.8, -0.1,0,0,1024,1024,1024,1024,0,0,0,0,209,0,0,92,4.231,4.228,0,0,0,0,1.162,82.58,3.28084E-5,0,10,Assisted_Takeoff,
152300,2022-08-30 05:06:47,0,0,0,,,3.28084E-5,0.328084,0,0,0,0,0,8.468,3.28084E-5,0,0,0,0,0,0,209.1, 2.8, -0.1,0,0,1024,1024,1024,1024,0,0,0,0,209.1,0,0,92,4.231,4.228,0,0,0,0,1.162,82.58,3.28084E-5,0,10,Assisted_Takeoff,
152400,2022-08-30 05:06:47,0,0,0,,,3.28084E-5,0.328084,0,0,0,0,0,8.468,3.28084E-5,0,0,0,0,0,0,209.1, 2.8, -0.1,0,0,1024,1024,1024,1024,0,0,0,0,209.1,0,0,92,4.231,4.228,0,0,0,0,1.162,82.58,3.28084E-5,0,10,Assisted_Takeoff,
152500,2022-08-30 05:06:47,0,0,0,,,3.28084E-5,0.328084,0,0,0,0,0,8.468,3.28084E-5,0,0,0,0,0,0,209.2, 2.8, -0.1,0,0,1024,1024,1024,1024,0,0,0,0,209.1,0,0,92,4.231,4.228,0,0,0,0,1.162,82.58,3.28084E-5,0,10,Assisted_Takeoff,
152600,2022-08-30 05:06:47,0,0,0,,,3.28084E-5,0.328084,0,0,0,0,0,8.468,3.28084E-5,0,0,0,0,0,0,209.4, 2.8, -0.1,0,0,1024,1024,1024,1024,0,0,0,0,209.2,0,0,92,4.231,4.228,0,0,0,0,1.162,82.58,3.28084E-5,0,10,Assisted_Takeoff,
152700,2022-08-30 05:06:48,0,0,0,,,3.28084E-5,0.328084,0,0,0,0,0,8.468,3.28084E-5,0,0,0,0,0,0,209.4, 2.8, -0.1,0,0,1024,1024,1024,1024,0,0,0,0,209.2,0,0,92,4.231,4.228,0,0,0,0,1.162,82.58,3.28084E-5,0,10,Assisted_Takeoff,
152800,2022-08-30 05:06:48,0,0,0,,,3.28084E-5,0.328084,0,0,0,0,0,8.468,3.28084E-5,0,0,0,0,0,0,209.4, 2.8, -0.1,0,0,1024,1024,1024,1024,0,0,0,0,209.3,0,0,92,4.231,4.228,0,0,0,0,1.162,82.58,3.28084E-5,0,10,Assisted_Takeoff,
152900,2022-08-30 05:06:48,0,0,0,,,3.28084E-5,0.328084,0,0,0,0,0,8.468,3.28084E-5,0,0,0,0,0,0,209.5, 2.8, -0.1,0,0,1024,1024,1024,1024,0,0,0,0,209.3,0,0,92,4.231,4.228,0,0,0,0,1.162,82.58,3.28084E-5,0,10,Assisted_Takeoff,
153000,2022-08-30 05:06:48,0,0,0,,,3.28084E-5,0.328084,0,0,0,0,0,8.468,3.28084E-5,0,0,0,0,0,0,209.5, 2.8, -0.1,0,0,1024,1024,1024,1024,0,0,0,0,209.4,0,0,92,4.231,4.228,0,0,0,0,1.162,82.58,3.28084E-5,0,10,Assisted_Takeoff,
153100,2022-08-30 05:06:48,0,0,0,,,3.28084E-5,0.328084,0,0,0,0,0,8.468,3.28084E-5,0,0,0,0,0,0,209.6, 2.8, -0.1,0,0,1024,1024,1024,1024,0,0,0,0,209.4,0,0,92,4.231,4.228,0,0,0,0,1.162,82.58,3.28084E-5,0,10,Assisted_Takeoff,
153200,2022-08-30 05:06:48,0,0,0,,,3.28084E-5,0.328084,0,0,0,0,0,8.478,3.28084E-5,0,0,0,0,0,0,209.7, 2.8, -0.1,0,0,1024,1024,1024,1024,0,0,0,0,209.5,0,0,92,4.242,4.239,0,0,0,0,1.267,82.58,3.28084E-5,0,10,Assisted_Takeoff,
153300,2022-08-30 05:06:48,0,0,0,,,3.28084E-5,0.328084,0,0,0,0,0,8.478,3.28084E-5,0,0,0,0,0,0,209.8, 2.8, -0.1,0,0,1024,1024,1024,1024,0,0,0,0,209.6,0,0,92,4.242,4.239,0,0,0,0,1.267,82.58,3.28084E-5,0,10,Assisted_Takeoff,
153400,2022-08-30 05:06:48,0,0,0,,,3.28084E-5,0.328084,0,0,0,0,0,8.478,3.28084E-5,0,0,0,0,0,0,209.8, 2.8, -0.1,0,0,1024,1024,1024,826,0,0,0,-30,209.6,0,0,92,4.242,4.239,0,0,0,0,1.267,82.58,3.28084E-5,0,10,Assisted_Takeoff,
153500,2022-08-30 05:06:48,0,0,0,,,3.28084E-5,0.328084,0,0,0,0,0,8.478,3.28084E-5,0,0,0,0,0,0,209.9, 2.8, -0.1,0,0,1024,1024,1024,364,0,0,0,-100,209.7,0,0,92,4.242,4.239,0,0,0,0,1.267,82.58,3.28084E-5,0,10,Assisted_Takeoff,
153600,2022-08-30 05:06:49,0,0,0,,,3.28084E-5,0.328084,0,0,0,0,0,8.478,3.28084E-5,0,0,0,0,0,0,210, 2.8, -0.1,0,0,1024,1024,1024,364,0,0,0,-100,209.8,0,0,92,4.242,4.239,0,0,0,0,1.267,82.58,3.28084E-5,0,10,Assisted_Takeoff,
153700,2022-08-30 05:06:49,0,0,0,,,3.28084E-5,0.328084,0,0,0,0,0,8.478,3.28084E-5,0,0,0,0,0,0,210, 2.8, -0.1,0,0,1024,1024,1024,364,0,0,0,-100,209.9,0,0,92,4.242,4.239,0,0,0,0,1.267,82.58,3.28084E-5,0,10,Assisted_Takeoff,
153800,2022-08-30 05:06:49,0,0,0,,,3.28084E-5,0.328084,0,0,0,0,0,8.478,3.28084E-5,0,0,0,0,0,0,210, 2.8, -0.1,0,0,1024,1024,1024,364,0,0,0,-100,209.9,0,0,92,4.242,4.239,0,0,0,0,1.267,82.58,3.28084E-5,0,10,Assisted_Takeoff,
153900,2022-08-30 05:06:49,0,0,0,,,3.28084E-5,0.328084,0,0,0,0,0,8.478,3.28084E-5,0,0,0,0,0,0,210, 2.8, -0.1,0,0,1024,1024,1024,364,0,0,0,-100,209.9,0,0,92,4.242,4.239,0,0,0,0,1.267,82.58,3.28084E-5,0,10,Assisted_Takeoff,
154000,2022-08-30 05:06:49,0,0,0,,,3.28084E-5,0.328084,0,0,0,0,0,8.478,3.28084E-5,0,0,0,0,0,0,210, 2.8, -0.1,0,0,1024,1024,1024,364,0,0,0,-100,209.9,0,0,92,4.242,4.239,0,0,0,0,1.267,82.58,3.28084E-5,0,10,Assisted_Takeoff,
154100,2022-08-30 05:06:49,0,0,0,,,3.28084E-5,0.328084,0,0,0,0,0,8.478,3.28084E-5,0,0,0,0,0,0,209.9, 2.8, -0.1,0,0,1024,1024,1024,364,0,0,0,-100,209.9,0,0,92,4.242,4.239,0,0,0,0,1.267,82.58,3.28084E-5,0,10,Assisted_Takeoff,
154200,2022-08-30 05:06:49,0,0,0,,,3.28084E-5,0.328084,0,0,0,0,0,8.478,3.28084E-5,0,0,0,0,0,0,210, 2.8, -0.1,0,0,1024,1024,1024,364,0,0,0,-100,210,0,0,92,4.242,4.239,0,0,0,0,1.267,82.58,3.28084E-5,0,10,Assisted_Takeoff,
154300,2022-08-30 05:06:49,0,0,0,,,3.28084E-5,0.328084,0,0,0,0,0,8.481,3.28084E-5,0,0,0,0,0,0,210, 2.8, -0.1,0,0,1024,1024,1024,364,0,0,0,-100,210,0,0,91,4.241,4.239,0,0,0,0,1.069,82.58,3.28084E-5,0,10,Assisted_Takeoff,
154400,2022-08-30 05:06:49,0,0,0,,,3.28084E-5,0.328084,0,0,0,0,0,8.481,3.28084E-5,0,0,0,0,0,0,210, 2.8, -0.1,0,0,1024,1024,1024,364,0,0,0,-100,210,0,0,91,4.241,4.239,0,0,0,0,1.069,82.58,3.28084E-5,0,10,Assisted_Takeoff,
154500,2022-08-30 05:06:49,0,0,0,,,3.28084E-5,0.328084,0,0,0,0,0,8.481,3.28084E-5,0,0,0,0,0,0,210, 2.8, -0.1,0,0,1024,1024,1024,364,0,0,0,-100,210,0,0,91,4.241,4.239,0,0,0,0,1.069,82.58,3.28084E-5,0,10,Assisted_Takeoff,
154600,2022-08-30 05:06:49,0,0,0,,,3.28084E-5,0.328084,0,0,0,0,0,8.481,3.28084E-5,0,0,0,0,0,0,210, 2.8, -0.1,0,0,1024,1024,1024,364,0,0,0,-100,210,0,0,91,4.241,4.239,0,0,0,0,1.069,82.58,3.28084E-5,0,10,Assisted_Takeoff,
154700,2022-08-30 05:06:50,0,0,0,,,3.28084E-5,0.328084,0,0,0,0,0,8.481,3.28084E-5,0,0,0,0,0,0,210, 2.8, -0.1,0,0,1024,1024,1024,364,0,0,0,-100,210,0,0,91,4.241,4.239,0,0,0,0,1.069,82.58,3.28084E-5,0,10,Assisted_Takeoff,
154800,2022-08-30 05:06:50,0,0,0,,,3.28084E-5,0.328084,0,0,0,0,0,8.481,3.28084E-5,0,0,0,0,0,0,210, 2.8, -0.1,0,0,1024,1024,1024,364,0,0,0,-100,210,0,0,91,4.241,4.239,0,0,0,0,1.069,82.58,3.28084E-5,0,10,Assisted_Takeoff,
154900,2022-08-30 05:06:50,0,0,0,,,3.28084E-5,0.328084,0,0,0,0,0,8.481,3.28084E-5,0,0,0,0,0,0,210, 2.8, -0.1,0,0,1024,1024,1024,657,0,0,0,-56,210,0,0,91,4.241,4.239,0,0,0,0,1.069,82.58,3.28084E-5,0,10,Assisted_Takeoff,
155000,2022-08-30 05:06:50,0,0,0,,,3.28084E-5,0.328084,0,0,0,0,0,8.481,3.28084E-5,0,0,0,0,0,0,210, 2.8, -0.1,0,0,1024,1024,1024,1024,0,0,0,0,210,0,0,91,4.241,4.239,0,0,0,0,1.069,82.58,3.28084E-5,0,10,Assisted_Takeoff,
155100,2022-08-30 05:06:50,0,0,0,,,3.28084E-5,0.328084,0,0,0,0,0,8.481,3.28084E-5,0,0,0,0,0,0,210, 2.8, -0.1,0,0,1024,1024,1024,1024,0,0,0,0,210,0,0,91,4.241,4.239,0,0,0,0,1.069,82.58,3.28084E-5,0,10,Assisted_Takeoff,
155200,2022-08-30 05:06:50,0,0,0,,,3.28084E-5,0.328084,0,0,0,0,0,8.481,3.28084E-5,0,0,0,0,0,0,210, 2.8, -0.1,0,0,1024,1024,1024,1024,0,0,0,0,210,0,0,91,4.241,4.239,0,0,0,0,1.069,82.58,3.28084E-5,0,10,Assisted_Takeoff,
155300,2022-08-30 05:06:50,0,0,0,,,3.28084E-5,0.328084,0,0,0,0,0,8.48,3.28084E-5,0,0,0,0,0,0,209.9, 2.8, -0.1,0,0,1024,1024,1024,1024,0,0,0,0,210,0,0,91,4.242,4.239,0,0,0,0,1.088,82.58,3.28084E-5,0,10,Assisted_Takeoff,
155400,2022-08-30 05:06:50,0,0,0,,,3.28084E-5,0.328084,0,0,0,0,0,8.48,3.28084E-5,0,0,0,0,0,0,210, 2.8, -0.1,0,0,1024,1024,1024,1024,0,0,0,0,210,0,0,91,4.242,4.239,0,0,0,0,1.088,82.58,3.28084E-5,0,10,Assisted_Takeoff,
155500,2022-08-30 05:06:50,0,0,0,,,3.28084E-5,0.328084,0,0,0,0,0,8.48,3.28084E-5,0,0,0,0,0,0,210, 2.8, 0,0,0,1024,1024,1024,1024,0,0,0,0,210,0,0,91,4.242,4.239,0,0,0,0,1.088,82.58,3.28084E-5,0,10,Assisted_Takeoff,
155600,2022-08-30 05:06:50,0,0,0,,,3.28084E-5,0.328084,0,0,0,0,0,8.48,3.28084E-5,0,0,0,0,0,0,209.9, 2.8, -0.1,0,0,1024,1024,1024,1024,0,0,0,0,210,0,0,91,4.242,4.239,0,0,0,0,1.088,82.58,3.28084E-5,0,10,Assisted_Takeoff,
155700,2022-08-30 05:06:51,0,0,0,,,3.28084E-5,0.328084,0,0,0,0,0,8.48,3.28084E-5,0,0,0,0,0,0,210, 2.8, -0.1,0,0,1024,1024,1024,1024,0,0,0,0,210,0,0,91,4.242,4.239,0,0,0,0,1.088,82.58,3.28084E-5,0,10,Assisted_Takeoff,
155800,2022-08-30 05:06:51,0,0,0,,,3.28084E-5,0.328084,0,0,0,0,0,8.48,3.28084E-5,0,0,0,0,0,0,210, 2.8, 0,0,0,1024,1024,1024,1024,0,0,0,0,210,0,0,91,4.242,4.239,0,0,0,0,1.088,82.58,3.28084E-5,0,10,Assisted_Takeoff,
155900,2022-08-30 05:06:51,0,0,0,,,3.28084E-5,0.328084,0,0,0,0,0,8.48,3.28084E-5,0,0,0,0,0,0,210, 2.8, -0.1,0,0,1024,1024,1587,1024,0,0,85,0,210,0,0,91,4.242,4.239,0,0,0,0,1.088,82.58,3.28084E-5,0,10,Assisted_Takeoff,
156000,2022-08-30 05:06:51,0,0,0,,,3.28084E-5,0.328084,0,0,0,0,0,8.48,3.28084E-5,0,0,0,0,0,0,210, 2.8, -0.1,0,0,1024,1024,1024,1024,0,0,0,0,210,0,0,91,4.242,4.239,0,0,0,0,1.088,82.58,3.28084E-5,0,10,Assisted_Takeoff,
156100,2022-08-30 05:06:51,0,0,0,,,3.28084E-5,0.328084,0,0,0,0,0,8.48,3.28084E-5,0,0,0,0,0,0,210, 2.8, -0.1,0,0,1024,1024,1024,1024,0,0,0,0,210,0,0,91,4.242,4.239,0,0,0,0,1.088,82.58,3.28084E-5,0,10,Assisted_Takeoff,
156200,2022-08-30 05:06:51,0,0,0,,,3.28084E-5,0.328084,0,0,0,0,0,8.48,3.28084E-5,0,0,0,0,0,0,209.9, 2.8, -0.1,0,0,1024,1024,1024,1024,0,0,0,0,210,0,0,91,4.242,4.239,0,0,0,0,1.088,82.58,3.28084E-5,0,10,Assisted_Takeoff,
156300,2022-08-30 05:06:51,0,0,0,,,3.28084E-5,0.328084,0,0,0,0,0,8.482,3.28084E-5,0,0,0,0,0,0,209.9, 2.8, -0.1,0,0,1024,1024,1024,1024,0,0,0,0,210,0,0,91,4.242,4.24,0,0,0,0,1.071,82.76,3.28084E-5,0,10,Assisted_Takeoff,
156400,2022-08-30 05:06:51,0,0,0,,,3.28084E-5,0.328084,0,0,0,0,0,8.482,3.28084E-5,0,0,0,0,0,0,209.8, 2.8, -0.1,0,0,1024,1024,1024,1024,0,0,0,0,210,0,0,91,4.242,4.24,0,0,0,0,1.071,82.76,3.28084E-5,0,10,Assisted_Takeoff,
156500,2022-08-30 05:06:51,0,0,0,,,3.28084E-5,0.328084,0,0,0,0,0,8.482,3.28084E-5,0,0,0,0,0,0,209.8, 2.8, 0,0,0,1024,1024,1024,1024,0,0,0,0,209.9,0,0,91,4.242,4.24,0,0,0,0,1.071,82.76,3.28084E-5,0,10,Assisted_Takeoff,
156600,2022-08-30 05:06:52,0,0,0,,,3.28084E-5,0.328084,0,0,0,0,0,8.482,3.28084E-5,0,0,0,0,0,0,209.8, 2.8, 0,0,0,1024,1024,1519,1024,0,0,75,0,209.9,0,0,91,4.242,4.24,0,0,0,0,1.071,82.76,3.28084E-5,0,10,Assisted_Takeoff,
156700,2022-08-30 05:06:52,0,0,0,,,3.28084E-5,0.328084,0,0,0,0,0,8.482,3.28084E-5,0,0,0,0,0,0,209.8, 2.8, -0.1,0,0,1024,1024,1684,1024,0,0,100,0,209.9,0,0,91,4.242,4.24,0,0,0,0,1.071,82.76,3.28084E-5,0,10,Assisted_Takeoff,
156800,2022-08-30 05:06:52,0,0,0,,,3.28084E-5,0.328084,0,0,0,0,0,8.482,3.28084E-5,0,0,0,0,0,0,209.8, 2.8, 0,0,0,1024,1024,1024,1024,0,0,0,0,209.9,0,0,91,4.242,4.24,0,0,0,0,1.071,82.76,3.28084E-5,0,10,Assisted_Takeoff,
156900,2022-08-30 05:06:52,0,0,0,,,3.28084E-5,0.328084,0,0,0,0,0,8.482,3.28084E-5,0,0,0,0,0,0,209.8, 2.8, -0.1,0,0,1024,1024,1024,1024,0,0,0,0,209.9,0,0,91,4.242,4.24,0,0,0,0,1.071,82.76,3.28084E-5,0,10,Assisted_Takeoff,
157000,2022-08-30 05:06:52,0,0,0,,,3.28084E-5,0.328084,0,0,0,0,0,8.482,3.28084E-5,0,0,0,0,0,0,209.8, 2.7, -0.1,0,0,1024,1024,1024,1024,0,0,0,0,209.8,0,0,91,4.242,4.24,0,0,0,0,1.071,82.76,3.28084E-5,0,10,Assisted_Takeoff,
157100,2022-08-30 05:06:52,0,0,0,,,3.28084E-5,0.328084,0,0,0,0,0,8.482,3.28084E-5,0,0,0,0,0,0,209.8, 2.8, -0.1,0,0,1024,1024,1024,1024,0,0,0,0,209.8,0,0,91,4.242,4.24,0,0,0,0,1.071,82.76,3.28084E-5,0,10,Assisted_Takeoff,
157200,2022-08-30 05:06:52,0,0,0,,,3.28084E-5,0.328084,0,0,0,0,0,8.482,3.28084E-5,0,0,0,0,0,0,209.8, 2.8, 0,0,0,1024,1024,1024,1024,0,0,0,0,209.8,0,0,91,4.242,4.24,0,0,0,0,1.071,82.76,3.28084E-5,0,10,Assisted_Takeoff,
157300,2022-08-30 05:06:52,0,0,0,,,3.28084E-5,0.328084,0,0,0,0,0,8.466,3.28084E-5,0,0,0,0,0,0,209.8, 2.7, 0,0,0,1024,1024,1024,1024,0,0,0,0,209.8,0,0,91,4.221,4.216,0,0,0,0,1.366,82.76,3.28084E-5,0,10,Assisted_Takeoff,
157400,2022-08-30 05:06:52,0,0,0,,,3.28084E-5,0.328084,0,0,0,0,0,8.466,3.28084E-5,0,0,0,0,0,0,209.8, 2.8, 0,0,0,1024,1024,1024,1024,0,0,0,0,209.8,0,0,91,4.221,4.216,0,0,0,0,1.366,82.76,3.28084E-5,0,10,Assisted_Takeoff,
157500,2022-08-30 05:06:52,0,0,0,,,3.28084E-5,0.328084,0,0,0,0,0,8.466,3.28084E-5,0,0,0,0,0,0,209.8, 2.7, 0,0,0,1024,1024,1684,1024,0,0,100,0,209.8,0,0,91,4.221,4.216,0,0,0,0,1.366,82.76,3.28084E-5,0,10,Assisted_Takeoff,
157600,2022-08-30 05:06:52,0,0,0,,,3.28084E-5,0.328084,0,0,0,0,0,8.466,3.28084E-5,0,0,0,0,0,0,209.7, 2.8, 0,0,0,1024,1024,1684,1024,0,0,100,0,209.8,0,0,91,4.221,4.216,0,0,0,0,1.366,82.76,3.28084E-5,0,10,Assisted_Takeoff,
157700,2022-08-30 05:06:53,0,0,0,,,3.28084E-5,0.328084,0,0,0,0,0,8.466,3.28084E-5,0,0,0,0,0,0,209.8, 2.7, 0,0,0,1024,1024,1024,1024,0,0,0,0,209.8,0,0,91,4.221,4.216,0,0,0,0,1.366,82.76,3.28084E-5,0,10,Assisted_Takeoff,
157800,2022-08-30 05:06:53,0,0,0,,,3.28084E-5,0.328084,0,0,0,0,0,8.466,3.28084E-5,0,0,0,0,0,0,209.9, 2.7, -0.1,0,0,1024,1024,1024,1024,0,0,0,0,209.8,0,0,91,4.221,4.216,0,0,0,0,1.366,82.76,3.28084E-5,0,10,Assisted_Takeoff,
157900,2022-08-30 05:06:53,0,0,0,,,3.28084E-5,0.328084,0,0,0,0,0,8.466,3.28084E-5,0,0,0,0,0,0,210, 2.7, 0,0,0,1024,1024,1024,1024,0,0,0,0,209.8,0,0,91,4.221,4.216,0,0,0,0,1.366,82.76,3.28084E-5,0,10,Assisted_Takeoff,
158000,2022-08-30 05:06:53,0,0,0,,,3.28084E-5,0.328084,0,0,0,0,0,8.466,3.28084E-5,0,0,0,0,0,0,210.3, 2.7, 0,0,0,1024,1024,1024,1024,0,0,0,0,209.9,0,0,91,4.221,4.216,0,0,0,0,1.366,82.76,3.28084E-5,0,10,Assisted_Takeoff,
158100,2022-08-30 05:06:53,0,0,0,,,3.28084E-5,0.328084,0,0,0,0,0,8.466,3.28084E-5,0,0,0,0,0,0,210.4, 2.7, 0,0,0,1024,1024,1421,1024,0,0,60,0,210,0,0,91,4.221,4.216,0,0,0,0,1.366,82.76,3.28084E-5,0,10,Assisted_Takeoff,
158200,2022-08-30 05:06:53,0,0,0,,,3.28084E-5,0.328084,0,0,0,0,0,8.466,3.28084E-5,0,0,0,0,0,0,210.4, 2.7, 0,0,0,1024,1024,1421,1024,0,0,60,0,210.1,0,0,91,4.221,4.216,0,0,0,0,1.366,82.76,3.28084E-5,0,10,Assisted_Takeoff,
158300,2022-08-30 05:06:53,0,0,0,,,3.28084E-5,0.328084,0,0,0,0,0,8.471,3.28084E-5,0,0,0,0,0,0,210.5, 2.6, 0,0,0,1024,1024,1684,1024,0,0,100,0,210.2,0,0,91,4.224,4.221,0,0,0,0,1.637,82.76,3.28084E-5,0,10,Assisted_Takeoff,
158400,2022-08-30 05:06:53,0,0,0,,,3.28084E-5,0.328084,0,0,0,0,0,8.471,3.28084E-5,0,0,0,0,0,0,210.5, 2.6, 0,0,0,1024,1024,1684,1024,0,0,100,0,210.2,0,0,91,4.224,4.221,0,0,0,0,1.637,82.76,3.28084E-5,0,10,Assisted_Takeoff,
158500,2022-08-30 05:06:53,0,0,0,,,3.28084E-5,0.328084,0,0,0,0,0,8.471,3.28084E-5,0,0,0,0,0,0,210.4, 2.4, 0,0,0,1024,1024,1684,1024,0,0,100,0,210.3,0,0,91,4.224,4.221,0,0,0,0,1.637,82.76,3.28084E-5,0,10,Assisted_Takeoff,
158600,2022-08-30 05:06:53,0,0,0,,,3.28084E-5,0.328084,0,0,0,0,0,8.471,3.28084E-5,0,0,0,0,0,0,210.5, -0.7, 0.1,0,0,1024,1024,1024,1024,0,0,0,0,210.3,0,0,91,4.224,4.221,0,0,0,0,1.637,82.76,3.28084E-5,0,10,Assisted_Takeoff,
158700,2022-08-30 05:06:54,0,0,0,,,3.28084E-5,0.328084,0,0,0,0,0,8.471,3.28084E-5,0,0,0,0,0,-0.447388,210.8, -0.9, 0.3,0,0,1024,1024,1024,1024,0,0,0,0,210.3,0,0,91,4.224,4.221,0,0,0,0,1.637,82.76,3.28084E-5,0,6,P-GPS,"Sin tarjeta SD. Inserta una tarjeta (Code: 10022)"
158800,2022-08-30 05:06:54,0,0,0,,,3.28084E-5,0.328084,0,0,0,0,0,8.471,3.28084E-5,0,0,0,0,0,-0.671082,210.6, -0.7, 0.1,0,0,1024,1024,1024,1024,0,0,0,0,210.3,0,0,91,4.224,4.221,0,0,0,0,1.637,82.76,3.28084E-5,0,6,P-GPS,
158900,2022-08-30 05:06:54,0,0,0,,,3.28084E-5,0.656168,0,0,0,0,0,8.471,3.28084E-5,0,0,0,0,0,-0.894776,210.5, -0.3, -0.5,0,0,1024,1024,1024,1024,0,0,0,0,210.3,0,0,91,4.224,4.221,0,0,0,0,1.637,82.76,3.28084E-5,0,6,P-GPS,
159000,2022-08-30 05:06:54,0,0,0.328084,,,0.3281168084,0.656168,0,0,0,0,0,8.471,0.3281168084,0.328084,0,0,0,0,-0.894776,210.4, 0.3, -0.2,0,0,1024,1024,1024,1024,0,0,0,0,210.3,0,0,91,4.224,4.221,0,0,0,0,1.637,82.76,0.3281168084,0.328084,6,P-GPS,
159100,2022-08-30 05:06:54,0,0,0.328084,,,0.3281168084,0.656168,0,0,0,0,0,8.471,0.3281168084,0.328084,0,0,0,0,-0.894776,210.4, 0.5, 0.1,0,0,1024,1024,1024,1024,0,0,0,0,210.3,0,0,91,4.224,4.221,0,0,0,0,1.637,82.76,0.3281168084,0.328084,6,P-GPS,
159200,2022-08-30 05:06:54,0,0,0.328084,,,0.3281168084,0.984252,0,0,0,0,0,8.471,0.3281168084,0.328084,0,0,0,0,-0.894776,210.4, 0.1, 0,0,0,1024,1024,1024,1024,0,0,0,0,210.3,0,0,91,4.224,4.221,0,0,0,0,1.637,82.76,0.3281168084,0.328084,6,P-GPS,
159300,2022-08-30 05:06:54,0,0,0.656168,,,0.6562008084,0.984252,0,0,0,0,0,8.43,0.6562008084,0.656168,0,0,0,0,-0.894776,210.4, 0, 0,0,0,1024,1024,1024,1024,0,0,0,0,210.3,0,0,91,4.186,4.177,0,0,0,0,2.272,82.76,0.6562008084,0.656168,6,P-GPS,
159400,2022-08-30 05:06:54,0,0,0.656168,,,0.6562008084,1.312336,0,0,0,0,0,8.43,0.6562008084,0.656168,0,0,0,0,-0.894776,210.4, 0, 0,0,0,1024,1024,1024,1024,0,0,0,0,210.3,0,0,91,4.186,4.177,0,0,0,0,2.272,82.76,0.6562008084,0.656168,6,P-GPS,
159500,2022-08-30 05:06:54,0,0,0.984252,,,0.9842848084,1.312336,0,0,0,0,0,8.43,0.9842848084,0.984252,0,0,0,0,-0.671082,210.4, -0.1, 0,0,0,1024,1024,1024,1024,0,0,0,0,210.3,0,0,91,4.186,4.177,0,0,0,0,2.272,82.76,0.9842848084,0.984252,6,P-GPS,
159600,2022-08-30 05:06:55,0,0,0.984252,,,0.9842848084,1.312336,0,0,0,0,0,8.43,0.9842848084,0.984252,0,0,0,0,-0.671082,210.3, -0.1, 0,0,0,1024,1024,1024,1024,0,0,0,0,210.3,0,0,91,4.186,4.177,0,0,0,0,2.272,82.76,0.9842848084,0.984252,6,P-GPS,"Vuela con cuidado (sin GPS) Sin tarjeta SD. Inserta una tarjeta (Code: 10022). Señal débil del GPS. Vuelo estacionario inestable. Vuela con cuidado (Code: 30002)"
159700,2022-08-30 05:06:55,0,0,0.984252,,,0.9842848084,1.312336,0,0,0,0,0,8.43,0.9842848084,0.984252,0,0,0,0,-0.447388,210.4, 0, 0,0,0,1024,1024,1024,1024,0,0,0,0,210.3,0,0,91,4.186,4.177,0,0,0,0,2.272,82.76,0.9842848084,0.984252,1,Atti,"Vuela con cuidado (modo Atti) Señal del GPS demasiado débil. Se ha pasado al modo Atti. La aeronave no puede hacer vuelo estacionario. Vuela con precaución (Code: 30022). Sin tarjeta SD. Inserta una tarjeta (Code: 10022). Señal débil del GPS. Vuelo estacionario inestable. Vuela c"
159800,2022-08-30 05:06:55,0,0,0.984252,,,0.9842848084,1.64042,0,0,0,0,0,8.43,0.9842848084,0.984252,0,0,0,0,-0.447388,210.4, 0, 0,0,0,1024,1024,1024,1016,0,0,0,-1,210.3,0,0,91,4.186,4.177,0,0,0,0,2.272,82.76,0.9842848084,0.984252,6,P-GPS,"La brújula no funciona bien el GPS no tiene buena señal. Cambia a modo Atti (Code: 30020). Aeronave en modo Atti. No se puede hacer vuelo estacionario. Vuela con cuidado (Code: 30004). Sin tarjeta SD. Inserta una tarjeta (Code: 10022)"
159900,2022-08-30 05:06:55,0,0,0.984252,,,0.9842848084,1.64042,0,0,0,0,0,8.43,0.9842848084,0.984252,0,0,0,0,-0.223694,210.4, 0, 0.1,0,0,1024,1024,1024,506,0,0,0,-78,210.3,0,0,91,4.186,4.177,0,0,0,0,2.272,82.76,0.9842848084,0.984252,6,P-GPS,
160000,2022-08-30 05:06:55,0,0,1.312336,,,1.3123688084,1.64042,0,0,0,0,0,8.43,1.3123688084,1.312336,0,0,0,0,0,210.3, 0, 0.1,0,0,1024,1024,1024,444,0,0,0,-88,210,0,0,91,4.186,4.177,0,0,0,0,2.272,82.76,1.3123688084,1.312336,6,P-GPS,
160100,2022-08-30 05:06:55,0,0,1.312336,,,1.3123688084,1.64042,0,0,0,0,0,8.43,1.3123688084,1.312336,0,0,0,0,0,209.3, 0, 0.2,0,0,1024,1024,1024,1024,0,0,0,0,207.7,0,0,91,4.186,4.177,0,0,0,0,2.272,82.76,1.3123688084,1.312336,6,P-GPS,
160200,2022-08-30 05:06:55,0,0,1.312336,,,1.3123688084,1.64042,0,0,0,0,0,8.43,1.3123688084,1.312336,0,0,0,0,0,206.3, 0, 0.1,0,0,1024,1024,1024,1024,0,0,0,0,204.2,0,0,91,4.186,4.177,0,0,0,0,2.272,82.76,1.3123688084,1.312336,6,P-GPS,
160300,2022-08-30 05:06:55,0,0,1.312336,,,1.3123688084,1.64042,0,0,0,0,0,8.36,1.3123688084,1.312336,0,0,0,0,0,203.3, 0, 0,0,0,1024,1024,1024,1024,0,0,0,0,201.9,0,0,91,4.185,4.177,0,0,0,0,4.083,82.76,1.3123688084,1.312336,6,P-GPS,
160400,2022-08-30 05:06:55,0,0,1.312336,,,1.3123688084,1.64042,0,0,0,0,0,8.36,1.3123688084,1.312336,0,0,0,0,0,201.7, 0, 0,0,0,1024,1024,1024,1024,0,0,0,0,201,0,0,91,4.185,4.177,0,0,0,0,4.083,82.76,1.3123688084,1.312336,6,P-GPS,
160500,2022-08-30 05:06:55,0,0,1.312336,,,1.3123688084,1.64042,0,0,0,0,0,8.36,1.3123688084,1.312336,0,0,0,0,0,201.2, 0, 0.1,0,0,1024,1024,1024,770,0,0,0,-38,201,0,0,91,4.185,4.177,0,0,0,0,4.083,82.76,1.3123688084,1.312336,6,P-GPS,
160600,2022-08-30 05:06:56,0,0,1.312336,,,1.3123688084,1.64042,0,0,0,0,0,8.36,1.3123688084,1.312336,0,0,0,0,0,201.1, 0, 0.2,0,0,1024,1024,1024,487,0,0,0,-81,200.8,0,0,91,4.185,4.177,0,0,0,0,4.083,82.76,1.3123688084,1.312336,6,P-GPS,
160700,2022-08-30 05:06:56,0,0,1.312336,,,1.3123688084,1.64042,0,0,0,0,0,8.36,1.3123688084,1.312336,0,0,0,0,0,200.4, 0, 0.3,0,0,1024,1024,1024,384,0,0,0,-97,199.1,0,0,91,4.185,4.177,0,0,0,0,4.083,82.76,1.3123688084,1.312336,6,P-GPS,
160800,2022-08-30 05:06:56,0,0,1.312336,,,1.3123688084,1.64042,0,0,0,0,0,8.36,1.3123688084,1.312336,0,0,0,0,0,198, 0, 0.3,0,0,1024,1024,1024,366,0,0,0,-100,195.9,0,0,91,4.185,4.177,0,0,0,0,4.083,82.76,1.3123688084,1.312336,6,P-GPS,
160900,2022-08-30 05:06:56,0,0,1.312336,,,1.3123688084,1.64042,0,0,0,0,0,8.36,1.3123688084,1.312336,0,0,0,0,0,194.4, 0, 0.2,0,0,1024,1024,1024,366,0,0,0,-100,191.5,0,0,91,4.185,4.177,0,0,0,0,4.083,82.76,1.3123688084,1.312336,6,P-GPS,
161000,2022-08-30 05:06:56,0,0,1.312336,,,1.3123688084,1.64042,0,0,0,0,0,8.36,1.3123688084,1.312336,0,0,0,0,0,189.9, 0, 0.1,0,0,1024,1024,1024,367,0,0,0,-100,186.8,0,0,91,4.185,4.177,0,0,0,0,4.083,82.76,1.3123688084,1.312336,6,P-GPS,
161100,2022-08-30 05:06:56,0,0,1.312336,,,1.3123688084,1.64042,0,0,0,0,0,8.36,1.3123688084,1.312336,0,0,0,0,0,185.3, 0, 0,0,0,1024,1024,1024,367,0,0,0,-100,182.1,0,0,91,4.185,4.177,0,0,0,0,4.083,82.76,1.3123688084,1.312336,6,P-GPS,
161200,2022-08-30 05:06:56,0,0,1.312336,,,1.3123688084,1.64042,0,0,0,0,0,8.36,1.3123688084,1.312336,0,0,0,0,0,180.6, 0, 0,0,0,1024,1024,1024,367,0,0,0,-100,177.2,0,0,91,4.185,4.177,0,0,0,0,4.083,82.76,1.3123688084,1.312336,6,P-GPS,
161300,2022-08-30 05:06:56,0,0,1.312336,,,1.3123688084,1.64042,0,0,0,0,0,8.36,1.3123688084,1.312336,0,0,0,0,0,175.8, 0, 0.1,0,0,1024,1024,1024,367,0,0,0,-100,172.4,0,0,91,4.185,4.177,0,0,0,0,4.083,82.76,1.3123688084,1.312336,6,P-GPS,
161400,2022-08-30 05:06:56,0,0,1.312336,,,1.3123688084,1.64042,0,0,0,0,0,8.35,1.3123688084,1.312336,0,0,0,0,0,171, -0.1, 0.1,0,0,1024,1024,1024,367,0,0,0,-100,167.7,0,0,91,4.178,4.17,0,0,0,0,4.005,82.76,1.3123688084,1.312336,6,P-GPS,
161500,2022-08-30 05:06:56,0,0,1.312336,,,1.3123688084,1.64042,0,0,0,0,0,8.35,1.3123688084,1.312336,0,0,0,0,0,166.2, -0.2, 0.2,0,0,1024,1024,1024,367,0,0,0,-100,162.9,0,0,91,4.178,4.17,0,0,0,0,4.005,82.76,1.3123688084,1.312336,6,P-GPS,
161600,2022-08-30 05:06:56,0,0,1.312336,,,1.3123688084,1.64042,0,0,0,0,0,8.35,1.3123688084,1.312336,0,0,0,0,0,161.4, 0, 0.2,0,0,1024,1024,1024,367,0,0,0,-100,158.1,0,0,91,4.178,4.17,0,0,0,0,4.005,82.76,1.3123688084,1.312336,6,P-GPS,
161700,2022-08-30 05:06:57,0,0,1.312336,,,1.3123688084,1.64042,0,0,0,0,0,8.35,1.3123688084,1.312336,0,0,0,0,0,156.7, 0, 0.3,0,0,1024,1024,1024,367,0,0,0,-100,153.4,0,0,91,4.178,4.17,0,0,0,0,4.005,82.76,1.3123688084,1.312336,6,P-GPS,
161800,2022-08-30 05:06:57,0,0,1.312336,,,1.3123688084,1.64042,0,0,0,0,0,8.35,1.3123688084,1.312336,0,0,0,0,0,151.9, 0.1, 0.4,0,0,1024,1024,1024,367,0,0,0,-100,148.6,0,0,91,4.178,4.17,0,0,0,0,4.005,82.76,1.3123688084,1.312336,6,P-GPS,
161900,2022-08-30 05:06:57,0,0,1.312336,,,1.3123688084,1.64042,0,0,0,0,0,8.35,1.3123688084,1.312336,0,0,0,0,0,147.1, 0.1, 0.3,0,0,1024,1024,1024,367,0,0,0,-100,143.9,0,0,91,4.178,4.17,0,0,0,0,4.005,82.76,1.3123688084,1.312336,6,P-GPS,
162000,2022-08-30 05:06:57,0,0,1.312336,,,1.3123688084,1.64042,0,0,0,0,0,8.35,1.3123688084,1.312336,0,0,0,0,0,142.4, 0.2, 0.4,0,0,1024,1024,1024,367,0,0,0,-100,139.1,0,0,91,4.178,4.17,0,0,0,0,4.005,82.76,1.3123688084,1.312336,6,P-GPS,
162100,2022-08-30 05:06:57,0,0,1.312336,,,1.3123688084,1.64042,0,0,0,0,0,8.35,1.3123688084,1.312336,0,0,0,0,0,137.6, 0.3, 0.4,0,0,1024,1024,1024,367,0,0,0,-100,134.3,0,0,91,4.178,4.17,0,0,0,0,4.005,82.76,1.3123688084,1.312336,6,P-GPS,
162200,2022-08-30 05:06:57,0,0,1.312336,,,1.3123688084,1.64042,0,0,0,0,0,8.35,1.3123688084,1.312336,0,0,0,0,0,132.9, 0.3, 0.3,0,0,1024,1024,1024,367,0,0,0,-100,129.6,0,0,91,4.178,4.17,0,0,0,0,4.005,82.76,1.3123688084,1.312336,6,P-GPS,
162300,2022-08-30 05:06:57,0,0,1.312336,,,1.3123688084,1.64042,0,0,0,0,0,8.35,1.3123688084,1.312336,0,0,0,0,0,128.1, 0.3, 0.2,0,0,1024,1024,1024,367,0,0,0,-100,124.8,0,0,91,4.178,4.17,0,0,0,0,4.005,82.76,1.3123688084,1.312336,6,P-GPS,
162400,2022-08-30 05:06:57,0,0,1.312336,,,1.3123688084,1.64042,0,0,0,0,0,8.344,1.3123688084,1.312336,0,0,0,0,0,123.4, 0.3, 0.2,0,0,1024,1024,1024,367,0,0,0,-100,120,0,0,91,4.175,4.167,0,0,0,0,4.061,82.94,1.3123688084,1.312336,6,P-GPS,
162500,2022-08-30 05:06:57,0,0,1.312336,,,1.3123688084,1.64042,0,0,0,0,0,8.344,1.3123688084,1.312336,0,0,0,0,0,118.6, 0.4, 0.1,0,0,1024,1024,1024,367,0,0,0,-100,115.3,0,0,91,4.175,4.167,0,0,0,0,4.061,82.94,1.3123688084,1.312336,6,P-GPS,
162600,2022-08-30 05:06:57,0,0,0.984252,,,0.9842848084,1.64042,0,0,0,0,0,8.344,1.3123688084,1.312336,0,0,0,0,0,113.8, 0.2, 0.1,0,0,1024,1024,1024,367,0,0,0,-100,110.5,0,0,91,4.175,4.167,0,0,0,0,4.061,82.94,0.9842848084,0.984252,6,P-GPS,
162700,2022-08-30 05:06:58,0,0,0.984252,,,0.9842848084,1.64042,0,0,0,0,0,8.344,1.3123688084,1.312336,0,0,0,0,0,109.1, 0.2, 0.1,0,0,1024,1024,1024,367,0,0,0,-100,105.7,0,0,91,4.175,4.167,0,0,0,0,4.061,82.94,0.9842848084,0.984252,6,P-GPS,"Sin tarjeta SD"
162800,2022-08-30 05:06:58,0,0,0.984252,,,0.9842848084,1.64042,0,0,0,0,0,8.344,1.3123688084,1.312336,0,0,0,0,0,104.4, 0.1, 0.2,0,0,1024,1024,1024,367,0,0,0,-100,101,0,0,91,4.175,4.167,0,0,0,0,4.061,82.94,0.9842848084,0.984252,6,P-GPS,
162900,2022-08-30 05:06:58,0,0,0.984252,,,0.9842848084,1.64042,0,0,0,0,0,8.344,1.3123688084,1.312336,0,0,0,0,0,99.6, 0, 0.3,0,0,1024,1024,1024,367,0,0,0,-100,96.2,0,0,91,4.175,4.167,0,0,0,0,4.061,82.94,0.9842848084,0.984252,6,P-GPS,
163000,2022-08-30 05:06:58,0,0,0.984252,,,0.9842848084,1.64042,0,0,0,0,0,8.344,1.3123688084,1.312336,0,0,0,0,0,94.8, 0.2, 0.4,0,0,1024,1024,1024,367,0,0,0,-100,91.4,0,0,91,4.175,4.167,0,0,0,0,4.061,82.94,0.9842848084,0.984252,6,P-GPS,
163100,2022-08-30 05:06:58,0,0,0.984252,,,0.9842848084,1.64042,0,0,0,0,0,8.344,1.3123688084,1.312336,0,0,0,0,0,90.1, 0.2, 0.4,0,0,1024,1024,1024,367,0,0,0,-100,86.7,0,0,91,4.175,4.167,0,0,0,0,4.061,82.94,0.9842848084,0.984252,6,P-GPS,
163200,2022-08-30 05:06:58,0,0,0.984252,,,0.9842848084,1.64042,0,0,0,0,0,8.344,1.3123688084,1.312336,0,0,0,0,0,85.3, 0.2, 0.3,0,0,1024,1024,1024,367,0,0,0,-100,81.9,0,0,91,4.175,4.167,0,0,0,0,4.061,82.94,0.9842848084,0.984252,6,P-GPS,
163300,2022-08-30 05:06:58,0,0,0.984252,,,0.9842848084,1.64042,0,0,0,0,0,8.344,1.3123688084,1.312336,0,0,0,0,0,80.6, 0.2, 0.1,0,0,1024,1024,1024,367,0,0,0,-100,77.2,0,0,91,4.175,4.167,0,0,0,0,4.061,82.94,0.9842848084,0.984252,6,P-GPS,
163400,2022-08-30 05:06:58,0,0,0.984252,,,0.9842848084,1.64042,0,0,0,0,0,8.336,1.3123688084,1.312336,0,0,0,0,0,75.9, 0.3, 0.1,0,0,1024,1024,1024,370,0,0,0,-99,72.4,0,0,91,4.172,4.164,0,0,0,0,4.102,82.94,0.9842848084,0.984252,6,P-GPS,
163500,2022-08-30 05:06:58,0,0,0.984252,,,0.9842848084,1.64042,0,0,0,0,0,8.336,1.3123688084,1.312336,0,0,0,0,0,71.1, 0.4, 0,0,0,1024,1024,1024,370,0,0,0,-99,67.6,0,0,91,4.172,4.164,0,0,0,0,4.102,82.94,0.9842848084,0.984252,6,P-GPS,
163600,2022-08-30 05:06:59,0,0,0.984252,,,0.9842848084,1.64042,0,0,0,0,0,8.336,1.3123688084,1.312336,0,0,0,0,0,66.3, 0.5, -0.2,0,0,1024,1024,1024,489,0,0,0,-81,62.9,0,0,91,4.172,4.164,0,0,0,0,4.102,82.94,0.9842848084,0.984252,6,P-GPS,
163700,2022-08-30 05:06:59,0,0,0.984252,,,0.9842848084,1.64042,0,0,0,0,0,8.336,1.3123688084,1.312336,0,0,0,0,0,61.7, 0.5, -0.5,0,0,1024,1024,1024,1024,0,0,0,0,58.5,0,0,91,4.172,4.164,0,0,0,0,4.102,82.94,0.9842848084,0.984252,6,P-GPS,
163800,2022-08-30 05:06:59,0,0,0.984252,,,0.9842848084,1.64042,0,0,0,0,0,8.336,1.3123688084,1.312336,0,0,0,0,0,57.9, 0.4, -0.3,0,0,1024,1024,1024,1024,0,0,0,0,56.2,0,0,91,4.172,4.164,0,0,0,0,4.102,82.94,0.9842848084,0.984252,6,P-GPS,
163900,2022-08-30 05:06:59,0,0,0.984252,,,0.9842848084,1.64042,0,0,0,0,0,8.336,1.3123688084,1.312336,0,0,0,0,0,56.3, 0.3, -0.1,0,0,1024,1024,1024,1024,0,0,0,0,55.1,0,0,91,4.172,4.164,0,0,0,0,4.102,82.94,0.9842848084,0.984252,6,P-GPS,
164000,2022-08-30 05:06:59,0,0,0.984252,,,0.9842848084,1.64042,0,0,0,0,0,8.336,1.3123688084,1.312336,0,0,0,0,0,55.5, 0.3, 0,0,0,1024,1024,1024,1024,0,0,0,0,55,0,0,91,4.172,4.164,0,0,0,0,4.102,82.94,0.9842848084,0.984252,6,P-GPS,
164100,2022-08-30 05:06:59,0,0,0.984252,,,0.9842848084,1.64042,0,0,0,0,0,8.336,1.3123688084,1.312336,0,0,0,0,0,55.4, 0.4, 0.2,0,0,1024,1024,1024,1024,0,0,0,0,55,0,0,91,4.172,4.164,0,0,0,0,4.102,82.94,0.9842848084,0.984252,6,P-GPS,
164200,2022-08-30 05:06:59,0,0,0.984252,,,0.9842848084,1.64042,0,0,0,0,0,8.336,1.3123688084,1.312336,0,0,0,0,0,55.3, 0.4, 0.1,0,0,1024,1024,1024,1024,0,0,0,0,55,0,0,91,4.172,4.164,0,0,0,0,4.102,82.94,0.9842848084,0.984252,6,P-GPS,
164300,2022-08-30 05:06:59,0,0,0.984252,,,0.9842848084,1.64042,0,0,0,0,0,8.336,1.3123688084,1.312336,0,0,0,0,0,55.2, 0.4, 0,0,0,1024,1024,1024,703,0,0,0,-49,55,0,0,91,4.172,4.164,0,0,0,0,4.102,82.94,0.9842848084,0.984252,6,P-GPS,
164400,2022-08-30 05:06:59,0,0,0.984252,,,0.9842848084,1.64042,0,0,0,0,0,8.332,1.3123688084,1.312336,0,0,0,0,0,55.1, 0.5, 0,0,0,1024,1024,1024,651,0,0,0,-57,55,0,0,91,4.17,4.161,0,0,0,0,4.089,82.94,0.9842848084,0.984252,6,P-GPS,
164500,2022-08-30 05:06:59,0,0,0.984252,,,0.9842848084,1.64042,0,0,0,0,0,8.332,1.3123688084,1.312336,0,0,0,0,0,55, 0.5, 0,0,0,1024,1024,1024,651,0,0,0,-57,54.4,0,0,91,4.17,4.161,0,0,0,0,4.089,82.94,0.9842848084,0.984252,6,P-GPS,
164600,2022-08-30 05:07:00,0,0,0.984252,,,0.9842848084,1.64042,0,0,0,0,0,8.332,1.3123688084,1.312336,0,0,0,0,0,54.1, 0.5, -0.3,0,0,1024,1024,1024,627,0,0,0,-60,53,0,0,91,4.17,4.161,0,0,0,0,4.089,82.94,0.9842848084,0.984252,6,P-GPS,
164700,2022-08-30 05:07:00,0,0,0.984252,,,0.9842848084,1.64042,0,0,0,0,0,8.332,1.3123688084,1.312336,0,0,0,0,0,52.5, 0.5, -0.1,0,0,1024,1024,1024,1024,0,0,0,0,51.2,0,0,91,4.17,4.161,0,0,0,0,4.089,82.94,0.9842848084,0.984252,6,P-GPS,
164800,2022-08-30 05:07:00,0,0,0.984252,,,0.9842848084,1.64042,0,0,0,0,0,8.332,1.3123688084,1.312336,0,0,0,0,0,50.7, 0.4, -0.2,0,0,1024,1024,1024,1024,0,0,0,0,49.5,0,0,91,4.17,4.161,0,0,0,0,4.089,82.94,0.9842848084,0.984252,6,P-GPS,
164900,2022-08-30 05:07:00,0,0,0.984252,,,0.9842848084,1.64042,0,0,0,0,0,8.332,1.3123688084,1.312336,0,0,0,0,0,49.3, 0.4, 0.1,0,0,1024,1024,1024,1024,0,0,0,0,48.6,0,0,91,4.17,4.161,0,0,0,0,4.089,82.94,0.9842848084,0.984252,6,P-GPS,
165000,2022-08-30 05:07:00,0,0,0.984252,,,0.9842848084,1.64042,0,0,0,0,0,8.332,1.3123688084,1.312336,0,0,0,0,0,48.7, 0.3, 0,0,0,1024,1024,1024,1024,0,0,0,0,48.3,0,0,91,4.17,4.161,0,0,0,0,4.089,82.94,0.9842848084,0.984252,6,P-GPS,
165100,2022-08-30 05:07:00,0,0,0.984252,,,0.9842848084,1.64042,0,0,0,0,0,8.332,1.3123688084,1.312336,0,0,0,0,0,48.6, 0.3, 0.2,0,0,1024,1024,1024,1024,0,0,0,0,48.3,0,0,91,4.17,4.161,0,0,0,0,4.089,82.94,0.9842848084,0.984252,6,P-GPS,
165200,2022-08-30 05:07:00,0,0,0.984252,,,0.9842848084,1.64042,0,0,0,0,0,8.332,1.3123688084,1.312336,0,0,0,0,0,48.5, 0.4, 0.3,0,0,1024,1024,1024,1013,0,0,0,-2,48.3,0,0,91,4.17,4.161,0,0,0,0,4.089,82.94,0.9842848084,0.984252,6,P-GPS,
165300,2022-08-30 05:07:00,0,0,0.984252,,,0.9842848084,1.64042,0,0,0,0,0,8.332,1.3123688084,1.312336,0,0,0,0,0,48.5, 0.6, 0.3,0,0,1024,1024,1024,364,0,0,0,-100,48.3,0,0,91,4.17,4.161,0,0,0,0,4.089,82.94,0.9842848084,0.984252,6,P-GPS,
165400,2022-08-30 05:07:00,0,0,0.984252,,,0.9842848084,1.64042,0,0,0,0,0,8.327,1.3123688084,1.312336,0,0,0,0,0,48.4, 0.6, 0.1,0,0,1024,1024,1024,364,0,0,0,-100,48.2,0,0,91,4.167,4.16,0,0,0,0,4.083,82.94,0.9842848084,0.984252,6,P-GPS,
165500,2022-08-30 05:07:00,0,0,0.984252,,,0.9842848084,1.64042,0,0,0,0,0,8.327,1.3123688084,1.312336,0,0,0,0,0,47.8, 0.6, 0.2,0,0,1024,1024,1024,364,0,0,0,-100,46.2,0,0,91,4.167,4.16,0,0,0,0,4.083,82.94,0.9842848084,0.984252,6,P-GPS,
165600,2022-08-30 05:07:00,0,0,0.984252,,,0.9842848084,1.64042,0,0,0,0,0,8.327,1.3123688084,1.312336,0,0,0,0,0,44.7, 0.6, 0.1,0,0,1024,1024,1024,1024,0,0,0,0,42,0,0,91,4.167,4.16,0,0,0,0,4.083,82.94,0.9842848084,0.984252,6,P-GPS,
165700,2022-08-30 05:07:01,0,0,0.984252,,,0.9842848084,1.64042,0,0,0,0,0,8.327,1.3123688084,1.312336,0,0,0,0,0,40.3, 0.5, 0,0,0,1024,1024,1024,1024,0,0,0,0,37.9,0,0,91,4.167,4.16,0,0,0,0,4.083,82.94,0.9842848084,0.984252,6,P-GPS,
165800,2022-08-30 05:07:01,0,0,0.984252,,,0.9842848084,1.64042,0,0,0,0,0,8.327,1.3123688084,1.312336,0,0,0,0,0,37.3, 0.5, -0.2,0,0,1024,1024,1024,1024,0,0,0,0,35.9,0,0,91,4.167,4.16,0,0,0,0,4.083,82.94,0.9842848084,0.984252,6,P-GPS,
165900,2022-08-30 05:07:01,0,0,0.984252,,,0.9842848084,1.64042,0,0,0,0,0,8.327,1.3123688084,1.312336,0,0,0,0,0,35.9, 0.5, 0,0,0,1024,1024,1024,1024,0,0,0,0,35.3,0,0,91,4.167,4.16,0,0,0,0,4.083,82.94,0.9842848084,0.984252,6,P-GPS,
166000,2022-08-30 05:07:01,0,0,0.984252,,,0.9842848084,1.64042,0,0,0,0,0,8.327,1.3123688084,1.312336,0,0,0,0,0,35.6, 0.5, 0.1,0,0,1024,1024,1024,1024,0,0,0,0,35.3,0,0,91,4.167,4.16,0,0,0,0,4.083,82.94,0.9842848084,0.984252,6,P-GPS,
166100,2022-08-30 05:07:01,0,0,0.984252,,,0.9842848084,1.64042,0,0,0,0,0,8.327,1.3123688084,1.312336,0,0,0,0,0,35.5, 0.3, 0,0,0,1024,1024,776,1024,0,0,-38,0,35.3,0,0,91,4.167,4.16,0,0,0,0,4.083,82.94,0.9842848084,0.984252,6,P-GPS,
166200,2022-08-30 05:07:01,0,0,0.984252,,,0.9842848084,1.64042,0,0,0,0,0,8.327,1.3123688084,1.312336,0,0,0,0,0,35.5, 0.4, 0.1,0,0,1024,1024,447,1024,0,0,-87,0,35.3,0,0,91,4.167,4.16,0,0,0,0,4.083,82.94,0.9842848084,0.984252,6,P-GPS,
166300,2022-08-30 05:07:01,0,0,0.984252,,,0.9842848084,1.64042,0,0,0,0,0,8.327,1.3123688084,1.312336,0,0,0,0,0,35.4, 0.4, 0,0,0,1024,1024,384,1024,0,0,-97,0,35.3,0,0,91,4.167,4.16,0,0,0,0,4.083,82.94,0.9842848084,0.984252,6,P-GPS,
166400,2022-08-30 05:07:01,0,0,0.984252,,,0.9842848084,1.64042,0,0,0,0,0,8.327,1.3123688084,1.312336,0,0,0,0,0,35.4, 0.6, -0.1,0,0,1024,1024,384,1024,0,0,-97,0,35.3,0,0,91,4.167,4.16,0,0,0,0,4.083,82.94,0.9842848084,0.984252,6,P-GPS,
166500,2022-08-30 05:07:01,0,0,0.984252,,,0.9842848084,1.64042,0,0,0,0,0,8.323,1.3123688084,1.312336,0,0,0,0,0,35.4, 0.6, -0.1,0,0,1024,1024,364,1024,0,0,-100,0,35.3,0,0,91,4.165,4.156,0,0,0,0,4.094,82.94,0.9842848084,0.984252,6,P-GPS,
166600,2022-08-30 05:07:01,0,0,0.984252,,,0.9842848084,1.64042,0,0,0,0,0,8.323,1.3123688084,1.312336,0,0,0,0,0,35.4, 0.6, 0,0,0,1024,1024,364,1024,0,0,-100,0,35.3,0,0,91,4.165,4.156,0,0,0,0,4.094,82.94,0.9842848084,0.984252,6,P-GPS,
166700,2022-08-30 05:07:02,0,0,0.984252,,,0.9842848084,1.64042,0,0,0,0,0,8.323,1.3123688084,1.312336,0,0,0,0,0,35.4, 0.5, 0.1,0,0,1024,1024,364,1024,0,0,-100,0,35.3,0,0,91,4.165,4.156,0,0,0,0,4.094,82.94,0.9842848084,0.984252,6,P-GPS,
166800,2022-08-30 05:07:02,0,0,0.984252,,,0.9842848084,1.64042,0,0,0,0,0,8.323,1.3123688084,1.312336,0,0,0,0,0,35.4, 0.5, 0.1,0,0,1024,1024,364,1024,0,0,-100,0,35.3,0,0,91,4.165,4.156,0,0,0,0,4.094,82.94,0.9842848084,0.984252,6,P-GPS,
166900,2022-08-30 05:07:02,0,0,0.984252,,,0.9842848084,1.64042,0,0,0,0,0,8.323,1.3123688084,1.312336,0,0,0,0,0,35.4, 0.3, 0,0,0,1024,1024,364,1024,0,0,-100,0,35.3,0,0,91,4.165,4.156,0,0,0,0,4.094,82.94,0.9842848084,0.984252,6,P-GPS,
167000,2022-08-30 05:07:02,0,0,0.984252,,,0.9842848084,1.64042,0,0,0,0,0,8.323,1.3123688084,1.312336,0,0,0,0,0,35.4, 0.3, 0,0,0,1024,1024,364,1024,0,0,-100,0,35.3,0,0,91,4.165,4.156,0,0,0,0,4.094,82.94,0.9842848084,0.984252,6,P-GPS,
167100,2022-08-30 05:07:02,0,0,0.984252,,,0.9842848084,1.64042,0,0,0,0,0,8.323,1.3123688084,1.312336,0,0,0,0,0,35.4, 0.3, 0,0,0,1024,1024,1024,1024,0,0,0,0,35.3,0,0,91,4.165,4.156,0,0,0,0,4.094,82.94,0.9842848084,0.984252,6,P-GPS,
167200,2022-08-30 05:07:02,0,0,0.984252,,,0.9842848084,1.64042,0,0,0,0,0,8.323,1.3123688084,1.312336,0,0,0,0,0,35.3, 0.3, 0,0,0,1024,1024,1024,1024,0,0,0,0,35.3,0,0,91,4.165,4.156,0,0,0,0,4.094,82.94,0.9842848084,0.984252,6,P-GPS,
167300,2022-08-30 05:07:02,0,0,0.984252,,,0.9842848084,1.64042,0,0,0,0,0,8.323,1.3123688084,1.312336,0,0,0,0,0,35.3, 0.4, 0,0,0,1024,1024,1024,1024,0,0,0,0,35.3,0,0,91,4.165,4.156,0,0,0,0,4.094,82.94,0.9842848084,0.984252,6,P-GPS,
167400,2022-08-30 05:07:02,0,0,0.984252,,,0.9842848084,1.64042,0,0,0,0,0,8.323,1.3123688084,1.312336,0,0,0,0,0,35.3, 0.2, 0,0,0,1024,1024,1024,1024,0,0,0,0,35.3,0,0,91,4.165,4.156,0,0,0,0,4.094,82.94,0.9842848084,0.984252,6,P-GPS,
167500,2022-08-30 05:07:02,0,0,0.984252,,,0.9842848084,1.64042,0,0,0,0,0,8.32,1.3123688084,1.312336,0,0,0,0,0,35.3, 0.3, 0,0,0,1024,1024,1024,1024,0,0,0,0,35.3,0,0,91,4.163,4.154,0,0,0,0,4.102,82.94,0.9842848084,0.984252,6,P-GPS,
167600,2022-08-30 05:07:03,0,0,0.984252,,,0.9842848084,1.64042,0,0,0,0,0,8.32,1.3123688084,1.312336,0,0,0,0,0,35.4, 0.4, 0,0,0,1024,1024,1024,1024,0,0,0,0,35.3,0,0,91,4.163,4.154,0,0,0,0,4.102,82.94,0.9842848084,0.984252,6,P-GPS,
167700,2022-08-30 05:07:03,0,0,0.984252,,,0.9842848084,1.64042,0,0,0,0,0,8.32,1.3123688084,1.312336,0,0,0,0,0,35.3, 0.5, 0,0,0,1024,1024,1024,1024,0,0,0,0,35.3,0,0,91,4.163,4.154,0,0,0,0,4.102,82.94,0.9842848084,0.984252,6,P-GPS,
167800,2022-08-30 05:07:03,0,0,0.984252,,,0.9842848084,1.64042,0,0,0,0,0,8.32,1.3123688084,1.312336,0,0,0,0,0,35.3, 0.4, -0.1,0,0,1024,1024,1024,1024,0,0,0,0,35.3,0,0,91,4.163,4.154,0,0,0,0,4.102,82.94,0.9842848084,0.984252,6,P-GPS,
167900,2022-08-30 05:07:03,0,0,0.984252,,,0.9842848084,1.64042,0,0,0,0,0,8.32,1.3123688084,1.312336,0,0,0,0,0,35.3, 0.6, -0.1,0,0,1024,1024,1024,1024,0,0,0,0,35.3,0,0,91,4.163,4.154,0,0,0,0,4.102,82.94,0.9842848084,0.984252,6,P-GPS,
168000,2022-08-30 05:07:03,0,0,0.984252,,,0.9842848084,1.64042,0,0,0,0,0,8.32,1.3123688084,1.312336,0,0,0,0,0,35.3, 0.6, -0.1,0,0,603,1024,1024,1024,-64,0,0,0,35.3,0,0,91,4.163,4.154,0,0,0,0,4.102,82.94,0.9842848084,0.984252,6,P-GPS,
168100,2022-08-30 05:07:03,0,0,0.984252,,,0.9842848084,1.64042,0,0,0,0,0,8.32,1.3123688084,1.312336,0,0,0,0,0,35.3, 1.2, -0.1,0,0,484,1024,1024,1024,-82,0,0,0,35.3,0,0,91,4.163,4.154,0,0,0,0,4.102,82.94,0.9842848084,0.984252,6,P-GPS,
168200,2022-08-30 05:07:03,0,0,0.984252,,,0.9842848084,1.64042,0,0,0,0,0,8.32,1.3123688084,1.312336,0,0,0,0,0,35.3, 8, 0,0,0,484,1024,1024,1024,-82,0,0,0,35.3,0,0,91,4.163,4.154,0,0,0,0,4.102,82.94,0.9842848084,0.984252,6,P-GPS,
168300,2022-08-30 05:07:03,0,0,0.984252,,,0.9842848084,1.64042,0.3131716,0,0,0,0,8.32,1.3123688084,1.312336,0,0,-0.223694,-0.223694,0,35.3, 12.3, 0,0,0,501,1024,1024,1024,-79,0,0,0,35.3,0,0,91,4.163,4.154,0,0,0,0,4.102,82.94,0.9842848084,0.984252,6,P-GPS,
168400,2022-08-30 05:07:03,0,0,0.984252,,,0.9842848084,1.64042,0.8052984,0,0,0,0,8.32,1.3123688084,1.312336,0,0,-0.671082,-0.447388,0,35.3, 13.4, 0,0,0,732,1024,1024,1024,-44,0,0,0,35.3,0,0,91,4.163,4.154,0,0,0,0,4.102,82.94,0.9842848084,0.984252,6,P-GPS,
168500,2022-08-30 05:07:03,0,0,0.984252,,,0.9842848084,1.64042,1.2974252,0,0,0,0,8.316,1.3123688084,1.312336,0,0,-1.11847,-0.671082,0,35.3, 13.3, 0,0,0,732,1024,1024,1024,-44,0,0,0,35.3,0,0,91,4.161,4.152,0,0,0,0,4.108,83.12,0.9842848084,0.984252,6,P-GPS,
168600,2022-08-30 05:07:04,0,0,0.984252,,,0.9842848084,1.64042,1.9237684,0,0,0,0,8.316,1.3123688084,1.312336,0,0,-1.565858,-1.11847,0,35.3, 9.8, 0,0,0,1024,1024,1024,1024,0,0,0,0,35.3,0,0,91,4.161,4.152,0,0,0,0,4.108,83.12,0.9842848084,0.984252,6,P-GPS,
168700,2022-08-30 05:07:04,0,0,0.984252,,,0.9842848084,1.64042,1.9237684,0,0,0,0,8.316,1.3123688084,1.312336,0,0,-1.565858,-1.11847,0,35.4, -1.9, -0.2,0,0,1024,1024,1024,1024,0,0,0,0,35.3,0,0,91,4.161,4.152,0,0,0,0,4.108,83.12,0.9842848084,0.984252,6,P-GPS,
168800,2022-08-30 05:07:04,0,0,0.984252,,,0.9842848084,1.64042,1.9237684,0,0,0,0,8.316,1.3123688084,1.312336,0,0,-1.565858,-1.11847,0,35.4, -7.6, -0.3,0,0,1684,1024,1024,1024,100,0,0,0,35.3,0,0,91,4.161,4.152,0,0,0,0,4.108,83.12,0.9842848084,0.984252,6,P-GPS,
168900,2022-08-30 05:07:04,0,0,0.984252,,,0.9842848084,1.64042,1.4316416,0,0,0,0,8.316,1.3123688084,1.312336,0,0,-1.11847,-0.894776,0,35.3, -8.7, -0.3,0,0,1024,1024,1024,1024,0,0,0,0,35.3,0,0,91,4.161,4.152,0,0,0,0,4.108,83.12,0.9842848084,0.984252,6,P-GPS,
169000,2022-08-30 05:07:04,0,0,0.984252,,,0.9842848084,1.64042,1.11847,0,0,0,0,8.316,1.3123688084,1.312336,0,0,-0.894776,-0.671082,0,35.2, -15.3, 0,0,0,1024,1024,1024,1024,0,0,0,0,35.3,0,0,91,4.161,4.152,0,0,0,0,4.108,83.12,0.9842848084,0.984252,6,P-GPS,
169100,2022-08-30 05:07:04,0,0,0.984252,,,0.9842848084,1.64042,0.4921268,0,0,0,0,8.316,1.3123688084,1.312336,0,0,-0.447388,-0.223694,0,34.2, -9, 0.8,0,0,1024,1024,1024,1024,0,0,0,0,35.3,0,0,91,4.161,4.152,0,0,0,0,4.108,83.12,0.9842848084,0.984252,6,P-GPS,
169200,2022-08-30 05:07:04,0,0,0.984252,,,0.9842848084,0.328084,0.223694,0,0,0,0,8.316,1.3123688084,1.312336,0,0,-0.223694,0,-0.223694,35.2, -0.8, -0.5,0,0,1024,1024,1024,1024,0,0,0,0,35.3,0,0,91,4.161,4.152,0,0,0,0,4.108,83.12,0.9842848084,0.984252,6,P-GPS,
169300,2022-08-30 05:07:04,0,0,0.984252,,,0.9842848084,0.328084,0,0,0,0,0,8.316,1.3123688084,1.312336,0,0,0,0,-0.447388,35.4, -0.1, -0.4,0,0,1024,1024,1024,1024,0,0,0,0,35.3,0,0,91,4.161,4.152,0,0,0,0,4.108,83.12,0.9842848084,0.984252,6,P-GPS,
169400,2022-08-30 05:07:04,0,0,1.312336,,,1.3123688084,0.328084,0,0,0,0,0,8.316,1.3123688084,1.312336,0,0,0,0,-0.894776,35.4, -0.5, -0.4,0,0,1207,1024,1024,1024,28,0,0,0,35.3,0,0,91,4.161,4.152,0,0,0,0,4.108,83.12,1.3123688084,1.312336,6,P-GPS,
169500,2022-08-30 05:07:04,0,0,1.312336,,,1.3123688084,0.656168,0,0,0,0,0,8.302,1.3123688084,1.312336,0,0,0,0,-1.11847,35.3, -0.6, -0.2,0,0,1207,1024,1024,1024,28,0,0,0,35.3,0,0,91,4.186,4.117,0,0,0,0,4.229,83.12,1.3123688084,1.312336,6,P-GPS,
169600,2022-08-30 05:07:04,0,0,1.64042,,,1.6404528084,0.656168,0,0,0,0,0,8.302,1.6404528084,1.64042,0,0,0,0,-1.11847,35.3, -1, -0.1,0,0,1024,1024,1024,1024,0,0,0,0,35.3,0,0,91,4.186,4.117,0,0,0,0,4.229,83.12,1.6404528084,1.64042,6,P-GPS,
169700,2022-08-30 05:07:05,0,0,1.64042,,,1.6404528084,0.984252,0,0,0,0,0,8.302,1.6404528084,1.64042,0,0,0,0,-1.11847,35.3, -4.4, 0.2,0,0,1024,1024,1024,1024,0,0,0,0,35.3,0,0,91,4.186,4.117,0,0,0,0,4.229,83.12,1.6404528084,1.64042,6,P-GPS,
169800,2022-08-30 05:07:05,0,0,1.968504,,,1.9685368084,0.984252,0,0,0,0,0,8.302,1.9685368084,1.968504,0,0,0,0,-1.11847,35.4, -0.5, 0.5,0,0,1024,1024,1024,1024,0,0,0,0,35.3,0,0,91,4.186,4.117,0,0,0,0,4.229,83.12,1.9685368084,1.968504,6,P-GPS,
169900,2022-08-30 05:07:05,0,0,1.968504,,,1.9685368084,0.984252,0,0,0,0,0,8.302,1.9685368084,1.968504,0,0,0,0,-0.894776,35.3, -0.1, 0.2,0,0,1024,1024,1024,1024,0,0,0,0,35.3,0,0,91,4.186,4.117,0,0,0,0,4.229,83.12,1.9685368084,1.968504,6,P-GPS,
170000,2022-08-30 05:07:05,0,0,2.296588,,,2.2966208084,1.312336,0,0,0,0,0,8.302,2.2966208084,2.296588,0,0,0,0,-0.671082,35.3, 0, 0,0,0,1024,1024,1024,1024,0,0,0,0,35.3,0,0,91,4.186,4.117,0,0,0,0,4.229,83.12,2.2966208084,2.296588,6,P-GPS,
170100,2022-08-30 05:07:05,0,0,2.296588,,,2.2966208084,1.312336,0,0,0,0,0,8.302,2.2966208084,2.296588,0,0,0,0,-0.671082,35.3, 0.1, 0,0,0,1024,1024,1024,1024,0,0,0,0,35.3,0,0,91,4.186,4.117,0,0,0,0,4.229,83.12,2.2966208084,2.296588,6,P-GPS,
170200,2022-08-30 05:07:05,0,0,2.296588,,,2.2966208084,1.312336,0,0,0,0,0,8.302,2.2966208084,2.296588,0,0,0,0,-0.447388,35.4, 0.1, 0,0,0,1024,1024,1024,1024,0,0,0,0,35.3,0,0,91,4.186,4.117,0,0,0,0,4.229,83.12,2.2966208084,2.296588,6,P-GPS,
170300,2022-08-30 05:07:05,0,0,2.296588,,,2.2966208084,1.64042,0,0,0,0,0,8.302,2.2966208084,2.296588,0,0,0,0,-0.447388,35.3, 0.2, 0.1,0,0,1024,1024,1024,1024,0,0,0,0,35.3,0,0,91,4.186,4.117,0,0,0,0,4.229,83.12,2.2966208084,2.296588,6,P-GPS,
170400,2022-08-30 05:07:05,0,0,2.624672,,,2.6247048084,1.64042,0,0,0,0,0,8.302,2.6247048084,2.624672,0,0,0,0,-0.223694,35.3, 0, 0,0,0,1024,1024,1024,1024,0,0,0,0,35.3,0,0,91,4.186,4.117,0,0,0,0,4.229,83.12,2.6247048084,2.624672,6,P-GPS,
170500,2022-08-30 05:07:05,0,0,2.624672,,,2.6247048084,1.64042,0,0,0,0,0,8.306,2.6247048084,2.624672,0,0,0,0,-0.223694,35.4, 0, 0,0,0,1024,1024,1024,1024,0,0,0,0,35.3,0,0,91,4.162,4.152,0,0,0,0,4.455,83.12,2.6247048084,2.624672,6,P-GPS,
170600,2022-08-30 05:07:05,0,0,2.624672,,,2.6247048084,1.64042,0,0,0,0,0,8.306,2.6247048084,2.624672,0,0,0,0,0,35.4, 0, 0,0,0,1024,1024,1024,1024,0,0,0,0,35.3,0,0,91,4.162,4.152,0,0,0,0,4.455,83.12,2.6247048084,2.624672,6,P-GPS,
170700,2022-08-30 05:07:06,0,0,2.624672,,,2.6247048084,1.64042,0,0,0,0,0,8.306,2.6247048084,2.624672,0,0,0,0,0,35.4, 0.1, -0.1,0,0,1024,1024,1024,1024,0,0,0,0,35.3,0,0,91,4.162,4.152,0,0,0,0,4.455,83.12,2.6247048084,2.624672,6,P-GPS,
170800,2022-08-30 05:07:06,0,0,2.624672,,,2.6247048084,1.64042,0,0,0,0,0,8.306,2.6247048084,2.624672,0,0,0,0,0,35.4, 0.2, 0,0,0,1024,1024,1024,1024,0,0,0,0,35.3,0,0,91,4.162,4.152,0,0,0,0,4.455,83.12,2.6247048084,2.624672,6,P-GPS,
170900,2022-08-30 05:07:06,0,0,2.624672,,,2.6247048084,1.64042,0,0,0,0,0,8.306,2.6247048084,2.624672,0,0,0,0,0,35.5, 0.3, 0.2,0,0,1024,1024,1024,1024,0,0,0,0,35.3,0,0,91,4.162,4.152,0,0,0,0,4.455,83.12,2.6247048084,2.624672,6,P-GPS,
171000,2022-08-30 05:07:06,0,0,2.624672,,,2.6247048084,1.64042,0,0,0,0,0,8.306,2.6247048084,2.624672,0,0,0,0,0,35.5, 0.2, 0.2,0,0,1024,1024,1024,1024,0,0,0,0,35.3,0,0,91,4.162,4.152,0,0,0,0,4.455,83.12,2.6247048084,2.624672,6,P-GPS,
171100,2022-08-30 05:07:06,0,0,2.624672,,,2.6247048084,1.64042,0,0,0,0,0,8.306,2.6247048084,2.624672,0,0,0,0,0,35.5, 0.3, 0.2,0,0,1024,1024,1024,1024,0,0,0,0,35.3,0,0,91,4.162,4.152,0,0,0,0,4.455,83.12,2.6247048084,2.624672,6,P-GPS,
171200,2022-08-30 05:07:06,0,0,2.624672,,,2.6247048084,1.64042,0,0,0,0,0,8.306,2.6247048084,2.624672,0,0,0,0,0,35.4, 0.4, 0.2,0,0,1024,1024,1024,1024,0,0,0,0,35.3,0,0,91,4.162,4.152,0,0,0,0,4.455,83.12,2.6247048084,2.624672,6,P-GPS,
171300,2022-08-30 05:07:06,0,0,2.624672,,,2.6247048084,1.64042,0,0,0,0,0,8.306,2.6247048084,2.624672,0,0,0,0,0,35.4, 0.4, 0.1,0,0,1024,1024,1024,1024,0,0,0,0,35.3,0,0,91,4.162,4.152,0,0,0,0,4.455,83.12,2.6247048084,2.624672,6,P-GPS,
171400,2022-08-30 05:07:06,0,0,2.624672,,,2.6247048084,1.64042,0,0,0,0,0,8.306,2.6247048084,2.624672,0,0,0,0,0,35.4, 0.2, 0.1,0,0,1024,1024,1024,1024,0,0,0,0,35.3,0,0,91,4.162,4.152,0,0,0,0,4.455,83.12,2.6247048084,2.624672,6,P-GPS,
171500,2022-08-30 05:07:06,0,0,2.624672,,,2.6247048084,1.64042,0,0,0,0,0,8.306,2.6247048084,2.624672,0,0,0,0,0,35.4, 0.1, 0.4,0,0,1024,1024,1024,1024,0,0,0,0,35.3,0,0,91,4.162,4.152,0,0,0,0,4.455,83.12,2.6247048084,2.624672,6,P-GPS,
171600,2022-08-30 05:07:07,0,0,2.624672,,,2.6247048084,1.64042,0,0,0,0,0,8.309,2.6247048084,2.624672,0,0,0,0,0,35.4, 0.1, 0.3,0,0,1024,1024,1024,1024,0,0,0,0,35.3,0,0,91,4.157,4.148,0,0,0,0,3.935,83.12,2.6247048084,2.624672,6,P-GPS,
171700,2022-08-30 05:07:07,0,0,2.624672,,,2.6247048084,1.64042,0,0,0,0,0,8.309,2.6247048084,2.624672,0,0,0,0,0,35.4, 0.2, 0.3,0,0,1024,1024,1024,1024,0,0,0,0,35.3,0,0,91,4.157,4.148,0,0,0,0,3.935,83.12,2.6247048084,2.624672,6,P-GPS,
171800,2022-08-30 05:07:07,0,0,2.624672,,,2.6247048084,1.64042,0,0,0,0,0,8.309,2.6247048084,2.624672,0,0,0,0,0,35.4, 0.3, 0.2,0,0,1024,1024,1024,1024,0,0,0,0,35.3,0,0,91,4.157,4.148,0,0,0,0,3.935,83.12,2.6247048084,2.624672,6,P-GPS,
171900,2022-08-30 05:07:07,0,0,2.624672,,,2.6247048084,1.64042,0,0,0,0,0,8.309,2.6247048084,2.624672,0,0,0,0,0,35.4, 0.2, 0.1,0,0,1024,1024,1024,1024,0,0,0,0,35.3,0,0,91,4.157,4.148,0,0,0,0,3.935,83.12,2.6247048084,2.624672,6,P-GPS,
172000,2022-08-30 05:07:07,0,0,2.624672,,,2.6247048084,1.64042,0,0,0,0,0,8.309,2.6247048084,2.624672,0,0,0,0,0,35.3, 0.2, 0,0,0,1024,1024,1024,1024,0,0,0,0,35.3,0,0,91,4.157,4.148,0,0,0,0,3.935,83.12,2.6247048084,2.624672,6,P-GPS,
172100,2022-08-30 05:07:07,0,0,2.624672,,,2.6247048084,1.64042,0,0,0,0,0,8.309,2.6247048084,2.624672,0,0,0,0,0,35.3, 0.1, 0.2,0,0,1024,1024,1024,1024,0,0,0,0,35.3,0,0,91,4.157,4.148,0,0,0,0,3.935,83.12,2.6247048084,2.624672,6,P-GPS,
172200,2022-08-30 05:07:07,0,0,2.624672,,,2.6247048084,1.64042,0,0,0,0,0,8.309,2.6247048084,2.624672,0,0,0,0,0,35.3, 0.1, 0.1,0,0,1024,1024,1024,1024,0,0,0,0,35.3,0,0,91,4.157,4.148,0,0,0,0,3.935,83.12,2.6247048084,2.624672,6,P-GPS,
172300,2022-08-30 05:07:07,0,0,2.624672,,,2.6247048084,1.64042,0,0,0,0,0,8.309,2.6247048084,2.624672,0,0,0,0,0,35.3, 0.1, 0.1,0,0,1060,1024,1024,1024,5,0,0,0,35.3,0,0,91,4.157,4.148,0,0,0,0,3.935,83.12,2.6247048084,2.624672,6,P-GPS,
172400,2022-08-30 05:07:07,0,0,2.624672,,,2.6247048084,1.64042,0,0,0,0,0,8.309,2.6247048084,2.624672,0,0,0,0,0,35.2, 0.2, 0,0,0,1319,1024,1024,1024,45,0,0,0,35.3,0,0,91,4.157,4.148,0,0,0,0,3.935,83.12,2.6247048084,2.624672,6,P-GPS,
172500,2022-08-30 05:07:07,0,0,2.952756,,,2.9527888084,1.64042,0,0,0,0,0,8.309,2.9527888084,2.952756,0,0,0,0,0,35.3, 0, 0,0,0,1445,1024,1024,1024,64,0,0,0,35.3,0,0,91,4.157,4.148,0,0,0,0,3.935,83.12,2.9527888084,2.952756,6,P-GPS,
172600,2022-08-30 05:07:08,0,0,2.624672,,,2.6247048084,1.64042,0,0,0,0,0,8.299,2.9527888084,2.952756,0,0,0,0,0,35.3, -3.3, 0,0,0,1445,1024,1024,1024,64,0,0,0,35.3,0,0,91,4.154,4.145,0,0,0,0,4.164,83.12,2.6247048084,2.624672,6,P-GPS,
172700,2022-08-30 05:07:08,0,0,2.624672,,,2.6247048084,1.64042,0,0,0,0,0,8.299,2.9527888084,2.952756,0,0,0,0,0,35.3, -7.8, 0,0,0,1024,1024,1024,1024,0,0,0,0,35.3,0,0,91,4.154,4.145,0,0,0,0,4.164,83.12,2.6247048084,2.624672,6,P-GPS,
172800,2022-08-30 05:07:08,0,0,2.624672,,,2.6247048084,1.64042,0.3131716,0,0,0,0,8.299,2.9527888084,2.952756,0,0,0.223694,0.223694,0,35.3, -5.2, 0,0,0,1024,1024,1024,1024,0,0,0,0,35.3,0,0,91,4.154,4.145,0,0,0,0,4.164,83.12,2.6247048084,2.624672,6,P-GPS,
172900,2022-08-30 05:07:08,0,0,2.624672,,,2.6247048084,1.64042,0.4921268,0,0,0,0,8.299,2.9527888084,2.952756,0,0,0.447388,0.223694,0,35.3, 1.9, 0.2,0,0,1024,1024,1024,1024,0,0,0,0,35.3,0,0,91,4.154,4.145,0,0,0,0,4.164,83.12,2.6247048084,2.624672,6,P-GPS,
173000,2022-08-30 05:07:08,0,0,2.624672,,,2.6247048084,1.64042,0.3131716,0,0,0,0,8.299,2.9527888084,2.952756,0,0,0.223694,0.223694,0,35.3, 2.6, 0,0,0,1123,1024,1024,1024,15,0,0,0,35.3,0,0,91,4.154,4.145,0,0,0,0,4.164,83.12,2.6247048084,2.624672,6,P-GPS,
173100,2022-08-30 05:07:08,0,0,2.624672,,,2.6247048084,1.968504,0.3131716,0,0,0,0,8.299,2.9527888084,2.952756,0,0,0.223694,0.223694,0,35.3, 2.1, 0,0,0,1292,1024,1024,1024,41,0,0,0,35.3,0,0,91,4.154,4.145,0,0,0,0,4.164,83.12,2.6247048084,2.624672,6,P-GPS,
173200,2022-08-30 05:07:08,0,0,2.624672,,,2.6247048084,1.968504,0.223694,0,0,0,0,8.299,2.9527888084,2.952756,0,0,0.223694,0,0,35.3, 0.3, 0,0,0,1474,1024,1024,1024,68,0,0,0,35.3,0,0,91,4.154,4.145,0,0,0,0,4.164,83.12,2.6247048084,2.624672,6,P-GPS,
173300,2022-08-30 05:07:08,0,0,2.624672,,,2.6247048084,2.296588,0.223694,0,0,0,0,8.299,2.9527888084,2.952756,0,0,0.223694,0,0,35.3, -2.8, 0,0,0,1252,1024,1024,1024,35,0,0,0,35.3,0,0,91,4.154,4.145,0,0,0,0,4.164,83.12,2.6247048084,2.624672,6,P-GPS,
173400,2022-08-30 05:07:08,0,0,2.624672,,,2.6247048084,2.296588,0.223694,0,0,0,0,8.299,2.9527888084,2.952756,0,0,0.223694,0.223694,0,35.3, -7.6, 0.2,0,0,1252,1024,1024,1024,35,0,0,0,35.3,0,0,91,4.154,4.145,0,0,0,0,4.164,83.12,2.6247048084,2.624672,6,P-GPS,
173500,2022-08-30 05:07:08,0,0,2.624672,,,2.6247048084,1.968504,0.4921268,0,0,0,0,8.299,2.9527888084,2.952756,0,0,0.447388,0.223694,0,35.4, -8.4, 0.2,0,0,1024,1024,1024,1024,0,0,0,0,35.3,0,0,91,4.154,4.145,0,0,0,0,4.164,83.12,2.6247048084,2.624672,6,P-GPS,
173600,2022-08-30 05:07:08,0,0,2.624672,,,2.6247048084,1.968504,0.4921268,0,0,0,0,8.298,2.9527888084,2.952756,0,0,0.671082,0.447388,0,35.4, -0.9, 0.3,0,0,1024,1024,1024,1024,0,0,0,0,35.3,0,0,91,4.154,4.144,0,0,0,0,4.15,83.3,2.6247048084,2.624672,6,P-GPS,
173700,2022-08-30 05:07:09,0,0,2.624672,,,2.6247048084,1.968504,0.8052984,0,0,0,0,8.298,2.9527888084,2.952756,0,0,0.671082,0.447388,0,35.4, 3.5, 0.2,0,0,1024,1024,1024,1024,0,0,0,0,35.3,0,0,91,4.154,4.144,0,0,0,0,4.15,83.3,2.6247048084,2.624672,6,P-GPS,
173800,2022-08-30 05:07:09,0,0,2.624672,,,2.6247048084,1.968504,0.6263432,0,0,0,0,8.298,2.9527888084,2.952756,0,0,0.447388,0.447388,0,35.4, 4.1, 0.1,0,0,1024,1024,395,1024,0,0,-95,0,35.3,0,0,91,4.154,4.144,0,0,0,0,4.15,83.3,2.6247048084,2.624672,6,P-GPS,
173900,2022-08-30 05:07:09,0,0,2.624672,,,2.6247048084,1.968504,0.4921268,0,0,0,0,8.298,2.9527888084,2.952756,0,0,0.447388,0.223694,0,35.3, 3.5, -0.2,0,0,1024,1024,364,1024,0,0,-100,0,35.3,0,0,91,4.154,4.144,0,0,0,0,4.15,83.3,2.6247048084,2.624672,6,P-GPS,
174000,2022-08-30 05:07:09,0,0,2.624672,,,2.6247048084,3.28084,0.3131716,0,0,0,0,8.298,2.9527888084,2.952756,0,0,0.223694,0.223694,0,35.3, 2.9, -0.3,0,0,1024,1024,364,1024,0,0,-100,0,35.3,0,0,91,4.154,4.144,0,0,0,0,4.15,83.3,2.6247048084,2.624672,6,P-GPS,
174100,2022-08-30 05:07:09,0,0,2.624672,,,2.6247048084,3.28084,0.3131716,0,0,0,0,8.298,2.9527888084,2.952756,0,0,0.223694,0.223694,0.223694,35.3, 2.2, -0.2,0,0,1024,1024,364,1024,0,0,-100,0,35.3,0,0,91,4.154,4.144,0,0,0,0,4.15,83.3,2.6247048084,2.624672,6,P-GPS,
174200,2022-08-30 05:07:09,0,0,2.624672,,,2.6247048084,3.28084,0,0,0,0,0,8.298,2.9527888084,2.952756,0,0,0,0,0.447388,35.3, 1.7, -0.4,0,0,1024,1024,364,1024,0,0,-100,0,35.3,0,0,91,4.154,4.144,0,0,0,0,4.15,83.3,2.6247048084,2.624672,6,P-GPS,
174300,2022-08-30 05:07:09,0,0,2.624672,,,2.6247048084,3.28084,0,0,0,0,0,8.298,2.9527888084,2.952756,0,0,0,0,0.447388,35.3, 1.4, -0.3,0,0,1024,1024,364,1024,0,0,-100,0,35.3,0,0,91,4.154,4.144,0,0,0,0,4.15,83.3,2.6247048084,2.624672,6,P-GPS,
174400,2022-08-30 05:07:09,0,0,2.624672,,,2.6247048084,2.952756,0,0,0,0,0,8.298,2.9527888084,2.952756,0,0,0,0,0.447388,35.3, 1.2, -0.2,0,0,1024,1024,364,1024,0,0,-100,0,35.3,0,0,91,4.154,4.144,0,0,0,0,4.15,83.3,2.6247048084,2.624672,6,P-GPS,
174500,2022-08-30 05:07:09,0,0,2.296588,,,2.2966208084,2.952756,0,0,0,0,0,8.298,2.9527888084,2.952756,0,0,0,0,0.447388,35.3, 0.9, 0,0,0,1024,1024,364,1024,0,0,-100,0,35.3,0,0,91,4.154,4.144,0,0,0,0,4.15,83.3,2.2966208084,2.296588,6,P-GPS,
174600,2022-08-30 05:07:09,0,0,2.296588,,,2.2966208084,2.952756,0,0,0,0,0,8.308,2.9527888084,2.952756,0,0,0,0,0.447388,35.4, 0.6, 0,0,0,1024,1024,364,1024,0,0,-100,0,35.3,0,0,91,4.159,4.147,0,0,0,0,4.035,83.3,2.2966208084,2.296588,6,P-GPS,
174700,2022-08-30 05:07:10,0,0,2.296588,,,2.2966208084,2.952756,0,0,0,0,0,8.308,2.9527888084,2.952756,0,0,0,0,0.447388,35.4, 0.5, 0,0,0,1024,1024,364,1024,0,0,-100,0,35.3,0,0,91,4.159,4.147,0,0,0,0,4.035,83.3,2.2966208084,2.296588,6,P-GPS,
174800,2022-08-30 05:07:10,0,0,1.968504,,,1.9685368084,2.624672,0,0,0,0,0,8.308,2.9527888084,2.952756,0,0,0,0,0.447388,35.4, 0.4, 0,0,0,1024,1024,364,1024,0,0,-100,0,35.3,0,0,91,4.159,4.147,0,0,0,0,4.035,83.3,1.9685368084,1.968504,6,P-GPS,
174900,2022-08-30 05:07:10,0,0,1.968504,,,1.9685368084,2.624672,0,0,0,0,0,8.308,2.9527888084,2.952756,0,0,0,0,0.447388,35.4, 0.4, 0,0,0,1024,1024,364,1024,0,0,-100,0,35.3,0,0,91,4.159,4.147,0,0,0,0,4.035,83.3,1.9685368084,1.968504,6,P-GPS,
175000,2022-08-30 05:07:10,0,0,1.968504,,,1.9685368084,2.624672,0,0,0,0,0,8.308,2.9527888084,2.952756,0,0,0,0,0.447388,35.4, 0.5, 0,0,0,1024,1024,364,1024,0,0,-100,0,35.3,0,0,91,4.159,4.147,0,0,0,0,4.035,83.3,1.9685368084,1.968504,6,P-GPS,
175100,2022-08-30 05:07:10,0,0,1.968504,,,1.9685368084,2.624672,0,0,0,0,0,8.308,2.9527888084,2.952756,0,0,0,0,0.447388,35.4, 1, 0,0,0,1024,1024,364,1024,0,0,-100,0,35.3,0,0,91,4.159,4.147,0,0,0,0,4.035,83.3,1.9685368084,1.968504,6,P-GPS,
175200,2022-08-30 05:07:10,0,0,1.64042,,,1.6404528084,2.296588,0,0,0,0,0,8.308,2.9527888084,2.952756,0,0,0,0,0.447388,35.4, 1, -0.1,0,0,1024,1024,364,1024,0,0,-100,0,35.3,0,0,91,4.159,4.147,0,0,0,0,4.035,83.3,1.6404528084,1.64042,6,P-GPS,
175300,2022-08-30 05:07:10,0,0,1.64042,,,1.6404528084,2.296588,0,0,0,0,0,8.308,2.9527888084,2.952756,0,0,0,0,0.447388,35.4, 0.8, -0.1,0,0,1024,1024,364,1024,0,0,-100,0,35.3,0,0,91,4.159,4.147,0,0,0,0,4.035,83.3,1.6404528084,1.64042,6,P-GPS,
175400,2022-08-30 05:07:10,0,0,1.64042,,,1.6404528084,2.296588,0,0,0,0,0,8.308,2.9527888084,2.952756,0,0,0,0,0.447388,35.4, 0.7, 0,0,0,1024,1024,364,1024,0,0,-100,0,35.3,0,0,91,4.159,4.147,0,0,0,0,4.035,83.3,1.6404528084,1.64042,6,P-GPS,
175500,2022-08-30 05:07:10,0,0,1.64042,,,1.6404528084,2.296588,0,0,0,0,0,8.308,2.9527888084,2.952756,0,0,0,0,0.223694,35.4, 0.7, 0.1,0,0,1024,1024,364,1024,0,0,-100,0,35.3,0,0,91,4.159,4.147,0,0,0,0,4.035,83.3,1.6404528084,1.64042,6,P-GPS,
175600,2022-08-30 05:07:10,0,0,1.64042,,,1.6404528084,1.968504,0,0,0,0,0,8.294,2.9527888084,2.952756,0,0,0,0,0.223694,35.4, 0.7, 0.3,0,0,1024,1024,364,1024,0,0,-100,0,35.3,0,0,90,4.151,4.142,0,0,0,0,4.019,83.48,1.6404528084,1.64042,6,P-GPS,
175700,2022-08-30 05:07:11,0,0,1.64042,,,1.6404528084,1.968504,0,0,0,0,0,8.294,2.9527888084,2.952756,0,0,0,0,0.223694,35.4, 0.6, 0.3,0,0,1024,1024,364,1024,0,0,-100,0,35.3,0,0,90,4.151,4.142,0,0,0,0,4.019,83.48,1.6404528084,1.64042,6,P-GPS,
175800,2022-08-30 05:07:11,0,0,1.312336,,,1.3123688084,1.968504,0,0,0,0,0,8.294,2.9527888084,2.952756,0,0,0,0,0.223694,35.4, 0.6, 0.2,0,0,1024,1024,364,1024,0,0,-100,0,35.3,0,0,90,4.151,4.142,0,0,0,0,4.019,83.48,1.3123688084,1.312336,6,P-GPS,
175900,2022-08-30 05:07:11,0,0,1.312336,,,1.3123688084,1.968504,0,0,0,0,0,8.294,2.9527888084,2.952756,0,0,0,0,0.223694,35.4, 0.4, 0.1,0,0,1024,1024,364,1024,0,0,-100,0,35.3,0,0,90,4.151,4.142,0,0,0,0,4.019,83.48,1.3123688084,1.312336,6,P-GPS,
