time(millisecond),datetime(utc),latitude,longitude,height_above_takeoff(feet),height_above_ground_at_drone_location(feet),ground_elevation_at_drone_location(feet),altitude_above_seaLevel(feet),height_sonar(feet),speed(mph),distance(feet),mileage(feet),satellites,gpslevel,voltage(v),max_altitude(feet),max_ascent(feet),max_speed(mph),max_distance(feet), xSpeed(mph), ySpeed(mph), zSpeed(mph), compass_heading(degrees), pitch(degrees), roll(degrees),isPhoto,isVideo,rc_elevator,rc_aileron,rc_throttle,rc_rudder,rc_elevator(percent),rc_aileron(percent),rc_throttle(percent),rc_rudder(percent),gimbal_heading(degrees),gimbal_pitch(degrees),gimbal_roll(degrees),battery_percent,voltageCell1,voltageCell2,voltageCell3,voltageCell4,voltageCell5,voltageCell6,current(A),battery_temperature(f),altitude(feet),ascent(feet),flycStateRaw,flycState,message
0,2022-08-11 20:26:13,-34.9287770583475,-56.1628207392668,0,0,5.866736736292,5.866736736292,0.328084,0,0,0,18,5,0,5.866736736292,0,0,0,0,0,0,224.8, 1.1, -1.4,0,0,364,364,364,1684,-100,-100,-100,100,235.4,0,0,61,3.956,3.953,0,0,0,0,0,91.4,5.866736736292,0,41,Motors_Started,"Aeronave en Zona de altitud restringida (150). Vuela con precaución (Code: 190001). Baja velocidad de la tarjeta SD. Puede afectar a su uso normal. Sustituye la tarjeta SD (Code: 10028)"
100,2022-08-11 20:26:13,-34.9287770522002,-56.1628207061479,0,0,5.866736736292,5.866736736292,0.328084,0,0.0101575134484,0.0101575134484,18,5,0,5.866736736292,0,0,0.0101575134484,0,0,0,224.9, 1.1, -1.4,0,0,364,364,364,1684,-100,-100,-100,100,235.4,0,0,61,3.956,3.953,0,0,0,0,0,91.4,5.866736736292,0,41,Motors_Started,
200,2022-08-11 20:26:13,-34.9287770556826,-56.1628206990123,0,0,5.866736736292,5.866736736292,0.328084,0,0.0120804137724,0.0126414702208,18,5,0,5.866736736292,0,0,0.0120804137724,0,0,0,224.9, 1.1, -1.4,0,0,364,364,364,1684,-100,-100,-100,100,235.4,0,0,61,3.956,3.953,0,0,0,0,0,91.4,5.866736736292,0,41,Motors_Started,
300,2022-08-11 20:26:13,-34.9287770863747,-56.1628207009036,0,0,5.866736736292,5.866736736292,0.328084,0,0.0153704729328,0.0238537409208,18,5,0,5.866736736292,0,0,0.0153704729328,0,0,0,224.9, 1.1, -1.4,0,0,364,364,364,1684,-100,-100,-100,100,235.4,0,0,61,3.956,3.953,0,0,0,0,0,91.4,5.866736736292,0,41,Motors_Started,
400,2022-08-11 20:26:13,-34.9287770958343,-56.1628206584208,0,0,5.866736736292,5.866736736292,0.328084,0,0.0277829077132,0.037021982812,18,5,0,5.866736736292,0,0,0.0277829077132,0,0,0,224.9, 1.1, -1.4,0,0,364,364,364,1684,-100,-100,-100,100,235.4,0,0,61,3.956,3.953,0,0,0,0,0,91.4,5.866736736292,0,41,Motors_Started,
500,2022-08-11 20:26:13,-34.9287771055594,-56.1628206325105,0,0,5.866736736292,5.866736736292,0.328084,0,0.036283137644,0.045545933216,18,5,0,5.866736736292,0,0,0.036283137644,0,0,0,224.9, 1.1, -1.4,0,0,492,364,891,1562,-81,-100,-20,82,235.4,0,0,61,3.956,3.953,0,0,0,0,0,91.4,5.866736736292,0,41,Motors_Started,"Setting new Return-To-Home altitude to 40m (131 ft). Data Recorder File Index is 19. Setting new Maximum Flight Altitude to 120m (394 ft)"
600,2022-08-11 20:26:13,-34.9287771154343,-56.1628206270886,0,0,5.866736736292,5.866736736292,0.328084,0,0.039494095752,0.049497048828,18,5,0,5.866736736292,0,0,0.039494095752,0,0,0,224.9, 1.1, -1.4,0,0,1024,935,1024,1302,0,-13,0,42,235.4,0,0,61,3.956,3.953,0,0,0,0,0,91.4,5.866736736292,0,41,Motors_Started,
700,2022-08-11 20:26:14,-34.9287771638202,-56.1628206221736,0,0,5.866736736292,5.866736736292,0.328084,0,0.052035106652,0.067211616324,18,5,0,5.866736736292,0,0,0.052035106652,0,0,0,224.9, 1.1, -1.4,0,0,1024,1024,1024,1024,0,0,0,0,235.4,0,0,61,3.956,3.953,0,0,0,0,0,91.4,5.866736736292,0,41,Motors_Started,
800,2022-08-11 20:26:14,-34.9287771708486,-56.162820580878,0,0,5.866736736292,5.866736736292,0.328084,0,0.062685697544,0.07982775846,18,5,0,5.866736736292,0,0,0.062685697544,0,0,0,224.9, 1.1, -1.4,0,0,1024,1024,1024,1024,0,0,0,0,235.4,0,0,61,3.956,3.953,0,0,0,0,0,91.4,5.866736736292,0,41,Motors_Started,
900,2022-08-11 20:26:14,-34.9287771981405,-56.1628205553008,0,0,5.866736736292,5.866736736292,0.328084,0,0.075030514212,0.092384845476,18,5,0,5.866736736292,0,0,0.075030514212,0,0,0,224.9, 1.1, -1.4,0,0,1024,1024,1024,1024,0,0,0,0,235.4,0,0,61,3.956,3.953,0,0,0,0,0,91.4,5.866736736292,0,41,Motors_Started,
1000,2022-08-11 20:26:14,-34.928777255636,-56.162820549525,0,0,5.866736736292,5.866736736292,0.328084,0,0.091665357264,0.113433074496,18,5,0,5.866736736292,0,0,0.091665357264,0,0,0,224.8, 1.1, -1.4,0,0,1024,1024,1345,1051,0,0,49,4,235.4,0,0,61,3.956,3.953,0,0,0,0,0,91.4,5.866736736292,0,41,Motors_Started,
1100,2022-08-11 20:26:14,-34.9287773575851,-56.1628206230957,0,0,5.866736736292,5.866736736292,0.328084,0,0.11457349448,0.1566519079,18,5,0,5.866736736292,0,0,0.11457349448,0,0,0,224.9, 1.1, -1.4,0,0,1024,1024,1345,1051,0,0,49,4,235.4,0,0,61,3.956,3.953,0,0,0,0,0,91.4,5.866736736292,0,10,Assisted_Takeoff,
1200,2022-08-11 20:26:14,-34.9287773759588,-56.1628206313415,0,0,5.866736736292,5.866736736292,0.328084,0,0.120293310936,0.163794952748,18,5,0,5.866736736292,0,0,0.120293310936,0,0,0,224.9, 1.1, -1.4,0,0,1024,1024,1684,1024,0,0,100,0,235.4,0,0,61,3.956,3.953,0,0,0,0,0,91.4,5.866736736292,0,10,Assisted_Takeoff,
1300,2022-08-11 20:26:14,-34.928777386102,-56.1628206408791,0,0,5.866736736292,5.866736736292,0.328084,0,0.123149282156,0.168467525076,18,5,0,5.866736736292,0,0,0.123149282156,0,0,0,224.8, 1.1, -1.4,0,0,1024,1024,1684,1024,0,0,100,0,235.4,0,0,61,3.956,3.953,0,0,0,0,0,91.4,5.866736736292,0,10,Assisted_Takeoff,
1400,2022-08-11 20:26:14,-34.928777386492,-56.1628206509339,0,0,5.866736736292,5.866736736292,0.328084,0,0.122604334632,0.171478680028,18,5,0,5.866736736292,0,0,0.123149282156,0,0,0,224.8, 1, -1.4,0,0,1024,1024,1667,1024,0,0,97,0,235.4,0,0,61,3.956,3.953,0,0,0,0,0,91.4,5.866736736292,0,10,Assisted_Takeoff,
1500,2022-08-11 20:26:14,-34.9287774045743,-56.1628206596682,0,0,5.866736736292,5.866736736292,0.328084,0,0.12854495162,0.17857448078,18,5,0,5.866736736292,0,0,0.12854495162,0,0,0,224.7, 0.9, -1.3,0,0,1024,1024,1311,1024,0,0,43,0,235.3,0,0,61,3.956,3.953,0,0,0,0,0,91.4,5.866736736292,0,10,Assisted_Takeoff,
1600,2022-08-11 20:26:14,-34.9287774606489,-56.1628207097907,0,0,5.866736736292,5.866736736292,0.328084,0,0.14704396796,0.203938982904,18,5,7.915,5.866736736292,0,0,0.14704396796,0,0,0,224.1, 0.4, -1.4,0,0,1024,1024,1684,1024,0,0,100,0,235.1,0,0,61,3.956,3.953,0,0,0,0,1.385,91.4,5.866736736292,0,10,Assisted_Takeoff,
1700,2022-08-11 20:26:15,-34.9287774814295,-56.1628207025507,0,0,5.866736736292,5.866736736292,0.328084,0,0.154751317288,0.211823825676,18,5,7.915,5.866736736292,0,0,0.154751317288,0,0,0,224, -0.7, -0.9,0,0,1024,1024,1684,1024,0,0,100,0,234.7,0,0,61,3.956,3.953,0,0,0,0,1.385,91.4,5.866736736292,0,10,Assisted_Takeoff,
1800,2022-08-11 20:26:15,-34.9287774807342,-56.1628206825482,0,0,5.866736736292,5.866736736292,0.328084,0,0.155038718872,0.217812671012,18,5,7.915,5.866736736292,0,0,0.155038718872,0,0,-0.223694,224.5, -0.6, -0.3,0,0,1024,1024,1684,1026,0,0,100,0,234.7,0,0,61,3.956,3.953,0,0,0,0,1.385,91.4,5.866736736292,0,10,Assisted_Takeoff,"Baja velocidad de la tarjeta SD. Puede afectar a su uso normal. Sustituye la tarjeta SD (Code: 10028)"
1900,2022-08-11 20:26:15,-34.9287775324238,-56.162820663827,0,0.032808399999999,5.833928336292,5.866736736292,0.328084,0,0.17443242028,0.23748524382,18,5,7.915,5.866736736292,0,0,0.17443242028,0,0,-0.671082,224.5, -0.8, 1,0,0,1024,1024,1684,1026,0,0,100,0,234.7,0,0,61,3.956,3.953,0,0,0,0,1.385,91.4,5.866736736292,0,6,P-GPS,
2000,2022-08-11 20:26:15,-34.9287775811456,-56.1628206653474,0,0.032808399999999,5.833928336292,5.866736736292,0.656168,0,0.192020019268,0.25526739662,18,5,7.915,5.866736736292,0,0,0.192020019268,0,0,-0.894776,224.5, 0, 0.5,0,0,1024,1024,1684,1026,0,0,100,0,234.7,0,0,61,3.956,3.953,0,0,0,0,1.385,91.4,5.866736736292,0,6,P-GPS,
2100,2022-08-11 20:26:15,-34.9287776692909,-56.1628206570898,0.328084,0.3608924,5.833928336292,6.194820736292,0.656168,0,0.2242536161,0.287521662744,18,5,7.915,6.194820736292,0.328084,0,0.2242536161,0,0,-1.342164,224.4, 0.8, 0,0,0,1024,1024,1461,1024,0,0,66,0,234.7,0,0,61,3.956,3.953,0,0,0,0,1.385,91.4,6.194820736292,0.328084,6,P-GPS,
2200,2022-08-11 20:26:15,-34.9287777568674,-56.1628206172898,0.328084,0.3608924,5.833928336292,6.194820736292,0.984252,0.223694,0.257453092228,0.321619760948,18,5,7.915,6.194820736292,0.328084,0.223694,0.257453092228,-0.223694,0,-1.789552,224, 0, -0.2,0,0,1024,1024,1024,1024,0,0,0,0,234.7,0,0,61,3.956,3.953,0,0,0,0,1.385,91.4,6.194820736292,0.328084,6,P-GPS,
2300,2022-08-11 20:26:15,-34.928777869802,-56.1628205809812,0.656168,0.6889764,5.833928336292,6.522904736292,0.984252,0.223694,0.299820875736,0.36423229512,18,5,7.915,6.522904736292,0.656168,0.223694,0.299820875736,-0.223694,0,-2.013246,224.1, 0.3, 0.7,0,0,1024,1024,1024,1024,0,0,0,0,234.7,0,0,61,3.956,3.953,0,0,0,0,1.385,91.4,6.522904736292,0.656168,6,P-GPS,
2400,2022-08-11 20:26:15,-34.9287780230748,-56.1628204518112,0.984252,1.0170604,5.833928336292,6.850988736292,1.312336,0.223694,0.36232940792,0.4322014574,18,5,7.915,6.850988736292,0.984252,0.223694,0.36232940792,-0.223694,0,-1.789552,224.2, 2.2, 1.5,0,0,1024,1024,1024,1024,0,0,0,0,234.7,0,0,61,3.956,3.953,0,0,0,0,1.385,91.4,6.850988736292,0.984252,6,P-GPS,
2500,2022-08-11 20:26:15,-34.92877818633,-56.1628204738892,1.312336,1.3451444,5.833928336292,7.179072736292,1.64042,0.223694,0.41913059084,0.49213256168,18,5,7.915,7.179072736292,1.312336,0.223694,0.41913059084,-0.223694,0,-1.565858,224.3, 3.1, 2.1,0,0,1024,1024,1024,1024,0,0,0,0,234.7,0,0,61,3.956,3.953,0,0,0,0,1.385,91.4,7.179072736292,1.312336,6,P-GPS,"Baja velocidad de la tarjeta SD. Puede afectar a su uso normal. Sustituye la tarjeta SD (Code: 10028)"
2600,2022-08-11 20:26:15,-34.9287783685911,-56.1628205404563,1.64042,1.6732284,5.833928336292,7.507156736292,1.64042,0.223694,0.4817257372,0.56154529356,18,5,7.915,7.507156736292,1.64042,0.223694,0.4817257372,-0.223694,0,-1.11847,224.3, 3.5, 2,0,0,1054,1024,1024,1024,5,0,0,0,234.7,0,0,61,3.956,3.953,0,0,0,0,1.385,91.4,7.507156736292,1.64042,6,P-GPS,
2700,2022-08-11 20:26:16,-34.9287785144684,-56.1628205950995,1.64042,1.7060368,5.801119936292,7.507156736292,1.968504,0.223694,0.53301182808,0.6172244292,18,5,7.915,7.507156736292,1.64042,0.223694,0.53301182808,-0.223694,0,-0.671082,224.2, 3.7, 2.2,0,0,1678,1024,1024,1024,99,0,0,0,234.7,0,0,61,3.896,3.886,0,0,0,0,3.651,91.22,7.507156736292,1.64042,6,P-GPS,
2800,2022-08-11 20:26:16,-34.9287785826183,-56.1628206098081,1.64042,1.7060368,5.801119936292,7.507156736292,1.968504,0.223694,0.55747705196,0.64247377384,18,5,7.915,7.507156736292,1.64042,0.223694,0.55747705196,-0.223694,0,-0.223694,224.1, 3.5, 1.9,0,0,1684,1024,1024,1024,100,0,0,0,234.7,0,0,61,3.896,3.886,0,0,0,0,3.651,91.22,7.507156736292,1.64042,6,P-GPS,
2900,2022-08-11 20:26:16,-34.9287786967454,-56.1628206426607,1.64042,1.7060368,5.801119936292,7.507156736292,1.968504,0.3131716,0.59846786692,0.68525592744,18,5,7.915,7.507156736292,1.64042,0.3131716,0.59846786692,-0.223694,-0.223694,0,223.9, -5.2, 2,0,0,1684,1024,1024,1024,100,0,0,0,234.7,0,0,61,3.896,3.886,0,0,0,0,3.651,91.22,7.507156736292,1.64042,6,P-GPS,
3000,2022-08-11 20:26:16,-34.928778905996,-56.162820768001,1.968504,2.0341208,5.801119936292,7.835240736292,1.968504,0.6263432,0.67416668824,0.77031170444,18,5,7.915,7.835240736292,1.968504,0.6263432,0.67416668824,-0.447388,-0.447388,0,223.7, -13.2, 2.7,0,0,1684,1024,1024,1024,100,0,0,0,234.7,0,0,61,3.896,3.886,0,0,0,0,3.651,91.22,7.835240736292,1.968504,6,P-GPS,
3100,2022-08-11 20:26:16,-34.928779225162,-56.1628210561007,1.968504,2.0341208,5.801119936292,7.835240736292,1.968504,1.2750558,0.79622049792,0.91518047548,18,5,7.915,7.835240736292,1.968504,1.2750558,0.79622049792,-0.894776,-0.894776,0,223.7, -14.5, 1.5,0,0,1684,1024,1024,1024,100,0,0,0,234.7,0,0,61,3.896,3.886,0,0,0,0,3.651,91.22,7.835240736292,1.968504,6,P-GPS,
3200,2022-08-11 20:26:16,-34.9287797172448,-56.1628215640975,1.968504,2.0669292,5.768311536292,7.835240736292,1.968504,1.901399,1.00098100316,1.15039045676,18,5,7.915,7.835240736292,1.968504,1.901399,1.00098100316,-1.342164,-1.342164,0,223.7, -14.1, 1.3,0,0,1684,1024,1024,1024,100,0,0,0,234.7,0,0,61,3.896,3.886,0,0,0,0,3.651,91.22,7.835240736292,1.968504,6,P-GPS,
3300,2022-08-11 20:26:16,-34.9287802746673,-56.1628222319708,1.968504,2.0669292,5.768311536292,7.835240736292,1.968504,2.684328,1.25555122128,1.43547248688,18,5,7.915,7.835240736292,1.968504,2.684328,1.25555122128,-2.013246,-1.789552,0,223.8, -13.7, 1.7,0,0,1684,1024,1024,1024,100,0,0,0,234.7,0,0,61,3.896,3.886,0,0,0,0,3.651,91.22,7.835240736292,1.968504,6,P-GPS,
3400,2022-08-11 20:26:16,-34.9287811278535,-56.1628232535078,1.968504,2.0997376,5.735503136292,7.835240736292,1.968504,3.3330406,1.664370132,1.87167328824,18,5,7.915,7.835240736292,1.968504,3.3330406,1.664370132,-2.460634,-2.23694,0,224.1, -13.4, 2.2,0,0,1684,1024,1024,1024,100,0,0,0,234.7,0,0,61,3.896,3.886,0,0,0,0,3.651,91.22,7.835240736292,1.968504,6,P-GPS,
3500,2022-08-11 20:26:16,-34.9287821537863,-56.1628244009168,1.64042,1.8372704,5.669886336292,7.507156736292,1.968504,3.9593838,2.15773300868,2.37952107352,18,5,7.915,7.835240736292,1.968504,3.9593838,2.15773300868,-2.908022,-2.684328,0,224.2, -12.6, 2.1,0,0,1684,1024,1024,1024,100,0,0,0,234.7,0,0,61,3.896,3.886,0,0,0,0,3.651,91.22,7.507156736292,1.64042,6,P-GPS,
3600,2022-08-11 20:26:16,-34.9287834983342,-56.1628257830374,1.64042,1.8700788,5.637077936292,7.507156736292,1.968504,4.585727,2.79230980064,3.02105980796,18,5,7.915,7.835240736292,1.968504,4.585727,2.79230980064,-3.35541,-3.131716,0,224.4, -11.9, 2.3,0,0,1684,1024,1024,1024,100,0,0,0,234.7,0,0,61,3.896,3.886,0,0,0,0,3.651,91.22,7.507156736292,1.64042,6,P-GPS,
3700,2022-08-11 20:26:17,-34.9287852209487,-56.1628273927681,1.64042,1.9356956,5.571461136292,7.507156736292,1.968504,4.8988986,3.5819226868,3.8127953976,18,5,7.822,7.835240736292,1.968504,4.8988986,3.5819226868,-3.579104,-3.35541,0,224.5, -12, 2.1,0,0,1684,1024,1024,1024,100,0,0,0,234.7,0,0,61,3.909,3.9,0,0,0,0,4.183,91.4,7.507156736292,1.64042,6,P-GPS,
3800,2022-08-11 20:26:17,-34.9287868923781,-56.1628292188889,1.64042,2.0013124,5.505844336292,7.507156736292,1.968504,5.368656,4.3939962036,4.6314962112,18,5,7.822,7.835240736292,1.968504,5.368656,4.3939962036,-3.802798,-3.802798,0,224.6, -12.5, 2.2,0,0,1684,1024,1024,1024,100,0,0,0,234.7,0,0,61,3.909,3.9,0,0,0,0,4.183,91.4,7.507156736292,1.64042,6,P-GPS,
3900,2022-08-11 20:26:17,-34.9287886150083,-56.1628311001564,1.64042,2.0669292,5.440227536292,7.507156736292,1.968504,5.8607828,5.2329398,5.4751314088,18,5,7.822,7.835240736292,1.968504,5.8607828,5.2329398,-4.250186,-4.026492,0,224.5, -12.5, 1.8,0,0,1684,1024,1024,1024,100,0,0,0,234.7,0,0,61,3.909,3.9,0,0,0,0,4.183,91.4,7.507156736292,1.64042,6,P-GPS,
4000,2022-08-11 20:26:17,-34.9287905684702,-56.1628332048472,1.64042,2.132546,5.374610736292,7.507156736292,1.968504,6.1739544,6.1806432424,6.4260828828,18,5,7.822,7.835240736292,1.968504,6.1739544,6.1806432424,-4.47388,-4.250186,0,224.5, -12.7, 1.6,0,0,1684,1024,1024,1024,100,0,0,0,234.7,0,0,61,3.909,3.9,0,0,0,0,4.183,91.4,7.507156736292,1.64042,6,P-GPS,
4100,2022-08-11 20:26:17,-34.928792642638,-56.1628353619488,1.64042,2.1981628,5.308993936292,7.507156736292,1.968504,6.487126,7.1736878936,7.4205711036,19,5,7.822,7.835240736292,1.968504,6.487126,7.1736878936,-4.697574,-4.47388,0,224.6, -12.6, 2.1,0,0,1510,1024,1024,1024,74,0,0,0,234.7,0,0,61,3.909,3.9,0,0,0,0,4.183,91.4,7.507156736292,1.64042,6,P-GPS,
4200,2022-08-11 20:26:17,-34.9287951148,-56.1628378112475,1.64042,2.296588,5.210568736292,7.507156736292,2.296588,6.8002976,8.3353677208,8.5826118232,19,5,7.822,7.835240736292,1.968504,6.8002976,8.3353677208,-4.921268,-4.697574,0,224.6, -11.9, 2.2,0,0,1030,1024,1024,1024,1,0,0,0,234.7,0,0,61,3.909,3.9,0,0,0,0,4.183,91.4,7.507156736292,1.64042,6,P-GPS,
4300,2022-08-11 20:26:17,-34.9287974920237,-56.1628402039729,1.64042,2.3622048,5.144951936292,7.507156736292,2.296588,7.1134692,9.4594163132,9.7071197332,19,5,7.822,7.835240736292,1.968504,7.1134692,9.4594163132,-5.144962,-4.921268,0,224.6, -3.8, 2.3,0,0,1024,929,1024,1024,0,-14,0,0,234.7,0,0,61,3.909,3.9,0,0,0,0,4.183,91.4,7.507156736292,1.64042,6,P-GPS,
4400,2022-08-11 20:26:17,-34.9287998203738,-56.1628426297236,1.64042,2.46063,5.046526736292,7.507156736292,2.296588,6.9568834,10.5756893148,10.8243441784,19,5,7.822,7.835240736292,1.968504,7.1134692,10.5756893148,-5.144962,-4.697574,0,225.1, 18.4, 2.4,0,0,1024,894,1024,1024,0,-20,0,0,234.7,0,0,61,3.909,3.9,0,0,0,0,4.183,91.4,7.507156736292,1.64042,6,P-GPS,
4500,2022-08-11 20:26:17,-34.9288019302575,-56.1628442562664,1.64042,2.5262468,4.980909936292,7.507156736292,1.968504,6.1739544,11.481791706,11.7349741288,20,5,7.822,7.835240736292,1.968504,7.1134692,11.481791706,-4.47388,-4.250186,0,225.1, 14.6, 1.1,0,0,1024,1024,1024,1024,0,0,0,0,234.7,0,0,61,3.909,3.9,0,0,0,0,4.183,91.4,7.507156736292,1.64042,6,P-GPS,
4600,2022-08-11 20:26:17,-34.9288038510348,-56.162845971205,1.64042,2.5918636,4.915293136292,7.507156736292,1.968504,6.1739544,12.3499675868,12.6034780936,20,5,7.822,7.835240736292,1.968504,7.1134692,12.3499675868,-4.250186,-3.802798,0,224.8, 10.4, 1.9,0,0,1024,1024,1024,1024,0,0,0,0,234.7,0,0,61,3.909,3.9,0,0,0,0,4.183,91.4,7.507156736292,1.64042,6,P-GPS,
4700,2022-08-11 20:26:18,-34.9288055365639,-56.1628474256062,1.64042,2.6574804,4.849676336292,7.507156736292,1.968504,4.7870516,13.1026578996,13.3567589576,20,5,7.809,7.835240736292,1.968504,7.1134692,13.1026578996,-3.802798,-2.908022,0,221.5, 18.1, 2.7,0,0,1024,1024,1024,1024,0,0,0,0,234.7,0,0,61,3.907,3.901,0,0,0,0,4.438,91.4,7.507156736292,1.64042,6,P-GPS,
4800,2022-08-11 20:26:18,-34.9288071135931,-56.1628487843302,1.64042,2.7230972,4.784059536292,7.507156736292,1.968504,4.1607084,13.8065621216,14.0612209224,20,5,7.809,7.835240736292,1.968504,7.1134692,13.8065621216,-3.35541,-2.460634,0,221.2, 18, 2.7,0,0,1024,1024,1024,1024,0,0,0,0,234.7,0,0,61,3.907,3.901,0,0,0,0,4.438,91.4,7.507156736292,1.64042,6,P-GPS,
4900,2022-08-11 20:26:18,-34.9288083358755,-56.1628498488438,1.64042,2.7559056,4.751251136292,7.507156736292,1.968504,3.35541,14.3542327428,14.6091868192,20,5,7.809,7.835240736292,1.968504,7.1134692,14.3542327428,-2.684328,-2.013246,0,221.7, 17.9, 2.3,0,0,1024,1024,1024,1024,0,0,0,0,234.7,0,0,61,3.907,3.901,0,0,0,0,4.438,91.4,7.507156736292,1.64042,6,P-GPS,
5000,2022-08-11 20:26:18,-34.928808868108,-56.1628504333561,1.64042,2.788714,4.718442736292,7.507156736292,1.968504,2.7290668,14.6146986304,14.8704729168,20,5,7.809,7.835240736292,1.968504,7.1134692,14.6146986304,-2.23694,-1.565858,0,221.5, 17.5, 2.9,0,0,932,1024,1024,1024,-14,0,0,0,234.7,0,0,61,3.907,3.901,0,0,0,0,4.438,91.4,7.507156736292,1.64042,6,P-GPS,
5100,2022-08-11 20:26:18,-34.928809462464,-56.1628509316462,1.64042,2.788714,4.718442736292,7.507156736292,1.968504,1.8119214,14.8774939144,15.1336290932,20,5,7.809,7.835240736292,1.968504,7.1134692,14.8774939144,-1.565858,-0.894776,0,220.7, 14.5, 2.9,0,0,800,1024,1024,1024,-34,0,0,0,234.7,0,0,61,3.907,3.901,0,0,0,0,4.438,91.4,7.507156736292,1.64042,6,P-GPS,
5200,2022-08-11 20:26:18,-34.9288097843959,-56.1628510820811,1.64042,2.8215224,4.685634336292,7.507156736292,1.968504,1.4987498,14.998196018,15.2593836904,20,5,7.809,7.835240736292,1.968504,7.1134692,14.998196018,-1.342164,-0.671082,0,220.6, 14, 2.8,0,0,1024,1024,1024,1024,0,0,0,0,234.7,0,0,61,3.907,3.901,0,0,0,0,4.438,91.4,7.507156736292,1.64042,6,P-GPS,
5300,2022-08-11 20:26:18,-34.928809921265,-56.1628511148657,1.64042,2.8215224,4.685634336292,7.507156736292,1.968504,1.006623,15.0438981192,15.3102695188,20,5,7.809,7.835240736292,1.968504,7.1134692,15.0438981192,-0.894776,-0.447388,0,220.4, 8.5, 3,0,0,1024,1024,1024,1024,0,0,0,0,234.7,0,0,61,3.907,3.901,0,0,0,0,4.438,91.4,7.507156736292,1.64042,6,P-GPS,"Punto de origen actualizado. Altitud de RPO establecida en 40m (Code: 3000001)"
5400,2022-08-11 20:26:18,-34.9288090611046,-56.1628506092592,1.64042,2.788714,4.718442736292,7.507156736292,1.968504,0.8052984,14.702592334,15.6586619184,20,5,7.809,7.835240736292,1.968504,7.1134692,15.0438981192,-0.671082,-0.447388,0,220.4, 7.8, 2.9,0,0,1024,1024,1024,1024,0,0,0,0,234.7,0,0,61,3.907,3.901,0,0,0,0,4.438,91.4,7.507156736292,1.64042,6,P-GPS,
5500,2022-08-11 20:26:18,-34.9288090471065,-56.16285062095,1.968504,3.116798,4.718442736292,7.835240736292,1.968504,0.7158208,14.7006566384,15.6648298976,20,5,7.809,7.835240736292,1.968504,7.1134692,15.0438981192,-0.671082,-0.223694,0,220.5, 7.3, 3,0,0,1024,1024,1024,1024,0,0,0,0,234.7,0,0,61,3.907,3.901,0,0,0,0,4.438,91.4,7.835240736292,1.968504,6,P-GPS,
5600,2022-08-11 20:26:18,-34.9288090513079,-56.162850598036,1.968504,3.116798,4.718442736292,7.835240736292,1.968504,0.4921268,14.6977038824,15.6718837036,20,5,7.809,7.835240736292,1.968504,7.1134692,15.0438981192,-0.447388,-0.223694,0,220.6, 6.8, 2.7,0,0,1024,1024,1024,1024,0,0,0,0,234.7,0,0,61,3.907,3.901,0,0,0,0,4.438,91.4,7.835240736292,1.968504,6,P-GPS,
5700,2022-08-11 20:26:19,-34.9288090291953,-56.1628505802755,1.968504,3.116798,4.718442736292,7.835240736292,1.968504,0.4921268,14.6880910212,15.6815293732,21,5,7.787,7.835240736292,1.968504,7.1134692,15.0438981192,-0.447388,-0.223694,0,220.7, 5.9, 2.8,0,0,1024,1024,1024,1024,0,0,0,0,234.7,0,0,61,3.902,3.894,0,0,0,0,4.736,91.4,7.835240736292,1.968504,6,P-GPS,
5800,2022-08-11 20:26:19,-34.928808924102,-56.162850726133,1.968504,3.116798,4.718442736292,7.835240736292,1.968504,0.4921268,14.6842524384,15.7396002412,21,5,7.787,7.835240736292,1.968504,7.1134692,15.0438981192,-0.447388,-0.223694,0,220.7, 5.6, 2.8,0,0,1024,1024,1024,1024,0,0,0,0,234.7,0,0,61,3.902,3.894,0,0,0,0,4.736,91.4,7.835240736292,1.968504,6,P-GPS,
5900,2022-08-11 20:26:19,-34.9288089225403,-56.1628507766142,1.968504,3.116798,4.718442736292,7.835240736292,1.968504,0.4921268,14.6930450896,15.7547249136,21,5,7.787,7.835240736292,1.968504,7.1134692,15.0438981192,-0.447388,-0.223694,0,220.6, 5.4, 3.2,0,0,1024,1024,1024,1024,0,0,0,0,234.7,0,0,61,3.902,3.894,0,0,0,0,4.736,91.4,7.835240736292,1.968504,6,P-GPS,
6000,2022-08-11 20:26:19,-34.928808976362,-56.1628508675856,1.968504,3.116798,4.718442736292,7.835240736292,1.968504,0.3131716,14.72523013,15.7882879068,21,5,7.787,7.835240736292,1.968504,7.1134692,15.0438981192,-0.223694,-0.223694,0,220.7, 5.5, 2.5,0,0,1024,1024,1024,1024,0,0,0,0,234.7,0,0,61,3.902,3.894,0,0,0,0,4.736,91.4,7.835240736292,1.968504,6,P-GPS,
6100,2022-08-11 20:26:19,-34.9288090343232,-56.162850950929,1.968504,3.116798,4.718442736292,7.835240736292,1.968504,0.223694,14.7571855116,15.8209650732,21,5,7.787,7.835240736292,1.968504,7.1134692,15.0438981192,-0.223694,0,0,220.7, 5.3, 2.6,0,0,1024,1024,1024,1024,0,0,0,0,234.7,0,0,61,3.902,3.894,0,0,0,0,4.736,91.4,7.835240736292,1.968504,6,P-GPS,
6200,2022-08-11 20:26:19,-34.9288095393119,-56.1628514789277,1.968504,3.1496064,4.685634336292,7.835240736292,1.968504,0.223694,14.9995739708,16.063648808,21,5,7.787,7.835240736292,1.968504,7.1134692,15.0438981192,-0.223694,0,0,220.8, 5.4, 2.3,0,0,1024,1024,1024,1024,0,0,0,0,234.7,0,0,61,3.902,3.894,0,0,0,0,4.736,91.4,7.835240736292,1.968504,6,P-GPS,
6300,2022-08-11 20:26:19,-34.9288096150785,-56.1628515210977,1.968504,3.1496064,4.685634336292,7.835240736292,1.968504,0.223694,15.0291671476,16.0940293864,21,5,7.787,7.835240736292,1.968504,7.1134692,15.0438981192,-0.223694,0,0,220.7, 5.5, 2.9,0,0,1024,1024,1024,1024,0,0,0,0,234.7,0,0,61,3.902,3.894,0,0,0,0,4.736,91.4,7.835240736292,1.968504,6,P-GPS,
6400,2022-08-11 20:26:19,-34.9288096910698,-56.1628515216365,1.968504,3.1496064,4.685634336292,7.835240736292,1.968504,0.223694,15.051181584,16.1217524844,21,5,7.787,7.835240736292,1.968504,7.1134692,15.051181584,-0.223694,0,0,220.7, 4.9, 3.4,0,0,1024,1024,1024,1024,0,0,0,0,234.7,0,0,61,3.902,3.894,0,0,0,0,4.736,91.4,7.835240736292,1.968504,6,P-GPS,
6500,2022-08-11 20:26:19,-34.9288097490489,-56.1628515296772,1.968504,3.1496064,4.685634336292,7.835240736292,1.968504,0.223694,15.069390246,16.143045136,21,5,7.787,7.835240736292,1.968504,7.1134692,15.069390246,-0.223694,0,0,220.9, 5.3, 3.1,0,0,1024,1024,1024,1024,0,0,0,0,234.7,0,0,61,3.902,3.894,0,0,0,0,4.736,91.4,7.835240736292,1.968504,6,P-GPS,
6600,2022-08-11 20:26:19,-34.9288097813003,-56.1628515442259,1.968504,3.1496064,4.685634336292,7.835240736292,1.968504,0,15.081365312,16.1555779448,21,5,7.787,7.835240736292,1.968504,7.1134692,15.081365312,0,0,0,220.8, 5.4, 2.7,0,0,1024,1024,1024,1024,0,0,0,0,234.7,0,0,61,3.902,3.894,0,0,0,0,4.736,91.4,7.835240736292,1.968504,6,P-GPS,
6700,2022-08-11 20:26:20,-34.9288101227149,-56.1628517883771,1.968504,3.1496064,4.685634336292,7.835240736292,1.968504,0,15.2246067864,16.3000005216,21,5,7.787,7.835240736292,1.968504,7.1134692,15.2246067864,0,0,0,220.9, 5.8, 2.7,0,0,1024,1024,1024,1024,0,0,0,0,234.7,0,0,61,3.902,3.894,0,0,0,0,4.736,91.4,7.835240736292,1.968504,6,P-GPS,
6800,2022-08-11 20:26:20,-34.9288101422416,-56.1628518157993,1.968504,3.1496064,4.685634336292,7.835240736292,1.968504,0,15.235236708,16.310860102,21,5,7.798,7.835240736292,1.968504,7.1134692,15.235236708,0,0,0,220.9, 5.3, 3.1,0,0,1024,1024,1024,1024,0,0,0,0,234.7,0,0,61,3.903,3.897,0,0,0,0,4.305,91.4,7.835240736292,1.968504,6,P-GPS,
6900,2022-08-11 20:26:20,-34.9288101411538,-56.1628518203238,1.968504,3.1496064,4.685634336292,7.835240736292,1.968504,0,15.2357616424,16.3122708632,21,5,7.798,7.835240736292,1.968504,7.1134692,15.2357616424,0,0,0,220.8, 5.3, 3,0,0,1024,1024,1024,1024,0,0,0,0,234.7,0,0,61,3.903,3.897,0,0,0,0,4.305,91.4,7.835240736292,1.968504,6,P-GPS,
7000,2022-08-11 20:26:20,-34.9288101103713,-56.1628517820841,1.968504,3.1496064,4.685634336292,7.835240736292,1.968504,0,15.2198823768,16.3282813624,21,5,7.798,7.835240736292,1.968504,7.1134692,15.2357616424,0,0,0,220.9, 5.1, 2.9,0,0,1024,1024,1024,1024,0,0,0,0,234.7,0,0,61,3.903,3.897,0,0,0,0,4.305,91.4,7.835240736292,1.968504,6,P-GPS,
7100,2022-08-11 20:26:20,-34.9288102013672,-56.1628518658037,1.968504,3.1496064,4.685634336292,7.835240736292,1.968504,0,15.2614506196,16.3698824136,21,5,7.798,7.835240736292,1.968504,7.1134692,15.2614506196,0,0,0,220.8, 4.8, 2.9,0,0,1024,1024,1024,1024,0,0,0,0,234.7,0,0,61,3.903,3.897,0,0,0,0,4.305,91.4,7.835240736292,1.968504,6,P-GPS,
7200,2022-08-11 20:26:20,-34.9288101191601,-56.162851790787,1.968504,3.1496064,4.685634336292,7.835240736292,1.968504,0,15.2240162352,16.4073496064,21,5,7.798,7.835240736292,1.968504,7.1134692,15.2614506196,0,0,0,220.8, 4.5, 3,0,0,1024,1024,1024,1024,0,0,0,0,234.7,0,0,61,3.903,3.897,0,0,0,0,4.305,91.4,7.835240736292,1.968504,6,P-GPS,
7300,2022-08-11 20:26:20,-34.9288100232072,-56.162851706733,1.968504,3.1496064,4.685634336292,7.835240736292,1.968504,0,15.180938806,16.4504270356,21,5,7.798,7.835240736292,1.968504,7.1134692,15.2614506196,0,0,0,220.8, 4.1, 3.2,0,0,1024,1024,1024,1024,0,0,0,0,234.7,0,0,61,3.903,3.897,0,0,0,0,4.305,91.4,7.835240736292,1.968504,6,P-GPS,
7400,2022-08-11 20:26:20,-34.9288099011847,-56.162851613099,1.968504,3.1496064,4.685634336292,7.835240736292,1.968504,0,15.1285765996,16.5030517092,21,5,7.798,7.835240736292,1.968504,7.1134692,15.2614506196,0,0,0,220.9, 3.8, 2.5,0,0,1024,1024,1024,1024,0,0,0,0,234.7,0,0,61,3.903,3.897,0,0,0,0,4.305,91.4,7.835240736292,1.968504,6,P-GPS,
7500,2022-08-11 20:26:20,-34.9288098066779,-56.162851522462,1.968504,3.1496064,4.685634336292,7.835240736292,1.968504,0,15.0847117688,16.54691654,21,5,7.798,7.835240736292,1.968504,7.1134692,15.2614506196,0,0,0,220.8, 4.2, 2.7,0,0,1024,1024,1024,1024,0,0,0,0,234.7,0,0,61,3.903,3.897,0,0,0,0,4.305,91.4,7.835240736292,1.968504,6,P-GPS,
7600,2022-08-11 20:26:20,-34.9288097540189,-56.1628514158258,1.968504,3.1496064,4.685634336292,7.835240736292,1.968504,0,15.05003329,16.584154074,21,5,7.798,7.835240736292,1.968504,7.1134692,15.2614506196,0,0,0,220.7, 4, 2.5,0,0,1024,1024,1024,1024,0,0,0,0,234.7,0,0,61,3.903,3.897,0,0,0,0,4.305,91.4,7.835240736292,1.968504,6,P-GPS,
7700,2022-08-11 20:26:21,-34.9288097003894,-56.162851303724,1.968504,3.1496064,4.685634336292,7.835240736292,1.968504,0,15.0140752836,16.6229664112,21,5,7.798,7.835240736292,1.968504,7.1134692,15.2614506196,0,0,0,220.7, 3.3, 3.1,0,0,1024,1024,1024,364,0,0,0,-100,234.7,0,0,61,3.903,3.897,0,0,0,0,4.305,91.4,7.835240736292,1.968504,6,P-GPS,
7800,2022-08-11 20:26:21,-34.9288096374647,-56.1628511832994,1.968504,3.1496064,4.685634336292,7.835240736292,1.968504,0,14.9739506104,16.665682948,21,5,7.793,7.835240736292,1.968504,7.1134692,15.2614506196,0,0,0,220.8, 3.1, 2.8,0,0,1024,1024,1024,364,0,0,0,-100,234.2,0,0,60,3.899,3.895,0,0,0,0,4.155,91.4,7.835240736292,1.968504,6,P-GPS,
7900,2022-08-11 20:26:21,-34.9288096706459,-56.1628509817557,1.968504,3.1496064,4.685634336292,7.835240736292,1.968504,0,14.9469821056,16.7271658896,21,5,7.793,7.835240736292,1.968504,7.1134692,15.2614506196,0,0,0,219.1, 3.2, 3,0,0,1024,1024,1024,364,0,0,0,-100,230.7,0,0,60,3.899,3.895,0,0,0,0,4.155,91.4,7.835240736292,1.968504,6,P-GPS,
8000,2022-08-11 20:26:21,-34.9288096056596,-56.1628508651992,1.968504,3.1496064,4.685634336292,7.835240736292,1.968504,0,14.9070214744,16.7693246836,21,5,7.793,7.835240736292,1.968504,7.1134692,15.2614506196,0,0,0,215, 2.8, 2.7,0,0,1024,1024,1024,364,0,0,0,-100,226.1,0,0,60,3.899,3.895,0,0,0,0,4.155,91.4,7.835240736292,1.968504,6,P-GPS,
8100,2022-08-11 20:26:21,-34.9288095578989,-56.162850776861,1.64042,2.8215224,4.685634336292,7.507156736292,1.968504,0,14.8771658304,16.8009847896,21,5,7.793,7.835240736292,1.968504,7.1134692,15.2614506196,0,0,0,210.5, 3.4, 2.5,0,0,1024,1024,1024,364,0,0,0,-100,221.3,0,0,60,3.899,3.895,0,0,0,0,4.155,91.4,7.507156736292,1.64042,6,P-GPS,
8200,2022-08-11 20:26:21,-34.9288095225942,-56.162850713492,1.64042,2.8215224,4.685634336292,7.507156736292,1.968504,0,14.8554466696,16.8239178612,21,5,7.793,7.835240736292,1.968504,7.1134692,15.2614506196,0,0,0,205.8, 3.7, 2.2,0,0,1024,1024,1024,364,0,0,0,-100,216.5,0,0,60,3.899,3.895,0,0,0,0,4.155,91.4,7.507156736292,1.64042,6,P-GPS,
8300,2022-08-11 20:26:21,-34.9288094959676,-56.1628506841818,1.64042,2.788714,4.718442736292,7.507156736292,1.968504,0,14.8424217348,16.8369756044,21,5,7.793,7.835240736292,1.968504,7.1134692,15.2614506196,0,0,0,201.1, 4, 2,0,0,1024,1024,1024,364,0,0,0,-100,211.7,0,0,60,3.899,3.895,0,0,0,0,4.155,91.4,7.507156736292,1.64042,6,P-GPS,
8400,2022-08-11 20:26:21,-34.928809543225,-56.1628507042777,1.64042,2.8215224,4.685634336292,7.507156736292,1.968504,0,14.8598101868,16.8552498832,21,5,7.793,7.835240736292,1.968504,7.1134692,15.2614506196,0,0,0,196.3, 4.2, 0.6,0,0,1024,1024,1024,364,0,0,0,-100,206.9,0,0,60,3.899,3.895,0,0,0,0,4.155,91.4,7.507156736292,1.64042,6,P-GPS,
8500,2022-08-11 20:26:21,-34.9288094970016,-56.1628507338355,1.64042,2.788714,4.718442736292,7.507156736292,1.968504,0,14.8516737036,16.8742787552,21,5,7.793,7.835240736292,1.968504,7.1134692,15.2614506196,0,0,0,191.4, 4.1, 0.3,0,0,1024,1024,1024,364,0,0,0,-100,202.1,0,0,60,3.899,3.895,0,0,0,0,4.155,91.4,7.507156736292,1.64042,6,P-GPS,
8600,2022-08-11 20:26:21,-34.9288094163497,-56.1628507821764,1.312336,2.46063,4.718442736292,7.179072736292,1.968504,0,14.8370083488,16.9070871552,21,5,7.793,7.835240736292,1.968504,7.1134692,15.2614506196,0,0,0,186.7, 4.3, 0.2,0,0,1024,1024,1024,364,0,0,0,-100,197.3,0,0,60,3.899,3.895,0,0,0,0,4.155,91.4,7.179072736292,1.312336,6,P-GPS,
8700,2022-08-11 20:26:22,-34.92880936379,-56.1628508531146,1.312336,2.46063,4.718442736292,7.179072736292,1.968504,0.223694,14.8346133356,16.9356632716,21,5,7.793,7.835240736292,1.968504,7.1134692,15.2614506196,0,-0.223694,0,181.8, 4.2, -1,0,0,1024,1024,1024,364,0,0,0,-100,192.5,0,0,60,3.899,3.895,0,0,0,0,4.155,91.4,7.179072736292,1.312336,6,P-GPS,
8800,2022-08-11 20:26:22,-34.9288093610917,-56.1628509995318,1.312336,2.46063,4.718442736292,7.179072736292,1.968504,0,14.8604663548,16.979495294,21,5,7.793,7.835240736292,1.968504,7.1134692,15.2614506196,0,0,0,176.9, 3.9, -1.8,0,0,1024,1024,1024,364,0,0,0,-100,187.7,0,0,60,3.899,3.893,0,0,0,0,4.094,91.4,7.179072736292,1.312336,6,P-GPS,
8900,2022-08-11 20:26:22,-34.9288093282834,-56.1628510830163,1.312336,2.46063,4.718442736292,7.179072736292,1.968504,0,14.8662078248,17.0071855836,21,5,7.793,7.835240736292,1.968504,7.1134692,15.2614506196,0,0,0,172, 3.9, -2.7,0,0,1024,1024,1024,364,0,0,0,-100,182.9,0,0,60,3.899,3.893,0,0,0,0,4.094,91.4,7.179072736292,1.312336,6,P-GPS,
9000,2022-08-11 20:26:22,-34.9288092500497,-56.1628511571154,1.312336,2.46063,4.718442736292,7.179072736292,1.968504,0,14.8571855148,17.043307632,21,5,7.793,7.835240736292,1.968504,7.1134692,15.2614506196,0,0,0,167.2, 4.3, -2.3,0,0,1024,1024,1024,364,0,0,0,-100,178,0,0,60,3.899,3.893,0,0,0,0,4.094,91.4,7.179072736292,1.312336,6,P-GPS,
9100,2022-08-11 20:26:22,-34.9288091818309,-56.1628512293323,1.312336,2.46063,4.718442736292,7.179072736292,1.968504,0,14.8507878768,17.076280074,21,5,7.793,7.835240736292,1.968504,7.1134692,15.2614506196,0,0,0,162.5, 3.6, -2.8,0,0,1024,1024,1024,364,0,0,0,-100,173.2,0,0,60,3.899,3.893,0,0,0,0,4.094,91.4,7.179072736292,1.312336,6,P-GPS,
9200,2022-08-11 20:26:22,-34.9288090284429,-56.1628513693337,1.312336,2.46063,4.718442736292,7.179072736292,1.968504,0,14.8324807896,17.146161966,21,5,7.793,7.835240736292,1.968504,7.1134692,15.2614506196,0,0,0,157.7, 2.8, -3.1,0,0,1024,1024,1013,364,0,0,-2,-100,168.4,0,0,60,3.899,3.893,0,0,0,0,4.094,91.4,7.179072736292,1.312336,6,P-GPS,
9300,2022-08-11 20:26:22,-34.9288089779954,-56.1628514529142,1.64042,2.788714,4.718442736292,7.507156736292,1.968504,0,14.83349785,17.1772315208,21,5,7.793,7.835240736292,1.968504,7.1134692,15.2614506196,0,0,0,153, 2.2, -4,0,0,1024,1024,1007,364,0,0,-3,-100,163.6,0,0,60,3.899,3.893,0,0,0,0,4.094,91.4,7.507156736292,1.64042,6,P-GPS,
9400,2022-08-11 20:26:22,-34.9288089375969,-56.1628515377551,1.64042,2.788714,4.718442736292,7.507156736292,1.968504,0,14.8376645168,17.2065622304,21,5,7.793,7.835240736292,1.968504,7.1134692,15.2614506196,0,0,0,148.1, 2.4, -3.9,0,0,1024,1024,1007,364,0,0,-3,-100,158.8,0,0,60,3.899,3.893,0,0,0,0,4.094,91.4,7.507156736292,1.64042,6,P-GPS,
9500,2022-08-11 20:26:22,-34.9288089187102,-56.1628515629875,1.64042,2.788714,4.718442736292,7.507156736292,1.968504,0,14.836942732,17.2167984512,21,5,7.793,7.835240736292,1.968504,7.1134692,15.2614506196,0,0,0,143.3, 2.3, -3.9,0,0,1024,1024,1003,364,0,0,-3,-100,154,0,0,60,3.899,3.893,0,0,0,0,4.094,91.4,7.507156736292,1.64042,6,P-GPS,
9600,2022-08-11 20:26:23,-34.9288090225154,-56.1628514821212,1.64042,2.788714,4.718442736292,7.507156736292,1.968504,0,14.8516408952,17.2617131508,21,5,7.793,7.835240736292,1.968504,7.1134692,15.2614506196,0,0,0,138.4, 2.4, -3.2,0,0,1024,1024,1003,364,0,0,-3,-100,149.2,0,0,60,3.899,3.893,0,0,0,0,4.094,91.4,7.507156736292,1.64042,6,P-GPS,
9700,2022-08-11 20:26:23,-34.9288090339503,-56.1628514121882,1.64042,2.788714,4.718442736292,7.507156736292,1.968504,0,14.8419952256,17.2830714192,21,5,7.793,7.835240736292,1.968504,7.1134692,15.2614506196,0,0,0,133.8, 2.1, -3.5,0,0,1024,1024,993,364,0,0,-5,-100,144.3,0,0,60,3.899,3.893,0,0,0,0,4.094,91.4,7.507156736292,1.64042,6,P-GPS,
9800,2022-08-11 20:26:23,-34.9288090530389,-56.1628513415047,1.64042,2.788714,4.718442736292,7.507156736292,1.968504,0,14.8344164852,17.3053155144,21,5,7.783,7.835240736292,1.968504,7.1134692,15.2614506196,0,0,0,129.1, 2.3, -2.5,0,0,1024,1024,994,364,0,0,-5,-100,139.5,0,0,60,3.896,3.889,0,0,0,0,4.144,91.4,7.507156736292,1.64042,6,P-GPS,
9900,2022-08-11 20:26:23,-34.9288090601096,-56.1628512775087,1.64042,2.788714,4.718442736292,7.507156736292,1.968504,0,14.824639582,17.324639662,21,5,7.783,7.835240736292,1.968504,7.1134692,15.2614506196,0,0,0,124.1, 2, -3.1,0,0,1024,1024,994,364,0,0,-5,-100,134.7,0,0,60,3.896,3.889,0,0,0,0,4.144,91.4,7.507156736292,1.64042,6,P-GPS,
10000,2022-08-11 20:26:23,-34.9288090281856,-56.1628512124189,1.64042,2.788714,4.718442736292,7.507156736292,1.968504,0,14.8034453556,17.3473102664,21,5,7.783,7.835240736292,1.968504,7.1134692,15.2614506196,0,0,0,119.3, 1.6, -3.2,0,0,1024,1024,995,364,0,0,-4,-100,129.9,0,0,60,3.896,3.889,0,0,0,0,4.144,91.4,7.507156736292,1.64042,6,P-GPS,
10100,2022-08-11 20:26:23,-34.9288090249711,-56.162851114037,1.312336,2.46063,4.718442736292,7.179072736292,1.968504,0,14.784449292,17.3767722096,21,5,7.783,7.835240736292,1.968504,7.1134692,15.2614506196,0,0,0,114.3, 1.7, -3.1,0,0,1024,1024,995,364,0,0,-4,-100,125.1,0,0,60,3.896,3.889,0,0,0,0,4.144,91.4,7.179072736292,1.312336,6,P-GPS,
10200,2022-08-11 20:26:23,-34.9288089684527,-56.1628510617893,1.312336,2.46063,4.718442736292,7.179072736292,1.968504,0,14.7585634644,17.4026580372,21,5,7.783,7.835240736292,1.968504,7.1134692,15.2614506196,0,0,0,109.5, 1, -3.3,0,0,1024,1024,995,364,0,0,-4,-100,120.3,0,0,60,3.896,3.889,0,0,0,0,4.144,91.4,7.179072736292,1.312336,6,P-GPS,
10300,2022-08-11 20:26:23,-34.9288088935654,-56.1628510054625,1.312336,2.46063,4.718442736292,7.179072736292,1.968504,0,14.7266408912,17.4347446524,21,5,7.783,7.835240736292,1.968504,7.1134692,15.2614506196,0,0,0,104.7, 0.6, -3,0,0,1024,1024,998,364,0,0,-4,-100,115.5,0,0,60,3.896,3.889,0,0,0,0,4.144,91.4,7.179072736292,1.312336,6,P-GPS,
10400,2022-08-11 20:26:23,-34.9288087871368,-56.1628509304366,1.312336,2.46063,4.718442736292,7.179072736292,1.968504,0,14.6822183176,17.4795937352,21,5,7.783,7.835240736292,1.968504,7.1134692,15.2614506196,0,0,0,99.7, 1, -2.9,0,0,1024,1024,998,364,0,0,-4,-100,110.7,0,0,60,3.896,3.889,0,0,0,0,4.144,91.4,7.179072736292,1.312336,6,P-GPS,
10500,2022-08-11 20:26:23,-34.9288085093715,-56.1628508138234,1.312336,2.46063,4.718442736292,7.179072736292,1.968504,0,14.5809059784,17.586778778,21,5,7.783,7.835240736292,1.968504,7.1134692,15.2614506196,0,0,0,94.9, 0.9, -2.6,0,0,1024,1024,998,364,0,0,-4,-100,105.9,0,0,60,3.896,3.889,0,0,0,0,4.144,91.4,7.179072736292,1.312336,6,P-GPS,
10600,2022-08-11 20:26:23,-34.9288083586981,-56.1628507891892,1.312336,2.4278216,4.751251136292,7.179072736292,1.968504,0,14.533136948,17.642224974,21,5,7.783,7.835240736292,1.968504,7.1134692,15.2614506196,0,0,0,90, 1, -3.3,0,0,1024,1024,999,364,0,0,-4,-100,101.1,0,0,60,3.896,3.889,0,0,0,0,4.144,91.4,7.179072736292,1.312336,6,P-GPS,
10700,2022-08-11 20:26:24,-34.928808216517,-56.1628507744525,1.312336,2.4278216,4.751251136292,7.179072736292,1.968504,0,14.489665818,17.6942919048,21,5,7.783,7.835240736292,1.968504,7.1134692,15.2614506196,0,0,0,85.2, 0.8, -3.3,0,0,1024,1024,999,364,0,0,-4,-100,96.3,0,0,60,3.896,3.889,0,0,0,0,4.144,91.4,7.179072736292,1.312336,6,P-GPS,
10800,2022-08-11 20:26:24,-34.9288080752886,-56.1628507631751,1.312336,2.4278216,4.751251136292,7.179072736292,1.968504,0,14.44717894,17.7459323264,21,5,7.783,7.835240736292,1.968504,7.1134692,15.2614506196,0,0,0,80.6, -0.7, -3.3,0,0,1024,1024,1002,364,0,0,-3,-100,91.5,0,0,60,3.896,3.889,0,0,0,0,4.144,91.4,7.179072736292,1.312336,6,P-GPS,
10900,2022-08-11 20:26:24,-34.928807868994,-56.1628507378369,1.312336,2.4278216,4.751251136292,7.179072736292,1.968504,0,14.3835634524,17.8215884968,21,5,7.776,7.835240736292,1.968504,7.1134692,15.2614506196,0,0,0,75.8, -1.5, -3.6,0,0,1024,1024,1002,364,0,0,-3,-100,86.7,0,0,60,3.89,3.881,0,0,0,0,4.249,91.22,7.179072736292,1.312336,6,P-GPS,
11000,2022-08-11 20:26:24,-34.9288075175986,-56.1628506662273,1.312336,2.4278216,4.751251136292,7.179072736292,1.968504,0,14.2701448136,17.9515753776,21,5,7.776,7.835240736292,1.968504,7.1134692,15.2614506196,0,0,0,71, -1.3, -3.7,0,0,1024,1024,1003,364,0,0,-3,-100,81.9,0,0,60,3.89,3.881,0,0,0,0,4.249,91.22,7.179072736292,1.312336,6,P-GPS,
11100,2022-08-11 20:26:24,-34.9288072097739,-56.1628506182142,1.312336,2.3950132,4.784059536292,7.179072736292,1.968504,0,14.1738193512,18.064797166,21,5,7.776,7.835240736292,1.968504,7.1134692,15.2614506196,0,0,0,66.2, -1.3, -3.8,0,0,1024,1024,1003,364,0,0,-3,-100,77.1,0,0,60,3.89,3.881,0,0,0,0,4.249,91.22,7.179072736292,1.312336,6,P-GPS,
11200,2022-08-11 20:26:24,-34.9288069775105,-56.1628506242487,1.312336,2.3950132,4.784059536292,7.179072736292,1.968504,0,14.1092852284,18.1495412632,21,5,7.776,7.835240736292,1.968504,7.1134692,15.2614506196,0,0,0,61.6, -1.1, -3.8,0,0,1024,1024,1003,364,0,0,-3,-100,72.3,0,0,60,3.89,3.881,0,0,0,0,4.249,91.22,7.179072736292,1.312336,6,P-GPS,
11300,2022-08-11 20:26:24,-34.9288064672881,-56.162850567112,1.312336,2.3293964,4.849676336292,7.179072736292,1.968504,0,13.9548232812,18.3364835264,21,5,7.776,7.835240736292,1.968504,7.1134692,15.2614506196,0,0,0,57, -1.7, -2.9,0,0,1024,1024,1003,364,0,0,-3,-100,67.5,0,0,60,3.89,3.881,0,0,0,0,4.249,91.22,7.179072736292,1.312336,6,P-GPS,
11400,2022-08-11 20:26:24,-34.9288062658577,-56.1628505589381,1.312336,2.3293964,4.849676336292,7.179072736292,1.968504,0,13.89681803,18.4100071508,21,5,7.776,7.835240736292,1.968504,7.1134692,15.2614506196,0,0,0,52.1, -2.3, -2.5,0,0,1024,1024,1004,364,0,0,-3,-100,62.7,0,0,60,3.89,3.881,0,0,0,0,4.249,91.22,7.179072736292,1.312336,6,P-GPS,
11500,2022-08-11 20:26:24,-34.9288061065519,-56.1628505343483,1.312336,2.3293964,4.849676336292,7.179072736292,1.968504,0,13.8475726216,18.4686029532,21,5,7.776,7.835240736292,1.968504,7.1134692,15.2614506196,0,0,0,47.1, -2.2, -3.1,0,0,1024,1024,1024,364,0,0,0,-100,57.9,0,0,60,3.89,3.881,0,0,0,0,4.249,91.22,7.179072736292,1.312336,6,P-GPS,
11600,2022-08-11 20:26:24,-34.9288059828748,-56.1628504973723,0.984252,2.0013124,4.849676336292,6.850988736292,1.968504,0,13.805938762,18.5150596476,21,5,7.776,7.835240736292,1.968504,7.1134692,15.2614506196,0,0,0,42.5, -2.6, -2.7,0,0,1024,1024,1024,390,0,0,0,-96,53.1,0,0,60,3.89,3.881,0,0,0,0,4.249,91.22,6.850988736292,0.984252,6,P-GPS,
11700,2022-08-11 20:26:25,-34.9288058370509,-56.1628504643787,0.984252,2.0013124,4.849676336292,6.850988736292,1.968504,0,13.7589243248,18.5691935076,22,5,7.776,7.835240736292,1.968504,7.1134692,15.2614506196,0,0,0,37.7, -2.9, -2.4,0,0,1024,1024,1024,1024,0,0,0,0,48.3,0,0,60,3.89,3.881,0,0,0,0,4.249,91.22,6.850988736292,0.984252,6,P-GPS,
11800,2022-08-11 20:26:25,-34.9288055489483,-56.1628502703709,0.984252,2.0013124,4.849676336292,6.850988736292,1.968504,0,13.641240594,18.6892394432,22,5,7.776,7.835240736292,1.968504,7.1134692,15.2614506196,0,0,0,33.1, -2.6, -2.2,0,0,1024,1024,1024,1024,0,0,0,0,44.7,0,0,60,3.89,3.881,0,0,0,0,4.249,91.22,6.850988736292,0.984252,6,P-GPS,
11900,2022-08-11 20:26:25,-34.9288053546358,-56.1628502334379,0.984252,1.968504,4.882484736292,6.850988736292,1.968504,0,13.5800857364,18.760991414,22,5,7.776,7.835240736292,1.968504,7.1134692,15.2614506196,0,0,0,30.6, -2.7, -2,0,0,1024,1024,1024,1024,0,0,0,0,43.2,0,0,60,3.886,3.879,0,0,0,0,4.249,91.22,6.850988736292,0.984252,6,P-GPS,
12000,2022-08-11 20:26:25,-34.9288051621521,-56.1628501825107,0.656168,1.64042,4.882484736292,6.522904736292,1.968504,0,13.5168639496,18.8328746184,22,5,7.776,7.835240736292,1.968504,7.1134692,15.2614506196,0,0,0,29.3, -2.6, -1.8,0,0,1024,1024,1024,1024,0,0,0,0,42.7,0,0,60,3.886,3.879,0,0,0,0,4.249,91.22,6.522904736292,0.656168,6,P-GPS,
12100,2022-08-11 20:26:25,-34.9288049932499,-56.1628501326141,0.656168,1.64042,4.882484736292,6.522904736292,1.968504,0,13.4604335016,18.8962604472,22,5,7.776,7.835240736292,1.968504,7.1134692,15.2614506196,0,0,0,28.9, -2.6, -1.7,0,0,1024,1024,1024,1024,0,0,0,0,42.7,0,0,60,3.886,3.879,0,0,0,0,4.249,91.22,6.522904736292,0.656168,6,P-GPS,
12200,2022-08-11 20:26:25,-34.9288048227111,-56.1628499073329,0.656168,1.64042,4.882484736292,6.522904736292,1.968504,0,13.3692917664,18.9879927336,22,5,7.776,7.835240736292,1.968504,7.1134692,15.2614506196,0,0,0,28.9, -2.5, -1.7,0,0,1024,1024,1024,1024,0,0,0,0,42.7,0,0,60,3.886,3.879,0,0,0,0,4.249,91.22,6.522904736292,0.656168,6,P-GPS,
12300,2022-08-11 20:26:25,-34.9288046694664,-56.1628498510172,0.656168,1.64042,4.882484736292,6.522904736292,1.968504,0,13.315945308,19.0463916856,22,5,7.776,7.835240736292,1.968504,7.1134692,15.2614506196,0,0,0,28.8, -2.5, -1.3,0,0,1024,1024,1024,1170,0,0,0,22,42.7,0,0,60,3.886,3.879,0,0,0,0,4.249,91.22,6.522904736292,0.656168,6,P-GPS,
12400,2022-08-11 20:26:25,-34.9288044833255,-56.1628497858732,0.656168,1.6076116,4.915293136292,6.522904736292,1.968504,0,13.2518705028,19.1170281708,22,5,7.776,7.835240736292,1.968504,7.1134692,15.2614506196,0,0,0,28.7, -2.4, -1.3,0,0,1024,1024,1024,1540,0,0,0,78,42.7,0,0,60,3.886,3.879,0,0,0,0,4.249,91.22,6.522904736292,0.656168,6,P-GPS,
12500,2022-08-11 20:26:25,-34.9288043198948,-56.1628497135544,0.656168,1.6076116,4.915293136292,6.522904736292,1.968504,0,13.1926841492,19.1804796164,22,5,7.776,7.835240736292,1.968504,7.1134692,15.2614506196,0,0,0,28.8, -2.3, -1,0,0,1024,1024,1024,1303,0,0,0,42,43.7,0,0,60,3.886,3.879,0,0,0,0,4.249,91.22,6.522904736292,0.656168,6,P-GPS,
12600,2022-08-11 20:26:25,-34.9288041528539,-56.162849549135,0.656168,1.6076116,4.915293136292,6.522904736292,1.968504,0,13.1144361152,19.2587932672,22,5,7.776,7.835240736292,1.968504,7.1134692,15.2614506196,0,0,0,30.6, -1.7, -1.1,0,0,1024,1024,1024,1024,0,0,0,0,46.3,0,0,60,3.886,3.879,0,0,0,0,4.249,91.22,6.522904736292,0.656168,6,P-GPS,
12700,2022-08-11 20:26:26,-34.9288040067222,-56.1628494808927,0.656168,1.6076116,4.915293136292,6.522904736292,1.968504,0,13.0608271896,19.3158798832,22,5,7.776,7.835240736292,1.968504,7.1134692,15.2614506196,0,0,0,32.9, -1, -1.4,0,0,1024,1024,1024,1024,0,0,0,0,47.9,0,0,60,3.886,3.879,0,0,0,0,4.249,91.22,6.522904736292,0.656168,6,P-GPS,
12800,2022-08-11 20:26:26,-34.9288038457603,-56.1628494463833,0.656168,1.6076116,4.915293136292,6.522904736292,1.968504,0,13.0098757444,19.375492746,22,5,7.776,7.835240736292,1.968504,7.1134692,15.2614506196,0,0,0,34, -1, -1.6,0,0,1024,1024,1024,1024,0,0,0,0,48.6,0,0,60,3.886,3.879,0,0,0,0,4.249,91.22,6.522904736292,0.656168,6,P-GPS,
12900,2022-08-11 20:26:26,-34.9288037211778,-56.1628494080704,0.656168,1.6076116,4.915293136292,6.522904736292,1.968504,0,12.968176268,19.4223759496,22,5,7.765,7.835240736292,1.968504,7.1134692,15.2614506196,0,0,0,34.5, -1, -1.7,0,0,1024,1024,1024,1323,0,0,0,45,48.7,0,0,60,3.884,3.876,0,0,0,0,4.459,91.4,6.522904736292,0.656168,6,P-GPS,
13000,2022-08-11 20:26:26,-34.928803601935,-56.1628494143935,0.656168,1.6076116,4.915293136292,6.522904736292,1.968504,0,12.9368114376,19.4659126964,22,5,7.765,7.835240736292,1.968504,7.1134692,15.2614506196,0,0,0,34.6, -1, -1.8,0,0,1024,1024,1024,1323,0,0,0,45,48.7,0,0,60,3.884,3.876,0,0,0,0,4.459,91.4,6.522904736292,0.656168,6,P-GPS,
13100,2022-08-11 20:26:26,-34.92880349422,-56.1628493742363,0.656168,1.5748032,4.948101536292,6.522904736292,1.968504,0,12.89944267,19.5070216216,22,5,7.765,7.835240736292,1.968504,7.1134692,15.2614506196,0,0,0,34.7, -1.1, -1.8,0,0,1024,1024,1024,1024,0,0,0,0,49.1,0,0,60,3.884,3.876,0,0,0,0,4.459,91.4,6.522904736292,0.656168,6,P-GPS,
13200,2022-08-11 20:26:26,-34.9288033332906,-56.1628493459064,0.656168,1.5748032,4.948101536292,6.522904736292,1.968504,0,12.8499676028,19.5663392088,22,5,7.765,7.835240736292,1.968504,7.1134692,15.2614506196,0,0,0,35.4, -1.1, -1.5,0,0,1024,1024,1024,1024,0,0,0,0,49.8,0,0,60,3.884,3.876,0,0,0,0,4.459,91.4,6.522904736292,0.656168,6,P-GPS,
13300,2022-08-11 20:26:26,-34.9288032253345,-56.1628493083569,0.656168,1.5748032,4.948101536292,6.522904736292,1.968504,0,12.8131237696,19.607284092,22,5,7.765,7.835240736292,1.968504,7.1134692,15.2614506196,0,0,0,35.9, -1.3, -1.6,0,0,1024,1024,1024,1024,0,0,0,0,50.1,0,0,60,3.884,3.876,0,0,0,0,4.459,91.4,6.522904736292,0.656168,6,P-GPS,
13400,2022-08-11 20:26:26,-34.9288031865499,-56.1628492440533,0.656168,1.5748032,4.948101536292,6.522904736292,1.968504,0,12.7897313804,19.6311686072,22,5,7.765,7.835240736292,1.968504,7.1134692,15.2614506196,0,0,0,36.2, -1.7, -1.7,0,0,1024,1024,1024,1024,0,0,0,0,50.2,0,0,60,3.884,3.876,0,0,0,0,4.459,91.4,6.522904736292,0.656168,6,P-GPS,
13500,2022-08-11 20:26:26,-34.9288030468343,-56.1628491451287,0.656168,1.5748032,4.948101536292,6.522904736292,1.968504,0,12.7320214048,19.690125302,22,5,7.765,7.835240736292,1.968504,7.1134692,15.2614506196,0,0,0,36.1, -1.2, -1.6,0,0,1024,1024,1024,1024,0,0,0,0,50.2,0,0,60,3.884,3.876,0,0,0,0,4.459,91.4,6.522904736292,0.656168,6,P-GPS,
13600,2022-08-11 20:26:26,-34.9288029756387,-56.16284910687,0.656168,1.5748032,4.948101536292,6.522904736292,1.968504,0,12.7050529,19.718504568,22,5,7.765,7.835240736292,1.968504,7.1134692,15.2614506196,0,0,0,36.1, -1.2, -1.8,0,0,1024,1024,1024,1024,0,0,0,0,50.2,0,0,60,3.884,3.876,0,0,0,0,4.459,91.4,6.522904736292,0.656168,6,P-GPS,
13700,2022-08-11 20:26:27,-34.9288029185031,-56.1628490745465,0.656168,1.5748032,4.948101536292,6.522904736292,1.968504,0,12.683071272,19.741470448,22,5,7.765,7.835240736292,1.968504,7.1134692,15.2614506196,0,0,0,36.3, -1.3, -1.5,0,0,1024,1024,1024,1024,0,0,0,0,50.2,0,0,60,3.884,3.876,0,0,0,0,4.459,91.4,6.522904736292,0.656168,6,P-GPS,
13800,2022-08-11 20:26:27,-34.9288028735206,-56.1628490353695,0.656168,1.5748032,4.948101536292,6.522904736292,1.968504,0,12.6630253396,19.761647614,22,5,7.765,7.835240736292,1.968504,7.1134692,15.2614506196,0,0,0,36.3, -1.6, -1.6,0,0,1024,1024,1024,1024,0,0,0,0,50.2,0,0,60,3.884,3.876,0,0,0,0,4.459,91.4,6.522904736292,0.656168,6,P-GPS,
13900,2022-08-11 20:26:27,-34.9288028119117,-56.1628489755716,0.656168,1.5748032,4.948101536292,6.522904736292,1.968504,0,12.634350798,19.7903877724,22,5,7.763,7.835240736292,1.968504,7.1134692,15.2614506196,0,0,0,36.1, -1.3, -2.1,0,0,1024,1024,1024,1024,0,0,0,0,50.2,0,0,60,3.884,3.877,0,0,0,0,4.364,91.4,6.522904736292,0.656168,6,P-GPS,
14000,2022-08-11 20:26:27,-34.9288028175152,-56.1628489191337,0.656168,1.5748032,4.948101536292,6.522904736292,1.968504,0,12.6246067032,19.8073825236,22,5,7.763,7.835240736292,1.968504,7.1134692,15.2614506196,0,0,0,36.2, -1.4, -2.3,0,0,1024,1024,1024,1024,0,0,0,0,50.2,0,0,60,3.884,3.877,0,0,0,0,4.364,91.4,6.522904736292,0.656168,6,P-GPS,
14100,2022-08-11 20:26:27,-34.9288028270774,-56.162848885892,0.656168,1.5748032,4.948101536292,6.522904736292,1.968504,0,12.62057127,19.81791402,22,5,7.763,7.835240736292,1.968504,7.1134692,15.2614506196,0,0,0,36.3, -1.6, -2.3,0,0,1024,1024,1024,1024,0,0,0,0,50.2,0,0,60,3.884,3.877,0,0,0,0,4.364,91.4,6.522904736292,0.656168,6,P-GPS,
14200,2022-08-11 20:26:27,-34.9288028366087,-56.1628488851795,0.656168,1.5748032,4.948101536292,6.522904736292,1.968504,0,12.6229990916,19.8213917104,22,5,7.763,7.835240736292,1.968504,7.1134692,15.2614506196,0,0,0,36.2, -1.4, -2.4,0,0,1024,1024,1024,1024,0,0,0,0,50.2,0,0,60,3.884,3.877,0,0,0,0,4.364,91.4,6.522904736292,0.656168,6,P-GPS,
14300,2022-08-11 20:26:27,-34.9288028425476,-56.1628488862375,0.656168,1.5748032,4.948101536292,6.522904736292,1.968504,0,12.624836362,19.8235898732,22,5,7.763,7.835240736292,1.968504,7.1134692,15.2614506196,0,0,0,36.2, -1.4, -2.3,0,0,1024,1024,1024,1024,0,0,0,0,50.2,0,0,60,3.884,3.877,0,0,0,0,4.364,91.4,6.522904736292,0.656168,6,P-GPS,
14400,2022-08-11 20:26:27,-34.9288028426014,-56.1628488802108,0.656168,1.5748032,4.948101536292,6.522904736292,1.968504,0,12.6236552596,19.8253943352,22,5,7.763,7.835240736292,1.968504,7.1134692,15.2614506196,0,0,0,36.1, -1.6, -2.3,0,0,1024,1024,1024,1024,0,0,0,0,50.2,0,0,60,3.884,3.877,0,0,0,0,4.364,91.4,6.522904736292,0.656168,6,P-GPS,
14500,2022-08-11 20:26:27,-34.9288028411113,-56.1628488713198,0.656168,1.5748032,4.948101536292,6.522904736292,1.968504,0,12.6214570968,19.8281174324,22,5,7.763,7.835240736292,1.968504,7.1134692,15.2614506196,0,0,0,36.2, -2, -2.5,0,0,1024,1024,1024,1024,0,0,0,0,50.2,0,0,60,3.884,3.877,0,0,0,0,4.364,91.4,6.522904736292,0.656168,6,P-GPS,
14600,2022-08-11 20:26:27,-34.9288028215847,-56.162848852165,0.656168,1.5748032,4.948101536292,6.522904736292,1.968504,0,12.6123363616,19.8372381676,22,5,7.763,7.835240736292,1.968504,7.1134692,15.2614506196,0,0,0,36.3, -2.3, -2.3,0,0,1024,1024,1024,1024,0,0,0,0,50.2,0,0,60,3.884,3.877,0,0,0,0,4.364,91.4,6.522904736292,0.656168,6,P-GPS,
14700,2022-08-11 20:26:28,-34.9288027806733,-56.1628488795715,0.656168,1.5748032,4.948101536292,6.522904736292,1.968504,0,12.6066933168,19.8542657272,22,5,7.763,7.835240736292,1.968504,7.1134692,15.2614506196,0,0,0,36.2, -2.3, -2.6,0,0,1024,1024,1024,1024,0,0,0,0,50.2,0,0,60,3.884,3.877,0,0,0,0,4.364,91.4,6.522904736292,0.656168,6,P-GPS,
14800,2022-08-11 20:26:28,-34.9288027931032,-56.16284890566,0.656168,1.5748032,4.948101536292,6.522904736292,1.968504,0,12.6152891176,19.8633208456,22,5,7.763,7.835240736292,1.968504,7.1134692,15.2614506196,0,0,0,36.3, -2.2, -2.5,0,0,1024,1024,1024,1024,0,0,0,0,50.2,0,0,60,3.884,3.877,0,0,0,0,4.364,91.4,6.522904736292,0.656168,6,P-GPS,
14900,2022-08-11 20:26:28,-34.928802783611,-56.1628489169093,0.656168,1.5748032,4.948101536292,6.522904736292,1.968504,0,12.6149610336,19.8681436804,22,5,7.762,7.835240736292,1.968504,7.1134692,15.2614506196,0,0,0,36.3, -2.3, -2.5,0,0,1024,1024,1024,1024,0,0,0,0,50.2,0,0,60,3.881,3.873,0,0,0,0,4.34,91.4,6.522904736292,0.656168,6,P-GPS,
15000,2022-08-11 20:26:28,-34.9288027416476,-56.1628488967736,0.656168,1.5748032,4.948101536292,6.522904736292,1.968504,0,12.5995410856,19.8845806888,22,5,7.762,7.835240736292,1.968504,7.1134692,15.2614506196,0,0,0,36.3, -2.3, -2.3,0,0,1024,1024,1024,1024,0,0,0,0,50.2,0,0,60,3.881,3.873,0,0,0,0,4.34,91.4,6.522904736292,0.656168,6,P-GPS,
15100,2022-08-11 20:26:28,-34.9288027083443,-56.1628488801677,0.656168,1.5748032,4.948101536292,6.522904736292,1.968504,0,12.5871723188,19.8977040488,22,5,7.762,7.835240736292,1.968504,7.1134692,15.2614506196,0,0,0,36.3, -2.4, -2.4,0,0,1024,1024,1024,1024,0,0,0,0,50.2,0,0,60,3.881,3.873,0,0,0,0,4.34,91.4,6.522904736292,0.656168,6,P-GPS,
15200,2022-08-11 20:26:28,-34.9288025908879,-56.1628488197957,0.656168,1.5748032,4.948101536292,6.522904736292,1.968504,0,12.5432418712,19.94422636,22,5,7.762,7.835240736292,1.968504,7.1134692,15.2614506196,0,0,0,36.3, -2.4, -2.5,0,0,1024,1024,1024,1024,0,0,0,0,50.2,0,0,60,3.881,3.873,0,0,0,0,4.34,91.4,6.522904736292,0.656168,6,P-GPS,
15300,2022-08-11 20:26:28,-34.9288025463516,-56.1628488069425,0.656168,1.5748032,4.948101536292,6.522904736292,1.968504,0,12.5286093248,19.9609258356,22,5,7.762,7.835240736292,1.968504,7.1134692,15.2614506196,0,0,0,36.4, -2.1, -2.6,0,0,1024,1024,1024,1024,0,0,0,0,50.2,0,0,60,3.881,3.873,0,0,0,0,4.34,91.4,6.522904736292,0.656168,6,P-GPS,
15400,2022-08-11 20:26:28,-34.9288024740731,-56.1628487976727,0.984252,1.8700788,4.980909936292,6.850988736292,1.968504,0,12.5071854396,19.9874350228,22,5,7.762,7.835240736292,1.968504,7.1134692,15.2614506196,0,0,0,36.3, -1.6, -2.5,0,0,1024,1024,1024,1024,0,0,0,0,50.2,0,0,60,3.881,3.873,0,0,0,0,4.34,91.4,6.850988736292,0.984252,6,P-GPS,
15500,2022-08-11 20:26:28,-34.9288024047714,-56.1628487740266,0.984252,1.8700788,4.980909936292,6.850988736292,1.968504,0,12.4836946252,20.0136817428,22,5,7.762,7.835240736292,1.968504,7.1134692,15.2614506196,0,0,0,36.3, -1.7, -2.6,0,0,1024,1024,1024,1024,0,0,0,0,50.2,0,0,60,3.881,3.873,0,0,0,0,4.34,91.4,6.850988736292,0.984252,6,P-GPS,
15600,2022-08-11 20:26:29,-34.9288022230777,-56.1628486536555,0.984252,1.8700788,4.980909936292,6.850988736292,1.968504,0,12.410433468,20.0891410628,22,5,7.762,7.835240736292,1.968504,7.1134692,15.2614506196,0,0,0,36.3, -1.9, -2.6,0,0,1024,1024,1024,1024,0,0,0,0,50.2,0,0,60,3.881,3.873,0,0,0,0,4.34,91.4,6.850988736292,0.984252,6,P-GPS,
15700,2022-08-11 20:26:29,-34.9288021518219,-56.1628486223122,0.984252,1.8700788,4.980909936292,6.850988736292,1.968504,0,12.3848757244,20.1167657356,22,5,7.762,7.835240736292,1.968504,7.1134692,15.2614506196,0,0,0,36.3, -2, -2.4,0,0,1024,1024,1024,1024,0,0,0,0,50.2,0,0,60,3.881,3.873,0,0,0,0,4.34,91.4,6.850988736292,0.984252,6,P-GPS,
15800,2022-08-11 20:26:29,-34.928802077008,-56.1628486235413,0.984252,1.8700788,4.980909936292,6.850988736292,1.968504,0,12.3649610256,20.1440623244,22,5,7.762,7.835240736292,1.968504,7.1134692,15.2614506196,0,0,0,36.2, -1.9, -2.4,0,0,1024,1024,1024,1024,0,0,0,0,50.2,0,0,60,3.881,3.873,0,0,0,0,4.34,91.4,6.850988736292,0.984252,6,P-GPS,
15900,2022-08-11 20:26:29,-34.9288020036807,-56.1628486204523,0.984252,1.8700788,4.980909936292,6.850988736292,1.968504,0,12.3446198176,20.1708339788,22,5,7.756,7.835240736292,1.968504,7.1134692,15.2614506196,0,0,0,36.2, -2, -2.1,0,0,1024,1024,1024,1024,0,0,0,0,50.2,0,0,60,3.879,3.87,0,0,0,0,4.332,91.4,6.850988736292,0.984252,6,P-GPS,
16000,2022-08-11 20:26:29,-34.9288019211561,-56.1628485886264,0.984252,1.8700788,4.980909936292,6.850988736292,1.968504,0,12.3159780844,20.2023956596,22,5,7.756,7.835240736292,1.968504,7.1134692,15.2614506196,0,0,0,36.3, -2.1, -1.9,0,0,1024,1024,1024,1024,0,0,0,0,50.2,0,0,60,3.879,3.87,0,0,0,0,4.332,91.4,6.850988736292,0.984252,6,P-GPS,
16100,2022-08-11 20:26:29,-34.9288018524292,-56.1628485714621,0.984252,1.8700788,4.980909936292,6.850988736292,1.968504,0,12.2940620732,20.2279862116,22,5,7.756,7.835240736292,1.968504,7.1134692,15.2614506196,0,0,0,36.2, -1.7, -2,0,0,1024,1024,1024,1024,0,0,0,0,50.2,0,0,60,3.879,3.87,0,0,0,0,4.332,91.4,6.850988736292,0.984252,6,P-GPS,
16200,2022-08-11 20:26:29,-34.928801784173,-56.1628485695506,0.984252,1.8700788,4.980909936292,6.850988736292,1.968504,0,12.2753612852,20.2529205956,22,5,7.756,7.835240736292,1.968504,7.1134692,15.2614506196,0,0,0,36.3, -1.8, -1.7,0,0,1024,1024,1024,1024,0,0,0,0,50.2,0,0,60,3.879,3.87,0,0,0,0,4.332,91.4,6.850988736292,0.984252,6,P-GPS,
16300,2022-08-11 20:26:29,-34.9288017040715,-56.1628485413747,0.984252,1.8700788,4.980909936292,6.850988736292,1.64042,0,12.2481631216,20.2833339824,22,5,7.756,7.835240736292,1.968504,7.1134692,15.2614506196,0,0,0,36.3, -1.6, -1.9,0,0,1024,1024,1024,1024,0,0,0,0,50.2,0,0,60,3.879,3.87,0,0,0,0,4.332,91.4,6.850988736292,0.984252,6,P-GPS,
16400,2022-08-11 20:26:29,-34.9288015395449,-56.1628484292266,0.984252,1.8700788,4.980909936292,6.850988736292,1.64042,0,12.1813324108,20.3521003888,22,5,7.756,7.835240736292,1.968504,7.1134692,15.2614506196,0,0,0,36.1, -1.1, -2.3,0,0,1024,1024,1024,1024,0,0,0,0,50.2,0,0,60,3.879,3.87,0,0,0,0,4.332,91.4,6.850988736292,0.984252,6,P-GPS,
16500,2022-08-11 20:26:29,-34.9288014320432,-56.1628483732276,0.984252,1.8372704,5.013718336292,6.850988736292,1.64042,0,12.1411749292,20.3947513088,22,5,7.756,7.835240736292,1.968504,7.1134692,15.2614506196,0,0,0,36.2, -1.6, -2.1,0,0,1024,1024,1024,1024,0,0,0,0,50.2,0,0,60,3.879,3.87,0,0,0,0,4.332,91.4,6.850988736292,0.984252,6,P-GPS,
16600,2022-08-11 20:26:29,-34.9288013191806,-56.1628483335354,0.984252,1.8372704,5.013718336292,6.850988736292,1.64042,0,12.1029531432,20.4375990792,22,5,7.756,7.835240736292,1.968504,7.1134692,15.2614506196,0,0,0,36.2, -1.4, -2,0,0,1024,1024,1024,1024,0,0,0,0,50.2,0,0,60,3.879,3.87,0,0,0,0,4.332,91.4,6.850988736292,0.984252,6,P-GPS,
16700,2022-08-11 20:26:30,-34.928801215325,-56.1628482977198,0.984252,1.8372704,5.013718336292,6.850988736292,1.64042,0,12.0679465804,20.4769691592,22,5,7.756,7.835240736292,1.968504,7.1134692,15.2614506196,0,0,0,36.2, -1.5, -2.3,0,0,1024,1024,1024,1024,0,0,0,0,50.2,0,0,60,3.879,3.87,0,0,0,0,4.332,91.4,6.850988736292,0.984252,6,P-GPS,
16800,2022-08-11 20:26:30,-34.9288011075562,-56.1628482694924,0.984252,1.8372704,5.013718336292,6.850988736292,1.64042,0,12.0334977604,20.5171922576,22,5,7.756,7.835240736292,1.968504,7.1134692,15.2614506196,0,0,0,36.2, -1.3, -2.2,0,0,1024,1024,1024,1024,0,0,0,0,50.2,0,0,60,3.879,3.87,0,0,0,0,4.332,91.4,6.850988736292,0.984252,6,P-GPS,
16900,2022-08-11 20:26:30,-34.9288009377941,-56.1628482841403,0.984252,1.8372704,5.013718336292,6.850988736292,1.64042,0,11.9914045832,20.5792985588,22,5,7.749,7.835240736292,1.968504,7.1134692,15.2614506196,0,0,0,36.3, -1.1, -2.3,0,0,1024,1024,1024,1024,0,0,0,0,50.2,0,0,60,3.877,3.869,0,0,0,0,4.443,91.4,6.850988736292,0.984252,6,P-GPS,
17000,2022-08-11 20:26:30,-34.9288008287568,-56.1628482176921,0.984252,1.8372704,5.013718336292,6.850988736292,1.64042,0,11.9488520884,20.6237539408,22,5,7.749,7.835240736292,1.968504,7.1134692,15.2614506196,0,0,0,36.4, -0.5, -2.4,0,0,1024,1024,1024,1024,0,0,0,0,50.2,0,0,60,3.877,3.869,0,0,0,0,4.443,91.4,6.850988736292,0.984252,6,P-GPS,
