time(millisecond),datetime(utc),latitude,longitude,height_above_takeoff(feet),height_above_ground_at_drone_location(feet),ground_elevation_at_drone_location(feet),altitude_above_seaLevel(feet),height_sonar(feet),speed(mph),distance(feet),mileage(feet),satellites,gpslevel,voltage(v),max_altitude(feet),max_ascent(feet),max_speed(mph),max_distance(feet), xSpeed(mph), ySpeed(mph), zSpeed(mph), compass_heading(degrees), pitch(degrees), roll(degrees),isPhoto,isVideo,rc_elevator,rc_aileron,rc_throttle,rc_rudder,rc_elevator(percent),rc_aileron(percent),rc_throttle(percent),rc_rudder(percent),gimbal_heading(degrees),gimbal_pitch(degrees),gimbal_roll(degrees),battery_percent,voltageCell1,voltageCell2,voltageCell3,voltageCell4,voltageCell5,voltageCell6,current(A),battery_temperature(f),altitude(feet),ascent(feet),flycStateRaw,flycState,message
0,2022-08-15 21:01:12,0,0,0,,,3.28084E-5,0.328084,0,0,0,0,0,0,3.28084E-5,0,0,0,0,0,0,35.5, 3.2, -0.7,0,0,364,364,364,1684,-100,-100,-100,100,35.5,-0.6,0,90,4.269,4.262,0,0,0,0,0,97.52,3.28084E-5,0,41,Motors_Started,"Vuela con cuidado (sin GPS). Setting new Return-To-Home altitude to 15m (49 ft). Data Recorder File Index is 70. Setting new Maximum Flight Altitude to 30m (98 ft) Sin señal GPS. La aeronave no puede hacer vuelo estacionario. Vuela con cuidado (Code: 30008). Señal débil del GPS. Vuelo estacionario inestable. Vuela con cuidado (Code: 30002)"
100,2022-08-15 21:01:12,0,0,0,,,3.28084E-5,0.328084,0,0,0,0,0,0,3.28084E-5,0,0,0,0,0,0,35.5, 3.2, -0.7,0,0,364,364,364,1684,-100,-100,-100,100,35.5,-0.6,0,90,4.269,4.262,0,0,0,0,0,97.52,3.28084E-5,0,41,Motors_Started,
200,2022-08-15 21:01:12,0,0,0,,,3.28084E-5,0.328084,0,0,0,0,0,0,3.28084E-5,0,0,0,0,0,0,35.5, 3.2, -0.7,0,0,627,385,364,1538,-60,-97,-100,78,35.5,-0.6,0,90,4.269,4.262,0,0,0,0,0,97.52,3.28084E-5,0,41,Motors_Started,
300,2022-08-15 21:01:13,0,0,0,,,3.28084E-5,0.328084,0,0,0,0,0,0,3.28084E-5,0,0,0,0,0,0,35.4, 3.2, -0.7,0,0,627,385,364,1538,-60,-97,-100,78,35.5,-0.6,0,90,4.269,4.262,0,0,0,0,0,97.52,3.28084E-5,0,41,Motors_Started,
400,2022-08-15 21:01:13,0,0,0,,,3.28084E-5,0.328084,0,0,0,0,0,0,3.28084E-5,0,0,0,0,0,0,35.5, 3.2, -0.7,0,0,1024,1024,1024,1024,0,0,0,0,35.5,-0.6,0,90,4.269,4.262,0,0,0,0,0,97.52,3.28084E-5,0,41,Motors_Started,
500,2022-08-15 21:01:13,0,0,0,,,3.28084E-5,0.328084,0,0,0,0,0,0,3.28084E-5,0,0,0,0,0,0,35.5, 3.2, -0.7,0,0,1024,1024,1024,1024,0,0,0,0,35.5,-0.6,0,90,4.269,4.262,0,0,0,0,0,97.52,3.28084E-5,0,41,Motors_Started,
600,2022-08-15 21:01:13,0,0,0,,,3.28084E-5,0.328084,0,0,0,0,0,0,3.28084E-5,0,0,0,0,0,0,35.4, 3.2, -0.6,0,0,1024,1024,1024,1024,0,0,0,0,35.5,-0.6,0,90,4.269,4.262,0,0,0,0,0,97.52,3.28084E-5,0,41,Motors_Started,
700,2022-08-15 21:01:13,0,0,0,,,3.28084E-5,0.328084,0,0,0,0,0,0,3.28084E-5,0,0,0,0,0,0,35.4, 3.2, -0.7,0,0,1024,1024,1024,1024,0,0,0,0,35.5,-0.6,0,90,4.269,4.262,0,0,0,0,0,97.52,3.28084E-5,0,41,Motors_Started,
800,2022-08-15 21:01:13,0,0,0,,,3.28084E-5,0.328084,0,0,0,0,0,0,3.28084E-5,0,0,0,0,0,0,35.4, 3.2, -0.6,0,0,1024,1024,1024,1024,0,0,0,0,35.5,-0.6,0,90,4.269,4.262,0,0,0,0,0,97.52,3.28084E-5,0,41,Motors_Started,
900,2022-08-15 21:01:13,0,0,0,,,3.28084E-5,0.328084,0,0,0,0,0,0,3.28084E-5,0,0,0,0,0,0,35.5, 3.2, -0.7,0,0,1024,1024,1033,1024,0,0,1,0,35.5,-0.6,0,90,4.269,4.262,0,0,0,0,0,97.52,3.28084E-5,0,41,Motors_Started,
1000,2022-08-15 21:01:13,0,0,0,,,3.28084E-5,0.328084,0,0,0,0,0,0,3.28084E-5,0,0,0,0,0,0,35.5, 3.2, -0.6,0,0,1024,1024,1684,1024,0,0,100,0,35.5,-0.6,0,90,4.269,4.262,0,0,0,0,0,97.52,3.28084E-5,0,41,Motors_Started,
1100,2022-08-15 21:01:13,0,0,0,,,3.28084E-5,0.328084,0,0,0,0,0,0,3.28084E-5,0,0,0,0,0,0,35.5, 3.2, -0.7,0,0,1024,1024,1684,1024,0,0,100,0,35.5,-0.6,0,90,4.269,4.262,0,0,0,0,0,97.52,3.28084E-5,0,10,Assisted_Takeoff,
1200,2022-08-15 21:01:13,0,0,0,,,3.28084E-5,0.328084,0,0,0,0,0,0,3.28084E-5,0,0,0,0,0,0,35.5, 3.2, -0.7,0,0,1024,1024,1482,1024,0,0,69,0,35.5,-0.6,0,90,4.269,4.262,0,0,0,0,0,97.52,3.28084E-5,0,10,Assisted_Takeoff,
1300,2022-08-15 21:01:14,0,0,0,,,3.28084E-5,0.328084,0,0,0,0,0,0,3.28084E-5,0,0,0,0,0,0,35.5, 3.2, -0.7,0,0,1024,1024,1482,1024,0,0,69,0,35.5,-0.6,0,90,4.269,4.262,0,0,0,0,0,97.52,3.28084E-5,0,10,Assisted_Takeoff,
1400,2022-08-15 21:01:14,0,0,0,,,3.28084E-5,0.328084,0,0,0,0,0,0,3.28084E-5,0,0,0,0,0,0,35.3, 3.3, -0.6,0,0,1024,1024,1024,1024,0,0,0,0,35.5,-0.6,0,90,4.269,4.262,0,0,0,0,0,97.52,3.28084E-5,0,10,Assisted_Takeoff,
1500,2022-08-15 21:01:14,0,0,0,,,3.28084E-5,0.328084,0,0,0,0,0,0,3.28084E-5,0,0,0,0,0,0,35.4, 3.2, -0.7,0,0,1024,1024,1024,1024,0,0,0,0,35.5,-0.6,0,90,4.269,4.262,0,0,0,0,0,97.52,3.28084E-5,0,10,Assisted_Takeoff,
1600,2022-08-15 21:01:14,0,0,0,,,3.28084E-5,0.328084,0,0,0,0,0,0,3.28084E-5,0,0,0,0,0,0,35.3, 3.2, -0.7,0,0,1024,1024,1391,1024,0,0,56,0,35.5,-0.6,0,90,4.269,4.262,0,0,0,0,0,97.52,3.28084E-5,0,10,Assisted_Takeoff,
1700,2022-08-15 21:01:14,0,0,0,,,3.28084E-5,0.328084,0,0,0,0,0,0,3.28084E-5,0,0,0,0,0,0,35.3, 3.2, -0.7,0,0,1024,1024,1423,1024,0,0,60,0,35.4,-0.6,0,90,4.269,4.262,0,0,0,0,0,97.52,3.28084E-5,0,10,Assisted_Takeoff,
1800,2022-08-15 21:01:14,0,0,0,,,3.28084E-5,0.328084,0,0,0,0,0,0,3.28084E-5,0,0,0,0,0,0,35.2, 3.2, -0.7,0,0,1024,1024,1645,1024,0,0,94,0,35.4,-0.6,0,90,4.269,4.262,0,0,0,0,0,97.52,3.28084E-5,0,10,Assisted_Takeoff,
1900,2022-08-15 21:01:14,0,0,0,,,3.28084E-5,0.328084,0,0,0,0,0,0,3.28084E-5,0,0,0,0,0,0,35.5, 2.4, -0.7,0,0,1024,1024,1645,1024,0,0,94,0,35.4,-0.6,0,90,4.269,4.262,0,0,0,0,0,97.52,3.28084E-5,0,10,Assisted_Takeoff,
2000,2022-08-15 21:01:14,0,0,0,,,3.28084E-5,0.328084,0,0,0,0,0,0,3.28084E-5,0,0,0,0,0,0,36.3, -1, 0,0,0,1024,1024,1329,1024,0,0,46,0,35.7,-0.6,0,90,4.269,4.262,0,0,0,0,0,97.52,3.28084E-5,0,10,Assisted_Takeoff,
2100,2022-08-15 21:01:14,0,0,0,,,3.28084E-5,0.328084,0,0,0,0,0,0,3.28084E-5,0,0,0,0,0,-0.447388,36.8, -0.9, 0.3,0,0,1024,1024,1024,1024,0,0,0,0,36.3,-0.6,0,90,4.269,4.262,0,0,0,0,0,97.52,3.28084E-5,0,38,Tripod,"Señal débil del GPS. Vuelo estacionario inestable. Vuela con cuidado (Code: 30002)"
2200,2022-08-15 21:01:14,0,0,0,,,3.28084E-5,0.328084,0,0,0,0,0,8.521,3.28084E-5,0,0,0,0,0,-0.671082,36.5, -0.7, 0,0,0,1024,1024,1024,1024,0,0,0,0,36.3,-0.6,0,90,4.265,4.258,0,0,0,0,1.215,97.52,3.28084E-5,0,38,Tripod,
2300,2022-08-15 21:01:15,0,0,0,,,3.28084E-5,0.656168,0,0,0,0,0,8.521,3.28084E-5,0,0,0,0,0,-0.894776,36.5, 0, 0,0,0,1024,1024,1024,1024,0,0,0,0,36.3,-0.6,0,90,4.265,4.258,0,0,0,0,1.215,97.52,3.28084E-5,0,38,Tripod,
2400,2022-08-15 21:01:15,0,0,0.328084,,,0.3281168084,0.656168,0,0,0,0,0,8.521,0.3281168084,0.328084,0,0,0,0,-0.894776,36.5, 0, 0.2,0,0,1024,1024,1024,1024,0,0,0,0,36.3,-0.6,0,90,4.265,4.258,0,0,0,0,1.215,97.52,0.3281168084,0.328084,38,Tripod,
2500,2022-08-15 21:01:15,0,0,0.328084,,,0.3281168084,0.656168,0,0,0,0,0,8.521,0.3281168084,0.328084,0,0,0,0,-0.894776,36.4, 0.2, 0.1,0,0,1024,1024,1024,1024,0,0,0,0,36.3,-0.6,0,90,4.265,4.258,0,0,0,0,1.215,97.52,0.3281168084,0.328084,38,Tripod,
2600,2022-08-15 21:01:15,0,0,0.328084,,,0.3281168084,0.984252,0,0,0,0,0,8.521,0.3281168084,0.328084,0,0,0,0,-0.894776,36.4, 0.1, 0,0,0,1024,1024,1024,1024,0,0,0,0,36.3,-0.6,0,90,4.265,4.258,0,0,0,0,1.215,97.52,0.3281168084,0.328084,38,Tripod,
2700,2022-08-15 21:01:15,0,0,0.656168,,,0.6562008084,0.984252,0,0,0,0,0,8.521,0.6562008084,0.656168,0,0,0,0,-0.894776,36.4, 0, 0.1,0,0,1024,1024,1024,1024,0,0,0,0,36.3,-0.6,0,90,4.265,4.258,0,0,0,0,1.215,97.52,0.6562008084,0.656168,38,Tripod,
2800,2022-08-15 21:01:15,0,0,0.656168,,,0.6562008084,1.312336,0,0,0,0,0,8.521,0.6562008084,0.656168,0,0,0,0,-0.894776,36.3, 0, 0.1,0,0,1024,1024,1024,1024,0,0,0,0,36.3,-0.6,0,90,4.265,4.258,0,0,0,0,1.215,97.52,0.6562008084,0.656168,38,Tripod,
2900,2022-08-15 21:01:15,0,0,0.984252,,,0.9842848084,1.312336,0,0,0,0,0,8.521,0.9842848084,0.984252,0,0,0,0,-0.671082,36.3, 0, 0.1,0,0,1024,1024,1024,1024,0,0,0,0,36.3,-0.6,0,90,4.265,4.258,0,0,0,0,1.215,97.52,0.9842848084,0.984252,38,Tripod,
3000,2022-08-15 21:01:15,0,0,0.984252,,,0.9842848084,1.312336,0,0,0,0,0,8.521,0.9842848084,0.984252,0,0,0,0,-0.671082,36.3, 0, 0,0,0,1024,1024,1024,1024,0,0,0,0,36.3,-0.6,0,90,4.265,4.258,0,0,0,0,1.215,97.52,0.9842848084,0.984252,38,Tripod,"En vuelo"
3100,2022-08-15 21:01:15,0,0,0.984252,,,0.9842848084,1.312336,0,0,0,0,0,8.521,0.9842848084,0.984252,0,0,0,0,-0.447388,36.3, 0.1, 0,0,0,1024,1024,1024,1024,0,0,0,0,36.3,-0.6,0,90,4.265,4.258,0,0,0,0,1.215,97.52,0.9842848084,0.984252,38,Tripod,
3200,2022-08-15 21:01:15,0,0,1.312336,,,1.3123688084,1.64042,0,0,0,0,0,8.485,1.3123688084,1.312336,0,0,0,0,-0.447388,36.3, 0.2, 0,0,0,1024,1024,1024,1024,0,0,0,0,36.3,-0.6,0,90,4.225,4.211,0,0,0,0,2.342,97.52,1.3123688084,1.312336,38,Tripod,
3300,2022-08-15 21:01:16,0,0,1.312336,,,1.3123688084,1.64042,0,0,0,0,0,8.485,1.3123688084,1.312336,0,0,0,0,-0.223694,36.3, 0.3, 0,0,0,1024,1024,1024,1024,0,0,0,0,36.3,-0.6,0,90,4.225,4.211,0,0,0,0,2.342,97.52,1.3123688084,1.312336,38,Tripod,
3400,2022-08-15 21:01:16,0,0,1.312336,,,1.3123688084,1.64042,0,0,0,0,0,8.485,1.3123688084,1.312336,0,0,0,0,0,36.3, 0.3, 0,0,0,1024,1024,1024,1024,0,0,0,0,36.3,-0.6,0,90,4.225,4.211,0,0,0,0,2.342,97.52,1.3123688084,1.312336,38,Tripod,
3500,2022-08-15 21:01:16,0,0,1.312336,,,1.3123688084,1.64042,0,0,0,0,0,8.485,1.3123688084,1.312336,0,0,0,0,0,36.3, 0.3, 0,0,0,1024,1024,1024,1024,0,0,0,0,36.3,-0.6,0,90,4.225,4.211,0,0,0,0,2.342,97.52,1.3123688084,1.312336,38,Tripod,
3600,2022-08-15 21:01:16,0,0,1.312336,,,1.3123688084,1.64042,0,0,0,0,0,8.485,1.3123688084,1.312336,0,0,0,0,0,36.3, 0.3, 0.1,0,0,1024,1024,1024,1024,0,0,0,0,36.3,-0.6,0,90,4.225,4.211,0,0,0,0,2.342,97.52,1.3123688084,1.312336,38,Tripod,
3700,2022-08-15 21:01:16,0,0,1.312336,,,1.3123688084,1.64042,0,0,0,0,0,8.485,1.3123688084,1.312336,0,0,0,0,0,36.3, 0.3, 0.1,0,0,1024,1024,1024,1024,0,0,0,0,36.3,-0.6,0,90,4.225,4.211,0,0,0,0,2.342,97.52,1.3123688084,1.312336,38,Tripod,
3800,2022-08-15 21:01:16,0,0,1.312336,,,1.3123688084,1.64042,0,0,0,0,0,8.485,1.3123688084,1.312336,0,0,0,0,0,36.3, 0.3, 0.2,0,0,1024,1024,1024,1024,0,0,0,0,36.3,-0.6,0,90,4.225,4.211,0,0,0,0,2.342,97.52,1.3123688084,1.312336,38,Tripod,
3900,2022-08-15 21:01:16,0,0,1.312336,,,1.3123688084,1.64042,0,0,0,0,0,8.485,1.3123688084,1.312336,0,0,0,0,0,36.3, 0.3, 0.3,0,0,1024,1024,1024,1023,0,0,0,-0,36.3,-0.6,0,90,4.225,4.211,0,0,0,0,2.342,97.52,1.3123688084,1.312336,38,Tripod,
4000,2022-08-15 21:01:16,0,0,1.312336,,,1.3123688084,1.64042,0,0,0,0,0,8.485,1.3123688084,1.312336,0,0,0,0,0,36.3, 0.3, 0.1,0,0,1024,1024,1024,1024,0,0,0,0,36.3,-0.6,0,90,4.225,4.211,0,0,0,0,2.342,97.52,1.3123688084,1.312336,38,Tripod,
4100,2022-08-15 21:01:16,0,0,1.312336,,,1.3123688084,1.64042,0,0,0,0,0,8.485,1.3123688084,1.312336,0,0,0,0,0,36.3, 0.4, 0.1,0,0,1024,1024,1024,1024,0,0,0,0,36.3,-0.6,0,90,4.225,4.211,0,0,0,0,2.342,97.52,1.3123688084,1.312336,38,Tripod,
4200,2022-08-15 21:01:17,0,0,1.312336,,,1.3123688084,1.64042,0,0,0,0,0,8.438,1.3123688084,1.312336,0,0,0,0,0,36.3, 0.4, 0.1,0,0,1024,1024,1024,1024,0,0,0,0,36.3,-0.6,0,90,4.224,4.212,0,0,0,0,4.134,97.7,1.3123688084,1.312336,38,Tripod,
4300,2022-08-15 21:01:17,0,0,1.312336,,,1.3123688084,1.64042,0,0,0,0,0,8.438,1.3123688084,1.312336,0,0,0,0,0,36.3, 0.3, -0.1,0,0,1024,1024,1024,1024,0,0,0,0,36.3,-0.6,0,90,4.224,4.212,0,0,0,0,4.134,97.7,1.3123688084,1.312336,38,Tripod,
4400,2022-08-15 21:01:17,0,0,1.312336,,,1.3123688084,1.64042,0,0,0,0,0,8.438,1.3123688084,1.312336,0,0,0,0,0,36.3, 0.3, -0.2,0,0,1024,1024,1024,1024,0,0,0,0,36.3,-0.6,0,90,4.224,4.212,0,0,0,0,4.134,97.7,1.3123688084,1.312336,38,Tripod,
4500,2022-08-15 21:01:17,0,0,1.312336,,,1.3123688084,1.64042,0,0,0,0,0,8.438,1.3123688084,1.312336,0,0,0,0,0,36.3, 0.3, -0.1,0,0,1024,1024,1024,1024,0,0,0,0,36.3,-0.6,0,90,4.224,4.212,0,0,0,0,4.134,97.7,1.3123688084,1.312336,38,Tripod,
4600,2022-08-15 21:01:17,0,0,1.312336,,,1.3123688084,1.64042,0,0,0,0,0,8.438,1.3123688084,1.312336,0,0,0,0,0,36.3, 0.3, 0,0,0,1024,1024,1024,1024,0,0,0,0,36.3,-0.6,0,90,4.224,4.212,0,0,0,0,4.134,97.7,1.3123688084,1.312336,38,Tripod,
4700,2022-08-15 21:01:17,0,0,1.64042,,,1.6404528084,1.64042,0,0,0,0,0,8.438,1.6404528084,1.64042,0,0,0,0,0,36.3, 0.3, 0,0,0,1024,1024,1024,1024,0,0,0,0,36.3,-0.6,0,90,4.224,4.212,0,0,0,0,4.134,97.7,1.6404528084,1.64042,38,Tripod,
4800,2022-08-15 21:01:17,0,0,1.64042,,,1.6404528084,1.64042,0,0,0,0,0,8.438,1.6404528084,1.64042,0,0,0,0,0,36.3, 0.3, 0,0,0,1024,1024,1024,925,0,0,0,-15,36.3,-0.6,0,90,4.224,4.212,0,0,0,0,4.134,97.7,1.6404528084,1.64042,38,Tripod,
4900,2022-08-15 21:01:17,0,0,1.64042,,,1.6404528084,1.64042,0,0,0,0,0,8.438,1.6404528084,1.64042,0,0,0,0,0,36.3, 0.3, 0,0,0,1024,1024,1024,819,0,0,0,-31,36.3,-0.6,0,90,4.224,4.212,0,0,0,0,4.134,97.7,1.6404528084,1.64042,38,Tripod,
5000,2022-08-15 21:01:17,0,0,1.64042,,,1.6404528084,1.64042,0,0,0,0,0,8.438,1.6404528084,1.64042,0,0,0,0,0,36.3, 0.3, 0,0,0,1024,1024,1024,615,0,0,0,-62,36.3,-0.6,0,90,4.224,4.212,0,0,0,0,4.134,97.7,1.6404528084,1.64042,38,Tripod,
5100,2022-08-15 21:01:17,0,0,1.64042,,,1.6404528084,1.64042,0,0,0,0,0,8.438,1.6404528084,1.64042,0,0,0,0,0,36.3, 0.3, 0,0,0,1024,1024,1024,607,0,0,0,-63,36.3,-0.6,0,90,4.224,4.212,0,0,0,0,4.134,97.7,1.6404528084,1.64042,38,Tripod,
5200,2022-08-15 21:01:17,0,0,1.64042,,,1.6404528084,1.64042,0,0,0,0,0,8.428,1.6404528084,1.64042,0,0,0,0,0,36.3, 0.3, 0,0,0,1024,1024,1024,364,0,0,0,-100,36.2,-0.6,0,90,4.218,4.206,0,0,0,0,4.004,97.7,1.6404528084,1.64042,38,Tripod,
5300,2022-08-15 21:01:18,0,0,1.64042,,,1.6404528084,1.64042,0,0,0,0,0,8.428,1.6404528084,1.64042,0,0,0,0,0,36.2, 0.4, 0,0,0,1024,1024,1024,364,0,0,0,-100,36.2,-0.6,0,90,4.218,4.206,0,0,0,0,4.004,97.7,1.6404528084,1.64042,38,Tripod,
5400,2022-08-15 21:01:18,0,0,1.64042,,,1.6404528084,1.64042,0,0,0,0,0,8.428,1.6404528084,1.64042,0,0,0,0,0,36.1, 0.3, 0,0,0,1024,1024,1024,364,0,0,0,-100,36,-0.6,0,90,4.218,4.206,0,0,0,0,4.004,97.7,1.6404528084,1.64042,38,Tripod,"Entorno demasiado oscuro. El posicionamiento visual no será preciso. Vuela con precaución (Code: 180032)"
5500,2022-08-15 21:01:18,0,0,1.64042,,,1.6404528084,1.64042,0,0,0,0,0,8.428,1.6404528084,1.64042,0,0,0,0,0,36, 0.3, 0,0,0,1024,1024,1024,364,0,0,0,-100,35.8,-0.6,0,90,4.218,4.206,0,0,0,0,4.004,97.7,1.6404528084,1.64042,38,Tripod,
5600,2022-08-15 21:01:18,0,0,1.64042,,,1.6404528084,1.64042,0,0,0,0,0,8.428,1.6404528084,1.64042,0,0,0,0,0,35.7, 0.4, 0,0,0,1024,1024,1024,364,0,0,0,-100,35.5,-0.6,0,90,4.218,4.206,0,0,0,0,4.004,97.7,1.6404528084,1.64042,38,Tripod,
5700,2022-08-15 21:01:18,0,0,1.64042,,,1.6404528084,1.64042,0,0,0,0,0,8.428,1.6404528084,1.64042,0,0,0,0,0,35.5, 0.5, 0,0,0,1024,1024,1024,364,0,0,0,-100,35.2,-0.6,0,90,4.218,4.206,0,0,0,0,4.004,97.7,1.6404528084,1.64042,38,Tripod,
5800,2022-08-15 21:01:18,0,0,1.64042,,,1.6404528084,1.64042,0,0,0,0,0,8.428,1.6404528084,1.64042,0,0,0,0,0,35.1, 0.4, 0,0,0,1024,1024,1024,364,0,0,0,-100,34.7,-0.6,0,90,4.218,4.206,0,0,0,0,4.004,97.7,1.6404528084,1.64042,38,Tripod,
5900,2022-08-15 21:01:18,0,0,1.64042,,,1.6404528084,1.64042,0,0,0,0,0,8.428,1.6404528084,1.64042,0,0,0,0,0,34.7, 0.3, 0,0,0,1024,1024,1024,364,0,0,0,-100,34.3,-0.6,0,90,4.218,4.206,0,0,0,0,4.004,97.7,1.6404528084,1.64042,38,Tripod,
6000,2022-08-15 21:01:18,0,0,1.64042,,,1.6404528084,1.64042,0,0,0,0,0,8.428,1.6404528084,1.64042,0,0,0,0,0,34.1, 0.3, 0,0,0,1024,1024,1024,364,0,0,0,-100,33.8,-0.6,0,90,4.218,4.206,0,0,0,0,4.004,97.7,1.6404528084,1.64042,38,Tripod,
6100,2022-08-15 21:01:18,0,0,1.64042,,,1.6404528084,1.64042,0,0,0,0,0,8.428,1.6404528084,1.64042,0,0,0,0,0,33.6, 0.3, -0.1,0,0,1024,1024,1024,364,0,0,0,-100,33.2,-0.6,0,90,4.218,4.206,0,0,0,0,4.004,97.7,1.6404528084,1.64042,38,Tripod,
6200,2022-08-15 21:01:18,0,0,1.64042,,,1.6404528084,1.64042,0,0,0,0,0,8.421,1.6404528084,1.64042,0,0,0,0,0,33, 0.3, 0,0,0,1024,1024,1024,364,0,0,0,-100,32.6,-0.6,0,90,4.216,4.202,0,0,0,0,4.112,97.52,1.6404528084,1.64042,38,Tripod,
6300,2022-08-15 21:01:19,0,0,1.64042,,,1.6404528084,1.64042,0,0,0,0,0,8.421,1.6404528084,1.64042,0,0,0,0,0,32.5, 0.2, 0,0,0,1024,1024,1024,364,0,0,0,-100,32,-0.6,0,90,4.216,4.202,0,0,0,0,4.112,97.52,1.6404528084,1.64042,38,Tripod,
6400,2022-08-15 21:01:19,0,0,1.64042,,,1.6404528084,1.64042,0,0,0,0,0,8.421,1.6404528084,1.64042,0,0,0,0,0,31.9, 0.3, -0.1,0,0,1024,1024,1024,364,0,0,0,-100,31.4,-0.6,0,90,4.216,4.202,0,0,0,0,4.112,97.52,1.6404528084,1.64042,38,Tripod,
6500,2022-08-15 21:01:19,0,0,1.64042,,,1.6404528084,1.64042,0,0,0,0,0,8.421,1.6404528084,1.64042,0,0,0,0,0,31.2, 0.3, -0.1,0,0,1024,1024,1024,364,0,0,0,-100,30.8,-0.6,0,90,4.216,4.202,0,0,0,0,4.112,97.52,1.6404528084,1.64042,38,Tripod,
6600,2022-08-15 21:01:19,0,0,1.64042,,,1.6404528084,1.64042,0,0,0,0,0,8.421,1.6404528084,1.64042,0,0,0,0,0,30.6, 0.4, -0.1,0,0,1024,1024,1024,364,0,0,0,-100,30.2,-0.6,0,90,4.216,4.202,0,0,0,0,4.112,97.52,1.6404528084,1.64042,38,Tripod,
6700,2022-08-15 21:01:19,0,0,1.64042,,,1.6404528084,1.64042,0,0,0,0,0,8.421,1.6404528084,1.64042,0,0,0,0,0,30, 0.4, -0.1,0,0,1024,1024,1024,364,0,0,0,-100,29.6,-0.6,0,90,4.216,4.202,0,0,0,0,4.112,97.52,1.6404528084,1.64042,38,Tripod,
6800,2022-08-15 21:01:19,0,0,1.64042,,,1.6404528084,1.64042,0,0,0,0,0,8.421,1.6404528084,1.64042,0,0,0,0,0,29.4, 0.4, 0,0,0,1024,1024,1024,364,0,0,0,-100,29,-0.6,0,90,4.216,4.202,0,0,0,0,4.112,97.52,1.6404528084,1.64042,38,Tripod,
6900,2022-08-15 21:01:19,0,0,1.64042,,,1.6404528084,1.64042,0,0,0,0,0,8.421,1.6404528084,1.64042,0,0,0,0,0,28.8, 0.4, 0,0,0,1024,1024,1024,364,0,0,0,-100,28.3,-0.6,0,90,4.216,4.202,0,0,0,0,4.112,97.52,1.6404528084,1.64042,38,Tripod,
7000,2022-08-15 21:01:19,0,0,1.64042,,,1.6404528084,1.64042,0,0,0,0,0,8.421,1.6404528084,1.64042,0,0,0,0,0,28.2, 0.3, 0,0,0,1024,1024,1024,364,0,0,0,-100,27.7,-0.6,0,90,4.216,4.202,0,0,0,0,4.112,97.52,1.6404528084,1.64042,38,Tripod,
7100,2022-08-15 21:01:19,0,0,1.64042,,,1.6404528084,1.64042,0,0,0,0,0,8.421,1.6404528084,1.64042,0,0,0,0,0,27.5, 0.3, 0,0,0,1024,1024,1024,364,0,0,0,-100,27,-0.6,0,90,4.216,4.202,0,0,0,0,4.112,97.52,1.6404528084,1.64042,38,Tripod,
7200,2022-08-15 21:01:19,0,0,1.64042,,,1.6404528084,1.64042,0,0,0,0,0,8.415,1.6404528084,1.64042,0,0,0,0,0,26.9, 0.3, 0,0,0,1024,1024,1024,364,0,0,0,-100,26.4,-0.6,0,90,4.213,4.199,0,0,0,0,4.132,97.7,1.6404528084,1.64042,38,Tripod,
7300,2022-08-15 21:01:20,0,0,1.64042,,,1.6404528084,1.64042,0,0,0,0,0,8.415,1.6404528084,1.64042,0,0,0,0,0,26.2, 0.3, 0,0,0,1024,1024,1024,364,0,0,0,-100,25.8,-0.6,0,90,4.213,4.199,0,0,0,0,4.132,97.7,1.6404528084,1.64042,38,Tripod,
7400,2022-08-15 21:01:20,0,0,1.64042,,,1.6404528084,1.64042,0,0,0,0,0,8.415,1.6404528084,1.64042,0,0,0,0,0,25.6, 0.3, -0.1,0,0,1024,1024,1024,364,0,0,0,-100,25.1,-0.6,0,90,4.213,4.199,0,0,0,0,4.132,97.7,1.6404528084,1.64042,38,Tripod,
7500,2022-08-15 21:01:20,0,0,1.64042,,,1.6404528084,1.64042,0,0,0,0,0,8.415,1.6404528084,1.64042,0,0,0,0,0,25, 0.2, -0.1,0,0,1024,1024,1024,364,0,0,0,-100,24.5,-0.6,0,90,4.213,4.199,0,0,0,0,4.132,97.7,1.6404528084,1.64042,38,Tripod,
7600,2022-08-15 21:01:20,0,0,1.64042,,,1.6404528084,1.64042,0,0,0,0,0,8.415,1.6404528084,1.64042,0,0,0,0,0,24.3, 0.2, -0.2,0,0,1024,1024,1024,364,0,0,0,-100,23.9,-0.6,0,90,4.213,4.199,0,0,0,0,4.132,97.7,1.6404528084,1.64042,38,Tripod,
7700,2022-08-15 21:01:20,0,0,1.64042,,,1.6404528084,1.64042,0,0,0,0,0,8.415,1.6404528084,1.64042,0,0,0,0,0,23.7, 0.2, -0.3,0,0,1024,1024,1024,364,0,0,0,-100,23.2,-0.6,0,90,4.213,4.199,0,0,0,0,4.132,97.7,1.6404528084,1.64042,38,Tripod,
7800,2022-08-15 21:01:20,0,0,1.64042,,,1.6404528084,1.64042,0,0,0,0,0,8.415,1.6404528084,1.64042,0,0,0,0,0,23.1, 0.1, -0.5,0,0,1024,1024,1024,364,0,0,0,-100,22.6,-0.6,0,90,4.213,4.199,0,0,0,0,4.132,97.7,1.6404528084,1.64042,38,Tripod,
7900,2022-08-15 21:01:20,0,0,1.64042,,,1.6404528084,1.64042,0,0,0,0,0,8.415,1.6404528084,1.64042,0,0,0,0,0,22.5, 0.2, -0.2,0,0,1024,1024,1024,364,0,0,0,-100,21.9,-0.6,0,90,4.213,4.199,0,0,0,0,4.132,97.7,1.6404528084,1.64042,38,Tripod,
8000,2022-08-15 21:01:20,0,0,1.64042,,,1.6404528084,1.64042,0,0,0,0,0,8.415,1.6404528084,1.64042,0,0,0,0,0,21.8, 0.2, 0,0,0,1024,1024,1024,364,0,0,0,-100,21.3,-0.6,0,90,4.213,4.199,0,0,0,0,4.132,97.7,1.6404528084,1.64042,38,Tripod,
8100,2022-08-15 21:01:20,0,0,1.64042,,,1.6404528084,1.64042,0,0,0,0,0,8.415,1.6404528084,1.64042,0,0,0,0,0,21.2, 0.1, 0.1,0,0,1024,1024,1024,364,0,0,0,-100,20.7,-0.6,0,90,4.213,4.199,0,0,0,0,4.132,97.7,1.6404528084,1.64042,38,Tripod,
8200,2022-08-15 21:01:20,0,0,1.64042,,,1.6404528084,1.64042,0,0,0,0,0,8.409,1.6404528084,1.64042,0,0,0,0,0,20.5, 0.2, 0.3,0,0,1024,1024,1024,364,0,0,0,-100,20,-0.6,0,90,4.21,4.196,0,0,0,0,4.14,97.7,1.6404528084,1.64042,38,Tripod,
8300,2022-08-15 21:01:21,0,0,1.64042,,,1.6404528084,1.64042,0,0,0,0,0,8.409,1.6404528084,1.64042,0,0,0,0,0,19.9, 0.3, 0.1,0,0,1024,1024,1024,364,0,0,0,-100,19.4,-0.6,0,90,4.21,4.196,0,0,0,0,4.14,97.7,1.6404528084,1.64042,38,Tripod,
8400,2022-08-15 21:01:21,0,0,1.64042,,,1.6404528084,1.64042,0,0,0,0,0,8.409,1.6404528084,1.64042,0,0,0,0,0,19.2, 0.1, 0,0,0,1024,1024,1024,364,0,0,0,-100,18.7,-0.6,0,90,4.21,4.196,0,0,0,0,4.14,97.7,1.6404528084,1.64042,38,Tripod,
8500,2022-08-15 21:01:21,0,0,1.64042,,,1.6404528084,1.64042,0,0,0,0,0,8.409,1.6404528084,1.64042,0,0,0,0,0,18.6, 0, -0.1,0,0,1024,1024,1024,364,0,0,0,-100,18.1,-0.6,0,90,4.21,4.196,0,0,0,0,4.14,97.7,1.6404528084,1.64042,38,Tripod,
8600,2022-08-15 21:01:21,0,0,1.64042,,,1.6404528084,1.64042,0,0,0,0,0,8.409,1.6404528084,1.64042,0,0,0,0,0,18, 0, -0.2,0,0,1024,1024,1024,364,0,0,0,-100,17.4,-0.6,0,90,4.21,4.196,0,0,0,0,4.14,97.7,1.6404528084,1.64042,38,Tripod,
8700,2022-08-15 21:01:21,0,0,1.64042,,,1.6404528084,1.64042,0,0,0,0,0,8.409,1.6404528084,1.64042,0,0,0,0,0,17.3, 0, -0.1,0,0,1024,1024,1024,364,0,0,0,-100,16.8,-0.6,0,90,4.21,4.196,0,0,0,0,4.14,97.7,1.6404528084,1.64042,38,Tripod,
8800,2022-08-15 21:01:21,0,0,1.64042,,,1.6404528084,1.64042,0,0,0,0,0,8.409,1.6404528084,1.64042,0,0,0,0,0,16.6, 0, 0,0,0,1024,1024,1024,364,0,0,0,-100,16.2,-0.6,0,90,4.21,4.196,0,0,0,0,4.14,97.7,1.6404528084,1.64042,38,Tripod,
8900,2022-08-15 21:01:21,0,0,1.64042,,,1.6404528084,1.64042,0,0,0,0,0,8.409,1.6404528084,1.64042,0,0,0,0,0,16, 0.1, 0,0,0,1024,1024,1024,364,0,0,0,-100,15.5,-0.6,0,90,4.21,4.196,0,0,0,0,4.14,97.7,1.6404528084,1.64042,38,Tripod,
9000,2022-08-15 21:01:21,0,0,1.64042,,,1.6404528084,1.64042,0,0,0,0,0,8.409,1.6404528084,1.64042,0,0,0,0,0,15.3, 0.1, 0,0,0,1024,1024,1024,364,0,0,0,-100,14.9,-0.6,0,90,4.21,4.196,0,0,0,0,4.14,97.7,1.6404528084,1.64042,38,Tripod,
9100,2022-08-15 21:01:21,0,0,1.64042,,,1.6404528084,1.64042,0,0,0,0,0,8.409,1.6404528084,1.64042,0,0,0,0,0,14.7, 0.1, -0.1,0,0,1024,1024,1024,364,0,0,0,-100,14.2,-0.6,0,90,4.21,4.196,0,0,0,0,4.14,97.7,1.6404528084,1.64042,38,Tripod,
9200,2022-08-15 21:01:22,0,0,1.64042,,,1.6404528084,1.64042,0,0,0,0,0,8.406,1.6404528084,1.64042,0,0,0,0,0,14.1, 0.1, -0.1,0,0,1024,1024,1024,364,0,0,0,-100,13.6,-0.6,0,90,4.208,4.194,0,0,0,0,4.136,97.7,1.6404528084,1.64042,38,Tripod,
9300,2022-08-15 21:01:22,0,0,1.64042,,,1.6404528084,1.64042,0,0,0,0,0,8.406,1.6404528084,1.64042,0,0,0,0,0,13.4, 0.1, 0,0,0,1024,1024,1024,364,0,0,0,-100,13,-0.6,0,90,4.208,4.194,0,0,0,0,4.136,97.7,1.6404528084,1.64042,38,Tripod,
9400,2022-08-15 21:01:22,0,0,1.64042,,,1.6404528084,1.64042,0,0,0,0,0,8.406,1.6404528084,1.64042,0,0,0,0,0,12.8, 0, 0,0,0,1024,1024,1024,364,0,0,0,-100,12.3,-0.6,0,90,4.208,4.194,0,0,0,0,4.136,97.7,1.6404528084,1.64042,38,Tripod,
9500,2022-08-15 21:01:22,0,0,1.64042,,,1.6404528084,1.64042,0,0,0,0,0,8.406,1.6404528084,1.64042,0,0,0,0,0,12.2, 0, -0.1,0,0,1024,1024,1024,364,0,0,0,-100,11.7,-0.6,0,90,4.208,4.194,0,0,0,0,4.136,97.7,1.6404528084,1.64042,38,Tripod,
9600,2022-08-15 21:01:22,0,0,1.64042,,,1.6404528084,1.64042,0,0,0,0,0,8.406,1.6404528084,1.64042,0,0,0,0,0,11.6, 0, -0.1,0,0,1024,1024,1024,364,0,0,0,-100,11,-0.6,0,90,4.208,4.194,0,0,0,0,4.136,97.7,1.6404528084,1.64042,38,Tripod,
9700,2022-08-15 21:01:22,0,0,1.64042,,,1.6404528084,1.64042,0,0,0,0,0,8.406,1.6404528084,1.64042,0,0,0,0,0,10.9, 0, -0.1,0,0,1024,1024,1024,364,0,0,0,-100,10.4,-0.6,0,90,4.208,4.194,0,0,0,0,4.136,97.7,1.6404528084,1.64042,38,Tripod,
9800,2022-08-15 21:01:22,0,0,1.64042,,,1.6404528084,1.64042,0,0,0,0,0,8.406,1.6404528084,1.64042,0,0,0,0,0,10.3, 0, -0.2,0,0,1024,1024,1024,364,0,0,0,-100,9.8,-0.6,0,90,4.208,4.194,0,0,0,0,4.136,97.7,1.6404528084,1.64042,38,Tripod,
9900,2022-08-15 21:01:22,0,0,1.64042,,,1.6404528084,1.64042,0,0,0,0,0,8.406,1.6404528084,1.64042,0,0,0,0,0,9.6, 0, -0.1,0,0,1024,1024,1024,364,0,0,0,-100,9.1,-0.6,0,90,4.208,4.194,0,0,0,0,4.136,97.7,1.6404528084,1.64042,38,Tripod,
10000,2022-08-15 21:01:22,0,0,1.64042,,,1.6404528084,1.64042,0,0,0,0,0,8.406,1.6404528084,1.64042,0,0,0,0,0,9, 0.1, 0,0,0,1024,1024,1024,364,0,0,0,-100,8.5,-0.6,0,90,4.208,4.194,0,0,0,0,4.136,97.7,1.6404528084,1.64042,38,Tripod,
10100,2022-08-15 21:01:22,0,0,1.64042,,,1.6404528084,1.64042,0,0,0,0,0,8.406,1.6404528084,1.64042,0,0,0,0,0,8.3, 0, 0,0,0,1024,1024,1024,364,0,0,0,-100,7.8,-0.6,0,90,4.208,4.194,0,0,0,0,4.136,97.7,1.6404528084,1.64042,38,Tripod,
10200,2022-08-15 21:01:22,0,0,1.64042,,,1.6404528084,1.64042,0,0,0,0,0,8.4,1.6404528084,1.64042,0,0,0,0,0,7.7, 0, 0,0,0,1024,1024,1024,364,0,0,0,-100,7.2,-0.6,0,90,4.206,4.192,0,0,0,0,4.127,97.7,1.6404528084,1.64042,38,Tripod,
10300,2022-08-15 21:01:23,0,0,1.64042,,,1.6404528084,1.64042,0,0,0,0,0,8.4,1.6404528084,1.64042,0,0,0,0,0,7.1, 0, -0.1,0,0,1024,1024,1024,364,0,0,0,-100,6.6,-0.6,0,90,4.206,4.192,0,0,0,0,4.127,97.7,1.6404528084,1.64042,38,Tripod,
10400,2022-08-15 21:01:23,0,0,1.64042,,,1.6404528084,1.64042,0,0,0,0,0,8.4,1.6404528084,1.64042,0,0,0,0,0,6.4, 0, -0.1,0,0,1024,1024,1024,364,0,0,0,-100,5.9,-0.6,0,90,4.206,4.192,0,0,0,0,4.127,97.7,1.6404528084,1.64042,38,Tripod,
10500,2022-08-15 21:01:23,0,0,1.64042,,,1.6404528084,1.64042,0,0,0,0,0,8.4,1.6404528084,1.64042,0,0,0,0,0,5.7, 0, -0.1,0,0,1024,1024,1024,364,0,0,0,-100,5.3,-0.6,0,90,4.206,4.192,0,0,0,0,4.127,97.7,1.6404528084,1.64042,38,Tripod,
10600,2022-08-15 21:01:23,0,0,1.64042,,,1.6404528084,1.64042,0,0,0,0,0,8.4,1.6404528084,1.64042,0,0,0,0,0,5.1, 0, 0,0,0,1024,1024,1024,364,0,0,0,-100,4.6,-0.6,0,90,4.206,4.192,0,0,0,0,4.127,97.7,1.6404528084,1.64042,38,Tripod,
10700,2022-08-15 21:01:23,0,0,1.64042,,,1.6404528084,1.64042,0,0,0,0,0,8.4,1.6404528084,1.64042,0,0,0,0,0,4.5, 0.2, 0.3,0,0,1024,1024,1024,364,0,0,0,-100,4,-0.6,0,90,4.206,4.192,0,0,0,0,4.127,97.7,1.6404528084,1.64042,38,Tripod,
10800,2022-08-15 21:01:23,0,0,1.64042,,,1.6404528084,1.64042,0,0,0,0,0,8.4,1.6404528084,1.64042,0,0,0,0,0,3.8, 0.2, 0.1,0,0,1024,1024,1024,364,0,0,0,-100,3.4,-0.6,0,90,4.206,4.192,0,0,0,0,4.127,97.7,1.6404528084,1.64042,38,Tripod,
10900,2022-08-15 21:01:23,0,0,1.64042,,,1.6404528084,1.64042,0,0,0,0,0,8.4,1.6404528084,1.64042,0,0,0,0,0,3.2, 0, 0,0,0,1024,1024,1024,364,0,0,0,-100,2.7,-0.6,0,90,4.206,4.192,0,0,0,0,4.127,97.7,1.6404528084,1.64042,38,Tripod,
11000,2022-08-15 21:01:23,0,0,1.64042,,,1.6404528084,1.64042,0,0,0,0,0,8.4,1.6404528084,1.64042,0,0,0,0,0,2.5, 0.1, 0.1,0,0,1024,1024,1024,364,0,0,0,-100,2.1,-0.6,0,90,4.206,4.192,0,0,0,0,4.127,97.7,1.6404528084,1.64042,38,Tripod,
11100,2022-08-15 21:01:23,0,0,1.64042,,,1.6404528084,1.64042,0,0,0,0,0,8.4,1.6404528084,1.64042,0,0,0,0,0,1.9, 0.1, 0.3,0,0,1024,1024,1024,364,0,0,0,-100,1.4,-0.6,0,90,4.206,4.192,0,0,0,0,4.127,97.7,1.6404528084,1.64042,38,Tripod,
11200,2022-08-15 21:01:23,0,0,1.64042,,,1.6404528084,1.64042,0,0,0,0,0,8.394,1.6404528084,1.64042,0,0,0,0,0,1.2, 0.1, 0,0,0,1024,1024,1024,364,0,0,0,-100,0.8,-0.6,0,90,4.204,4.19,0,0,0,0,4.138,97.7,1.6404528084,1.64042,38,Tripod,
11300,2022-08-15 21:01:24,0,0,1.64042,,,1.6404528084,1.64042,0,0,0,0,0,8.394,1.6404528084,1.64042,0,0,0,0,0,0.6, 0.1, 0.1,0,0,1024,1024,1024,364,0,0,0,-100,0.2,-0.6,0,90,4.204,4.19,0,0,0,0,4.138,97.7,1.6404528084,1.64042,38,Tripod,
11400,2022-08-15 21:01:24,0,0,1.64042,,,1.6404528084,1.64042,0,0,0,0,0,8.394,1.6404528084,1.64042,0,0,0,0,0,0, 0, 0.2,0,0,1024,1024,1024,364,0,0,0,-100,359.6,-0.6,0,90,4.204,4.19,0,0,0,0,4.138,97.7,1.6404528084,1.64042,38,Tripod,
11500,2022-08-15 21:01:24,0,0,1.64042,,,1.6404528084,1.64042,0,0,0,0,0,8.394,1.6404528084,1.64042,0,0,0,0,0,359.4, -0.1, 0,0,0,1024,1024,1024,364,0,0,0,-100,359,-0.6,0,90,4.204,4.19,0,0,0,0,4.138,97.7,1.6404528084,1.64042,38,Tripod,
11600,2022-08-15 21:01:24,0,0,1.64042,,,1.6404528084,1.64042,0,0,0,0,0,8.394,1.6404528084,1.64042,0,0,0,0,0,358.9, -0.1, 0.1,0,0,1024,1024,1024,364,0,0,0,-100,358.3,-0.6,0,90,4.204,4.19,0,0,0,0,4.138,97.7,1.6404528084,1.64042,38,Tripod,
11700,2022-08-15 21:01:24,0,0,1.64042,,,1.6404528084,1.64042,0,0,0,0,0,8.394,1.6404528084,1.64042,0,0,0,0,0,358.2, 0, 0,0,0,1024,1024,1024,364,0,0,0,-100,357.7,-0.6,0,90,4.204,4.19,0,0,0,0,4.138,97.7,1.6404528084,1.64042,38,Tripod,
11800,2022-08-15 21:01:24,0,0,1.64042,,,1.6404528084,1.64042,0,0,0,0,0,8.394,1.6404528084,1.64042,0,0,0,0,0,357.5, 0.2, 0.1,0,0,1024,1024,1024,364,0,0,0,-100,357.1,-0.6,0,90,4.204,4.19,0,0,0,0,4.138,97.7,1.6404528084,1.64042,38,Tripod,
11900,2022-08-15 21:01:24,0,0,1.64042,,,1.6404528084,1.64042,0,0,0,0,0,8.394,1.6404528084,1.64042,0,0,0,0,0,356.9, 0.2, 0,0,0,1024,1024,1024,364,0,0,0,-100,356.4,-0.6,0,90,4.204,4.19,0,0,0,0,4.138,97.7,1.6404528084,1.64042,38,Tripod,
12000,2022-08-15 21:01:24,0,0,1.64042,,,1.6404528084,1.64042,0,0,0,0,0,8.394,1.6404528084,1.64042,0,0,0,0,0,356.2, 0.1, 0.1,0,0,1024,1024,1024,364,0,0,0,-100,355.8,-0.6,0,90,4.204,4.19,0,0,0,0,4.138,97.7,1.6404528084,1.64042,38,Tripod,
12100,2022-08-15 21:01:24,0,0,1.64042,,,1.6404528084,1.64042,0,0,0,0,0,8.394,1.6404528084,1.64042,0,0,0,0,0,355.6, 0, 0.1,0,0,1024,1024,1024,364,0,0,0,-100,355.1,-0.6,0,90,4.204,4.19,0,0,0,0,4.138,97.7,1.6404528084,1.64042,38,Tripod,
12200,2022-08-15 21:01:24,0,0,1.64042,,,1.6404528084,1.64042,0,0,0,0,0,8.391,1.6404528084,1.64042,0,0,0,0,0,355, 0, 0.1,0,0,1024,1024,1024,364,0,0,0,-100,354.5,-0.6,0,90,4.201,4.188,0,0,0,0,4.11,97.7,1.6404528084,1.64042,38,Tripod,
12300,2022-08-15 21:01:25,0,0,1.64042,,,1.6404528084,1.64042,0,0,0,0,0,8.391,1.6404528084,1.64042,0,0,0,0,0,354.3, 0, 0.1,0,0,1024,1024,1024,364,0,0,0,-100,353.9,-0.6,0,90,4.201,4.188,0,0,0,0,4.11,97.7,1.6404528084,1.64042,38,Tripod,
12400,2022-08-15 21:01:25,0,0,1.64042,,,1.6404528084,1.64042,0,0,0,0,0,8.391,1.6404528084,1.64042,0,0,0,0,0,353.7, 0, 0.1,0,0,1024,1024,1024,364,0,0,0,-100,353.2,-0.6,0,90,4.201,4.188,0,0,0,0,4.11,97.7,1.6404528084,1.64042,38,Tripod,
12500,2022-08-15 21:01:25,0,0,1.64042,,,1.6404528084,1.64042,0,0,0,0,0,8.391,1.6404528084,1.64042,0,0,0,0,0,353, 0.2, 0,0,0,1024,1024,1024,364,0,0,0,-100,352.6,-0.6,0,90,4.201,4.188,0,0,0,0,4.11,97.7,1.6404528084,1.64042,38,Tripod,
12600,2022-08-15 21:01:25,0,0,1.64042,,,1.6404528084,1.64042,0,0,0,0,0,8.391,1.6404528084,1.64042,0,0,0,0,0,352.4, 0.1, 0,0,0,1024,1024,1024,364,0,0,0,-100,351.9,-0.6,0,90,4.201,4.188,0,0,0,0,4.11,97.7,1.6404528084,1.64042,38,Tripod,
12700,2022-08-15 21:01:25,0,0,1.64042,,,1.6404528084,1.64042,0,0,0,0,0,8.391,1.6404528084,1.64042,0,0,0,0,0,351.8, 0, 0.1,0,0,1024,1024,1024,364,0,0,0,-100,351.3,-0.6,0,90,4.201,4.188,0,0,0,0,4.11,97.7,1.6404528084,1.64042,38,Tripod,
12800,2022-08-15 21:01:25,0,0,1.64042,,,1.6404528084,1.64042,0,0,0,0,0,8.391,1.6404528084,1.64042,0,0,0,0,0,351.1, 0.1, 0.1,0,0,1024,1024,1024,364,0,0,0,-100,350.7,-0.6,0,90,4.201,4.188,0,0,0,0,4.11,97.7,1.6404528084,1.64042,38,Tripod,
12900,2022-08-15 21:01:25,0,0,1.64042,,,1.6404528084,1.64042,0,0,0,0,0,8.391,1.6404528084,1.64042,0,0,0,0,0,350.5, 0, 0,0,0,1024,1024,1024,364,0,0,0,-100,350,-0.6,0,90,4.201,4.188,0,0,0,0,4.11,97.7,1.6404528084,1.64042,38,Tripod,
13000,2022-08-15 21:01:25,0,0,1.64042,,,1.6404528084,1.64042,0,0,0,0,0,8.391,1.6404528084,1.64042,0,0,0,0,0,349.9, 0, 0,0,0,1024,1024,1024,364,0,0,0,-100,349.4,-0.6,0,90,4.201,4.188,0,0,0,0,4.11,97.7,1.6404528084,1.64042,38,Tripod,
13100,2022-08-15 21:01:25,0,0,1.64042,,,1.6404528084,1.64042,0,0,0,0,0,8.391,1.6404528084,1.64042,0,0,0,0,0,349.2, -0.1, 0.2,0,0,1024,1024,1024,364,0,0,0,-100,348.8,-0.6,0,90,4.201,4.188,0,0,0,0,4.11,97.7,1.6404528084,1.64042,38,Tripod,
13200,2022-08-15 21:01:25,0,0,1.64042,,,1.6404528084,1.64042,0,0,0,0,0,8.387,1.6404528084,1.64042,0,0,0,0,0,348.6, 0, 0.4,0,0,1024,1024,1024,364,0,0,0,-100,348.1,-0.6,0,90,4.2,4.186,0,0,0,0,4.133,97.7,1.6404528084,1.64042,38,Tripod,
13300,2022-08-15 21:01:26,0,0,1.64042,,,1.6404528084,1.64042,0,0,0,0,0,8.387,1.6404528084,1.64042,0,0,0,0,0,347.9, 0, 0.2,0,0,1024,1024,1024,364,0,0,0,-100,347.5,-0.6,0,90,4.2,4.186,0,0,0,0,4.133,97.7,1.6404528084,1.64042,38,Tripod,
13400,2022-08-15 21:01:26,0,0,1.64042,,,1.6404528084,1.64042,0,0,0,0,0,8.387,1.6404528084,1.64042,0,0,0,0,0,347.3, 0, 0.2,0,0,1024,1024,1024,364,0,0,0,-100,346.8,-0.6,0,90,4.2,4.186,0,0,0,0,4.133,97.7,1.6404528084,1.64042,38,Tripod,
13500,2022-08-15 21:01:26,0,0,1.64042,,,1.6404528084,1.64042,0,0,0,0,0,8.387,1.6404528084,1.64042,0,0,0,0,0,346.6, 0.2, 0.2,0,0,1024,1024,1024,364,0,0,0,-100,346.2,-0.6,0,90,4.2,4.186,0,0,0,0,4.133,97.7,1.6404528084,1.64042,38,Tripod,
13600,2022-08-15 21:01:26,0,0,1.64042,,,1.6404528084,1.64042,0,0,0,0,0,8.387,1.6404528084,1.64042,0,0,0,0,0,345.9, 0.2, 0.2,0,0,1024,1024,1024,364,0,0,0,-100,345.6,-0.6,0,90,4.2,4.186,0,0,0,0,4.133,97.7,1.6404528084,1.64042,38,Tripod,
13700,2022-08-15 21:01:26,0,0,1.64042,,,1.6404528084,1.64042,0,0,0,0,0,8.387,1.6404528084,1.64042,0,0,0,0,0,345.3, 0.2, 0,0,0,1024,1024,1024,364,0,0,0,-100,344.9,-0.6,0,90,4.2,4.186,0,0,0,0,4.133,97.7,1.6404528084,1.64042,38,Tripod,
13800,2022-08-15 21:01:26,0,0,1.64042,,,1.6404528084,1.64042,0,0,0,0,0,8.387,1.6404528084,1.64042,0,0,0,0,0,344.7, 0.3, 0,0,0,1024,1024,1024,364,0,0,0,-100,344.3,-0.6,0,90,4.2,4.186,0,0,0,0,4.133,97.7,1.6404528084,1.64042,38,Tripod,
13900,2022-08-15 21:01:26,0,0,1.64042,,,1.6404528084,1.64042,0,0,0,0,0,8.387,1.6404528084,1.64042,0,0,0,0,0,344, 0.3, 0.2,0,0,1024,1024,1024,364,0,0,0,-100,343.6,-0.6,0,90,4.2,4.186,0,0,0,0,4.133,97.7,1.6404528084,1.64042,38,Tripod,
14000,2022-08-15 21:01:26,0,0,1.64042,,,1.6404528084,1.64042,0,0,0,0,0,8.387,1.6404528084,1.64042,0,0,0,0,0,343.4, 0.2, 0.2,0,0,1024,1024,1024,364,0,0,0,-100,343,-0.6,0,90,4.2,4.186,0,0,0,0,4.133,97.7,1.6404528084,1.64042,38,Tripod,
14100,2022-08-15 21:01:26,0,0,1.64042,,,1.6404528084,1.64042,0,0,0,0,0,8.387,1.6404528084,1.64042,0,0,0,0,0,342.8, 0.3, 0.2,0,0,1024,1024,1024,364,0,0,0,-100,342.4,-0.6,0,90,4.2,4.186,0,0,0,0,4.133,97.7,1.6404528084,1.64042,38,Tripod,
14200,2022-08-15 21:01:27,0,0,1.64042,,,1.6404528084,1.64042,0,0,0,0,0,8.387,1.6404528084,1.64042,0,0,0,0,0,342.2, 0.2, 0.4,0,0,1024,1024,1024,364,0,0,0,-100,341.7,-0.6,0,90,4.2,4.186,0,0,0,0,4.133,97.7,1.6404528084,1.64042,38,Tripod,
14300,2022-08-15 21:01:27,0,0,1.64042,,,1.6404528084,1.64042,0,0,0,0,0,8.383,1.6404528084,1.64042,0,0,0,0,0,341.5, 0.2, 0.5,0,0,1024,1024,1024,364,0,0,0,-100,341.1,-0.6,0,90,4.198,4.185,0,0,0,0,4.152,97.88,1.6404528084,1.64042,38,Tripod,
14400,2022-08-15 21:01:27,0,0,1.64042,,,1.6404528084,1.64042,0,0,0,0,0,8.383,1.6404528084,1.64042,0,0,0,0,0,340.9, 0, 0.5,0,0,1024,1024,1024,758,0,0,0,-40,340.4,-0.6,0,90,4.198,4.185,0,0,0,0,4.152,97.88,1.6404528084,1.64042,38,Tripod,
14500,2022-08-15 21:01:27,0,0,1.64042,,,1.6404528084,1.64042,0,0,0,0,0,8.383,1.6404528084,1.64042,0,0,0,0,0,340.3, 0, 0.4,0,0,1024,1024,1024,1024,0,0,0,0,339.8,-0.6,0,90,4.198,4.185,0,0,0,0,4.152,97.88,1.6404528084,1.64042,38,Tripod,
14600,2022-08-15 21:01:27,0,0,1.64042,,,1.6404528084,1.64042,0,0,0,0,0,8.383,1.6404528084,1.64042,0,0,0,0,0,339.6, 0.2, 0.2,0,0,1024,1024,1024,1024,0,0,0,0,339.2,-0.6,0,90,4.198,4.185,0,0,0,0,4.152,97.88,1.6404528084,1.64042,38,Tripod,
14700,2022-08-15 21:01:27,0,0,1.64042,,,1.6404528084,1.64042,0,0,0,0,0,8.383,1.6404528084,1.64042,0,0,0,0,0,339, 0.3, 0.3,0,0,1024,1024,1024,1024,0,0,0,0,338.6,-0.6,0,90,4.198,4.185,0,0,0,0,4.152,97.88,1.6404528084,1.64042,38,Tripod,
14800,2022-08-15 21:01:27,0,0,1.64042,,,1.6404528084,1.64042,0,0,0,0,0,8.383,1.6404528084,1.64042,0,0,0,0,0,338.5, 0.2, 0.2,0,0,1024,1024,1024,1024,0,0,0,0,338.1,-0.6,0,90,4.198,4.185,0,0,0,0,4.152,97.88,1.6404528084,1.64042,38,Tripod,
14900,2022-08-15 21:01:27,0,0,1.64042,,,1.6404528084,1.64042,0,0,0,0,0,8.383,1.6404528084,1.64042,0,0,0,0,0,338, 0.1, 0,0,0,1024,1024,1024,1024,0,0,0,0,337.7,-0.6,0,90,4.198,4.185,0,0,0,0,4.152,97.88,1.6404528084,1.64042,38,Tripod,
15000,2022-08-15 21:01:27,0,0,1.64042,,,1.6404528084,1.64042,0,0,0,0,0,8.383,1.6404528084,1.64042,0,0,0,0,0,337.5, 0, 0,0,0,1024,1024,1024,1024,0,0,0,0,337.2,-0.6,0,90,4.198,4.185,0,0,0,0,4.152,97.88,1.6404528084,1.64042,38,Tripod,
15100,2022-08-15 21:01:27,0,0,1.64042,,,1.6404528084,1.64042,0,0,0,0,0,8.383,1.6404528084,1.64042,0,0,0,0,0,337.1, 0.2, 0,0,0,1024,1024,1024,1024,0,0,0,0,336.8,-0.6,0,90,4.198,4.185,0,0,0,0,4.152,97.88,1.6404528084,1.64042,38,Tripod,
15200,2022-08-15 21:01:27,0,0,1.64042,,,1.6404528084,1.64042,0,0,0,0,0,8.381,1.6404528084,1.64042,0,0,0,0,0,336.7, 0.1, 0.1,0,0,1024,1024,1024,1024,0,0,0,0,336.5,-0.6,0,90,4.197,4.183,0,0,0,0,4.107,97.88,1.6404528084,1.64042,38,Tripod,
15300,2022-08-15 21:01:28,0,0,1.64042,,,1.6404528084,1.64042,0,0,0,0,0,8.381,1.6404528084,1.64042,0,0,0,0,0,336.4, 0.3, 0.2,0,0,1024,1024,1024,1024,0,0,0,0,336.2,-0.6,0,90,4.197,4.183,0,0,0,0,4.107,97.88,1.6404528084,1.64042,38,Tripod,
15400,2022-08-15 21:01:28,0,0,1.64042,,,1.6404528084,1.64042,0,0,0,0,0,8.381,1.6404528084,1.64042,0,0,0,0,0,336.1, 0.3, 0.2,0,0,1024,923,1024,1024,0,-15,0,0,335.9,-0.6,0,90,4.197,4.183,0,0,0,0,4.107,97.88,1.6404528084,1.64042,38,Tripod,
15500,2022-08-15 21:01:28,0,0,1.64042,,,1.6404528084,1.64042,0,0,0,0,0,8.381,1.6404528084,1.64042,0,0,0,0,0,335.9, 0.3, 0,0,0,1024,588,1024,1024,0,-66,0,0,335.7,-0.6,0,90,4.197,4.183,0,0,0,0,4.107,97.88,1.6404528084,1.64042,38,Tripod,
15600,2022-08-15 21:01:28,0,0,1.64042,,,1.6404528084,1.64042,0,0,0,0,0,8.381,1.6404528084,1.64042,0,0,0,0,0,335.6, 0.4, -2.7,0,0,1024,501,1024,1024,0,-79,0,0,335.5,-0.6,0,90,4.197,4.183,0,0,0,0,4.107,97.88,1.6404528084,1.64042,38,Tripod,
15700,2022-08-15 21:01:28,0,0,1.968504,,,1.9685368084,1.64042,0,0,0,0,0,8.381,1.9685368084,1.968504,0,0,0,0,0,335.3, 0.3, -7,0,0,1024,1024,1024,1024,0,0,0,0,335.4,-0.6,0,90,4.197,4.183,0,0,0,0,4.107,97.88,1.9685368084,1.968504,38,Tripod,
15800,2022-08-15 21:01:28,0,0,1.64042,,,1.6404528084,1.64042,0.223694,0,0,0,0,8.381,1.9685368084,1.968504,0,0,0,-0.223694,0,335.2, 0.3, -7.4,0,0,1024,1024,1024,1024,0,0,0,0,335.3,-0.6,0,90,4.197,4.183,0,0,0,0,4.107,97.88,1.6404528084,1.64042,38,Tripod,
15900,2022-08-15 21:01:28,0,0,1.64042,,,1.6404528084,1.64042,0.4921268,0,0,0,0,8.381,1.9685368084,1.968504,0,0,-0.223694,-0.447388,0,335.4, 0.2, 0.8,0,0,1024,1024,1024,1024,0,0,0,0,335.2,-0.6,0,90,4.197,4.183,0,0,0,0,4.107,97.88,1.6404528084,1.64042,38,Tripod,
16000,2022-08-15 21:01:28,0,0,1.968504,,,1.9685368084,1.64042,0.4921268,0,0,0,0,8.381,1.9685368084,1.968504,0,0,-0.223694,-0.447388,0,335.4, 0.2, 2.9,0,0,1024,520,1024,1024,0,-76,0,0,335.2,-0.6,0,90,4.197,4.183,0,0,0,0,4.107,97.88,1.9685368084,1.968504,38,Tripod,
16100,2022-08-15 21:01:28,0,0,1.968504,,,1.9685368084,1.64042,0.223694,0,0,0,0,8.381,1.9685368084,1.968504,0,0,0,-0.223694,0,335.3, 0, 2.5,0,0,1024,479,1024,1024,0,-83,0,0,335.2,-0.6,0,90,4.197,4.183,0,0,0,0,4.107,97.88,1.9685368084,1.968504,38,Tripod,
16200,2022-08-15 21:01:28,0,0,1.968504,,,1.9685368084,1.64042,0.223694,0,0,0,0,8.376,1.9685368084,1.968504,0,0,0,-0.223694,0,335.1, 0.1, -3,0,0,1024,479,1024,1024,0,-83,0,0,335.2,-0.6,0,90,4.196,4.182,0,0,0,0,4.142,97.88,1.9685368084,1.968504,38,Tripod,
16300,2022-08-15 21:01:29,0,0,1.968504,,,1.9685368084,1.64042,0.4921268,0,0,0,0,8.376,1.9685368084,1.968504,0,0,-0.223694,-0.447388,0,335, 0.1, -7.4,0,0,1024,1024,1024,1024,0,0,0,0,335.2,-0.6,0,90,4.196,4.182,0,0,0,0,4.142,97.88,1.9685368084,1.968504,38,Tripod,
16400,2022-08-15 21:01:29,0,0,1.968504,,,1.9685368084,1.64042,0.7158208,0,0,0,0,8.376,1.9685368084,1.968504,0,0,-0.223694,-0.671082,0,335, 0.1, -6,0,0,1024,1024,1024,1024,0,0,0,0,335.2,-0.6,0,90,4.196,4.182,0,0,0,0,4.142,97.88,1.9685368084,1.968504,38,Tripod,
16500,2022-08-15 21:01:29,0,0,1.968504,,,1.9685368084,1.64042,0.7158208,0,0,0,0,8.376,1.9685368084,1.968504,0,0,-0.223694,-0.671082,0,335.4, 0.2, 2.8,0,0,1024,589,1024,1024,0,-66,0,0,335.2,-0.6,0,90,4.196,4.182,0,0,0,0,4.142,97.88,1.9685368084,1.968504,38,Tripod,
16600,2022-08-15 21:01:29,0,0,1.968504,,,1.9685368084,1.64042,0.7158208,0,0,0,0,8.376,1.9685368084,1.968504,0,0,-0.223694,-0.671082,0,335.3, 0.2, 3.9,0,0,1024,364,1024,1024,0,-100,0,0,335.2,-0.6,0,90,4.196,4.182,0,0,0,0,4.142,97.88,1.9685368084,1.968504,38,Tripod,
16700,2022-08-15 21:01:29,0,0,1.968504,,,1.9685368084,1.64042,0.7158208,0,0,0,0,8.376,1.9685368084,1.968504,0,0,-0.223694,-0.671082,0,335.1, 0.1, -3.4,0,0,1024,995,1024,1024,0,-4,0,0,335.2,-0.6,0,90,4.196,4.182,0,0,0,0,4.142,97.88,1.9685368084,1.968504,38,Tripod,
16800,2022-08-15 21:01:29,0,0,1.968504,,,1.9685368084,1.64042,0.7158208,0,0,0,0,8.376,1.9685368084,1.968504,0,0,-0.223694,-0.671082,0,334.9, 0.1, -9.2,0,0,1024,1024,1024,1024,0,0,0,0,335.2,-0.6,0,90,4.196,4.182,0,0,0,0,4.142,97.88,1.9685368084,1.968504,38,Tripod,
16900,2022-08-15 21:01:29,0,0,1.968504,,,1.9685368084,1.64042,1.2079476,0,0,0,0,8.376,1.9685368084,1.968504,0,0,-0.447388,-1.11847,0,335.1, 0.1, -3.4,0,0,1024,1024,1024,1024,0,0,0,0,335.2,-0.6,0,90,4.196,4.182,0,0,0,0,4.142,97.88,1.9685368084,1.968504,38,Tripod,
17000,2022-08-15 21:01:29,0,0,1.968504,,,1.9685368084,1.64042,1.2079476,0,0,0,0,8.376,1.9685368084,1.968504,0,0,-0.447388,-1.11847,0,335.5, 0, 5,0,0,1024,1024,1024,1024,0,0,0,0,335.2,-0.6,0,90,4.196,4.182,0,0,0,0,4.142,97.88,1.9685368084,1.968504,38,Tripod,
17100,2022-08-15 21:01:29,0,0,1.968504,,,1.9685368084,1.64042,0.9171454,0,0,0,0,8.376,1.9685368084,1.968504,0,0,-0.223694,-0.894776,0,335.3, 0.3, 5.8,0,0,1024,1024,1024,1024,0,0,0,0,335.2,-0.6,0,90,4.196,4.182,0,0,0,0,4.142,97.88,1.9685368084,1.968504,38,Tripod,
17200,2022-08-15 21:01:29,0,0,1.968504,,,1.9685368084,1.64042,0.7158208,0,0,0,0,8.372,1.9685368084,1.968504,0,0,-0.223694,-0.671082,0,335.2, 0.3, 5.3,0,0,1024,1024,1024,1024,0,0,0,0,335.2,-0.6,0,90,4.192,4.178,0,0,0,0,4.189,97.88,1.9685368084,1.968504,38,Tripod,
17300,2022-08-15 21:01:30,0,0,1.968504,,,1.9685368084,1.64042,0.447388,0,0,0,0,8.372,1.9685368084,1.968504,0,0,0,-0.447388,0,335.2, 0.2, 4.1,0,0,1024,1311,1024,1024,0,43,0,0,335.2,-0.6,0,90,4.192,4.178,0,0,0,0,4.189,97.88,1.9685368084,1.968504,38,Tripod,
17400,2022-08-15 21:01:30,0,0,1.968504,,,1.9685368084,1.64042,0.223694,0,0,0,0,8.372,1.9685368084,1.968504,0,0,0,-0.223694,0,335.1, 0.4, 2.9,0,0,1024,1684,1024,1024,0,100,0,0,335.2,-0.6,0,90,4.192,4.178,0,0,0,0,4.189,97.88,1.9685368084,1.968504,38,Tripod,
17500,2022-08-15 21:01:30,0,0,1.968504,,,1.9685368084,1.64042,0,0,0,0,0,8.372,1.9685368084,1.968504,0,0,0,0,0,335.2, 0.4, 7.9,0,0,1024,1516,1024,1024,0,75,0,0,335.2,-0.6,0,90,4.192,4.178,0,0,0,0,4.189,97.88,1.9685368084,1.968504,38,Tripod,
17600,2022-08-15 21:01:30,0,0,1.968504,,,1.9685368084,1.64042,0,0,0,0,0,8.372,1.9685368084,1.968504,0,0,0,0,0,335.4, 0.5, 12.3,0,0,1024,1059,1024,1024,0,5,0,0,335.2,-0.6,0,90,4.192,4.178,0,0,0,0,4.189,97.88,1.9685368084,1.968504,38,Tripod,
17700,2022-08-15 21:01:30,0,0,1.968504,,,1.9685368084,1.64042,0.4921268,0,0,0,0,8.372,1.9685368084,1.968504,0,0,0.223694,0.447388,0,335.3, 0.5, 10.1,0,0,1024,1269,1024,1024,0,37,0,0,335.2,-0.6,0,90,4.192,4.178,0,0,0,0,4.189,97.88,1.9685368084,1.968504,38,Tripod,
17800,2022-08-15 21:01:30,0,0,1.968504,,,1.9685368084,1.64042,0.7158208,0,0,0,0,8.372,1.9685368084,1.968504,0,0,0.223694,0.671082,0,335, 0.5, 1,0,0,1024,1684,1024,1024,0,100,0,0,335.2,-0.6,0,90,4.192,4.178,0,0,0,0,4.189,97.88,1.9685368084,1.968504,38,Tripod,
17900,2022-08-15 21:01:30,0,0,1.968504,,,1.9685368084,1.64042,0.7158208,0,0,0,0,8.372,1.9685368084,1.968504,0,0,0.223694,0.671082,0,335, 0.3, -0.2,0,0,1024,1623,1024,1024,0,91,0,0,335.2,-0.6,0,90,4.192,4.178,0,0,0,0,4.189,97.88,1.9685368084,1.968504,38,Tripod,
18000,2022-08-15 21:01:30,0,0,1.968504,,,1.9685368084,1.64042,0.7158208,0,0,0,0,8.372,1.9685368084,1.968504,0,0,0.223694,0.671082,0,335.3, 0.2, 7.4,0,0,1024,1623,1024,1024,0,91,0,0,335.2,-0.6,0,90,4.192,4.178,0,0,0,0,4.189,97.88,1.9685368084,1.968504,38,Tripod,
18100,2022-08-15 21:01:30,0,0,1.968504,,,1.9685368084,1.64042,1.006623,0,0,0,0,8.372,1.9685368084,1.968504,0,0,0.447388,0.894776,0,335.4, 0.3, 10.9,0,0,1024,1110,1024,1024,0,13,0,0,335.2,-0.6,0,90,4.192,4.178,0,0,0,0,4.189,97.88,1.9685368084,1.968504,38,Tripod,
18200,2022-08-15 21:01:30,0,0,1.968504,,,1.9685368084,1.64042,1.2079476,0,0,0,0,8.365,1.9685368084,1.968504,0,0,0.447388,1.11847,0,335.1, 0.5, 5.4,0,0,1024,1024,1024,1024,0,0,0,0,335.2,-0.6,0,90,4.192,4.176,0,0,0,0,4.232,98.06,1.9685368084,1.968504,38,Tripod,
18300,2022-08-15 21:01:31,0,0,1.968504,,,1.9685368084,1.64042,1.4092722,0,0,0,0,8.365,1.9685368084,1.968504,0,0,0.447388,1.342164,0,334.8, 0.5, -3.5,0,0,1024,1067,1024,1024,0,7,0,0,335.2,-0.6,0,90,4.192,4.176,0,0,0,0,4.232,98.06,1.9685368084,1.968504,38,Tripod,
18400,2022-08-15 21:01:31,0,0,1.968504,,,1.9685368084,1.64042,1.2079476,0,0,0,0,8.365,1.9685368084,1.968504,0,0,0.447388,1.11847,0,334.9, 0.3, -4.7,0,0,1024,1024,1024,1024,0,0,0,0,335.2,-0.6,0,90,4.192,4.176,0,0,0,0,4.232,98.06,1.9685368084,1.968504,38,Tripod,
18500,2022-08-15 21:01:31,0,0,1.968504,,,1.9685368084,1.64042,1.006623,0,0,0,0,8.365,1.9685368084,1.968504,0,0,0.447388,0.894776,0,335.1, 0.5, -3.4,0,0,1024,1024,1024,1024,0,0,0,0,335.2,-0.6,0,90,4.192,4.176,0,0,0,0,4.232,98.06,1.9685368084,1.968504,38,Tripod,
18600,2022-08-15 21:01:31,0,0,1.968504,,,1.9685368084,1.64042,0.7158208,0,0,0,0,8.365,1.9685368084,1.968504,0,0,0.223694,0.671082,0,335.1, 0.5, -4.4,0,0,1024,1024,1024,1024,0,0,0,0,335.2,-0.6,0,90,4.192,4.176,0,0,0,0,4.232,98.06,1.9685368084,1.968504,38,Tripod,
18700,2022-08-15 21:01:31,0,0,1.968504,,,1.9685368084,1.64042,0.4921268,0,0,0,0,8.365,1.9685368084,1.968504,0,0,0.223694,0.447388,0,335.1, 0.3, -4.1,0,0,1024,1024,1024,1024,0,0,0,0,335.2,-0.6,0,90,4.192,4.176,0,0,0,0,4.232,98.06,1.9685368084,1.968504,38,Tripod,
18800,2022-08-15 21:01:31,0,0,1.968504,,,1.9685368084,1.64042,0.447388,0,0,0,0,8.365,1.9685368084,1.968504,0,0,0,0.447388,0,335.2, 0.1, -3.3,0,0,1024,1024,1024,1024,0,0,0,0,335.2,-0.6,0,90,4.192,4.176,0,0,0,0,4.232,98.06,1.9685368084,1.968504,38,Tripod,
18900,2022-08-15 21:01:31,0,0,1.968504,,,1.9685368084,1.64042,0.223694,0,0,0,0,8.365,1.9685368084,1.968504,0,0,0,0.223694,0,335.2, 0, -2.4,0,0,1024,1024,1024,1024,0,0,0,0,335.2,-0.6,0,90,4.192,4.176,0,0,0,0,4.232,98.06,1.9685368084,1.968504,38,Tripod,
19000,2022-08-15 21:01:31,0,0,1.968504,,,1.9685368084,1.64042,0.223694,0,0,0,0,8.365,1.9685368084,1.968504,0,0,0,0.223694,0,335.2, 0, -1.7,0,0,1024,1024,1024,1024,0,0,0,0,335.2,-0.6,0,90,4.192,4.176,0,0,0,0,4.232,98.06,1.9685368084,1.968504,38,Tripod,
19100,2022-08-15 21:01:31,0,0,1.968504,,,1.9685368084,1.64042,0,0,0,0,0,8.365,1.9685368084,1.968504,0,0,0,0,0,335.2, 0, -1.3,0,0,1024,1024,1024,1024,0,0,0,0,335.2,-0.6,0,90,4.192,4.176,0,0,0,0,4.232,98.06,1.9685368084,1.968504,38,Tripod,
19200,2022-08-15 21:01:31,0,0,1.968504,,,1.9685368084,1.64042,0,0,0,0,0,8.365,1.9685368084,1.968504,0,0,0,0,0,335.2, 0.1, -1,0,0,1024,1024,1024,1024,0,0,0,0,335.2,-0.6,0,90,4.191,4.175,0,0,0,0,4.238,98.06,1.9685368084,1.968504,38,Tripod,
19300,2022-08-15 21:01:32,0,0,1.968504,,,1.9685368084,1.64042,0,0,0,0,0,8.365,1.9685368084,1.968504,0,0,0,0,0,335.2, 0, -1,0,0,1024,1024,1024,1024,0,0,0,0,335.2,-0.6,0,90,4.191,4.175,0,0,0,0,4.238,98.06,1.9685368084,1.968504,38,Tripod,
19400,2022-08-15 21:01:32,0,0,1.968504,,,1.9685368084,1.64042,0,0,0,0,0,8.365,1.9685368084,1.968504,0,0,0,0,0,335.2, 0.1, -1.2,0,0,1024,1024,1033,1024,0,0,1,0,335.2,-0.6,0,90,4.191,4.175,0,0,0,0,4.238,98.06,1.9685368084,1.968504,38,Tripod,
19500,2022-08-15 21:01:32,0,0,1.968504,,,1.9685368084,1.64042,0,0,0,0,0,8.365,1.9685368084,1.968504,0,0,0,0,0,335.2, 0.1, -1.1,0,0,1024,1024,1251,1024,0,0,34,0,335.2,-0.6,0,90,4.191,4.175,0,0,0,0,4.238,98.06,1.9685368084,1.968504,38,Tripod,
19600,2022-08-15 21:01:32,0,0,1.968504,,,1.9685368084,1.64042,0,0,0,0,0,8.365,1.9685368084,1.968504,0,0,0,0,0,335.2, 0.2, -0.8,0,0,1024,1024,1280,1024,0,0,39,0,335.2,-0.6,0,90,4.191,4.175,0,0,0,0,4.238,98.06,1.9685368084,1.968504,38,Tripod,
19700,2022-08-15 21:01:32,0,0,1.968504,,,1.9685368084,1.64042,0,0,0,0,0,8.365,1.9685368084,1.968504,0,0,0,0,-0.223694,335.2, 0.1, -0.6,0,0,1024,1024,1250,1024,0,0,34,0,335.2,-0.6,0,90,4.191,4.175,0,0,0,0,4.238,98.06,1.9685368084,1.968504,38,Tripod,
19800,2022-08-15 21:01:32,0,0,1.968504,,,1.9685368084,1.968504,0,0,0,0,0,8.365,1.9685368084,1.968504,0,0,0,0,-0.671082,335.2, 0, -0.7,0,0,1024,1024,1024,1024,0,0,0,0,335.2,-0.6,0,90,4.191,4.175,0,0,0,0,4.238,98.06,1.9685368084,1.968504,38,Tripod,
19900,2022-08-15 21:01:32,0,0,2.296588,,,2.2966208084,1.968504,0,0,0,0,0,8.365,2.2966208084,2.296588,0,0,0,0,-0.671082,335.2, 0, -0.7,0,0,1024,1024,1024,1024,0,0,0,0,335.2,-0.6,0,90,4.191,4.175,0,0,0,0,4.238,98.06,2.2966208084,2.296588,38,Tripod,
20000,2022-08-15 21:01:32,0,0,2.296588,,,2.2966208084,1.968504,0,0,0,0,0,8.365,2.2966208084,2.296588,0,0,0,0,-0.447388,335.2, 0.2, -0.8,0,0,1024,1024,1024,1024,0,0,0,0,335.2,-0.6,0,90,4.191,4.175,0,0,0,0,4.238,98.06,2.2966208084,2.296588,38,Tripod,
20100,2022-08-15 21:01:32,0,0,2.296588,,,2.2966208084,1.968504,0,0,0,0,0,8.365,2.2966208084,2.296588,0,0,0,0,-0.223694,335.2, 0.2, -0.8,0,0,1024,1024,1142,1024,0,0,18,0,335.2,-0.6,0,90,4.191,4.175,0,0,0,0,4.238,98.06,2.2966208084,2.296588,38,Tripod,
20200,2022-08-15 21:01:33,0,0,2.296588,,,2.2966208084,1.968504,0,0,0,0,0,8.364,2.2966208084,2.296588,0,0,0,0,0,335.3, 0.1, -0.9,0,0,1024,1024,1128,1024,0,0,16,0,335.2,-0.6,0,89,4.179,4.169,0,0,0,0,4.162,98.06,2.2966208084,2.296588,38,Tripod,
20300,2022-08-15 21:01:33,0,0,2.296588,,,2.2966208084,2.296588,0,0,0,0,0,8.364,2.2966208084,2.296588,0,0,0,0,-0.223694,335.2, 0.1, -0.8,0,0,1024,1024,1160,1024,0,0,21,0,335.2,-0.6,0,89,4.179,4.169,0,0,0,0,4.162,98.06,2.2966208084,2.296588,38,Tripod,
20400,2022-08-15 21:01:33,0,0,2.296588,,,2.2966208084,2.296588,0,0,0,0,0,8.364,2.2966208084,2.296588,0,0,0,0,0,335.2, 0.1, -0.5,0,0,1024,1024,1154,1024,0,0,20,0,335.2,-0.6,0,89,4.179,4.169,0,0,0,0,4.162,98.06,2.2966208084,2.296588,38,Tripod,
20500,2022-08-15 21:01:33,0,0,2.296588,,,2.2966208084,2.296588,0,0,0,0,0,8.364,2.2966208084,2.296588,0,0,0,0,-0.223694,335.2, 0, -0.6,0,0,1024,1024,1189,1024,0,0,25,0,335.2,-0.6,0,89,4.179,4.169,0,0,0,0,4.162,98.06,2.2966208084,2.296588,38,Tripod,
20600,2022-08-15 21:01:33,0,0,2.624672,,,2.6247048084,2.296588,0,0,0,0,0,8.364,2.6247048084,2.624672,0,0,0,0,-0.223694,335.2, 0.2, -0.8,0,0,1024,1024,1162,1024,0,0,21,0,335.2,-0.6,0,89,4.179,4.169,0,0,0,0,4.162,98.06,2.6247048084,2.624672,38,Tripod,
20700,2022-08-15 21:01:33,0,0,2.624672,,,2.6247048084,2.296588,0,0,0,0,0,8.364,2.6247048084,2.624672,0,0,0,0,-0.223694,335.2, 0.2, -0.7,0,0,1024,1024,1024,1024,0,0,0,0,335.2,-0.6,0,89,4.179,4.169,0,0,0,0,4.162,98.06,2.6247048084,2.624672,38,Tripod,
20800,2022-08-15 21:01:33,0,0,2.624672,,,2.6247048084,2.296588,0,0,0,0,0,8.364,2.6247048084,2.624672,0,0,0,0,-0.447388,335.3, 0, -0.2,0,0,1024,1024,1024,1024,0,0,0,0,335.2,-0.6,0,89,4.179,4.169,0,0,0,0,4.162,98.06,2.6247048084,2.624672,38,Tripod,
20900,2022-08-15 21:01:33,0,0,2.624672,,,2.6247048084,2.296588,0,0,0,0,0,8.364,2.6247048084,2.624672,0,0,0,0,-0.223694,335.3, 0.3, 0,0,0,1024,1024,1024,1024,0,0,0,0,335.2,-0.6,0,89,4.179,4.169,0,0,0,0,4.162,98.06,2.6247048084,2.624672,38,Tripod,
21000,2022-08-15 21:01:33,0,0,2.624672,,,2.6247048084,2.296588,0,0,0,0,0,8.364,2.6247048084,2.624672,0,0,0,0,0,335.2, 0.5, 0,0,0,1024,1024,1024,1024,0,0,0,0,335.2,-0.6,0,89,4.179,4.169,0,0,0,0,4.162,98.06,2.6247048084,2.624672,38,Tripod,
21100,2022-08-15 21:01:33,0,0,2.624672,,,2.6247048084,2.624672,0,0,0,0,0,8.364,2.6247048084,2.624672,0,0,0,0,0,335.3, 0.4, 0.1,0,0,1096,1024,1024,1024,11,0,0,0,335.2,-0.6,0,89,4.179,4.169,0,0,0,0,4.162,98.06,2.6247048084,2.624672,38,Tripod,
21200,2022-08-15 21:01:33,0,0,2.624672,,,2.6247048084,2.624672,0,0,0,0,0,8.357,2.6247048084,2.624672,0,0,0,0,0,335.2, 0.4, 0.1,0,0,1152,1024,1024,1024,19,0,0,0,335.2,-0.6,0,89,4.183,4.17,0,0,0,0,4.274,98.06,2.6247048084,2.624672,38,Tripod,
21300,2022-08-15 21:01:34,0,0,2.624672,,,2.6247048084,2.624672,0,0,0,0,0,8.357,2.6247048084,2.624672,0,0,0,0,0,335.2, 0, 0.1,0,0,1178,1024,1024,1024,23,0,0,0,335.2,-0.6,0,89,4.183,4.17,0,0,0,0,4.274,98.06,2.6247048084,2.624672,38,Tripod,
21400,2022-08-15 21:01:34,0,0,2.624672,,,2.6247048084,2.624672,0,0,0,0,0,8.357,2.6247048084,2.624672,0,0,0,0,0,335.2, -0.5, 0,0,0,1206,1024,1024,1024,28,0,0,0,335.2,-0.6,0,89,4.183,4.17,0,0,0,0,4.274,98.06,2.6247048084,2.624672,38,Tripod,
21500,2022-08-15 21:01:34,0,0,2.624672,,,2.6247048084,2.624672,0,0,0,0,0,8.357,2.6247048084,2.624672,0,0,0,0,0,335.3, -0.9, 0,0,0,1214,1024,1024,1024,29,0,0,0,335.2,-0.6,0,89,4.183,4.17,0,0,0,0,4.274,98.06,2.6247048084,2.624672,38,Tripod,
21600,2022-08-15 21:01:34,0,0,2.952756,,,2.9527888084,2.624672,0,0,0,0,0,8.357,2.9527888084,2.952756,0,0,0,0,0,335.2, -1.1, 0,0,0,1229,1024,1024,1024,31,0,0,0,335.2,-0.6,0,89,4.183,4.17,0,0,0,0,4.274,98.06,2.9527888084,2.952756,38,Tripod,
21700,2022-08-15 21:01:34,0,0,2.952756,,,2.9527888084,2.624672,0,0,0,0,0,8.357,2.9527888084,2.952756,0,0,0,0,0,335.2, -1.4, -0.1,0,0,1229,1024,1024,1024,31,0,0,0,335.2,-0.6,0,89,4.183,4.17,0,0,0,0,4.274,98.06,2.9527888084,2.952756,38,Tripod,
21800,2022-08-15 21:01:34,0,0,2.952756,,,2.9527888084,2.624672,0.223694,0,0,0,0,8.357,2.9527888084,2.952756,0,0,0.223694,0,0,335.2, -1.5, -0.2,0,0,1270,1024,1024,1024,37,0,0,0,335.2,-0.6,0,89,4.183,4.17,0,0,0,0,4.274,98.06,2.9527888084,2.952756,38,Tripod,
21900,2022-08-15 21:01:34,0,0,2.952756,,,2.9527888084,2.624672,0.223694,0,0,0,0,8.357,2.9527888084,2.952756,0,0,0.223694,0,0,335.3, -1.8, -0.4,0,0,1271,1024,1024,1024,37,0,0,0,335.2,-0.6,0,89,4.183,4.17,0,0,0,0,4.274,98.06,2.9527888084,2.952756,38,Tripod,
22000,2022-08-15 21:01:34,0,0,2.952756,,,2.9527888084,2.624672,0.3131716,0,0,0,0,8.357,2.9527888084,2.952756,0,0,0.223694,-0.223694,0,335.3, -2, -0.3,0,0,1256,1024,1024,1024,35,0,0,0,335.2,-0.6,0,89,4.183,4.17,0,0,0,0,4.274,98.06,2.9527888084,2.952756,38,Tripod,
22100,2022-08-15 21:01:34,0,0,2.952756,,,2.9527888084,2.624672,0.4921268,0,0,0,0,8.357,2.9527888084,2.952756,0,0,0.447388,-0.223694,0,335.3, -1.9, -0.2,0,0,1256,1024,1024,1024,35,0,0,0,335.2,-0.6,0,89,4.183,4.17,0,0,0,0,4.274,98.06,2.9527888084,2.952756,38,Tripod,
22200,2022-08-15 21:01:34,0,0,2.952756,,,2.9527888084,2.624672,0.4921268,0,0,0,0,8.36,2.9527888084,2.952756,0,0,0.447388,-0.223694,0,335.3, -1.8, -0.2,0,0,1218,1024,1024,1024,29,0,0,0,335.2,-0.6,0,89,4.185,4.171,0,0,0,0,4.095,98.06,2.9527888084,2.952756,38,Tripod,
22300,2022-08-15 21:01:35,0,0,2.952756,,,2.9527888084,2.624672,0.4921268,0,0,0,0,8.36,2.9527888084,2.952756,0,0,0.447388,-0.223694,0,335.4, -1.7, -0.2,0,0,1073,1024,1024,1024,7,0,0,0,335.2,-0.6,0,89,4.185,4.171,0,0,0,0,4.095,98.06,2.9527888084,2.952756,38,Tripod,
22400,2022-08-15 21:01:35,0,0,2.952756,,,2.9527888084,2.624672,0.4921268,0,0,0,0,8.36,2.9527888084,2.952756,0,0,0.447388,-0.223694,0,335.4, -1.4, 0,0,0,1024,1024,1024,1024,0,0,0,0,335.2,-0.6,0,89,4.185,4.171,0,0,0,0,4.095,98.06,2.9527888084,2.952756,38,Tripod,
22500,2022-08-15 21:01:35,0,0,2.952756,,,2.9527888084,2.624672,0.7158208,0,0,0,0,8.36,2.9527888084,2.952756,0,0,0.671082,-0.223694,0,335.5, 0.1, 0,0,0,1024,1024,1024,1024,0,0,0,0,335.2,-0.6,0,89,4.185,4.171,0,0,0,0,4.095,98.06,2.9527888084,2.952756,38,Tripod,
22600,2022-08-15 21:01:35,0,0,2.952756,,,2.9527888084,2.624672,0.4921268,0,0,0,0,8.36,2.9527888084,2.952756,0,0,0.447388,-0.223694,0,335.5, 2.8, 0.1,0,0,1024,1024,1024,1024,0,0,0,0,335.2,-0.6,0,89,4.185,4.171,0,0,0,0,4.095,98.06,2.9527888084,2.952756,38,Tripod,
22700,2022-08-15 21:01:35,0,0,2.952756,,,2.9527888084,2.624672,0.4921268,0,0,0,0,8.36,2.9527888084,2.952756,0,0,0.447388,-0.223694,0,335.5, 3.3, 0.3,0,0,1024,1024,1024,1024,0,0,0,0,335.2,-0.6,0,89,4.185,4.171,0,0,0,0,4.095,98.06,2.9527888084,2.952756,38,Tripod,
22800,2022-08-15 21:01:35,0,0,2.952756,,,2.9527888084,2.624672,0.3131716,0,0,0,0,8.36,2.9527888084,2.952756,0,0,0.223694,-0.223694,0,335.5, 3, 0.5,0,0,1024,1024,957,1024,0,0,-10,0,335.2,-0.6,0,89,4.185,4.171,0,0,0,0,4.095,98.06,2.9527888084,2.952756,38,Tripod,
22900,2022-08-15 21:01:35,0,0,2.952756,,,2.9527888084,2.624672,0.223694,0,0,0,0,8.36,2.9527888084,2.952756,0,0,0.223694,0,0,335.5, 2.6, 0.5,0,0,1024,1024,909,1024,0,0,-17,0,335.2,-0.6,0,89,4.185,4.171,0,0,0,0,4.095,98.06,2.9527888084,2.952756,38,Tripod,
23000,2022-08-15 21:01:35,0,0,2.952756,,,2.9527888084,2.624672,0.223694,0,0,0,0,8.36,2.9527888084,2.952756,0,0,0.223694,0,0,335.5, 2.2, 0.2,0,0,1024,1024,1024,1024,0,0,0,0,335.2,-0.6,0,89,4.185,4.171,0,0,0,0,4.095,98.06,2.9527888084,2.952756,38,Tripod,
23100,2022-08-15 21:01:35,0,0,2.952756,,,2.9527888084,2.624672,0,0,0,0,0,8.356,2.9527888084,2.952756,0,0,0,0,0,335.5, 1.7, 0.1,0,0,885,1024,1024,1024,-21,0,0,0,335.2,-0.6,0,89,4.185,4.17,0,0,0,0,4.176,98.24,2.9527888084,2.952756,38,Tripod,
23200,2022-08-15 21:01:35,0,0,2.952756,,,2.9527888084,2.624672,0,0,0,0,0,8.356,2.9527888084,2.952756,0,0,0,0,0,335.5, 1.8, 0.1,0,0,816,1024,1024,1024,-32,0,0,0,335.2,-0.6,0,89,4.185,4.17,0,0,0,0,4.176,98.24,2.9527888084,2.952756,38,Tripod,
23300,2022-08-15 21:01:36,0,0,2.952756,,,2.9527888084,2.624672,0,0,0,0,0,8.356,2.9527888084,2.952756,0,0,0,0,0,335.6, 2.1, 0,0,0,804,1024,1024,1024,-33,0,0,0,335.2,-0.6,0,89,4.185,4.17,0,0,0,0,4.176,98.24,2.9527888084,2.952756,38,Tripod,
23400,2022-08-15 21:01:36,0,0,2.952756,,,2.9527888084,2.624672,0,0,0,0,0,8.356,2.9527888084,2.952756,0,0,0,0,0,335.6, 2.9, 0.1,0,0,804,1024,1024,1024,-33,0,0,0,335.2,-0.6,0,89,4.185,4.17,0,0,0,0,4.176,98.24,2.9527888084,2.952756,38,Tripod,
23500,2022-08-15 21:01:36,0,0,2.952756,,,2.9527888084,2.296588,0,0,0,0,0,8.356,2.9527888084,2.952756,0,0,0,0,0,335.6, 3.1, 0.3,0,0,804,1024,1024,1024,-33,0,0,0,335.2,-0.6,0,89,4.185,4.17,0,0,0,0,4.176,98.24,2.9527888084,2.952756,38,Tripod,
23600,2022-08-15 21:01:36,0,0,2.952756,,,2.9527888084,2.296588,0,0,0,0,0,8.356,2.9527888084,2.952756,0,0,0,0,0,335.6, 3, 0.2,0,0,810,1024,1024,1024,-32,0,0,0,335.2,-0.6,0,89,4.185,4.17,0,0,0,0,4.176,98.24,2.9527888084,2.952756,38,Tripod,
23700,2022-08-15 21:01:36,0,0,2.952756,,,2.9527888084,2.624672,0,0,0,0,0,8.356,2.9527888084,2.952756,0,0,0,0,0,335.6, 2.8, 0.2,0,0,815,1024,1024,1024,-32,0,0,0,335.2,-0.6,0,89,4.185,4.17,0,0,0,0,4.176,98.24,2.9527888084,2.952756,38,Tripod,
23800,2022-08-15 21:01:36,0,0,2.952756,,,2.9527888084,2.624672,0.223694,0,0,0,0,8.356,2.9527888084,2.952756,0,0,-0.223694,0,0,335.5, 2.6, 0.1,0,0,667,1024,1024,1024,-54,0,0,0,335.2,-0.6,0,89,4.185,4.17,0,0,0,0,4.176,98.24,2.9527888084,2.952756,38,Tripod,
23900,2022-08-15 21:01:36,0,0,2.952756,,,2.9527888084,2.624672,0.223694,0,0,0,0,8.356,2.9527888084,2.952756,0,0,-0.223694,0,0,335.5, 2.9, 0,0,0,481,1024,1024,1024,-82,0,0,0,335.2,-0.6,0,89,4.185,4.17,0,0,0,0,4.176,98.24,2.9527888084,2.952756,38,Tripod,
24000,2022-08-15 21:01:36,0,0,2.952756,,,2.9527888084,2.624672,0.223694,0,0,0,0,8.356,2.9527888084,2.952756,0,0,-0.223694,0,0,335.5, 6, 0.1,0,0,467,1024,1024,1024,-84,0,0,0,335.2,-0.6,0,89,4.185,4.17,0,0,0,0,4.176,98.24,2.9527888084,2.952756,38,Tripod,
24100,2022-08-15 21:01:36,0,0,2.952756,,,2.9527888084,2.624672,0.4921268,0,0,0,0,8.355,2.9527888084,2.952756,0,0,-0.447388,0.223694,0,335.5, 8.7, 0,0,0,705,1024,1024,1024,-48,0,0,0,335.2,-0.6,0,89,4.184,4.169,0,0,0,0,4.161,98.24,2.9527888084,2.952756,38,Tripod,
24200,2022-08-15 21:01:36,0,0,2.952756,,,2.9527888084,2.296588,0.9171454,0,0,0,0,8.355,2.9527888084,2.952756,0,0,-0.894776,0.223694,0,335.5, 9.8, 0.1,0,0,1024,1024,1024,1024,0,0,0,0,335.2,-0.6,0,89,4.184,4.169,0,0,0,0,4.161,98.24,2.9527888084,2.952756,38,Tripod,
24300,2022-08-15 21:01:37,0,0,2.952756,,,2.9527888084,2.296588,1.2079476,0,0,0,0,8.355,2.9527888084,2.952756,0,0,-1.11847,0.447388,0,335.6, 8, 0.3,0,0,1024,1024,1024,1024,0,0,0,0,335.2,-0.6,0,89,4.184,4.169,0,0,0,0,4.161,98.24,2.9527888084,2.952756,38,Tripod,
24400,2022-08-15 21:01:37,0,0,2.952756,,,2.9527888084,2.296588,1.4092722,0,0,0,0,8.355,2.9527888084,2.952756,0,0,-1.342164,0.447388,0,335.5, -1.8, 0.4,0,0,1024,1024,1024,1024,0,0,0,0,335.2,-0.6,0,89,4.184,4.169,0,0,0,0,4.161,98.24,2.9527888084,2.952756,38,Tripod,
