time(millisecond),datetime(utc),latitude,longitude,height_above_takeoff(feet),height_above_ground_at_drone_location(feet),ground_elevation_at_drone_location(feet),altitude_above_seaLevel(feet),height_sonar(feet),speed(mph),distance(feet),mileage(feet),satellites,gpslevel,voltage(v),max_altitude(feet),max_ascent(feet),max_speed(mph),max_distance(feet), xSpeed(mph), ySpeed(mph), zSpeed(mph), compass_heading(degrees), pitch(degrees), roll(degrees),isPhoto,isVideo,rc_elevator,rc_aileron,rc_throttle,rc_rudder,rc_elevator(percent),rc_aileron(percent),rc_throttle(percent),rc_rudder(percent),gimbal_heading(degrees),gimbal_pitch(degrees),gimbal_roll(degrees),battery_percent,voltageCell1,voltageCell2,voltageCell3,voltageCell4,voltageCell5,voltageCell6,current(A),battery_temperature(f),altitude(feet),ascent(feet),flycStateRaw,flycState,message
1200,2022-10-24 20:25:28,-34.9287077276641,-56.1628130612743,0,0,6.901433619796,6.901433619796,0.328084,0,0,0,18,5,0,6.901433619796,0,0,0,0,0,0,191.5, -6.5, 2.2,0,0,364,364,364,1684,-100,-100,-100,100,201.9,0,0,59,3.955,3.956,0,0,0,0,0,93.56,6.901433619796,0,41,Motors_Started,"Aeronave en Zona de altitud restringida (150). Vuela con precauci贸n (Code: 190001). Error de calibraci贸n del estabilizador. Reinicia la aeronave o contacta con la Asistencia DJI (Code: 40011). El motor no puede girar. Comprueba su estado (Code: 30142"
1300,2022-10-24 20:25:29,-34.9287075550478,-56.1628131922251,0,0,6.901433619796,6.901433619796,0.328084,0,0.07416666904,0.07416666904,18,5,0,6.901433619796,0,0,0.07416666904,0,0,0,192.3, -6.5, 2.5,0,0,364,364,364,1684,-100,-100,-100,100,202.4,0,0,59,3.955,3.956,0,0,0,0,0,93.56,6.901433619796,0,41,Motors_Started,
1400,2022-10-24 20:25:29,-34.9287075576547,-56.1628132354492,0,0,6.901433619796,6.901433619796,0.328084,0,0.08100558002,0.087131236384,18,5,0,6.901433619796,0,0,0.08100558002,0,0,0,192.1, -6.4, 2.8,0,0,364,364,364,1684,-100,-100,-100,100,202.7,0,0,59,3.955,3.956,0,0,0,0,0,93.56,6.901433619796,0,41,Motors_Started,
1500,2022-10-24 20:25:29,-34.9287075867382,-56.162813260115,0,0,6.901433619796,6.901433619796,0.328084,0,0.078621721676,0.100055449396,18,5,0,6.901433619796,0,0,0.08100558002,0,0,0,192.2, -6.6, 2.8,0,0,364,364,364,1684,-100,-100,-100,100,202.9,0,0,59,3.955,3.956,0,0,0,0,0,93.56,6.901433619796,0,41,Motors_Started,
1600,2022-10-24 20:25:29,-34.9287075699445,-56.1628132946649,0,0,6.901433619796,6.901433619796,0.328084,0,0.090472115756,0.112069885476,18,5,0,6.901433619796,0,0,0.090472115756,0,0,0,192.6, -6.5, 2.6,0,0,1024,1024,1024,1347,0,0,0,49,203,0,0,59,3.955,3.956,0,0,0,0,0,93.56,6.901433619796,0,41,Motors_Started,
1700,2022-10-24 20:25:29,-34.9287075744366,-56.1628133213526,-0.328084,-0.328084,6.901433619796,6.573349619796,0.328084,0,0.095800199916,0.120219492036,18,5,0,6.901433619796,0,0,0.095800199916,0,0,0,192.6, -6.2, 3.2,0,0,1024,1024,1024,1347,0,0,0,49,203.3,0,0,59,3.955,3.956,0,0,0,0,0,93.56,6.573349619796,-0.328084,41,Motors_Started,
1800,2022-10-24 20:25:29,-34.928707540885,-56.1628133143944,-0.328084,-0.328084,6.901433619796,6.573349619796,0.328084,0,0.101866144992,0.132636487184,18,5,0,6.901433619796,0,0,0.101866144992,0,0,0,192.8, -6.6, 2.8,0,0,1024,1024,1024,1043,0,0,0,3,203.4,0,0,59,3.955,3.956,0,0,0,0,0,93.56,6.573349619796,-0.328084,41,Motors_Started,"Setting new Return-To-Home altitude to 100m (328 ft). Data Recorder File Index is 23. Setting new Maximum Flight Altitude to 120m (394 ft)"
1900,2022-10-24 20:25:29,-34.9287075164139,-56.1628132948085,-0.328084,-0.328084,6.901433619796,6.573349619796,0.328084,0,0.104021328788,0.1433152933,18,5,0,6.901433619796,0,0,0.104021328788,0,0,0,193.4, -7.5, 2.5,0,0,1024,1024,1271,1024,0,0,37,0,203.4,0,0,59,3.955,3.956,0,0,0,0,0,93.56,6.573349619796,-0.328084,41,Motors_Started,
2000,2022-10-24 20:25:29,-34.9287075291207,-56.162813309736,-0.328084,-0.328084,6.901433619796,6.573349619796,0.328084,0,0.103783795972,0.149751973296,18,5,0,6.901433619796,0,0,0.104021328788,0,0,0,193.5, -8.3, 2.6,0,0,1024,1024,1684,1024,0,0,100,0,203.7,0,0,59,3.955,3.956,0,0,0,0,0,93.56,6.573349619796,-0.328084,41,Motors_Started,
2100,2022-10-24 20:25:29,-34.9287075595966,-56.1628133380636,-0.328084,-0.328084,6.901433619796,6.573349619796,0.328084,0,0.103029530856,0.16373196062,18,5,0,6.901433619796,0,0,0.104021328788,0,0,0,193.9, -9.2, 2.2,0,0,1024,1024,1684,1024,0,0,100,0,204.4,0,0,59,3.955,3.956,0,0,0,0,0,93.56,6.573349619796,-0.328084,41,Motors_Started,
2200,2022-10-24 20:25:30,-34.9287075527836,-56.1628132973523,-0.328084,-0.328084,6.901433619796,6.573349619796,0.328084,0,0.095172903308,0.176160766792,18,5,0,6.901433619796,0,0,0.104021328788,0,0,0,192.7, -10.1, 1.5,0,0,1024,1024,1684,1024,0,0,100,0,204,0,0,59,3.955,3.956,0,0,0,0,0,93.56,6.573349619796,-0.328084,41,Motors_Started,
2300,2022-10-24 20:25:30,-34.9287075349843,-56.1628132381882,-0.328084,-0.328084,6.901433619796,6.573349619796,0.328084,0,0.087991472632,0.195012473432,18,5,0,6.901433619796,0,0,0.104021328788,0,0,0,192.4, -9.5, 2.1,0,0,1024,1024,1640,1024,0,0,93,0,203.4,0,0,59,3.955,3.956,0,0,0,0,0,93.56,6.573349619796,-0.328084,10,Assisted_Takeoff,
2400,2022-10-24 20:25:30,-34.9287075491959,-56.1628132291431,-0.328084,-0.328084,6.901433619796,6.573349619796,0.328084,0,0.082227036752,0.200860898816,18,5,7.898,6.901433619796,0,0,0.104021328788,0,0,0,193, -7.6, 1.9,0,0,1024,1024,1393,1024,0,0,56,0,203.5,0,0,59,3.943,3.943,0,0,0,0,0.82,93.56,6.573349619796,-0.328084,10,Assisted_Takeoff,
2500,2022-10-24 20:25:30,-34.9287075664767,-56.1628132276384,-0.328084,-0.328084,6.901433619796,6.573349619796,0.328084,0,0.077038716376,0.20718176516,18,5,7.898,6.901433619796,0,0,0.104021328788,0,0,0,192.6, -4.9, 2,0,0,1024,1024,1577,1024,0,0,84,0,203.4,0,0,59,3.943,3.943,0,0,0,0,0.82,93.56,6.573349619796,-0.328084,10,Assisted_Takeoff,
2600,2022-10-24 20:25:30,-34.928707545032,-56.1628131744294,-0.328084,-0.328084,6.901433619796,6.573349619796,0.328084,0,0.074737207116,0.224917330032,18,5,7.898,6.901433619796,0,0,0.104021328788,0,0,0,193, -4.8, 0.9,0,0,1024,1024,1577,1024,0,0,84,0,203.4,0,0,59,3.943,3.943,0,0,0,0,0.82,93.56,6.573349619796,-0.328084,10,Assisted_Takeoff,
2700,2022-10-24 20:25:30,-34.9287075262401,-56.1628131348384,-0.328084,-0.328084,6.901433619796,6.573349619796,0.328084,0,0.076713257048,0.238601385588,18,5,7.898,6.901433619796,0,0,0.104021328788,0,0,0,193, -5.1, 0.1,0,0,1024,1024,1684,1024,0,0,100,0,203.5,0,0,59,3.943,3.943,0,0,0,0,0.82,93.56,6.573349619796,-0.328084,10,Assisted_Takeoff,
2800,2022-10-24 20:25:30,-34.928707474179,-56.162813099403,-0.328084,-0.3608924,6.934242019796,6.573349619796,0.328084,0,0.093184386184,0.260353354788,18,5,7.898,6.901433619796,0,0,0.104021328788,0,0,0,191.5, -6.4, -0.3,0,0,1024,1024,1684,1024,0,0,100,0,202.5,0,0,59,3.943,3.943,0,0,0,0,0.82,93.56,6.573349619796,-0.328084,10,Assisted_Takeoff,
2900,2022-10-24 20:25:30,-34.928707450707,-56.1628130759947,-0.328084,-0.3608924,6.934242019796,6.573349619796,0.328084,0.223694,0.10114337594,0.271415363016,18,5,7.898,6.901433619796,0,0.223694,0.104021328788,-0.223694,0,0,188.4, -7.4, -0.6,0,0,1024,1024,1630,1024,0,0,92,0,199.6,0,0,59,3.943,3.943,0,0,0,0,0.82,93.56,6.573349619796,-0.328084,10,Assisted_Takeoff,
3000,2022-10-24 20:25:30,-34.9287074099245,-56.1628131400572,-0.328084,-0.3608924,6.934242019796,6.573349619796,0.328084,0.223694,0.118298232132,0.295676518648,18,5,7.898,6.901433619796,0,0.223694,0.118298232132,-0.223694,0,0,185.4, -7.7, -1.1,0,0,1024,1024,1255,1024,0,0,35,0,196.5,0,0,59,3.943,3.943,0,0,0,0,0.82,93.56,6.573349619796,-0.328084,10,Assisted_Takeoff,
3100,2022-10-24 20:25:30,-34.9287076215049,-56.1628131269992,-0.328084,-0.328084,6.901433619796,6.573349619796,0.328084,0.671082,0.043436025012,0.37296917204,18,5,7.898,6.901433619796,0,0.671082,0.118298232132,-0.671082,0,-0.223694,183.8, -6.5, -0.5,0,0,1024,1024,1166,1024,0,0,22,0,194.9,0,0,59,3.943,3.943,0,0,0,0,0.82,93.56,6.573349619796,-0.328084,6,P-GPS,"Error de calibraci贸n del estabilizador. Reinicia la aeronave o contacta con la Asistencia DJI (Code: 40011)"
3200,2022-10-24 20:25:31,-34.9287079706614,-56.1628130982248,0,0,6.901433619796,6.901433619796,0.656168,1.11847,0.08934383488,0.50064962232,18,5,7.898,6.901433619796,0,1.11847,0.118298232132,-1.11847,0,-0.894776,184, 1.1, -0.4,0,0,1024,1024,1447,1024,0,0,64,0,194.8,0,0,59,3.943,3.943,0,0,0,0,0.82,93.56,6.901433619796,0,6,P-GPS,
3300,2022-10-24 20:25:31,-34.9287083870447,-56.1628130512763,0,0,6.901433619796,6.901433619796,0.984252,1.11847,0.240593183552,0.653215244,18,5,7.898,6.901433619796,0,1.11847,0.240593183552,-1.11847,0,-1.342164,184.2, 5, 0.1,0,0,1024,1024,1024,1024,0,0,0,0,194.8,0,0,59,3.943,3.943,0,0,0,0,0.82,93.56,6.901433619796,0,6,P-GPS,
3400,2022-10-24 20:25:31,-34.9287089663386,-56.1628129318705,0,0.032808400000001,6.868625219796,6.901433619796,1.312336,0.894776,0.45358269168,0.86756564456,18,5,7.879,6.901433619796,0,1.11847,0.45358269168,-0.894776,0,-1.789552,184, 5.5, 1.9,0,0,1024,1024,1024,1024,0,0,0,0,194.8,0,0,59,3.919,3.914,0,0,0,0,1.632,93.56,6.901433619796,0,6,P-GPS,
3500,2022-10-24 20:25:31,-34.9287093896184,-56.1628128314407,0.328084,0.3608924,6.868625219796,7.229517619796,1.968504,0.894776,0.61024936336,1.02489504592,18,5,7.879,7.229517619796,0.328084,1.11847,0.61024936336,-0.894776,0,-2.013246,183.9, 5.3, 2.4,0,0,1024,1024,1024,1024,0,0,0,0,194.8,0,0,59,3.919,3.914,0,0,0,0,1.632,93.56,7.229517619796,0.328084,6,P-GPS,
3600,2022-10-24 20:25:31,-34.9287097706967,-56.1628126879174,0.656168,0.7217848,6.835816819796,7.557601619796,2.296588,0.671082,0.75372049656,1.17041014244,18,5,7.879,7.557601619796,0.656168,1.11847,0.75372049656,-0.671082,0,-2.013246,183.9, 6.7, 2.1,0,0,1024,1024,1024,1024,0,0,0,0,194.8,0,0,59,3.919,3.914,0,0,0,0,1.632,93.56,7.557601619796,0.656168,6,P-GPS,
3700,2022-10-24 20:25:31,-34.9287101241852,-56.1628125545377,0.984252,1.0498688,6.835816819796,7.885685619796,2.624672,0.447388,0.88741144572,1.30541014676,18,5,7.879,7.885685619796,0.984252,1.11847,0.88741144572,-0.447388,0,-1.565858,184, 5.6, -0.8,0,0,1024,1024,1024,1024,0,0,0,0,194.8,0,0,59,3.919,3.914,0,0,0,0,1.632,93.56,7.885685619796,0.984252,6,P-GPS,
3800,2022-10-24 20:25:31,-34.9287103304771,-56.162812372177,0.984252,1.0498688,6.835816819796,7.885685619796,2.952756,0.447388,0.97174871876,1.39836290564,18,5,7.879,7.885685619796,0.984252,1.11847,0.97174871876,-0.447388,0,-1.11847,184.3, 4.6, 0.2,0,0,1024,1024,1024,1024,0,0,0,0,194.8,0,0,59,3.919,3.914,0,0,0,0,1.632,93.56,7.885685619796,0.984252,6,P-GPS,
3900,2022-10-24 20:25:31,-34.9287105263303,-56.1628117666341,1.312336,1.4107612,6.803008419796,8.213769619796,2.952756,0.447388,1.09206368324,1.59308404048,18,5,7.879,8.213769619796,1.312336,1.11847,1.09206368324,-0.447388,0,-0.671082,184.5, 4.4, 1.3,0,0,1024,1024,1024,1024,0,0,0,0,194.8,0,0,59,3.919,3.914,0,0,0,0,1.632,93.56,8.213769619796,1.312336,6,P-GPS,"Error de calibraci贸n del estabilizador. Reinicia la aeronave o contacta con la Asistencia DJI (Code: 40011)"
4000,2022-10-24 20:25:31,-34.9287106650823,-56.1628116097802,1.312336,1.4107612,6.803008419796,8.213769619796,2.952756,0.447388,1.15632549632,1.6621063524,18,5,7.879,8.213769619796,1.312336,1.11847,1.15632549632,-0.447388,0,-0.223694,184.6, 4.5, 2,0,0,1024,1024,1024,1024,0,0,0,0,194.8,0,0,59,3.919,3.914,0,0,0,0,1.632,93.56,8.213769619796,1.312336,6,P-GPS,
4100,2022-10-24 20:25:31,-34.9287108028647,-56.1628114856905,1.312336,1.4107612,6.803008419796,8.213769619796,3.28084,0.447388,1.21695213868,1.72459323104,17,5,7.879,8.213769619796,1.312336,1.11847,1.21695213868,-0.447388,0,0,184.5, 4.6, 0.2,0,0,1024,1024,1024,1024,0,0,0,0,194.8,0,0,59,3.919,3.914,0,0,0,0,1.632,93.56,8.213769619796,1.312336,6,P-GPS,
4200,2022-10-24 20:25:31,-34.9287108820301,-56.1628113550179,1.312336,1.4107612,6.803008419796,8.213769619796,3.28084,0.447388,1.25896657572,1.7731955948,17,5,7.879,8.213769619796,1.312336,1.11847,1.25896657572,-0.447388,0,0,184.4, 5.1, 0.1,0,0,1024,1024,1024,1024,0,0,0,0,194.8,0,0,59,3.919,3.914,0,0,0,0,1.632,93.56,8.213769619796,1.312336,6,P-GPS,
4300,2022-10-24 20:25:32,-34.92871069801,-56.1628111166296,1.312336,1.4107612,6.803008419796,8.213769619796,3.28084,0.447388,1.22997379264,1.87113851132,18,5,7.879,8.213769619796,1.312336,1.11847,1.25896657572,-0.447388,0,0,184.4, 5.4, 1.1,0,0,1024,1024,1024,1024,0,0,0,0,194.8,0,0,59,3.919,3.914,0,0,0,0,1.632,93.56,8.213769619796,1.312336,6,P-GPS,
4400,2022-10-24 20:25:32,-34.9287107036766,-56.1628109790487,1.312336,1.4107612,6.803008419796,8.213769619796,3.28084,0.447388,1.25175857024,1.91234586172,18,5,7.766,8.213769619796,1.312336,1.11847,1.25896657572,-0.223694,0,0,184.5, 5.2, 1.4,0,0,1024,1024,1024,1024,0,0,0,0,194.8,0,0,59,3.907,3.905,0,0,0,0,4.467,93.56,8.213769619796,1.312336,6,P-GPS,
4500,2022-10-24 20:25:32,-34.928710666718,-56.1628108473376,1.312336,1.4107612,6.803008419796,8.213769619796,3.28084,0,1.26032812432,1.953986283,18,5,7.766,8.213769619796,1.312336,1.11847,1.26032812432,0,0,0,184.6, 4.4, 1.2,0,0,1024,1024,1024,1024,0,0,0,0,194.8,0,0,59,3.907,3.905,0,0,0,0,4.467,93.56,8.213769619796,1.312336,6,P-GPS,
4600,2022-10-24 20:25:32,-34.9287105988661,-56.1628107837525,1.312336,1.4107612,6.803008419796,8.213769619796,3.28084,0,1.24959977752,1.9852034756,18,5,7.766,8.213769619796,1.312336,1.11847,1.26032812432,0,0,0,184.9, 3.5, 1.3,0,0,1024,1024,1024,1024,0,0,0,0,194.8,0,0,59,3.907,3.905,0,0,0,0,4.467,93.56,8.213769619796,1.312336,6,P-GPS,
4700,2022-10-24 20:25:32,-34.9287104345508,-56.1628108951456,1.312336,1.3779528,6.835816819796,8.213769619796,3.28084,0,1.18118770184,2.05379271664,18,5,7.766,8.213769619796,1.312336,1.11847,1.26032812432,0,0,0,184.4, 1.9, 1.3,0,0,1024,1024,1024,1024,0,0,0,0,194.8,0,0,59,3.907,3.905,0,0,0,0,4.467,93.56,8.213769619796,1.312336,6,P-GPS,
4800,2022-10-24 20:25:32,-34.9287103038647,-56.1628108241102,1.312336,1.3779528,6.835816819796,8.213769619796,3.28084,0,1.15381237288,2.10599416188,18,5,7.766,8.213769619796,1.312336,1.11847,1.26032812432,0,0,0,184.5, 1, 0.9,0,0,1024,1024,1024,1024,0,0,0,0,194.8,0,0,59,3.907,3.905,0,0,0,0,4.467,93.56,8.213769619796,1.312336,6,P-GPS,
4900,2022-10-24 20:25:32,-34.9287101544368,-56.1628107549478,1.312336,1.3779528,6.835816819796,8.213769619796,3.28084,0,1.12244754248,2.16430781204,18,5,7.766,8.213769619796,1.312336,1.11847,1.26032812432,0,0,0,184.6, 0.7, -0.2,0,0,1024,1024,1024,1024,0,0,0,0,194.8,0,0,59,3.907,3.905,0,0,0,0,4.467,93.56,8.213769619796,1.312336,6,P-GPS,
5000,2022-10-24 20:25:32,-34.9287100032079,-56.162810757436,0.984252,1.0498688,6.835816819796,7.885685619796,3.28084,0,1.07897969332,2.21948826,18,5,7.766,8.213769619796,1.312336,1.11847,1.26032812432,0,0,0,184.4, 0.4, -0.8,0,0,1024,1024,1024,1024,0,0,0,0,194.8,0,0,59,3.907,3.905,0,0,0,0,4.467,93.56,7.885685619796,0.984252,6,P-GPS,
5100,2022-10-24 20:25:32,-34.9287098318262,-56.1628108358493,0.984252,1.0498688,6.835816819796,7.885685619796,2.952756,0,1.01612207976,2.2862697582,18,5,7.766,8.213769619796,1.312336,1.11847,1.26032812432,0,0,0,184.2, 1, -0.6,0,0,1024,1024,1024,1024,0,0,0,0,194.8,0,0,59,3.907,3.905,0,0,0,0,4.467,93.56,7.885685619796,0.984252,6,P-GPS,
5200,2022-10-24 20:25:33,-34.9287096960233,-56.162810879667,0.984252,1.0498688,6.835816819796,7.885685619796,2.952756,0,0.97036420428,2.33752304068,18,5,7.766,8.213769619796,1.312336,1.11847,1.26032812432,0,0,0,184.2, 0.3, 0.8,0,0,1024,1024,1024,1024,0,0,0,0,194.8,0,0,59,3.907,3.905,0,0,0,0,4.467,93.56,7.885685619796,0.984252,6,P-GPS,
5300,2022-10-24 20:25:33,-34.9287095566255,-56.1628109453315,0.984252,1.0498688,6.835816819796,7.885685619796,2.952756,0,0.91972443888,2.3920440398,18,5,7.766,8.213769619796,1.312336,1.11847,1.26032812432,0,0,0,184.3, 0.2, -1.2,0,0,1024,1024,1024,1024,0,0,0,0,194.8,0,0,59,3.907,3.905,0,0,0,0,4.467,93.56,7.885685619796,0.984252,6,P-GPS,
5400,2022-10-24 20:25:33,-34.9287094800434,-56.1628110122506,0.984252,1.0170604,6.868625219796,7.885685619796,2.952756,0,0.88568900472,2.42641411964,18,5,7.795,8.213769619796,1.312336,1.11847,1.26032812432,0,0,0,184.2, 0.6, -1.5,0,0,1024,1024,1024,1024,0,0,0,0,194.8,0,0,59,3.894,3.89,0,0,0,0,3.718,93.56,7.885685619796,0.984252,6,P-GPS,
5500,2022-10-24 20:25:33,-34.928709425459,-56.1628110414164,0.984252,1.0170604,6.868625219796,7.885685619796,3.28084,0,0.86530842664,2.44815624632,18,5,7.795,8.213769619796,1.312336,1.11847,1.26032812432,0,0,0,184.3, 0.7, -0.7,0,0,1024,1024,1024,1024,0,0,0,0,194.8,0,0,59,3.894,3.89,0,0,0,0,3.718,93.56,7.885685619796,0.984252,6,P-GPS,
5600,2022-10-24 20:25:33,-34.9287094487873,-56.1628110795197,0.984252,1.0170604,6.868625219796,7.885685619796,3.28084,0,0.86355645808,2.46238196856,18,5,7.795,8.213769619796,1.312336,1.11847,1.26032812432,0,0,0,184.2, 1.2, 0.4,0,0,1024,1024,1024,1024,0,0,0,0,194.8,0,0,59,3.894,3.89,0,0,0,0,3.718,93.56,7.885685619796,0.984252,6,P-GPS,
5700,2022-10-24 20:25:33,-34.9287094943688,-56.1628111125394,0.984252,1.0170604,6.868625219796,7.885685619796,3.28084,0,0.86906826928,2.48172252036,18,5,7.795,8.213769619796,1.312336,1.11847,1.26032812432,0,0,0,184.3, 1.4, 1.7,0,0,1024,1024,1024,1024,0,0,0,0,194.8,0,0,59,3.894,3.89,0,0,0,0,3.718,93.56,7.885685619796,0.984252,6,P-GPS,
5800,2022-10-24 20:25:33,-34.9287094764169,-56.1628110907748,0.984252,1.0170604,6.868625219796,7.885685619796,3.28084,0,0.86862535588,2.49095808496,18,5,7.795,8.213769619796,1.312336,1.11847,1.26032812432,0,0,0,184.3, 1.2, 2.5,0,0,1024,1024,1024,1024,0,0,0,0,194.8,0,0,59,3.894,3.89,0,0,0,0,3.718,93.56,7.885685619796,0.984252,6,P-GPS,
5900,2022-10-24 20:25:33,-34.9287094342438,-56.1628110828491,0.984252,1.0170604,6.868625219796,7.885685619796,3.28084,0,0.85901905636,2.50652567076,18,5,7.795,8.213769619796,1.312336,1.11847,1.26032812432,0,0,0,184.3, 1.4, 1.8,0,0,1024,1024,1024,1024,0,0,0,0,194.8,0,0,59,3.894,3.89,0,0,0,0,3.718,93.56,7.885685619796,0.984252,6,P-GPS,
6000,2022-10-24 20:25:33,-34.9287094538908,-56.1628110643336,0.984252,1.0170604,6.868625219796,7.885685619796,3.28084,0,0.86803152384,2.51558407,18,5,7.795,8.213769619796,1.312336,1.11847,1.26032812432,0,0,0,184.2, 1.5, 0,0,0,1024,1024,1199,1024,0,0,27,0,194.8,0,0,59,3.894,3.89,0,0,0,0,3.718,93.56,7.885685619796,0.984252,6,P-GPS,
6100,2022-10-24 20:25:33,-34.9287094331908,-56.1628110488452,0.984252,1.0170604,6.868625219796,7.885685619796,3.28084,0,0.8657808676,2.52444561884,18,5,7.795,8.213769619796,1.312336,1.11847,1.26032812432,0,0,0,183.9, 0.9, 0.7,0,0,1024,1024,1601,1024,0,0,87,0,194.8,0,0,59,3.894,3.89,0,0,0,0,3.718,93.56,7.885685619796,0.984252,6,P-GPS,
6200,2022-10-24 20:25:34,-34.9287093721651,-56.16281104102,0.984252,1.0170604,6.868625219796,7.885685619796,3.28084,0,0.85158139208,2.546834071,18,5,7.795,8.213769619796,1.312336,1.11847,1.26032812432,0,0,-0.223694,184.3, 1.7, 1.9,0,0,1024,1024,1684,1024,0,0,100,0,194.8,0,0,59,3.894,3.89,0,0,0,0,3.718,93.56,7.885685619796,0.984252,6,P-GPS,
6300,2022-10-24 20:25:34,-34.9287092821836,-56.1628110854842,1.312336,1.3451444,6.868625219796,8.213769619796,3.28084,0.223694,0.81913060364,2.58225401964,18,5,7.795,8.213769619796,1.312336,1.11847,1.26032812432,0,-0.223694,-0.894776,184.1, 0.9, -1.2,0,0,1024,1024,1684,1024,0,0,100,0,194.8,0,0,59,3.894,3.89,0,0,0,0,3.718,93.56,8.213769619796,1.312336,6,P-GPS,
6400,2022-10-24 20:25:34,-34.9287091175987,-56.1628112308074,1.64042,1.6732284,6.868625219796,8.541853619796,3.608924,0,0.74630579816,2.65638788028,18,5,7.773,8.541853619796,1.64042,1.11847,1.26032812432,0,0,-1.789552,184.1, 1.6, -0.1,0,0,1024,1024,1684,1024,0,0,100,0,194.8,0,0,59,3.89,3.884,0,0,0,0,4.307,93.56,8.541853619796,1.64042,6,P-GPS,
6500,2022-10-24 20:25:34,-34.9287090428314,-56.1628113684145,1.968504,2.0013124,6.868625219796,8.869937619796,3.937008,0,0.69761485172,2.70576780312,18,5,7.773,8.869937619796,1.968504,1.11847,1.26032812432,0,0,-2.684328,184.2, 1.2, -1.6,0,0,1024,1024,1684,1024,0,0,100,0,194.8,0,0,59,3.89,3.884,0,0,0,0,4.307,93.56,8.869937619796,1.968504,6,P-GPS,
6600,2022-10-24 20:25:34,-34.9287090007546,-56.1628114683735,2.624672,2.6574804,6.868625219796,9.526105619796,4.593176,0,0.66541668796,2.73937672808,18,5,7.773,9.526105619796,2.624672,1.11847,1.26032812432,0,0,-3.579104,184.3, 1.5, -2,0,0,1024,1024,1684,1024,0,0,100,0,194.8,0,0,59,3.89,3.884,0,0,0,0,4.307,93.56,9.526105619796,2.624672,6,P-GPS,
6700,2022-10-24 20:25:34,-34.9287089865532,-56.1628115382687,3.28084,3.3136484,6.868625219796,10.182273619796,4.92126,0,0.64692259288,2.76091872352,18,5,7.773,10.182273619796,3.28084,1.11847,1.26032812432,0,0,-4.47388,184.5, 1.4, -1.1,0,0,1024,1024,1684,1024,0,0,100,0,194.8,0,0,59,3.89,3.884,0,0,0,0,4.307,93.56,10.182273619796,3.28084,6,P-GPS,
6800,2022-10-24 20:25:34,-34.9287091167612,-56.1628118160494,3.937008,3.9698164,6.868625219796,10.838441619796,5.905512,0,0.62896655556,2.85663066884,18,5,7.773,10.838441619796,3.937008,1.11847,1.26032812432,0,0,-5.144962,184.4, 3.1, -2.2,0,0,1024,1024,1644,1024,0,0,94,0,194.8,0,0,59,3.89,3.884,0,0,0,0,4.307,93.56,10.838441619796,3.937008,6,P-GPS,
6900,2022-10-24 20:25:34,-34.9287091591365,-56.1628119437453,4.593176,4.6259844,6.868625219796,11.494609619796,6.56168,0,0.62009188336,2.89784130008,17,5,7.773,11.494609619796,4.593176,1.11847,1.26032812432,0,0,-5.816044,184.5, 3.8, -2.3,0,0,1024,1024,1644,1024,0,0,94,0,194.8,0,0,59,3.89,3.884,0,0,0,0,4.307,93.56,11.494609619796,4.593176,6,P-GPS,
7000,2022-10-24 20:25:34,-34.9287090765019,-56.1628119477467,5.577428,5.6102364,6.868625219796,12.478861619796,7.545932,0,0.59424870668,2.92801190472,17,5,7.773,12.478861619796,5.577428,1.11847,1.26032812432,0,0,-6.263432,184.3, 3.6, -1.8,0,0,1024,1024,1024,1024,0,0,0,0,194.8,0,0,59,3.89,3.884,0,0,0,0,4.307,93.56,12.478861619796,5.577428,6,P-GPS,
7100,2022-10-24 20:25:34,-34.9287089257501,-56.162811886849,6.56168,6.5944884,6.868625219796,13.463113619796,8.530184,0,0.5607939812,2.98595153912,17,5,7.773,13.463113619796,6.56168,1.11847,1.26032812432,0,0,-6.039738,184.3, 3.5, -1.4,0,0,1024,1024,1024,1024,0,0,0,0,194.8,0,0,59,3.89,3.884,0,0,0,0,4.307,93.56,13.463113619796,6.56168,6,P-GPS,
7200,2022-10-24 20:25:35,-34.9287088435084,-56.1628116918435,7.217848,7.2506564,6.868625219796,14.119281619796,9.186352,0,0.57753282688,3.05154865408,17,5,7.773,14.119281619796,7.217848,1.11847,1.26032812432,0,0,-5.368656,184.3, 2.9, -0.7,0,0,1024,1024,1024,1024,0,0,0,0,194.8,0,0,59,3.89,3.884,0,0,0,0,4.307,93.56,14.119281619796,7.217848,6,P-GPS,
7300,2022-10-24 20:25:35,-34.9287087390489,-56.1628111163207,7.874016,7.9068244,6.868625219796,14.775449619796,9.84252,0.223694,0.6889435916,3.2278708382,17,5,7.773,14.775449619796,7.874016,1.11847,1.26032812432,0,0.223694,-4.697574,184.4, 2.1, 0.9,0,0,1024,1024,1024,1024,0,0,0,0,194.8,0,0,59,3.89,3.884,0,0,0,0,4.307,93.56,14.775449619796,7.874016,6,P-GPS,
7400,2022-10-24 20:25:35,-34.9287085867476,-56.1628109271432,8.530184,8.5629924,6.868625219796,15.431617619796,10.498688,0.223694,0.71117456344,3.3071851452,17,5,7.719,15.431617619796,8.530184,1.11847,1.26032812432,0,0.223694,-3.802798,184.5, 1.4, 1,0,0,1024,1024,1024,1024,0,0,0,0,194.8,0,0,59,3.845,3.838,0,0,0,0,5.195,93.56,15.431617619796,8.530184,6,P-GPS,
7500,2022-10-24 20:25:35,-34.9287084010993,-56.1628107469031,9.186352,9.186352,6.901433619796,16.087785619796,11.154856,0.223694,0.73459976104,3.3937665128,18,5,7.719,16.087785619796,9.186352,1.11847,1.26032812432,0,0.223694,-2.908022,184.5, 0.8, 0.5,0,0,1024,1024,1024,1024,0,0,0,0,194.8,0,0,59,3.845,3.838,0,0,0,0,5.195,93.56,16.087785619796,9.186352,6,P-GPS,
7600,2022-10-24 20:25:35,-34.9287081945806,-56.1628105774911,9.186352,9.186352,6.901433619796,16.087785619796,11.48294,0.223694,0.76224739972,3.4845473556,18,5,7.719,16.087785619796,9.186352,1.11847,1.26032812432,0,0.223694,-2.013246,184.5, 0.4, 1,0,0,1024,1024,1024,1024,0,0,0,0,194.8,0,0,59,3.845,3.838,0,0,0,0,5.195,93.56,16.087785619796,9.186352,6,P-GPS,
7700,2022-10-24 20:25:35,-34.928707836446,-56.1628102746348,9.514436,9.514436,6.901433619796,16.415869619796,11.48294,0,0.83450461988,3.6435696704,17,5,7.719,16.415869619796,9.514436,1.11847,1.26032812432,0,0,-1.342164,184.6, 0.6, 1.7,0,0,1024,1024,1024,1024,0,0,0,0,194.8,0,0,59,3.845,3.838,0,0,0,0,5.195,93.56,16.415869619796,9.514436,6,P-GPS,
7800,2022-10-24 20:25:35,-34.9287075889935,-56.162810210251,9.514436,9.514436,6.901433619796,16.415869619796,11.811024,0,0.85431761264,3.7358596996,17,5,7.719,16.415869619796,9.514436,1.11847,1.26032812432,0,0,-0.671082,184.7, 0.5, 1.9,0,0,1024,1024,1024,1024,0,0,0,0,194.8,0,0,59,3.845,3.838,0,0,0,0,5.195,93.56,16.415869619796,9.514436,6,P-GPS,
7900,2022-10-24 20:25:35,-34.9287073090124,-56.1628101819354,9.514436,9.4816276,6.934242019796,16.415869619796,11.811024,0,0.87472771828,3.8383859496,17,5,7.719,16.415869619796,9.514436,1.11847,1.26032812432,0,0,-0.223694,184.7, 0.2, 1.7,0,0,1024,1024,1024,1024,0,0,0,0,194.8,0,0,59,3.845,3.838,0,0,0,0,5.195,93.56,16.415869619796,9.514436,6,P-GPS,
8000,2022-10-24 20:25:35,-34.928707083742,-56.1628102469325,9.514436,9.4816276,6.934242019796,16.415869619796,11.811024,0,0.87401249516,3.9228347712,17,5,7.719,16.415869619796,9.514436,1.11847,1.26032812432,0,0,0,184.5, 0.3, 1.7,0,0,1024,1024,1024,1024,0,0,0,0,194.8,0,0,59,3.845,3.838,0,0,0,0,5.195,93.56,16.415869619796,9.514436,6,P-GPS,
8100,2022-10-24 20:25:35,-34.9287067684655,-56.1628107211196,9.514436,9.4816276,6.934242019796,16.415869619796,11.811024,0.223694,0.7826115736,4.1054463256,18,5,7.719,16.415869619796,9.514436,1.11847,1.26032812432,0.223694,0,0,184.4, -0.6, 1.4,0,0,1024,1024,1024,1024,0,0,0,0,194.8,0,0,59,3.845,3.838,0,0,0,0,5.195,93.56,16.415869619796,9.514436,6,P-GPS,
8200,2022-10-24 20:25:35,-34.9287065424715,-56.1628107141551,9.514436,9.4816276,6.934242019796,16.415869619796,11.811024,0.223694,0.82456695552,4.1879266432,18,5,7.719,16.415869619796,9.514436,1.11847,1.26032812432,0.223694,0,0,184.2, -1.4, 1.1,0,0,1024,1024,1024,1024,0,0,0,0,194.8,0,0,59,3.845,3.838,0,0,0,0,5.195,93.56,16.415869619796,9.514436,6,P-GPS,
8300,2022-10-24 20:25:36,-34.9287063168481,-56.1628106881267,9.514436,9.4160108,6.999858819796,16.415869619796,11.811024,0.223694,0.8768537026,4.2706038112,18,5,7.719,16.415869619796,9.514436,1.11847,1.26032812432,0.223694,0,0,184.1, -1.3, 1.1,0,0,1024,1024,1024,1024,0,0,0,0,194.8,0,0,59,3.845,3.838,0,0,0,0,5.195,93.56,16.415869619796,9.514436,6,P-GPS,
8400,2022-10-24 20:25:36,-34.9287061239909,-56.1628107686579,9.514436,9.4160108,6.999858819796,16.415869619796,11.811024,0.223694,0.90146656428,4.344980454,18,5,7.765,16.415869619796,9.514436,1.11847,1.26032812432,0.223694,0,0,184, -1.5, 0.6,0,0,1029,1024,1024,1024,1,0,0,0,194.8,0,0,59,3.895,3.89,0,0,0,0,5.284,93.56,16.415869619796,9.514436,6,P-GPS,
8500,2022-10-24 20:25:36,-34.9287059688016,-56.1628109768452,9.514436,9.4160108,6.999858819796,16.415869619796,11.811024,0.223694,0.89474412312,4.4291668084,17,5,7.765,16.415869619796,9.514436,1.11847,1.26032812432,0.223694,0,0,184, -1.3, 0.5,0,0,1547,1024,1024,1024,79,0,0,0,194.8,0,0,59,3.895,3.89,0,0,0,0,5.284,93.56,16.415869619796,9.514436,6,P-GPS,
8600,2022-10-24 20:25:36,-34.9287058010495,-56.1628110711302,9.514436,9.4160108,6.999858819796,16.415869619796,11.811024,0,0.92113520008,4.496555262,17,5,7.765,16.415869619796,9.514436,1.11847,1.26032812432,0,0,0,184, -2.1, 0.3,0,0,1684,1024,1024,1024,100,0,0,0,194.8,0,0,59,3.895,3.89,0,0,0,0,5.284,93.56,16.415869619796,9.514436,6,P-GPS,
8700,2022-10-24 20:25:36,-34.928705659785,-56.1628111671407,9.514436,9.4160108,6.999858819796,16.415869619796,11.48294,0,0.94352365224,4.5555447652,17,5,7.765,16.415869619796,9.514436,1.11847,1.26032812432,0,0,0,184, -9.9, 0.1,0,0,1684,1024,1024,1024,100,0,0,0,194.8,0,0,59,3.895,3.89,0,0,0,0,5.284,93.56,16.415869619796,9.514436,6,P-GPS,
8800,2022-10-24 20:25:36,-34.9287056720631,-56.1628113150893,9.514436,9.4160108,6.999858819796,16.415869619796,11.48294,0.223694,0.91395016048,4.6000329556,17,5,7.765,16.415869619796,9.514436,1.11847,1.26032812432,-0.223694,0,0,184, -16.3, -0.1,0,0,1684,1024,1024,1024,100,0,0,0,194.8,0,0,59,3.895,3.89,0,0,0,0,5.284,93.56,16.415869619796,9.514436,6,P-GPS,
8900,2022-10-24 20:25:36,-34.928705905643,-56.1628114986757,9.84252,9.7440948,6.999858819796,16.743953619796,11.48294,0.894776,0.81264110212,4.7014109116,18,5,7.765,16.743953619796,9.84252,1.11847,1.26032812432,-0.894776,0,0,184.1, -18.4, 0,0,0,1684,1024,1024,1024,100,0,0,0,194.8,0,0,59,3.895,3.89,0,0,0,0,5.284,93.56,16.743953619796,9.84252,6,P-GPS,
9000,2022-10-24 20:25:36,-34.9287064504911,-56.1628117683269,9.84252,9.7440948,6.999858819796,16.743953619796,11.48294,1.5882274,0.60556760468,4.9159450392,18,5,7.765,16.743953619796,9.84252,1.5882274,1.26032812432,-1.565858,-0.223694,0,184.3, -18.1, -0.1,0,0,1684,1024,1024,1024,100,0,0,0,194.8,0,0,59,3.895,3.89,0,0,0,0,5.284,93.56,16.743953619796,9.84252,6,P-GPS,
9100,2022-10-24 20:25:36,-34.9287072983997,-56.1628120936688,9.84252,9.8097116,6.934242019796,16.743953619796,11.48294,2.23694,0.32909449872,5.2402560732,18,5,7.765,16.743953619796,9.84252,2.23694,1.26032812432,-2.23694,-0.223694,0,184.4, -17.8, 0.2,0,0,1684,1024,1024,1024,100,0,0,0,194.8,0,0,59,3.895,3.89,0,0,0,0,5.284,93.56,16.743953619796,9.84252,6,P-GPS,
9200,2022-10-24 20:25:37,-34.9287083171715,-56.1628123066249,9.514436,9.514436,6.901433619796,16.415869619796,11.154856,2.908022,0.31179626982,5.6173558228,18,5,7.765,16.743953619796,9.84252,2.908022,1.26032812432,-2.908022,-0.223694,0,184.3, -16.5, -1,0,0,1684,1024,1024,1024,100,0,0,0,194.8,0,0,59,3.895,3.89,0,0,0,0,5.284,93.56,16.415869619796,9.514436,6,P-GPS,
9300,2022-10-24 20:25:37,-34.9287095937381,-56.1628125033918,9.514436,9.5800528,6.835816819796,16.415869619796,11.154856,3.6014734,0.70099083608,6.0868112184,19,5,7.765,16.743953619796,9.84252,3.6014734,1.26032812432,-3.579104,-0.447388,0,184.3, -15.8, -0.6,0,0,1684,1024,1103,1024,100,0,12,0,194.8,0,0,59,3.895,3.89,0,0,0,0,5.284,93.56,16.415869619796,9.514436,6,P-GPS,
9400,2022-10-24 20:25:37,-34.9287115557396,-56.1628122424592,9.514436,9.6456696,6.770200019796,16.415869619796,11.154856,4.0488614,1.41798560968,6.8068899816,19,5,7.751,16.743953619796,9.84252,4.0488614,1.41798560968,-4.026492,-0.447388,0,184.2, -16.4, -1,0,0,1684,1024,1684,1024,100,0,100,0,194.8,0,0,59,3.877,3.869,0,0,0,0,4.351,93.56,16.415869619796,9.514436,6,P-GPS,
9500,2022-10-24 20:25:37,-34.9287134175522,-56.1628123297413,9.514436,9.678478,6.737391619796,16.415869619796,11.48294,4.4962494,2.08745413504,7.4866800296,19,5,7.751,16.743953619796,9.84252,4.4962494,2.08745413504,-4.47388,-0.447388,-0.447388,184.2, -16.9, -1.1,0,0,1684,1024,1684,1024,100,0,100,0,194.8,0,0,59,3.877,3.869,0,0,0,0,4.351,93.56,16.415869619796,9.514436,6,P-GPS,
9600,2022-10-24 20:25:37,-34.9287155347973,-56.162812253971,9.514436,9.7769032,6.638966419796,16.415869619796,11.48294,5.1897008,2.8586451046,8.2594818916,19,5,7.751,16.743953619796,9.84252,5.1897008,2.8586451046,-5.144962,-0.671082,-1.11847,184.2, -16.3, -2,0,0,1684,1024,1684,1024,100,0,100,0,194.8,0,0,59,3.877,3.869,0,0,0,0,4.351,93.56,16.415869619796,9.514436,6,P-GPS,
9700,2022-10-24 20:25:37,-34.9287180057388,-56.1628121539846,9.84252,10.170604,6.573349619796,16.743953619796,12.139108,5.6370888,3.7597442148,9.1615160412,19,5,7.751,16.743953619796,9.84252,5.6370888,3.7597442148,-5.59235,-0.671082,-1.789552,184.4, -15.5, -2.2,0,0,1684,1024,1684,1024,100,0,100,0,194.8,0,0,59,3.877,3.869,0,0,0,0,4.351,93.56,16.743953619796,9.84252,6,P-GPS,
9800,2022-10-24 20:25:37,-34.9287210762603,-56.1628108911207,10.170604,10.6299216,6.442116019796,17.072037619796,12.467192,6.2858014,4.9132875588,10.3437667352,19,5,7.751,17.072037619796,10.170604,6.2858014,4.9132875588,-6.263432,-0.447388,-2.684328,184.5, -15.2, -2.3,0,0,1684,1024,1684,1024,100,0,100,0,194.8,0,0,59,3.877,3.869,0,0,0,0,4.351,93.56,17.072037619796,10.170604,6,P-GPS,
9900,2022-10-24 20:25:37,-34.928723881917,-56.1628106482144,10.498688,11.0564308,6.343690819796,17.400121619796,13.12336,6.7331894,5.9378938908,11.3699806788,19,5,7.751,17.400121619796,10.498688,6.7331894,5.9378938908,-6.71082,-0.447388,-3.35541,184.6, -15.2, -2.3,0,0,1684,1024,1684,1024,100,0,100,0,194.8,0,0,59,3.877,3.869,0,0,0,0,4.351,93.56,17.400121619796,10.498688,6,P-GPS,
10000,2022-10-24 20:25:37,-34.9287266466469,-56.1628103052126,11.154856,11.811024,6.245265619796,18.056289619796,13.779528,7.1805774,6.9516406424,12.3838914724,19,5,7.751,18.056289619796,11.154856,7.1805774,6.9516406424,-7.158208,-0.447388,-4.250186,184.5, -16, -0.1,0,0,1684,1024,1684,1024,100,0,100,0,194.8,0,0,59,3.877,3.869,0,0,0,0,4.351,93.56,18.056289619796,11.154856,6,P-GPS,
10100,2022-10-24 20:25:37,-34.9287297210629,-56.1628099519908,11.811024,12.5656172,6.146840419796,18.712457619796,14.435696,7.6279654,8.0779858228,13.5105647368,19,5,7.751,18.712457619796,11.811024,7.6279654,8.0779858228,-7.605596,-0.447388,-5.144962,184.2, -15, -0.7,0,0,1684,1024,1684,1024,100,0,100,0,194.8,0,0,59,3.877,3.869,0,0,0,0,4.351,93.56,18.712457619796,11.811024,6,P-GPS,
10200,2022-10-24 20:25:38,-34.9287326634723,-56.1628081590068,12.795276,13.6811028,6.015606819796,19.696709619796,15.419948,8.0753534,9.215223392,14.7105975836,19,5,7.751,19.696709619796,12.795276,8.0753534,9.215223392,-8.052984,-0.447388,-5.59235,184.3, -14.2, -0.5,0,0,1684,1024,1684,1024,100,0,100,0,194.8,0,0,59,3.877,3.869,0,0,0,0,4.351,93.56,19.696709619796,12.795276,6,P-GPS,
10300,2022-10-24 20:25:38,-34.9287360224605,-56.1628075208778,13.451444,14.435696,5.917181619796,20.352877619796,16.4042,8.2990474,10.4555121456,15.9509191456,19,5,7.751,20.352877619796,13.451444,8.2990474,10.4555121456,-8.276678,-0.447388,-6.039738,184.4, -14.5, -0.2,0,0,1684,1024,1684,1024,100,0,100,0,194.8,0,0,59,3.877,3.869,0,0,0,0,4.351,93.56,20.352877619796,13.451444,6,P-GPS,
10400,2022-10-24 20:25:38,-34.9287392168227,-56.1628068255862,14.435696,15.5183732,5.818756419796,21.337129619796,17.388452,8.5227414,11.6392392176,17.1347774512,19,5,7.691,21.337129619796,14.435696,8.5227414,11.6392392176,-8.500372,-0.447388,-6.487126,184.6, -15.7, 0,0,0,1684,1024,1577,1024,100,0,84,0,194.8,0,0,59,3.841,3.837,0,0,0,0,5.114,93.56,21.337129619796,14.435696,6,P-GPS,
10500,2022-10-24 20:25:38,-34.9287426597442,-56.1628061086044,15.419948,16.6338588,5.687522819796,22.321381619796,18.04462,8.7464354,12.9135174736,18.409121324,19,5,7.691,22.321381619796,15.419948,8.7464354,12.9135174736,-8.500372,2.013246,-6.487126,166, -16.7, -0.2,0,0,1684,1024,1024,1024,100,0,0,0,194.8,0,0,59,3.841,3.837,0,0,0,0,5.114,93.56,22.321381619796,15.419948,6,P-GPS,
10600,2022-10-24 20:25:38,-34.9287460260473,-56.1628052722346,16.4042,17.7493444,5.556289219796,23.305633619796,19.028872,8.94776,14.1660437604,19.6625334376,19,5,7.691,23.305633619796,16.4042,8.94776,14.1660437604,-8.724066,2.013246,-6.039738,166, -17.2, -0.7,0,0,1684,1024,1024,1126,100,0,0,15,194.8,0,0,59,3.841,3.837,0,0,0,0,5.114,93.56,23.305633619796,16.4042,6,P-GPS,
10700,2022-10-24 20:25:38,-34.9287491407396,-56.1628020469714,17.060368,18.5039376,5.457864019796,23.961801619796,20.013124,9.0148682,15.464567424,21.1532159,19,5,7.691,23.961801619796,17.060368,9.0148682,15.464567424,-8.724066,2.23694,-5.368656,166, -18.6, -0.5,0,0,1684,1024,1024,1684,100,0,0,100,194.8,0,0,59,3.841,3.837,0,0,0,0,5.114,93.56,23.961801619796,17.060368,6,P-GPS,
10800,2022-10-24 20:25:38,-34.9287526290001,-56.1628009330886,17.716536,19.2913392,5.326630419796,24.617969619796,20.669292,9.2161928,16.7791015868,22.4687999316,19,5,7.691,24.617969619796,17.716536,9.2161928,16.7791015868,-8.94776,2.23694,-4.697574,166.2, -19.8, -0.4,0,0,1684,1024,1024,1684,100,0,0,100,196.2,0,0,59,3.841,3.837,0,0,0,0,5.114,93.56,24.617969619796,17.716536,6,P-GPS,
10900,2022-10-24 20:25:38,-34.9287563830586,-56.1627997538691,18.372704,20.0459324,5.228205219796,25.274137619796,20.997376,9.2161928,18.1927171176,23.8831700556,19,5,7.691,25.274137619796,18.372704,9.2161928,18.1927171176,-9.171454,2.23694,-3.802798,168.4, -19.9, -1.3,0,0,1684,1024,1024,1684,100,0,0,100,196.2,0,0,59,3.841,3.837,0,0,0,0,5.114,93.56,25.274137619796,18.372704,6,P-GPS,
11000,2022-10-24 20:25:38,-34.9287602240629,-56.1627988023797,18.700788,20.5380584,5.064163219796,25.602221619796,21.32546,9.6635808,19.6224415728,25.313156978,19,5,7.691,25.602221619796,18.700788,9.6635808,19.6224415728,-9.395148,2.23694,-2.908022,172.8, -20, -2.3,0,0,1684,1024,1024,1684,100,0,0,100,200.2,0,0,59,3.841,3.837,0,0,0,0,5.114,93.56,25.602221619796,18.700788,6,P-GPS,
11100,2022-10-24 20:25:38,-34.9287645766918,-56.1627975648677,19.028872,21.0301844,4.900121219796,25.930305619796,21.653544,9.6635808,21.2529862444,26.9438000748,19,5,7.691,25.930305619796,19.028872,9.6635808,21.2529862444,-9.395148,2.23694,-2.013246,177.5, -19.3, -2.8,0,0,1684,1024,1024,1684,100,0,0,100,209.7,0,0,59,3.841,3.837,0,0,0,0,5.114,93.56,25.930305619796,19.028872,6,P-GPS,
11200,2022-10-24 20:25:38,-34.9287684749001,-56.1627966705501,19.356956,21.4566936,4.801696019796,26.258389619796,21.981628,9.8649054,22.6994101752,28.3909785988,19,5,7.691,26.258389619796,19.356956,9.8649054,22.6994101752,-9.618842,2.23694,-1.11847,182.3, -19.3, -2.5,0,0,1684,1024,1024,1684,100,0,0,100,214.5,0,0,59,3.841,3.837,0,0,0,0,5.114,93.56,26.258389619796,19.356956,6,P-GPS,
11300,2022-10-24 20:25:39,-34.9287726146197,-56.1627957434427,19.68504,21.981628,4.604845619796,26.586473619796,21.981628,10.0885994,24.234088702,29.9266085692,19,5,7.691,26.586473619796,19.68504,10.0885994,24.234088702,-9.842536,2.23694,-0.671082,187.1, -18.8, -2.4,0,0,1684,1024,1082,1682,100,0,9,100,219.3,0,0,59,3.841,3.837,0,0,0,0,5.114,93.56,26.586473619796,19.68504,6,P-GPS,
11400,2022-10-24 20:25:39,-34.928776585359,-56.1627948615559,19.68504,22.1128616,4.473612019796,26.586473619796,22.309712,10.4912486,25.7057751008,31.3991479864,19,5,7.7,26.586473619796,19.68504,10.4912486,25.7057751008,-10.289924,2.013246,-0.223694,192, -19.2, -2.5,0,0,1684,1024,1586,1024,100,0,85,0,223.8,0,0,59,3.873,3.874,0,0,0,0,6.151,93.74,26.586473619796,19.68504,6,P-GPS,
11500,2022-10-24 20:25:39,-34.9287805178818,-56.162794128545,19.68504,22.2440952,4.342378419796,26.586473619796,22.309712,10.8938978,27.1545940448,32.850722836,19,5,7.7,26.586473619796,19.68504,10.8938978,27.1545940448,-10.737312,1.789552,-0.223694,196, -19.4, -1.9,0,0,1684,1024,1684,1024,100,0,100,0,226.3,0,0,59,3.873,3.874,0,0,0,0,6.151,93.74,26.586473619796,19.68504,6,P-GPS,
11600,2022-10-24 20:25:39,-34.9287848165115,-56.1627933939405,20.013124,22.7362212,4.178336419796,26.914557619796,22.309712,10.8938978,28.7345153552,34.434384304,19,5,7.7,26.914557619796,20.013124,10.8938978,28.7345153552,-11.1847,1.565858,-0.894776,198, -19.7, -1.2,0,0,1684,1024,1684,1024,100,0,100,0,227.1,0,0,59,3.873,3.874,0,0,0,0,6.151,93.74,26.914557619796,20.013124,6,P-GPS,
11700,2022-10-24 20:25:39,-34.9287895684739,-56.1627927720419,20.341208,23.2283472,4.014294419796,27.242641619796,22.637796,11.9228902,30.4701125236,36.17782268,19,5,7.7,27.242641619796,20.341208,11.9228902,30.4701125236,-11.855782,1.342164,-1.565858,198.4, -17.4, -0.8,0,0,1684,1024,1684,1024,100,0,100,0,227.2,0,0,59,3.873,3.874,0,0,0,0,6.151,93.74,27.242641619796,20.341208,6,P-GPS,
11800,2022-10-24 20:25:39,-34.928794399201,-56.1627922863129,20.669292,23.7204732,3.850252419796,27.570725619796,23.293964,12.3255394,32.2269039184,37.946523524,19,5,7.7,27.570725619796,20.669292,12.3255394,32.2269039184,-12.30317,0.894776,-2.23694,198.3, -14.6, -0.9,0,0,1684,1024,1684,1024,100,0,100,0,227.2,0,0,59,3.873,3.874,0,0,0,0,6.151,93.74,27.570725619796,20.669292,6,P-GPS,
11900,2022-10-24 20:25:39,-34.9287998364191,-56.1627918725924,21.32546,24.5734916,3.653402019796,28.226893619796,23.622048,12.5492334,34.198163824,39.934056396,19,5,7.7,28.226893619796,21.32546,12.5492334,34.198163824,-12.526864,0.671082,-3.131716,198.3, -13.4, -1.6,0,0,1684,1024,1684,1025,100,0,100,0,227.2,0,0,59,3.873,3.874,0,0,0,0,6.151,93.74,28.226893619796,21.32546,6,P-GPS,
12000,2022-10-24 20:25:39,-34.9288048497794,-56.1627916539154,21.981628,25.3937016,3.489360019796,28.883061619796,24.278216,12.750558,36.00885942,41.764437032,19,5,7.7,28.883061619796,21.981628,12.750558,36.00885942,-12.750558,0.447388,-3.802798,198.2, -13.2, -1.3,0,0,1684,1024,1684,1026,100,0,100,0,227.2,0,0,59,3.873,3.874,0,0,0,0,6.151,93.74,28.883061619796,21.981628,6,P-GPS,
12100,2022-10-24 20:25:39,-34.9288101728567,-56.1627915418888,22.637796,26.24672,3.292509619796,29.539229619796,24.934384,12.974252,37.927166568,43.706694312,19,5,7.7,29.539229619796,22.637796,12.974252,37.927166568,-12.974252,0,-4.697574,198.2, -12.9, -0.6,0,0,1684,1024,1684,1037,100,0,100,2,227.2,0,0,59,3.873,3.874,0,0,0,0,6.151,93.74,29.539229619796,22.637796,6,P-GPS,
12200,2022-10-24 20:25:40,-34.9288153845419,-56.1627916307494,23.293964,27.06693,3.128467619796,30.195397619796,25.590552,13.197946,39.79822962,45.608269176,19,5,7.7,30.195397619796,23.293964,13.197946,39.79822962,-13.197946,0,-5.59235,198.3, -12.6, -1.1,0,0,1684,1024,1684,1037,100,0,100,2,227.2,0,0,59,3.873,3.874,0,0,0,0,6.151,93.74,30.195397619796,23.293964,6,P-GPS,
12300,2022-10-24 20:25:40,-34.9288209540418,-56.1627918612132,24.278216,28.2808408,2.898808819796,31.179649619796,26.574804,13.197946,41.79462076,47.641733808,19,5,7.7,31.179649619796,24.278216,13.197946,41.79462076,-13.197946,-0.223694,-5.816044,198.2, -13.2, -1.5,0,0,1684,1024,1684,1043,100,0,100,3,227.2,0,0,59,3.873,3.874,0,0,0,0,6.151,93.74,31.179649619796,24.278216,6,P-GPS,
12400,2022-10-24 20:25:40,-34.9288262504712,-56.1627924199512,25.262468,29.4291348,2.734766819796,32.163901619796,27.559056,13.42164,43.681431844,49.581366416,19,5,7.676,32.163901619796,25.262468,13.42164,43.681431844,-13.42164,-0.223694,-6.263432,198.2, -12.9, -1.8,0,0,1684,1024,1684,1066,100,0,100,6,227.2,0,0,59,3.828,3.822,0,0,0,0,4.474,93.74,32.163901619796,25.262468,6,P-GPS,
12500,2022-10-24 20:25:40,-34.9288318127148,-56.1627928188834,26.24672,30.6430456,2.505108019796,33.148153619796,28.215224,13.645334,45.675526396,51.61417488,19,5,7.676,33.148153619796,26.24672,13.645334,45.675526396,-13.645334,-0.447388,-6.487126,198.3, -12, -1.4,0,0,1684,1024,1684,1065,100,0,100,6,227.2,0,0,59,3.828,3.822,0,0,0,0,4.474,93.74,33.148153619796,26.24672,6,P-GPS,
12600,2022-10-24 20:25:40,-34.9288374566933,-56.1627932104827,27.559056,32.1194236,2.341066019796,34.460489619796,29.199476,13.6677034,47.702429348,53.676510904,19,5,7.676,34.460489619796,27.559056,13.6677034,47.702429348,-13.645334,-0.671082,-6.487126,198.3, -12, -1.4,0,0,1684,1024,1684,1065,100,0,100,6,227.2,0,0,59,3.828,3.822,0,0,0,0,4.474,93.74,34.460489619796,27.559056,6,P-GPS,
12700,2022-10-24 20:25:40,-34.9288435058286,-56.1627936615567,28.543308,33.3661428,2.078598819796,35.444741619796,30.183728,13.8913974,49.877298184,55.887797064,19,5,7.676,35.444741619796,28.543308,13.8913974,49.877298184,-13.869028,-0.671082,-6.487126,198.5, -12.8, -0.9,0,0,1684,1024,1684,1066,100,0,100,6,227.3,0,0,59,3.828,3.822,0,0,0,0,4.474,93.74,35.444741619796,28.543308,6,P-GPS,
12800,2022-10-24 20:25:40,-34.928850073721,-56.1627939486321,29.52756,34.5472452,1.881748419796,36.428993619796,31.16798,13.8913974,52.248689336,58.28576302,19,5,7.676,36.428993619796,29.52756,13.8913974,52.248689336,-13.869028,-0.894776,-6.487126,198.4, -12.4, -0.3,0,0,1684,1024,1684,1066,100,0,100,6,227.3,0,0,59,3.828,3.822,0,0,0,0,4.474,93.74,36.428993619796,29.52756,6,P-GPS,
12900,2022-10-24 20:25:40,-34.928856140652,-56.1627945320252,30.839896,36.0564316,1.684898019796,37.741329619796,32.152232,13.9361362,54.431432188,60.505907448,19,5,7.676,37.741329619796,30.839896,13.9361362,54.431432188,-13.869028,-1.342164,-6.934514,198.9, -13.4, -1.6,0,0,1684,1024,1684,1066,100,0,100,6,227.3,0,0,59,3.828,3.822,0,0,0,0,4.474,93.74,37.741329619796,30.839896,6,P-GPS,
13000,2022-10-24 20:25:40,-34.928861638787,-56.1627953252526,31.824148,37.2703424,1.455239219796,38.725581619796,33.136484,13.7348116,56.404529364,62.525920636,19,5,7.676,38.725581619796,31.824148,13.9361362,56.404529364,-13.645334,-1.565858,-6.71082,198.9, -14.7, -3.9,0,0,1684,1024,1684,1065,100,0,100,6,227.4,0,0,59,3.828,3.822,0,0,0,0,4.474,93.74,38.725581619796,31.824148,6,P-GPS,
13100,2022-10-24 20:25:40,-34.9288673330909,-56.1627963115851,33.136484,38.7467204,1.291197219796,40.037917619796,34.120736,13.757181,58.447180348,64.6243459,19,5,7.676,40.037917619796,33.136484,13.9361362,58.447180348,-13.645334,-1.789552,-6.487126,198.8, -14.8, -4.4,0,0,1684,1024,1684,1065,100,0,100,6,227.4,0,0,59,3.828,3.822,0,0,0,0,4.474,93.74,40.037917619796,33.136484,6,P-GPS,
13200,2022-10-24 20:25:41,-34.9288721985819,-56.1627975003722,34.120736,39.9278228,1.094346819796,41.022169619796,35.104988,14.0032444,60.187337884,66.434713412,19,5,7.676,41.022169619796,34.120736,14.0032444,60.187337884,-13.869028,-2.013246,-6.487126,199, -14.9, -4.6,0,0,1684,1024,1684,1065,100,0,100,6,227.5,0,0,59,3.828,3.822,0,0,0,0,4.474,93.74,41.022169619796,34.120736,6,P-GPS,
13300,2022-10-24 20:25:41,-34.9288780449043,-56.162798666837,35.104988,41.1089252,0.897496419796,42.006421619796,36.08924,14.0479832,62.289043988,68.596130804,19,5,7.676,42.006421619796,35.104988,14.0479832,62.289043988,-13.869028,-2.23694,-6.487126,199.1, -14.5, -5.8,0,0,1684,1024,1684,1064,100,0,100,6,227.5,0,0,59,3.828,3.822,0,0,0,0,4.474,93.74,42.006421619796,35.104988,6,P-GPS,
13400,2022-10-24 20:25:41,-34.928883522573,-56.1627999555452,36.417324,42.65092,0.667837619796,43.318757619796,37.073492,14.2716772,64.258204156,70.63156394,19,5,7.637,43.318757619796,36.417324,14.2716772,64.258204156,-14.092722,-2.23694,-6.71082,199.2, -13.8, -5.8,0,0,1684,1024,1684,1066,100,0,100,6,227.6,0,0,59,3.827,3.817,0,0,0,0,7.578,93.74,43.318757619796,36.417324,6,P-GPS,
13500,2022-10-24 20:25:41,-34.9288892745238,-56.162801414425,37.401576,43.799214,0.503795619796,44.303009619796,38.057744,14.316416,66.32874228,72.774936712,19,5,7.637,44.303009619796,37.401576,14.316416,66.32874228,-14.092722,-2.460634,-6.71082,199.5, -15, -6.1,0,0,1684,1024,1684,1066,100,0,100,6,227.6,0,0,59,3.827,3.817,0,0,0,0,7.578,93.74,44.303009619796,37.401576,6,P-GPS,
13600,2022-10-24 20:25:41,-34.9288937554285,-56.1628031266851,38.385828,44.783466,0.503795619796,45.287261619796,39.041996,14.316416,67.937010048,74.48819136,19,5,7.637,45.287261619796,38.385828,14.316416,67.937010048,-14.092722,-2.460634,-6.71082,199.5, -14.9, -6.4,0,0,1684,1024,1684,1067,100,0,100,7,227.6,0,0,59,3.827,3.817,0,0,0,0,7.578,93.74,45.287261619796,38.385828,6,P-GPS,
13700,2022-10-24 20:25:41,-34.9288993889588,-56.1628046361524,39.698164,46.095802,0.503795619796,46.599597619796,40.026248,14.5624794,69.972771268,76.592522136,19,5,7.637,46.599597619796,39.698164,14.5624794,69.972771268,-14.316416,-2.684328,-6.487126,199.6, -15.3, -6.1,0,0,1684,1024,1684,1067,100,0,100,7,227.7,0,0,59,3.827,3.817,0,0,0,0,7.578,93.74,46.599597619796,39.698164,6,P-GPS,
13800,2022-10-24 20:25:41,-34.9289049297721,-56.1628061421126,40.682416,47.1128624,0.470987219796,47.583849619796,41.0105,14.5624794,71.978676844,78.663716428,19,5,7.637,47.583849619796,40.682416,14.5624794,71.978676844,-14.316416,-2.684328,-6.487126,199.6, -15.4, -5.9,0,0,1684,1024,1684,1067,100,0,100,7,227.7,0,0,59,3.827,3.817,0,0,0,0,7.578,93.74,47.583849619796,40.682416,6,P-GPS,
13900,2022-10-24 20:25:41,-34.928910858155,-56.1628078013172,41.666668,48.0971144,0.470987219796,48.568101619796,41.666668,14.6072182,74.128611296,80.882876604,19,5,7.637,48.568101619796,41.666668,14.6072182,74.128611296,-14.316416,-2.908022,-6.71082,199.7, -15.2, -6.2,0,0,1684,1024,1684,1067,100,0,100,7,227.7,0,0,59,3.827,3.817,0,0,0,0,7.578,93.74,48.568101619796,41.666668,6,P-GPS,
14000,2022-10-24 20:25:41,-34.928916549176,-56.1628094265337,42.65092,49.0813664,0.470987219796,49.552353619796,41.666668,14.875651,76.196196664,83.015422604,19,5,7.637,49.552353619796,42.65092,14.875651,76.196196664,-14.54011,-3.131716,-6.487126,199.7, -16.2, -7.4,0,0,1684,1024,1684,1067,100,0,100,7,227.8,0,0,59,3.827,3.817,0,0,0,0,7.578,93.74,49.552353619796,42.65092,6,P-GPS,
14100,2022-10-24 20:25:41,-34.9289226078866,-56.1628112058356,43.963256,50.3937024,0.470987219796,50.864689619796,41.666668,15.099345,78.400921144,85.289044724,19,5,7.637,50.864689619796,43.963256,15.099345,78.400921144,-14.763804,-3.131716,-6.263432,199.4, -15.3, -6.5,0,0,1684,1024,1684,1067,100,0,100,7,227.9,0,0,59,3.827,3.817,0,0,0,0,7.578,93.74,50.864689619796,43.963256,6,P-GPS,
14200,2022-10-24 20:25:42,-34.9289283028418,-56.1628128741017,44.619424,51.0826788,0.438178819796,51.520857619796,41.666668,15.3006696,80.476708612,87.4261839,19,5,7.637,51.520857619796,44.619424,15.3006696,80.476708612,-14.987498,-3.131716,-6.487126,199.5, -13.8, -5.9,0,0,1684,1024,1684,1067,100,0,100,7,227.9,0,0,59,3.827,3.817,0,0,0,0,7.578,93.74,51.520857619796,44.619424,6,P-GPS,
14300,2022-10-24 20:25:42,-34.9289343007528,-56.1628146558809,45.603676,52.0669308,0.438178819796,52.505109619796,41.666668,15.3677778,82.666341228,89.67848056,19,5,7.659,52.505109619796,45.603676,15.3677778,82.666341228,-14.987498,-3.35541,-6.71082,199.8, -13.9, -5.4,0,0,1684,1024,1684,1067,100,0,100,7,228,0,0,59,3.823,3.818,0,0,0,0,6.629,93.92,52.505109619796,45.603676,6,P-GPS,
14400,2022-10-24 20:25:42,-34.9289401166689,-56.1628164630259,46.587928,53.0839912,0.405370419796,53.489361619796,41.666668,15.3677778,84.792981716,91.868113176,19,5,7.659,53.489361619796,46.587928,15.3677778,84.792981716,-14.987498,-3.35541,-6.71082,199.7, -13.9, -5.5,0,0,1684,1024,1684,1067,100,0,100,7,228,0,0,59,3.823,3.818,0,0,0,0,6.629,93.92,53.489361619796,46.587928,6,P-GPS,
14500,2022-10-24 20:25:42,-34.9289461283891,-56.1628185402041,47.57218,54.0682432,0.405370419796,54.473613619796,41.666668,15.3677778,86.995737692,94.147640808,19,5,7.659,54.473613619796,47.57218,15.3677778,86.995737692,-15.211192,-3.579104,-6.71082,199.8, -14, -5.1,0,0,1684,1024,1684,1067,100,0,100,7,228.1,0,0,59,3.823,3.818,0,0,0,0,6.629,93.92,54.473613619796,47.57218,6,P-GPS,
14600,2022-10-24 20:25:42,-34.9289520197607,-56.1628203935141,48.556432,55.0524952,0.405370419796,55.457865619796,41.666668,15.6362106,89.156827,96.367457152,19,5,7.659,55.457865619796,48.556432,15.6362106,89.156827,-15.211192,-3.579104,-6.71082,199.6, -14.3, -4.5,0,0,1684,1024,1684,1067,100,0,100,7,228.1,0,0,59,3.823,3.818,0,0,0,0,6.629,93.92,55.457865619796,48.556432,6,P-GPS,
14700,2022-10-24 20:25:42,-34.9289582455757,-56.1628223534911,49.540684,56.0695556,0.372562019796,56.442117619796,41.666668,15.6362106,91.44357248,98.713585836,19,5,7.659,56.442117619796,49.540684,15.6362106,91.44357248,-15.211192,-3.579104,-6.487126,199.7, -14.4, -4.1,0,0,1684,1024,1684,1067,100,0,100,7,228.2,0,0,59,3.823,3.818,0,0,0,0,6.629,93.92,56.442117619796,49.540684,6,P-GPS,
14800,2022-10-24 20:25:42,-34.9289642646174,-56.1628241970949,50.196852,56.7257236,0.372562019796,57.098285619796,41.666668,15.9046434,93.65649906,100.97769352,19,5,7.659,57.098285619796,50.196852,15.9046434,93.65649906,-15.434886,-3.802798,-6.487126,199.6, -14.8, -4,0,0,1684,1024,1684,1067,100,0,100,7,228.2,0,0,59,3.823,3.818,0,0,0,0,6.629,93.92,57.098285619796,50.196852,6,P-GPS,
14900,2022-10-24 20:25:42,-34.928970698795,-56.1628260632852,51.181104,57.742784,0.339753619796,58.082537619796,41.666668,15.9046434,96.02362512,103.39075134,19,5,7.659,58.082537619796,51.181104,15.9046434,96.02362512,-15.434886,-3.802798,-6.487126,199.8, -13.3, -4.1,0,0,1684,1024,1684,1067,100,0,100,7,228.2,0,0,59,3.823,3.818,0,0,0,0,6.629,93.92,58.082537619796,51.181104,6,P-GPS,
15000,2022-10-24 20:25:42,-34.9289766898796,-56.1628280170279,52.165356,58.7598444,0.306945219796,59.066789619796,41.666668,15.9493822,98.232614692,105.653218604,19,5,7.659,59.066789619796,52.165356,15.9493822,98.232614692,-15.434886,-4.026492,-6.487126,199.8, -12.6, -4.9,0,0,1684,1024,1684,1067,100,0,100,7,228.2,0,0,59,3.823,3.818,0,0,0,0,6.629,93.92,59.066789619796,52.165356,6,P-GPS,
15100,2022-10-24 20:25:42,-34.9289829646,-56.1628301289242,53.149608,59.7440964,0.306945219796,60.051041619796,41.666668,15.9493822,100.549871984,108.02821868,19,5,7.659,60.051041619796,53.149608,15.9493822,100.549871984,-15.434886,-4.026492,-6.71082,200, -13, -5.6,0,0,1684,1024,1684,1067,100,0,100,7,228.3,0,0,59,3.823,3.818,0,0,0,0,6.629,93.92,60.051041619796,53.149608,6,P-GPS,
15200,2022-10-24 20:25:42,-34.9289889642306,-56.1628321493829,54.13386,60.7611568,0.274136819796,61.035293619796,41.666668,16.0164904,102.767719824,110.299216128,19,5,7.659,61.035293619796,54.13386,16.0164904,102.767719824,-15.434886,-4.250186,-6.71082,200.1, -14.1, -5.6,0,0,1684,1024,1684,1067,100,0,100,7,228.4,0,0,59,3.823,3.818,0,0,0,0,6.629,93.92,61.035293619796,54.13386,6,P-GPS,
15300,2022-10-24 20:25:43,-34.9289951172997,-56.1628341693139,55.118112,61.7782172,0.241328419796,62.019545619796,41.666668,16.217815,105.043966616,112.624019352,19,5,7.634,62.019545619796,55.118112,16.217815,105.043966616,-15.65858,-4.250186,-6.71082,200, -13.7, -6.1,0,0,1684,1024,1684,1067,100,0,100,7,228.4,0,0,58,3.823,3.819,0,0,0,0,7.076,93.92,62.019545619796,55.118112,6,P-GPS,
15400,2022-10-24 20:25:43,-34.9290010363159,-56.1628362810025,56.102364,62.7624692,0.241328419796,63.003797619796,41.666668,16.2849232,107.238520492,114.874019424,19,5,7.634,63.003797619796,56.102364,16.2849232,107.238520492,-15.65858,-4.47388,-6.487126,200.2, -13, -6.4,0,0,1684,1024,1684,1067,100,0,100,7,228.5,0,0,58,3.823,3.819,0,0,0,0,7.076,93.92,63.003797619796,56.102364,6,P-GPS,
15500,2022-10-24 20:25:43,-34.9290072606978,-56.1628385472475,57.086616,63.7795296,0.208520019796,63.988049619796,41.666668,16.2849232,109.550200356,117.243770156,19,5,7.634,63.988049619796,57.086616,16.2849232,109.550200356,-15.65858,-4.47388,-6.487126,200.1, -12.8, -6.3,0,0,1684,1024,1684,1067,100,0,100,7,228.5,0,0,58,3.823,3.819,0,0,0,0,7.076,93.92,63.988049619796,57.086616,6,P-GPS,
15600,2022-10-24 20:25:43,-34.9290134068102,-56.1628408243115,58.070868,64.79659,0.175711619796,64.972301619796,41.666668,16.553356,111.8356335,119.587602252,19,5,7.634,64.972301619796,58.070868,16.553356,111.8356335,-15.882274,-4.697574,-6.487126,199.9, -12.4, -6.5,0,0,1684,1024,1684,1067,100,0,100,7,228.6,0,0,58,3.823,3.819,0,0,0,0,7.076,93.92,64.972301619796,58.070868,6,P-GPS,
15700,2022-10-24 20:25:43,-34.9290199953123,-56.1628432827395,59.383204,66.1417344,0.142903219796,66.284637619796,41.666668,16.77705,114.288717568,122.10138186,19,5,7.634,66.284637619796,59.383204,16.77705,114.288717568,-16.105968,-4.697574,-6.487126,199.9, -10.8, -6.5,0,0,1684,1024,1684,1067,100,0,100,7,228.6,0,0,58,3.823,3.819,0,0,0,0,7.076,93.92,66.284637619796,59.383204,6,P-GPS,
15800,2022-10-24 20:25:43,-34.9290261213101,-56.1628456668026,60.367456,67.1587948,0.110094819796,67.268889619796,41.666668,17.000744,116.574478796,124.44718246,19,5,7.634,67.268889619796,60.367456,17.000744,116.574478796,-16.329662,-4.697574,-6.487126,199.9, -10.1, -6.6,0,0,1684,1024,1684,1067,100,0,100,7,228.7,0,0,58,3.823,3.819,0,0,0,0,7.076,93.92,67.268889619796,60.367456,6,P-GPS,
15900,2022-10-24 20:25:43,-34.9290325552012,-56.1628481998331,61.351708,68.1758552,0.077286419796,68.253141619796,41.666668,17.000744,118.978350264,126.914046056,19,5,7.634,68.253141619796,61.351708,17.000744,118.978350264,-16.329662,-4.697574,-6.487126,199.8, -8.4, -6.6,0,0,1684,1024,1684,1067,100,0,100,7,228.7,0,0,58,3.823,3.819,0,0,0,0,7.076,93.92,68.253141619796,61.351708,6,P-GPS,
16000,2022-10-24 20:25:43,-34.929038698213,-56.1628505161903,62.664044,69.5209996,0.044478019796,69.565477619796,41.666668,17.2691768,121.27296976,129.259846656,19,5,7.634,69.565477619796,62.664044,17.2691768,121.27296976,-16.553356,-4.921268,-6.71082,200.3, -8.3, -5.5,0,0,1684,1024,1684,1067,100,0,100,7,228.8,0,0,58,3.823,3.819,0,0,0,0,7.076,93.92,69.565477619796,62.664044,6,P-GPS,
16100,2022-10-24 20:25:43,-34.9290451711867,-56.1628529560943,63.648296,70.53806,0.011669619796,70.549729619796,41.666668,17.2691768,123.692917344,131.731631512,19,5,7.634,70.549729619796,63.648296,17.2691768,123.692917344,-16.553356,-4.921268,-6.71082,200, -8, -5.9,0,0,1684,1024,1684,1067,100,0,100,7,228.8,0,0,58,3.823,3.819,0,0,0,0,7.076,93.92,70.549729619796,63.648296,6,P-GPS,
16200,2022-10-24 20:25:44,-34.9290508906208,-56.1628549839315,64.632548,71.5551204,-0.021138780204,71.533981619796,41.666668,17.336285,125.829400352,133.904859928,19,5,7.634,71.533981619796,64.632548,17.336285,125.829400352,-16.553356,-5.144962,-6.71082,200.1, -8.2, -6.7,0,0,1684,1024,1684,1066,100,0,100,6,228.8,0,0,58,3.823,3.819,0,0,0,0,7.076,93.92,71.533981619796,64.632548,6,P-GPS,
16300,2022-10-24 20:25:44,-34.9290573527816,-56.162857457396,65.6168,72.5721808,-0.053947180204,72.518233619796,41.666668,17.112591,128.250004104,136.375988616,19,5,7.635,72.518233619796,65.6168,17.336285,128.250004104,-16.329662,-5.144962,-6.934514,200.1, -7.1, -6.8,0,0,1684,1024,1684,1066,100,0,100,6,228.9,0,0,58,3.803,3.801,0,0,0,0,6.882,93.92,72.518233619796,65.6168,6,P-GPS,
16400,2022-10-24 20:25:44,-34.9290636699458,-56.1628598834887,66.601052,73.6220496,-0.119563980204,73.502485619796,41.666668,17.0454828,130.6184425,138.792327276,19,5,7.635,73.502485619796,66.601052,17.336285,130.6184425,-16.329662,-4.921268,-7.158208,200.5, -8.8, -6.4,0,0,1684,1024,1684,1066,100,0,100,6,228.9,0,0,58,3.803,3.801,0,0,0,0,6.882,93.92,73.502485619796,66.601052,6,P-GPS,
16500,2022-10-24 20:25:44,-34.9290703372905,-56.1628624512944,67.25722,74.311026,-0.152372380204,74.158653619796,41.666668,16.8441582,133.120411084,141.343180376,19,5,7.635,74.158653619796,67.25722,17.336285,133.120411084,-16.105968,-4.921268,-6.934514,200.8, -9.9, -5.3,0,0,1684,1024,1684,1066,100,0,100,6,229,0,0,58,3.803,3.801,0,0,0,0,6.882,93.92,74.158653619796,67.25722,6,P-GPS,
16600,2022-10-24 20:25:44,-34.9290770573708,-56.1628651647707,68.241472,75.3280864,-0.185180780204,75.142905619796,41.666668,16.9112664,135.64797022,143.925857624,19,5,7.635,75.142905619796,68.241472,17.336285,135.64797022,-16.105968,-5.144962,-6.934514,200.8, -11.2, -6.2,0,0,1684,1024,1684,1066,100,0,100,6,229,0,0,58,3.803,3.801,0,0,0,0,6.882,93.92,75.142905619796,68.241472,6,P-GPS,
16700,2022-10-24 20:25:44,-34.9290836641114,-56.1628678117688,68.89764,76.0498712,-0.250797580204,75.799073619796,41.666668,16.6875724,138.134518856,146.46325928,19,5,7.635,75.799073619796,68.89764,17.336285,138.134518856,-15.882274,-5.144962,-6.71082,200.9, -12.1, -6.9,0,0,1684,1024,1684,1066,100,0,100,6,229.1,0,0,58,3.803,3.801,0,0,0,0,6.882,93.92,75.799073619796,68.89764,6,P-GPS,
16800,2022-10-24 20:25:44,-34.9290898664768,-56.1628702938879,69.881892,77.0669316,-0.283605980204,76.783325619796,41.666668,16.6875724,140.470148852,148.844821036,19,5,7.635,76.783325619796,69.881892,17.336285,140.470148852,-15.882274,-5.144962,-6.487126,201, -12.6, -6.9,0,0,1684,1024,1684,1066,100,0,100,6,229.1,0,0,58,3.803,3.801,0,0,0,0,6.882,93.92,76.783325619796,69.881892,6,P-GPS,
16900,2022-10-24 20:25:44,-34.9290963562039,-56.1628729049823,70.53806,77.7887164,-0.349222780204,77.439493619796,41.666668,16.6875724,142.916343156,151.337931352,19,5,7.635,77.439493619796,70.53806,17.336285,142.916343156,-15.882274,-5.144962,-6.487126,201.1, -12.8, -7.2,0,0,1684,1024,1684,1066,100,0,100,6,229.1,0,0,58,3.803,3.801,0,0,0,0,6.882,93.92,77.439493619796,70.53806,6,P-GPS,
17000,2022-10-24 20:25:44,-34.929102369748,-56.1628752256027,71.194228,78.4776928,-0.382031180204,78.095661619796,41.666668,16.6875724,145.180778924,153.639112528,19,5,7.635,78.095661619796,71.194228,17.336285,145.180778924,-15.882274,-5.144962,-6.487126,201.2, -12.9, -7.1,0,0,1684,1024,1684,1066,100,0,100,6,229.2,0,0,58,3.803,3.801,0,0,0,0,6.882,93.92,78.095661619796,71.194228,6,P-GPS,
17100,2022-10-24 20:25:44,-34.9291088681254,-56.162877855558,72.17848,79.5275616,-0.447647980204,79.079913619796,41.666668,16.6875724,147.633534908,156.137144104,19,5,7.635,79.079913619796,72.17848,17.336285,147.633534908,-15.882274,-5.144962,-6.487126,201.1, -12.9, -7.4,0,0,1684,1024,1684,1067,100,0,100,7,229.2,0,0,58,3.803,3.801,0,0,0,0,6.882,93.92,79.079913619796,72.17848,6,P-GPS,
17200,2022-10-24 20:25:45,-34.9291149545977,-56.1628803452215,72.834648,80.216538,-0.480456380204,79.736081619796,41.666668,16.9783746,149.933403748,158.479663864,19,5,7.635,79.736081619796,72.834648,17.336285,149.933403748,-16.105968,-5.368656,-6.487126,201.3, -13.4, -6.8,0,0,1684,1024,1684,1067,100,0,100,7,229.3,0,0,58,3.803,3.801,0,0,0,0,6.882,93.92,79.736081619796,72.834648,6,P-GPS,
