time(millisecond),datetime(utc),latitude,longitude,height_above_takeoff(feet),height_above_ground_at_drone_location(feet),ground_elevation_at_drone_location(feet),altitude_above_seaLevel(feet),height_sonar(feet),speed(mph),distance(feet),mileage(feet),satellites,gpslevel,voltage(v),max_altitude(feet),max_ascent(feet),max_speed(mph),max_distance(feet), xSpeed(mph), ySpeed(mph), zSpeed(mph), compass_heading(degrees), pitch(degrees), roll(degrees),isPhoto,isVideo,rc_elevator,rc_aileron,rc_throttle,rc_rudder,rc_elevator(percent),rc_aileron(percent),rc_throttle(percent),rc_rudder(percent),gimbal_heading(degrees),gimbal_pitch(degrees),gimbal_roll(degrees),battery_percent,voltageCell1,voltageCell2,voltageCell3,voltageCell4,voltageCell5,voltageCell6,current(A),battery_temperature(f),altitude(feet),ascent(feet),flycStateRaw,flycState,message
142700,,-34.9057663210175,-56.1282948766509,126.640424,126.640424,15.55801558972,146.43072318972,41.338584,0,0,0,23,5,0,146.43072318972,126.640424,0,0,0,0,0,46.7, 4.6, -1.9,0,0,1024,1024,1024,1024,0,0,0,0,59.4,-14.6,0,83,4.111,4.1,0,0,0,0,0,102.74,146.43072318972,126.640424,6,P-GPS,
142800,2023-11-19 21:37:36,-34.9057664036643,-56.1282948676252,126.968508,126.968508,15.55801558972,146.75880718972,41.338584,0,0.0302743119924,0.0302743119924,23,5,0,146.75880718972,126.968508,0,0.0302743119924,0,0,0,46.5, 4.9, -2.8,0,0,1024,1024,1024,1024,0,0,0,0,59.4,-14.6,0,83,4.111,4.1,0,0,0,0,0,102.74,146.75880718972,126.968508,6,P-GPS,
142900,2023-11-19 21:37:36,-34.9057666460028,-56.1282949150935,126.968508,127.0013164,15.52520718972,146.75880718972,41.338584,0,0.1191273004,0.119824806984,23,5,0,146.75880718972,126.968508,0,0.1191273004,0,0,0,46.4, 4.7, -3.1,0,0,1024,1024,1024,1024,0,0,0,0,59.4,-14.6,0,83,4.111,4.1,0,0,0,0,0,102.74,146.75880718972,126.968508,6,P-GPS,
143000,2023-11-19 21:37:36,-34.9057667571799,-56.1282949057336,126.968508,127.0013164,15.52520718972,146.75880718972,41.338584,0,0.159371396176,0.160484257104,23,5,0,146.75880718972,126.968508,0,0.159371396176,0,0,0,46.5, 4.3, -3.1,0,0,1024,1024,1024,1024,0,0,0,0,59.4,-14.6,0,83,4.111,4.1,0,0,0,0,0,102.74,146.75880718972,126.968508,6,P-GPS,
143100,2023-11-19 21:37:36,-34.9057668532712,-56.1282948806623,126.968508,127.0013164,15.52520718972,146.75880718972,41.338584,0,0.19419620044,0.196336620456,23,5,0,146.75880718972,126.968508,0,0.19419620044,0,0,0,46.6, 4.1, -2.9,0,0,1024,1024,1024,1024,0,0,0,0,59.4,-14.6,0,83,4.111,4.1,0,0,0,0,0,102.74,146.75880718972,126.968508,6,P-GPS,
143200,2023-11-19 21:37:36,-34.9057669356313,-56.1282948405483,126.968508,127.0013164,15.52520718972,146.75880718972,41.338584,0,0.224501647604,0.22869423304,23,5,0,146.75880718972,126.968508,0,0.224501647604,0,0,0,46.5, 3.6, -3.4,0,0,1024,1024,1024,1024,0,0,0,0,59.4,-14.6,0,83,4.111,4.1,0,0,0,0,0,102.74,146.75880718972,126.968508,6,P-GPS,
143300,2023-11-19 21:37:37,-34.9057669850579,-56.1282947312375,126.968508,127.0013164,15.52520718972,146.75880718972,41.338584,0,0.246150598428,0.2660433156,23,5,0,146.75880718972,126.968508,0,0.246150598428,0,0,0,46.4, 4.3, -3,0,0,1024,1024,1024,1024,0,0,0,0,59.4,-14.6,0,83,4.111,4.1,0,0,0,0,0,102.74,146.75880718972,126.968508,6,P-GPS,
143400,2023-11-19 21:37:37,-34.9057670298205,-56.1282944741734,126.968508,127.0013164,15.52520718972,146.75880718972,41.338584,0,0.285271006504,0.34467520788,23,5,0,146.75880718972,126.968508,0,0.285271006504,0,0,0,46.3, 4.9, -3.6,0,0,1024,1024,1024,1024,0,0,0,0,59.4,-14.6,0,83,4.111,4.1,0,0,0,0,0,102.74,146.75880718972,126.968508,6,P-GPS,
143500,2023-11-19 21:37:37,-34.9057670917014,-56.1282943982911,127.296592,127.3294004,15.52520718972,147.08689118972,41.338584,0,0.315516414296,0.37669292544,23,5,0,147.08689118972,127.296592,0,0.315516414296,0,0,0,46.4, 4.4, -3.4,0,0,1024,1024,1024,1024,0,0,0,0,59.4,-14.6,0,83,4.111,4.1,0,0,0,0,0,102.74,147.08689118972,127.296592,6,P-GPS,
143600,2023-11-19 21:37:37,-34.9057671363078,-56.1282943448057,127.296592,127.3294004,15.52520718972,147.08689118972,41.338584,0,0.33734909216,0.39951772932,23,5,8.212,147.08689118972,127.296592,0,0.33734909216,0,0,0,46.4, 4.4, -3.1,0,0,1024,1024,1024,1024,0,0,0,0,59.4,-14.6,0,83,4.111,4.1,0,0,0,0,3.636,102.74,147.08689118972,127.296592,6,P-GPS,"N/A. Setting new Return-To-Home altitude to 100m (328 ft). Data Recorder File Index is 24. Setting new Maximum Flight Altitude to 120m (394 ft)"
143700,2023-11-19 21:37:37,-34.9057671550674,-56.1282943431343,127.296592,127.3294004,15.52520718972,147.08689118972,41.338584,0,1315.11815232,0.4063812466,23,5,8.212,147.08689118972,127.296592,0,1315.11815232,0,0,0,46.3, 4.2, -2.9,0,0,1024,1024,1024,1024,0,0,0,0,59.4,-14.6,0,83,4.111,4.1,0,0,0,0,3.636,102.74,147.08689118972,127.296592,6,P-GPS,
143800,2023-11-19 21:37:37,-34.9057671549893,-56.1282943795712,127.624676,127.6574844,15.52520718972,147.41497518972,41.338584,0,1315.1083098,0.41728347792,23,5,8.212,147.41497518972,127.624676,0,1315.11815232,0,0,0,46.1, 3.6, -3.6,0,0,1024,1024,1024,1024,0,0,0,0,59.4,-14.6,0,83,4.111,4.1,0,0,0,0,3.636,102.74,147.41497518972,127.624676,6,P-GPS,
143900,2023-11-19 21:37:37,-34.9057671910495,-56.1282943618542,127.624676,127.6574844,15.52520718972,147.41497518972,41.338584,0,1315.11159064,0.43146654924,23,5,8.212,147.41497518972,127.624676,0,1315.11815232,0,0,0,46.3, 3, -3.7,0,0,1024,1024,1024,1024,0,0,0,0,59.4,-14.6,0,83,4.111,4.1,0,0,0,0,3.636,102.74,147.41497518972,127.624676,6,P-GPS,"Error de calibración del estabilizador"
144000,2023-11-19 21:37:37,-34.9057672213256,-56.1282943444714,127.624676,127.6574844,15.52520718972,147.41497518972,41.338584,0,1315.11487148,0.44367783572,23,5,8.212,147.41497518972,127.624676,0,1315.11815232,0,0,0,46.2, 3.1, -3.6,0,0,1024,1024,1024,1024,0,0,0,0,59.4,-14.6,0,83,4.111,4.1,0,0,0,0,3.636,102.74,147.41497518972,127.624676,6,P-GPS,
144100,2023-11-19 21:37:37,-34.9057672584541,-56.1282943240801,127.95276,127.9855684,15.52520718972,147.74305918972,41.338584,0,1315.12143316,0.45853347924,23,5,8.212,147.74305918972,127.95276,0,1315.12143316,0,0,0,46.1, 3.6, -3.7,0,0,1024,1024,1024,1024,0,0,0,0,59.4,-14.6,0,83,4.111,4.1,0,0,0,0,3.636,102.74,147.74305918972,127.95276,6,P-GPS,
144200,2023-11-19 21:37:38,-34.9057672833628,-56.1282943411286,127.95276,127.9855684,15.52520718972,147.74305918972,41.338584,0,1315.11487148,0.46895670792,23,5,8.212,147.74305918972,127.95276,0,1315.12143316,0,0,0,46.2, 2.8, -3.6,0,0,1024,1024,1024,1024,0,0,0,0,59.4,-14.6,0,83,4.111,4.1,0,0,0,0,3.636,102.74,147.74305918972,127.95276,6,P-GPS,
144300,2023-11-19 21:37:38,-34.9057673362286,-56.1282943775655,127.95276,127.9855684,15.52520718972,147.74305918972,41.338584,0,1315.10174812,0.49111222044,23,5,8.212,147.74305918972,127.95276,0,1315.12143316,0,0,0,46.3, 1.6, -3.5,0,0,1024,1024,1024,1024,0,0,0,0,59.4,-14.6,0,83,4.111,4.1,0,0,0,0,3.636,102.74,147.74305918972,127.95276,6,P-GPS,
144400,2023-11-19 21:37:38,-34.9057673979271,-56.1282944086539,127.95276,127.9855684,15.52520718972,147.74305918972,41.338584,0,1315.0919056,0.5154691766,23,5,8.212,147.74305918972,127.95276,0,1315.12143316,0,0,0,46.4, 1.9, -3.7,0,0,1024,1024,1024,1024,0,0,0,0,59.4,-14.6,0,83,4.111,4.1,0,0,0,0,3.636,102.74,147.74305918972,127.95276,6,P-GPS,
144500,2023-11-19 21:37:38,-34.905767492481,-56.1282944183481,127.624676,127.6574844,15.52520718972,147.41497518972,41.338584,0,1315.08534392,0.55008860028,23,5,8.212,147.74305918972,127.95276,0,1315.12143316,0,0,0,46.4, 1.9, -4.3,0,0,1024,1024,1024,1024,0,0,0,0,59.4,-14.6,0,83,4.111,4.1,0,0,0,0,3.636,102.74,147.41497518972,127.624676,6,P-GPS,
144600,2023-11-19 21:37:38,-34.905767578541,-56.1282944427508,127.624676,127.6902928,15.49239878972,147.41497518972,41.338584,0,1315.0755014,0.58232613412,23,5,8.212,147.74305918972,127.95276,0,1315.12143316,0,0,0.223694,46.3, 1.2, -2.8,0,0,1024,1024,1024,1024,0,0,0,0,59.4,-14.6,0,83,4.111,4.1,0,0,0,0,3.636,102.74,147.41497518972,127.624676,6,P-GPS,
144700,2023-11-19 21:37:38,-34.9057676812503,-56.1282944831991,127.624676,127.6902928,15.49239878972,147.41497518972,41.338584,0,1315.0590972,0.62170605664,23,5,8.212,147.74305918972,127.95276,0,1315.12143316,0,0,0.223694,46.3, 2.5, -1.8,0,0,1024,1024,1024,1024,0,0,0,0,59.4,-14.6,0,83,4.111,4.1,0,0,0,0,3.636,102.74,147.41497518972,127.624676,6,P-GPS,
144800,2023-11-19 21:37:38,-34.9057677823441,-56.1282945383559,127.296592,127.3622088,15.49239878972,147.08689118972,41.338584,0,1315.03941216,0.66211288208,23,5,8.212,147.74305918972,127.95276,0,1315.12143316,0,0,0.447388,46, 1.6, -3.1,0,0,1024,1024,1024,1024,0,0,0,0,59.4,-14.6,0,83,4.111,4.1,0,0,0,0,3.636,102.74,147.08689118972,127.296592,6,P-GPS,
144900,2023-11-19 21:37:38,-34.9057678378675,-56.1282946503409,127.296592,127.3622088,15.49239878972,147.08689118972,41.338584,0,1315.00332292,0.70126642664,23,5,8.212,147.74305918972,127.95276,0,1315.12143316,0,0,0.447388,46.2, 1.4, -2.3,0,0,1024,1024,1024,1024,0,0,0,0,59.4,-14.6,0,83,4.111,4.1,0,0,0,0,3.636,102.74,147.08689118972,127.296592,6,P-GPS,
145000,2023-11-19 21:37:38,-34.905767895345,-56.128294745946,127.296592,127.3622088,15.49239878972,147.08689118972,41.338584,0,1314.97379536,0.73673558788,23,5,8.212,147.74305918972,127.95276,0,1315.12143316,0,0,0.447388,46.2, 0.9, -3.6,0,0,1024,1024,1024,1024,0,0,0,0,59.4,-14.6,0,83,4.111,4.1,0,0,0,0,3.636,102.74,147.08689118972,127.296592,6,P-GPS,
145100,2023-11-19 21:37:38,-34.9057679218952,-56.1282949348162,127.296592,127.3622088,15.49239878972,147.08689118972,41.338584,0,1314.91802108,0.79407154772,23,5,8.212,147.74305918972,127.95276,0,1315.12143316,0,0,0.447388,46.5, 0.5, -3.1,0,0,1024,1024,1024,1024,0,0,0,0,59.4,-14.6,0,83,4.111,4.1,0,0,0,0,3.636,102.74,147.08689118972,127.296592,6,P-GPS,
145200,2023-11-19 21:37:39,-34.9057679822128,-56.1282949936501,127.296592,127.3622088,15.49239878972,147.08689118972,41.338584,0,1314.89833604,0.82225396332,23,5,8.212,147.74305918972,127.95276,0,1315.12143316,0,0,0.447388,46.6, 1.2, -4.2,0,0,1024,1024,1024,1024,0,0,0,0,59.4,-14.6,0,83,4.111,4.1,0,0,0,0,3.636,102.74,147.08689118972,127.296592,6,P-GPS,
145300,2023-11-19 21:37:39,-34.9057680822383,-56.1282950190557,127.296592,127.3622088,15.49239878972,147.08689118972,41.338584,0,1314.88521268,0.8595308674,23,5,8.212,147.74305918972,127.95276,0,1315.12143316,0,0,0.223694,46.7, 1.3, -4,0,0,1024,1024,1024,1024,0,0,0,0,59.4,-14.6,0,83,4.111,4.1,0,0,0,0,3.636,102.74,147.08689118972,127.296592,6,P-GPS,
145400,2023-11-19 21:37:39,-34.9057681436762,-56.1282950277471,127.296592,127.3622088,15.49239878972,147.08689118972,41.338584,0,1314.88193184,0.88209648492,23,5,8.212,147.74305918972,127.95276,0,1315.12143316,0,0,0,46.7, 2.1, -4.2,0,0,1024,1024,1024,1024,0,0,0,0,59.4,-14.6,0,83,4.111,4.1,0,0,0,0,3.636,102.74,147.08689118972,127.296592,6,P-GPS,
145500,2023-11-19 21:37:39,-34.905768108554,-56.1282949618932,127.296592,127.3622088,15.49239878972,147.08689118972,41.338584,0,1314.90161688,0.90560370352,23,5,8.206,147.74305918972,127.95276,0,1315.12143316,0,0,0,46.8, 1.9, -3.9,0,0,1024,1024,1024,1024,0,0,0,0,59.4,-14.6,0,83,4.111,4.102,0,0,0,0,3.741,102.74,147.08689118972,127.296592,6,P-GPS,
145600,2023-11-19 21:37:39,-34.9057680644948,-56.1282949796102,127.296592,127.3622088,15.49239878972,147.08689118972,41.338584,0,1314.89833604,0.92252955708,23,5,8.206,147.74305918972,127.95276,0,1315.12143316,0,0,0,46.6, 2.3, -3.2,0,0,1024,1024,1024,1024,0,0,0,0,59.4,-14.6,0,83,4.111,4.102,0,0,0,0,3.741,102.74,147.08689118972,127.296592,6,P-GPS,
145700,2023-11-19 21:37:39,-34.9057680333068,-56.1282950504783,127.296592,127.3622088,15.49239878972,147.08689118972,41.338584,0,1314.878651,0.94659451848,23,5,8.206,147.74305918972,127.95276,0,1315.12143316,0,0,0,46.7, 2.5, -3.2,0,0,1024,1024,1024,1024,0,0,0,0,59.4,-14.6,0,83,4.111,4.102,0,0,0,0,3.741,102.74,147.08689118972,127.296592,6,P-GPS,
145800,2023-11-19 21:37:39,-34.905768014026,-56.1282951046323,127.296592,127.3622088,15.49239878972,147.08689118972,41.338584,0,1314.8622468,0.96425856104,22,5,8.206,147.74305918972,127.95276,0,1315.12143316,0,0,0,46.7, 0.9, -3.6,0,0,1024,1024,1024,1024,0,0,0,0,59.4,-14.6,0,83,4.111,4.102,0,0,0,0,3.741,102.74,147.08689118972,127.296592,6,P-GPS,
145900,2023-11-19 21:37:39,-34.9057680173872,-56.1282951166665,127.296592,127.3622088,15.49239878972,147.08689118972,41.338584,0,1314.85896596,0.9680610546,22,5,8.206,147.74305918972,127.95276,0,1315.12143316,0,0,0,46.7, 0.6, -3.7,0,0,1024,1024,1024,1024,0,0,0,0,59.4,-14.6,0,83,4.111,4.102,0,0,0,0,3.741,102.74,147.08689118972,127.296592,6,P-GPS,
146000,2023-11-19 21:37:39,-34.9057680132704,-56.1282951016237,127.296592,127.3622088,15.49239878972,147.08689118972,41.338584,0,1314.86552764,0.97280843008,22,5,8.206,147.74305918972,127.95276,0,1315.12143316,0,0,0.223694,46.5, 1.2, -3.6,0,0,1024,1024,1024,867,0,0,0,-24,59.4,-14.6,0,83,4.111,4.102,0,0,0,0,3.741,102.74,147.08689118972,127.296592,6,P-GPS,
146100,2023-11-19 21:37:39,-34.9057679944066,-56.1282951046323,127.296592,127.3622088,15.49239878972,147.08689118972,41.338584,0,1314.86552764,0.97974740668,22,5,8.206,147.74305918972,127.95276,0,1315.12143316,0,0,0.223694,46.6, 1, -3.5,0,0,1033,1684,1024,364,1,100,0,-100,59.4,-14.6,0,83,4.111,4.102,0,0,0,0,3.741,102.74,147.08689118972,127.296592,6,P-GPS,
146200,2023-11-19 21:37:40,-34.9057679807016,-56.1282951009552,126.968508,127.0341248,15.49239878972,146.75880718972,41.338584,0,1314.86552764,0.98486879792,23,5,8.206,147.74305918972,127.95276,0,1315.12143316,0,0,0.223694,46.4, 1.2, -3.2,0,0,1052,1684,1024,364,4,100,0,-100,59.1,-14.6,0,83,4.111,4.102,0,0,0,0,3.741,102.74,146.75880718972,126.968508,6,P-GPS,
146300,2023-11-19 21:37:40,-34.9057680922435,-56.1282951430749,126.968508,127.0341248,15.49239878972,146.75880718972,41.338584,0,1314.84912344,1.02747050532,23,5,8.206,147.74305918972,127.95276,0,1315.12143316,0,0,0.223694,46, 1.7, 8.5,0,0,1052,1684,1024,364,4,100,0,-100,56.5,-14.6,0,83,4.111,4.102,0,0,0,0,3.741,102.74,146.75880718972,126.968508,6,P-GPS,
146400,2023-11-19 21:37:40,-34.9057682203043,-56.128294985293,126.968508,127.0341248,15.49239878972,146.75880718972,41.338584,0.6263432,1314.89177436,1.09389111112,22,5,8.206,147.74305918972,127.95276,0.6263432,1315.12143316,-0.447388,0.447388,0,42.7, 1.4, 17.3,0,0,1054,1684,1024,364,5,100,0,-100,52,-14.6,0,83,4.111,4.102,0,0,0,0,3.741,102.74,146.75880718972,126.968508,6,P-GPS,
146500,2023-11-19 21:37:40,-34.9057685574052,-56.1282944791877,126.640424,126.7388492,15.45959038972,146.43072318972,41.338584,1.5882274,1315.03285048,1.28897970004,22,5,8.204,147.74305918972,127.95276,1.5882274,1315.12143316,-1.11847,1.11847,0,38.1, 2.6, 20.4,0,0,1051,1684,1024,364,4,100,0,-100,47.3,-14.6,0,83,4.104,4.091,0,0,0,0,3.577,102.74,146.43072318972,126.640424,6,P-GPS,
146600,2023-11-19 21:37:40,-34.9057691141507,-56.1282937113383,126.31234,126.4107652,15.45959038972,146.10263918972,41.338584,2.3711564,1315.24282424,1.59564637652,23,5,8.204,147.74305918972,127.95276,2.3711564,1315.24282424,-1.565858,1.789552,0,32.8, 2, 17.3,0,0,1050,1684,1019,364,4,100,-1,-100,42.5,-14.6,0,83,4.104,4.091,0,0,0,0,3.577,102.74,146.10263918972,126.31234,6,P-GPS,
146700,2023-11-19 21:37:40,-34.9057699065646,-56.1282926148882,126.31234,126.4435736,15.42678198972,146.10263918972,41.338584,3.019869,1315.54466152,2.03292985508,23,5,8.204,147.74305918972,127.95276,3.019869,1315.54466152,-2.013246,2.23694,0,27.7, 0.2, 13.4,0,0,1050,1684,1016,364,4,100,-1,-100,37.7,-14.6,0,83,4.104,4.091,0,0,0,0,3.577,102.74,146.10263918972,126.31234,6,P-GPS,
146800,2023-11-19 21:37:40,-34.9057708093739,-56.1282912022057,125.984256,126.1811064,15.36116518972,145.77455518972,41.338584,3.6685816,1315.93836232,2.56880585648,23,5,8.204,147.74305918972,127.95276,3.6685816,1315.93836232,-2.23694,2.908022,0,23.5, 0.9, 15.4,0,0,1049,1684,1015,364,4,100,-1,-100,32.9,-14.6,0,83,4.104,4.091,0,0,0,0,3.577,102.74,145.77455518972,125.984256,6,P-GPS,
146900,2023-11-19 21:37:40,-34.9057718751058,-56.1282894161286,125.984256,126.2139148,15.32835678972,145.77455518972,41.338584,4.3396636,1316.43705,3.22970482776,23,5,8.204,147.74305918972,127.95276,4.3396636,1316.43705,-2.460634,3.579104,0.223694,18.7, 1.4, 15.2,0,0,1049,1684,1024,364,4,100,0,-100,28.1,-14.6,0,83,4.104,4.091,0,0,0,0,3.577,102.74,145.77455518972,125.984256,6,P-GPS,
147000,2023-11-19 21:37:40,-34.9057729843758,-56.1282873579445,125.656172,125.9186392,15.29554838972,145.44647118972,41.338584,5.2120702,1317.01447784,3.9666339852,23,5,8.204,147.74305918972,127.95276,5.2120702,1317.01447784,-2.684328,4.47388,0.223694,13.8, 1.7, 14.3,0,0,1049,1684,1024,364,4,100,0,-100,23.3,-14.6,0,83,4.104,4.091,0,0,0,0,3.577,102.74,145.44647118972,125.656172,6,P-GPS,
147100,2023-11-19 21:37:40,-34.9057742917428,-56.1282847177728,125.656172,125.9514476,15.26273998972,145.44647118972,41.338584,5.7936746,1317.76250936,4.889435852,23,5,8.204,147.74305918972,127.95276,5.7936746,1317.76250936,-2.684328,5.144962,0,9.3, 3.2, 13.6,0,0,1048,1684,1024,364,4,100,0,-100,18.5,-14.6,0,83,4.104,4.091,0,0,0,0,3.577,102.74,145.44647118972,125.656172,6,P-GPS,
147200,2023-11-19 21:37:41,-34.9057758117194,-56.1282814270852,125.656172,126.0498728,15.16431478972,145.44647118972,41.338584,6.3976484,1318.69426792,6.0194555732,23,5,8.204,147.74305918972,127.95276,6.3976484,1318.69426792,-2.684328,5.816044,0,4.8, 3.5, 13.3,0,0,1048,1684,1024,364,4,100,0,-100,13.7,-14.6,0,83,4.104,4.091,0,0,0,0,3.577,102.74,145.44647118972,125.656172,6,P-GPS,
147300,2023-11-19 21:37:41,-34.9057769958978,-56.128278093275,125.984256,126.4107652,15.13150638972,145.77455518972,41.338584,6.822667,1319.6522732,7.1065290988,23,5,8.204,147.74305918972,127.95276,6.822667,1319.6522732,-2.684328,6.263432,0,0, 3, 12.9,0,0,1048,1684,1024,378,4,100,0,-98,8.9,-14.6,0,83,4.104,4.091,0,0,0,0,3.577,102.74,145.77455518972,125.984256,6,P-GPS,
147400,2023-11-19 21:37:41,-34.9057781089197,-56.128274648817,125.984256,126.476382,15.06588958972,145.77455518972,41.338584,7.3595326,1320.64636772,8.2142719164,23,5,8.204,147.74305918972,127.95276,7.3595326,1320.64636772,-2.460634,6.934514,-0.223694,355.1, 2.7, 12.7,0,0,1045,1684,1024,411,3,100,0,-93,4.1,-14.6,0,83,4.104,4.091,0,0,0,0,3.577,102.74,145.77455518972,125.984256,6,P-GPS,
147500,2023-11-19 21:37:41,-34.9057792373923,-56.1282707627703,125.984256,126.5091904,15.03308118972,145.77455518972,41.338584,7.9858758,1321.768415,9.4477693312,23,5,8.209,147.74305918972,127.95276,7.9858758,1321.768415,-2.460634,7.605596,-0.223694,350.5, 2.1, 13.5,0,0,1045,1684,1024,498,3,100,0,-80,359.8,-14.6,0,83,4.108,4.1,0,0,0,0,3.76,102.74,145.77455518972,125.984256,6,P-GPS,
147600,2023-11-19 21:37:41,-34.9057802191747,-56.1282664227666,125.984256,126.5748072,14.96746438972,145.77455518972,41.338584,8.3661556,1323.03481924,10.7948166184,23,5,8.209,147.74305918972,127.95276,8.3661556,1323.03481924,-2.23694,8.052984,-0.223694,346, 1.3, 13.5,0,0,1030,1684,1024,871,1,100,0,-23,355.8,-14.6,0,83,4.108,4.1,0,0,0,0,3.76,102.74,145.77455518972,125.984256,6,P-GPS,
147700,2023-11-19 21:37:41,-34.9057812454853,-56.1282620463259,125.984256,126.6076156,14.93465598972,145.77455518972,41.338584,8.7464354,1324.30778516,12.1567917276,23,5,8.209,147.74305918972,127.95276,8.7464354,1324.30778516,-2.013246,8.500372,-0.223694,342, 0.1, 13.9,0,0,1024,1486,1024,1024,0,70,0,0,352.8,-14.6,0,83,4.108,4.1,0,0,0,0,3.76,102.74,145.77455518972,125.984256,6,P-GPS,
147800,2023-11-19 21:37:41,-34.9057821088993,-56.1282576438111,125.984256,126.6732324,14.86903918972,145.77455518972,41.338584,9.3504092,1325.59387444,13.5112209048,23,5,8.209,147.74305918972,127.95276,9.3504092,1325.59387444,-1.789552,9.171454,-0.223694,339.6, -0.8, 13.5,0,0,1024,1254,1024,1024,0,35,0,0,351.4,-14.6,0,83,4.108,4.1,0,0,0,0,3.76,102.74,145.77455518972,125.984256,6,P-GPS,
147900,2023-11-19 21:37:41,-34.9057828518345,-56.1282527963649,125.984256,126.7060408,14.83623078972,145.77455518972,41.338584,9.4846256,1327.017759,14.9867458864,23,5,8.209,147.74305918972,127.95276,9.4846256,1327.017759,-1.342164,9.395148,-0.223694,338.2, -1.2, 8.8,0,0,1024,1083,1024,1024,0,9,0,0,350.8,-14.6,0,83,4.108,4.1,0,0,0,0,3.76,102.74,145.77455518972,125.984256,6,P-GPS,
148000,2023-11-19 21:37:41,-34.9057834389602,-56.1282481087062,125.984256,126.7388492,14.80342238972,145.77455518972,41.338584,9.4846256,1328.3957118,16.4056107612,23,5,8.209,147.74305918972,127.95276,9.4846256,1328.3957118,-1.342164,9.395148,0,337.6, -1.4, 0,0,0,1024,1024,1024,1024,0,0,0,0,350.8,-14.6,0,83,4.108,4.1,0,0,0,0,3.76,102.74,145.77455518972,125.984256,6,P-GPS,
148100,2023-11-19 21:37:41,-34.9057839330171,-56.1282433404852,125.984256,126.7716576,14.77061398972,145.77455518972,41.338584,9.4622562,1329.80319216,17.8436357416,23,5,8.209,147.74305918972,127.95276,9.4846256,1329.80319216,-1.11847,9.395148,0,337.6, -1.9, -4.8,0,0,1024,1024,1024,1024,0,0,0,0,350.8,-14.6,0,83,4.108,4.1,0,0,0,0,3.76,102.74,145.77455518972,125.984256,6,P-GPS,
148200,2023-11-19 21:37:42,-34.9057843459384,-56.128238926939,125.984256,126.804466,14.73780558972,145.77455518972,41.338584,8.9924988,1331.10896648,19.1728024508,23,5,8.209,147.74305918972,127.95276,9.4846256,1331.10896648,-0.894776,8.94776,0,339, -8.3, -18,0,0,1024,1024,1024,1024,0,0,0,0,350.8,-14.6,0,83,4.108,4.1,0,0,0,0,3.76,102.74,145.77455518972,125.984256,6,P-GPS,
148300,2023-11-19 21:37:42,-34.9057846775417,-56.1282345391327,125.984256,126.8372744,14.70499718972,145.77455518972,41.338584,8.0977228,1332.40489828,20.4912408132,23,5,8.209,147.74305918972,127.95276,9.4846256,1332.40489828,-0.894776,8.052984,0,338.9, -7.9, -16.5,0,0,1024,1024,1024,1024,0,0,0,0,350.8,-14.6,0,83,4.108,4.1,0,0,0,0,3.76,102.74,145.77455518972,125.984256,6,P-GPS,
148400,2023-11-19 21:37:42,-34.9057849266285,-56.1282307226171,125.984256,126.8700828,14.67218878972,145.77455518972,41.338584,7.4042714,1333.53678808,21.6367789076,23,5,8.209,147.74305918972,127.95276,9.4846256,1333.53678808,-0.671082,7.381902,0,339.2, -7.9, -16.5,0,0,1024,1024,1024,1024,0,0,0,0,350.8,-14.6,0,83,4.108,4.1,0,0,0,0,3.76,102.74,145.77455518972,125.984256,6,P-GPS,
148500,2023-11-19 21:37:42,-34.9057848037266,-56.1282272661248,125.984256,126.8700828,14.67218878972,145.77455518972,41.338584,6.5094954,1334.57025268,22.6719823528,23,5,8.193,147.74305918972,127.95276,9.4846256,1334.57025268,-0.447388,6.487126,0,339.3, -8.1, -17.1,0,0,1024,1024,1024,1024,0,0,0,0,350.8,-14.6,0,83,4.098,4.088,0,0,0,0,3.884,102.74,145.77455518972,125.984256,6,P-GPS,
148600,2023-11-19 21:37:42,-34.9057849354091,-56.128224196733,125.984256,126.8700828,14.67218878972,145.77455518972,41.338584,5.8384134,1335.4823262,23.5916346132,22,5,8.193,147.74305918972,127.95276,9.4846256,1335.4823262,-0.447388,5.816044,-0.223694,339, -7.7, -16.9,0,0,1024,1024,1024,901,0,0,0,-19,350.8,-14.6,0,83,4.098,4.088,0,0,0,0,3.884,102.74,145.77455518972,125.984256,6,P-GPS,
148700,2023-11-19 21:37:42,-34.9057850468728,-56.1282214118164,125.984256,126.9028912,14.63938038972,145.77455518972,41.338584,4.921268,1336.30909788,24.4258866084,22,5,8.193,147.74305918972,127.95276,9.4846256,1336.30909788,-0.223694,4.921268,-0.223694,339.2, -7.1, -17,0,0,1024,1024,1024,458,0,0,0,-86,350.8,-14.6,0,83,4.098,4.088,0,0,0,0,3.884,102.74,145.77455518972,125.984256,6,P-GPS,
148800,2023-11-19 21:37:42,-34.905785094241,-56.1282191082683,125.984256,126.9028912,14.63938038972,145.77455518972,41.338584,4.47388,1336.99479344,25.1153551344,22,5,8.193,147.74305918972,127.95276,9.4846256,1336.99479344,0,4.47388,-0.223694,338.5, -6, -16.9,0,0,1024,1024,990,364,0,0,-5,-100,350.3,-14.6,0,83,4.098,4.088,0,0,0,0,3.884,102.74,145.77455518972,125.984256,6,P-GPS,
148900,2023-11-19 21:37:42,-34.9057849729024,-56.1282175922922,125.984256,126.9028912,14.63938038972,145.77455518972,41.338584,3.802798,1337.4508302,25.5710966188,22,5,8.193,147.74305918972,127.95276,9.4846256,1337.4508302,0,3.802798,-0.223694,337, -6.3, -16.7,0,0,1024,1024,982,364,0,0,-6,-100,347.7,-14.6,0,83,4.098,4.088,0,0,0,0,3.884,102.74,145.77455518972,125.984256,6,P-GPS,
149000,2023-11-19 21:37:42,-34.9057849417405,-56.1282159683426,125.984256,126.9028912,14.63938038972,145.77455518972,41.338584,3.35541,1337.93639452,26.0571530648,22,5,8.193,147.74305918972,127.95276,9.4846256,1337.93639452,0,3.35541,-0.223694,333.3, -7.2, -16.1,0,0,1024,1024,982,364,0,0,-6,-100,343.3,-14.6,0,83,4.098,4.088,0,0,0,0,3.884,102.74,145.77455518972,125.984256,6,P-GPS,
149100,2023-11-19 21:37:42,-34.9057848967694,-56.1282146419053,125.984256,126.9356996,14.60657198972,145.77455518972,41.338584,2.908022,1338.33337616,26.4543643636,22,5,8.193,147.74305918972,127.95276,9.4846256,1338.33337616,0,2.908022,-0.223694,329.1, -8.5, -15.5,0,0,1024,1024,982,364,0,0,-6,-100,338.5,-14.6,0,83,4.098,4.088,0,0,0,0,3.884,102.74,145.77455518972,125.984256,6,P-GPS,
149200,2023-11-19 21:37:43,-34.9057848542995,-56.128213608969,125.984256,126.9356996,14.60657198972,145.77455518972,41.338584,2.460634,1338.64177512,26.7638131924,23,5,8.193,147.74305918972,127.95276,9.4846256,1338.64177512,0,2.460634,0,324.7, -10.1, -14.8,0,0,1024,1024,1002,364,0,0,-3,-100,333.7,-14.6,0,83,4.098,4.088,0,0,0,0,3.884,102.74,145.77455518972,125.984256,6,P-GPS,
149300,2023-11-19 21:37:43,-34.9057847195165,-56.1282134732499,125.984256,126.9356996,14.60657198972,145.77455518972,41.338584,2.013246,1338.68770688,26.827592722,23,5,8.193,147.74305918972,127.95276,9.4846256,1338.68770688,0,2.013246,0,320.3, -11.7, -13,0,0,1024,1024,1024,1024,0,0,0,0,328.9,-14.6,0,83,4.098,4.088,0,0,0,0,3.884,102.74,145.77455518972,125.984256,6,P-GPS,
149400,2023-11-19 21:37:43,-34.9057846681619,-56.1282128534882,125.984256,126.9356996,14.60657198972,145.77455518972,41.338584,1.565858,1338.87471476,27.0139772424,23,5,8.193,147.74305918972,127.95276,9.4846256,1338.87471476,0,1.565858,0,315.8, -10.7, -10.2,0,0,1024,1024,1024,1024,0,0,0,0,326,-14.6,0,83,4.098,4.088,0,0,0,0,3.884,102.74,145.77455518972,125.984256,6,P-GPS,
149500,2023-11-19 21:37:43,-34.9057846352803,-56.1282123102773,125.984256,126.9356996,14.60657198972,145.77455518972,41.338584,1.342164,1339.03547592,27.1769693736,23,5,8.197,147.74305918972,127.95276,9.4846256,1339.03547592,0,1.342164,0,313.2, -8, -9.2,0,0,1024,1024,1024,1024,0,0,0,0,324.8,-14.6,0,82,4.078,4.078,0,0,0,0,4.092,102.74,145.77455518972,125.984256,6,P-GPS,
149600,2023-11-19 21:37:43,-34.905784629939,-56.1282119308655,125.984256,126.9356996,14.60657198972,145.77455518972,41.338584,1.11847,1339.15030532,27.2904864376,23,5,8.197,147.74305918972,127.95276,9.4846256,1339.15030532,0,1.11847,0,311.9, -6.3, -8,0,0,1024,1024,1024,1024,0,0,0,0,324.5,-14.6,0,82,4.078,4.078,0,0,0,0,4.092,102.74,145.77455518972,125.984256,6,P-GPS,
149700,2023-11-19 21:37:43,-34.9057848680045,-56.1282117185954,125.984256,126.9356996,14.60657198972,145.77455518972,41.338584,0.894776,1339.2060796,27.3980979896,23,5,8.197,147.74305918972,127.95276,9.4846256,1339.2060796,0,0.894776,0,312, -7.7, -6.5,0,0,1024,1024,1024,1024,0,0,0,0,324.5,-14.6,0,82,4.078,4.078,0,0,0,0,4.092,102.74,145.77455518972,125.984256,6,P-GPS,
149800,2023-11-19 21:37:43,-34.9057849468212,-56.1282114999739,125.656172,126.6076156,14.60657198972,145.44647118972,41.338584,0.671082,1339.26841556,27.4695546848,23,5,8.197,147.74305918972,127.95276,9.4846256,1339.26841556,0,0.671082,0,311.9, -6.6, -5.4,0,0,1024,1024,1024,1024,0,0,0,0,324.5,-14.6,0,82,4.078,4.078,0,0,0,0,4.092,102.74,145.44647118972,125.656172,6,P-GPS,
149900,2023-11-19 21:37:43,-34.9057850272012,-56.1282112589555,125.656172,126.6076156,14.60657198972,145.44647118972,41.338584,0.671082,1339.3373132,27.547409018,23,5,8.197,147.74305918972,127.95276,9.4846256,1339.3373132,0,0.671082,0,311.6, -5.5, -5.1,0,0,1024,1024,1024,1024,0,0,0,0,324.5,-14.6,0,82,4.078,4.078,0,0,0,0,4.092,102.74,145.44647118972,125.656172,6,P-GPS,
150000,2023-11-19 21:37:43,-34.905785091427,-56.1282110824537,125.656172,126.6076156,14.60657198972,145.44647118972,41.338584,0.447388,1339.38980664,27.6051846104,23,5,8.197,147.74305918972,127.95276,9.4846256,1339.38980664,0,0.447388,0,311.4, -5, -5.1,0,0,1024,1024,1024,1024,0,0,0,0,324.5,-14.6,0,82,4.078,4.078,0,0,0,0,4.092,102.74,145.44647118972,125.656172,6,P-GPS,
150100,2023-11-19 21:37:43,-34.9057851264972,-56.1282109691316,125.656172,126.6076156,14.60657198972,145.44647118972,41.338584,0.447388,1339.42261504,27.6414378924,23,5,8.197,147.74305918972,127.95276,9.4846256,1339.42261504,0,0.447388,0,311.4, -5.2, -4.3,0,0,1024,1024,1024,1024,0,0,0,0,324.5,-14.6,0,82,4.078,4.078,0,0,0,0,4.092,102.74,145.44647118972,125.656172,6,P-GPS,
150200,2023-11-19 21:37:44,-34.9057853102899,-56.1282107261074,125.328088,126.2795316,14.60657198972,145.11838718972,41.338584,0.447388,1339.48823184,27.7403552184,23,5,8.197,147.74305918972,127.95276,9.4846256,1339.48823184,0,0.447388,0,311.6, -5.7, -3.7,0,0,1024,762,1024,1253,0,-40,0,35,324.5,-14.6,0,82,4.078,4.078,0,0,0,0,4.092,102.74,145.11838718972,125.328088,6,P-GPS,
150300,2023-11-19 21:37:44,-34.9057853933275,-56.1282106037596,125.328088,126.2795316,14.60657198972,145.11838718972,41.338584,0.447388,1339.52432108,27.7878617816,23,5,8.197,147.74305918972,127.95276,9.4846256,1339.52432108,0,0.223694,0,311.7, -5.6, -4.2,0,0,1024,364,1024,1662,0,-100,0,97,324.6,-14.6,0,82,4.078,4.078,0,0,0,0,4.092,102.74,145.11838718972,125.328088,6,P-GPS,
150400,2023-11-19 21:37:44,-34.9057854524205,-56.1282105118316,125.328088,126.2795316,14.60657198972,145.11838718972,41.338584,0.223694,1339.54728696,27.8228027276,23,5,8.197,147.74305918972,127.95276,9.4846256,1339.54728696,0,0.223694,0,312.1, -4.9, -12.5,0,0,1024,364,1024,1684,0,-100,0,100,326.3,-14.6,0,82,4.078,4.078,0,0,0,0,4.092,102.74,145.11838718972,125.328088,6,P-GPS,
150500,2023-11-19 21:37:44,-34.9057855257135,-56.1282105031403,125.000004,125.984256,14.57376358972,144.79030318972,41.338584,0.447388,1339.5505678,27.8496728072,23,5,8.177,147.74305918972,127.95276,9.4846256,1339.5505678,-0.447388,0,0,314.6, -4.1, -22.3,0,0,1024,364,1024,1684,0,-100,0,100,330.4,-14.6,0,82,4.096,4.087,0,0,0,0,4.568,102.74,144.79030318972,125.000004,6,P-GPS,
150600,2023-11-19 21:37:44,-34.9057857811838,-56.1282104600177,125.000004,125.984256,14.57376358972,144.79030318972,41.338584,1.006623,1339.55384864,27.9437672984,23,5,8.177,147.74305918972,127.95276,9.4846256,1339.55384864,-0.894776,-0.447388,0,320.6, -4.7, -23.5,0,0,1024,364,1024,1684,0,-100,0,100,335.1,-14.6,0,82,4.096,4.087,0,0,0,0,4.568,102.74,144.79030318972,125.000004,6,P-GPS,
150700,2023-11-19 21:37:44,-34.9057862553867,-56.1282109564288,125.328088,126.31234,14.57376358972,145.11838718972,41.338584,1.7448132,1339.39308748,28.1717856784,23,5,8.177,147.74305918972,127.95276,9.4846256,1339.55384864,-1.342164,-1.11847,0,325.4, -3.6, -23,0,0,1024,364,1024,1684,0,-100,0,100,339.9,-14.6,0,82,4.096,4.087,0,0,0,0,4.568,102.74,145.11838718972,125.328088,6,P-GPS,
150800,2023-11-19 21:37:44,-34.905786863122,-56.1282117085669,125.328088,126.3451484,14.54095518972,145.11838718972,41.338584,2.5277422,1339.15030532,28.4877305704,23,5,8.177,147.74305918972,127.95276,9.4846256,1339.55384864,-1.789552,-1.789552,0,329.7, -2.1, -22.9,0,0,1024,364,1024,1684,0,-100,0,100,344.7,-14.6,0,82,4.096,4.087,0,0,0,0,4.568,102.74,145.11838718972,125.328088,6,P-GPS,
150900,2023-11-19 21:37:44,-34.9057876789073,-56.1282127953228,125.656172,126.6732324,14.54095518972,145.44647118972,41.338584,3.3330406,1338.80253628,28.9285442328,23,5,8.177,147.74305918972,127.95276,9.4846256,1339.55384864,-2.23694,-2.460634,0,334.5, -1.9, -23.3,0,0,1024,364,1024,1684,0,-100,0,100,349.5,-14.6,0,82,4.096,4.087,0,0,0,0,4.568,102.74,145.44647118972,125.656172,6,P-GPS,
151000,2023-11-19 21:37:44,-34.905788650919,-56.1282139218585,125.656172,126.7060408,14.50814678972,145.44647118972,41.338584,3.802798,1338.43836304,29.417815902,23,5,8.177,147.74305918972,127.95276,9.4846256,1339.55384864,-2.460634,-2.908022,0,339.3, -1.4, -24,0,0,1024,364,1024,1667,0,-100,0,97,354.3,-14.6,0,82,4.096,4.087,0,0,0,0,4.568,102.74,145.44647118972,125.656172,6,P-GPS,
151100,2023-11-19 21:37:44,-34.9057898281147,-56.1282157647639,125.656172,126.7060408,14.50814678972,145.44647118972,41.338584,4.47388,1337.85437352,30.1167660556,23,5,8.177,147.74305918972,127.95276,9.4846256,1339.55384864,-2.684328,-3.579104,-0.223694,344.1, -1, -25.1,0,0,1024,364,1024,1667,0,-100,0,97,359.1,-14.6,0,82,4.096,4.087,0,0,0,0,4.568,102.74,145.44647118972,125.656172,6,P-GPS,
151200,2023-11-19 21:37:44,-34.9057910213863,-56.1282178169308,125.984256,127.0669332,14.47533838972,145.77455518972,41.338584,5.033115,1337.20804804,30.8694891768,23,5,8.177,147.74305918972,127.95276,9.4846256,1339.55384864,-2.684328,-4.250186,0,348.2, 0.2, -25.4,0,0,1024,364,1024,1024,0,-100,0,0,3.3,-14.6,0,82,4.096,4.087,0,0,0,0,4.568,102.74,145.77455518972,125.984256,6,P-GPS,
151300,2023-11-19 21:37:45,-34.9057923337298,-56.1282203518032,125.984256,127.0997416,14.44252998972,145.77455518972,41.338584,5.5252418,1336.41408476,31.7664380244,23,5,8.177,147.74305918972,127.95276,9.4846256,1339.55384864,-2.908022,-4.697574,0,351.7, 0, -24.6,0,0,1024,364,1024,1024,0,-100,0,0,5.3,-14.6,0,82,4.096,4.087,0,0,0,0,4.568,102.74,145.77455518972,125.984256,6,P-GPS,
151400,2023-11-19 21:37:45,-34.9057936478711,-56.1282230822315,125.984256,127.13255,14.40972158972,145.77455518972,41.338584,6.1068462,1335.56106636,32.7137149576,23,5,8.177,147.74305918972,127.95276,9.4846256,1339.55384864,-2.908022,-5.368656,0,353, -0.3, -25,0,0,1024,364,955,1024,0,-100,-10,0,6,-14.6,0,82,4.096,4.087,0,0,0,0,4.568,102.74,145.77455518972,125.984256,6,P-GPS,
151500,2023-11-19 21:37:45,-34.9057951553412,-56.1282264461272,126.31234,127.460634,14.40972158972,146.10263918972,41.338584,6.5094954,1334.5144784,33.860565388,23,5,8.199,147.74305918972,127.95276,9.4846256,1339.55384864,-2.908022,-5.816044,0,353.7, -0.9, -25.4,0,0,1024,364,529,1024,0,-100,-75,0,6.1,-14.6,0,82,4.098,4.087,0,0,0,0,3.874,102.92,146.10263918972,126.31234,6,P-GPS,
151600,2023-11-19 21:37:45,-34.9057965427755,-56.128229836097,126.31234,127.4934424,14.37691318972,146.10263918972,41.338584,6.9121446,1333.46132876,34.994423692,22,5,8.199,147.74305918972,127.95276,9.4846256,1339.55384864,-2.908022,-6.263432,0,353.7, -0.8, -25.3,0,0,1024,364,364,1024,0,-100,-100,0,6.1,-14.6,0,82,4.098,4.087,0,0,0,0,3.874,102.92,146.10263918972,126.31234,6,P-GPS,
151700,2023-11-19 21:37:45,-34.9057977788817,-56.1282333340404,126.640424,127.8543348,14.34410478972,146.43072318972,41.338584,7.0239916,1332.38521324,36.133859424,22,5,8.199,147.74305918972,127.95276,9.4846256,1339.55384864,-2.684328,-6.487126,0.447388,353.8, -0.7, -25.9,0,0,1024,364,364,1024,0,-100,-100,0,6.1,-14.6,0,82,4.098,4.087,0,0,0,0,3.874,102.92,146.43072318972,126.640424,6,P-GPS,
151800,2023-11-19 21:37:45,-34.9057989446913,-56.1282367594443,126.640424,127.8543348,14.34410478972,146.43072318972,41.338584,7.3147938,1331.32878276,37.243767596,22,5,8.199,147.74305918972,127.95276,9.4846256,1339.55384864,-2.908022,-6.71082,1.11847,353.9, -0.4, -25.8,0,0,1024,364,364,1024,0,-100,-100,0,6.1,-14.6,0,82,4.098,4.087,0,0,0,0,3.874,102.92,146.43072318972,126.640424,6,P-GPS,
151900,2023-11-19 21:37:45,-34.9058000814494,-56.12824057128,126.31234,127.5590592,14.31129638972,146.10263918972,41.338584,7.4266408,1330.16080372,38.457350312,22,5,8.199,147.74305918972,127.95276,9.4846256,1339.55384864,-2.684328,-6.934514,1.789552,353.7, -0.1, -25.7,0,0,1024,364,364,1024,0,-100,-100,0,6.1,-14.6,0,82,4.098,4.087,0,0,0,0,3.874,102.92,146.10263918972,126.31234,6,P-GPS,
152000,2023-11-19 21:37:45,-34.9058012418396,-56.1282441043232,125.984256,127.2637836,14.27848798972,145.77455518972,41.338584,7.4266408,1329.07156484,39.596129876,23,5,8.199,147.74305918972,127.95276,9.4846256,1339.55384864,-2.684328,-6.934514,2.460634,353.9, -0.2, -25.5,0,0,1024,364,364,1024,0,-100,-100,0,6.1,-14.6,0,82,4.098,4.087,0,0,0,0,3.874,102.92,145.77455518972,125.984256,6,P-GPS,
152100,2023-11-19 21:37:45,-34.9058024024381,-56.128247825568,125.328088,126.6076156,14.27848798972,145.11838718972,41.338584,7.6503348,1327.92983252,40.787074796,23,5,8.199,147.74305918972,127.95276,9.4846256,1339.55384864,-2.684328,-7.158208,3.35541,354, -0.6, -25.4,0,0,1024,364,364,1024,0,-100,-100,0,6.1,-14.6,0,82,4.098,4.087,0,0,0,0,3.874,102.92,145.11838718972,125.328088,6,P-GPS,
152200,2023-11-19 21:37:45,-34.9058034876592,-56.1282514217908,124.67192,125.984256,14.24567958972,144.46221918972,41.338584,7.8516594,1326.82747028,41.933728376,22,5,8.199,147.74305918972,127.95276,9.4846256,1339.55384864,-2.684328,-7.381902,4.026492,354.1, -1, -24.7,0,0,1024,364,364,1120,0,-100,-100,15,6.1,-14.6,0,82,4.098,4.087,0,0,0,0,3.874,102.92,144.46221918972,124.67192,6,P-GPS,
152300,2023-11-19 21:37:46,-34.9058043298905,-56.1282548471947,124.015752,125.328088,14.24567958972,143.80605118972,41.338584,8.0753534,1325.78088232,43.003938384,22,5,8.199,147.74305918972,127.95276,9.4846256,1339.55384864,-2.684328,-7.605596,4.921268,354, -0.8, -25,0,0,1024,364,364,1684,0,-100,-100,100,6.1,-14.6,0,82,4.098,4.087,0,0,0,0,3.874,102.92,143.80605118972,124.015752,6,P-GPS,
152400,2023-11-19 21:37:46,-34.9058053875714,-56.1282585263198,123.0315,124.3766444,14.21287118972,142.82179918972,41.338584,8.0753534,1324.6555542,44.170277004,22,5,8.199,147.74305918972,127.95276,9.4846256,1339.55384864,-2.684328,-7.605596,5.59235,354.2, -1, -24,0,0,1024,364,575,1684,0,-100,-68,100,7.4,-14.6,0,82,4.098,4.087,0,0,0,0,3.874,102.92,142.82179918972,123.0315,6,P-GPS,
152500,2023-11-19 21:37:46,-34.905806599264,-56.1282624534833,122.047248,123.4252008,14.18006278972,141.83754718972,41.338584,8.4780026,1323.44820508,45.425854472,22,5,8.176,147.74305918972,127.95276,9.4846256,1339.55384864,-2.684328,-8.052984,5.816044,356.4, -0.5, -22.7,0,0,1024,364,619,1684,0,-100,-61,100,11.3,-14.6,0,82,4.084,4.069,0,0,0,0,4.296,102.74,141.83754718972,122.047248,6,P-GPS,
152600,2023-11-19 21:37:46,-34.9058077716655,-56.1282663823183,121.39108,122.8018412,14.14725438972,141.18137918972,41.338584,8.9030212,1322.2441368,46.676838764,20,5,8.176,147.74305918972,127.95276,9.4846256,1339.55384864,-2.684328,-8.500372,5.368656,0.9, -0.7, -21.7,0,0,1024,364,643,1684,0,-100,-58,100,16,-14.6,0,82,4.084,4.069,0,0,0,0,4.296,102.74,141.18137918972,121.39108,6,P-GPS,
152700,2023-11-19 21:37:46,-34.9058092856234,-56.1282702713735,120.406828,121.8503976,14.11444598972,140.19712718972,41.338584,9.5517338,1321.04334936,47.964896548,20,5,8.176,147.74305918972,127.95276,9.5517338,1339.55384864,-2.684328,-9.171454,4.697574,5.1, 0.7, -23.7,0,0,1059,530,946,1024,5,-75,-12,0,20.8,-14.6,0,82,4.084,4.069,0,0,0,0,4.296,102.74,140.19712718972,120.406828,6,P-GPS,
152800,2023-11-19 21:37:46,-34.9058104313184,-56.1282747798562,119.75066,121.1942296,14.11444598972,139.54095918972,41.338584,10.1557076,1319.66539656,49.376970084,23,5,8.176,147.74305918972,127.95276,10.1557076,1339.55384864,-2.460634,-9.842536,4.250186,9.3, 2, -24,0,0,1333,1023,984,1024,47,-0,-6,0,25,-14.6,0,82,4.084,4.069,0,0,0,0,4.296,102.74,139.54095918972,119.75066,6,P-GPS,
152900,2023-11-19 21:37:46,-34.9058115182592,-56.1282799622545,119.422576,120.9317624,14.04882918972,139.21287518972,41.338584,10.7596814,1318.09059336,50.97769192,23,5,8.176,147.74305918972,127.95276,10.7596814,1339.55384864,-2.23694,-10.513618,3.35541,13, 2, -23.9,0,0,1684,1024,982,1024,100,0,-6,0,26.8,-14.6,0,82,4.084,4.069,0,0,0,0,4.296,102.74,139.21287518972,119.422576,6,P-GPS,
153000,2023-11-19 21:37:46,-34.9058124438407,-56.1282851837641,119.094492,120.6036784,14.04882918972,138.88479118972,41.338584,11.3189164,1316.50594764,52.576117168,23,5,8.176,147.74305918972,127.95276,11.3189164,1339.55384864,-1.789552,-11.1847,2.684328,13.7, 2.5, -23.9,0,0,1684,1024,982,1024,100,0,-6,0,27.5,-14.6,0,82,4.084,4.069,0,0,0,0,4.296,102.74,138.88479118972,119.094492,6,P-GPS,
153100,2023-11-19 21:37:46,-34.9058132906316,-56.1282908879792,118.766408,120.2755944,14.04882918972,138.55670718972,41.338584,11.4978716,1314.7802258,54.310369192,23,5,8.176,147.74305918972,127.95276,11.4978716,1339.55384864,-1.342164,-11.408394,1.789552,17.4, -10.4, -12.9,0,0,1684,1024,1002,1024,100,0,-3,0,27.5,-14.6,0,82,4.084,4.069,0,0,0,0,4.296,102.74,138.55670718972,118.766408,6,P-GPS,
153200,2023-11-19 21:37:47,-34.9058137848708,-56.1282963665528,118.438324,119.9803188,14.01602078972,138.22862318972,41.338584,11.1847,1313.13324412,55.95964746,22,5,8.176,147.74305918972,127.95276,11.4978716,1339.55384864,-0.447388,-11.1847,0.671082,17.3, -15.7, -7.6,0,0,1684,1024,1003,1024,100,0,-3,0,27.5,-14.6,0,82,4.084,4.069,0,0,0,0,4.296,102.74,138.22862318972,118.438324,6,P-GPS,
153300,2023-11-19 21:37:47,-34.9058139363291,-56.128302076785,118.438324,119.9803188,14.01602078972,138.22862318972,41.338584,10.737312,1311.42392648,57.6689651,22,5,8.176,147.74305918972,127.95276,11.4978716,1339.55384864,0,-10.737312,0.223694,16.3, -15.4, -6.4,0,0,1684,1024,1007,1024,100,0,-3,0,27.5,-14.6,0,82,4.084,4.069,0,0,0,0,4.296,102.74,138.22862318972,118.438324,6,P-GPS,
153400,2023-11-19 21:37:47,-34.9058137705405,-56.1283073247029,118.11024,119.6194264,14.04882918972,137.90053918972,41.338584,10.3122934,1309.86224664,59.24048746,23,5,8.176,147.74305918972,127.95276,11.4978716,1339.55384864,0.671082,-10.289924,0,16, -16.2, -6.1,0,0,1684,1024,1024,1024,100,0,0,0,27.5,-14.6,0,82,4.084,4.069,0,0,0,0,4.296,102.74,137.90053918972,118.11024,6,P-GPS,
153500,2023-11-19 21:37:47,-34.9058132148894,-56.1283127013201,117.782156,119.258534,14.08163758972,137.57245518972,41.338584,9.9320136,1308.27432008,60.861878588,23,5,8.224,147.74305918972,127.95276,11.4978716,1339.55384864,1.342164,-9.842536,0,15.5, -17.3, -4.3,0,0,1684,1024,1024,1024,100,0,0,0,27.5,-14.6,0,82,4.101,4.077,0,0,0,0,3.619,102.92,137.57245518972,117.782156,6,P-GPS,
153600,2023-11-19 21:37:47,-34.9058121618723,-56.1283182380591,117.782156,119.2257256,14.11444598972,137.57245518972,41.338584,9.395148,1306.65030428,62.562666044,23,5,8.224,147.74305918972,127.95276,11.4978716,1339.55384864,2.013246,-9.171454,0,15.5, -19.5, -3.1,0,0,1684,1024,1024,1115,100,0,0,14,27.5,-14.6,0,82,4.101,4.077,0,0,0,0,3.619,102.92,137.57245518972,117.782156,6,P-GPS,
153700,2023-11-19 21:37:47,-34.9058109509614,-56.1283232132016,117.454072,118.8320248,14.18006278972,137.24437118972,41.338584,9.1267152,1305.200173,64.115487616,23,5,8.224,147.74305918972,127.95276,11.4978716,1339.55384864,2.684328,-8.724066,0.223694,15.4, -19.1, -2.2,0,0,1684,1024,1024,1526,100,0,0,76,27.5,-14.6,0,82,4.101,4.077,0,0,0,0,3.619,102.92,137.24437118972,117.454072,6,P-GPS,
153800,2023-11-19 21:37:47,-34.9058095289259,-56.1283275478568,117.454072,118.7992164,14.21287118972,137.24437118972,41.338584,8.724066,1303.94689212,65.512141204,23,5,8.224,147.74305918972,127.95276,11.4978716,1339.55384864,3.35541,-8.052984,0.223694,15.3, -19.6, -3.5,0,0,1684,1024,1024,1526,100,0,0,76,27.7,-14.6,0,82,4.101,4.077,0,0,0,0,3.619,102.92,137.24437118972,117.454072,6,P-GPS,
153900,2023-11-19 21:37:47,-34.9058076669761,-56.1283313647068,117.454072,118.7335996,14.27848798972,137.24437118972,41.338584,8.4108944,1302.86093408,66.841209488,23,5,8.224,147.74305918972,127.95276,11.4978716,1339.55384864,4.026492,-7.381902,0.223694,15.9, -18.5, -5.1,0,0,1684,1024,1024,1684,100,0,0,100,29,-14.6,0,82,4.101,4.077,0,0,0,0,3.619,102.92,137.24437118972,117.454072,6,P-GPS,
154000,2023-11-19 21:37:47,-34.9058050334043,-56.1283345133239,117.454072,118.602366,14.40972158972,137.24437118972,41.338584,8.5674802,1301.99479232,68.186681972,23,5,8.224,147.74305918972,127.95276,11.4978716,1339.55384864,4.697574,-7.158208,0,18.5, -17.9, -5.7,0,0,1684,1024,1024,1684,100,0,0,100,32.8,-14.6,0,82,4.101,4.077,0,0,0,0,3.619,102.92,137.24437118972,117.454072,6,P-GPS,
154100,2023-11-19 21:37:47,-34.9058026319836,-56.1283377558746,117.454072,118.5367492,14.47533838972,137.24437118972,41.338584,8.4108944,1301.09584216,69.494096712,23,5,8.224,147.74305918972,127.95276,11.4978716,1339.55384864,5.368656,-6.487126,0,23, -17.7, -6.8,0,0,1684,939,1024,1684,100,-13,0,100,37.4,-14.6,0,82,4.101,4.077,0,0,0,0,3.619,102.92,137.24437118972,117.454072,6,P-GPS,
154200,2023-11-19 21:37:48,-34.9058000818924,-56.1283405949451,117.782156,118.766408,14.57376358972,137.57245518972,41.338584,8.5451108,1300.32484476,70.753939272,23,5,8.224,147.74305918972,127.95276,11.4978716,1339.55384864,6.039738,-6.039738,-0.223694,27.6, -16.8, -7.2,0,0,1684,509,1024,1684,100,-78,0,100,42.2,-14.6,0,82,4.101,4.077,0,0,0,0,3.619,102.92,137.57245518972,117.782156,6,P-GPS,
154300,2023-11-19 21:37:48,-34.9057971478532,-56.1283433745131,117.782156,118.6679828,14.67218878972,137.57245518972,41.338584,8.4108944,1299.58009408,72.10958236,23,5,8.224,147.74305918972,127.95276,11.4978716,1339.55384864,6.487126,-5.368656,-0.223694,32.2, -16.3, -8.7,0,0,1684,364,1024,1684,100,-100,0,100,47,-14.6,0,82,4.101,4.077,0,0,0,0,3.619,102.92,137.57245518972,117.782156,6,P-GPS,
154400,2023-11-19 21:37:48,-34.9057938083184,-56.1283451264933,118.11024,118.8976416,14.77061398972,137.90053918972,41.338584,8.8135436,1299.15686572,73.436025972,23,5,8.224,147.74305918972,127.95276,11.4978716,1339.55384864,7.158208,-5.144962,-0.223694,36.6, -12.2, -15.5,0,0,1684,364,1024,1298,100,-100,0,42,51.8,-14.6,0,82,4.101,4.077,0,0,0,0,3.619,102.92,137.90053918972,118.11024,6,P-GPS,
154500,2023-11-19 21:37:48,-34.9057904610974,-56.1283474263644,118.11024,118.7335996,14.93465598972,137.90053918972,41.338584,9.059607,1298.56959536,74.83760082,23,5,8.136,147.74305918972,127.95276,11.4978716,1339.55384864,7.605596,-4.921268,-0.223694,41.2, -8.9, -19.9,0,0,1684,364,1024,1024,100,-100,0,0,56.6,-14.6,0,82,4.101,4.087,0,0,0,0,5.023,102.92,137.90053918972,118.11024,6,P-GPS,
154600,2023-11-19 21:37:48,-34.905787089619,-56.1283495443852,118.11024,118.6351744,15.03308118972,137.90053918972,41.338584,9.506995,1298.04138012,76.221459132,23,5,8.136,147.74305918972,127.95276,11.4978716,1339.55384864,8.276678,-4.697574,0,45.8, -7.8, -20.7,0,0,1684,364,1024,1024,100,-100,0,0,59.7,-14.6,0,82,4.101,4.087,0,0,0,0,5.023,102.92,137.90053918972,118.11024,6,P-GPS,
154700,2023-11-19 21:37:48,-34.9057833349483,-56.1283516831315,118.11024,118.5039408,15.16431478972,137.90053918972,41.338584,9.9096442,1297.51644572,77.733270204,23,5,8.136,147.74305918972,127.95276,11.4978716,1339.55384864,8.724066,-4.697574,0,48.5, -8.5, -19.3,0,0,1684,364,1024,1024,100,-100,0,0,61.1,-14.6,0,82,4.101,4.087,0,0,0,0,5.023,102.92,137.90053918972,118.11024,6,P-GPS,
154800,2023-11-19 21:37:48,-34.9057795699336,-56.1283536229792,118.438324,118.7007912,15.29554838972,138.22862318972,41.338584,10.401771,1297.05384728,79.224740068,23,5,8.136,147.74305918972,127.95276,11.4978716,1339.55384864,9.395148,-4.47388,0,49.6, -8.4, -18.3,0,0,1684,364,1024,1024,100,-100,0,0,61.4,-14.6,0,82,4.101,4.087,0,0,0,0,5.023,102.92,138.22862318972,118.438324,6,P-GPS,
154900,2023-11-19 21:37:48,-34.9057754832427,-56.1283554745759,118.438324,118.5367492,15.45959038972,138.22862318972,41.338584,10.7149426,1296.63061892,80.8152913,23,5,8.136,147.74305918972,127.95276,11.4978716,1339.55384864,9.842536,-4.250186,0,49.9, -8.9, -17.4,0,0,1684,364,1024,1024,100,-100,0,0,61.4,-14.6,0,82,4.101,4.087,0,0,0,0,5.023,102.92,138.22862318972,118.438324,6,P-GPS,
155000,2023-11-19 21:37:48,-34.9057713930343,-56.128357172068,118.438324,118.4055156,15.59082398972,138.22862318972,41.338584,11.2518082,1296.25660316,82.39173492,23,5,8.136,147.74305918972,127.95276,11.4978716,1339.55384864,10.513618,-4.026492,0,49.8, -8.3, -16.9,0,0,1684,364,1024,1024,100,-100,0,0,61.4,-14.6,0,82,4.101,4.087,0,0,0,0,5.023,102.92,138.22862318972,118.438324,6,P-GPS,
155100,2023-11-19 21:37:48,-34.9057668442561,-56.1283591139213,118.438324,118.2414736,15.75486598972,138.22862318972,41.338584,11.6097186,1295.82353228,84.149937076,23,5,8.136,147.74305918972,127.95276,11.6097186,1339.55384864,10.961006,-3.802798,0,49.6, -7.6, -16.7,0,0,1684,364,1024,1024,100,-100,0,0,61.4,-14.6,0,82,4.101,4.087,0,0,0,0,5.023,102.92,138.22862318972,118.438324,6,P-GPS,
155200,2023-11-19 21:37:49,-34.9057623397976,-56.1283608702472,118.766408,118.4055156,15.91890798972,138.55670718972,41.338584,11.967629,1295.44623568,85.875330832,23,5,8.136,147.74305918972,127.95276,11.967629,1339.55384864,11.408394,-3.579104,0,49.4, -7.4, -17.1,0,0,1684,364,1024,1024,100,-100,0,0,61.4,-14.6,0,82,4.101,4.087,0,0,0,0,5.023,102.92,138.55670718972,118.766408,6,P-GPS,
155300,2023-11-19 21:37:49,-34.9057573821888,-56.1283629190713,118.766408,118.2414736,16.08294998972,138.55670718972,41.338584,12.1018454,1295.00004144,87.78543588,23,5,8.136,147.74305918972,127.95276,12.1018454,1339.55384864,11.632088,-3.35541,0,49.4, -7.3, -17.5,0,0,1684,364,1024,1024,100,-100,0,0,61.4,-14.6,0,82,4.101,4.087,0,0,0,0,5.023,102.92,138.55670718972,118.766408,6,P-GPS,
155400,2023-11-19 21:37:49,-34.9057525183522,-56.1283644731557,118.766408,118.0774316,16.24699198972,138.55670718972,41.338584,12.4821252,1294.701485,89.619753524,23,5,8.136,147.74305918972,127.95276,12.4821252,1339.55384864,12.079476,-3.131716,0,49.4, -7.3, -17.3,0,0,1684,364,1024,1024,100,-100,0,0,61.4,-14.6,0,82,4.101,4.087,0,0,0,0,5.023,102.92,138.55670718972,118.766408,6,P-GPS,
155500,2023-11-19 21:37:49,-34.9057472520946,-56.1283659650633,118.766408,117.8805812,16.44384238972,138.55670718972,41.338584,12.862405,1294.4390178,91.592194532,23,5,8.164,147.74305918972,127.95276,12.862405,1339.55384864,12.526864,-2.908022,0.223694,49.4, -6.9, -17,0,0,1684,364,1024,1024,100,-100,0,0,61.4,-14.6,0,82,4.091,4.077,0,0,0,0,4.037,102.92,138.55670718972,118.766408,6,P-GPS,
155600,2023-11-19 21:37:49,-34.9057420872695,-56.1283673028662,118.766408,117.6837308,16.64069278972,138.55670718972,41.338584,13.2426848,1294.21920152,93.51870378,23,5,8.164,147.74305918972,127.95276,13.2426848,1339.55384864,12.974252,-2.684328,0,49.3, -6.4, -16,0,0,1684,364,1024,1024,100,-100,0,0,61.4,-14.6,0,82,4.091,4.077,0,0,0,0,4.037,102.92,138.55670718972,118.766408,6,P-GPS,
155700,2023-11-19 21:37:49,-34.9057364888354,-56.1283686543748,118.766408,117.4868804,16.83754318972,138.55670718972,41.338584,13.4663788,1294.01578944,95.601052928,23,5,8.164,147.74305918972,127.95276,13.4663788,1339.55384864,13.197946,-2.684328,0,49.4, -6.3, -16.2,0,0,1684,364,1024,1024,100,-100,0,0,61.4,-14.6,0,82,4.091,4.077,0,0,0,0,4.037,102.92,138.55670718972,118.766408,6,P-GPS,
155800,2023-11-19 21:37:49,-34.9057310697386,-56.1283698387415,118.766408,117.29003,17.03439358972,138.55670718972,41.338584,13.869028,1293.85830912,97.609583176,23,5,8.164,147.74305918972,127.95276,13.869028,1339.55384864,13.645334,-2.460634,0,49.4, -6.5, -16.2,0,0,1684,364,1024,1024,100,-100,0,0,61.4,-14.6,0,82,4.091,4.077,0,0,0,0,4.037,102.92,138.55670718972,118.766408,6,P-GPS,
155900,2023-11-19 21:37:49,-34.9057252685697,-56.1283709803199,119.094492,117.4212636,17.23124398972,138.88479118972,41.338584,14.0479832,1293.73035636,99.753612116,23,5,8.164,147.74305918972,127.95276,14.0479832,1339.55384864,13.869028,-2.23694,0,49.3, -6.4, -16.8,0,0,1684,364,1024,1024,100,-100,0,0,61.4,-14.6,0,82,4.091,4.077,0,0,0,0,4.037,102.92,138.88479118972,119.094492,6,P-GPS,
156000,2023-11-19 21:37:49,-34.9057196335281,-56.1283720129219,119.094492,117.2572216,17.39528598972,138.88479118972,41.338584,14.2716772,1293.63193116,101.832680424,23,5,8.164,147.74305918972,127.95276,14.2716772,1339.55384864,14.092722,-2.23694,0,49.5, -6.8, -17,0,0,1684,364,1024,1024,100,-100,0,0,61.4,-14.6,0,82,4.091,4.077,0,0,0,0,4.037,102.92,138.88479118972,119.094492,6,P-GPS,
156100,2023-11-19 21:37:49,-34.9057135781917,-56.1283731157234,119.094492,117.0275628,17.62494478972,138.88479118972,41.338584,14.6743264,1293.53022512,104.066276296,23,5,8.164,147.74305918972,127.95276,14.6743264,1339.55384864,14.54011,-2.013246,0,49.6, -6.5, -16.6,0,0,1684,364,1024,1422,100,-100,0,60,61.4,-14.6,0,82,4.091,4.077,0,0,0,0,4.037,102.92,138.88479118972,119.094492,6,P-GPS,
156200,2023-11-19 21:37:50,-34.9057076776747,-56.1283740500461,119.094492,116.8307124,17.82179518972,138.88479118972,41.338584,14.875651,1293.47773168,106.237208124,23,5,8.164,147.74305918972,127.95276,14.875651,1339.55384864,14.763804,-1.789552,0,49.6, -6.2, -16.8,0,0,1684,364,1024,1534,100,-100,0,77,61.8,-14.6,0,82,4.091,4.077,0,0,0,0,4.037,102.92,138.88479118972,119.094492,6,P-GPS,
156300,2023-11-19 21:37:50,-34.9057013933399,-56.1283749161748,119.094492,116.5682452,18.08426238972,138.88479118972,41.338584,15.099345,1293.46788916,108.544622896,23,5,8.164,147.74305918972,127.95276,15.099345,1339.55384864,14.987498,-1.789552,0,50.6, -6.1, -17,0,0,1684,364,1024,1684,100,-100,0,100,63.6,-14.6,0,82,4.091,4.077,0,0,0,0,4.037,102.92,138.88479118972,119.094492,6,P-GPS,
156400,2023-11-19 21:37:50,-34.905695322657,-56.1283756830214,119.094492,116.3713948,18.28111278972,138.88479118972,41.338584,15.5243636,1293.47773168,110.771329004,23,5,8.164,147.74305918972,127.95276,15.5243636,1339.55384864,15.434886,-1.565858,0,52.8, -5.5, -16.9,0,0,1684,364,1024,1670,100,-100,0,98,66.8,-14.6,0,82,4.091,4.077,0,0,0,0,4.037,102.92,138.88479118972,119.094492,6,P-GPS,
156500,2023-11-19 21:37:50,-34.9056891046065,-56.1283763873569,119.094492,116.141736,18.51077158972,138.88479118972,41.338584,15.5243636,1293.5203826,113.049872384,23,5,8.177,147.74305918972,127.95276,15.5243636,1339.55384864,15.65858,-1.342164,0,56.3, -5.2, -16.6,0,0,1684,364,1024,1144,100,-100,0,18,71.2,-14.6,0,82,4.091,4.075,0,0,0,0,4.366,102.92,138.88479118972,119.094492,6,P-GPS,
156600,2023-11-19 21:37:50,-34.9056828549771,-56.1283770378727,119.094492,115.9448856,18.70762198972,138.88479118972,41.338584,15.9493822,1293.57943772,115.338258284,23,5,8.177,147.74305918972,127.95276,15.9493822,1339.55384864,15.882274,-1.342164,0,61, -5.4, -16.1,0,0,1684,364,1024,1024,100,-100,0,0,75.5,-14.6,0,82,4.091,4.075,0,0,0,0,4.366,102.92,138.88479118972,119.094492,6,P-GPS,
156700,2023-11-19 21:37:50,-34.9056761054025,-56.1283776352375,119.094492,115.6824184,18.97008918972,138.88479118972,41.338584,16.1507068,1293.6844246,117.807418468,23,5,8.177,147.74305918972,127.95276,16.1507068,1339.55384864,16.105968,-1.11847,0,64.5, -5.9, -15.2,0,0,1684,364,1024,1024,100,-100,0,0,77.5,-14.6,0,82,4.091,4.075,0,0,0,0,4.366,102.92,138.88479118972,119.094492,6,P-GPS,
156800,2023-11-19 21:37:50,-34.9056695511368,-56.1283780922031,119.094492,115.485568,19.16693958972,138.88479118972,41.338584,16.3520314,1293.82550072,120.202759752,23,5,8.177,147.74305918972,127.95276,16.3520314,1339.55384864,16.329662,-0.894776,0,65.8, -6.4, -13.8,0,0,1684,364,1024,1024,100,-100,0,0,78.2,-14.6,0,82,4.091,4.075,0,0,0,0,4.366,102.92,138.88479118972,119.094492,6,P-GPS,
156900,2023-11-19 21:37:50,-34.9056624901516,-56.1283784331724,118.766408,114.8622084,19.46221518972,138.55670718972,41.338584,16.553356,1294.02563196,122.780843824,23,5,8.177,147.74305918972,127.95276,16.553356,1339.55384864,16.553356,-0.447388,0,66.4, -6.5, -13.1,0,0,1684,364,1024,888,100,-100,0,-21,78.4,-14.6,0,82,4.091,4.075,0,0,0,0,4.366,102.92,138.55670718972,118.766408,6,P-GPS,
157000,2023-11-19 21:37:50,-34.9056555274722,-56.1283786878965,118.766408,114.6325496,19.69187398972,138.55670718972,41.338584,16.77705,1294.25529076,125.322182488,23,5,8.177,147.74305918972,127.95276,16.77705,1339.55384864,16.77705,-0.223694,0,66.4, -6.7, -12.9,0,0,1684,364,1024,364,100,-100,0,-100,78.3,-14.6,0,82,4.091,4.075,0,0,0,0,4.366,102.92,138.55670718972,118.766408,6,P-GPS,
157100,2023-11-19 21:37:50,-34.9056485775077,-56.1283786695109,118.766408,114.4028908,19.92153278972,138.55670718972,41.338584,17.000744,1294.56697056,127.857943724,23,5,8.177,147.74305918972,127.95276,17.000744,1339.55384864,17.000744,0,0,65.6, -6.7, -12.9,0,0,1684,364,1002,364,100,-100,-3,-100,76.3,-14.6,0,82,4.091,4.075,0,0,0,0,4.366,102.92,138.55670718972,118.766408,6,P-GPS,
157200,2023-11-19 21:37:50,-34.9056418781933,-56.1283784970206,118.766408,114.1404236,20.18399998972,138.55670718972,41.338584,17.224438,1294.92130128,130.302825692,23,5,8.177,147.74305918972,127.95276,17.224438,1339.55384864,17.224438,0.223694,0,62.5, -6.5, -11.5,0,0,1684,364,1024,364,100,-100,0,-100,72,-14.6,0,82,4.091,4.075,0,0,0,0,4.366,102.92,138.55670718972,118.766408,6,P-GPS,
157300,2023-11-19 21:37:51,-34.9056346817736,-56.1283781443514,118.766408,113.9107648,20.41365878972,138.55670718972,41.338584,17.224438,1295.35437216,132.930450448,23,5,8.177,147.74305918972,127.95276,17.224438,1339.55384864,17.224438,0.447388,0,57.8, -5.7, -12.4,0,0,1684,364,1024,1024,100,-100,0,0,67.3,-14.6,0,82,4.091,4.075,0,0,0,0,4.366,102.92,138.55670718972,118.766408,6,P-GPS,
157400,2023-11-19 21:37:51,-34.9056280817031,-56.1283775459838,118.438324,113.3202136,20.67612598972,138.22862318972,41.338584,17.4705014,1295.83665564,135.345148688,22,5,8.177,147.74305918972,127.95276,17.4705014,1339.55384864,17.448132,0.671082,0,53.2, -5.8, -13.5,0,0,1684,364,1024,1024,100,-100,0,0,63.4,-14.6,0,82,4.091,4.075,0,0,0,0,4.366,102.92,138.22862318972,118.438324,6,P-GPS,
157500,2023-11-19 21:37:51,-34.9056208362998,-56.1283770980438,118.438324,113.0905548,20.90578478972,138.22862318972,41.338584,17.4705014,1296.31237744,137.9921304,22,5,8.17,147.74305918972,127.95276,17.4705014,1339.55384864,17.448132,0.671082,0,50.3, -5.6, -14.3,0,0,1684,364,1024,1024,100,-100,0,0,61.7,-14.6,0,82,4.091,4.08,0,0,0,0,4.364,102.92,138.22862318972,118.438324,6,P-GPS,
157600,2023-11-19 21:37:51,-34.9056138843812,-56.1283766384039,118.438324,112.8280876,21.16825198972,138.22862318972,41.338584,17.6941954,1296.78153756,140.532156728,22,5,8.17,147.74305918972,127.95276,17.6941954,1339.55384864,17.671826,0.671082,0,49.2, -5.9, -15,0,0,1684,364,1024,1024,100,-100,0,0,61.1,-14.6,0,82,4.091,4.08,0,0,0,0,4.364,102.92,138.22862318972,118.438324,6,P-GPS,
157700,2023-11-19 21:37:51,-34.9056065057842,-56.1283760898445,118.11024,112.2703448,21.39791078972,137.90053918972,41.338584,17.9178894,1297.29991028,143.229335292,22,5,8.17,147.74305918972,127.95276,17.9178894,1339.55384864,17.89552,0.671082,0,49.2, -5.9, -14.8,0,0,1684,364,1024,1024,100,-100,0,0,61.1,-14.6,0,82,4.091,4.08,0,0,0,0,4.364,102.92,137.90053918972,118.11024,6,P-GPS,
157800,2023-11-19 21:37:51,-34.9055995586597,-56.1283754249544,118.11024,112.0078776,21.66037798972,137.90053918972,41.338584,18.1415834,1297.84124888,145.771658208,23,5,8.17,147.74305918972,127.95276,18.1415834,1339.55384864,18.119214,0.671082,0.223694,49.2, -6.4, -14.8,0,0,1684,364,1024,1024,100,-100,0,0,61.1,-14.6,0,82,4.091,4.08,0,0,0,0,4.364,102.92,137.90053918972,118.11024,6,P-GPS,
157900,2023-11-19 21:37:51,-34.9055920159156,-56.1283749018006,118.11024,111.712602,21.95565358972,137.90053918972,41.338584,18.3652774,1298.37274496,148.528219976,23,5,8.17,147.74305918972,127.95276,18.3652774,1339.55384864,18.342908,0.671082,0.223694,49, -6.2, -14.6,0,0,1684,364,1024,1024,100,-100,0,0,61.1,-14.6,0,82,4.091,4.08,0,0,0,0,4.364,102.92,137.90053918972,118.11024,6,P-GPS,
158000,2023-11-19 21:37:51,-34.9055847697306,-56.1283744037181,117.782156,111.1548592,22.18531238972,137.57245518972,41.338584,18.3652774,1298.88783684,151.17618594,23,5,8.17,147.74305918972,127.95276,18.3652774,1339.55384864,18.342908,0.671082,0,48.8, -6.1, -14.2,0,0,1684,364,1024,1024,100,-100,0,0,61.1,-14.6,0,82,4.091,4.08,0,0,0,0,4.364,102.92,137.57245518972,117.782156,6,P-GPS,
158100,2023-11-19 21:37:51,-34.90557706977,-56.1283738889214,117.782156,110.8595836,22.48058798972,137.57245518972,41.338584,18.5889714,1299.43573712,153.989834324,23,5,8.17,147.74305918972,127.95276,18.5889714,1339.55384864,18.566602,0.671082,0,49, -6.6, -14.4,0,0,1684,364,997,691,100,-100,-4,-50,61.1,-14.6,0,82,4.091,4.08,0,0,0,0,4.364,102.92,137.57245518972,117.782156,6,P-GPS,
158200,2023-11-19 21:37:51,-34.9055696910687,-56.1283734259386,118.11024,110.9580088,22.71024678972,137.90053918972,41.338584,18.8126654,1299.95739068,156.685372468,23,5,8.17,147.74305918972,127.95276,18.8126654,1339.55384864,18.790296,0.671082,0,48.9, -6.2, -14.4,0,0,1684,364,1003,364,100,-100,-3,-100,61.1,-14.6,0,82,4.091,4.08,0,0,0,0,4.364,102.92,137.90053918972,118.11024,6,P-GPS,
158300,2023-11-19 21:37:52,-34.9055619314419,-56.1283730595638,118.11024,110.6627332,23.00552238972,137.90053918972,41.338584,18.8126654,1300.47904424,159.518705892,23,5,8.17,147.74305918972,127.95276,18.8126654,1339.55384864,18.790296,0.671082,-0.223694,48.5, -5.9, -14,0,0,1684,364,1004,364,100,-100,-3,-100,59.3,-14.6,0,82,4.091,4.08,0,0,0,0,4.364,102.92,137.90053918972,118.11024,6,P-GPS,
