time(millisecond),datetime(utc),latitude,longitude,height_above_takeoff(feet),height_above_ground_at_drone_location(feet),ground_elevation_at_drone_location(feet),altitude_above_seaLevel(feet),height_sonar(feet),speed(mph),distance(feet),mileage(feet),satellites,gpslevel,voltage(v),max_altitude(feet),max_ascent(feet),max_speed(mph),max_distance(feet), xSpeed(mph), ySpeed(mph), zSpeed(mph), compass_heading(degrees), pitch(degrees), roll(degrees),isPhoto,isVideo,rc_elevator,rc_aileron,rc_throttle,rc_rudder,rc_elevator(percent),rc_aileron(percent),rc_throttle(percent),rc_rudder(percent),gimbal_heading(degrees),gimbal_pitch(degrees),gimbal_roll(degrees),battery_percent,voltageCell1,voltageCell2,voltageCell3,voltageCell4,voltageCell5,voltageCell6,current(A),battery_temperature(f),altitude(feet),ascent(feet),flycStateRaw,flycState,message
0,2023-11-19 21:35:13,-34.9060829737505,-56.1326727968473,0,0,19.79029918972,19.79029918972,0.328084,0,0,0,19,5,0,19.79029918972,0,0,0,0,0,0,68.6, -5.3, -0.2,0,0,364,364,364,1684,-100,-100,-100,100,78.9,0,0,91,4.244,4.236,0,0,0,0,0,97.34,19.79029918972,0,41,Motors_Started,"Error de calibración del estabilizador. Reinicia la aeronave o contacta con la Asistencia DJI (Code: 40011)"
100,2023-11-19 21:35:13,-34.9060830298105,-56.1326725750497,0,0,19.79029918972,19.79029918972,0.328084,0,0.069444556028,0.069444556028,19,5,0,19.79029918972,0,0,0.069444556028,0,0,0,68.9, -4.9, 0.2,0,0,364,364,364,1684,-100,-100,-100,100,79.1,0,0,91,4.244,4.236,0,0,0,0,0,97.34,19.79029918972,0,41,Motors_Started,
200,2023-11-19 21:35:13,-34.9060830496563,-56.1326725284206,0,0,19.79029918972,19.79029918972,0.328084,0,0.084956695632,0.085163388552,19,5,0,19.79029918972,0,0,0.084956695632,0,0,0,69.1, -4.5, 0.3,0,0,477,458,364,1581,-83,-86,-100,84,79.3,0,0,91,4.244,4.236,0,0,0,0,0,97.34,19.79029918972,0,41,Motors_Started,
300,2023-11-19 21:35:14,-34.9060830590517,-56.1326724919006,0,0.065616799999999,19.72468238972,19.79029918972,0.328084,0,0.096404858728,0.096615488656,19,5,0,19.79029918972,0,0,0.096404858728,0,0,0,69.5, -4.3, 0.4,0,0,477,458,364,1581,-83,-86,-100,84,79.6,0,0,91,4.244,4.236,0,0,0,0,0,97.34,19.79029918972,0,41,Motors_Started,
400,2023-11-19 21:35:14,-34.9060830636691,-56.1326724751603,0,0.065616799999999,19.72468238972,19.79029918972,0.328084,0,0.101689307716,0.101899937644,19,5,0,19.79029918972,0,0,0.101689307716,0,0,0,70.1, -3.8, 0.6,0,0,1024,1024,969,1024,0,0,-8,0,80.1,0,0,91,4.244,4.236,0,0,0,0,0,97.34,19.79029918972,0,41,Motors_Started,
500,2023-11-19 21:35:14,-34.90608306015,-56.1326724914473,0,0.065616799999999,19.72468238972,19.79029918972,0.328084,0,0.096663060836,0.106939635968,19,5,0,19.79029918972,0,0,0.101689307716,0,0,0,70.4, -2.9, 0.9,0,0,1024,1024,1024,1022,0,0,0,-0,80.6,0,0,91,4.244,4.236,0,0,0,0,0,97.34,19.79029918972,0,41,Motors_Started,
600,2023-11-19 21:35:14,-34.9060829882852,-56.1326725368539,0,0,19.79029918972,19.79029918972,0.328084,0,0.077973099608,0.136470476808,19,5,0,19.79029918972,0,0,0.101689307716,0,0,0,70.3, -2.8, 1.8,0,0,1024,1024,1174,1024,0,0,23,0,80.8,0,0,91,4.244,4.236,0,0,0,0,0,97.34,19.79029918972,0,41,Motors_Started,"Setting new Return-To-Home altitude to 100m (328 ft). Data Recorder File Index is 24. Setting new Maximum Flight Altitude to 120m (394 ft)"
700,2023-11-19 21:35:14,-34.9060830299326,-56.1326725604481,0,0,19.79029918972,19.79029918972,0.328084,0,0.073643046976,0.153225398604,19,5,0,19.79029918972,0,0,0.101689307716,0,0,0,70.2, -1.9, 1.9,0,0,1024,1024,1655,1024,0,0,96,0,80.9,0,0,91,4.244,4.236,0,0,0,0,0,97.34,19.79029918972,0,41,Motors_Started,
800,2023-11-19 21:35:14,-34.9060830795269,-56.1326726025543,0,0,19.79029918972,19.79029918972,0.328084,0,0.069778217456,0.175273627656,19,5,0,19.79029918972,0,0,0.101689307716,0,0,0,70.7, -2.3, 1.8,0,0,1024,1024,1684,1024,0,0,100,0,81,0,0,91,4.244,4.236,0,0,0,0,0,97.34,19.79029918972,0,41,Motors_Started,
900,2023-11-19 21:35:14,-34.9060831346457,-56.132672671073,0,0,19.79029918972,19.79029918972,0.328084,0,0.069729661024,0.203991804428,19,5,0,19.79029918972,0,0,0.101689307716,0,0,0,70.8, -2, 2.4,0,0,1024,1024,1684,1024,0,0,100,0,81.2,0,0,91,4.244,4.236,0,0,0,0,0,97.34,19.79029918972,0,41,Motors_Started,
1000,2023-11-19 21:35:14,-34.9060832633033,-56.1326728548623,0,0,19.79029918972,19.79029918972,0.328084,0,0.107059714712,0.276292987844,19,5,0,19.79029918972,0,0,0.107059714712,0,0,0,71.1, -3.8, 2.3,0,0,1024,1024,1669,1024,0,0,98,0,81.4,0,0,91,4.244,4.236,0,0,0,0,0,97.34,19.79029918972,0,41,Motors_Started,
1100,2023-11-19 21:35:14,-34.9060832471304,-56.1326728418516,0,0,19.79029918972,19.79029918972,0.328084,0,0.100647312932,0.283362213792,19,5,0,19.79029918972,0,0,0.107059714712,0,0,0,71.4, -7.7, -0.2,0,0,1024,1024,1665,1024,0,0,97,0,81.6,0,0,91,4.244,4.236,0,0,0,0,0,97.34,19.79029918972,0,10,Assisted_Takeoff,
1200,2023-11-19 21:35:15,-34.9060832166517,-56.1326728222075,0,0,19.79029918972,19.79029918972,0.328084,0,0.088946525156,0.295940298184,19,5,0,19.79029918972,0,0,0.107059714712,0,0,0,70.9, -5.8, 0.7,0,0,1024,1024,1665,1024,0,0,97,0,81.8,0,0,91,4.244,4.236,0,0,0,0,0,97.34,19.79029918972,0,10,Assisted_Takeoff,
1300,2023-11-19 21:35:15,-34.9060831885773,-56.1326728253187,0,0,19.79029918972,19.79029918972,0.328084,0,0.078840881788,0.3062254035,19,5,0,19.79029918972,0,0,0.107059714712,0,0,0,69.8, -3.7, 0.9,0,0,1024,1024,1663,1024,0,0,97,0,81,0,0,91,4.244,4.236,0,0,0,0,0,97.34,19.79029918972,0,10,Assisted_Takeoff,
1400,2023-11-19 21:35:15,-34.906083070397,-56.1326727627914,0,0,19.79029918972,19.79029918972,0.328084,0,0.0367043975,0.35322835776,19,5,0,19.79029918972,0,0,0.107059714712,0,0,0,70, -4.7, -0.2,0,0,1024,1024,1024,1024,0,0,0,0,80.7,0,0,91,4.244,4.236,0,0,0,0,0,97.34,19.79029918972,0,10,Assisted_Takeoff,
1500,2023-11-19 21:35:15,-34.9060830583702,-56.1326727099081,-0.328084,-0.328084,19.79029918972,19.46221518972,0.328084,0,0.040371392368,0.36964896196,19,5,0,19.79029918972,0,0,0.107059714712,0,0,0,68, -5.3, -2.3,0,0,1024,1024,1024,1024,0,0,0,0,79.3,0,0,91,4.244,4.236,0,0,0,0,0,97.34,19.46221518972,-0.328084,10,Assisted_Takeoff,
1600,2023-11-19 21:35:15,-34.9060830368804,-56.1326726762508,-0.328084,-0.328084,19.79029918972,19.46221518972,0.328084,0,0.04280840032,0.38241142956,19,5,0,19.79029918972,0,0,0.107059714712,0,0,0,66.9, -5.3, -3.7,0,0,1024,1024,1024,1024,0,0,0,0,77.9,0,0,91,4.244,4.236,0,0,0,0,0,97.34,19.46221518972,-0.328084,10,Assisted_Takeoff,
1700,2023-11-19 21:35:15,-34.9060830010823,-56.1326726828907,-0.328084,-0.328084,19.79029918972,19.46221518972,0.328084,0,0.035525263604,0.3956200914,19,5,0,19.79029918972,0,0,0.107059714712,0,0,0,65.7, -4.9, -2.3,0,0,1024,1024,1354,1024,0,0,50,0,76.7,0,0,91,4.244,4.236,0,0,0,0,0,97.34,19.46221518972,-0.328084,10,Assisted_Takeoff,
1800,2023-11-19 21:35:15,-34.9060830364985,-56.1326726595483,-0.328084,-0.328084,19.79029918972,19.46221518972,0.328084,0,0.047029529064,0.41030841208,19,5,8.56,19.79029918972,0,0,0.107059714712,0,0,0,65.6, -6.8, -1.8,0,0,1024,1024,1531,1024,0,0,77,0,76.1,0,0,91,4.244,4.236,0,0,0,0,0.743,97.34,19.46221518972,-0.328084,10,Assisted_Takeoff,
1900,2023-11-19 21:35:15,-34.9060830366703,-56.1326726277393,-0.328084,-0.328084,19.79029918972,19.46221518972,0.328084,0,0.05556266582,0.41982940976,19,5,8.56,19.79029918972,0,0,0.107059714712,0,0,0,65.1, -6.9, -0.5,0,0,1024,1024,1481,1024,0,0,69,0,76,0,0,91,4.244,4.236,0,0,0,0,0.743,97.34,19.46221518972,-0.328084,10,Assisted_Takeoff,
2000,2023-11-19 21:35:15,-34.9060830497166,-56.1326726210537,-0.328084,-0.328084,19.79029918972,19.46221518972,0.328084,0,0.059454726312,0.42499017108,19,5,8.56,19.79029918972,0,0,0.107059714712,0,0,0,64.6, -6.2, -0.2,0,0,1024,1024,1455,1024,0,0,65,0,75.5,0,0,91,4.244,4.236,0,0,0,0,0.743,97.34,19.46221518972,-0.328084,10,Assisted_Takeoff,
2100,2023-11-19 21:35:15,-34.9060830336325,-56.1326726653391,-0.328084,-0.328084,19.79029918972,19.46221518972,0.328084,0,0.045007219288,0.43948164136,19,5,8.56,19.79029918972,0,0,0.107059714712,0,0,0,64.2, -4.8, -1.5,0,0,1024,1024,1455,1024,0,0,65,0,75.2,0,0,91,4.244,4.236,0,0,0,0,0.743,97.34,19.46221518972,-0.328084,10,Assisted_Takeoff,
2200,2023-11-19 21:35:16,-34.9060829897671,-56.1326727014428,0,0,19.79029918972,19.79029918972,0.328084,0,0.0291379274416,0.4587926656,19,5,8.56,19.79029918972,0,0,0.107059714712,0,0,0,61.9, -3.7, -3.3,0,0,1024,1024,1444,1024,0,0,64,0,73.5,0,0,91,4.244,4.236,0,0,0,0,0.743,97.34,19.79029918972,0,10,Assisted_Takeoff,
2300,2023-11-19 21:35:16,-34.9060829728141,-56.1326727513,0,0,19.79029918972,19.79029918972,0.328084,0.223694,0.0136324807512,0.47494096008,19,5,8.56,19.79029918972,0,0.223694,0.107059714712,0.223694,0,-0.223694,59.9, -4, -3.5,0,0,1024,1024,1347,1024,0,0,49,0,71.4,0,0,91,4.244,4.236,0,0,0,0,0.743,97.34,19.79029918972,0,10,Assisted_Takeoff,
2400,2023-11-19 21:35:16,-34.9060827942422,-56.1326727045709,0,0,19.79029918972,19.79029918972,0.328084,0.671082,0.071075461592,0.54157482048,19,5,8.56,19.79029918972,0,0.671082,0.107059714712,0.671082,0,-0.447388,59.2, -2.8, -3,0,0,1024,1024,1187,1024,0,0,25,0,70.3,0,0,91,4.244,4.236,0,0,0,0,0.743,97.34,19.79029918972,0,6,P-GPS,
2500,2023-11-19 21:35:16,-34.9060824846758,-56.1326726018186,0,-0.032808399999999,19.82310758972,19.79029918972,0.656168,0.671082,0.187738194984,0.65863191084,19,5,8.56,19.79029918972,0,0.671082,0.187738194984,0.671082,0,-1.11847,59.6, 0.8, 1.2,0,0,1024,1024,1024,1024,0,0,0,0,70.3,0,0,91,4.244,4.236,0,0,0,0,0.743,97.34,19.79029918972,0,6,P-GPS,
2600,2023-11-19 21:35:16,-34.9060821568896,-56.1326725104817,0,-0.032808399999999,19.82310758972,19.79029918972,0.984252,0.671082,0.310103684464,0.78130579928,19,5,8.56,19.79029918972,0,0.671082,0.310103684464,0.671082,0,-1.565858,59.6, 3.1, 3.3,0,0,1024,1024,1024,1024,0,0,0,0,70.3,0,0,91,4.244,4.236,0,0,0,0,0.743,97.34,19.79029918972,0,6,P-GPS,
2700,2023-11-19 21:35:16,-34.9060816989076,-56.1326724516577,0.328084,0.328084,19.79029918972,20.11838318972,1.312336,0.447388,0.47645670816,0.94932417736,19,5,8.56,20.11838318972,0.328084,0.671082,0.47645670816,0.447388,0,-1.565858,59.8, 3.5, 3.6,0,0,1024,1024,1024,1024,0,0,0,0,70.3,0,0,91,4.244,4.236,0,0,0,0,0.743,97.34,20.11838318972,0.328084,6,P-GPS,
2800,2023-11-19 21:35:16,-34.9060814101007,-56.132672373588,0.656168,0.6233596,19.82310758972,20.44646718972,1.64042,0.447388,0.5843832208,1.05725397084,19,5,8.527,20.44646718972,0.656168,0.671082,0.5843832208,0.447388,0,-1.565858,59.6, 3.2, 2.6,0,0,1024,1024,1024,1024,0,0,0,0,70.3,0,0,91,4.202,4.193,0,0,0,0,1.503,97.34,20.44646718972,0.656168,6,P-GPS,
2900,2023-11-19 21:35:16,-34.906081114727,-56.1326722212063,0.656168,0.6233596,19.82310758972,20.44646718972,1.968504,0.447388,0.69979004864,1.17426841028,19,5,8.527,20.44646718972,0.656168,0.671082,0.69979004864,0.447388,0,-1.11847,59.4, 2.5, 2.2,0,0,1024,1024,1024,1024,0,0,0,0,70.3,0,0,91,4.202,4.193,0,0,0,0,1.503,97.34,20.44646718972,0.656168,6,P-GPS,
3000,2023-11-19 21:35:16,-34.9060808372662,-56.1326720966318,0.984252,0.9514436,19.82310758972,20.77455118972,2.296588,0.223694,0.80715881848,1.28214571032,19,5,8.527,20.77455118972,0.984252,0.671082,0.80715881848,0.223694,0,-0.894776,59.4, 2.5, 2.1,0,0,1024,1024,1024,1024,0,0,0,0,70.3,0,0,91,4.202,4.193,0,0,0,0,1.503,97.34,20.77455118972,0.984252,6,P-GPS,
3100,2023-11-19 21:35:16,-34.9060802771287,-56.1326719267005,0.984252,0.8858268,19.88872438972,20.77455118972,2.296588,0.223694,1.01772641052,1.49273954908,19,5,8.527,20.77455118972,0.984252,0.671082,1.01772641052,0.223694,0,-0.447388,59.6, 2, 2.7,0,0,1024,1024,1024,1024,0,0,0,0,70.3,0,0,91,4.202,4.193,0,0,0,0,1.503,97.34,20.77455118972,0.984252,6,P-GPS,
3200,2023-11-19 21:35:17,-34.9060800346232,-56.1326718530212,0.984252,0.8858268,19.88872438972,20.77455118972,2.624672,0.223694,1.10890095412,1.5839239352,19,5,8.527,20.77455118972,0.984252,0.671082,1.10890095412,0.223694,0,0,59.8, 2.2, 2.6,0,0,1024,1024,1024,1024,0,0,0,0,70.3,0,0,91,4.202,4.193,0,0,0,0,1.503,97.34,20.77455118972,0.984252,6,P-GPS,
3300,2023-11-19 21:35:17,-34.9060799042052,-56.1326717590096,0.984252,0.8858268,19.88872438972,20.77455118972,2.624672,0.223694,1.16217523404,1.63919952752,19,5,8.527,20.77455118972,0.984252,0.671082,1.16217523404,0.223694,0,0,59.8, 2.9, 2.5,0,0,1024,1024,1024,1024,0,0,0,0,70.3,0,0,91,4.202,4.193,0,0,0,0,1.503,97.34,20.77455118972,0.984252,6,P-GPS,
3400,2023-11-19 21:35:17,-34.9060798080814,-56.1326716668923,0.984252,0.8858268,19.88872438972,20.77455118972,2.624672,0.223694,1.20345804376,1.68380582816,19,5,8.527,20.77455118972,0.984252,0.671082,1.20345804376,0.223694,0,0,59.7, 3.3, 2,0,0,1024,1024,1024,1024,0,0,0,0,70.3,0,0,91,4.202,4.193,0,0,0,0,1.503,97.34,20.77455118972,0.984252,6,P-GPS,
3500,2023-11-19 21:35:17,-34.9060799605469,-56.1326715438047,0.984252,0.8858268,19.88872438972,20.77455118972,2.624672,0.223694,1.16153875108,1.75051842872,19,5,8.527,20.77455118972,0.984252,0.671082,1.20345804376,0.223694,0,0,59.6, 3.4, 2,0,0,1024,1024,1024,1024,0,0,0,0,70.3,0,0,91,4.202,4.193,0,0,0,0,1.503,97.34,20.77455118972,0.984252,6,P-GPS,
3600,2023-11-19 21:35:17,-34.9060799109885,-56.1326714811219,0.984252,0.9514436,19.82310758972,20.77455118972,2.624672,0,1.18476709828,1.77657157916,19,5,8.527,20.77455118972,0.984252,0.671082,1.20345804376,0,0,0,59.6, 3.7, 2.2,0,0,1024,1024,1024,1024,0,0,0,0,70.3,0,0,91,4.202,4.193,0,0,0,0,1.503,97.34,20.77455118972,0.984252,6,P-GPS,"Punto de origen actualizado. Altitud de RPO establecida en 100m (Code: 3000001)"
3700,2023-11-19 21:35:17,-34.9060799008881,-56.1326714683696,0.984252,0.9514436,19.82310758972,20.77455118972,2.624672,0,1.18951119292,1.78187669744,19,5,8.527,20.77455118972,0.984252,0.671082,1.20345804376,0,0,0,59.7, 3.3, 2,0,0,1056,1366,1024,1024,5,52,0,0,70.3,0,0,91,4.202,4.193,0,0,0,0,1.503,97.34,20.77455118972,0.984252,6,P-GPS,
3800,2023-11-19 21:35:17,-34.9060799185038,-56.1326715075984,0.984252,0.8858268,19.88872438972,20.77455118972,2.624672,0,1.17956696688,1.79525596296,19,5,8.478,20.77455118972,0.984252,0.671082,1.20345804376,0,0,0,59.7, 2.7, 1.7,0,0,1024,1489,1024,1024,0,70,0,0,70.3,0,0,91,4.222,4.211,0,0,0,0,2.934,97.34,20.77455118972,0.984252,6,P-GPS,
3900,2023-11-19 21:35:17,-34.9060799699365,-56.1326716556925,0.984252,0.8858268,19.88872438972,20.77455118972,2.624672,0,1.14789701836,1.84337932408,19,5,8.478,20.77455118972,0.984252,0.671082,1.20345804376,0,0,0,60, 2.3, 7.2,0,0,1024,1380,1024,1024,0,54,0,0,70.3,0,0,91,4.222,4.211,0,0,0,0,2.934,97.34,20.77455118972,0.984252,6,P-GPS,
4000,2023-11-19 21:35:17,-34.9060802572128,-56.1326720389653,0.984252,0.8858268,19.88872438972,20.77455118972,2.624672,0,1.01673887768,1.99874022144,19,5,8.478,20.77455118972,0.984252,0.671082,1.20345804376,-0.223694,0,0,60.4, 1.9, 12.9,0,0,1024,1024,1024,1024,0,0,0,0,70.3,0,0,91,4.222,4.211,0,0,0,0,2.934,97.34,20.77455118972,0.984252,6,P-GPS,
4100,2023-11-19 21:35:17,-34.9060804946163,-56.1326720385247,0.984252,0.8858268,19.88872438972,20.77455118972,2.624672,0.7158208,0.93253611908,2.08535439744,19,5,8.478,20.77455118972,0.984252,0.7158208,1.20345804376,-0.671082,0.223694,0,60, 1.9, 10.3,0,0,1024,1024,1024,1024,0,0,0,0,70.3,0,0,91,4.222,4.211,0,0,0,0,2.934,97.34,20.77455118972,0.984252,6,P-GPS,
4200,2023-11-19 21:35:17,-34.9060808469839,-56.1326719628313,0.984252,0.9514436,19.82310758972,20.77455118972,2.624672,0.7158208,0.81508860876,2.2158957402,19,5,8.478,20.77455118972,0.984252,0.7158208,1.20345804376,-0.671082,0.223694,0,59.3, 1.1, -1.3,0,0,1024,1024,1024,1024,0,0,0,0,70.3,0,0,91,4.222,4.211,0,0,0,0,2.934,97.34,20.77455118972,0.984252,6,P-GPS,
4300,2023-11-19 21:35:18,-34.9060812475038,-56.1326718696477,0.984252,0.9514436,19.82310758972,20.77455118972,2.624672,0.7158208,0.68821524512,2.36466214916,19,5,8.478,20.77455118972,0.984252,0.7158208,1.20345804376,-0.671082,0.223694,0,59.6, 0.8, -2.9,0,0,1024,1024,1024,1024,0,0,0,0,70.3,0,0,91,4.222,4.211,0,0,0,0,2.934,97.34,20.77455118972,0.984252,6,P-GPS,
4400,2023-11-19 21:35:18,-34.906081605334,-56.132671926124,1.312336,1.312336,19.79029918972,21.10263518972,2.624672,0.4921268,0.56315290516,2.49630585416,19,5,8.478,21.10263518972,1.312336,0.7158208,1.20345804376,-0.447388,0.223694,0,59.7, 0.5, -2.9,0,0,1188,1024,1159,1024,25,0,20,0,70.3,0,0,91,4.222,4.211,0,0,0,0,2.934,97.34,21.10263518972,1.312336,6,P-GPS,
4500,2023-11-19 21:35:18,-34.9060818667677,-56.1326718132868,1.312336,1.312336,19.79029918972,21.10263518972,2.624672,0.4921268,0.49972770628,2.59748695976,19,5,8.478,21.10263518972,1.312336,0.7158208,1.20345804376,-0.447388,0.223694,0,59.7, 0.7, -1.7,0,0,1557,1024,1345,1024,81,0,49,0,70.3,0,0,91,4.222,4.211,0,0,0,0,2.934,97.34,21.10263518972,1.312336,6,P-GPS,
4600,2023-11-19 21:35:18,-34.9060820728823,-56.1326717274223,1.312336,1.312336,19.79029918972,21.10263518972,2.624672,0.3131716,0.45871720628,2.67695546624,19,5,8.478,21.10263518972,1.312336,0.7158208,1.20345804376,-0.223694,0.223694,-0.223694,59.8, -2.3, -0.9,0,0,1684,1024,1338,1024,100,0,48,0,70.3,0,0,91,4.222,4.211,0,0,0,0,2.934,97.34,21.10263518972,1.312336,6,P-GPS,
4700,2023-11-19 21:35:18,-34.9060822495692,-56.1326716184373,1.312336,1.312336,19.79029918972,21.10263518972,2.624672,0.447388,0.44060368864,2.74919956304,19,5,8.478,21.10263518972,1.312336,0.7158208,1.20345804376,0,0.447388,-0.671082,59.8, -9.4, 0,0,0,1676,1024,1402,1024,99,0,57,0,70.3,0,0,91,4.222,4.211,0,0,0,0,2.934,97.34,21.10263518972,1.312336,6,P-GPS,
4800,2023-11-19 21:35:18,-34.9060823979848,-56.1326712095402,1.64042,1.7060368,19.72468238972,21.43071918972,2.952756,0.9171454,0.51932088276,2.88299221824,19,5,8.442,21.43071918972,1.64042,0.9171454,1.20345804376,0.223694,0.894776,-1.342164,59.8, -13.6, 0.8,0,0,1669,1024,1665,1024,98,0,97,0,70.3,0,0,91,4.216,4.202,0,0,0,0,3.943,97.34,21.43071918972,1.64042,6,P-GPS,
4900,2023-11-19 21:35:18,-34.906082206036,-56.1326705856095,1.968504,2.0341208,19.72468238972,21.75880318972,3.28084,1.7000744,0.7184711516,3.0823819884,19,5,8.442,21.75880318972,1.968504,1.7000744,1.20345804376,0.671082,1.565858,-1.789552,59.7, -13.5, 1.2,0,0,1638,1024,1684,1024,93,0,100,0,70.3,0,0,91,4.216,4.202,0,0,0,0,3.943,97.34,21.75880318972,1.968504,6,P-GPS,
5000,2023-11-19 21:35:18,-34.9060818513992,-56.1326697173298,2.296588,2.4278216,19.65906558972,22.08688718972,3.608924,2.3040482,1.00831368056,3.3726050948,19,5,8.442,22.08688718972,2.296588,2.3040482,1.20345804376,1.11847,2.013246,-2.460634,59.6, -12, 1.1,0,0,1638,1024,1684,1024,93,0,100,0,70.3,0,0,91,4.216,4.202,0,0,0,0,3.943,97.34,22.08688718972,2.296588,6,P-GPS,
5100,2023-11-19 21:35:18,-34.906081251465,-56.1326685588086,2.624672,2.7559056,19.65906558972,22.41497118972,3.937008,2.9974996,1.41521658072,3.7825788612,19,5,8.442,22.41497118972,2.624672,2.9974996,1.41521658072,1.342164,2.684328,-3.35541,59.6, -10.6, 1,0,0,1633,1024,1684,1024,92,0,100,0,70.3,0,0,91,4.216,4.202,0,0,0,0,3.943,97.34,22.41497118972,2.624672,6,P-GPS,
5200,2023-11-19 21:35:18,-34.9060800583537,-56.1326668144553,3.28084,3.444882,19.62625718972,23.07113918972,4.593176,3.7133204,2.08218182516,4.4622048672,19,5,8.442,23.07113918972,3.28084,3.7133204,2.08218182516,1.565858,3.35541,-4.026492,59.7, -9.3, 0.8,0,0,1656,1024,1684,1024,96,0,100,0,70.3,0,0,91,4.216,4.202,0,0,0,0,3.943,97.34,23.07113918972,3.28084,6,P-GPS,
5300,2023-11-19 21:35:19,-34.9060792486246,-56.1326649664273,3.937008,4.1666668,19.56064038972,23.72730718972,5.249344,4.2949248,2.70860572972,5.0891405828,19,5,8.442,23.72730718972,3.937008,4.2949248,2.70860572972,2.013246,3.802798,-4.921268,59.8, -8.8, 0.7,0,0,1684,1024,1684,1024,100,0,100,0,70.3,0,0,91,4.216,4.202,0,0,0,0,3.943,97.34,23.72730718972,3.937008,6,P-GPS,
5400,2023-11-19 21:35:19,-34.9060783891917,-56.1326629849398,4.593176,4.8556432,19.52783198972,24.38347518972,6.233596,4.809421,3.3788714992,5.759842704,19,5,8.442,24.38347518972,4.593176,4.809421,3.3788714992,2.23694,4.250186,-5.59235,59.8, -8.7, 0.8,0,0,1684,1024,1684,1024,100,0,100,0,70.3,0,0,91,4.216,4.202,0,0,0,0,3.943,97.34,24.38347518972,4.593176,6,P-GPS,
5500,2023-11-19 21:35:19,-34.9060774159676,-56.1326606466529,5.577428,5.905512,19.46221518972,25.36772718972,7.217848,5.3015478,4.162729792,6.5444227816,19,5,8.442,25.36772718972,5.577428,5.3015478,4.162729792,2.460634,4.697574,-6.039738,59.8, -9.6, 0.5,0,0,1667,1024,1684,1024,97,0,100,0,70.3,0,0,91,4.216,4.202,0,0,0,0,3.943,97.34,25.36772718972,5.577428,6,P-GPS,
5600,2023-11-19 21:35:19,-34.9060763903675,-56.1326582539241,6.233596,6.6601052,19.36378998972,26.02389518972,8.2021,5.6147194,4.970308558,7.3522312064,19,5,8.442,26.02389518972,6.233596,5.6147194,4.970308558,2.684328,4.921268,-6.487126,59.8, -10.1, 0.5,0,0,1540,1024,1684,1024,78,0,100,0,70.3,0,0,91,4.216,4.202,0,0,0,0,3.943,97.34,26.02389518972,6.233596,6,P-GPS,
5700,2023-11-19 21:35:19,-34.9060748632487,-56.1326552222175,7.217848,7.7755908,19.23255638972,27.00814718972,9.186352,6.1068462,6.0339240776,8.4167981696,19,5,8.442,27.00814718972,7.217848,6.1068462,6.0339240776,2.908022,5.368656,-6.487126,59.7, -9.7, 0.5,0,0,1024,1024,1684,1024,0,0,100,0,70.3,0,0,91,4.216,4.202,0,0,0,0,3.943,97.34,27.00814718972,7.217848,6,P-GPS,
5800,2023-11-19 21:35:19,-34.9060736193946,-56.1326525684302,8.2021,8.8254596,19.16693958972,27.99239918972,10.170604,6.4200178,6.948491036,9.331365128,19,5,8.421,27.99239918972,8.2021,6.4200178,6.948491036,3.131716,5.59235,-6.487126,59.6, -6.7, 0.4,0,0,1024,1024,1684,1024,0,0,100,0,70.3,0,0,91,4.183,4.169,0,0,0,0,4.143,97.34,27.99239918972,8.2021,6,P-GPS,
5900,2023-11-19 21:35:19,-34.9060722696192,-56.1326497285201,9.186352,9.84252,19.13413118972,28.97665118972,11.154856,6.598973,7.9305448732,10.313484582,19,5,8.421,28.97665118972,9.186352,6.598973,7.9305448732,3.131716,5.816044,-6.71082,59.4, 2.4, 0.1,0,0,1024,1024,1684,1024,0,0,100,0,70.3,0,0,91,4.183,4.169,0,0,0,0,4.143,97.34,28.97665118972,9.186352,6,P-GPS,
6000,2023-11-19 21:35:19,-34.9060709964857,-56.132647105077,10.170604,10.9580056,19.00289758972,29.96090318972,12.139108,6.1068462,8.8424871596,11.2255909104,19,5,8.421,29.96090318972,10.170604,6.598973,8.8424871596,2.908022,5.368656,-6.487126,59.2, 20.1, 0,0,0,1024,1024,1684,1024,0,0,100,0,70.3,0,0,91,4.183,4.169,0,0,0,0,4.143,97.34,29.96090318972,10.170604,6,P-GPS,
6100,2023-11-19 21:35:19,-34.9060696416465,-56.1326448459441,11.154856,12.0078744,18.93728078972,30.94515518972,13.451444,5.2120702,9.674869076,12.062992512,19,5,8.421,30.94515518972,11.154856,6.598973,9.674869076,2.684328,4.47388,-6.487126,59.3, 20, 0,0,0,1024,1024,1684,1024,0,0,100,0,70.3,0,0,91,4.183,4.169,0,0,0,0,4.143,97.34,30.94515518972,11.154856,6,P-GPS,
6200,2023-11-19 21:35:20,-34.906068649289,-56.1326429657687,11.811024,12.7296592,18.87166398972,31.60132318972,14.435696,4.4067718,10.3432418008,12.7320214048,19,5,8.421,31.60132318972,11.811024,6.598973,10.3432418008,2.23694,3.802798,-6.487126,59.2, 19.8, 0.6,0,0,1024,1024,1684,1024,0,0,100,0,70.3,0,0,91,4.183,4.169,0,0,0,0,4.143,97.34,31.60132318972,11.811024,6,P-GPS,
6300,2023-11-19 21:35:20,-34.9060677804116,-56.1326414676011,12.795276,13.7467196,18.83885558972,32.58557518972,15.748032,3.5119958,10.8903546792,13.2810371704,19,5,8.421,32.58557518972,12.795276,6.598973,10.8903546792,1.565858,3.131716,-6.487126,59.1, 19.7, 0.6,0,0,1024,1024,1684,1024,0,0,100,0,70.3,0,0,91,4.183,4.169,0,0,0,0,4.143,97.34,32.58557518972,12.795276,6,P-GPS,
6400,2023-11-19 21:35:20,-34.906067173059,-56.1326403635382,13.779528,14.76378,18.80604718972,33.56982718972,16.732284,2.5053728,11.2875331696,13.6788390204,19,5,8.421,33.56982718972,13.779528,6.598973,11.2875331696,1.11847,2.23694,-6.487126,59, 19.1, 0,0,0,1024,1024,1684,1024,0,0,100,0,70.3,0,0,91,4.183,4.169,0,0,0,0,4.143,97.34,33.56982718972,13.779528,6,P-GPS,
6500,2023-11-19 21:35:20,-34.9060670341714,-56.1326400674647,14.76378,15.748032,18.80604718972,34.55407918972,17.716536,1.8119214,11.3895672936,13.7808731444,19,5,8.421,34.55407918972,14.76378,6.598973,11.3895672936,0.894776,1.565858,-6.487126,59, 15.3, 0,0,0,1024,1024,1684,1024,0,0,100,0,70.3,0,0,91,4.183,4.169,0,0,0,0,4.143,97.34,34.55407918972,14.76378,6,P-GPS,
6600,2023-11-19 21:35:20,-34.9060668890917,-56.1326396080233,15.748032,16.732284,18.80604718972,35.53833118972,19.028872,1.2079476,11.5348428888,13.9281828604,19,5,8.421,35.53833118972,15.748032,6.598973,11.5348428888,0.447388,1.11847,-6.487126,59.1, 12.2, 0.1,0,0,1024,1024,1684,1024,0,0,100,0,70.3,0,0,91,4.183,4.169,0,0,0,0,4.143,97.34,35.53833118972,15.748032,6,P-GPS,
6700,2023-11-19 21:35:20,-34.906066920697,-56.1326395672668,16.732284,17.716536,18.80604718972,36.52258318972,20.013124,0.7158208,11.5394688732,13.9449807612,19,5,8.421,36.52258318972,16.732284,6.598973,11.5394688732,0.223694,0.671082,-6.487126,59.1, 9, 0,0,0,1024,1024,1684,1024,0,0,100,0,70.3,0,0,91,4.183,4.169,0,0,0,0,4.143,97.34,36.52258318972,16.732284,6,P-GPS,
6800,2023-11-19 21:35:20,-34.9060670457997,-56.1326396764757,17.716536,18.700788,18.80604718972,37.50683518972,20.669292,0.447388,11.488189344,14.0011159336,19,5,8.421,37.50683518972,17.716536,6.598973,11.5394688732,0,0.447388,-6.487126,59.1, 6.8, -0.4,0,0,1024,1024,1684,1012,0,0,100,-2,70.3,0,0,91,4.183,4.169,0,0,0,0,4.143,97.34,37.50683518972,17.716536,6,P-GPS,
6900,2023-11-19 21:35:20,-34.9060679242895,-56.1326409586204,18.700788,19.6522316,18.83885558972,38.49108718972,21.653544,0.223694,10.995407176,14.5010175244,19,5,8.421,38.49108718972,18.700788,6.598973,11.5394688732,0,0.223694,-6.487126,58.9, 5.6, -0.9,0,0,1024,1024,1684,1006,0,0,100,-3,70.3,0,0,91,4.183,4.169,0,0,0,0,4.143,97.34,38.49108718972,18.700788,6,P-GPS,
7000,2023-11-19 21:35:20,-34.906068150848,-56.1326412285021,19.68504,20.6364836,18.83885558972,39.47533918972,22.637796,0.223694,10.8842195084,14.6165687092,19,5,8.357,39.47533918972,19.68504,6.598973,11.5394688732,0,0.223694,-6.487126,58.9, 4.3, -0.4,0,0,1024,1024,1684,1006,0,0,100,-3,70.3,0,0,91,4.185,4.171,0,0,0,0,5.398,97.34,39.47533918972,19.68504,6,P-GPS,
7100,2023-11-19 21:35:20,-34.9060683623979,-56.1326415201541,20.669292,21.5879272,18.87166398972,40.45959118972,23.622048,0.223694,10.77017751,14.7330713376,19,5,8.357,40.45959118972,20.669292,6.598973,11.5394688732,0,0.223694,-6.487126,58.8, 3.8, 0,0,0,1024,1024,1684,1006,0,0,100,-3,70.3,0,0,91,4.185,4.171,0,0,0,0,5.398,97.34,40.45959118972,20.669292,6,P-GPS,
7200,2023-11-19 21:35:21,-34.906068572836,-56.1326417868001,21.653544,22.6049876,18.83885558972,41.44384318972,24.278216,0.223694,10.662894042,14.8437996876,19,5,8.357,41.44384318972,21.653544,6.598973,11.5394688732,0,0.223694,-6.487126,58.8, 3.6, -0.1,0,0,1024,1024,1684,1006,0,0,100,-3,70.3,0,0,91,4.185,4.171,0,0,0,0,5.398,97.34,41.44384318972,21.653544,6,P-GPS,
7300,2023-11-19 21:35:21,-34.906068783416,-56.1326419630146,22.637796,23.5892396,18.83885558972,42.42809518972,25.262468,0.223694,10.579232622,14.9369755436,19,5,8.357,42.42809518972,22.637796,6.598973,11.5394688732,0,0.223694,-6.487126,58.7, 3.5, -0.2,0,0,1024,1024,1684,1006,0,0,100,-3,70.3,0,0,91,4.185,4.171,0,0,0,0,5.398,97.34,42.42809518972,22.637796,6,P-GPS,
7400,2023-11-19 21:35:21,-34.906069124868,-56.1326422034089,23.622048,24.5734916,18.83885558972,43.41234718972,26.24672,0.223694,10.4557746128,15.0808403776,19,5,8.357,43.41234718972,23.622048,6.598973,11.5394688732,0,0.223694,-6.487126,58.7, 4, -0.4,0,0,1171,1024,1684,1005,22,0,100,-3,70.3,0,0,91,4.185,4.171,0,0,0,0,5.398,97.34,43.41234718972,23.622048,6,P-GPS,
7500,2023-11-19 21:35:21,-34.9060692463436,-56.1326422190915,24.6063,25.5577436,18.83885558972,44.39659918972,27.230972,0.223694,10.4303152944,15.1253941848,19,5,8.357,44.39659918972,24.6063,6.598973,11.5394688732,0,0.223694,-6.487126,58.6, 4.6, -0.7,0,0,1684,1024,1684,1003,100,0,100,-3,70.3,0,0,91,4.185,4.171,0,0,0,0,5.398,97.34,44.39659918972,24.6063,6,P-GPS,
7600,2023-11-19 21:35:21,-34.9060693419721,-56.1326422184987,25.590552,26.5419956,18.83885558972,45.38085118972,27.88714,0.223694,10.4137798608,15.1603023224,18,5,8.357,45.38085118972,25.590552,6.598973,11.5394688732,0,0.223694,-6.487126,58.7, 1.2, -0.7,0,0,1684,1024,1684,1004,100,0,100,-3,70.3,0,0,91,4.185,4.171,0,0,0,0,5.398,97.34,45.38085118972,25.590552,6,P-GPS,
7700,2023-11-19 21:35:21,-34.9060693614204,-56.1326421114548,26.574804,27.5262476,18.83885558972,46.36510318972,28.543308,0.447388,10.4385502028,15.1931107224,18,5,8.357,46.36510318972,26.574804,6.598973,11.5394688732,0,0.447388,-6.487126,58.8, -9, -0.7,0,0,1684,1024,1684,1005,100,0,100,-3,70.3,0,0,91,4.185,4.171,0,0,0,0,5.398,97.34,46.36510318972,26.574804,6,P-GPS,
7800,2023-11-19 21:35:21,-34.9060690002183,-56.132641203329,27.559056,28.5761164,18.77323878972,47.34935518972,29.52756,1.006623,10.7402562492,15.495079236,18,5,8.357,47.34935518972,27.559056,6.598973,11.5394688732,0.447388,0.894776,-6.71082,58.7, -12.8, -0.3,0,0,1684,1024,1684,1004,100,0,100,-3,70.3,0,0,91,4.185,4.171,0,0,0,0,5.398,97.34,47.34935518972,27.559056,6,P-GPS,
7900,2023-11-19 21:35:21,-34.9060687930218,-56.1326406542839,28.871392,29.8884524,18.77323878972,48.66169118972,30.511812,1.7000744,10.9207352576,15.6759191368,18,5,8.357,48.66169118972,28.871392,6.598973,11.5394688732,0.671082,1.565858,-6.71082,58.6, -12.6, 0,0,0,1684,1024,1684,1004,100,0,100,-3,70.3,0,0,91,4.185,4.171,0,0,0,0,5.398,97.34,48.66169118972,28.871392,6,P-GPS,
8000,2023-11-19 21:35:21,-34.9060684628171,-56.1326398834207,29.855644,30.8727044,18.77323878972,49.64594318972,31.496064,2.3040482,11.180938678,15.9361553656,19,5,8.363,49.64594318972,29.855644,6.598973,11.5394688732,1.11847,2.013246,-6.71082,58.5, -12.4, -0.1,0,0,1684,1024,1684,1003,100,0,100,-3,70.3,0,0,91,4.188,4.171,0,0,0,0,5.196,97.52,49.64594318972,29.855644,6,P-GPS,
8100,2023-11-19 21:35:21,-34.9060679648955,-56.1326388334256,30.839896,31.9225732,18.70762198972,50.63019518972,30.511812,2.796175,11.5436683484,16.299049078,19,5,8.363,50.63019518972,30.839896,6.598973,11.5436683484,1.342164,2.460634,-6.71082,58.6, -12, 0,0,0,1684,1024,1684,1004,100,0,100,-3,70.3,0,0,91,4.188,4.171,0,0,0,0,5.196,97.52,50.63019518972,30.839896,6,P-GPS,
8200,2023-11-19 21:35:22,-34.906067176096,-56.1326372516374,31.496064,32.644358,18.64200518972,51.28636318972,31.16798,3.6014734,12.0968835892,16.8529861036,19,5,8.363,51.28636318972,31.496064,6.598973,12.0968835892,1.789552,3.131716,-6.487126,58.6, -11.7, -0.4,0,0,1684,1024,1684,1004,100,0,100,-3,70.3,0,0,91,4.188,4.171,0,0,0,0,5.196,97.52,51.28636318972,31.496064,6,P-GPS,
8300,2023-11-19 21:35:22,-34.9060664431264,-56.1326355591414,32.480316,33.62861,18.64200518972,52.27061518972,32.152232,4.1159696,12.6695214028,17.4256567256,19,5,8.363,52.27061518972,32.480316,6.598973,12.6695214028,2.013246,3.579104,-6.487126,58.6, -11.9, -0.6,0,0,1684,1024,1684,1004,100,0,100,-3,70.3,0,0,91,4.188,4.171,0,0,0,0,5.196,97.52,52.27061518972,32.480316,6,P-GPS,
8400,2023-11-19 21:35:22,-34.9060656203177,-56.1326337386695,33.464568,34.7112872,18.54357998972,53.25486718972,33.136484,4.6080964,13.2914702416,18.0476055644,19,5,8.363,53.25486718972,33.464568,6.598973,13.2914702416,2.23694,4.026492,-6.487126,58.5, -11.9, -0.6,0,0,1684,1024,1684,1004,100,0,100,-3,70.3,0,0,91,4.188,4.171,0,0,0,0,5.196,97.52,53.25486718972,33.464568,6,P-GPS,
8500,2023-11-19 21:35:22,-34.9060645886479,-56.1326315973586,34.44882,35.761156,18.47796318972,54.23911918972,34.120736,5.1002232,14.034121184,18.790683016,19,5,8.363,54.23911918972,34.44882,6.598973,14.034121184,2.460634,4.47388,-6.487126,58.6, -11.8, -0.3,0,0,1684,1024,1684,1004,100,0,100,-3,70.3,0,0,91,4.188,4.171,0,0,0,0,5.196,97.52,54.23911918972,34.44882,6,P-GPS,
8600,2023-11-19 21:35:22,-34.9060629788471,-56.1326283780406,35.433072,36.8766416,18.34672958972,55.22337118972,35.104988,5.6147194,15.1610569156,19.9188982752,19,5,8.363,55.22337118972,35.433072,6.598973,15.1610569156,2.684328,4.921268,-6.487126,58.5, -11.7, -0.3,0,0,1684,1024,1684,1004,100,0,100,-3,70.3,0,0,91,4.188,4.171,0,0,0,0,5.196,97.52,55.22337118972,35.433072,6,P-GPS,
8700,2023-11-19 21:35:22,-34.906061653858,-56.132625722369,36.417324,37.9265104,18.28111278972,56.20762318972,36.08924,6.0173686,16.0902892288,20.8489836068,19,5,8.363,56.20762318972,36.417324,6.598973,16.0902892288,3.131716,5.144962,-6.487126,58.5, -11.4, -0.2,0,0,1684,1024,1684,1004,100,0,100,-3,70.3,0,0,91,4.188,4.171,0,0,0,0,5.196,97.52,56.20762318972,36.417324,6,P-GPS,
8800,2023-11-19 21:35:22,-34.90606033141,-56.1326230736731,37.401576,38.9763792,18.21549598972,57.19187518972,37.073492,6.5318648,17.0173233792,21.7768379672,19,5,8.363,57.19187518972,37.401576,6.598973,17.0173233792,3.35541,5.59235,-6.487126,58.4, -11.3, -0.3,0,0,1684,1024,1684,1004,100,0,100,-3,70.3,0,0,91,4.188,4.171,0,0,0,0,5.196,97.52,57.19187518972,37.401576,6,P-GPS,
8900,2023-11-19 21:35:22,-34.9060589183367,-56.1326202560124,38.385828,40.0918648,18.08426238972,58.17612718972,38.057744,7.0239916,18.0047249856,22.7650597836,19,5,8.363,58.17612718972,38.385828,7.0239916,18.0047249856,3.579104,6.039738,-6.487126,58.4, -11.2, -0.9,0,0,1684,1024,1684,1004,100,0,100,-3,70.3,0,0,91,4.188,4.171,0,0,0,0,5.196,97.52,58.17612718972,38.385828,6,P-GPS,
9000,2023-11-19 21:35:22,-34.9060575029697,-56.1326174442748,39.37008,41.2073504,17.95302878972,59.16037918972,39.041996,7.3371632,18.9910767232,23.7521989228,19,5,8.352,59.16037918972,39.37008,7.3371632,18.9910767232,3.802798,6.263432,-6.487126,58.3, -11, -0.8,0,0,1684,1024,1684,1004,100,0,100,-3,70.3,0,0,91,4.183,4.166,0,0,0,0,5.306,97.52,59.16037918972,39.37008,6,P-GPS,
9100,2023-11-19 21:35:22,-34.9060560021566,-56.1326147461258,40.354332,42.2244108,17.92022038972,60.14463118972,40.026248,7.82929,19.963255232,24.72769108,19,5,8.352,60.14463118972,40.354332,7.82929,19.963255232,4.026492,6.71082,-6.487126,58.5, -11.2, -0.6,0,0,1684,1024,1684,1004,100,0,100,-3,70.3,0,0,91,4.183,4.166,0,0,0,0,5.306,97.52,60.14463118972,40.354332,6,P-GPS,
9200,2023-11-19 21:35:23,-34.906054450681,-56.1326116839785,41.338584,43.2742796,17.85460358972,61.12888318972,41.0105,8.2095698,21.0394691772,25.8046596184,19,5,8.352,61.12888318972,41.338584,8.2095698,21.0394691772,4.026492,7.158208,-6.487126,58.6, -11.2, 0,0,0,1684,1024,1684,1004,100,0,100,-3,70.3,0,0,91,4.183,4.166,0,0,0,0,5.306,97.52,61.12888318972,41.338584,6,P-GPS,
9300,2023-11-19 21:35:23,-34.9060527291031,-56.1326082511943,42.65092,44.783466,17.65775318972,62.44121918972,41.338584,8.5227414,22.2428812892,27.0086294732,19,5,8.352,62.44121918972,42.65092,8.5227414,22.2428812892,4.250186,7.381902,-6.487126,58.3, -10.5, -1.1,0,0,1684,1024,1684,1004,100,0,100,-3,70.3,0,0,91,4.183,4.166,0,0,0,0,5.306,97.52,62.44121918972,42.65092,6,P-GPS,
9400,2023-11-19 21:35:23,-34.906051018364,-56.1326048603208,43.635172,45.8661432,17.55932798972,63.42547118972,41.338584,8.5227414,23.4334981252,28.199804052,19,5,8.352,63.42547118972,43.635172,8.5227414,23.4334981252,4.47388,7.82929,-6.487126,58.3, -10.1, -1.9,0,0,1684,1024,1684,1005,100,0,100,-3,70.3,0,0,91,4.183,4.166,0,0,0,0,5.306,97.52,63.42547118972,43.635172,6,P-GPS,
9500,2023-11-19 21:35:23,-34.9060490445743,-56.1326015497538,44.619424,46.9488204,17.46090278972,64.40972318972,41.338584,9.3280398,24.6513787416,29.4244760072,19,5,8.352,64.40972318972,44.619424,9.3280398,24.6513787416,4.697574,8.052984,-6.487126,58.4, -10, -1.9,0,0,1684,1024,1684,1004,100,0,100,-3,70.3,0,0,91,4.183,4.166,0,0,0,0,5.306,97.52,64.40972318972,44.619424,6,P-GPS,
9600,2023-11-19 21:35:23,-34.9060471636547,-56.1325979586811,45.603676,48.064306,17.32966918972,65.39397518972,41.338584,9.4398868,25.9252304884,30.6994104312,19,5,8.352,65.39397518972,45.603676,9.4398868,25.9252304884,4.921268,8.052984,-6.487126,57.5, -9.5, -1.6,0,0,1684,1024,1684,1005,100,0,100,-3,70.3,0,0,91,4.183,4.166,0,0,0,0,5.306,97.52,65.39397518972,45.603676,6,P-GPS,
9700,2023-11-19 21:35:23,-34.9060451589571,-56.1325940284098,46.587928,49.2126,17.16562718972,66.37822718972,41.338584,9.7530584,27.3095809264,32.0842858036,19,5,8.352,66.37822718972,46.587928,9.7530584,27.3095809264,5.144962,8.276678,-6.71082,57.4, -9.8, -1.2,0,0,1684,1024,1684,1004,100,0,100,-3,70.3,0,0,91,4.183,4.166,0,0,0,0,5.306,97.52,66.37822718972,46.587928,6,P-GPS,
9800,2023-11-19 21:35:23,-34.9060431845323,-56.1325901728299,47.57218,50.360894,17.00158518972,67.36247918972,41.338584,9.7530584,28.669128214,33.444226792,19,5,8.352,67.36247918972,47.57218,9.7530584,28.669128214,5.144962,8.276678,-6.71082,57.5, -10.3, -1,0,0,1684,1024,1684,1005,100,0,100,-3,70.3,0,0,91,4.183,4.166,0,0,0,0,5.306,97.52,67.36247918972,47.57218,6,P-GPS,
9900,2023-11-19 21:35:23,-34.9060410501503,-56.1325861066044,48.556432,51.4763796,16.87035158972,68.34673118972,41.338584,9.9320136,30.1126321972,34.888780644,19,5,8.352,68.34673118972,48.556432,9.9320136,30.1126321972,5.144962,8.500372,-6.71082,57.6, -11.3, -0.9,0,0,1684,1024,1684,1005,100,0,100,-3,70.3,0,0,91,4.183,4.166,0,0,0,0,5.306,97.52,68.34673118972,48.556432,6,P-GPS,
10000,2023-11-19 21:35:23,-34.9060389617132,-56.1325820136989,49.540684,52.6246736,16.70630958972,69.33098318972,41.338584,10.0438606,31.5545941856,36.331365992,19,5,8.337,69.33098318972,49.540684,10.0438606,31.5545941856,5.368656,8.500372,-6.487126,57.6, -11.9, -1.3,0,0,1684,1024,1684,1004,100,0,100,-3,70.3,0,0,90,4.174,4.159,0,0,0,0,5.44,97.52,69.33098318972,49.540684,6,P-GPS,
10100,2023-11-19 21:35:23,-34.9060367632747,-56.1325776261538,50.524936,53.7729676,16.54226758972,70.31523518972,41.338584,10.4241404,33.092848828,37.869751868,19,5,8.337,70.31523518972,50.524936,10.4241404,33.092848828,5.368656,8.94776,-6.487126,57.5, -12.1, -1.2,0,0,1684,1024,1684,1005,100,0,100,-3,70.3,0,0,90,4.174,4.159,0,0,0,0,5.44,97.52,70.31523518972,50.524936,6,P-GPS,
10200,2023-11-19 21:35:23,-34.9060345835959,-56.1325733271102,51.509188,54.9868784,16.31260878972,71.29948718972,41.338584,10.737312,34.604987984,39.381891024,19,5,8.337,71.29948718972,51.509188,10.737312,34.604987984,5.59235,9.171454,-6.487126,57.5, -11.7, -1.2,0,0,1684,1024,1684,1005,100,0,100,-3,70.3,0,0,90,4.174,4.159,0,0,0,0,5.44,97.52,71.29948718972,51.509188,6,P-GPS,
10300,2023-11-19 21:35:24,-34.9060322206618,-56.1325689568747,52.49344,56.102364,16.18137518972,72.28373918972,41.338584,11.0504836,36.169292496,40.94816404,19,5,8.337,72.28373918972,52.49344,11.0504836,36.169292496,5.816044,9.395148,-6.487126,57.6, -12.2, -1,0,0,1684,1024,1684,1004,100,0,100,-3,70.3,0,0,90,4.174,4.159,0,0,0,0,5.44,97.52,72.28373918972,52.49344,6,P-GPS,
10400,2023-11-19 21:35:24,-34.9060298460452,-56.1325644576266,53.477692,57.3490832,15.91890798972,73.26799118972,41.338584,11.1623306,37.769358164,42.54921396,19,5,8.337,73.26799118972,53.477692,11.1623306,37.769358164,6.039738,9.395148,-6.487126,57.6, -12.2, -0.8,0,0,1684,1024,1684,1004,100,0,100,-3,70.3,0,0,90,4.174,4.159,0,0,0,0,5.44,97.52,73.26799118972,53.477692,6,P-GPS,
10500,2023-11-19 21:35:24,-34.9060272855482,-56.1325595868223,54.461944,58.4645688,15.78767438972,74.25224318972,41.338584,11.3636552,39.49967318,44.280185144,19,5,8.337,74.25224318972,54.461944,11.3636552,39.49967318,6.039738,9.618842,-6.487126,57.6, -12.5, -0.5,0,0,1684,1024,1684,1004,100,0,100,-3,70.3,0,0,90,4.174,4.159,0,0,0,0,5.44,97.52,74.25224318972,54.461944,6,P-GPS,
10600,2023-11-19 21:35:24,-34.906024809903,-56.1325548667172,55.446196,59.6784796,15.55801558972,75.23649518972,41.338584,11.6768268,41.175526252,45.956694384,19,5,8.337,75.23649518972,55.446196,11.6768268,41.175526252,6.263432,9.842536,-6.487126,57.6, -12.4, -1.1,0,0,1684,1024,1684,1004,100,0,100,-3,70.3,0,0,90,4.174,4.159,0,0,0,0,5.44,97.52,75.23649518972,55.446196,6,P-GPS,
10700,2023-11-19 21:35:24,-34.906022179523,-56.1325498537797,56.430448,60.8923904,15.32835678972,76.22074718972,41.338584,12.1689536,42.955381952,47.737206252,19,5,8.337,76.22074718972,56.430448,12.1689536,42.955381952,6.487126,10.289924,-6.487126,57.6, -12.4, -1,0,0,1684,1024,1684,1004,100,0,100,-3,70.3,0,0,90,4.174,4.159,0,0,0,0,5.44,97.52,76.22074718972,56.430448,6,P-GPS,
10800,2023-11-19 21:35:24,-34.9060196339687,-56.1325450736185,57.4147,62.1063012,15.09869798972,77.20499918972,41.338584,12.3479088,44.660106416,49.442586884,19,5,8.337,77.20499918972,57.4147,12.3479088,44.660106416,6.487126,10.513618,-6.487126,57.5, -11.8, -0.8,0,0,1684,1024,1684,1004,100,0,100,-3,70.3,0,0,90,4.174,4.159,0,0,0,0,5.44,97.52,77.20499918972,57.4147,6,P-GPS,
10900,2023-11-19 21:35:24,-34.9060168348493,-56.1325396231351,58.398952,63.320212,14.86903918972,78.18925118972,41.338584,12.6610804,46.583990992,51.366799544,19,5,8.337,78.18925118972,58.398952,12.6610804,46.583990992,6.71082,10.737312,-6.71082,57.7, -11.8, -0.8,0,0,1684,1024,1684,1004,100,0,100,-3,70.3,0,0,90,4.174,4.159,0,0,0,0,5.44,97.52,78.18925118972,58.398952,6,P-GPS,
11000,2023-11-19 21:35:24,-34.9060141393641,-56.1325343464792,59.383204,64.5997396,14.57376358972,79.17350318972,41.338584,12.6610804,48.443899188,53.227035824,19,5,8.327,79.17350318972,59.383204,12.6610804,48.443899188,6.71082,10.737312,-6.71082,57.7, -11.9, -0.9,0,0,1684,1024,1684,1004,100,0,100,-3,70.3,0,0,90,4.166,4.151,0,0,0,0,5.68,97.52,79.17350318972,59.383204,6,P-GPS,
11100,2023-11-19 21:35:24,-34.9060112970845,-56.1325287157752,60.367456,65.8136504,14.34410478972,80.15775518972,41.338584,12.974252,50.422245708,55.205382344,19,5,8.327,80.15775518972,60.367456,12.974252,50.422245708,6.934514,10.961006,-6.71082,57.6, -11.5, -0.9,0,0,1684,1024,1684,1005,100,0,100,-3,70.3,0,0,90,4.166,4.151,0,0,0,0,5.68,97.52,80.15775518972,60.367456,6,P-GPS,
11200,2023-11-19 21:35:25,-34.9060084390611,-56.1325229708402,61.351708,67.093178,14.04882918972,81.14200718972,41.338584,13.2874236,52.43274446,57.215881096,19,5,8.327,81.14200718972,61.351708,13.2874236,52.43274446,7.158208,11.1847,-6.71082,57.5, -11.2, -1,0,0,1684,1024,1684,1005,100,0,100,-3,70.3,0,0,90,4.166,4.151,0,0,0,0,5.68,97.52,81.14200718972,61.351708,6,P-GPS,
11300,2023-11-19 21:35:25,-34.9060053492775,-56.1325171017502,62.007876,68.07743,13.72074518972,81.79817518972,41.338584,13.4663788,54.518702532,59.302495336,19,5,8.327,81.79817518972,62.007876,13.4663788,54.518702532,7.158208,11.408394,-6.487126,57.6, -11.3, -0.9,0,0,1684,1024,1684,1004,100,0,100,-3,70.3,0,0,90,4.166,4.151,0,0,0,0,5.68,97.52,81.79817518972,62.007876,6,P-GPS,
11400,2023-11-19 21:35:25,-34.9060023982894,-56.1325115338811,62.992128,69.2913408,13.49108638972,82.78242718972,41.338584,13.4663788,56.501642228,61.2860912,19,5,8.327,82.78242718972,62.992128,13.4663788,56.501642228,7.158208,11.408394,-6.487126,57.6, -10.8, -0.4,0,0,1684,1024,1684,1004,100,0,100,-3,70.3,0,0,90,4.166,4.151,0,0,0,0,5.68,97.52,82.78242718972,62.992128,6,P-GPS,
11500,2023-11-19 21:35:25,-34.9059993284771,-56.1325058126593,63.97638,70.6036768,13.16300238972,83.76667918972,41.338584,13.7795504,58.546261716,63.33169494,19,5,8.327,83.76667918972,63.97638,13.7795504,58.546261716,7.381902,11.632088,-6.487126,57.7, -10.8, -0.5,0,0,1684,1024,1684,1005,100,0,100,-3,70.3,0,0,90,4.166,4.151,0,0,0,0,5.68,97.52,83.76667918972,63.97638,6,P-GPS,
11600,2023-11-19 21:35:25,-34.9059962578049,-56.1325003306593,64.960632,71.9160128,12.83491838972,84.75093118972,41.338584,13.9585056,60.530185664,65.31824356,19,5,8.327,84.75093118972,64.960632,13.9585056,60.530185664,7.381902,11.855782,-6.71082,57.7, -11, -0.2,0,0,1684,1024,1684,1004,100,0,100,-3,70.3,0,0,90,4.166,4.151,0,0,0,0,5.68,97.52,84.75093118972,64.960632,6,P-GPS,
11700,2023-11-19 21:35:25,-34.9059931119703,-56.1324942787684,65.944884,72.8674564,12.86772678972,85.73518318972,41.338584,14.092722,62.67388652,67.4622725,19,5,8.327,85.73518318972,65.944884,14.092722,62.67388652,7.605596,11.855782,-6.71082,57.7, -11.2, -0.3,0,0,1684,1024,1684,1004,100,0,100,-3,70.3,0,0,90,4.166,4.151,0,0,0,0,5.68,97.52,85.73518318972,65.944884,6,P-GPS,
11800,2023-11-19 21:35:25,-34.905990076453,-56.1324884597478,66.929136,73.8189,12.90053518972,86.71943518972,41.338584,14.2716772,64.737206796,69.525592776,19,5,8.327,86.71943518972,66.929136,14.2716772,64.737206796,7.605596,12.079476,-6.71082,57.7, -11.4, -0.2,0,0,1684,1024,1684,1004,100,0,100,-3,70.3,0,0,90,4.166,4.151,0,0,0,0,5.68,97.52,86.71943518972,66.929136,6,P-GPS,
11900,2023-11-19 21:35:25,-34.905986804707,-56.1324822716782,67.913388,74.7703436,12.93334358972,87.70368718972,41.338584,14.2716772,66.939634688,71.728676836,19,5,8.327,87.70368718972,67.913388,14.2716772,66.939634688,7.605596,12.079476,-6.71082,57.5, -11.4, -0.5,0,0,1684,1024,1684,1004,100,0,100,-3,70.3,0,0,90,4.166,4.151,0,0,0,0,5.68,97.52,87.70368718972,67.913388,6,P-GPS,
12000,2023-11-19 21:35:25,-34.9059836949783,-56.1324761629591,68.89764,75.6889788,12.99896038972,88.68793918972,41.338584,14.4730018,69.090881476,73.879923624,19,5,8.327,88.68793918972,68.89764,14.4730018,69.090881476,7.605596,12.30317,-6.487126,57.5, -11.5, -0.5,0,0,1684,1024,1684,1004,100,0,100,-3,70.3,0,0,90,4.166,4.151,0,0,0,0,5.68,97.52,88.68793918972,68.89764,6,P-GPS,
12100,2023-11-19 21:35:25,-34.9059804786255,-56.1324698846329,69.553808,76.3123384,13.03176878972,89.34410718972,41.338584,14.5848488,71.30577656,76.094818708,19,5,8.32,89.34410718972,69.553808,14.5848488,71.30577656,7.82929,12.30317,-6.487126,57.6, -11.1, -0.2,0,0,1684,1024,1684,1004,100,0,100,-3,70.3,0,0,90,4.168,4.154,0,0,0,0,5.779,97.52,89.34410718972,69.553808,6,P-GPS,
12200,2023-11-19 21:35:26,-34.9059774172159,-56.1324638963812,70.53806,77.263782,13.06457718972,90.32835918972,41.338584,14.5848488,73.417325184,78.206367332,19,5,8.32,90.32835918972,70.53806,14.5848488,73.417325184,7.82929,12.30317,-6.487126,57.5, -11.2, -0.6,0,0,1684,1024,1684,1004,100,0,100,-3,70.3,0,0,90,4.168,4.154,0,0,0,0,5.779,97.52,90.32835918972,70.53806,6,P-GPS,
12300,2023-11-19 21:35:26,-34.9059742373143,-56.1324576574796,71.522312,78.2152256,13.09738558972,91.31261118972,41.338584,14.763804,75.6151599,80.404202048,19,5,8.32,91.31261118972,71.522312,14.763804,75.6151599,7.82929,12.526864,-6.487126,57.6, -11.5, -0.6,0,0,1684,1024,1684,1004,100,0,100,-3,70.3,0,0,90,4.168,4.154,0,0,0,0,5.779,97.52,91.31261118972,71.522312,6,P-GPS,
12400,2023-11-19 21:35:26,-34.9059712050343,-56.1324516819307,72.506564,79.1666692,13.13019398972,92.29686318972,41.338584,14.763804,77.717522172,82.50656432,19,5,8.32,92.29686318972,72.506564,14.763804,77.717522172,7.82929,12.526864,-6.487126,57.6, -11.4, -0.2,0,0,1684,1024,1684,1004,100,0,100,-3,70.3,0,0,90,4.168,4.154,0,0,0,0,5.779,97.52,92.29686318972,72.506564,6,P-GPS,
12500,2023-11-19 21:35:26,-34.9059685268692,-56.1324457401027,73.490816,80.1509212,13.13019398972,93.28111518972,41.338584,14.9651286,79.743768956,84.535435776,19,5,8.32,93.28111518972,73.490816,14.9651286,79.743768956,7.82929,12.750558,-6.487126,57.6, -11.5, -0.7,0,0,1684,1024,1684,1004,100,0,100,-3,70.3,0,0,90,4.168,4.154,0,0,0,0,5.779,97.52,93.28111518972,73.490816,6,P-GPS,
12600,2023-11-19 21:35:26,-34.9059654953384,-56.1324397000371,74.475068,81.0695564,13.19581078972,94.26536718972,41.338584,14.9651286,81.862535428,86.654202248,19,5,8.32,94.26536718972,74.475068,14.9651286,81.862535428,7.82929,12.750558,-6.487126,57.5, -11.2, 0,0,0,1684,1024,1684,1004,100,0,100,-3,70.3,0,0,90,4.168,4.154,0,0,0,0,5.779,97.52,94.26536718972,74.475068,6,P-GPS,
12700,2023-11-19 21:35:26,-34.9059622714361,-56.1324333768124,75.45932,82.0538084,13.19581078972,95.24961918972,41.338584,15.0769756,84.090553872,88.881892608,19,5,8.32,95.24961918972,75.45932,15.0769756,84.090553872,8.052984,12.750558,-6.487126,57.2, -11.7, -0.9,0,0,1684,1024,1684,1004,100,0,100,-3,70.3,0,0,90,4.168,4.154,0,0,0,0,5.779,97.52,95.24961918972,75.45932,6,P-GPS,
12800,2023-11-19 21:35:26,-34.9059591321869,-56.1324272723555,76.443572,83.005252,13.22861918972,96.23387118972,41.338584,15.2783002,86.246393836,91.038060656,18,5,8.32,96.23387118972,76.443572,15.2783002,86.246393836,8.052984,12.974252,-6.487126,57.1, -11.4, -0.8,0,0,1684,1024,1684,1004,100,0,100,-3,70.3,0,0,90,4.168,4.154,0,0,0,0,5.779,97.52,96.23387118972,76.443572,6,P-GPS,
12900,2023-11-19 21:35:26,-34.9059556382235,-56.1324207356072,77.427824,83.9566956,13.26142758972,97.21812318972,41.338584,15.3901472,88.580055328,93.372378316,18,5,8.32,97.21812318972,77.427824,15.3901472,88.580055328,8.276678,12.974252,-6.487126,57.4, -11.5, -0.4,0,0,1684,1024,1684,1004,100,0,100,-3,70.3,0,0,90,4.168,4.154,0,0,0,0,5.779,97.52,97.21812318972,77.427824,6,P-GPS,
13000,2023-11-19 21:35:26,-34.9059523113646,-56.1324144110871,78.412076,84.9081392,13.29423598972,98.20237518972,41.338584,15.3901472,90.828086896,95.620737968,19,5,8.32,98.20237518972,78.412076,15.3901472,90.828086896,8.276678,12.974252,-6.71082,57.6, -11.6, 0,0,0,1684,1024,1684,1004,100,0,100,-3,70.3,0,0,90,4.168,4.154,0,0,0,0,5.779,97.52,98.20237518972,78.412076,6,P-GPS,
13100,2023-11-19 21:35:26,-34.9059488135059,-56.1324077253946,79.396328,85.8923912,13.29423598972,99.18662718972,41.338584,15.5691024,93.2004623,97.993441456,19,5,8.323,99.18662718972,79.396328,15.5691024,93.2004623,8.276678,13.197946,-6.487126,57.6, -11, 0,0,0,1684,1024,1684,1005,100,0,100,-3,70.3,0,0,90,4.167,4.147,0,0,0,0,5.516,97.7,99.18662718972,79.396328,6,P-GPS,
13200,2023-11-19 21:35:27,-34.9059454785569,-56.1324013356892,80.38058,86.8438348,13.32704438972,100.17087918972,41.338584,15.5691024,95.466538488,100.259845728,18,5,8.323,100.17087918972,80.38058,15.5691024,95.466538488,8.276678,13.197946,-6.71082,57.4, -11.9, 0,0,0,1684,1024,1684,1004,100,0,100,-3,70.3,0,0,90,4.167,4.147,0,0,0,0,5.516,97.7,100.17087918972,80.38058,6,P-GPS,
13300,2023-11-19 21:35:27,-34.9059419286922,-56.132394445436,81.364832,87.7952784,13.35985278972,101.15513118972,41.338584,15.5691024,97.901249852,102.694557092,18,5,8.323,101.15513118972,81.364832,15.5691024,97.901249852,8.276678,13.197946,-6.71082,57.6, -12.2, -0.2,0,0,1684,1024,1684,1005,100,0,100,-3,70.3,0,0,90,4.167,4.147,0,0,0,0,5.516,97.7,101.15513118972,81.364832,6,P-GPS,
13400,2023-11-19 21:35:27,-34.9059385691341,-56.1323880067999,82.021,88.4514464,13.35985278972,101.81129918972,41.338584,15.882274,100.184386408,104.977693648,19,5,8.323,101.81129918972,82.021,15.882274,100.184386408,8.500372,13.42164,-6.71082,57.5, -11.8, -0.4,0,0,1684,1024,1684,1004,100,0,100,-3,70.3,0,0,90,4.167,4.147,0,0,0,0,5.516,97.7,101.81129918972,82.021,6,P-GPS,
13500,2023-11-19 21:35:27,-34.9059349924197,-56.1323812426134,83.005252,89.40289,13.39266118972,102.79555118972,41.338584,15.882274,102.592194884,107.386158292,19,5,8.323,102.79555118972,83.005252,15.882274,102.592194884,8.500372,13.42164,-6.71082,57.5, -12.1, -0.5,0,0,1684,1024,1684,1004,100,0,100,-3,70.3,0,0,90,4.167,4.147,0,0,0,0,5.516,97.7,102.79555118972,83.005252,6,P-GPS,
13600,2023-11-19 21:35:27,-34.90593160325,-56.1323747744768,83.989504,90.387142,13.39266118972,103.77980318972,41.338584,15.9493822,104.8884548,109.682746292,19,5,8.323,103.77980318972,83.989504,15.9493822,104.8884548,8.276678,13.645334,-6.487126,57.8, -11, 0,0,0,1684,1024,1684,1004,100,0,100,-3,70.3,0,0,90,4.167,4.147,0,0,0,0,5.516,97.7,103.77980318972,83.989504,6,P-GPS,
13700,2023-11-19 21:35:27,-34.9059283661117,-56.1323681848072,84.973756,91.3385856,13.42546958972,104.76405518972,41.338584,15.9493822,107.18668322,111.980974712,19,5,8.323,104.76405518972,84.973756,15.9493822,107.18668322,8.276678,13.645334,-6.487126,57.7, -10.8, -0.9,0,0,1684,1024,1684,1004,100,0,100,-3,70.3,0,0,90,4.167,4.147,0,0,0,0,5.516,97.7,104.76405518972,84.973756,6,P-GPS,
13800,2023-11-19 21:35:27,-34.9059250713787,-56.1323616567294,85.958008,92.3228376,13.42546958972,105.74830718972,41.338584,16.0835986,109.47999038,114.274609956,19,5,8.323,105.74830718972,85.958008,16.0835986,109.47999038,8.500372,13.645334,-6.487126,57.7, -11.5, -1.4,0,0,1684,1024,1684,1004,100,0,100,-3,70.3,0,0,90,4.167,4.147,0,0,0,0,5.516,97.7,105.74830718972,85.958008,6,P-GPS,
13900,2023-11-19 21:35:27,-34.9059215660162,-56.1323547185065,86.94226,93.3070896,13.42546958972,106.73255918972,41.338584,16.0835986,111.918310668,116.712930244,19,5,8.323,106.73255918972,86.94226,16.0835986,111.918310668,8.500372,13.645334,-6.487126,57.6, -11.6, -1.2,0,0,1684,1024,1684,1004,100,0,100,-3,70.3,0,0,90,4.167,4.147,0,0,0,0,5.516,97.7,106.73255918972,86.94226,6,P-GPS,
14000,2023-11-19 21:35:27,-34.9059181755176,-56.1323480868216,88.254596,94.6194256,13.42546958972,108.04489518972,41.338584,16.3744008,114.256565336,119.051184912,19,5,8.323,108.04489518972,88.254596,16.3744008,114.256565336,8.724066,13.869028,-6.487126,57.7, -11.2, -0.8,0,0,1684,1024,1684,1004,100,0,100,-3,70.3,0,0,90,4.167,4.147,0,0,0,0,5.516,97.7,108.04489518972,88.254596,6,P-GPS,
14100,2023-11-19 21:35:27,-34.9059144916256,-56.1323410466213,89.238848,95.6036776,13.42546958972,109.02914718972,41.338584,16.3744008,116.75525308,121.549872656,19,5,8.321,109.02914718972,89.238848,16.3744008,116.75525308,8.724066,13.869028,-6.71082,57.8, -10.5, -0.7,0,0,1684,1024,1684,1004,100,0,100,-3,70.3,0,0,90,4.166,4.148,0,0,0,0,5.588,97.7,109.02914718972,89.238848,6,P-GPS,
14200,2023-11-19 21:35:27,-34.9059109304661,-56.1323342169152,90.2231,96.5879296,13.42546958972,110.01339918972,41.338584,16.3744008,119.176513,123.97146066,19,5,8.321,110.01339918972,90.2231,16.3744008,119.176513,8.724066,13.869028,-6.71082,57.6, -10.3, -0.7,0,0,1684,1024,1684,1005,100,0,100,-3,70.3,0,0,90,4.166,4.148,0,0,0,0,5.588,97.7,110.01339918972,90.2231,6,P-GPS,
14300,2023-11-19 21:35:28,-34.9059072550159,-56.1323271511631,91.207352,97.5721816,13.42546958972,110.99765118972,41.338584,16.5757254,121.680122004,126.475069664,19,5,8.321,110.99765118972,91.207352,16.5757254,121.680122004,8.724066,14.092722,-6.71082,57.7, -10.6, -0.7,0,0,1684,1024,1684,1004,100,0,100,-3,70.3,0,0,90,4.166,4.148,0,0,0,0,5.588,97.7,110.99765118972,91.207352,6,P-GPS,
14400,2023-11-19 21:35:28,-34.9059037223086,-56.1323203947905,92.191604,98.5564336,13.42546958972,111.98190318972,41.338584,16.6875724,124.077431792,128.872707536,19,5,8.321,111.98190318972,92.191604,16.6875724,124.077431792,8.94776,14.092722,-6.71082,57.7, -10.4, -0.7,0,0,1684,1024,1684,1004,100,0,100,-3,70.3,0,0,90,4.166,4.148,0,0,0,0,5.588,97.7,111.98190318972,92.191604,6,P-GPS,
14500,2023-11-19 21:35:28,-34.9058999244515,-56.1323132202918,93.175856,99.5406856,13.42546958972,112.96615518972,41.338584,16.6875724,126.631893816,131.427497644,19,5,8.321,112.96615518972,93.175856,16.6875724,126.631893816,8.94776,14.092722,-6.71082,57.5, -10.7, -0.7,0,0,1684,1024,1684,1004,100,0,100,-3,70.3,0,0,90,4.166,4.148,0,0,0,0,5.588,97.7,112.96615518972,93.175856,6,P-GPS,
14600,2023-11-19 21:35:28,-34.9058961105574,-56.1323063225172,94.160108,100.5249376,13.42546958972,113.95040718972,41.338584,16.6875724,129.119426704,133.916670952,19,5,8.321,113.95040718972,94.160108,16.6875724,129.119426704,8.94776,14.092722,-6.487126,57.5, -10.7, -0.3,0,0,1684,1024,1684,1004,100,0,100,-3,70.3,0,0,90,4.166,4.148,0,0,0,0,5.588,97.7,113.95040718972,94.160108,6,P-GPS,
14700,2023-11-19 21:35:28,-34.9058923897974,-56.1322993198611,95.14436,101.5091896,13.42546958972,114.93465918972,41.338584,16.6875724,131.615489776,136.413390192,19,5,8.321,114.93465918972,95.14436,16.6875724,131.615489776,8.94776,14.092722,-6.487126,57.4, -10.2, -0.5,0,0,1684,1024,1684,1004,100,0,100,-3,70.3,0,0,90,4.166,4.148,0,0,0,0,5.588,97.7,114.93465918972,95.14436,6,P-GPS,
14800,2023-11-19 21:35:28,-34.9058888436847,-56.1322926227821,96.128612,102.52625,13.39266118972,115.91891118972,41.338584,16.888897,134.000660456,138.798560872,18,5,8.321,115.91891118972,96.128612,16.888897,134.000660456,8.94776,14.316416,-6.487126,57.4, -10.1, -0.2,0,0,1684,1024,1684,1004,100,0,100,-3,70.3,0,0,90,4.166,4.148,0,0,0,0,5.588,97.7,115.91891118972,96.128612,6,P-GPS,
14900,2023-11-19 21:35:28,-34.9058851345323,-56.1322854806044,97.112864,103.510502,13.39266118972,116.90316318972,41.338584,16.888897,136.529860012,141.328088512,18,5,8.321,116.90316318972,97.112864,16.888897,136.529860012,8.94776,14.316416,-6.487126,57.5, -10.5, -0.4,0,0,1684,1024,1684,1004,100,0,100,-3,70.3,0,0,90,4.166,4.148,0,0,0,0,5.588,97.7,116.90316318972,97.112864,6,P-GPS,
15000,2023-11-19 21:35:28,-34.9058818182647,-56.1322789107202,98.097116,104.5275624,13.35985278972,117.88741518972,41.338584,16.888897,138.838259036,143.636487536,19,5,8.321,117.88741518972,98.097116,16.888897,138.838259036,8.94776,14.316416,-6.487126,57.7, -9.8, 0.1,0,0,1684,1024,1684,1004,100,0,100,-3,70.3,0,0,90,4.166,4.148,0,0,0,0,5.588,97.7,117.88741518972,98.097116,6,P-GPS,
15100,2023-11-19 21:35:28,-34.9058781024551,-56.1322716294388,99.081368,105.5118144,13.35985278972,118.87166718972,41.338584,17.0678522,141.404204,146.2024325,19,5,8.307,118.87166718972,99.081368,17.0678522,141.404204,8.94776,14.54011,-6.487126,57.7, -9.5, -1.3,0,0,1684,1024,1684,1004,100,0,100,-3,70.3,0,0,90,4.157,4.141,0,0,0,0,5.685,97.7,118.87166718972,99.081368,6,P-GPS,
15200,2023-11-19 21:35:28,-34.9058745360846,-56.1322646029232,100.393704,106.8569588,13.32704438972,120.18400318972,41.338584,17.0678522,143.876645024,148.674873524,19,5,8.307,120.18400318972,100.393704,17.0678522,143.876645024,8.94776,14.54011,-6.487126,57.7, -10.1, -1.4,0,0,1684,1021,1684,1004,100,-0,100,-3,70.3,0,0,90,4.157,4.141,0,0,0,0,5.685,97.7,120.18400318972,100.393704,6,P-GPS,
15300,2023-11-19 21:35:29,-34.9058706861173,-56.1322570105073,101.377956,107.8740192,13.29423598972,121.16825518972,41.338584,17.0678522,146.547576868,151.345805368,19,5,8.307,121.16825518972,101.377956,17.0678522,146.547576868,8.94776,14.54011,-6.487126,57.6, -9.5, -1.3,0,0,1684,1020,1684,1004,100,-1,100,-3,70.3,0,0,90,4.157,4.141,0,0,0,0,5.685,97.7,121.16825518972,101.377956,6,P-GPS,
15400,2023-11-19 21:35:29,-34.9058670562375,-56.1322497998015,102.362208,108.8582712,13.29423598972,122.15250718972,41.338584,17.2691768,149.079073012,153.877301512,19,5,8.307,122.15250718972,102.362208,17.2691768,149.079073012,8.94776,14.763804,-6.71082,57.7, -9, -1.1,0,0,1684,1022,1684,1004,100,-0,100,-3,70.3,0,0,90,4.157,4.141,0,0,0,0,5.685,97.7,122.15250718972,102.362208,6,P-GPS,
15500,2023-11-19 21:35:29,-34.9058633889164,-56.1322423141475,103.674544,110.2034156,13.26142758972,123.46484318972,41.338584,17.2691768,151.687668896,156.48622548,19,5,8.307,123.46484318972,103.674544,17.2691768,151.687668896,8.94776,14.763804,-6.934514,57.7, -8.6, -1.5,0,0,1684,1018,1684,1004,100,-1,100,-3,70.3,0,0,90,4.157,4.141,0,0,0,0,5.685,97.7,123.46484318972,103.674544,6,P-GPS,
15600,2023-11-19 21:35:29,-34.9058599291243,-56.1322351688777,104.658796,111.220476,13.22861918972,124.44909518972,41.338584,17.448132,154.16995244,158.969165192,19,5,8.307,124.44909518972,104.658796,17.448132,154.16995244,8.94776,14.987498,-6.934514,57.3, -7.9, -4.2,0,0,1684,1019,1684,1004,100,-1,100,-3,70.3,0,0,90,4.157,4.141,0,0,0,0,5.685,97.7,124.44909518972,104.658796,6,P-GPS,
15700,2023-11-19 21:35:29,-34.9058562940725,-56.1322277304412,105.643048,112.2375364,13.19581078972,125.43334718972,41.338584,17.2691768,156.76017562,161.56004454,19,5,8.307,125.43334718972,105.643048,17.448132,156.76017562,8.94776,14.763804,-6.934514,57.4, -8.4, -4.9,0,0,1684,1019,1684,1004,100,-1,100,-3,70.3,0,0,90,4.157,4.141,0,0,0,0,5.685,97.7,125.43334718972,105.643048,6,P-GPS,
15800,2023-11-19 21:35:29,-34.9058528124723,-56.1322206899693,106.6273,113.2545968,13.16300238972,126.41759918972,41.338584,17.2691768,159.219821368,164.020018372,19,5,8.307,126.41759918972,106.6273,17.448132,159.219821368,8.94776,14.763804,-6.71082,57.7, -9.2, -3.8,0,0,1684,1019,1684,1004,100,-1,100,-3,70.3,0,0,90,4.157,4.141,0,0,0,0,5.685,97.7,126.41759918972,106.6273,6,P-GPS,
15900,2023-11-19 21:35:29,-34.9058490783851,-56.1322132748491,107.611552,114.3044656,13.09738558972,127.40185118972,41.338584,17.2691768,161.823495992,166.623364912,19,5,8.307,127.40185118972,107.611552,17.448132,161.823495992,8.94776,14.763804,-6.71082,57.7, -9.8, -3.4,0,0,1684,1019,1684,1004,100,-1,100,-3,70.3,0,0,90,4.157,4.141,0,0,0,0,5.685,97.7,127.40185118972,107.611552,6,P-GPS,
16000,2023-11-19 21:35:29,-34.9058454797584,-56.1322061887892,108.595804,115.321526,13.06457718972,128.38610318972,41.338584,17.0678522,164.317262476,169.11745948,19,5,8.307,128.38610318972,108.595804,17.448132,164.317262476,8.94776,14.54011,-6.71082,57.7, -9.6, -3.2,0,0,1684,1018,1684,1004,100,-1,100,-3,70.3,0,0,90,4.157,4.141,0,0,0,0,5.685,97.7,128.38610318972,108.595804,6,P-GPS,
