time(millisecond),datetime(utc),latitude,longitude,height_above_takeoff(feet),height_above_ground_at_drone_location(feet),ground_elevation_at_drone_location(feet),altitude_above_seaLevel(feet),height_sonar(feet),speed(mph),distance(feet),mileage(feet),satellites,gpslevel,voltage(v),max_altitude(feet),max_ascent(feet),max_speed(mph),max_distance(feet), xSpeed(mph), ySpeed(mph), zSpeed(mph), compass_heading(degrees), pitch(degrees), roll(degrees),isPhoto,isVideo,rc_elevator,rc_aileron,rc_throttle,rc_rudder,rc_elevator(percent),rc_aileron(percent),rc_throttle(percent),rc_rudder(percent),gimbal_heading(degrees),gimbal_pitch(degrees),gimbal_roll(degrees),battery_percent,voltageCell1,voltageCell2,voltageCell3,voltageCell4,voltageCell5,voltageCell6,current(A),battery_temperature(f),altitude(feet),ascent(feet),flycStateRaw,flycState,message
0,2025-05-05 00:54:17,-22.7544078089333,-41.8864344687873,0,0,0,0,0.328084,0,0,0,21,5,0,0,0,0,0,0,0,0,68, 1.6, -0.1,0,0,649,616,1024,1024,-57,-62,0,0,81.8,0,0,44,3.835,3.834,0,0,0,0,0,110.66,0,0,41,Motors_Started,"Error de calibración del estabilizador. Reinicia la aeronave o contacta con la Asistencia DJI (Code: 40011)"
100,2025-05-05 00:54:17,-22.7544080845401,-41.8864344190024,0,0,0,0,0.328084,0,0.10194062006,0.10194062006,21,5,0,0,0,0,0.10194062006,0,0,0,68, 1.6, -0.1,0,0,649,616,1024,1024,-57,-62,0,0,81.8,0,0,44,3.835,3.834,0,0,0,0,0,110.66,0,0,41,Motors_Started,
200,2025-05-05 00:54:17,-22.7544081575217,-41.8864343811337,0,0,0,0,0.328084,0,0.130556762708,0.131458993708,21,5,0,0,0,0,0.130556762708,0,0,0,68, 1.6, -0.1,0,0,1024,1024,1024,1024,0,0,0,0,81.9,0,0,44,3.835,3.834,0,0,0,0,0,110.66,0,0,41,Motors_Started,
300,2025-05-05 00:54:17,-22.7544081259763,-41.8864343779369,0,0,0,0,0.328084,0,0.119643376532,0.143018705364,21,5,0,0,0,0,0.130556762708,0,0,0,67.9, 1.6, -0.1,0,0,1024,1024,1024,1024,0,0,0,0,81.9,0,0,44,3.835,3.834,0,0,0,0,0,110.66,0,0,41,Motors_Started,
400,2025-05-05 00:54:17,-22.7544080939501,-41.8864343762334,0,0,0,0,0.328084,0,0.108550856492,0.154717524636,21,5,0,0,0,0,0.130556762708,0,0,0,68, 1.6, -0.1,0,0,1024,1024,1024,1024,0,0,0,0,81.8,0,0,44,3.835,3.834,0,0,0,0,0,110.66,0,0,41,Motors_Started,
500,2025-05-05 00:54:17,-22.7544077871313,-41.8864343173431,0,0,0,0,0.328084,0,0.051571195876,0.268399942972,21,5,0,0,0,0,0.130556762708,0,0,0,68, 1.5, -0.1,0,0,1024,1024,1024,1024,0,0,0,0,81.9,0,0,44,3.835,3.834,0,0,0,0,0,110.66,0,0,41,Motors_Started,
600,2025-05-05 00:54:17,-22.7544077129256,-41.8864342776815,0,0,0,0,0.328084,0,0.073220474784,0.298583999056,21,5,0,0,0,0,0.130556762708,0,0,0,67.9, 1.5, -0.1,0,0,1024,1024,1024,1024,0,0,0,0,81.9,0,0,44,3.835,3.834,0,0,0,0,0,110.66,0,0,41,Motors_Started,
700,2025-05-05 00:54:17,-22.7544076320794,-41.8864342214437,-0.328084,-0.328084,0,-0.328084,0.328084,0,0.105304137228,0.3336286196,21,5,0,0,0,0,0.130556762708,0,0,0,67.9, 1.5, -0.1,0,0,1024,1024,1024,1024,0,0,0,0,81.9,0,0,44,3.835,3.834,0,0,0,0,0,110.66,-0.328084,-0.328084,41,Motors_Started,
800,2025-05-05 00:54:17,-22.7544075536259,-41.8864341673319,-0.328084,-0.328084,0,-0.328084,0.328084,0,0.137709321992,0.3675525052,21,5,0,0,0,0,0.137709321992,0,0,0,68, 1.5, -0.1,0,0,1024,1024,1024,1024,0,0,0,0,81.9,0,0,44,3.835,3.834,0,0,0,0,0,110.66,-0.328084,-0.328084,41,Motors_Started,"Setting new Return-To-Home altitude to 100m (328 ft). Data Recorder File Index is 64. Setting new Maximum Flight Altitude to 500m (1640 ft)"
900,2025-05-05 00:54:18,-22.7544073526063,-41.8864340195846,-0.328084,-0.2952756,-0.032808400000002,-0.328084,0.328084,0,0.224858274912,0.4561515894,21,5,0,0,0,0,0.224858274912,0,0,0,68, 1.5, -0.1,0,0,1024,1024,1024,1024,0,0,0,0,81.9,0,0,44,3.835,3.834,0,0,0,0,0,110.66,-0.328084,-0.328084,41,Motors_Started,
1000,2025-05-05 00:54:18,-22.754407283145,-41.8864339639396,-0.656168,-0.6233596,-0.032808400000002,-0.656168,0.328084,0,0.256226058068,0.48766077676,21,5,0,0,0,0,0.256226058068,0,0,0,68, 1.6, -0.1,0,0,1024,1024,1024,1024,0,0,0,0,81.9,0,0,44,3.835,3.834,0,0,0,0,0,110.66,-0.656168,-0.656168,41,Motors_Started,
1100,2025-05-05 00:54:18,-22.7544072208373,-41.8864339599911,-0.656168,-0.6233596,-0.032808400000002,-0.656168,0.328084,0,0.274487869676,0.5104330872,21,5,0,0,0,0,0.274487869676,0,0,0,67.9, 1.6, -0.1,0,0,1024,1024,1024,1024,0,0,0,0,81.9,0,0,44,3.835,3.834,0,0,0,0,0,110.66,-0.656168,-0.656168,10,Assisted_Takeoff,
1200,2025-05-05 00:54:18,-22.7544071620095,-41.8864339573893,-0.656168,-0.6233596,-0.032808400000002,-0.656168,0.328084,0,0.292087935856,0.53191274668,21,5,0,0,0,0,0.292087935856,0,0,0,67.9, 1.5, -0.1,0,0,1024,1024,1024,1024,0,0,0,0,81.9,0,0,44,3.835,3.834,0,0,0,0,0,110.66,-0.656168,-0.656168,10,Assisted_Takeoff,
1300,2025-05-05 00:54:18,-22.7544071078969,-41.8864339208533,-0.984252,-0.9514436,-0.032808400000002,-0.984252,0.328084,0,0.315287411664,0.55517062144,21,5,0,0,0,0,0.315287411664,0,0,0,67.9, 1.5, -0.1,0,0,1024,1024,1024,1024,0,0,0,0,81.9,0,0,44,3.835,3.834,0,0,0,0,0,110.66,-0.984252,-0.984252,10,Assisted_Takeoff,
1400,2025-05-05 00:54:18,-22.7544070544129,-41.8864339224833,-0.984252,-0.9514436,-0.032808400000002,-0.984252,0.328084,0,0.33101050928,0.57469161944,21,5,7.669,0,0,0,0.33101050928,0,0,0,68, 1.5, -0.1,0,0,1024,1024,1024,1024,0,0,0,0,81.9,0,0,44,3.835,3.834,0,0,0,0,1.341,110.66,-0.984252,-0.984252,10,Assisted_Takeoff,
1500,2025-05-05 00:54:18,-22.7544070575123,-41.8864338688739,-0.984252,-0.9514436,-0.032808400000002,-0.984252,0.328084,0,0.34044292428,0.59276248616,21,5,7.669,0,0,0,0.34044292428,0,0,0,68, 1.6, -0.1,0,0,1024,1024,1024,1024,0,0,0,0,81.9,0,0,44,3.835,3.834,0,0,0,0,1.341,110.66,-0.984252,-0.984252,10,Assisted_Takeoff,
1600,2025-05-05 00:54:18,-22.7544070634215,-41.8864338179133,-1.312336,-1.2795276,-0.032808400000002,-1.312336,0.328084,0,0.34919948624,0.61004595128,21,5,7.669,0,0,0,0.34919948624,0,0,0,67.9, 1.5, -0.1,0,0,1024,1024,1024,1024,0,0,0,0,81.9,0,0,44,3.835,3.834,0,0,0,0,1.341,110.66,-1.312336,-1.312336,10,Assisted_Takeoff,
1700,2025-05-05 00:54:18,-22.7544070333061,-41.8864338127923,-1.312336,-1.2795276,-0.032808400000002,-1.312336,0.328084,0,0.35888124508,0.62116799888,21,5,7.669,0,0,0,0.35888124508,0,0,0,67.9, 1.5, -0.1,0,0,1024,1024,1024,1024,0,0,0,0,81.9,0,0,44,3.835,3.834,0,0,0,0,1.341,110.66,-1.312336,-1.312336,10,Assisted_Takeoff,
1800,2025-05-05 00:54:18,-22.7544070872737,-41.8864338333249,-1.312336,-1.2795276,-0.032808400000002,-1.312336,0.328084,0,0.33916995836,0.64203414128,21,5,7.669,0,0,0,0.35888124508,0,0,0,68, 1.5, -0.1,0,0,1024,1024,1024,1024,0,0,0,0,81.9,0,0,44,3.835,3.834,0,0,0,0,1.341,110.66,-1.312336,-1.312336,10,Assisted_Takeoff,
1900,2025-05-05 00:54:19,-22.7544070381051,-41.8864337970597,-1.312336,-1.2795276,-0.032808400000002,-1.312336,0.328084,0,0.3607939748,0.6637303362,21,5,7.669,0,0,0,0.3607939748,0,0,0,68, 1.6, -0.1,0,0,1024,1024,1024,1024,0,0,0,0,81.9,0,0,44,3.835,3.834,0,0,0,0,1.341,110.66,-1.312336,-1.312336,10,Assisted_Takeoff,
2000,2025-05-05 00:54:19,-22.7544069911072,-41.8864337631293,-1.312336,-1.2795276,-0.032808400000002,-1.312336,0.328084,0,0.381315629,0.68432744972,21,5,7.669,0,0,0,0.381315629,0,0,0,67.9, 1.5, -0.1,0,0,1024,1024,1024,1024,0,0,0,0,81.9,0,0,44,3.835,3.834,0,0,0,0,1.341,110.66,-1.312336,-1.312336,10,Assisted_Takeoff,
2100,2025-05-05 00:54:19,-22.7544069353802,-41.8864337634126,-1.312336,-1.2795276,-0.032808400000002,-1.312336,0.328084,0,0.39736877912,0.70466209604,21,5,7.669,0,0,0,0.39736877912,0,0,0,67.9, 1.6, -0.1,0,0,1024,1024,1024,1024,0,0,0,0,81.9,0,0,44,3.835,3.834,0,0,0,0,1.341,110.66,-1.312336,-1.312336,10,Assisted_Takeoff,
2200,2025-05-05 00:54:19,-22.7544068294008,-41.886433781189,-1.312336,-1.2795276,-0.032808400000002,-1.312336,0.328084,0,0.42572507924,0.74378611304,21,5,7.669,0,0,0,0.42572507924,0,0,0,67.9, 1.6, -0.1,0,0,1024,1024,1024,1024,0,0,0,0,81.9,0,0,44,3.835,3.834,0,0,0,0,1.341,110.66,-1.312336,-1.312336,10,Assisted_Takeoff,
2300,2025-05-05 00:54:19,-22.7544067728698,-41.8864337423758,-1.64042,-1.6076116,-0.032808400000002,-1.64042,0.328084,0,0.45013780968,0.76819884348,21,5,7.669,0,0,0,0.45013780968,0,0,0,68, 1.6, -0.1,0,0,1024,1024,1024,1024,0,0,0,0,81.9,0,0,44,3.835,3.834,0,0,0,0,1.341,110.66,-1.64042,-1.64042,10,Assisted_Takeoff,
2400,2025-05-05 00:54:19,-22.7544067187955,-41.8864337062943,-1.64042,-1.6076116,-0.032808400000002,-1.64042,0.328084,0,0.4732939784,0.79136485472,21,5,7.677,0,0,0,0.4732939784,0,0,0,68, 1.6, 0,0,0,1024,1024,1024,1024,0,0,0,0,81.9,0,0,44,3.841,3.838,0,0,0,0,1.333,110.66,-1.64042,-1.64042,10,Assisted_Takeoff,
2500,2025-05-05 00:54:19,-22.7544066637598,-41.8864337016725,-1.64042,-1.6076116,-0.032808400000002,-1.64042,0.328084,0,0.49110565876,0.81150265064,21,5,7.677,0,0,0,0.49110565876,0,0,0,68, 1.5, -0.1,0,0,1024,1024,1024,1024,0,0,0,0,81.9,0,0,44,3.841,3.838,0,0,0,0,1.333,110.66,-1.64042,-1.64042,10,Assisted_Takeoff,
2600,2025-05-05 00:54:19,-22.7544065815071,-41.8864336839327,-1.64042,-1.6076116,-0.032808400000002,-1.64042,0.328084,0,0.51988518724,0.84209976448,21,5,7.677,0,0,0,0.51988518724,0,0,0,68, 1.5, -0.1,0,0,1024,1024,1024,1024,0,0,0,0,81.9,0,0,44,3.841,3.838,0,0,0,0,1.333,110.66,-1.64042,-1.64042,10,Assisted_Takeoff,
2700,2025-05-05 00:54:19,-22.7544064780793,-41.8864336384443,-1.64042,-1.6076116,-0.032808400000002,-1.64042,0.328084,0,0.56019358748,0.88282155056,21,5,7.677,0,0,0,0.56019358748,0,0,0,67.9, 1.5, 0,0,0,1024,1024,1024,1024,0,0,0,0,81.9,0,0,44,3.841,3.838,0,0,0,0,1.333,110.66,-1.64042,-1.64042,10,Assisted_Takeoff,
2800,2025-05-05 00:54:19,-22.7544063785203,-41.8864335949009,-1.64042,-1.6076116,-0.032808400000002,-1.64042,0.328084,0,0.59900920552,0.92198821848,21,5,7.677,0,0,0,0.59900920552,0,0,0,67.9, 1.6, -0.1,0,0,1024,1024,1024,1024,0,0,0,0,81.9,0,0,44,3.841,3.838,0,0,0,0,1.333,110.66,-1.64042,-1.64042,10,Assisted_Takeoff,
2900,2025-05-05 00:54:20,-22.7544063124857,-41.8864335869853,-1.64042,-1.6076116,-0.032808400000002,-1.64042,0.328084,0,0.62138125348,0.94623034524,21,5,7.677,0,0,0,0.62138125348,0,0,0,67.9, 1.6, -0.1,0,0,1024,1024,1024,1024,0,0,0,0,81.9,0,0,44,3.841,3.838,0,0,0,0,1.333,110.66,-1.64042,-1.64042,10,Assisted_Takeoff,
3000,2025-05-05 00:54:20,-22.7544062506897,-41.8864335794055,-1.64042,-1.6076116,-0.032808400000002,-1.64042,0.328084,0,0.64246393132,0.96892063468,21,5,7.677,0,0,0,0.64246393132,0,0,0,67.9, 1.6, -0.1,0,0,1024,1024,1024,1024,0,0,0,0,81.9,0,0,44,3.841,3.838,0,0,0,0,1.333,110.66,-1.64042,-1.64042,10,Assisted_Takeoff,
3100,2025-05-05 00:54:20,-22.7544061494284,-41.8864336176285,-1.64042,-1.6076116,-0.032808400000002,-1.64042,0.328084,0,0.66978020516,1.00803809,21,5,7.677,0,0,0,0.66978020516,0,0,0,68, 1.5, -0.1,0,0,1024,1024,1024,1024,0,0,0,0,81.9,0,0,44,3.841,3.838,0,0,0,0,1.333,110.66,-1.64042,-1.64042,10,Assisted_Takeoff,
3200,2025-05-05 00:54:20,-22.7544061042716,-41.8864336232094,-1.64042,-1.6076116,-0.032808400000002,-1.64042,0.328084,0,0.68392718724,1.02461945536,21,5,7.677,0,0,0,0.68392718724,0,0,0,68, 1.5, -0.1,0,0,1024,1024,1024,1024,0,0,0,0,81.9,0,0,44,3.841,3.838,0,0,0,0,1.333,110.66,-1.64042,-1.64042,10,Assisted_Takeoff,
3300,2025-05-05 00:54:20,-22.7544060613631,-41.8864335798616,-1.64042,-1.6076116,-0.032808400000002,-1.64042,0.328084,0,0.70426183356,1.04601709384,21,5,7.677,0,0,0,0.70426183356,0,0,0,68, 1.5, 0,0,0,1024,1024,1024,1024,0,0,0,0,81.9,0,0,44,3.841,3.838,0,0,0,0,1.333,110.66,-1.64042,-1.64042,10,Assisted_Takeoff,
3400,2025-05-05 00:54:20,-22.7544060217555,-41.8864335382894,-1.968504,-1.9356956,-0.032808400000002,-1.968504,0.328084,0,0.72331367144,1.06612864304,21,5,7.678,0,0,0,0.72331367144,0,0,0,68, 1.5, 0,0,0,1024,1024,1024,1024,0,0,0,0,81.9,0,0,44,3.84,3.838,0,0,0,0,1.133,110.66,-1.968504,-1.968504,10,Assisted_Takeoff,
3500,2025-05-05 00:54:20,-22.7544060250867,-41.8864335066219,-1.968504,-1.9356956,-0.032808400000002,-1.968504,0.328084,0,0.72689962956,1.07685042816,21,5,7.678,0,0,0,0.72689962956,0,0,0,67.9, 1.5, -0.1,0,0,1024,1024,1024,1024,0,0,0,0,81.9,0,0,44,3.84,3.838,0,0,0,0,1.133,110.66,-1.968504,-1.968504,10,Assisted_Takeoff,
3600,2025-05-05 00:54:20,-22.7544059867165,-41.8864334993948,-1.968504,-1.9356956,-0.032808400000002,-1.968504,0.328084,0,0.74052823892,1.0910597462,21,5,7.678,0,0,0,0.74052823892,0,0,0,67.9, 1.6, -0.1,0,0,1024,1024,1024,1024,0,0,0,0,81.9,0,0,44,3.84,3.838,0,0,0,0,1.133,110.66,-1.968504,-1.968504,10,Assisted_Takeoff,
3700,2025-05-05 00:54:20,-22.7544059418474,-41.88643345541,-1.968504,-1.9356956,-0.032808400000002,-1.968504,0.328084,0,0.76176839708,1.11312995688,21,5,7.678,0,0,0,0.76176839708,0,0,0,68, 1.6, -0.1,0,0,1024,1024,1024,1024,0,0,0,0,81.9,0,0,44,3.84,3.838,0,0,0,0,1.133,110.66,-1.968504,-1.968504,10,Assisted_Takeoff,
3800,2025-05-05 00:54:20,-22.7544058996867,-41.8864334135592,-1.968504,-1.9356956,-0.032808400000002,-1.968504,0.328084,0,0.78184713788,1.13398297592,21,5,7.678,0,0,0,0.78184713788,0,0,0,68, 1.6, -0.1,0,0,1024,1024,1024,1024,0,0,0,0,81.9,0,0,44,3.84,3.838,0,0,0,0,1.133,110.66,-1.968504,-1.968504,10,Assisted_Takeoff,
3900,2025-05-05 00:54:21,-22.7544058314448,-41.8864333907937,-1.968504,-1.9356956,-0.032808400000002,-1.968504,0.328084,0,0.80751971088,1.16003284552,21,5,7.678,0,0,0,0.80751971088,0,0,0,68, 1.5, -0.1,0,0,1024,1024,1024,1024,0,0,0,0,81.9,0,0,44,3.84,3.838,0,0,0,0,1.133,110.66,-1.968504,-1.968504,10,Assisted_Takeoff,
4000,2025-05-05 00:54:21,-22.7544057859623,-41.8864333853151,-1.968504,-1.9356956,-0.032808400000002,-1.968504,0.328084,0,0.8231955644,1.17672904028,21,5,7.678,0,0,0,0.8231955644,0,0,0,68, 1.5, -0.1,0,0,1024,1024,1024,1024,0,0,0,0,81.9,0,0,44,3.84,3.838,0,0,0,0,1.133,110.66,-1.968504,-1.968504,10,Assisted_Takeoff,
4100,2025-05-05 00:54:21,-22.7544057379816,-41.8864333412611,-1.968504,-1.9356956,-0.032808400000002,-1.968504,0.328084,0,0.845472468,1.19966539272,21,5,7.678,0,0,0,0.845472468,0,0,0,68, 1.5, -0.1,0,0,1024,1024,1024,1024,0,0,0,0,81.9,0,0,44,3.84,3.838,0,0,0,0,1.133,110.66,-1.968504,-1.968504,10,Assisted_Takeoff,
4200,2025-05-05 00:54:21,-22.7544056930073,-41.8864332993484,-1.968504,-1.9356956,-0.032808400000002,-1.968504,0.328084,0,0.86647968652,1.22130253252,21,5,7.678,0,0,0,0.86647968652,0,0,0,68, 1.6, -0.1,0,0,1024,1024,1024,1024,0,0,0,0,81.9,0,0,44,3.84,3.838,0,0,0,0,1.133,110.66,-1.968504,-1.968504,10,Assisted_Takeoff,
4300,2025-05-05 00:54:21,-22.7544057652078,-41.8864332894986,-1.968504,-1.9356956,-0.032808400000002,-1.968504,0.328084,0,0.84464569632,1.2478510898,21,5,7.678,0,0,0,0.86647968652,0,0,0,68, 1.6, -0.1,0,0,1024,1024,1024,1024,0,0,0,0,81.9,0,0,44,3.84,3.838,0,0,0,0,1.133,110.66,-1.968504,-1.968504,10,Assisted_Takeoff,
4400,2025-05-05 00:54:21,-22.7544057703865,-41.8864332829248,-1.968504,-1.9356956,-0.032808400000002,-1.968504,0.328084,0,0.84402233672,1.25076119488,21,5,7.677,0,0,0,0.86647968652,0,0,0,68, 1.5, 0,0,0,1024,1024,1024,1024,0,0,0,0,81.9,0,0,44,3.84,3.837,0,0,0,0,1.136,110.66,-1.968504,-1.968504,10,Assisted_Takeoff,
4500,2025-05-05 00:54:21,-22.7544057425022,-41.8864332404938,-1.968504,-1.9356956,-0.032808400000002,-1.968504,0.328084,0,0.85977036872,1.268290723,21,5,7.677,0,0,0,0.86647968652,0,0,0,68, 1.5, -0.1,0,0,1024,1024,1024,1024,0,0,0,0,81.9,0,0,44,3.84,3.837,0,0,0,0,1.136,110.66,-1.968504,-1.968504,10,Assisted_Takeoff,
4600,2025-05-05 00:54:21,-22.7544057146819,-41.8864331966863,-1.968504,-1.9356956,-0.032808400000002,-1.968504,0.328084,0,0.87579399128,1.2861877052,21,5,7.677,0,0,0,0.87579399128,0,0,0,68, 1.5, -0.1,0,0,1024,1024,1024,1024,0,0,0,0,81.9,0,0,44,3.84,3.837,0,0,0,0,1.136,110.66,-1.968504,-1.968504,10,Assisted_Takeoff,
4700,2025-05-05 00:54:21,-22.754405666138,-41.8864331881575,-1.968504,-1.9356956,-0.032808400000002,-1.968504,0.328084,0,0.89267063224,1.30413061916,21,5,7.677,0,0,0,0.89267063224,0,0,0,67.9, 1.6, -0.1,0,0,1024,1024,1024,1024,0,0,0,0,81.9,0,0,44,3.84,3.837,0,0,0,0,1.136,110.66,-1.968504,-1.968504,10,Assisted_Takeoff,
4800,2025-05-05 00:54:21,-22.7544055826159,-41.8864331847907,-1.968504,-1.9356956,-0.032808400000002,-1.968504,0.328084,0,0.92000659112,1.33462274612,21,5,7.677,0,0,0,0.92000659112,0,0,0,67.9, 1.6, -0.1,0,0,1024,1024,1024,1024,0,0,0,0,81.9,0,0,44,3.84,3.837,0,0,0,0,1.136,110.66,-1.968504,-1.968504,10,Assisted_Takeoff,
4900,2025-05-05 00:54:22,-22.7544055305784,-41.8864331951167,-1.968504,-1.9356956,-0.032808400000002,-1.968504,0.328084,0,0.93521328452,1.35392392784,21,5,7.677,0,0,0,0.93521328452,0,0,0,67.9, 1.5, -0.1,0,0,1024,1024,1024,1024,0,0,0,0,81.9,0,0,44,3.84,3.837,0,0,0,0,1.136,110.66,-1.968504,-1.968504,10,Assisted_Takeoff,
5000,2025-05-05 00:54:22,-22.7544054806456,-41.8864332055856,-1.968504,-1.9028872,-0.065616800000002,-1.968504,0.328084,0,0.94986223512,1.37248035888,21,5,7.677,0,0,0,0.94986223512,0,0,0,68, 1.5, 0,0,0,1024,1024,1024,1024,0,0,0,0,81.9,0,0,44,3.84,3.837,0,0,0,0,1.136,110.66,-1.968504,-1.968504,10,Assisted_Takeoff,
5100,2025-05-05 00:54:22,-22.754405478539,-41.8864331655982,-1.968504,-1.9028872,-0.065616800000002,-1.968504,0.328084,0,0.95664045056,1.38595476876,21,5,7.677,0,0,0,0.95664045056,0,0,0,68, 1.5, 0,0,0,1024,1024,1024,1024,0,0,0,0,81.9,0,0,44,3.84,3.837,0,0,0,0,1.136,110.66,-1.968504,-1.968504,10,Assisted_Takeoff,
5200,2025-05-05 00:54:22,-22.7544054854421,-41.8864331022339,-1.968504,-1.9028872,-0.065616800000002,-1.968504,0.328084,0,0.96438323296,1.40742458572,21,5,7.677,0,0,0,0.96438323296,0,0,0,68, 1.5, -0.1,0,0,1024,1024,1024,1024,0,0,0,0,81.9,0,0,44,3.84,3.837,0,0,0,0,1.136,110.66,-1.968504,-1.968504,10,Assisted_Takeoff,
5300,2025-05-05 00:54:22,-22.7544054489059,-41.8864330949651,-1.968504,-1.9028872,-0.065616800000002,-1.968504,0.328084,0,0.97727693416,1.42097445492,21,5,7.677,0,0,0,0.97727693416,0,0,0,67.9, 1.5, -0.1,0,0,1024,1024,1024,1024,0,0,0,0,81.9,0,0,44,3.84,3.837,0,0,0,0,1.136,110.66,-1.968504,-1.968504,10,Assisted_Takeoff,
5400,2025-05-05 00:54:22,-22.7544054143722,-41.8864330886815,-1.968504,-1.9028872,-0.065616800000002,-1.968504,0.328084,0,0.9893865146,1.43375004588,21,5,7.677,0,0,0,0.9893865146,0,0,0,67.9, 1.5, -0.1,0,0,1024,1024,1024,1024,0,0,0,0,81.9,0,0,44,3.84,3.837,0,0,0,0,1.136,110.66,-1.968504,-1.968504,10,Assisted_Takeoff,
5500,2025-05-05 00:54:22,-22.7544053614674,-41.8864330960212,-1.968504,-1.9028872,-0.065616800000002,-1.968504,0.328084,0,1.00533467784,1.45321198876,21,5,7.677,0,0,0,1.00533467784,0,0,0,67.9, 1.5, 0,0,0,1024,1024,1024,1024,0,0,0,0,81.9,0,0,44,3.839,3.836,0,0,0,0,1.146,110.66,-1.968504,-1.968504,10,Assisted_Takeoff,
5600,2025-05-05 00:54:22,-22.7544052686336,-41.8864331452889,-1.968504,-1.9028872,-0.065616800000002,-1.968504,0.328084,0,1.0282480644,1.49092196372,21,5,7.677,0,0,0,1.0282480644,0,0,0,67.9, 1.6, 0,0,0,1024,1024,1024,1024,0,0,0,0,81.9,0,0,44,3.839,3.836,0,0,0,0,1.146,110.66,-1.968504,-1.968504,10,Assisted_Takeoff,
5700,2025-05-05 00:54:22,-22.7544052667035,-41.8864331019385,-1.968504,-1.9028872,-0.065616800000002,-1.968504,0.328084,0,1.03527890452,1.50552170172,21,5,7.677,0,0,0,1.03527890452,0,0,0,67.9, 1.5, -0.1,0,0,1024,1024,1024,1024,0,0,0,0,81.9,0,0,44,3.839,3.836,0,0,0,0,1.146,110.66,-1.968504,-1.968504,10,Assisted_Takeoff,
5800,2025-05-05 00:54:22,-22.7544052665188,-41.8864330590715,-1.968504,-1.9028872,-0.065616800000002,-1.968504,0.328084,0,1.04182746116,1.51994427436,21,5,7.677,0,0,0,1.04182746116,0,0,0,68, 1.5, 0,0,0,1024,1024,1024,1024,0,0,0,0,81.9,0,0,44,3.839,3.836,0,0,0,0,1.146,110.66,-1.968504,-1.968504,10,Assisted_Takeoff,
5900,2025-05-05 00:54:23,-22.7544052300723,-41.8864330467428,-1.968504,-1.9028872,-0.065616800000002,-1.968504,0.328084,0,1.05555777656,1.533874721,21,5,7.677,0,0,0,1.05555777656,0,0,0,68, 1.5, 0,0,0,1024,1024,1024,1024,0,0,0,0,81.9,0,0,44,3.839,3.836,0,0,0,0,1.146,110.66,-1.968504,-1.968504,10,Assisted_Takeoff,
6100,2025-05-05 00:54:23,-22.7544051677336,-41.8864329938915,-1.968504,-1.9028872,-0.065616800000002,-1.968504,0.328084,0,1.08390423416,1.562746113,21,5,7.677,0,0,0,1.08390423416,0,0,0,68, 1.5, -0.1,0,0,1024,1024,1024,1024,0,0,0,0,81.9,0,0,44,3.839,3.836,0,0,0,0,1.146,110.66,-1.968504,-1.968504,10,Assisted_Takeoff,
6200,2025-05-05 00:54:23,-22.7544051212015,-41.8864329954528,-1.968504,-1.9028872,-0.065616800000002,-1.968504,0.328084,0,1.09878940524,1.57973102168,21,5,7.677,0,0,0,1.09878940524,0,0,0,67.9, 1.5, 0,0,0,1024,1024,1024,1024,0,0,0,0,81.9,0,0,44,3.839,3.836,0,0,0,0,1.146,110.66,-1.968504,-1.968504,10,Assisted_Takeoff,
6300,2025-05-05 00:54:23,-22.7544050686046,-41.8864329480839,-1.968504,-1.9028872,-0.065616800000002,-1.968504,0.328084,0,1.12312011468,1.6046752482,21,5,7.677,0,0,0,1.12312011468,0,0,0,67.9, 1.5, -0.1,0,0,1024,1024,1024,1024,0,0,0,0,81.9,0,0,44,3.839,3.836,0,0,0,0,1.146,110.66,-1.968504,-1.968504,10,Assisted_Takeoff,
6400,2025-05-05 00:54:23,-22.7544050179986,-41.8864329010681,-1.968504,-1.9028872,-0.065616800000002,-1.968504,0.328084,0,1.14677497108,1.62898955344,21,5,7.677,0,0,0,1.14677497108,0,0,0,67.9, 1.5, -0.1,0,0,1024,1024,1024,1024,0,0,0,0,81.9,0,0,44,3.839,3.836,0,0,0,0,1.146,110.66,-1.968504,-1.968504,10,Assisted_Takeoff,
6500,2025-05-05 00:54:23,-22.7544048449636,-41.8864327448626,-1.968504,-1.9028872,-0.065616800000002,-1.968504,0.328084,0,1.2271325852,1.71113522536,21,5,7.677,0,0,0,1.2271325852,0,0,0,67.9, 1.7, 0,0,0,1024,1024,1024,1024,0,0,0,0,81.9,0,0,44,3.839,3.836,0,0,0,0,1.144,110.66,-1.968504,-1.968504,10,Assisted_Takeoff,
6600,2025-05-05 00:54:23,-22.7544047911116,-41.8864326802543,-1.968504,-1.9028872,-0.065616800000002,-1.968504,0.328084,0,1.25476053884,1.7404364074,21,5,7.677,0,0,0,1.25476053884,0,0,0,68, 1.6, -0.1,0,0,1024,1024,1024,1024,0,0,0,0,81.9,0,0,44,3.839,3.836,0,0,0,0,1.144,110.66,-1.968504,-1.968504,10,Assisted_Takeoff,
6700,2025-05-05 00:54:23,-22.7544047377897,-41.8864326658949,-1.968504,-1.9028872,-0.065616800000002,-1.968504,0.328084,0,1.27416014576,1.76047905896,21,5,7.677,0,0,0,1.27416014576,0,0,0,68, 1.4, -0.1,0,0,1024,1024,1024,1024,0,0,0,0,81.9,0,0,44,3.839,3.836,0,0,0,0,1.144,110.66,-1.968504,-1.968504,10,Assisted_Takeoff,
6800,2025-05-05 00:54:23,-22.7544046871769,-41.8864326525847,-1.968504,-1.9028872,-0.065616800000002,-1.968504,0.328084,0,1.29253941144,1.77948168424,21,5,7.677,0,0,0,1.29253941144,0,0,0,68, 1.4, -0.1,0,0,1024,1024,1024,1024,0,0,0,0,81.9,0,0,44,3.839,3.836,0,0,0,0,1.144,110.66,-1.968504,-1.968504,10,Assisted_Takeoff,
6900,2025-05-05 00:54:24,-22.7544046312523,-41.8864326436946,-1.968504,-1.9028872,-0.065616800000002,-1.968504,0.328084,0,1.31195214172,1.80010504448,21,5,7.677,0,0,0,1.31195214172,0,0,0,68, 1.5, 0,0,0,1024,1024,1024,1024,0,0,0,0,81.9,0,0,44,3.839,3.836,0,0,0,0,1.144,110.66,-1.968504,-1.968504,10,Assisted_Takeoff,
7000,2025-05-05 00:54:24,-22.7544045825061,-41.8864326004413,-1.968504,-1.9028872,-0.065616800000002,-1.968504,0.328084,0,1.33448823168,1.82308404784,21,5,7.677,0,0,0,1.33448823168,0,0,0,67.9, 1.5, 0,0,0,1024,1024,1024,1024,0,0,0,0,81.9,0,0,44,3.839,3.836,0,0,0,0,1.144,110.66,-1.968504,-1.968504,10,Assisted_Takeoff,
7100,2025-05-05 00:54:24,-22.7544045836968,-41.8864325427902,-1.968504,-1.9028872,-0.065616800000002,-1.968504,0.328084,0,1.34335306136,1.8424869356,21,5,7.677,0,0,0,1.34335306136,0,0,0,67.9, 1.5, -0.1,0,0,1024,1024,1024,1024,0,0,0,0,81.9,0,0,44,3.839,3.836,0,0,0,0,1.144,110.66,-1.968504,-1.968504,10,Assisted_Takeoff,
7200,2025-05-05 00:54:24,-22.7544045867605,-41.8864324872233,-1.64042,-1.6076116,-0.032808400000002,-1.64042,0.328084,0,1.35149938708,1.86121397032,21,5,7.677,0,0,0,1.35149938708,0,0,0,67.9, 1.5, -0.1,0,0,1024,1024,1024,1024,0,0,0,0,81.9,0,0,44,3.839,3.836,0,0,0,0,1.144,110.66,-1.64042,-1.64042,10,Assisted_Takeoff,
7300,2025-05-05 00:54:24,-22.7544045041662,-41.8864325282051,-1.64042,-1.5748032,-0.065616800000002,-1.64042,0.328084,0,1.37117130372,1.89435373516,21,5,7.677,0,0,0,1.37117130372,0,0,0,67.9, 1.6, 0,0,0,1024,1024,1024,1024,0,0,0,0,81.9,0,0,44,3.839,3.836,0,0,0,0,1.144,110.66,-1.64042,-1.64042,10,Assisted_Takeoff,
7400,2025-05-05 00:54:24,-22.7544044256806,-41.8864325270934,-1.64042,-1.5419948,-0.098425200000001,-1.64042,0.328084,0,1.39659453288,1.92299218752,21,5,7.677,0,0,0,1.39659453288,0,0,0,68, 1.6, 0,0,0,1024,1024,1024,1024,0,0,0,0,81.9,0,0,44,3.839,3.836,0,0,0,0,1.144,110.66,-1.64042,-1.64042,10,Assisted_Takeoff,
7500,2025-05-05 00:54:24,-22.7544044154652,-41.8864325418016,-1.64042,-1.5419948,-0.098425200000001,-1.64042,0.328084,0,1.3975886274,1.92918641344,21,5,7.676,0,0,0,1.3975886274,0,0,0,68, 1.5, -0.1,0,0,1024,1024,1024,1024,0,0,0,0,81.9,0,0,44,3.838,3.837,0,0,0,0,1.139,110.66,-1.64042,-1.64042,10,Assisted_Takeoff,
7600,2025-05-05 00:54:24,-22.7544044081696,-41.8864325567678,-1.64042,-1.5419948,-0.098425200000001,-1.64042,0.328084,0,1.3976214358,1.93488195168,21,5,7.676,0,0,0,1.3976214358,0,0,0,68, 1.5, 0,0,0,1024,1024,1024,1024,0,0,0,0,81.9,0,0,44,3.838,3.837,0,0,0,0,1.139,110.66,-1.64042,-1.64042,10,Assisted_Takeoff,
7700,2025-05-05 00:54:24,-22.7544044036886,-41.8864326661219,-1.64042,-1.5419948,-0.098425200000001,-1.64042,0.328084,0,1.38254269516,1.97171266152,21,5,7.676,0,0,0,1.3976214358,0,0,0,68, 1.4, 0,0,0,1024,1024,1024,1024,0,0,0,0,81.9,0,0,44,3.838,3.837,0,0,0,0,1.139,110.66,-1.64042,-1.64042,10,Assisted_Takeoff,
7800,2025-05-05 00:54:24,-22.754404369662,-41.886432680827,-1.64042,-1.5419948,-0.098425200000001,-1.64042,0.328084,0,1.39156172432,1.98507552284,21,5,7.676,0,0,0,1.3976214358,0,0,0,68, 1.5, 0,0,0,1024,1024,1024,1024,0,0,0,0,81.9,0,0,44,3.838,3.837,0,0,0,0,1.139,110.66,-1.64042,-1.64042,10,Assisted_Takeoff,
7900,2025-05-05 00:54:25,-22.7544043211209,-41.8864326893815,-1.64042,-1.5419948,-0.098425200000001,-1.64042,0.328084,0,1.40632550432,2.0030184368,21,5,7.676,0,0,0,1.40632550432,0,0,0,67.9, 1.5, -0.1,0,0,1024,1024,1024,1024,0,0,0,0,81.9,0,0,44,3.838,3.837,0,0,0,0,1.139,110.66,-1.64042,-1.64042,10,Assisted_Takeoff,
8000,2025-05-05 00:54:25,-22.7544042756314,-41.8864326972338,-1.64042,-1.5419948,-0.098425200000001,-1.64042,0.328084,0,1.42024938928,2.01982289928,21,5,7.676,0,0,0,1.42024938928,0,0,0,67.9, 1.5, -0.1,0,0,1024,1024,1024,1024,0,0,0,0,81.9,0,0,44,3.838,3.837,0,0,0,0,1.139,110.66,-1.64042,-1.64042,10,Assisted_Takeoff,
8100,2025-05-05 00:54:25,-22.7544042241102,-41.8864326482777,-1.64042,-1.5419948,-0.098425200000001,-1.64042,0.328084,0,1.4442421722,2.0448163384,21,5,7.676,0,0,0,1.4442421722,0,0,0,67.9, 1.6, -0.1,0,0,1024,1024,1024,1024,0,0,0,0,81.9,0,0,44,3.838,3.837,0,0,0,0,1.139,110.66,-1.64042,-1.64042,10,Assisted_Takeoff,
8200,2025-05-05 00:54:25,-22.7544041335955,-41.8864325432919,-1.64042,-1.5419948,-0.098425200000001,-1.64042,0.328084,0,1.4892388928,2.09317263916,21,5,7.676,0,0,0,1.4892388928,0,0,0,67.9, 1.6, 0,0,0,1024,1024,1024,1024,0,0,0,0,81.9,0,0,44,3.838,3.837,0,0,0,0,1.139,110.66,-1.64042,-1.64042,10,Assisted_Takeoff,
8300,2025-05-05 00:54:25,-22.7544041373775,-41.886432583085,-1.64042,-1.5419948,-0.098425200000001,-1.64042,0.328084,0,1.48221461436,2.10663392568,21,5,7.676,0,0,0,1.4892388928,0,0,0,68, 1.5, 0,0,0,1024,1024,1024,1024,0,0,0,0,81.9,0,0,44,3.838,3.837,0,0,0,0,1.139,110.66,-1.64042,-1.64042,10,Assisted_Takeoff,
8400,2025-05-05 00:54:25,-22.7544041436286,-41.8864326230309,-1.312336,-1.2139108,-0.098425200000001,-1.312336,0.328084,0,1.4744423044,2.12026581588,21,5,7.676,0,0,0,1.4892388928,0,0,0,68, 1.5, 0,0,0,1024,1024,1024,1024,0,0,0,0,81.9,0,0,44,3.838,3.837,0,0,0,0,1.139,110.66,-1.312336,-1.312336,10,Assisted_Takeoff,
8500,2025-05-05 00:54:25,-22.7544041658192,-41.886432643995,-1.312336,-1.2139108,-0.098425200000001,-1.312336,0.328084,0,1.46413390512,2.1310040052,21,5,7.675,0,0,0,1.4892388928,0,0,0,68, 1.4, -0.1,0,0,1024,1024,1024,1024,0,0,0,0,81.9,0,0,44,3.838,3.836,0,0,0,0,1.136,110.66,-1.312336,-1.312336,10,Assisted_Takeoff,
8600,2025-05-05 00:54:25,-22.7544042868721,-41.8864327348707,-1.312336,-1.2139108,-0.098425200000001,-1.312336,0.328084,0,1.41124676432,2.18471791768,21,5,7.675,0,0,0,1.4892388928,0,0,0,67.9, 1.4, -0.1,0,0,1024,1024,1024,1024,0,0,0,0,81.9,0,0,44,3.838,3.836,0,0,0,0,1.136,110.66,-1.312336,-1.312336,10,Assisted_Takeoff,
8700,2025-05-05 00:54:25,-22.7544042491964,-41.8864327361828,-1.312336,-1.2139108,-0.098425200000001,-1.312336,0.328084,0,1.42359256524,2.19847119896,21,5,7.675,0,0,0,1.4892388928,0,0,0,67.9, 1.6, 0,0,0,1024,1024,1024,1024,0,0,0,0,81.9,0,0,44,3.838,3.836,0,0,0,0,1.136,110.66,-1.312336,-1.312336,10,Assisted_Takeoff,
8800,2025-05-05 00:54:25,-22.7544042141751,-41.8864327377117,-1.312336,-1.2139108,-0.098425200000001,-1.312336,0.328084,0,1.43505253936,2.21125991328,21,5,7.675,0,0,0,1.4892388928,0,0,0,67.9, 1.6, 0,0,0,1024,1024,1024,1024,0,0,0,0,81.9,0,0,44,3.838,3.836,0,0,0,0,1.136,110.66,-1.312336,-1.312336,10,Assisted_Takeoff,
8900,2025-05-05 00:54:26,-22.754404260332,-41.8864327867853,-1.312336,-1.2139108,-0.098425200000001,-1.312336,0.328084,0,1.41298232868,2.23484587204,21,5,7.675,0,0,0,1.4892388928,0,0,0,67.9, 1.5, -0.1,0,0,1024,1024,1024,1024,0,0,0,0,81.9,0,0,44,3.838,3.836,0,0,0,0,1.136,110.66,-1.312336,-1.312336,10,Assisted_Takeoff,
9000,2025-05-05 00:54:26,-22.7544043816315,-41.8864329205167,-1.312336,-1.2139108,-0.098425200000001,-1.312336,0.328084,0,1.35461618508,2.29795611028,21,5,7.675,0,0,0,1.4892388928,0,0,0,67.9, 1.5, -0.1,0,0,1024,1024,1024,1024,0,0,0,0,81.9,0,0,44,3.838,3.836,0,0,0,0,1.136,110.66,-1.312336,-1.312336,10,Assisted_Takeoff,
9100,2025-05-05 00:54:26,-22.754404402936,-41.8864329367046,-1.312336,-1.2139108,-0.098425200000001,-1.312336,0.328084,0,1.34534781208,2.3074475804,21,5,7.675,0,0,0,1.4892388928,0,0,0,68, 1.5, 0,0,0,1024,1024,1024,1024,0,0,0,0,81.9,0,0,44,3.838,3.836,0,0,0,0,1.136,110.66,-1.312336,-1.312336,10,Assisted_Takeoff,
9200,2025-05-05 00:54:26,-22.7544044242332,-41.8864329515587,-1.312336,-1.2139108,-0.098425200000001,-1.312336,0.328084,0,1.33625660444,2.31668642584,21,5,7.675,0,0,0,1.4892388928,0,0,0,68, 1.5, 0,0,0,1024,1024,1024,1024,0,0,0,0,81.9,0,0,44,3.838,3.836,0,0,0,0,1.136,110.66,-1.312336,-1.312336,10,Assisted_Takeoff,
9300,2025-05-05 00:54:26,-22.7544044305266,-41.8864328971937,-1.312336,-1.2139108,-0.098425200000001,-1.312336,0.328084,0,1.3412402004,2.3351214658,21,5,7.675,0,0,0,1.4892388928,0,0,0,68, 1.5, 0,0,0,1024,1024,1024,1024,0,0,0,0,81.9,0,0,44,3.838,3.836,0,0,0,0,1.136,110.66,-1.312336,-1.312336,10,Assisted_Takeoff,
9400,2025-05-05 00:54:26,-22.7544044693793,-41.886432723499,-1.312336,-1.2139108,-0.098425200000001,-1.312336,0.328084,0,1.35255253672,2.39525598216,21,5,7.675,0,0,0,1.4892388928,0,0,0,67.9, 1.5, 0,0,0,1024,1024,1024,1024,0,0,0,0,81.9,0,0,44,3.838,3.836,0,0,0,0,1.136,110.66,-1.312336,-1.312336,10,Assisted_Takeoff,
9500,2025-05-05 00:54:26,-22.7544044752324,-41.8864327018761,-1.312336,-1.2139108,-0.098425200000001,-1.312336,0.328084,0,1.3538058176,2.4028380034,21,5,7.675,0,0,0,1.4892388928,0,0,0,67.9, 1.5, 0,0,0,1024,1024,1024,1024,0,0,0,0,81.9,0,0,44,3.838,3.835,0,0,0,0,1.144,110.66,-1.312336,-1.312336,10,Assisted_Takeoff,
9600,2025-05-05 00:54:26,-22.7544044816823,-41.8864326810377,-1.312336,-1.2139108,-0.098425200000001,-1.312336,0.328084,0,1.3547900696,2.41023301676,21,5,7.675,0,0,0,1.4892388928,0,0,0,67.9, 1.5, 0,0,0,1024,1024,1024,1024,0,0,0,0,81.9,0,0,44,3.838,3.835,0,0,0,0,1.144,110.66,-1.312336,-1.312336,10,Assisted_Takeoff,
9700,2025-05-05 00:54:26,-22.7544044852944,-41.8864326772114,-1.312336,-1.2139108,-0.098425200000001,-1.312336,0.328084,0,1.3541831142,2.41207684884,21,5,7.675,0,0,0,1.4892388928,0,0,0,67.9, 1.4, 0,0,0,1024,1024,1024,1024,0,0,0,0,81.9,0,0,44,3.838,3.835,0,0,0,0,1.144,110.66,-1.312336,-1.312336,10,Assisted_Takeoff,
9800,2025-05-05 00:54:26,-22.7544044883267,-41.8864326739726,-1.312336,-1.2139108,-0.098425200000001,-1.312336,0.328084,0,1.35367786484,2.41362868616,20,5,7.675,0,0,0,1.4892388928,0,0,0,68, 1.5, -0.1,0,0,1024,1024,1024,1024,0,0,0,0,81.9,0,0,44,3.838,3.835,0,0,0,0,1.144,110.66,-1.312336,-1.312336,10,Assisted_Takeoff,
9900,2025-05-05 00:54:27,-22.7544044128001,-41.8864325252428,-1.312336,-1.2139108,-0.098425200000001,-1.312336,0.328084,0,1.40104007108,2.47075467224,20,5,7.675,0,0,0,1.4892388928,0,0,0,67.9, 1.5, 0,0,0,1024,1024,1024,1024,0,0,0,0,81.9,0,0,44,3.838,3.835,0,0,0,0,1.144,110.66,-1.312336,-1.312336,10,Assisted_Takeoff,
10000,2025-05-05 00:54:27,-22.7544044109882,-41.886432470366,-1.312336,-1.2467192,-0.065616800000002,-1.312336,0.328084,0,1.4103346908,2.48922908228,21,5,7.675,0,0,0,1.4892388928,0,0,0,67.9, 1.5, 0,0,0,1024,1024,1024,1024,0,0,0,0,81.9,0,0,44,3.838,3.835,0,0,0,0,1.144,110.66,-1.312336,-1.312336,10,Assisted_Takeoff,
10100,2025-05-05 00:54:27,-22.7544043578787,-41.8864324515788,-1.312336,-1.2467192,-0.065616800000002,-1.312336,0.328084,0,1.43038390404,2.5096129412,21,5,7.675,0,0,0,1.4892388928,0,0,0,67.9, 1.5, 0,0,0,1024,1024,1024,1024,0,0,0,0,81.9,0,0,44,3.838,3.835,0,0,0,0,1.144,110.66,-1.312336,-1.312336,10,Assisted_Takeoff,
10200,2025-05-05 00:54:27,-22.7544043065834,-41.8864324344908,-1.312336,-1.2467192,-0.065616800000002,-1.312336,0.328084,0,1.44959322224,2.52918971348,21,5,7.675,0,0,0,1.4892388928,0,0,0,68, 1.5, 0,0,0,1024,1024,1024,1024,0,0,0,0,81.9,0,0,44,3.838,3.835,0,0,0,0,1.144,110.66,-1.312336,-1.312336,10,Assisted_Takeoff,
10300,2025-05-05 00:54:27,-22.754404347626,-41.8864325297962,-1.312336,-1.2139108,-0.098425200000001,-1.312336,0.328084,0,1.42141080664,2.56458013456,21,5,7.675,0,0,0,1.4892388928,0,0,0,68, 1.6, 0,0,0,1024,1024,1024,1024,0,0,0,0,81.9,0,0,44,3.838,3.835,0,0,0,0,1.144,110.66,-1.312336,-1.312336,10,Assisted_Takeoff,
10400,2025-05-05 00:54:27,-22.7544043884448,-41.8864325384007,-1.312336,-1.2139108,-0.098425200000001,-1.312336,0.328084,0,1.4068570004,2.57975073872,21,5,7.675,0,0,0,1.4892388928,0,0,0,67.9, 1.5, 0,0,0,1024,1024,1024,1024,0,0,0,0,81.9,0,0,44,3.838,3.835,0,0,0,0,1.144,110.66,-1.312336,-1.312336,10,Assisted_Takeoff,
10500,2025-05-05 00:54:27,-22.7544044121388,-41.8864326016657,-1.312336,-1.2139108,-0.098425200000001,-1.312336,0.328084,0,1.38943902084,2.60272646124,21,5,7.675,0,0,0,1.4892388928,0,0,0,67.9, 1.4, -0.1,0,0,1024,1024,1024,1024,0,0,0,0,81.9,0,0,44,3.838,3.835,0,0,0,0,1.144,110.66,-1.312336,-1.312336,10,Assisted_Takeoff,
10600,2025-05-05 00:54:27,-22.7544044353397,-41.8864326635775,-1.312336,-1.2139108,-0.098425200000001,-1.312336,0.328084,0,1.37255253736,2.62521005776,21,5,7.674,0,0,0,1.4892388928,0,0,0,67.9, 1.4, -0.1,0,0,1024,1024,1024,1024,0,0,0,0,81.9,0,0,44,3.838,3.836,0,0,0,0,1.147,110.48,-1.312336,-1.312336,10,Assisted_Takeoff,
10700,2025-05-05 00:54:27,-22.7544044352924,-41.8864327747121,-1.312336,-1.2139108,-0.098425200000001,-1.312336,0.328084,0,1.35643705128,2.66260179124,21,5,7.674,0,0,0,1.4892388928,0,0,0,67.9, 1.5, 0,0,0,1024,1024,1024,1024,0,0,0,0,81.9,0,0,44,3.838,3.836,0,0,0,0,1.147,110.48,-1.312336,-1.312336,10,Assisted_Takeoff,
10800,2025-05-05 00:54:27,-22.7544044428929,-41.8864327892417,-1.312336,-1.2139108,-0.098425200000001,-1.312336,0.328084,0,1.351870122,2.66822187016,21,5,7.674,0,0,0,1.4892388928,0,0,0,67.9, 1.5, 0,0,0,1024,1024,1024,1024,0,0,0,0,81.9,0,0,44,3.838,3.836,0,0,0,0,1.147,110.48,-1.312336,-1.312336,10,Assisted_Takeoff,
10900,2025-05-05 00:54:27,-22.7544043945375,-41.8864327318859,-1.312336,-1.2139108,-0.098425200000001,-1.312336,0.328084,0,1.3760007002,2.69437016496,21,5,7.674,0,0,0,1.4892388928,0,0,0,67.9, 1.5, 0,0,0,1024,1024,1024,1024,0,0,0,0,81.9,0,0,44,3.838,3.836,0,0,0,0,1.147,110.48,-1.312336,-1.312336,10,Assisted_Takeoff,
11000,2025-05-05 00:54:28,-22.7544043471556,-41.8864326745393,-1.312336,-1.2139108,-0.098425200000001,-1.312336,0.328084,0,1.39988193456,2.7202756776,21,5,7.674,0,0,0,1.4892388928,0,0,0,67.9, 1.5, 0,0,0,1024,1024,1024,1024,0,0,0,0,81.9,0,0,44,3.838,3.836,0,0,0,0,1.147,110.48,-1.312336,-1.312336,10,Assisted_Takeoff,
11100,2025-05-05 00:54:28,-22.7544042300163,-41.8864325467108,-1.312336,-1.2139108,-0.098425200000001,-1.312336,0.328084,0,1.45713259256,2.78090888164,21,5,7.674,0,0,0,1.4892388928,0,0,0,67.9, 1.5, 0,0,0,1024,1024,1094,1024,0,0,11,0,81.9,0,0,44,3.838,3.836,0,0,0,0,1.147,110.48,-1.312336,-1.312336,10,Assisted_Takeoff,
11200,2025-05-05 00:54:28,-22.7544042180485,-41.8864325237099,-1.312336,-1.2139108,-0.098425200000001,-1.312336,0.328084,0,1.46448823584,2.78979339636,21,5,7.674,0,0,0,1.4892388928,0,0,0,67.9, 1.5, -0.1,0,0,1024,1024,1131,1024,0,0,16,0,81.9,0,0,44,3.838,3.836,0,0,0,0,1.147,110.48,-1.312336,-1.312336,10,Assisted_Takeoff,
11300,2025-05-05 00:54:28,-22.7544041713505,-41.8864324667386,-1.312336,-1.2467192,-0.065616800000002,-1.312336,0.328084,0,1.48832681928,2.81543972264,21,5,7.674,0,0,0,1.4892388928,0,0,0,67.9, 1.4, 0,0,0,1024,1024,1098,1024,0,0,11,0,81.9,0,0,44,3.838,3.836,0,0,0,0,1.147,110.48,-1.312336,-1.312336,10,Assisted_Takeoff,
11400,2025-05-05 00:54:28,-22.754404126896,-41.8864324108081,-1.312336,-1.2467192,-0.065616800000002,-1.312336,0.328084,0,1.5113353502,2.84028224312,21,5,7.674,0,0,0,1.5113353502,0,0,0,67.9, 1.5, 0,0,0,1024,1024,1098,1024,0,0,11,0,81.9,0,0,44,3.838,3.836,0,0,0,0,1.147,110.48,-1.312336,-1.312336,10,Assisted_Takeoff,
11500,2025-05-05 00:54:28,-22.7544041212237,-41.8864323972419,-1.64042,-1.5748032,-0.065616800000002,-1.64042,0.328084,0,1.51526907736,2.84529536664,21,5,7.674,0,0,0,1.51526907736,0,0,0,67.9, 1.5, -0.1,0,0,1024,1024,1031,1024,0,0,1,0,81.9,0,0,44,3.838,3.836,0,0,0,0,1.147,110.48,-1.64042,-1.64042,10,Assisted_Takeoff,
11600,2025-05-05 00:54:28,-22.7544040664642,-41.8864323541217,-1.64042,-1.5748032,-0.065616800000002,-1.64042,0.328084,0,1.53968508864,2.86998368764,21,5,7.674,0,0,0,1.53968508864,0,0,0,67.9, 1.5, -0.1,0,0,1024,1024,1024,1024,0,0,0,0,81.9,0,0,44,3.838,3.834,0,0,0,0,1.153,110.66,-1.64042,-1.64042,10,Assisted_Takeoff,
11700,2025-05-05 00:54:28,-22.7544040209161,-41.8864323620485,-1.968504,-1.9028872,-0.065616800000002,-1.968504,0.328084,0,1.55322511532,2.88681439684,21,5,7.674,0,0,0,1.55322511532,0,0,0,67.9, 1.5, -0.1,0,0,1024,1024,1096,1024,0,0,11,0,81.9,0,0,44,3.838,3.834,0,0,0,0,1.153,110.66,-1.968504,-1.968504,10,Assisted_Takeoff,
11800,2025-05-05 00:54:28,-22.7544039769232,-41.8864323701136,-1.968504,-1.9028872,-0.065616800000002,-1.968504,0.328084,0,1.56629926272,2.90309392492,21,5,7.674,0,0,0,1.56629926272,0,0,0,67.9, 1.5, 0,0,0,1024,1024,1122,1024,0,0,15,0,81.9,0,0,44,3.838,3.834,0,0,0,0,1.153,110.66,-1.968504,-1.968504,10,Assisted_Takeoff,
11900,2025-05-05 00:54:29,-22.7544039696876,-41.88643232899,-1.968504,-1.9028872,-0.065616800000002,-1.968504,0.328084,0,1.57493115276,2.91717857104,21,5,7.674,0,0,0,1.57493115276,0,0,0,67.9, 1.4, 0,0,0,1024,1024,1162,1024,0,0,21,0,81.9,0,0,44,3.838,3.834,0,0,0,0,1.153,110.66,-1.968504,-1.968504,10,Assisted_Takeoff,
12000,2025-05-05 00:54:29,-22.7544039546682,-41.8864322745281,-2.296588,-2.2309712,-0.065616800000002,-2.296588,0.328084,0,1.58824152064,2.93630586824,21,5,7.674,0,0,0,1.58824152064,0,0,0.223694,67.9, 1.5, 0,0,0,1024,1024,1255,1024,0,0,35,0,81.9,0,0,44,3.838,3.834,0,0,0,0,1.153,110.66,-2.296588,-2.296588,10,Assisted_Takeoff,
12100,2025-05-05 00:54:29,-22.7544039146509,-41.8864322118132,-2.624672,-2.5590552,-0.065616800000002,-2.624672,0.328084,0,1.61102039276,2.96196531788,21,5,7.674,0,0,0,1.61102039276,0,0,0.223694,67.8, 1.5, 0,0,0,1024,1024,1299,1024,0,0,42,0,81.9,0,0,44,3.838,3.834,0,0,0,0,1.153,110.66,-2.624672,-2.624672,10,Assisted_Takeoff,
12200,2025-05-05 00:54:29,-22.7544038764072,-41.8864321517823,-2.624672,-2.5590552,-0.065616800000002,-2.624672,0.328084,0,1.63288391052,2.98651256276,21,5,7.674,0,0,0,1.63288391052,0,0,0.223694,67.7, 1.5, 0,0,0,1024,1024,1299,1024,0,0,42,0,81.9,0,0,44,3.838,3.834,0,0,0,0,1.153,110.66,-2.624672,-2.624672,10,Assisted_Takeoff,
12300,2025-05-05 00:54:29,-22.7544038720106,-41.8864320867617,-2.952756,-2.8871392,-0.065616800000002,-2.952756,0.328084,0,1.64484257232,3.008448259,21,5,7.674,0,0,0,1.64484257232,0,0,0.223694,66.9, 1.2, 0,0,0,1024,1024,1281,1024,0,0,39,0,81.9,0,0,44,3.838,3.834,0,0,0,0,1.153,110.66,-2.952756,-2.952756,10,Assisted_Takeoff,
12400,2025-05-05 00:54:29,-22.7544038668483,-41.8864319383377,-3.28084,-3.2152232,-0.065616800000002,-3.28084,0.328084,0,1.67136488288,3.05842201388,21,5,7.674,0,0,0,1.67136488288,0,0,0,65, -1.6, 0,0,0,1024,1024,1289,1024,0,0,40,0,81.8,0,0,44,3.838,3.834,0,0,0,0,1.153,110.66,-3.28084,-3.28084,10,Assisted_Takeoff,
12500,2025-05-05 00:54:29,-22.7544038007174,-41.8864319066155,-3.608924,-3.5433072,-0.065616800000002,-3.608924,0.328084,0,1.69756567112,3.08480652916,21,5,7.674,0,0,0,1.69756567112,0,0,0,63.4, -2.2, -0.3,0,0,1024,1024,1207,1024,0,0,28,0,81.4,0,0,44,3.838,3.834,0,0,0,0,1.153,110.66,-3.608924,-3.608924,10,Assisted_Takeoff,
12600,2025-05-05 00:54:29,-22.7544037022169,-41.8864318505406,-3.608924,-3.5433072,-0.065616800000002,-3.608924,0.328084,0,1.738107011,3.1253938008,21,5,7.662,0,0,0,1.738107011,0,0,0,62.6, -1.5, -0.3,0,0,1024,1024,1024,1024,0,0,0,0,80.9,0,0,44,3.815,3.809,0,0,0,0,1.592,110.66,-3.608924,-3.608924,6,P-GPS,
12700,2025-05-05 00:54:29,-22.7544035991673,-41.8864317445751,-3.608924,-3.5433072,-0.065616800000002,-3.608924,0.328084,0,1.78862538532,3.17720810692,21,5,7.662,0,0,0,1.78862538532,0,0,0,62.9, 0.2, 0.9,0,0,1024,1024,1024,1024,0,0,0,0,80.4,0,0,44,3.815,3.809,0,0,0,0,1.592,110.66,-3.608924,-3.608924,6,P-GPS,
12800,2025-05-05 00:54:29,-22.7544034878891,-41.8864316900827,-3.28084,-3.1824148,-0.098425200000001,-3.28084,0.328084,0,1.83289375944,3.22175535244,21,5,7.662,0,0,0,1.83289375944,0,0,-0.223694,62.9, 1.2, 0.3,0,0,1230,1024,1024,1024,31,0,0,0,80.1,0,0,44,3.815,3.809,0,0,0,0,1.592,110.66,-3.28084,-3.28084,6,P-GPS,"Punto de origen actualizado. Altitud de RPO establecida en 100m (Code: 30213)"
12900,2025-05-05 00:54:30,-22.7544033578244,-41.8864315781426,-2.952756,-2.8543308,-0.098425200000001,-2.952756,0.328084,0,1.89293641228,3.2823491864,21,5,7.662,0,0,0,1.89293641228,0,0,-0.447388,62.9, 1.6, 0.2,0,0,1572,1024,1024,1024,83,0,0,0,79.8,0,0,44,3.815,3.809,0,0,0,0,1.592,110.66,-2.952756,-2.952756,6,P-GPS,
13000,2025-05-05 00:54:30,-22.7544032345899,-41.8864314931729,-2.624672,-2.5262468,-0.098425200000001,-2.624672,0.656168,0,1.94620084968,3.335630028,21,5,7.662,0,0,0,1.94620084968,0,0,-0.894776,63.1, -1.1, 0.9,0,0,1609,1024,1024,1024,89,0,0,0,79.6,0,0,44,3.815,3.809,0,0,0,0,1.592,110.66,-2.624672,-2.624672,6,P-GPS,
13100,2025-05-05 00:54:30,-22.754403120293,-41.8864313614311,-1.968504,-1.8700788,-0.098425200000001,-1.968504,0.984252,0.223694,2.00482946048,3.39648961,21,5,7.662,0,0,0.223694,2.00482946048,0.223694,0,-1.11847,62.9, -8.4, 0.9,0,0,1609,1024,1024,1024,89,0,0,0,79.4,0,0,44,3.815,3.809,0,0,0,0,1.592,110.66,-1.968504,-1.968504,6,P-GPS,
13200,2025-05-05 00:54:30,-22.7544029655264,-41.8864311359115,-1.64042,-1.5419948,-0.098425200000001,-1.64042,0.984252,0.6263432,2.09287736356,3.4910762272,21,5,7.662,0,0,0.6263432,2.09287736356,0.447388,0.447388,-1.11847,62.8, -13.4, 0.9,0,0,1590,1024,1024,1024,86,0,0,0,79.2,0,0,44,3.815,3.809,0,0,0,0,1.592,110.66,-1.64042,-1.64042,6,P-GPS,
13300,2025-05-05 00:54:30,-22.7544025908357,-41.8864304095845,-0.984252,-0.9186352,-0.065616800000002,-0.984252,1.312336,1.11847,2.34302172852,3.7710631128,21,5,7.662,0,0,1.11847,2.34302172852,0.671082,0.894776,-1.11847,62.9, -14.7, 1.3,0,0,1534,1024,1024,1024,77,0,0,0,79.1,0,0,44,3.815,3.809,0,0,0,0,1.592,110.66,-0.984252,-0.984252,6,P-GPS,
13400,2025-05-05 00:54:30,-22.7544022213636,-41.8864297451551,-0.656168,-0.5577428,-0.098425200000001,-0.656168,1.64042,1.11847,2.58491806172,4.0321195516,21,5,7.662,0,0,1.11847,2.58491806172,0.894776,1.342164,-0.894776,62.9, -13.7, 1.3,0,0,1268,1024,1024,1024,37,0,0,0,79,0,0,44,3.815,3.809,0,0,0,0,1.592,110.66,-0.656168,-0.656168,6,P-GPS,
13500,2025-05-05 00:54:30,-22.7544017836183,-41.8864289253581,-0.328084,-0.2624672,-0.065616800000002,-0.328084,1.968504,2.1027236,2.88292988228,4.3508531576,21,5,7.662,0,0,2.1027236,2.88292988228,1.11847,1.789552,-0.894776,62.9, -10.1, 1.5,0,0,1190,1024,1024,1024,25,0,0,0,78.9,0,0,44,3.815,3.809,0,0,0,0,1.592,110.66,-0.328084,-0.328084,6,P-GPS,
13600,2025-05-05 00:54:30,-22.7544013204153,-41.8864280290067,0,0.098425200000001,-0.098425200000001,0,1.968504,2.3040482,3.20917333104,4.6965552684,20,5,7.566,0,0,2.3040482,3.20917333104,1.11847,2.013246,-0.671082,62.9, -4.9, 1.3,0,0,1160,1024,1024,1024,21,0,0,0,78.8,0,0,44,3.788,3.781,0,0,0,0,4.235,110.66,0,0,6,P-GPS,
13700,2025-05-05 00:54:30,-22.7544006762835,-41.8864269505682,0,0.065616800000002,-0.065616800000002,0,2.296588,2.3040482,3.6291339744,5.1288715552,20,5,7.566,0,0,2.3040482,3.6291339744,1.11847,2.013246,-0.447388,63.1, -1.8, 0.9,0,0,1149,1024,1024,1024,19,0,0,0,78.7,0,0,44,3.788,3.781,0,0,0,0,4.235,110.66,0,0,6,P-GPS,
13800,2025-05-05 00:54:30,-22.7544001206694,-41.8864259494035,0.328084,0.4265092,-0.098425200000001,0.328084,2.296588,2.6172198,4.0105316244,5.521981804,21,5,7.566,0.328084,0.328084,2.6172198,4.0105316244,1.342164,2.23694,-0.447388,63.2, -0.9, 1.2,0,0,1117,1024,1024,1024,14,0,0,0,78.6,0,0,44,3.788,3.781,0,0,0,0,4.235,110.66,0.328084,0.328084,6,P-GPS,
13900,2025-05-05 00:54:31,-22.7543992535303,-41.8864247909174,0.656168,0.7545932,-0.098425200000001,0.656168,3.937008,2.3040482,4.5106300656,6.0240159408,21,5,7.566,0.656168,0.656168,2.6172198,4.5106300656,1.11847,2.013246,-0.223694,63.2, -0.5, 1.3,0,0,1117,1024,1024,1024,14,0,0,0,78.5,0,0,44,3.788,3.781,0,0,0,0,4.235,110.66,0.656168,0.656168,6,P-GPS,
14000,2025-05-05 00:54:31,-22.7543984245306,-41.8864236918864,0.656168,0.7545932,-0.098425200000001,0.656168,4.265092,2.3040482,4.9870080336,6.5017390532,22,5,7.566,0.656168,0.656168,2.6172198,4.9870080336,1.11847,2.013246,0,63.2, 0, 1,0,0,1066,1024,1024,1024,6,0,0,0,78.5,0,0,44,3.788,3.781,0,0,0,0,4.235,110.66,0.656168,0.656168,6,P-GPS,
14100,2025-05-05 00:54:31,-22.7543972170711,-41.8864225952249,0.984252,1.1154856,-0.1312336,0.984252,4.265092,2.3040482,5.5581694692,7.0763781792,22,5,7.566,0.984252,0.984252,2.6172198,5.5581694692,1.11847,2.013246,0,63.3, 0.5, 1.2,0,0,1024,1024,1024,1024,0,0,0,0,78.4,0,0,44,3.788,3.781,0,0,0,0,4.235,110.66,0.984252,0.984252,6,P-GPS,
14200,2025-05-05 00:54:31,-22.7543965844442,-41.8864216700079,0.984252,1.0826772,-0.098425200000001,0.984252,4.265092,2.23694,5.942585492,7.463911,22,5,7.566,0.984252,0.984252,2.6172198,5.942585492,1.342164,1.789552,0,63.3, 2.1, 1.6,0,0,1024,1024,1024,1024,0,0,0,0,78.4,0,0,44,3.788,3.781,0,0,0,0,4.235,110.66,0.984252,0.984252,6,P-GPS,
14300,2025-05-05 00:54:31,-22.7543959597259,-41.8864209150283,1.312336,1.4107612,-0.098425200000001,1.312336,4.265092,1.9237684,6.2837272352,7.8051839768,22,5,7.566,1.312336,1.312336,2.6172198,6.2837272352,1.11847,1.565858,0,63.4, 8.1, 2.1,0,0,1024,1024,1024,1024,0,0,0,0,78.3,0,0,44,3.788,3.781,0,0,0,0,4.235,110.66,1.312336,1.312336,6,P-GPS,
14400,2025-05-05 00:54:31,-22.7543953974486,-41.8864202681022,1.312336,1.4435696,-0.1312336,1.312336,4.265092,1.6105968,6.582841418,8.1042981596,22,5,7.566,1.312336,1.312336,2.6172198,6.582841418,0.894776,1.342164,0,63.3, 9.1, 2,0,0,1024,1024,1024,1024,0,0,0,0,78.3,0,0,44,3.788,3.781,0,0,0,0,4.235,110.66,1.312336,1.312336,6,P-GPS,
14500,2025-05-05 00:54:31,-22.7543949902496,-41.8864203336259,1.64042,1.7716536,-0.1312336,1.64042,4.265092,1.4316416,6.6701773788,8.2544950148,22,5,7.566,1.64042,1.64042,2.6172198,6.6701773788,0.894776,1.11847,0,63.3, 8.3, 2,0,0,1024,1024,1024,1024,0,0,0,0,78.2,0,0,44,3.788,3.781,0,0,0,0,4.235,110.66,1.64042,1.64042,6,P-GPS,
14600,2025-05-05 00:54:31,-22.7543946025994,-41.8864199758322,1.64042,1.7716536,-0.1312336,1.64042,4.265092,0.9395148,6.8551839464,8.4402233672,22,5,7.585,1.64042,1.64042,2.6172198,6.8551839464,0.671082,0.671082,0,63.3, 7.1, 2.1,0,0,1024,1024,1024,1024,0,0,0,0,78.2,0,0,44,3.791,3.783,0,0,0,0,4.402,110.66,1.64042,1.64042,6,P-GPS,
14700,2025-05-05 00:54:31,-22.7543944339308,-41.8864197853483,1.64042,1.804462,-0.164042,1.64042,4.265092,0.6263432,6.9440290936,8.5290685144,22,5,7.585,1.64042,1.64042,2.6172198,6.9440290936,0.447388,0.447388,0,63.2, 5.6, 2,0,0,1024,1024,1024,1024,0,0,0,0,78.1,0,0,44,3.791,3.783,0,0,0,0,4.402,110.66,1.64042,1.64042,6,P-GPS,
14800,2025-05-05 00:54:31,-22.7543943163026,-41.8864196661491,1.64042,1.804462,-0.164042,1.64042,4.265092,0.4921268,7.0027233212,8.5877955504,22,5,7.585,1.64042,1.64042,2.6172198,7.0027233212,0.447388,0.223694,0,63.1, 4.4, 1.8,0,0,1024,1024,1024,1024,0,0,0,0,78.1,0,0,44,3.791,3.783,0,0,0,0,4.402,110.66,1.64042,1.64042,6,P-GPS,
14900,2025-05-05 00:54:32,-22.7543941146255,-41.8864196253845,1.968504,2.132546,-0.164042,1.968504,4.265092,0.4921268,7.0643374964,8.6626643192,22,5,7.585,1.968504,1.968504,2.6172198,7.0643374964,0.447388,0.223694,0.223694,63.1, 3.5, 1.9,0,0,1024,1024,1024,1024,0,0,0,0,78.1,0,0,44,3.791,3.783,0,0,0,0,4.402,110.66,1.968504,1.968504,6,P-GPS,
15000,2025-05-05 00:54:32,-22.7543940824051,-41.886419960341,1.968504,2.132546,-0.164042,1.968504,4.265092,0.223694,6.9935369692,8.7759517244,22,5,7.585,1.968504,1.968504,2.6172198,7.0643374964,0.223694,0,0.223694,63.2, 2.9, 1.8,0,0,1024,1024,1024,1024,0,0,0,0,78,0,0,44,3.791,3.783,0,0,0,0,4.402,110.66,1.968504,1.968504,6,P-GPS,
15100,2025-05-05 00:54:32,-22.7543940931911,-41.8864199612027,1.968504,2.132546,-0.164042,1.968504,4.265092,0.223694,6.9905185964,8.7798887324,22,5,7.585,1.968504,1.968504,2.6172198,7.0643374964,0.223694,0,0.223694,63.2, 2.4, 1.7,0,0,1024,1024,1024,1024,0,0,0,0,78,0,0,44,3.791,3.783,0,0,0,0,4.402,110.66,1.968504,1.968504,6,P-GPS,
15200,2025-05-05 00:54:32,-22.7543941322372,-41.8864199908367,1.968504,2.132546,-0.164042,1.968504,4.265092,0,6.9733598032,8.7972771844,22,5,7.585,1.968504,1.968504,2.6172198,7.0643374964,0,0,0.223694,63.3, 1.9, 1.6,0,0,1024,1024,1357,1024,0,0,50,0,78,0,0,44,3.791,3.783,0,0,0,0,4.402,110.66,1.968504,1.968504,6,P-GPS,
15300,2025-05-05 00:54:32,-22.7543942261927,-41.886420065402,1.968504,2.132546,-0.164042,1.968504,4.265092,0,6.9312994344,8.8397640624,22,5,7.585,1.968504,1.968504,2.6172198,7.0643374964,0,0,0.223694,63.7, 1.4, 1.4,0,0,1024,1024,1647,1024,0,0,94,0,78,0,0,44,3.791,3.783,0,0,0,0,4.402,110.66,1.968504,1.968504,6,P-GPS,
15400,2025-05-05 00:54:32,-22.7543947653167,-41.8864202053469,1.968504,2.0997376,-0.1312336,1.968504,4.265092,0,6.7585304,9.0420278484,22,5,7.585,1.968504,1.968504,2.6172198,7.0643374964,0,0,0,64.2, 0.8, 0.9,0,0,1024,1024,1585,1024,0,0,85,0,78,0,0,44,3.791,3.783,0,0,0,0,4.402,110.66,1.968504,1.968504,6,P-GPS,
15500,2025-05-05 00:54:32,-22.7543948972858,-41.8864202286266,2.296588,2.4278216,-0.1312336,2.296588,4.265092,0,6.7191275116,9.0908139392,22,5,7.585,2.296588,2.296588,2.6172198,7.0643374964,0,0,-0.671082,64.3, 0.5, 0.9,0,0,1024,1024,1574,1024,0,0,83,0,78,0,0,44,3.791,3.783,0,0,0,0,4.402,110.66,2.296588,2.296588,6,P-GPS,
15600,2025-05-05 00:54:32,-22.7543950351817,-41.8864202629962,2.296588,2.4278216,-0.1312336,2.296588,4.593176,0,6.67568919,9.1424215524,23,5,7.585,2.296588,2.296588,2.6172198,7.0643374964,0,0,-1.565858,64.2, 0.2, 0.9,0,0,1039,1024,1421,1024,2,0,60,0,78,0,0,44,3.791,3.783,0,0,0,0,4.402,110.66,2.296588,2.296588,6,P-GPS,
15700,2025-05-05 00:54:32,-22.7543950937959,-41.886420293068,2.624672,2.7559056,-0.1312336,2.624672,4.92126,0,6.6535107116,9.1660764088,23,5,7.571,2.624672,2.624672,2.6172198,7.0643374964,0,0,-2.23694,64.1, 0, 0.6,0,0,1242,1024,1024,1024,33,0,0,0,78,0,0,44,3.787,3.768,0,0,0,0,4.42,110.66,2.624672,2.624672,6,P-GPS,
15800,2025-05-05 00:54:32,-22.7543952238328,-41.8864201781446,3.28084,3.4120736,-0.1312336,3.28084,5.249344,0,6.6484254096,9.2272968832,22,5,7.571,3.28084,3.28084,2.6172198,7.0643374964,0,0,-2.684328,64.2, 0.3, 0.3,0,0,1464,1024,1024,1024,67,0,0,0,78,0,0,44,3.787,3.768,0,0,0,0,4.42,110.66,3.28084,3.28084,6,P-GPS,
15900,2025-05-05 00:54:33,-22.7543952892759,-41.8864201582267,3.608924,3.7401576,-0.1312336,3.608924,5.577428,0,6.636811236,9.2521000336,22,5,7.571,3.608924,3.608924,2.6172198,7.0643374964,0,0,-2.460634,64.2, -1.7, 0.4,0,0,1464,1024,1024,1024,67,0,0,0,78,0,0,44,3.787,3.768,0,0,0,0,4.42,110.66,3.608924,3.608924,6,P-GPS,
16000,2025-05-05 00:54:33,-22.7543953424861,-41.8864201164948,3.937008,4.0682416,-0.1312336,3.937008,5.905512,0,6.633694438,9.2760501656,23,5,7.571,3.937008,3.937008,2.6172198,7.0643374964,0,0,-2.013246,64.2, -7.4, 0.5,0,0,1477,1024,1024,1024,69,0,0,0,78,0,0,44,3.787,3.768,0,0,0,0,4.42,110.66,3.937008,3.937008,6,P-GPS,
16100,2025-05-05 00:54:33,-22.7543953394686,-41.8864200122978,4.265092,4.3963256,-0.1312336,4.265092,6.233596,0.223694,6.6600067748,9.3111223452,23,5,7.571,4.265092,4.265092,2.6172198,7.0643374964,0,0.223694,-1.342164,64.1, -10.4, 0.5,0,0,1479,1024,1024,1024,69,0,0,0,78,0,0,44,3.787,3.768,0,0,0,0,4.42,110.66,4.265092,4.265092,6,P-GPS,
16200,2025-05-05 00:54:33,-22.7543952671193,-41.8864196046642,4.265092,4.3963256,-0.1312336,4.265092,6.233596,0.223694,6.7786091408,9.450787704,23,5,7.571,4.265092,4.265092,2.6172198,7.0643374964,0.223694,0.671082,-0.671082,64, -11.8, 0.4,0,0,1477,1024,1024,1024,69,0,0,0,78,0,0,44,3.787,3.768,0,0,0,0,4.42,110.66,4.265092,4.265092,6,P-GPS,
16300,2025-05-05 00:54:33,-22.7543951345338,-41.8864192135646,4.265092,4.3635172,-0.098425200000001,4.265092,6.56168,0.9171454,6.9085632132,9.5909779972,23,5,7.571,4.265092,4.265092,2.6172198,7.0643374964,0.223694,0.894776,-0.223694,64, -11.9, 0.2,0,0,1444,1024,1024,1024,64,0,0,0,78,0,0,44,3.787,3.768,0,0,0,0,4.42,110.66,4.265092,4.265092,6,P-GPS,
16400,2025-05-05 00:54:33,-22.7543949185346,-41.8864186572801,4.265092,4.3635172,-0.098425200000001,4.265092,6.56168,1.4092722,7.1006563952,9.7940619932,23,5,7.571,4.265092,4.265092,2.6172198,7.1006563952,0.447388,1.342164,0,64, -11.1, 0.2,0,0,1318,1024,1024,1024,45,0,0,0,78,0,0,44,3.787,3.768,0,0,0,0,4.42,110.66,4.265092,4.265092,6,P-GPS,
16500,2025-05-05 00:54:33,-22.7543946868526,-41.8864180247988,4.593176,4.6916012,-0.098425200000001,4.593176,6.56168,1.4092722,7.3165028588,10.0230318168,23,5,7.571,4.593176,4.593176,2.6172198,7.3165028588,0.671082,1.565858,0,64, -9.4, 0.4,0,0,1166,1024,1024,1024,22,0,0,0,78,0,0,44,3.787,3.768,0,0,0,0,4.42,110.66,4.593176,4.593176,6,P-GPS,
16600,2025-05-05 00:54:33,-22.754394373654,-41.8864172383772,4.593176,4.6916012,-0.098425200000001,4.593176,6.56168,1.9908766,7.5918309516,10.3112536108,23,5,7.571,4.593176,4.593176,2.6172198,7.5918309516,0.894776,1.789552,0,64.1, -6, 0.6,0,0,1115,1024,1024,1024,14,0,0,0,78,0,0,44,3.787,3.768,0,0,0,0,4.42,110.66,4.593176,4.593176,6,P-GPS,
16700,2025-05-05 00:54:33,-22.7543937682661,-41.8864161370422,4.593176,4.6916012,-0.098425200000001,4.593176,6.56168,2.1922012,8.017716792,10.7426512624,23,5,7.571,4.593176,4.593176,2.6172198,8.017716792,0.894776,2.013246,0,64.1, -2.3, 0.7,0,0,1061,1024,1024,1024,6,0,0,0,78,0,0,44,3.79,3.782,0,0,0,0,4.42,110.66,4.593176,4.593176,6,P-GPS,
16800,2025-05-05 00:54:33,-22.7543932566643,-41.8864151743922,4.593176,4.6916012,-0.098425200000001,4.593176,6.56168,2.3040482,8.3863847828,11.116470172,23,5,7.571,4.593176,4.593176,2.6172198,8.3863847828,1.11847,2.013246,0,64.3, -0.3, 1,0,0,1061,1024,1024,1024,6,0,0,0,78,0,0,44,3.79,3.782,0,0,0,0,4.42,110.66,4.593176,4.593176,6,P-GPS,
16900,2025-05-05 00:54:34,-22.7543927035658,-41.8864142447021,4.593176,4.6587928,-0.065616800000002,4.593176,6.56168,2.1027236,8.7563651096,11.4887142784,23,5,7.571,4.593176,4.593176,2.6172198,8.7563651096,1.11847,1.789552,0,64.3, 0.6, 1.3,0,0,1024,1024,1024,1024,0,0,0,0,78,0,0,44,3.79,3.782,0,0,0,0,4.42,110.66,4.593176,4.593176,6,P-GPS,
17000,2025-05-05 00:54:34,-22.7543921361304,-41.886413293314,4.593176,4.6916012,-0.098425200000001,4.593176,6.56168,2.1027236,9.13549898,11.869915078,23,5,7.571,4.593176,4.593176,2.6172198,9.13549898,1.11847,1.789552,0,64.4, 5.4, 1.4,0,0,1024,1024,1024,1024,0,0,0,0,78,0,0,44,3.79,3.782,0,0,0,0,4.42,110.66,4.593176,4.593176,6,P-GPS,
17100,2025-05-05 00:54:34,-22.7543911851704,-41.8864125500863,4.265092,4.3963256,-0.1312336,4.265092,6.56168,1.6105968,9.5483598856,12.2976053804,23,5,7.571,4.593176,4.593176,2.6172198,9.5483598856,0.894776,1.342164,0,64.4, 8.4, 1.9,0,0,1024,1024,1024,1024,0,0,0,0,78,0,0,44,3.79,3.782,0,0,0,0,4.42,110.66,4.265092,4.265092,6,P-GPS,
17200,2025-05-05 00:54:34,-22.7543906713043,-41.8864118966606,4.265092,4.3635172,-0.098425200000001,4.265092,6.56168,1.4316416,9.837270656,12.5865489592,23,5,7.571,4.593176,4.593176,2.6172198,9.837270656,0.894776,1.11847,0,64.5, 8.3, 2,0,0,1024,1024,1024,1024,0,0,0,0,78,0,0,44,3.79,3.782,0,0,0,0,4.42,110.66,4.265092,4.265092,6,P-GPS,
17300,2025-05-05 00:54:34,-22.7543903077957,-41.8864115182918,4.265092,4.3963256,-0.1312336,4.265092,6.56168,1.11847,10.019849402,12.7703744244,23,5,7.571,4.593176,4.593176,2.6172198,10.019849402,0.671082,0.894776,0,64.5, 7.3, 1.9,0,0,1024,1024,1024,1024,0,0,0,0,78,0,0,44,3.79,3.782,0,0,0,0,4.42,110.66,4.265092,4.265092,6,P-GPS,
17400,2025-05-05 00:54:34,-22.7543899945987,-41.886411230157,4.265092,4.3635172,-0.098425200000001,4.265092,6.56168,0.6263432,10.1674215852,12.9202103872,23,5,7.571,4.593176,4.593176,2.6172198,10.1674215852,0.447388,0.447388,0,64.5, 6.1, 1.8,0,0,1024,1103,1024,1024,0,12,0,0,78,0,0,44,3.79,3.782,0,0,0,0,4.42,110.66,4.265092,4.265092,6,P-GPS,
17500,2025-05-05 00:54:34,-22.7543896863164,-41.8864115238078,4.265092,4.3963256,-0.1312336,4.265092,6.56168,0.4921268,10.1644360208,13.0699479248,23,5,7.571,4.593176,4.593176,2.6172198,10.1674215852,0.447388,0.223694,0,64.6, 4.8, 1.9,0,0,1024,1427,1024,1024,0,61,0,0,78,0,0,44,3.79,3.782,0,0,0,0,4.42,110.66,4.265092,4.265092,6,P-GPS,
17600,2025-05-05 00:54:34,-22.7543894802612,-41.886411443881,4.265092,4.3963256,-0.1312336,4.265092,6.56168,0.3131716,10.2338585952,13.149770762,22,5,7.571,4.593176,4.593176,2.6172198,10.2338585952,0.223694,0.223694,0,64.5, 3.2, 2.2,0,0,1024,1349,1024,1024,0,49,0,0,78,0,0,44,3.79,3.782,0,0,0,0,4.42,110.66,4.265092,4.265092,6,P-GPS,
17700,2025-05-05 00:54:34,-22.7543893635148,-41.8864114797707,4.265092,4.3963256,-0.1312336,4.265092,6.56168,0.223694,10.252625,13.194062102,22,5,7.557,4.593176,4.593176,2.6172198,10.252625,0.223694,0,0,64.5, 2, 6.6,0,0,1024,1349,1024,1024,0,49,0,0,78,0,0,44,3.782,3.773,0,0,0,0,5.244,110.66,4.265092,4.265092,6,P-GPS,
17800,2025-05-05 00:54:34,-22.7543893216149,-41.8864115216501,4.265092,4.429134,-0.164042,4.265092,6.56168,0,10.2520672572,13.2148298192,22,5,7.557,4.593176,4.593176,2.6172198,10.252625,0,0,0,64.4, 1.3, 9,0,0,1024,1044,1024,1024,0,3,0,0,78,0,0,44,3.782,3.773,0,0,0,0,5.244,110.66,4.265092,4.265092,6,P-GPS,
17900,2025-05-05 00:54:35,-22.7543896390882,-41.8864117785542,4.265092,4.3963256,-0.1312336,4.265092,6.233596,0.3131716,10.1107942868,13.3593836296,22,5,7.557,4.593176,4.593176,2.6172198,10.252625,-0.223694,0.223694,0,64.2, 0.8, 5.2,0,0,1026,1024,1484,1024,0,0,70,0,78,0,0,44,3.782,3.773,0,0,0,0,5.244,110.66,4.265092,4.265092,6,P-GPS,
18000,2025-05-05 00:54:35,-22.7543898556745,-41.8864117322156,4.265092,4.3963256,-0.1312336,4.265092,6.233596,0.3131716,10.0709976976,13.4399282516,22,5,7.557,4.593176,4.593176,2.6172198,10.252625,-0.223694,0.223694,0,63.9, 0.8, -0.2,0,0,1035,1024,1594,1024,2,0,86,0,78,0,0,44,3.782,3.773,0,0,0,0,5.244,110.66,4.265092,4.265092,6,P-GPS,
18100,2025-05-05 00:54:35,-22.7543901337232,-41.886411674269,4.265092,4.3963256,-0.1312336,4.265092,6.56168,0.3131716,10.0202431028,13.5432090948,22,5,7.557,4.593176,4.593176,2.6172198,10.252625,-0.223694,0.223694,-0.447388,64.1, 0.6, -0.9,0,0,1024,1024,1170,1024,0,0,22,0,78,0,0,44,3.782,3.773,0,0,0,0,5.244,110.66,4.265092,4.265092,6,P-GPS,
18200,2025-05-05 00:54:35,-22.7543903795954,-41.8864116520357,4.593176,4.7244096,-0.1312336,4.593176,6.56168,0.3131716,9.968504256,13.6332353444,22,5,7.557,4.593176,4.593176,2.6172198,10.252625,-0.223694,0.223694,-1.11847,64.2, 0.5, -0.6,0,0,1024,1024,1056,1024,0,0,5,0,78,0,0,44,3.782,3.773,0,0,0,0,5.244,110.66,4.593176,4.593176,6,P-GPS,
18300,2025-05-05 00:54:35,-22.7543905374511,-41.8864116061174,4.593176,4.6916012,-0.098425200000001,4.593176,6.56168,0.3131716,9.9437995308,13.6928482072,22,5,7.557,4.593176,4.593176,2.6172198,10.252625,0,0,-1.11847,64.4, 1, -0.1,0,0,1024,1024,1204,1024,0,0,27,0,78,0,0,44,3.782,3.773,0,0,0,0,5.244,110.66,4.593176,4.593176,6,P-GPS,
18400,2025-05-05 00:54:35,-22.754390934162,-41.886411505374,4.593176,4.6916012,-0.098425200000001,4.593176,6.889764,0,9.8791997912,13.8415030676,22,5,7.557,4.593176,4.593176,2.6172198,10.252625,0,0,-0.671082,64.4, 1, -0.1,0,0,1024,1024,1297,1024,0,0,41,0,78,0,0,44,3.782,3.773,0,0,0,0,5.244,110.66,4.593176,4.593176,6,P-GPS,
