time(millisecond),datetime(utc),latitude,longitude,height_above_takeoff(feet),height_above_ground_at_drone_location(feet),ground_elevation_at_drone_location(feet),altitude_above_seaLevel(feet),height_sonar(feet),speed(mph),distance(feet),mileage(feet),satellites,gpslevel,voltage(v),max_altitude(feet),max_ascent(feet),max_speed(mph),max_distance(feet), xSpeed(mph), ySpeed(mph), zSpeed(mph), compass_heading(degrees), pitch(degrees), roll(degrees),isPhoto,isVideo,rc_elevator,rc_aileron,rc_throttle,rc_rudder,rc_elevator(percent),rc_aileron(percent),rc_throttle(percent),rc_rudder(percent),gimbal_heading(degrees),gimbal_pitch(degrees),gimbal_roll(degrees),battery_percent,voltageCell1,voltageCell2,voltageCell3,voltageCell4,voltageCell5,voltageCell6,current(A),battery_temperature(f),altitude(feet),ascent(feet),flycStateRaw,flycState,message
634900,2025-05-01 19:13:14,-23.0258953192933,-44.2864811064561,0,0,3.153945967068,8.370481567068,1.64042,0,0,0,23,5,0,8.370481567068,0,0,0,0,0,0,212.6, 7.3, 2.6,0,0,364,364,364,1684,-100,-100,-100,100,224.7,0,0,47,3.835,3.832,0,0,0,0,0,111.92,8.370481567068,0,6,P-GPS,"Error de calibración del estabilizador. Reinicia la aeronave o contacta con la Asistencia DJI (Code: 40011)"
635000,2025-05-01 19:13:14,-23.0258952493614,-44.2864811220199,0,0,3.153945967068,8.370481567068,1.64042,0,0.0260443249804,0.0260443249804,23,5,0,8.370481567068,0,0,0.0260443249804,0,0,0,212.6, 7.3, 2.6,0,0,364,364,364,1684,-100,-100,-100,100,224.7,0,0,47,3.835,3.832,0,0,0,0,0,111.92,8.370481567068,0,41,Motors_Started,
635100,2025-05-01 19:13:14,-23.0258952091323,-44.2864810174668,0,0,3.153945967068,8.370481567068,0.328084,0,0.050082678768,0.06409613066,23,5,0,8.370481567068,0,0,0.050082678768,0,0,0,212.6, 7.3, 2.6,0,0,364,364,364,1684,-100,-100,-100,100,224.7,0,0,47,3.835,3.832,0,0,0,0,0,111.92,8.370481567068,0,41,Motors_Started,
635200,2025-05-01 19:13:14,-23.025895173072,-44.2864810317647,0,0,3.153945967068,8.370481567068,0.328084,0,0.058949805036,0.078101052368,23,5,0,8.370481567068,0,0,0.058949805036,0,0,0,212.6, 7.3, 2.6,0,0,1024,878,1077,705,0,-22,8,-48,224.7,0,0,47,3.835,3.832,0,0,0,0,0,111.92,8.370481567068,0,41,Motors_Started,
635300,2025-05-01 19:13:15,-23.0258951542081,-44.2864810466583,0,0,3.153945967068,8.370481567068,0.328084,0,0.063489831428,0.086608598572,23,5,0,8.370481567068,0,0,0.063489831428,0,0,0,212.6, 7.3, 2.7,0,0,1024,1024,1024,1024,0,0,0,0,224.7,0,0,47,3.835,3.832,0,0,0,0,0,111.92,8.370481567068,0,41,Motors_Started,
635400,2025-05-01 19:13:15,-23.0258951334683,-44.2864810637859,0,0,3.153945967068,8.370481567068,0.328084,0,0.069295605892,0.096113192052,23,5,0,8.370481567068,0,0,0.069295605892,0,0,0,212.6, 7.3, 2.7,0,0,1024,1024,1024,1024,0,0,0,0,224.7,0,0,47,3.835,3.832,0,0,0,0,0,111.92,8.370481567068,0,41,Motors_Started,
635500,2025-05-01 19:13:15,-23.0258952232021,-44.2864810234987,0,0,3.153945967068,8.370481567068,0.328084,0,0.044777888572,0.1315370777,23,5,0,8.370481567068,0,0,0.069295605892,0,0,0,212.6, 7.3, 2.7,0,0,1024,1024,1024,1024,0,0,0,0,224.7,0,0,47,3.835,3.832,0,0,0,0,0,111.92,8.370481567068,0,41,Motors_Started,
635600,2025-05-01 19:13:15,-23.0258952049635,-44.2864810444987,0.328084,0.328084,3.153945967068,8.698565567068,0.328084,0,0.046613190468,0.141232616068,23,5,0,8.698565567068,0.328084,0,0.069295605892,0,0,0,212.6, 7.3, 2.7,0,0,1024,1024,1024,1024,0,0,0,0,224.7,0,0,47,3.835,3.832,0,0,0,0,0,111.92,8.698565567068,0.328084,41,Motors_Started,
635700,2025-05-01 19:13:15,-23.0258951938119,-44.2864810598391,0.328084,0.328084,3.153945967068,8.698565567068,0.328084,0,0.048383859816,0.147796592656,23,5,0,8.698565567068,0.328084,0,0.069295605892,0,0,0,212.6, 7.3, 2.7,0,0,1024,1024,1024,1024,0,0,0,0,224.7,0,0,47,3.835,3.832,0,0,0,0,0,111.92,8.698565567068,0.328084,41,Motors_Started,
635800,2025-05-01 19:13:15,-23.0258951805759,-44.2864810773391,0.328084,0.328084,3.153945967068,8.698565567068,0.328084,0,0.051546589576,0.155402564028,23,5,0,8.698565567068,0.328084,0,0.069295605892,0,0,0,212.6, 7.3, 2.7,0,0,1010,1024,1024,1024,-2,0,0,0,224.6,0,0,47,3.835,3.832,0,0,0,0,0,111.92,8.698565567068,0.328084,41,Motors_Started,"Setting new Return-To-Home altitude to 100m (328 ft). Data Recorder File Index is 55. Setting new Maximum Flight Altitude to 500m (1640 ft)"
635900,2025-05-01 19:13:15,-23.0258952550935,-44.2864810139668,0.328084,0.328084,3.153945967068,8.698565567068,0.328084,0,16.3845805768,0.189927499516,23,5,0,8.698565567068,0.328084,0,16.3845805768,0,0,0,212.6, 7.3, 2.6,0,0,364,364,364,1684,-100,-100,-100,100,224.6,0,0,47,3.835,3.832,0,0,0,0,0,111.92,8.698565567068,0.328084,41,Motors_Started,
636000,2025-05-01 19:13:15,-23.02589524019,-44.2864810314668,0.328084,0.328084,3.153945967068,8.698565567068,0.328084,0,16.3845477684,0.197933733368,23,5,0,8.698565567068,0.328084,0,16.3845805768,0,0,0,212.6, 7.4, 2.7,0,0,364,364,364,1684,-100,-100,-100,100,224.6,0,0,47,3.835,3.832,0,0,0,0,0,111.92,8.698565567068,0.328084,41,Motors_Started,
636100,2025-05-01 19:13:15,-23.0258952740616,-44.2864810972221,0.328084,0.328084,3.153945967068,8.698565567068,0.328084,0,16.3604664028,0.223236227616,23,5,7.672,8.698565567068,0.328084,0,16.3845805768,0,0,0,212.6, 7.4, 2.7,0,0,364,364,364,1684,-100,-100,-100,100,224.6,0,0,47,3.832,3.826,0,0,0,0,0.708,111.92,8.698565567068,0.328084,10,Assisted_Takeoff,
636200,2025-05-01 19:13:15,-23.0258953014716,-44.2864811633496,0.328084,0.328084,3.153945967068,8.698565567068,0.328084,0,16.3380582656,0.2475885906,23,5,7.672,8.698565567068,0.328084,0,16.3845805768,0,0,0,212.6, 7.4, 2.7,0,0,364,364,364,1684,-100,-100,-100,100,224.6,0,0,47,3.832,3.826,0,0,0,0,0.708,111.92,8.698565567068,0.328084,10,Assisted_Takeoff,
636300,2025-05-01 19:13:16,-23.0258954491519,-44.2864812095943,0.328084,0.328084,3.153945967068,8.698565567068,0.328084,0,16.2879926472,0.303662739376,23,5,7.672,8.698565567068,0.328084,0,16.3845805768,0,0,0,212.6, 7.3, 2.7,0,0,364,364,364,1684,-100,-100,-100,100,224.6,0,0,47,3.832,3.826,0,0,0,0,0.708,111.92,8.698565567068,0.328084,10,Assisted_Takeoff,
636400,2025-05-01 19:13:16,-23.0258954442536,-44.2864812431049,0.328084,0.328084,3.153945967068,8.698565567068,0.328084,0,16.2816278176,0.315056112444,23,5,7.672,8.698565567068,0.328084,0,16.3845805768,0,0,0,212.6, 7.4, 2.6,0,0,364,364,364,1684,-100,-100,-100,100,224.6,0,0,47,3.832,3.826,0,0,0,0,0.708,111.92,8.698565567068,0.328084,10,Assisted_Takeoff,
636500,2025-05-01 19:13:16,-23.0258954255981,-44.2864812589666,0.328084,0.328084,3.153945967068,8.698565567068,0.328084,0,16.2830057704,0.323698501172,23,5,7.672,8.698565567068,0.328084,0,16.3845805768,0,0,0,212.7, 7.4, 2.7,0,0,364,364,364,1684,-100,-100,-100,100,224.6,0,0,47,3.832,3.826,0,0,0,0,0.708,111.92,8.698565567068,0.328084,10,Assisted_Takeoff,
636600,2025-05-01 19:13:16,-23.0258954035034,-44.2864812763921,0.328084,0.328084,3.153945967068,8.698565567068,0.328084,0,16.284941466,0.33365814716,23,5,7.672,8.698565567068,0.328084,0,16.3845805768,0,0,0,212.6, 7.4, 2.7,0,0,364,364,364,1684,-100,-100,-100,100,224.6,0,0,47,3.832,3.826,0,0,0,0,0.708,111.92,8.698565567068,0.328084,10,Assisted_Takeoff,
636700,2025-05-01 19:13:16,-23.0258954309133,-44.2864812872644,0.328084,0.328084,3.153945967068,8.698565567068,0.328084,0,16.2751317544,0.34430447296,23,5,7.672,8.698565567068,0.328084,0,16.3845805768,0,0,0.223694,212.7, 7.4, 2.7,0,0,364,364,364,1684,-100,-100,-100,100,224.6,0,0,47,3.832,3.826,0,0,0,0,0.708,111.92,8.698565567068,0.328084,10,Assisted_Takeoff,
636800,2025-05-01 19:13:16,-23.0258955401363,-44.2864811769028,0.328084,0.1968504,3.285179567068,8.698565567068,0.328084,0,16.271161938,0.39872376604,23,5,7.672,8.698565567068,0.328084,0,16.3845805768,0,0,0.223694,212.7, 7.5, 2.6,0,0,364,364,364,1684,-100,-100,-100,100,224.6,0,0,47,3.832,3.826,0,0,0,0,0.708,111.92,8.698565567068,0.328084,10,Assisted_Takeoff,
636900,2025-05-01 19:13:16,-23.0258955297143,-44.2864811856156,0.328084,0.1968504,3.285179567068,8.698565567068,0.328084,0,16.2719493396,0.40352035412,23,5,7.672,8.698565567068,0.328084,0,16.3845805768,0,0,0.223694,212.6, 7.4, 2.7,0,0,364,364,364,1684,-100,-100,-100,100,224.6,0,0,47,3.832,3.826,0,0,0,0,0.708,111.92,8.698565567068,0.328084,10,Assisted_Takeoff,
637000,2025-05-01 19:13:16,-23.0258955150192,-44.2864811957432,0.328084,0.1968504,3.285179567068,8.698565567068,0.328084,0,16.2735569512,0.40986877952,23,5,7.672,8.698565567068,0.328084,0,16.3845805768,0,0,0.223694,212.6, 7.5, 2.7,0,0,364,364,364,1684,-100,-100,-100,100,224.6,0,0,47,3.832,3.826,0,0,0,0,0.708,111.92,8.698565567068,0.328084,10,Assisted_Takeoff,
637100,2025-05-01 19:13:16,-23.025895489381,-44.2864812054985,0.328084,0.328084,3.153945967068,8.698565567068,0.328084,0,16.2781829356,0.41978019716,23,5,7.649,8.698565567068,0.328084,0,16.3845805768,0,0,0.223694,212.7, 7.4, 2.7,0,0,364,364,364,1684,-100,-100,-100,100,224.6,0,0,47,3.831,3.827,0,0,0,0,1.664,111.92,8.698565567068,0.328084,10,Assisted_Takeoff,
637200,2025-05-01 19:13:17,-23.025895491257,-44.2864811289454,0.328084,0.328084,3.153945967068,8.698565567068,0.328084,0,16.2951776868,0.44549542108,23,5,7.649,8.698565567068,0.328084,0,16.3845805768,0,0,0.223694,212.7, 7.5, 2.7,0,0,364,364,364,1684,-100,-100,-100,100,224.6,0,0,47,3.831,3.827,0,0,0,0,1.664,111.92,8.698565567068,0.328084,10,Assisted_Takeoff,
637300,2025-05-01 19:13:17,-23.0258955164783,-44.2864811936581,0.328084,0.1968504,3.285179567068,8.698565567068,0.328084,0,16.2736553764,0.46909122236,23,5,7.649,8.698565567068,0.328084,0,16.3845805768,0,0,0.223694,212.6, 7.4, 2.7,0,0,364,364,364,1684,-100,-100,-100,100,224.6,0,0,47,3.831,3.827,0,0,0,0,1.664,111.92,8.698565567068,0.328084,10,Assisted_Takeoff,
637400,2025-05-01 19:13:17,-23.0258955380519,-44.2864812591155,0.656168,0.5249344,3.285179567068,9.026649567068,0.328084,0,16.2529204676,0.4924376798,23,5,7.649,9.026649567068,0.656168,0,16.3845805768,0,0,0.223694,212.6, 7.4, 2.6,0,0,364,364,364,1684,-100,-100,-100,100,224.6,0,0,47,3.831,3.827,0,0,0,0,1.664,111.92,9.026649567068,0.656168,10,Assisted_Takeoff,
637500,2025-05-01 19:13:17,-23.0258955823456,-44.2864812899453,0,-0.1312336,3.285179567068,8.370481567068,0.328084,0,16.2340228292,0.5116305938,23,5,7.649,9.026649567068,0.656168,0,16.3845805768,0,0,0.223694,212.6, 7.4, 2.6,0,0,364,364,364,1684,-100,-100,-100,100,224.6,0,0,47,3.831,3.827,0,0,0,0,1.664,111.92,8.370481567068,0,6,P-GPS,
