time(millisecond),datetime(utc),latitude,longitude,height_above_takeoff(feet),height_above_ground_at_drone_location(feet),ground_elevation_at_drone_location(feet),altitude_above_seaLevel(feet),height_sonar(feet),speed(mph),distance(feet),mileage(feet),satellites,gpslevel,voltage(v),max_altitude(feet),max_ascent(feet),max_speed(mph),max_distance(feet), xSpeed(mph), ySpeed(mph), zSpeed(mph), compass_heading(degrees), pitch(degrees), roll(degrees),isPhoto,isVideo,rc_elevator,rc_aileron,rc_throttle,rc_rudder,rc_elevator(percent),rc_aileron(percent),rc_throttle(percent),rc_rudder(percent),gimbal_heading(degrees),gimbal_pitch(degrees),gimbal_roll(degrees),battery_percent,voltageCell1,voltageCell2,voltageCell3,voltageCell4,voltageCell5,voltageCell6,current(A),battery_temperature(f),altitude(feet),ascent(feet),flycStateRaw,flycState,message
0,2025-05-01 16:49:15,-23.0917342603132,-44.2371335893519,0,0,3.566461400216,3.566461400216,0.328084,0,0,0,12,4,0,3.566461400216,0,0,0,0,0,0,277, -11.3, 0.8,0,0,364,364,364,1684,-100,-100,-100,100,299.3,0,0,100,4.313,4.313,0,0,0,0,0,77.72,3.566461400216,0,41,Motors_Started,"Error de calibración del estabilizador. Reinicia la aeronave o contacta con la Asistencia DJI (Code: 40011)"
100,2025-05-01 16:49:15,-23.0917342693311,-44.2371336080947,0,0,3.566461400216,3.566461400216,0.328084,0,0.0070988847416,0.0070988847416,12,4,0,3.566461400216,0,0,0.0070988847416,0,0,0,277, -11.2, 0.8,0,0,364,364,364,1684,-100,-100,-100,100,299.3,0,0,100,4.313,4.313,0,0,0,0,0,77.72,3.566461400216,0,41,Motors_Started,
200,2025-05-01 16:49:15,-23.0917342799239,-44.2371336527095,0,0,3.566461400216,3.566461400216,0.328084,0,0.022435368172,0.0225630912732,12,4,0,3.566461400216,0,0,0.022435368172,0,0,0,277.1, -11.2, 0.8,0,0,364,364,364,1684,-100,-100,-100,100,299.3,0,0,100,4.313,4.313,0,0,0,0,0,77.72,3.566461400216,0,41,Motors_Started,
300,2025-05-01 16:49:15,-23.0917342915118,-44.2371337052602,0,0,3.566461400216,3.566461400216,0.328084,0,0.040531825444,0.040699804452,12,4,0,3.566461400216,0,0,0.040531825444,0,0,0,277, -11.2, 0.8,0,0,364,364,364,1684,-100,-100,-100,100,299.3,0,0,100,4.313,4.313,0,0,0,0,0,77.72,3.566461400216,0,41,Motors_Started,
400,2025-05-01 16:49:15,-23.0917343786973,-44.2371337258528,0,0,3.566461400216,3.566461400216,0.328084,0,0.062962928524,0.07325131468,12,4,0,3.566461400216,0,0,0.062962928524,0,0,0,277, -11.1, 0.8,0,0,484,483,1024,1024,-82,-82,0,0,299.3,0,0,100,4.313,4.313,0,0,0,0,0,77.72,3.566461400216,0,41,Motors_Started,
500,2025-05-01 16:49:16,-23.0917346703037,-44.2371337785072,0,0,3.566461400216,3.566461400216,0.328084,0,0.162498692864,0.181101383748,12,4,0,3.566461400216,0,0,0.162498692864,0,0,0,277, -11.1, 0.8,0,0,1024,1024,1024,1024,0,0,0,0,299.3,0,0,100,4.313,4.313,0,0,0,0,0,77.72,3.566461400216,0,41,Motors_Started,
600,2025-05-01 16:49:16,-23.091734723711,-44.2371338123793,0,0,3.566461400216,3.566461400216,0.328084,0,0.184898956048,0.203660767672,12,4,0,3.566461400216,0,0,0.184898956048,0,0,0,277, -11.1, 0.8,0,0,1024,1024,1024,1024,0,0,0,0,299.4,0,0,100,4.313,4.313,0,0,0,0,0,77.72,3.566461400216,0,41,Motors_Started,
700,2025-05-01 16:49:16,-23.0917347607779,-44.2371338555005,0,0,3.566461400216,3.566461400216,0.328084,0,0.203271660048,0.223468183004,12,4,0,3.566461400216,0,0,0.203271660048,0,0,0,277, -11.1, 0.8,0,0,1024,1024,1024,1024,0,0,0,0,299.3,0,0,100,4.313,4.313,0,0,0,0,0,77.72,3.566461400216,0,41,Motors_Started,
800,2025-05-01 16:49:16,-23.0917347688228,-44.2371338688532,0,0,3.566461400216,3.566461400216,0.328084,0,0.207895675944,0.22882546664,12,4,0,3.566461400216,0,0,0.207895675944,0,0,0,277, -11.1, 0.8,0,0,1024,1024,1024,1024,0,0,0,0,299.4,0,0,100,4.313,4.313,0,0,0,0,0,77.72,3.566461400216,0,41,Motors_Started,
900,2025-05-01 16:49:16,-23.0917347126796,-44.2371338815645,0,0,3.566461400216,3.566461400216,0.328084,0,0.191984586196,0.249748695656,12,4,0,3.566461400216,0,0,0.207895675944,0,0,0,277, -11.2, 0.8,0,0,1024,1024,1024,1024,0,0,0,0,299.4,0,0,100,4.313,4.313,0,0,0,0,0,77.72,3.566461400216,0,41,Motors_Started,"Setting new Return-To-Home altitude to 100m (328 ft). Data Recorder File Index is 54. Setting new Maximum Flight Altitude to 500m (1640 ft)"
1000,2025-05-01 16:49:16,-23.0917347046033,-44.2371338731012,0,0,3.566461400216,3.566461400216,0.328084,0,0.188002630688,0.253841543556,12,4,0,3.566461400216,0,0,0.207895675944,0,0,0,277, -11.1, 0.8,0,0,1024,1024,1024,1024,0,0,0,0,299.4,0,0,100,4.313,4.313,0,0,0,0,0,77.72,3.566461400216,0,41,Motors_Started,
1100,2025-05-01 16:49:16,-23.0917346952324,-44.2371338608974,0,0,3.566461400216,3.566461400216,0.328084,0,0.182989179084,0.259176845564,12,4,8.642,3.566461400216,0,0,0.207895675944,0,0,0,277, -11.1, 0.8,0,0,1024,1024,1024,1024,0,0,0,0,299.4,0,0,100,4.313,4.313,0,0,0,0,1.044,77.72,3.566461400216,0,10,Assisted_Takeoff,
1200,2025-05-01 16:49:16,-23.0917346857534,-44.2371338469987,0,0,3.566461400216,3.566461400216,0.328084,0,0.1776820923,0.26498360428,12,4,8.642,3.566461400216,0,0,0.207895675944,0,0,0,277, -11.2, 0.8,0,0,1024,1024,1024,1024,0,0,0,0,299.4,0,0,100,4.313,4.313,0,0,0,0,1.044,77.72,3.566461400216,0,10,Assisted_Takeoff,
1300,2025-05-01 16:49:16,-23.0917345755164,-44.2371337673594,0,0,3.566461400216,3.566461400216,0.328084,0,0.129593836168,0.313274944408,12,4,8.642,3.566461400216,0,0,0.207895675944,0,0,0,277, -11.2, 0.8,0,0,1024,1024,1024,1024,0,0,0,0,299.4,0,0,100,4.313,4.313,0,0,0,0,1.044,77.72,3.566461400216,0,10,Assisted_Takeoff,
1400,2025-05-01 16:49:17,-23.091734567351,-44.2371337581801,0,0,3.566461400216,3.566461400216,0.328084,0,0.125537077508,0.317560377616,12,4,8.642,3.566461400216,0,0,0.207895675944,0,0,0,277, -11.2, 0.8,0,0,1024,1024,1024,1024,0,0,0,0,299.4,0,0,100,4.313,4.313,0,0,0,0,1.044,77.72,3.566461400216,0,10,Assisted_Takeoff,
1500,2025-05-01 16:49:17,-23.0917345612052,-44.2371337492604,0,0,3.566461400216,3.566461400216,0.328084,0,0.12219652622,0.321300535216,12,4,8.642,3.566461400216,0,0,0.207895675944,0,0,0,277, -11.1, 0.8,0,0,1024,1024,1024,1024,0,0,0,0,299.4,0,0,100,4.313,4.313,0,0,0,0,1.044,77.72,3.566461400216,0,10,Assisted_Takeoff,
1600,2025-05-01 16:49:17,-23.0917345581021,-44.2371337821859,0,0,3.566461400216,3.566461400216,0.328084,0,0.126462930556,0.33240814712,12,4,8.642,3.566461400216,0,0,0.207895675944,0,0,0,277, -11.3, 0.8,0,0,1024,1024,1024,1024,0,0,0,0,299.4,0,0,100,4.313,4.313,0,0,0,0,1.044,77.72,3.566461400216,0,10,Assisted_Takeoff,
1700,2025-05-01 16:49:17,-23.0917345385226,-44.2371338993923,0,0,3.566461400216,3.566461400216,0.328084,0,0.145363521712,0.37238846336,12,4,8.642,3.566461400216,0,0,0.207895675944,0,0,0,277, -11.3, 0.9,0,0,1024,1024,1024,1024,0,0,0,0,299.4,0,0,100,4.313,4.313,0,0,0,0,1.044,77.72,3.566461400216,0,10,Assisted_Takeoff,
1800,2025-05-01 16:49:17,-23.0917345380301,-44.237133961127,0,0,3.566461400216,3.566461400216,0.328084,0,0.160733600944,0.3931102488,12,4,8.642,3.566461400216,0,0,0.207895675944,0,0,0,277.1, -11.3, 0.9,0,0,1024,1024,1024,1024,0,0,0,0,299.4,0,0,100,4.313,4.313,0,0,0,0,1.044,77.72,3.566461400216,0,10,Assisted_Takeoff,
1900,2025-05-01 16:49:17,-23.0917345386195,-44.2371340282657,0,0,3.566461400216,3.566461400216,0.328084,0,0.1789124073,0.41564305792,12,4,8.642,3.566461400216,0,0,0.207895675944,0,0,0,277, -11.3, 0.9,0,0,1024,1024,1024,1024,0,0,0,0,299.4,0,0,100,4.313,4.313,0,0,0,0,1.044,77.72,3.566461400216,0,10,Assisted_Takeoff,
2000,2025-05-01 16:49:17,-23.0917345397679,-44.237134094139,0,0,3.566461400216,3.566461400216,0.328084,0,0.197729993204,0.43775591952,12,4,8.642,3.566461400216,0,0,0.207895675944,0,0,0,277.1, -11.3, 0.9,0,0,1024,1024,1024,1024,0,0,0,0,299.4,0,0,100,4.313,4.313,0,0,0,0,1.044,77.72,3.566461400216,0,10,Assisted_Takeoff,
2100,2025-05-01 16:49:17,-23.0917345414837,-44.2371341607841,0,0,3.566461400216,3.566461400216,0.328084,0,0.2174950857,0.46013124832,12,4,8.642,3.566461400216,0,0,0.2174950857,0,0,0,277.1, -11.2, 0.9,0,0,1024,1024,1024,1024,0,0,0,0,299.4,0,0,100,4.326,4.324,0,0,0,0,1.427,77.72,3.566461400216,0,10,Assisted_Takeoff,
2200,2025-05-01 16:49:17,-23.0917345418426,-44.237134324029,0,0,3.566461400216,3.566461400216,0.328084,0,0.267109260516,0.51491799548,12,4,8.642,3.566461400216,0,0,0.267109260516,0,0,0,277.1, -11.3, 0.9,0,0,1024,1024,1024,1024,0,0,0,0,299.4,0,0,100,4.326,4.324,0,0,0,0,1.427,77.72,3.566461400216,0,10,Assisted_Takeoff,
2300,2025-05-01 16:49:17,-23.0917345436517,-44.2371343777998,0,0,3.566461400216,3.566461400216,0.328084,0,0.284092200692,0.53297573884,12,4,8.642,3.566461400216,0,0,0.284092200692,0,0,0,277.1, -11.3, 1,0,0,1024,1024,1024,1024,0,0,0,0,299.4,0,0,100,4.326,4.324,0,0,0,0,1.427,77.72,3.566461400216,0,10,Assisted_Takeoff,
2400,2025-05-01 16:49:18,-23.0917345840081,-44.2371343490326,0,0,3.566461400216,3.566461400216,0.328084,0,0.28098590138,0.55058400712,12,4,8.642,3.566461400216,0,0,0.284092200692,0,0,0,277, -11.3, 0.9,0,0,1024,1024,1031,1024,0,0,1,0,299.4,0,0,100,4.326,4.324,0,0,0,0,1.427,77.72,3.566461400216,0,10,Assisted_Takeoff,
2500,2025-05-01 16:49:18,-23.0917346378171,-44.2371342948392,0,0,3.566461400216,3.566461400216,0.328084,0,0.273919300104,0.577345819,12,4,8.642,3.566461400216,0,0,0.284092200692,0,0,0,277.1, -11.3, 0.9,0,0,1024,1024,1361,1024,0,0,51,0,299.4,0,0,100,4.326,4.324,0,0,0,0,1.427,77.72,3.566461400216,0,10,Assisted_Takeoff,
2600,2025-05-01 16:49:18,-23.091734732454,-44.2371342072953,0,0,3.566461400216,3.566461400216,0.328084,0,0.269602042748,0.62268374696,12,4,8.642,3.566461400216,0,0,0.284092200692,0,0,0,277.1, -11.4, 0.9,0,0,1024,1024,1564,1024,0,0,82,0,299.4,0,0,100,4.326,4.324,0,0,0,0,1.427,77.72,3.566461400216,0,10,Assisted_Takeoff,
2700,2025-05-01 16:49:18,-23.0917347530501,-44.2371342233885,0,0,3.566461400216,3.566461400216,0.328084,0,0.2785679223,0.6319389966,12,4,8.642,3.566461400216,0,0,0.284092200692,0,0,0,277.1, -11.3, 0.9,0,0,1024,1024,1564,1024,0,0,82,0,299.4,0,0,100,4.326,4.324,0,0,0,0,1.427,77.72,3.566461400216,0,10,Assisted_Takeoff,
2800,2025-05-01 16:49:18,-23.0917347607144,-44.237134225761,0,0,3.566461400216,3.566461400216,0.328084,0,0.280985245212,0.63484582084,12,4,8.642,3.566461400216,0,0,0.284092200692,0,0,0,277.1, -10.9, 0.5,0,0,1024,1024,1167,1024,0,0,22,0,299.4,0,0,100,4.326,4.324,0,0,0,0,1.427,77.72,3.566461400216,0,10,Assisted_Takeoff,
2900,2025-05-01 16:49:18,-23.0917347708398,-44.2371342197913,0,0,3.566461400216,3.566461400216,0.328084,0,0.281892725556,0.63904857688,12,4,8.642,3.566461400216,0,0,0.284092200692,0,0,0,277.1, -9.6, -0.4,0,0,1024,1024,1024,1024,0,0,0,0,299.4,0,0,100,4.326,4.324,0,0,0,0,1.427,77.72,3.566461400216,0,10,Assisted_Takeoff,
3000,2025-05-01 16:49:18,-23.0917347208433,-44.2371341799146,0,0,3.566461400216,3.566461400216,0.328084,0,0.25983924716,0.66167324952,12,4,8.642,3.566461400216,0,0,0.284092200692,0,0,0,276.9, -9.5, -0.5,0,0,1024,1024,1024,1024,0,0,0,0,299.3,0,0,100,4.326,4.324,0,0,0,0,1.427,77.72,3.566461400216,0,10,Assisted_Takeoff,
3100,2025-05-01 16:49:18,-23.0917347243744,-44.2371341683115,0,0,3.566461400216,3.566461400216,0.328084,0,0.257725730032,0.66577429952,12,4,8.648,3.566461400216,0,0,0.284092200692,0,0,0,277, -9.7, -0.4,0,0,1024,1024,1467,1024,0,0,67,0,299.2,0,0,100,4.303,4.298,0,0,0,0,1.187,77.72,3.566461400216,0,10,Assisted_Takeoff,
3200,2025-05-01 16:49:18,-23.0917347251351,-44.2371341578295,0,0,3.566461400216,3.566461400216,0.328084,0,0.255268380872,0.66930448336,12,4,8.648,3.566461400216,0,0,0.284092200692,0,0,0,277, -9.9, -0.1,0,0,1024,1024,1684,1024,0,0,100,0,299.2,0,0,100,4.303,4.298,0,0,0,0,1.187,77.72,3.566461400216,0,10,Assisted_Takeoff,
3300,2025-05-01 16:49:18,-23.0917347287973,-44.2371341453429,0,0,3.566461400216,3.566461400216,0.328084,0,0.253051845368,0.67370080896,12,4,8.648,3.566461400216,0,0,0.284092200692,0,0,0,277, -9.7, -0.3,0,0,1024,1024,1684,1024,0,0,100,0,299.2,0,0,100,4.303,4.298,0,0,0,0,1.187,77.72,3.566461400216,0,10,Assisted_Takeoff,
3400,2025-05-01 16:49:18,-23.0917346754267,-44.2371341361531,0,0,3.566461400216,3.566461400216,0.328084,0,0.237941936748,0.69341537652,12,4,8.648,3.566461400216,0,0,0.284092200692,0,0,0,277, -9, -0.7,0,0,1024,1024,1457,1024,0,0,66,0,299.2,0,0,100,4.303,4.298,0,0,0,0,1.187,77.72,3.566461400216,0,10,Assisted_Takeoff,
3500,2025-05-01 16:49:19,-23.0917346784443,-44.2371341373498,0,0,3.566461400216,3.566461400216,0.328084,0,0.238953091636,0.69458991724,12,4,8.648,3.566461400216,0,0,0.284092200692,0,0,0,276.5, -7.6, 0.4,0,0,1024,1024,1684,1024,0,0,100,0,299.1,0,0,100,4.303,4.298,0,0,0,0,1.187,77.72,3.566461400216,0,10,Assisted_Takeoff,
3600,2025-05-01 16:49:19,-23.0917346713555,-44.2371342020136,0,0,3.566461400216,3.566461400216,0.328084,0.223694,0.25449968006,0.71644359248,12,4,8.648,3.566461400216,0,0.223694,0.284092200692,0,-0.223694,0,275.4, -4.8, 1.8,0,0,1024,1024,1662,1024,0,0,97,0,298.8,0,0,100,4.303,4.298,0,0,0,0,1.187,77.72,3.566461400216,0,10,Assisted_Takeoff,
3700,2025-05-01 16:49:19,-23.091734653945,-44.2371343712247,0,0,3.566461400216,3.566461400216,0.328084,0.447388,0.299139773352,0.7735892636,12,4,8.648,3.566461400216,0,0.447388,0.299139773352,0,-0.447388,-0.447388,274.8, -2.8, 1.8,0,0,1024,1024,1662,1024,0,0,97,0,298,0,0,100,4.303,4.298,0,0,0,0,1.187,77.72,3.566461400216,0,6,P-GPS,
3800,2025-05-01 16:49:19,-23.0917346384302,-44.2371346480927,0,-0.032808399999999,3.599269800216,3.566461400216,0.328084,0.447388,0.38117127204,0.8666830986,12,4,8.648,3.566461400216,0,0.447388,0.38117127204,0,-0.447388,-0.671082,275.1, 0.9, 0.4,0,0,1024,1024,1024,1024,0,0,0,0,298,0,0,100,4.303,4.298,0,0,0,0,1.187,77.72,3.566461400216,0,6,P-GPS,
3900,2025-05-01 16:49:19,-23.0917346080383,-44.2371350250582,0,-0.032808399999999,3.599269800216,3.566461400216,0.656168,0.447388,0.49826773248,0.993684415,12,4,8.648,3.566461400216,0,0.447388,0.49826773248,0,-0.447388,-1.11847,275.5, 2.4, 0.5,0,0,1024,1024,1024,1024,0,0,0,0,298,0,0,100,4.303,4.298,0,0,0,0,1.187,77.72,3.566461400216,0,6,P-GPS,"Punto de origen actualizado. Altitud de RPO establecida en 100m (Code: 30213)"
4000,2025-05-01 16:49:19,-23.0917345884483,-44.2371352619733,0.328084,0.2952756,3.599269800216,3.894545400216,0.656168,0.447388,0.573982958,1.07351709472,12,4,8.648,3.894545400216,0.328084,0.447388,0.573982958,0,-0.447388,-1.11847,275.7, 2.5, -0.1,0,0,1024,1024,1024,1024,0,0,0,0,298,0,0,100,4.303,4.298,0,0,0,0,1.187,77.72,3.894545400216,0.328084,6,P-GPS,
4100,2025-05-01 16:49:19,-23.0917345882689,-44.2371354626501,0.328084,0.2952756,3.599269800216,3.894545400216,0.984252,0.223694,0.63999673964,1.14086617824,12,4,8.57,3.894545400216,0.328084,0.447388,0.63999673964,0,-0.223694,-1.342164,275.7, 2.1, 0.8,0,0,1062,1024,1024,1024,6,0,0,0,298,0,0,100,4.196,4.19,0,0,0,0,2.203,77.72,3.894545400216,0.328084,6,P-GPS,
4200,2025-05-01 16:49:19,-23.0917346441688,-44.2371357170402,0.328084,0.2624672,3.632078200216,3.894545400216,0.984252,0.223694,0.72769359284,1.22864833328,12,4,8.57,3.894545400216,0.328084,0.447388,0.72769359284,0,-0.223694,-1.342164,275.7, 1.8, 1.7,0,0,1249,1024,1024,1024,34,0,0,0,298,0,0,100,4.196,4.19,0,0,0,0,2.203,77.72,3.894545400216,0.328084,6,P-GPS,
4300,2025-05-01 16:49:19,-23.091734653877,-44.237136194159,0.656168,0.5905512,3.632078200216,4.222629400216,1.312336,0.3131716,0.88593178688,1.38881566124,13,4,8.57,4.222629400216,0.656168,0.447388,0.88593178688,-0.223694,-0.223694,-1.11847,275.7, 1.9, 1.9,0,0,1316,1024,1024,1024,44,0,0,0,298,0,0,100,4.196,4.19,0,0,0,0,2.203,77.72,4.222629400216,0.656168,6,P-GPS,
4400,2025-05-01 16:49:20,-23.0917347843718,-44.2371363709296,0.656168,0.5905512,3.632078200216,4.222629400216,1.312336,0.3131716,0.95292325884,1.46488521748,13,4,8.57,4.222629400216,0.656168,0.447388,0.95292325884,-0.223694,-0.223694,-0.894776,275.8, -1.2, 2.1,0,0,1532,1024,1024,1024,77,0,0,0,298,0,0,100,4.196,4.19,0,0,0,0,2.203,77.72,4.222629400216,0.656168,6,P-GPS,
4500,2025-05-01 16:49:20,-23.0917349308731,-44.2371365545051,0.984252,0.8858268,3.664886600216,4.550713400216,1.312336,0.3131716,1.0247867782,1.54645018072,13,4,8.57,4.550713400216,0.984252,0.447388,1.0247867782,-0.223694,-0.223694,-0.894776,275.7, -3.7, 2.2,0,0,1547,1024,1059,1024,79,0,5,0,298,0,0,100,4.196,4.19,0,0,0,0,2.203,77.72,4.550713400216,0.984252,6,P-GPS,
4600,2025-05-01 16:49:20,-23.0917350818399,-44.2371368632417,0.984252,0.8858268,3.664886600216,4.550713400216,1.64042,0.447388,1.13892064012,1.663795985,13,4,8.57,4.550713400216,0.984252,0.447388,1.13892064012,0,-0.447388,-0.447388,275.6, -7.6, 2.3,0,0,1547,1024,1059,1024,79,0,5,0,298,0,0,100,4.196,4.19,0,0,0,0,2.203,77.72,4.550713400216,0.984252,6,P-GPS,
4700,2025-05-01 16:49:20,-23.0917354569698,-44.2371374202699,0.984252,0.8858268,3.664886600216,4.550713400216,1.64042,0.447388,1.35782812744,1.89549218664,13,4,8.57,4.550713400216,0.984252,0.447388,1.35782812744,0,-0.894776,-0.223694,275.6, -10.6, 2,0,0,1547,1024,1176,1024,79,0,23,0,298,0,0,100,4.196,4.19,0,0,0,0,2.203,77.72,4.550713400216,0.984252,6,P-GPS,
4800,2025-05-01 16:49:20,-23.0917355035899,-44.2371379685816,0.984252,0.8530184,3.697695000216,4.550713400216,1.64042,1.11847,1.53814965552,2.080298623,13,4,8.57,4.550713400216,0.984252,1.11847,1.53814965552,0,-1.11847,-0.223694,275.6, -12.1, 2,0,0,1390,1024,1176,1024,55,0,23,0,298,0,0,100,4.196,4.19,0,0,0,0,2.203,77.72,4.550713400216,0.984252,6,P-GPS,
4900,2025-05-01 16:49:20,-23.0917355067084,-44.2371387240672,1.312336,1.148294,3.730503400216,4.878797400216,1.64042,1.789552,1.78228680244,2.33385506156,13,4,8.57,4.878797400216,1.312336,1.789552,1.78228680244,0,-1.789552,-0.223694,275.5, -11.1, 1.8,0,0,1043,1024,1104,1024,3,0,12,0,298,0,0,100,4.196,4.19,0,0,0,0,2.203,77.72,4.878797400216,1.312336,6,P-GPS,
5000,2025-05-01 16:49:20,-23.0917355726284,-44.2371397324846,1.312336,1.1154856,3.763311800216,4.878797400216,1.968504,2.013246,2.11660439844,2.67314969184,13,4,8.57,4.878797400216,1.312336,2.013246,2.11660439844,0,-2.013246,-0.223694,275.7, -5.1, 1.7,0,0,1024,1024,1476,1024,0,0,68,0,298,0,0,100,4.196,4.19,0,0,0,0,2.203,77.72,4.878797400216,1.312336,6,P-GPS,
5100,2025-05-01 16:49:20,-23.0917357037257,-44.2371411580008,1.312336,1.0826772,3.796120200216,4.878797400216,1.968504,2.23694,2.59418315388,3.15396335552,13,4,8.439,4.878797400216,1.312336,2.23694,2.59418315388,0,-2.23694,-0.223694,275.8, 4, 1.8,0,0,1024,1024,1561,1024,0,0,81,0,298,0,0,100,4.215,4.206,0,0,0,0,4.341,77.9,4.878797400216,1.312336,6,P-GPS,
5200,2025-05-01 16:49:20,-23.0917357297961,-44.2371421992208,1.312336,1.0498688,3.828928600216,4.878797400216,1.968504,2.013246,2.93893382108,3.5035434192,13,4,8.439,4.878797400216,1.312336,2.23694,2.93893382108,0,-2.013246,-0.671082,275.8, 8.7, 1.8,0,0,1024,1024,1262,1024,0,0,36,0,298,0,0,100,4.215,4.206,0,0,0,0,4.341,77.9,4.878797400216,1.312336,6,P-GPS,
5300,2025-05-01 16:49:20,-23.0917357518784,-44.2371431080254,1.64042,1.3451444,3.861737000216,5.206881400216,2.296588,1.565858,3.24064971,3.8086615392,13,4,8.439,5.206881400216,1.64042,2.23694,3.24064971,0,-1.565858,-1.342164,276, 8.3, 1.8,0,0,1024,1024,1171,1024,0,0,22,0,298,0,0,100,4.215,4.206,0,0,0,0,4.341,77.9,5.206881400216,1.64042,6,P-GPS,
5400,2025-05-01 16:49:20,-23.0917358272607,-44.237143953799,1.64042,1.312336,3.894545400216,5.206881400216,2.624672,1.11847,3.5251641548,4.093832152,13,4,8.439,5.206881400216,1.64042,2.23694,3.5251641548,0,-1.11847,-1.789552,275.9, 6.4, 1.7,0,0,1024,1024,1171,1024,0,0,22,0,298,0,0,100,4.215,4.206,0,0,0,0,4.341,77.9,5.206881400216,1.64042,6,P-GPS,
5500,2025-05-01 16:49:21,-23.0917359338267,-44.2371447636096,1.968504,1.6076116,3.927353800216,5.534965400216,2.952756,0.894776,3.7996392292,4.3684056516,13,4,8.439,5.534965400216,1.968504,2.23694,3.7996392292,0,-0.894776,-1.565858,275.8, 6, 2.1,0,0,1024,1024,1556,1024,0,0,81,0,298,0,0,100,4.215,4.206,0,0,0,0,4.341,77.9,5.534965400216,1.968504,6,P-GPS,
5600,2025-05-01 16:49:21,-23.0917360218783,-44.2371455812819,2.296588,1.9028872,3.960162200216,5.863049400216,3.28084,0.447388,4.0756891068,4.644685188,13,4,8.439,5.863049400216,2.296588,2.23694,4.0756891068,0,-0.447388,-1.789552,275.9, 4.6, 2,0,0,1024,1024,1684,1024,0,0,100,0,298,0,0,100,4.215,4.206,0,0,0,0,4.341,77.9,5.863049400216,2.296588,6,P-GPS,
5700,2025-05-01 16:49:21,-23.0917361089257,-44.2371457315569,2.624672,2.2309712,3.960162200216,6.191133400216,3.608924,0.223694,4.13057756,4.7042980508,13,4,8.439,6.191133400216,2.624672,2.23694,4.13057756,0,-0.223694,-2.460634,276.1, 3.2, 2.3,0,0,1175,1024,1668,1024,23,0,98,0,298,0,0,100,4.215,4.206,0,0,0,0,4.341,77.9,6.191133400216,2.624672,6,P-GPS,
5800,2025-05-01 16:49:21,-23.0917362358485,-44.2371457387897,2.952756,2.5590552,3.960162200216,6.519217400216,4.265092,0,4.1407809724,4.75065632,13,4,8.439,6.519217400216,2.952756,2.23694,4.1407809724,0,0,-2.908022,276.1, 1.8, 2.4,0,0,1545,1024,1266,1024,79,0,37,0,298,0,0,100,4.215,4.206,0,0,0,0,4.341,77.9,6.519217400216,2.952756,6,P-GPS,
5900,2025-05-01 16:49:21,-23.0917363765817,-44.237145675892,3.28084,2.8871392,3.960162200216,6.847301400216,4.593176,0,4.129265224,4.8062009412,13,4,8.439,6.847301400216,3.28084,2.23694,4.1407809724,0,0,-3.579104,276, -1.9, 2.2,0,0,1627,1024,1235,1024,91,0,32,0,298,0,0,100,4.215,4.206,0,0,0,0,4.341,77.9,6.847301400216,3.28084,6,P-GPS,
6000,2025-05-01 16:49:21,-23.0917365081099,-44.2371441543533,3.937008,3.6417324,3.861737000216,7.503469400216,5.249344,0.223694,3.6394030036,5.3190946584,13,4,8.439,7.503469400216,3.937008,2.23694,4.1407809724,0,-0.223694,-3.35541,275.9, -8.8, 2.4,0,0,1684,1024,1276,1024,100,0,38,0,298,0,0,100,4.215,4.206,0,0,0,0,4.341,77.9,7.503469400216,3.937008,6,P-GPS,
6100,2025-05-01 16:49:21,-23.0917365686526,-44.2371440975284,4.265092,3.9698164,3.861737000216,7.831553400216,5.577428,0.671082,3.6258859428,5.348261326,13,4,8.439,7.831553400216,4.265092,2.23694,4.1407809724,0,-0.671082,-2.908022,275.9, -14.2, 2.1,0,0,1684,1024,1684,1024,100,0,100,0,298,0,0,100,4.215,4.206,0,0,0,0,4.341,77.9,7.831553400216,4.265092,6,P-GPS,
6200,2025-05-01 16:49:21,-23.091736568565,-44.2371442667329,4.593176,4.2979004,3.861737000216,8.159637400216,5.905512,1.11847,3.6811352884,5.4050526664,13,4,8.341,8.159637400216,4.593176,2.23694,4.1407809724,0,-1.11847,-2.23694,276, -17.5, 1.8,0,0,1684,1024,1684,1024,100,0,100,0,298,0,0,100,4.162,4.146,0,0,0,0,4.486,77.9,8.159637400216,4.593176,6,P-GPS,
6300,2025-05-01 16:49:21,-23.0917365380435,-44.2371447323916,4.92126,4.593176,3.894545400216,8.487721400216,6.233596,2.013246,3.8310040596,5.5617455848,13,4,8.341,8.487721400216,4.92126,2.23694,4.1407809724,0,-2.013246,-2.460634,275.7, -17.6, 1.7,0,0,1684,1024,1684,1024,100,0,100,0,298,0,0,100,4.162,4.146,0,0,0,0,4.486,77.9,8.487721400216,4.92126,6,P-GPS,
6400,2025-05-01 16:49:22,-23.0917363794315,-44.2371462429441,5.249344,4.8556432,3.960162200216,8.815805400216,6.56168,2.908022,4.3165683796,6.07201463,13,4,8.341,8.815805400216,5.249344,2.908022,4.3165683796,0,-2.908022,-2.908022,275.8, -15.5, 2.2,0,0,1684,1024,1684,1024,100,0,100,0,298,0,0,100,4.162,4.146,0,0,0,0,4.486,77.9,8.815805400216,5.249344,6,P-GPS,
6500,2025-05-01 16:49:22,-23.091736330821,-44.2371478650176,5.905512,5.4461944,4.025779000216,9.471973400216,6.889764,3.579104,4.8503282392,6.6166668784,13,4,8.341,9.471973400216,5.905512,3.579104,4.8503282392,0,-3.579104,-3.579104,276, -13.1, 2.4,0,0,1684,1024,1684,1024,100,0,100,0,298,0,0,100,4.162,4.146,0,0,0,0,4.486,77.9,9.471973400216,5.905512,6,P-GPS,
6600,2025-05-01 16:49:22,-23.0917362476897,-44.2371496927337,6.233596,5.7086616,4.091395800216,9.800057400216,7.545932,4.47388,5.4529857388,7.2308401264,13,4,8.341,9.800057400216,6.233596,4.47388,5.4529857388,0.223694,-4.47388,-4.250186,276.1, -12.6, 2.9,0,0,1684,1024,1684,1024,100,0,100,0,298,0,0,100,4.162,4.146,0,0,0,0,4.486,77.9,9.800057400216,6.233596,6,P-GPS,
6700,2025-05-01 16:49:22,-23.0917361179665,-44.2371518527084,7.217848,6.6272968,4.157012600216,10.784309400216,8.530184,5.144962,6.1668637144,7.9573165276,13,4,8.341,10.784309400216,7.217848,5.144962,6.1668637144,0.223694,-5.144962,-5.144962,276, -11.3, 2.7,0,0,1684,1024,1684,1024,100,0,100,0,298,0,0,100,4.162,4.146,0,0,0,0,4.486,77.9,10.784309400216,7.217848,6,P-GPS,
6800,2025-05-01 16:49:22,-23.0917360119151,-44.2371553185457,7.874016,7.217848,4.222629400216,11.440477400216,9.186352,5.6147194,7.3206367172,9.1211617092,13,4,8.341,11.440477400216,7.874016,5.6147194,7.3206367172,0.447388,-5.59235,-5.59235,276.2, -10.7, 2.4,0,0,1684,1005,1684,1024,100,-3,100,0,298,0,0,100,4.162,4.146,0,0,0,0,4.486,77.9,11.440477400216,7.874016,6,P-GPS,
6900,2025-05-01 16:49:22,-23.0917358506303,-44.2371581622062,8.858268,8.1036748,4.321054600216,12.424729400216,10.170604,6.0621074,8.2674543328,10.0773297188,13,4,8.341,12.424729400216,8.858268,6.0621074,8.2674543328,0.447388,-6.039738,-6.039738,276.2, -10.7, 2.3,0,0,1684,992,1684,1024,100,-5,100,0,298,0,0,100,4.162,4.146,0,0,0,0,4.486,77.9,12.424729400216,8.858268,6,P-GPS,
7000,2025-05-01 16:49:22,-23.0917356925118,-44.2371609776291,9.84252,8.9895016,4.419479800216,13.408981400216,11.154856,6.0621074,9.2068244416,11.0240161008,13,4,8.341,13.408981400216,9.84252,6.0621074,9.2068244416,0.447388,-6.487126,-6.263432,276.3, -10.9, 2.4,0,0,1684,975,1684,1024,100,-7,100,0,298,0,0,100,4.162,4.146,0,0,0,0,4.486,77.9,13.408981400216,9.84252,6,P-GPS,
7100,2025-05-01 16:49:22,-23.0917355122577,-44.2371640547058,10.826772,9.8753284,4.517905000216,14.393233400216,12.139108,6.7331894,10.2348756556,12.0588258452,13,4,8.341,14.393233400216,10.826772,6.7331894,10.2348756556,0.447388,-6.71082,-6.487126,276.2, -11.3, 2.7,0,0,1684,956,1684,1024,100,-10,100,0,298,0,0,100,4.162,4.146,0,0,0,0,4.486,77.9,14.393233400216,10.826772,6,P-GPS,
7200,2025-05-01 16:49:22,-23.0917354167546,-44.2371671615706,11.811024,10.7283468,4.649138600216,15.377485400216,13.12336,7.1805774,11.2752956364,13.1021001568,13,4,8.308,15.377485400216,11.811024,7.1805774,11.2752956364,0.447388,-7.158208,-6.487126,276.1, -11.7, 2,0,0,1684,928,1024,1024,100,-15,0,0,298,0,0,100,4.137,4.135,0,0,0,0,5.231,77.9,15.377485400216,11.811024,6,P-GPS,
7300,2025-05-01 16:49:22,-23.0917356072445,-44.2371710478415,12.795276,11.6141736,4.747563800216,16.361737400216,14.107612,7.4042714,12.5812996152,14.4082681776,13,4,8.308,16.361737400216,12.795276,7.4042714,12.5812996152,0.447388,-7.381902,-6.487126,276.1, -12.3, 2.6,0,0,1684,928,1024,1024,100,-15,0,0,298,0,0,100,4.137,4.135,0,0,0,0,5.231,77.9,16.361737400216,12.795276,6,P-GPS,
7400,2025-05-01 16:49:22,-23.091735539821,-44.2371743297685,13.779528,12.5000004,4.845989000216,17.345989400216,15.091864,7.8516594,13.6811356084,15.510007058,13,4,8.308,17.345989400216,13.779528,7.8516594,13.6811356084,0.447388,-7.82929,-6.263432,276.1, -13.1, 1.8,0,0,1684,880,1024,1024,100,-22,0,0,298,0,0,100,4.137,4.135,0,0,0,0,5.231,77.9,17.345989400216,13.779528,6,P-GPS,
7500,2025-05-01 16:49:23,-23.0917354656211,-44.2371778618569,14.435696,12.9921264,5.010031000216,18.002157400216,16.076116,8.0753534,14.8651251476,16.6957354424,13,4,8.308,18.002157400216,14.435696,8.0753534,14.8651251476,0.447388,-8.052984,-5.816044,276.3, -13.7, 1.5,0,0,1684,876,1024,1024,100,-22,0,0,298,0,0,100,4.137,4.135,0,0,0,0,5.231,77.9,18.002157400216,14.435696,6,P-GPS,
7600,2025-05-01 16:49:23,-23.0917354551767,-44.2371812242358,15.419948,13.8779532,5.108456200216,18.986409400216,17.060368,8.2990474,15.9930123228,17.8242131688,13,4,8.308,18.986409400216,15.419948,8.2990474,15.9930123228,0.447388,-8.276678,-4.921268,276.3, -14.2, 0.9,0,0,1684,876,1024,1024,100,-22,0,0,298,0,0,100,4.137,4.135,0,0,0,0,5.231,77.9,18.986409400216,15.419948,6,P-GPS,
7700,2025-05-01 16:49:23,-23.0917358326093,-44.2371844667215,16.076116,14.4685044,5.174073000216,19.642577400216,17.388452,8.5227414,17.0849414916,18.9211292144,13,4,8.308,19.642577400216,16.076116,8.5227414,17.0849414916,0.447388,-8.500372,-4.026492,276.3, -14.9, 0.7,0,0,1684,876,1024,1024,100,-22,0,0,298,0,0,100,4.137,4.135,0,0,0,0,5.231,77.9,19.642577400216,16.076116,6,P-GPS,
7800,2025-05-01 16:49:23,-23.0917359284477,-44.2371880827076,16.4042,14.6653548,5.305306600216,19.970661400216,18.04462,8.7464354,18.2990163336,20.1352368648,13,4,8.308,19.970661400216,16.4042,8.7464354,18.2990163336,0.447388,-8.724066,-3.35541,276.3, -15.2, 0.2,0,0,1684,873,1024,1024,100,-23,0,0,298,0,0,100,4.137,4.135,0,0,0,0,5.231,77.9,19.970661400216,16.4042,6,P-GPS,
7900,2025-05-01 16:49:23,-23.0917360622897,-44.2371920348203,16.732284,14.8622052,5.436540200216,20.298745400216,18.372704,9.171454,19.626312964,21.4625334952,13,4,8.308,20.298745400216,16.732284,9.171454,19.626312964,0.447388,-9.171454,-2.460634,276.4, -15.5, 0.3,0,0,1684,870,1024,1024,100,-23,0,0,298,0,0,100,4.137,4.135,0,0,0,0,5.231,77.9,20.298745400216,16.732284,6,P-GPS,
8000,2025-05-01 16:49:23,-23.0917361847434,-44.2371958899456,17.060368,15.0590556,5.567773800216,20.626829400216,18.700788,9.395148,20.920932428,22.7571529592,13,4,8.308,20.626829400216,17.060368,9.395148,20.920932428,0.447388,-9.395148,-1.565858,276.4, -15.7, 0.2,0,0,1684,855,1617,1024,100,-26,90,0,298,0,0,100,4.137,4.135,0,0,0,0,5.231,77.9,20.626829400216,17.060368,6,P-GPS,
8100,2025-05-01 16:49:23,-23.0917366997492,-44.237200014245,17.388452,15.2887144,5.666199000216,20.954913400216,19.028872,9.618842,22.3110899528,24.1540033976,13,4,8.308,20.954913400216,17.388452,9.618842,22.3110899528,0.223694,-9.618842,-0.894776,276.3, -15.8, 0,0,0,1684,855,1684,1024,100,-26,100,0,298,0,0,100,4.137,4.135,0,0,0,0,5.231,77.9,20.954913400216,17.388452,6,P-GPS,
8200,2025-05-01 16:49:23,-23.0917368418509,-44.237204141846,17.388452,15.1574808,5.797432600216,20.954913400216,19.356956,10.06623,23.697343278,25.5402895312,13,4,8.331,20.954913400216,17.388452,10.06623,23.697343278,0.223694,-10.06623,-0.671082,276.3, -15, -0.4,0,0,1684,855,1684,1024,100,-26,100,0,298,0,0,100,4.236,4.234,0,0,0,0,5.644,77.9,20.954913400216,17.388452,6,P-GPS,
8300,2025-05-01 16:49:23,-23.0917370111818,-44.2372086806517,17.388452,14.9934388,5.961474600216,20.954913400216,19.356956,10.513618,25.2218840092,27.0648302624,13,4,8.331,20.954913400216,17.388452,10.513618,25.2218840092,0.223694,-10.513618,-1.11847,276.4, -13.2, -0.1,0,0,1684,846,1684,1024,100,-27,100,0,298,0,0,100,4.236,4.234,0,0,0,0,5.644,77.9,20.954913400216,17.388452,6,P-GPS,
8400,2025-05-01 16:49:23,-23.0917371348015,-44.2372130107677,17.716536,15.1902892,6.092708200216,21.282997400216,19.68504,10.961006,26.6757882552,28.5188001252,13,4,8.331,21.282997400216,17.716536,10.961006,26.6757882552,0.223694,-10.961006,-1.789552,276.5, -12.2, 0.6,0,0,1684,846,1684,1024,100,-27,100,0,298,0,0,100,4.236,4.234,0,0,0,0,5.644,77.9,21.282997400216,17.716536,6,P-GPS,
8500,2025-05-01 16:49:24,-23.0917372733886,-44.2372174167442,18.04462,15.3871396,6.223941800216,21.611081400216,20.341208,11.1847,28.15534867,29.9983933484,13,4,8.331,21.611081400216,18.04462,11.1847,28.15534867,0.223694,-11.1847,-2.684328,276.3, -12, 0.3,0,0,1684,846,1684,1024,100,-27,100,0,298,0,0,100,4.236,4.234,0,0,0,0,5.644,77.9,21.611081400216,18.04462,6,P-GPS,
8600,2025-05-01 16:49:24,-23.091737420192,-44.2372217851188,18.372704,15.5511816,6.387983800216,21.939165400216,20.997376,11.632088,29.6224418928,31.4654537628,13,4,8.331,21.939165400216,18.372704,11.632088,29.6224418928,0.223694,-11.632088,-3.579104,276.3, -12.5, 0.4,0,0,1684,849,1684,1024,100,-27,100,0,298,0,0,100,4.236,4.234,0,0,0,0,5.644,77.9,21.939165400216,18.372704,6,P-GPS,
8700,2025-05-01 16:49:24,-23.0917375934487,-44.2372264521949,19.028872,16.2073496,6.387983800216,22.595333400216,21.653544,11.855782,31.1900600532,33.03313754,13,4,8.331,22.595333400216,19.028872,11.855782,31.1900600532,-0.447388,-11.855782,-4.250186,272.6, -12, 0.6,0,0,1684,835,1684,1024,100,-29,100,0,298,0,0,100,4.236,4.234,0,0,0,0,5.644,77.9,22.595333400216,19.028872,6,P-GPS,
8800,2025-05-01 16:49:24,-23.0917378037101,-44.2372313276814,19.68504,16.8307092,6.420792200216,23.251501400216,22.309712,12.079476,32.82808504,34.671260952,13,4,8.331,23.251501400216,19.68504,12.079476,32.82808504,-0.447388,-12.079476,-5.144962,272.5, -11.4, -0.5,0,0,1684,831,1684,1024,100,-29,100,0,298,0,0,100,4.236,4.234,0,0,0,0,5.644,77.9,23.251501400216,19.68504,6,P-GPS,
8900,2025-05-01 16:49:24,-23.0917380697054,-44.2372366840166,20.669292,17.7493444,6.486409000216,24.235753400216,23.293964,12.1018454,34.628281948,36.47145786,13,4,8.331,24.235753400216,20.669292,12.1018454,34.628281948,-0.671082,-12.079476,-5.816044,272.7, -11.2, 0.3,0,0,1684,833,1684,1024,100,-29,100,0,298,0,0,100,4.236,4.234,0,0,0,0,5.644,77.9,24.235753400216,20.669292,6,P-GPS,
9000,2025-05-01 16:49:24,-23.0917386922685,-44.2372414264271,21.653544,18.7335964,6.486409000216,25.220005400216,24.278216,12.3255394,36.228019532,38.07906946,13,4,8.331,25.220005400216,21.653544,12.3255394,36.228019532,-0.671082,-12.30317,-6.039738,272.7, -11.8, 0.3,0,0,1684,833,1684,1024,100,-29,100,0,298,0,0,100,4.236,4.234,0,0,0,0,5.644,77.9,25.220005400216,21.653544,6,P-GPS,
9100,2025-05-01 16:49:24,-23.0917390528447,-44.2372468383713,22.637796,19.68504,6.519217400216,26.204257400216,25.262468,12.3255394,38.048557648,39.900263744,13,4,8.331,26.204257400216,22.637796,12.3255394,38.048557648,-0.671082,-12.30317,-6.263432,272.6, -12.6, 0,0,0,1684,828,1684,1024,100,-30,100,0,298,0,0,100,4.236,4.234,0,0,0,0,5.644,77.9,26.204257400216,22.637796,6,P-GPS,
9200,2025-05-01 16:49:24,-23.0917394320132,-44.2372522751444,23.622048,20.6364836,6.552025800216,27.188509400216,26.24672,12.5492334,39.877625948,41.730316296,13,4,8.27,27.188509400216,23.622048,12.5492334,39.877625948,-0.894776,-12.526864,-6.487126,272.6, -13.2, 0.2,0,0,1684,825,1684,1024,100,-30,100,0,298,0,0,100,4.117,4.115,0,0,0,0,5.106,77.9,27.188509400216,23.622048,6,P-GPS,
9300,2025-05-01 16:49:24,-23.0917398581685,-44.2372581679932,24.6063,21.5879272,6.584834200216,28.172761400216,27.230972,12.5492334,41.860565644,43.714240244,13,5,8.27,28.172761400216,24.6063,12.5492334,41.860565644,-0.894776,-12.526864,-6.487126,272.8, -12.9, 0,0,0,1684,824,1684,1024,100,-30,100,0,298,0,0,100,4.117,4.115,0,0,0,0,5.106,77.9,28.172761400216,24.6063,6,P-GPS,
9400,2025-05-01 16:49:24,-23.0917403551875,-44.2372640612425,25.590552,22.5393708,6.617642600216,29.157013400216,28.215224,12.5492334,43.84514576,45.700132696,13,5,8.27,29.157013400216,25.590552,12.5492334,43.84514576,-1.11847,-12.750558,-6.487126,272.7, -13.1, 0.6,0,0,1684,824,1684,1024,100,-30,100,0,298,0,0,100,4.117,4.115,0,0,0,0,5.106,77.9,29.157013400216,25.590552,6,P-GPS,
9500,2025-05-01 16:49:25,-23.0917409187301,-44.2372704065722,26.574804,23.4908144,6.650451000216,30.141265400216,29.199476,13.0189908,45.982284936,47.839896544,13,5,8.27,30.141265400216,26.574804,13.0189908,45.982284936,-1.11847,-12.974252,-6.487126,272.7, -12.7, 0.3,0,0,1684,823,1684,1024,100,-30,100,0,298,0,0,100,4.117,4.115,0,0,0,0,5.106,77.9,30.141265400216,26.574804,6,P-GPS,
9600,2025-05-01 16:49:25,-23.0917414235054,-44.2372762991602,27.559056,24.442258,6.683259400216,31.125517400216,30.511812,13.2426848,47.967193136,49.82611708,13,5,8.27,31.125517400216,27.559056,13.2426848,47.967193136,-1.11847,-13.197946,-6.487126,272.6, -13.3, 0.4,0,0,1684,822,1684,1024,100,-31,100,0,298,0,0,100,4.117,4.115,0,0,0,0,5.106,77.9,31.125517400216,27.559056,6,P-GPS,
9700,2025-05-01 16:49:25,-23.0917419439732,-44.2372824668782,28.543308,25.3937016,6.716067800216,32.109769400216,31.496064,13.2426848,50.04429294,51.90452922,13,5,8.27,32.109769400216,28.543308,13.2426848,50.04429294,-1.11847,-13.197946,-6.487126,272.6, -12.4, 0,0,0,1684,773,1684,1024,100,-38,100,0,298,0,0,100,4.117,4.115,0,0,0,0,5.106,77.9,32.109769400216,28.543308,6,P-GPS,
9800,2025-05-01 16:49:25,-23.0917424790384,-44.2372886075042,29.855644,26.6404208,6.781684600216,33.422105400216,32.480316,13.4887482,52.113190644,53.97473926,13,5,8.27,33.422105400216,29.855644,13.4887482,52.113190644,-1.342164,-13.42164,-6.487126,272.8, -13.2, 0.8,0,0,1684,713,1684,1024,100,-47,100,0,298,0,0,100,4.117,4.115,0,0,0,0,5.106,77.9,33.422105400216,29.855644,6,P-GPS,
9900,2025-05-01 16:49:25,-23.0917430467286,-44.2372949566802,30.839896,27.5918644,6.814493000216,34.406357400216,33.464568,13.7124422,54.252298324,56.115815444,13,5,8.27,34.406357400216,30.839896,13.7124422,54.252298324,-1.342164,-13.645334,-6.487126,272.6, -12.8, 0.1,0,0,1684,713,1684,1024,100,-47,100,0,298,0,0,100,4.117,4.115,0,0,0,0,5.106,77.9,34.406357400216,30.839896,6,P-GPS,
10000,2025-05-01 16:49:25,-23.09174364224,-44.237301074079,31.824148,28.543308,6.847301400216,35.390609400216,34.44882,13.9585056,56.314962432,58.180119972,13,5,8.27,35.390609400216,31.824148,13.9585056,56.314962432,-1.565858,-13.869028,-6.71082,272.7, -12.1, -0.2,0,0,1684,799,1684,1024,100,-34,100,0,298,0,0,100,4.117,4.115,0,0,0,0,5.106,77.9,35.390609400216,31.824148,6,P-GPS,
10100,2025-05-01 16:49:25,-23.0917443279948,-44.2373075637257,32.8084,29.4619432,6.912918200216,36.374861400216,35.433072,13.980875,58.504266964,60.372705344,13,5,8.27,36.374861400216,32.8084,13.980875,58.504266964,-1.789552,-13.869028,-6.71082,272.7, -12.5, 0.6,0,0,1684,795,1684,1024,100,-35,100,0,298,0,0,100,4.117,4.115,0,0,0,0,5.106,77.9,36.374861400216,32.8084,6,P-GPS,
10200,2025-05-01 16:49:25,-23.0917449299866,-44.237313706978,33.792652,30.4133868,6.945726600216,37.359113400216,36.417324,14.204569,60.57578934,62.446196224,13,5,8.29,37.359113400216,33.792652,14.204569,60.57578934,-1.789552,-14.092722,-6.487126,272.8, -12.7, 1.6,0,0,1684,797,1684,1024,100,-34,100,0,298,0,0,100,4.154,4.157,0,0,0,0,5.727,78.08,37.359113400216,33.792652,6,P-GPS,
10300,2025-05-01 16:49:25,-23.0917456533724,-44.2373202444385,34.776904,31.332022,7.011343400216,38.343365400216,37.401576,14.428263,62.782482324,64.655841964,13,5,8.29,38.343365400216,34.776904,14.428263,62.782482324,-1.789552,-14.316416,-6.71082,272.6, -13.3, 2.3,0,0,1684,926,1684,1024,100,-15,100,0,298,0,0,100,4.154,4.157,0,0,0,0,5.727,78.08,38.343365400216,34.776904,6,P-GPS,
10400,2025-05-01 16:49:25,-23.0917464212122,-44.2373264990205,36.08924,32.5787412,7.076960200216,39.655701400216,38.385828,14.4506324,64.895671368,66.773624184,13,5,8.29,39.655701400216,36.08924,14.4506324,64.895671368,-2.013246,-14.316416,-6.487126,272.8, -12.8, 2.2,0,0,1684,997,1684,1024,100,-4,100,0,298,0,0,100,4.154,4.157,0,0,0,0,5.727,78.08,39.655701400216,36.08924,6,P-GPS,
10500,2025-05-01 16:49:26,-23.0917472604235,-44.2373331051005,36.745408,33.2021008,7.109768600216,40.311869400216,39.37008,14.4506324,67.128611072,69.011813232,13,5,8.29,40.311869400216,36.745408,14.4506324,67.128611072,-2.013246,-14.316416,-6.487126,272.5, -13.7, 3.6,0,0,1684,998,1684,1024,100,-4,100,0,298,0,0,100,4.154,4.157,0,0,0,0,5.727,78.08,40.311869400216,36.745408,6,P-GPS,
10600,2025-05-01 16:49:26,-23.0917480320275,-44.2373394389563,38.057744,34.44882,7.175385400216,41.624205400216,40.354332,14.651957,69.269031088,71.156170256,13,5,8.29,41.624205400216,38.057744,14.651957,69.269031088,-1.789552,-14.54011,-6.487126,272.4, -15, 5,0,0,1684,999,1684,1024,100,-4,100,0,298,0,0,100,4.154,4.157,0,0,0,0,5.727,78.08,41.624205400216,38.057744,6,P-GPS,
10700,2025-05-01 16:49:26,-23.0917489227277,-44.237346072771,39.041996,35.3674552,7.241002200216,42.608457400216,41.338584,14.6295876,71.513453732,73.406170328,13,5,8.29,42.608457400216,39.041996,14.651957,71.513453732,-1.565858,-14.54011,-6.487126,272.2, -14.6, 5.1,0,0,1684,999,1684,1024,100,-4,100,0,298,0,0,100,4.154,4.157,0,0,0,0,5.727,78.08,42.608457400216,39.041996,6,P-GPS,
10800,2025-05-01 16:49:26,-23.0917495556893,-44.2373524431344,40.026248,36.2860904,7.306619000216,43.592709400216,42.322836,14.8532816,73.662732016,75.556760948,13,5,8.29,43.592709400216,40.026248,14.8532816,73.662732016,-1.565858,-14.763804,-6.487126,272.4, -13.1, 4.9,0,0,1684,1009,1684,1024,100,-2,100,0,298,0,0,100,4.154,4.157,0,0,0,0,5.727,78.08,43.592709400216,40.026248,6,P-GPS,
10900,2025-05-01 16:49:26,-23.0917501463682,-44.2373591482136,41.0105,37.2047256,7.372235800216,44.576961400216,42.65092,14.8309122,75.922902692,77.817259708,13,5,8.29,44.576961400216,41.0105,14.8532816,75.922902692,-1.342164,-14.763804,-6.71082,272.3, -14.2, 4.3,0,0,1684,1000,1684,1024,100,-4,100,0,298,0,0,100,4.154,4.157,0,0,0,0,5.727,78.08,44.576961400216,41.0105,6,P-GPS,
11000,2025-05-01 16:49:26,-23.091750662668,-44.2373655667448,41.994752,38.0905524,7.470661000216,45.561213400216,42.65092,15.0546062,78.085304336,79.979661352,13,5,8.29,45.561213400216,41.994752,15.0546062,78.085304336,-1.342164,-14.987498,-6.487126,272.3, -15.7, 4.2,0,0,1684,880,1684,1024,100,-22,100,0,298,0,0,100,4.154,4.157,0,0,0,0,5.727,78.08,45.561213400216,41.994752,6,P-GPS,
11100,2025-05-01 16:49:26,-23.0917510412031,-44.2373720998281,42.979004,39.0091876,7.536277800216,46.545465400216,42.65092,15.0322368,80.281826716,82.176511816,13,5,8.29,46.545465400216,42.979004,15.0546062,80.281826716,-1.11847,-14.987498,-6.487126,272.3, -15.2, 4.1,0,0,1684,840,1684,1024,100,-28,100,0,298,0,0,100,4.154,4.157,0,0,0,0,5.727,78.08,46.545465400216,42.979004,6,P-GPS,
11200,2025-05-01 16:49:26,-23.0917514429826,-44.2373786992958,43.963256,39.9278228,7.601894600216,47.529717400216,42.65092,15.2559308,82.50164306,84.39632816,13,5,8.29,47.529717400216,43.963256,15.2559308,82.50164306,-1.11847,-15.211192,-6.487126,272.6, -14.2, 1.3,0,0,1684,1001,1684,1024,100,-3,100,0,298,0,0,100,4.154,4.157,0,0,0,0,5.727,78.08,47.529717400216,43.963256,6,P-GPS,
11300,2025-05-01 16:49:26,-23.0917518469947,-44.2373857260148,44.947508,40.846458,7.667511400216,48.513969400216,42.65092,15.4796248,84.864175944,86.759189128,13,5,8.28,48.513969400216,44.947508,15.4796248,84.864175944,-1.11847,-15.434886,-6.487126,272.6, -13.4, 1.2,0,0,1684,1002,1684,1024,100,-3,100,0,298,0,0,100,4.124,4.124,0,0,0,0,5.778,78.08,48.513969400216,44.947508,6,P-GPS,
11400,2025-05-01 16:49:27,-23.0917522342728,-44.2373925161233,45.93176,41.7650932,7.733128200216,49.498221400216,42.65092,15.7033188,87.1473125,89.042653768,13,5,8.28,49.498221400216,45.93176,15.7033188,87.1473125,-1.11847,-15.65858,-6.71082,272.6, -14, 2.9,0,0,1684,1024,1684,1024,100,0,100,0,298,0,0,100,4.124,4.124,0,0,0,0,5.778,78.08,49.498221400216,45.93176,6,P-GPS,
11500,2025-05-01 16:49:27,-23.0917524046162,-44.2373999792393,46.916012,42.65092,7.831553400216,50.482473400216,42.65092,15.7033188,89.649609168,91.547903192,13,5,8.28,50.482473400216,46.916012,15.7033188,89.649609168,-1.11847,-15.65858,-6.71082,272.5, -13.3, 3.8,0,0,1684,1024,1684,1024,100,0,100,0,298,0,0,100,4.124,4.124,0,0,0,0,5.778,78.08,50.482473400216,46.916012,6,P-GPS,
11600,2025-05-01 16:49:27,-23.0917527961121,-44.2374068876809,47.900264,43.5695552,7.897170200216,51.466725400216,42.65092,15.9046434,91.972443888,93.871065996,13,5,8.28,51.466725400216,47.900264,15.9046434,91.972443888,-0.894776,-15.882274,-6.487126,272.2, -13.9, 3.4,0,0,1684,1024,1684,1024,100,0,100,0,298,0,0,100,4.124,4.124,0,0,0,0,5.778,78.08,51.466725400216,47.900264,6,P-GPS,
11700,2025-05-01 16:49:27,-23.0917532157767,-44.2374141906103,49.2126,44.783466,7.995595400216,52.779061400216,42.65092,16.1283374,94.428152628,96.326774736,13,5,8.28,52.779061400216,49.2126,16.1283374,94.428152628,-0.894776,-16.105968,-6.487126,272.3, -13, 4.7,0,0,1684,1024,1684,1024,100,0,100,0,298,0,0,100,4.124,4.124,0,0,0,0,5.778,78.08,52.779061400216,49.2126,6,P-GPS,
11800,2025-05-01 16:49:27,-23.0917536189974,-44.2374214132041,50.196852,45.6692928,8.094020600216,53.763313400216,42.65092,16.3520314,96.856302312,98.755252504,13,5,8.28,53.763313400216,50.196852,16.3520314,96.856302312,-0.894776,-16.329662,-6.487126,272.1, -12.7, 4.5,0,0,1684,1024,1684,1024,100,0,100,0,298,0,0,100,4.124,4.124,0,0,0,0,5.778,78.08,53.763313400216,50.196852,6,P-GPS,
11900,2025-05-01 16:49:27,-23.091754071397,-44.2374299011051,51.181104,46.587928,8.159637400216,54.747565400216,42.65092,16.3520314,99.70964886,101.608599052,13,5,8.28,54.747565400216,51.181104,16.3520314,99.70964886,-0.894776,-16.77705,-6.71082,272.5, -11.3, 4.7,0,0,1684,1024,1684,1024,100,0,100,0,298,0,0,100,4.124,4.124,0,0,0,0,5.778,78.08,54.747565400216,51.181104,6,P-GPS,
12000,2025-05-01 16:49:27,-23.0917544623262,-44.2374378382247,52.165356,47.4737548,8.258062600216,55.731817400216,42.65092,16.7994194,102.376643696,104.276250056,13,5,8.28,55.731817400216,52.165356,16.7994194,102.376643696,-0.894776,-16.77705,-6.71082,272.7, -10.1, 4.8,0,0,1684,1024,1684,1024,100,0,100,0,298,0,0,100,4.124,4.124,0,0,0,0,5.778,78.08,55.731817400216,52.165356,6,P-GPS,
12100,2025-05-01 16:49:27,-23.0917548471063,-44.2374462803234,53.149608,48.3267732,8.389296200216,56.716069400216,42.65092,16.7994194,105.212929876,107.113192404,13,5,8.28,56.716069400216,53.149608,16.7994194,105.212929876,-0.671082,-16.77705,-6.71082,272.6, -9.5, 4.8,0,0,1684,1024,1684,1024,100,0,100,0,298,0,0,100,4.124,4.124,0,0,0,0,5.778,78.08,56.716069400216,53.149608,6,P-GPS,
12200,2025-05-01 16:49:27,-23.0917551547569,-44.2374540095914,53.805776,48.9173244,8.454913000216,57.372237400216,42.65092,16.7994194,107.8084024,109.70964918,13,5,8.28,57.372237400216,53.805776,16.7994194,107.8084024,-0.671082,-16.77705,-6.934514,272.6, -10.5, 5.1,0,0,1684,1024,1684,1024,100,0,100,0,298,0,0,100,4.124,4.124,0,0,0,0,5.778,78.08,57.372237400216,53.805776,6,P-GPS,
12300,2025-05-01 16:49:27,-23.0917554341506,-44.2374619983619,54.790028,49.8031512,8.553338200216,58.356489400216,42.65092,16.553356,110.490161016,112.392720132,13,5,8.261,58.356489400216,54.790028,16.7994194,110.490161016,-0.447388,-16.553356,-6.71082,272.5, -10.8, 4.5,0,0,1684,1024,1684,1024,100,0,100,0,298,0,0,100,4.116,4.118,0,0,0,0,6.09,78.08,58.356489400216,54.790028,6,P-GPS,
12400,2025-05-01 16:49:27,-23.0917556577523,-44.2374705561676,55.77428,50.6561696,8.684571800216,59.340741400216,42.65092,16.553356,113.360896016,115.266079804,13,5,8.261,59.340741400216,55.77428,16.7994194,113.360896016,-0.447388,-16.553356,-6.487126,272.6, -12.2, 4.3,0,0,1684,1024,1684,1024,100,0,100,0,298,0,0,100,4.116,4.118,0,0,0,0,6.09,78.08,59.340741400216,55.77428,6,P-GPS,
12500,2025-05-01 16:49:28,-23.0917558758123,-44.2374777758185,56.758532,51.5748048,8.750188600216,60.324993400216,42.65092,16.77705,115.783796356,117.69029248,13,5,8.261,60.324993400216,56.758532,16.7994194,115.783796356,-0.223694,-16.77705,-6.263432,272.1, -12.5, 3.2,0,0,1684,1024,1684,1024,100,0,100,0,298,0,0,100,4.116,4.118,0,0,0,0,6.09,78.08,60.324993400216,56.758532,6,P-GPS,
12600,2025-05-01 16:49:28,-23.0917560390541,-44.237484719613,57.742784,52.4606316,8.848613800216,61.309245400216,42.65092,16.77705,118.112864672,120.021657384,13,5,8.261,61.309245400216,57.742784,16.7994194,118.112864672,-0.223694,-16.77705,-6.263432,272.4, -10.3, 3.4,0,0,1684,1024,1684,1024,100,0,100,0,298,0,0,100,4.116,4.118,0,0,0,0,6.09,78.08,61.309245400216,57.742784,6,P-GPS,
12700,2025-05-01 16:49:28,-23.0917561913364,-44.2374920773224,58.727036,53.3792668,8.914230600216,62.293497400216,42.65092,17.000744,120.580384436,122.491473736,13,5,8.261,62.293497400216,58.727036,17.000744,120.580384436,-0.223694,-17.000744,-6.487126,272.5, -10.3, 3.2,0,0,1684,1024,1684,1024,100,0,100,0,298,0,0,100,4.116,4.118,0,0,0,0,6.09,78.08,62.293497400216,58.727036,6,P-GPS,
12800,2025-05-01 16:49:28,-23.0917563319981,-44.2374989797292,59.711288,54.297902,8.979847400216,63.277749400216,42.65092,17.000744,122.89534514,124.808731028,13,5,8.261,63.277749400216,59.711288,17.000744,122.89534514,-0.223694,-17.000744,-6.487126,272.5, -10.8, 4.2,0,0,1684,1024,1684,1024,100,0,100,0,298,0,0,100,4.116,4.118,0,0,0,0,6.09,78.08,63.277749400216,59.711288,6,P-GPS,
12900,2025-05-01 16:49:28,-23.0917564676052,-44.2375062248609,60.69554,55.1837288,9.078272600216,64.262001400216,42.65092,17.000744,125.325135244,127.24081772,13,5,8.261,64.262001400216,60.69554,17.000744,125.325135244,-0.223694,-17.000744,-6.71082,272.5, -9.8, 4.1,0,0,1684,1024,1684,1024,100,0,100,0,298,0,0,100,4.116,4.118,0,0,0,0,6.09,78.08,64.262001400216,60.69554,6,P-GPS,
13000,2025-05-01 16:49:28,-23.0917566295539,-44.2375132616755,61.679792,56.0039388,9.242314600216,65.246253400216,42.65092,17.000744,127.685699624,129.603350604,13,5,8.261,65.246253400216,61.679792,17.000744,127.685699624,0,-17.000744,-6.71082,272.5, -10.9, 3.2,0,0,1684,1024,1684,1024,100,0,100,0,298,0,0,100,4.116,4.118,0,0,0,0,6.09,78.08,65.246253400216,61.679792,6,P-GPS,
13100,2025-05-01 16:49:28,-23.0917568126969,-44.2375207396739,62.664044,56.8569572,9.373548200216,66.230505400216,42.65092,16.77705,130.194557972,132.113849372,13,5,8.261,66.230505400216,62.664044,17.000744,130.194557972,0,-16.77705,-6.71082,272.5, -11.5, 3.5,0,0,1684,1024,1684,1024,100,0,100,0,298,0,0,100,4.116,4.118,0,0,0,0,6.09,78.08,66.230505400216,62.664044,6,P-GPS,
13200,2025-05-01 16:49:28,-23.0917570362676,-44.2375262532622,63.648296,57.7755924,9.439165000216,67.214757400216,42.65092,16.77705,132.046264068,133.966211636,13,5,8.261,67.214757400216,63.648296,17.000744,132.046264068,0,-16.77705,-6.487126,272.6, -12.2, 4.1,0,0,1684,1024,1684,1024,100,0,100,0,298,0,0,100,4.116,4.118,0,0,0,0,6.09,78.08,67.214757400216,63.648296,6,P-GPS,
13300,2025-05-01 16:49:28,-23.0917572090439,-44.2375332940628,64.632548,58.6614192,9.537590200216,68.199009400216,42.65092,16.77705,134.408796952,136.330056856,13,5,8.202,68.199009400216,64.632548,17.000744,134.408796952,-0.223694,-16.77705,-6.263432,272.4, -11.1, 3.6,0,0,1684,1024,1684,1024,100,0,100,0,298,0,0,100,4.109,4.091,0,0,0,0,6.125,78.26,68.199009400216,64.632548,6,P-GPS,
13400,2025-05-01 16:49:29,-23.0917574082612,-44.2375402212798,65.944884,59.87533,9.636015400216,69.511345400216,42.65092,17.000744,136.733600176,138.656172416,13,5,8.202,69.511345400216,65.944884,17.000744,136.733600176,-0.223694,-17.000744,-6.71082,272.4, -9.2, 4.8,0,0,1684,1024,1684,1024,100,0,100,0,298,0,0,100,4.109,4.091,0,0,0,0,6.125,78.26,69.511345400216,65.944884,6,P-GPS,
13500,2025-05-01 16:49:29,-23.0917576195681,-44.2375476607962,66.601052,60.3346476,9.832865800216,70.167513400216,42.65092,17.000744,139.2306475,141.153875908,13,5,8.202,70.167513400216,66.601052,17.000744,139.2306475,-0.223694,-17.000744,-6.934514,272, -7.8, 4.1,0,0,1684,1024,1684,1024,100,0,100,0,298,0,0,100,4.109,4.091,0,0,0,0,6.125,78.26,70.167513400216,66.601052,6,P-GPS,
13600,2025-05-01 16:49:29,-23.091757784238,-44.2375544701084,67.585304,61.2204744,9.931291000216,71.151765400216,42.65092,17.000744,141.515096392,143.440293304,13,5,8.202,71.151765400216,67.585304,17.000744,141.515096392,0,-17.000744,-6.934514,272.3, -9.3, 4.5,0,0,1684,1024,1684,1024,100,0,100,0,298,0,0,100,4.109,4.091,0,0,0,0,6.125,78.26,71.151765400216,67.585304,6,P-GPS,
13700,2025-05-01 16:49:29,-23.091757917873,-44.2375619617786,68.569556,62.1063012,10.029716200216,72.136017400216,42.65092,17.448132,144.027891748,145.955057164,13,5,8.202,72.136017400216,68.569556,17.448132,144.027891748,0,-17.448132,-6.934514,272.5, -8.7, 4.5,0,0,1684,1024,1684,1024,100,0,100,0,298,0,0,100,4.109,4.091,0,0,0,0,6.125,78.26,72.136017400216,68.569556,6,P-GPS,
13800,2025-05-01 16:49:29,-23.0917580760698,-44.2375698193078,69.553808,62.9593196,10.160949800216,73.120269400216,42.65092,17.448132,146.663718604,148.592852524,13,5,8.202,73.120269400216,69.553808,17.448132,146.663718604,0,-17.448132,-6.934514,272.4, -9.2, 3.7,0,0,1684,1024,1684,1024,100,0,100,0,298,0,0,100,4.109,4.091,0,0,0,0,6.125,78.26,73.120269400216,69.553808,6,P-GPS,
13900,2025-05-01 16:49:29,-23.0917582546498,-44.2375783629947,70.209976,63.484254,10.292183400216,73.776437400216,42.65092,17.224438,149.530188512,151.460962852,13,5,8.202,73.776437400216,70.209976,17.448132,149.530188512,0,-17.224438,-6.71082,272.6, -9.5, 3.1,0,0,1684,1024,1684,1024,100,0,100,0,298,0,0,100,4.109,4.091,0,0,0,0,6.125,78.26,73.776437400216,70.209976,6,P-GPS,
14000,2025-05-01 16:49:29,-23.0917583881725,-44.237586267127,71.194228,64.3700808,10.390608600216,74.760689400216,42.65092,17.448132,152.181107232,154.11417816,13,5,8.202,74.760689400216,71.194228,17.448132,152.181107232,0,-17.448132,-6.487126,272.5, -9.8, 4.1,0,0,1684,1024,1684,1024,100,0,100,0,298,0,0,100,4.109,4.091,0,0,0,0,6.125,78.26,74.760689400216,71.194228,6,P-GPS,
14100,2025-05-01 16:49:29,-23.091758610302,-44.2375961851411,71.850396,64.7637816,10.653075800216,75.416857400216,42.65092,17.448132,155.508863244,157.443574592,13,5,8.202,75.416857400216,71.850396,17.448132,155.508863244,0,-17.224438,-6.487126,272.6, -9.2, 4.2,0,0,1684,1024,1684,1024,100,0,100,0,298,0,0,100,4.109,4.091,0,0,0,0,6.125,78.26,75.416857400216,71.850396,6,P-GPS,
14200,2025-05-01 16:49:29,-23.0917586403175,-44.2376035573791,72.834648,65.6168,10.784309400216,76.401109400216,42.65092,17.224438,157.979991932,159.91798412,13,5,8.202,76.401109400216,72.834648,17.448132,157.979991932,0,-17.224438,-6.487126,272.6, -9.5, 4.3,0,0,1684,1024,1684,1024,100,0,100,0,298,0,0,100,4.109,4.091,0,0,0,0,6.125,78.26,76.401109400216,72.834648,6,P-GPS,
14300,2025-05-01 16:49:29,-23.091758627697,-44.2376111519786,73.490816,66.1745428,10.882734600216,77.057277400216,42.65092,17.224438,160.524611436,162.466868716,12,4,8.266,77.057277400216,73.490816,17.448132,160.524611436,0,-17.224438,-6.487126,272.6, -9.3, 4.1,0,0,1684,1024,1684,1024,100,0,100,0,298,0,0,99,4.145,4.131,0,0,0,0,6.374,78.26,77.057277400216,73.490816,6,P-GPS,
14400,2025-05-01 16:49:29,-23.0917586535632,-44.2376185913832,74.475068,67.0275612,11.013968200216,78.041529400216,42.65092,17.224438,163.018049836,164.963587956,12,4,8.266,78.041529400216,74.475068,17.448132,163.018049836,0,-17.224438,-6.487126,272.5, -10, 4.5,0,0,1684,1024,1684,1024,100,0,100,0,298,0,0,99,4.145,4.131,0,0,0,0,6.374,78.26,78.041529400216,74.475068,6,P-GPS,
14500,2025-05-01 16:49:30,-23.0917586185191,-44.2376260117517,75.131236,67.585304,11.112393400216,78.697697400216,42.65092,17.224438,165.503942304,167.4540736,13,4,8.266,78.697697400216,75.131236,17.448132,165.503942304,0,-17.224438,-6.487126,272.5, -10.2, 4.1,0,0,1566,1024,1024,1024,82,0,0,0,298,0,0,99,4.145,4.131,0,0,0,0,6.374,78.26,78.697697400216,75.131236,6,P-GPS,
14600,2025-05-01 16:49:30,-23.0917585906174,-44.2376333458057,76.115488,68.4711308,11.210818600216,79.681949400216,42.65092,17.448132,167.961619548,169.915687852,13,4,8.266,79.681949400216,76.115488,17.448132,167.961619548,0,-17.448132,-6.487126,272.5, -9.9, 3.4,0,0,1024,1024,1024,1024,0,0,0,0,298,0,0,99,4.145,4.131,0,0,0,0,6.374,78.26,79.681949400216,76.115488,6,P-GPS,
14700,2025-05-01 16:49:30,-23.0917585351412,-44.2376409883494,77.09974,69.3241492,11.342052200216,80.666201400216,42.65092,17.224438,170.521987084,172.480648564,13,4,8.266,80.666201400216,77.09974,17.448132,170.521987084,0,-17.224438,-6.039738,272.9, -6.9, 4.6,0,0,1024,1024,1024,1024,0,0,0,0,298,0,0,99,4.145,4.131,0,0,0,0,6.374,78.26,80.666201400216,77.09974,6,P-GPS,
14800,2025-05-01 16:49:30,-23.0917585191515,-44.2376481141607,77.755908,69.8490836,11.473285800216,81.322369400216,42.65092,17.000744,172.909782436,174.87205284,13,4,8.266,81.322369400216,77.755908,17.448132,172.909782436,0,-17.000744,-5.368656,273.5, 10.3, 4,0,0,1024,1024,1024,1024,0,0,0,0,298,0,0,99,4.145,4.131,0,0,0,0,6.374,78.26,81.322369400216,77.755908,6,P-GPS,
14900,2025-05-01 16:49:30,-23.0917585542607,-44.2376542590707,78.412076,70.4396348,11.538902600216,81.978537400216,42.65092,16.329662,174.970149956,176.934388864,12,4,8.266,81.978537400216,78.412076,17.448132,174.970149956,0,-16.329662,-4.697574,273.5, 18.6, 2.1,0,0,1024,1024,1024,1024,0,0,0,0,298,0,0,99,4.145,4.131,0,0,0,0,6.374,78.26,81.978537400216,78.412076,6,P-GPS,
15000,2025-05-01 16:49:30,-23.0917585771843,-44.2376609335281,79.068244,70.9645692,11.670136200216,82.634705400216,42.65092,15.65858,177.20801092,179.174546416,12,4,8.266,82.634705400216,79.068244,17.448132,177.20801092,0,-15.65858,-3.802798,273.5, 19.8, 1.4,0,0,1024,1024,1024,1024,0,0,0,0,298,0,0,99,4.145,4.131,0,0,0,0,6.374,78.26,82.634705400216,79.068244,6,P-GPS,
15100,2025-05-01 16:49:30,-23.091758633281,-44.2376676849123,79.724412,71.522312,11.768561400216,83.290873400216,42.65092,14.763804,179.472118604,181.440622604,12,4,8.266,83.290873400216,79.724412,17.448132,179.472118604,-0.223694,-14.763804,-2.908022,273.4, 20.4, 1.4,0,0,1024,1024,1024,1024,0,0,0,0,298,0,0,99,4.145,4.131,0,0,0,0,6.374,78.26,83.290873400216,79.724412,6,P-GPS,
15200,2025-05-01 16:49:30,-23.0917587476173,-44.2376737650399,80.052496,71.7519708,11.866986600216,83.618957400216,42.65092,14.092722,181.512144916,183.481633168,12,4,8.266,83.618957400216,80.052496,17.448132,181.512144916,-0.223694,-14.092722,-2.23694,273.4, 19.9, 1.6,0,0,1024,1024,1024,1024,0,0,0,0,298,0,0,99,4.145,4.131,0,0,0,0,6.374,78.26,83.618957400216,80.052496,6,P-GPS,
15300,2025-05-01 16:49:30,-23.0917589319669,-44.2376793312662,80.38058,72.014438,11.932603400216,83.947041400216,42.65092,13.42164,183.381239464,185.3510558,13,4,8.266,83.947041400216,80.38058,17.448132,183.381239464,-0.447388,-13.42164,-1.342164,273.3, 19.5, 1.1,0,0,1024,1024,1024,1024,0,0,0,0,298,0,0,99,4.211,4.197,0,0,0,0,6.374,78.26,83.947041400216,80.38058,6,P-GPS,
15400,2025-05-01 16:49:30,-23.091759256094,-44.2376847023255,80.708664,72.2440968,12.031028600216,84.275125400216,42.65092,12.750558,185.187669968,187.157486304,13,4,8.266,84.275125400216,80.708664,17.448132,185.187669968,-0.447388,-12.750558,-0.894776,273.3, 19.4, 1.1,0,0,1024,1024,1024,1024,0,0,0,0,298,0,0,99,4.211,4.197,0,0,0,0,6.374,78.26,84.275125400216,80.708664,6,P-GPS,
15500,2025-05-01 16:49:31,-23.0917596949288,-44.2376899877782,80.708664,72.0472464,12.227879000216,84.275125400216,42.65092,12.079476,186.967197584,188.93865434,13,4,8.266,84.275125400216,80.708664,17.448132,186.967197584,-0.447388,-12.079476,-0.447388,273.5, 19.1, 1,0,0,1024,1024,1024,1024,0,0,0,0,298,0,0,99,4.211,4.197,0,0,0,0,6.374,78.26,84.275125400216,80.708664,6,P-GPS,
15600,2025-05-01 16:49:31,-23.0917600263204,-44.2376947256531,81.036748,72.2769052,12.326304200216,84.603209400216,42.65092,11.4307634,188.56135774,190.53314258,13,4,8.266,84.603209400216,81.036748,17.448132,188.56135774,-0.671082,-11.408394,-0.223694,273.6, 18.6, 1.4,0,0,1024,1024,1024,1024,0,0,0,0,298,0,0,99,4.211,4.197,0,0,0,0,6.374,78.26,84.603209400216,81.036748,6,P-GPS,
15700,2025-05-01 16:49:31,-23.0917603751852,-44.2376993961751,81.036748,72.2112884,12.391921000216,84.603209400216,42.65092,10.7596814,190.133208184,192.105977276,13,4,8.266,84.603209400216,81.036748,17.448132,190.133208184,-0.671082,-10.737312,0,273.6, 18.7, 1.8,0,0,1024,1024,1024,1024,0,0,0,0,298,0,0,99,4.211,4.197,0,0,0,0,6.374,78.26,84.603209400216,81.036748,6,P-GPS,
15800,2025-05-01 16:49:31,-23.0917607533327,-44.2377026929287,81.364832,72.342522,12.588771400216,84.931293400216,42.65092,9.8872748,191.24508486,193.220806708,13,4,8.266,84.931293400216,81.364832,17.448132,191.24508486,-0.894776,-9.842536,-0.223694,273.6, 17.7, 2.1,0,0,1024,1024,1024,1024,0,0,0,0,298,0,0,99,4.211,4.197,0,0,0,0,6.374,78.26,84.931293400216,81.364832,6,P-GPS,
15900,2025-05-01 16:49:31,-23.091761134001,-44.2377066435048,81.364832,72.2769052,12.654388200216,84.931293400216,42.65092,9.2161928,192.576449732,194.554140084,13,4,8.266,84.931293400216,81.364832,17.448132,192.576449732,-0.894776,-9.171454,-0.223694,273.5, 17.5, 2.7,0,0,1024,1024,1024,1024,0,0,0,0,298,0,0,99,4.211,4.197,0,0,0,0,6.374,78.26,84.931293400216,81.364832,6,P-GPS,
16000,2025-05-01 16:49:31,-23.091761674817,-44.2377100953414,81.692916,72.4081388,12.851238600216,85.259377400216,42.65092,8.7911742,193.74344452,195.729336972,13,4,8.266,85.259377400216,81.692916,17.448132,193.74344452,-1.11847,-8.724066,-0.223694,273.5, 16.8, 3.5,0,0,1024,1024,1024,1024,0,0,0,0,298,0,0,99,4.211,4.197,0,0,0,0,6.374,78.26,85.259377400216,81.692916,6,P-GPS,
16100,2025-05-01 16:49:31,-23.0917623315848,-44.2377134648496,81.692916,72.3753304,12.884047000216,85.259377400216,42.65092,8.3437862,194.885504924,196.885176904,13,4,8.266,85.259377400216,81.692916,17.448132,194.885504924,-1.11847,-8.276678,-0.223694,273.7, 17.7, 4.3,0,0,1024,1024,1024,1024,0,0,0,0,298,0,0,99,4.211,4.197,0,0,0,0,6.374,78.26,85.259377400216,81.692916,6,P-GPS,
16200,2025-05-01 16:49:31,-23.0917629533051,-44.2377164637677,82.021,72.506564,13.080897400216,85.587461400216,42.65092,8.3437862,195.902565324,197.917001084,13,4,8.266,85.587461400216,82.021,17.448132,195.902565324,-1.11847,-7.605596,0,273.6, 17.9, 4.3,0,0,1024,1024,1024,1024,0,0,0,0,298,0,0,99,4.211,4.197,0,0,0,0,6.374,78.26,85.587461400216,82.021,6,P-GPS,
