time(millisecond),datetime(utc),latitude,longitude,height_above_takeoff(feet),height_above_ground_at_drone_location(feet),ground_elevation_at_drone_location(feet),altitude_above_seaLevel(feet),height_sonar(feet),speed(mph),distance(feet),mileage(feet),satellites,gpslevel,voltage(v),max_altitude(feet),max_ascent(feet),max_speed(mph),max_distance(feet), xSpeed(mph), ySpeed(mph), zSpeed(mph), compass_heading(degrees), pitch(degrees), roll(degrees),isPhoto,isVideo,rc_elevator,rc_aileron,rc_throttle,rc_rudder,rc_elevator(percent),rc_aileron(percent),rc_throttle(percent),rc_rudder(percent),gimbal_heading(degrees),gimbal_pitch(degrees),gimbal_roll(degrees),battery_percent,voltageCell1,voltageCell2,voltageCell3,voltageCell4,voltageCell5,voltageCell6,current(A),battery_temperature(f),altitude(feet),ascent(feet),flycStateRaw,flycState,message
653800,2022-09-05 20:37:52,-34.9570629979512,-54.9393377182163,296.259852,296.259852,36.952435237596,307.4576932376,49.540684,0,0,0,22,5,0,307.4576932376,296.259852,0,0,0,0,0,240.2, -1, -1.7,0,0,1024,1024,1024,1024,0,0,0,0,255.2,-11.2,0,59,3.859,3.848,0,0,0,0,0,100.22,307.4576932376,296.259852,31,Sport,
653900,2022-09-05 20:37:52,-34.957062996909,-54.9393377262442,296.259852,296.259852,36.952435237596,307.4576932376,49.540684,0,0.00243046923788,0.00243046923788,22,5,0,307.4576932376,296.259852,0,0.00243046923788,0,0,0,240.2, -1, -1.8,0,0,1024,1024,1024,1024,0,0,0,0,255.2,-11.2,0,59,3.859,3.848,0,0,0,0,0,100.22,307.4576932376,296.259852,31,Sport,
654000,2022-09-05 20:37:52,-34.9570629018599,-54.9393377941471,296.259852,296.259852,36.952435237596,307.4576932376,49.540684,0,0.041769030208,0.042616143096,22,5,0,307.4576932376,296.259852,0,0.041769030208,0,0,0,240.2, -1.1, -1.9,0,0,1024,1024,1024,1024,0,0,0,0,255.2,-11.2,0,59,3.859,3.848,0,0,0,0,0,100.22,307.4576932376,296.259852,31,Sport,
654100,2022-09-05 20:37:53,-34.9570628549607,-54.9393378142169,296.259852,296.259852,36.952435237596,307.4576932376,49.540684,0,0.059546261748,0.060749017692,22,5,0,307.4576932376,296.259852,0,0.059546261748,0,0,0,240.2, -1.1, -1.9,0,0,1024,1024,1024,1024,0,0,0,0,255.2,-11.2,0,59,3.859,3.848,0,0,0,0,0,100.22,307.4576932376,296.259852,31,Sport,
654200,2022-09-05 20:37:53,-34.9570628468316,-54.9393378342867,296.259852,296.259852,36.952435237596,307.4576932376,49.540684,0,0.065150592636,0.067443243628,22,5,0,307.4576932376,296.259852,0,0.065150592636,0,0,0,240.2, -0.9, -1.8,0,0,1024,1024,1024,1024,0,0,0,0,255.2,-11.2,0,59,3.859,3.848,0,0,0,0,0,100.22,307.4576932376,296.259852,31,Sport,
654300,2022-09-05 20:37:53,-34.9570628421416,-54.939337858036,296.259852,296.259852,36.952435237596,307.4576932376,49.540684,0,0.070566275224,0.074748033888,22,5,0,307.4576932376,296.259852,0,0.070566275224,0,0,0,240.2, -0.8, -1.7,0,0,1024,1024,1024,1024,0,0,0,0,255.2,-11.2,0,59,3.859,3.848,0,0,0,0,0,100.22,307.4576932376,296.259852,31,Sport,
654400,2022-09-05 20:37:53,-34.9570627989944,-54.9393378724193,296.259852,296.259852,36.952435237596,307.4576932376,49.540684,0,0.085996393828,0.091067260132,22,5,0,307.4576932376,296.259852,0,0.085996393828,0,0,0,240.2, -1, -1.8,0,0,1024,1024,1024,1024,0,0,0,0,255.2,-11.2,0,59,3.859,3.848,0,0,0,0,0,100.22,307.4576932376,296.259852,31,Sport,
654500,2022-09-05 20:37:53,-34.9570627626215,-54.9393378814508,296.259852,296.259852,36.952435237596,307.4576932376,49.540684,0,0.098764438856,0.104609911484,22,5,7.709,307.4576932376,296.259852,0,0.098764438856,0,0,0,240.3, -0.9, -1.7,0,0,1024,1024,1024,1024,0,0,0,0,255.2,-11.2,0,59,3.859,3.848,0,0,0,0,4.456,100.22,307.4576932376,296.259852,31,Sport,
654600,2022-09-05 20:37:53,-34.9570627140548,-54.9393378372972,296.259852,296.259852,36.952435237596,307.4576932376,49.540684,0,0.10952920298,0.12670768122,22,5,7.709,307.4576932376,296.259852,0,0.10952920298,0,0,0,240.2, -0.8, -1.6,0,0,1024,1024,1024,1024,0,0,0,0,255.2,-11.2,0,59,3.859,3.848,0,0,0,0,4.456,100.22,307.4576932376,296.259852,31,Sport,
654700,2022-09-05 20:37:53,-34.9570626616319,-54.9393377871227,296.259852,296.259852,36.952435237596,307.4576932376,49.540684,0,0.124423888496,0.151016409032,22,5,7.709,307.4576932376,296.259852,0,0.124423888496,0,0,0,240.2, -0.9, -1.7,0,0,1024,1024,1024,1024,0,0,0,0,255.2,-11.2,0,59,3.859,3.848,0,0,0,0,4.456,100.22,307.4576932376,296.259852,31,Sport,"Setting new Return-To-Home altitude to 60m (197 ft). Data Recorder File Index is 56. Setting new Maximum Flight Altitude to 120m (394 ft)"
654800,2022-09-05 20:37:53,-34.9570626186931,-54.9393376549964,296.259852,296.259852,36.952435237596,307.4576932376,49.540684,0,1617.946246,0.193518050812,22,5,7.709,307.4576932376,296.259852,0,1617.946246,0,0,0,240.3, -0.9, -1.6,0,0,1024,1024,1024,1024,0,0,0,0,255.2,-11.2,0,59,3.859,3.848,0,0,0,0,4.456,100.22,307.4576932376,296.259852,31,Sport,
654900,2022-09-05 20:37:53,-34.9570626034769,-54.9393376329196,296.259852,296.259852,36.952435237596,307.4576932376,49.540684,0,1617.95280768,0.202143707256,22,5,7.709,307.4576932376,296.259852,0,1617.95280768,0,0,0,240.2, -0.9, -1.7,0,0,1024,1024,1024,1024,0,0,0,0,255.2,-11.2,0,59,3.859,3.848,0,0,0,0,4.456,100.22,307.4576932376,296.259852,31,Sport,
655000,2022-09-05 20:37:53,-34.957062557203,-54.9393376282366,296.259852,296.259852,36.952435237596,307.4576932376,49.540684,0,1617.95936936,0.21908465268,22,5,7.709,307.4576932376,296.259852,0,1617.95936936,0,0,0,240.2, -1.1, -1.8,0,0,1024,1024,1024,1024,0,0,0,0,255.2,-11.2,0,59,3.859,3.848,0,0,0,0,4.456,100.22,307.4576932376,296.259852,31,Sport,
655100,2022-09-05 20:37:53,-34.957062509887,-54.9393376268987,296.259852,296.259852,36.952435237596,307.4576932376,49.540684,0,1617.9626502,0.236352369768,22,5,7.709,307.4576932376,296.259852,0,1617.9626502,0,0,0,240.3, -1.1, -1.8,0,0,1024,1024,1024,1024,0,0,0,0,255.2,-11.2,0,59,3.859,3.848,0,0,0,0,4.456,100.22,307.4576932376,296.259852,31,Sport,
655200,2022-09-05 20:37:53,-34.9570625011324,-54.9393375884315,296.259852,296.259852,36.952435237596,307.4576932376,49.540684,0,1617.97577356,0.248290362276,22,5,7.709,307.4576932376,296.259852,0,1617.97577356,0,0,0,240.2, -1, -1.7,0,0,1024,1024,1024,1024,0,0,0,0,255.2,-11.2,0,59,3.859,3.848,0,0,0,0,4.456,100.22,307.4576932376,296.259852,31,Sport,
655300,2022-09-05 20:37:54,-34.9570625181204,-54.9393374987864,296.259852,296.2926604,36.919626837596,307.4576932376,49.540684,0,1617.99873944,0.275803486516,22,5,7.709,307.4576932376,296.259852,0,1617.99873944,0,0,0,240.2, -1.3, -1.8,0,0,1024,1024,1024,1024,0,0,0,0,255.2,-11.2,0,59,3.859,3.848,0,0,0,0,4.456,100.22,307.4576932376,296.259852,31,Sport,
655400,2022-09-05 20:37:54,-34.9570624865416,-54.9393374542983,296.259852,296.2926604,36.919626837596,307.4576932376,49.540684,0,1618.01514364,0.29340224036,22,5,7.709,307.4576932376,296.259852,0,1618.01514364,0,0,0,240.2, -1.1, -1.7,0,0,1024,1024,1024,1024,0,0,0,0,255.2,-11.2,0,59,3.859,3.848,0,0,0,0,4.456,100.22,307.4576932376,296.259852,31,Sport,
655500,2022-09-05 20:37:54,-34.9570624516277,-54.9393374101447,296.259852,296.2926604,36.919626837596,307.4576932376,49.540684,0,1618.03154784,0.311748369556,22,5,7.706,307.4576932376,296.259852,0,1618.03154784,0,0,0,240.2, -0.9, -1.7,0,0,1024,1024,1024,1024,0,0,0,0,255.2,-11.2,0,59,3.859,3.848,0,0,0,0,4.48,100.22,307.4576932376,296.259852,31,Sport,
655600,2022-09-05 20:37:54,-34.957062453191,-54.9393374151621,296.259852,296.2926604,36.919626837596,307.4576932376,49.540684,0,1618.03154784,0.313353356484,22,5,7.706,307.4576932376,296.259852,0,1618.03154784,0,0,0,240.3, -1.1, -1.7,0,0,1024,1024,1024,1024,0,0,0,0,255.2,-11.2,0,59,3.859,3.848,0,0,0,0,4.48,100.22,307.4576932376,296.259852,31,Sport,
655700,2022-09-05 20:37:54,-34.9570624642384,-54.9393374047927,296.259852,296.2926604,36.919626837596,307.4576932376,49.540684,0,1618.03154784,0.318438658484,22,5,7.706,307.4576932376,296.259852,0,1618.03154784,0,0,0,240.2, -1, -1.7,0,0,1024,1024,1024,1024,0,0,0,0,255.2,-11.2,0,59,3.859,3.848,0,0,0,0,4.48,100.22,307.4576932376,296.259852,31,Sport,
655800,2022-09-05 20:37:54,-34.957062428595,-54.9393373783675,296.259852,296.2926604,36.919626837596,307.4576932376,49.540684,0,1618.0446712,0.33365486632,22,5,7.706,307.4576932376,296.259852,0,1618.0446712,0,0,0,240.3, -1.2, -1.7,0,0,1024,1024,1024,1024,0,0,0,0,255.2,-11.2,0,59,3.859,3.848,0,0,0,0,4.48,100.22,307.4576932376,296.259852,31,Sport,
655900,2022-09-05 20:37:54,-34.9570623901377,-54.9393373542837,296.259852,296.2926604,36.919626837596,307.4576932376,49.540684,0,1618.05451372,0.3494258642,22,5,7.706,307.4576932376,296.259852,0,1618.05451372,0,0,0,240.2, -0.9, -1.7,0,0,1024,1024,1024,1024,0,0,0,0,255.2,-11.2,0,59,3.859,3.848,0,0,0,0,4.48,100.22,307.4576932376,296.259852,31,Sport,
656000,2022-09-05 20:37:54,-34.9570623807579,-54.9393373593012,296.259852,296.2926604,36.919626837596,307.4576932376,49.540684,0,1618.05451372,0.35316274096,22,5,7.706,307.4576932376,296.259852,0,1618.05451372,0,0,0,240.2, -1, -1.8,0,0,1024,1024,1024,1024,0,0,0,0,255.2,-11.2,0,59,3.859,3.848,0,0,0,0,4.48,100.22,307.4576932376,296.259852,31,Sport,N/A
656100,2022-09-05 20:37:54,-34.9570623592885,-54.9393373586322,296.259852,296.2926604,36.919626837596,307.4576932376,49.540684,0,1618.05451372,0.36100066772,22,5,7.706,307.4576932376,296.259852,0,1618.05451372,0,0,0,240.2, -1, -1.7,0,0,1024,1024,1024,1024,0,0,0,0,255.2,-11.2,0,59,3.859,3.848,0,0,0,0,4.48,100.22,307.4576932376,296.259852,31,Sport,
656200,2022-09-05 20:37:55,-34.957062364291,-54.9393373328759,296.259852,296.2926604,36.919626837596,307.4576932376,49.540684,0,1618.0610754,0.3689140538,22,5,7.706,307.4576932376,296.259852,0,1618.0610754,0,0,0,240.2, -1.2, -1.9,0,0,1024,1024,1024,1024,0,0,0,0,255.2,-11.2,0,59,3.859,3.848,0,0,0,0,4.48,100.22,307.4576932376,296.259852,31,Sport,
656300,2022-09-05 20:37:55,-34.957062372316,-54.9393373077887,296.259852,296.2926604,36.919626837596,307.4576932376,49.540684,0,1618.06763708,0.376968516,22,5,7.706,307.4576932376,296.259852,0,1618.06763708,0,0,0,240.2, -0.9, -1.8,0,0,1024,1024,1024,1024,0,0,0,0,255.2,-11.2,0,59,3.859,3.848,0,0,0,0,4.48,100.22,307.4576932376,296.259852,31,Sport,
656400,2022-09-05 20:37:55,-34.9570623843014,-54.9393373104646,296.259852,296.2926604,36.919626837596,307.4576932376,49.540684,0,1618.06763708,0.3814140542,22,5,7.706,307.4576932376,296.259852,0,1618.06763708,0,0,0,240.2, -1.2, -1.8,0,0,1024,1024,1024,1024,0,0,0,0,255.2,-11.2,0,59,3.859,3.848,0,0,0,0,4.48,100.22,307.4576932376,296.259852,31,Sport,
656500,2022-09-05 20:37:55,-34.9570624565261,-54.939337276346,296.259852,296.2926604,36.919626837596,307.4576932376,49.540684,0,1618.07091792,0.40966864828,22,5,7.706,307.4576932376,296.259852,0,1618.07091792,0,0,0,240.2, -1, -1.7,0,0,1024,1024,1024,1024,0,0,0,0,255.2,-11.2,0,59,3.858,3.847,0,0,0,0,4.475,100.22,307.4576932376,296.259852,31,Sport,
656600,2022-09-05 20:37:55,-34.9570624686157,-54.9393372880533,296.259852,296.2926604,36.919626837596,307.4576932376,49.540684,0,1618.06435624,0.41530185056,22,5,7.706,307.4576932376,296.259852,0,1618.07091792,0,0,0,240.2, -1.2, -1.8,0,0,1024,1024,1024,1024,0,0,0,0,255.2,-11.2,0,59,3.858,3.847,0,0,0,0,4.475,100.22,307.4576932376,296.259852,31,Sport,
656700,2022-09-05 20:37:55,-34.9570624820601,-54.9393373037747,296.259852,296.2926604,36.919626837596,307.4576932376,49.540684,0,1618.0610754,0.4220964702,22,5,7.706,307.4576932376,296.259852,0,1618.07091792,0,0,0,240.3, -1.1, -1.7,0,0,1024,1024,1024,1024,0,0,0,0,255.2,-11.2,0,59,3.858,3.847,0,0,0,0,4.475,100.22,307.4576932376,296.259852,31,Sport,
656800,2022-09-05 20:37:55,-34.9570624913357,-54.9393373174891,296.259852,296.2926604,36.919626837596,307.4576932376,49.540684,0,1618.05451372,0.427411431,22,5,7.706,307.4576932376,296.259852,0,1618.07091792,0,0,0,240.2, -1.2, -1.8,0,0,1024,1024,1024,1024,0,0,0,0,255.2,-11.2,0,59,3.858,3.847,0,0,0,0,4.475,100.22,307.4576932376,296.259852,31,Sport,N/A
656900,2022-09-05 20:37:55,-34.9570625014451,-54.9393373405693,296.259852,296.2926604,36.919626837596,307.4576932376,49.540684,0,1618.04795204,0.4352362344,22,5,7.706,307.4576932376,296.259852,0,1618.07091792,0,0,0,240.2, -1, -1.8,0,0,1024,1024,1024,1024,0,0,0,0,255.2,-11.2,0,59,3.858,3.847,0,0,0,0,4.475,100.22,307.4576932376,296.259852,31,Sport,"En vuelo"
657000,2022-09-05 20:37:55,-34.9570625148895,-54.9393373823815,296.259852,296.2926604,36.919626837596,307.4576932376,49.540684,0,1618.03482868,0.44866799336,22,5,7.706,307.4576932376,296.259852,0,1618.07091792,0,0,0,240.2, -0.9, -1.8,0,0,1024,1024,1024,1024,0,0,0,0,255.2,-11.2,0,59,3.858,3.847,0,0,0,0,4.475,100.22,307.4576932376,296.259852,31,Sport,
657100,2022-09-05 20:37:55,-34.9570625204132,-54.9393374047927,296.259852,296.2926604,36.919626837596,307.4576932376,49.540684,0,1618.028267,0.45566602508,23,5,7.706,307.4576932376,296.259852,0,1618.07091792,0,0,0,240.2, -0.9, -1.8,0,0,1024,1024,1024,1024,0,0,0,0,255.2,-11.2,0,59,3.858,3.847,0,0,0,0,4.475,100.22,307.4576932376,296.259852,31,Sport,
657200,2022-09-05 20:37:55,-34.957062522185,-54.9393374148276,296.259852,296.2926604,36.919626837596,307.4576932376,49.540684,0,1618.02498616,0.45873689132,23,5,7.706,307.4576932376,296.259852,0,1618.07091792,0,0,0,240.2, -1, -1.9,0,0,1024,1024,1024,1024,0,0,0,0,255.2,-11.2,0,59,3.858,3.847,0,0,0,0,4.475,100.22,307.4576932376,296.259852,31,Sport,
657300,2022-09-05 20:37:56,-34.9570625238525,-54.939337427204,296.259852,296.2926604,36.919626837596,307.4576932376,49.540684,0,1618.02170532,0.46248689144,23,5,7.706,307.4576932376,296.259852,0,1618.07091792,0,0,0,240.2, -0.8, -1.8,0,0,1024,1024,1024,1024,0,0,0,0,255.2,-11.2,0,59,3.858,3.847,0,0,0,0,4.475,100.22,307.4576932376,296.259852,31,Sport,
657400,2022-09-05 20:37:56,-34.9570625019662,-54.9393373840539,296.259852,296.2926604,36.919626837596,307.4576932376,49.540684,0,1618.03482868,0.47766077644,23,5,7.706,307.4576932376,296.259852,0,1618.07091792,0,0,0,240.2, -1.2, -1.7,0,0,1024,1024,1024,1024,0,0,0,0,255.2,-11.2,0,59,3.858,3.847,0,0,0,0,4.475,100.22,307.4576932376,296.259852,31,Sport,
657500,2022-09-05 20:37:56,-34.9570625033211,-54.9393373884024,296.259852,296.2926604,36.919626837596,307.4576932376,49.540684,0,1618.03482868,0.4790518526,23,5,7.704,307.4576932376,296.259852,0,1618.07091792,0,0,0,240.2, -0.9, -1.6,0,0,1024,1024,1024,1024,0,0,0,0,255.2,-11.2,0,59,3.857,3.847,0,0,0,0,4.481,100.22,307.4576932376,296.259852,31,Sport,
657600,2022-09-05 20:37:56,-34.9570625473021,-54.9393373857264,296.259852,296.2926604,36.919626837596,307.4576932376,49.540684,0,1618.03154784,0.49511812608,23,5,7.704,307.4576932376,296.259852,0,1618.07091792,0,0,0,240.2, -1.2, -1.8,0,0,1024,1024,1024,1024,0,0,0,0,255.2,-11.2,0,59,3.857,3.847,0,0,0,0,4.481,100.22,307.4576932376,296.259852,31,Sport,
657700,2022-09-05 20:37:56,-34.957062597849,-54.9393373860609,296.259852,296.2926604,36.919626837596,307.4576932376,49.540684,0,1618.02498616,0.51355972772,23,5,7.704,307.4576932376,296.259852,0,1618.07091792,0,0,0,240.2, -1, -1.7,0,0,1024,1024,1024,1024,0,0,0,0,255.2,-11.2,0,59,3.857,3.847,0,0,0,0,4.481,100.22,307.4576932376,296.259852,31,Sport,
657800,2022-09-05 20:37:56,-34.9570626748679,-54.9393373345484,296.259852,296.2926604,36.919626837596,307.4576932376,49.540684,0,1618.03154784,0.545603692,23,5,7.704,307.4576932376,296.259852,0,1618.07091792,0,0,0,240.2, -1.1, -1.8,0,0,1024,1024,1024,1024,0,0,0,0,255.2,-11.2,0,59,3.857,3.847,0,0,0,0,4.481,100.22,307.4576932376,296.259852,31,Sport,
657900,2022-09-05 20:37:56,-34.9570626925853,-54.9393373402349,296.259852,296.2926604,36.919626837596,307.4576932376,49.540684,0,1618.028267,0.55229004392,23,5,7.704,307.4576932376,296.259852,0,1618.07091792,0,0,0,240.3, -1.2, -1.6,0,0,1024,1024,1024,1024,0,0,0,0,255.2,-11.2,0,59,3.857,3.847,0,0,0,0,4.481,100.22,307.4576932376,296.259852,31,Sport,
658000,2022-09-05 20:37:56,-34.9570627408394,-54.9393373512732,296.259852,296.2926604,36.919626837596,307.4576932376,49.540684,0,1618.02170532,0.57020014948,23,5,7.704,307.4576932376,296.259852,0,1618.07091792,0,0,0,240.2, -1.1, -1.6,0,0,1024,1024,1024,1024,0,0,0,0,255.2,-11.2,0,59,3.857,3.847,0,0,0,0,4.481,100.22,307.4576932376,296.259852,31,Sport,
658100,2022-09-05 20:37:56,-34.9570627934707,-54.9393373639841,296.259852,296.2926604,36.919626837596,307.4576932376,49.540684,0,1618.0118628,0.58977692176,23,5,7.704,307.4576932376,296.259852,0,1618.07091792,0,0,0,240.2, -1.2, -1.7,0,0,1024,1024,1024,1024,0,0,0,0,255.2,-11.2,0,59,3.857,3.847,0,0,0,0,4.481,100.22,307.4576932376,296.259852,31,Sport,
658200,2022-09-05 20:37:56,-34.9570628228609,-54.9393373736845,296.259852,296.2926604,36.919626837596,307.4576932376,49.540684,0,1618.00858196,0.600885846,23,5,7.704,307.4576932376,296.259852,0,1618.07091792,0,0,0,240.2, -0.9, -1.7,0,0,1024,1024,1024,1024,0,0,0,0,255.2,-11.2,0,59,3.857,3.847,0,0,0,0,4.481,100.22,307.4576932376,296.259852,31,Sport,
658300,2022-09-05 20:37:57,-34.9570628378686,-54.9393373934198,296.259852,296.2926604,36.919626837596,307.4576932376,49.540684,0,1618.00202028,0.60893374652,23,5,7.704,307.4576932376,296.259852,0,1618.07091792,0,0,0,240.2, -1.1, -1.7,0,0,1024,1024,1024,1024,0,0,0,0,255.2,-11.2,0,59,3.857,3.847,0,0,0,0,4.481,100.22,307.4576932376,296.259852,31,Sport,
658400,2022-09-05 20:37:57,-34.9570628823707,-54.9393374532948,296.259852,296.2926604,36.919626837596,307.4576932376,49.540684,0,1617.9790544,0.6331036948,23,5,7.704,307.4576932376,296.259852,0,1618.07091792,0,0,0,240.2, -1, -1.7,0,0,1024,1024,1024,1024,0,0,0,0,255.2,-11.2,0,59,3.857,3.847,0,0,0,0,4.481,100.22,307.4576932376,296.259852,31,Sport,
658500,2022-09-05 20:37:57,-34.9570629304163,-54.9393375205287,296.259852,296.259852,36.952435237596,307.4576932376,49.540684,0,1617.95608852,0.659776924,23,5,7.704,307.4576932376,296.259852,0,1618.07091792,0,0,0,240.2, -1.1, -1.8,0,0,1024,1024,1024,1024,0,0,0,0,255.2,-11.2,0,59,3.857,3.847,0,0,0,0,4.481,100.22,307.4576932376,296.259852,31,Sport,
658600,2022-09-05 20:37:57,-34.9570629413595,-54.9393375476229,296.259852,296.259852,36.952435237596,307.4576932376,49.540684,0,1617.946246,0.66881235736,23,5,7.703,307.4576932376,296.259852,0,1618.07091792,0,0,0,240.2, -1, -1.8,0,0,1024,1024,1024,1024,0,0,0,0,255.2,-11.2,0,59,3.857,3.847,0,0,0,0,4.483,100.22,307.4576932376,296.259852,31,Sport,
658700,2022-09-05 20:37:57,-34.9570629401088,-54.9393376111773,296.259852,296.259852,36.952435237596,307.4576932376,49.540684,0,1617.92656096,0.68782154432,23,5,7.703,307.4576932376,296.259852,0,1618.07091792,0,0,0,240.2, -1.1, -1.7,0,0,1024,1024,1024,1024,0,0,0,0,255.2,-11.2,0,59,3.857,3.847,0,0,0,0,4.483,100.22,307.4576932376,296.259852,31,Sport,
658800,2022-09-05 20:37:57,-34.9570629785662,-54.9393376650313,296.259852,296.259852,36.952435237596,307.4576932376,49.540684,0,1617.91015676,0.70917981272,23,5,7.703,307.4576932376,296.259852,0,1618.07091792,0,0,0,240.2, -0.9, -1.7,0,0,1024,1024,1024,1024,0,0,0,0,255.2,-11.2,0,59,3.857,3.847,0,0,0,0,4.483,100.22,307.4576932376,296.259852,31,Sport,
658900,2022-09-05 20:37:57,-34.957063019629,-54.9393377262442,296.259852,296.259852,36.952435237596,307.4576932376,49.540684,0,1617.88719088,0.73283138828,23,5,7.703,307.4576932376,296.259852,0,1618.07091792,0,0,0,240.2, -0.9, -1.7,0,0,1024,1024,1024,1024,0,0,0,0,255.2,-11.2,0,59,3.857,3.847,0,0,0,0,4.483,100.22,307.4576932376,296.259852,31,Sport,
659000,2022-09-05 20:37:57,-34.9570630226514,-54.9393377412966,296.259852,296.259852,36.952435237596,307.4576932376,49.540684,0,1617.88391004,0.7374672152,23,5,7.703,307.4576932376,296.259852,0,1618.07091792,0,0,0,240.2, -0.9, -1.8,0,0,1024,1024,1024,1024,0,0,0,0,255.2,-11.2,0,59,3.857,3.847,0,0,0,0,4.483,100.22,307.4576932376,296.259852,31,Sport,
659100,2022-09-05 20:37:57,-34.9570630131673,-54.9393377212268,296.259852,296.259852,36.952435237596,307.4576932376,49.540684,0,1617.89047172,0.74439306844,23,5,7.703,307.4576932376,296.259852,0,1618.07091792,0,0,0,240.2, -0.8, -1.6,0,0,1024,1024,1024,1024,0,0,0,0,255.2,-11.2,0,59,3.857,3.847,0,0,0,0,4.483,100.22,307.4576932376,296.259852,31,Sport,
659200,2022-09-05 20:37:57,-34.9570629971174,-54.9393377600284,296.259852,296.259852,36.952435237596,307.4576932376,49.540684,0,1617.8806292,0.75739175652,23,5,7.703,307.4576932376,296.259852,0,1618.07091792,0,0,0,240.3, -0.9, -1.6,0,0,1024,1024,1024,1024,0,0,0,0,255.2,-11.2,0,59,3.857,3.847,0,0,0,0,4.483,100.22,307.4576932376,296.259852,31,Sport,
659300,2022-09-05 20:37:58,-34.9570629798168,-54.9393378088649,296.259852,296.259852,36.952435237596,307.4576932376,49.540684,0,1617.86750584,0.77330054968,23,5,7.703,307.4576932376,296.259852,0,1618.07091792,0,0,0,240.2, -0.7, -1.6,0,0,1024,1024,1024,1024,0,0,0,0,255.2,-11.2,0,59,3.857,3.847,0,0,0,0,4.483,100.22,307.4576932376,296.259852,31,Sport,
659400,2022-09-05 20:37:58,-34.9570630061846,-54.9393378142169,296.259852,296.259852,36.952435237596,307.4576932376,49.540684,0,1617.864225,0.78305120616,23,5,7.703,307.4576932376,296.259852,0,1618.07091792,0,0,0,240.3, -1, -1.6,0,0,1024,1024,1024,1024,0,0,0,0,255.2,-11.2,0,59,3.857,3.847,0,0,0,0,4.483,100.22,307.4576932376,296.259852,31,Sport,
659500,2022-09-05 20:37:58,-34.9570630372423,-54.9393377908021,296.259852,296.259852,36.952435237596,307.4576932376,49.540684,0,1617.86750584,0.79637141656,23,5,7.703,307.4576932376,296.259852,0,1618.07091792,0,0,0,240.2, -0.8, -1.5,0,0,1024,1024,1024,1024,0,0,0,0,255.2,-11.2,0,59,3.857,3.847,0,0,0,0,4.483,100.22,307.4576932376,296.259852,31,Sport,
659600,2022-09-05 20:37:58,-34.9570630388056,-54.9393378235828,296.259852,296.259852,36.952435237596,307.4576932376,49.540684,0,1617.85766332,0.80619097068,23,5,7.703,307.4576932376,296.259852,0,1618.07091792,0,0,0,240.2, -1, -1.5,0,0,1024,1024,1024,1024,0,0,0,0,255.2,-11.2,0,58,3.856,3.846,0,0,0,0,4.472,100.22,307.4576932376,296.259852,31,Sport,
659700,2022-09-05 20:37:58,-34.9570630348452,-54.9393378653949,296.259852,296.259852,36.952435237596,307.4576932376,49.540684,0,1617.84453996,0.81877627292,23,5,7.703,307.4576932376,296.259852,0,1618.07091792,0,0,0,240.2, -0.9, -1.6,0,0,1024,1024,1024,1024,0,0,0,0,255.2,-11.2,0,58,3.856,3.846,0,0,0,0,4.472,100.22,307.4576932376,296.259852,31,Sport,
659800,2022-09-05 20:37:58,-34.9570630202543,-54.9393378771023,296.259852,296.259852,36.952435237596,307.4576932376,49.540684,0,1617.84453996,0.8251476642,23,5,7.703,307.4576932376,296.259852,0,1618.07091792,0,0,0,240.2, -0.8, -1.8,0,0,1024,1024,1024,1024,0,0,0,0,255.2,-11.2,0,58,3.856,3.846,0,0,0,0,4.472,100.22,307.4576932376,296.259852,31,Sport,
659900,2022-09-05 20:37:58,-34.9570629567841,-54.9393378597085,296.259852,296.259852,36.952435237596,307.4576932376,49.540684,0,1617.85438248,0.8488845416,23,5,7.703,307.4576932376,296.259852,0,1618.07091792,0,0,0,240.3, -1.1, -1.8,0,0,1024,1024,1024,1024,0,0,0,0,255.2,-11.2,0,58,3.856,3.846,0,0,0,0,4.472,100.22,307.4576932376,296.259852,31,Sport,
660000,2022-09-05 20:37:58,-34.9570629915937,-54.9393379005171,296.259852,296.259852,36.952435237596,307.4576932376,49.540684,0,1617.83797828,0.86649609072,23,5,7.703,307.4576932376,296.259852,0,1618.07091792,0,0,0,240.3, -1.1, -1.8,0,0,1024,1024,1024,1024,0,0,0,0,255.2,-11.2,0,58,3.856,3.846,0,0,0,0,4.472,100.22,307.4576932376,296.259852,31,Sport,
660100,2022-09-05 20:37:58,-34.9570630335945,-54.9393379490191,296.259852,296.259852,36.952435237596,307.4576932376,49.540684,0,1617.82157408,0.88759517276,23,5,7.703,307.4576932376,296.259852,0,1618.07091792,0,0,0,240.2, -1.1, -1.9,0,0,1024,1024,1024,1024,0,0,0,0,255.2,-11.2,0,58,3.856,3.846,0,0,0,0,4.472,100.22,307.4576932376,296.259852,31,Sport,
660200,2022-09-05 20:37:58,-34.9570630554808,-54.9393379660785,296.259852,296.259852,36.952435237596,307.4576932376,49.540684,0,1617.8150124,0.89707023868,23,5,7.703,307.4576932376,296.259852,0,1618.07091792,0,0,0,240.2, -1.1, -1.9,0,0,1024,1024,1024,1024,0,0,0,0,255.2,-11.2,0,58,3.856,3.846,0,0,0,0,4.472,100.22,307.4576932376,296.259852,31,Sport,
660300,2022-09-05 20:37:59,-34.9570630794515,-54.9393379801273,296.259852,296.259852,36.952435237596,307.4576932376,49.540684,0,1617.80845072,0.90677168256,23,5,7.703,307.4576932376,296.259852,0,1618.07091792,0,0,0,240.2, -1.2, -1.9,0,0,1024,1024,1024,1024,0,0,0,0,255.2,-11.2,0,58,3.856,3.846,0,0,0,0,4.472,100.22,307.4576932376,296.259852,31,Sport,
660400,2022-09-05 20:37:59,-34.9570632772619,-54.9393380523787,296.259852,296.259852,36.952435237596,307.4576932376,49.540684,0,1617.76908064,0.98210633064,23,5,7.703,307.4576932376,296.259852,0,1618.07091792,0,0,0,240.2, -1.1, -1.8,0,0,1024,1024,1024,1024,0,0,0,0,255.2,-11.2,0,58,3.856,3.846,0,0,0,0,4.472,100.22,307.4576932376,296.259852,31,Sport,
660500,2022-09-05 20:37:59,-34.9570633496951,-54.9393381045602,296.259852,296.259852,36.952435237596,307.4576932376,49.540684,0,1617.74611476,1.01279858884,23,5,7.703,307.4576932376,296.259852,0,1618.07091792,0,0,0,240.2, -1, -1.8,0,0,1024,1024,1024,1024,0,0,0,0,255.2,-11.2,0,58,3.856,3.846,0,0,0,0,4.472,100.22,307.4576932376,296.259852,31,Sport,
660600,2022-09-05 20:37:59,-34.9570633850258,-54.939338119947,296.259852,296.259852,36.952435237596,307.4576932376,49.540684,0,1617.73955308,1.02648297248,23,5,7.701,307.4576932376,296.259852,0,1618.07091792,0,0,0,240.2, -1, -1.7,0,0,1024,1024,1024,1024,0,0,0,0,255.2,-11.2,0,58,3.855,3.846,0,0,0,0,4.476,100.4,307.4576932376,296.259852,31,Sport,
660700,2022-09-05 20:37:59,-34.9570634211903,-54.9393381353339,296.259852,296.259852,36.952435237596,307.4576932376,49.540684,0,1617.7329914,1.04045935088,23,5,7.701,307.4576932376,296.259852,0,1618.07091792,0,0,0,240.2, -1.1, -1.8,0,0,1024,1024,1024,1024,0,0,0,0,255.2,-11.2,0,58,3.855,3.846,0,0,0,0,4.476,100.4,307.4576932376,296.259852,31,Sport,
660800,2022-09-05 20:37:59,-34.9570633546976,-54.9393381607556,296.259852,296.259852,36.952435237596,307.4576932376,49.540684,0,1617.72971056,1.06588258004,23,5,7.701,307.4576932376,296.259852,0,1618.07091792,0,0,0,240.2, -1, -1.8,0,0,1024,1024,1024,1024,0,0,0,0,255.2,-11.2,0,58,3.855,3.846,0,0,0,0,4.476,100.4,307.4576932376,296.259852,31,Sport,
660900,2022-09-05 20:37:59,-34.9570633647028,-54.9393382122682,296.259852,296.259852,36.952435237596,307.4576932376,49.540684,0,1617.71330636,1.08171263304,23,5,7.701,307.4576932376,296.259852,0,1618.07091792,0,0,0,240.2, -1.1, -1.9,0,0,1024,1024,1024,1024,0,0,0,0,255.2,-11.2,0,58,3.855,3.846,0,0,0,0,4.476,100.4,307.4576932376,296.259852,31,Sport,
661000,2022-09-05 20:37:59,-34.9570633667872,-54.939338230331,296.259852,296.259852,36.952435237596,307.4576932376,49.540684,0,1617.71002552,1.08716538912,23,5,7.701,307.4576932376,296.259852,0,1618.07091792,0,0,0,240.2, -1.2, -2,0,0,1024,1024,1024,1024,0,0,0,0,255.2,-11.2,0,58,3.855,3.846,0,0,0,0,4.476,100.4,307.4576932376,296.259852,31,Sport,
661100,2022-09-05 20:37:59,-34.9570633722067,-54.9393382477248,296.259852,296.259852,36.952435237596,307.4576932376,49.540684,0,1617.70346384,1.09272969376,23,5,7.701,307.4576932376,296.259852,0,1618.07091792,0,0,0,240.2, -1.1, -2,0,0,1024,1024,1024,1024,0,0,0,0,255.2,-11.2,0,58,3.855,3.846,0,0,0,0,4.476,100.4,307.4576932376,296.259852,31,Sport,
661200,2022-09-05 20:38:00,-34.957063395552,-54.9393382728121,296.259852,296.259852,36.952435237596,307.4576932376,49.540684,0,1617.69362132,1.10408140016,23,5,7.701,307.4576932376,296.259852,0,1618.07091792,0,0,0,240.2, -0.9, -1.9,0,0,1024,1024,1024,1024,0,0,0,0,255.2,-11.2,0,58,3.855,3.846,0,0,0,0,4.476,100.4,307.4576932376,296.259852,31,Sport,
661300,2022-09-05 20:38:00,-34.9570634548535,-54.9393383209796,296.259852,296.259852,36.952435237596,307.4576932376,49.540684,0,1617.67393628,1.13007221464,23,5,7.701,307.4576932376,296.259852,0,1618.07091792,0,0,0,240.3, -1.2, -2,0,0,1024,1024,1024,1024,0,0,0,0,255.2,-11.2,0,58,3.855,3.846,0,0,0,0,4.476,100.4,307.4576932376,296.259852,31,Sport,
661400,2022-09-05 20:38:00,-34.9570634855985,-54.9393383788476,296.259852,296.259852,36.952435237596,307.4576932376,49.540684,0,1617.65425124,1.15069229404,23,5,7.701,307.4576932376,296.259852,0,1618.07091792,0,0,0,240.2, -1, -1.9,0,0,1024,1024,1024,1024,0,0,0,0,255.2,-11.2,0,58,3.855,3.846,0,0,0,0,4.476,100.4,307.4576932376,296.259852,31,Sport,
661500,2022-09-05 20:38:00,-34.9570635194701,-54.9393384413985,296.259852,296.259852,36.952435237596,307.4576932376,49.540684,0,1617.6345662,1.17311027376,23,5,7.701,307.4576932376,296.259852,0,1618.07091792,0,0,0,240.2, -1, -1.8,0,0,1024,1024,1024,1024,0,0,0,0,255.2,-11.2,0,58,3.855,3.846,0,0,0,0,4.476,100.4,307.4576932376,296.259852,31,Sport,
661600,2022-09-05 20:38:00,-34.9570637184269,-54.9393385598104,296.259852,296.259852,36.952435237596,307.4576932376,49.540684,0,1617.58207276,1.25387471204,23,5,7.7,307.4576932376,296.259852,0,1618.07091792,0,0,0,240.2, -0.8, -1.6,0,0,1024,1024,1024,1024,0,0,0,0,255.2,-11.2,0,58,3.855,3.844,0,0,0,0,4.471,100.4,307.4576932376,296.259852,31,Sport,
661700,2022-09-05 20:38:00,-34.9570638326525,-54.9393386186818,296.259852,296.259852,36.952435237596,307.4576932376,49.540684,0,1617.5525452,1.29911749564,23,5,7.7,307.4576932376,296.259852,0,1618.07091792,0,0,0,240.2, -0.7, -1.5,0,0,1024,1024,1024,1024,0,0,0,0,255.2,-11.2,0,58,3.855,3.844,0,0,0,0,4.471,100.4,307.4576932376,296.259852,31,Sport,
661800,2022-09-05 20:38:00,-34.9570638621468,-54.9393386193508,296.259852,296.259852,36.952435237596,307.4576932376,49.540684,0,1617.54926436,1.30987865084,23,5,7.7,307.4576932376,296.259852,0,1618.07091792,0,0,0,240.2, -0.8, -1.6,0,0,1024,1024,1024,1024,0,0,0,0,255.2,-11.2,0,58,3.855,3.844,0,0,0,0,4.471,100.4,307.4576932376,296.259852,31,Sport,
661900,2022-09-05 20:38:00,-34.9570638824698,-54.9393386160059,296.259852,296.259852,36.952435237596,307.4576932376,49.540684,0,1617.54926436,1.31736224688,23,5,7.7,307.4576932376,296.259852,0,1618.07091792,0,0,0,240.2, -0.8, -1.7,0,0,1024,1024,1024,1024,0,0,0,0,255.2,-11.2,0,58,3.855,3.844,0,0,0,0,4.471,100.4,307.4576932376,296.259852,31,Sport,
662000,2022-09-05 20:38:00,-34.9570639045646,-54.9393386400896,296.259852,296.259852,36.952435237596,307.4576932376,49.540684,0,1617.53942184,1.32817261468,23,5,7.7,307.4576932376,296.259852,0,1618.07091792,0,0,0,240.2, -0.7, -1.6,0,0,1024,1024,1024,1024,0,0,0,0,255.2,-11.2,0,58,3.855,3.844,0,0,0,0,4.471,100.4,307.4576932376,296.259852,31,Sport,
662100,2022-09-05 20:38:00,-34.9570638431787,-54.9393385778732,296.259852,296.259852,36.952435237596,307.4576932376,49.540684,0,1617.56566856,1.35728678884,23,5,7.7,307.4576932376,296.259852,0,1618.07091792,0,0,0,240.2, -1.2, -1.7,0,0,1024,1024,1024,1024,0,0,0,0,255.2,-11.2,0,58,3.855,3.844,0,0,0,0,4.471,100.4,307.4576932376,296.259852,31,Sport,
662200,2022-09-05 20:38:00,-34.9570638675663,-54.9393386190163,296.259852,296.259852,36.952435237596,307.4576932376,49.540684,0,1617.54926436,1.37247051636,23,5,7.7,307.4576932376,296.259852,0,1618.07091792,0,0,0,240.2, -1, -1.6,0,0,1024,1024,1024,1024,0,0,0,0,255.2,-11.2,0,58,3.855,3.844,0,0,0,0,4.471,100.4,307.4576932376,296.259852,31,Sport,
662300,2022-09-05 20:38:01,-34.9570638941425,-54.9393386651769,296.259852,296.259852,36.952435237596,307.4576932376,49.540684,0,1617.53286016,1.3893373148,23,5,7.7,307.4576932376,296.259852,0,1618.07091792,0,0,0,240.2, -1, -1.6,0,0,1024,1024,1024,1024,0,0,0,0,255.2,-11.2,0,58,3.855,3.844,0,0,0,0,4.471,100.4,307.4576932376,296.259852,31,Sport,
662400,2022-09-05 20:38:01,-34.9570639306197,-54.9393386825707,296.259852,296.259852,36.952435237596,307.4576932376,49.540684,0,1617.52629848,1.40362865384,23,5,7.7,307.4576932376,296.259852,0,1618.07091792,0,0,0,240.2, -0.9, -1.6,0,0,1024,1024,1024,1024,0,0,0,0,255.2,-11.2,0,58,3.855,3.844,0,0,0,0,4.471,100.4,307.4576932376,296.259852,31,Sport,
662500,2022-09-05 20:38:01,-34.9570639726205,-54.9393387023061,296.259852,296.259852,36.952435237596,307.4576932376,49.540684,0,1617.51645596,1.42004925804,23,5,7.7,307.4576932376,296.259852,0,1618.07091792,0,0,0,240.2, -0.9, -1.7,0,0,1024,1024,1024,1024,0,0,0,0,255.2,-11.2,0,58,3.855,3.844,0,0,0,0,4.471,100.4,307.4576932376,296.259852,31,Sport,
662600,2022-09-05 20:38:01,-34.957063968139,-54.9393387498046,296.259852,296.259852,36.952435237596,307.4576932376,49.540684,0,1617.5033326,1.43434715876,23,5,7.7,307.4576932376,296.259852,0,1618.07091792,0,0,0,240.2, -0.9, -1.7,0,0,1024,1024,1024,1024,0,0,0,0,255.2,-11.2,0,58,3.855,3.844,0,0,0,0,4.484,100.4,307.4576932376,296.259852,31,Sport,
662700,2022-09-05 20:38:01,-34.957063961052,-54.9393388006481,296.259852,296.259852,36.952435237596,307.4576932376,49.540684,0,1617.49020924,1.44976710676,23,5,7.7,307.4576932376,296.259852,0,1618.07091792,0,0,0,240.2, -0.9, -1.7,0,0,1024,1024,1024,1024,0,0,0,0,255.2,-11.2,0,58,3.855,3.844,0,0,0,0,4.484,100.4,307.4576932376,296.259852,31,Sport,
662800,2022-09-05 20:38:01,-34.9570639434388,-54.9393388123555,296.259852,296.259852,36.952435237596,307.4576932376,49.540684,0,1617.4869284,1.4570866608,23,5,7.7,307.4576932376,296.259852,0,1618.07091792,0,0,0,240.2, -0.7, -1.8,0,0,1024,1248,1024,1024,0,34,0,0,255.2,-11.2,0,58,3.855,3.844,0,0,0,0,4.484,100.4,307.4576932376,296.259852,31,Sport,
662900,2022-09-05 20:38:01,-34.9570638398437,-54.9393388013171,296.259852,296.259852,36.952435237596,307.4576932376,49.540684,0,1617.50005176,1.49502629456,23,5,7.7,307.4576932376,296.259852,0,1618.07091792,0,0,0,240.3, -0.9, 0.2,0,0,1024,1211,1024,1024,0,28,0,0,255.2,-11.2,0,58,3.855,3.844,0,0,0,0,4.484,100.4,307.4576932376,296.259852,31,Sport,
663000,2022-09-05 20:38:01,-34.9570638435956,-54.9393388531641,296.259852,296.259852,36.952435237596,307.4576932376,49.540684,0,1617.48364756,1.51059059952,23,5,7.7,307.4576932376,296.259852,0,1618.07091792,0,0,0,240.4, -0.7, 5.4,0,0,1024,1053,1024,1024,0,4,0,0,255.2,-11.2,0,58,3.855,3.844,0,0,0,0,4.484,100.4,307.4576932376,296.259852,31,Sport,
663100,2022-09-05 20:38:01,-34.9570637748101,-54.9393389635481,296.259852,296.259852,36.952435237596,307.4576932376,49.540684,0.223694,1617.46068168,1.55205385544,23,5,7.7,307.4576932376,296.259852,0.223694,1618.07091792,0.223694,0,0,240.2, -0.8, 3.1,0,0,1024,1024,1024,1024,0,0,0,0,255.2,-11.2,0,58,3.855,3.844,0,0,0,0,4.484,100.4,307.4576932376,296.259852,31,Sport,
663200,2022-09-05 20:38:01,-34.9570636156656,-54.9393391318,296.259852,296.259852,36.952435237596,307.4576932376,49.540684,0.3131716,1617.42459244,1.62888128572,23,5,7.7,307.4576932376,296.259852,0.3131716,1618.07091792,0.223694,-0.223694,0,240.1, -0.9, -2.5,0,0,1024,1024,1024,1024,0,0,0,0,255.2,-11.2,0,58,3.855,3.844,0,0,0,0,4.484,100.4,307.4576932376,296.259852,31,Sport,
663300,2022-09-05 20:38:02,-34.9570634766355,-54.9393393679548,296.259852,296.259852,36.952435237596,307.4576932376,49.540684,0.223694,1617.36881816,1.7158301074,23,5,7.7,307.4576932376,296.259852,0.3131716,1618.07091792,0.223694,0,0,240.1, -0.9, -4,0,0,1024,1394,1024,1024,0,56,0,0,255.2,-11.2,0,58,3.855,3.844,0,0,0,0,4.484,100.4,307.4576932376,296.259852,31,Sport,
663400,2022-09-05 20:38:02,-34.9570633285383,-54.9393394790078,296.259852,296.259852,36.952435237596,307.4576932376,49.540684,0.223694,1617.35241396,1.77925202544,23,5,7.7,307.4576932376,296.259852,0.3131716,1618.07091792,0.223694,0,0,240.2, -1, -3.8,0,0,1024,1684,1024,1024,0,100,0,0,255.2,-11.2,0,58,3.855,3.844,0,0,0,0,4.484,100.4,307.4576932376,296.259852,31,Sport,
663500,2022-09-05 20:38:02,-34.9570632004514,-54.9393395760118,296.259852,296.259852,36.952435237596,307.4576932376,49.540684,0.223694,1617.33600976,1.8342520272,23,5,7.7,307.4576932376,296.259852,0.3131716,1618.07091792,0.223694,0,0,240.3, -0.9, 4.5,0,0,1024,1684,1024,1024,0,100,0,0,255.2,-11.2,0,58,3.855,3.844,0,0,0,0,4.484,100.4,307.4576932376,296.259852,31,Sport,
663600,2022-09-05 20:38:02,-34.9570629692905,-54.9393397566401,296.259852,296.259852,36.952435237596,307.4576932376,49.540684,0.7158208,1617.3064822,1.93440622988,23,5,7.699,307.4576932376,296.259852,0.7158208,1618.07091792,0.671082,-0.223694,0,240.8, -0.7, 24.8,0,0,1024,1684,1024,1024,0,100,0,0,255.2,-11.2,0,58,3.855,3.844,0,0,0,0,4.485,100.58,307.4576932376,296.259852,31,Sport,
663700,2022-09-05 20:38:02,-34.9570624377664,-54.9393401426495,296.259852,296.259852,36.952435237596,307.4576932376,49.540684,1.7000744,1617.24414624,2.16008209012,23,5,7.699,307.4576932376,296.259852,1.7000744,1618.07091792,1.565858,-0.671082,0,240.6, -0.5, 28.6,0,0,1024,1684,1024,1024,0,100,0,0,255.2,-11.2,0,58,3.855,3.844,0,0,0,0,4.485,100.58,307.4576932376,296.259852,31,Sport,
663800,2022-09-05 20:38:02,-34.9570613324047,-54.9393407674896,296.259852,296.2270436,36.985243637596,307.4576932376,49.540684,2.9974996,1617.16540608,2.60455388912,23,5,7.699,307.4576932376,296.259852,2.9974996,1618.07091792,2.684328,-1.342164,0,240.3, -0.7, 28.6,0,0,1024,1346,1024,1024,0,49,0,0,255.2,-11.2,0,58,3.855,3.844,0,0,0,0,4.485,100.58,307.4576932376,296.259852,31,Sport,
663900,2022-09-05 20:38:02,-34.9570599314739,-54.939341738534,296.259852,296.2270436,36.985243637596,307.4576932376,49.540684,4.2949248,1617.01776828,3.19240167696,23,5,7.699,307.4576932376,296.259852,4.2949248,1618.07091792,3.802798,-2.013246,0,240.1, -0.9, 26.6,0,0,1024,1024,1024,1024,0,0,0,0,255.2,-11.2,0,58,3.855,3.844,0,0,0,0,4.485,100.58,307.4576932376,296.259852,31,Sport,
664000,2022-09-05 20:38:02,-34.9570583054269,-54.9393429333568,296.259852,296.2270436,36.985243637596,307.4576932376,49.540684,5.1002232,1616.82419872,3.8849410692,23,5,7.699,307.4576932376,296.259852,5.1002232,1618.07091792,4.47388,-2.460634,0,239.5, -0.9, 6.2,0,0,1024,1024,1024,1024,0,0,0,0,255.2,-11.2,0,58,3.855,3.844,0,0,0,0,4.485,100.58,307.4576932376,296.259852,31,Sport,
664100,2022-09-05 20:38:02,-34.9570564967858,-54.9393442700062,296.259852,296.1942352,37.018052037596,307.4576932376,49.540684,4.921268,1616.60766328,4.6564305952,23,5,7.699,307.4576932376,296.259852,5.1002232,1618.07091792,4.250186,-2.460634,0,239.3, -0.9, -18.9,0,0,1024,1024,1006,1661,0,0,-3,97,255.2,-11.2,0,58,3.855,3.844,0,0,0,0,4.485,100.58,307.4576932376,296.259852,31,Sport,
664200,2022-09-05 20:38:02,-34.9570547593273,-54.9393459187413,296.259852,296.1614268,37.050860437596,307.4576932376,49.540684,4.1159696,1616.29598348,5.459481802,23,5,7.699,307.4576932376,296.259852,5.1002232,1618.07091792,3.579104,-2.013246,0,240.1, -0.6, -23.1,0,0,1024,1024,1024,1684,0,0,0,100,255.6,-11.2,0,58,3.855,3.844,0,0,0,0,4.485,100.58,307.4576932376,296.259852,31,Sport,
664300,2022-09-05 20:38:03,-34.9570533035765,-54.9393470687414,296.259852,296.1614268,37.050860437596,307.4576932376,49.540684,3.1093466,1616.09913308,6.0922246044,23,5,7.699,307.4576932376,296.259852,5.1002232,1618.07091792,2.684328,-1.565858,0,242.4, 0.2, -21,0,0,1024,1024,1024,1673,0,0,0,98,262.9,-11.2,0,58,3.855,3.844,0,0,0,0,4.485,100.58,307.4576932376,296.259852,31,Sport,
664400,2022-09-05 20:38:03,-34.9570520677308,-54.9393481060162,296.259852,296.1614268,37.050860437596,307.4576932376,49.540684,2.3040482,1615.91540604,6.6395015248,23,5,7.699,307.4576932376,296.259852,5.1002232,1618.07091792,2.013246,-1.11847,0,252.3, 3.1, -16.9,0,0,1024,1024,1024,1295,0,0,0,41,273.2,-11.2,0,58,3.855,3.844,0,0,0,0,4.485,100.58,307.4576932376,296.259852,31,Sport,
664500,2022-09-05 20:38:03,-34.9570510136455,-54.9393490218686,296.259852,296.1286184,37.083668837596,307.4576932376,49.540684,1.4987498,1615.75136404,7.1116144008,22,5,7.699,307.4576932376,296.259852,5.1002232,1618.07091792,1.342164,-0.671082,0,261.7, 4.6, -12.7,0,0,1024,1024,1024,1295,0,0,0,41,282.4,-11.2,0,58,3.855,3.844,0,0,0,0,4.485,100.58,307.4576932376,296.259852,31,Sport,
664600,2022-09-05 20:38:03,-34.9570500018738,-54.9393497116011,296.259852,296.1286184,37.083668837596,307.4576932376,49.540684,1.11847,1615.649658,7.5344818684,22,5,7.699,307.4576932376,296.259852,5.1002232,1618.07091792,0.894776,-0.671082,0,269.4, 4.5, -9.1,0,0,1024,1024,1024,1024,0,0,0,0,286,-11.2,0,58,3.849,3.837,0,0,0,0,4.485,100.58,307.4576932376,296.259852,31,Sport,
664700,2022-09-05 20:38:03,-34.9570494443987,-54.9393501237012,296.259852,296.1286184,37.083668837596,307.4576932376,49.540684,0.8052984,1615.58076036,7.7722771516,22,5,7.699,307.4576932376,296.259852,5.1002232,1618.07091792,0.671082,-0.447388,0,270.8, 3.8, -7.3,0,0,1024,1024,1024,1024,0,0,0,0,286.5,-11.2,0,58,3.849,3.837,0,0,0,0,4.485,100.58,307.4576932376,296.259852,31,Sport,
664800,2022-09-05 20:38:03,-34.9570493302774,-54.9393502799113,296.259852,296.1286184,37.083668837596,307.4576932376,49.540684,0.4921268,1615.54795196,7.8348755788,22,5,7.699,307.4576932376,296.259852,5.1002232,1618.07091792,0.447388,-0.223694,0,270.9, 3.3, -6.1,0,0,1024,1024,1024,1024,0,0,0,0,286.5,-11.2,0,58,3.849,3.837,0,0,0,0,4.485,100.58,307.4576932376,296.259852,31,Sport,
664900,2022-09-05 20:38:03,-34.9570493120388,-54.9393503742394,296.259852,296.1286184,37.083668837596,307.4576932376,49.540684,0.3131716,1615.52170524,7.863845396,22,5,7.699,307.4576932376,296.259852,5.1002232,1618.07091792,0.223694,-0.223694,0,271.2, 2.6, -4.9,0,0,1024,1024,1024,1024,0,0,0,0,286.5,-11.2,0,58,3.849,3.837,0,0,0,0,4.485,100.58,307.4576932376,296.259852,31,Sport,
665000,2022-09-05 20:38:03,-34.9570507202651,-54.9393495741229,296.259852,296.1286184,37.083668837596,307.4576932376,49.540684,0.223694,1615.62013044,8.430610506,22,5,7.699,307.4576932376,296.259852,5.1002232,1618.07091792,0,-0.223694,0,271.7, 1.9, -4.1,0,0,1024,1024,1024,1024,0,0,0,0,286.5,-11.2,0,58,3.849,3.837,0,0,0,0,4.485,100.58,307.4576932376,296.259852,31,Sport,
665100,2022-09-05 20:38:03,-34.9570510148962,-54.9393495179274,296.259852,296.1286184,37.083668837596,307.4576932376,49.540684,0,1615.60700708,8.5394031604,22,5,7.699,307.4576932376,296.259852,5.1002232,1618.07091792,0,0,0,271.6, 1.7, -3.3,0,0,1024,1024,1024,921,0,0,0,-16,286.5,-11.2,0,58,3.849,3.837,0,0,0,0,4.485,100.58,307.4576932376,296.259852,31,Sport,
665200,2022-09-05 20:38:04,-34.9570513410019,-54.9393494710979,296.259852,296.1286184,37.083668837596,307.4576932376,49.540684,0,1615.59060288,8.6592194372,22,5,7.699,307.4576932376,296.259852,5.1002232,1618.07091792,0,0,0,271.2, 1.5, -2.4,0,0,1024,1024,1024,912,0,0,0,-17,286.5,-11.2,0,58,3.849,3.837,0,0,0,0,4.485,100.58,307.4576932376,296.259852,31,Sport,
665300,2022-09-05 20:38:04,-34.9570516920162,-54.9393494075435,296.259852,296.1286184,37.083668837596,307.4576932376,49.540684,0,1615.57747952,8.7886813836,22,5,7.699,307.4576932376,296.259852,5.1002232,1618.07091792,0,0,0,271.4, 1, -2.1,0,0,1024,1024,1024,608,0,0,0,-63,286.3,-11.2,0,58,3.849,3.837,0,0,0,0,4.485,100.58,307.4576932376,296.259852,31,Sport,
665400,2022-09-05 20:38:04,-34.9570517823753,-54.9393493356266,296.259852,296.1286184,37.083668837596,307.4576932376,49.540684,0,1615.58732204,8.8280514636,22,5,7.699,307.4576932376,296.259852,5.1002232,1618.07091792,0,0,0,271.1, 0.8, -2.3,0,0,1024,1024,1024,608,0,0,0,-63,285.5,-11.2,0,58,3.849,3.837,0,0,0,0,4.485,100.58,307.4576932376,296.259852,31,Sport,
665500,2022-09-05 20:38:04,-34.9570519263037,-54.9393489332269,296.259852,296.1286184,37.083668837596,307.4576932376,49.540684,0,1615.69230892,8.959317872,22,5,7.699,307.4576932376,296.259852,5.1002232,1618.07091792,0,0,0,269.3, 0.1, -2.8,0,0,1024,1024,1024,432,0,0,0,-90,281.7,-11.2,0,58,3.849,3.837,0,0,0,0,4.485,100.58,307.4576932376,296.259852,31,Sport,
665600,2022-09-05 20:38:04,-34.957051850327,-54.9393488111356,296.259852,296.1286184,37.083668837596,307.4576932376,49.540684,0,1615.73495984,9.0051840152,22,5,7.684,307.4576932376,296.259852,5.1002232,1618.07091792,0,0,0,264.1, -0.2, -2.8,0,0,1024,1024,1024,638,0,0,0,-58,274.6,-11.2,0,58,3.852,3.842,0,0,0,0,4.828,100.4,307.4576932376,296.259852,31,Sport,
665700,2022-09-05 20:38:04,-34.95705178175,-54.9393486883752,296.259852,296.1286184,37.083668837596,307.4576932376,49.540684,0,1615.77432992,9.0496065888,22,5,7.684,307.4576932376,296.259852,5.1002232,1618.07091792,0,0,0,256.4, -0.6, -2.9,0,0,1024,1024,1024,1024,0,0,0,0,267.5,-11.2,0,58,3.852,3.842,0,0,0,0,4.828,100.4,307.4576932376,296.259852,31,Sport,
665800,2022-09-05 20:38:04,-34.9570516401145,-54.9393486341867,296.259852,296.1286184,37.083668837596,307.4576932376,49.540684,0,1615.80385748,9.1037404488,22,5,7.684,307.4576932376,296.259852,5.1002232,1618.07091792,0,0,0,251.8, -0.7, -3.3,0,0,1024,1024,1024,1024,0,0,0,0,265.9,-11.2,0,58,3.852,3.842,0,0,0,0,4.828,100.4,307.4576932376,296.259852,31,Sport,
665900,2022-09-05 20:38:04,-34.9570507838395,-54.9393485084159,296.259852,296.1286184,37.083668837596,307.4576932376,49.540684,0,1615.92196772,9.4184058132,22,5,7.684,307.4576932376,296.259852,5.1002232,1618.07091792,0,0,0,251.2, -1.4, -3.2,0,0,1024,1024,1024,1024,0,0,0,0,265.8,-11.2,0,58,3.852,3.842,0,0,0,0,4.828,100.4,307.4576932376,296.259852,31,Sport,
666000,2022-09-05 20:38:04,-34.9570506548147,-54.9393484254607,296.259852,296.1614268,37.050860437596,307.4576932376,49.540684,0,1615.95805696,9.471621038,22,5,7.684,307.4576932376,296.259852,5.1002232,1618.07091792,0,0,0,251.1, -1.8, -2.8,0,0,1024,1024,1024,1024,0,0,0,0,265.8,-11.2,0,58,3.852,3.842,0,0,0,0,4.828,100.4,307.4576932376,296.259852,31,Sport,
666100,2022-09-05 20:38:04,-34.957050548093,-54.9393483505334,296.259852,296.1614268,37.050860437596,307.4576932376,49.540684,0,1615.99086536,9.5165357376,22,5,7.684,307.4576932376,296.259852,5.1002232,1618.07091792,0,0,0,250.9, -1.6, -2.6,0,0,1024,1024,1024,1024,0,0,0,0,265.8,-11.2,0,58,3.852,3.842,0,0,0,0,4.828,100.4,307.4576932376,296.259852,31,Sport,
666200,2022-09-05 20:38:04,-34.9570504836847,-54.9393483351465,296.259852,296.1614268,37.050860437596,307.4576932376,49.540684,0,1616.00070788,9.5404858696,22,5,7.684,307.4576932376,296.259852,5.1002232,1618.07091792,0,0,0,250.9, -1.7, -2.6,0,0,1024,1024,1024,1024,0,0,0,0,265.8,-11.2,0,58,3.852,3.842,0,0,0,0,4.828,100.4,307.4576932376,296.259852,31,Sport,
666300,2022-09-05 20:38:05,-34.9570499883251,-54.9393483522059,296.259852,296.1614268,37.050860437596,307.4576932376,49.540684,0,1616.0433588,9.721292962,22,5,7.684,307.4576932376,296.259852,5.1002232,1618.07091792,0,0,0,250.8, -1.5, -2.5,0,0,1024,1024,1024,1024,0,0,0,0,265.8,-11.2,0,58,3.852,3.842,0,0,0,0,4.828,100.4,307.4576932376,296.259852,31,Sport,
666400,2022-09-05 20:38:05,-34.9570500050004,-54.9393483813071,296.259852,296.1614268,37.050860437596,307.4576932376,49.540684,0,1616.03351628,9.7319228836,22,5,7.684,307.4576932376,296.259852,5.1002232,1618.07091792,0,0,0,250.8, -1.5, -2.6,0,0,1024,1024,1024,1024,0,0,0,0,265.8,-11.2,0,58,3.852,3.842,0,0,0,0,4.828,100.4,307.4576932376,296.259852,31,Sport,
666500,2022-09-05 20:38:05,-34.9570500433535,-54.9393484227847,296.259852,296.1614268,37.050860437596,307.4576932376,49.540684,0,1616.01711208,9.7506236716,22,5,7.684,307.4576932376,296.259852,5.1002232,1618.07091792,0,0,0,250.8, -1.2, -2.2,0,0,1024,1024,1024,1024,0,0,0,0,265.8,-11.2,0,58,3.852,3.842,0,0,0,0,4.828,100.4,307.4576932376,296.259852,31,Sport,
666600,2022-09-05 20:38:05,-34.957050079518,-54.9393484599139,296.259852,296.1614268,37.050860437596,307.4576932376,49.540684,0,1616.00070788,9.7678480816,22,5,7.692,307.4576932376,296.259852,5.1002232,1618.07091792,0,0,0,250.8, -1, -2.1,0,0,1024,1024,1024,1024,0,0,0,0,265.8,-11.2,0,58,3.85,3.84,0,0,0,0,4.705,100.58,307.4576932376,296.259852,31,Sport,
666700,2022-09-05 20:38:05,-34.9570500876472,-54.9393485545765,296.259852,296.1286184,37.083668837596,307.4576932376,49.540684,0.223694,1615.97446116,9.7963257728,22,5,7.692,307.4576932376,296.259852,5.1002232,1618.07091792,-0.223694,0,0,250.8, -1, -1.9,0,0,1024,1024,1024,1024,0,0,0,0,265.8,-11.2,0,58,3.85,3.84,0,0,0,0,4.705,100.58,307.4576932376,296.259852,31,Sport,
666800,2022-09-05 20:38:05,-34.9570501835299,-54.9393486124444,296.259852,296.1286184,37.083668837596,307.4576932376,49.540684,0.223694,1615.94821444,9.8353349604,22,5,7.692,307.4576932376,296.259852,5.1002232,1618.07091792,-0.223694,0,0,250.8, -0.9, -1.4,0,0,1024,1024,1156,1024,0,0,20,0,265.8,-11.2,0,58,3.85,3.84,0,0,0,0,4.705,100.58,307.4576932376,296.259852,31,Sport,
666900,2022-09-05 20:38:05,-34.9570502831647,-54.9393486806818,296.259852,296.1286184,37.083668837596,307.4576932376,49.540684,0.223694,1615.91868688,9.8770344368,22,5,7.692,307.4576932376,296.259852,5.1002232,1618.07091792,-0.223694,0,0,250.8, -0.8, -1.3,0,0,1024,1024,1275,1024,0,0,38,0,265.8,-11.2,0,58,3.85,3.84,0,0,0,0,4.705,100.58,307.4576932376,296.259852,31,Sport,
667000,2022-09-05 20:38:05,-34.9570503590371,-54.9393487318598,296.259852,296.1286184,37.083668837596,307.4576932376,49.540684,0,1615.895721,9.9086617344,22,5,7.692,307.4576932376,296.259852,5.1002232,1618.07091792,0,0,-0.447388,250.8, -0.7, -1.1,0,0,1024,1024,1259,1024,0,0,36,0,265.8,-11.2,0,58,3.85,3.84,0,0,0,0,4.705,100.58,307.4576932376,296.259852,31,Sport,
667100,2022-09-05 20:38:05,-34.9570504286564,-54.9393487917348,296.259852,296.1286184,37.083668837596,307.4576932376,49.540684,0.223694,1615.87275512,9.9397312892,22,5,7.692,307.4576932376,296.259852,5.1002232,1618.07091792,-0.223694,0,-1.11847,250.8, -0.6, -1.3,0,0,1024,1024,1247,1024,0,0,34,0,265.8,-11.2,0,58,3.85,3.84,0,0,0,0,4.705,100.58,307.4576932376,296.259852,31,Sport,
667200,2022-09-05 20:38:05,-34.9570506630481,-54.9393487666475,296.587936,296.4567024,37.083668837596,307.7857772376,49.540684,0,1615.85963176,10.025590872,22,5,7.692,307.7857772376,296.587936,5.1002232,1618.07091792,0,0,-1.565858,250.8, -0.6, -1.4,0,0,1024,1024,1227,1024,0,0,31,0,265.8,-11.2,0,58,3.85,3.84,0,0,0,0,4.705,100.58,307.7857772376,296.587936,31,Sport,
667300,2022-09-05 20:38:06,-34.9570507464244,-54.9393488024387,296.91602,296.7847864,37.083668837596,308.1138612376,49.540684,0,1615.83994672,10.0578415292,23,5,7.692,308.1138612376,296.91602,5.1002232,1618.07091792,0,0,-2.013246,250.8, -0.4, -1.4,0,0,1024,1024,1197,1024,0,0,26,0,265.8,-11.2,0,58,3.85,3.84,0,0,0,0,4.705,100.58,308.1138612376,296.91602,31,Sport,
667400,2022-09-05 20:38:06,-34.9570508222969,-54.9393488593031,297.244104,297.1128704,37.083668837596,308.4419452376,49.540684,0,1615.81698084,10.0903218452,23,5,7.692,308.4419452376,297.244104,5.1002232,1618.07091792,0,0,-2.013246,250.7, -0.3, -1.4,0,0,1024,1024,1197,1024,0,0,26,0,265.8,-11.2,0,58,3.85,3.84,0,0,0,0,4.705,100.58,308.4419452376,297.244104,31,Sport,
667500,2022-09-05 20:38:06,-34.9570508945216,-54.9393489175056,297.572188,297.4409544,37.083668837596,308.7700292376,49.540684,0,1615.79401496,10.1219163344,23,5,7.692,308.7700292376,297.572188,5.1002232,1618.07091792,0,0,-1.789552,250.8, -0.5, -1.2,0,0,1024,1024,1170,1024,0,0,22,0,265.8,-11.2,0,58,3.85,3.84,0,0,0,0,4.705,100.58,308.7700292376,297.572188,31,Sport,
667600,2022-09-05 20:38:06,-34.9570510358445,-54.9393489747045,297.572188,297.4409544,37.083668837596,308.7700292376,49.540684,0,1615.7644874,10.1762142364,23,5,7.693,308.7700292376,297.572188,5.1002232,1618.07091792,0,0,-1.565858,250.7, -0.2, -1.3,0,0,1024,1024,1048,1024,0,0,4,0,265.8,-11.2,0,58,3.843,3.839,0,0,0,0,4.507,100.58,308.7700292376,297.572188,31,Sport,
667700,2022-09-05 20:38:06,-34.9570510962923,-54.9393490211996,297.900272,297.7690384,37.083668837596,309.0981132376,49.540684,0,1615.74480236,10.2022969144,23,5,7.693,309.0981132376,297.900272,5.1002232,1618.07091792,0,0,-1.11847,250.7, -0.4, -1.4,0,0,1024,1024,1024,1024,0,0,0,0,265.8,-11.2,0,58,3.843,3.839,0,0,0,0,4.507,100.58,309.0981132376,297.900272,31,Sport,
667800,2022-09-05 20:38:06,-34.9570511514249,-54.9393490509698,297.900272,297.7690384,37.083668837596,309.0981132376,49.540684,0,1615.731679,10.2243113508,23,5,7.693,309.0981132376,297.900272,5.1002232,1618.07091792,0,0,-0.447388,250.8, -0.1, -1.1,0,0,1024,1024,1024,1024,0,0,0,0,265.8,-11.2,0,58,3.843,3.839,0,0,0,0,4.507,100.58,309.0981132376,297.900272,31,Sport,
667900,2022-09-05 20:38:06,-34.9570511975946,-54.9393490783986,298.228356,298.0971224,37.083668837596,309.4261972376,49.540684,0,1615.71855564,10.2430449472,23,5,7.693,309.4261972376,298.228356,5.1002232,1618.07091792,0,0,-0.223694,250.8, -0.1, -1,0,0,1024,1024,1024,1154,0,0,0,20,265.8,-11.2,0,58,3.843,3.839,0,0,0,0,4.507,100.58,309.4261972376,298.228356,31,Sport,
668000,2022-09-05 20:38:06,-34.9570512109348,-54.939349080071,298.228356,298.0971224,37.083668837596,309.4261972376,49.540684,0,1615.7152748,10.2479333988,23,5,7.693,309.4261972376,298.228356,5.1002232,1618.07091792,0,0,0,250.8, -0.2, -1.2,0,0,1024,1024,1024,1269,0,0,0,37,265.8,-11.2,0,58,3.843,3.839,0,0,0,0,4.507,100.58,309.4261972376,298.228356,31,Sport,
668100,2022-09-05 20:38:06,-34.9570511953017,-54.9393491038203,298.228356,298.0971224,37.083668837596,309.4261972376,49.540684,0,1615.71199396,10.2570213256,22,5,7.693,309.4261972376,298.228356,5.1002232,1618.07091792,0,0,0,251, -0.3, -1.4,0,0,1024,1024,1024,1246,0,0,0,34,266.6,-11.2,0,58,3.843,3.839,0,0,0,0,4.507,100.58,309.4261972376,298.228356,31,Sport,
668200,2022-09-05 20:38:06,-34.9570511743534,-54.9393491325871,298.228356,298.0971224,37.083668837596,309.4261972376,49.540684,0,1615.70543228,10.268537074,22,5,7.693,309.4261972376,298.228356,5.1002232,1618.07091792,0,0,0,252.3, -0.1, -1.7,0,0,1024,1024,1024,1065,0,0,0,6,268.2,-11.2,0,58,3.843,3.839,0,0,0,0,4.507,100.58,309.4261972376,298.228356,31,Sport,
668300,2022-09-05 20:38:07,-34.9570511510081,-54.9393491563363,298.228356,298.0971224,37.083668837596,309.4261972376,49.540684,0,1615.6988706,10.2796263132,22,5,7.693,309.4261972376,298.228356,5.1002232,1618.07091792,0,0,0,253.9, -0.5, -1.7,0,0,1024,1024,1024,1065,0,0,0,6,269.6,-11.2,0,58,3.843,3.839,0,0,0,0,4.507,100.58,309.4261972376,298.228356,31,Sport,
668400,2022-09-05 20:38:07,-34.9570511736239,-54.9393490944544,298.228356,298.0971224,37.083668837596,309.4261972376,49.540684,0,1615.7152748,10.2999019044,22,5,7.693,309.4261972376,298.228356,5.1002232,1618.07091792,0,0,0,255.1, -0.3, -1.7,0,0,1024,1024,1024,1024,0,0,0,0,270.4,-11.2,0,58,3.843,3.839,0,0,0,0,4.507,100.58,309.4261972376,298.228356,31,Sport,
668500,2022-09-05 20:38:07,-34.9570511771674,-54.9393490730466,298.228356,298.0971224,37.083668837596,309.4261972376,49.540684,0,1615.72183648,10.306430776,22,5,7.693,309.4261972376,298.228356,5.1002232,1618.07091792,0,0,0,255.5, -0.5, -1.8,0,0,1024,1024,1024,1024,0,0,0,0,270.6,-11.2,0,58,3.843,3.839,0,0,0,0,4.507,100.58,309.4261972376,298.228356,31,Sport,
668600,2022-09-05 20:38:07,-34.9570511644525,-54.9393490954579,298.228356,298.0971224,37.083668837596,309.4261972376,49.540684,0,1615.7152748,10.3145672592,22,5,7.692,309.4261972376,298.228356,5.1002232,1618.07091792,0,0,0,255.5, -0.3, -1.9,0,0,1024,1024,1024,1024,0,0,0,0,270.6,-11.2,0,58,3.852,3.842,0,0,0,0,4.976,100.58,309.4261972376,298.228356,31,Sport,
668700,2022-09-05 20:38:07,-34.9570511490279,-54.9393491215487,298.228356,298.0971224,37.083668837596,309.4261972376,49.540684,0,1615.70871312,10.3241801204,22,5,7.692,309.4261972376,298.228356,5.1002232,1618.07091792,0,0,0,255.6, -0.3, -1.7,0,0,1024,1024,1024,1024,0,0,0,0,270.6,-11.2,0,58,3.852,3.842,0,0,0,0,4.976,100.58,309.4261972376,298.228356,31,Sport,
668800,2022-09-05 20:38:07,-34.9570511448591,-54.9393491192072,298.228356,298.0971224,37.083668837596,309.4261972376,49.540684,0,1615.71199396,10.3258533488,22,5,7.692,309.4261972376,298.228356,5.1002232,1618.07091792,0,0,0,255.6, -0.1, -1.8,0,0,1024,1024,1024,1024,0,0,0,0,270.6,-11.2,0,58,3.852,3.842,0,0,0,0,4.976,100.58,309.4261972376,298.228356,31,Sport,
668900,2022-09-05 20:38:07,-34.9570511564275,-54.9393491295766,298.228356,298.0971224,37.083668837596,309.4261972376,49.540684,0,1615.70543228,10.3311026928,22,5,7.692,309.4261972376,298.228356,5.1002232,1618.07091792,0,0,0,255.6, -0.4, -1.6,0,0,1024,1024,1024,1024,0,0,0,0,270.6,-11.2,0,58,3.852,3.842,0,0,0,0,4.976,100.58,309.4261972376,298.228356,31,Sport,
669000,2022-09-05 20:38:07,-34.9570512038478,-54.9393491168657,298.228356,298.0971224,37.083668837596,309.4261972376,49.540684,0,1615.70543228,10.3488192288,22,5,7.692,309.4261972376,298.228356,5.1002232,1618.07091792,0,0,0,255.6, -0.3, -1.7,0,0,1024,1024,1024,1024,0,0,0,0,270.6,-11.2,0,58,3.852,3.842,0,0,0,0,4.976,100.58,309.4261972376,298.228356,31,Sport,
669100,2022-09-05 20:38:07,-34.9570512542905,-54.9393491034858,298.228356,298.0971224,37.083668837596,309.4261972376,49.540684,0,1615.70543228,10.3676512504,22,5,7.692,309.4261972376,298.228356,5.1002232,1618.07091792,0,0,0,255.6, -0.2, -1.7,0,0,1024,1024,1024,1024,0,0,0,0,270.6,-11.2,0,58,3.852,3.842,0,0,0,0,4.976,100.58,309.4261972376,298.228356,31,Sport,
669200,2022-09-05 20:38:07,-34.95705127107,-54.9393490837505,298.228356,298.0971224,37.083668837596,309.4261972376,49.540684,0,1615.70871312,10.376148626,22,5,7.692,309.4261972376,298.228356,5.1002232,1618.07091792,0,0,0,255.6, -0.3, -1.6,0,0,1024,1024,1024,1024,0,0,0,0,270.6,-11.2,0,58,3.852,3.842,0,0,0,0,4.976,100.58,309.4261972376,298.228356,31,Sport,
669300,2022-09-05 20:38:08,-34.9570513900897,-54.9393490379244,298.228356,298.0971224,37.083668837596,309.4261972376,49.540684,0,1615.71199396,10.4216866852,22,5,7.692,309.4261972376,298.228356,5.1002232,1618.07091792,0,0,0,255.6, -0.4, -1.6,0,0,1071,1024,1024,1024,7,0,0,0,270.6,-11.2,0,58,3.852,3.842,0,0,0,0,4.976,100.58,309.4261972376,298.228356,31,Sport,
669400,2022-09-05 20:38:08,-34.9570513797719,-54.9393490245446,298.228356,298.0971224,37.083668837596,309.4261972376,49.540684,0,1615.7152748,10.4271984964,22,5,7.692,309.4261972376,298.228356,5.1002232,1618.07091792,0,0,0,255.6, -0.3, -1.6,0,0,1071,1024,1024,1024,7,0,0,0,270.6,-11.2,0,58,3.852,3.842,0,0,0,0,4.976,100.58,309.4261972376,298.228356,31,Sport,
669500,2022-09-05 20:38:08,-34.9570513639304,-54.9393490121682,298.228356,298.0971224,37.083668837596,309.4261972376,49.540684,0,1615.72183648,10.434055452,22,5,7.692,309.4261972376,298.228356,5.1002232,1618.07091792,0,0,0,255.6, -0.8, -1.7,0,0,1044,1024,1024,1024,3,0,0,0,270.6,-11.2,0,58,3.852,3.842,0,0,0,0,4.976,100.58,309.4261972376,298.228356,31,Sport,
669600,2022-09-05 20:38:08,-34.9570513447538,-54.9393490098267,298.228356,298.0971224,37.083668837596,309.4261972376,49.540684,0,1615.72511732,10.4410764496,22,5,7.701,309.4261972376,298.228356,5.1002232,1618.07091792,0,0,0,255.6, -0.8, -1.7,0,0,1024,1024,1024,1024,0,0,0,0,270.6,-11.2,0,58,3.851,3.841,0,0,0,0,4.338,100.58,309.4261972376,298.228356,31,Sport,
669700,2022-09-05 20:38:08,-34.9570512897254,-54.9393490278895,298.228356,298.0971224,37.083668837596,309.4261972376,49.540684,0,1615.72511732,10.4618769752,22,5,7.701,309.4261972376,298.228356,5.1002232,1618.07091792,0,0,0,255.6, -0.5, -2,0,0,1024,1024,1024,1024,0,0,0,0,270.6,-11.2,0,58,3.851,3.841,0,0,0,0,4.338,100.58,309.4261972376,298.228356,31,Sport,
669800,2022-09-05 20:38:08,-34.9570512795118,-54.9393489981193,298.228356,298.0971224,37.083668837596,309.4261972376,49.540684,0,1615.73495984,10.4715226448,22,5,7.701,309.4261972376,298.228356,5.1002232,1618.07091792,0,0,0,255.6, -0.4, -2.1,0,0,1024,1024,1024,1024,0,0,0,0,270.6,-11.2,0,58,3.851,3.841,0,0,0,0,4.338,100.58,309.4261972376,298.228356,31,Sport,
669900,2022-09-05 20:38:08,-34.9570512721122,-54.9393489599867,298.228356,298.0971224,37.083668837596,309.4261972376,49.540684,0,1615.74480236,10.4832352436,22,5,7.701,309.4261972376,298.228356,5.1002232,1618.07091792,0,0,0,255.6, -0.5, -2.1,0,0,1024,1024,1024,1024,0,0,0,0,270.6,-11.2,0,58,3.851,3.841,0,0,0,0,4.338,100.58,309.4261972376,298.228356,31,Sport,
670000,2022-09-05 20:38:08,-34.9570512788865,-54.9393489563072,298.228356,298.0971224,37.083668837596,309.4261972376,49.540684,0,1615.74480236,10.4859583408,22,5,7.701,309.4261972376,298.228356,5.1002232,1618.07091792,0,0,0,255.6, -0.5, -2.1,0,0,1024,1024,1024,1024,0,0,0,0,270.6,-11.2,0,58,3.851,3.841,0,0,0,0,4.338,100.58,309.4261972376,298.228356,31,Sport,
670100,2022-09-05 20:38:08,-34.9570513068176,-54.9393489017842,298.228356,298.0971224,37.083668837596,309.4261972376,49.540684,0,1615.75792572,10.5051840632,22,5,7.701,309.4261972376,298.228356,5.1002232,1618.07091792,0,0,0,255.6, -0.5, -2,0,0,1024,1024,1024,1024,0,0,0,0,270.6,-11.2,0,58,3.851,3.841,0,0,0,0,4.338,100.58,309.4261972376,298.228356,31,Sport,
670200,2022-09-05 20:38:08,-34.9570513751862,-54.9393489084742,298.228356,298.0971224,37.083668837596,309.4261972376,49.540684,0,1615.75136404,10.530184064,22,5,7.701,309.4261972376,298.228356,5.1002232,1618.07091792,0,0,0,255.6, -0.4, -2,0,0,1024,1024,1024,1024,0,0,0,0,270.6,-11.2,0,58,3.851,3.841,0,0,0,0,4.338,100.58,309.4261972376,298.228356,31,Sport,
