time(millisecond),datetime(utc),latitude,longitude,height_above_takeoff(feet),height_above_ground_at_drone_location(feet),ground_elevation_at_drone_location(feet),altitude_above_seaLevel(feet),height_sonar(feet),speed(mph),distance(feet),mileage(feet),satellites,gpslevel,voltage(v),max_altitude(feet),max_ascent(feet),max_speed(mph),max_distance(feet), xSpeed(mph), ySpeed(mph), zSpeed(mph), compass_heading(degrees), pitch(degrees), roll(degrees),isPhoto,isVideo,rc_elevator,rc_aileron,rc_throttle,rc_rudder,rc_elevator(percent),rc_aileron(percent),rc_throttle(percent),rc_rudder(percent),gimbal_heading(degrees),gimbal_pitch(degrees),gimbal_roll(degrees),battery_percent,voltageCell1,voltageCell2,voltageCell3,voltageCell4,voltageCell5,voltageCell6,current(A),battery_temperature(f),altitude(feet),ascent(feet),flycStateRaw,flycState,message
0,2025-05-06 18:21:04,-22.9749822349702,-42.0209518438814,0,0,1.934260888668,1.934260888668,0.328084,0,0,0,21,5,0,1.934260888668,0,0,0,-0.894776,0,-0.671082,81.6, 0.3, 6.4,0,0,364,364,364,1684,-100,-100,-100,100,103.1,0,0,99,4.328,4.328,0,0,0,0,0,83.12,1.934260888668,0,6,P-GPS,"Error de calibración del estabilizador. Reinicia la aeronave o contacta con la Asistencia DJI (Code: 40011)"
100,2025-05-06 18:21:04,-22.974982648847,-42.0209518041427,0,0,1.934260888668,1.934260888668,0.328084,0.7158208,0.151591540284,0.151591540284,21,5,0,1.934260888668,0,0.7158208,0.151591540284,-0.671082,0.223694,-0.447388,81.5, -0.7, 6.6,0,0,364,364,364,1684,-100,-100,-100,100,104.2,0,0,99,4.328,4.328,0,0,0,0,0,83.12,1.934260888668,0,41,Motors_Started,
200,2025-05-06 18:21:04,-22.9749829219823,-42.0209517246503,0,0,1.934260888668,1.934260888668,0.328084,0.4921268,0.253835638044,0.254760178756,21,5,0,1.934260888668,0,0.7158208,0.253835638044,-0.447388,0.223694,-0.447388,80.9, -1.6, 6.6,0,0,364,364,364,1684,-100,-100,-100,100,104.4,0,0,99,4.328,4.328,0,0,0,0,0,83.12,1.934260888668,0,41,Motors_Started,
300,2025-05-06 18:21:04,-22.9749829681637,-42.0209518156311,0,0,1.934260888668,1.934260888668,0.328084,0.223694,0.267673564996,0.289658473836,21,5,0,1.934260888668,0,0.7158208,0.267673564996,-0.223694,0,-0.447388,81.3, -1.1, 6.9,0,0,364,364,364,1684,-100,-100,-100,100,104.3,0,0,99,4.328,4.328,0,0,0,0,0,83.12,1.934260888668,0,41,Motors_Started,"Setting new Return-To-Home altitude to 100m (328 ft). Data Recorder File Index is 67. Setting new Maximum Flight Altitude to 500m (1640 ft)"
400,2025-05-06 18:21:04,-22.9749830963821,-42.0209519596744,0,0,1.934260888668,1.934260888668,0.328084,0,0.316683409084,0.35695867284,21,5,0,1.934260888668,0,0.7158208,0.316683409084,0,0,-0.447388,80.6, 0.4, 6.3,0,0,364,364,364,1684,-100,-100,-100,100,104.2,0,0,99,4.328,4.328,0,0,0,0,0,83.12,1.934260888668,0,41,Motors_Started,
500,2025-05-06 18:21:04,-22.9749831946021,-42.0209520948196,0,0,1.934260888668,1.934260888668,0.328084,0,0.36012468344,0.4147966012,21,5,0,1.934260888668,0,0.7158208,0.36012468344,0,0,-0.447388,79.4, 0.6, 5.9,0,0,364,364,364,1654,-100,-100,-100,95,103,0,0,99,4.328,4.328,0,0,0,0,0,83.12,1.934260888668,0,41,Motors_Started,
600,2025-05-06 18:21:04,-22.9749832766891,-42.0209521858063,0.328084,0.328084,1.934260888668,2.262344888668,0.656168,0,0.3970472568,0.45758859732,21,5,0,2.262344888668,0.328084,0.7158208,0.3970472568,0,0,-0.447388,79.7, 0.5, 4.9,0,0,364,364,364,1646,-100,-100,-100,94,102.6,0,0,99,4.328,4.328,0,0,0,0,0,83.12,2.262344888668,0.328084,41,Motors_Started,
700,2025-05-06 18:21:04,-22.9749832245765,-42.0209528741166,0.328084,0.328084,1.934260888668,2.262344888668,0.656168,0,0.50012140708,0.68957679372,21,5,0,2.262344888668,0.328084,0.7158208,0.50012140708,0,0,-0.447388,79.6, -0.4, 4,0,0,364,364,364,1657,-100,-100,-100,96,102.6,0,0,99,4.328,4.328,0,0,0,0,0,83.12,2.262344888668,0.328084,41,Motors_Started,
800,2025-05-06 18:21:04,-22.9749832087061,-42.020953089408,0.328084,0.328084,1.934260888668,2.262344888668,0.656168,0,0.54887140864,0.76212600864,21,5,0,2.262344888668,0.328084,0.7158208,0.54887140864,0,0,-0.447388,79.7, -0.2, 3.1,0,0,364,364,364,1657,-100,-100,-100,96,102.9,0,0,99,4.328,4.328,0,0,0,0,0,83.12,2.262344888668,0.328084,41,Motors_Started,
900,2025-05-06 18:21:04,-22.9749831864705,-42.0209533022668,0.328084,0.328084,1.934260888668,2.262344888668,0.656168,0,0.60041668588,0.83408467236,21,5,8.698,2.262344888668,0.328084,0.7158208,0.60041668588,0,0,-0.447388,79.2, 0, 2.6,0,0,364,364,364,1658,-100,-100,-100,96,103.1,0,0,99,4.328,4.328,0,0,0,0,0.612,83.12,2.262344888668,0.328084,41,Motors_Started,
1000,2025-05-06 18:21:05,-22.9749831613823,-42.0209534348781,0.328084,0.328084,1.934260888668,2.262344888668,0.656168,0,0.63234253992,0.8795603956,21,5,8.698,2.262344888668,0.328084,0.7158208,0.63234253992,0,0,-0.447388,77.8, 0, 2.5,0,0,364,364,364,1483,-100,-100,-100,70,102.1,0,0,99,4.328,4.328,0,0,0,0,0.612,83.12,2.262344888668,0.328084,41,Motors_Started,
1100,2025-05-06 18:21:05,-22.9749831657502,-42.0209535515027,0.328084,0.328084,1.934260888668,2.262344888668,0.656168,0,0.66659122868,0.91876971444,21,5,8.698,2.262344888668,0.328084,0.7158208,0.66659122868,0,0,-0.447388,78.3, 0.5, 2.8,0,0,364,364,364,1463,-100,-100,-100,67,101.6,0,0,99,4.328,4.328,0,0,0,0,0.612,83.12,2.262344888668,0.328084,41,Motors_Started,
1200,2025-05-06 18:21:05,-22.9749831481776,-42.020953369897,0.328084,0.328084,1.934260888668,2.262344888668,0.656168,0,0.6113681298,0.98010829908,21,5,8.698,2.262344888668,0.328084,0.7158208,0.66659122868,0,0,-0.447388,79.8, 0.7, 2.8,0,0,1024,1024,866,1024,0,0,-24,0,102.4,0,0,99,4.328,4.328,0,0,0,0,0.612,83.12,2.262344888668,0.328084,10,Assisted_Takeoff,
1300,2025-05-06 18:21:05,-22.9749831731812,-42.0209534352341,0.328084,0.328084,1.934260888668,2.262344888668,0.656168,0,0.63475395732,1.00387470404,21,5,8.698,2.262344888668,0.328084,0.7158208,0.66659122868,0,0,-0.447388,80.1, 2.5, 2.4,0,0,1024,1024,1024,1024,0,0,0,0,103.2,0,0,99,4.328,4.328,0,0,0,0,0.612,83.12,2.262344888668,0.328084,10,Assisted_Takeoff,
1400,2025-05-06 18:21:05,-22.9749832070634,-42.0209535343109,0.328084,0.328084,1.934260888668,2.262344888668,0.656168,0,0.66949149124,1.03937667368,21,5,8.698,2.262344888668,0.328084,0.7158208,0.66949149124,0,0,-0.223694,79, 2.3, 2.6,0,0,1024,1024,1028,1024,0,0,1,0,102.9,0,0,99,4.328,4.328,0,0,0,0,0.612,83.12,2.262344888668,0.328084,10,Assisted_Takeoff,
1500,2025-05-06 18:21:05,-22.9749832505591,-42.0209535940754,0.328084,0.328084,1.934260888668,2.262344888668,0.656168,0,0.6949311246,1.06496722568,21,5,8.698,2.262344888668,0.328084,0.7158208,0.6949311246,0,0,-0.223694,78.8, 2.5, 3,0,0,1024,1024,1093,1024,0,0,10,0,102.3,0,0,99,4.328,4.328,0,0,0,0,0.612,83.12,2.262344888668,0.328084,10,Assisted_Takeoff,
1600,2025-05-06 18:21:05,-22.9749832442945,-42.0209534497594,0,0,1.934260888668,1.934260888668,0.656168,0,0.65313978468,1.1135006918,21,5,8.698,2.262344888668,0.328084,0.7158208,0.6949311246,0,0,-0.223694,78.4, 1.5, 2.8,0,0,1024,1024,1093,1024,0,0,10,0,102,0,0,99,4.328,4.328,0,0,0,0,0.612,83.12,1.934260888668,0,10,Assisted_Takeoff,
1700,2025-05-06 18:21:05,-22.9749832573514,-42.0209534347159,0,0,1.934260888668,1.934260888668,0.656168,0,0.65168637256,1.12044294924,22,5,8.698,2.262344888668,0.328084,0.7158208,0.6949311246,0,0,-0.223694,78.2, 1.6, 1.9,0,0,1024,1024,1272,1024,0,0,38,0,101.7,0,0,99,4.328,4.328,0,0,0,0,0.612,83.12,1.934260888668,0,10,Assisted_Takeoff,
1800,2025-05-06 18:21:05,-22.9749832372527,-42.0209534358104,0,0,1.934260888668,1.934260888668,0.656168,0,0.64782154304,1.12778546916,22,5,8.698,2.262344888668,0.328084,0.7158208,0.6949311246,0,0,-0.223694,77.8, 1.2, 1.9,0,0,1024,1024,1470,1024,0,0,68,0,101.5,0,0,99,4.328,4.328,0,0,0,0,0.612,83.12,1.934260888668,0,10,Assisted_Takeoff,
1900,2025-05-06 18:21:06,-22.9749832226533,-42.0209534226803,0,0,1.934260888668,1.934260888668,0.656168,0,0.64117784204,1.13470147988,22,5,8.656,2.262344888668,0.328084,0.7158208,0.6949311246,0,0,-0.223694,77.6, 2.1, 1.3,0,0,1024,1024,1567,1024,0,0,82,0,101.2,0,0,99,4.332,4.33,0,0,0,0,1.499,83.12,1.934260888668,0,10,Assisted_Takeoff,
2000,2025-05-06 18:21:06,-22.9749832521033,-42.0209532270389,0,0,1.934260888668,1.934260888668,0.656168,0,0.59462600328,1.20129268936,22,5,8.656,2.262344888668,0.328084,0.7158208,0.6949311246,0,0,-0.223694,76.7, 5.6, 0.8,0,0,1024,1024,1570,1024,0,0,83,0,100.6,0,0,99,4.332,4.33,0,0,0,0,1.499,83.12,1.934260888668,0,10,Assisted_Takeoff,
2100,2025-05-06 18:21:06,-22.9749833125532,-42.0209532377038,0,0,1.934260888668,1.934260888668,0.656168,0,0.61137469148,1.22363520976,22,5,8.656,2.262344888668,0.328084,0.7158208,0.6949311246,0,-0.223694,-0.223694,75.2, 10.7, 2.4,0,0,1024,1024,1551,1024,0,0,80,0,99,0,0,99,4.332,4.33,0,0,0,0,1.499,83.12,1.934260888668,0,10,Assisted_Takeoff,
2200,2025-05-06 18:21:06,-22.9749833994237,-42.0209534159027,0,0,1.934260888668,1.934260888668,0.656168,0.7158208,0.67774608468,1.29136815156,22,5,8.656,2.262344888668,0.328084,0.7158208,0.6949311246,-0.223694,-0.671082,-0.447388,75.3, 16.6, 4.5,0,0,1024,1024,1481,1024,0,0,69,0,97.9,0,0,99,4.332,4.33,0,0,0,0,1.499,83.12,1.934260888668,0,10,Assisted_Takeoff,
2300,2025-05-06 18:21:06,-22.9749835729454,-42.0209538700415,0,0,1.934260888668,1.934260888668,0.656168,1.7000744,0.83756892444,1.45653219884,22,5,8.656,2.262344888668,0.328084,1.7000744,0.83756892444,-0.671082,-1.565858,-0.447388,76, 19.9, 5,0,0,1024,1024,1449,1024,0,0,64,0,97.8,0,0,99,4.332,4.33,0,0,0,0,1.499,83.12,1.934260888668,0,6,P-GPS,
2400,2025-05-06 18:21:06,-22.9749839064874,-42.0209547916039,0,0,1.934260888668,1.934260888668,0.656168,2.908022,1.16290358052,1.78915360056,22,5,8.656,2.262344888668,0.328084,2.908022,1.16290358052,-1.11847,-2.684328,-0.894776,75, 13.9, 1.6,0,0,1024,1024,1449,1024,0,0,64,0,97.8,0,0,99,4.332,4.33,0,0,0,0,1.499,83.12,1.934260888668,0,6,P-GPS,"Punto de origen actualizado. Altitud de RPO establecida en 100m (Code: 30213)"
2500,2025-05-06 18:21:06,-22.9749843938481,-42.0209560622444,0.328084,0.328084,1.934260888668,2.262344888668,0.984252,3.6238428,1.62118771592,2.25152894344,22,5,8.656,2.262344888668,0.328084,3.6238428,1.62118771592,-1.342164,-3.35541,-1.11847,74.5, -4.7, -1.4,0,0,1024,1024,1408,1024,0,0,58,0,97.8,0,0,99,4.332,4.33,0,0,0,0,1.499,83.12,2.262344888668,0.328084,6,P-GPS,
2600,2025-05-06 18:21:06,-22.9749849527712,-42.0209576252519,0.656168,0.656168,1.934260888668,2.590428888668,2.296588,3.3330406,2.18051516164,2.81476715044,22,5,8.656,2.590428888668,0.656168,3.6238428,2.18051516164,-1.11847,-3.131716,-1.565858,74.8, -17.5, -1.8,0,0,1024,1024,1441,1024,0,0,63,0,97.8,0,0,99,4.332,4.33,0,0,0,0,1.499,83.12,2.590428888668,0.656168,6,P-GPS,
2700,2025-05-06 18:21:06,-22.9749854199706,-42.0209589657603,0.984252,0.984252,1.934260888668,2.918512888668,2.624672,2.908022,2.65958998012,3.2962271396,22,5,8.656,2.918512888668,0.984252,3.6238428,2.65958998012,-1.11847,-2.684328,-2.013246,74.7, -20.6, -1.9,0,0,1024,1024,1395,1024,0,0,56,0,97.8,0,0,99,4.332,4.33,0,0,0,0,1.499,83.12,2.918512888668,0.984252,6,P-GPS,
2800,2025-05-06 18:21:06,-22.9749858158893,-42.0209602041696,1.312336,1.312336,1.934260888668,3.246596888668,2.952756,2.125093,3.09732293376,3.7365814844,22,5,8.656,3.246596888668,1.312336,3.6238428,3.09732293376,-0.671082,-2.013246,-2.23694,74.3, -19.7, -2,0,0,1024,1024,1024,1024,0,0,0,0,97.8,0,0,99,4.332,4.33,0,0,0,0,1.499,83.12,3.246596888668,1.312336,6,P-GPS,
2900,2025-05-06 18:21:06,-22.9749861040709,-42.0209617067788,1.968504,1.968504,1.934260888668,3.902764888668,3.28084,1.6329662,3.601214026,4.2521654904,22,5,8.547,3.902764888668,1.968504,3.6238428,3.601214026,-0.447388,-1.565858,-2.460634,73.8, -15.7, -1.9,0,0,1024,1024,1031,1024,0,0,1,0,97.8,0,0,99,4.228,4.223,0,0,0,0,2.539,83.3,3.902764888668,1.968504,6,P-GPS,
3000,2025-05-06 18:21:07,-22.9749862164971,-42.0209628229747,2.296588,2.296588,1.934260888668,4.230848888668,3.608924,1.4092722,3.963746846,4.6293308568,22,5,8.547,4.230848888668,2.296588,3.6238428,3.963746846,-0.447388,-1.342164,-2.460634,73.7, -13.1, -0.9,0,0,1024,1024,1126,1024,0,0,15,0,97.8,0,0,99,4.228,4.223,0,0,0,0,2.539,83.3,4.230848888668,2.296588,6,P-GPS,
3100,2025-05-06 18:21:07,-22.9749862630112,-42.0209637959756,2.624672,2.624672,1.934260888668,4.558932888668,3.937008,1.1408394,4.2753282208,4.9566274552,22,5,8.547,4.558932888668,2.624672,3.6238428,4.2753282208,-0.223694,-1.11847,-2.23694,73.7, -12.3, -0.7,0,0,1024,1024,1404,1024,0,0,58,0,97.8,0,0,99,4.228,4.223,0,0,0,0,2.539,83.3,4.558932888668,2.624672,6,P-GPS,
3200,2025-05-06 18:21:07,-22.9749861078001,-42.0209644638059,2.952756,2.952756,1.934260888668,4.887016888668,3.937008,0.9171454,4.4684384632,5.187992292,22,5,8.547,4.887016888668,2.952756,3.6238428,4.4684384632,-0.223694,-0.894776,-1.789552,73.9, -10.6, -0.4,0,0,1024,1024,1404,1024,0,0,58,0,97.8,0,0,99,4.228,4.223,0,0,0,0,2.539,83.3,4.887016888668,2.952756,6,P-GPS,
3300,2025-05-06 18:21:07,-22.97498542351,-42.020965424019,2.952756,2.952756,1.934260888668,4.887016888668,4.265092,0.894776,4.707677316,5.5958663208,22,5,8.547,4.887016888668,2.952756,3.6238428,4.707677316,0,-0.894776,-1.342164,74.2, -9.7, 0.2,0,0,1024,1024,1441,1024,0,0,63,0,97.8,0,0,99,4.228,4.223,0,0,0,0,2.539,83.3,4.887016888668,2.952756,6,P-GPS,
3400,2025-05-06 18:21:07,-22.9749853216313,-42.0209658188941,3.28084,3.28084,1.934260888668,5.215100888668,4.593176,0.894776,4.8275264012,5.7336287924,22,5,8.547,5.215100888668,3.28084,3.6238428,4.8275264012,0,-0.894776,-1.565858,74.4, -9.7, 0.2,0,0,1024,1024,1024,1024,0,0,0,0,97.8,0,0,99,4.228,4.223,0,0,0,0,2.539,83.3,5.215100888668,3.28084,6,P-GPS,
3500,2025-05-06 18:21:07,-22.9749852358563,-42.0209661833655,3.608924,3.608924,1.934260888668,5.543184888668,4.593176,0.894776,4.9395998956,5.8599739408,22,5,8.547,5.543184888668,3.608924,3.6238428,4.9395998956,0,-0.894776,-1.565858,74.7, -11, 0,0,0,1024,1024,1024,1024,0,0,0,0,97.8,0,0,99,4.228,4.223,0,0,0,0,2.539,83.3,5.543184888668,3.608924,6,P-GPS,
3600,2025-05-06 18:21:07,-22.9749852411194,-42.0209666839209,3.937008,3.937008,1.934260888668,5.871268888668,4.92126,1.11847,5.1041340216,6.0281497992,22,5,8.547,5.871268888668,3.937008,3.6238428,5.1041340216,0,-1.11847,-1.11847,74.9, -11.1, -0.2,0,0,1024,1024,1024,1024,0,0,0,0,97.8,0,0,99,4.228,4.223,0,0,0,0,2.539,83.3,5.871268888668,3.937008,6,P-GPS,
3700,2025-05-06 18:21:07,-22.9749851659862,-42.0209667211126,3.937008,3.937008,1.934260888668,5.871268888668,4.92126,1.11847,5.1105316596,6.0582679104,22,5,8.547,5.871268888668,3.937008,3.6238428,5.1105316596,0,-1.11847,-0.894776,75.3, -11, 0,0,0,1024,1024,1024,1024,0,0,0,0,97.8,0,0,99,4.228,4.223,0,0,0,0,2.539,83.3,5.871268888668,3.937008,6,P-GPS,
3800,2025-05-06 18:21:07,-22.9749852955908,-42.0209672798773,3.937008,3.937008,1.934260888668,5.871268888668,4.92126,1.1408394,5.3039371776,6.251804662,22,5,8.547,5.871268888668,3.937008,3.6238428,5.3039371776,-0.223694,-1.11847,-0.671082,75.4, -10.3, -0.5,0,0,1024,1024,1024,1024,0,0,0,0,97.8,0,0,99,4.228,4.223,0,0,0,0,2.539,83.3,5.871268888668,3.937008,6,P-GPS,
3900,2025-05-06 18:21:07,-22.9749854231713,-42.0209677869695,4.265092,4.265092,1.934260888668,6.199352888668,5.249344,0.9171454,5.4802823276,6.4284122792,22,5,8.528,6.199352888668,4.265092,3.6238428,5.4802823276,-0.223694,-0.894776,-0.447388,75.7, -9.6, -0.2,0,0,1024,1024,1024,1024,0,0,0,0,97.8,0,0,99,4.252,4.247,0,0,0,0,4.737,83.3,6.199352888668,4.265092,6,P-GPS,
4000,2025-05-06 18:21:08,-22.9749855430915,-42.0209683059975,4.265092,4.265092,1.934260888668,6.199352888668,5.249344,0.9171454,5.659941126,6.6081695028,22,5,8.528,6.199352888668,4.265092,3.6238428,5.659941126,-0.223694,-0.894776,-0.223694,75.9, -9, -0.6,0,0,1024,1024,1024,1024,0,0,0,0,97.8,0,0,99,4.252,4.247,0,0,0,0,4.737,83.3,6.199352888668,4.265092,6,P-GPS,
4100,2025-05-06 18:21:08,-22.9749859589587,-42.0209690725878,4.265092,4.265092,1.934260888668,6.199352888668,5.249344,0.9171454,5.9446196128,6.9070212184,22,5,8.528,6.199352888668,4.265092,3.6238428,5.9446196128,-0.223694,-0.894776,0,76, -9.7, -0.9,0,0,1024,1024,1024,1024,0,0,0,0,97.8,0,0,99,4.252,4.247,0,0,0,0,4.737,83.3,6.199352888668,4.265092,6,P-GPS,
4200,2025-05-06 18:21:08,-22.9749860541038,-42.0209695637348,3.937008,3.937008,1.934260888668,5.871268888668,5.249344,0.9171454,6.1131563636,7.075623586,22,5,8.528,6.199352888668,4.265092,3.6238428,6.1131563636,-0.223694,-0.894776,0,76.2, -10, -0.8,0,0,1024,1024,1024,1024,0,0,0,0,97.8,0,0,99,4.252,4.247,0,0,0,0,4.737,83.3,5.871268888668,3.937008,6,P-GPS,
4300,2025-05-06 18:21:08,-22.9749861489761,-42.0209700239551,3.937008,3.937008,1.934260888668,5.871268888668,4.92126,0.9171454,6.2715881272,7.2340553496,22,5,8.528,6.199352888668,4.265092,3.6238428,6.2715881272,-0.223694,-0.894776,0,76.3, -10.4, -1.1,0,0,1024,1024,1024,1024,0,0,0,0,97.8,0,0,99,4.252,4.247,0,0,0,0,4.737,83.3,5.871268888668,3.937008,6,P-GPS,
4400,2025-05-06 18:21:08,-22.9749862618696,-42.0209704959626,3.937008,3.937008,1.934260888668,5.871268888668,4.92126,0.9171454,6.4353348516,7.3978676908,22,5,8.528,6.199352888668,4.265092,3.6238428,6.4353348516,-0.223694,-0.894776,0,76.5, -10.5, -0.9,0,0,1024,1024,1024,1024,0,0,0,0,97.8,0,0,99,4.252,4.247,0,0,0,0,4.737,83.3,5.871268888668,3.937008,6,P-GPS,
4500,2025-05-06 18:21:08,-22.9749863543921,-42.0209709263373,3.937008,3.937008,1.934260888668,5.871268888668,4.92126,0.9171454,6.5837928616,7.5463257008,22,5,8.528,6.199352888668,4.265092,3.6238428,6.5837928616,0,-0.894776,0,76.7, -10.5, -0.5,0,0,1024,1024,1024,1024,0,0,0,0,97.8,0,0,99,4.252,4.247,0,0,0,0,4.737,83.3,5.871268888668,3.937008,6,P-GPS,
4600,2025-05-06 18:21:08,-22.9749865031619,-42.0209714388436,3.937008,3.937008,1.934260888668,5.871268888668,4.92126,0.894776,6.7638125524,7.7268375176,22,5,8.528,6.199352888668,4.265092,3.6238428,6.7638125524,0,-0.894776,0,76.6, -9.6, -0.3,0,0,1024,1024,1024,1024,0,0,0,0,97.8,0,0,99,4.252,4.247,0,0,0,0,4.737,83.3,5.871268888668,3.937008,6,P-GPS,
4700,2025-05-06 18:21:08,-22.9749865624299,-42.0209718315372,3.937008,3.937008,1.934260888668,5.871268888668,4.92126,0.894776,6.89714589,7.8604989392,22,5,8.528,6.199352888668,4.265092,3.6238428,6.89714589,0,-0.894776,0,76.8, -10, 0,0,0,1024,1024,1024,1024,0,0,0,0,97.8,0,0,99,4.252,4.247,0,0,0,0,4.737,83.3,5.871268888668,3.937008,6,P-GPS,
4800,2025-05-06 18:21:08,-22.9749865582179,-42.0209722562212,3.937008,3.937008,1.934260888668,5.871268888668,4.92126,0.894776,7.03576138,8.0031498624,22,5,8.528,6.199352888668,4.265092,3.6238428,7.03576138,0,-0.894776,0,76.9, -10, 0.2,0,0,1436,1024,1024,1024,62,0,0,0,97.8,0,0,99,4.252,4.247,0,0,0,0,4.737,83.3,5.871268888668,3.937008,6,P-GPS,
4900,2025-05-06 18:21:08,-22.9749865487778,-42.0209726560705,3.937008,3.937008,1.934260888668,5.871268888668,4.92126,0.671082,7.1659451112,8.1375002604,22,5,8.528,6.199352888668,4.265092,3.6238428,7.1659451112,0,-0.671082,0,76.9, -10.3, 0,0,0,1682,1024,1024,1024,100,0,0,0,97.8,0,0,99,4.252,4.247,0,0,0,0,4.737,83.3,5.871268888668,3.937008,6,P-GPS,
5000,2025-05-06 18:21:09,-22.9749863891073,-42.0209732529545,3.937008,3.937008,1.934260888668,5.871268888668,4.92126,0.671082,7.3494424924,8.346292918,22,5,8.501,6.199352888668,4.265092,3.6238428,7.3494424924,0,-0.671082,0,77.1, -17.4, 0.5,0,0,1684,1024,1024,1024,100,0,0,0,97.8,0,0,99,4.243,4.243,0,0,0,0,3.702,83.3,5.871268888668,3.937008,6,P-GPS,
5100,2025-05-06 18:21:09,-22.9749863526049,-42.0209735546161,3.937008,3.937008,1.934260888668,5.871268888668,4.92126,0.447388,7.4459319968,8.448491084,22,5,8.501,6.199352888668,4.265092,3.6238428,7.4459319968,0,-0.447388,0,77.1, -20, 0.3,0,0,1684,1024,1024,1024,100,0,0,0,97.8,0,0,99,4.243,4.243,0,0,0,0,3.702,83.3,5.871268888668,3.937008,6,P-GPS,
5200,2025-05-06 18:21:09,-22.9749863155277,-42.020973676277,3.937008,3.937008,1.934260888668,5.871268888668,4.92126,0,7.483267956,8.4915685132,22,5,8.501,6.199352888668,4.265092,3.6238428,7.483267956,0,0,0,77.1, -20.2, 0.4,0,0,1684,1024,1024,1024,100,0,0,0,97.8,0,0,99,4.243,4.243,0,0,0,0,3.702,83.3,5.871268888668,3.937008,6,P-GPS,
5300,2025-05-06 18:21:09,-22.9749862500479,-42.0209736209464,3.937008,3.937008,1.934260888668,5.871268888668,4.92126,0.223694,7.4603348844,8.521817858,22,5,8.501,6.199352888668,4.265092,3.6238428,7.483267956,0,0.223694,0,77.2, -20.3, 0.1,0,0,1684,1024,1024,1024,100,0,0,0,97.8,0,0,99,4.243,4.243,0,0,0,0,3.702,83.3,5.871268888668,3.937008,6,P-GPS,
5400,2025-05-06 18:21:09,-22.9749861203977,-42.0209734954599,3.937008,3.937008,1.934260888668,5.871268888668,4.92126,0.7158208,7.4098099484,8.5851708784,22,5,8.501,6.199352888668,4.265092,3.6238428,7.483267956,0.223694,0.671082,0,77.3, -19.9, 0.3,0,0,1684,1024,1024,1024,100,0,0,0,97.8,0,0,99,4.243,4.243,0,0,0,0,3.702,83.3,5.871268888668,3.937008,6,P-GPS,
5500,2025-05-06 18:21:09,-22.9749859755851,-42.020973126442,3.937008,3.937008,1.934260888668,5.871268888668,4.593176,1.1408394,7.2780842224,8.7199149772,22,5,8.501,6.199352888668,4.265092,3.6238428,7.483267956,0.223694,1.11847,0,77.4, -19.6, 0.8,0,0,1684,1024,1024,1024,100,0,0,0,97.8,0,0,99,4.243,4.243,0,0,0,0,3.702,83.3,5.871268888668,3.937008,6,P-GPS,
5600,2025-05-06 18:21:09,-22.9749857613763,-42.0209725361333,3.937008,3.937008,1.934260888668,5.871268888668,4.92126,1.5882274,7.0687666304,8.933071152,22,5,8.501,6.199352888668,4.265092,3.6238428,7.483267956,0.223694,1.565858,0,77.4, -19.7, 0.4,0,0,1684,1024,1024,1024,100,0,0,0,97.8,0,0,99,4.243,4.243,0,0,0,0,3.702,83.3,5.871268888668,3.937008,6,P-GPS,
5700,2025-05-06 18:21:09,-22.9749855424068,-42.0209718241978,3.937008,3.937008,1.934260888668,5.871268888668,4.92126,1.8342908,6.8191603232,9.185203706,22,5,8.501,6.199352888668,4.265092,3.6238428,7.483267956,0.447388,1.789552,0,77.5, -19.9, 0.1,0,0,1684,1024,1024,1024,100,0,0,0,97.8,0,0,99,4.243,4.243,0,0,0,0,3.702,83.3,5.871268888668,3.937008,6,P-GPS,
5800,2025-05-06 18:21:09,-22.9749852412676,-42.0209706867729,3.937008,3.937008,1.934260888668,5.871268888668,4.92126,2.2816788,6.4238191032,9.5827430888,22,5,8.501,6.199352888668,4.265092,3.6238428,7.483267956,0.447388,2.23694,0,77.6, -19.7, 0.2,0,0,1684,1024,1024,1024,100,0,0,0,97.8,0,0,99,4.243,4.243,0,0,0,0,3.702,83.3,5.871268888668,3.937008,6,P-GPS,
5900,2025-05-06 18:21:09,-22.9749850148235,-42.0209696093619,3.937008,3.937008,1.934260888668,5.871268888668,4.92126,2.5053728,6.0531498,9.9539701348,22,5,8.501,6.199352888668,4.265092,3.6238428,7.483267956,0.447388,2.460634,0,77.7, -19.6, 0.1,0,0,1684,1024,1024,1024,100,0,0,0,97.8,0,0,99,4.243,4.243,0,0,0,0,3.702,83.3,5.871268888668,3.937008,6,P-GPS,
6000,2025-05-06 18:21:10,-22.9749847810563,-42.0209683499945,3.937008,3.937008,1.934260888668,5.871268888668,4.92126,2.9751302,5.6218177652,10.3855318284,22,5,8.501,6.199352888668,4.265092,3.6238428,7.483267956,0.671082,2.908022,0,77.8, -19.9, 0.5,0,0,1684,1024,1024,1024,100,0,0,0,97.8,0,0,99,4.238,4.233,0,0,0,0,3.702,83.3,5.871268888668,3.937008,6,P-GPS,
6100,2025-05-06 18:21:10,-22.9749845496108,-42.0209670220475,3.937008,3.937008,1.934260888668,5.871268888668,4.92126,3.1988242,5.1679463596,10.8395016592,22,5,8.501,6.199352888668,4.265092,3.6238428,7.483267956,0.671082,3.131716,0,77.7, -19.8, 0.3,0,0,1684,1024,1024,1024,100,0,0,0,97.8,0,0,99,4.238,4.233,0,0,0,0,3.702,83.3,5.871268888668,3.937008,6,P-GPS,
6200,2025-05-06 18:21:10,-22.9749842993454,-42.020965489092,3.937008,3.937008,1.934260888668,5.871268888668,4.92126,3.4225182,4.645013272,11.3624675552,22,5,8.501,6.199352888668,4.265092,3.6238428,7.483267956,0.671082,3.35541,0,77.8, -19.9, 0.1,0,0,1684,1024,1024,1024,100,0,0,0,97.8,0,0,99,4.238,4.233,0,0,0,0,3.702,83.3,5.871268888668,3.937008,6,P-GPS,
6300,2025-05-06 18:21:10,-22.9749841389877,-42.0209638548507,3.937008,3.937008,1.934260888668,5.871268888668,4.92126,3.8699062,4.0939633856,11.914534502,22,5,8.501,6.199352888668,4.265092,3.8699062,7.483267956,0.671082,3.802798,0,77.8, -19.7, -0.1,0,0,1684,1024,1024,1024,100,0,0,0,97.8,0,0,99,4.238,4.233,0,0,0,0,3.702,83.3,5.871268888668,3.937008,6,P-GPS,
6400,2025-05-06 18:21:10,-22.9749838873593,-42.0209620676965,3.937008,3.937008,1.934260888668,5.871268888668,4.92126,4.1159696,3.4867783268,12.521817986,22,5,8.501,6.199352888668,4.265092,4.1159696,7.483267956,0.894776,4.026492,0,77.8, -20, 0.1,0,0,1684,1024,1024,1024,100,0,0,0,97.8,0,0,99,4.238,4.233,0,0,0,0,3.702,83.3,5.871268888668,3.937008,6,P-GPS,
6500,2025-05-06 18:21:10,-22.9749836301266,-42.0209602574238,3.937008,3.937008,1.934260888668,5.871268888668,5.249344,4.3396636,2.87165035436,13.1371067196,22,5,8.501,6.199352888668,4.265092,4.3396636,7.483267956,0.894776,4.250186,0,77.9, -20.2, 0.1,0,0,1684,1024,1024,1024,100,0,0,0,97.8,0,0,99,4.238,4.233,0,0,0,0,3.702,83.3,5.871268888668,3.937008,6,P-GPS,
6600,2025-05-06 18:21:10,-22.9749833345388,-42.020958287468,4.265092,4.265092,1.934260888668,6.199352888668,5.249344,4.3396636,2.20131568724,13.807579182,22,5,8.501,6.199352888668,4.265092,4.3396636,7.483267956,0.894776,4.47388,0,77.9, -18.9, 0,0,0,1684,1024,1024,1024,100,0,0,0,97.8,0,0,99,4.238,4.233,0,0,0,0,3.702,83.3,6.199352888668,4.265092,6,P-GPS,
6700,2025-05-06 18:21:10,-22.9749831713557,-42.0209563738444,4.265092,4.265092,1.934260888668,6.199352888668,5.249344,4.7870516,1.5595308898,14.4531172604,21,5,8.501,6.199352888668,4.265092,4.7870516,7.483267956,0.894776,4.697574,0,78, -19, 0.2,0,0,1684,1024,1024,1024,100,0,0,0,97.8,0,0,99,4.238,4.233,0,0,0,0,3.702,83.3,6.199352888668,4.265092,6,P-GPS,
6800,2025-05-06 18:21:10,-22.9749828620099,-42.0209541726469,4.265092,4.265092,1.934260888668,6.199352888668,5.249344,5.0554844,0.81501643028,15.2010831636,21,5,8.501,6.199352888668,4.265092,5.0554844,7.483267956,1.11847,4.921268,0,77.9, -20, 0.2,0,0,1684,1024,1024,1024,100,0,0,0,97.8,0,0,99,4.238,4.233,0,0,0,0,3.702,83.3,6.199352888668,4.265092,6,P-GPS,
6900,2025-05-06 18:21:10,-22.974982557519,-42.020952003006,4.265092,4.265092,1.934260888668,6.199352888668,5.249344,5.256809,0.129251644556,15.93832072,21,5,8.467,6.199352888668,4.265092,5.256809,7.483267956,1.11847,5.144962,0,77.9, -20, 0,0,0,1684,1024,1024,1024,100,0,0,0,97.8,0,0,99,4.229,4.237,0,0,0,0,4.166,83.3,6.199352888668,4.265092,6,P-GPS,
7000,2025-05-06 18:21:11,-22.9749822074569,-42.0209496231769,4.265092,4.265092,1.934260888668,6.199352888668,5.249344,5.480503,0.74602036508,16.7478351816,21,5,8.467,6.199352888668,4.265092,5.480503,7.483267956,1.11847,5.368656,0,77.9, -19.9, 0.1,0,0,1684,1024,1024,1024,100,0,0,0,97.8,0,0,99,4.229,4.237,0,0,0,0,4.166,83.3,6.199352888668,4.265092,6,P-GPS,
7100,2025-05-06 18:21:11,-22.9749819541776,-42.0209473180156,4.265092,4.265092,1.934260888668,6.199352888668,5.249344,5.704197,1.5237205212,17.5276580412,22,5,8.467,6.199352888668,4.265092,5.704197,7.483267956,1.11847,5.59235,0,77.8, -19.6, 0.2,0,0,1684,1024,1024,1024,100,0,0,0,97.8,0,0,99,4.229,4.237,0,0,0,0,4.166,83.3,6.199352888668,4.265092,6,P-GPS,
7200,2025-05-06 18:21:11,-22.9749815357819,-42.0209448444083,4.265092,4.265092,1.934260888668,6.199352888668,5.249344,5.7489358,2.3649771098,18.3724743412,22,5,8.467,6.199352888668,4.265092,5.7489358,7.483267956,1.342164,5.59235,0,78, -20, 0.3,0,0,1684,1024,1024,1024,100,0,0,0,97.8,0,0,99,4.229,4.237,0,0,0,0,4.166,83.3,6.199352888668,4.265092,6,P-GPS,
7300,2025-05-06 18:21:11,-22.974981108752,-42.0209424107398,4.265092,4.265092,1.934260888668,6.199352888668,5.577428,6.1068462,3.19519695264,19.2046922156,22,5,8.467,6.199352888668,4.265092,6.1068462,7.483267956,0.894776,6.039738,0,82.4, -20.2, 0.8,0,0,1684,1024,1024,1024,100,0,0,0,97.8,0,0,99,4.229,4.237,0,0,0,0,4.166,83.3,6.199352888668,4.265092,6,P-GPS,
7400,2025-05-06 18:21:11,-22.9749806664603,-42.0209397226994,4.265092,4.265092,1.934260888668,6.199352888668,5.577428,6.3305402,4.1116143048,20.1219166544,22,5,8.467,6.199352888668,4.265092,6.3305402,7.483267956,0.894776,6.263432,0,82.4, -19.9, 0.9,0,0,1684,1024,1024,1024,100,0,0,0,97.8,0,0,99,4.229,4.237,0,0,0,0,4.166,83.3,6.199352888668,4.265092,6,P-GPS,
7500,2025-05-06 18:21:11,-22.9749803893413,-42.0209371274637,4.265092,4.265092,1.934260888668,6.199352888668,5.577428,6.3305402,4.989009346,20.999508546,22,5,8.467,6.199352888668,4.265092,6.3305402,7.483267956,0.894776,6.263432,0,82.4, -19.7, 1.3,0,0,1684,1024,1024,1024,100,0,0,0,97.8,0,0,99,4.229,4.237,0,0,0,0,4.166,83.3,6.199352888668,4.265092,6,P-GPS,
7600,2025-05-06 18:21:11,-22.9749799406353,-42.0209342113688,4.265092,4.265092,1.934260888668,6.199352888668,5.577428,6.5542342,5.9817587216,21.9926516224,22,5,8.467,6.199352888668,4.265092,6.5542342,7.483267956,0.894776,6.487126,0,82.3, -19.3, 0.7,0,0,1684,1024,1024,1024,100,0,0,0,97.8,0,0,99,4.229,4.237,0,0,0,0,4.166,83.3,6.199352888668,4.265092,6,P-GPS,
7700,2025-05-06 18:21:11,-22.9749795126096,-42.0209313654857,4.265092,4.265092,1.934260888668,6.199352888668,5.577428,6.8002976,6.9501970728,22.961286824,22,5,8.467,6.199352888668,4.265092,6.8002976,7.483267956,1.11847,6.71082,0,82.3, -19.9, 0.4,0,0,1684,1024,1024,1024,100,0,0,0,97.8,0,0,99,4.229,4.237,0,0,0,0,4.166,83.3,6.199352888668,4.265092,6,P-GPS,
7800,2025-05-06 18:21:11,-22.9749789992998,-42.0209284043471,3.937008,3.937008,1.934260888668,5.871268888668,5.577428,7.0239916,7.9615488112,23.973425964,22,5,8.467,6.199352888668,4.265092,7.0239916,7.9615488112,1.11847,6.934514,0,82.4, -19.8, 0.7,0,0,1684,1024,1024,1024,100,0,0,0,97.8,0,0,99,4.229,4.237,0,0,0,0,4.166,83.3,5.871268888668,3.937008,6,P-GPS,
7900,2025-05-06 18:21:11,-22.9749785027251,-42.0209255226137,3.937008,3.937008,1.934260888668,5.871268888668,5.905512,7.0239916,8.9457680028,24.9582357068,22,5,8.463,6.199352888668,4.265092,7.0239916,8.9457680028,1.11847,6.934514,0,82.5, -19.9, 0.8,0,0,1684,1024,1024,1024,100,0,0,0,97.8,0,0,99,4.224,4.215,0,0,0,0,4.275,83.3,5.871268888668,3.937008,6,P-GPS,
8000,2025-05-06 18:21:12,-22.9749778700114,-42.0209227347619,3.937008,3.937008,1.934260888668,5.871268888668,5.905512,7.2476856,9.906824464,25.92273705,22,5,8.463,6.199352888668,4.265092,7.2476856,9.906824464,1.11847,7.158208,0,82.3, -19.8, 0.8,0,0,1684,1024,1024,1024,100,0,0,0,97.8,0,0,99,4.224,4.215,0,0,0,0,4.275,83.3,5.871268888668,3.937008,6,P-GPS,
8100,2025-05-06 18:21:12,-22.9749773709726,-42.0209197674051,3.937008,3.937008,1.934260888668,5.871268888668,5.905512,7.2476856,10.9199150476,26.9359588672,22,5,8.463,6.199352888668,4.265092,7.2476856,10.9199150476,1.11847,7.158208,0,82.5, -20, 1.3,0,0,1684,1024,1024,1024,100,0,0,0,97.8,0,0,99,4.224,4.215,0,0,0,0,4.275,83.3,5.871268888668,3.937008,6,P-GPS,
8200,2025-05-06 18:21:12,-22.9749768453549,-42.0209165045409,3.937008,3.937008,1.934260888668,5.871268888668,6.233596,7.2476856,12.0325135084,28.0486557532,22,5,8.463,6.199352888668,4.265092,7.2476856,12.0325135084,1.11847,7.158208,0,82.4, -19.2, 0.8,0,0,1684,1024,1024,1024,100,0,0,0,97.8,0,0,99,4.224,4.215,0,0,0,0,4.275,83.3,5.871268888668,3.937008,6,P-GPS,
8300,2025-05-06 18:21:12,-22.9749763324144,-42.0209133684217,3.937008,3.937008,1.934260888668,5.871268888668,6.233596,7.4713796,13.1023954324,29.118603294,22,5,8.463,6.199352888668,4.265092,7.4713796,13.1023954324,1.11847,7.381902,0,82.6, -19.9, 1.7,0,0,1684,1024,1024,1024,100,0,0,0,97.8,0,0,99,4.224,4.215,0,0,0,0,4.275,83.3,5.871268888668,3.937008,6,P-GPS,
8400,2025-05-06 18:21:12,-22.9749757218916,-42.0209101241678,3.937008,3.937008,1.934260888668,5.871268888668,6.233596,7.493749,14.2140096412,30.2308736708,22,5,8.463,6.199352888668,4.265092,7.493749,14.2140096412,1.342164,7.381902,0,82.4, -19.6, 1.3,0,0,1684,1024,1024,1024,100,0,0,0,97.8,0,0,99,4.224,4.215,0,0,0,0,4.275,83.3,5.871268888668,3.937008,6,P-GPS,
8500,2025-05-06 18:21:12,-22.9749751784432,-42.0209069970048,3.937008,3.937008,1.934260888668,5.871268888668,6.233596,7.717443,15.2828416964,31.299869768,22,5,8.463,6.199352888668,4.265092,7.717443,15.2828416964,1.342164,7.605596,0,82.4, -19.9, 1.2,0,0,1684,1024,1024,1024,100,0,0,0,97.8,0,0,99,4.224,4.215,0,0,0,0,4.275,83.3,5.871268888668,3.937008,6,P-GPS,
8600,2025-05-06 18:21:12,-22.9749746017009,-42.0209036000631,3.937008,3.937008,1.934260888668,5.871268888668,6.56168,7.717443,16.4430451456,32.4601716424,22,5,8.463,6.199352888668,4.265092,7.717443,16.4430451456,1.342164,7.605596,0,82.2, -20.4, 0.9,0,0,1684,1024,1024,1024,100,0,0,0,97.8,0,0,99,4.224,4.215,0,0,0,0,4.275,83.3,5.871268888668,3.937008,6,P-GPS,
8700,2025-05-06 18:21:12,-22.9749740449717,-42.0209003361148,3.937008,3.937008,1.934260888668,5.871268888668,6.56168,7.717443,17.5580058112,33.575132308,22,5,8.463,6.199352888668,4.265092,7.717443,17.5580058112,1.342164,7.605596,0,82.2, -20.2, 0.8,0,0,1684,1024,1024,1024,100,0,0,0,97.8,0,0,99,4.224,4.215,0,0,0,0,4.275,83.3,5.871268888668,3.937008,6,P-GPS,
8800,2025-05-06 18:21:12,-22.9749733902416,-42.0208969790967,3.937008,3.937008,1.934260888668,5.871268888668,6.56168,7.941137,18.7099087352,34.728019484,22,5,8.463,6.199352888668,4.265092,7.941137,18.7099087352,1.342164,7.82929,0,82.4, -19.6, 0.9,0,0,1684,1024,1024,1024,100,0,0,0,97.8,0,0,99,4.224,4.215,0,0,0,0,4.275,83.3,5.871268888668,3.937008,6,P-GPS,
8900,2025-05-06 18:21:13,-22.9749728187729,-42.0208936697394,3.937008,3.937008,1.934260888668,5.871268888668,6.56168,8.164831,19.8408470916,35.858925032,22,5,8.463,6.199352888668,4.265092,8.164831,19.8408470916,1.342164,8.052984,0,82.4, -20.3, 1.5,0,0,1422,1024,1024,1024,60,0,0,0,97.8,0,0,99,4.224,4.215,0,0,0,0,4.275,83.3,5.871268888668,3.937008,6,P-GPS,
9000,2025-05-06 18:21:13,-22.9749722334035,-42.0208901596055,3.608924,3.608924,1.934260888668,5.543184888668,6.56168,8.164831,21.0391082848,37.0570878,22,5,8.452,6.199352888668,4.265092,8.164831,21.0391082848,1.342164,8.052984,0,82.4, -19.2, 1.3,0,0,1024,1024,1024,1024,0,0,0,0,97.8,0,0,99,4.207,4.195,0,0,0,0,4.504,83.3,5.543184888668,3.608924,6,P-GPS,
9100,2025-05-06 18:21:13,-22.9749716835582,-42.020886776133,3.608924,3.608924,1.934260888668,5.543184888668,6.889764,8.164831,22.1932093716,38.211287312,22,5,8.452,6.199352888668,4.265092,8.164831,22.1932093716,1.342164,8.052984,0,82, -19.6, 1.7,0,0,1024,1024,1024,1024,0,0,0,0,97.8,0,0,99,4.207,4.195,0,0,0,0,4.504,83.3,5.543184888668,3.608924,6,P-GPS,
9200,2025-05-06 18:21:13,-22.9749710194791,-42.0208831347643,3.608924,3.608924,1.934260888668,5.543184888668,6.889764,8.164831,23.4398629548,39.458334596,22,5,8.452,6.199352888668,4.265092,8.164831,23.4398629548,1.342164,8.052984,0,82.9, 1.4, 4.2,0,0,1024,1024,1024,1024,0,0,0,0,97.8,0,0,99,4.207,4.195,0,0,0,0,4.504,83.3,5.543184888668,3.608924,6,P-GPS,
9300,2025-05-06 18:21:13,-22.974970524047,-42.0208798972519,3.608924,3.608924,1.934260888668,5.543184888668,7.217848,7.0016222,24.5422251948,40.560696836,22,5,8.452,6.199352888668,4.265092,8.164831,24.5422251948,0.894776,6.934514,-0.671082,83, 19.2, 2.1,0,0,1024,1024,1024,1024,0,0,0,0,97.8,0,0,99,4.207,4.195,0,0,0,0,4.504,83.3,5.543184888668,3.608924,6,P-GPS,
9400,2025-05-06 18:21:13,-22.9749701661704,-42.0208770646891,3.608924,3.608924,1.934260888668,5.543184888668,7.545932,5.8831522,25.5019365116,41.520998704,22,5,8.452,6.199352888668,4.265092,8.164831,25.5019365116,0.894776,5.816044,-1.11847,82.5, 17.6, 1.4,0,0,1024,1024,1024,1024,0,0,0,0,97.8,0,0,99,4.207,4.195,0,0,0,0,4.504,83.3,5.543184888668,3.608924,6,P-GPS,
9500,2025-05-06 18:21:13,-22.9749698762047,-42.0208747194169,3.608924,3.608924,1.934260888668,5.543184888668,7.874016,5.1897008,26.2961950672,42.315946236,22,5,8.452,6.199352888668,4.265092,8.164831,26.2961950672,0.671082,5.144962,-0.671082,82.6, 19, 1.1,0,0,1024,1024,1024,1024,0,0,0,0,97.8,0,0,99,4.207,4.195,0,0,0,0,4.504,83.3,5.543184888668,3.608924,6,P-GPS,
9600,2025-05-06 18:21:13,-22.9749695277006,-42.0208726233172,3.28084,3.28084,1.934260888668,5.215100888668,8.2021,4.2949248,27.0116806544,43.03149744,22,5,8.452,6.199352888668,4.265092,8.164831,27.0116806544,0.671082,4.250186,0,82.7, 18.9, 1.5,0,0,1024,1024,1024,1024,0,0,0,0,97.8,0,0,99,4.207,4.195,0,0,0,0,4.504,83.3,5.215100888668,3.28084,6,P-GPS,
9700,2025-05-06 18:21:13,-22.9749691851599,-42.0208709849458,2.952756,2.952756,1.934260888668,4.887016888668,8.2021,3.1540854,27.575296158,43.59580192,22,5,8.452,6.199352888668,4.265092,8.164831,27.575296158,0.447388,3.131716,0,82.6, 20.6, 0.8,0,0,1024,1024,1024,1024,0,0,0,0,97.8,0,0,99,4.207,4.195,0,0,0,0,4.504,83.3,4.887016888668,2.952756,6,P-GPS,
9800,2025-05-06 18:21:13,-22.974969100664,-42.020869788577,2.624672,2.624672,1.934260888668,4.558932888668,8.530184,2.2816788,27.9764772732,43.998689072,22,5,8.452,6.199352888668,4.265092,8.164831,27.9764772732,0.447388,2.23694,0.223694,82.9, 19, 1.7,0,0,1024,1024,1024,1024,0,0,0,0,97.8,0,0,99,4.207,4.195,0,0,0,0,4.504,83.3,4.558932888668,2.624672,6,P-GPS,
9900,2025-05-06 18:21:13,-22.974969078036,-42.0208690411896,2.624672,2.624672,1.934260888668,4.558932888668,8.530184,1.3645334,28.2252633704,44.250001416,22,5,8.399,6.199352888668,4.265092,8.164831,28.2252633704,0.223694,1.342164,0.223694,83, 14.3, 2.4,0,0,1024,1024,1024,1024,0,0,0,0,97.8,0,0,99,4.249,4.247,0,0,0,0,4.786,83.3,4.558932888668,2.624672,6,P-GPS,
10000,2025-05-06 18:21:14,-22.9749690768838,-42.0208687886207,2.296588,2.296588,1.934260888668,4.230848888668,8.530184,0.671082,28.3089575988,44.334975172,22,5,8.399,6.199352888668,4.265092,8.164831,28.3089575988,0,0.671082,0.447388,83, 9.4, 2.9,0,0,1024,1024,1024,1024,0,0,0,0,97.8,0,0,99,4.249,4.247,0,0,0,0,4.786,83.3,4.230848888668,2.296588,6,P-GPS,
10100,2025-05-06 18:21:14,-22.9749692632438,-42.0208692774746,2.296588,2.296588,1.934260888668,4.230848888668,8.530184,0.223694,28.1355980132,44.512468616,22,5,8.399,6.199352888668,4.265092,8.164831,28.3089575988,0,0.223694,0.223694,82.6, 5.2, 0.9,0,0,1024,1024,1024,1024,0,0,0,0,97.8,0,0,99,4.249,4.247,0,0,0,0,4.786,83.3,4.230848888668,2.296588,6,P-GPS,
10200,2025-05-06 18:21:14,-22.9749691644974,-42.0208694206804,2.296588,2.296588,1.934260888668,4.230848888668,8.530184,0,28.0942922376,44.572507988,22,5,8.399,6.199352888668,4.265092,8.164831,28.3089575988,0,0,0,82.7, 1.6, 1.4,0,0,1024,1024,1024,1024,0,0,0,0,97.8,0,0,99,4.249,4.247,0,0,0,0,4.786,83.3,4.230848888668,2.296588,6,P-GPS,
10300,2025-05-06 18:21:14,-22.9749691071411,-42.0208697114468,2.296588,2.296588,1.934260888668,4.230848888668,8.530184,0.223694,28.0016085076,44.672573608,22,5,8.399,6.199352888668,4.265092,8.164831,28.3089575988,0,-0.223694,0,82.8, -1.5, 1.8,0,0,1024,1024,1024,1024,0,0,0,0,97.8,0,0,99,4.249,4.247,0,0,0,0,4.786,83.3,4.230848888668,2.296588,6,P-GPS,
10400,2025-05-06 18:21:14,-22.9749692002034,-42.0208702015848,2.296588,2.296588,1.934260888668,4.230848888668,8.530184,0.4921268,27.8335966912,44.840552616,22,5,8.399,6.199352888668,4.265092,8.164831,28.3089575988,-0.223694,-0.447388,0,82.6, -3.1, 1.1,0,0,1024,1024,1024,1024,0,0,0,0,97.8,0,0,99,4.249,4.247,0,0,0,0,4.786,83.3,4.230848888668,2.296588,6,P-GPS,
10500,2025-05-06 18:21:14,-22.9749691602732,-42.0208711072896,2.296588,2.296588,1.934260888668,4.230848888668,8.530184,0.7158208,27.5363853956,45.145342652,22,5,8.399,6.199352888668,4.265092,8.164831,28.3089575988,-0.223694,-0.671082,0,82.6, -5.4, 0.3,0,0,1024,1024,1024,1024,0,0,0,0,97.8,0,0,99,4.249,4.247,0,0,0,0,4.786,83.3,4.230848888668,2.296588,6,P-GPS,
10600,2025-05-06 18:21:14,-22.9749693377679,-42.0208716383887,2.296588,2.296588,1.934260888668,4.230848888668,8.530184,0.7158208,27.3495087492,45.334975204,22,5,8.399,6.199352888668,4.265092,8.164831,28.3089575988,-0.223694,-0.671082,0,82.8, -6.3, 0.6,0,0,1024,1024,1024,1024,0,0,0,0,97.8,0,0,99,4.249,4.247,0,0,0,0,4.786,83.3,4.230848888668,2.296588,6,P-GPS,
10700,2025-05-06 18:21:14,-22.9749695188142,-42.0208721436289,2.296588,2.296588,1.934260888668,4.230848888668,8.530184,0.7158208,27.1709654364,45.517061824,22,5,8.399,6.199352888668,4.265092,8.164831,28.3089575988,-0.223694,-0.671082,0,82.6, -9.2, -0.2,0,0,1024,1024,1024,1024,0,0,0,0,97.8,0,0,99,4.249,4.247,0,0,0,0,4.786,83.3,4.230848888668,2.296588,6,P-GPS,
10800,2025-05-06 18:21:14,-22.974969724919,-42.0208724597239,2.624672,2.624672,1.934260888668,4.558932888668,8.530184,0.4921268,27.0535769812,45.647311172,22,5,8.399,6.199352888668,4.265092,8.164831,28.3089575988,-0.223694,-0.447388,0,82.6, -9.6, -0.6,0,0,1024,1024,1024,1024,0,0,0,0,97.8,0,0,99,4.249,4.247,0,0,0,0,4.786,83.3,4.558932888668,2.624672,6,P-GPS,
10900,2025-05-06 18:21:14,-22.9749699960501,-42.0208722218477,2.624672,2.624672,1.934260888668,4.558932888668,8.530184,0.6263432,27.1158801328,45.77427968,22,5,8.343,6.199352888668,4.265092,8.164831,28.3089575988,-0.447388,-0.447388,0,82.5, -8, -1.5,0,0,1024,1024,1024,1024,0,0,0,0,97.8,0,0,99,4.228,4.223,0,0,0,0,4.64,83.3,4.558932888668,2.624672,6,P-GPS,
11000,2025-05-06 18:21:15,-22.9749701967591,-42.0208724480553,2.624672,2.624672,1.934260888668,4.558932888668,8.530184,0.4921268,27.0289378728,45.879922728,22,5,8.343,6.199352888668,4.265092,8.164831,28.3089575988,-0.223694,-0.447388,0,82.8, -6.9, -1.6,0,0,1024,1024,1024,1024,0,0,0,0,97.8,0,0,99,4.228,4.223,0,0,0,0,4.64,83.3,4.558932888668,2.624672,6,P-GPS,
11100,2025-05-06 18:21:15,-22.9749703817975,-42.0208726734904,2.624672,2.624672,1.934260888668,4.558932888668,8.858268,0.4921268,26.9433079488,45.981300684,22,5,8.343,6.199352888668,4.265092,8.164831,28.3089575988,-0.223694,-0.447388,0,82.4, -6, -2.3,0,0,1024,1024,1024,1024,0,0,0,0,97.8,0,0,99,4.228,4.223,0,0,0,0,4.64,83.3,4.558932888668,2.624672,6,P-GPS,
11200,2025-05-06 18:21:15,-22.9749705153869,-42.0208729218907,2.952756,2.952756,1.934260888668,4.887016888668,8.858268,0.4921268,26.8531176572,46.078085464,22,5,8.343,6.199352888668,4.265092,8.164831,28.3089575988,-0.223694,-0.447388,0,82.7, -7.8, -1.5,0,0,1024,1024,1024,1024,0,0,0,0,97.8,0,0,99,4.228,4.223,0,0,0,0,4.64,83.3,4.887016888668,2.952756,6,P-GPS,
11300,2025-05-06 18:21:15,-22.9749706406175,-42.0208731644938,2.952756,2.952756,1.934260888668,4.887016888668,8.858268,0.4921268,26.765420804,46.171589404,22,5,8.343,6.199352888668,4.265092,8.164831,28.3089575988,-0.223694,-0.447388,0,82.6, -8, -1.8,0,0,1024,1024,1024,1024,0,0,0,0,97.8,0,0,99,4.228,4.223,0,0,0,0,4.64,83.3,4.887016888668,2.952756,6,P-GPS,
11400,2025-05-06 18:21:15,-22.9749706183144,-42.0208730836509,2.952756,2.952756,1.934260888668,4.887016888668,8.858268,0.7158208,26.7935376028,46.199804628,22,5,8.343,6.199352888668,4.265092,8.164831,28.3089575988,-0.223694,-0.671082,0,82.7, -8.6, -1.7,0,0,1024,1024,1024,1024,0,0,0,0,97.8,0,0,99,4.228,4.223,0,0,0,0,4.64,83.3,4.887016888668,2.952756,6,P-GPS,
11500,2025-05-06 18:21:15,-22.9749707270211,-42.0208733446968,2.952756,2.952756,1.934260888668,4.887016888668,8.858268,0.7158208,26.7006898308,46.29593324,22,5,8.343,6.199352888668,4.265092,8.164831,28.3089575988,-0.223694,-0.671082,0,82.5, -8.4, -1.5,0,0,1024,1024,1024,1024,0,0,0,0,97.8,0,0,99,4.228,4.223,0,0,0,0,4.64,83.3,4.887016888668,2.952756,6,P-GPS,
11600,2025-05-06 18:21:15,-22.9749708121212,-42.0208736669332,2.952756,2.952756,1.934260888668,4.887016888668,8.858268,0.671082,26.588911612,46.408794136,22,5,8.343,6.199352888668,4.265092,8.164831,28.3089575988,0,-0.671082,0,82.5, -8.5, -0.7,0,0,1024,1024,1024,1024,0,0,0,0,97.8,0,0,99,4.228,4.223,0,0,0,0,4.64,83.3,4.887016888668,2.952756,6,P-GPS,
11700,2025-05-06 18:21:15,-22.9749708823991,-42.0208739861919,2.952756,2.952756,1.934260888668,4.887016888668,8.858268,0.671082,26.4789706636,46.51903036,22,5,8.343,6.199352888668,4.265092,8.164831,28.3089575988,0,-0.671082,0,82.6, -8.3, -0.1,0,0,1024,1024,1024,1024,0,0,0,0,97.8,0,0,99,4.228,4.223,0,0,0,0,4.64,83.3,4.887016888668,2.952756,6,P-GPS,
11800,2025-05-06 18:21:15,-22.9749708917456,-42.0208743470073,3.28084,3.28084,1.934260888668,5.215100888668,8.858268,0.671082,26.3587278776,46.640093356,22,5,8.343,6.199352888668,4.265092,8.164831,28.3089575988,0,-0.894776,0,82.6, -9.5, 0.2,0,0,1024,1024,1024,1024,0,0,0,0,97.8,0,0,99,4.228,4.223,0,0,0,0,4.64,83.3,5.215100888668,3.28084,6,P-GPS,
11900,2025-05-06 18:21:16,-22.9749709811235,-42.0208747303783,3.28084,3.28084,1.934260888668,5.215100888668,8.858268,0.9171454,26.2264444088,46.772967376,22,5,8.343,6.199352888668,4.265092,8.164831,28.3089575988,-0.223694,-0.894776,0,82.6, -9, -0.3,0,0,1024,1024,1024,1024,0,0,0,0,97.8,0,0,99,4.228,4.223,0,0,0,0,4.64,83.3,5.215100888668,3.28084,6,P-GPS,
12000,2025-05-06 18:21:16,-22.9749710764584,-42.0208751611868,3.28084,3.28084,1.934260888668,5.215100888668,8.530184,0.9171454,26.0780520156,46.921917512,22,5,8.47,6.199352888668,4.265092,8.164831,28.3089575988,-0.223694,-0.894776,0,82.5, -9.4, -0.5,0,0,1024,1024,1024,1024,0,0,0,0,97.8,0,0,99,4.227,4.224,0,0,0,0,3.099,83.3,5.215100888668,3.28084,6,P-GPS,
12100,2025-05-06 18:21:16,-22.974971182812,-42.020875553863,3.28084,3.28084,1.934260888668,5.215100888668,8.530184,0.7158208,25.9417331136,47.059384708,22,5,8.47,6.199352888668,4.265092,8.164831,28.3089575988,-0.223694,-0.671082,0,82.6, -9.7, -0.4,0,0,1024,1024,1024,1024,0,0,0,0,97.8,0,0,99,4.227,4.224,0,0,0,0,3.099,83.3,5.215100888668,3.28084,6,P-GPS,
12200,2025-05-06 18:21:16,-22.9749713121549,-42.0208760828778,3.28084,3.28084,1.934260888668,5.215100888668,8.530184,0.7158208,25.758859092,47.243111748,22,5,8.47,6.199352888668,4.265092,8.164831,28.3089575988,-0.223694,-0.671082,0,82.5, -8.7, -1.5,0,0,1024,1024,1024,1024,0,0,0,0,97.8,0,0,99,4.227,4.224,0,0,0,0,3.099,83.3,5.215100888668,3.28084,6,P-GPS,
12300,2025-05-06 18:21:16,-22.9749714567546,-42.0208764596514,3.28084,3.28084,1.934260888668,5.215100888668,8.530184,0.7158208,25.6256897964,47.38025086,22,5,8.47,6.199352888668,4.265092,8.164831,28.3089575988,-0.223694,-0.671082,0,82.7, -8.9, -1,0,0,1024,1024,1024,1024,0,0,0,0,97.8,0,0,99,4.227,4.224,0,0,0,0,3.099,83.3,5.215100888668,3.28084,6,P-GPS,
12400,2025-05-06 18:21:16,-22.9749716191292,-42.0208768671879,3.28084,3.28084,1.934260888668,5.215100888668,8.530184,0.7158208,25.4813328364,47.52952908,22,5,8.47,6.199352888668,4.265092,8.164831,28.3089575988,-0.223694,-0.671082,0,82.6, -9, -1.2,0,0,1024,1024,1024,1024,0,0,0,0,97.8,0,0,99,4.227,4.224,0,0,0,0,3.099,83.3,5.215100888668,3.28084,6,P-GPS,
12500,2025-05-06 18:21:16,-22.9749717676331,-42.0208772437103,3.28084,3.28084,1.934260888668,5.215100888668,8.530184,0.7158208,25.3481307324,47.666996276,22,5,8.47,6.199352888668,4.265092,8.164831,28.3089575988,-0.223694,-0.671082,0,82.5, -10.3, -1.1,0,0,1024,1024,1024,1024,0,0,0,0,97.8,0,0,99,4.227,4.224,0,0,0,0,3.099,83.3,5.215100888668,3.28084,6,P-GPS,
12600,2025-05-06 18:21:16,-22.974971860811,-42.0208775290054,3.28084,3.28084,1.934260888668,5.215100888668,8.530184,0.7158208,25.2482619628,47.768702316,22,5,8.47,6.199352888668,4.265092,8.164831,28.3089575988,-0.223694,-0.671082,0,82.3, -9.6, -1.9,0,0,1024,1024,1024,1024,0,0,0,0,97.8,0,0,99,4.227,4.224,0,0,0,0,3.099,83.3,5.215100888668,3.28084,6,P-GPS,
12700,2025-05-06 18:21:16,-22.9749719291401,-42.0208777839471,3.28084,3.28084,1.934260888668,5.215100888668,8.530184,0.447388,25.1598761332,47.857941164,22,5,8.47,6.199352888668,4.265092,8.164831,28.3089575988,0,-0.447388,0,82.3, -8.1, -1.2,0,0,1024,1024,1024,1024,0,0,0,0,97.8,0,0,99,4.227,4.224,0,0,0,0,3.099,83.3,5.215100888668,3.28084,6,P-GPS,
12800,2025-05-06 18:21:16,-22.9749719819982,-42.0208780584947,3.28084,3.28084,1.934260888668,5.215100888668,8.530184,0.447388,25.0658144504,47.952101272,22,5,8.47,6.199352888668,4.265092,8.164831,28.3089575988,0,-0.447388,0,82.5, -7.3, -0.2,0,0,1024,1024,1024,1024,0,0,0,0,97.8,0,0,99,4.227,4.224,0,0,0,0,3.099,83.3,5.215100888668,3.28084,6,P-GPS,
12900,2025-05-06 18:21:16,-22.9749720188511,-42.0208783153067,2.952756,2.952756,1.934260888668,4.887016888668,8.530184,0.447388,24.9784784896,48.039371616,22,5,8.47,6.199352888668,4.265092,8.164831,28.3089575988,0,-0.447388,0,82.5, -7.2, 0.7,0,0,1024,1024,1024,1024,0,0,0,0,97.8,0,0,99,4.227,4.224,0,0,0,0,3.099,83.3,4.887016888668,2.952756,6,P-GPS,
13000,2025-05-06 18:21:17,-22.9749720820563,-42.0208785480558,2.952756,2.952756,1.934260888668,4.887016888668,8.530184,0.447388,24.8977370172,48.121064532,22,5,8.47,6.199352888668,4.265092,8.164831,28.3089575988,0,-0.447388,0,82.5, -8.6, 1.5,0,0,1024,1024,1024,1024,0,0,0,0,97.8,0,0,99,4.227,4.224,0,0,0,0,3.099,83.3,4.887016888668,2.952756,6,P-GPS,
13100,2025-05-06 18:21:17,-22.9749721667228,-42.0208786374594,2.952756,2.952756,1.934260888668,4.887016888668,8.530184,0.447388,24.8634850476,48.164043536,22,5,8.454,6.199352888668,4.265092,8.164831,28.3089575988,0,-0.447388,0,82.6, -8.3, 0.8,0,0,1024,1024,1024,1024,0,0,0,0,97.8,0,0,99,4.228,4.222,0,0,0,0,3.839,83.48,4.887016888668,2.952756,6,P-GPS,
13200,2025-05-06 18:21:17,-22.9749722047559,-42.0208788613778,2.952756,2.952756,1.934260888668,4.887016888668,8.530184,0.447388,24.7870414756,48.240487108,22,5,8.454,6.199352888668,4.265092,8.164831,28.3089575988,0,-0.447388,0,82.5, -8.2, -0.5,0,0,1024,1024,1024,1024,0,0,0,0,97.8,0,0,99,4.228,4.222,0,0,0,0,3.839,83.48,4.887016888668,2.952756,6,P-GPS,
13300,2025-05-06 18:21:17,-22.974972241163,-42.0208790559014,2.952756,2.952756,1.934260888668,4.887016888668,8.2021,0.447388,24.7204404236,48.30708816,22,5,8.454,6.199352888668,4.265092,8.164831,28.3089575988,0,-0.447388,0,82.7, -8, -0.5,0,0,1024,1024,1024,1024,0,0,0,0,97.8,0,0,99,4.228,4.222,0,0,0,0,3.839,83.48,4.887016888668,2.952756,6,P-GPS,
13400,2025-05-06 18:21:17,-22.9749722675007,-42.0208792387005,2.952756,2.952756,1.934260888668,4.887016888668,8.2021,0.447388,24.658301314,48.36942412,22,5,8.454,6.199352888668,4.265092,8.164831,28.3089575988,0,-0.447388,0,82.6, -7.6, -0.1,0,0,1024,1024,1024,1024,0,0,0,0,97.8,0,0,99,4.228,4.222,0,0,0,0,3.839,83.48,4.887016888668,2.952756,6,P-GPS,
13500,2025-05-06 18:21:17,-22.9749721201102,-42.0208793777004,2.952756,2.952756,1.934260888668,4.887016888668,8.2021,0.223694,24.6201123364,48.440618348,22,5,8.454,6.199352888668,4.265092,8.164831,28.3089575988,0,-0.223694,0,82.7, -9, 0,0,0,1024,1024,1024,1024,0,0,0,0,97.8,0,0,99,4.228,4.222,0,0,0,0,3.839,83.48,4.887016888668,2.952756,6,P-GPS,
13600,2025-05-06 18:21:17,-22.9749722148917,-42.0208795529438,2.952756,2.952756,1.934260888668,4.887016888668,8.2021,0.223694,24.556759316,48.50885982,22,5,8.454,6.199352888668,4.265092,8.164831,28.3089575988,0,-0.223694,0,82.7, -9.5, -0.6,0,0,1024,1024,1024,1024,0,0,0,0,97.8,0,0,99,4.228,4.222,0,0,0,0,3.839,83.48,4.887016888668,2.952756,6,P-GPS,
13700,2025-05-06 18:21:17,-22.9749723137053,-42.0208797011744,2.952756,2.952756,1.934260888668,4.887016888668,8.2021,0.223694,24.5021661384,48.570211528,22,5,8.454,6.199352888668,4.265092,8.164831,28.3089575988,0,-0.223694,0,82.7, -8.8, -1.2,0,0,1024,1024,1024,1024,0,0,0,0,97.8,0,0,99,4.228,4.222,0,0,0,0,3.839,83.48,4.887016888668,2.952756,6,P-GPS,
13800,2025-05-06 18:21:17,-22.9749723961164,-42.0208798703322,2.952756,2.952756,1.934260888668,4.887016888668,8.2021,0.223694,24.4415362152,48.634515992,22,5,8.454,6.199352888668,4.265092,8.164831,28.3089575988,0,-0.223694,0,82.8, -10, -1,0,0,1024,1024,1024,1024,0,0,0,0,97.8,0,0,99,4.228,4.222,0,0,0,0,3.839,83.48,4.887016888668,2.952756,6,P-GPS,
13900,2025-05-06 18:21:18,-22.9749724815279,-42.0208800855224,3.28084,3.28084,1.934260888668,5.215100888668,8.2021,0.223694,24.3654535356,48.713256152,22,5,8.454,6.199352888668,4.265092,8.164831,28.3089575988,0,-0.223694,0,83, -10.3, -0.3,0,0,1024,1024,1024,1024,0,0,0,0,97.8,0,0,99,4.228,4.222,0,0,0,0,3.839,83.48,5.215100888668,3.28084,6,P-GPS,
14000,2025-05-06 18:21:18,-22.9749725451015,-42.0208801403575,3.28084,3.28084,1.934260888668,5.215100888668,8.2021,0,24.3438656084,48.743111796,22,5,8.454,6.199352888668,4.265092,8.164831,28.3089575988,0,0,0,82.7, -8.5, -0.8,0,0,1024,1024,1024,1024,0,0,0,0,97.8,0,0,99,4.228,4.222,0,0,0,0,3.839,83.48,5.215100888668,3.28084,6,P-GPS,
14100,2025-05-06 18:21:18,-22.9749726070874,-42.0208801745259,3.28084,3.28084,1.934260888668,5.215100888668,8.2021,0,24.329233062,48.768374264,22,5,8.454,6.199352888668,4.265092,8.164831,28.3089575988,0,0,0,82.2, -8.1, -2.5,0,0,1024,1024,1024,1024,0,0,0,0,97.8,0,0,99,4.228,4.222,0,0,0,0,3.839,83.48,5.215100888668,3.28084,6,P-GPS,
14200,2025-05-06 18:21:18,-22.9749726893283,-42.0208802541685,3.28084,3.28084,1.934260888668,5.215100888668,8.2021,0,24.2984259744,48.808400512,22,5,8.454,6.199352888668,4.265092,8.164831,28.3089575988,0,0,0,82.6, -7.9, -1.7,0,0,1024,1024,1024,1024,0,0,0,0,97.8,0,0,99,4.228,4.222,0,0,0,0,3.839,83.48,5.215100888668,3.28084,6,P-GPS,
14300,2025-05-06 18:21:18,-22.974972821225,-42.0208802674748,3.28084,3.28084,1.934260888668,5.215100888668,8.2021,0,24.2871726932,48.856956944,22,5,8.454,6.199352888668,4.265092,8.164831,28.3089575988,0,0,0,82.7, -8.3, -1.4,0,0,1024,1024,1024,1024,0,0,0,0,97.8,0,0,98,4.228,4.222,0,0,0,0,3.839,83.48,5.215100888668,3.28084,6,P-GPS,
14400,2025-05-06 18:21:18,-22.9749728925846,-42.0208802900862,3.28084,3.28084,1.934260888668,5.215100888668,8.2021,0,24.2759850288,48.883859832,22,5,8.454,6.199352888668,4.265092,8.164831,28.3089575988,0,0,0,82.5, -8.2, -1.6,0,0,1024,1024,1024,1024,0,0,0,0,97.8,0,0,98,4.228,4.222,0,0,0,0,3.839,83.48,5.215100888668,3.28084,6,P-GPS,
14500,2025-05-06 18:21:18,-22.9749729539651,-42.0208803056816,3.28084,3.28084,1.934260888668,5.215100888668,8.2021,0,24.2676516952,48.906825712,22,5,8.454,6.199352888668,4.265092,8.164831,28.3089575988,0,0,0,82.7, -8.7, -1.2,0,0,1024,1024,1024,1024,0,0,0,0,97.8,0,0,98,4.228,4.222,0,0,0,0,3.839,83.48,5.215100888668,3.28084,6,P-GPS,
14600,2025-05-06 18:21:18,-22.9749730044306,-42.0208802924032,3.28084,3.28084,1.934260888668,5.215100888668,8.2021,0,24.2694889656,48.925854584,22,5,8.454,6.199352888668,4.265092,8.164831,28.3089575988,0,0,0,82.5, -9.2, -2,0,0,1024,1024,1024,1024,0,0,0,0,97.8,0,0,98,4.228,4.222,0,0,0,0,3.839,83.48,5.215100888668,3.28084,6,P-GPS,
14700,2025-05-06 18:21:18,-22.974973018024,-42.0208802600121,3.28084,3.28084,1.934260888668,5.215100888668,8.2021,0,24.2795939528,48.937993692,22,5,8.454,6.199352888668,4.265092,8.164831,28.3089575988,0,0,0,82.9, -7.2, 0.5,0,0,1024,1024,1024,1024,0,0,0,0,97.8,0,0,98,4.228,4.222,0,0,0,0,3.839,83.48,5.215100888668,3.28084,6,P-GPS,
14800,2025-05-06 18:21:18,-22.9749729853,-42.0208801500721,3.28084,3.28084,1.934260888668,5.215100888668,8.2021,0,24.3178157388,48.976707604,22,5,8.454,6.199352888668,4.265092,8.164831,28.3089575988,0,0,0,82.8, -7.1, 0.8,0,0,1024,1024,1024,1024,0,0,0,0,97.8,0,0,98,4.228,4.222,0,0,0,0,3.839,83.48,5.215100888668,3.28084,6,P-GPS,
14900,2025-05-06 18:21:18,-22.9749729751736,-42.020880111065,3.28084,3.28084,1.934260888668,5.215100888668,8.2021,0,24.3312999912,48.990159048,22,5,8.446,6.199352888668,4.265092,8.164831,28.3089575988,0,0,0,82.6, -7, 0.2,0,0,1024,1024,1024,1024,0,0,0,0,97.8,0,0,98,4.228,4.226,0,0,0,0,3.874,83.48,5.215100888668,3.28084,6,P-GPS,
15000,2025-05-06 18:21:19,-22.9749729793285,-42.0208800948182,3.28084,3.28084,1.934260888668,5.215100888668,8.2021,0,24.3365165268,48.99606456,22,5,8.446,6.199352888668,4.265092,8.164831,28.3089575988,0,0,0,82.4, -9.1, -1.7,0,0,1024,1024,1024,1024,0,0,0,0,97.8,0,0,98,4.228,4.226,0,0,0,0,3.874,83.48,5.215100888668,3.28084,6,P-GPS,
15100,2025-05-06 18:21:19,-22.974972955425,-42.0208800603521,3.28084,3.28084,1.934260888668,5.215100888668,8.2021,0,24.3491805692,49.010500256,22,5,8.446,6.199352888668,4.265092,8.164831,28.3089575988,0,0,0,82.5, -7.4, 0.8,0,0,1024,1024,1024,1024,0,0,0,0,97.8,0,0,98,4.228,4.226,0,0,0,0,3.874,83.48,5.215100888668,3.28084,6,P-GPS,
15200,2025-05-06 18:21:19,-22.9749727536034,-42.0208799080924,3.28084,3.28084,1.934260888668,5.215100888668,8.2021,0,24.4101713848,49.100067188,22,5,8.446,6.199352888668,4.265092,8.164831,28.3089575988,0,0,0,82.4, -5.8, -0.8,0,0,1024,1024,1024,1024,0,0,0,0,97.8,0,0,98,4.228,4.226,0,0,0,0,3.874,83.48,5.215100888668,3.28084,6,P-GPS,
15300,2025-05-06 18:21:19,-22.974972666167,-42.0208798257979,2.952756,2.952756,1.934260888668,4.887016888668,8.2021,0,24.4420611496,49.142390024,22,5,8.446,6.199352888668,4.265092,8.164831,28.3089575988,0,0,0,82.6, -6.9, 0.2,0,0,1024,1024,1024,1024,0,0,0,0,97.8,0,0,98,4.228,4.226,0,0,0,0,3.874,83.48,4.887016888668,2.952756,6,P-GPS,
15400,2025-05-06 18:21:19,-22.9749726243392,-42.0208798212198,2.952756,2.952756,1.934260888668,4.887016888668,8.2021,0,24.4457684988,49.157809972,22,5,8.446,6.199352888668,4.265092,8.164831,28.3089575988,0,0,0,82.7, -8.4, 0.8,0,0,1024,1024,1024,1024,0,0,0,0,97.8,0,0,98,4.228,4.226,0,0,0,0,3.874,83.48,4.887016888668,2.952756,6,P-GPS,
15500,2025-05-06 18:21:19,-22.9749725867771,-42.0208798225039,2.952756,2.952756,1.934260888668,4.887016888668,8.2021,0,24.4473104936,49.171261416,22,5,8.446,6.199352888668,4.265092,8.164831,28.3089575988,0,0,0,82.5, -8.5, 0.5,0,0,1024,1024,1024,1024,0,0,0,0,97.8,0,0,98,4.228,4.226,0,0,0,0,3.874,83.48,4.887016888668,2.952756,6,P-GPS,
15600,2025-05-06 18:21:19,-22.9749724752669,-42.0208798532108,2.952756,2.952756,1.934260888668,4.887016888668,8.2021,0,24.4429797848,49.213256168,22,5,8.446,6.199352888668,4.265092,8.164831,28.3089575988,0,0,0,82.5, -8.3, 1,0,0,1024,1024,1024,1024,0,0,0,0,97.8,0,0,98,4.228,4.226,0,0,0,0,3.874,83.48,4.887016888668,2.952756,6,P-GPS,
15700,2025-05-06 18:21:19,-22.9749723986897,-42.0208798512195,2.952756,2.952756,1.934260888668,4.887016888668,8.2021,0,24.4477370028,49.241143308,22,5,8.446,6.199352888668,4.265092,8.164831,28.3089575988,0,0,0,82.6, -8.6, 1.6,0,0,1024,1024,1024,1024,0,0,0,0,97.8,0,0,98,4.228,4.226,0,0,0,0,3.874,83.48,4.887016888668,2.952756,6,P-GPS,
15800,2025-05-06 18:21:19,-22.9749723235957,-42.0208798634092,2.952756,2.952756,1.934260888668,4.887016888668,8.2021,0,24.4477370028,49.269030448,22,5,8.446,6.199352888668,4.265092,8.164831,28.3089575988,0,0,0,82.4, -9.3, 1.1,0,0,1024,1024,1024,1024,0,0,0,0,97.8,0,0,98,4.228,4.226,0,0,0,0,3.874,83.48,4.887016888668,2.952756,6,P-GPS,
15900,2025-05-06 18:21:20,-22.9749722488521,-42.0208798757664,2.952756,2.952756,1.934260888668,4.887016888668,8.2021,0,24.447671386,49.296589504,22,5,8.446,6.199352888668,4.265092,8.164831,28.3089575988,0,0,0,82.4, -9, 2,0,0,1024,1024,1024,1024,0,0,0,0,97.8,0,0,98,4.228,4.226,0,0,0,0,3.874,83.48,4.887016888668,2.952756,6,P-GPS,
16000,2025-05-06 18:21:20,-22.9749721850065,-42.020879829399,2.952756,2.952756,1.934260888668,4.887016888668,8.2021,0,24.4665690244,49.324476644,22,5,8.437,6.199352888668,4.265092,8.164831,28.3089575988,0,0,0,82.4, -9.4, 1.7,0,0,1024,1024,1024,1024,0,0,0,0,97.8,0,0,98,4.223,4.22,0,0,0,0,3.887,83.66,4.887016888668,2.952756,6,P-GPS,
16100,2025-05-06 18:21:20,-22.9749721461132,-42.0208798307296,2.952756,2.952756,1.934260888668,4.887016888668,8.2021,0,24.4682422528,49.33891234,22,5,8.437,6.199352888668,4.265092,8.164831,28.3089575988,0,0,0,82.4, -9.2, 1.6,0,0,1024,1024,1024,1024,0,0,0,0,97.8,0,0,98,4.223,4.22,0,0,0,0,3.887,83.66,4.887016888668,2.952756,6,P-GPS,
16200,2025-05-06 18:21:20,-22.9749721262995,-42.0208798753383,2.952756,2.952756,1.934260888668,4.887016888668,7.874016,0,24.4545283416,49.35531654,22,5,8.437,6.199352888668,4.265092,8.164831,28.3089575988,0,0,0,82.4, -9.6, 1.4,0,0,1024,1024,1131,1024,0,0,16,0,97.8,0,0,98,4.223,4.22,0,0,0,0,3.887,83.66,4.887016888668,2.952756,6,P-GPS,
16300,2025-05-06 18:21:20,-22.9749721131763,-42.0208799230085,2.952756,2.952756,1.934260888668,4.887016888668,7.874016,0,24.4394036692,49.372048824,22,5,8.437,6.199352888668,4.265092,8.164831,28.3089575988,0,0,0,82.4, -10.1, 1.6,0,0,1024,1024,1653,1024,0,0,95,0,97.8,0,0,98,4.223,4.22,0,0,0,0,3.887,83.66,4.887016888668,2.952756,6,P-GPS,
16400,2025-05-06 18:21:20,-22.9749721132304,-42.020879976392,2.952756,2.952756,1.934260888668,4.887016888668,7.874016,0,24.4216871332,49.390093444,22,5,8.437,6.199352888668,4.265092,8.164831,28.3089575988,0,0,0,82.4, -8.3, 1.6,0,0,1024,1024,1684,1024,0,0,100,0,97.8,0,0,98,4.223,4.22,0,0,0,0,3.887,83.66,4.887016888668,2.952756,6,P-GPS,
16500,2025-05-06 18:21:20,-22.9749721580342,-42.0208800496698,2.952756,2.952756,1.934260888668,4.887016888668,8.2021,0,24.3948826704,49.419621004,22,5,8.437,6.199352888668,4.265092,8.164831,28.3089575988,0,0,-0.894776,82.4, -8.9, 1.7,0,0,1024,1024,1684,1024,0,0,100,0,97.8,0,0,98,4.223,4.22,0,0,0,0,3.887,83.66,4.887016888668,2.952756,6,P-GPS,
16600,2025-05-06 18:21:20,-22.9749721541011,-42.0208801493649,3.28084,3.28084,1.934260888668,5.215100888668,8.2021,0,24.3620086536,49.453085572,22,5,8.437,6.199352888668,4.265092,8.164831,28.3089575988,0,0,-1.565858,82.3, -11.3, 1.9,0,0,1024,1024,1684,1024,0,0,100,0,97.8,0,0,98,4.223,4.22,0,0,0,0,3.887,83.66,5.215100888668,3.28084,6,P-GPS,
