time(millisecond),datetime(utc),latitude,longitude,height_above_takeoff(feet),height_above_ground_at_drone_location(feet),ground_elevation_at_drone_location(feet),altitude_above_seaLevel(feet),height_sonar(feet),speed(mph),distance(feet),mileage(feet),satellites,gpslevel,voltage(v),max_altitude(feet),max_ascent(feet),max_speed(mph),max_distance(feet), xSpeed(mph), ySpeed(mph), zSpeed(mph), compass_heading(degrees), pitch(degrees), roll(degrees),isPhoto,isVideo,rc_elevator,rc_aileron,rc_throttle,rc_rudder,rc_elevator(percent),rc_aileron(percent),rc_throttle(percent),rc_rudder(percent),gimbal_heading(degrees),gimbal_pitch(degrees),gimbal_roll(degrees),battery_percent,voltageCell1,voltageCell2,voltageCell3,voltageCell4,voltageCell5,voltageCell6,current(A),battery_temperature(f),altitude(feet),ascent(feet),flycStateRaw,flycState,message
354500,2023-12-27 01:00:16,-34.9551296668924,-54.9345630321096,0,0,51.07152558442,50.48097438442,0.328084,0,0,0,18,5,0,50.48097438442,0,0,0,0,0,0,100.5, 3.4, -0.1,0,0,364,364,364,1684,-100,-100,-100,100,109.9,0,0,73,4.095,4.092,0,0,0,0,0,97.7,50.48097438442,0,41,Motors_Started,"Error de calibración del estabilizador. Reinicia la aeronave o contacta con la Asistencia DJI (Code: 40011)"
354600,2023-12-27 01:00:16,-34.9551296673663,-54.9345630653515,0,0,51.07152558442,50.48097438442,0.328084,0,0.0099418638352,0.0099418638352,18,5,0,50.48097438442,0,0,0.0099418638352,0,0,0,100.5, 3.3, -0.1,0,0,364,364,364,1684,-100,-100,-100,100,109.9,0,0,73,4.095,4.092,0,0,0,0,0,97.7,50.48097438442,0,41,Motors_Started,"Setting new Return-To-Home altitude to 100m (328 ft). Data Recorder File Index is 28. Setting new Maximum Flight Altitude to 120m (394 ft)"
354700,2023-12-27 01:00:16,-34.9551296735479,-54.9345631608258,0,0,51.07152558442,50.48097438442,0.328084,0,6.143208858,0.038580709896,18,5,0,50.48097438442,0,0,6.143208858,0,0,0,100.4, 3.4, -0.1,0,0,364,364,364,1684,-100,-100,-100,100,109.9,0,0,73,4.095,4.092,0,0,0,0,0,97.7,50.48097438442,0,41,Motors_Started,
354800,2023-12-27 01:00:16,-34.9551296678955,-54.9345631730554,0,0,51.07152558442,50.48097438442,0.328084,0,6.1472114828,0.04277887276,18,5,0,50.48097438442,0,0,6.1472114828,0,0,0,100.4, 3.4, -0.1,0,0,364,364,364,1684,-100,-100,-100,100,109.9,0,0,73,4.095,4.092,0,0,0,0,0,97.7,50.48097438442,0,41,Motors_Started,
354900,2023-12-27 01:00:16,-34.9551296179577,-54.9345631763035,0,0,51.07152558442,50.48097438442,0.328084,0,6.1518702756,0.061024608252,18,5,0,50.48097438442,0,0,6.1518702756,0,0,0,100.4, 3.4, -0.2,0,0,364,364,364,1684,-100,-100,-100,100,109.9,0,0,73,4.095,4.092,0,0,0,0,0,97.7,50.48097438442,0,41,Motors_Started,
355000,2023-12-27 01:00:17,-34.9551295735402,-54.9345631783104,0,0,51.07152558442,50.48097438442,0.328084,0,6.1557744752,0.077241472288,18,5,0,50.48097438442,0,0,6.1557744752,0,0,0,100.4, 3.4, -0.2,0,0,364,364,364,1684,-100,-100,-100,100,109.9,0,0,73,4.095,4.092,0,0,0,0,0,97.7,50.48097438442,0,41,Motors_Started,
355100,2023-12-27 01:00:17,-34.9551295573364,-54.9345631764786,0,0,51.07152558442,50.48097438442,0.328084,0,6.1564634516,0.083178808436,18,5,0,50.48097438442,0,0,6.1564634516,0,0,0,100.4, 3.4, -0.1,0,0,364,364,364,1684,-100,-100,-100,100,109.9,0,0,73,4.095,4.092,0,0,0,0,0,97.7,50.48097438442,0,41,Motors_Started,
355200,2023-12-27 01:00:17,-34.9551294588139,-54.9345631640191,0,-0.098425200000004,51.16995078442,50.48097438442,0.328084,0,6.1604004596,0.119317261036,18,5,0,50.48097438442,0,0,6.1604004596,0,0,0,100.4, 3.4, -0.1,0,0,364,364,364,1684,-100,-100,-100,100,109.9,0,0,73,4.095,4.092,0,0,0,0,0,97.7,50.48097438442,0,41,Motors_Started,
355300,2023-12-27 01:00:17,-34.955129459633,-54.934563161304,0,-0.098425200000004,51.16995078442,50.48097438442,0.328084,0,6.1595474412,0.120182418544,18,5,0,50.48097438442,0,0,6.1604004596,0,0,0,100.4, 3.4, -0.1,0,0,364,364,364,1684,-100,-100,-100,100,109.9,0,0,73,4.095,4.092,0,0,0,0,0,97.7,50.48097438442,0,41,Motors_Started,
355400,2023-12-27 01:00:17,-34.9551294609879,-54.9345631585367,0,-0.098425200000004,51.16995078442,50.48097438442,0.328084,0,6.158628806,0.121146329336,18,5,0,50.48097438442,0,0,6.1604004596,0,0,0,100.4, 3.4, -0.1,0,0,1024,788,543,1538,0,-36,-73,78,109.9,0,0,73,4.095,4.092,0,0,0,0,0,97.7,50.48097438442,0,41,Motors_Started,
355500,2023-12-27 01:00:17,-34.9551294675546,-54.9345631561012,0,-0.098425200000004,51.16995078442,50.48097438442,0.328084,0,6.1574148952,0.123650266424,18,5,0,50.48097438442,0,0,6.1604004596,0,0,0,100.4, 3.4, -0.1,0,0,1024,934,1024,1099,0,-14,0,11,109.9,0,0,73,4.095,4.092,0,0,0,0,0,97.7,50.48097438442,0,41,Motors_Started,
355600,2023-12-27 01:00:17,-34.9551295227181,-54.9345631477365,0,0,51.07152558442,50.48097438442,0.328084,0,6.1507219816,0.143931435052,18,5,0,50.48097438442,0,0,6.1604004596,0,0,0,100.4, 3.4, -0.1,0,0,1024,934,1024,1099,0,-14,0,11,109.9,0,0,73,4.095,4.092,0,0,0,0,0,97.7,50.48097438442,0,10,Assisted_Takeoff,
355700,2023-12-27 01:00:17,-34.9551295272786,-54.9345631480684,0,0,51.07152558442,50.48097438442,0.328084,0,6.1504595144,0.145598429856,18,5,0,50.48097438442,0,0,6.1604004596,0,0,0,100.4, 3.3, -0.2,0,0,1024,1024,1024,1024,0,0,0,0,109.9,0,0,73,4.095,4.092,0,0,0,0,0,97.7,50.48097438442,0,10,Assisted_Takeoff,
355800,2023-12-27 01:00:17,-34.9551295318317,-54.9345631483192,0,0,51.07152558442,50.48097438442,0.328084,0,6.1501642388,0.147261159568,18,5,0,50.48097438442,0,0,6.1604004596,0,0,0,100.4, 3.4, -0.2,0,0,1024,1024,1024,1024,0,0,0,0,109.9,0,0,73,4.095,4.092,0,0,0,0,0,97.7,50.48097438442,0,10,Assisted_Takeoff,
355900,2023-12-27 01:00:17,-34.9551295349038,-54.9345631490666,0,0,51.07152558442,50.48097438442,0.328084,0,6.1501642388,0.148404204224,18,5,0,50.48097438442,0,0,6.1604004596,0,0,0,100.4, 3.5, -0.1,0,0,1024,1024,1024,1024,0,0,0,0,109.9,0,0,73,4.095,4.092,0,0,0,0,0,97.7,50.48097438442,0,10,Assisted_Takeoff,
356000,2023-12-27 01:00:18,-34.9551295693063,-54.9345631455389,0,0,51.07152558442,50.48097438442,0.328084,0,6.1465225064,0.161000333236,18,5,0,50.48097438442,0,0,6.1604004596,0,0,0,100.4, 3.5, -0.1,0,0,1024,1024,1024,1024,0,0,0,0,109.9,0,0,73,4.095,4.092,0,0,0,0,0,97.7,50.48097438442,0,10,Assisted_Takeoff,
356100,2023-12-27 01:00:18,-34.9551295728538,-54.9345631490849,0,0,51.07152558442,50.48097438442,0.328084,0,6.1472770996,0.162673561636,18,5,8.165,50.48097438442,0,0,6.1604004596,0,0,0,100.4, 3.4, -0.1,0,0,1024,1024,1061,1024,0,0,6,0,109.9,0,0,73,4.083,4.077,0,0,0,0,0.96,97.7,50.48097438442,0,10,Assisted_Takeoff,
356200,2023-12-27 01:00:18,-34.9551295758518,-54.934563160588,0,0,51.07152558442,50.48097438442,0.328084,0,6.150426706,0.16628281372,18,5,8.165,50.48097438442,0,0,6.1604004596,0,0,0,100.4, 3.3, -0.1,0,0,1024,1024,1359,1024,0,0,51,0,109.9,0,0,73,4.083,4.077,0,0,0,0,0.96,97.7,50.48097438442,0,10,Assisted_Takeoff,
356300,2023-12-27 01:00:18,-34.9551295774811,-54.9345632159399,0,0,51.07152558442,50.48097438442,0.328084,0,6.166502822,0.182845478292,18,5,8.165,50.48097438442,0,0,6.166502822,0,0,0,100.4, 3.4, -0.1,0,0,1024,1024,1454,1024,0,0,65,0,109.9,0,0,73,4.083,4.077,0,0,0,0,0.96,97.7,50.48097438442,0,10,Assisted_Takeoff,
356400,2023-12-27 01:00:18,-34.9551295710747,-54.9345633282978,0,0,51.07152558442,50.48097438442,0.328084,0,6.1998689648,0.216525269396,18,5,8.165,50.48097438442,0,0,6.1998689648,0,0,0,100.4, 3.2, -0.1,0,0,1024,1024,1396,1024,0,0,56,0,109.9,0,0,73,4.083,4.077,0,0,0,0,0.96,97.7,50.48097438442,0,10,Assisted_Takeoff,
356500,2023-12-27 01:00:18,-34.9551295721121,-54.9345632927066,0,0,51.07152558442,50.48097438442,0.328084,0,6.1893702768,0.227174876036,18,5,8.165,50.48097438442,0,0,6.1998689648,0,0,0,100.4, 3.3, -0.1,0,0,1024,1024,1396,1024,0,0,56,0,109.9,0,0,73,4.083,4.077,0,0,0,0,0.96,97.7,50.48097438442,0,10,Assisted_Takeoff,
356600,2023-12-27 01:00:18,-34.9551295728628,-54.9345632667292,0,0,51.07152558442,50.48097438442,0.328084,0,6.1816931112,0.234947842164,18,5,8.165,50.48097438442,0,0,6.1998689648,0,0,0,100.3, 3.4, -0.1,0,0,1024,1024,1203,1024,0,0,27,0,109.9,0,0,73,4.083,4.077,0,0,0,0,0.96,97.7,50.48097438442,0,10,Assisted_Takeoff,
356700,2023-12-27 01:00:18,-34.9551295728384,-54.9345633135857,0,0,51.07152558442,50.48097438442,0.328084,0,6.1954070224,0.248959325552,18,5,8.165,50.48097438442,0,0,6.1998689648,0,0,0,100.2, 3, -0.1,0,0,1024,1024,1336,1024,0,0,47,0,109.9,0,0,73,4.083,4.077,0,0,0,0,0.96,97.7,50.48097438442,0,10,Assisted_Takeoff,
356800,2023-12-27 01:00:18,-34.9551295735997,-54.9345633728626,0,0,51.07152558442,50.48097438442,0.328084,0,6.2126970492,0.266687016408,18,5,8.165,50.48097438442,0,0,6.2126970492,0,0,0,99.9, -0.5, 0,0,0,1024,1024,1319,1024,0,0,45,0,109.7,0,0,73,4.083,4.077,0,0,0,0,0.96,97.7,50.48097438442,0,10,Assisted_Takeoff,
356900,2023-12-27 01:00:18,-34.9551295744676,-54.9345633883429,0,0,51.07152558442,50.48097438442,0.328084,0,6.2171589916,0.271326780336,18,5,8.165,50.48097438442,0,0,6.2171589916,0,0,-0.223694,99.5, -1.9, 0.1,0,0,1024,1024,1024,1024,0,0,0,0,109.3,0,0,73,4.083,4.077,0,0,0,0,0.96,97.7,50.48097438442,0,10,Assisted_Takeoff,
357000,2023-12-27 01:00:19,-34.9551295806207,-54.9345634172549,0,0,51.07152558442,50.48097438442,0.328084,0,6.2251642412,0.28025919532,18,5,8.165,50.48097438442,0,0,6.2251642412,0,0,-0.447388,99.4, -0.5, 0.2,0,0,1024,1024,1024,1024,0,0,0,0,109.3,0,0,73,4.083,4.077,0,0,0,0,0.96,97.7,50.48097438442,0,6,P-GPS,
357100,2023-12-27 01:00:19,-34.9551295932835,-54.9345634225361,0,0,51.07152558442,50.48097438442,0.328084,0,6.2257876008,0.285141741408,18,5,8.165,50.48097438442,0,0,6.2257876008,0,0,-0.671082,99.6, -0.5, 0,0,0,1024,1024,1024,1024,0,0,0,0,109.3,0,0,73,4.084,4.08,0,0,0,0,1.454,97.7,50.48097438442,0,6,P-GPS,
357200,2023-12-27 01:00:19,-34.9551296024671,-54.9345634242215,0,0,51.07152558442,50.48097438442,0.656168,0,6.2255907504,0.288529864876,18,5,8.165,50.48097438442,0,0,6.2257876008,0,0,-0.894776,99.6, -0.2, -0.1,0,0,1024,1024,1024,1024,0,0,0,0,109.2,0,0,73,4.084,4.08,0,0,0,0,1.454,97.7,50.48097438442,0,6,P-GPS,
357300,2023-12-27 01:00:19,-34.9551294803436,-54.9345634796623,0,-0.098425200000004,51.16995078442,50.48097438442,0.656168,0,6.250984452,0.33606956456,18,5,8.165,50.48097438442,0,0,6.250984452,0,0,-0.894776,99.7, 0, -0.2,0,0,1024,1024,1024,1024,0,0,0,0,109.2,0,0,73,4.084,4.08,0,0,0,0,1.454,97.7,50.48097438442,0,6,P-GPS,
357400,2023-12-27 01:00:19,-34.95512945511,-54.9345634952027,0.328084,0.2296588,51.16995078442,50.80905838442,0.656168,0,6.2574805152,0.34638452552,18,5,8.165,50.80905838442,0.328084,0,6.2574805152,0,0,-0.894776,99.6, 0.3, -0.1,0,0,1024,1024,1024,1024,0,0,0,0,109.2,0,0,73,4.084,4.08,0,0,0,0,1.454,97.7,50.80905838442,0.328084,6,P-GPS,
357500,2023-12-27 01:00:19,-34.9551295057823,-54.9345634660294,0.328084,0.328084,51.07152558442,50.80905838442,0.984252,0,6.24507894,0.36682743956,18,5,8.165,50.80905838442,0.328084,0,6.2574805152,0,0,-0.894776,99.4, 0.1, -0.3,0,0,1024,1024,1024,1024,0,0,0,0,109.2,0,0,73,4.084,4.08,0,0,0,0,1.454,97.7,50.80905838442,0.328084,6,P-GPS,
357600,2023-12-27 01:00:19,-34.9551295519218,-54.9345634357299,0.656168,0.656168,51.07152558442,51.13714238442,0.984252,0,6.2327429816,0.38594489424,18,5,8.165,51.13714238442,0.656168,0,6.2574805152,0,0,-0.894776,99.4, -0.1, -0.2,0,0,1024,1024,1024,1024,0,0,0,0,109.2,0,0,73,4.084,4.08,0,0,0,0,1.454,97.7,51.13714238442,0.656168,6,P-GPS,
357700,2023-12-27 01:00:19,-34.9551296576257,-54.9345633053883,0.656168,0.656168,51.07152558442,51.13714238442,1.312336,0,6.1867456048,0.44077429232,18,5,8.165,51.13714238442,0.656168,0,6.2574805152,0,0,-0.894776,99.6, -0.2, -0.3,0,0,1024,1024,1024,1024,0,0,0,0,109.2,0,0,73,4.084,4.08,0,0,0,0,1.454,97.7,51.13714238442,0.656168,6,P-GPS,
357800,2023-12-27 01:00:19,-34.9551296886297,-54.9345632686812,0.984252,0.984252,51.07152558442,51.46522638442,1.312336,0,6.17372067,0.45653872852,18,5,8.165,51.46522638442,0.984252,0,6.2574805152,0,0,-0.894776,99.6, -0.1, -0.4,0,0,1024,1024,1024,1024,0,0,0,0,109.2,0,0,73,4.084,4.08,0,0,0,0,1.454,97.7,51.46522638442,0.984252,6,P-GPS,
357900,2023-12-27 01:00:20,-34.9551297893416,-54.9345632084924,0.984252,0.984252,51.07152558442,51.46522638442,1.312336,0,6.1488190944,0.49745408416,18,5,8.165,51.46522638442,0.984252,0,6.2574805152,0,0,-0.671082,99.7, 0, -0.3,0,0,1024,1024,1024,1024,0,0,0,0,109.2,0,0,73,4.084,4.08,0,0,0,0,1.454,97.7,51.46522638442,0.984252,6,P-GPS,
358000,2023-12-27 01:00:20,-34.955129870741,-54.9345631640322,1.312336,1.312336,51.07152558442,51.79331038442,1.64042,0,6.130085498,0.52999017444,18,5,8.165,51.79331038442,1.312336,0,6.2574805152,0,0,-0.447388,99.7, 0, 0,0,0,1024,1024,1024,1024,0,0,0,0,109.2,0,0,73,4.084,4.08,0,0,0,0,1.454,97.7,51.79331038442,1.312336,6,P-GPS,
358100,2023-12-27 01:00:20,-34.9551298563684,-54.934563245466,1.312336,1.312336,51.07152558442,51.79331038442,1.64042,0,6.1549870736,0.55490159256,18,5,8.108,51.79331038442,1.312336,0,6.2574805152,0,0,-0.447388,99.7, -0.1, 0.1,0,0,1024,1024,1024,1024,0,0,0,0,109.2,0,0,73,4.036,4.029,0,0,0,0,2.261,97.7,51.79331038442,1.312336,6,P-GPS,
358200,2023-12-27 01:00:20,-34.9551298408859,-54.9345632839186,1.312336,1.312336,51.07152558442,51.79331038442,1.64042,0,6.1673558404,0.56771327276,19,5,8.108,51.79331038442,1.312336,0,6.2574805152,0,0,-0.223694,99.7, -0.2, 0.2,0,0,1024,1024,1024,1024,0,0,0,0,109.3,0,0,73,4.036,4.029,0,0,0,0,2.261,97.7,51.79331038442,1.312336,6,P-GPS,
358300,2023-12-27 01:00:20,-34.9551298873015,-54.9345632616336,1.312336,1.312336,51.07152558442,51.79331038442,1.64042,0,6.1575789372,0.58591209224,19,5,8.108,51.79331038442,1.312336,0,6.2574805152,0,0,0,99.7, -0.2, 0.1,0,0,1024,1024,1024,1024,0,0,0,0,109.3,0,0,73,4.036,4.029,0,0,0,0,2.261,97.7,51.79331038442,1.312336,6,P-GPS,
358400,2023-12-27 01:00:20,-34.9551299438655,-54.9345632362807,1.312336,1.312336,51.07152558442,51.79331038442,1.64042,0,6.1462928476,0.60789700108,19,5,8.108,51.79331038442,1.312336,0,6.2574805152,0,0,0,99.7, -0.2, -0.2,0,0,1024,1024,1024,1024,0,0,0,0,109.2,0,0,73,4.036,4.029,0,0,0,0,2.261,97.7,51.79331038442,1.312336,6,P-GPS,
358500,2023-12-27 01:00:20,-34.9551300330806,-54.934563181671,1.312336,1.312336,51.07152558442,51.79331038442,1.64042,0,6.1242784112,0.64431432508,19,5,8.108,51.79331038442,1.312336,0,6.2574805152,0,0,0,99.7, -0.1, -0.6,0,0,1024,1024,1024,1024,0,0,0,0,109.2,0,0,73,4.036,4.029,0,0,0,0,2.261,97.7,51.79331038442,1.312336,6,P-GPS,
358600,2023-12-27 01:00:20,-34.9551301693227,-54.9345630610137,1.312336,1.312336,51.07152558442,51.79331038442,1.64042,0,6.0799542628,0.70573493072,19,5,8.108,51.79331038442,1.312336,0,6.2574805152,0,0,0,99.7, -0.4, -0.5,0,0,1024,1024,1024,1024,0,0,0,0,109.3,0,0,73,4.036,4.029,0,0,0,0,2.261,97.7,51.79331038442,1.312336,6,P-GPS,"Punto de origen actualizado. Altitud de RPO establecida en 100m (Code: 3000001)"
358700,2023-12-27 01:00:20,-34.9551302557683,-54.9345630915301,1.312336,1.312336,51.07152558442,51.79331038442,1.64042,0,6.0835631868,0.73856957744,19,5,8.108,51.79331038442,1.312336,0,6.2574805152,0,0,0,99.7, -0.4, -0.5,0,0,1024,1015,1024,1024,0,-1,0,0,109.3,0,0,73,4.036,4.029,0,0,0,0,2.261,97.7,51.79331038442,1.312336,6,P-GPS,
358800,2023-12-27 01:00:20,-34.955130340368,-54.9345631051996,1.312336,1.312336,51.07152558442,51.79331038442,1.64042,0,6.0824805096,0.76970474904,19,5,8.108,51.79331038442,1.312336,0,6.2574805152,0,0,0,99.7, 0, -0.8,0,0,1024,728,1024,1024,0,-45,0,0,109.2,0,0,73,4.036,4.029,0,0,0,0,2.261,97.7,51.79331038442,1.312336,6,P-GPS,
358900,2023-12-27 01:00:21,-34.9551304493687,-54.9345630467694,1.312336,1.312336,51.07152558442,51.79331038442,1.64042,0,6.0588584616,0.81314307064,19,5,8.108,51.79331038442,1.312336,0,6.2574805152,0,0,0,99.7, 0.1, -1.7,0,0,1024,654,1024,1024,0,-56,0,0,109.2,0,0,73,4.036,4.029,0,0,0,0,2.261,97.7,51.79331038442,1.312336,6,P-GPS,
359000,2023-12-27 01:00:21,-34.9551306897604,-54.9345629782994,1.312336,1.4435696,50.94029198442,51.79331038442,1.64042,0,6.0253938936,0.90320540948,19,5,8.108,51.79331038442,1.312336,0,6.2574805152,0,0,0,99.6, 0, -5.5,0,0,1024,902,1024,1024,0,-18,0,0,109.2,0,0,73,4.036,4.029,0,0,0,0,2.261,97.7,51.79331038442,1.312336,6,P-GPS,
359100,2023-12-27 01:00:21,-34.9551307118393,-54.9345629179721,1.312336,1.4435696,50.94029198442,51.79331038442,1.64042,0,6.00639783,0.92296262796,19,5,8.057,51.79331038442,1.312336,0,6.2574805152,0,0,0,99.6, 0.2, -7.1,0,0,1024,930,1024,1024,0,-14,0,0,109.3,0,0,73,4.036,4.027,0,0,0,0,4.406,97.7,51.79331038442,1.312336,6,P-GPS,
359200,2023-12-27 01:00:21,-34.955130640465,-54.9345628464683,1.312336,1.4435696,50.94029198442,51.79331038442,1.64042,0.223694,5.989009378,0.95665685476,19,5,8.057,51.79331038442,1.312336,0.223694,6.2574805152,0.223694,0,0,99.8, 0.1, -3.7,0,0,1024,929,1024,1024,0,-14,0,0,109.2,0,0,73,4.036,4.027,0,0,0,0,4.406,97.7,51.79331038442,1.312336,6,P-GPS,
359300,2023-12-27 01:00:21,-34.9551304440335,-54.9345627863161,1.312336,1.312336,51.07152558442,51.79331038442,1.64042,0.447388,5.9822508476,1.03054793324,19,5,8.057,51.79331038442,1.312336,0.447388,6.2574805152,0.447388,0,0,99.8, 0.1, -1.4,0,0,1024,908,1024,1024,0,-18,0,0,109.3,0,0,73,4.036,4.027,0,0,0,0,4.406,97.7,51.79331038442,1.312336,6,P-GPS,
359400,2023-12-27 01:00:21,-34.9551301947973,-54.9345627964603,1.312336,1.312336,51.07152558442,51.79331038442,1.64042,0.447388,6.0004595096,1.12153218812,19,5,8.057,51.79331038442,1.312336,0.447388,6.2574805152,0.447388,0,0,99.9, 0, -0.9,0,0,1024,908,1024,1024,0,-18,0,0,109.2,0,0,73,4.036,4.027,0,0,0,0,4.406,97.7,51.79331038442,1.312336,6,P-GPS,
359500,2023-12-27 01:00:21,-34.9551299653227,-54.93456276343,1.312336,1.312336,51.07152558442,51.79331038442,1.64042,0.447388,6.005905704,1.20583665276,19,5,8.057,51.79331038442,1.312336,0.447388,6.2574805152,0.447388,0,0,99.9, 0, -1.2,0,0,1024,778,1024,1024,0,-37,0,0,109.2,0,0,73,4.036,4.027,0,0,0,0,4.406,97.7,51.79331038442,1.312336,6,P-GPS,
359600,2023-12-27 01:00:21,-34.9551297389787,-54.9345627325765,1.312336,1.312336,51.07152558442,51.79331038442,1.64042,0.447388,6.01295951,1.28893376828,19,5,8.057,51.79331038442,1.312336,0.447388,6.2574805152,0.447388,0,0,99.8, 0.3, -3.1,0,0,1024,706,1024,1024,0,-48,0,0,109.2,0,0,73,4.036,4.027,0,0,0,0,4.406,97.7,51.79331038442,1.312336,6,P-GPS,
359700,2023-12-27 01:00:21,-34.955129431044,-54.9345626750531,1.312336,1.2139108,51.16995078442,51.79331038442,1.64042,0.447388,6.019849274,1.4025919084,19,5,8.057,51.79331038442,1.312336,0.447388,6.2574805152,0.447388,0,0,99.8, 0, -5.3,0,0,1024,769,1024,1024,0,-39,0,0,109.2,0,0,73,4.036,4.027,0,0,0,0,4.406,97.7,51.79331038442,1.312336,6,P-GPS,
359800,2023-12-27 01:00:21,-34.9551289186786,-54.9345626929558,1.312336,1.2139108,51.16995078442,51.79331038442,1.64042,0.671082,6.0689634488,1.58960306924,19,5,8.057,51.79331038442,1.312336,0.671082,6.2574805152,0.671082,0,0,99.7, 0, -6.5,0,0,1024,837,1024,1024,0,-28,0,0,109.2,0,0,73,4.036,4.027,0,0,0,0,4.406,97.7,51.79331038442,1.312336,6,P-GPS,
359900,2023-12-27 01:00:22,-34.955128440924,-54.9345626262628,1.312336,1.0826772,51.30118438442,51.79331038442,1.64042,0.894776,6.0955710612,1.76504926908,19,5,8.057,51.79331038442,1.312336,0.894776,6.2574805152,0.894776,0,0,99.7, 0, -4.9,0,0,1024,947,1024,1024,0,-12,0,0,109.2,0,0,73,4.036,4.027,0,0,0,0,4.406,97.7,51.79331038442,1.312336,6,P-GPS,
360000,2023-12-27 01:00:22,-34.9551279333942,-54.9345625534551,1.312336,1.0826772,51.30118438442,51.79331038442,1.64042,1.11847,6.1286419284,1.95149612544,19,5,8.057,51.79331038442,1.312336,1.11847,6.2574805152,1.11847,0,0,99.9, -0.1, -2.7,0,0,1024,958,1024,1024,0,-10,0,0,109.2,0,0,73,4.036,4.027,0,0,0,0,4.406,97.7,51.79331038442,1.312336,6,P-GPS,
360100,2023-12-27 01:00:22,-34.9551274420772,-54.9345624754158,1.312336,0.984252,51.39960958442,51.79331038442,1.64042,1.11847,6.1637469164,2.1322671286,19,5,8.049,51.79331038442,1.312336,1.11847,6.2574805152,1.11847,0,0,100, -0.2, -0.8,0,0,1024,1018,1024,1024,0,-1,0,0,109.2,0,0,73,4.025,4.017,0,0,0,0,4.127,97.7,51.79331038442,1.312336,6,P-GPS,
360200,2023-12-27 01:00:22,-34.9551269771996,-54.9345624085163,1.312336,0.984252,51.39960958442,51.79331038442,1.64042,1.11847,6.2035435056,2.3030512548,19,5,8.049,51.79331038442,1.312336,1.11847,6.2574805152,1.11847,0,0,99.9, -0.2, -0.3,0,0,1024,1024,1024,1024,0,0,0,0,109.3,0,0,73,4.025,4.017,0,0,0,0,4.127,97.7,51.79331038442,1.312336,6,P-GPS,
360300,2023-12-27 01:00:22,-34.955126420275,-54.9345625038417,1.312336,0.8530184,51.53084318442,51.79331038442,1.64042,1.11847,6.3054792044,2.5082349884,19,5,8.049,51.79331038442,1.312336,1.11847,6.3054792044,1.11847,0,0,99.9, -0.4, 0.3,0,0,1024,1024,1024,1024,0,0,0,0,109.3,0,0,73,4.025,4.017,0,0,0,0,4.127,97.7,51.79331038442,1.312336,6,P-GPS,
360400,2023-12-27 01:00:22,-34.9551259838789,-54.9345624862368,1.312336,0.8530184,51.53084318442,51.79331038442,1.64042,0.894776,6.3635500724,2.66754273628,19,5,8.049,51.79331038442,1.312336,1.11847,6.3635500724,0.894776,0,0,100, -0.5, 3.3,0,0,1024,1005,1024,1024,0,-3,0,0,109.2,0,0,73,4.025,4.017,0,0,0,0,4.127,97.7,51.79331038442,1.312336,6,P-GPS,
360500,2023-12-27 01:00:22,-34.9551256080706,-54.9345624546777,1.312336,0.8530184,51.53084318442,51.79331038442,1.64042,0.671082,6.411909654,2.80498040472,19,5,8.049,51.79331038442,1.312336,1.11847,6.411909654,0.671082,0,0,99.9, -0.5, 3.4,0,0,1024,988,1024,1024,0,-5,0,0,109.2,0,0,73,4.025,4.017,0,0,0,0,4.127,97.7,51.79331038442,1.312336,6,P-GPS,
360600,2023-12-27 01:00:22,-34.9551253196993,-54.9345624384317,1.312336,0.75459319999999,51.62926838442,51.79331038442,1.64042,0.447388,6.4528545372,2.91030521124,19,5,8.049,51.79331038442,1.312336,1.11847,6.4528545372,0.447388,0,0,99.8, -0.3, 2,0,0,1024,866,1024,1186,0,-24,0,25,109.2,0,0,73,4.025,4.017,0,0,0,0,4.127,97.7,51.79331038442,1.312336,6,P-GPS,
360700,2023-12-27 01:00:22,-34.9551250963598,-54.9345625989606,1.312336,0.7217848,51.66207678442,51.79331038442,1.64042,0.447388,6.5319227812,3.00487870508,19,5,8.049,51.79331038442,1.312336,1.11847,6.5319227812,0.447388,0,0,99.7, -0.2, 0.6,0,0,1024,826,1024,1197,0,-30,0,26,109.3,0,0,73,4.025,4.017,0,0,0,0,4.127,97.7,51.79331038442,1.312336,6,P-GPS,
360800,2023-12-27 01:00:22,-34.9551248891525,-54.9345626358505,1.312336,0.7217848,51.66207678442,51.79331038442,1.64042,0.447388,6.5757548036,3.08127634532,19,5,8.049,51.79331038442,1.312336,1.11847,6.5757548036,0.447388,0,0,99.9, -0.2, -1.8,0,0,1024,827,1024,1164,0,-30,0,21,109.6,0,0,73,4.025,4.017,0,0,0,0,4.127,97.7,51.79331038442,1.312336,6,P-GPS,
360900,2023-12-27 01:00:23,-34.9551246913112,-54.9345626325971,1.312336,0.7217848,51.66207678442,51.79331038442,1.64042,0.447388,6.607939844,3.15346466784,19,5,8.049,51.79331038442,1.312336,1.11847,6.607939844,0.447388,0,0,100.2, -0.4, -3.4,0,0,1024,962,1024,1098,0,-9,0,11,110,0,0,73,4.025,4.017,0,0,0,0,4.127,97.7,51.79331038442,1.312336,6,P-GPS,
361000,2023-12-27 01:00:23,-34.9551244835275,-54.9345626176603,1.312336,0.6233596,51.76050198442,51.79331038442,1.64042,0.447388,6.6393702912,3.22940627132,19,5,8.049,51.79331038442,1.312336,1.11847,6.6393702912,0.447388,0,0,100.7, -0.4, -3.3,0,0,1047,1024,1024,1024,3,0,0,0,110.3,0,0,73,4.025,4.017,0,0,0,0,4.127,97.7,51.79331038442,1.312336,6,P-GPS,
361100,2023-12-27 01:00:23,-34.9551243816268,-54.934562477164,1.312336,0.6233596,51.76050198442,51.79331038442,1.64042,0.671082,6.620078952,3.2854987928,19,5,8.036,51.79331038442,1.312336,1.11847,6.6393702912,0.671082,0,0,100.9, -0.2, -1.8,0,0,1047,1024,1024,1024,3,0,0,0,110.5,0,0,73,4.02,4.012,0,0,0,0,4.343,97.7,51.79331038442,1.312336,6,P-GPS,
361200,2023-12-27 01:00:23,-34.9551241726787,-54.9345624165649,1.312336,0.6233596,51.76050198442,51.79331038442,1.64042,0.671082,6.641076328,3.3638780604,19,5,8.036,51.79331038442,1.312336,1.11847,6.641076328,0.671082,0,0,101.3, -0.3, 1.8,0,0,1166,1024,1024,1024,22,0,0,0,110.6,0,0,73,4.02,4.012,0,0,0,0,4.343,97.7,51.79331038442,1.312336,6,P-GPS,
361300,2023-12-27 01:00:23,-34.9551239347329,-54.9345623389907,1.312336,0.6233596,51.76050198442,51.79331038442,1.64042,0.447388,6.6638125492,3.453740268,19,5,8.036,51.79331038442,1.312336,1.11847,6.6638125492,0.447388,0,0,101.2, -0.9, 1.1,0,0,1454,1024,1024,1024,65,0,0,0,110.6,0,0,73,4.02,4.012,0,0,0,0,4.343,97.7,51.79331038442,1.312336,6,P-GPS,
361400,2023-12-27 01:00:23,-34.9551237498361,-54.9345622576274,1.312336,0.6233596,51.76050198442,51.79331038442,1.64042,0.447388,6.676837484,3.525426622,19,5,8.036,51.79331038442,1.312336,1.11847,6.676837484,0.447388,0,0,101.1, -3.1, 0.1,0,0,1553,1024,1024,1024,80,0,0,0,110.6,0,0,73,4.02,4.012,0,0,0,0,4.343,97.7,51.79331038442,1.312336,6,P-GPS,
361500,2023-12-27 01:00:23,-34.9551235685276,-54.9345620092913,1.312336,0.6233596,51.76050198442,51.79331038442,1.64042,0.3131716,6.6472443072,3.6249016908,19,5,8.036,51.79331038442,1.312336,1.11847,6.676837484,0.223694,0.223694,0,101.1, -8.9, 0,0,0,1397,1024,1024,1024,57,0,0,0,110.6,0,0,73,4.02,4.012,0,0,0,0,4.343,97.7,51.79331038442,1.312336,6,P-GPS,
361600,2023-12-27 01:00:23,-34.9551234576249,-54.9345617473407,1.312336,0.492126,51.89173558442,51.79331038442,1.64042,0.7158208,6.6019030984,3.7130578616,19,5,8.036,51.79331038442,1.312336,1.11847,6.676837484,0.223694,0.671082,0,101.1, -11.8, 0,0,0,1317,1024,1024,1024,44,0,0,0,110.6,0,0,73,4.02,4.012,0,0,0,0,4.343,97.7,51.79331038442,1.312336,6,P-GPS,
361700,2023-12-27 01:00:23,-34.9551233467482,-54.9345612439265,1.312336,0.52493440000001,51.85892718442,51.79331038442,1.64042,0.894776,6.4968177932,3.86893057,19,5,8.036,51.79331038442,1.312336,1.11847,6.676837484,0,0.894776,0,101.2, -9.6, -0.2,0,0,1159,1024,1024,880,20,0,0,-22,110.6,0,0,73,4.02,4.012,0,0,0,0,4.343,97.7,51.79331038442,1.312336,6,P-GPS,
361800,2023-12-27 01:00:23,-34.9551232882447,-54.9345606036535,1.312336,0.52493440000001,51.85892718442,51.79331038442,1.64042,1.342164,6.3492128016,4.0615814948,19,5,8.036,51.79331038442,1.312336,1.342164,6.676837484,0,1.342164,0,101.1, -6, -0.6,0,0,1053,1024,1024,806,4,0,0,-33,110.6,0,0,73,4.02,4.012,0,0,0,0,4.343,97.7,51.79331038442,1.312336,6,P-GPS,
361900,2023-12-27 01:00:23,-34.9551233103182,-54.9345598125831,1.312336,0.52493440000001,51.85892718442,51.79331038442,1.64042,1.565858,6.1502954724,4.2982612924,19,5,8.036,51.79331038442,1.312336,1.565858,6.676837484,0,1.565858,0,101, -2.6, -1.1,0,0,1053,1024,1024,806,4,0,0,-33,110.5,0,0,73,4.02,4.012,0,0,0,0,4.343,97.7,51.79331038442,1.312336,6,P-GPS,
362000,2023-12-27 01:00:24,-34.9551232332831,-54.9345588854978,1.312336,0.5577428,51.82611878442,51.79331038442,1.64042,1.565858,5.9432744684,4.576935842,19,5,8.036,51.79331038442,1.312336,1.565858,6.676837484,0,1.565858,0,100.8, 0.1, -0.9,0,0,1024,1024,1024,741,0,0,0,-43,110,0,0,73,4.02,4.012,0,0,0,0,4.343,97.7,51.79331038442,1.312336,6,P-GPS,
362100,2023-12-27 01:00:24,-34.9551232600352,-54.934558070125,1.312336,0.5577428,51.82611878442,51.79331038442,1.64042,1.342164,5.7446524148,4.8209319128,19,5,8.029,51.79331038442,1.312336,1.565858,6.676837484,0,1.342164,0,100.1, 4.4, -0.1,0,0,1024,1024,1024,660,0,0,0,-55,109.3,0,0,73,4.017,4.009,0,0,0,0,4.327,97.7,51.79331038442,1.312336,6,P-GPS,
362200,2023-12-27 01:00:24,-34.9551232868019,-54.934557358228,1.312336,0.5577428,51.82611878442,51.79331038442,1.64042,1.11847,5.5733925668,5.0340552792,19,5,8.029,51.79331038442,1.312336,1.565858,6.676837484,0,1.11847,0,99.4, 5.6, 0.3,0,0,1024,1024,1024,792,0,0,0,-35,108.1,0,0,73,4.017,4.009,0,0,0,0,4.327,97.7,51.79331038442,1.312336,6,P-GPS,
362300,2023-12-27 01:00:24,-34.9551232891501,-54.9345566084873,1.312336,0.5577428,51.82611878442,51.79331038442,1.64042,0.894776,5.4024936112,5.2582350764,19,5,8.029,51.79331038442,1.312336,1.565858,6.676837484,0,0.894776,0,98, 5.4, 0.1,0,0,1024,1024,1024,890,0,0,0,-20,106.6,0,0,73,4.017,4.009,0,0,0,0,4.327,97.7,51.79331038442,1.312336,6,P-GPS,
362400,2023-12-27 01:00:24,-34.955123221257,-54.9345557343812,1.312336,0.5905512,51.79331038442,51.79331038442,1.64042,0.671082,5.2259844192,5.5208007016,19,5,8.029,51.79331038442,1.312336,1.565858,6.676837484,0,0.671082,0,96.7, 4.6, 0,0,0,1024,1024,1024,874,0,0,0,-23,105.8,0,0,73,4.017,4.009,0,0,0,0,4.327,97.7,51.79331038442,1.312336,6,P-GPS,
362500,2023-12-27 01:00:24,-34.9551231992356,-54.9345553493508,1.312336,0.5905512,51.79331038442,51.79331038442,1.64042,0.447388,5.1485565952,5.6362206528,19,5,8.029,51.79331038442,1.312336,1.565858,6.676837484,0,0.447388,0,96.2, 3.4, -0.4,0,0,1024,1024,1024,723,0,0,0,-46,105.5,0,0,73,4.017,4.009,0,0,0,0,4.327,97.7,51.79331038442,1.312336,6,P-GPS,
362600,2023-12-27 01:00:24,-34.9551231767614,-54.934555061577,1.312336,0.5905512,51.79331038442,51.79331038442,1.64042,0.223694,5.0932088244,5.7226379784,19,5,8.029,51.79331038442,1.312336,1.565858,6.676837484,0,0.223694,0,96.1, 2.4, -0.1,0,0,1024,1024,1024,609,0,0,0,-63,105.2,0,0,73,4.017,4.009,0,0,0,0,4.327,97.7,51.79331038442,1.312336,6,P-GPS,
362700,2023-12-27 01:00:24,-34.955123186366,-54.9345548395815,1.312336,0.5905512,51.79331038442,51.79331038442,1.64042,0.223694,5.0440618412,5.7891406052,19,5,8.029,51.79331038442,1.312336,1.565858,6.676837484,0,0.223694,0,95.6, 1.9, 0,0,0,1024,1024,1024,500,0,0,0,-79,104.5,0,0,73,4.017,4.009,0,0,0,0,4.327,97.7,51.79331038442,1.312336,6,P-GPS,
362800,2023-12-27 01:00:24,-34.9551231575067,-54.934554769771,1.312336,0.5905512,51.79331038442,51.79331038442,1.64042,0.223694,5.0370080352,5.812500186,19,5,8.029,51.79331038442,1.312336,1.565858,6.676837484,0,0.223694,0,94.5, 1.5, 0,0,0,1024,1024,1024,500,0,0,0,-79,102.9,0,0,73,4.017,4.009,0,0,0,0,4.327,97.7,51.79331038442,1.312336,6,P-GPS,
362900,2023-12-27 01:00:24,-34.9551231985174,-54.934554709705,1.312336,0.5905512,51.79331038442,51.79331038442,1.64042,0.223694,5.013779688,5.8358925752,19,5,8.029,51.79331038442,1.312336,1.565858,6.676837484,0,0.223694,0,92.5, 1.6, -0.1,0,0,1024,1024,1024,490,0,0,0,-81,100.5,0,0,73,4.017,4.009,0,0,0,0,4.327,97.7,51.79331038442,1.312336,6,P-GPS,
363000,2023-12-27 01:00:25,-34.955123249815,-54.9345546937125,1.312336,0.5905512,51.79331038442,51.79331038442,1.64042,0,4.9970145956,5.8552167228,19,5,8.029,51.79331038442,1.312336,1.565858,6.676837484,0,0,0,89.8, 1.5, -0.7,0,0,1024,1024,1024,482,0,0,0,-82,97.4,0,0,73,4.017,4.009,0,0,0,0,4.327,97.7,51.79331038442,1.312336,6,P-GPS,
363100,2023-12-27 01:00:25,-34.9551233400618,-54.9345547242629,1.64042,0.9186352,51.79331038442,52.12139438442,1.64042,0,4.9798886108,5.8893702672,19,5,8.021,52.12139438442,1.64042,1.565858,6.676837484,0,0,0,86.7, 1, -1.2,0,0,1026,1024,1024,694,0,0,0,-50,94.1,0,0,73,4.013,4.005,0,0,0,0,4.344,97.7,52.12139438442,1.64042,6,P-GPS,
363200,2023-12-27 01:00:25,-34.9551234740583,-54.9345550458928,1.64042,0.9186352,51.79331038442,52.12139438442,1.64042,0,5.0135828376,5.9972770948,19,5,8.021,52.12139438442,1.64042,1.565858,6.676837484,0,0,0,83.6, 0.4, -1.1,0,0,1024,1024,1024,654,0,0,0,-56,91.2,0,0,73,4.013,4.005,0,0,0,0,4.344,97.7,52.12139438442,1.64042,6,P-GPS,
363300,2023-12-27 01:00:25,-34.9551235019495,-54.9345550807105,1.64042,1.0498688,51.66207678442,52.12139438442,1.64042,0,5.0139765384,6.011811216,19,5,8.021,52.12139438442,1.64042,1.565858,6.676837484,0,0,0,81.3, 0.2, -0.8,0,0,1047,1024,1024,1024,3,0,0,0,89.4,0,0,73,4.013,4.005,0,0,0,0,4.344,97.7,52.12139438442,1.64042,6,P-GPS,
363400,2023-12-27 01:00:25,-34.9551235265601,-54.9345551247317,1.64042,1.0498688,51.66207678442,52.12139438442,1.64042,0,5.0171917616,6.0277560984,19,5,8.021,52.12139438442,1.64042,1.565858,6.676837484,0,0,0,79.5, 0, -0.5,0,0,1202,1024,1024,1024,27,0,0,0,87.9,0,0,73,4.013,4.005,0,0,0,0,4.344,97.7,52.12139438442,1.64042,6,P-GPS,
363500,2023-12-27 01:00:25,-34.9551236164983,-54.9345551244495,1.64042,1.0498688,51.66207678442,52.12139438442,1.64042,0,4.9944555404,6.0605644984,19,5,8.021,52.12139438442,1.64042,1.565858,6.676837484,0,0,0,78.3, -0.2, -0.4,0,0,1415,1024,1024,1024,59,0,0,0,87.2,0,0,73,4.013,4.005,0,0,0,0,4.344,97.7,52.12139438442,1.64042,6,P-GPS,
363600,2023-12-27 01:00:25,-34.955123710409,-54.9345551231168,1.64042,1.0498688,51.66207678442,52.12139438442,1.64042,0,4.9705710252,6.0948492764,19,5,8.021,52.12139438442,1.64042,1.565858,6.676837484,0,0,0,77.8, -1.6, -0.6,0,0,1415,1024,1024,1024,59,0,0,0,86.9,0,0,73,4.013,4.005,0,0,0,0,4.344,97.7,52.12139438442,1.64042,6,P-GPS,
363700,2023-12-27 01:00:25,-34.9551239904542,-54.9345549615453,1.64042,1.0498688,51.66207678442,52.12139438442,1.64042,0,4.8654529116,6.2078742144,19,5,8.021,52.12139438442,1.64042,1.565858,6.676837484,0,0,0,77.6, -5.4, -1,0,0,1477,1024,1024,1024,69,0,0,0,86.9,0,0,73,4.013,4.005,0,0,0,0,4.344,97.7,52.12139438442,1.64042,6,P-GPS,
363800,2023-12-27 01:00:25,-34.955124086043,-54.9345548800828,1.64042,1.0498688,51.66207678442,52.12139438442,1.64042,0.223694,4.8238846688,6.2503939008,19,5,8.021,52.12139438442,1.64042,1.565858,6.676837484,0,0.223694,0,77.7, -8.8, -1.3,0,0,1481,1024,1024,1024,69,0,0,0,86.9,0,0,73,4.013,4.005,0,0,0,0,4.344,97.7,52.12139438442,1.64042,6,P-GPS,
363900,2023-12-27 01:00:25,-34.9551241116348,-54.9345547058297,1.64042,1.0498688,51.66207678442,52.12139438442,1.64042,0.447388,4.77936367,6.3033466584,19,5,8.021,52.12139438442,1.64042,1.565858,6.676837484,0,0.447388,0,77.8, -10.5, -1.1,0,0,1471,1024,1024,1024,68,0,0,0,86.9,0,0,73,4.013,4.005,0,0,0,0,4.344,97.7,52.12139438442,1.64042,6,P-GPS,
364000,2023-12-27 01:00:26,-34.9551241051194,-54.9345543768803,1.64042,1.0498688,51.66207678442,52.12139438442,1.64042,0.894776,4.7097114368,6.40173905,19,5,8.021,52.12139438442,1.64042,1.565858,6.676837484,0,0.894776,0,77.7, -10.5, -1,0,0,1471,1024,1024,780,68,0,0,-37,86.9,0,0,73,4.013,4.005,0,0,0,0,4.344,97.7,52.12139438442,1.64042,6,P-GPS,
364100,2023-12-27 01:00:26,-34.9551241266483,-54.934553816157,1.64042,1.0498688,51.66207678442,52.12139438442,1.64042,1.342164,4.5848754748,6.5695868244,19,5,8.016,52.12139438442,1.64042,1.565858,6.676837484,0,1.342164,0,77.6, -10.5, -1,0,0,1452,1024,1024,574,65,0,0,-68,86.9,0,0,73,4.011,4.002,0,0,0,0,4.302,97.7,52.12139438442,1.64042,6,P-GPS,
364200,2023-12-27 01:00:26,-34.9551240828366,-54.9345531065961,1.64042,1.0498688,51.66207678442,52.12139438442,1.64042,1.5882274,4.4500329508,6.7823821068,19,5,8.016,52.12139438442,1.64042,1.5882274,6.676837484,0.223694,1.565858,0,77.5, -10.6, -1.6,0,0,1424,1024,1024,886,61,0,0,-21,86.2,0,0,73,4.011,4.002,0,0,0,0,4.302,97.7,52.12139438442,1.64042,6,P-GPS,
364300,2023-12-27 01:00:26,-34.9551239609671,-54.9345521641821,1.64042,1.0826772,51.62926838442,52.12139438442,1.64042,1.8119214,4.2986878016,7.0676511448,19,5,8.016,52.12139438442,1.64042,1.8119214,6.676837484,0.223694,1.789552,0,75.9, -10.1, -0.9,0,0,1345,1024,1024,975,49,0,0,-7,84.3,0,0,73,4.011,4.002,0,0,0,0,4.302,97.7,52.12139438442,1.64042,6,P-GPS,
364400,2023-12-27 01:00:26,-34.9551238108962,-54.9345511200771,1.312336,0.75459319999999,51.62926838442,51.79331038442,1.64042,2.2816788,4.1519686368,7.3846459056,19,5,8.016,52.12139438442,1.64042,2.2816788,6.676837484,0.447388,2.23694,0,74.5, -9.2, -0.8,0,0,1218,1024,1024,975,29,0,0,-7,83.4,0,0,73,4.011,4.002,0,0,0,0,4.302,97.7,51.79331038442,1.312336,6,P-GPS,
364500,2023-12-27 01:00:26,-34.9551233621997,-54.9345496137557,1.312336,0.656168,51.72769358442,51.79331038442,1.64042,2.2816788,4.0492455364,7.8639110128,19,5,8.016,52.12139438442,1.64042,2.2816788,6.676837484,0.447388,2.23694,0,74.1, -7.5, -0.8,0,0,1218,1024,1024,975,29,0,0,-7,83.2,0,0,73,4.011,4.002,0,0,0,0,4.302,97.7,51.79331038442,1.312336,6,P-GPS,
364600,2023-12-27 01:00:26,-34.9551231103942,-54.9345482844939,1.312336,0.6889764,51.69488518442,51.79331038442,1.64042,2.5053728,3.956036872,8.2718834668,19,5,8.016,52.12139438442,1.64042,2.5053728,6.676837484,0.447388,2.460634,0,73.9, -5.2, -1.1,0,0,1162,1024,1024,985,21,0,0,-6,83.1,0,0,73,4.011,4.002,0,0,0,0,4.302,97.7,51.79331038442,1.312336,6,P-GPS,
364700,2023-12-27 01:00:26,-34.9551228347328,-54.9345468406256,1.312336,0.6889764,51.69488518442,51.79331038442,1.64042,2.5053728,3.901574928,8.7151905676,19,5,8.016,52.12139438442,1.64042,2.5053728,6.676837484,0.447388,2.460634,0,73.6, -2.8, -1.2,0,0,1150,1024,1024,986,19,0,0,-6,83,0,0,73,4.011,4.002,0,0,0,0,4.302,97.7,51.79331038442,1.312336,6,P-GPS,
364800,2023-12-27 01:00:26,-34.9551225535005,-54.9345454598441,1.312336,0.7217848,51.66207678442,51.79331038442,1.64042,2.5053728,3.9025919884,9.1406498988,20,5,8.016,52.12139438442,1.64042,2.5053728,6.676837484,0.447388,2.460634,0,73.5, -1.8, -1.4,0,0,1161,1024,1024,1002,21,0,0,-3,83,0,0,73,4.011,4.002,0,0,0,0,4.302,97.7,51.79331038442,1.312336,6,P-GPS,
364900,2023-12-27 01:00:27,-34.9551219049792,-54.9345439370297,1.312336,0.5905512,51.79331038442,51.79331038442,1.64042,2.5501116,4.0802822828,9.6538388916,20,5,8.016,52.12139438442,1.64042,2.5501116,6.676837484,0.671082,2.460634,0,73.4, -1.7, -1.1,0,0,1158,1024,1024,1009,20,0,0,-2,83,0,0,73,4.011,4.002,0,0,0,0,4.302,97.7,51.79331038442,1.312336,6,P-GPS,
365000,2023-12-27 01:00:27,-34.955121525187,-54.9345426277873,1.312336,0.6233596,51.76050198442,51.79331038442,1.64042,2.5501116,4.21177835,10.0691276188,19,5,8.016,52.12139438442,1.64042,2.5501116,6.676837484,0.671082,2.460634,0,73.5, -1.8, -0.5,0,0,1158,1024,1024,1009,20,0,0,-2,82.9,0,0,73,4.011,4.002,0,0,0,0,4.302,97.7,51.79331038442,1.312336,6,P-GPS,
365100,2023-12-27 01:00:27,-34.9551211118277,-54.9345412520401,1.312336,0.52493440000001,51.85892718442,51.79331038442,1.64042,2.5501116,4.393372844,10.5072838008,19,5,8.009,52.12139438442,1.64042,2.5501116,6.676837484,0.671082,2.460634,0,73.6, -1.8, 0,0,0,1159,1024,1024,1012,20,0,0,-2,82.9,0,0,72,4.006,3.997,0,0,0,0,4.292,97.7,51.79331038442,1.312336,6,P-GPS,
365200,2023-12-27 01:00:27,-34.9551207285897,-54.9345399660796,1.312336,0.52493440000001,51.85892718442,51.79331038442,1.64042,2.5501116,4.5934056588,10.9164701656,19,5,8.009,52.12139438442,1.64042,2.5501116,6.676837484,0.671082,2.460634,0,73.6, -1.7, 0.2,0,0,1166,1024,1024,1012,22,0,0,-2,82.9,0,0,72,4.006,3.997,0,0,0,0,4.292,97.7,51.79331038442,1.312336,6,P-GPS,
365300,2023-12-27 01:00:27,-34.9551203793226,-54.9345387493397,1.312336,0.4265092,51.95735238442,51.79331038442,1.64042,2.3264176,4.8024607836,11.3019688656,19,5,8.009,52.12139438442,1.64042,2.5501116,6.676837484,0.671082,2.23694,0,73.5, -1.8, 0.1,0,0,1166,1024,1024,1012,22,0,0,-2,82.9,0,0,72,4.006,3.997,0,0,0,0,4.292,97.7,51.79331038442,1.312336,6,P-GPS,
365400,2023-12-27 01:00:27,-34.9551199578194,-54.9345377479402,1.312336,0.4265092,51.95735238442,51.79331038442,1.64042,2.3264176,5.0366799512,11.638615858,19,5,8.009,52.12139438442,1.64042,2.5501116,6.676837484,0.671082,2.23694,0,73.4, -2, 0.2,0,0,1166,1024,1024,985,22,0,0,-6,82.9,0,0,72,4.006,3.997,0,0,0,0,4.292,97.7,51.79331038442,1.312336,6,P-GPS,
365500,2023-12-27 01:00:27,-34.9551196866835,-54.9345365677361,1.312336,0.45931759999999,51.92454398442,51.79331038442,1.64042,2.3264176,5.2502626352,12.0051184944,19,5,8.009,52.12139438442,1.64042,2.5501116,6.676837484,0.671082,2.23694,0,73.5, -1.8, 0,0,0,1172,1024,1024,999,22,0,0,-4,82.9,0,0,72,4.006,3.997,0,0,0,0,4.292,97.7,51.79331038442,1.312336,6,P-GPS,
365600,2023-12-27 01:00:27,-34.9551194407168,-54.93453544962,1.312336,0.3608924,52.02296918442,51.79331038442,1.64042,2.3264176,5.4639765528,12.3513127312,19,5,8.009,52.12139438442,1.64042,2.5501116,6.676837484,0.671082,2.23694,0,73.4, -1.8, -0.1,0,0,1171,1024,1024,999,22,0,0,-4,82.9,0,0,72,4.006,3.997,0,0,0,0,4.292,97.7,51.79331038442,1.312336,6,P-GPS,
365700,2023-12-27 01:00:27,-34.9551191869059,-54.9345342224085,1.312336,0.3608924,52.02296918442,51.79331038442,1.64042,2.2816788,5.7082678992,12.7297904336,19,5,8.009,52.12139438442,1.64042,2.5501116,6.676837484,0.447388,2.23694,0,73.4, -1.9, -0.1,0,0,1165,1024,1024,1006,21,0,0,-3,82.9,0,0,72,4.006,3.997,0,0,0,0,4.292,97.7,51.79331038442,1.312336,6,P-GPS,
365800,2023-12-27 01:00:27,-34.9551190603921,-54.9345331924044,1.312336,0.3937008,51.99016078442,51.79331038442,1.64042,2.3264176,5.896817774,13.0412405748,19,5,8.009,52.12139438442,1.64042,2.5501116,6.676837484,0.671082,2.23694,0,73.4, -1.6, -0.1,0,0,1152,1024,1024,1017,19,0,0,-1,82.8,0,0,72,4.006,3.997,0,0,0,0,4.292,97.7,51.79331038442,1.312336,6,P-GPS,
365900,2023-12-27 01:00:28,-34.9551188018343,-54.934531959019,1.312336,0.3937008,51.99016078442,51.79331038442,1.64042,2.3264176,6.1687009848,13.4219492484,19,5,8.009,52.12139438442,1.64042,2.5501116,6.676837484,0.671082,2.23694,0,73.3, -1.2, -0.4,0,0,1139,1024,1024,1017,17,0,0,-1,82.8,0,0,72,4.006,3.997,0,0,0,0,4.292,97.7,51.79331038442,1.312336,6,P-GPS,
366000,2023-12-27 01:00:28,-34.9551185650552,-54.9345307989598,1.312336,0.3937008,51.99016078442,51.79331038442,1.64042,2.2816788,6.4326117544,13.7794295748,19,5,8.009,52.12139438442,1.64042,2.5501116,6.676837484,0.447388,2.23694,0,73.4, -1, -0.1,0,0,1096,1024,1024,1022,11,0,0,-0,82.8,0,0,72,4.006,3.997,0,0,0,0,4.292,97.7,51.79331038442,1.312336,6,P-GPS,
366100,2023-12-27 01:00:28,-34.9551183488451,-54.9345295853893,1.312336,0.2952756,52.08858598442,51.79331038442,1.64042,2.2816788,6.7087272488,14.1507878544,19,5,8.01,52.12139438442,1.64042,2.5501116,6.7087272488,0.447388,2.23694,0,73.4, -1.1, 0.2,0,0,1085,1024,1024,1023,9,0,0,-0,82.8,0,0,72,4.007,3.999,0,0,0,0,4.269,97.88,51.79331038442,1.312336,6,P-GPS,
366200,2023-12-27 01:00:28,-34.9551182461733,-54.9345283697971,1.312336,0.328084,52.05577758442,51.79331038442,1.64042,2.2816788,6.9618440548,14.5162078136,20,5,8.01,52.12139438442,1.64042,2.5501116,6.9618440548,0.447388,2.23694,0,73.4, -0.8, -0.2,0,0,1085,1024,1024,1023,9,0,0,-0,82.8,0,0,72,4.007,3.999,0,0,0,0,4.269,97.88,51.79331038442,1.312336,6,P-GPS,
366300,2023-12-27 01:00:28,-34.9551180671276,-54.9345272290169,1.312336,0.328084,52.05577758442,51.79331038442,1.64042,2.2816788,7.23097136,14.8635503444,20,5,8.01,52.12139438442,1.64042,2.5501116,7.23097136,0.447388,2.23694,0,73.4, -0.4, -0.6,0,0,1024,1024,1024,1022,0,0,0,-0,82.8,0,0,72,4.007,3.999,0,0,0,0,4.269,97.88,51.79331038442,1.312336,6,P-GPS,
366400,2023-12-27 01:00:28,-34.9551179127331,-54.9345261743623,1.312336,0.328084,52.05577758442,51.79331038442,1.64042,2.0356154,7.4824805544,15.1839243704,20,5,8.01,52.12139438442,1.64042,2.5501116,7.4824805544,0.223694,2.013246,0,73.3, 4.1, -1.1,0,0,1024,1024,1024,1022,0,0,0,-0,82.8,0,0,72,4.007,3.999,0,0,0,0,4.269,97.88,51.79331038442,1.312336,6,P-GPS,
366500,2023-12-27 01:00:28,-34.9551178092504,-54.9345251406886,1.312336,0.3608924,52.02296918442,51.79331038442,1.64042,1.8119214,7.7213585148,15.4953088948,20,5,8.01,52.12139438442,1.64042,2.5501116,7.7213585148,0.223694,1.789552,0,73.2, 7.5, -1.4,0,0,1024,980,1024,961,0,-7,0,-10,82.8,0,0,72,4.007,3.999,0,0,0,0,4.269,97.88,51.79331038442,1.312336,6,P-GPS,
366600,2023-12-27 01:00:28,-34.9551178478543,-54.9345242622841,1.312336,0.3608924,52.02296918442,51.79331038442,1.64042,1.3645334,7.8958007776,15.758366646,20,5,8.01,52.12139438442,1.64042,2.5501116,7.8958007776,0.223694,1.342164,0,73.2, 7.4, -1.5,0,0,1024,690,1024,975,0,-51,0,-7,82.8,0,0,72,4.007,3.999,0,0,0,0,4.269,97.88,51.79331038442,1.312336,6,P-GPS,
366700,2023-12-27 01:00:28,-34.9551177762207,-54.9345235581623,1.312336,0.3608924,52.02296918442,51.79331038442,1.64042,1.1408394,8.0649280796,15.9705385688,20,5,8.01,52.12139438442,1.64042,2.5501116,8.0649280796,0.223694,1.11847,0,73.3, 4.7, -3.2,0,0,1024,831,1024,977,0,-29,0,-7,82.8,0,0,72,4.007,3.999,0,0,0,0,4.269,97.88,51.79331038442,1.312336,6,P-GPS,
366800,2023-12-27 01:00:28,-34.9551176987963,-54.9345230156778,1.312336,0.3937008,51.99016078442,51.79331038442,1.64042,0.9171454,8.2021328084,16.13517112,20,5,8.01,52.12139438442,1.64042,2.5501116,8.2021328084,0.223694,0.894776,0,73.1, 2.7, -6.6,0,0,1024,1014,1024,939,0,-2,0,-13,82.7,0,0,72,4.007,3.999,0,0,0,0,4.269,97.88,51.79331038442,1.312336,6,P-GPS,
366900,2023-12-27 01:00:29,-34.9551175217454,-54.9345225528068,1.312336,0.3937008,51.99016078442,51.79331038442,1.64042,0.8052984,8.3474740204,16.2879270304,20,5,8.01,52.12139438442,1.64042,2.5501116,8.3474740204,0.447388,0.671082,0,72.9, 1.6, -5.5,0,0,1024,1024,1024,720,0,0,0,-46,82.7,0,0,72,4.007,3.999,0,0,0,0,4.269,97.88,51.79331038442,1.312336,6,P-GPS,
367000,2023-12-27 01:00:29,-34.955117300334,-54.9345221996115,1.312336,0.2624672,52.12139438442,51.79331038442,1.64042,0.6263432,8.4798559144,16.4208994756,20,5,8.01,52.12139438442,1.64042,2.5501116,8.4798559144,0.447388,0.447388,0,73.2, 1.2, -0.9,0,0,1024,1024,1024,563,0,0,0,-70,82.5,0,0,72,4.007,3.999,0,0,0,0,4.269,97.88,51.79331038442,1.312336,6,P-GPS,
367100,2023-12-27 01:00:29,-34.9551171320115,-54.9345219783634,1.312336,0.2624672,52.12139438442,51.79331038442,1.64042,0.4921268,8.5701118228,16.511155384,20,5,8.005,52.12139438442,1.64042,2.5501116,8.5701118228,0.223694,0.447388,0,73.1, 2.3, 1,0,0,1024,1024,1024,563,0,0,0,-70,81.9,0,0,72,4.006,3.998,0,0,0,0,4.149,97.88,51.79331038442,1.312336,6,P-GPS,
367200,2023-12-27 01:00:29,-34.955116989508,-54.9345218165888,1.312336,0.2624672,52.12139438442,51.79331038442,1.64042,0.4921268,8.6409451584,16.58218557,20,5,8.005,52.12139438442,1.64042,2.5501116,8.6409451584,0.223694,0.447388,0,72.2, 2.6, 1.1,0,0,1024,1024,1024,597,0,0,0,-65,80.2,0,0,72,4.006,3.998,0,0,0,0,4.149,97.88,51.79331038442,1.312336,6,P-GPS,
367300,2023-12-27 01:00:29,-34.9551169555875,-54.9345217294576,1.312336,0.2624672,52.12139438442,51.79331038442,1.64042,0.223694,8.668471406,16.6110241536,20,5,8.005,52.12139438442,1.64042,2.5501116,8.668471406,0,0.223694,0,70, 2.3, 0.7,0,0,1024,1024,1024,606,0,0,0,-63,77.9,0,0,72,4.006,3.998,0,0,0,0,4.149,97.88,51.79331038442,1.312336,6,P-GPS,
367400,2023-12-27 01:00:29,-34.955116966617,-54.9345216879104,1.312336,0.2624672,52.12139438442,51.79331038442,1.64042,0.223694,8.6749018524,16.6240818968,19,5,8.005,52.12139438442,1.64042,2.5501116,8.6749018524,0,0.223694,0,67.7, 1.6, 0.1,0,0,1024,1024,1024,589,0,0,0,-66,75.7,0,0,72,4.006,3.998,0,0,0,0,4.149,97.88,51.79331038442,1.312336,6,P-GPS,
367500,2023-12-27 01:00:29,-34.9551173415222,-54.9345216314009,1.312336,0.2624672,52.12139438442,51.79331038442,1.64042,0.223694,8.5954399076,16.7619099852,19,5,8.005,52.12139438442,1.64042,2.5501116,8.6749018524,0,0.223694,0,65.6, 0.9, -0.5,0,0,1024,1024,1024,577,0,0,0,-68,73.5,0,0,72,4.006,3.998,0,0,0,0,4.149,97.88,51.79331038442,1.312336,6,P-GPS,
367600,2023-12-27 01:00:29,-34.9551174479427,-54.9345215635,1.312336,0.2624672,52.12139438442,51.79331038442,1.64042,0.223694,8.5847771776,16.8057420076,19,5,8.005,52.12139438442,1.64042,2.5501116,8.6749018524,0,0,0,63.4, 0.6, -0.9,0,0,1024,1024,1024,534,0,0,0,-74,71.3,0,0,72,4.006,3.998,0,0,0,0,4.149,97.88,51.79331038442,1.312336,6,P-GPS,
367700,2023-12-27 01:00:29,-34.9551175580743,-54.9345215265199,1.312336,0.3937008,51.99016078442,51.79331038442,1.64042,0,8.566437282,16.8474086756,19,5,8.005,52.12139438442,1.64042,2.5501116,8.6749018524,0,0,0,61.1, 0.5, -1.3,0,0,1024,1024,1024,477,0,0,0,-83,68.9,0,0,72,4.006,3.998,0,0,0,0,4.149,97.88,51.79331038442,1.312336,6,P-GPS,
367800,2023-12-27 01:00:29,-34.955117673036,-54.9345215104856,1.312336,0.3937008,51.99016078442,51.79331038442,1.64042,0,8.5424215332,16.8896330864,19,5,8.005,52.12139438442,1.64042,2.5501116,8.6749018524,0,0,0,58.6, 0, -1.9,0,0,1024,1024,1024,386,0,0,0,-97,66.2,0,0,72,4.006,3.998,0,0,0,0,4.149,97.88,51.79331038442,1.312336,6,P-GPS,
367900,2023-12-27 01:00:29,-34.9551179868925,-54.9345213636072,1.312336,0.3937008,51.99016078442,51.79331038442,1.64042,0,8.5010173324,17.0122708856,19,5,8.005,52.12139438442,1.64042,2.5501116,8.6749018524,0,0,0,55.8, -0.3, -1.7,0,0,1024,1024,1024,386,0,0,0,-97,63.1,0,0,72,4.006,3.998,0,0,0,0,4.149,97.88,51.79331038442,1.312336,6,P-GPS,
368000,2023-12-27 01:00:30,-34.9551181173732,-54.9345213385738,1.312336,0.3937008,51.99016078442,51.79331038442,1.64042,0,8.4760173316,17.0604664252,19,5,8.005,52.12139438442,1.64042,2.5501116,8.6749018524,0,0,0,52.3, -0.5, -1.6,0,0,1024,1024,1024,364,0,0,0,-100,59.1,0,0,72,4.006,3.998,0,0,0,0,4.149,97.88,51.79331038442,1.312336,6,P-GPS,
368100,2023-12-27 01:00:30,-34.9551182264089,-54.9345212906028,1.312336,0.3937008,51.99016078442,51.79331038442,1.64042,0,8.4615160188,17.1027564528,19,5,7.996,52.12139438442,1.64042,2.5501116,8.6749018524,0,0,0,48, -0.5, -1.7,0,0,1024,1024,1024,364,0,0,0,-100,54.5,0,0,72,4.002,3.994,0,0,0,0,4.2,97.88,51.79331038442,1.312336,6,P-GPS,
368200,2023-12-27 01:00:30,-34.9551183205525,-54.9345212620436,1.312336,0.3937008,51.99016078442,51.79331038442,1.64042,0,8.4461616876,17.138123908,19,5,7.996,52.12139438442,1.64042,2.5501116,8.6749018524,0,0,0,43.5, -1.3, -1.9,0,0,1024,1024,1024,364,0,0,0,-100,49.8,0,0,72,4.002,3.994,0,0,0,0,4.2,97.88,51.79331038442,1.312336,6,P-GPS,
368300,2023-12-27 01:00:30,-34.955118308743,-54.9345211502933,1.312336,0.3937008,51.99016078442,51.79331038442,1.64042,0,8.4746721872,17.1718181348,19,5,7.996,52.12139438442,1.64042,2.5501116,8.6749018524,0,0,0,38.9, -1.8, -1,0,0,1024,1024,1024,364,0,0,0,-100,45,0,0,72,4.002,3.994,0,0,0,0,4.2,97.88,51.79331038442,1.312336,6,P-GPS,
368400,2023-12-27 01:00:30,-34.9551183418965,-54.9345211887028,1.312336,0.3937008,51.99016078442,51.79331038442,1.64042,0,8.4581367536,17.1885176104,19,5,7.996,52.12139438442,1.64042,2.5501116,8.6749018524,0,0,0,34.1, -1.8, -0.7,0,0,1024,1024,1024,364,0,0,0,-100,40.2,0,0,72,4.002,3.994,0,0,0,0,4.2,97.88,51.79331038442,1.312336,6,P-GPS,
368500,2023-12-27 01:00:30,-34.9551184000939,-54.9345212524089,1.312336,0.3937008,51.99016078442,51.79331038442,1.64042,0,8.4299215296,17.21702811,19,5,7.996,52.12139438442,1.64042,2.5501116,8.6749018524,0,0,0,29.3, -1.6, -0.4,0,0,1024,1024,1024,364,0,0,0,-100,35.4,0,0,72,4.002,3.994,0,0,0,0,4.2,97.88,51.79331038442,1.312336,6,P-GPS,
368600,2023-12-27 01:00:30,-34.9551184496051,-54.9345213147072,1.312336,0.3937008,51.99016078442,51.79331038442,1.64042,0,8.4040685104,17.2429795544,19,5,7.996,52.12139438442,1.64042,2.5501116,8.6749018524,0,0,0,24.5, -2, -0.1,0,0,1024,1024,1024,364,0,0,0,-100,30.6,0,0,72,4.002,3.994,0,0,0,0,4.2,97.88,51.79331038442,1.312336,6,P-GPS,
368700,2023-12-27 01:00:30,-34.9551184746505,-54.9345213950899,1.312336,0.3937008,51.99016078442,51.79331038442,1.64042,0,8.3796918692,17.26870134,19,5,7.996,52.12139438442,1.64042,2.5501116,8.6749018524,0,0,0,19.6, -2.1, 0.1,0,0,1024,1024,1024,364,0,0,0,-100,25.8,0,0,72,4.002,3.994,0,0,0,0,4.2,97.88,51.79331038442,1.312336,6,P-GPS,
368800,2023-12-27 01:00:30,-34.9551184777022,-54.9345215371091,1.312336,0.3937008,51.99016078442,51.79331038442,1.64042,0,8.3462273012,17.311188218,20,5,7.996,52.12139438442,1.64042,2.5501116,8.6749018524,0,0,0,14.9, -2.4, 0.4,0,0,1024,1024,1024,364,0,0,0,-100,21,0,0,72,4.002,3.994,0,0,0,0,4.2,97.88,51.79331038442,1.312336,6,P-GPS,
368900,2023-12-27 01:00:30,-34.9551185489858,-54.9345215700381,1.312336,0.492126,51.89173558442,51.79331038442,1.64042,0,8.3220803188,17.3390097412,20,5,7.996,52.12139438442,1.64042,2.5501116,8.6749018524,0,0,0,10.1, -1.9, 0.9,0,0,1024,1024,1024,364,0,0,0,-100,16.2,0,0,72,4.002,3.994,0,0,0,0,4.2,97.88,51.79331038442,1.312336,6,P-GPS,
369000,2023-12-27 01:00:31,-34.9551186118795,-54.9345215901659,1.312336,0.492126,51.89173558442,51.79331038442,1.64042,0,8.302821788,17.3627302144,20,5,7.996,52.12139438442,1.64042,2.5501116,8.6749018524,0,0,0,5.3, -2.1, 0.7,0,0,1024,1024,1024,364,0,0,0,-100,11.4,0,0,72,4.002,3.994,0,0,0,0,4.2,97.88,51.79331038442,1.312336,6,P-GPS,
369100,2023-12-27 01:00:31,-34.9551186540725,-54.9345216242239,1.312336,0.492126,51.89173558442,51.79331038442,1.64042,0,8.2852036772,17.3811685352,20,5,7.99,52.12139438442,1.64042,2.5501116,8.6749018524,0,0,0,0.5, -2, 0.9,0,0,1024,1024,1024,364,0,0,0,-100,6.6,0,0,72,3.999,3.99,0,0,0,0,4.228,97.88,51.79331038442,1.312336,6,P-GPS,
369200,2023-12-27 01:00:31,-34.955118762649,-54.934521678797,1.312336,0.492126,51.89173558442,51.79331038442,1.64042,0,8.2474740172,17.4240163056,20,5,7.99,52.12139438442,1.64042,2.5501116,8.6749018524,0,0,0,355.9, -1.5, 1.3,0,0,1024,1024,1024,364,0,0,0,-100,1.8,0,0,72,3.999,3.99,0,0,0,0,4.228,97.88,51.79331038442,1.312336,6,P-GPS,
369300,2023-12-27 01:00:31,-34.9551187893392,-54.934521706064,1.312336,0.492126,51.89173558442,51.79331038442,1.64042,0,8.2350068252,17.4367131564,20,5,7.99,52.12139438442,1.64042,2.5501116,8.6749018524,0,0,0,351, -1.5, 1.1,0,0,1024,1024,1024,364,0,0,0,-100,357.1,0,0,72,3.999,3.99,0,0,0,0,4.228,97.88,51.79331038442,1.312336,6,P-GPS,
369400,2023-12-27 01:00:31,-34.9551188110757,-54.9345217236564,1.312336,0.492126,51.89173558442,51.79331038442,1.64042,0,8.22588609,17.4462275924,20,5,7.99,52.12139438442,1.64042,2.5501116,8.6749018524,0,0,0,346.1, -1.5, 1.1,0,0,1024,1024,1024,364,0,0,0,-100,352.3,0,0,72,3.999,3.99,0,0,0,0,4.228,97.88,51.79331038442,1.312336,6,P-GPS,
369500,2023-12-27 01:00:31,-34.9551187912184,-54.9345217062038,1.312336,0.492126,51.89173558442,51.79331038442,1.64042,0,8.2345146992,17.4551514772,20,5,7.99,52.12139438442,1.64042,2.5501116,8.6749018524,0,0,0,341.4, -1.2, 1.3,0,0,1024,1024,1024,364,0,0,0,-100,347.5,0,0,72,3.999,3.99,0,0,0,0,4.228,97.88,51.79331038442,1.312336,6,P-GPS,
369600,2023-12-27 01:00:31,-34.9551187266181,-54.9345216906908,1.312336,0.492126,51.89173558442,51.79331038442,1.64042,0,8.2530514452,17.4792000344,20,5,7.99,52.12139438442,1.64042,2.5501116,8.6749018524,0,0,0,336.6, -1.3, 1.5,0,0,1024,1024,1024,364,0,0,0,-100,342.7,0,0,72,3.999,3.99,0,0,0,0,4.228,97.88,51.79331038442,1.312336,6,P-GPS,
369700,2023-12-27 01:00:31,-34.9551187510073,-54.9345216765817,1.312336,0.492126,51.89173558442,51.79331038442,1.64042,0,8.250656432,17.4890425544,20,5,7.99,52.12139438442,1.64042,2.5501116,8.6749018524,0,0,0,331.9, -1, 1.6,0,0,1024,1024,1024,364,0,0,0,-100,337.9,0,0,72,3.999,3.99,0,0,0,0,4.228,97.88,51.79331038442,1.312336,6,P-GPS,
369800,2023-12-27 01:00:31,-34.9551187637678,-54.9345216546201,1.312336,0.492126,51.89173558442,51.79331038442,1.64042,0,8.2528217864,17.4970806124,20,5,7.99,52.12139438442,1.64042,2.5501116,8.6749018524,0,0,0,327, -0.7, 1.6,0,0,1024,1024,1024,364,0,0,0,-100,333.1,0,0,72,3.999,3.99,0,0,0,0,4.228,97.88,51.79331038442,1.312336,6,P-GPS,
369900,2023-12-27 01:00:32,-34.9551187048946,-54.934521598157,1.312336,0.492126,51.89173558442,51.79331038442,1.64042,0,8.2794622072,17.5244100096,20,5,7.99,52.12139438442,1.64042,2.5501116,8.6749018524,0,0,0,322.2, -0.7, 1.5,0,0,1024,1024,1024,364,0,0,0,-100,328.3,0,0,72,3.999,3.99,0,0,0,0,4.228,97.88,51.79331038442,1.312336,6,P-GPS,
370000,2023-12-27 01:00:32,-34.9551185423808,-54.9345215107142,1.312336,0.492126,51.89173558442,51.79331038442,1.64042,0,8.3373034164,17.5892065996,20,5,7.99,52.12139438442,1.64042,2.5501116,8.6749018524,0,0,0,317.3, -1, 1.2,0,0,1024,1024,1024,364,0,0,0,-100,323.4,0,0,72,3.999,3.99,0,0,0,0,4.228,97.88,51.79331038442,1.312336,6,P-GPS,
370100,2023-12-27 01:00:32,-34.9551184504405,-54.9345214982514,1.312336,0.3937008,51.99016078442,51.79331038442,1.64042,0,8.3615160156,17.6229664432,20,5,7.985,52.12139438442,1.64042,2.5501116,8.6749018524,0,0,0,312.5, -0.3, 1.2,0,0,1024,1024,1024,364,0,0,0,-100,318.6,0,0,72,3.997,3.988,0,0,0,0,4.288,97.88,51.79331038442,1.312336,6,P-GPS,
370200,2023-12-27 01:00:32,-34.9551183633627,-54.9345214871318,1.64042,0.7217848,51.99016078442,52.12139438442,1.64042,0,8.3843834704,17.6549218248,20,5,7.985,52.12139438442,1.64042,2.5501116,8.6749018524,0,0,0,307.8, 0, 1.2,0,0,1024,1024,1001,364,0,0,-3,-100,313.8,0,0,72,3.997,3.988,0,0,0,0,4.288,97.88,52.12139438442,1.64042,6,P-GPS,
370300,2023-12-27 01:00:32,-34.955118283012,-54.9345214956193,1.64042,0.7217848,51.99016078442,52.12139438442,1.64042,0,8.4012141796,17.6843181512,20,5,7.985,52.12139438442,1.64042,2.5501116,8.6749018524,0,0,0,303, 0, 1,0,0,1024,1024,1003,364,0,0,-3,-100,309,0,0,72,3.997,3.988,0,0,0,0,4.288,97.88,52.12139438442,1.64042,6,P-GPS,
370400,2023-12-27 01:00:32,-34.955118207164,-54.9345214992203,1.64042,0.7217848,51.99016078442,52.12139438442,1.64042,0,8.4181761224,17.7120412492,20,5,7.985,52.12139438442,1.64042,2.5501116,8.6749018524,0,0,0,298.1, 0, 1,0,0,1024,1024,1009,364,0,0,-2,-100,304.2,0,0,72,3.997,3.988,0,0,0,0,4.288,97.88,52.12139438442,1.64042,6,P-GPS,
370500,2023-12-27 01:00:32,-34.9551178386503,-54.9345216177935,1.64042,0.7217848,51.99016078442,52.12139438442,1.64042,0,8.4785435784,17.8510832484,20,5,7.985,52.12139438442,1.64042,2.5501116,8.6749018524,0,0,0,293.3, 0, 0.8,0,0,1024,1024,1024,386,0,0,0,-97,299.4,0,0,72,3.997,3.988,0,0,0,0,4.288,97.88,52.12139438442,1.64042,6,P-GPS,
370600,2023-12-27 01:00:32,-34.9551177462068,-54.9345215905324,1.64042,0.7217848,51.99016078442,52.12139438442,1.64042,0,8.5068244192,17.8857617272,20,5,7.985,52.12139438442,1.64042,2.5501116,8.6749018524,0,0,0,288.5, 0.2, 0.7,0,0,1024,1024,1024,976,0,0,0,-7,294.6,0,0,72,3.997,3.988,0,0,0,0,4.288,97.88,52.12139438442,1.64042,6,P-GPS,
370700,2023-12-27 01:00:32,-34.9551176989282,-54.9345215578654,1.64042,0.7217848,51.99016078442,52.12139438442,1.64042,0,8.5255252072,17.9056108092,20,5,7.985,52.12139438442,1.64042,2.5501116,8.6749018524,0,0,0,283.8, 0.3, 0.6,0,0,1024,1024,1024,1024,0,0,0,0,291,0,0,72,3.997,3.988,0,0,0,0,4.288,97.88,52.12139438442,1.64042,6,P-GPS,
370800,2023-12-27 01:00:32,-34.9551176655419,-54.9345215197786,1.64042,0.7217848,51.99016078442,52.12139438442,1.64042,0,8.5421262576,17.9222774764,20,5,7.985,52.12139438442,1.64042,2.5501116,8.6749018524,0,0,0,281.3, 0.3, 0.7,0,0,1024,1024,1024,1024,0,0,0,0,289.6,0,0,72,3.997,3.988,0,0,0,0,4.288,97.88,52.12139438442,1.64042,6,P-GPS,
370900,2023-12-27 01:00:33,-34.9551176788804,-54.9345213772453,1.64042,0.7217848,51.99016078442,52.12139438442,1.64042,0,8.5710960748,17.9651580552,20,5,7.985,52.12139438442,1.64042,2.5501116,8.6749018524,0,0,0,280.2, 0.1, 0.9,0,0,537,1024,1024,1024,-74,0,0,0,289,0,0,72,3.997,3.988,0,0,0,0,4.288,97.88,52.12139438442,1.64042,6,P-GPS,
371000,2023-12-27 01:00:33,-34.9551176799145,-54.9345212991799,1.64042,0.7217848,51.99016078442,52.12139438442,1.64042,0,8.5884845268,17.988517636,20,5,7.985,52.12139438442,1.64042,2.5501116,8.6749018524,0,0,0,279.7, 0.2, 1.3,0,0,537,1024,1024,1024,-74,0,0,0,288.9,0,0,72,3.997,3.988,0,0,0,0,4.288,97.88,52.12139438442,1.64042,6,P-GPS,
371100,2023-12-27 01:00:33,-34.9551176732069,-54.934521255058,1.64042,0.7217848,51.99016078442,52.12139438442,1.64042,0,8.600065892,18.0019362716,20,5,7.982,52.12139438442,1.64042,2.5501116,8.6749018524,0,0,0,279.7, 4, 1.6,0,0,364,1024,1024,1024,-100,0,0,0,288.9,0,0,72,3.994,3.985,0,0,0,0,4.276,97.88,52.12139438442,1.64042,6,P-GPS,
371200,2023-12-27 01:00:33,-34.9551176726126,-54.934521152992,1.64042,0.7217848,51.99016078442,52.12139438442,1.64042,0.223694,8.623359856,18.0324480836,20,5,7.982,52.12139438442,1.64042,2.5501116,8.6749018524,0,0.223694,0,279.6, 12.8, 1.3,0,0,364,1024,1024,1024,-100,0,0,0,288.9,0,0,72,3.994,3.985,0,0,0,0,4.276,97.88,52.12139438442,1.64042,6,P-GPS,
371300,2023-12-27 01:00:33,-34.9551177265515,-54.9345209701436,1.64042,0.7217848,51.99016078442,52.12139438442,1.64042,0.671082,8.6521984396,18.0905845684,20,5,7.982,52.12139438442,1.64042,2.5501116,8.6749018524,0,0.671082,0,279.6, 17.2, 1,0,0,364,1024,1024,1024,-100,0,0,0,288.9,0,0,72,3.994,3.985,0,0,0,0,4.276,97.88,52.12139438442,1.64042,6,P-GPS,
371400,2023-12-27 01:00:33,-34.9551178058649,-54.934520418727,1.64042,0.7545932,51.95735238442,52.12139438442,1.64042,1.3645334,8.760170884,18.2579730252,20,5,7.982,52.12139438442,1.64042,2.5501116,8.760170884,-0.223694,1.342164,0,279.6, 17.3, 1.3,0,0,693,1024,1024,1024,-50,0,0,0,288.9,0,0,72,3.994,3.985,0,0,0,0,4.276,97.88,52.12139438442,1.64042,6,P-GPS,
371500,2023-12-27 01:00:33,-34.9551179293628,-54.9345194730028,1.64042,0.7545932,51.95735238442,52.12139438442,1.64042,2.0356154,8.9524609164,18.5443575488,20,5,7.982,52.12139438442,1.64042,2.5501116,8.9524609164,-0.223694,2.013246,0,279.5, 16.4, 0.9,0,0,1024,1024,1024,1024,0,0,0,0,288.9,0,0,72,3.994,3.985,0,0,0,0,4.276,97.88,52.12139438442,1.64042,6,P-GPS,
371600,2023-12-27 01:00:33,-34.95511808435,-54.934518313915,1.64042,0.7545932,51.95735238442,52.12139438442,1.64042,2.460634,9.1940291656,18.8955386624,20,5,7.982,52.12139438442,1.64042,2.5501116,9.1940291656,-0.223694,2.460634,0,279.5, 8.7, 0.7,0,0,1024,1024,1024,1024,0,0,0,0,288.9,0,0,72,3.994,3.985,0,0,0,0,4.276,97.88,52.12139438442,1.64042,6,P-GPS,
371700,2023-12-27 01:00:33,-34.9551182783742,-54.9345169380789,1.64042,0.78740159999999,51.92454398442,52.12139438442,1.64042,2.7290668,9.4875987288,19.312992744,20,5,7.982,52.12139438442,1.64042,2.7290668,9.4875987288,-0.447388,2.684328,0,279.4, -3.4, 0.6,0,0,1024,1024,1024,1024,0,0,0,0,288.9,0,0,72,3.994,3.985,0,0,0,0,4.276,97.88,52.12139438442,1.64042,6,P-GPS,
