time(millisecond),datetime(utc),latitude,longitude,height_above_takeoff(feet),height_above_ground_at_drone_location(feet),ground_elevation_at_drone_location(feet),altitude_above_seaLevel(feet),height_sonar(feet),speed(mph),distance(feet),mileage(feet),satellites,gpslevel,voltage(v),max_altitude(feet),max_ascent(feet),max_speed(mph),max_distance(feet), xSpeed(mph), ySpeed(mph), zSpeed(mph), compass_heading(degrees), pitch(degrees), roll(degrees),isPhoto,isVideo,rc_elevator,rc_aileron,rc_throttle,rc_rudder,rc_elevator(percent),rc_aileron(percent),rc_throttle(percent),rc_rudder(percent),gimbal_heading(degrees),gimbal_pitch(degrees),gimbal_roll(degrees),battery_percent,voltageCell1,voltageCell2,voltageCell3,voltageCell4,voltageCell5,voltageCell6,current(A),battery_temperature(f),altitude(feet),ascent(feet),flycStateRaw,flycState,message
0,2022-10-29 00:25:34,-34.9064973856664,-56.1631297270469,0,0,120.0648968867,120.0648968867,0.328084,0,0,0,19,5,0,120.0648968867,0,0,0,0.223694,0,0,294.5, -9.6, -2.3,0,0,1024,1024,1024,1024,0,0,0,0,302.7,0,0,70,4.064,4.062,0,0,0,0,0,101.12,120.0648968867,0,41,Motors_Started,"Error de calibraci贸n del estabilizador. Reinicia la aeronave o contacta con la Asistencia DJI (Code: 40011)"
100,2022-10-29 00:25:34,-34.9064972298015,-56.163129962227,0,0,120.0648968867,120.0648968867,0.328084,0.223694,0.090473756176,0.090473756176,19,5,0,120.0648968867,0,0.223694,0.090473756176,0.223694,0,0,297.1, -8.7, -4.2,0,0,364,364,364,1684,-100,-100,-100,100,304.6,0,0,70,4.064,4.062,0,0,0,0,0,101.12,120.0648968867,0,41,Motors_Started,
200,2022-10-29 00:25:34,-34.9064970732299,-56.1631302220764,0,0,120.0648968867,120.0648968867,0.328084,0.223694,0.186903221204,0.186952761888,19,5,0,120.0648968867,0,0.223694,0.186903221204,0.223694,0,0,298.2, -7.7, -4.9,0,0,364,364,364,1684,-100,-100,-100,100,306.5,0,0,70,4.064,4.062,0,0,0,0,0,101.12,120.0648968867,0,41,Motors_Started,
300,2022-10-29 00:25:34,-34.9064969547736,-56.1631304190017,0,0,120.0648968867,120.0648968867,0.328084,0,0.259961950576,0.260025598872,19,5,0,120.0648968867,0,0.223694,0.259961950576,0,0,0,298.7, -6.7, -5.6,0,0,364,364,364,1684,-100,-100,-100,100,307.6,0,0,70,4.064,4.062,0,0,0,0,0,101.12,120.0648968867,0,41,Motors_Started,
400,2022-10-29 00:25:34,-34.906496742133,-56.1631306074707,0,0.032808400000017,120.0320884867,120.0648968867,0.328084,0,0.35287730788,0.35593505076,19,5,0,120.0648968867,0,0.223694,0.35287730788,0,0,0,298.5, -4.8, -6.2,0,0,1024,1024,1024,1024,0,0,0,0,308,0,0,70,4.064,4.062,0,0,0,0,0,101.12,120.0648968867,0,41,Motors_Started,
500,2022-10-29 00:25:34,-34.9064966779072,-56.1631306795248,0,0.032808400000017,120.0320884867,120.0648968867,0.328084,0,0.38457678396,0.3877788838,19,5,0,120.0648968867,0,0.223694,0.38457678396,0,0,0,298.4, -3.5, -7.6,0,0,1024,1024,1024,1024,0,0,0,0,308.2,0,0,70,4.064,4.062,0,0,0,0,0,101.12,120.0648968867,0,41,Motors_Started,
600,2022-10-29 00:25:34,-34.9064966090566,-56.1631307283618,0,0.032808400000017,120.0320884867,120.0648968867,0.328084,0,0.41236549876,0.41684056452,18,5,0,120.0648968867,0,0.223694,0.41236549876,0,0,0,299.3, -2.9, -8.1,0,0,1024,1024,1024,1024,0,0,0,0,308.7,0,0,70,4.064,4.062,0,0,0,0,0,101.12,120.0648968867,0,41,Motors_Started,
700,2022-10-29 00:25:34,-34.9064965949543,-56.1631308308464,0,0.032808400000017,120.0320884867,120.0648968867,0.328084,0,0.43852363608,0.4479330852,18,5,0,120.0648968867,0,0.223694,0.43852363608,0,0,0,299.6, -5.3, -6.5,0,0,1024,1024,1024,1024,0,0,0,0,309.2,0,0,70,4.064,4.062,0,0,0,0,0,101.12,120.0648968867,0,41,Motors_Started,
800,2022-10-29 00:25:34,-34.9064967307193,-56.1631306901802,0,0.032808400000017,120.0320884867,120.0648968867,0.328084,0.223694,0.3743602482,0.51293308728,18,5,0,120.0648968867,0,0.223694,0.43852363608,0.223694,0,0,301.4, -11.3, 0.5,0,0,1024,1024,1024,1024,0,0,0,0,309.9,0,0,70,4.064,4.062,0,0,0,0,0,101.12,120.0648968867,0,41,Motors_Started,"Error de calibraci贸n del estabilizador. Reinicia la aeronave o contacta con la Asistencia DJI (Code: 40011)"
900,2022-10-29 00:25:35,-34.9064966487532,-56.1631307439165,0,0.032808400000017,120.0320884867,120.0648968867,0.328084,0.223694,0.40602691588,0.54688650044,18,5,0,120.0648968867,0,0.223694,0.43852363608,0.223694,0,0,301.2, -13.2, 4.8,0,0,1024,1024,1024,1024,0,0,0,0,312,0,0,70,4.064,4.062,0,0,0,0,0,101.12,120.0648968867,0,41,Motors_Started,"Setting new Return-To-Home altitude to 100m (328 ft). Data Recorder File Index is 68. Setting new Maximum Flight Altitude to 120m (394 ft)"
1000,2022-10-29 00:25:35,-34.9064965730142,-56.1631307407408,0,0.032808400000017,120.0320884867,120.0648968867,0.328084,0,0.42415027604,0.57453413912,18,5,0,120.0648968867,0,0.223694,0.43852363608,0,0,0,298.5, -9.9, 2,0,0,1024,1024,1024,1024,0,0,0,0,310.5,0,0,70,4.064,4.062,0,0,0,0,0,101.12,120.0648968867,0,41,Motors_Started,"Error de calibraci贸n del estabilizador. Reinicia la aeronave o contacta con la Asistencia DJI (Code: 40011)"
1100,2022-10-29 00:25:35,-34.9064965399943,-56.1631307325143,0,0.032808400000017,120.0320884867,120.0648968867,0.328084,0,0.43093505316,0.58683072744,18,5,8.135,120.0648968867,0,0.223694,0.43852363608,0,0,0,298.4, -9.2, 1.8,0,0,1024,1024,1024,1024,0,0,0,0,309.1,0,0,70,4.064,4.062,0,0,0,0,0.946,101.12,120.0648968867,0,10,Assisted_Takeoff,
1200,2022-10-29 00:25:35,-34.9064965542709,-56.1631306221322,0,0.032808400000017,120.0320884867,120.0648968867,0.328084,0,0.40464568224,0.62026576788,17,5,8.135,120.0648968867,0,0.223694,0.43852363608,0,0,-0.223694,298.4, -7.7, 1.6,0,0,1024,1024,1024,1024,0,0,0,0,309,0,0,70,4.064,4.062,0,0,0,0,0.946,101.12,120.0648968867,0,6,P-GPS,
1300,2022-10-29 00:25:35,-34.9064965019929,-56.1631306534297,0,0.032808400000017,120.0320884867,120.0648968867,0.328084,0,0.42517717896,0.64151576856,17,5,8.135,120.0648968867,0,0.223694,0.43852363608,0,0,-0.223694,297.9, -5.5, 1.1,0,0,1024,1024,1024,1024,0,0,0,0,309,0,0,70,4.064,4.062,0,0,0,0,0.946,101.12,120.0648968867,0,6,P-GPS,
1400,2022-10-29 00:25:35,-34.9064964677011,-56.1631306855367,0,-0.032808399999993,120.0977052867,120.0648968867,0.328084,0,0.4409284918,0.65729004728,17,5,8.135,120.0648968867,0,0.223694,0.4409284918,0,0,-0.223694,297.2, -4.8, 1.2,0,0,1024,1024,1024,1024,0,0,0,0,309,0,0,70,4.064,4.062,0,0,0,0,0.946,101.12,120.0648968867,0,6,P-GPS,
1500,2022-10-29 00:25:35,-34.9064964718586,-56.1631306001112,0,-0.032808399999993,120.0977052867,120.0648968867,0.328084,0,0.42355316316,0.68289372264,17,5,8.135,120.0648968867,0,0.223694,0.4409284918,0,0,-0.223694,297.2, -4.3, 1.1,0,0,1024,1024,1024,1024,0,0,0,0,309,0,0,70,4.064,4.062,0,0,0,0,0.946,101.12,120.0648968867,0,6,P-GPS,
1600,2022-10-29 00:25:35,-34.9064965701807,-56.1631302701508,0,0,120.0648968867,120.0648968867,0.328084,0,0.33901247804,0.78793637692,17,5,8.135,120.0648968867,0,0.223694,0.4409284918,0,0,-0.223694,297.5, -3.1, 0.6,0,0,1024,1024,1024,1024,0,0,0,0,309,0,0,70,4.064,4.062,0,0,0,0,0.946,101.12,120.0648968867,0,6,P-GPS,
1700,2022-10-29 00:25:35,-34.9064966336331,-56.1631301515578,0,0,120.0648968867,120.0648968867,0.328084,0,0.302352699964,0.83030514468,17,5,8.135,120.0648968867,0,0.223694,0.4409284918,0,0,-0.447388,298.4, -1.9, 0.4,0,0,1024,1024,1024,1024,0,0,0,0,309,0,0,70,4.064,4.062,0,0,0,0,0.946,101.12,120.0648968867,0,6,P-GPS,
1800,2022-10-29 00:25:35,-34.9064967125279,-56.1631300413534,0,0,120.0648968867,120.0648968867,0.328084,0,0.2629839323,0.87407483112,18,5,8.135,120.0648968867,0,0.223694,0.4409284918,0,0,-0.223694,299.1, -1.1, 0,0,0,1024,1024,1024,1024,0,0,0,0,309,0,0,70,4.064,4.062,0,0,0,0,0.946,101.12,120.0648968867,0,6,P-GPS,
1900,2022-10-29 00:25:36,-34.9064967958033,-56.1631299699208,0,0,120.0648968867,120.0648968867,0.328084,0,0.227149285484,0.91122378244,18,5,8.135,120.0648968867,0,0.223694,0.4409284918,0,0,-0.223694,299.4, 0.2, -0.3,0,0,1024,1024,1024,1024,0,0,0,0,309,0,0,70,4.064,4.062,0,0,0,0,0.946,101.12,120.0648968867,0,6,P-GPS,
2000,2022-10-29 00:25:36,-34.9064968586612,-56.1631299046412,0.328084,0.328084,120.0648968867,120.3929808867,0.328084,0,0.19948491452,0.94134845532,17,5,8.135,120.3929808867,0.328084,0.223694,0.4409284918,0,0,-0.223694,300.1, 1, -0.6,0,0,1024,1024,1141,1017,0,0,18,-1,309,0,0,70,4.064,4.062,0,0,0,0,0.946,101.12,120.3929808867,0.328084,6,P-GPS,
2100,2022-10-29 00:25:36,-34.9064970757605,-56.163129734093,0.328084,0.328084,120.0648968867,120.3929808867,0.328084,0,0.113088586296,1.03557089928,17,5,8.11,120.3929808867,0.328084,0.223694,0.4409284918,0,0,-0.223694,301, 0.4, -0.9,0,0,1024,1024,1141,1017,0,0,18,-1,309,0,0,70,4.042,4.037,0,0,0,0,1.833,101.3,120.3929808867,0.328084,6,P-GPS,
2200,2022-10-29 00:25:36,-34.9064971110261,-56.1631297657248,0.328084,0.328084,120.0648968867,120.3929808867,0.328084,0,0.100868441548,1.0515420284,18,5,8.11,120.3929808867,0.328084,0.223694,0.4409284918,0,0,-0.223694,301.5, -0.4, -0.8,0,0,1024,1024,1200,1024,0,0,27,0,309,0,0,70,4.042,4.037,0,0,0,0,1.833,101.3,120.3929808867,0.328084,6,P-GPS,"Punto de origen actualizado. Altitud de RPO establecida en 100m (Code: 3000001)"
2300,2022-10-29 00:25:36,-34.9064970981223,-56.1631298986815,0.328084,0.328084,120.0648968867,120.3929808867,0.656168,0,0.116805121848,1.0916010848,18,5,8.11,120.3929808867,0.328084,0.223694,0.4409284918,0,0,-1.11847,298.2, 4.4, -2.2,0,0,1024,1024,1054,1024,0,0,5,0,309,0,0,70,4.042,4.037,0,0,0,0,1.833,101.3,120.3929808867,0.328084,6,P-GPS,
2400,2022-10-29 00:25:36,-34.90649710035,-56.1631300243519,0.656168,0.656168,120.0648968867,120.7210648867,0.656168,0,0.136928810156,1.12921263456,18,5,8.11,120.7210648867,0.656168,0.223694,0.4409284918,0,0,-1.565858,297.7, 3.8, -1.5,0,0,1024,1024,1024,1024,0,0,0,0,309,0,0,70,4.042,4.037,0,0,0,0,1.833,101.3,120.7210648867,0.656168,6,P-GPS,
2500,2022-10-29 00:25:36,-34.9064970255653,-56.163130264212,0.984252,0.984252,120.0648968867,121.0491488867,0.984252,0,0.20759022974,1.20599085224,18,5,8.11,121.0491488867,0.984252,0.223694,0.4409284918,0,0,-1.565858,298.1, 3.3, 0,0,0,1024,1024,1024,1024,0,0,0,0,309,0,0,70,4.042,4.037,0,0,0,0,1.833,101.3,121.0491488867,0.984252,6,P-GPS,
2600,2022-10-29 00:25:36,-34.9064969182851,-56.1631305306582,1.312336,1.3451444,120.0320884867,121.3772328867,1.312336,0,0.294776584236,1.29480647188,18,5,8.11,121.3772328867,1.312336,0.223694,0.4409284918,0,0,-1.342164,298, 2.2, 0,0,0,1024,1024,1024,1024,0,0,0,0,309,0,0,70,4.042,4.037,0,0,0,0,1.833,101.3,121.3772328867,1.312336,6,P-GPS,
2700,2022-10-29 00:25:36,-34.906496893764,-56.1631306048591,1.312336,1.3451444,120.0320884867,121.3772328867,1.312336,0,0.318109918316,1.31874348052,18,5,8.11,121.3772328867,1.312336,0.223694,0.4409284918,0,0,-1.11847,298, 1.8, -0.4,0,0,1024,1024,1024,1024,0,0,0,0,309,0,0,70,4.042,4.037,0,0,0,0,1.833,101.3,121.3772328867,1.312336,6,P-GPS,
2800,2022-10-29 00:25:36,-34.9064969013721,-56.1631305973168,1.64042,1.6732284,120.0320884867,121.7053168867,1.64042,0,0.314682096684,1.32231959612,18,5,8.11,121.7053168867,1.64042,0.223694,0.4409284918,0,0,-0.894776,298, 1.2, -0.8,0,0,1024,1024,1024,1024,0,0,0,0,309,0,0,70,4.042,4.037,0,0,0,0,1.833,101.3,121.7053168867,1.64042,6,P-GPS,
2900,2022-10-29 00:25:37,-34.9064968727603,-56.1631309397816,1.64042,1.6732284,120.0320884867,121.7053168867,1.64042,0,0.40827101044,1.42531828708,18,5,8.11,121.7053168867,1.64042,0.223694,0.4409284918,0,0,-0.447388,298.1, 1.6, -0.3,0,0,1024,1024,1024,1024,0,0,0,0,309,0,0,70,4.042,4.037,0,0,0,0,1.833,101.3,121.7053168867,1.64042,6,P-GPS,
3000,2022-10-29 00:25:37,-34.9064968764992,-56.163131074885,1.64042,1.6732284,120.0320884867,121.7053168867,3.28084,0,0.4440124814,1.4657644826,18,5,8.11,121.7053168867,1.64042,0.223694,0.4440124814,0,0,-0.223694,298.1, 1.4, -0.2,0,0,1146,906,1024,1024,18,-18,0,0,309,0,0,70,4.042,4.037,0,0,0,0,1.833,101.3,121.7053168867,1.64042,6,P-GPS,
3100,2022-10-29 00:25:37,-34.9064969451186,-56.1631311486002,1.64042,1.6732284,120.0320884867,121.7053168867,3.28084,0,0.45469817728,1.4991306254,18,5,7.989,121.7053168867,1.64042,0.223694,0.45469817728,0,0,0,298.2, 1.2, -0.3,0,0,1146,906,1024,1024,18,-18,0,0,309,0,0,70,4.028,4.024,0,0,0,0,4.887,101.3,121.7053168867,1.64042,6,P-GPS,
3200,2022-10-29 00:25:37,-34.9064970386857,-56.1631311905216,1.64042,1.6732284,120.0320884867,121.7053168867,3.28084,0,0.45581694372,1.5354987368,18,5,7.989,121.7053168867,1.64042,0.223694,0.45581694372,0,0,0,298.1, 1, -1.4,0,0,1684,1024,1024,1024,100,0,0,0,309,0,0,70,4.028,4.024,0,0,0,0,4.887,101.3,121.7053168867,1.64042,6,P-GPS,
3300,2022-10-29 00:25:37,-34.90649730002,-56.1631310440054,1.64042,1.6732284,120.0320884867,121.7053168867,3.28084,0,0.39528216488,1.64044296588,18,5,7.989,121.7053168867,1.64042,0.223694,0.45581694372,0,0,0,298.4, -6.5, -1.6,0,0,1532,1024,1024,1024,77,0,0,0,309,0,0,70,4.028,4.024,0,0,0,0,4.887,101.3,121.7053168867,1.64042,6,P-GPS,
3400,2022-10-29 00:25:37,-34.9064973291464,-56.163131117193,1.64042,1.6732284,120.0320884867,121.7053168867,3.28084,0.3131716,0.4164534254,1.66478351784,18,5,7.989,121.7053168867,1.64042,0.3131716,0.45581694372,0.223694,-0.223694,0,298.6, -13.7, -0.8,0,0,1024,1024,1024,1024,0,0,0,0,309,0,0,70,4.028,4.024,0,0,0,0,4.887,101.3,121.7053168867,1.64042,6,P-GPS,
3500,2022-10-29 00:25:37,-34.9064971886622,-56.1631313697142,1.64042,1.6732284,120.0320884867,121.7053168867,3.28084,0.8052984,0.49672901852,1.7560860142,18,5,7.989,121.7053168867,1.64042,0.8052984,0.49672901852,0.447388,-0.671082,0,298.5, -5.5, -0.6,0,0,1024,1024,1024,1024,0,0,0,0,309,0,0,70,4.028,4.024,0,0,0,0,4.887,101.3,121.7053168867,1.64042,6,P-GPS,
3600,2022-10-29 00:25:37,-34.9064969595808,-56.1631317228082,1.64042,1.7060368,119.9992800867,121.7053168867,3.28084,0.8052984,0.61705054468,1.8907973046,16,5,7.989,121.7053168867,1.64042,0.8052984,0.61705054468,0.447388,-0.671082,0,298.4, 4.4, -0.7,0,0,1024,1024,1024,1024,0,0,0,0,309,0,0,70,4.028,4.024,0,0,0,0,4.887,101.3,121.7053168867,1.64042,6,P-GPS,
3700,2022-10-29 00:25:37,-34.9064967368178,-56.163132045733,1.968504,2.0341208,119.9992800867,122.0334008867,3.28084,0.8052984,0.73304792372,2.01705715116,16,5,7.989,122.0334008867,1.968504,0.8052984,0.73304792372,0.447388,-0.671082,0,298.5, 5.6, -0.9,0,0,1336,1024,1024,1024,47,0,0,0,309,0,0,70,4.028,4.024,0,0,0,0,4.887,101.3,122.0334008867,1.968504,6,P-GPS,
3800,2022-10-29 00:25:37,-34.9064963378832,-56.1631319982175,1.968504,1.968504,120.0648968867,122.0334008867,3.28084,0.8052984,0.77970146852,2.16330059416,16,5,7.989,122.0334008867,1.968504,0.8052984,0.77970146852,0.447388,-0.671082,0,298.6, 5.2, -0.8,0,0,1684,1024,1024,1024,100,0,0,0,309,0,0,70,4.028,4.024,0,0,0,0,4.887,101.3,122.0334008867,1.968504,6,P-GPS,
3900,2022-10-29 00:25:38,-34.906496263079,-56.1631321605495,1.968504,1.968504,120.0648968867,122.0334008867,3.28084,0.4921268,0.83541341256,2.2190125382,16,5,7.989,122.0334008867,1.968504,0.8052984,0.83541341256,0.223694,-0.447388,0,298.6, 0.6, -0.5,0,0,1684,1024,1024,1024,100,0,0,0,309,0,0,70,4.028,4.024,0,0,0,0,4.887,101.3,122.0334008867,1.968504,6,P-GPS,
4000,2022-10-29 00:25:38,-34.9064962117439,-56.1631323590418,1.968504,1.968504,120.0648968867,122.0334008867,3.28084,0.8052984,0.89645015992,2.28128616224,16,5,7.989,122.0334008867,1.968504,0.8052984,0.89645015992,0.447388,-0.671082,0,298.9, -9.4, -0.4,0,0,1684,1024,1024,1024,100,0,0,0,309,0,0,70,4.028,4.024,0,0,0,0,4.887,101.3,122.0334008867,1.968504,6,P-GPS,
4100,2022-10-29 00:25:38,-34.9064960332942,-56.1631326486739,1.968504,2.0013124,120.0320884867,122.0334008867,3.28084,1.11847,1.00381236808,2.38967855416,16,5,7.989,122.0334008867,1.968504,1.11847,1.00381236808,0.671082,-0.894776,0,298.9, -14.4, -0.6,0,0,1684,1024,1024,1024,100,0,0,0,309,0,0,70,4.028,4.024,0,0,0,0,4.887,101.3,122.0334008867,1.968504,6,P-GPS,
4200,2022-10-29 00:25:38,-34.9064957523013,-56.1631329820347,1.968504,2.0013124,120.0320884867,122.0334008867,3.28084,1.11847,1.14177825176,2.53271661648,17,5,8.036,122.0334008867,1.968504,1.11847,1.14177825176,0.894776,-1.565858,0,298.8, -15.4, -1,0,0,1684,1024,1024,1024,100,0,0,0,309,0,0,70,4.021,4.014,0,0,0,0,4.113,101.3,122.0334008867,1.968504,6,P-GPS,
4300,2022-10-29 00:25:38,-34.90649533874,-56.1631337312358,1.968504,2.0013124,120.0320884867,122.0334008867,3.28084,2.3040482,1.41179138376,2.80293316056,17,5,8.036,122.0334008867,1.968504,2.3040482,1.41179138376,1.11847,-2.013246,0,298.9, -14.9, -1,0,0,1684,1024,1024,1024,100,0,0,0,309,0,0,70,4.021,4.014,0,0,0,0,4.113,101.3,122.0334008867,1.968504,6,P-GPS,
4400,2022-10-29 00:25:38,-34.9064948039069,-56.1631347720277,1.968504,2.0341208,119.9992800867,122.0334008867,3.28084,2.796175,1.77928811468,3.17043317232,17,5,8.036,122.0334008867,1.968504,2.796175,1.77928811468,1.342164,-2.460634,0,298.8, -14.6, -1.2,0,0,1684,1024,1024,1024,100,0,0,0,309,0,0,70,4.021,4.014,0,0,0,0,4.113,101.3,122.0334008867,1.968504,6,P-GPS,
4500,2022-10-29 00:25:38,-34.9064942473585,-56.1631360302983,1.968504,2.0013124,120.0320884867,122.0334008867,3.28084,3.6014734,2.20635177664,3.5981956532,17,5,8.036,122.0334008867,1.968504,3.6014734,2.20635177664,1.789552,-3.131716,0,298.7, -14.4, -0.9,0,0,1211,1024,1363,1024,28,0,51,0,309,0,0,70,4.021,4.014,0,0,0,0,4.113,101.3,122.0334008867,1.968504,6,P-GPS,
4600,2022-10-29 00:25:38,-34.9064936852049,-56.1631374450092,1.968504,2.0341208,119.9992800867,122.0334008867,3.28084,3.914645,2.67499024308,4.0685368756,17,5,8.036,122.0334008867,1.968504,3.914645,2.67499024308,2.013246,-3.35541,0,298.7, -12.8, -0.6,0,0,1024,1024,1684,1024,0,0,100,0,309,0,0,70,4.021,4.014,0,0,0,0,4.113,101.3,122.0334008867,1.968504,6,P-GPS,
4700,2022-10-29 00:25:38,-34.9064929316229,-56.1631392496951,1.968504,2.0669292,119.9664716867,122.0334008867,3.28084,4.4067718,3.280101811,4.6745080236,17,5,8.036,122.0334008867,1.968504,4.4067718,3.280101811,2.23694,-3.802798,-0.447388,298.7, 0.9, -0.2,0,0,1024,1024,1684,1024,0,0,100,0,309,0,0,70,4.021,4.014,0,0,0,0,4.113,101.3,122.0334008867,1.968504,6,P-GPS,
4800,2022-10-29 00:25:38,-34.9064921095584,-56.1631412084813,1.968504,2.0669292,119.9664716867,122.0334008867,3.28084,3.914645,3.9378938268,5.3328741864,17,5,8.036,122.0334008867,1.968504,4.4067718,3.9378938268,2.013246,-3.35541,-1.11847,298.5, 16.3, -0.3,0,0,1024,1024,1341,1024,0,0,48,0,309,0,0,70,4.021,4.014,0,0,0,0,4.113,101.3,122.0334008867,1.968504,6,P-GPS,
4900,2022-10-29 00:25:38,-34.906491404758,-56.1631427683347,2.296588,2.4278216,119.9336632867,122.3614848867,3.608924,3.1093466,4.4707678596,5.8657482192,17,5,8.036,122.3614848867,2.296588,4.4067718,4.4707678596,1.565858,-2.684328,-2.013246,298.6, 16.3, -1.2,0,0,1024,1024,1033,1024,0,0,1,0,309,0,0,70,4.021,4.014,0,0,0,0,4.113,101.3,122.3614848867,2.296588,6,P-GPS,
5000,2022-10-29 00:25:39,-34.906490782484,-56.1631442296992,2.624672,2.788714,119.9008548867,122.6895688867,3.937008,2.1027236,4.9632219436,6.358431962,17,5,8.036,122.6895688867,2.624672,4.4067718,4.9632219436,1.11847,-1.789552,-2.23694,298.8, 12.9, -1.3,0,0,1024,1024,1033,1024,0,0,1,0,309,0,0,70,4.021,4.014,0,0,0,0,4.113,101.3,122.6895688867,2.624672,6,P-GPS,
5100,2022-10-29 00:25:39,-34.9064904362279,-56.1631452102362,2.952756,3.0839896,119.9336632867,123.0176528867,4.265092,1.8119214,5.281168148,6.6778545444,17,5,8.036,123.0176528867,2.952756,4.4067718,5.281168148,0.894776,-1.565858,-1.789552,299, 12.3, -0.8,0,0,1024,1024,1024,1024,0,0,0,0,309,0,0,70,4.021,4.014,0,0,0,0,4.113,101.3,123.0176528867,2.952756,6,P-GPS,
5200,2022-10-29 00:25:39,-34.9064901651799,-56.163146139638,3.28084,3.444882,119.9008548867,123.3457368867,4.593176,1.2974252,5.5727692072,6.9729989108,18,5,8.024,123.3457368867,3.28084,4.4067718,5.5727692072,0.671082,-1.11847,-1.11847,299, 11.3, -0.7,0,0,1024,1024,1024,1024,0,0,0,0,309,0,0,70,3.989,3.991,0,0,0,0,4.725,101.3,123.3457368867,3.28084,6,P-GPS,
5300,2022-10-29 00:25:39,-34.9064899128916,-56.1631468147689,3.28084,3.4776904,119.8680464867,123.3457368867,4.593176,1.006623,5.7943243324,7.1949805452,18,5,8.024,123.3457368867,3.28084,4.4067718,5.7943243324,0.447388,-0.894776,-0.671082,299, 9.8, -0.6,0,0,1024,1024,1024,1024,0,0,0,0,309,0,0,70,3.989,3.991,0,0,0,0,4.725,101.3,123.3457368867,3.28084,6,P-GPS,
5400,2022-10-29 00:25:39,-34.9064896966571,-56.1631473268939,3.28084,3.4776904,119.8680464867,123.3457368867,4.92126,0.7158208,5.9666340492,7.3673230704,18,5,8.024,123.3457368867,3.28084,4.4067718,5.9666340492,0.223694,-0.671082,-0.447388,299.1, 7.9, -0.3,0,0,1024,1024,1024,1024,0,0,0,0,309,0,0,70,3.989,3.991,0,0,0,0,4.725,101.3,123.3457368867,3.28084,6,P-GPS,
5500,2022-10-29 00:25:39,-34.90648972664,-56.1631476499022,3.608924,3.8385828,119.8352380867,123.6738208867,4.92126,0.4921268,6.0470474376,7.4645999764,18,5,8.024,123.6738208867,3.608924,4.4067718,6.0470474376,0.223694,-0.447388,0,299.1, 6.2, -0.2,0,0,1024,1024,1024,1024,0,0,0,0,309,0,0,70,3.989,3.991,0,0,0,0,4.725,101.3,123.6738208867,3.608924,6,P-GPS,
5600,2022-10-29 00:25:39,-34.906489868764,-56.1631475236678,3.608924,3.8385828,119.8352380867,123.6738208867,4.92126,0.3131716,5.989665546,7.5287403984,18,5,8.024,123.6738208867,3.608924,4.4067718,6.0470474376,0.223694,-0.223694,0,299.1, 4.8, -0.3,0,0,1024,1024,1024,1024,0,0,0,0,309,0,0,70,3.989,3.991,0,0,0,0,4.725,101.3,123.6738208867,3.608924,6,P-GPS,
5700,2022-10-29 00:25:39,-34.9064899583806,-56.1631474559123,3.608924,3.8057744,119.8680464867,123.6738208867,4.92126,0.3131716,5.956693104,7.5672246516,18,5,8.024,123.6738208867,3.608924,4.4067718,6.0470474376,0.223694,-0.223694,0,299.1, 4, -0.4,0,0,1024,1024,1024,1024,0,0,0,0,309,0,0,70,3.989,3.991,0,0,0,0,4.725,101.3,123.6738208867,3.608924,6,P-GPS,
5800,2022-10-29 00:25:39,-34.9064900275797,-56.1631474132596,3.608924,3.8057744,119.8680464867,123.6738208867,4.92126,0.223694,5.9338584576,7.5955054924,20,5,8.024,123.6738208867,3.608924,4.4067718,6.0470474376,0,-0.223694,0,299.1, 3.2, -0.7,0,0,1024,1024,1024,1024,0,0,0,0,309,0,0,70,3.989,3.991,0,0,0,0,4.725,101.3,123.6738208867,3.608924,6,P-GPS,
5900,2022-10-29 00:25:40,-34.906490079755,-56.163147145518,3.608924,3.8057744,119.8680464867,123.6738208867,4.92126,0,5.85383877,7.6778545764,20,5,8.024,123.6738208867,3.608924,4.4067718,6.0470474376,0,0,0,299, 2.7, -0.7,0,0,1024,1024,1024,676,0,0,0,-53,309,0,0,70,3.989,3.991,0,0,0,0,4.725,101.3,123.6738208867,3.608924,6,P-GPS,
6000,2022-10-29 00:25:40,-34.9064901381999,-56.1631467633986,3.608924,3.8057744,119.8680464867,123.6738208867,4.92126,0,5.742454252,7.7941603544,19,5,8.024,123.6738208867,3.608924,4.4067718,6.0470474376,0,0,0,299.1, 2.3, -0.6,0,0,1024,1024,1024,364,0,0,0,-100,309,0,0,70,3.989,3.991,0,0,0,0,4.725,101.3,123.6738208867,3.608924,6,P-GPS,
6100,2022-10-29 00:25:40,-34.9064901806567,-56.1631466649516,3.608924,3.8057744,119.8680464867,123.6738208867,4.92126,0,5.709153726,7.827428072,19,5,8.024,123.6738208867,3.608924,4.4067718,6.0470474376,0,0,0,298.9, 2.2, -0.8,0,0,1024,1024,1024,364,0,0,0,-100,308.3,0,0,70,3.989,3.991,0,0,0,0,4.725,101.3,123.6738208867,3.608924,6,P-GPS,
6200,2022-10-29 00:25:40,-34.906490224058,-56.1631466790961,3.608924,3.8057744,119.8680464867,123.6738208867,4.92126,0,5.7056432272,7.843832272,20,5,8.029,123.6738208867,3.608924,4.4067718,6.0470474376,0,0,0,297.6, 1.9, -1,0,0,1024,1024,1024,364,0,0,0,-100,306,0,0,70,4.014,4.01,0,0,0,0,4.563,101.3,123.6738208867,3.608924,6,P-GPS,"Error de calibraci贸n del estabilizador. Reinicia la aeronave o contacta con la Asistencia DJI (Code: 40011)"
6300,2022-10-29 00:25:40,-34.9064901328749,-56.1631466387625,3.608924,3.8057744,119.8680464867,123.6738208867,4.92126,0,5.7102692116,7.8791997272,20,5,8.029,123.6738208867,3.608924,4.4067718,6.0470474376,0,0,0,295, 1.6, -1,0,0,1024,1024,1024,364,0,0,0,-100,303,0,0,70,4.014,4.01,0,0,0,0,4.563,101.3,123.6738208867,3.608924,6,P-GPS,
6400,2022-10-29 00:25:40,-34.9064901603532,-56.1631464472275,3.608924,3.772966,119.9008548867,123.6738208867,4.92126,0,5.654855824,7.9374018288,20,5,8.029,123.6738208867,3.608924,4.4067718,6.0470474376,0,0,0,292, 1.3, -1.4,0,0,1024,1024,1024,364,0,0,0,-100,299.8,0,0,70,4.014,4.01,0,0,0,0,4.563,101.3,123.6738208867,3.608924,6,P-GPS,
6500,2022-10-29 00:25:40,-34.9064901972863,-56.1631462227549,3.608924,3.772966,119.9008548867,123.6738208867,4.92126,0,5.5892062156,8.005905768,20,5,8.029,123.6738208867,3.608924,4.4067718,6.0470474376,0,0,0,288.9, 1.1, -1.3,0,0,1024,1024,1024,364,0,0,0,-100,296.6,0,0,70,4.014,4.01,0,0,0,0,4.563,101.3,123.6738208867,3.608924,6,P-GPS,
6600,2022-10-29 00:25:40,-34.9064902454525,-56.1631459838141,3.608924,3.772966,119.9008548867,123.6738208867,4.92126,0,5.5178479456,8.0795278176,20,5,8.029,123.6738208867,3.608924,4.4067718,6.0470474376,0,0,0,285.8, 0.9, -1.4,0,0,1024,1024,953,364,0,0,-11,-100,293.4,0,0,70,4.014,4.01,0,0,0,0,4.563,101.3,123.6738208867,3.608924,6,P-GPS,
6700,2022-10-29 00:25:40,-34.9064902839228,-56.1631456474082,3.608924,3.772966,119.9008548867,123.6738208867,4.92126,0,5.4226051604,8.1811354324,20,5,8.029,123.6738208867,3.608924,4.4067718,6.0470474376,0,0,0,282.6, 0.6, -1.6,0,0,1024,1024,959,364,0,0,-10,-100,290.3,0,0,70,4.014,4.01,0,0,0,0,4.563,101.3,123.6738208867,3.608924,6,P-GPS,
6800,2022-10-29 00:25:40,-34.9064903800694,-56.1631454638543,3.608924,3.7401576,119.9336632867,123.6738208867,4.92126,0,5.35761172,8.2463257232,20,5,8.029,123.6738208867,3.608924,4.4067718,6.0470474376,0,0,0,279.4, 0.7, -1.4,0,0,1024,1024,974,364,0,0,-8,-100,287.1,0,0,70,4.014,4.01,0,0,0,0,4.563,101.3,123.6738208867,3.608924,6,P-GPS,
6900,2022-10-29 00:25:41,-34.9064904719788,-56.1631453312057,3.608924,3.7401576,119.9336632867,123.6738208867,4.92126,0,5.3067258916,8.2982614204,20,5,8.029,123.6738208867,3.608924,4.4067718,6.0470474376,0,0,0,276.3, 0.5, -0.9,0,0,1024,1024,989,364,0,0,-5,-100,283.9,0,0,70,4.014,4.01,0,0,0,0,4.563,101.3,123.6738208867,3.608924,6,P-GPS,
7000,2022-10-29 00:25:41,-34.9064905659498,-56.1631452132291,3.608924,3.8057744,119.8680464867,123.6738208867,4.92126,0,5.2593833704,8.3474740204,20,5,8.029,123.6738208867,3.608924,4.4067718,6.0470474376,0,0,0,273, 0.6, -0.9,0,0,1024,1024,989,364,0,0,-5,-100,280.7,0,0,70,4.014,4.01,0,0,0,0,4.563,101.3,123.6738208867,3.608924,6,P-GPS,
7100,2022-10-29 00:25:41,-34.9064906370509,-56.1631450928394,3.608924,3.8057744,119.8680464867,123.6738208867,4.92126,0,5.215387306,8.3918637856,20,5,8.029,123.6738208867,3.608924,4.4067718,6.0470474376,0,0,0,269.8, 0.5, -1,0,0,1024,1024,988,364,0,0,-5,-100,277.5,0,0,70,4.014,4.01,0,0,0,0,4.563,101.3,123.6738208867,3.608924,6,P-GPS,
7200,2022-10-29 00:25:41,-34.9064906394415,-56.1631450877155,3.608924,3.8057744,119.8680464867,123.6738208867,4.92126,0,5.2136156524,8.3936354392,20,5,8.016,123.6738208867,3.608924,4.4067718,6.0470474376,0,0,0,266.5, 0.4, -1.1,0,0,1024,1024,988,364,0,0,-5,-100,274.3,0,0,70,4.01,4.005,0,0,0,0,4.312,101.3,123.6738208867,3.608924,6,P-GPS,
7300,2022-10-29 00:25:41,-34.9064906810873,-56.1631448934435,3.608924,3.8057744,119.8680464867,123.6738208867,4.92126,0,5.1552167004,8.4537076196,20,5,8.016,123.6738208867,3.608924,4.4067718,6.0470474376,0,0,0,263.3, 0.2, -1.2,0,0,1024,1024,988,364,0,0,-5,-100,271.1,0,0,70,4.01,4.005,0,0,0,0,4.312,101.3,123.6738208867,3.608924,6,P-GPS,
7400,2022-10-29 00:25:41,-34.9064907164962,-56.1631446665996,3.608924,3.8057744,119.8680464867,123.6738208867,4.92126,0,5.08940305,8.52280211,19,5,8.016,123.6738208867,3.608924,4.4067718,6.0470474376,0,0,0,260.1, 0.2, -1.1,0,0,1024,1024,981,364,0,0,-7,-100,267.9,0,0,70,4.01,4.005,0,0,0,0,4.312,101.3,123.6738208867,3.608924,6,P-GPS,
7500,2022-10-29 00:25:41,-34.9064908407953,-56.1631442650708,3.608924,3.772966,119.9008548867,123.6738208867,4.92126,0,4.9622048832,8.6512141876,19,5,8.016,123.6738208867,3.608924,4.4067718,6.0470474376,0,0,0,257, 0.1, -1,0,0,1024,1024,953,364,0,0,-11,-100,264.7,0,0,70,4.01,4.005,0,0,0,0,4.312,101.3,123.6738208867,3.608924,6,P-GPS,
7600,2022-10-29 00:25:41,-34.9064911086353,-56.1631431621593,3.608924,3.7401576,119.9336632867,123.6738208867,4.92126,0,4.6265093344,8.995407112,19,5,8.016,123.6738208867,3.608924,4.4067718,6.0470474376,0,0,0,253.9, -0.1, -0.7,0,0,1024,1024,955,364,0,0,-10,-100,261.5,0,0,70,4.01,4.005,0,0,0,0,4.312,101.3,123.6738208867,3.608924,6,P-GPS,
7700,2022-10-29 00:25:41,-34.9064912375787,-56.1631427233472,3.608924,3.7401576,119.9336632867,123.6738208867,4.92126,0,4.4892061804,9.1348756204,19,5,8.016,123.6738208867,3.608924,4.4067718,6.0470474376,0,0,0,250.7, -0.3, -1.3,0,0,1024,1024,951,364,0,0,-11,-100,258.3,0,0,70,4.01,4.005,0,0,0,0,4.312,101.3,123.6738208867,3.608924,6,P-GPS,
7800,2022-10-29 00:25:41,-34.9064913534783,-56.1631422939317,3.608924,3.7073492,119.9664716867,123.6738208867,4.92126,0,4.3568570948,9.2701118452,19,5,8.016,123.6738208867,3.608924,4.4067718,6.0470474376,0,0,0,247.6, -0.1, -1.3,0,0,1024,1024,950,364,0,0,-11,-100,255.1,0,0,70,4.01,4.005,0,0,0,0,4.312,101.3,123.6738208867,3.608924,6,P-GPS,
7900,2022-10-29 00:25:42,-34.9064914514097,-56.1631419461026,3.28084,3.3792652,119.9664716867,123.3457368867,4.92126,0,4.2490486924,9.3801512188,19,5,8.016,123.6738208867,3.608924,4.4067718,6.0470474376,0,0,0,244.3, -0.4, -1.1,0,0,1024,1024,949,364,0,0,-11,-100,251.9,0,0,70,4.01,4.005,0,0,0,0,4.312,101.3,123.3457368867,3.28084,6,P-GPS,
8000,2022-10-29 00:25:42,-34.9064915632642,-56.1631413392704,3.28084,3.3792652,119.9664716867,123.3457368867,4.92126,0,4.0724082668,9.566273272,19,5,8.016,123.6738208867,3.608924,4.4067718,6.0470474376,0,0,0,241.1, -0.9, -1.1,0,0,1024,1024,949,364,0,0,-11,-100,248.7,0,0,70,4.01,4.005,0,0,0,0,4.312,101.3,123.3457368867,3.28084,6,P-GPS,
8100,2022-10-29 00:25:42,-34.9064916535354,-56.1631410585857,3.28084,3.3792652,119.9664716867,123.3457368867,4.92126,0,3.9836287364,9.6564635636,19,5,8.016,123.6738208867,3.608924,4.4067718,6.0470474376,0,0,0,237.8, -0.6, -1.1,0,0,1024,1024,949,364,0,0,-11,-100,245.5,0,0,70,4.01,4.005,0,0,0,0,4.312,101.3,123.3457368867,3.28084,6,P-GPS,
8200,2022-10-29 00:25:42,-34.906491747451,-56.1631407806171,3.28084,3.3792652,119.9664716867,123.3457368867,4.92126,0,3.8948820144,9.7464241964,19,5,8.012,123.6738208867,3.608924,4.4067718,6.0470474376,0,0,0,234.6, -0.5, -1.1,0,0,1024,1024,943,364,0,0,-12,-100,242.3,0,0,70,4.009,4.002,0,0,0,0,4.255,101.3,123.3457368867,3.28084,6,P-GPS,
8300,2022-10-29 00:25:42,-34.9064918429886,-56.1631405477509,3.28084,3.3792652,119.9664716867,123.3457368867,4.92126,0,3.8172901484,9.8243441464,19,5,8.012,123.6738208867,3.608924,4.4067718,6.0470474376,0,0,0.223694,231.4, -0.5, -1.2,0,0,1024,1024,928,364,0,0,-15,-100,239.1,0,0,70,4.009,4.002,0,0,0,0,4.255,101.3,123.3457368867,3.28084,6,P-GPS,
8400,2022-10-29 00:25:42,-34.906491907234,-56.163140354675,3.28084,3.3464568,119.9992800867,123.3457368867,4.593176,0,3.755905632,9.8866801064,19,5,8.012,123.6738208867,3.608924,4.4067718,6.0470474376,0,0,0.223694,228.2, -0.4, -1.2,0,0,1024,1024,929,364,0,0,-14,-100,235.9,0,0,70,4.009,4.002,0,0,0,0,4.255,101.3,123.3457368867,3.28084,6,P-GPS,
8500,2022-10-29 00:25:42,-34.9064920064909,-56.1631401372851,3.28084,3.3464568,119.9992800867,123.3457368867,4.593176,0,3.6815617976,9.961122366,19,5,8.012,123.6738208867,3.608924,4.4067718,6.0470474376,0,0,0.223694,225, -0.4, -1.1,0,0,1024,1024,930,364,0,0,-14,-100,232.7,0,0,70,4.009,4.002,0,0,0,0,4.255,101.3,123.3457368867,3.28084,6,P-GPS,
8600,2022-10-29 00:25:42,-34.9064921097896,-56.1631399101696,3.28084,3.3464568,119.9992800867,123.3457368867,4.593176,0,3.6039699316,10.0388126572,19,5,8.012,123.6738208867,3.608924,4.4067718,6.0470474376,0,0,0.223694,221.8, -0.7, -1.1,0,0,1024,1024,930,364,0,0,-14,-100,229.5,0,0,70,4.009,4.002,0,0,0,0,4.255,101.3,123.3457368867,3.28084,6,P-GPS,
8700,2022-10-29 00:25:42,-34.9064921692539,-56.1631398117435,3.28084,3.3464568,119.9992800867,123.3457368867,4.593176,0,3.5674869908,10.0753940232,19,5,8.012,123.6738208867,3.608924,4.4067718,6.0470474376,0,0,0.223694,218.6, -0.5, -1.1,0,0,1024,1024,931,364,0,0,-14,-100,226.3,0,0,70,4.009,4.002,0,0,0,0,4.255,101.3,123.3457368867,3.28084,6,P-GPS,
8800,2022-10-29 00:25:42,-34.9064922103428,-56.1631397663643,3.28084,3.3464568,119.9992800867,123.3457368867,4.593176,0,3.5480316096,10.095636806,19,5,8.012,123.6738208867,3.608924,4.4067718,6.0470474376,0,0,0.223694,215.3, -0.6, -1.3,0,0,1024,1024,932,364,0,0,-14,-100,223.1,0,0,70,4.009,4.002,0,0,0,0,4.255,101.3,123.3457368867,3.28084,6,P-GPS,
8900,2022-10-29 00:25:42,-34.9064921244716,-56.1631400487779,3.28084,3.3464568,119.9992800867,123.3457368867,4.593176,0,3.6362862056,10.1857614808,19,5,8.012,123.6738208867,3.608924,4.4067718,6.0470474376,0,0,0.223694,212.2, -1.1, -1.1,0,0,1024,1024,932,364,0,0,-14,-100,219.9,0,0,70,4.009,4.002,0,0,0,0,4.255,101.3,123.3457368867,3.28084,6,P-GPS,
9000,2022-10-29 00:25:43,-34.9064921422412,-56.1631400945018,3.28084,3.3464568,119.9992800867,123.3457368867,4.593176,0,3.6444883056,10.2008861532,19,5,8.012,123.6738208867,3.608924,4.4067718,6.0470474376,0,0,0.223694,209.1, -1.2, -1.1,0,0,1024,1024,935,364,0,0,-13,-100,216.7,0,0,70,4.009,4.002,0,0,0,0,4.255,101.3,123.3457368867,3.28084,6,P-GPS,
9100,2022-10-29 00:25:43,-34.9064921609618,-56.1631401836411,2.952756,3.0183728,119.9992800867,123.0176528867,4.265092,0,3.6636812196,10.2284124008,19,5,8.012,123.6738208867,3.608924,4.4067718,6.0470474376,0,0,0.223694,205.8, -1.4, -0.8,0,0,1024,1024,935,364,0,0,-13,-100,213.5,0,0,70,4.009,4.002,0,0,0,0,4.255,101.3,123.0176528867,2.952756,6,P-GPS,
9200,2022-10-29 00:25:43,-34.9064921883881,-56.1631402979667,2.952756,3.0183728,119.9992800867,123.0176528867,4.265092,0,3.6877625852,10.2640751316,19,5,8.012,123.6738208867,3.608924,4.4067718,6.0470474376,0,0,0.223694,202.5, -1.6, -0.6,0,0,1024,1024,934,364,0,0,-14,-100,210.3,0,0,70,4.009,4.002,0,0,0,0,4.255,101.3,123.0176528867,2.952756,6,P-GPS,
9300,2022-10-29 00:25:43,-34.9064920405742,-56.1631410461127,2.952756,3.0511812,119.9664716867,123.0176528867,4.265092,0,3.9081037996,10.4943244828,19,5,8.004,123.6738208867,3.608924,4.4067718,6.0470474376,0,0,0.223694,199.3, -1.7, -0.6,0,0,1024,1024,934,364,0,0,-14,-100,207.1,0,0,70,4.006,3.998,0,0,0,0,4.343,101.3,123.0176528867,2.952756,6,P-GPS,
9400,2022-10-29 00:25:43,-34.906492041434,-56.1631412760905,2.952756,3.0511812,119.9664716867,123.0176528867,4.265092,0,3.9677166624,10.5631236976,18,5,8.004,123.6738208867,3.608924,4.4067718,6.0470474376,0,0,0.223694,196.2, -1.4, -0.8,0,0,1024,1024,933,364,0,0,-14,-100,203.9,0,0,70,4.006,3.998,0,0,0,0,4.343,101.3,123.0176528867,2.952756,6,P-GPS,
9500,2022-10-29 00:25:43,-34.9064920739931,-56.1631414107082,2.952756,3.0511812,119.9664716867,123.0176528867,4.265092,0,3.9970801804,10.6051184496,18,5,8.004,123.6738208867,3.608924,4.4067718,6.0470474376,0,0,0.223694,193, -1.4, -1.1,0,0,1024,1024,933,364,0,0,-14,-100,200.7,0,0,70,4.006,3.998,0,0,0,0,4.343,101.3,123.0176528867,2.952756,6,P-GPS,
9600,2022-10-29 00:25:43,-34.9064921248071,-56.1631414957891,2.952756,3.0511812,119.9664716867,123.0176528867,4.265092,0,4.0104660076,10.6366145136,18,5,8.004,123.6738208867,3.608924,4.4067718,6.0470474376,0,0,0.223694,189.8, -1.4, -0.9,0,0,1024,1024,944,364,0,0,-12,-100,197.5,0,0,70,4.006,3.998,0,0,0,0,4.343,101.3,123.0176528867,2.952756,6,P-GPS,
9700,2022-10-29 00:25:43,-34.9064921252012,-56.1631420827417,2.952756,3.0839896,119.9336632867,123.0176528867,3.937008,0,4.1654528892,10.8122378788,18,5,8.004,123.6738208867,3.608924,4.4067718,6.0470474376,0,0,0.223694,186.6, -1.4, -1.1,0,0,1024,1024,974,364,0,0,-8,-100,194.3,0,0,70,4.006,3.998,0,0,0,0,4.343,101.3,123.0176528867,2.952756,6,P-GPS,
9800,2022-10-29 00:25:43,-34.9064921994615,-56.1631422976506,2.624672,2.7559056,119.9336632867,122.6895688867,3.937008,0,4.2103675888,10.8820213456,18,5,8.004,123.6738208867,3.608924,4.4067718,6.0470474376,0,0,0.223694,183.4, -1.7, -1.3,0,0,1024,1024,974,364,0,0,-8,-100,191.1,0,0,70,4.006,3.998,0,0,0,0,4.343,101.3,122.6895688867,2.624672,6,P-GPS,
9900,2022-10-29 00:25:44,-34.9064922370818,-56.1631424770312,2.624672,2.7559056,119.9336632867,122.6895688867,3.937008,0,4.252296724,10.9374347332,18,5,8.004,123.6738208867,3.608924,4.4067718,6.0470474376,0,0,0,180.3, -1.5, -1.4,0,0,1024,1024,989,364,0,0,-5,-100,191.1,0,0,70,4.006,3.998,0,0,0,0,4.343,101.3,122.6895688867,2.624672,6,P-GPS,
10000,2022-10-29 00:25:44,-34.9064922646872,-56.1631426423979,2.624672,2.788714,119.9008548867,122.6895688867,3.937008,0,4.2923557804,10.9879268608,18,5,8.004,123.6738208867,3.608924,4.4067718,6.0470474376,0,0,0,177, -1.4, -1.2,0,0,1024,1024,991,364,0,0,-5,-100,184.6,0,0,70,4.006,3.998,0,0,0,0,4.343,101.3,122.6895688867,2.624672,6,P-GPS,
10100,2022-10-29 00:25:44,-34.9064922236211,-56.1631427597686,2.624672,2.788714,119.9008548867,122.6895688867,3.937008,0,4.3304791412,11.02608303,18,5,8.004,123.6738208867,3.608924,4.4067718,6.0470474376,0,0,0,173.8, -1.7, -1.1,0,0,1024,1024,990,364,0,0,-5,-100,181.4,0,0,70,4.006,3.998,0,0,0,0,4.343,101.3,122.6895688867,2.624672,6,P-GPS,
10200,2022-10-29 00:25:44,-34.9064922706929,-56.1631428558704,2.624672,2.788714,119.9008548867,122.6895688867,3.937008,0,4.3490158872,11.0595804064,18,5,8.004,123.6738208867,3.608924,4.4067718,6.0470474376,0,0,0,170.7, -2, -1,0,0,1024,1024,991,364,0,0,-5,-100,178.1,0,0,70,4.006,3.998,0,0,0,0,4.343,101.3,122.6895688867,2.624672,6,P-GPS,
10300,2022-10-29 00:25:44,-34.9064923249852,-56.1631428545698,2.624672,2.788714,119.9008548867,122.6895688867,3.937008,0,4.3401904276,11.07939668,18,5,8,123.6738208867,3.608924,4.4067718,6.0470474376,0,0,0,167.5, -1.9, -0.5,0,0,1024,1024,1002,364,0,0,-3,-100,174.9,0,0,70,4.001,3.995,0,0,0,0,4.354,101.3,122.6895688867,2.624672,6,P-GPS,
10400,2022-10-29 00:25:44,-34.906492389882,-56.1631428104389,2.624672,2.788714,119.9008548867,122.6895688867,3.937008,0,4.3182087996,11.1064964184,19,5,8,123.6738208867,3.608924,4.4067718,6.0470474376,0,0,0,164.3, -1.7, -0.3,0,0,1024,1024,1007,376,0,0,-3,-98,171.7,0,0,70,4.001,3.995,0,0,0,0,4.354,101.3,122.6895688867,2.624672,6,P-GPS,
10500,2022-10-29 00:25:44,-34.9064924513883,-56.1631427775536,2.624672,2.788714,119.9008548867,122.6895688867,3.937008,0,4.2998360956,11.1310042932,19,5,8,123.6738208867,3.608924,4.4067718,6.0470474376,0,0,0,161.1, -1.7, 0,0,0,1024,1024,1018,427,0,0,-1,-90,168.5,0,0,70,4.001,3.995,0,0,0,0,4.354,101.3,122.6895688867,2.624672,6,P-GPS,
10600,2022-10-29 00:25:44,-34.9064925223461,-56.163142453767,2.624672,2.8215224,119.8680464867,122.6895688867,3.937008,0,4.2010500032,11.231299572,20,5,8,123.6738208867,3.608924,4.4067718,6.0470474376,0,0,0,157.8, -1.7, 0.2,0,0,1024,1024,1018,427,0,0,-1,-90,165.4,0,0,70,4.001,3.995,0,0,0,0,4.354,101.3,122.6895688867,2.624672,6,P-GPS,
10700,2022-10-29 00:25:44,-34.9064925829568,-56.1631424108323,2.624672,2.8215224,119.8680464867,122.6895688867,3.937008,0,4.1800854356,11.2568573156,20,5,8,123.6738208867,3.608924,4.4067718,6.0470474376,0,0,0,154.7, -1.4, 0.1,0,0,1024,1024,1024,745,0,0,0,-42,162.3,0,0,70,4.001,3.995,0,0,0,0,4.354,101.3,122.6895688867,2.624672,6,P-GPS,
10800,2022-10-29 00:25:44,-34.9064926470621,-56.1631423531367,2.624672,2.8215224,119.8680464867,122.6895688867,3.937008,0,4.1546261172,11.285925558,20,5,8,123.6738208867,3.608924,4.4067718,6.0470474376,0,0,0,151.8, -1.4, 0,0,0,1024,1024,1024,1024,0,0,0,0,160,0,0,70,4.001,3.995,0,0,0,0,4.354,101.3,122.6895688867,2.624672,6,P-GPS,
10900,2022-10-29 00:25:45,-34.9064927051617,-56.1631423011658,2.624672,2.8215224,119.8680464867,122.6895688867,3.937008,0,4.1316930456,11.3122378948,20,5,8,123.6738208867,3.608924,4.4067718,6.0470474376,0,0,0,150.1, -1.4, 0,0,0,1024,947,1024,1024,0,-12,0,0,159.1,0,0,70,4.001,3.995,0,0,0,0,4.354,101.3,122.6895688867,2.624672,6,P-GPS,
11000,2022-10-29 00:25:45,-34.9064927495238,-56.1631420129858,2.624672,2.8215224,119.8680464867,122.6895688867,3.937008,0,4.0465552476,11.3999675564,20,5,8,123.6738208867,3.608924,4.4067718,6.0470474376,0,0,0,149.3, -1.4, 0,0,0,1024,853,1024,1024,0,-26,0,0,158.6,0,0,70,4.001,3.995,0,0,0,0,4.354,101.3,122.6895688867,2.624672,6,P-GPS,
11100,2022-10-29 00:25:45,-34.9064927967357,-56.1631420347718,2.624672,2.8215224,119.8680464867,122.6895688867,3.937008,0,4.0453085284,11.4183730688,20,5,8,123.6738208867,3.608924,4.4067718,6.0470474376,0,0,0,149, -1.5, -0.3,0,0,1024,963,1024,1024,0,-9,0,0,158.6,0,0,70,4.001,3.995,0,0,0,0,4.354,101.3,122.6895688867,2.624672,6,P-GPS,
11200,2022-10-29 00:25:45,-34.9064928392999,-56.1631420903415,2.624672,2.8215224,119.8680464867,122.6895688867,3.937008,0,4.0540683712,11.44110929,20,5,8,123.6738208867,3.608924,4.4067718,6.0470474376,0,0,0,148.8, -1.7, -1.3,0,0,1024,1024,1024,1024,0,0,0,0,158.6,0,0,70,4.001,3.995,0,0,0,0,4.354,101.3,122.6895688867,2.624672,6,P-GPS,
11300,2022-10-29 00:25:45,-34.9064928679801,-56.1631421814081,2.624672,2.8215224,119.8680464867,122.6895688867,3.937008,0,4.0747048548,11.470308766,20,5,7.995,123.6738208867,3.608924,4.4067718,6.0470474376,0,0,0,148.8, -1.5, 0,0,0,1024,1024,1024,1024,0,0,0,0,158.6,0,0,70,4,3.994,0,0,0,0,4.381,101.3,122.6895688867,2.624672,6,P-GPS,
11400,2022-10-29 00:25:45,-34.9064928729175,-56.1631425905681,2.624672,2.8543308,119.8352380867,122.6895688867,3.937008,0,4.1862534148,11.5927497148,19,5,7.995,123.6738208867,3.608924,4.4067718,6.0470474376,0,0,0,148.8, -1.5, 0,0,0,1024,1024,1024,1024,0,0,0,0,158.6,0,0,70,4,3.994,0,0,0,0,4.381,101.3,122.6895688867,2.624672,6,P-GPS,
11500,2022-10-29 00:25:45,-34.9064928960577,-56.1631427077925,2.624672,2.8543308,119.8352380867,122.6895688867,3.937008,0,4.215223232,11.6288389548,19,5,7.995,123.6738208867,3.608924,4.4067718,6.0470474376,0,0,0,148.7, -1.4, 0,0,0,1024,1024,1024,1024,0,0,0,0,158.6,0,0,70,4,3.994,0,0,0,0,4.381,101.3,122.6895688867,2.624672,6,P-GPS,
11600,2022-10-29 00:25:45,-34.9064929196083,-56.163142830026,2.624672,2.8543308,119.8352380867,122.6895688867,3.937008,0,4.2456366188,11.6664045728,19,5,7.995,123.6738208867,3.608924,4.4067718,6.0470474376,0,0,0,148.8, -1.6, -0.1,0,0,1024,1024,1024,1024,0,0,0,0,158.6,0,0,70,4,3.994,0,0,0,0,4.381,101.3,122.6895688867,2.624672,6,P-GPS,
11700,2022-10-29 00:25:45,-34.9064929121109,-56.1631429424869,2.624672,2.8543308,119.8352380867,122.6895688867,3.937008,0,4.2777888508,11.7001644164,19,5,7.995,123.6738208867,3.608924,4.4067718,6.0470474376,0,0,0,148.8, -1.6, 0,0,0,1024,1024,1024,1024,0,0,0,0,158.6,0,0,70,4,3.994,0,0,0,0,4.381,101.3,122.6895688867,2.624672,6,P-GPS,
11800,2022-10-29 00:25:45,-34.90649282325,-56.1631432664249,2.624672,2.8543308,119.8352380867,122.6895688867,3.937008,0,4.379757358,11.8023625824,18,5,7.995,123.6738208867,3.608924,4.4067718,6.0470474376,0,0,0,148.8, -1.6, 0.1,0,0,1024,1093,1024,1024,0,10,0,0,158.6,0,0,70,4,3.994,0,0,0,0,4.381,101.3,122.6895688867,2.624672,6,P-GPS,
11900,2022-10-29 00:25:46,-34.9064928035784,-56.1631433442716,2.624672,2.8543308,119.8352380867,122.6895688867,3.937008,0,4.404035574,11.8267392236,18,5,7.995,123.6738208867,3.608924,4.4067718,6.0470474376,0,0,0,148.8, -1.2, 0,0,0,1024,1569,1024,1024,0,83,0,0,158.6,0,0,70,4,3.994,0,0,0,0,4.381,101.3,122.6895688867,2.624672,6,P-GPS,
12000,2022-10-29 00:25:46,-34.9064927833889,-56.1631434099117,2.624672,2.8543308,119.8352380867,122.6895688867,3.937008,0,4.4250001416,11.8477037912,18,5,7.995,123.6738208867,3.608924,4.4067718,6.0470474376,0,0,0,148.8, -1.3, 3.3,0,0,1024,1684,1024,1024,0,100,0,0,158.6,0,0,70,4,3.994,0,0,0,0,4.381,101.3,122.6895688867,2.624672,6,P-GPS,
12100,2022-10-29 00:25:46,-34.90649282396,-56.1631434380021,2.624672,2.8543308,119.8352380867,122.6895688867,3.937008,0,4.4271983044,11.8647313508,18,5,7.995,123.6738208867,3.608924,4.4067718,6.0470474376,0,0,0,149, -1.4, 11.6,0,0,1024,1684,1024,1024,0,100,0,0,158.6,0,0,70,4,3.994,0,0,0,0,4.381,101.3,122.6895688867,2.624672,6,P-GPS,
12200,2022-10-29 00:25:46,-34.9064929630421,-56.1631435897206,2.624672,2.8871392,119.8024296867,122.6895688867,3.937008,0,4.450623502,11.9328087808,18,5,7.995,123.6738208867,3.608924,4.4067718,6.0470474376,-0.223694,-0.447388,0,149, -1.4, 16.6,0,0,1024,1684,1024,1024,0,100,0,0,158.6,0,0,70,4,3.994,0,0,0,0,4.381,101.3,122.6895688867,2.624672,6,P-GPS,
12300,2022-10-29 00:25:46,-34.9064932172976,-56.163143762311,2.624672,2.8871392,119.8024296867,122.6895688867,3.937008,1.2974252,4.466371534,12.0389767632,18,5,7.991,123.6738208867,3.608924,4.4067718,6.0470474376,-0.671082,-1.11847,0,148.7, -1.3, 17.6,0,0,1024,1557,1024,1024,0,81,0,0,158.6,0,0,70,4,3.991,0,0,0,0,4.292,101.3,122.6895688867,2.624672,6,P-GPS,
12400,2022-10-29 00:25:46,-34.9064935871498,-56.1631444624819,2.624672,2.9199476,119.7696212867,122.6895688867,3.937008,1.8119214,4.6216536912,12.2881893696,17,5,7.991,123.6738208867,3.608924,4.4067718,6.0470474376,-0.894776,-1.565858,0,148.6, -1.4, 17.1,0,0,1024,565,1024,1024,0,-70,0,0,158.6,0,0,70,4,3.991,0,0,0,0,4.292,101.3,122.6895688867,2.624672,6,P-GPS,
12500,2022-10-29 00:25:46,-34.9064940924869,-56.1631453981045,2.624672,2.952756,119.7368128867,122.6895688867,3.937008,1.8119214,4.8404201024,12.6233927924,17,5,7.991,123.6738208867,3.608924,4.4067718,6.0470474376,-1.342164,-2.013246,0,148.6, -1.4, 13,0,0,1024,364,1024,1024,0,-100,0,0,158.6,0,0,70,4,3.991,0,0,0,0,4.292,101.3,122.6895688867,2.624672,6,P-GPS,
12600,2022-10-29 00:25:46,-34.906494729627,-56.1631465806752,2.624672,3.0511812,119.6383876867,122.6895688867,3.937008,2.796175,5.135006726,13.046752386,17,5,7.991,123.6738208867,3.608924,4.4067718,6.0470474376,-1.342164,-2.460634,0,148.4, -1.3, -0.1,0,0,1024,364,1024,1024,0,-100,0,0,158.6,0,0,70,4,3.991,0,0,0,0,4.292,101.3,122.6895688867,2.624672,6,P-GPS,
12700,2022-10-29 00:25:46,-34.9064954830039,-56.1631476641146,2.624672,3.0839896,119.6055792867,122.6895688867,3.937008,2.4158952,5.4116143464,13.471785208,17,5,7.991,123.6738208867,3.608924,4.4067718,6.0470474376,-1.342164,-2.013246,0,148.1, -0.9, -13.7,0,0,1024,364,1024,1024,0,-100,0,0,158.6,0,0,70,4,3.991,0,0,0,0,4.292,101.3,122.6895688867,2.624672,6,P-GPS,
12800,2022-10-29 00:25:46,-34.9064962201337,-56.1631485893378,2.296588,2.8215224,119.5399624867,122.3614848867,3.937008,1.8119214,5.6597442756,13.8577432256,17,5,7.991,123.6738208867,3.608924,4.4067718,6.0470474376,-0.894776,-1.565858,0,148.6, -1, -18.1,0,0,1024,364,1024,1024,0,-100,0,0,158.6,0,0,70,4,3.991,0,0,0,0,4.292,101.3,122.3614848867,2.296588,6,P-GPS,
12900,2022-10-29 00:25:46,-34.9064966833185,-56.1631491637182,2.296588,2.8871392,119.4743456867,122.3614848867,3.937008,1.006623,5.8212600288,14.098753732,17,5,7.991,123.6738208867,3.608924,4.4067718,6.0470474376,-0.447388,-0.894776,0,148.9, -1.2, -18.2,0,0,1024,364,1024,1024,0,-100,0,0,158.6,0,0,70,4,3.991,0,0,0,0,4.292,101.3,122.3614848867,2.296588,6,P-GPS,
13000,2022-10-29 00:25:47,-34.9064969744094,-56.1631494496575,2.296588,2.8871392,119.4743456867,122.3614848867,3.937008,0.3131716,5.9030841784,14.2351382508,17,5,7.991,123.6738208867,3.608924,4.4067718,6.0470474376,-0.223694,-0.223694,0,148.9, -1.3, -17.6,0,0,1024,364,1024,1024,0,-100,0,0,158.6,0,0,70,4,3.991,0,0,0,0,4.292,101.3,122.3614848867,2.296588,6,P-GPS,
13100,2022-10-29 00:25:47,-34.9064973471472,-56.1631493577499,2.296588,2.8871392,119.4743456867,122.3614848867,3.937008,0.223694,5.873687852,14.3738849744,17,5,7.991,123.6738208867,3.608924,4.4067718,6.0470474376,0,0.223694,0,148.9, -1.1, -17,0,0,1024,364,1024,1024,0,-100,0,0,158.6,0,0,70,4,3.991,0,0,0,0,4.292,101.3,122.3614848867,2.296588,6,P-GPS,
13200,2022-10-29 00:25:47,-34.9064973709274,-56.1631490925834,2.296588,2.8871392,119.4743456867,122.3614848867,3.937008,0.8052984,5.7943243324,14.4537078116,17,5,7.991,123.6738208867,3.608924,4.4067718,6.0470474376,0.447388,0.671082,0,148.9, -1.1, -16.4,0,0,1024,364,1024,1024,0,-100,0,0,158.6,0,0,70,4,3.991,0,0,0,0,4.292,101.3,122.3614848867,2.296588,6,P-GPS,
13300,2022-10-29 00:25:47,-34.9064971604428,-56.1631484210774,2.296588,2.8543308,119.5071540867,122.3614848867,3.937008,1.4987498,5.593996242,14.668799682,17,5,7.991,123.6738208867,3.608924,4.4067718,6.0470474376,0.671082,1.342164,0,148.9, -1.1, -16.2,0,0,1024,364,1024,1024,0,-100,0,0,158.6,0,0,70,4,3.991,0,0,0,0,4.292,101.3,122.3614848867,2.296588,6,P-GPS,
13400,2022-10-29 00:25:47,-34.9064967661363,-56.1631474060673,2.296588,2.8215224,119.5399624867,122.3614848867,3.937008,1.9908766,5.2945211668,15.0048561232,17,5,7.981,123.6738208867,3.608924,4.4067718,6.0470474376,0.894776,1.789552,0,148.9, -1.2, -16.4,0,0,1024,364,1024,1024,0,-100,0,0,158.6,0,0,70,3.993,3.988,0,0,0,0,4.411,101.3,122.3614848867,2.296588,6,P-GPS,
13500,2022-10-29 00:25:47,-34.9064955940572,-56.1631451866117,2.296588,2.6902888,119.6711960867,122.3614848867,3.937008,2.6172198,4.671588076,15.7946855448,17,5,7.981,123.6738208867,3.608924,4.4067718,6.0470474376,1.342164,2.23694,0,148.9, -1.5, -16.3,0,0,1024,670,1024,1024,0,-54,0,0,158.6,0,0,70,3.993,3.988,0,0,0,0,4.411,101.3,122.3614848867,2.296588,6,P-GPS,
13600,2022-10-29 00:25:47,-34.9064947652867,-56.16314350921,2.296588,2.624672,119.7368128867,122.3614848867,3.937008,3.1093466,4.23310381,16.3806435688,18,5,7.981,123.6738208867,3.608924,4.4067718,6.0470474376,1.565858,2.684328,0,149, -1.5, -16.4,0,0,1024,982,1024,1024,0,-6,0,0,158.6,0,0,70,3.993,3.988,0,0,0,0,4.411,101.3,122.3614848867,2.296588,6,P-GPS,
13700,2022-10-29 00:25:47,-34.9064938541186,-56.16314169729,2.296588,2.5262468,119.8352380867,122.3614848867,3.937008,3.914645,3.8062993344,17.0166015944,18,5,7.981,123.6738208867,3.608924,4.4067718,6.0470474376,2.013246,3.35541,0,149, -1.6, -12.8,0,0,1024,982,1024,1024,0,-6,0,0,158.6,0,0,70,3.993,3.988,0,0,0,0,4.411,101.3,122.3614848867,2.296588,6,P-GPS,
13800,2022-10-29 00:25:47,-34.9064928132676,-56.1631396382025,2.296588,2.4278216,119.9336632867,122.3614848867,3.937008,4.1159696,3.4025263556,17.74032209,18,5,7.981,123.6738208867,3.608924,4.4067718,6.0470474376,2.013246,3.579104,0,149.3, -1.6, -3.2,0,0,1024,1024,1024,1024,0,0,0,0,158.6,0,0,70,3.993,3.988,0,0,0,0,4.411,101.3,122.3614848867,2.296588,6,P-GPS,
13900,2022-10-29 00:25:48,-34.9064918124487,-56.1631376970968,2.296588,2.3293964,120.0320884867,122.3614848867,3.937008,3.914645,3.1339239848,18.4263785424,18,5,7.981,123.6738208867,3.608924,4.4067718,6.0470474376,2.013246,3.35541,0,149.4, -1.7, 11.3,0,0,1024,1024,1024,1024,0,0,0,0,158.6,0,0,70,3.993,3.988,0,0,0,0,4.411,101.3,122.3614848867,2.296588,6,P-GPS,
14000,2022-10-29 00:25:48,-34.9064904786163,-56.1631354722561,2.296588,2.132546,120.2289388867,122.3614848867,3.937008,3.4225182,3.05050534696,19.250984868,19,5,7.981,123.6738208867,3.608924,4.4067718,6.0470474376,1.789552,2.908022,0,149, -1.5, 15.4,0,0,1024,1024,1024,1024,0,0,0,0,158.6,0,0,70,3.993,3.988,0,0,0,0,4.411,101.3,122.3614848867,2.296588,6,P-GPS,
14100,2022-10-29 00:25:48,-34.9064896930289,-56.163134051408,2.296588,2.0997376,120.2617472867,122.3614848867,3.937008,2.6172198,3.09054143748,19.7636817348,19,5,7.981,123.6738208867,3.608924,4.4067718,6.0470474376,1.342164,2.23694,0,148.6, -1.9, 14.7,0,0,1024,1024,1024,1024,0,0,0,0,158.6,0,0,70,3.993,3.988,0,0,0,0,4.411,101.3,122.3614848867,2.296588,6,P-GPS,
14200,2022-10-29 00:25:48,-34.9064890122839,-56.163132862021,2.296588,2.0341208,120.3273640867,122.3614848867,3.937008,2.1027236,3.195784223,20.19767125,19,5,7.981,123.6738208867,3.608924,4.4067718,6.0470474376,1.11847,1.789552,0,148.6, -1.8, 12.6,0,0,1024,1024,1024,1024,0,0,0,0,158.6,0,0,70,3.993,3.988,0,0,0,0,4.411,101.3,122.3614848867,2.296588,6,P-GPS,
14300,2022-10-29 00:25:48,-34.9064885693602,-56.1631320665161,2.296588,2.0013124,120.3601724867,122.3614848867,3.937008,1.6105968,3.2918964308,20.4853681096,19,5,7.981,123.6738208867,3.608924,4.4067718,6.0470474376,0.894776,1.342164,0,148.5, -2.1, 10.5,0,0,1024,603,1024,1024,0,-64,0,0,158.6,0,0,70,3.993,3.988,0,0,0,0,4.411,101.3,122.3614848867,2.296588,6,P-GPS,
14400,2022-10-29 00:25:48,-34.9064883820826,-56.1631318885458,2.296588,1.9356956,120.4257892867,122.3614848867,3.937008,1.11847,3.3479987948,20.5719822856,19,5,7.979,123.6738208867,3.608924,4.4067718,6.0470474376,0.671082,0.894776,0,148.6, -2.2, 8.1,0,0,1024,467,1024,1024,0,-84,0,0,158.6,0,0,70,3.992,3.984,0,0,0,0,4.513,101.48,122.3614848867,2.296588,6,P-GPS,
14500,2022-10-29 00:25:48,-34.9064881938833,-56.16313165253,2.296588,1.9356956,120.4257892867,122.3614848867,3.608924,0.8052984,3.4027560144,20.6704731024,19,5,7.979,123.6738208867,3.608924,4.4067718,6.0470474376,0.447388,0.671082,0,148.5, -2.2, -0.7,0,0,1024,1024,1024,1024,0,0,0,0,158.6,0,0,70,3.992,3.984,0,0,0,0,4.513,101.48,122.3614848867,2.296588,6,P-GPS,
14600,2022-10-29 00:25:48,-34.9064880300586,-56.1631315141986,2.296588,1.9356956,120.4257892867,122.3614848867,3.608924,1.006623,3.4550197956,20.7432093252,19,5,7.979,123.6738208867,3.608924,4.4067718,6.0470474376,0.447388,0.894776,0,148.4, -2.1, -8.5,0,0,1024,1024,1024,1024,0,0,0,0,158.6,0,0,70,3.992,3.984,0,0,0,0,4.513,101.48,122.3614848867,2.296588,6,P-GPS,
14700,2022-10-29 00:25:48,-34.9064878160713,-56.163131285187,2.296588,1.9356956,120.4257892867,122.3614848867,3.608924,1.2974252,3.5224410576,20.8470807196,19,5,7.979,123.6738208867,3.608924,4.4067718,6.0470474376,0.671082,1.11847,0,148.8, -2, -3.1,0,0,1024,1024,1024,1024,0,0,0,0,158.6,0,0,70,3.992,3.984,0,0,0,0,4.513,101.48,122.3614848867,2.296588,6,P-GPS,
14800,2022-10-29 00:25:48,-34.9064878703148,-56.1631319901685,2.296588,1.9356956,120.4257892867,122.3614848867,3.608924,1.11847,3.5371064124,21.0589245584,19,5,7.979,123.6738208867,3.608924,4.4067718,6.0470474376,0.671082,0.894776,0,149.2, -2, 5.4,0,0,1024,1024,1024,1049,0,0,0,4,158.6,0,0,70,3.992,3.984,0,0,0,0,4.513,101.48,122.3614848867,2.296588,6,P-GPS,
14900,2022-10-29 00:25:49,-34.9064876903815,-56.1631317635545,2.296588,1.9356956,120.4257892867,122.3614848867,3.608924,0.8052984,3.589403002,21.1533143252,19,5,7.979,123.6738208867,3.608924,4.4067718,6.0470474376,0.447388,0.671082,0,148.9, -2, 6.3,0,0,1024,1024,1024,1684,0,0,0,100,158.6,0,0,70,3.992,3.984,0,0,0,0,4.513,101.48,122.3614848867,2.296588,6,P-GPS,
15000,2022-10-29 00:25:49,-34.9064875722248,-56.1631316287121,2.296588,1.9356956,120.4257892867,122.3614848867,3.608924,0.4921268,3.6253610084,21.2123694452,19,5,7.979,123.6738208867,3.608924,4.4067718,6.0470474376,0.223694,0.447388,0,149, -2, 5.2,0,0,1024,1024,1024,1664,0,0,0,97,159.9,0,0,70,3.992,3.984,0,0,0,0,4.513,101.48,122.3614848867,2.296588,6,P-GPS,
15100,2022-10-29 00:25:49,-34.9064875048854,-56.1631314129467,2.296588,1.9356956,120.4257892867,122.3614848867,3.608924,0.4921268,3.6401247884,21.2814311272,19,5,7.979,123.6738208867,3.608924,4.4067718,6.0470474376,0.223694,0.447388,0,150.9, -2.2, 3.9,0,0,1024,1024,1024,1024,0,0,0,0,162.6,0,0,70,3.992,3.984,0,0,0,0,4.513,101.48,122.3614848867,2.296588,6,P-GPS,
15200,2022-10-29 00:25:49,-34.9064876395252,-56.1631309879343,2.296588,1.9356956,120.4257892867,122.3614848867,3.608924,0.223694,3.5758203244,21.4177500292,19,5,7.979,123.6738208867,3.608924,4.4067718,6.0470474376,0,0.223694,0,153.7, -2.3, 3.2,0,0,1024,1024,1024,1024,0,0,0,0,165,0,0,70,3.992,3.984,0,0,0,0,4.513,101.48,122.3614848867,2.296588,6,P-GPS,
15300,2022-10-29 00:25:49,-34.9064876109948,-56.1631307419265,2.296588,1.9356956,120.4257892867,122.3614848867,3.608924,0,3.5791995896,21.4920938636,19,5,7.979,123.6738208867,3.608924,4.4067718,6.0470474376,0,0,0,155.5, -2.2, 2.4,0,0,1024,1024,1024,1674,0,0,0,98,166.1,0,0,70,3.992,3.984,0,0,0,0,4.513,101.48,122.3614848867,2.296588,6,P-GPS,
15400,2022-10-29 00:25:49,-34.9064875916066,-56.1631305363724,2.296588,1.9356956,120.4257892867,122.3614848867,3.608924,0,3.5815617944,21.5540033144,19,5,7.971,123.6738208867,3.608924,4.4067718,6.0470474376,0,0,0,156.3, -2, 1.7,0,0,1024,1024,1024,1626,0,0,0,91,166.7,0,0,70,3.993,3.985,0,0,0,0,4.387,101.48,122.3614848867,2.296588,6,P-GPS,
15500,2022-10-29 00:25:49,-34.9064876465633,-56.1631304061683,2.296588,1.9028872,120.4585976867,122.3614848867,3.608924,0,3.5591208488,21.5978353368,19,5,7.971,123.6738208867,3.608924,4.4067718,6.0470474376,0,0,0,157.3, -1.9, 1.1,0,0,1024,1024,1024,1626,0,0,0,91,168.6,0,0,70,3.993,3.985,0,0,0,0,4.387,101.48,122.3614848867,2.296588,6,P-GPS,
15600,2022-10-29 00:25:49,-34.9064877366456,-56.1631303248691,2.296588,1.9028872,120.4585976867,122.3614848867,3.608924,0,3.5249673044,21.6387146032,18,5,7.971,123.6738208867,3.608924,4.4067718,6.0470474376,0,0,0,159.8, -2.1, 0.8,0,0,1024,1024,1024,1024,0,0,0,0,171.4,0,0,70,3.993,3.985,0,0,0,0,4.387,101.48,122.3614848867,2.296588,6,P-GPS,
15700,2022-10-29 00:25:49,-34.906487920878,-56.1631299161583,2.296588,1.9028872,120.4585976867,122.3614848867,3.608924,0,3.4536746512,21.7782487284,18,5,7.971,123.6738208867,3.608924,4.4067718,6.0470474376,0,0,0,162.3, -1.9, -0.1,0,0,1024,1024,1024,1024,0,0,0,0,173.1,0,0,70,3.993,3.985,0,0,0,0,4.387,101.48,122.3614848867,2.296588,6,P-GPS,
15800,2022-10-29 00:25:49,-34.9064880084622,-56.1631298745033,2.296588,1.9028872,120.4585976867,122.3614848867,3.608924,0,3.4215552276,21.8125663148,18,5,7.971,123.6738208867,3.608924,4.4067718,6.0470474376,0,0,0,163.4, -1.8, -0.4,0,0,1024,1024,1024,1024,0,0,0,0,173.8,0,0,70,3.993,3.985,0,0,0,0,4.387,101.48,122.3614848867,2.296588,6,P-GPS,
15900,2022-10-29 00:25:50,-34.906488075642,-56.1631299070752,2.296588,1.9028872,120.4585976867,122.3614848867,3.608924,0,3.3971785864,21.8389442684,18,5,7.971,123.6738208867,3.608924,4.4067718,6.0470474376,0,0,0,163.9, -1.7, -0.5,0,0,1024,1024,1024,1024,0,0,0,0,173.8,0,0,70,3.993,3.985,0,0,0,0,4.387,101.48,122.3614848867,2.296588,6,P-GPS,
16000,2022-10-29 00:25:50,-34.9064881386433,-56.163129974371,2.296588,1.9028872,120.4585976867,122.3614848867,3.608924,0,3.3745735988,21.8694888888,18,5,7.971,123.6738208867,3.608924,4.4067718,6.0470474376,0,0,0,164, -1.7, -0.8,0,0,1024,1024,1024,1024,0,0,0,0,173.8,0,0,70,3.993,3.985,0,0,0,0,4.387,101.48,122.3614848867,2.296588,6,P-GPS,
16100,2022-10-29 00:25:50,-34.9064882709218,-56.1631299677114,2.296588,1.9028872,120.4585976867,122.3614848867,3.608924,0,3.326279634,21.9177828536,18,5,7.971,123.6738208867,3.608924,4.4067718,6.0470474376,0,0,0,164, -1.5, -1,0,0,1024,1024,1024,1024,0,0,0,0,173.8,0,0,70,3.993,3.985,0,0,0,0,4.387,101.48,122.3614848867,2.296588,6,P-GPS,
16200,2022-10-29 00:25:50,-34.9064884342742,-56.1631299289134,2.296588,1.9028872,120.4585976867,122.3614848867,3.608924,0,3.2664699208,21.978511202,20,5,7.971,123.6738208867,3.608924,4.4067718,6.0470474376,0,0,0,164, -1.4, -1.4,0,0,1024,1024,1024,1024,0,0,0,0,173.8,0,0,70,3.993,3.985,0,0,0,0,4.387,101.48,122.3614848867,2.296588,6,P-GPS,"Entorno demasiado oscuro. El posicionamiento visual no ser谩 preciso. Vuela con precauci贸n (Code: 180032). Error de calibraci贸n del estabilizador. Reinicia la aeronave o contacta con la Asistencia DJI (Code: 40011)"
16300,2022-10-29 00:25:50,-34.9064885191259,-56.1631299061037,2.296588,1.9356956,120.4257892867,122.3614848867,3.608924,0,3.23539708516,22.0102041164,20,5,7.971,123.6738208867,3.608924,4.4067718,6.0470474376,0,0,0,164.1, -1.7, -1.2,0,0,1024,1024,1024,1024,0,0,0,0,173.8,0,0,70,3.993,3.985,0,0,0,0,4.387,101.48,122.3614848867,2.296588,6,P-GPS,
16400,2022-10-29 00:25:50,-34.9064885742358,-56.163129884887,2.296588,1.9356956,120.4257892867,122.3614848867,3.608924,0,3.21519367244,22.0312999176,20,5,7.974,123.6738208867,3.608924,4.4067718,6.0470474376,0,0,0,164.2, -1.8, -1,0,0,1024,1024,857,1024,0,0,-25,0,173.8,0,0,69,3.992,3.985,0,0,0,0,4.288,101.48,122.3614848867,2.296588,6,P-GPS,
16500,2022-10-29 00:25:50,-34.9064886397676,-56.1631300566522,2.296588,1.9356956,120.4257892867,122.3614848867,3.608924,0,3.19246073208,22.0879928328,20,5,7.974,123.6738208867,3.608924,4.4067718,6.0470474376,0,0,0,164.1, -1.6, -1.2,0,0,1024,1024,857,1024,0,0,-25,0,173.8,0,0,69,3.992,3.985,0,0,0,0,4.288,101.48,122.3614848867,2.296588,6,P-GPS,
16600,2022-10-29 00:25:50,-34.9064887234436,-56.1631301312396,2.296588,1.9356956,120.4257892867,122.3614848867,3.608924,0,3.16271991748,22.1257881096,19,5,7.974,123.6738208867,3.608924,4.4067718,6.0470474376,0,0,0,164.2, -1.5, -1.3,0,0,1024,1024,823,1024,0,0,-30,0,173.8,0,0,69,3.992,3.985,0,0,0,0,4.288,101.48,122.3614848867,2.296588,6,P-GPS,
16700,2022-10-29 00:25:50,-34.9064887774916,-56.1631301906953,2.296588,1.9356956,120.4257892867,122.3614848867,3.608924,0,3.1437501006,22.1523629136,19,5,7.974,123.6738208867,3.608924,4.4067718,6.0470474376,0,0,0.223694,164.1, -1.2, -1.5,0,0,1024,1024,757,1024,0,0,-40,0,173.8,0,0,69,3.992,3.985,0,0,0,0,4.288,101.48,122.3614848867,2.296588,6,P-GPS,
