time(millisecond),datetime(utc),latitude,longitude,height_above_takeoff(feet),height_above_ground_at_drone_location(feet),ground_elevation_at_drone_location(feet),altitude_above_seaLevel(feet),height_sonar(feet),speed(mph),distance(feet),mileage(feet),satellites,gpslevel,voltage(v),max_altitude(feet),max_ascent(feet),max_speed(mph),max_distance(feet), xSpeed(mph), ySpeed(mph), zSpeed(mph), compass_heading(degrees), pitch(degrees), roll(degrees),isPhoto,isVideo,rc_elevator,rc_aileron,rc_throttle,rc_rudder,rc_elevator(percent),rc_aileron(percent),rc_throttle(percent),rc_rudder(percent),gimbal_heading(degrees),gimbal_pitch(degrees),gimbal_roll(degrees),battery_percent,voltageCell1,voltageCell2,voltageCell3,voltageCell4,voltageCell5,voltageCell6,current(A),battery_temperature(f),altitude(feet),ascent(feet),flycStateRaw,flycState,message
210100,2022-08-11 15:46:48,0,0,0,,,3.28084E-5,0.328084,0,0,0,0,0,0,3.28084E-5,0,0,0,0,0,0,222.2, 2.7, 0.1,0,0,364,364,364,1684,-100,-100,-100,100,230,0,0,45,3.853,3.848,0,0,0,0,0,96.62,3.28084E-5,0,41,Motors_Started,"Vuela con cuidado (sin GPS) Baja velocidad de la tarjeta SD. Puede afectar a su uso normal. Sustituye la tarjeta SD (Code: 10028). Sin señal GPS. La aeronave no puede hacer vuelo estacionario. Vuela con cuidado (Code: 30008). Baja velocidad de la tarjeta SD. Puede afectar a su "
210200,2022-08-11 15:46:48,0,0,0,,,3.28084E-5,0.328084,0,0,0,0,0,7.702,3.28084E-5,0,0,0,0,0,0,222.2, 2.6, 0.1,0,0,364,364,364,1684,-100,-100,-100,100,230,0,0,45,3.853,3.848,0,0,0,0,0.586,96.62,3.28084E-5,0,41,Motors_Started,
210300,2022-08-11 15:46:48,0,0,0,,,3.28084E-5,0.328084,0,0,0,0,0,7.702,3.28084E-5,0,0,0,0,0,0,222.2, 2.7, 0,0,0,364,364,364,1684,-100,-100,-100,100,230,0,0,45,3.853,3.848,0,0,0,0,0.586,96.62,3.28084E-5,0,41,Motors_Started,
210400,2022-08-11 15:46:48,0,0,0,,,3.28084E-5,0.328084,0,0,0,0,0,7.702,3.28084E-5,0,0,0,0,0,0,222.2, 2.7, 0.1,0,0,364,364,364,1684,-100,-100,-100,100,230,0,0,45,3.853,3.848,0,0,0,0,0.586,96.62,3.28084E-5,0,41,Motors_Started,
210500,2022-08-11 15:46:48,0,0,0,,,3.28084E-5,0.328084,0,0,0,0,0,7.702,3.28084E-5,0,0,0,0,0,0,222.2, 2.6, 0.1,0,0,364,364,364,1684,-100,-100,-100,100,230,0,0,45,3.853,3.848,0,0,0,0,0.586,96.62,3.28084E-5,0,41,Motors_Started,
210600,2022-08-11 15:46:48,0,0,0,,,3.28084E-5,0.328084,0,0,0,0,0,7.702,3.28084E-5,0,0,0,0,0,0,222.2, 2.7, 0.1,0,0,364,364,364,1684,-100,-100,-100,100,230,0,0,45,3.853,3.848,0,0,0,0,0.586,96.62,3.28084E-5,0,41,Motors_Started,
210700,2022-08-11 15:46:48,0,0,0,,,3.28084E-5,0.328084,0,0,0,0,0,7.702,3.28084E-5,0,0,0,0,0,0,222.2, 2.7, 0.1,0,0,364,364,364,1684,-100,-100,-100,100,230,0,0,45,3.853,3.848,0,0,0,0,0.586,96.62,3.28084E-5,0,41,Motors_Started,
210800,2022-08-11 15:46:48,0,0,0,,,3.28084E-5,0.328084,0,0,0,0,0,7.702,3.28084E-5,0,0,0,0,0,0,222.2, 2.7, 0.1,0,0,364,364,364,1684,-100,-100,-100,100,230,0,0,45,3.853,3.848,0,0,0,0,0.586,96.62,3.28084E-5,0,41,Motors_Started,
210900,2022-08-11 15:46:48,0,0,0,,,3.28084E-5,0.328084,0,0,0,0,0,7.702,3.28084E-5,0,0,0,0,0,0,222.2, 2.7, 0.1,0,0,364,364,364,1684,-100,-100,-100,100,230,0,0,45,3.853,3.848,0,0,0,0,0.586,96.62,3.28084E-5,0,41,Motors_Started,"Setting new Return-To-Home altitude to 100m (328 ft). Data Recorder File Index is 4. Setting new Maximum Flight Altitude to 30m (98 ft)"
211000,2022-08-11 15:46:48,0,0,0,,,3.28084E-5,0.328084,0,0,0,0,0,7.702,3.28084E-5,0,0,0,0,0,0,222.2, 2.7, 0.1,0,0,1024,814,1022,1405,0,-32,-0,58,230,0,0,45,3.853,3.848,0,0,0,0,0.586,96.62,3.28084E-5,0,41,Motors_Started,
211100,2022-08-11 15:46:49,0,0,0,,,3.28084E-5,0.328084,0,0,0,0,0,7.702,3.28084E-5,0,0,0,0,0,0,222.2, 2.7, 0,0,0,1024,814,1022,1405,0,-32,-0,58,230,0,0,45,3.853,3.848,0,0,0,0,0.586,96.62,3.28084E-5,0,41,Motors_Started,
211200,2022-08-11 15:46:49,0,0,0,,,3.28084E-5,0.328084,0,0,0,0,0,7.675,3.28084E-5,0,0,0,0,0,0,222.2, 2.7, 0.1,0,0,1024,1024,1024,1054,0,0,0,5,230,0,0,45,3.839,3.832,0,0,0,0,1.014,96.62,3.28084E-5,0,10,Assisted_Takeoff,
211300,2022-08-11 15:46:49,0,0,0,,,3.28084E-5,0.328084,0,0,0,0,0,7.675,3.28084E-5,0,0,0,0,0,0,222.2, 2.7, 0.1,0,0,1024,1024,1024,1024,0,0,0,0,230,0,0,45,3.839,3.832,0,0,0,0,1.014,96.62,3.28084E-5,0,10,Assisted_Takeoff,
211400,2022-08-11 15:46:49,0,0,0,,,3.28084E-5,0.328084,0,0,0,0,0,7.675,3.28084E-5,0,0,0,0,0,0,222.2, 2.7, 0.1,0,0,1024,1024,1024,1024,0,0,0,0,230,0,0,45,3.839,3.832,0,0,0,0,1.014,96.62,3.28084E-5,0,10,Assisted_Takeoff,
211500,2022-08-11 15:46:49,0,0,0,,,3.28084E-5,0.328084,0,0,0,0,0,7.675,3.28084E-5,0,0,0,0,0,0,222.2, 2.6, 0.1,0,0,1024,1024,1024,1024,0,0,0,0,230,0,0,45,3.839,3.832,0,0,0,0,1.014,96.62,3.28084E-5,0,10,Assisted_Takeoff,
211600,2022-08-11 15:46:49,0,0,0,,,3.28084E-5,0.328084,0,0,0,0,0,7.675,3.28084E-5,0,0,0,0,0,0,222.2, 2.7, 0.1,0,0,1024,1024,1024,1024,0,0,0,0,230,0,0,45,3.839,3.832,0,0,0,0,1.014,96.62,3.28084E-5,0,10,Assisted_Takeoff,
211700,2022-08-11 15:46:49,0,0,0,,,3.28084E-5,0.328084,0,0,0,0,0,7.675,3.28084E-5,0,0,0,0,0,0,222.2, 2.7, 0.1,0,0,1024,1024,1024,1024,0,0,0,0,230,0,0,45,3.839,3.832,0,0,0,0,1.014,96.62,3.28084E-5,0,10,Assisted_Takeoff,
211800,2022-08-11 15:46:49,0,0,0,,,3.28084E-5,0.328084,0,0,0,0,0,7.675,3.28084E-5,0,0,0,0,0,0,222.2, 2.7, 0.1,0,0,1024,1024,1024,1024,0,0,0,0,230,0,0,45,3.839,3.832,0,0,0,0,1.014,96.62,3.28084E-5,0,10,Assisted_Takeoff,
211900,2022-08-11 15:46:49,0,0,0,,,3.28084E-5,0.328084,0,0,0,0,0,7.675,3.28084E-5,0,0,0,0,0,0,222.2, 2.7, 0,0,0,1024,1024,1024,1024,0,0,0,0,230,0,0,45,3.839,3.832,0,0,0,0,1.014,96.62,3.28084E-5,0,10,Assisted_Takeoff,
212000,2022-08-11 15:46:49,0,0,0,,,3.28084E-5,0.328084,0,0,0,0,0,7.675,3.28084E-5,0,0,0,0,0,0,222.2, 2.7, 0,0,0,1024,1024,1324,1024,0,0,45,0,230,0,0,45,3.839,3.832,0,0,0,0,1.014,96.62,3.28084E-5,0,10,Assisted_Takeoff,
212100,2022-08-11 15:46:50,0,0,0,,,3.28084E-5,0.328084,0,0,0,0,0,7.675,3.28084E-5,0,0,0,0,0,0,222.2, 2.8, 0,0,0,1024,1024,1324,1024,0,0,45,0,230,0,0,45,3.839,3.832,0,0,0,0,1.014,96.62,3.28084E-5,0,10,Assisted_Takeoff,
212200,2022-08-11 15:46:50,0,0,0,,,3.28084E-5,0.328084,0,0,0,0,0,7.677,3.28084E-5,0,0,0,0,0,0,222.2, 2.7, 0.1,0,0,1024,1024,1569,1024,0,0,83,0,230,0,0,45,3.843,3.838,0,0,0,0,1.436,96.62,3.28084E-5,0,10,Assisted_Takeoff,
212300,2022-08-11 15:46:50,0,0,0,,,3.28084E-5,0.328084,0,0,0,0,0,7.677,3.28084E-5,0,0,0,0,0,0,222.1, 2.7, 0,0,0,1024,1024,1024,1024,0,0,0,0,230,0,0,45,3.843,3.838,0,0,0,0,1.436,96.62,3.28084E-5,0,10,Assisted_Takeoff,
212400,2022-08-11 15:46:50,0,0,0,,,3.28084E-5,0.328084,0,0,0,0,0,7.677,3.28084E-5,0,0,0,0,0,0,222, 2.7, 0,0,0,1024,1024,1024,1024,0,0,0,0,229.9,0,0,45,3.843,3.838,0,0,0,0,1.436,96.62,3.28084E-5,0,10,Assisted_Takeoff,
212500,2022-08-11 15:46:50,0,0,0,,,3.28084E-5,0.328084,0,0,0,0,0,7.677,3.28084E-5,0,0,0,0,0,0,221.9, 2.7, 0,0,0,1024,1024,1024,1024,0,0,0,0,229.8,0,0,45,3.843,3.838,0,0,0,0,1.436,96.62,3.28084E-5,0,10,Assisted_Takeoff,
212600,2022-08-11 15:46:50,0,0,0,,,3.28084E-5,0.328084,0,0,0,0,0,7.677,3.28084E-5,0,0,0,0,0,0,221.9, 2.7, 0,0,0,1024,1024,1024,1024,0,0,0,0,229.8,0,0,45,3.843,3.838,0,0,0,0,1.436,96.62,3.28084E-5,0,10,Assisted_Takeoff,
212700,2022-08-11 15:46:50,0,0,0,,,3.28084E-5,0.328084,0,0,0,0,0,7.677,3.28084E-5,0,0,0,0,0,0,221.9, 2.7, 0,0,0,1024,1024,1024,1024,0,0,0,0,229.7,0,0,45,3.843,3.838,0,0,0,0,1.436,96.62,3.28084E-5,0,10,Assisted_Takeoff,
212800,2022-08-11 15:46:50,0,0,0,,,3.28084E-5,0.328084,0,0,0,0,0,7.677,3.28084E-5,0,0,0,0,0,0,221.9, 2.8, 0,0,0,1024,1024,1289,1024,0,0,40,0,229.7,0,0,45,3.843,3.838,0,0,0,0,1.436,96.62,3.28084E-5,0,10,Assisted_Takeoff,
212900,2022-08-11 15:46:50,0,0,0,,,3.28084E-5,0.328084,0,0,0,0,0,7.677,3.28084E-5,0,0,0,0,0,0,221.9, 2.7, 0,0,0,1024,1024,1493,1024,0,0,71,0,229.7,0,0,45,3.843,3.838,0,0,0,0,1.436,96.62,3.28084E-5,0,10,Assisted_Takeoff,
213000,2022-08-11 15:46:51,0,0,0,,,3.28084E-5,0.328084,0,0,0,0,0,7.677,3.28084E-5,0,0,0,0,0,0,221.9, 2.7, 0,0,0,1024,1024,1493,1024,0,0,71,0,229.7,0,0,45,3.843,3.838,0,0,0,0,1.436,96.62,3.28084E-5,0,10,Assisted_Takeoff,
213100,2022-08-11 15:46:51,0,0,0,,,3.28084E-5,0.328084,0,0,0,0,0,7.677,3.28084E-5,0,0,0,0,0,0,221.9, 2.7, 0,0,0,1024,1024,1528,1024,0,0,76,0,229.7,0,0,45,3.843,3.838,0,0,0,0,1.436,96.62,3.28084E-5,0,10,Assisted_Takeoff,
213200,2022-08-11 15:46:51,0,0,0,,,3.28084E-5,0.328084,0,0,0,0,0,7.647,3.28084E-5,0,0,0,0,0,0,222, 2.7, 0,0,0,1024,1024,1491,1024,0,0,71,0,229.7,0,0,45,3.834,3.826,0,0,0,0,1.506,96.8,3.28084E-5,0,10,Assisted_Takeoff,
213300,2022-08-11 15:46:51,0,0,0,,,3.28084E-5,0.328084,0,0,0,0,0,7.647,3.28084E-5,0,0,0,0,0,0,222.6, 2.5, 0,0,0,1024,1024,1387,1024,0,0,55,0,229.9,0,0,45,3.834,3.826,0,0,0,0,1.506,96.8,3.28084E-5,0,10,Assisted_Takeoff,
213400,2022-08-11 15:46:51,0,0,0,,,3.28084E-5,0.328084,0,0,0,0,0,7.647,3.28084E-5,0,0,0,0,0,0,223.9, 0.3, 0,0,0,1024,1024,1070,1024,0,0,7,0,230.8,0,0,45,3.834,3.826,0,0,0,0,1.506,96.8,3.28084E-5,0,10,Assisted_Takeoff,
213500,2022-08-11 15:46:51,0,0,0,,,3.28084E-5,0.328084,0,0,0,0,0,7.647,3.28084E-5,0,0,0,0,0,-0.223694,225.2, -1.4, 0,0,0,1024,1024,1024,1024,0,0,0,0,232.1,0,0,45,3.834,3.826,0,0,0,0,1.506,96.8,3.28084E-5,0,10,Assisted_Takeoff,
213600,2022-08-11 15:46:51,0,0,0,,,3.28084E-5,0.328084,0,0,0,0,0,7.647,3.28084E-5,0,0,0,0,0,-0.447388,225.6, -0.7, -0.1,0,0,1024,1024,1024,1024,0,0,0,0,232.8,0,0,45,3.834,3.826,0,0,0,0,1.506,96.8,3.28084E-5,0,6,P-GPS,"Baja velocidad de la tarjeta SD. Puede afectar a su uso normal. Sustituye la tarjeta SD (Code: 10028). Señal débil del GPS. Vuelo estacionario inestable. Vuela con cuidado (Code: 30002)"
213700,2022-08-11 15:46:51,0,0,0,,,3.28084E-5,0.328084,0,0,0,0,0,7.647,3.28084E-5,0,0,0,0,0,-0.447388,225.3, -0.4, -0.1,0,0,1024,1024,1024,1024,0,0,0,0,232.8,0,0,45,3.834,3.826,0,0,0,0,1.506,96.8,3.28084E-5,0,6,P-GPS,
213800,2022-08-11 15:46:51,0,0,0,,,3.28084E-5,0.328084,0,0,0,0,0,7.647,3.28084E-5,0,0,0,0,0,-0.447388,225.3, 0, 0.2,0,0,1024,1024,1024,1024,0,0,0,0,232.8,0,0,45,3.834,3.826,0,0,0,0,1.506,96.8,3.28084E-5,0,6,P-GPS,
213900,2022-08-11 15:46:51,0,0,0,,,3.28084E-5,0.328084,0,0,0,0,0,7.647,3.28084E-5,0,0,0,0,0,-0.447388,225.2, 0, 0.3,0,0,1024,1024,1024,1024,0,0,0,0,232.8,0,0,45,3.834,3.826,0,0,0,0,1.506,96.8,3.28084E-5,0,6,P-GPS,
214000,2022-08-11 15:46:52,0,0,0,,,3.28084E-5,0.656168,0,0,0,0,0,7.647,3.28084E-5,0,0,0,0,0,-0.447388,225.1, 0.2, 0.1,0,0,1024,1024,1024,1024,0,0,0,0,232.8,0,0,45,3.834,3.826,0,0,0,0,1.506,96.8,3.28084E-5,0,6,P-GPS,
214100,2022-08-11 15:46:52,0,0,0,,,3.28084E-5,0.656168,0,0,0,0,0,7.647,3.28084E-5,0,0,0,0,0,-0.671082,225.1, 0.5, 0,0,0,1024,1024,1024,1024,0,0,0,0,232.8,0,0,45,3.834,3.826,0,0,0,0,1.506,96.8,3.28084E-5,0,6,P-GPS,
214200,2022-08-11 15:46:52,0,0,0,,,3.28084E-5,0.656168,0,0,0,0,0,7.601,3.28084E-5,0,0,0,0,0,-0.894776,225.1, 0.4, 0,0,0,1024,1024,1024,1024,0,0,0,0,232.8,0,0,45,3.796,3.782,0,0,0,0,2.543,96.8,3.28084E-5,0,6,P-GPS,
214300,2022-08-11 15:46:52,0,0,0.328084,,,0.3281168084,0.984252,0,0,0,0,0,7.601,0.3281168084,0.328084,0,0,0,0,-0.894776,225.1, 0.4, 0,0,0,1024,1024,1024,1024,0,0,0,0,232.8,0,0,45,3.796,3.782,0,0,0,0,2.543,96.8,0.3281168084,0.328084,6,P-GPS,
214400,2022-08-11 15:46:52,0,0,0.328084,,,0.3281168084,0.984252,0,0,0,0,0,7.601,0.3281168084,0.328084,0,0,0,0,-0.894776,225, 0.2, 0.1,0,0,1024,1024,1024,1024,0,0,0,0,232.8,0,0,45,3.796,3.782,0,0,0,0,2.543,96.8,0.3281168084,0.328084,6,P-GPS,
214500,2022-08-11 15:46:52,0,0,0.328084,,,0.3281168084,1.312336,0,0,0,0,0,7.601,0.3281168084,0.328084,0,0,0,0,-0.894776,225, 0.1, 0.2,0,0,1024,1024,1024,1024,0,0,0,0,232.8,0,0,45,3.796,3.782,0,0,0,0,2.543,96.8,0.3281168084,0.328084,6,P-GPS,
214600,2022-08-11 15:46:52,0,0,0.656168,,,0.6562008084,1.312336,0,0,0,0,0,7.601,0.6562008084,0.656168,0,0,0,0,-0.894776,225, 0, 0.2,0,0,1024,1024,1024,1024,0,0,0,0,232.8,0,0,45,3.796,3.782,0,0,0,0,2.543,96.8,0.6562008084,0.656168,6,P-GPS,
214700,2022-08-11 15:46:52,0,0,0.656168,,,0.6562008084,1.312336,0,0,0,0,0,7.601,0.6562008084,0.656168,0,0,0,0,-0.671082,225, 0, 0,0,0,1024,1024,1024,1024,0,0,0,0,232.8,0,0,45,3.796,3.782,0,0,0,0,2.543,96.8,0.6562008084,0.656168,1,Atti,"Vuela con cuidado (modo Atti) Señal del GPS demasiado débil. Se ha pasado al modo Atti. La aeronave no puede hacer vuelo estacionario. Vuela con precaución (Code: 30022). Baja velocidad de la tarjeta SD. Puede afectar a su uso normal. Sustituye la tarjeta SD (Code: 10028). Señal "
214800,2022-08-11 15:46:52,0,0,0.656168,,,0.6562008084,1.64042,0,0,0,0,0,7.601,0.6562008084,0.656168,0,0,0,0,-0.447388,225, 0, 0,0,0,1024,1024,1024,1024,0,0,0,0,232.8,0,0,45,3.796,3.782,0,0,0,0,2.543,96.8,0.6562008084,0.656168,6,P-GPS,"La brújula no funciona bien el GPS no tiene buena señal. Cambia a modo Atti (Code: 30020). Aeronave en modo Atti. No se puede hacer vuelo estacionario. Vuela con cuidado (Code: 30004). Baja velocidad de la tarjeta SD. Puede afectar a su uso normal. S"
214900,2022-08-11 15:46:52,0,0,0.656168,,,0.6562008084,1.64042,0,0,0,0,0,7.601,0.6562008084,0.656168,0,0,0,0,-0.223694,225, 0, 0.2,0,0,1024,1024,1024,1024,0,0,0,0,232.8,0,0,45,3.796,3.782,0,0,0,0,2.543,96.8,0.6562008084,0.656168,6,P-GPS,
215000,2022-08-11 15:46:53,0,0,0.984252,,,0.9842848084,1.64042,0,0,0,0,0,7.601,0.9842848084,0.984252,0,0,0,0,0,225, 0.1, 0.2,0,0,1024,1024,1024,1024,0,0,0,0,232.8,0,0,45,3.796,3.782,0,0,0,0,2.543,96.8,0.9842848084,0.984252,6,P-GPS,
215100,2022-08-11 15:46:53,0,0,0.984252,,,0.9842848084,1.64042,0,0,0,0,0,7.601,0.9842848084,0.984252,0,0,0,0,0,225, 0.1, 0.2,0,0,1024,1024,1024,1024,0,0,0,0,232.8,0,0,45,3.796,3.782,0,0,0,0,2.543,96.8,0.9842848084,0.984252,6,P-GPS,
215200,2022-08-11 15:46:53,0,0,0.984252,,,0.9842848084,1.64042,0,0,0,0,0,7.553,0.9842848084,0.984252,0,0,0,0,0,225, 0.1, 0.2,0,0,1024,1024,1024,1024,0,0,0,0,232.8,0,0,45,3.787,3.775,0,0,0,0,4.65,96.8,0.9842848084,0.984252,6,P-GPS,
215300,2022-08-11 15:46:53,0,0,0.984252,,,0.9842848084,1.64042,0,0,0,0,0,7.553,0.9842848084,0.984252,0,0,0,0,0,225, 0.1, 0.2,0,0,1024,1024,1024,1024,0,0,0,0,232.8,0,0,45,3.787,3.775,0,0,0,0,4.65,96.8,0.9842848084,0.984252,6,P-GPS,
215400,2022-08-11 15:46:53,0,0,0.984252,,,0.9842848084,1.64042,0,0,0,0,0,7.553,0.9842848084,0.984252,0,0,0,0,0,225, 0.2, 0.3,0,0,1024,1024,1024,1024,0,0,0,0,232.8,0,0,45,3.787,3.775,0,0,0,0,4.65,96.8,0.9842848084,0.984252,6,P-GPS,
215500,2022-08-11 15:46:53,0,0,0.984252,,,0.9842848084,1.64042,0,0,0,0,0,7.553,0.9842848084,0.984252,0,0,0,0,0,225, 0.2, 0.3,0,0,1024,1024,1024,1024,0,0,0,0,232.8,0,0,45,3.787,3.775,0,0,0,0,4.65,96.8,0.9842848084,0.984252,6,P-GPS,
215600,2022-08-11 15:46:53,0,0,0.984252,,,0.9842848084,1.64042,0,0,0,0,0,7.553,0.9842848084,0.984252,0,0,0,0,0,225, 0.2, 0.3,0,0,1024,1024,1024,1024,0,0,0,0,232.8,0,0,45,3.787,3.775,0,0,0,0,4.65,96.8,0.9842848084,0.984252,6,P-GPS,
215700,2022-08-11 15:46:53,0,0,0.984252,,,0.9842848084,1.64042,0,0,0,0,0,7.553,0.9842848084,0.984252,0,0,0,0,0,225, 0.1, 0.4,0,0,1024,1024,1024,1024,0,0,0,0,232.8,0,0,45,3.787,3.775,0,0,0,0,4.65,96.8,0.9842848084,0.984252,6,P-GPS,
215800,2022-08-11 15:46:53,0,0,0.984252,,,0.9842848084,1.64042,0,0,0,0,0,7.553,0.9842848084,0.984252,0,0,0,0,0,225, 0.1, 0.4,0,0,1024,1024,1024,1024,0,0,0,0,232.8,0,0,45,3.787,3.775,0,0,0,0,4.65,96.8,0.9842848084,0.984252,6,P-GPS,
215900,2022-08-11 15:46:53,0,0,0.984252,,,0.9842848084,1.64042,0,0,0,0,0,7.553,0.9842848084,0.984252,0,0,0,0,0,225, 0.1, 0.4,0,0,1024,1024,1024,1024,0,0,0,0,232.8,0,0,45,3.787,3.775,0,0,0,0,4.65,96.8,0.9842848084,0.984252,6,P-GPS,
216000,2022-08-11 15:46:53,0,0,0.984252,,,0.9842848084,1.64042,0,0,0,0,0,7.553,0.9842848084,0.984252,0,0,0,0,0,225, 0.2, 0.4,0,0,1024,1024,1024,1024,0,0,0,0,232.8,0,0,45,3.787,3.775,0,0,0,0,4.65,96.8,0.9842848084,0.984252,6,P-GPS,
216100,2022-08-11 15:46:54,0,0,0.984252,,,0.9842848084,1.64042,0,0,0,0,0,7.553,0.9842848084,0.984252,0,0,0,0,0,225, 0.4, 0.4,0,0,1024,1024,1024,1024,0,0,0,0,232.8,0,0,45,3.787,3.775,0,0,0,0,4.65,96.8,0.9842848084,0.984252,6,P-GPS,
216200,2022-08-11 15:46:54,0,0,0.984252,,,0.9842848084,1.64042,0,0,0,0,0,7.547,0.9842848084,0.984252,0,0,0,0,0,225, 0.3, 0.4,0,0,1024,1024,1024,1024,0,0,0,0,232.8,0,0,45,3.779,3.766,0,0,0,0,4.393,96.62,0.9842848084,0.984252,6,P-GPS,
216300,2022-08-11 15:46:54,0,0,0.984252,,,0.9842848084,1.64042,0,0,0,0,0,7.547,0.9842848084,0.984252,0,0,0,0,0,225, 0.4, 0.4,0,0,1024,1024,1024,1024,0,0,0,0,232.8,0,0,45,3.779,3.766,0,0,0,0,4.393,96.62,0.9842848084,0.984252,6,P-GPS,
216400,2022-08-11 15:46:54,0,0,0.984252,,,0.9842848084,1.64042,0,0,0,0,0,7.547,0.9842848084,0.984252,0,0,0,0,0,224.9, 0.3, 0.4,0,0,1024,1024,1024,1024,0,0,0,0,232.8,0,0,45,3.779,3.766,0,0,0,0,4.393,96.62,0.9842848084,0.984252,6,P-GPS,
216500,2022-08-11 15:46:54,0,0,0.984252,,,0.9842848084,1.64042,0,0,0,0,0,7.547,0.9842848084,0.984252,0,0,0,0,0,224.9, 0.5, 0.4,0,0,1024,1024,1024,1024,0,0,0,0,232.8,0,0,45,3.779,3.766,0,0,0,0,4.393,96.62,0.9842848084,0.984252,6,P-GPS,
216600,2022-08-11 15:46:54,0,0,0.984252,,,0.9842848084,1.64042,0,0,0,0,0,7.547,0.9842848084,0.984252,0,0,0,0,0,224.9, 0.3, 0.3,0,0,1024,1024,1024,1024,0,0,0,0,232.8,0,0,45,3.779,3.766,0,0,0,0,4.393,96.62,0.9842848084,0.984252,6,P-GPS,
216700,2022-08-11 15:46:54,0,0,0.984252,,,0.9842848084,1.64042,0,0,0,0,0,7.547,0.9842848084,0.984252,0,0,0,0,0,224.9, 0.2, 0.2,0,0,1024,1024,1024,1024,0,0,0,0,232.8,0,0,45,3.779,3.766,0,0,0,0,4.393,96.62,0.9842848084,0.984252,6,P-GPS,
216800,2022-08-11 15:46:54,0,0,0.984252,,,0.9842848084,1.64042,0,0,0,0,0,7.547,0.9842848084,0.984252,0,0,0,0,0,224.9, 0.1, 0,0,0,1024,1024,1024,1024,0,0,0,0,232.8,0,0,45,3.779,3.766,0,0,0,0,4.393,96.62,0.9842848084,0.984252,6,P-GPS,
216900,2022-08-11 15:46:54,0,0,0.984252,,,0.9842848084,1.64042,0,0,0,0,0,7.547,0.9842848084,0.984252,0,0,0,0,0,225, 0, 0.1,0,0,1024,1024,1024,1024,0,0,0,0,232.8,0,0,45,3.779,3.766,0,0,0,0,4.393,96.62,0.9842848084,0.984252,6,P-GPS,
217000,2022-08-11 15:46:54,0,0,0.984252,,,0.9842848084,1.64042,0,0,0,0,0,7.547,0.9842848084,0.984252,0,0,0,0,0,225, 0, 0,0,0,1024,1024,1024,1024,0,0,0,0,232.8,0,0,45,3.779,3.766,0,0,0,0,4.393,96.62,0.9842848084,0.984252,6,P-GPS,
217100,2022-08-11 15:46:55,0,0,0.984252,,,0.9842848084,1.64042,0,0,0,0,0,7.547,0.9842848084,0.984252,0,0,0,0,0,225, 0.1, 0,0,0,1024,1024,1024,1024,0,0,0,0,232.8,0,0,45,3.779,3.766,0,0,0,0,4.393,96.62,0.9842848084,0.984252,6,P-GPS,
217200,2022-08-11 15:46:55,0,0,0.984252,,,0.9842848084,1.64042,0,0,0,0,0,7.538,0.9842848084,0.984252,0,0,0,0,0,225, 0.2, 0.4,0,0,1024,1024,1024,1024,0,0,0,0,232.8,0,0,45,3.775,3.761,0,0,0,0,4.595,96.8,0.9842848084,0.984252,6,P-GPS,
217300,2022-08-11 15:46:55,0,0,0.984252,,,0.9842848084,1.64042,0,0,0,0,0,7.538,0.9842848084,0.984252,0,0,0,0,0,224.9, 0.2, 0.2,0,0,1024,1024,1024,1024,0,0,0,0,232.8,0,0,45,3.775,3.761,0,0,0,0,4.595,96.8,0.9842848084,0.984252,6,P-GPS,
217400,2022-08-11 15:46:55,0,0,0.984252,,,0.9842848084,1.64042,0,0,0,0,0,7.538,0.9842848084,0.984252,0,0,0,0,0,224.9, 0.4, 0.1,0,0,1024,1024,1024,1024,0,0,0,0,232.8,0,0,45,3.775,3.761,0,0,0,0,4.595,96.8,0.9842848084,0.984252,6,P-GPS,
217500,2022-08-11 15:46:55,0,0,0.984252,,,0.9842848084,1.64042,0,0,0,0,0,7.538,0.9842848084,0.984252,0,0,0,0,0,224.9, 0.2, 0,0,0,1024,1024,1024,1024,0,0,0,0,232.8,0,0,45,3.775,3.761,0,0,0,0,4.595,96.8,0.9842848084,0.984252,6,P-GPS,
217600,2022-08-11 15:46:55,0,0,0.984252,,,0.9842848084,1.64042,0,0,0,0,0,7.538,0.9842848084,0.984252,0,0,0,0,0,225, 0.2, 0,0,0,1024,1024,1024,1024,0,0,0,0,232.8,0,0,45,3.775,3.761,0,0,0,0,4.595,96.8,0.9842848084,0.984252,6,P-GPS,
217700,2022-08-11 15:46:55,0,0,0.984252,,,0.9842848084,1.64042,0,0,0,0,0,7.538,0.9842848084,0.984252,0,0,0,0,0,225, 0.2, 0,0,0,1024,1024,1024,1024,0,0,0,0,232.8,0,0,45,3.775,3.761,0,0,0,0,4.595,96.8,0.9842848084,0.984252,6,P-GPS,"Se detectó tarjeta SD de baja velocidad"
217800,2022-08-11 15:46:55,0,0,0.984252,,,0.9842848084,1.64042,0,0,0,0,0,7.538,0.9842848084,0.984252,0,0,0,0,0,225, 0.2, -0.1,0,0,1024,1024,1024,1024,0,0,0,0,232.8,0,0,45,3.775,3.761,0,0,0,0,4.595,96.8,0.9842848084,0.984252,6,P-GPS,
217900,2022-08-11 15:46:55,0,0,0.984252,,,0.9842848084,1.64042,0,0,0,0,0,7.538,0.9842848084,0.984252,0,0,0,0,0,225, 0.1, -0.1,0,0,1024,1024,1024,1024,0,0,0,0,232.8,0,0,45,3.775,3.761,0,0,0,0,4.595,96.8,0.9842848084,0.984252,6,P-GPS,
218000,2022-08-11 15:46:55,0,0,0.984252,,,0.9842848084,1.64042,0,0,0,0,0,7.538,0.9842848084,0.984252,0,0,0,0,0,225.1, 0.2, 0.2,0,0,1024,1024,1024,1024,0,0,0,0,232.8,0,0,45,3.775,3.761,0,0,0,0,4.595,96.8,0.9842848084,0.984252,6,P-GPS,
218100,2022-08-11 15:46:56,0,0,0.984252,,,0.9842848084,1.64042,0,0,0,0,0,7.538,0.9842848084,0.984252,0,0,0,0,0,225.1, 0.2, 0.4,0,0,1024,1024,1024,1024,0,0,0,0,232.8,0,0,45,3.775,3.761,0,0,0,0,4.595,96.8,0.9842848084,0.984252,6,P-GPS,
218200,2022-08-11 15:46:56,0,0,0.984252,,,0.9842848084,1.64042,0,0,0,0,0,7.532,0.9842848084,0.984252,0,0,0,0,0,225, 0.1, 0.4,0,0,1024,1024,1024,1024,0,0,0,0,232.8,0,0,45,3.771,3.758,0,0,0,0,4.617,96.8,0.9842848084,0.984252,6,P-GPS,
218300,2022-08-11 15:46:56,0,0,0.984252,,,0.9842848084,1.64042,0,0,0,0,0,7.532,0.9842848084,0.984252,0,0,0,0,0,225, 0.1, 0.5,0,0,1024,1024,1024,1024,0,0,0,0,232.8,0,0,45,3.771,3.758,0,0,0,0,4.617,96.8,0.9842848084,0.984252,6,P-GPS,
218400,2022-08-11 15:46:56,0,0,0.984252,,,0.9842848084,1.64042,0,0,0,0,0,7.532,0.9842848084,0.984252,0,0,0,0,0,225, 0, 0.4,0,0,1024,1024,1024,1024,0,0,0,0,232.8,0,0,45,3.771,3.758,0,0,0,0,4.617,96.8,0.9842848084,0.984252,6,P-GPS,
218500,2022-08-11 15:46:56,0,0,0.984252,,,0.9842848084,1.64042,0,0,0,0,0,7.532,0.9842848084,0.984252,0,0,0,0,0,225, 0, 0.1,0,0,1024,1024,1024,1024,0,0,0,0,232.8,0,0,45,3.771,3.758,0,0,0,0,4.617,96.8,0.9842848084,0.984252,6,P-GPS,
218600,2022-08-11 15:46:56,0,0,0.984252,,,0.9842848084,1.64042,0,0,0,0,0,7.532,0.9842848084,0.984252,0,0,0,0,0,225, 0.2, 0,0,0,1024,1024,1024,1024,0,0,0,0,232.8,0,0,45,3.771,3.758,0,0,0,0,4.617,96.8,0.9842848084,0.984252,6,P-GPS,
218700,2022-08-11 15:46:56,0,0,0.984252,,,0.9842848084,1.64042,0,0,0,0,0,7.532,0.9842848084,0.984252,0,0,0,0,0,225, 0.2, 0,0,0,1024,1024,1024,1024,0,0,0,0,232.8,0,0,45,3.771,3.758,0,0,0,0,4.617,96.8,0.9842848084,0.984252,6,P-GPS,
218800,2022-08-11 15:46:56,0,0,0.984252,,,0.9842848084,1.64042,0,0,0,0,0,7.532,0.9842848084,0.984252,0,0,0,0,0,225.1, 0.1, 0,0,0,1024,1024,1024,1024,0,0,0,0,232.8,0,0,45,3.771,3.758,0,0,0,0,4.617,96.8,0.9842848084,0.984252,6,P-GPS,
218900,2022-08-11 15:46:56,0,0,0.984252,,,0.9842848084,1.64042,0,0,0,0,0,7.532,0.9842848084,0.984252,0,0,0,0,0,225, 0, 0.2,0,0,1024,1024,1024,1024,0,0,0,0,232.8,0,0,45,3.771,3.758,0,0,0,0,4.617,96.8,0.9842848084,0.984252,6,P-GPS,
219000,2022-08-11 15:46:56,0,0,0.984252,,,0.9842848084,1.64042,0,0,0,0,0,7.532,0.9842848084,0.984252,0,0,0,0,0,225.1, 0, 0.2,0,0,1024,1024,1024,1024,0,0,0,0,232.8,0,0,45,3.771,3.758,0,0,0,0,4.617,96.8,0.9842848084,0.984252,6,P-GPS,
219100,2022-08-11 15:46:57,0,0,0.984252,,,0.9842848084,1.64042,0,0,0,0,0,7.532,0.9842848084,0.984252,0,0,0,0,0,225.1, 0, 0.1,0,0,1024,1024,1024,1024,0,0,0,0,232.8,0,0,45,3.771,3.758,0,0,0,0,4.617,96.8,0.9842848084,0.984252,6,P-GPS,
219200,2022-08-11 15:46:57,0,0,0.984252,,,0.9842848084,1.64042,0,0,0,0,0,7.526,0.9842848084,0.984252,0,0,0,0,0,225.1, 0, 0,0,0,1024,1024,1024,1024,0,0,0,0,232.8,0,0,45,3.769,3.756,0,0,0,0,4.627,96.8,0.9842848084,0.984252,6,P-GPS,
219300,2022-08-11 15:46:57,0,0,0.984252,,,0.9842848084,1.64042,0,0,0,0,0,7.526,0.9842848084,0.984252,0,0,0,0,0,225.2, 0, 0,0,0,1024,1024,1024,1024,0,0,0,0,232.8,0,0,45,3.769,3.756,0,0,0,0,4.627,96.8,0.9842848084,0.984252,6,P-GPS,
219400,2022-08-11 15:46:57,0,0,0.984252,,,0.9842848084,1.64042,0,0,0,0,0,7.526,0.9842848084,0.984252,0,0,0,0,0,225.2, 0, 0.3,0,0,1024,1024,1024,1024,0,0,0,0,232.8,0,0,45,3.769,3.756,0,0,0,0,4.627,96.8,0.9842848084,0.984252,6,P-GPS,
219500,2022-08-11 15:46:57,0,0,0.984252,,,0.9842848084,1.64042,0,0,0,0,0,7.526,0.9842848084,0.984252,0,0,0,0,0,225.2, 0.1, 0.3,0,0,1024,1024,1024,1024,0,0,0,0,232.8,0,0,45,3.769,3.756,0,0,0,0,4.627,96.8,0.9842848084,0.984252,6,P-GPS,
219600,2022-08-11 15:46:57,0,0,0.984252,,,0.9842848084,1.64042,0,0,0,0,0,7.526,0.9842848084,0.984252,0,0,0,0,0,225.1, 0.1, 0.5,0,0,1024,1024,1024,1024,0,0,0,0,232.8,0,0,45,3.769,3.756,0,0,0,0,4.627,96.8,0.9842848084,0.984252,6,P-GPS,
219700,2022-08-11 15:46:57,0,0,0.984252,,,0.9842848084,1.64042,0,0,0,0,0,7.526,0.9842848084,0.984252,0,0,0,0,0,225.1, 0.1, 0.4,0,0,1024,1024,1024,1024,0,0,0,0,232.8,0,0,45,3.769,3.756,0,0,0,0,4.627,96.8,0.9842848084,0.984252,6,P-GPS,
219800,2022-08-11 15:46:57,0,0,1.312336,,,1.3123688084,1.64042,0,0,0,0,0,7.526,1.3123688084,1.312336,0,0,0,0,0,225.1, 0.1, 0.6,0,0,1024,1024,1024,1024,0,0,0,0,232.8,0,0,45,3.769,3.756,0,0,0,0,4.627,96.8,1.3123688084,1.312336,6,P-GPS,
219900,2022-08-11 15:46:57,0,0,1.312336,,,1.3123688084,1.64042,0,0,0,0,0,7.526,1.3123688084,1.312336,0,0,0,0,0,225.1, 0, 0.4,0,0,1024,1024,1024,1024,0,0,0,0,232.8,0,0,45,3.769,3.756,0,0,0,0,4.627,96.8,1.3123688084,1.312336,6,P-GPS,
220000,2022-08-11 15:46:57,0,0,1.312336,,,1.3123688084,1.64042,0,0,0,0,0,7.526,1.3123688084,1.312336,0,0,0,0,0,225, -0.1, 0.1,0,0,1024,1024,1024,1024,0,0,0,0,232.8,0,0,45,3.769,3.756,0,0,0,0,4.627,96.8,1.3123688084,1.312336,6,P-GPS,
220100,2022-08-11 15:46:58,0,0,1.312336,,,1.3123688084,1.64042,0,0,0,0,0,7.526,1.3123688084,1.312336,0,0,0,0,0,225, 0, 0,0,0,1024,1024,1024,1024,0,0,0,0,232.8,0,0,45,3.769,3.756,0,0,0,0,4.627,96.8,1.3123688084,1.312336,6,P-GPS,
220200,2022-08-11 15:46:58,0,0,1.312336,,,1.3123688084,1.64042,0,0,0,0,0,7.526,1.3123688084,1.312336,0,0,0,0,0,225, 0, -0.1,0,0,1024,1024,1024,1024,0,0,0,0,232.8,0,0,45,3.769,3.756,0,0,0,0,4.627,96.8,1.3123688084,1.312336,6,P-GPS,
220300,2022-08-11 15:46:58,0,0,1.312336,,,1.3123688084,1.64042,0,0,0,0,0,7.52,1.3123688084,1.312336,0,0,0,0,0,225, 0, 0,0,0,1024,1024,1024,1024,0,0,0,0,232.8,0,0,45,3.764,3.751,0,0,0,0,4.625,96.8,1.3123688084,1.312336,6,P-GPS,
220400,2022-08-11 15:46:58,0,0,1.312336,,,1.3123688084,1.64042,0,0,0,0,0,7.52,1.3123688084,1.312336,0,0,0,0,0,225, 0.1, 0.1,0,0,1024,1024,1024,1024,0,0,0,0,232.8,0,0,45,3.764,3.751,0,0,0,0,4.625,96.8,1.3123688084,1.312336,6,P-GPS,
220500,2022-08-11 15:46:58,0,0,1.312336,,,1.3123688084,1.64042,0,0,0,0,0,7.52,1.3123688084,1.312336,0,0,0,0,0,225, 0.3, 0.2,0,0,1024,1024,1024,1024,0,0,0,0,232.8,0,0,45,3.764,3.751,0,0,0,0,4.625,96.8,1.3123688084,1.312336,6,P-GPS,
220600,2022-08-11 15:46:58,0,0,1.312336,,,1.3123688084,1.64042,0,0,0,0,0,7.52,1.3123688084,1.312336,0,0,0,0,0,224.9, 0.2, 0.1,0,0,1024,1024,1024,1024,0,0,0,0,232.8,0,0,45,3.764,3.751,0,0,0,0,4.625,96.8,1.3123688084,1.312336,6,P-GPS,
220700,2022-08-11 15:46:58,0,0,1.312336,,,1.3123688084,1.64042,0,0,0,0,0,7.52,1.3123688084,1.312336,0,0,0,0,0,225, 0.1, 0,0,0,1024,1024,1024,1024,0,0,0,0,232.8,0,0,45,3.764,3.751,0,0,0,0,4.625,96.8,1.3123688084,1.312336,6,P-GPS,
220800,2022-08-11 15:46:58,0,0,1.312336,,,1.3123688084,1.64042,0,0,0,0,0,7.52,1.3123688084,1.312336,0,0,0,0,0,225, 0, 0.2,0,0,1024,1024,1024,1024,0,0,0,0,232.8,0,0,45,3.764,3.751,0,0,0,0,4.625,96.8,1.3123688084,1.312336,6,P-GPS,
220900,2022-08-11 15:46:58,0,0,1.312336,,,1.3123688084,1.64042,0,0,0,0,0,7.52,1.3123688084,1.312336,0,0,0,0,0,225, 0, 0.2,0,0,1024,1024,1024,1024,0,0,0,0,232.8,0,0,45,3.764,3.751,0,0,0,0,4.625,96.8,1.3123688084,1.312336,6,P-GPS,
221000,2022-08-11 15:46:59,0,0,1.312336,,,1.3123688084,1.64042,0,0,0,0,0,7.52,1.3123688084,1.312336,0,0,0,0,0,225, 0.1, 0.3,0,0,1024,1024,1024,1024,0,0,0,0,232.8,0,0,45,3.764,3.751,0,0,0,0,4.625,96.8,1.3123688084,1.312336,6,P-GPS,
221100,2022-08-11 15:46:59,0,0,1.312336,,,1.3123688084,1.64042,0,0,0,0,0,7.52,1.3123688084,1.312336,0,0,0,0,0,224.9, 0, 0.4,0,0,1024,1024,1024,1024,0,0,0,0,232.8,0,0,45,3.764,3.751,0,0,0,0,4.625,96.8,1.3123688084,1.312336,6,P-GPS,
221200,2022-08-11 15:46:59,0,0,1.312336,,,1.3123688084,1.64042,0,0,0,0,0,7.52,1.3123688084,1.312336,0,0,0,0,0,225, 0, 0.4,0,0,1024,1024,1024,1024,0,0,0,0,232.8,0,0,45,3.764,3.751,0,0,0,0,4.625,96.8,1.3123688084,1.312336,6,P-GPS,
221300,2022-08-11 15:46:59,0,0,1.312336,,,1.3123688084,1.64042,0,0,0,0,0,7.515,1.3123688084,1.312336,0,0,0,0,0,225, 0.1, 0.4,0,0,1024,1024,1024,1024,0,0,0,0,232.8,0,0,45,3.763,3.749,0,0,0,0,4.687,96.8,1.3123688084,1.312336,6,P-GPS,
221400,2022-08-11 15:46:59,0,0,1.312336,,,1.3123688084,1.64042,0,0,0,0,0,7.515,1.3123688084,1.312336,0,0,0,0,0,225, 0.1, 0.2,0,0,1024,1024,1024,1024,0,0,0,0,232.8,0,0,45,3.763,3.749,0,0,0,0,4.687,96.8,1.3123688084,1.312336,6,P-GPS,
221500,2022-08-11 15:46:59,0,0,1.312336,,,1.3123688084,1.64042,0,0,0,0,0,7.515,1.3123688084,1.312336,0,0,0,0,0,225.1, 0.1, 0.2,0,0,1024,1024,1024,1024,0,0,0,0,232.8,0,0,45,3.763,3.749,0,0,0,0,4.687,96.8,1.3123688084,1.312336,6,P-GPS,
221600,2022-08-11 15:46:59,0,0,1.312336,,,1.3123688084,1.64042,0,0,0,0,0,7.515,1.3123688084,1.312336,0,0,0,0,0,225.1, 0.2, 0.2,0,0,1024,1024,1024,1024,0,0,0,0,232.8,0,0,45,3.763,3.749,0,0,0,0,4.687,96.8,1.3123688084,1.312336,6,P-GPS,
221700,2022-08-11 15:46:59,0,0,1.312336,,,1.3123688084,1.64042,0,0,0,0,0,7.515,1.3123688084,1.312336,0,0,0,0,0,225.1, 0.1, 0.1,0,0,1024,1024,1024,1024,0,0,0,0,232.8,0,0,45,3.763,3.749,0,0,0,0,4.687,96.8,1.3123688084,1.312336,6,P-GPS,
221800,2022-08-11 15:46:59,0,0,1.312336,,,1.3123688084,1.64042,0,0,0,0,0,7.515,1.3123688084,1.312336,0,0,0,0,0,225.1, 0, 0,0,0,1024,1024,1024,1024,0,0,0,0,232.8,0,0,45,3.763,3.749,0,0,0,0,4.687,96.8,1.3123688084,1.312336,6,P-GPS,
221900,2022-08-11 15:46:59,0,0,1.312336,,,1.3123688084,1.64042,0,0,0,0,0,7.515,1.3123688084,1.312336,0,0,0,0,0,225.1, 0.1, -0.1,0,0,1024,1024,1024,1024,0,0,0,0,232.8,0,0,45,3.763,3.749,0,0,0,0,4.687,96.8,1.3123688084,1.312336,6,P-GPS,
222000,2022-08-11 15:47:00,0,0,1.312336,,,1.3123688084,1.64042,0,0,0,0,0,7.515,1.3123688084,1.312336,0,0,0,0,0,225.1, 0.2, 0,0,0,1024,1024,1024,1024,0,0,0,0,232.8,0,0,45,3.763,3.749,0,0,0,0,4.687,96.8,1.3123688084,1.312336,6,P-GPS,
222100,2022-08-11 15:47:00,0,0,1.312336,,,1.3123688084,1.64042,0,0,0,0,0,7.515,1.3123688084,1.312336,0,0,0,0,0,225.1, 0.1, 0,0,0,1024,1024,1024,1024,0,0,0,0,232.8,0,0,45,3.763,3.749,0,0,0,0,4.687,96.8,1.3123688084,1.312336,6,P-GPS,
222200,2022-08-11 15:47:00,0,0,1.312336,,,1.3123688084,1.64042,0,0,0,0,0,7.515,1.3123688084,1.312336,0,0,0,0,0,225.1, 0, 0,0,0,1024,1024,1024,1024,0,0,0,0,232.8,0,0,45,3.763,3.749,0,0,0,0,4.687,96.8,1.3123688084,1.312336,6,P-GPS,
222300,2022-08-11 15:47:00,0,0,1.312336,,,1.3123688084,1.64042,0,0,0,0,0,7.51,1.3123688084,1.312336,0,0,0,0,0,225.1, 0.1, 0.1,0,0,1024,1024,1024,1024,0,0,0,0,232.8,0,0,45,3.761,3.747,0,0,0,0,4.672,96.8,1.3123688084,1.312336,6,P-GPS,
222400,2022-08-11 15:47:00,0,0,1.312336,,,1.3123688084,1.64042,0,0,0,0,0,7.51,1.3123688084,1.312336,0,0,0,0,0,225.1, 0.2, 0.1,0,0,1024,1024,1024,1024,0,0,0,0,232.8,0,0,45,3.761,3.747,0,0,0,0,4.672,96.8,1.3123688084,1.312336,6,P-GPS,
222500,2022-08-11 15:47:00,0,0,1.312336,,,1.3123688084,1.64042,0,0,0,0,0,7.51,1.3123688084,1.312336,0,0,0,0,0,225.1, 0.2, 0.4,0,0,1024,1024,1024,1024,0,0,0,0,232.8,0,0,45,3.761,3.747,0,0,0,0,4.672,96.8,1.3123688084,1.312336,6,P-GPS,
222600,2022-08-11 15:47:00,0,0,1.312336,,,1.3123688084,1.64042,0,0,0,0,0,7.51,1.3123688084,1.312336,0,0,0,0,0,225.1, 0.2, 0.5,0,0,1024,1024,1024,1024,0,0,0,0,232.8,0,0,45,3.761,3.747,0,0,0,0,4.672,96.8,1.3123688084,1.312336,6,P-GPS,
222700,2022-08-11 15:47:00,0,0,1.312336,,,1.3123688084,1.64042,0,0,0,0,0,7.51,1.3123688084,1.312336,0,0,0,0,0,225.1, 0.2, 0.5,0,0,1024,1024,1024,1024,0,0,0,0,232.8,0,0,45,3.761,3.747,0,0,0,0,4.672,96.8,1.3123688084,1.312336,6,P-GPS,
222800,2022-08-11 15:47:00,0,0,1.312336,,,1.3123688084,1.64042,0,0,0,0,0,7.51,1.3123688084,1.312336,0,0,0,0,0,225.1, 0.1, 0.4,0,0,1024,1024,1024,1024,0,0,0,0,232.8,0,0,45,3.761,3.747,0,0,0,0,4.672,96.8,1.3123688084,1.312336,6,P-GPS,
222900,2022-08-11 15:47:00,0,0,1.312336,,,1.3123688084,1.64042,0,0,0,0,0,7.51,1.3123688084,1.312336,0,0,0,0,0,225.1, 0.2, 0.2,0,0,1024,1024,1024,1024,0,0,0,0,232.8,0,0,45,3.761,3.747,0,0,0,0,4.672,96.8,1.3123688084,1.312336,6,P-GPS,
223000,2022-08-11 15:47:01,0,0,1.312336,,,1.3123688084,1.64042,0,0,0,0,0,7.51,1.3123688084,1.312336,0,0,0,0,0,225.1, 0.2, 0.2,0,0,1024,1024,1024,1024,0,0,0,0,232.8,0,0,45,3.761,3.747,0,0,0,0,4.672,96.8,1.3123688084,1.312336,6,P-GPS,
223100,2022-08-11 15:47:01,0,0,1.312336,,,1.3123688084,1.64042,0,0,0,0,0,7.51,1.3123688084,1.312336,0,0,0,0,0,225.1, 0.2, 0.1,0,0,1024,1024,1024,1024,0,0,0,0,232.8,0,0,45,3.761,3.747,0,0,0,0,4.672,96.8,1.3123688084,1.312336,6,P-GPS,
223200,2022-08-11 15:47:01,0,0,1.312336,,,1.3123688084,1.64042,0,0,0,0,0,7.51,1.3123688084,1.312336,0,0,0,0,0,225.1, 0.3, 0.3,0,0,1024,1024,1024,1024,0,0,0,0,232.8,0,0,45,3.761,3.747,0,0,0,0,4.672,96.8,1.3123688084,1.312336,6,P-GPS,
223300,2022-08-11 15:47:01,0,0,1.312336,,,1.3123688084,1.64042,0,0,0,0,0,7.506,1.3123688084,1.312336,0,0,0,0,0,225.1, 0.3, 0.2,0,0,1024,1024,1024,1024,0,0,0,0,232.8,0,0,45,3.759,3.744,0,0,0,0,4.698,96.98,1.3123688084,1.312336,6,P-GPS,
223400,2022-08-11 15:47:01,0,0,1.312336,,,1.3123688084,1.64042,0,0,0,0,0,7.506,1.3123688084,1.312336,0,0,0,0,0,225.1, 0.3, 0.1,0,0,1024,1024,1024,1024,0,0,0,0,232.8,0,0,45,3.759,3.744,0,0,0,0,4.698,96.98,1.3123688084,1.312336,6,P-GPS,
223500,2022-08-11 15:47:01,0,0,1.312336,,,1.3123688084,1.64042,0,0,0,0,0,7.506,1.3123688084,1.312336,0,0,0,0,0,225.1, 0.3, 0.3,0,0,1024,1024,1024,1024,0,0,0,0,232.8,0,0,45,3.759,3.744,0,0,0,0,4.698,96.98,1.3123688084,1.312336,6,P-GPS,
223600,2022-08-11 15:47:01,0,0,1.312336,,,1.3123688084,1.64042,0,0,0,0,0,7.506,1.3123688084,1.312336,0,0,0,0,0,225.1, 0.2, 0.3,0,0,1024,1024,1024,1024,0,0,0,0,232.8,0,0,45,3.759,3.744,0,0,0,0,4.698,96.98,1.3123688084,1.312336,6,P-GPS,
223700,2022-08-11 15:47:01,0,0,1.312336,,,1.3123688084,1.64042,0,0,0,0,0,7.506,1.3123688084,1.312336,0,0,0,0,0,225, 0.2, 0.1,0,0,1024,1024,1024,1024,0,0,0,0,232.8,0,0,45,3.759,3.744,0,0,0,0,4.698,96.98,1.3123688084,1.312336,6,P-GPS,
223800,2022-08-11 15:47:01,0,0,1.312336,,,1.3123688084,1.64042,0,0,0,0,0,7.506,1.3123688084,1.312336,0,0,0,0,0,225, 0.1, 0,0,0,1024,1024,1024,1024,0,0,0,0,232.8,0,0,45,3.759,3.744,0,0,0,0,4.698,96.98,1.3123688084,1.312336,6,P-GPS,
223900,2022-08-11 15:47:01,0,0,1.312336,,,1.3123688084,1.64042,0,0,0,0,0,7.506,1.3123688084,1.312336,0,0,0,0,0,225.1, 0.2, 0,0,0,1024,1024,1024,1024,0,0,0,0,232.8,0,0,45,3.759,3.744,0,0,0,0,4.698,96.98,1.3123688084,1.312336,6,P-GPS,
224000,2022-08-11 15:47:01,0,0,1.312336,,,1.3123688084,1.64042,0,0,0,0,0,7.506,1.3123688084,1.312336,0,0,0,0,0,225.1, 0.1, 0.2,0,0,1024,1024,1024,1024,0,0,0,0,232.8,0,0,45,3.759,3.744,0,0,0,0,4.698,96.98,1.3123688084,1.312336,6,P-GPS,
224100,2022-08-11 15:47:02,0,0,1.312336,,,1.3123688084,1.64042,0,0,0,0,0,7.506,1.3123688084,1.312336,0,0,0,0,0,225, 0, 0.3,0,1,1024,1024,1024,1024,0,0,0,0,232.8,0,0,45,3.759,3.744,0,0,0,0,4.698,96.98,1.3123688084,1.312336,6,P-GPS,
224200,2022-08-11 15:47:02,0,0,1.312336,,,1.3123688084,1.64042,0,0,0,0,0,7.506,1.3123688084,1.312336,0,0,0,0,0,225, 0.2, 0.3,0,1,1024,1024,1024,1024,0,0,0,0,232.8,0,0,45,3.759,3.744,0,0,0,0,4.698,96.98,1.3123688084,1.312336,6,P-GPS,
224300,2022-08-11 15:47:02,0,0,1.312336,,,1.3123688084,1.64042,0,0,0,0,0,7.501,1.3123688084,1.312336,0,0,0,0,0,225, 0.2, 0.2,0,1,1024,1024,1024,1024,0,0,0,0,232.8,0,0,45,3.757,3.743,0,0,0,0,4.726,96.98,1.3123688084,1.312336,6,P-GPS,
224400,2022-08-11 15:47:02,0,0,1.312336,,,1.3123688084,1.64042,0,0,0,0,0,7.501,1.3123688084,1.312336,0,0,0,0,0,225, 0.1, 0,0,1,1024,1024,1024,1024,0,0,0,0,232.8,0,0,45,3.757,3.743,0,0,0,0,4.726,96.98,1.3123688084,1.312336,6,P-GPS,
224500,2022-08-11 15:47:02,0,0,1.312336,,,1.3123688084,1.64042,0,0,0,0,0,7.501,1.3123688084,1.312336,0,0,0,0,0,225.1, 0.2, 0,0,1,1024,1024,1024,1024,0,0,0,0,232.8,0,0,45,3.757,3.743,0,0,0,0,4.726,96.98,1.3123688084,1.312336,6,P-GPS,
224600,2022-08-11 15:47:02,0,0,1.312336,,,1.3123688084,1.64042,0,0,0,0,0,7.501,1.3123688084,1.312336,0,0,0,0,0,225.1, 0.2, 0.1,0,1,1024,1024,1024,1024,0,0,0,0,232.8,0,0,45,3.757,3.743,0,0,0,0,4.726,96.98,1.3123688084,1.312336,6,P-GPS,
224700,2022-08-11 15:47:02,0,0,1.312336,,,1.3123688084,1.64042,0,0,0,0,0,7.501,1.3123688084,1.312336,0,0,0,0,0,225.1, 0, 0,0,1,1024,1024,1024,1024,0,0,0,0,232.8,0,0,45,3.757,3.743,0,0,0,0,4.726,96.98,1.3123688084,1.312336,6,P-GPS,
224800,2022-08-11 15:47:02,0,0,1.312336,,,1.3123688084,1.64042,0,0,0,0,0,7.501,1.3123688084,1.312336,0,0,0,0,0,225.1, 0.1, 0.1,0,1,1024,1024,1024,1024,0,0,0,0,232.8,0,0,45,3.757,3.743,0,0,0,0,4.726,96.98,1.3123688084,1.312336,6,P-GPS,
224900,2022-08-11 15:47:02,0,0,1.312336,,,1.3123688084,1.64042,0,0,0,0,0,7.501,1.3123688084,1.312336,0,0,0,0,0,225.1, 0.2, 0.2,0,1,1024,1024,1024,1024,0,0,0,0,232.8,0,0,45,3.757,3.743,0,0,0,0,4.726,96.98,1.3123688084,1.312336,6,P-GPS,
225000,2022-08-11 15:47:02,0,0,1.312336,,,1.3123688084,1.64042,0,0,0,0,0,7.501,1.3123688084,1.312336,0,0,0,0,0,225.1, 0.2, 0.2,0,1,1024,1024,1024,1024,0,0,0,0,232.8,0,0,45,3.757,3.743,0,0,0,0,4.726,96.98,1.3123688084,1.312336,6,P-GPS,
225100,2022-08-11 15:47:03,0,0,1.312336,,,1.3123688084,1.64042,0,0,0,0,0,7.501,1.3123688084,1.312336,0,0,0,0,0,225, 0.2, 0.2,0,1,1024,1024,1024,1024,0,0,0,0,232.8,0,0,45,3.757,3.743,0,0,0,0,4.726,96.98,1.3123688084,1.312336,6,P-GPS,
225200,2022-08-11 15:47:03,0,0,1.312336,,,1.3123688084,1.64042,0,0,0,0,0,7.501,1.3123688084,1.312336,0,0,0,0,0,225, 0.3, 0.3,0,1,1024,1024,1024,1024,0,0,0,0,232.8,0,0,45,3.757,3.743,0,0,0,0,4.726,96.98,1.3123688084,1.312336,6,P-GPS,
225300,2022-08-11 15:47:03,0,0,1.64042,,,1.6404528084,1.64042,0,0,0,0,0,7.499,1.6404528084,1.64042,0,0,0,0,0,225, 0.2, 0.3,0,1,1024,1024,1024,1024,0,0,0,0,232.8,0,0,45,3.756,3.742,0,0,0,0,4.731,96.98,1.6404528084,1.64042,6,P-GPS,
225400,2022-08-11 15:47:03,0,0,1.64042,,,1.6404528084,1.64042,0,0,0,0,0,7.499,1.6404528084,1.64042,0,0,0,0,0,225, 0.1, 0.1,0,1,1024,1024,1024,1024,0,0,0,0,232.8,0,0,45,3.756,3.742,0,0,0,0,4.731,96.98,1.6404528084,1.64042,6,P-GPS,
225500,2022-08-11 15:47:03,0,0,1.64042,,,1.6404528084,1.64042,0,0,0,0,0,7.499,1.6404528084,1.64042,0,0,0,0,0,225, 0.2, 0.1,0,1,1024,1024,1024,1024,0,0,0,0,232.8,0,0,45,3.756,3.742,0,0,0,0,4.731,96.98,1.6404528084,1.64042,6,P-GPS,
225600,2022-08-11 15:47:03,0,0,1.64042,,,1.6404528084,1.64042,0,0,0,0,0,7.499,1.6404528084,1.64042,0,0,0,0,0,225.1, 0.3, 0.2,0,1,1024,1024,1024,1024,0,0,0,0,232.8,0,0,45,3.756,3.742,0,0,0,0,4.731,96.98,1.6404528084,1.64042,6,P-GPS,
225700,2022-08-11 15:47:03,0,0,1.64042,,,1.6404528084,1.64042,0,0,0,0,0,7.499,1.6404528084,1.64042,0,0,0,0,0,225.1, 0.3, 0.2,0,1,1024,1024,1024,1024,0,0,0,0,232.8,0,0,45,3.756,3.742,0,0,0,0,4.731,96.98,1.6404528084,1.64042,6,P-GPS,
225800,2022-08-11 15:47:03,0,0,1.64042,,,1.6404528084,1.64042,0,0,0,0,0,7.499,1.6404528084,1.64042,0,0,0,0,0,225.1, 0.3, 0.5,0,1,1024,1024,1024,1024,0,0,0,0,232.8,0,0,45,3.756,3.742,0,0,0,0,4.731,96.98,1.6404528084,1.64042,6,P-GPS,
225900,2022-08-11 15:47:03,0,0,1.64042,,,1.6404528084,1.64042,0,0,0,0,0,7.499,1.6404528084,1.64042,0,0,0,0,0,225.1, 0.4, 0.5,0,1,1024,1024,1024,1024,0,0,0,0,232.8,0,0,45,3.756,3.742,0,0,0,0,4.731,96.98,1.6404528084,1.64042,6,P-GPS,
226000,2022-08-11 15:47:03,0,0,1.312336,,,1.3123688084,1.64042,0,0,0,0,0,7.499,1.6404528084,1.64042,0,0,0,0,0,225.1, 0.4, 0.6,0,1,1024,1024,1024,1024,0,0,0,0,232.8,0,0,45,3.756,3.742,0,0,0,0,4.731,96.98,1.3123688084,1.312336,6,P-GPS,
226100,2022-08-11 15:47:04,0,0,1.312336,,,1.3123688084,1.64042,0,0,0,0,0,7.499,1.6404528084,1.64042,0,0,0,0,0,225.1, 0.3, 0.5,0,1,1024,1024,1024,1024,0,0,0,0,232.8,0,0,45,3.756,3.742,0,0,0,0,4.731,96.98,1.3123688084,1.312336,6,P-GPS,
226200,2022-08-11 15:47:04,0,0,1.312336,,,1.3123688084,1.64042,0,0,0,0,0,7.499,1.6404528084,1.64042,0,0,0,0,0,225, 0.4, 0.1,0,1,1024,1024,1024,1024,0,0,0,0,232.8,0,0,45,3.756,3.742,0,0,0,0,4.731,96.98,1.3123688084,1.312336,6,P-GPS,
226300,2022-08-11 15:47:04,0,0,1.312336,,,1.3123688084,1.64042,0,0,0,0,0,7.495,1.6404528084,1.64042,0,0,0,0,0,225, 0.5, 0,0,1,1024,1024,1024,1024,0,0,0,0,232.8,0,0,45,3.754,3.74,0,0,0,0,4.707,96.98,1.3123688084,1.312336,6,P-GPS,
226400,2022-08-11 15:47:04,0,0,1.312336,,,1.3123688084,1.64042,0,0,0,0,0,7.495,1.6404528084,1.64042,0,0,0,0,0,224.9, 0.4, -0.2,0,1,1024,1024,1024,1024,0,0,0,0,232.8,0,0,45,3.754,3.74,0,0,0,0,4.707,96.98,1.3123688084,1.312336,6,P-GPS,
226500,2022-08-11 15:47:04,0,0,1.312336,,,1.3123688084,1.64042,0,0,0,0,0,7.495,1.6404528084,1.64042,0,0,0,0,0,225, 0.2, -0.1,0,1,1024,1024,1024,1024,0,0,0,0,232.8,0,0,45,3.754,3.74,0,0,0,0,4.707,96.98,1.3123688084,1.312336,6,P-GPS,
226600,2022-08-11 15:47:04,0,0,1.312336,,,1.3123688084,1.64042,0,0,0,0,0,7.495,1.6404528084,1.64042,0,0,0,0,0,225, 0.2, 0,0,1,1024,1024,1024,1024,0,0,0,0,232.8,0,0,45,3.754,3.74,0,0,0,0,4.707,96.98,1.3123688084,1.312336,6,P-GPS,
226700,2022-08-11 15:47:04,0,0,1.312336,,,1.3123688084,1.64042,0,0,0,0,0,7.495,1.6404528084,1.64042,0,0,0,0,0,225, 0.2, -0.1,0,1,1024,1024,1024,1024,0,0,0,0,232.8,0,0,45,3.754,3.74,0,0,0,0,4.707,96.98,1.3123688084,1.312336,6,P-GPS,
226800,2022-08-11 15:47:04,0,0,1.312336,,,1.3123688084,1.64042,0,0,0,0,0,7.495,1.6404528084,1.64042,0,0,0,0,0,224.9, 0.2, -0.4,0,1,1024,1024,1024,1024,0,0,0,0,232.8,0,0,45,3.754,3.74,0,0,0,0,4.707,96.98,1.3123688084,1.312336,6,P-GPS,
226900,2022-08-11 15:47:04,0,0,1.312336,,,1.3123688084,1.64042,0,0,0,0,0,7.495,1.6404528084,1.64042,0,0,0,0,0,224.9, 0.2, -0.4,0,1,1024,1024,1024,1024,0,0,0,0,232.8,0,0,45,3.754,3.74,0,0,0,0,4.707,96.98,1.3123688084,1.312336,6,P-GPS,
227000,2022-08-11 15:47:04,0,0,1.312336,,,1.3123688084,1.64042,0,0,0,0,0,7.495,1.6404528084,1.64042,0,0,0,0,0,224.9, 0.2, -0.4,0,1,1024,1024,1024,1024,0,0,0,0,232.8,0,0,45,3.754,3.74,0,0,0,0,4.707,96.98,1.3123688084,1.312336,6,P-GPS,
227100,2022-08-11 15:47:05,0,0,1.312336,,,1.3123688084,1.64042,0,0,0,0,0,7.495,1.6404528084,1.64042,0,0,0,0,0,225, 0.2, -0.1,0,1,1024,1024,1024,1024,0,0,0,0,232.8,0,0,45,3.754,3.74,0,0,0,0,4.707,96.98,1.3123688084,1.312336,6,P-GPS,
227200,2022-08-11 15:47:05,0,0,1.312336,,,1.3123688084,1.64042,0,0,0,0,0,7.495,1.6404528084,1.64042,0,0,0,0,0,225, 0.3, 0,0,1,1024,1024,1024,1024,0,0,0,0,232.8,0,0,45,3.754,3.74,0,0,0,0,4.707,96.98,1.3123688084,1.312336,6,P-GPS,
227300,2022-08-11 15:47:05,0,0,1.312336,,,1.3123688084,1.64042,0,0,0,0,0,7.495,1.6404528084,1.64042,0,0,0,0,0,225, 0.1, 0.1,0,1,1024,1024,1024,1024,0,0,0,0,232.8,0,0,45,3.754,3.74,0,0,0,0,4.707,96.98,1.3123688084,1.312336,6,P-GPS,
227400,2022-08-11 15:47:05,0,0,1.312336,,,1.3123688084,1.64042,0,0,0,0,0,7.493,1.6404528084,1.64042,0,0,0,0,0,225, 0.1, 0.2,0,1,1024,1024,1024,1024,0,0,0,0,232.8,0,0,45,3.752,3.738,0,0,0,0,4.7,96.98,1.3123688084,1.312336,6,P-GPS,
227500,2022-08-11 15:47:05,0,0,1.312336,,,1.3123688084,1.64042,0,0,0,0,0,7.493,1.6404528084,1.64042,0,0,0,0,0,225, 0.2, 0.2,0,1,1024,1024,1024,1024,0,0,0,0,232.8,0,0,45,3.752,3.738,0,0,0,0,4.7,96.98,1.3123688084,1.312336,6,P-GPS,
227600,2022-08-11 15:47:05,0,0,1.312336,,,1.3123688084,1.64042,0,0,0,0,0,7.493,1.6404528084,1.64042,0,0,0,0,0,225, 0.1, 0.4,0,1,1024,1024,1024,1024,0,0,0,0,232.8,0,0,45,3.752,3.738,0,0,0,0,4.7,96.98,1.3123688084,1.312336,6,P-GPS,
227700,2022-08-11 15:47:05,0,0,1.64042,,,1.6404528084,1.64042,0,0,0,0,0,7.493,1.6404528084,1.64042,0,0,0,0,0,225, 0.1, 0.4,0,1,1024,1024,1024,1024,0,0,0,0,232.8,0,0,45,3.752,3.738,0,0,0,0,4.7,96.98,1.6404528084,1.64042,6,P-GPS,
227800,2022-08-11 15:47:05,0,0,1.64042,,,1.6404528084,1.64042,0,0,0,0,0,7.493,1.6404528084,1.64042,0,0,0,0,0,225, 0.1, 0.3,0,1,1024,1024,1024,1024,0,0,0,0,232.8,0,0,45,3.752,3.738,0,0,0,0,4.7,96.98,1.6404528084,1.64042,6,P-GPS,
227900,2022-08-11 15:47:05,0,0,1.64042,,,1.6404528084,1.64042,0,0,0,0,0,7.493,1.6404528084,1.64042,0,0,0,0,0,225, 0.1, 0.2,0,1,1024,1024,1024,1024,0,0,0,0,232.8,0,0,45,3.752,3.738,0,0,0,0,4.7,96.98,1.6404528084,1.64042,6,P-GPS,
228000,2022-08-11 15:47:06,0,0,1.64042,,,1.6404528084,1.64042,0,0,0,0,0,7.493,1.6404528084,1.64042,0,0,0,0,0,225, 0.2, 0.2,0,1,1024,1024,1024,1024,0,0,0,0,232.8,0,0,45,3.752,3.738,0,0,0,0,4.7,96.98,1.6404528084,1.64042,6,P-GPS,
228100,2022-08-11 15:47:06,0,0,1.64042,,,1.6404528084,1.64042,0,0,0,0,0,7.493,1.6404528084,1.64042,0,0,0,0,0,225, 0.1, 0.2,0,1,1024,1024,1024,1024,0,0,0,0,232.8,0,0,45,3.752,3.738,0,0,0,0,4.7,96.98,1.6404528084,1.64042,6,P-GPS,
228200,2022-08-11 15:47:06,0,0,1.64042,,,1.6404528084,1.64042,0,0,0,0,0,7.493,1.6404528084,1.64042,0,0,0,0,0,225, 0.2, 0.3,0,1,1024,1024,1024,1024,0,0,0,0,232.8,0,0,45,3.752,3.738,0,0,0,0,4.7,96.98,1.6404528084,1.64042,6,P-GPS,
228300,2022-08-11 15:47:06,0,0,1.64042,,,1.6404528084,1.64042,0,0,0,0,0,7.493,1.6404528084,1.64042,0,0,0,0,0,225, 0.2, 0.3,0,1,1024,1024,1024,1024,0,0,0,0,232.8,0,0,45,3.752,3.738,0,0,0,0,4.7,96.98,1.6404528084,1.64042,6,P-GPS,
228400,2022-08-11 15:47:06,0,0,1.64042,,,1.6404528084,1.64042,0,0,0,0,0,7.487,1.6404528084,1.64042,0,0,0,0,0,225, 0, 0.4,0,1,1024,1024,1024,1024,0,0,0,0,232.8,0,0,44,3.75,3.736,0,0,0,0,4.736,96.98,1.6404528084,1.64042,6,P-GPS,
228500,2022-08-11 15:47:06,0,0,1.64042,,,1.6404528084,1.64042,0,0,0,0,0,7.487,1.6404528084,1.64042,0,0,0,0,0,225.1, 0.1, 0.2,0,1,1024,1024,1024,1024,0,0,0,0,232.8,0,0,44,3.75,3.736,0,0,0,0,4.736,96.98,1.6404528084,1.64042,6,P-GPS,
228600,2022-08-11 15:47:06,0,0,1.64042,,,1.6404528084,1.64042,0,0,0,0,0,7.487,1.6404528084,1.64042,0,0,0,0,0,225, 0, 0.1,0,1,1024,1024,1024,1024,0,0,0,0,232.8,0,0,44,3.75,3.736,0,0,0,0,4.736,96.98,1.6404528084,1.64042,6,P-GPS,
228700,2022-08-11 15:47:06,0,0,1.64042,,,1.6404528084,1.64042,0,0,0,0,0,7.487,1.6404528084,1.64042,0,0,0,0,0,225, 0, 0.2,0,1,1024,1024,1024,1024,0,0,0,0,232.8,0,0,44,3.75,3.736,0,0,0,0,4.736,96.98,1.6404528084,1.64042,6,P-GPS,
228800,2022-08-11 15:47:06,0,0,1.64042,,,1.6404528084,1.64042,0,0,0,0,0,7.487,1.6404528084,1.64042,0,0,0,0,0,225, 0, 0.2,0,1,1024,1024,1024,1024,0,0,0,0,232.8,0,0,44,3.75,3.736,0,0,0,0,4.736,96.98,1.6404528084,1.64042,6,P-GPS,
228900,2022-08-11 15:47:06,0,0,1.64042,,,1.6404528084,1.64042,0,0,0,0,0,7.487,1.6404528084,1.64042,0,0,0,0,0,225.1, 0, 0.3,0,1,1024,1024,1024,1024,0,0,0,0,232.8,0,0,44,3.75,3.736,0,0,0,0,4.736,96.98,1.6404528084,1.64042,6,P-GPS,
229000,2022-08-11 15:47:07,0,0,1.64042,,,1.6404528084,1.64042,0,0,0,0,0,7.487,1.6404528084,1.64042,0,0,0,0,0,225, 0, 0.3,0,1,1024,1024,1024,1024,0,0,0,0,232.8,0,0,44,3.75,3.736,0,0,0,0,4.736,96.98,1.6404528084,1.64042,6,P-GPS,
229100,2022-08-11 15:47:07,0,0,1.64042,,,1.6404528084,1.64042,0,0,0,0,0,7.487,1.6404528084,1.64042,0,0,0,0,0,225, 0, 0.2,0,1,1024,1024,1024,1024,0,0,0,0,232.8,0,0,44,3.75,3.736,0,0,0,0,4.736,96.98,1.6404528084,1.64042,6,P-GPS,
229200,2022-08-11 15:47:07,0,0,1.64042,,,1.6404528084,1.64042,0,0,0,0,0,7.487,1.6404528084,1.64042,0,0,0,0,0,225, 0, 0,0,1,1024,1024,1024,1024,0,0,0,0,232.8,0,0,44,3.75,3.736,0,0,0,0,4.736,96.98,1.6404528084,1.64042,6,P-GPS,
229300,2022-08-11 15:47:07,0,0,1.64042,,,1.6404528084,1.64042,0,0,0,0,0,7.487,1.6404528084,1.64042,0,0,0,0,0,225, 0.1, 0,0,1,1024,1024,1024,1024,0,0,0,0,232.8,0,0,44,3.75,3.736,0,0,0,0,4.736,96.98,1.6404528084,1.64042,6,P-GPS,
229400,2022-08-11 15:47:07,0,0,1.64042,,,1.6404528084,1.64042,0,0,0,0,0,7.485,1.6404528084,1.64042,0,0,0,0,0,225, 0.1, 0.1,0,1,1024,1024,1024,1024,0,0,0,0,232.8,0,0,44,3.749,3.734,0,0,0,0,4.727,97.16,1.6404528084,1.64042,6,P-GPS,
229500,2022-08-11 15:47:07,0,0,1.64042,,,1.6404528084,1.64042,0,0,0,0,0,7.485,1.6404528084,1.64042,0,0,0,0,0,225, 0.1, 0.2,0,1,1024,1024,1024,1024,0,0,0,0,232.8,0,0,44,3.749,3.734,0,0,0,0,4.727,97.16,1.6404528084,1.64042,6,P-GPS,
229600,2022-08-11 15:47:07,0,0,1.64042,,,1.6404528084,1.64042,0,0,0,0,0,7.485,1.6404528084,1.64042,0,0,0,0,0,225, 0.1, 0,0,1,1024,1024,1024,1024,0,0,0,0,232.8,0,0,44,3.749,3.734,0,0,0,0,4.727,97.16,1.6404528084,1.64042,6,P-GPS,
229700,2022-08-11 15:47:07,0,0,1.64042,,,1.6404528084,1.64042,0,0,0,0,0,7.485,1.6404528084,1.64042,0,0,0,0,0,225, 0.2, 0,0,1,1024,1024,1024,1024,0,0,0,0,232.8,0,0,44,3.749,3.734,0,0,0,0,4.727,97.16,1.6404528084,1.64042,6,P-GPS,
229800,2022-08-11 15:47:07,0,0,1.64042,,,1.6404528084,1.64042,0,0,0,0,0,7.485,1.6404528084,1.64042,0,0,0,0,0,224.9, 0.2, -0.2,0,1,1024,1024,1024,1024,0,0,0,0,232.8,0,0,44,3.749,3.734,0,0,0,0,4.727,97.16,1.6404528084,1.64042,6,P-GPS,
229900,2022-08-11 15:47:07,0,0,1.64042,,,1.6404528084,1.64042,0,0,0,0,0,7.485,1.6404528084,1.64042,0,0,0,0,0,225, 0.4, 0,0,1,1024,1024,1024,1024,0,0,0,0,232.8,0,0,44,3.749,3.734,0,0,0,0,4.727,97.16,1.6404528084,1.64042,6,P-GPS,
230000,2022-08-11 15:47:08,0,0,1.64042,,,1.6404528084,1.64042,0,0,0,0,0,7.485,1.6404528084,1.64042,0,0,0,0,0,225, 0.3, 0,0,1,1024,1024,1024,1024,0,0,0,0,232.8,0,0,44,3.749,3.734,0,0,0,0,4.727,97.16,1.6404528084,1.64042,6,P-GPS,
230100,2022-08-11 15:47:08,0,0,1.64042,,,1.6404528084,1.64042,0,0,0,0,0,7.485,1.6404528084,1.64042,0,0,0,0,0,225, 0.3, 0,0,1,1024,1024,1024,1024,0,0,0,0,232.8,0,0,44,3.749,3.734,0,0,0,0,4.727,97.16,1.6404528084,1.64042,6,P-GPS,
230200,2022-08-11 15:47:08,0,0,1.64042,,,1.6404528084,1.64042,0,0,0,0,0,7.485,1.6404528084,1.64042,0,0,0,0,0,225, 0.1, 0,0,1,1024,1024,1024,1024,0,0,0,0,232.8,0,0,44,3.749,3.734,0,0,0,0,4.727,97.16,1.6404528084,1.64042,6,P-GPS,
230300,2022-08-11 15:47:08,0,0,1.64042,,,1.6404528084,1.64042,0,0,0,0,0,7.485,1.6404528084,1.64042,0,0,0,0,0,224.9, 0.1, 0,0,1,1024,1024,1024,1024,0,0,0,0,232.8,0,0,44,3.749,3.734,0,0,0,0,4.727,97.16,1.6404528084,1.64042,6,P-GPS,
230400,2022-08-11 15:47:08,0,0,1.64042,,,1.6404528084,1.64042,0,0,0,0,0,7.482,1.6404528084,1.64042,0,0,0,0,0,224.9, 0.1, -0.3,0,1,1024,1024,1024,1024,0,0,0,0,232.8,0,0,44,3.749,3.734,0,0,0,0,4.743,97.16,1.6404528084,1.64042,6,P-GPS,
230500,2022-08-11 15:47:08,0,0,1.64042,,,1.6404528084,1.64042,0,0,0,0,0,7.482,1.6404528084,1.64042,0,0,0,0,0,224.9, 0.1, -0.3,0,1,1024,1024,1024,1024,0,0,0,0,232.8,0,0,44,3.749,3.734,0,0,0,0,4.743,97.16,1.6404528084,1.64042,6,P-GPS,
230600,2022-08-11 15:47:08,0,0,1.64042,,,1.6404528084,1.64042,0,0,0,0,0,7.482,1.6404528084,1.64042,0,0,0,0,0,224.9, 0.2, -0.2,0,1,1024,1024,1024,1024,0,0,0,0,232.8,0,0,44,3.749,3.734,0,0,0,0,4.743,97.16,1.6404528084,1.64042,6,P-GPS,
230700,2022-08-11 15:47:08,0,0,1.64042,,,1.6404528084,1.64042,0,0,0,0,0,7.482,1.6404528084,1.64042,0,0,0,0,0,224.9, 0.2, 0.2,0,1,1024,1024,1024,1024,0,0,0,0,232.8,0,0,44,3.749,3.734,0,0,0,0,4.743,97.16,1.6404528084,1.64042,6,P-GPS,
230800,2022-08-11 15:47:08,0,0,1.64042,,,1.6404528084,1.64042,0,0,0,0,0,7.482,1.6404528084,1.64042,0,0,0,0,0,224.9, 0, 0.3,0,1,1024,1024,1024,1024,0,0,0,0,232.8,0,0,44,3.749,3.734,0,0,0,0,4.743,97.16,1.6404528084,1.64042,6,P-GPS,
230900,2022-08-11 15:47:08,0,0,1.64042,,,1.6404528084,1.64042,0,0,0,0,0,7.482,1.6404528084,1.64042,0,0,0,0,0,224.9, 0, 0.1,0,1,1024,1024,1024,1024,0,0,0,0,232.8,0,0,44,3.749,3.734,0,0,0,0,4.743,97.16,1.6404528084,1.64042,6,P-GPS,
231000,2022-08-11 15:47:08,0,0,1.64042,,,1.6404528084,1.64042,0,0,0,0,0,7.482,1.6404528084,1.64042,0,0,0,0,0,224.9, 0.1, 0,0,1,1024,1024,1024,1024,0,0,0,0,232.8,0,0,44,3.749,3.734,0,0,0,0,4.743,97.16,1.6404528084,1.64042,6,P-GPS,
231100,2022-08-11 15:47:09,0,0,1.64042,,,1.6404528084,1.64042,0,0,0,0,0,7.482,1.6404528084,1.64042,0,0,0,0,0,224.9, 0, 0.2,0,1,1024,1024,1024,1024,0,0,0,0,232.8,0,0,44,3.749,3.734,0,0,0,0,4.743,97.16,1.6404528084,1.64042,6,P-GPS,
231200,2022-08-11 15:47:09,0,0,1.64042,,,1.6404528084,1.64042,0,0,0,0,0,7.482,1.6404528084,1.64042,0,0,0,0,0,225, 0.2, 0.2,0,1,1024,1024,1024,1024,0,0,0,0,232.8,0,0,44,3.749,3.734,0,0,0,0,4.743,97.16,1.6404528084,1.64042,6,P-GPS,
231300,2022-08-11 15:47:09,0,0,1.64042,,,1.6404528084,1.64042,0,0,0,0,0,7.482,1.6404528084,1.64042,0,0,0,0,0,225, 0.2, 0.1,0,1,1024,1024,1024,1024,0,0,0,0,232.8,0,0,44,3.749,3.734,0,0,0,0,4.743,97.16,1.6404528084,1.64042,6,P-GPS,
231400,2022-08-11 15:47:09,0,0,1.64042,,,1.6404528084,1.64042,0,0,0,0,0,7.481,1.6404528084,1.64042,0,0,0,0,0,225, 0.2, -0.1,0,1,1024,1024,1024,1024,0,0,0,0,232.8,0,0,44,3.748,3.733,0,0,0,0,4.736,97.16,1.6404528084,1.64042,6,P-GPS,
231500,2022-08-11 15:47:09,0,0,1.64042,,,1.6404528084,1.64042,0,0,0,0,0,7.481,1.6404528084,1.64042,0,0,0,0,0,225.1, 0, -0.1,0,1,1024,1024,1024,1024,0,0,0,0,232.8,0,0,44,3.748,3.733,0,0,0,0,4.736,97.16,1.6404528084,1.64042,6,P-GPS,
231600,2022-08-11 15:47:09,0,0,1.64042,,,1.6404528084,1.64042,0,0,0,0,0,7.481,1.6404528084,1.64042,0,0,0,0,0,225, 0.1, 0,0,1,1024,1024,1024,1024,0,0,0,0,232.8,0,0,44,3.748,3.733,0,0,0,0,4.736,97.16,1.6404528084,1.64042,6,P-GPS,
231700,2022-08-11 15:47:09,0,0,1.64042,,,1.6404528084,1.64042,0,0,0,0,0,7.481,1.6404528084,1.64042,0,0,0,0,0,225, 0, -0.5,0,1,1024,1024,1024,1024,0,0,0,0,232.8,0,0,44,3.748,3.733,0,0,0,0,4.736,97.16,1.6404528084,1.64042,6,P-GPS,
231800,2022-08-11 15:47:09,0,0,1.64042,,,1.6404528084,1.64042,0,0,0,0,0,7.481,1.6404528084,1.64042,0,0,0,0,0,225, 0, -0.5,0,1,1024,1024,1024,1024,0,0,0,0,232.8,0,0,44,3.748,3.733,0,0,0,0,4.736,97.16,1.6404528084,1.64042,6,P-GPS,
231900,2022-08-11 15:47:09,0,0,1.64042,,,1.6404528084,1.64042,0,0,0,0,0,7.481,1.6404528084,1.64042,0,0,0,0,0,225, 0, -0.4,0,1,1024,1024,1024,1024,0,0,0,0,232.8,0,0,44,3.748,3.733,0,0,0,0,4.736,97.16,1.6404528084,1.64042,6,P-GPS,
232000,2022-08-11 15:47:09,0,0,1.64042,,,1.6404528084,1.64042,0,0,0,0,0,7.481,1.6404528084,1.64042,0,0,0,0,0,225, -0.1, 0,0,1,1024,1024,1024,1024,0,0,0,0,232.8,0,0,44,3.748,3.733,0,0,0,0,4.736,97.16,1.6404528084,1.64042,6,P-GPS,
232100,2022-08-11 15:47:10,0,0,1.64042,,,1.6404528084,1.64042,0,0,0,0,0,7.481,1.6404528084,1.64042,0,0,0,0,0,225, -0.1, 0.2,0,1,1024,1024,1024,1024,0,0,0,0,232.8,0,0,44,3.748,3.733,0,0,0,0,4.736,97.16,1.6404528084,1.64042,6,P-GPS,
232200,2022-08-11 15:47:10,0,0,1.64042,,,1.6404528084,1.64042,0,0,0,0,0,7.481,1.6404528084,1.64042,0,0,0,0,0,225, 0, 0.5,0,1,1024,1024,1024,1024,0,0,0,0,232.8,0,0,44,3.748,3.733,0,0,0,0,4.736,97.16,1.6404528084,1.64042,6,P-GPS,
232300,2022-08-11 15:47:10,0,0,1.64042,,,1.6404528084,1.64042,0,0,0,0,0,7.481,1.6404528084,1.64042,0,0,0,0,0,225, 0.3, 0.5,0,1,1024,1024,1024,1024,0,0,0,0,232.8,0,0,44,3.748,3.733,0,0,0,0,4.736,97.16,1.6404528084,1.64042,6,P-GPS,
232400,2022-08-11 15:47:10,0,0,1.312336,,,1.3123688084,1.64042,0,0,0,0,0,7.481,1.6404528084,1.64042,0,0,0,0,0,225, 0.3, 0.5,0,1,1024,1024,1024,1024,0,0,0,0,232.8,0,0,44,3.748,3.733,0,0,0,0,4.736,97.16,1.3123688084,1.312336,6,P-GPS,
232500,2022-08-11 15:47:10,0,0,1.312336,,,1.3123688084,1.64042,0,0,0,0,0,7.477,1.6404528084,1.64042,0,0,0,0,0,224.9, 0.1, 0.3,0,1,1024,1024,1024,1024,0,0,0,0,232.8,0,0,44,3.747,3.731,0,0,0,0,4.709,97.16,1.3123688084,1.312336,6,P-GPS,
232600,2022-08-11 15:47:10,0,0,1.312336,,,1.3123688084,1.64042,0,0,0,0,0,7.477,1.6404528084,1.64042,0,0,0,0,0,225, 0.1, 0.1,0,1,1024,1024,1024,1024,0,0,0,0,232.8,0,0,44,3.747,3.731,0,0,0,0,4.709,97.16,1.3123688084,1.312336,6,P-GPS,
232700,2022-08-11 15:47:10,0,0,1.312336,,,1.3123688084,1.64042,0,0,0,0,0,7.477,1.6404528084,1.64042,0,0,0,0,0,225, 0.2, 0.3,0,1,1024,1024,1024,1024,0,0,0,0,232.8,0,0,44,3.747,3.731,0,0,0,0,4.709,97.16,1.3123688084,1.312336,6,P-GPS,
232800,2022-08-11 15:47:10,0,0,1.312336,,,1.3123688084,1.64042,0,0,0,0,0,7.477,1.6404528084,1.64042,0,0,0,0,0,225, 0, 0.1,0,1,1024,1024,1024,1024,0,0,0,0,232.8,0,0,44,3.747,3.731,0,0,0,0,4.709,97.16,1.3123688084,1.312336,6,P-GPS,
232900,2022-08-11 15:47:10,0,0,1.312336,,,1.3123688084,1.64042,0,0,0,0,0,7.477,1.6404528084,1.64042,0,0,0,0,0,225, 0, 0,0,1,1024,1024,1024,1024,0,0,0,0,232.8,0,0,44,3.747,3.731,0,0,0,0,4.709,97.16,1.3123688084,1.312336,6,P-GPS,
233000,2022-08-11 15:47:10,0,0,1.312336,,,1.3123688084,1.64042,0,0,0,0,0,7.477,1.6404528084,1.64042,0,0,0,0,0,225, -0.1, 0.2,0,1,1024,1024,1024,1024,0,0,0,0,232.8,0,0,44,3.747,3.731,0,0,0,0,4.709,97.16,1.3123688084,1.312336,6,P-GPS,
233100,2022-08-11 15:47:11,0,0,1.312336,,,1.3123688084,1.64042,0,0,0,0,0,7.477,1.6404528084,1.64042,0,0,0,0,0,225, -0.1, 0.4,0,1,1024,1024,1024,1024,0,0,0,0,232.8,0,0,44,3.747,3.731,0,0,0,0,4.709,97.16,1.3123688084,1.312336,6,P-GPS,
233200,2022-08-11 15:47:11,0,0,1.312336,,,1.3123688084,1.64042,0,0,0,0,0,7.477,1.6404528084,1.64042,0,0,0,0,0,225, -0.1, 0.3,0,1,1024,1024,1024,1024,0,0,0,0,232.8,0,0,44,3.747,3.731,0,0,0,0,4.709,97.16,1.3123688084,1.312336,6,P-GPS,
233300,2022-08-11 15:47:11,0,0,1.312336,,,1.3123688084,1.64042,0,0,0,0,0,7.477,1.6404528084,1.64042,0,0,0,0,0,225, 0, 0.2,0,1,1024,1024,1024,1024,0,0,0,0,232.8,0,0,44,3.747,3.731,0,0,0,0,4.709,97.16,1.3123688084,1.312336,6,P-GPS,
233400,2022-08-11 15:47:11,0,0,1.312336,,,1.3123688084,1.64042,0,0,0,0,0,7.477,1.6404528084,1.64042,0,0,0,0,0,225, 0, -0.1,0,1,1024,1024,1024,1024,0,0,0,0,232.8,0,0,44,3.747,3.731,0,0,0,0,4.709,97.16,1.3123688084,1.312336,6,P-GPS,
233500,2022-08-11 15:47:11,0,0,1.312336,,,1.3123688084,1.64042,0,0,0,0,0,7.476,1.6404528084,1.64042,0,0,0,0,0,225, 0, 0,0,1,1024,1024,1024,1024,0,0,0,0,232.8,0,0,44,3.746,3.73,0,0,0,0,4.709,97.34,1.3123688084,1.312336,6,P-GPS,
233600,2022-08-11 15:47:11,0,0,1.312336,,,1.3123688084,1.64042,0,0,0,0,0,7.476,1.6404528084,1.64042,0,0,0,0,0,225, 0, 0.1,0,1,1024,1024,1024,1024,0,0,0,0,232.8,0,0,44,3.746,3.73,0,0,0,0,4.709,97.34,1.3123688084,1.312336,6,P-GPS,
233700,2022-08-11 15:47:11,0,0,1.312336,,,1.3123688084,1.64042,0,0,0,0,0,7.476,1.6404528084,1.64042,0,0,0,0,0,225.1, 0, 0.2,0,1,1024,1024,1024,1024,0,0,0,0,232.8,0,0,44,3.746,3.73,0,0,0,0,4.709,97.34,1.3123688084,1.312336,6,P-GPS,
233800,2022-08-11 15:47:11,0,0,1.312336,,,1.3123688084,1.64042,0,0,0,0,0,7.476,1.6404528084,1.64042,0,0,0,0,0,225.1, 0, 0.5,0,1,1024,1024,1024,1024,0,0,0,0,232.8,0,0,44,3.746,3.73,0,0,0,0,4.709,97.34,1.3123688084,1.312336,6,P-GPS,
233900,2022-08-11 15:47:11,0,0,1.312336,,,1.3123688084,1.64042,0,0,0,0,0,7.476,1.6404528084,1.64042,0,0,0,0,0,225, -0.1, 0.6,0,1,1024,1024,1024,1024,0,0,0,0,232.8,0,0,44,3.746,3.73,0,0,0,0,4.709,97.34,1.3123688084,1.312336,6,P-GPS,
234000,2022-08-11 15:47:12,0,0,1.312336,,,1.3123688084,1.64042,0,0,0,0,0,7.476,1.6404528084,1.64042,0,0,0,0,0,225, 0, 0.6,0,1,1024,1024,1024,1024,0,0,0,0,232.8,0,0,44,3.746,3.73,0,0,0,0,4.709,97.34,1.3123688084,1.312336,6,P-GPS,
234100,2022-08-11 15:47:12,0,0,1.312336,,,1.3123688084,1.64042,0,0,0,0,0,7.476,1.6404528084,1.64042,0,0,0,0,0,225.1, 0.1, 0.6,0,1,1024,1024,1024,1024,0,0,0,0,232.8,0,0,44,3.746,3.73,0,0,0,0,4.709,97.34,1.3123688084,1.312336,6,P-GPS,
234200,2022-08-11 15:47:12,0,0,1.312336,,,1.3123688084,1.64042,0,0,0,0,0,7.476,1.6404528084,1.64042,0,0,0,0,0,225.2, 0, 0.5,0,1,1024,1024,1024,1024,0,0,0,0,232.8,0,0,44,3.746,3.73,0,0,0,0,4.709,97.34,1.3123688084,1.312336,6,P-GPS,
234300,2022-08-11 15:47:12,0,0,1.312336,,,1.3123688084,1.64042,0,0,0,0,0,7.476,1.6404528084,1.64042,0,0,0,0,0,225.2, 0, 0.2,0,1,1024,1024,1024,1024,0,0,0,0,232.8,0,0,44,3.746,3.73,0,0,0,0,4.709,97.34,1.3123688084,1.312336,6,P-GPS,
234400,2022-08-11 15:47:12,0,0,1.312336,,,1.3123688084,1.64042,0,0,0,0,0,7.476,1.6404528084,1.64042,0,0,0,0,0,225.1, 0, 0,0,1,1024,1024,1024,1024,0,0,0,0,232.8,0,0,44,3.746,3.73,0,0,0,0,4.709,97.34,1.3123688084,1.312336,6,P-GPS,
234500,2022-08-11 15:47:12,0,0,1.312336,,,1.3123688084,1.64042,0,0,0,0,0,7.476,1.6404528084,1.64042,0,0,0,0,0,225.1, 0, -0.2,0,1,1024,1024,1024,1024,0,0,0,0,232.8,0,0,44,3.745,3.729,0,0,0,0,4.678,97.34,1.3123688084,1.312336,6,P-GPS,
234600,2022-08-11 15:47:12,0,0,1.312336,,,1.3123688084,1.64042,0,0,0,0,0,7.476,1.6404528084,1.64042,0,0,0,0,0,225.1, 0, -0.2,0,1,1024,1024,1024,1024,0,0,0,0,232.8,0,0,44,3.745,3.729,0,0,0,0,4.678,97.34,1.3123688084,1.312336,6,P-GPS,
234700,2022-08-11 15:47:12,0,0,1.312336,,,1.3123688084,1.64042,0,0,0,0,0,7.476,1.6404528084,1.64042,0,0,0,0,0,225, 0, 0,0,1,1024,1024,1024,1024,0,0,0,0,232.8,0,0,44,3.745,3.729,0,0,0,0,4.678,97.34,1.3123688084,1.312336,6,P-GPS,
234800,2022-08-11 15:47:12,0,0,1.312336,,,1.3123688084,1.64042,0,0,0,0,0,7.476,1.6404528084,1.64042,0,0,0,0,0,225, 0, 0.2,0,1,1024,1024,1024,1024,0,0,0,0,232.8,0,0,44,3.745,3.729,0,0,0,0,4.678,97.34,1.3123688084,1.312336,6,P-GPS,
234900,2022-08-11 15:47:12,0,0,1.312336,,,1.3123688084,1.64042,0,0,0,0,0,7.476,1.6404528084,1.64042,0,0,0,0,0,225, 0, 0.1,0,1,1024,1024,1024,1024,0,0,0,0,232.8,0,0,44,3.745,3.729,0,0,0,0,4.678,97.34,1.3123688084,1.312336,6,P-GPS,
235000,2022-08-11 15:47:13,0,0,1.312336,,,1.3123688084,1.64042,0,0,0,0,0,7.476,1.6404528084,1.64042,0,0,0,0,0,225, 0, 0.1,0,1,1024,1024,1016,1024,0,0,-1,0,232.8,0,0,44,3.745,3.729,0,0,0,0,4.678,97.34,1.3123688084,1.312336,6,P-GPS,
235100,2022-08-11 15:47:13,0,0,1.312336,,,1.3123688084,1.64042,0,0,0,0,0,7.476,1.6404528084,1.64042,0,0,0,0,0,225, 0, 0.3,0,1,1024,1024,720,1024,0,0,-46,0,232.8,0,0,44,3.745,3.729,0,0,0,0,4.678,97.34,1.3123688084,1.312336,6,P-GPS,
235200,2022-08-11 15:47:13,0,0,1.312336,,,1.3123688084,1.64042,0,0,0,0,0,7.476,1.6404528084,1.64042,0,0,0,0,0,225, 0, 0.5,0,1,1024,1024,720,1024,0,0,-46,0,232.8,0,0,44,3.745,3.729,0,0,0,0,4.678,97.34,1.3123688084,1.312336,6,P-GPS,
