time(millisecond),datetime(utc),latitude,longitude,height_above_takeoff(feet),height_above_ground_at_drone_location(feet),ground_elevation_at_drone_location(feet),altitude_above_seaLevel(feet),height_sonar(feet),speed(mph),distance(feet),mileage(feet),satellites,gpslevel,voltage(v),max_altitude(feet),max_ascent(feet),max_speed(mph),max_distance(feet), xSpeed(mph), ySpeed(mph), zSpeed(mph), compass_heading(degrees), pitch(degrees), roll(degrees),isPhoto,isVideo,rc_elevator,rc_aileron,rc_throttle,rc_rudder,rc_elevator(percent),rc_aileron(percent),rc_throttle(percent),rc_rudder(percent),gimbal_heading(degrees),gimbal_pitch(degrees),gimbal_roll(degrees),battery_percent,voltageCell1,voltageCell2,voltageCell3,voltageCell4,voltageCell5,voltageCell6,current(A),battery_temperature(f),altitude(feet),ascent(feet),flycStateRaw,flycState,message
0,2022-08-11 19:46:26,-34.9287604395137,-56.1628251550093,0,0,6.0652396954,6.0652396954,0.328084,0,0,0,22,5,0,6.0652396954,0,0,0,0,0,0,209.4, 1, -1.7,0,0,364,364,364,1684,-100,-100,-100,100,219.8,0,0,57,3.92,3.917,0,0,0,0,0,97.52,6.0652396954,0,6,P-GPS,"Aeronave en Zona de altitud restringida (150). Vuela con precaución (Code: 190001). Baja velocidad de la tarjeta SD. Puede afectar a su uso normal. Sustituye la tarjeta SD (Code: 10028)"
100,2022-08-11 19:46:26,-34.9287604592871,-56.1628251351739,0,0,6.0652396954,6.0652396954,0.328084,0,0.0093407811388,0.0093407811388,22,5,0,6.0652396954,0,0,0.0093407811388,0,0,0,209.4, 1, -1.7,0,0,364,364,364,1684,-100,-100,-100,100,219.8,0,0,57,3.92,3.917,0,0,0,0,0,97.52,6.0652396954,0,41,Motors_Started,"Setting new Return-To-Home altitude to 40m (131 ft). Data Recorder File Index is 9. Setting new Maximum Flight Altitude to 120m (394 ft)"
200,2022-08-11 19:46:26,-34.9287605080419,-56.1628250850305,0,0.032808400000001,6.0324312954,6.0652396954,0.328084,0,0.0326082031432,0.0326087280776,22,5,0,6.0652396954,0,0,0.0326082031432,0,0,0,209.3, 1, -1.8,0,0,364,364,364,1684,-100,-100,-100,100,219.9,0,0,57,3.92,3.917,0,0,0,0,0,97.52,6.0652396954,0,41,Motors_Started,
300,2022-08-11 19:46:26,-34.9287605470285,-56.1628250447224,0,0.032808400000001,6.0324312954,6.0652396954,0.328084,0,0.0512549229,0.051255579068,22,5,0,6.0652396954,0,0,0.0512549229,0,0,0,209.4, 0.9, -1.8,0,0,364,364,364,1684,-100,-100,-100,100,219.9,0,0,57,3.92,3.917,0,0,0,0,0,97.52,6.0652396954,0,41,Motors_Started,
400,2022-08-11 19:46:26,-34.9287605680558,-56.1628250223165,0,0.032808400000001,6.0324312954,6.0652396954,0.328084,0,0.06144029068,0.061442587268,22,5,0,6.0652396954,0,0,0.06144029068,0,0,0,209.4, 0.9, -1.7,0,0,364,364,364,1684,-100,-100,-100,100,219.9,0,0,57,3.92,3.917,0,0,0,0,0,97.52,6.0652396954,0,41,Motors_Started,
500,2022-08-11 19:46:26,-34.9287605867365,-56.1628250027555,0,0.032808400000001,6.0324312954,6.0652396954,0.328084,0,0.070422902516,0.070425527188,22,5,0,6.0652396954,0,0,0.070422902516,0,0,0,209.4, 0.9, -1.8,0,0,364,364,364,1684,-100,-100,-100,100,219.9,0,0,57,3.92,3.917,0,0,0,0,0,97.52,6.0652396954,0,41,Motors_Started,
600,2022-08-11 19:46:26,-34.9287606350434,-56.1628249539103,0,0.032808400000001,6.0324312954,6.0652396954,0.328084,0,0.0933152917,0.093318900624,22,5,0,6.0652396954,0,0,0.0933152917,0,0,0,209.4, 1, -1.7,0,0,364,364,364,1684,-100,-100,-100,100,219.9,0,0,57,3.92,3.917,0,0,0,0,0,97.52,6.0652396954,0,41,Motors_Started,
700,2022-08-11 19:46:27,-34.9287606733567,-56.1628249150677,0,0.032808400000001,6.0324312954,6.0652396954,0.328084,0,0.111491801468,0.111495738476,22,5,0,6.0652396954,0,0,0.111491801468,0,0,0,209.3, 0.9, -1.7,0,0,745,518,1024,1342,-42,-77,0,48,219.9,0,0,57,3.92,3.917,0,0,0,0,0,97.52,6.0652396954,0,41,Motors_Started,
800,2022-08-11 19:46:27,-34.9287606779652,-56.1628249186205,0,0.032808400000001,6.0324312954,6.0652396954,0.328084,0,0.112110567892,0.113484911768,22,5,0,6.0652396954,0,0,0.112110567892,0,0,0,209.3, 0.9, -1.8,0,0,1024,1024,1024,1024,0,0,0,0,219.9,0,0,57,3.92,3.917,0,0,0,0,0,97.52,6.0652396954,0,41,Motors_Started,
900,2022-08-11 19:46:27,-34.9287606954359,-56.16282490134,0,0.032808400000001,6.0324312954,6.0652396954,0.328084,0,0.120317261068,0.121691604944,22,5,0,6.0652396954,0,0,0.120317261068,0,0,0,209.4, 0.9, -1.8,0,0,1024,1024,1024,1024,0,0,0,0,219.9,0,0,57,3.92,3.917,0,0,0,0,0,97.52,6.0652396954,0,41,Motors_Started,
1000,2022-08-11 19:46:27,-34.9287607430923,-56.1628248533882,0,0.032808400000001,6.0324312954,6.0652396954,0.328084,0,0.142856959952,0.144231631912,22,5,0,6.0652396954,0,0,0.142856959952,0,0,0,209.3, 0.9, -1.7,0,0,1024,1024,1024,1024,0,0,0,0,219.9,0,0,57,3.92,3.917,0,0,0,0,0,97.52,6.0652396954,0,41,Motors_Started,
1100,2022-08-11 19:46:27,-34.9287607804008,-56.1628248155958,0,0.032808400000001,6.0324312954,6.0652396954,0.328084,0,0.160550201988,0.1619258582,22,5,0,6.0652396954,0,0,0.160550201988,0,0,0,209.3, 0.9, -1.8,0,0,1024,1024,1024,1024,0,0,0,0,219.9,0,0,57,3.92,3.917,0,0,0,0,0,97.52,6.0652396954,0,41,Motors_Started,
1200,2022-08-11 19:46:27,-34.9287607645389,-56.162824821565,0,0.032808400000001,6.0324312954,6.0652396954,0.328084,0,0.154954729368,0.16798228884,22,5,0,6.0652396954,0,0,0.160550201988,0,0,0,209.4, 1, -1.8,0,0,1024,1024,1141,1024,0,0,18,0,219.9,0,0,57,3.92,3.917,0,0,0,0,0,97.52,6.0652396954,0,10,Assisted_Takeoff,
1300,2022-08-11 19:46:27,-34.928760764451,-56.1628248047886,0,0.032808400000001,6.0324312954,6.0652396954,0.328084,0,0.158207354144,0.173000661704,22,5,7.844,6.0652396954,0,0,0.160550201988,0,0,0,209.4, 1, -1.8,0,0,1024,1024,1684,1024,0,0,100,0,219.9,0,0,57,3.92,3.917,0,0,0,0,1.32,97.52,6.0652396954,0,10,Assisted_Takeoff,
1400,2022-08-11 19:46:27,-34.9287607530999,-56.1628247557005,0,0.032808400000001,6.0324312954,6.0652396954,0.328084,0,0.165399283508,0.188257223872,22,5,7.844,6.0652396954,0,0,0.165399283508,0,0,0,209.4, 1, -1.8,0,0,1024,1024,1684,1024,0,0,100,0,219.9,0,0,57,3.92,3.917,0,0,0,0,1.32,97.52,6.0652396954,0,10,Assisted_Takeoff,
1500,2022-08-11 19:46:27,-34.9287607531488,-56.162824715557,0,0.032808400000001,6.0324312954,6.0652396954,0.328084,0,0.174280845472,0.200265098272,22,5,7.844,6.0652396954,0,0,0.174280845472,0,0,0,209.4, 0.9, -1.8,0,0,1024,1024,1684,1024,0,0,100,0,219.9,0,0,57,3.92,3.917,0,0,0,0,1.32,97.52,6.0652396954,0,10,Assisted_Takeoff,
1600,2022-08-11 19:46:27,-34.9287607980368,-56.1628247141856,0,0.032808400000001,6.0324312954,6.0652396954,0.328084,0,0.185736882584,0.216647644728,22,5,7.844,6.0652396954,0,0,0.185736882584,0,0,0,209.3, 1, -1.7,0,0,1024,1024,1684,1024,0,0,100,0,219.9,0,0,57,3.92,3.917,0,0,0,0,1.32,97.52,6.0652396954,0,10,Assisted_Takeoff,
1700,2022-08-11 19:46:28,-34.9287608307319,-56.162824706427,0,0.032808400000001,6.0324312954,6.0652396954,0.328084,0,0.195904533828,0.228800204172,22,5,7.844,6.0652396954,0,0,0.195904533828,0,0,0,209.3, 0.9, -1.7,0,0,1024,1024,1148,1024,0,0,19,0,219.9,0,0,57,3.92,3.917,0,0,0,0,1.32,97.52,6.0652396954,0,10,Assisted_Takeoff,
1800,2022-08-11 19:46:28,-34.9287608444003,-56.1628247093763,0,0.032808400000001,6.0324312954,6.0652396954,0.328084,0,0.198975071984,0.233864508796,22,5,7.844,6.0652396954,0,0,0.198975071984,0,0,0,209, 0.6, -1.6,0,0,1024,1024,1024,1024,0,0,0,0,219.8,0,0,57,3.92,3.917,0,0,0,0,1.32,97.52,6.0652396954,0,10,Assisted_Takeoff,
1900,2022-08-11 19:46:28,-34.9287608713079,-56.1628247024118,0,0.032808400000001,6.0324312954,6.0652396954,0.328084,0,0.207720151004,0.243900270272,22,5,7.844,6.0652396954,0,0,0.207720151004,0,0,0,209.4, -0.1, -1.1,0,0,1024,1024,1044,1024,0,0,3,0,219.7,0,0,57,3.92,3.917,0,0,0,0,1.32,97.52,6.0652396954,0,10,Assisted_Takeoff,
2000,2022-08-11 19:46:28,-34.9287609328223,-56.1628246614585,0,0.032808400000001,6.0324312954,6.0652396954,0.328084,0,0.232787409024,0.269469496812,22,5,7.844,6.0652396954,0,0,0.232787409024,0,0,0,209.4, 0.5, -1.5,0,0,1024,1024,1465,1024,0,0,67,0,219.8,0,0,57,3.92,3.917,0,0,0,0,1.32,97.52,6.0652396954,0,10,Assisted_Takeoff,
2100,2022-08-11 19:46:28,-34.9287609909024,-56.162824635944,0,0.032808400000001,6.0324312954,6.0652396954,0.328084,0,0.254123039628,0.291992463412,22,5,7.844,6.0652396954,0,0,0.254123039628,0,0,0,208.6, 0.3, -1.3,0,0,1024,1024,1684,1024,0,0,100,0,219.6,0,0,57,3.92,3.917,0,0,0,0,1.32,97.52,6.0652396954,0,10,Assisted_Takeoff,
2200,2022-08-11 19:46:28,-34.9287609933996,-56.1628246260511,0,0.032808400000001,6.0324312954,6.0652396954,0.328084,0,0.256658800864,0.29508859212,22,5,7.844,6.0652396954,0,0,0.256658800864,0,0,0,208.5, 0.3, -1.3,0,0,1024,1024,1684,1024,0,0,100,0,219.3,0,0,57,3.92,3.917,0,0,0,0,1.32,97.52,6.0652396954,0,10,Assisted_Takeoff,
2300,2022-08-11 19:46:28,-34.928760988323,-56.1628246035747,0,0.032808400000001,6.0324312954,6.0652396954,0.328084,0,0.259424877068,0.302062345624,22,5,7.82,6.0652396954,0,0,0.259424877068,0,0,0,208.4, 0.1, -1.1,0,0,1024,1024,1684,1024,0,0,100,0,219.1,0,0,57,3.902,3.903,0,0,0,0,1.886,97.52,6.0652396954,0,10,Assisted_Takeoff,
2400,2022-08-11 19:46:28,-34.9287609735758,-56.162824548042,0,0.032808400000001,6.0324312954,6.0652396954,0.328084,0,0.266329732932,0.319523304188,22,5,7.82,6.0652396954,0,0,0.266329732932,0,0,0,208.9, -1.1, -0.6,0,0,1024,1024,1684,1024,0,0,100,0,219.1,0,0,57,3.902,3.903,0,0,0,0,1.886,97.52,6.0652396954,0,10,Assisted_Takeoff,
2500,2022-08-11 19:46:28,-34.9287609062323,-56.1628244797116,0,0.032808400000001,6.0324312954,6.0652396954,0.328084,0,0.264196530764,0.35148295088,22,5,7.82,6.0652396954,0,0,0.266329732932,0,0,-0.223694,209.6, -1.9, -0.4,0,0,1024,1024,1684,1024,0,0,100,0,219.5,0,0,57,3.902,3.903,0,0,0,0,1.886,97.52,6.0652396954,0,10,Assisted_Takeoff,"Baja velocidad de la tarjeta SD. Puede afectar a su uso normal. Sustituye la tarjeta SD (Code: 10028)"
2600,2022-08-11 19:46:28,-34.928760983839,-56.1628244561511,0,0.032808400000001,6.0324312954,6.0652396954,0.328084,0,0.288342528912,0.38066274184,22,5,7.82,6.0652396954,0,0,0.288342528912,0,0,-0.671082,209.3, -0.3, 0,0,0,1024,1024,1684,1024,0,0,100,0,219.5,0,0,57,3.902,3.903,0,0,0,0,1.886,97.52,6.0652396954,0,6,P-GPS,
2700,2022-08-11 19:46:29,-34.928761079616,-56.1628244270159,0,0.032808400000001,6.0324312954,6.0652396954,0.656168,0,0.319314642764,0.41667652252,22,5,7.82,6.0652396954,0,0,0.319314642764,0,0,-1.11847,208.9, 0.4, 0.7,0,0,1024,1024,1033,1024,0,0,1,0,219.5,0,0,57,3.902,3.903,0,0,0,0,1.886,97.52,6.0652396954,0,6,P-GPS,
2800,2022-08-11 19:46:29,-34.9287612006436,-56.162824377306,0.328084,0.3608924,6.0324312954,6.3933236954,0.656168,0,0.36226051028,0.4632710122,22,5,7.82,6.3933236954,0.328084,0,0.36226051028,0,0,-1.342164,209, 0.4, 1.3,0,0,1024,1024,1024,1024,0,0,0,0,219.5,0,0,57,3.902,3.903,0,0,0,0,1.886,97.52,6.3933236954,0.328084,6,P-GPS,
2900,2022-08-11 19:46:29,-34.9287614197092,-56.1628243595762,0.328084,0.3608924,6.0324312954,6.3933236954,0.984252,0,0.429543977,0.5433727208,22,5,7.82,6.3933236954,0.328084,0,0.429543977,0,0,-1.342164,208.9, 0, 0.8,0,0,1024,1024,1065,1024,0,0,6,0,219.5,0,0,57,3.902,3.903,0,0,0,0,1.886,97.52,6.3933236954,0.328084,6,P-GPS,
3000,2022-08-11 19:46:29,-34.9287615357749,-56.162824391248,0.656168,0.7217848,5.9996228954,6.7214076954,0.984252,0,0.46062009348,0.58676511064,22,5,7.82,6.7214076954,0.656168,0,0.46062009348,0,0,-1.342164,208.9, 0.5, 0,0,0,1024,1024,1141,1024,0,0,18,0,219.5,0,0,57,3.902,3.903,0,0,0,0,1.886,97.52,6.7214076954,0.656168,6,P-GPS,
3100,2022-08-11 19:46:29,-34.9287616347884,-56.1628244299181,0.656168,0.7217848,5.9996228954,6.7214076954,1.312336,0,0.48705382136,0.62469818272,22,5,7.82,6.7214076954,0.656168,0,0.48705382136,0,0,-1.342164,208.8, 1.2, -0.6,0,0,1024,1024,1024,1024,0,0,0,0,219.5,0,0,57,3.902,3.903,0,0,0,0,1.886,97.52,6.7214076954,0.656168,6,P-GPS,"Baja velocidad de la tarjeta SD. Puede afectar a su uso normal. Sustituye la tarjeta SD (Code: 10028)"
3200,2022-08-11 19:46:29,-34.9287617023582,-56.1628244659446,0.984252,1.0498688,5.9996228954,7.0494916954,1.312336,0,0.50475067232,0.65160107072,22,5,7.82,7.0494916954,0.984252,0,0.50475067232,0,0,-1.11847,208.9, 0.7, -0.1,0,0,1024,1024,1024,1024,0,0,0,0,219.5,0,0,57,3.902,3.903,0,0,0,0,1.886,97.52,7.0494916954,0.984252,6,P-GPS,
3300,2022-08-11 19:46:29,-34.9287617114229,-56.1628248035426,1.312336,1.3779528,5.9996228954,7.3775756954,1.312336,0.223694,0.47581694436,0.7526411002,22,5,7.82,7.3775756954,1.312336,0.223694,0.50475067232,-0.223694,0,-0.894776,208.9, 1.1, 0.9,0,0,1024,1024,1024,1024,0,0,0,0,219.5,0,0,57,3.902,3.903,0,0,0,0,1.886,97.52,7.3775756954,1.312336,6,P-GPS,
3400,2022-08-11 19:46:29,-34.9287617672452,-56.1628249167997,1.312336,1.3779528,5.9996228954,7.3775756954,1.64042,0.223694,0.48963584244,0.79216866052,22,5,7.747,7.3775756954,1.312336,0.223694,0.50475067232,-0.223694,0,-0.447388,209.1, 1.8, 2.2,0,0,1024,1024,1024,1024,0,0,0,0,219.5,0,0,57,3.877,3.875,0,0,0,0,3.696,97.52,7.3775756954,1.312336,6,P-GPS,
3500,2022-08-11 19:46:29,-34.9287617998865,-56.1628250225072,1.312336,1.3779528,5.9996228954,7.3775756954,1.64042,0.223694,0.49791012092,0.82595803168,22,5,7.747,7.3775756954,1.312336,0.223694,0.50475067232,-0.223694,0,-0.223694,209, 2.1, 2,0,0,1024,1024,1024,1024,0,0,0,0,219.5,0,0,57,3.877,3.875,0,0,0,0,3.696,97.52,7.3775756954,1.312336,6,P-GPS,
3600,2022-08-11 19:46:29,-34.9287617810666,-56.162825099009,1.312336,1.3779528,5.9996228954,7.3775756954,1.64042,0,0.48975067184,0.84984910856,22,5,7.747,7.3775756954,1.312336,0.223694,0.50475067232,0,0,0,208.9, 2.2, 2,0,0,1024,1024,1024,1024,0,0,0,0,219.5,0,0,57,3.877,3.875,0,0,0,0,3.696,97.52,7.3775756954,1.312336,6,P-GPS,
3700,2022-08-11 19:46:30,-34.928761762083,-56.1628251540427,1.312336,1.3779528,5.9996228954,7.3775756954,1.64042,0,0.48253938552,0.86771000152,22,5,7.747,7.3775756954,1.312336,0.223694,0.50475067232,0,0,0,209, 2.3, 1.3,0,0,1024,1024,1024,1024,0,0,0,0,219.5,0,0,57,3.877,3.875,0,0,0,0,3.696,97.52,7.3775756954,1.312336,6,P-GPS,
3800,2022-08-11 19:46:30,-34.9287617163579,-56.1628249830429,1.64042,1.7060368,5.9996228954,7.7056596954,1.64042,0,0.46868767904,0.92151249668,22,5,7.747,7.7056596954,1.64042,0.223694,0.50475067232,0,0,0,209, 3, 0.8,0,0,1024,1024,1024,1024,0,0,0,0,219.5,0,0,57,3.877,3.875,0,0,0,0,3.696,97.52,7.7056596954,1.64042,6,P-GPS,
3900,2022-08-11 19:46:30,-34.928761743224,-56.1628249440305,1.64042,1.7060368,5.9996228954,7.7056596954,1.64042,0,0.47982613084,0.93675199848,22,5,7.747,7.7056596954,1.64042,0.223694,0.50475067232,0,0,0,209.1, 2.5, 1.3,0,0,1024,1024,1024,1024,0,0,0,0,219.5,0,0,57,3.877,3.875,0,0,0,0,3.696,97.52,7.7056596954,1.64042,6,P-GPS,
4000,2022-08-11 19:46:30,-34.9287618062936,-56.1628249945449,1.64042,1.7060368,5.9996228954,7.7056596954,1.64042,0,0.50097442548,0.96428152692,22,5,7.747,7.7056596954,1.64042,0.223694,0.50475067232,0,0,0,209.1, 2, 1.6,0,0,1024,1024,1024,1024,0,0,0,0,219.5,0,0,57,3.877,3.875,0,0,0,0,3.696,97.52,7.7056596954,1.64042,6,P-GPS,
4100,2022-08-11 19:46:30,-34.9287618506516,-56.1628250298504,1.64042,1.7060368,5.9996228954,7.7056596954,1.64042,0,0.51621064644,0.98360567452,22,5,7.747,7.7056596954,1.64042,0.223694,0.51621064644,0,0,0,209.1, 1.8, 1.4,0,0,1024,1024,1024,1024,0,0,0,0,219.5,0,0,57,3.877,3.875,0,0,0,0,3.696,97.52,7.7056596954,1.64042,6,P-GPS,
4200,2022-08-11 19:46:30,-34.9287620955843,-56.162825083275,1.64042,1.7060368,5.9996228954,7.7056596954,1.64042,0,0.60459647604,1.07438651732,22,5,7.747,7.7056596954,1.64042,0.223694,0.60459647604,0,0,0,209.1, 1.9, 1,0,0,1024,1024,1024,1024,0,0,0,0,219.5,0,0,57,3.877,3.875,0,0,0,0,3.696,97.52,7.7056596954,1.64042,6,P-GPS,
4300,2022-08-11 19:46:30,-34.9287620989682,-56.1628250766815,1.64042,1.7060368,5.9996228954,7.7056596954,1.64042,0,0.6059055312,1.07671263288,22,5,7.747,7.7056596954,1.64042,0.223694,0.6059055312,0,0,0,209.1, 1.6, 0.8,0,0,1024,1024,1024,1024,0,0,0,0,219.5,0,0,57,3.877,3.875,0,0,0,0,3.696,97.52,7.7056596954,1.64042,6,P-GPS,
4400,2022-08-11 19:46:30,-34.9287620745187,-56.1628250851715,1.64042,1.7060368,5.9996228954,7.7056596954,1.64042,0,0.59689634456,1.08598756756,22,5,7.747,7.7056596954,1.64042,0.223694,0.6059055312,0,0,0,209, 1.7, 0.3,0,0,1024,1024,1024,1024,0,0,0,0,219.5,0,0,57,3.877,3.875,0,0,0,0,3.696,97.52,7.7056596954,1.64042,6,P-GPS,
4500,2022-08-11 19:46:30,-34.9287620576106,-56.1628250821517,1.64042,1.7060368,5.9996228954,7.7056596954,1.64042,0,0.5907644546,1.0922244444,22,5,7.747,7.7056596954,1.64042,0.223694,0.6059055312,0,0,0,209.1, 1.7, -0.1,0,0,1024,1024,1024,1024,0,0,0,0,219.5,0,0,57,3.876,3.873,0,0,0,0,3.696,97.52,7.7056596954,1.64042,6,P-GPS,
4600,2022-08-11 19:46:31,-34.9287621348469,-56.1628250575149,1.64042,1.7060368,5.9996228954,7.7056596954,1.64042,0,0.61922902244,1.12135174192,22,5,7.747,7.7056596954,1.64042,0.223694,0.61922902244,0,0,0,209.1, 2.1, 0,0,0,1024,1024,1024,1024,0,0,0,0,219.5,0,0,57,3.876,3.873,0,0,0,0,3.696,97.52,7.7056596954,1.64042,6,P-GPS,
4700,2022-08-11 19:46:31,-34.9287621550966,-56.1628250127397,1.64042,1.7060368,5.9996228954,7.7056596954,1.64042,0,0.62737534816,1.136647018,22,5,7.747,7.7056596954,1.64042,0.223694,0.62737534816,0,0,0,209, 2.1, 0.3,0,0,1024,1024,1323,1024,0,0,45,0,219.5,0,0,57,3.876,3.873,0,0,0,0,3.696,97.52,7.7056596954,1.64042,6,P-GPS,
4800,2022-08-11 19:46:31,-34.9287622006914,-56.1628249800544,1.64042,1.7060368,5.9996228954,7.7056596954,1.64042,0,0.64469162168,1.15594163804,22,5,7.747,7.7056596954,1.64042,0.223694,0.64469162168,0,0,0,209, 1.9, 1,0,0,1024,1024,1684,1024,0,0,100,0,219.5,0,0,57,3.876,3.873,0,0,0,0,3.696,97.52,7.7056596954,1.64042,6,P-GPS,
4900,2022-08-11 19:46:31,-34.9287622390624,-56.1628249388294,1.64042,1.7060368,5.9996228954,7.7056596954,1.64042,0,0.65974083476,1.17459977512,22,5,7.747,7.7056596954,1.64042,0.223694,0.65974083476,0,0,-0.223694,209.2, 1.9, 1.8,0,0,1024,1024,1684,1024,0,0,100,0,219.5,0,0,57,3.876,3.873,0,0,0,0,3.696,97.52,7.7056596954,1.64042,6,P-GPS,
5000,2022-08-11 19:46:31,-34.9287624650522,-56.1628250554355,1.64042,1.7060368,5.9996228954,7.7056596954,1.64042,0,0.7396161654,1.2641240562,22,5,7.747,7.7056596954,1.64042,0.223694,0.7396161654,0,0,-0.894776,209.1, 1.2, 1.3,0,0,1024,1024,1684,1024,0,0,100,0,219.5,0,0,57,3.876,3.873,0,0,0,0,3.696,97.52,7.7056596954,1.64042,6,P-GPS,
5100,2022-08-11 19:46:31,-34.928762477899,-56.1628250315641,1.968504,2.0341208,5.9996228954,8.0337436954,1.968504,0,0.7446194464,1.27266736356,22,5,7.747,8.0337436954,1.968504,0.223694,0.7446194464,0,0,-1.565858,209, 1.2, 1.1,0,0,1024,1024,1373,1024,0,0,53,0,219.5,0,0,57,3.876,3.873,0,0,0,0,3.696,97.52,8.0337436954,1.968504,6,P-GPS,
5200,2022-08-11 19:46:31,-34.9287624735461,-56.1628249869692,2.296588,2.3622048,5.9996228954,8.3618276954,2.296588,0,0.7438156406,1.28609912252,22,5,7.747,8.3618276954,2.296588,0.223694,0.7446194464,0,0,-2.23694,209, 0.6, 0.4,0,0,1024,1024,1024,1024,0,0,0,0,219.5,0,0,57,3.876,3.873,0,0,0,0,3.696,97.52,8.3618276954,2.296588,6,P-GPS,
5300,2022-08-11 19:46:31,-34.9287624777377,-56.1628249312772,2.624672,2.6902888,5.9996228954,8.6899116954,2.624672,0,0.74665028636,1.30283140652,22,5,7.747,8.6899116954,2.624672,0.223694,0.74665028636,0,0,-2.684328,209.1, 1, 0.7,0,0,1024,1024,1024,1024,0,0,0,0,219.5,0,0,57,3.876,3.873,0,0,0,0,3.696,97.52,8.6899116954,2.624672,6,P-GPS,
5400,2022-08-11 19:46:31,-34.9287624926421,-56.162824843916,2.952756,3.0183728,5.9996228954,9.0179956954,2.952756,0,0.754839263,1.32952103992,22,5,7.747,9.0179956954,2.952756,0.223694,0.754839263,0,0,-2.460634,209.4, 1.1, 1.6,0,0,1024,1024,1024,1024,0,0,0,0,219.5,0,0,57,3.876,3.873,0,0,0,0,3.696,97.52,9.0179956954,2.952756,6,P-GPS,"Punto de origen actualizado. Altitud de RPO establecida en 40m (Code: 3000001)"
5500,2022-08-11 19:46:31,-34.9287625885249,-56.1628247660323,3.28084,3.3792652,5.9668144954,9.3460796954,3.28084,0,0.792650944,1.37155188116,22,5,7.757,9.3460796954,3.28084,0.223694,0.792650944,0,0,-2.013246,209.7, 1.6, 1.5,0,0,1024,1024,1024,1024,0,0,0,0,219.5,0,0,57,3.843,3.836,0,0,0,0,4.068,97.52,9.3460796954,3.28084,6,P-GPS,
5600,2022-08-11 19:46:31,-34.9287625356705,-56.1628246357533,3.608924,3.7073492,5.9668144954,9.6741636954,3.608924,0,0.78039372576,1.41503285368,22,5,7.757,9.6741636954,3.608924,0.223694,0.792650944,0,0,-1.342164,209.9, 1.4, 1.8,0,0,1024,1024,1024,1024,0,0,0,0,219.5,0,0,57,3.843,3.836,0,0,0,0,4.068,97.52,9.6741636954,3.608924,6,P-GPS,
5700,2022-08-11 19:46:32,-34.9287624611284,-56.1628245189538,3.608924,3.6745408,5.9996228954,9.6741636954,3.937008,0,0.761729027,1.45930778948,22,5,7.757,9.6741636954,3.608924,0.223694,0.792650944,0,0,-0.671082,210.2, 1.1, 1.7,0,0,1024,1024,1024,1024,0,0,0,0,219.5,0,0,57,3.843,3.836,0,0,0,0,4.068,97.52,9.6741636954,3.608924,6,P-GPS,
5800,2022-08-11 19:46:32,-34.9287623036351,-56.162824427985,3.608924,3.6745408,5.9996228954,9.6741636954,3.937008,0,0.71404529844,1.52288718784,22,5,7.757,9.6741636954,3.608924,0.223694,0.792650944,0,0,-0.223694,210.6, 1.1, 1.3,0,0,1024,1024,1024,1024,0,0,0,0,219.5,0,0,57,3.843,3.836,0,0,0,0,4.068,97.52,9.6741636954,3.608924,6,P-GPS,
5900,2022-08-11 19:46:32,-34.9287618898874,-56.1628242991898,3.608924,3.6745408,5.9996228954,9.6741636954,3.937008,0,0.58783794532,1.67868115608,22,5,7.757,9.6741636954,3.608924,0.223694,0.792650944,0,0,0,211, 1.5, 0.7,0,0,1024,1024,1024,1024,0,0,0,0,219.5,0,0,57,3.843,3.836,0,0,0,0,4.068,97.52,9.6741636954,3.608924,6,P-GPS,
6000,2022-08-11 19:46:32,-34.928761792368,-56.1628243019484,3.608924,3.6745408,5.9996228954,9.6741636954,3.937008,0,0.55564634324,1.7142717084,22,5,7.757,9.6741636954,3.608924,0.223694,0.792650944,0,0,0,211.3, 1.3, 0.6,0,0,1024,1024,1024,1024,0,0,0,0,219.5,0,0,57,3.843,3.836,0,0,0,0,4.068,97.52,9.6741636954,3.608924,6,P-GPS,
6100,2022-08-11 19:46:32,-34.9287617068527,-56.162824305031,3.608924,3.6745408,5.9996228954,9.6741636954,3.937008,0,0.52768046308,1.74548233932,22,5,7.757,9.6741636954,3.608924,0.223694,0.792650944,0,0,0,211.6, 1.4, 0.5,0,0,1024,1024,1024,1024,0,0,0,0,219.5,0,0,57,3.843,3.836,0,0,0,0,4.068,97.52,9.6741636954,3.608924,6,P-GPS,
6200,2022-08-11 19:46:32,-34.9287616429404,-56.1628243263815,3.608924,3.6745408,5.9996228954,9.6741636954,3.937008,0,0.50420277204,1.76966213012,22,5,7.757,9.6741636954,3.608924,0.223694,0.792650944,0,0,0,211.9, 1.6, 0.6,0,0,1024,1024,1024,1024,0,0,0,0,219.5,0,0,57,3.843,3.836,0,0,0,0,4.068,97.52,9.6741636954,3.608924,6,P-GPS,
6300,2022-08-11 19:46:32,-34.9287615844068,-56.1628246190501,3.608924,3.6745408,5.9996228954,9.6741636954,3.937008,0,0.44742127416,1.85977368156,22,5,7.757,9.6741636954,3.608924,0.223694,0.792650944,0,0,0,212.2, 1.8, 0.6,0,0,1024,1024,1024,1024,0,0,0,0,219.5,0,0,57,3.843,3.836,0,0,0,0,4.068,97.52,9.6741636954,3.608924,6,P-GPS,
6400,2022-08-11 19:46:32,-34.9287615914327,-56.1628246215605,3.608924,3.6745408,5.9996228954,9.6741636954,3.937008,0,0.44955053932,1.86244428532,22,5,7.757,9.6741636954,3.608924,0.223694,0.792650944,0,0,0,212.5, 2, 1,0,0,1024,1024,1024,1024,0,0,0,0,219.5,0,0,57,3.843,3.836,0,0,0,0,4.068,97.52,9.6741636954,3.608924,6,P-GPS,
6500,2022-08-11 19:46:32,-34.9287615992785,-56.1628246179634,3.608924,3.6745408,5.9996228954,9.6741636954,3.937008,0,0.4526082822,1.8655020282,22,5,7.743,9.6741636954,3.608924,0.223694,0.792650944,0,0,0,212.7, 1.9, 1.1,0,0,1024,1024,1024,1024,0,0,0,0,219.5,0,0,57,3.873,3.869,0,0,0,0,4.453,97.52,9.6741636954,3.608924,6,P-GPS,
6600,2022-08-11 19:46:32,-34.928761622049,-56.1628246065867,3.608924,3.6745408,5.9996228954,9.6741636954,3.937008,0,0.4615813796,1.87448168728,22,5,7.743,9.6741636954,3.608924,0.223694,0.792650944,0,0,0,213, 2.1, 0.9,0,0,1024,1024,1024,1024,0,0,0,0,219.5,0,0,57,3.873,3.869,0,0,0,0,4.453,97.52,9.6741636954,3.608924,6,P-GPS,
6700,2022-08-11 19:46:33,-34.9287619282999,-56.1628246505965,3.608924,3.6745408,5.9996228954,9.6741636954,3.937008,0,0.56375001804,1.98698825256,22,5,7.743,9.6741636954,3.608924,0.223694,0.792650944,0,0,0,213.2, 2, 0.8,0,0,1024,1024,1024,1024,0,0,0,0,219.5,0,0,57,3.873,3.869,0,0,0,0,4.453,97.52,9.6741636954,3.608924,6,P-GPS,
6800,2022-08-11 19:46:33,-34.9287619311106,-56.162824587569,3.608924,3.6745408,5.9996228954,9.6741636954,3.937008,0,0.57006563504,2.00586948676,22,5,7.743,9.6741636954,3.608924,0.223694,0.792650944,0,0,0,213.4, 2.2, 0.8,0,0,1024,1024,1024,1024,0,0,0,0,219.5,0,0,57,3.873,3.869,0,0,0,0,4.453,97.52,9.6741636954,3.608924,6,P-GPS,
6900,2022-08-11 19:46:33,-34.9287619258304,-56.1628245268352,3.608924,3.6745408,5.9996228954,9.6741636954,3.937008,0,0.57391406036,2.02413720388,22,5,7.743,9.6741636954,3.608924,0.223694,0.792650944,0,0,0,213.5, 2, 0.6,0,0,1024,1024,1024,1024,0,0,0,0,219.5,0,0,57,3.873,3.869,0,0,0,0,4.453,97.52,9.6741636954,3.608924,6,P-GPS,
7000,2022-08-11 19:46:33,-34.9287619080331,-56.1628244856337,3.608924,3.6745408,5.9996228954,9.6741636954,3.937008,0,0.57197836476,2.03806765052,22,5,7.743,9.6741636954,3.608924,0.223694,0.792650944,0,0,0,213.7, 1.9, 0.9,0,0,1024,1024,1024,1024,0,0,0,0,219.5,0,0,57,3.873,3.869,0,0,0,0,4.453,97.52,9.6741636954,3.608924,6,P-GPS,
7100,2022-08-11 19:46:33,-34.9287618911649,-56.1628244416475,3.608924,3.6745408,5.9996228954,9.6741636954,3.937008,0,0.57100395528,2.05259521004,22,5,7.743,9.6741636954,3.608924,0.223694,0.792650944,0,0,0,213.9, 1.7, 1.1,0,0,1024,1024,1122,1024,0,0,15,0,219.5,0,0,57,3.873,3.869,0,0,0,0,4.453,97.52,9.6741636954,3.608924,6,P-GPS,
7200,2022-08-11 19:46:33,-34.9287619145453,-56.1628244983479,3.937008,4.0026248,5.9996228954,10.0022476954,3.937008,0,0.57289043828,2.07158143112,22,5,7.743,10.0022476954,3.937008,0.223694,0.792650944,0,0,0,214.2, 2.1, 1.2,0,0,1024,1024,1505,1024,0,0,73,0,219.5,0,0,57,3.873,3.869,0,0,0,0,4.453,97.52,10.0022476954,3.937008,6,P-GPS,
7300,2022-08-11 19:46:33,-34.9287619023425,-56.1628244493146,3.937008,4.0026248,5.9996228954,10.0022476954,3.937008,0,0.57394030708,2.0869095156,22,5,7.743,10.0022476954,3.937008,0.223694,0.792650944,0,0,0,214.3, 2, 1.6,0,0,1024,1024,1684,1024,0,0,100,0,219.5,0,0,57,3.873,3.869,0,0,0,0,4.453,97.52,10.0022476954,3.937008,6,P-GPS,
7400,2022-08-11 19:46:33,-34.9287618920581,-56.1628243621911,3.937008,4.0026248,5.9996228954,10.0022476954,3.937008,0,0.58060369312,2.1132382566,22,5,7.743,10.0022476954,3.937008,0.223694,0.792650944,0,0,-0.671082,214.5, 1.9, 1.8,0,0,1024,1024,1684,1024,0,0,100,0,219.5,0,0,57,3.873,3.869,0,0,0,0,4.453,97.52,10.0022476954,3.937008,6,P-GPS,
7500,2022-08-11 19:46:33,-34.9287618745352,-56.1628243011935,3.937008,4.0026248,5.9996228954,10.0022476954,4.265092,0,0.58253938872,2.13257224672,22,5,7.746,10.0022476954,3.937008,0.223694,0.792650944,0,0,-1.342164,214.7, 2, 1.3,0,0,1024,1024,1684,1024,0,0,100,0,219.5,0,0,57,3.87,3.866,0,0,0,0,3.875,97.52,10.0022476954,3.937008,6,P-GPS,
7600,2022-08-11 19:46:33,-34.9287619171573,-56.1628243317524,4.265092,4.3307088,5.9996228954,10.3303316954,4.593176,0,0.59269686936,2.15061030504,22,5,7.746,10.3303316954,4.265092,0.223694,0.792650944,0,0,-2.23694,214.7, 2.2, 1.3,0,0,1024,1024,1684,1024,0,0,100,0,219.5,0,0,57,3.87,3.866,0,0,0,0,3.875,97.52,10.3303316954,4.265092,6,P-GPS,
7700,2022-08-11 19:46:34,-34.9287618979246,-56.1628243148637,4.92126,4.9868768,5.9996228954,10.9864996954,4.92126,0,0.58846130492,2.15925531844,22,5,7.746,10.9864996954,4.92126,0.223694,0.792650944,0,0,-2.908022,214.8, 2.4, 0.6,0,0,1024,1024,1211,1024,0,0,28,0,219.5,0,0,57,3.87,3.866,0,0,0,0,3.875,97.52,10.9864996954,4.92126,6,P-GPS,
7800,2022-08-11 19:46:34,-34.9287619133557,-56.1628242700154,5.249344,5.3149608,5.9996228954,11.3145836954,5.249344,0,0.5993602554,2.17380584384,22,5,7.746,11.3145836954,5.249344,0.223694,0.792650944,0,0,-3.802798,214.7, 2.1, 0.6,0,0,1186,1024,1024,1024,25,0,0,0,219.5,0,0,57,3.87,3.866,0,0,0,0,3.875,97.52,11.3145836954,5.249344,6,P-GPS,
7900,2022-08-11 19:46:34,-34.9287619120896,-56.1628242176489,5.905512,5.9711288,5.9996228954,11.9707516954,5.905512,0,0.60603348396,2.18947513568,22,5,7.746,11.9707516954,5.905512,0.223694,0.792650944,0,0,-3.579104,214.9, 2.2, 1.3,0,0,1684,1024,1024,1024,100,0,0,0,219.5,0,0,57,3.87,3.866,0,0,0,0,3.875,97.52,11.9707516954,5.905512,6,P-GPS,
8000,2022-08-11 19:46:34,-34.9287618876385,-56.1628243078993,6.233596,6.2992128,5.9996228954,12.2988356954,6.233596,0,0.58596786652,2.21790689512,22,5,7.746,12.2988356954,6.233596,0.223694,0.792650944,0,0,-2.908022,215, -4.7, 1.6,0,0,1684,1024,1024,1024,100,0,0,0,219.5,0,0,57,3.87,3.866,0,0,0,0,3.875,97.52,12.2988356954,6.233596,6,P-GPS,
8100,2022-08-11 19:46:34,-34.9287618808585,-56.1628243429488,6.56168,6.6272968,5.9996228954,12.6269196954,6.56168,0,0.5792651104,2.22868117368,22,5,7.746,12.6269196954,6.56168,0.223694,0.792650944,0,0,-2.23694,214.9, -17.2, 1.4,0,0,1684,1024,1024,1024,100,0,0,0,219.5,0,0,57,3.87,3.866,0,0,0,0,3.875,97.52,12.6269196954,6.56168,6,P-GPS,
8200,2022-08-11 19:46:34,-34.928762038991,-56.1628244971279,6.889764,6.9553808,5.9996228954,12.9550036954,6.889764,0.4921268,0.61585631892,2.3025427246,22,5,7.746,12.9550036954,6.889764,0.4921268,0.792650944,-0.447388,-0.223694,-1.342164,214.9, -22.1, 1.2,0,0,1684,1024,1024,1024,100,0,0,0,219.5,0,0,57,3.87,3.866,0,0,0,0,3.875,97.52,12.9550036954,6.889764,6,P-GPS,
8300,2022-08-11 19:46:34,-34.9287624026819,-56.1628247912882,6.889764,6.9553808,5.9996228954,12.9550036954,6.889764,1.2974252,0.72447836964,2.46175860896,22,5,7.746,12.9550036954,6.889764,1.2974252,0.792650944,-1.11847,-0.671082,-0.671082,215, -23.9, 1.1,0,0,1684,1024,1342,1024,100,0,48,0,219.5,0,0,57,3.87,3.866,0,0,0,0,3.875,97.52,12.9550036954,6.889764,6,P-GPS,
8400,2022-08-11 19:46:34,-34.9287633685381,-56.1628253066662,6.889764,6.9881892,5.9668144954,12.9550036954,6.56168,2.1027236,1.06961617596,2.84639772888,22,5,7.746,12.9550036954,6.889764,2.1027236,1.06961617596,-1.789552,-1.11847,-0.223694,215.3, -23.8, 1,0,0,1024,1024,1577,1024,0,0,84,0,219.5,0,0,57,3.87,3.866,0,0,0,0,3.875,97.52,12.9550036954,6.889764,6,P-GPS,
8500,2022-08-11 19:46:34,-34.9287642971021,-56.1628259944378,6.889764,7.0209976,5.9340060954,12.9550036954,6.889764,3.0422384,1.42966211924,3.24275600928,22,5,7.734,12.9550036954,6.889764,3.0422384,1.42966211924,-2.460634,-1.789552,-0.223694,215.7, -22.2, 0.7,0,0,1024,1024,1577,1024,0,0,84,0,219.5,0,0,57,3.879,3.874,0,0,0,0,4.218,97.52,12.9550036954,6.889764,6,P-GPS,
8600,2022-08-11 19:46:34,-34.9287655206791,-56.1628270020839,7.217848,7.4146984,5.8683892954,13.2830876954,6.889764,4.1607084,1.93444231912,3.7813977588,22,5,7.734,13.2830876954,7.217848,4.1607084,1.93444231912,-3.35541,-2.460634,-0.894776,215.9, -9.9, 0.8,0,0,1024,1024,1684,1024,0,0,100,0,219.5,0,0,57,3.879,3.874,0,0,0,0,4.218,97.52,13.2830876954,7.217848,6,P-GPS,
8700,2022-08-11 19:46:35,-34.9287669188351,-56.162828120034,7.217848,7.4475068,5.8355808954,13.2830876954,7.217848,4.3396636,2.52487868972,4.3913715316,22,5,7.734,13.2830876954,7.217848,4.3396636,2.52487868972,-3.579104,-2.460634,-1.565858,216.5, 15, 1.9,0,0,1024,1024,1684,1024,0,0,100,0,219.5,0,0,57,3.879,3.874,0,0,0,0,4.218,97.52,13.2830876954,7.217848,6,P-GPS,
8800,2022-08-11 19:46:35,-34.9287683977879,-56.1628292148128,7.545932,7.8083992,5.8027724954,13.6111716954,7.545932,3.5343652,3.14729996948,5.0225723392,22,5,7.734,13.6111716954,7.545932,4.3396636,3.14729996948,-2.908022,-2.013246,-2.23694,216.6, 17.2, 2.2,0,0,1175,1024,1684,1024,23,0,100,0,219.5,0,0,57,3.879,3.874,0,0,0,0,4.218,97.52,13.6111716954,7.545932,6,P-GPS,
8900,2022-08-11 19:46:35,-34.9287698530062,-56.1628301628981,8.2021,8.5629924,5.7043472954,14.2673396954,8.2021,2.4158952,3.7469817472,5.6244752456,22,5,7.734,14.2673396954,8.2021,4.3396636,3.7469817472,-2.013246,-1.342164,-3.131716,216.4, 13.7, 1.9,0,0,1684,1024,1684,1024,100,0,100,0,219.5,0,0,57,3.879,3.874,0,0,0,0,4.218,97.52,14.2673396954,8.2021,6,P-GPS,
9000,2022-08-11 19:46:35,-34.9287708498891,-56.1628308855324,8.858268,9.2519688,5.6715388954,14.9235076954,8.858268,1.9237684,4.1670933092,6.047572372,22,5,7.734,14.9235076954,8.858268,4.3396636,4.1670933092,-1.565858,-1.11847,-4.026492,215.9, 1.2, 1.5,0,0,1684,1024,1684,1024,100,0,100,0,219.5,0,0,57,3.879,3.874,0,0,0,0,4.218,97.52,14.9235076954,8.858268,6,P-GPS,
9100,2022-08-11 19:46:35,-34.9287717616614,-56.1628315197174,9.514436,9.9409452,5.6387304954,15.5796756954,9.514436,1.9237684,4.5484909592,6.4305448252,22,5,7.734,15.5796756954,9.514436,4.3396636,4.5484909592,-1.565858,-1.11847,-4.921268,215.6, -13.4, 1.5,0,0,1684,1024,1684,1024,100,0,100,0,219.5,0,0,56,3.879,3.874,0,0,0,0,4.218,97.52,15.5796756954,9.514436,6,P-GPS,
9200,2022-08-11 19:46:35,-34.9287729452927,-56.162832297755,10.170604,10.6299216,5.6059220954,16.2358436954,10.170604,2.7290668,5.0381891376,6.921096022,22,5,7.734,16.2358436954,10.170604,4.3396636,5.0381891376,-2.23694,-1.565858,-5.59235,215.6, -16.7, 1.2,0,0,1684,1024,1684,1024,100,0,100,0,219.5,0,0,56,3.879,3.874,0,0,0,0,4.218,97.52,16.2358436954,10.170604,6,P-GPS,
9300,2022-08-11 19:46:35,-34.928774763141,-56.1628333497493,11.154856,11.6797904,5.5403052954,17.2200956954,11.154856,3.35541,5.772309896,7.6552167804,22,5,7.734,17.2200956954,11.154856,4.3396636,5.772309896,-2.684328,-2.013246,-6.039738,216, -15.7, 2.3,0,0,1684,1024,1684,1024,100,0,100,0,219.5,0,0,56,3.879,3.874,0,0,0,0,4.218,97.52,17.2200956954,11.154856,6,P-GPS,
9400,2022-08-11 19:46:35,-34.9287760166537,-56.1628343262422,12.139108,12.6968508,5.5074968954,18.2043476954,11.811024,3.9817532,6.3107941652,8.1978677164,22,5,7.734,18.2043476954,12.139108,4.3396636,6.3107941652,-3.131716,-2.460634,-6.263432,215.9, -15.9, 1.7,0,0,1684,1024,1684,1024,100,0,100,0,219.5,0,0,56,3.879,3.874,0,0,0,0,4.218,97.52,18.2043476954,12.139108,6,P-GPS,
9500,2022-08-11 19:46:35,-34.9287773383054,-56.1628354252151,13.12336,13.7139112,5.4746884954,19.1885996954,12.795276,4.7870516,6.8884844724,8.7814635356,21,5,7.734,19.1885996954,13.12336,4.7870516,6.8884844724,-3.802798,-2.908022,-6.487126,216, -15.2, 0.5,0,0,1684,1024,1684,1024,100,0,100,0,219.5,0,0,56,3.879,3.874,0,0,0,0,4.218,97.52,19.1885996954,13.12336,6,P-GPS,
9600,2022-08-11 19:46:35,-34.9287787464616,-56.1628366637675,14.107612,14.76378,5.4090716954,20.1728516954,13.779528,5.59235,7.514271894,9.4148953144,21,5,7.734,20.1728516954,14.107612,5.59235,7.514271894,-4.47388,-3.35541,-6.487126,216.3, -15.3, 0.4,0,0,1684,1024,1684,1024,100,0,100,0,219.5,0,0,56,3.879,3.874,0,0,0,0,4.218,97.52,20.1728516954,14.107612,6,P-GPS,
9700,2022-08-11 19:46:36,-34.9287794708879,-56.162837402926,15.091864,15.748032,5.4090716954,21.1571036954,14.76378,6.2186932,7.8508532696,9.7594819396,22,5,7.654,21.1571036954,15.091864,6.2186932,7.8508532696,-4.921268,-3.802798,-6.487126,216.2, -15, 0.2,0,0,1684,1024,1684,1024,100,0,100,0,219.5,0,0,56,3.827,3.825,0,0,0,0,6.027,97.52,21.1571036954,15.091864,6,P-GPS,
9800,2022-08-11 19:46:36,-34.928781632465,-56.162839348698,16.076116,16.8635176,5.2778380954,22.1413556954,15.419948,7.0239916,8.821194508,10.7396328896,22,5,7.654,22.1413556954,16.076116,7.0239916,8.821194508,-5.59235,-4.250186,-6.487126,216.1, -14.9, 0.4,0,0,1684,1024,1684,1024,100,0,100,0,219.5,0,0,56,3.827,3.825,0,0,0,0,6.027,97.52,22.1413556954,16.076116,6,P-GPS,
9900,2022-08-11 19:46:36,-34.9287839212853,-56.1628413783078,17.060368,17.9133864,5.2122212954,23.1256076954,16.4042,7.5161184,9.8462601576,11.7720804292,22,5,7.654,23.1256076954,17.060368,7.5161184,9.8462601576,-6.039738,-4.47388,-6.487126,216, -14.9, 0.5,0,0,1684,1024,1684,1024,100,0,100,0,219.5,0,0,56,3.827,3.825,0,0,0,0,6.027,97.52,23.1256076954,17.060368,6,P-GPS,
10000,2022-08-11 19:46:36,-34.9287866815761,-56.1628437313108,18.04462,18.9960636,5.1137960954,24.1098596954,17.388452,8.1424616,11.070046286,13.0007550092,22,5,7.654,24.1098596954,18.04462,8.1424616,11.070046286,-6.487126,-4.921268,-6.487126,216.3, -14.7, -0.3,0,0,1684,1024,1684,1024,100,0,100,0,219.5,0,0,56,3.827,3.825,0,0,0,0,6.027,97.52,24.1098596954,18.04462,6,P-GPS,
10100,2022-08-11 19:46:36,-34.9287904742905,-56.1628469004077,19.028872,20.0787408,5.0153708954,25.0941116954,18.04462,8.6345884,12.7433074944,14.6780844592,22,5,7.654,25.0941116954,19.028872,8.6345884,12.7433074944,-6.934514,-5.144962,-6.487126,216.3, -13.9, 0.1,0,0,1684,1024,1684,1024,100,0,100,0,219.5,0,0,56,3.827,3.825,0,0,0,0,6.027,97.52,25.0941116954,19.028872,6,P-GPS,
10200,2022-08-11 19:46:36,-34.9287937418904,-56.162849702598,20.013124,21.2270348,4.8513288954,26.0783636954,19.028872,9.2609316,14.1967852312,16.1354335872,22,5,7.654,26.0783636954,20.013124,9.2609316,14.1967852312,-7.381902,-5.59235,-6.487126,216.4, -13.9, 0,0,0,1684,1024,1684,1024,100,0,100,0,219.5,0,0,56,3.827,3.825,0,0,0,0,6.027,97.52,26.0783636954,20.013124,6,P-GPS,
10300,2022-08-11 19:46:36,-34.9287970104283,-56.1628524549257,20.997376,22.309712,4.7529036954,27.0626156954,20.013124,9.7530584,15.6434716292,17.5845478068,21,5,7.654,27.0626156954,20.997376,9.7530584,15.6434716292,-7.82929,-5.816044,-6.487126,216.2, -13.5, 0.4,0,0,1552,1024,1127,1024,80,0,16,0,219.5,0,0,56,3.827,3.825,0,0,0,0,6.027,97.52,27.0626156954,20.997376,6,P-GPS,
10400,2022-08-11 19:46:36,-34.9288005965649,-56.1628553289725,22.309712,23.7532816,4.6216700954,28.3749516954,20.997376,10.3794016,17.2083010756,19.1501318464,21,5,7.654,28.3749516954,22.309712,10.3794016,17.2083010756,-8.276678,-6.263432,-6.487126,216.5, -13, 0.3,0,0,1024,1024,1024,1024,0,0,0,0,219.5,0,0,56,3.827,3.825,0,0,0,0,6.027,97.52,28.3749516954,22.309712,6,P-GPS,
10500,2022-08-11 19:46:36,-34.9288041522202,-56.1628581489096,23.293964,24.8359588,4.5232448954,29.3592036954,21.981628,10.3794016,18.7552827524,20.6975400324,21,5,7.654,29.3592036954,23.293964,10.3794016,18.7552827524,-8.500372,-6.487126,-6.263432,216.3, -10.2, 0,0,0,1024,1024,1024,1024,0,0,0,0,219.5,0,0,56,3.827,3.825,0,0,0,0,6.027,97.52,29.3592036954,23.293964,6,P-GPS,
10600,2022-08-11 19:46:36,-34.9288083964794,-56.162860689772,24.278216,25.9842528,4.3592028954,30.3434556954,22.96588,10.8715284,20.4727040672,22.4225072792,21,5,7.654,30.3434556954,24.278216,10.8715284,20.4727040672,-8.724066,-6.487126,-5.59235,216, 3.1, -0.8,0,0,1024,1024,1024,1024,0,0,0,0,219.5,0,0,56,3.827,3.825,0,0,0,0,6.027,97.52,30.3434556954,24.278216,6,P-GPS,
10700,2022-08-11 19:46:37,-34.9288120246852,-56.1628634182172,24.934384,26.7716544,4.2279692954,30.9996236954,23.622048,10.5583568,22.0277894188,23.9776254392,22,5,7.671,30.9996236954,24.934384,10.8715284,22.0277894188,-8.500372,-6.263432,-4.921268,216.2, 20.1, -0.1,0,0,1024,1024,1024,1024,0,0,0,0,219.5,0,0,56,3.839,3.833,0,0,0,0,5.811,97.52,30.9996236954,24.934384,6,P-GPS,
10800,2022-08-11 19:46:37,-34.9288157347887,-56.1628660870388,25.590552,27.559056,4.0967356954,31.6557916954,24.278216,9.9320136,23.5991805452,25.5491477992,22,5,7.671,31.6557916954,25.590552,10.8715284,23.5991805452,-8.052984,-5.816044,-4.026492,216.4, 20.2, 0.1,0,0,1024,1024,1024,1024,0,0,0,0,219.5,0,0,56,3.839,3.833,0,0,0,0,5.811,97.52,31.6557916954,25.590552,6,P-GPS,
10900,2022-08-11 19:46:37,-34.9288190911877,-56.1628684344197,25.918636,28.0183736,3.9655020954,31.9838756954,24.6063,9.3280398,25.0103682544,26.9607620176,22,5,7.671,31.9838756954,25.918636,10.8715284,25.0103682544,-8.052984,-4.697574,-3.131716,210.9, 20.1, 0.6,0,0,1024,1024,1024,1024,0,0,0,0,219.5,0,0,56,3.839,3.833,0,0,0,0,5.811,97.52,31.9838756954,25.918636,6,P-GPS,
11000,2022-08-11 19:46:37,-34.9288227974806,-56.1628702709132,26.24672,28.4776912,3.8342684954,32.3119596954,24.934384,8.7016966,26.4526911352,28.4203093084,22,5,7.671,32.3119596954,26.24672,10.8715284,26.4526911352,-7.605596,-4.250186,-2.460634,210.9, 19.8, 0.4,0,0,1024,1024,1024,367,0,0,0,-100,219.5,0,0,56,3.839,3.833,0,0,0,0,5.811,97.52,32.3119596954,26.24672,6,P-GPS,
11100,2022-08-11 19:46:37,-34.928825811978,-56.1628723113804,26.574804,28.9042004,3.7358432954,32.6400436954,25.262468,8.2095698,27.7100402568,29.678150556,22,5,7.671,32.6400436954,26.574804,10.8715284,27.7100402568,-7.158208,-4.026492,-1.565858,210.8, 19.6, 0.4,0,0,1024,1024,1057,364,0,0,5,-100,219,0,0,56,3.839,3.833,0,0,0,0,5.811,97.52,32.6400436954,26.574804,6,P-GPS,
11200,2022-08-11 19:46:37,-34.9288288428966,-56.1628742758475,26.902888,29.3307096,3.6374180954,32.9681276954,25.590552,7.4042714,28.9610573572,30.9304143756,22,5,7.671,32.9681276954,26.902888,10.8715284,28.9610573572,-6.487126,-3.579104,-0.671082,209.1, 19.4, -0.4,0,0,1024,1024,1024,586,0,0,0,-66,215.7,0,0,56,3.839,3.833,0,0,0,0,5.811,97.52,32.9681276954,26.902888,6,P-GPS,
11300,2022-08-11 19:46:37,-34.9288314357246,-56.1628759221053,26.902888,29.3963264,3.5718012954,32.9681276954,25.590552,6.9121446,30.0261492548,31.9969170344,22,5,7.671,32.9681276954,26.902888,10.8715284,30.0261492548,-6.039738,-3.35541,-0.223694,204.8, 19.1, -1.9,0,0,1024,1024,1024,1024,0,0,0,0,211.1,0,0,56,3.839,3.833,0,0,0,0,5.811,97.52,32.9681276954,26.902888,6,P-GPS,
11400,2022-08-11 19:46:37,-34.9288332904377,-56.1628765064107,26.902888,29.4947516,3.4733760954,32.9681276954,26.574804,6.1068462,30.6989183052,32.6958015712,22,5,7.671,32.9681276954,26.902888,10.8715284,30.6989183052,-5.368656,-2.908022,0,200.1, 18.1, -3.4,0,0,1024,1024,1024,1024,0,0,0,0,207.6,0,0,56,3.839,3.833,0,0,0,0,5.811,97.52,32.9681276954,26.902888,6,P-GPS,
11500,2022-08-11 19:46:37,-34.9288351092403,-56.1628776183551,26.902888,29.5603684,3.4077592954,32.9681276954,27.559056,5.4133948,31.4399288276,33.437993196,22,5,7.671,32.9681276954,26.902888,10.8715284,31.4399288276,-4.697574,-2.684328,0,197.6, 17.7, -4.1,0,0,1024,1024,1024,1024,0,0,0,0,206,0,0,56,3.839,3.833,0,0,0,0,5.811,97.52,32.9681276954,26.902888,6,P-GPS,
11600,2022-08-11 19:46:37,-34.9288367155635,-56.1628786347486,26.902888,29.6259852,3.3421424954,32.9681276954,28.215224,4.809421,32.0995417096,34.098426288,22,5,7.671,32.9681276954,26.902888,10.8715284,32.0995417096,-4.250186,-2.23694,0,196.3, 18.1, -3.7,0,0,1024,1024,1024,1024,0,0,0,0,205.6,0,0,56,3.839,3.833,0,0,0,0,5.811,97.52,32.9681276954,26.902888,6,P-GPS,
11700,2022-08-11 19:46:38,-34.9288380109516,-56.1628794402208,26.902888,29.6587936,3.3093340954,32.9681276954,28.871392,4.1159696,32.6293645612,34.628938116,22,5,7.731,32.9681276954,26.902888,10.8715284,32.6293645612,-3.579104,-2.013246,0,196.3, 18.3, -3,0,0,1024,1024,1024,1024,0,0,0,0,205.6,0,0,56,3.861,3.857,0,0,0,0,4.027,97.52,32.9681276954,26.902888,6,P-GPS,
11800,2022-08-11 19:46:38,-34.9288381139735,-56.1628796733233,27.230972,29.9868776,3.3093340954,33.2962116954,29.52756,3.3106712,32.696687398,34.70800636,22,5,7.731,33.2962116954,27.230972,10.8715284,32.696687398,-2.908022,-1.565858,0,196.3, 18.5, -3.9,0,0,1024,1024,1024,409,0,0,0,-93,205.5,0,0,56,3.861,3.857,0,0,0,0,4.027,97.52,33.2962116954,27.230972,6,P-GPS,
11900,2022-08-11 19:46:38,-34.9288388807361,-56.1628801943479,27.230972,30.019686,3.2765256954,33.2962116954,29.855644,2.796175,33.01673334,35.028216344,22,5,7.731,33.2962116954,27.230972,10.8715284,33.01673334,-2.460634,-1.342164,0,196, 18.6, -3.9,0,0,1024,1024,1024,364,0,0,0,-100,205,0,0,56,3.861,3.857,0,0,0,0,4.027,97.52,33.2962116954,27.230972,6,P-GPS,
12000,2022-08-11 19:46:38,-34.9288394988478,-56.1628806533691,27.230972,30.019686,3.2765256954,33.2962116954,30.183728,1.9908766,33.28084096,35.292323964,22,5,7.731,33.2962116954,27.230972,10.8715284,33.28084096,-1.789552,-0.894776,0,194.4, 18.1, -3.7,0,0,1024,1024,1024,364,0,0,0,-100,201.6,0,0,56,3.861,3.857,0,0,0,0,4.027,97.52,33.2962116954,27.230972,6,P-GPS,
12100,2022-08-11 19:46:38,-34.9288398723543,-56.1628809406798,27.230972,30.0524944,3.2437172954,33.2962116954,30.183728,1.4987498,33.441930204,35.453413208,22,5,7.731,33.2962116954,27.230972,10.8715284,33.441930204,-1.342164,-0.671082,0,190.6, 14.1, -3.4,0,0,1024,1024,1024,364,0,0,0,-100,197,0,0,56,3.861,3.857,0,0,0,0,4.027,97.52,33.2962116954,27.230972,6,P-GPS,
12200,2022-08-11 19:46:38,-34.928840046917,-56.1628810853997,27.230972,30.0524944,3.2437172954,33.2962116954,30.183728,1.006623,33.51870186,35.530512948,22,5,7.731,33.2962116954,27.230972,10.8715284,33.51870186,-0.894776,-0.447388,0,186.3, 10.6, -3.6,0,0,1024,1024,1024,364,0,0,0,-100,192.2,0,0,56,3.861,3.857,0,0,0,0,4.027,97.52,33.2962116954,27.230972,6,P-GPS,
12300,2022-08-11 19:46:38,-34.9288396588978,-56.1628810853031,27.559056,30.3805784,3.2437172954,33.6242956954,30.183728,0.7158208,33.395998444,35.671917152,22,5,7.731,33.6242956954,27.559056,10.8715284,33.51870186,-0.671082,-0.223694,0,181.7, 8.4, -3.5,0,0,1024,1024,1024,364,0,0,0,-100,187.4,0,0,56,3.861,3.857,0,0,0,0,4.027,97.52,33.6242956954,27.559056,6,P-GPS,
12400,2022-08-11 19:46:38,-34.9288397043444,-56.1628810842059,27.559056,30.3805784,3.2437172954,33.6242956954,30.183728,0.671082,33.410106056,35.688649436,22,5,7.731,33.6242956954,27.559056,10.8715284,33.51870186,-0.671082,0,0,176.9, 7, -3.3,0,0,1024,1024,1024,364,0,0,0,-100,182.6,0,0,56,3.861,3.857,0,0,0,0,4.027,97.52,33.6242956954,27.559056,6,P-GPS,
12500,2022-08-11 19:46:38,-34.9288397072626,-56.1628810557342,27.559056,30.3805784,3.2437172954,33.6242956954,30.183728,0.447388,33.406825216,35.69717962,22,5,7.731,33.6242956954,27.559056,10.8715284,33.51870186,-0.447388,0,0,172.2, 6, -2.9,0,0,1024,1024,1024,364,0,0,0,-100,177.7,0,0,56,3.861,3.857,0,0,0,0,4.027,97.52,33.6242956954,27.559056,6,P-GPS,
12600,2022-08-11 19:46:38,-34.9288397325556,-56.1628810379757,27.559056,30.3805784,3.2437172954,33.6242956954,30.511812,0.447388,33.41207456,35.707678308,22,5,7.731,33.6242956954,27.559056,10.8715284,33.51870186,-0.447388,0,0,167.5, 4.7, -2.7,0,0,1024,1024,1024,364,0,0,0,-100,172.9,0,0,56,3.861,3.857,0,0,0,0,4.027,97.52,33.6242956954,27.559056,6,P-GPS,
12700,2022-08-11 19:46:39,-34.9288397905217,-56.1628810138483,27.559056,30.3805784,3.2437172954,33.6242956954,31.16798,0.223694,33.42683834,35.72998802,22,5,7.731,33.6242956954,27.559056,10.8715284,33.51870186,-0.223694,0,0,162.6, 4.2, -2.6,0,0,1024,1024,1024,364,0,0,0,-100,168.1,0,0,56,3.861,3.857,0,0,0,0,4.027,97.52,33.6242956954,27.559056,6,P-GPS,
12800,2022-08-11 19:46:39,-34.9288398538161,-56.1628811146473,27.559056,30.3805784,3.2437172954,33.6242956954,31.496064,0.223694,33.461943328,35.768045764,22,5,7.689,33.6242956954,27.559056,10.8715284,33.51870186,-0.223694,0,0,157.9, 3.8, -2.7,0,0,1024,1024,1024,364,0,0,0,-100,163.3,0,0,56,3.851,3.849,0,0,0,0,4.663,97.52,33.6242956954,27.559056,6,P-GPS,
12900,2022-08-11 19:46:39,-34.9288399270895,-56.1628812119039,27.88714,30.7086624,3.2437172954,33.9523796954,31.496064,0.223694,33.499672988,35.807743928,22,5,7.689,33.9523796954,27.88714,10.8715284,33.51870186,-0.223694,0,0,153.1, 3.1, -2.9,0,0,1024,1024,1024,364,0,0,0,-100,158.5,0,0,56,3.851,3.849,0,0,0,0,4.663,97.52,33.9523796954,27.88714,6,P-GPS,
13000,2022-08-11 19:46:39,-34.9288400868659,-56.1628812838106,27.88714,30.7086624,3.2437172954,33.9523796954,31.496064,0.223694,33.561024696,35.869751804,22,5,7.689,33.9523796954,27.88714,10.8715284,33.561024696,-0.223694,0,0,148.2, 2.9, -3.2,0,0,1024,1024,1024,364,0,0,0,-100,153.7,0,0,56,3.851,3.849,0,0,0,0,4.663,97.52,33.9523796954,27.88714,6,P-GPS,
13100,2022-08-11 19:46:39,-34.9288408146957,-56.1628815714845,27.88714,30.7414708,3.2109088954,33.9523796954,31.824148,0.223694,33.833990584,36.148951288,22,5,7.689,33.9523796954,27.88714,10.8715284,33.833990584,-0.223694,0,0,143.3, 2.6, -3.7,0,0,1024,1024,1024,364,0,0,0,-100,148.9,0,0,56,3.851,3.849,0,0,0,0,4.663,97.52,33.9523796954,27.88714,6,P-GPS,
13200,2022-08-11 19:46:39,-34.9288410441891,-56.1628817119124,27.88714,30.7414708,3.2109088954,33.9523796954,31.824148,0.223694,33.927494524,36.242455228,22,5,7.689,33.9523796954,27.88714,10.8715284,33.927494524,-0.223694,0,0,138.4, 2.1, -3.8,0,0,1024,1024,1024,364,0,0,0,-100,144.1,0,0,56,3.851,3.849,0,0,0,0,4.663,97.52,33.9523796954,27.88714,6,P-GPS,
13300,2022-08-11 19:46:39,-34.9288412689469,-56.1628818364756,27.88714,30.7414708,3.2109088954,33.9523796954,31.824148,0.223694,34.017061456,36.332678328,22,5,7.689,33.9523796954,27.88714,10.8715284,34.017061456,-0.223694,0,0,133.6, 2.1, -4.1,0,0,1024,1024,1024,364,0,0,0,-100,139.3,0,0,56,3.851,3.849,0,0,0,0,4.663,97.52,33.9523796954,27.88714,6,P-GPS,
13400,2022-08-11 19:46:39,-34.9288415305141,-56.1628819400985,27.559056,30.4461952,3.1781004954,33.6242956954,31.824148,0.223694,34.115158572,36.433072032,22,5,7.689,33.9523796954,27.88714,10.8715284,34.115158572,-0.223694,0,0,128.8, 2.1, -4.1,0,0,1024,1024,1024,364,0,0,0,-100,134.5,0,0,56,3.851,3.849,0,0,0,0,4.663,97.52,33.6242956954,27.559056,6,P-GPS,
13500,2022-08-11 19:46:39,-34.9288426068765,-56.1628824251175,27.559056,30.4790036,3.1452920954,33.6242956954,31.824148,0,34.528216328,36.851707216,22,5,7.689,33.9523796954,27.88714,10.8715284,34.528216328,0,0,0,124, 1.5, -4.2,0,0,1024,1024,1024,364,0,0,0,-100,129.7,0,0,56,3.851,3.849,0,0,0,0,4.663,97.52,33.6242956954,27.559056,6,P-GPS,
13600,2022-08-11 19:46:39,-34.9288428041853,-56.1628825845108,27.559056,30.4790036,3.1452920954,33.6242956954,31.824148,0,34.61450242,36.937993308,22,5,7.689,33.9523796954,27.88714,10.8715284,34.61450242,0,0,0,119, 1.3, -3.6,0,0,1024,1024,1024,364,0,0,0,-100,124.9,0,0,56,3.851,3.849,0,0,0,0,4.663,97.52,33.6242956954,27.559056,6,P-GPS,
13700,2022-08-11 19:46:40,-34.9288429459381,-56.1628827212709,27.559056,30.4790036,3.1452920954,33.6242956954,31.824148,0,34.679463052,37.003938192,22,5,7.689,33.9523796954,27.88714,10.8715284,34.679463052,0,0,0,114.3, 1.2, -3.6,0,0,1024,1024,1024,364,0,0,0,-100,120.1,0,0,56,3.851,3.849,0,0,0,0,4.663,97.52,33.6242956954,27.559056,6,P-GPS,
13800,2022-08-11 19:46:40,-34.9288429472604,-56.1628828089038,27.559056,30.4790036,3.1452920954,33.6242956954,31.824148,0,34.692914496,37.030184912,22,5,7.693,33.9523796954,27.88714,10.8715284,34.692914496,0,0,0,109.5, 1.1, -3.8,0,0,1024,1024,1024,364,0,0,0,-100,115.3,0,0,56,3.849,3.844,0,0,0,0,4.481,97.7,33.6242956954,27.559056,6,P-GPS,
13900,2022-08-11 19:46:40,-34.9288429471106,-56.1628828952201,27.230972,30.1509196,3.1452920954,33.2962116954,32.152232,0,34.705709772,37.056103548,22,5,7.693,33.9523796954,27.88714,10.8715284,34.705709772,0,0,0,104.8, 0.7, -3.6,0,0,1024,1024,1024,364,0,0,0,-100,110.5,0,0,56,3.849,3.844,0,0,0,0,4.481,97.7,33.2962116954,27.230972,6,P-GPS,
14000,2022-08-11 19:46:40,-34.9288428681376,-56.1628828576758,27.230972,30.1509196,3.1452920954,33.2962116954,32.152232,0,34.67519796,37.086943444,22,5,7.693,33.9523796954,27.88714,10.8715284,34.705709772,0,0,0,100, 0.6, -3.2,0,0,1024,1024,1024,364,0,0,0,-100,105.7,0,0,56,3.849,3.844,0,0,0,0,4.481,97.7,33.2962116954,27.230972,6,P-GPS,
14100,2022-08-11 19:46:40,-34.9288429218958,-56.1628829442638,27.230972,30.1509196,3.1452920954,33.2962116954,32.152232,0,34.705053604,37.11942376,22,5,7.693,33.9523796954,27.88714,10.8715284,34.705709772,0,0,0,95.2, 0, -3.2,0,0,1024,1024,1024,364,0,0,0,-100,100.9,0,0,56,3.849,3.844,0,0,0,0,4.481,97.7,33.2962116954,27.230972,6,P-GPS,
14200,2022-08-11 19:46:40,-34.9288430302459,-56.1628830580355,27.230972,30.1509196,3.1452920954,33.2962116954,32.152232,0,34.756234708,37.171589116,22,5,7.693,33.9523796954,27.88714,10.8715284,34.756234708,0,0,0,90.3, -0.7, -3.2,0,0,1024,1024,1024,364,0,0,0,-100,96.1,0,0,56,3.849,3.844,0,0,0,0,4.481,97.7,33.2962116954,27.230972,6,P-GPS,
14300,2022-08-11 19:46:40,-34.9288431377493,-56.1628831824629,27.230972,30.1509196,3.1452920954,33.2962116954,32.152232,0.223694,34.809056232,37.225722976,22,5,7.693,33.9523796954,27.88714,10.8715284,34.809056232,0,-0.223694,0,85.5, -0.9, -3.4,0,0,1024,1024,1024,364,0,0,0,-100,91.3,0,0,56,3.849,3.844,0,0,0,0,4.481,97.7,33.2962116954,27.230972,6,P-GPS,
14400,2022-08-11 19:46:40,-34.9288434459486,-56.1628833206024,26.902888,29.8228356,3.1452920954,32.9681276954,32.152232,0.223694,34.926838388,37.345473636,22,5,7.693,33.9523796954,27.88714,10.8715284,34.926838388,0,-0.223694,0,80.8, -2.6, -3.1,0,0,1024,1024,1024,364,0,0,0,-100,86.5,0,0,56,3.849,3.844,0,0,0,0,4.481,97.7,32.9681276954,26.902888,6,P-GPS,
14500,2022-08-11 19:46:40,-34.9288435638414,-56.1628834791624,26.902888,29.8884524,3.0796752954,32.9681276954,31.824148,0.223694,34.987862012,37.409450016,22,5,7.693,33.9523796954,27.88714,10.8715284,34.987862012,0,-0.223694,0,76.2, -3.2, -2.8,0,0,1024,1024,1024,364,0,0,0,-100,81.7,0,0,56,3.849,3.844,0,0,0,0,4.481,97.7,32.9681276954,26.902888,6,P-GPS,
14600,2022-08-11 19:46:40,-34.9288436961557,-56.1628836567217,26.902888,29.8884524,3.0796752954,32.9681276954,31.824148,0.223694,35.056103484,37.481300412,22,5,7.693,33.9523796954,27.88714,10.8715284,35.056103484,0,-0.223694,0,71.3, -3.6, -2.4,0,0,1024,1024,1024,364,0,0,0,-100,76.9,0,0,56,3.849,3.844,0,0,0,0,4.481,97.7,32.9681276954,26.902888,6,P-GPS,
14700,2022-08-11 19:46:41,-34.9288438019916,-56.162883811904,26.902888,29.8884524,3.0796752954,32.9681276954,31.824148,0.223694,35.112862016,37.541667868,22,5,7.693,33.9523796954,27.88714,10.8715284,35.112862016,0,-0.223694,0,66.6, -4.1, -2.1,0,0,1024,1024,1024,364,0,0,0,-100,72.1,0,0,56,3.849,3.844,0,0,0,0,4.481,97.7,32.9681276954,26.902888,6,P-GPS,
14800,2022-08-11 19:46:41,-34.9288437999267,-56.1628840232772,26.574804,29.5603684,3.0796752954,32.6400436954,31.824148,0.223694,35.143701912,37.60498808,22,5,7.689,33.9523796954,27.88714,10.8715284,35.143701912,0,-0.223694,0,61.8, -4.4, -1.4,0,0,1024,1024,1024,364,0,0,0,-100,67.3,0,0,56,3.848,3.844,0,0,0,0,4.497,97.7,32.6400436954,26.574804,6,P-GPS,
14900,2022-08-11 19:46:41,-34.9288438247051,-56.1628841688984,26.574804,29.5603684,3.0796752954,32.6400436954,31.824148,0.223694,35.173557556,37.64927942,22,5,7.689,33.9523796954,27.88714,10.8715284,35.173557556,0,-0.223694,0,57, -4.4, -1.1,0,0,1024,1024,1024,364,0,0,0,-100,62.5,0,0,56,3.848,3.844,0,0,0,0,4.497,97.7,32.6400436954,26.574804,6,P-GPS,
15000,2022-08-11 19:46:41,-34.9288438365927,-56.1628843492529,26.574804,29.5603684,3.0796752954,32.6400436954,31.824148,0,35.204397452,37.70341328,22,5,7.689,33.9523796954,27.88714,10.8715284,35.204397452,0,0,0,52.2, -4.6, -0.7,0,0,1024,1024,1024,364,0,0,0,-100,57.7,0,0,56,3.848,3.844,0,0,0,0,4.497,97.7,32.6400436954,26.574804,6,P-GPS,
15100,2022-08-11 19:46:41,-34.928843836026,-56.1628844888004,26.574804,29.5603684,3.0796752954,32.6400436954,31.824148,0,35.225066744,37.745079948,22,5,7.689,33.9523796954,27.88714,10.8715284,35.225066744,0,0,0,47.4, -4.6, -0.7,0,0,1024,1024,1024,948,0,0,0,-12,52.9,0,0,56,3.848,3.844,0,0,0,0,4.497,97.7,32.6400436954,26.574804,6,P-GPS,
15200,2022-08-11 19:46:41,-34.9288434976224,-56.1628847275952,26.24672,29.1666676,3.1452920954,32.3119596954,31.824148,0,35.154856768,37.887796488,22,5,7.689,33.9523796954,27.88714,10.8715284,35.225066744,0,0,0,42.6, -4.6, -0.3,0,0,1024,1024,1024,1024,0,0,0,0,48.6,0,0,56,3.848,3.844,0,0,0,0,4.497,97.7,32.3119596954,26.24672,6,P-GPS,
15300,2022-08-11 19:46:41,-34.9288434530812,-56.1628847898572,26.24672,29.1666676,3.1452920954,32.3119596954,31.824148,0,35.150263592,37.912402788,22,5,7.689,33.9523796954,27.88714,10.8715284,35.225066744,0,0,0,39.3, -4.8, -0.2,0,0,1024,1024,1024,1024,0,0,0,0,46.5,0,0,56,3.848,3.844,0,0,0,0,4.497,97.7,32.3119596954,26.24672,6,P-GPS,
15400,2022-08-11 19:46:41,-34.9288434014074,-56.1628848071795,26.24672,29.1666676,3.1452920954,32.3119596954,31.824148,0,35.136484064,37.932087828,22,5,7.689,33.9523796954,27.88714,10.8715284,35.225066744,0,0,0,37.7, -4.6, -0.1,0,0,1024,1024,1024,1024,0,0,0,0,45.8,-0.1,0,56,3.848,3.844,0,0,0,0,4.497,97.7,32.3119596954,26.24672,6,P-GPS,
15500,2022-08-11 19:46:41,-34.9288433492711,-56.1628847955495,26.24672,29.1666676,3.1452920954,32.3119596954,31.824148,0,35.118439444,37.951444784,22,5,7.689,33.9523796954,27.88714,10.8715284,35.225066744,0,0,0,37.3, -4.7, 0.2,0,0,1024,1024,1024,1024,0,0,0,0,45.8,-1.3,0,56,3.848,3.844,0,0,0,0,4.497,97.7,32.3119596954,26.24672,6,P-GPS,
15600,2022-08-11 19:46:41,-34.9288433054334,-56.1628847336009,26.24672,29.1666676,3.1452920954,32.3119596954,31.824148,0,35.09514548,37.976051084,22,5,7.689,33.9523796954,27.88714,10.8715284,35.225066744,0,0,0,37.2, -4.6, 0,0,0,1024,1024,1024,1024,0,0,0,0,45.8,-3.7,0,56,3.848,3.844,0,0,0,0,4.497,97.7,32.3119596954,26.24672,6,P-GPS,
15700,2022-08-11 19:46:42,-34.9288430594928,-56.1628845756287,26.24672,29.1666676,3.1452920954,32.3119596954,31.824148,0,34.994095608,38.07742904,22,5,7.689,33.9523796954,27.88714,10.8715284,35.225066744,0,0,0,37.1, -4.8, -0.4,0,0,1024,1024,1024,1024,0,0,0,0,45.8,-6.4,0,56,3.848,3.844,0,0,0,0,4.497,97.7,32.3119596954,26.24672,6,P-GPS,
15800,2022-08-11 19:46:42,-34.9288430197392,-56.1628844502165,26.24672,29.1666676,3.1452920954,32.3119596954,31.824148,0,34.96227146,38.117455288,22,5,7.691,33.9523796954,27.88714,10.8715284,35.225066744,0,0,0,37, -4.4, -1,0,0,1024,1024,1024,1024,0,0,0,0,45.8,-9.1,0,56,3.845,3.841,0,0,0,0,4.412,97.7,32.3119596954,26.24672,6,P-GPS,
15900,2022-08-11 19:46:42,-34.928842987737,-56.1628843224114,26.24672,29.1666676,3.1452920954,32.3119596954,31.824148,0,34.933071984,38.157481536,22,5,7.691,33.9523796954,27.88714,10.8715284,35.225066744,0,0,0,37, -4.2, -1,0,0,1024,1024,1024,1024,0,0,0,0,45.8,-11.9,0,56,3.845,3.841,0,0,0,0,4.412,97.7,32.3119596954,26.24672,6,P-GPS,
16000,2022-08-11 19:46:42,-34.9288429948761,-56.1628842107869,26.24672,29.1666676,3.1452920954,32.3119596954,31.824148,0,34.918308204,38.190946104,22,5,7.691,33.9523796954,27.88714,10.8715284,35.225066744,0,0,0,37, -4.1, -1.4,0,0,1024,1024,1024,1024,0,0,0,0,45.8,-14.6,0,56,3.845,3.841,0,0,0,0,4.412,97.7,32.3119596954,26.24672,6,P-GPS,
16100,2022-08-11 19:46:42,-34.9288429990319,-56.1628840948287,26.24672,29.1666676,3.1452920954,32.3119596954,31.824148,0,34.902232088,38.225723008,22,5,7.691,33.9523796954,27.88714,10.8715284,35.225066744,0,0,0,37.1, -4, -1.5,0,0,1024,1024,1024,1024,0,0,0,0,45.8,-17.4,0,56,3.845,3.841,0,0,0,0,4.412,97.7,32.3119596954,26.24672,6,P-GPS,
16200,2022-08-11 19:46:42,-34.9288430580662,-56.1628839967805,26.24672,29.1666676,3.1452920954,32.3119596954,31.824148,0,34.905841012,38.262140332,22,5,7.691,33.9523796954,27.88714,10.8715284,35.225066744,0,0,0,37.1, -3.9, -1.9,0,0,1024,1024,1024,1024,0,0,0,0,45.8,-20.1,0,56,3.845,3.841,0,0,0,0,4.412,97.7,32.3119596954,26.24672,6,P-GPS,
16300,2022-08-11 19:46:42,-34.9288431139023,-56.1628838968854,26.24672,29.1666676,3.1452920954,32.3119596954,31.824148,0,34.908465684,38.298229572,22,5,7.691,33.9523796954,27.88714,10.8715284,35.225066744,0,0,0,37.1, -3.7, -1.9,0,0,1024,1024,1024,1024,0,0,0,0,45.8,-22.8,0,56,3.845,3.841,0,0,0,0,4.412,97.7,32.3119596954,26.24672,6,P-GPS,
16400,2022-08-11 19:46:42,-34.9288431800693,-56.1628837694773,26.24672,29.1666676,3.1452920954,32.3119596954,31.824148,0,34.910106104,38.343505164,22,5,7.691,33.9523796954,27.88714,10.8715284,35.225066744,0,0,0,37.1, -3.6, -2,0,0,1024,1024,1024,1024,0,0,0,0,45.8,-25.1,0,56,3.845,3.841,0,0,0,0,4.412,97.7,32.3119596954,26.24672,6,P-GPS,
16500,2022-08-11 19:46:42,-34.928843439298,-56.1628837264628,26.24672,29.1666676,3.1452920954,32.3119596954,31.824148,0,34.985565424,38.438977608,22,5,7.691,33.9523796954,27.88714,10.8715284,35.225066744,0,0,0,37.1, -3.8, -1.9,0,0,1024,1024,1024,838,0,0,0,-28,45.8,-26.3,0,56,3.845,3.841,0,0,0,0,4.412,97.7,32.3119596954,26.24672,6,P-GPS,
16600,2022-08-11 19:46:42,-34.9288434965736,-56.1628836317689,26.24672,29.1666676,3.1452920954,32.3119596954,32.152232,0,34.989502432,38.474082596,22,5,7.691,33.9523796954,27.88714,10.8715284,35.225066744,0,0,0,37, -3.8, -1.8,0,0,1024,1024,1024,364,0,0,0,-100,45.8,-26.5,0,56,3.845,3.841,0,0,0,0,4.412,97.7,32.3119596954,26.24672,6,P-GPS,
16700,2022-08-11 19:46:43,-34.92884353763,-56.1628835442875,25.918636,28.9042004,3.0796752954,31.9838756954,32.152232,0,34.989174348,38.504266324,22,5,7.691,33.9523796954,27.88714,10.8715284,35.225066744,0,0,0,37, -3.7, -1.5,0,0,1024,1024,1024,364,0,0,0,-100,45.3,-26.5,0,56,3.845,3.841,0,0,0,0,4.412,97.7,31.9838756954,25.918636,6,P-GPS,
16800,2022-08-11 19:46:43,-34.9288435354218,-56.1628834323888,25.918636,28.9042004,3.0796752954,31.9838756954,32.152232,0,34.971785896,38.537730892,22,5,7.682,33.9523796954,27.88714,10.8715284,35.225066744,0,0,0,35.7, -3.9, -1.7,0,0,1024,1024,1024,906,0,0,0,-18,42.3,-26.5,0,56,3.842,3.84,0,0,0,0,4.542,97.7,31.9838756954,25.918636,6,P-GPS,
16900,2022-08-11 19:46:43,-34.9288435506966,-56.1628833988388,25.918636,28.9042004,3.0796752954,31.9838756954,32.152232,0,34.971785896,38.549213832,22,5,7.682,33.9523796954,27.88714,10.8715284,35.225066744,0,0,0,32, -3.7, -1.3,0,0,1024,1024,1024,1024,0,0,0,0,38.8,-26.5,0,56,3.842,3.84,0,0,0,0,4.542,97.7,31.9838756954,25.918636,6,P-GPS,
17000,2022-08-11 19:46:43,-34.928843583728,-56.1628833661769,25.918636,28.9042004,3.0796752954,31.9838756954,32.152232,0,34.977363324,38.56463378,22,5,7.682,33.9523796954,27.88714,10.8715284,35.225066744,0,0,0,29.5, -3.5, -1.8,0,0,1024,1024,1024,1024,0,0,0,0,37.1,-26.5,0,56,3.842,3.84,0,0,0,0,4.542,97.7,31.9838756954,25.918636,6,P-GPS,
