time(millisecond),datetime(utc),latitude,longitude,height_above_takeoff(feet),height_above_ground_at_drone_location(feet),ground_elevation_at_drone_location(feet),altitude_above_seaLevel(feet),height_sonar(feet),speed(mph),distance(feet),mileage(feet),satellites,gpslevel,voltage(v),max_altitude(feet),max_ascent(feet),max_speed(mph),max_distance(feet), xSpeed(mph), ySpeed(mph), zSpeed(mph), compass_heading(degrees), pitch(degrees), roll(degrees),isPhoto,isVideo,rc_elevator,rc_aileron,rc_throttle,rc_rudder,rc_elevator(percent),rc_aileron(percent),rc_throttle(percent),rc_rudder(percent),gimbal_heading(degrees),gimbal_pitch(degrees),gimbal_roll(degrees),battery_percent,voltageCell1,voltageCell2,voltageCell3,voltageCell4,voltageCell5,voltageCell6,current(A),battery_temperature(f),altitude(feet),ascent(feet),flycStateRaw,flycState,message
0,2022-09-03 17:59:38,-34.8683564369511,-55.2614396031495,0,0,174.93761681848,174.93761681848,0.328084,0,0,0,11,4,0,174.93761681848,0,0,0,0,0,0,75.4, -0.9, -0.4,0,0,364,364,364,1684,-100,-100,-100,100,87.4,0,0,95,4.276,4.271,0,0,0,0,0,71.42,174.93761681848,0,6,P-GPS,"En vuelo"
100,2022-09-03 17:59:38,-34.8683564370431,-55.2614394586542,0,-0.032808399999993,174.97042521848,174.93761681848,0.328084,0,0.043254266476,0.043254266476,11,4,0,174.93761681848,0,0,0.043254266476,0,0,0,74.8, -0.9, -0.4,0,0,364,364,364,1684,-100,-100,-100,100,87.1,0,0,95,4.276,4.271,0,0,0,0,0,71.42,174.93761681848,0,41,Motors_Started,
200,2022-09-03 17:59:38,-34.868356469615,-55.2614391723419,0,-0.032808399999993,174.97042521848,174.93761681848,0.328084,0,0.129510502832,0.129781172132,11,4,0,174.93761681848,0,0,0.129510502832,0,0,0.223694,74.1, -1, -1.4,0,0,364,364,364,1684,-100,-100,-100,100,86.1,0,0,95,4.276,4.271,0,0,0,0,0,71.42,174.93761681848,0,41,Motors_Started,"Setting new Return-To-Home altitude to 60m (197 ft). Data Recorder File Index is 48. Setting new Maximum Flight Altitude to 120m (394 ft)"
300,2022-09-03 17:59:38,-34.8683563960185,-55.2614389663355,0,-0.032808399999993,174.97042521848,174.93761681848,0.328084,0,0.191212604544,0.19704068872,11,4,0,174.93761681848,0,0,0.191212604544,0,0,0.447388,73.9, -1.3, -1,0,0,364,364,364,1684,-100,-100,-100,100,85.7,0,0,95,4.276,4.271,0,0,0,0,0,71.42,174.93761681848,0,41,Motors_Started,
400,2022-09-03 17:59:38,-34.8683563001931,-55.2614387151224,-0.328084,-0.36089239999999,174.97042521848,174.60953281848,0.328084,0,0.270470481096,0.279970809484,13,4,0,174.93761681848,0,0,0.270470481096,0,0,0.223694,74.4, -1.9, -2,0,0,364,364,364,1684,-100,-100,-100,100,85.3,0,0,95,4.276,4.271,0,0,0,0,0,71.42,174.60953281848,-0.328084,41,Motors_Started,
500,2022-09-03 17:59:38,-34.8683561663607,-55.2614383330455,-0.328084,-0.36089239999999,174.97042521848,174.60953281848,0.328084,0,0.39281169236,0.4043307216,13,4,0,174.93761681848,0,0,0.39281169236,0,0,0.447388,75, -1.4, -4.2,0,0,364,364,364,1684,-100,-100,-100,100,86.2,0,0,95,4.276,4.271,0,0,0,0,0,71.42,174.60953281848,-0.328084,41,Motors_Started,
600,2022-09-03 17:59:38,-34.8683557944607,-55.2614377272376,-0.328084,-0.36089239999999,174.97042521848,174.60953281848,0.328084,0,0.60851051816,0.63082023016,13,4,0,174.93761681848,0,0,0.60851051816,0,0,0.671082,73, -0.9, -3.7,0,0,364,364,364,1684,-100,-100,-100,100,85.6,0,0,95,4.276,4.271,0,0,0,0,0,71.42,174.60953281848,-0.328084,41,Motors_Started,
700,2022-09-03 17:59:38,-34.86835560286,-55.26143713243,-0.656168,-0.68897639999999,174.97042521848,174.28144881848,0,0,0.79976380512,0.82210632552,13,4,0,174.93761681848,0,0,0.79976380512,0,0,1.11847,70.8, -1.3, -4,0,0,364,364,364,1684,-100,-100,-100,100,83.4,0,0,95,4.276,4.271,0,0,0,0,0,71.42,174.28144881848,-0.656168,41,Motors_Started,
800,2022-09-03 17:59:39,-34.8683553824118,-55.2614364888916,-0.656168,-0.72178480000001,175.00323361848,174.28144881848,0,0,1.00852037348,1.03086289388,14,4,0,174.93761681848,0,0,1.00852037348,0,0,1.11847,68.2, -2.2, -2.4,0,0,364,364,364,1684,-100,-100,-100,100,80.8,0,0,95,4.276,4.271,0,0,0,0,0,71.42,174.28144881848,-0.656168,41,Motors_Started,
900,2022-09-03 17:59:39,-34.8683552778303,-55.2614357388651,-0.984252,-1.0498688,175.00323361848,173.95336481848,0,0.223694,1.2316437402,1.25860240248,14,4,8.556,174.93761681848,0,0.223694,1.2316437402,0,0.223694,0.671082,67.8, -3.5, -0.9,0,0,364,364,364,1684,-100,-100,-100,100,79.4,0,0,95,4.276,4.271,0,0,0,0,0.751,71.42,173.95336481848,-0.984252,41,Motors_Started,
1000,2022-09-03 17:59:39,-34.8683548498598,-55.2614337024511,-0.984252,-1.0826772,175.03604201848,173.95336481848,0,0.223694,1.85884848468,1.887877357,13,4,8.556,174.93761681848,0,0.223694,1.85884848468,0,0.223694,0.447388,68.5, -5.8, 0.8,0,0,364,364,364,1684,-100,-100,-100,100,79.5,0,0,95,4.276,4.271,0,0,0,0,0.751,71.42,173.95336481848,-0.984252,41,Motors_Started,
1100,2022-09-03 17:59:39,-34.8683546631314,-55.2614331360131,-0.984252,-1.1154856,175.06885041848,173.95336481848,0,0.223694,2.04123038028,2.07061358332,13,4,8.556,174.93761681848,0,0.223694,2.04123038028,0,0.223694,0.223694,69.2, -6.7, 0.4,0,0,364,364,364,1684,-100,-100,-100,100,79.9,0,0,95,4.276,4.271,0,0,0,0,0.751,71.42,173.95336481848,-0.984252,41,Motors_Started,
1200,2022-09-03 17:59:39,-34.8683544403688,-55.2614326634236,-1.312336,-1.4435696,175.06885041848,173.62528081848,0,0,2.20140426992,2.23376647568,13,4,8.556,174.93761681848,0,0.223694,2.20140426992,0,0,0,69.5, -5.4, -0.4,0,0,364,364,364,1684,-100,-100,-100,100,80.4,0,0,95,4.276,4.271,0,0,0,0,0.751,71.42,173.62528081848,-1.312336,6,P-GPS,"Punto de origen actualizado. Altitud de RPO establecida en 60m (Code: 3000001)"
1300,2022-09-03 17:59:39,-34.8683542387727,-55.2614326028262,-0.984252,-1.1154856,175.06885041848,173.95336481848,0.328084,0,2.24375663348,2.30952107128,13,4,8.556,174.93761681848,0,0.223694,2.24375663348,0,0,-0.223694,69.7, -2.1, -2.7,0,0,1024,1024,1024,1024,0,0,0,0,83.2,0,0,95,4.276,4.271,0,0,0,0,0.751,71.42,173.95336481848,-0.984252,6,P-GPS,
1400,2022-09-03 17:59:39,-34.8683538095418,-55.2614333606681,-0.984252,-1.1154856,175.06885041848,173.95336481848,0.328084,0,2.10020347928,2.58518380976,13,4,8.556,174.93761681848,0,0.223694,2.24375663348,0,0,-0.447388,69.3, -0.1, -4.7,0,0,1024,1024,1024,1024,0,0,0,0,87.7,0,0,95,4.276,4.271,0,0,0,0,0.751,71.42,173.95336481848,-0.984252,6,P-GPS,
1500,2022-09-03 17:59:39,-34.8683537649525,-55.2614334104743,-0.984252,-1.1154856,175.06885041848,173.95336481848,0.328084,0,2.0944718518,2.6072507396,13,4,8.556,174.93761681848,0,0.223694,2.24375663348,0,0,-0.223694,66.1, -0.1, -3,0,0,1024,1024,1024,1024,0,0,0,0,90.6,0,0,95,4.276,4.271,0,0,0,0,0.751,71.42,173.95336481848,-0.984252,6,P-GPS,
1600,2022-09-03 17:59:39,-34.8683537799126,-55.2614333817443,-0.984252,-1.1154856,175.06885041848,173.95336481848,0.328084,0,2.09956043464,2.6174377478,13,4,8.556,174.93761681848,0,0.223694,2.24375663348,0,0,-0.223694,68.1, 0.2, -3.2,0,0,1024,1024,1024,1024,0,0,0,0,91.9,0,0,95,4.276,4.271,0,0,0,0,0.751,71.42,173.95336481848,-0.984252,6,P-GPS,
1700,2022-09-03 17:59:39,-34.8683538273826,-55.2614334632406,-0.984252,-1.1154856,175.06885041848,173.95336481848,0.328084,0,2.06992788776,2.64735572776,13,4,8.556,174.93761681848,0,0.223694,2.24375663348,0,0,-0.223694,67.4, -1.2, -2.5,0,0,1024,1024,1024,1024,0,0,0,0,92.1,0,0,95,4.276,4.271,0,0,0,0,0.751,71.42,173.95336481848,-0.984252,6,P-GPS,
1800,2022-09-03 17:59:40,-34.8683538563355,-55.2614335784056,-0.984252,-1.1154856,175.06885041848,173.95336481848,0.328084,0,2.03446856904,2.68341215936,13,4,8.556,174.93761681848,0,0.223694,2.24375663348,0,0,-0.223694,67.6, -1.7, -3,0,0,1024,1024,1024,716,0,0,0,-47,92.1,0,0,95,4.276,4.271,0,0,0,0,0.751,71.42,173.95336481848,-0.984252,6,P-GPS,
1900,2022-09-03 17:59:40,-34.8683545003045,-55.2614347461094,-0.984252,-1.0826772,175.03604201848,173.95336481848,0.328084,0,1.61654204648,3.10458343268,13,4,8.547,174.93761681848,0,0.223694,2.24375663348,0,0,-0.223694,66.9, -2.2, -3.6,0,0,1024,1024,1024,1016,0,0,0,-1,92,0,0,95,4.219,4.216,0,0,0,0,1.811,71.42,173.95336481848,-0.984252,6,P-GPS,
2000,2022-09-03 17:59:40,-34.8683545911513,-55.2614349327415,-0.984252,-1.0826772,175.03604201848,173.95336481848,0.328084,0,1.55181435412,3.16954406468,13,4,8.547,174.93761681848,0,0.223694,2.24375663348,0,0,-0.223694,66.3, -2.2, -3.5,0,0,1024,1024,1024,1024,0,0,0,0,90.3,0,0,95,4.219,4.216,0,0,0,0,1.811,71.42,173.95336481848,-0.984252,6,P-GPS,
2100,2022-09-03 17:59:40,-34.8683547849357,-55.2614348457008,-0.656168,-0.7545932,175.03604201848,174.28144881848,0.328084,0,1.54642721484,3.24489511696,13,4,8.547,174.93761681848,0,0.223694,2.24375663348,0,0,-0.223694,67, -2.1, -4.3,0,0,1024,1024,1024,1024,0,0,0,0,87.7,0,0,95,4.219,4.216,0,0,0,0,1.811,71.42,174.28144881848,-0.656168,6,P-GPS,
2200,2022-09-03 17:59:40,-34.8683549786115,-55.2614347286668,-0.656168,-0.7545932,175.03604201848,174.28144881848,0.328084,0,1.55314637516,3.3237533872,13,4,8.547,174.93761681848,0,0.223694,2.24375663348,0,0,-0.223694,67.1, -1.9, -4.7,0,0,1024,1024,827,1024,0,0,-30,0,86.4,0,0,95,4.219,4.216,0,0,0,0,1.811,71.42,174.28144881848,-0.656168,6,P-GPS,
2300,2022-09-03 17:59:40,-34.8683553961356,-55.2614342473378,-0.656168,-0.7545932,175.03604201848,174.28144881848,0.328084,0,1.6476050396,3.5334318716,13,4,8.547,174.93761681848,0,0.223694,2.24375663348,0,0,0,66.3, -2, -3.8,0,0,1024,1024,364,1071,0,0,-100,7,86.2,0,0,95,4.219,4.216,0,0,0,0,1.811,71.42,174.28144881848,-0.656168,6,P-GPS,
2400,2022-09-03 17:59:40,-34.8683555119623,-55.2614341300062,-0.656168,-0.72178480000001,175.00323361848,174.28144881848,0.328084,0,1.67276580156,3.5883859416,13,4,8.547,174.93761681848,0,0.223694,2.24375663348,0,0,0,66.8, -2.3, -4.2,0,0,1024,1024,364,1071,0,0,-100,7,86.2,0,0,95,4.219,4.216,0,0,0,0,1.811,71.42,174.28144881848,-0.656168,6,P-GPS,
2500,2022-09-03 17:59:40,-34.8683556712604,-55.2614339890349,-0.656168,-0.72178480000001,175.00323361848,174.28144881848,0.328084,0,1.70362866344,3.6602035292,13,4,8.547,174.93761681848,0,0.223694,2.24375663348,0,0,0,66.7, -2.2, -4,0,0,1024,1024,364,1024,0,0,-100,0,86.2,0,0,95,4.219,4.216,0,0,0,0,1.811,71.42,174.28144881848,-0.656168,6,P-GPS,
2600,2022-09-03 17:59:40,-34.868355873945,-55.2614338448633,-0.656168,-0.72178480000001,175.00323361848,174.28144881848,0.328084,0,1.73592197156,3.7458334532,13,4,8.547,174.93761681848,0,0.223694,2.24375663348,0,0,0,66.5, -1.7, -3.1,0,0,1024,1024,364,1024,0,0,-100,0,86.2,0,0,95,4.219,4.216,0,0,0,0,1.811,71.42,174.28144881848,-0.656168,6,P-GPS,
2700,2022-09-03 17:59:40,-34.8683561108926,-55.2614338719382,-0.656168,-0.72178480000001,175.00323361848,174.28144881848,0.328084,0,1.71974086868,3.832677288,13,4,8.547,174.93761681848,0,0.223694,2.24375663348,0,0,0,65.8, -1.7, -2.4,0,0,1024,1024,364,1024,0,0,-100,0,86.2,0,0,95,4.219,4.216,0,0,0,0,1.811,71.42,174.28144881848,-0.656168,6,P-GPS,
2800,2022-09-03 17:59:41,-34.8683562386245,-55.2614338845151,-0.656168,-0.72178480000001,175.00323361848,174.28144881848,0.328084,0,1.7133858816,3.879429258,13,4,8.547,174.93761681848,0,0.223694,2.24375663348,0,0,0,66.1, -1.2, -2,0,0,1024,1024,364,1024,0,0,-100,0,86.2,0,0,95,4.219,4.216,0,0,0,0,1.811,71.42,174.28144881848,-0.656168,6,P-GPS,
2900,2022-09-03 17:59:41,-34.8683563818502,-55.2614338741362,-0.656168,-0.72178480000001,175.00323361848,174.28144881848,0.328084,0,1.71508207588,3.931758656,13,4,8.157,174.93761681848,0,0.223694,2.24375663348,0,0,0,66.9, -0.8, -2.6,0,0,1024,1024,364,1024,0,0,-100,0,86.2,0,0,95,4.026,3.998,0,0,0,0,6.691,71.42,174.28144881848,-0.656168,6,P-GPS,
3000,2022-09-03 17:59:41,-34.8683565179757,-55.2614338630681,-0.656168,-0.72178480000001,175.00323361848,174.28144881848,0.328084,0,1.71853023872,3.9815618072,13,4,8.157,174.93761681848,0,0.223694,2.24375663348,0,0,0,66.7, -0.9, -2.4,0,0,1024,1024,364,1024,0,0,-100,0,86.2,0,0,95,4.026,3.998,0,0,0,0,6.691,71.42,174.28144881848,-0.656168,6,P-GPS,
3100,2022-09-03 17:59:41,-34.8683566379542,-55.2614339987769,-0.656168,-0.72178480000001,175.00323361848,174.28144881848,0.328084,0,1.67925530308,4.0412730952,13,4,8.157,174.93761681848,0,0.223694,2.24375663348,0,0,0,66.7, -1, -2.3,0,0,1024,1024,364,1024,0,0,-100,0,86.2,0,0,95,4.026,3.998,0,0,0,0,6.691,71.42,174.28144881848,-0.656168,6,P-GPS,
3200,2022-09-03 17:59:41,-34.8683567402013,-55.2614340335472,-0.656168,-0.72178480000001,175.00323361848,174.28144881848,0.328084,0,1.67091212696,4.0799870072,13,4,8.157,174.93761681848,0,0.223694,2.24375663348,0,0,0,66.5, -1.3, -2.1,0,0,1024,1024,364,1024,0,0,-100,0,86.2,0,0,95,4.026,3.998,0,0,0,0,6.691,71.42,174.28144881848,-0.656168,6,P-GPS,
3300,2022-09-03 17:59:41,-34.8683568409422,-55.2614340747965,-0.656168,-0.72178480000001,175.00323361848,174.28144881848,0.328084,0,1.66144690356,4.118766536,13,4,8.157,174.93761681848,0,0.223694,2.24375663348,0,0,0,66.9, -1.1, -1.7,0,0,1024,1024,364,1024,0,0,-100,0,86.2,0,0,95,4.026,3.998,0,0,0,0,6.691,71.42,174.28144881848,-0.656168,6,P-GPS,
3400,2022-09-03 17:59:41,-34.8683569512813,-55.2614341240597,-0.656168,-0.72178480000001,175.00323361848,174.28144881848,0.328084,0,1.65084979036,4.1616471148,13,4,8.157,174.93761681848,0,0.223694,2.24375663348,0,0,0,66.8, -1.3, -1.5,0,0,1024,1024,364,1024,0,0,-100,0,86.2,0,0,95,4.026,3.998,0,0,0,0,6.691,71.42,174.28144881848,-0.656168,6,P-GPS,
3500,2022-09-03 17:59:41,-34.8683569497725,-55.2614341319431,-0.656168,-0.72178480000001,175.00323361848,174.28144881848,0.328084,0,1.6484416538,4.1640749364,13,4,8.157,174.93761681848,0,0.223694,2.24375663348,0,0,0,67, -1.4, -1.6,0,0,1024,1024,364,1024,0,0,-100,0,86.2,0,0,95,4.026,3.998,0,0,0,0,6.691,71.42,174.28144881848,-0.656168,33,Confirm_Landing,
3600,2022-09-03 17:59:41,-34.868356738283,-55.2614340756266,-0.656168,-0.72178480000001,175.00323361848,174.28144881848,0.328084,0,1.65829729716,4.2430447552,13,4,8.157,174.93761681848,0,0.223694,2.24375663348,0,0,0,67.1, -1.5, -1.7,0,0,1024,1024,364,1024,0,0,-100,0,86.2,0,0,95,4.026,3.998,0,0,0,0,6.691,71.42,174.28144881848,-0.656168,33,Confirm_Landing,
3700,2022-09-03 17:59:41,-34.8683567800282,-55.2614340897906,-0.656168,-0.72178480000001,175.00323361848,174.28144881848,0.328084,0,1.65514769076,4.258858404,13,4,8.157,174.93761681848,0,0.223694,2.24375663348,0,0,0,67.2, -1.5, -2,0,0,1024,1024,364,1024,0,0,-100,0,86.2,0,0,95,4.026,3.998,0,0,0,0,6.691,71.42,174.28144881848,-0.656168,33,Confirm_Landing,
3800,2022-09-03 17:59:41,-34.8683568435929,-55.2614341242424,-0.656168,-0.72178480000001,175.00323361848,174.28144881848,0.328084,0,1.64679139128,4.2842521056,13,4,8.157,174.93761681848,0,0.223694,2.24375663348,0,0,0,66.7, -1.5, -1.8,0,0,1024,1024,364,1024,0,0,-100,0,86.2,0,0,95,4.026,3.998,0,0,0,0,6.691,71.42,174.28144881848,-0.656168,33,Confirm_Landing,
3900,2022-09-03 17:59:42,-34.8683568682282,-55.2614341525651,-0.328084,-0.39370080000001,175.00323361848,174.60953281848,0.328084,0,1.63918640416,4.296588064,13,4,7.932,174.93761681848,0,0.223694,2.24375663348,0,0,0,66.8, -1.2, -1.9,0,0,1024,1024,364,1024,0,0,-100,0,86.2,0,0,95,3.976,3.976,0,0,0,0,11.994,71.42,174.60953281848,-0.328084,33,Confirm_Landing,
4000,2022-09-03 17:59:42,-34.8683568045389,-55.2614342009251,-0.328084,-0.39370080000001,175.00323361848,174.60953281848,0.328084,0,1.62269362148,4.323983078,13,4,7.932,174.93761681848,0,0.223694,2.24375663348,0,0,0,66.8, -0.7, -2.1,0,0,1024,1024,364,1024,0,0,-100,0,86.2,0,0,95,3.976,3.976,0,0,0,0,11.994,71.42,174.60953281848,-0.328084,33,Confirm_Landing,
4100,2022-09-03 17:59:42,-34.8683568382487,-55.2614342490293,-0.328084,-0.39370080000001,175.00323361848,174.60953281848,0.328084,0,1.60941278116,4.3429135248,13,4,7.932,174.93761681848,0,0.223694,2.24375663348,0,0,0,66.9, -0.9, -2,0,0,1024,1024,364,1024,0,0,-100,0,86.2,0,0,95,3.976,3.976,0,0,0,0,11.994,71.42,174.60953281848,-0.328084,33,Confirm_Landing,
4200,2022-09-03 17:59:42,-34.868356889058,-55.2614343023334,-0.328084,-0.39370080000001,175.00323361848,174.60953281848,0.328084,0,1.59533469672,4.3673557828,13,4,7.932,174.93761681848,0,0.223694,2.24375663348,0,0,0,67.5, -0.6, -2.4,0,0,1024,1024,364,1024,0,0,-100,0,86.2,0,0,95,3.976,3.976,0,0,0,0,11.994,71.42,174.60953281848,-0.328084,33,Confirm_Landing,
4300,2022-09-03 17:59:42,-34.868356946833,-55.2614342932231,-0.328084,-0.39370080000001,175.00323361848,174.60953281848,0.328084,0,1.6003609436,4.388615626,13,4,7.932,174.93761681848,0,0.223694,2.24375663348,0,0,0,67.4, -0.5, -2.5,0,0,1024,1024,364,1024,0,0,-100,0,86.2,0,0,95,3.976,3.976,0,0,0,0,11.994,71.42,174.60953281848,-0.328084,33,Confirm_Landing,
4400,2022-09-03 17:59:42,-34.8683570323476,-55.2614340637807,-0.328084,-0.39370080000001,175.00323361848,174.60953281848,0.328084,0,1.67236225824,4.464074946,12,4,7.932,174.93761681848,0,0.223694,2.24375663348,0,0,0,67.6, -0.3, -2.9,0,0,1024,1024,364,1024,0,0,-100,0,86.2,0,0,95,3.976,3.976,0,0,0,0,11.994,71.42,174.60953281848,-0.328084,33,Confirm_Landing,
4500,2022-09-03 17:59:42,-34.8683571436681,-55.2614339172127,-0.656168,-0.72178480000001,175.00323361848,174.28144881848,0.328084,0,1.7214895564,4.5238518508,12,4,7.932,174.93761681848,0,0.223694,2.24375663348,0,0,0,67.6, -0.4, -3.5,0,0,1024,1024,364,1024,0,0,-100,0,86.2,0,0,95,3.976,3.976,0,0,0,0,11.994,71.42,174.28144881848,-0.656168,33,Confirm_Landing,
4600,2022-09-03 17:59:42,-34.8683572472149,-55.2614337469582,-0.656168,-0.72178480000001,175.00323361848,174.28144881848,0.328084,0,1.77778548996,4.5873032964,12,4,7.932,174.93761681848,0,0.223694,2.24375663348,0,0,0,67.4, -0.4, -3.9,0,0,1024,1024,364,1024,0,0,-100,0,86.2,0,0,95,3.976,3.976,0,0,0,0,11.994,71.42,174.28144881848,-0.656168,33,Confirm_Landing,
4700,2022-09-03 17:59:42,-34.8683573046013,-55.2614336433102,-0.656168,-0.72178480000001,175.00323361848,174.28144881848,0.328084,0,1.81192919184,4.6247376808,12,4,7.932,174.93761681848,0,0.223694,2.24375663348,0,0,0,67.3, 0.3, -3.9,0,0,1024,1024,364,1024,0,0,-100,0,86.2,0,0,95,3.976,3.976,0,0,0,0,11.994,71.42,174.28144881848,-0.656168,33,Confirm_Landing,
4800,2022-09-03 17:59:43,-34.8683573965575,-55.2614331781708,-0.656168,-0.72178480000001,175.00323361848,174.28144881848,0.328084,0,1.9549049182,4.7679463468,11,4,7.932,174.93761681848,0,0.223694,2.24375663348,0,0,0,66.8, 0.3, -3.8,0,0,1024,1024,364,1024,0,0,-100,0,86.2,0,0,95,3.976,3.976,0,0,0,0,11.994,71.42,174.28144881848,-0.656168,33,Confirm_Landing,
4900,2022-09-03 17:59:43,-34.8683574723546,-55.2614331060563,-0.656168,-0.72178480000001,175.00323361848,174.28144881848,0.328084,0,1.9812336592,4.8030185264,11,4,7.932,174.93761681848,0,0.223694,2.24375663348,0,0,0,66.4, 0.1, -3.2,0,0,1024,1024,364,1024,0,0,-100,0,86.2,0,0,95,3.976,3.976,0,0,0,0,11.994,71.42,174.28144881848,-0.656168,33,Confirm_Landing,
5000,2022-09-03 17:59:43,-34.8683575552445,-55.2614330279849,-0.656168,-0.68897639999999,174.97042521848,174.28144881848,0.328084,0,2.01010177036,4.8412403124,11,4,8.01,174.93761681848,0,0.223694,2.24375663348,0,0,0,66.1, 0, -2.9,0,0,1024,1024,364,1024,0,0,-100,0,86.2,0,0,95,4.047,4.057,0,0,0,0,10.399,71.42,174.28144881848,-0.656168,33,Confirm_Landing,
5100,2022-09-03 17:59:43,-34.8683576570613,-55.2614329731146,-0.656168,-0.68897639999999,174.97042521848,174.28144881848,0.328084,0,2.03399284724,4.8818571116,11,4,8.01,174.93761681848,0,0.223694,2.24375663348,0,0,0,66.3, -0.3, -2.9,0,0,1024,1024,364,1024,0,0,-100,0,86.2,0,0,95,4.047,4.057,0,0,0,0,10.399,71.42,174.28144881848,-0.656168,33,Confirm_Landing,
5200,2022-09-03 17:59:43,-34.8683577817036,-55.2614329258562,-0.656168,-0.68897639999999,174.97042521848,174.28144881848,0.328084,0,2.05816279552,4.9294949084,11,4,8.01,174.93761681848,0,0.223694,2.24375663348,0,0,0,66, -0.6, -2.3,0,0,1024,1024,364,1024,0,0,-100,0,86.2,0,0,95,4.047,4.057,0,0,0,0,10.399,71.42,174.28144881848,-0.656168,33,Confirm_Landing,
5300,2022-09-03 17:59:43,-34.8683580635028,-55.2614331601226,-0.656168,-0.68897639999999,174.97042521848,174.28144881848,0.328084,0,2.01793641628,5.0539371696,11,4,8.01,174.93761681848,0,0.223694,2.24375663348,0,0,0,66.1, -1, -2.1,0,0,1024,1024,364,1024,0,0,-100,0,86.2,0,0,95,4.047,4.057,0,0,0,0,10.399,71.42,174.28144881848,-0.656168,33,Confirm_Landing,
5400,2022-09-03 17:59:43,-34.8683581985776,-55.2614332093075,-0.656168,-0.68897639999999,174.97042521848,174.28144881848,0.328084,0,2.0190125318,5.1053807408,11,4,8.01,174.93761681848,0,0.223694,2.24375663348,0,0,0,66.3, -1.2, -2,0,0,1024,1024,364,1024,0,0,-100,0,86.2,0,0,95,4.047,4.057,0,0,0,0,10.399,71.42,174.28144881848,-0.656168,33,Confirm_Landing,
5500,2022-09-03 17:59:43,-34.8683582771716,-55.2614332632589,-0.656168,-0.68897639999999,174.97042521848,174.28144881848,0.328084,0,2.0130906156,5.138287566,11,4,8.01,174.93761681848,0,0.223694,2.24375663348,0,0,0,66.2, -1.1, -1.9,0,0,1024,1024,364,1024,0,0,-100,0,86.2,0,0,95,4.047,4.057,0,0,0,0,10.399,71.42,174.28144881848,-0.656168,33,Confirm_Landing,
5600,2022-09-03 17:59:43,-34.8683583415794,-55.2614333073223,-0.656168,-0.68897639999999,174.97042521848,174.28144881848,0.328084,0,2.00866804328,5.1652232624,11,4,8.01,174.93761681848,0,0.223694,2.24375663348,0,0,0,66.1, -1.5, -1.3,0,0,1024,1024,364,1024,0,0,-100,0,86.2,0,0,95,4.047,4.057,0,0,0,0,10.399,71.42,174.28144881848,-0.656168,33,Confirm_Landing,
5700,2022-09-03 17:59:43,-34.868358230459,-55.2614335763277,-0.656168,-0.68897639999999,174.97042521848,174.28144881848,0.328084,0,1.91911751548,5.2553807456,11,4,8.01,174.93761681848,0,0.223694,2.24375663348,0,0,0,66, -1.8, -1.8,0,0,1024,1024,1024,1024,0,0,0,0,86.2,0,0,95,4.047,4.057,0,0,0,0,10.399,71.42,174.28144881848,-0.656168,33,Confirm_Landing,
5800,2022-09-03 17:59:44,-34.8683582537744,-55.2614336617656,-0.656168,-0.68897639999999,174.97042521848,174.28144881848,0.328084,0,1.898047961,5.2823492504,11,4,8.01,174.93761681848,0,0.223694,2.24375663348,0,0,0,65.9, -1.2, -2.3,0,0,1024,1024,1024,1024,0,0,0,0,86.2,0,0,95,4.047,4.057,0,0,0,0,10.399,71.42,174.28144881848,-0.656168,33,Confirm_Landing,
5900,2022-09-03 17:59:44,-34.8683583043309,-55.2614337111437,-0.656168,-0.68897639999999,174.97042521848,174.28144881848,0.328084,0,1.89077105788,5.3059712984,11,4,8.01,174.93761681848,0,0.223694,2.24375663348,0,0,0,65.8, -1, -2.5,0,0,1024,1024,1024,1024,0,0,0,0,86.2,0,0,95,4.047,4.057,0,0,0,0,10.399,71.42,174.28144881848,-0.656168,33,Confirm_Landing,
6000,2022-09-03 17:59:44,-34.8683583666402,-55.2614337608037,-0.656168,-0.68897639999999,174.97042521848,174.28144881848,0.328084,0,1.8852854934,5.3331366536,11,4,8.219,174.93761681848,0,0.223694,2.24375663348,0,0,0,65.7, -1.2, -1.9,0,0,1024,1024,1024,1024,0,0,0,0,86.2,0,0,95,4.179,4.182,0,0,0,0,6.671,71.6,174.28144881848,-0.656168,33,Confirm_Landing,
6100,2022-09-03 17:59:44,-34.8683584054483,-55.2614335967409,-0.656168,-0.68897639999999,174.97042521848,174.28144881848,0.328084,0,1.9361385134,5.3842521408,11,4,8.219,174.93761681848,0,0.223694,2.24375663348,0,0,0,65.6, -2.5, -0.9,0,0,1024,1024,1024,1024,0,0,0,0,85.5,0,0,95,4.179,4.182,0,0,0,0,6.671,71.6,174.28144881848,-0.656168,33,Confirm_Landing,
6100,2022-09-03 17:59:44,-34.8683584455953,-55.2614335458332,0,-0.032808399999993,174.97042521848,174.93761681848,0.328084,0,1.95573825156,5.4053807504,11,4,8.219,174.93761681848,0,0.223694,2.24375663348,0,0,0,64.9, -4.1, 0,0,0,1024,1024,1024,1024,0,0,0,0,85.5,0,0,95,4.179,4.182,0,0,0,0,6.671,71.6,174.93761681848,0,6,P-GPS,
