time(millisecond),datetime(utc),latitude,longitude,height_above_takeoff(feet),height_above_ground_at_drone_location(feet),ground_elevation_at_drone_location(feet),altitude_above_seaLevel(feet),height_sonar(feet),speed(mph),distance(feet),mileage(feet),satellites,gpslevel,voltage(v),max_altitude(feet),max_ascent(feet),max_speed(mph),max_distance(feet), xSpeed(mph), ySpeed(mph), zSpeed(mph), compass_heading(degrees), pitch(degrees), roll(degrees),isPhoto,isVideo,rc_elevator,rc_aileron,rc_throttle,rc_rudder,rc_elevator(percent),rc_aileron(percent),rc_throttle(percent),rc_rudder(percent),gimbal_heading(degrees),gimbal_pitch(degrees),gimbal_roll(degrees),battery_percent,voltageCell1,voltageCell2,voltageCell3,voltageCell4,voltageCell5,voltageCell6,current(A),battery_temperature(f),altitude(feet),ascent(feet),flycStateRaw,flycState,message
566900,2023-12-29 04:37:51,-34.9578521727148,-54.9434453020629,0,0,22.511923620644,21.527671620644,2.296588,0,0,0,18,4,0,21.527671620644,0,0,0,0,0,0,328, -0.9, -1.1,0,0,364,364,364,1684,-100,-100,-100,100,336.2,0,0,51,3.906,3.904,0,0,0,0,0,111.2,21.527671620644,0,38,Tripod,"Error de calibración del estabilizador. Reinicia la aeronave o contacta con la Asistencia DJI (Code: 40011). Tarjeta SD llena. Cámbiala o elimina archivos (Code: 10027)"
567000,2023-12-29 04:37:51,-34.9578519964569,-54.9434449167149,0,0,22.511923620644,21.527671620644,2.296588,0,0.131957353304,0.131957353304,18,4,7.807,21.527671620644,0,0,0.131957353304,0,0,0,328, -0.9, -0.9,0,0,364,364,364,1684,-100,-100,-100,100,336.2,0,0,51,3.906,3.904,0,0,0,0,0.631,111.2,21.527671620644,0,41,Motors_Started,"Setting new Return-To-Home altitude to 100m (328 ft). Data Recorder File Index is 31. Setting new Maximum Flight Altitude to 120m (394 ft)"
567100,2023-12-29 04:37:51,-34.957852227472,-54.9434449749137,0,0,22.511923620644,21.527671620644,0.328084,0,10.7053153032,0.218021004352,18,4,7.807,21.527671620644,0,0,10.7053153032,0,0,0,328, -0.9, -0.9,0,0,364,364,364,1684,-100,-100,-100,100,336.2,0,0,51,3.906,3.904,0,0,0,0,0.631,111.2,21.527671620644,0,41,Motors_Started,
567200,2023-12-29 04:37:51,-34.9578524710742,-54.9434449886094,0,0,22.511923620644,21.527671620644,0.328084,0,10.7939964084,0.306993448144,18,4,7.807,21.527671620644,0,0,10.7939964084,0,0,0,328, -0.9, -0.8,0,0,364,364,364,1684,-100,-100,-100,100,336.2,0,0,51,3.906,3.904,0,0,0,0,0.631,111.2,21.527671620644,0,41,Motors_Started,
567300,2023-12-29 04:37:51,-34.9578527089345,-54.9434450112966,0,-0.065616799999999,22.577540420644,21.527671620644,0.328084,0,10.8809714768,0.39404200736,18,4,7.807,21.527671620644,0,0,10.8809714768,0,0,0,328, -0.9, -0.8,0,0,364,364,364,1684,-100,-100,-100,100,336.2,0,0,51,3.906,3.904,0,0,0,0,0.631,111.2,21.527671620644,0,41,Motors_Started,
567400,2023-12-29 04:37:51,-34.9578529537735,-54.9434452181266,0,-0.065616799999999,22.577540420644,21.527671620644,0.328084,0,10.9774609812,0.5026903048,18,4,7.807,21.527671620644,0,0,10.9774609812,0,0,0,328, -0.9, -0.7,0,0,900,986,1024,1265,-19,-6,0,37,336.2,0,0,51,3.906,3.904,0,0,0,0,0.631,111.2,21.527671620644,0,41,Motors_Started,
567500,2023-12-29 04:37:51,-34.9578530959057,-54.9434453506483,0,-0.065616799999999,22.577540420644,21.527671620644,0.328084,0,11.0340882796,0.56795605492,18,4,7.807,21.527671620644,0,0,11.0340882796,0,0,0,328, -0.9, -0.7,0,0,1024,1024,1024,1024,0,0,0,0,336.2,0,0,51,3.906,3.904,0,0,0,0,0.631,111.2,21.527671620644,0,41,Motors_Started,
567600,2023-12-29 04:37:51,-34.9578531744285,-54.9434456614938,0,-0.032808399999999,22.544732020644,21.527671620644,0.328084,0,11.0751972048,0.66521983756,18,4,7.807,21.527671620644,0,0,11.0751972048,0,0,0,328, -1, -0.6,0,0,1024,1024,1024,1024,0,0,0,0,336.2,0,0,51,3.906,3.904,0,0,0,0,0.631,111.2,21.527671620644,0,41,Motors_Started,
567700,2023-12-29 04:37:51,-34.9578532472574,-54.943445970822,0,-0.032808399999999,22.544732020644,21.527671620644,0.328084,0,11.1148953688,0.76145671728,18,4,7.807,21.527671620644,0,0,11.1148953688,0,0,0,328, -1, -0.5,0,0,1024,1024,1516,1024,0,0,75,0,336.3,0,0,51,3.906,3.904,0,0,0,0,0.631,111.2,21.527671620644,0,41,Motors_Started,
567800,2023-12-29 04:37:51,-34.9578533195066,-54.943446187198,0,-0.032808399999999,22.544732020644,21.527671620644,0.328084,0,11.15075495,0.83132220508,18,4,7.807,21.527671620644,0,0,11.15075495,0,0,0,328, -1, -0.4,0,0,1024,1024,1684,1024,0,0,100,0,336.3,0,0,51,3.906,3.904,0,0,0,0,0.631,111.2,21.527671620644,0,41,Motors_Started,
567900,2023-12-29 04:37:52,-34.9578528537594,-54.9434465178807,0,0,22.511923620644,21.527671620644,0.328084,0,10.9988192496,1.02792326124,18,4,7.807,21.527671620644,0,0,11.15075495,0,0,0,328, -1, -0.4,0,0,1024,1024,1684,1024,0,0,100,0,336.3,0,0,51,3.906,3.904,0,0,0,0,0.631,111.2,21.527671620644,0,41,Motors_Started,
568000,2023-12-29 04:37:52,-34.957852933812,-54.9434466167152,0.328084,0.328084,22.511923620644,21.855755620644,0.328084,0,11.0325134764,1.06947509984,18,4,7.79,21.855755620644,0.328084,0,11.15075495,0,0,0,328, -0.9, -0.3,0,0,1024,1024,1684,1024,0,0,100,0,336.3,0,0,51,3.894,3.892,0,0,0,0,1.098,111.2,21.855755620644,0.328084,41,Motors_Started,
568100,2023-12-29 04:37:52,-34.9578530119537,-54.9434467156216,0.328084,0.328084,22.511923620644,21.855755620644,0.328084,0,11.065617152,1.11055449748,18,4,7.79,21.855755620644,0.328084,0,11.15075495,0,0,0,327.9, -0.9, -0.3,0,0,1024,1024,1684,1024,0,0,100,0,336.3,0,0,51,3.894,3.892,0,0,0,0,1.098,111.2,21.855755620644,0.328084,10,Assisted_Takeoff,
568200,2023-12-29 04:37:52,-34.95785310016,-54.9434467052441,0.328084,0.328084,22.511923620644,21.855755620644,0.328084,0,11.0968179404,1.14288389484,18,5,7.79,21.855755620644,0.328084,0,11.15075495,0,0,0,328, -0.9, -0.2,0,0,1024,1024,1684,1024,0,0,100,0,336.3,0,0,51,3.894,3.892,0,0,0,0,1.098,111.2,21.855755620644,0.328084,10,Assisted_Takeoff,
568300,2023-12-29 04:37:52,-34.9578530060238,-54.9434461403713,0.328084,0.2952756,22.544732020644,21.855755620644,0.328084,0,11.035597466,1.31524938592,18,5,7.79,21.855755620644,0.328084,0,11.15075495,0,0,0,327.9, -1, -0.2,0,0,1024,1024,1684,1024,0,0,100,0,336.3,0,0,51,3.894,3.892,0,0,0,0,1.098,111.2,21.855755620644,0.328084,10,Assisted_Takeoff,
568400,2023-12-29 04:37:52,-34.9578530533024,-54.9434461503059,0.328084,0.2952756,22.544732020644,21.855755620644,0.328084,0,11.0530843432,1.33275266732,18,5,7.79,21.855755620644,0.328084,0,11.15075495,0,0,0,327.7, -1, -0.1,0,0,1024,1024,1684,1024,0,0,100,0,336.2,0,0,51,3.894,3.892,0,0,0,0,1.098,111.2,21.855755620644,0.328084,10,Assisted_Takeoff,
568500,2023-12-29 04:37:52,-34.9578530949303,-54.9434461587225,0.328084,0.2952756,22.544732020644,21.855755620644,0.328084,0,11.0685042912,1.34814964944,18,5,7.79,21.855755620644,0.328084,0,11.15075495,0,0,0,327.4, -1, -0.1,0,0,1024,1024,1684,1024,0,0,100,0,336.1,0,0,51,3.894,3.892,0,0,0,0,1.098,111.2,21.855755620644,0.328084,10,Assisted_Takeoff,
568600,2023-12-29 04:37:52,-34.9578531133602,-54.943446194422,0.328084,0.2952756,22.544732020644,21.855755620644,0.328084,0,11.0768048164,1.36076447924,18,5,7.79,21.855755620644,0.328084,0,11.15075495,0,0,-0.223694,326.9, -2.7, 0,0,0,1024,1024,1684,1024,0,0,100,0,335.7,0,0,51,3.894,3.892,0,0,0,0,1.098,111.2,21.855755620644,0.328084,10,Assisted_Takeoff,
568700,2023-12-29 04:37:52,-34.9578528725117,-54.9434459751832,0.328084,0.2952756,22.544732020644,21.855755620644,0.328084,0,10.9799216112,1.47040030952,18,5,7.79,21.855755620644,0.328084,0,11.15075495,0,0,-0.447388,326.9, -4.6, -1.2,0,0,1024,1024,1684,1024,0,0,100,0,335.4,0,0,51,3.894,3.892,0,0,0,0,1.098,111.2,21.855755620644,0.328084,10,Assisted_Takeoff,
568800,2023-12-29 04:37:52,-34.9578527237542,-54.943446176615,0.328084,0.2952756,22.544732020644,21.855755620644,0.328084,0.223694,10.9355646544,1.5514764276,18,5,7.79,21.855755620644,0.328084,0.223694,11.15075495,0.223694,0,-0.671082,326.7, -1.6, -1,0,0,1024,1024,1684,1024,0,0,100,0,335.3,0,0,51,3.894,3.892,0,0,0,0,1.098,111.2,21.855755620644,0.328084,38,Tripod,
568900,2023-12-29 04:37:53,-34.9578525423276,-54.9434463860065,0.656168,0.6233596,22.544732020644,22.183839620644,0.656168,0.223694,10.880249692,1.64259191608,18,5,7.79,22.183839620644,0.656168,0.223694,11.15075495,0.223694,0,-0.894776,326.6, 0.7, 0.1,0,0,1024,1024,1684,1024,0,0,100,0,335.3,0,0,51,3.894,3.892,0,0,0,0,1.098,111.2,22.183839620644,0.656168,38,Tripod,
569000,2023-12-29 04:37:53,-34.9578524207317,-54.9434465161638,0.656168,0.7217848,22.446306820644,22.183839620644,0.656168,0.223694,10.8429465412,1.701607666,18,5,7.771,22.183839620644,0.656168,0.223694,11.15075495,0.223694,0,-1.342164,326.5, 1.7, 0.1,0,0,1024,1024,1684,1024,0,0,100,0,335.3,0,0,51,3.875,3.869,0,0,0,0,1.968,111.2,22.183839620644,0.656168,38,Tripod,
569100,2023-12-29 04:37:53,-34.9578523059418,-54.9434466002508,0.984252,1.0498688,22.446306820644,22.511923620644,0.984252,0.223694,10.8059058576,1.75045609276,18,5,7.771,22.511923620644,0.984252,0.223694,11.15075495,0.223694,0,-1.789552,326.6, 1.9, -0.9,0,0,1024,1024,1684,1024,0,0,100,0,335.3,0,0,51,3.875,3.869,0,0,0,0,1.968,111.2,22.511923620644,0.984252,38,Tripod,
569200,2023-12-29 04:37:53,-34.957851928712,-54.9434470378958,1.312336,1.3779528,22.446306820644,22.840007620644,0.984252,0.223694,10.6937011296,1.94037407784,18,5,7.771,22.840007620644,1.312336,0.223694,11.15075495,0.223694,0,-2.23694,326.6, 1.4, -1.4,0,0,1024,1024,1683,1024,0,0,100,0,335.3,0,0,51,3.875,3.869,0,0,0,0,1.968,111.2,22.840007620644,1.312336,38,Tripod,
569300,2023-12-29 04:37:53,-34.9578517516374,-54.9434471880927,1.64042,1.7060368,22.446306820644,23.168091620644,1.312336,0.223694,10.638615826,2.01905518272,18,5,7.771,23.168091620644,1.64042,0.223694,11.15075495,0.223694,0,-2.908022,326.7, 1.5, -1.3,0,0,1024,1024,1024,1024,0,0,0,0,335.3,0,0,51,3.875,3.869,0,0,0,0,1.968,111.2,23.168091620644,1.64042,38,Tripod,
569400,2023-12-29 04:37:53,-34.9578514074426,-54.9434472478505,1.968504,2.0669292,22.413498420644,23.496175620644,1.968504,0.223694,10.5187995492,2.1458990188,18,5,7.771,23.496175620644,1.968504,0.223694,11.15075495,0.223694,0,-3.35541,326.6, 2.2, -2.1,0,0,1458,1024,1024,1024,66,0,0,0,335.3,0,0,51,3.875,3.869,0,0,0,0,1.968,111.2,23.496175620644,1.968504,38,Tripod,
569500,2023-12-29 04:37:53,-34.9578511023972,-54.9434472840808,2.296588,2.3950132,22.413498420644,23.824259620644,2.624672,0,10.41174574,2.25772316936,18,5,7.771,23.824259620644,2.296588,0.223694,11.15075495,0,0,-3.35541,326.7, 1.2, -2.8,0,0,1684,1024,1024,1024,100,0,0,0,335.3,0,0,51,3.875,3.869,0,0,0,0,1.968,111.2,23.824259620644,2.296588,38,Tripod,
569600,2023-12-29 04:37:53,-34.9578501509287,-54.9434475508301,2.952756,3.116798,22.347881620644,24.480427620644,3.28084,0.223694,10.0881236824,2.6139108448,18,5,7.771,24.480427620644,2.952756,0.223694,11.15075495,0.223694,0,-3.131716,327, -4.4, -2.8,0,0,1684,1024,1024,1024,100,0,0,0,335.3,0,0,51,3.875,3.869,0,0,0,0,1.968,111.2,24.480427620644,2.952756,38,Tripod,
569700,2023-12-29 04:37:53,-34.9578497855327,-54.9434477067823,3.28084,3.444882,22.347881620644,24.808511620644,3.28084,0.223694,9.9679137048,2.75514444512,18,5,7.771,24.808511620644,3.28084,0.223694,11.15075495,0.223694,0,-2.684328,327.3, -8, -2.9,0,0,1684,1024,1024,1024,100,0,0,0,335.3,0,0,51,3.875,3.869,0,0,0,0,1.968,111.2,24.808511620644,3.28084,38,Tripod,
569800,2023-12-29 04:37:53,-34.9578494810137,-54.9434477121463,3.608924,3.8057744,22.315073220644,25.136595620644,3.608924,0.447388,9.8598756436,2.86625993424,18,5,7.771,25.136595620644,3.608924,0.447388,11.15075495,0.447388,0,-2.013246,327.4, -10.4, -2.9,0,0,1684,1024,1024,1024,100,0,0,0,335.3,0,0,51,3.875,3.869,0,0,0,0,1.968,111.2,25.136595620644,3.608924,38,Tripod,
569900,2023-12-29 04:37:54,-34.9578491007052,-54.9434477828781,3.608924,3.8057744,22.315073220644,25.136595620644,3.937008,0.671082,9.72933102,3.00661755028,18,5,7.771,25.136595620644,3.608924,0.671082,11.15075495,0.671082,0,-1.342164,327.3, -11.3, -2.9,0,0,1684,1024,1024,1024,100,0,0,0,335.3,0,0,51,3.875,3.869,0,0,0,0,1.968,111.2,25.136595620644,3.608924,38,Tripod,
570000,2023-12-29 04:37:54,-34.9578486299229,-54.9434473376455,3.608924,3.772966,22.347881620644,25.136595620644,3.937008,1.1408394,9.5323821948,3.22393711104,18,5,7.771,25.136595620644,3.608924,1.1408394,11.15075495,1.11847,-0.223694,-0.671082,327.3, -11.6, -2.7,0,0,1324,1024,1024,1024,45,0,0,0,335.3,0,0,51,3.875,3.869,0,0,0,0,1.968,111.2,25.136595620644,3.608924,38,Tripod,"Punto de origen actualizado. Altitud de RPO establecida en 100m (Code: 3000001)"
570100,2023-12-29 04:37:54,-34.9578480170132,-54.9434474888063,3.608924,3.8385828,22.282264820644,25.136595620644,3.937008,1.4092722,9.324311322,3.4520670396,18,5,7.666,25.136595620644,3.608924,1.4092722,11.15075495,1.342164,-0.447388,-0.223694,327.3, -11.3, -2.8,0,0,1324,1024,1024,1024,45,0,0,0,335.3,0,0,51,3.855,3.852,0,0,0,0,5.414,111.2,25.136595620644,3.608924,38,Tripod,
570200,2023-12-29 04:37:54,-34.9578473696595,-54.9434477003443,3.608924,3.9041996,22.216648020644,25.136595620644,3.937008,1.7000744,9.10925226,3.6965880448,18,5,7.666,25.136595620644,3.608924,1.7000744,11.15075495,1.565858,-0.671082,0,326.9, -8.3, -2.3,0,0,1024,1024,1024,1024,0,0,0,0,335.3,0,0,51,3.855,3.852,0,0,0,0,5.414,111.2,25.136595620644,3.608924,38,Tripod,
570300,2023-12-29 04:37:54,-34.9578466708065,-54.9434479581615,3.608924,3.9041996,22.216648020644,25.136595620644,3.937008,1.901399,8.8810370296,3.9629594444,18,5,7.666,25.136595620644,3.608924,1.901399,11.15075495,1.789552,-0.671082,0,326.6, -0.6, -3.1,0,0,1024,1024,1024,1024,0,0,0,0,335.3,0,0,51,3.855,3.852,0,0,0,0,5.414,111.2,25.136595620644,3.608924,38,Tripod,
570400,2023-12-29 04:37:54,-34.9578458518768,-54.9434482336292,3.608924,3.937008,22.183839620644,25.136595620644,3.937008,1.6329662,8.6142719292,4.2729003992,18,5,7.666,25.136595620644,3.608924,1.901399,11.15075495,1.565858,-0.447388,0,326.2, 7, -2.6,0,0,1024,1024,1024,1024,0,0,0,0,335.3,0,0,51,3.855,3.852,0,0,0,0,5.414,111.2,25.136595620644,3.608924,38,Tripod,
570500,2023-12-29 04:37:54,-34.9578450670651,-54.9434485607715,3.608924,4.0026248,22.118222820644,25.136595620644,3.937008,1.4092722,8.3668309764,4.5754922724,18,5,7.666,25.136595620644,3.608924,1.901399,11.15075495,1.342164,-0.447388,0,326.1, 8.4, -3.3,0,0,1024,1024,1024,1024,0,0,0,0,335.3,0,0,51,3.855,3.852,0,0,0,0,5.414,111.2,25.136595620644,3.608924,38,Tripod,
570600,2023-12-29 04:37:54,-34.9578443045584,-54.9434488142733,3.937008,4.3635172,22.085414420644,25.464679620644,5.577428,1.11847,8.1240488164,4.8638124916,18,5,7.666,25.464679620644,3.937008,1.901399,11.15075495,1.11847,0,0,326.2, 6.1, -4.2,0,0,1024,1024,1024,1024,0,0,0,0,335.3,0,0,51,3.855,3.852,0,0,0,0,5.414,111.2,25.464679620644,3.937008,38,Tripod,
570700,2023-12-29 04:37:54,-34.9578436790294,-54.9434489473194,3.937008,4.3635172,22.085414420644,25.464679620644,5.577428,0.894776,7.91994776,5.0955054124,18,5,7.666,25.464679620644,3.937008,1.901399,11.15075495,0.894776,0,0,326.3, 4.8, -5.8,0,0,1024,1024,1024,1024,0,0,0,0,335.3,0,0,51,3.855,3.852,0,0,0,0,5.414,111.2,25.464679620644,3.937008,38,Tripod,
570800,2023-12-29 04:37:55,-34.9578431689195,-54.9434490931934,3.937008,4.429134,22.019797620644,25.464679620644,5.577428,0.671082,7.75836639,5.2866471508,18,5,7.666,25.464679620644,3.937008,1.901399,11.15075495,0.671082,0,0,326.6, 4, -5.5,0,0,1024,1024,1024,1024,0,0,0,0,335.3,0,0,51,3.855,3.852,0,0,0,0,5.414,111.2,25.464679620644,3.937008,38,Tripod,
570900,2023-12-29 04:37:55,-34.9578425477898,-54.9434495778654,3.937008,4.4619424,21.986989220644,25.464679620644,5.577428,0.447388,7.5960304268,5.5556432224,19,5,7.666,25.464679620644,3.937008,1.901399,11.15075495,0.447388,0,0,326.8, 2.4, -4.1,0,0,1024,1024,1061,1024,0,0,6,0,335.3,0,0,51,3.855,3.852,0,0,0,0,5.414,111.2,25.464679620644,3.937008,38,Tripod,
571000,2023-12-29 04:37:55,-34.9578421424528,-54.9434497492394,4.265092,4.8228348,21.954180820644,25.792763620644,5.577428,0.223694,7.4771655936,5.7121720988,19,5,7.666,25.792763620644,4.265092,1.901399,11.15075495,0.223694,0,0,326.6, 1.8, -5.1,0,0,1079,1024,1457,1024,8,0,66,0,335.3,0,0,51,3.855,3.852,0,0,0,0,5.414,111.2,25.792763620644,4.265092,38,Tripod,
571100,2023-12-29 04:37:55,-34.9578418058491,-54.9434498954282,4.265092,4.8228348,21.954180820644,25.792763620644,5.577428,0.223694,7.3799871128,5.842519872,19,5,7.706,25.792763620644,4.265092,1.901399,11.15075495,0.223694,0,0,326.3, 1.3, -2.7,0,0,1079,1024,1457,1024,8,0,66,0,335.3,0,0,51,3.853,3.846,0,0,0,0,3.853,111.2,25.792763620644,4.265092,38,Tripod,
571200,2023-12-29 04:37:55,-34.9578416491955,-54.9434498560035,4.265092,4.8228348,21.954180820644,25.792763620644,5.577428,0.223694,7.322670838,5.9008860156,19,5,7.706,25.792763620644,4.265092,1.901399,11.15075495,0.223694,0,-0.223694,326.5, -0.3, -3.9,0,0,1484,1024,1684,1024,70,0,100,0,335.3,0,0,51,3.853,3.846,0,0,0,0,3.853,111.2,25.792763620644,4.265092,38,Tripod,
571300,2023-12-29 04:37:55,-34.9578416415953,-54.9434500410128,4.593176,5.1509188,21.954180820644,26.120847620644,5.577428,0,7.3415684764,5.9562665948,19,5,7.706,26.120847620644,4.593176,1.901399,11.15075495,0,0,-0.671082,326.7, -1.2, -3.3,0,0,1684,1024,1684,1024,100,0,100,0,335.3,0,0,51,3.853,3.846,0,0,0,0,3.853,111.2,26.120847620644,4.593176,38,Tripod,
571400,2023-12-29 04:37:55,-34.9578416239827,-54.9434498964415,4.92126,5.4790028,21.954180820644,26.448931620644,5.577428,0.223694,7.3188650636,5.9999673836,19,5,7.706,26.448931620644,4.92126,1.901399,11.15075495,0.223694,0,-1.342164,327, -7.1, -4.1,0,0,1684,1024,1684,1024,100,0,100,0,335.3,0,0,51,3.853,3.846,0,0,0,0,3.853,111.2,26.448931620644,4.92126,38,Tripod,
571500,2023-12-29 04:37:55,-34.9578415548349,-54.9434497924932,5.249344,5.8070868,21.954180820644,26.777015620644,5.905512,0.447388,7.2835960336,6.0399936316,19,5,7.706,26.777015620644,5.249344,1.901399,11.15075495,0.447388,0,-2.013246,327.9, -10.4, -4.7,0,0,1684,1024,1684,1024,100,0,100,0,335.3,0,0,51,3.853,3.846,0,0,0,0,3.853,111.2,26.777015620644,5.249344,38,Tripod,
571600,2023-12-29 04:37:55,-34.9578412733425,-54.9434498550144,5.577428,6.1679792,21.921372420644,27.105099620644,6.233596,0.7158208,7.1961616476,6.1443899604,19,5,7.706,27.105099620644,5.577428,1.901399,11.15075495,0.671082,-0.223694,-2.684328,327.7, -11.7, -4.4,0,0,1684,1024,1684,1024,100,0,100,0,335.3,0,0,51,3.853,3.846,0,0,0,0,3.853,111.2,27.105099620644,5.577428,38,Tripod,
571700,2023-12-29 04:37:55,-34.957841203941,-54.9434499698881,6.233596,6.8241472,21.921372420644,27.761267620644,6.889764,1.2079476,7.1864175528,6.1870736888,19,5,7.706,27.761267620644,6.233596,1.901399,11.15075495,1.11847,-0.447388,-3.35541,327.4, -10.4, -4.2,0,0,1684,1024,1684,1024,100,0,100,0,335.3,0,0,51,3.853,3.846,0,0,0,0,3.853,111.2,27.761267620644,6.233596,38,Tripod,
571800,2023-12-29 04:37:56,-34.9578406008012,-54.9434502499058,6.56168,7.1522312,21.921372420644,28.089351620644,7.217848,1.4987498,7.0195540304,6.4225067672,19,5,7.706,28.089351620644,6.56168,1.901399,11.15075495,1.342164,-0.671082,-3.802798,327.5, -9.8, -4,0,0,1684,1024,1684,1024,100,0,100,0,335.3,0,0,51,3.853,3.846,0,0,0,0,3.853,111.2,28.089351620644,6.56168,38,Tripod,
571900,2023-12-29 04:37:56,-34.9578399138103,-54.9434505947339,6.889764,7.545932,21.855755620644,28.417435620644,7.874016,1.7000744,6.8378283028,6.6935369596,19,5,7.706,28.417435620644,6.889764,1.901399,11.15075495,1.565858,-0.671082,-4.250186,327.4, -10.2, -4.6,0,0,1684,1024,1684,1024,100,0,100,0,335.3,0,0,51,3.853,3.846,0,0,0,0,3.853,111.2,28.417435620644,6.889764,38,Tripod,
572000,2023-12-29 04:37:56,-34.9578390546115,-54.9434511103232,7.545932,8.2677168,21.790138820644,29.073603620644,8.530184,2.1922012,6.631233808,7.0428808028,19,5,7.706,29.073603620644,7.545932,2.1922012,11.15075495,2.013246,-0.894776,-4.250186,327.3, -10, -5.2,0,0,1684,1024,1684,1024,100,0,100,0,335.3,0,0,51,3.853,3.846,0,0,0,0,3.853,111.2,29.073603620644,7.545932,38,Tripod,
572100,2023-12-29 04:37:56,-34.9578381393141,-54.9434517816658,8.2021,8.9895016,21.724522020644,29.729771620644,9.186352,2.1922012,6.443897844,7.4325133612,19,5,7.665,29.729771620644,8.2021,2.1922012,11.15075495,2.013246,-0.894776,-4.250186,327.4, -9.8, -5.3,0,0,1684,1024,1684,1024,100,0,100,0,335.3,0,0,51,3.831,3.826,0,0,0,0,5.161,111.2,29.729771620644,8.2021,38,Tripod,
572200,2023-12-29 04:37:56,-34.9578371177248,-54.9434525264988,8.858268,9.7112864,21.658905220644,30.385939620644,9.84252,2.5053728,6.2561025624,7.8667325352,19,5,7.665,30.385939620644,8.858268,2.5053728,11.15075495,2.23694,-1.11847,-4.250186,327.4, -9.6, -4.3,0,0,1684,1024,1684,1024,100,0,100,0,335.3,0,0,51,3.831,3.826,0,0,0,0,5.161,111.2,30.385939620644,8.858268,38,Tripod,
572300,2023-12-29 04:37:56,-34.9578360448595,-54.9434533060552,9.186352,10.0721788,21.626096820644,30.714023620644,10.498688,2.7066974,6.0855644992,8.3223099776,19,5,7.665,30.714023620644,9.186352,2.7066974,11.15075495,2.460634,-1.11847,-4.250186,327.4, -9.5, -4.8,0,0,1684,1024,1684,1024,100,0,100,0,335.3,0,0,51,3.831,3.826,0,0,0,0,5.161,111.2,30.714023620644,9.186352,38,Tripod,
572400,2023-12-29 04:37:56,-34.9578347994011,-54.9434542483718,9.84252,10.826772,21.527671620644,31.370191620644,11.154856,2.9974996,5.933235098,8.8569884724,19,5,7.665,31.370191620644,9.84252,2.9974996,11.15075495,2.684328,-1.342164,-4.250186,327.4, -9.7, -5.8,0,0,1684,1024,1684,1024,100,0,100,0,335.3,0,0,51,3.831,3.826,0,0,0,0,5.161,111.2,31.370191620644,9.84252,38,Tripod,
572500,2023-12-29 04:37:56,-34.9578335270098,-54.9434552393365,10.498688,11.5485568,21.462054820644,32.026359620644,11.811024,3.3106712,5.8308072732,9.4077102748,19,5,7.665,32.026359620644,10.498688,3.3106712,11.15075495,2.908022,-1.565858,-4.026492,327.4, -9.9, -6.1,0,0,1684,1024,1684,1024,100,0,100,0,335.3,0,0,51,3.831,3.826,0,0,0,0,5.161,111.2,32.026359620644,10.498688,38,Tripod,
572600,2023-12-29 04:37:56,-34.9578324204528,-54.943456786938,11.154856,12.3359584,21.330821220644,32.682527620644,12.467192,3.6014734,5.9503282744,10.0218507144,19,5,7.665,32.682527620644,11.154856,3.6014734,11.15075495,3.131716,-1.789552,-4.250186,327.4, -9.7, -4.5,0,0,1684,1024,1684,1024,100,0,100,0,335.3,0,0,51,3.831,3.826,0,0,0,0,5.161,111.2,32.682527620644,11.154856,38,Tripod,
572700,2023-12-29 04:37:56,-34.9578310706193,-54.9434579515411,11.48294,12.7624676,21.232396020644,33.010611620644,13.12336,3.6014734,5.9860894304,10.6250331484,19,5,7.665,33.010611620644,11.48294,3.6014734,11.15075495,3.131716,-2.013246,-4.250186,327.3, -9.4, -3.6,0,0,1684,1024,1684,1024,100,0,100,0,335.3,0,0,51,3.831,3.826,0,0,0,0,5.161,111.2,33.010611620644,11.48294,38,Tripod,
572800,2023-12-29 04:37:56,-34.9578295815962,-54.9434592770874,12.139108,13.4842524,21.166779220644,33.666779620644,13.779528,3.914645,6.1062337912,11.2975069232,19,5,7.665,33.666779620644,12.139108,3.914645,11.15075495,3.35541,-2.013246,-4.250186,327.1, -9.3, -3.2,0,0,1684,1024,1684,1024,100,0,100,0,335.3,0,0,51,3.831,3.826,0,0,0,0,5.161,111.2,33.666779620644,12.139108,38,Tripod,
572900,2023-12-29 04:37:57,-34.9578280870282,-54.9434605919207,12.795276,14.271654,21.035545620644,34.322947620644,14.435696,4.3396636,6.29265112,11.9697510392,19,5,7.665,34.322947620644,12.795276,4.3396636,11.15075495,3.579104,-2.460634,-4.250186,327.2, -9.2, -3.4,0,0,1684,973,1684,1024,100,-8,100,0,335.3,0,0,51,3.831,3.826,0,0,0,0,5.161,111.2,34.322947620644,12.795276,38,Tripod,
573000,2023-12-29 04:37:57,-34.9578269214287,-54.9434625995788,13.12336,14.7309716,20.904312020644,34.651031620644,15.091864,4.5186188,6.7700461484,12.7054466008,19,5,7.665,34.651031620644,13.12336,4.5186188,11.15075495,3.802798,-2.460634,-4.250186,327.2, -9.5, -3.9,0,0,1684,1014,1684,1024,100,-2,100,0,335.3,0,0,51,3.831,3.826,0,0,0,0,5.161,111.2,34.651031620644,13.12336,38,Tripod,
573100,2023-12-29 04:37:57,-34.9578253777924,-54.9434642201879,13.779528,15.4855648,20.805886820644,35.307199620644,15.748032,4.9660068,7.1586616464,13.4484584356,19,5,7.675,35.307199620644,13.779528,4.9660068,11.15075495,4.026492,-2.908022,-4.250186,327.1, -9, -2.3,0,0,1684,1024,1684,1024,100,0,100,0,335.3,0,0,51,3.832,3.823,0,0,0,0,5.679,111.2,35.307199620644,13.779528,38,Tripod,
573200,2023-12-29 04:37:57,-34.9578237006498,-54.943466098084,14.435696,16.240158,20.707461620644,35.963367620644,16.4042,5.144962,7.6756564136,14.2789374648,19,5,7.675,35.963367620644,14.435696,5.144962,11.15075495,4.250186,-2.908022,-4.250186,327.1, -9, -0.7,0,0,1684,1024,1684,1024,100,0,100,0,335.3,0,0,51,3.832,3.823,0,0,0,0,5.679,111.2,35.963367620644,14.435696,38,Tripod,
573300,2023-12-29 04:37:57,-34.9578219175232,-54.943468005502,14.76378,16.732284,20.543419620644,36.291451620644,16.732284,5.1002232,8.2548230988,15.1441277812,19,5,7.675,36.291451620644,14.76378,5.144962,11.15075495,4.026492,-3.131716,-4.47388,327, -8.3, -2.5,0,0,1684,1024,1684,1024,100,0,100,0,335.3,0,0,51,3.832,3.823,0,0,0,0,5.679,111.2,36.291451620644,14.76378,38,Tripod,
573400,2023-12-29 04:37:57,-34.9578209168948,-54.9434702297236,15.419948,17.4868772,20.444994420644,36.947619620644,17.388452,5.4133948,8.9444556668,15.9028548396,19,5,7.675,36.947619620644,15.419948,5.4133948,11.15075495,4.250186,-3.35541,-4.250186,327.1, -8.7, -1.5,0,0,1684,1024,1684,1024,100,0,100,0,335.3,0,0,51,3.832,3.823,0,0,0,0,5.679,111.2,36.947619620644,15.419948,38,Tripod,
573500,2023-12-29 04:37:57,-34.9578192101797,-54.9434720137441,16.076116,18.3070872,20.280952420644,37.603787620644,18.04462,5.7265664,9.5489176284,16.7228023724,19,5,7.675,37.603787620644,16.076116,5.7265664,11.15075495,4.47388,-3.579104,-4.250186,327.3, -8.2, -0.9,0,0,1684,1024,1684,1024,100,0,100,0,335.3,0,0,51,3.832,3.823,0,0,0,0,5.679,111.2,37.603787620644,16.076116,38,Tripod,
573600,2023-12-29 04:37:57,-34.9578172507088,-54.9434739670872,16.4042,18.7664048,20.149718820644,37.931871620644,18.700788,5.9055216,10.2520344488,17.6459651316,19,5,7.675,37.931871620644,16.4042,5.9055216,11.15075495,4.697574,-3.579104,-4.47388,327, -8.4, -2,0,0,1684,1024,1684,1024,100,0,100,0,335.3,0,0,51,3.832,3.823,0,0,0,0,5.679,111.2,37.931871620644,16.4042,38,Tripod,
573700,2023-12-29 04:37:57,-34.957815312854,-54.9434758362316,17.060368,19.5866148,19.985676820644,38.588039620644,19.356956,6.0844768,10.9614176736,18.547244688,19,5,7.675,38.588039620644,17.060368,6.0844768,11.15075495,4.921268,-3.579104,-4.47388,327.1, -7.7, -2.5,0,0,1684,1024,1684,1024,100,0,100,0,335.3,0,0,51,3.832,3.823,0,0,0,0,5.679,111.2,38.588039620644,17.060368,38,Tripod,
573800,2023-12-29 04:37:57,-34.9578132010878,-54.9434784398624,17.716536,20.4068248,19.821634820644,39.244207620644,19.68504,6.0844768,11.9257877832,19.6425859304,19,5,7.675,39.244207620644,17.716536,6.0844768,11.9257877832,4.921268,-3.579104,-4.250186,327.3, -9.3, -3.2,0,0,1684,1024,1684,1024,100,0,100,0,335.3,0,0,51,3.832,3.823,0,0,0,0,5.679,111.2,39.244207620644,17.716536,38,Tripod,
573900,2023-12-29 04:37:58,-34.9578110558734,-54.9434804669383,18.372704,21.1942264,19.690401220644,39.900375620644,18.372704,6.3976484,12.753281248,20.6325137836,19,5,7.675,39.900375620644,18.372704,6.3976484,12.753281248,5.144962,-3.802798,-4.250186,327.2, -8.7, -1.5,0,0,1684,1024,1684,1024,100,0,100,0,335.3,0,0,51,3.832,3.823,0,0,0,0,5.679,111.2,39.900375620644,18.372704,38,Tripod,
574000,2023-12-29 04:37:58,-34.9578087990975,-54.9434825883392,19.028872,22.0472448,19.493550820644,40.556543620644,19.028872,6.5766036,13.6440949248,21.671916704,19,5,7.675,40.556543620644,19.028872,6.5766036,13.6440949248,5.368656,-3.802798,-4.250186,327.2, -8.4, -2.4,0,0,1684,1024,1684,1024,100,0,100,0,335.3,0,0,51,3.832,3.823,0,0,0,0,5.679,111.2,40.556543620644,19.028872,38,Tripod,
574100,2023-12-29 04:37:58,-34.9578065922725,-54.9434845916893,19.356956,22.5065624,19.362317220644,40.884627620644,19.68504,6.5766036,14.5149610944,22.6754928516,20,5,7.663,40.884627620644,19.356956,6.5766036,14.5149610944,5.368656,-3.802798,-4.250186,327.3, -8.9, -1.9,0,0,1684,1024,1684,1024,100,0,100,0,335.3,0,0,51,3.838,3.827,0,0,0,0,5.73,111.2,40.884627620644,19.356956,38,Tripod,
574200,2023-12-29 04:37:58,-34.9578040770301,-54.9434866657644,20.341208,23.6876648,19.165466820644,41.868879620644,20.669292,6.7555588,15.471129104,23.7830716272,20,5,7.663,41.868879620644,20.341208,6.7555588,15.471129104,5.59235,-3.802798,-4.250186,327.3, -9.6, -2.4,0,0,1684,1024,1684,1024,100,0,100,0,335.3,0,0,51,3.838,3.827,0,0,0,0,5.73,111.2,41.868879620644,20.341208,38,Tripod,
574300,2023-12-29 04:37:58,-34.9578015904547,-54.9434889236864,20.997376,24.5078748,19.001424820644,42.525047620644,21.32546,6.9568834,16.4896330736,24.9139771752,19,5,7.663,42.525047620644,20.997376,6.9568834,16.4896330736,5.816044,-3.802798,-4.47388,327, -8, -5.8,0,0,1684,1024,1684,1024,100,0,100,0,335.3,0,0,51,3.838,3.827,0,0,0,0,5.73,111.2,42.525047620644,20.997376,38,Tripod,
574400,2023-12-29 04:37:58,-34.9577990739746,-54.9434910349584,21.32546,25.0328092,18.804574420644,42.853131620644,21.981628,7.1358386,17.4894690636,26.028216056,19,5,7.663,42.853131620644,21.32546,7.1358386,17.4894690636,6.039738,-3.802798,-4.250186,327.5, -8.8, -4.1,0,0,1684,1024,1684,1024,100,0,100,0,335.3,0,0,51,3.838,3.827,0,0,0,0,5.73,111.2,42.853131620644,21.32546,38,Tripod,
574500,2023-12-29 04:37:58,-34.9577966368193,-54.9434930602598,21.981628,25.8530192,18.640532420644,43.509299620644,22.637796,7.2476856,18.4652893048,27.1040363004,20,5,7.663,43.509299620644,21.981628,7.2476856,18.4652893048,6.039738,-4.026492,-4.250186,327.4, -9.2, -4,0,0,1684,1024,1684,1024,100,0,100,0,335.3,0,0,51,3.838,3.827,0,0,0,0,5.73,111.2,43.509299620644,21.981628,38,Tripod,
574600,2023-12-29 04:37:58,-34.9577940156791,-54.9434952723978,22.96588,27.0341216,18.443682020644,44.493551620644,22.637796,7.4490102,19.5350399952,28.2668644216,20,5,7.663,44.493551620644,22.96588,7.4490102,19.5350399952,6.263432,-4.026492,-4.250186,327.1, -8.9, -5.8,0,0,1684,1024,1684,1024,100,0,100,0,335.3,0,0,51,3.838,3.827,0,0,0,0,5.73,111.2,44.493551620644,22.96588,38,Tripod,
574700,2023-12-29 04:37:58,-34.9577917461851,-54.9434976603027,23.622048,27.8543316,18.279640020644,45.149719620644,25.262468,7.7621818,20.586778874,29.36023716,20,5,7.663,45.149719620644,23.622048,7.7621818,20.586778874,6.487126,-4.250186,-4.250186,326.7, -7.5, -4.7,0,0,1684,1024,1684,1024,100,0,100,0,335.3,0,0,51,3.838,3.827,0,0,0,0,5.73,111.2,45.149719620644,23.622048,38,Tripod,
574800,2023-12-29 04:37:58,-34.957788997111,-54.9435000123329,24.278216,28.70735,18.082789620644,45.805887620644,25.918636,7.7621818,21.7335636876,30.5852371992,20,5,7.663,45.805887620644,24.278216,7.7621818,21.7335636876,6.487126,-4.250186,-4.026492,326.9, -6.4, -3.8,0,0,1684,1024,1684,1024,100,0,100,0,335.3,0,0,51,3.838,3.827,0,0,0,0,5.73,111.2,45.805887620644,24.278216,38,Tripod,
574900,2023-12-29 04:37:59,-34.957786343542,-54.9435022745772,25.262468,29.8884524,17.885939220644,46.790139620644,26.574804,8.0753534,22.8462605736,31.7663067908,20,5,7.663,46.790139620644,25.262468,8.0753534,22.8462605736,6.71082,-4.47388,-4.250186,327.1, -6, -3.3,0,0,1684,1024,1684,1024,100,0,100,0,335.3,0,0,51,3.838,3.827,0,0,0,0,5.73,111.2,46.790139620644,25.262468,38,Tripod,
575000,2023-12-29 04:37:59,-34.9577834788159,-54.9435047150815,25.918636,30.8070876,17.623472020644,47.446307620644,27.230972,7.941137,24.0543970952,33.041011556,20,5,7.663,47.446307620644,25.918636,8.0753534,24.0543970952,6.71082,-4.250186,-4.250186,327.3, -6.1, -3.7,0,0,1684,1024,1684,1024,100,0,100,0,335.3,0,0,51,3.838,3.827,0,0,0,0,5.73,111.2,47.446307620644,25.918636,38,Tripod,
575100,2023-12-29 04:37:59,-34.9577807970292,-54.9435073871244,26.574804,31.5944892,17.492238420644,48.102475620644,27.88714,8.2543086,25.2829404416,34.304134956,20,5,7.663,48.102475620644,26.574804,8.2543086,25.2829404416,6.934514,-4.47388,-4.47388,327.3, -7.2, -5.2,0,0,1684,676,1684,1024,100,-53,100,0,335.3,0,0,51,3.838,3.827,0,0,0,0,5.73,111.2,48.102475620644,26.574804,38,Tripod,
575200,2023-12-29 04:37:59,-34.957777779555,-54.9435098710399,27.559056,32.8412084,17.229771220644,49.086727620644,28.543308,8.4332638,26.546752818,35.632218988,20,5,7.658,49.086727620644,27.559056,8.4332638,26.546752818,7.158208,-4.47388,-4.47388,326.9, -6.2, -5.7,0,0,1679,364,1684,1024,99,-100,100,0,335.3,0,0,51,3.817,3.808,0,0,0,0,5.24,111.2,49.086727620644,27.559056,38,Tripod,
575300,2023-12-29 04:37:59,-34.9577748695777,-54.9435122231694,28.215224,33.6614184,17.065729220644,49.742895620644,29.199476,8.5674802,27.7612213608,36.905841076,21,5,7.658,49.742895620644,28.215224,8.5674802,27.7612213608,7.158208,-4.697574,-4.47388,327, -5, -7.3,0,0,1679,364,1684,1024,99,-100,100,0,335.3,0,0,51,3.817,3.808,0,0,0,0,5.24,111.2,49.742895620644,28.215224,38,Tripod,
575400,2023-12-29 04:37:59,-34.9577718272665,-54.943514811761,28.871392,34.5144368,16.868878820644,50.399063620644,29.855644,8.3661556,29.065945812,38.259187576,21,5,7.658,50.399063620644,28.871392,8.5674802,29.065945812,6.934514,-4.697574,-4.47388,327.3, -4.2, -11.2,0,0,1684,364,1684,1024,100,-100,100,0,335.3,0,0,51,3.817,3.808,0,0,0,0,5.24,111.2,50.399063620644,28.871392,38,Tripod,
575500,2023-12-29 04:37:59,-34.957768928278,-54.9435180515942,29.855644,35.6955392,16.672028420644,51.383315620644,30.511812,8.3214168,30.4887805032,39.69324274,21,5,7.658,51.383315620644,29.855644,8.5674802,30.4887805032,6.71082,-4.921268,-4.47388,327.5, -4.7, -12.8,0,0,1684,364,1684,1024,100,-100,100,0,335.3,0,0,51,3.817,3.808,0,0,0,0,5.24,111.2,51.383315620644,29.855644,38,Tripod,
575600,2023-12-29 04:37:59,-34.9577660020162,-54.9435207411773,30.511812,36.5485576,16.475178020644,52.039483620644,31.16798,8.3214168,31.7946860568,41.03018504,21,5,7.658,52.039483620644,30.511812,8.5674802,31.7946860568,6.71082,-4.921268,-4.697574,327.6, -3.9, -13.5,0,0,1684,364,1684,851,100,-100,100,-26,335.3,0,0,51,3.817,3.808,0,0,0,0,5.24,111.2,52.039483620644,30.511812,38,Tripod,
575700,2023-12-29 04:37:59,-34.9577632766914,-54.9435233485215,31.496064,37.6968516,16.311136020644,53.023735620644,31.824148,8.0977228,33.036090296,42.293636524,22,5,7.658,53.023735620644,31.496064,8.5674802,33.036090296,6.263432,-5.144962,-4.697574,327.8, -4.8, -13.1,0,0,1684,364,1684,396,100,-100,100,-95,335.3,0,0,51,3.817,3.808,0,0,0,0,5.24,111.2,53.023735620644,31.496064,38,Tripod,
575800,2023-12-29 04:37:59,-34.9577605675534,-54.9435262120997,32.152232,38.5170616,16.147094020644,53.679903620644,31.824148,8.2543086,34.33235018,43.601379348,22,5,7.658,53.679903620644,32.152232,8.5674802,34.33235018,6.263432,-5.368656,-4.47388,327.7, -4.7, -13.5,0,0,1684,364,1684,364,100,-100,100,-100,335,0,0,51,3.817,3.808,0,0,0,0,5.24,111.2,53.679903620644,32.152232,38,Tripod,
575900,2023-12-29 04:38:00,-34.9577580336424,-54.9435290024181,32.8084,39.37008,15.950243620644,54.336071620644,31.824148,8.0753534,35.570539196,44.846786212,22,5,7.658,54.336071620644,32.8084,8.5674802,35.570539196,6.039738,-5.368656,-4.697574,326.8, -5.4, -13.5,0,0,1684,364,1684,364,100,-100,100,-100,333.9,0,0,51,3.817,3.808,0,0,0,0,5.24,111.2,54.336071620644,32.8084,38,Tripod,
576000,2023-12-29 04:38:00,-34.957756156561,-54.9435321209183,33.464568,40.19029,15.786201620644,54.992239620644,31.824148,8.0753534,36.722114036,46.003610396,22,5,7.658,54.992239620644,33.464568,8.5674802,36.722114036,5.816044,-5.59235,-4.47388,325.2, -4.7, -13.4,0,0,1684,364,1684,364,100,-100,100,-100,331.9,0,0,51,3.817,3.808,0,0,0,0,5.24,111.2,54.992239620644,33.464568,38,Tripod,
576100,2023-12-29 04:38:00,-34.9577537561304,-54.9435349638152,34.120736,41.0105,15.622159620644,55.648407620644,31.824148,8.0753534,37.93963376,47.224082876,22,5,7.658,55.648407620644,34.120736,8.5674802,37.93963376,5.816044,-5.59235,-4.47388,323.3, -5.2, -13.6,0,0,1684,364,1684,364,100,-100,100,-100,329.7,0,0,51,3.817,3.808,0,0,0,0,5.24,111.2,55.648407620644,34.120736,38,Tripod,
576200,2023-12-29 04:38:00,-34.9577516550598,-54.9435375854435,34.776904,41.7979016,15.490926020644,56.304575620644,31.824148,8.0753534,39.035106236,48.320539604,22,5,7.618,56.304575620644,34.776904,8.5674802,39.035106236,5.59235,-5.816044,-4.250186,321, -5.1, -13.2,0,0,1684,364,1684,364,100,-100,100,-100,327.3,0,0,51,3.815,3.811,0,0,0,0,6.57,111.2,56.304575620644,34.776904,38,Tripod,
576300,2023-12-29 04:38:00,-34.9577496002501,-54.9435402699569,35.104988,42.2572192,15.359692420644,56.632659620644,31.824148,8.2319392,40.133203384,49.418964836,22,5,7.618,56.632659620644,35.104988,8.5674802,40.133203384,5.59235,-6.039738,-4.250186,318.7, -4.6, -12.1,0,0,1684,364,1684,364,100,-100,100,-100,325,0,0,51,3.815,3.811,0,0,0,0,6.57,111.2,56.632659620644,35.104988,38,Tripod,
576400,2023-12-29 04:38:00,-34.9577478295387,-54.9435429150939,35.761156,43.0774292,15.195650420644,57.288827620644,31.824148,8.0753534,41.15321654,50.440290328,22,5,7.618,57.288827620644,35.761156,8.5674802,41.15321654,5.368656,-6.039738,-4.47388,316.3, -3.9, -13,0,0,1684,364,1684,364,100,-100,100,-100,322.6,0,0,51,3.815,3.811,0,0,0,0,6.57,111.2,57.288827620644,35.761156,38,Tripod,
576500,2023-12-29 04:38:00,-34.9577457335294,-54.9435458604091,36.08924,43.5695552,15.031608420644,57.616911620644,31.824148,8.0977228,42.31955516,51.606628948,22,5,7.618,57.616911620644,36.08924,8.5674802,42.31955516,5.144962,-6.263432,-4.47388,314.2, -5.4, -13.4,0,0,1684,364,1684,364,100,-100,100,-100,320.2,0,0,51,3.815,3.811,0,0,0,0,6.57,111.2,57.616911620644,36.08924,38,Tripod,
576600,2023-12-29 04:38:00,-34.957743653824,-54.9435490112926,36.417324,44.0616812,14.867566420644,57.944995620644,31.824148,7.9635064,43.527888532,52.816274656,22,5,7.618,57.944995620644,36.417324,8.5674802,43.527888532,4.921268,-6.263432,-4.250186,311.9, -6.5, -13.7,0,0,1684,364,1684,364,100,-100,100,-100,317.8,0,0,51,3.815,3.811,0,0,0,0,6.57,111.2,57.944995620644,36.417324,38,Tripod,
576700,2023-12-29 04:38:00,-34.9577417505898,-54.9435520586916,37.073492,44.8490828,14.736332820644,58.601163620644,31.824148,8.0082452,44.669948936,53.961943984,21,5,7.618,58.601163620644,37.073492,8.5674802,44.669948936,4.697574,-6.487126,-4.250186,309.5, -6.2, -14,0,0,1684,364,1684,364,100,-100,100,-100,315.4,0,0,51,3.815,3.811,0,0,0,0,6.57,111.2,58.601163620644,37.073492,38,Tripod,
576800,2023-12-29 04:38:01,-34.9577399207073,-54.9435554057776,37.401576,45.3412088,14.572290820644,58.929247620644,31.824148,7.8740288,45.861878108,55.165028012,21,5,7.618,58.929247620644,37.401576,8.5674802,45.861878108,4.47388,-6.487126,-4.250186,307.5, -7.4, -14.2,0,0,1684,364,1684,364,100,-100,100,-100,313,0,0,51,3.815,3.811,0,0,0,0,6.57,111.2,58.929247620644,37.401576,38,Tripod,
576900,2023-12-29 04:38:01,-34.9577381916581,-54.9435585464799,37.72966,45.8661432,14.375440420644,59.257331620644,31.824148,7.7621818,46.983597304,56.296589728,22,5,7.618,59.257331620644,37.72966,8.5674802,46.983597304,4.250186,-6.487126,-4.026492,305.1, -8.8, -14.2,0,0,1684,364,1684,364,100,-100,100,-100,310.6,0,0,51,3.815,3.811,0,0,0,0,6.57,111.2,59.257331620644,37.72966,38,Tripod,
577000,2023-12-29 04:38:01,-34.9577365415232,-54.9435619472524,38.057744,46.3254608,14.244206820644,59.585415620644,31.824148,7.717443,48.145670832,57.478348296,22,5,7.618,59.585415620644,38.057744,8.5674802,48.145670832,3.802798,-6.71082,-4.026492,302.8, -9.5, -12.9,0,0,1684,364,1684,364,100,-100,100,-100,308.2,0,0,51,3.815,3.811,0,0,0,0,6.57,111.2,59.585415620644,38.057744,38,Tripod,
577100,2023-12-29 04:38:01,-34.9577349890689,-54.9435653946033,38.713912,47.1128624,14.112973220644,60.241583620644,31.824148,7.717443,49.295605252,58.654529436,22,5,7.618,60.241583620644,38.713912,8.5674802,49.295605252,3.802798,-6.71082,-4.250186,300.9, -10.6, -12.8,0,0,1684,364,1684,364,100,-100,100,-100,305.8,0,0,51,3.815,3.811,0,0,0,0,6.57,111.2,60.241583620644,38.713912,38,Tripod,
577200,2023-12-29 04:38:01,-34.9577339751215,-54.9435688015953,39.041996,47.6049884,13.948931220644,60.569667620644,31.824148,7.605596,50.310697148,59.738190888,22,5,7.627,60.569667620644,39.041996,8.5674802,50.310697148,3.579104,-6.71082,-4.250186,298.3, -11.2, -13.8,0,0,1684,364,1684,364,100,-100,100,-100,303.4,0,0,50,3.823,3.818,0,0,0,0,5.775,111.2,60.569667620644,39.041996,38,Tripod,
577300,2023-12-29 04:38:01,-34.9577326629734,-54.943572272894,39.698164,48.39239,13.817697620644,61.225835620644,31.824148,7.6950736,51.413059388,60.881235544,22,5,7.627,61.225835620644,39.698164,8.5674802,51.413059388,3.35541,-6.934514,-4.026492,295.8, -12, -14.1,0,0,1684,364,1684,364,100,-100,100,-100,301,0,0,50,3.823,3.818,0,0,0,0,5.775,111.2,61.225835620644,39.698164,38,Tripod,
577400,2023-12-29 04:38:01,-34.9577314339281,-54.9435758436738,40.026248,48.884516,13.653655620644,61.553919620644,31.824148,7.8069206,52.520670972,62.039372064,22,5,7.627,61.553919620644,40.026248,8.5674802,52.520670972,3.131716,-7.158208,-4.250186,293, -10.5, -14.2,0,0,1684,364,1684,364,100,-100,100,-100,298.6,0,0,50,3.823,3.818,0,0,0,0,5.775,111.2,61.553919620644,40.026248,38,Tripod,
577500,2023-12-29 04:38:01,-34.9577302507919,-54.9435796488616,40.354332,49.376642,13.489613620644,61.882003620644,31.824148,7.6503348,53.674214316,63.25623562,22,5,7.627,61.882003620644,40.354332,8.5674802,53.674214316,2.684328,-7.158208,-4.250186,290.5, -10.7, -12.4,0,0,1684,364,1684,364,100,-100,100,-100,296.2,0,0,50,3.823,3.818,0,0,0,0,5.775,111.2,61.882003620644,40.354332,38,Tripod,
577600,2023-12-29 04:38:01,-34.9577292911564,-54.9435832807494,41.0105,50.1312352,13.391188420644,62.538171620644,31.824148,7.7845512,54.73917498,64.397311772,22,5,7.627,62.538171620644,41.0105,8.5674802,54.73917498,2.460634,-7.381902,-4.47388,288.2, -12, -12.4,0,0,1684,364,1684,364,100,-100,100,-100,293.8,0,0,50,3.823,3.818,0,0,0,0,5.775,111.2,62.538171620644,41.0105,38,Tripod,
577700,2023-12-29 04:38:01,-34.9577285225829,-54.9435876689626,41.338584,50.6233612,13.227146420644,62.866255620644,31.824148,7.9187676,55.94160284,65.739175332,22,5,7.627,62.866255620644,41.338584,8.5674802,55.94160284,2.23694,-7.605596,-4.250186,285.7, -11.8, -12.3,0,0,1684,364,1684,364,100,-100,100,-100,291.4,0,0,50,3.823,3.818,0,0,0,0,5.775,111.2,62.866255620644,41.338584,38,Tripod,
577800,2023-12-29 04:38:02,-34.9577277203984,-54.9435914762933,41.994752,51.4107628,13.095912820644,63.522423620644,31.824148,7.8740288,57.020014948,66.914700304,22,5,7.627,63.522423620644,41.994752,8.5674802,57.020014948,2.013246,-7.605596,-4.250186,283.2, -11.3, -11.4,0,0,1684,364,1684,364,100,-100,100,-100,289,0,0,50,3.823,3.818,0,0,0,0,5.775,111.2,63.522423620644,41.994752,38,Tripod,
577900,2023-12-29 04:38:02,-34.9577269658426,-54.9435955046626,42.322836,51.9028888,12.931870820644,63.850507620644,31.824148,7.7621818,58.1446869,68.150264648,22,5,7.627,63.850507620644,42.322836,8.5674802,58.1446869,1.565858,-7.605596,-4.250186,280.8, -11.4, -12.5,0,0,1684,364,1684,364,100,-100,100,-100,286.6,0,0,50,3.823,3.818,0,0,0,0,5.775,111.2,63.850507620644,42.322836,38,Tripod,
578000,2023-12-29 04:38:02,-34.9577264471897,-54.9435993011222,42.979004,52.6902904,12.800637220644,64.506675620644,31.824148,7.717443,59.166340476,69.30118332,22,5,7.627,64.506675620644,42.979004,8.5674802,59.166340476,1.342164,-7.605596,-3.802798,278.6, -12.2, -11.7,0,0,1684,364,1684,364,100,-100,100,-100,284.2,0,0,50,3.823,3.818,0,0,0,0,5.775,111.2,64.506675620644,42.979004,38,Tripod,
578100,2023-12-29 04:38:02,-34.9577261619645,-54.9436035718857,43.307088,53.1824164,12.636595220644,64.834759620644,31.824148,7.6950736,60.25754786,70.582679424,23,5,7.627,64.834759620644,43.307088,8.5674802,60.25754786,1.11847,-7.605596,-3.802798,276.6, -14.2, -12.5,0,0,1684,364,1684,364,100,-100,100,-100,281.8,0,0,50,3.823,3.818,0,0,0,0,5.775,111.2,64.834759620644,43.307088,38,Tripod,
578200,2023-12-29 04:38:02,-34.9577259539666,-54.9436074058401,43.963256,53.9042012,12.570978420644,65.490927620644,31.824148,7.6503348,61.233269676,71.731629592,23,5,7.626,65.490927620644,43.963256,8.5674802,61.233269676,0.894776,-7.605596,-3.579104,274.1, -14.1, -11.1,0,0,1684,364,1684,364,100,-100,100,-100,279.4,0,0,50,3.823,3.817,0,0,0,0,5.459,111.2,65.490927620644,43.963256,38,Tripod,
578300,2023-12-29 04:38:02,-34.9577258202387,-54.9436114519482,44.619424,54.6916028,12.439744820644,66.147095620644,31.824148,7.8516594,62.251314328,72.942259552,23,5,7.626,66.147095620644,44.619424,8.5674802,62.251314328,0.671082,-7.82929,-3.802798,271.7, -13.2, -11.5,0,0,1684,364,1684,364,100,-100,100,-100,277,0,0,50,3.823,3.817,0,0,0,0,5.459,111.2,66.147095620644,44.619424,38,Tripod,
578400,2023-12-29 04:38:02,-34.9577258274951,-54.9436151724878,45.603676,55.6758548,12.439744820644,67.131347620644,31.824148,7.82929,63.166996772,74.054792396,23,5,7.626,67.131347620644,45.603676,8.5674802,63.166996772,0.223694,-7.82929,-4.250186,269.1, -11.9, -11.3,0,0,1684,364,1684,364,100,-100,100,-100,274.6,0,0,50,3.823,3.817,0,0,0,0,5.459,111.2,67.131347620644,45.603676,38,Tripod,
578500,2023-12-29 04:38:02,-34.9577264318953,-54.9436191065504,46.259844,56.3320228,12.439744820644,67.787515620644,31.824148,7.605596,64.021655592,75.251642828,22,5,7.626,67.787515620644,46.259844,8.5674802,64.021655592,0,-7.605596,-4.47388,266.5, -11.9, -11.8,0,0,1684,364,1684,364,100,-100,100,-100,272.2,0,0,50,3.823,3.817,0,0,0,0,5.459,111.2,67.787515620644,46.259844,38,Tripod,
578600,2023-12-29 04:38:02,-34.9577265290548,-54.9436228168774,46.916012,56.9881908,12.439744820644,68.443683620644,31.824148,7.605596,64.93110444,76.361879084,22,5,7.626,68.443683620644,46.916012,8.5674802,64.93110444,0,-7.605596,-4.47388,264.5, -14.1, -11.8,0,0,1684,364,1684,364,100,-100,100,-100,269.8,0,0,50,3.823,3.817,0,0,0,0,5.459,111.2,68.443683620644,46.916012,38,Tripod,
578700,2023-12-29 04:38:02,-34.9577267252628,-54.9436266597482,47.57218,57.6443588,12.439744820644,69.099851620644,31.824148,7.381902,65.860894496,77.51312584,22,5,7.626,69.099851620644,47.57218,8.5674802,65.860894496,-0.223694,-7.381902,-4.47388,261.7, -14.1, -11.7,0,0,1684,364,1684,364,100,-100,100,-100,267.4,0,0,50,3.823,3.817,0,0,0,0,5.459,111.2,69.099851620644,47.57218,38,Tripod,
578800,2023-12-29 04:38:03,-34.9577270802636,-54.9436302959426,48.556432,58.6286108,12.439744820644,70.084103620644,31.824148,7.4042714,66.714569064,78.607942148,22,5,7.626,70.084103620644,48.556432,8.5674802,66.714569064,-0.671082,-7.381902,-4.250186,259.5, -14.9, -10.9,0,0,1684,364,1684,364,100,-100,100,-100,265,0,0,50,3.823,3.817,0,0,0,0,5.459,111.2,70.084103620644,48.556432,38,Tripod,
578900,2023-12-29 04:38:03,-34.9577276374129,-54.9436342302143,49.2126,59.2519704,12.472553220644,70.740271620644,31.824148,7.2029468,67.613519224,79.801839824,22,5,7.626,70.740271620644,49.2126,8.5674802,67.613519224,-0.894776,-7.158208,-4.250186,257.4, -16.4, -9.3,0,0,1684,364,1684,364,100,-100,100,-100,262.6,0,0,50,3.823,3.817,0,0,0,0,5.459,111.2,70.740271620644,49.2126,38,Tripod,
579000,2023-12-29 04:38:03,-34.9577282430377,-54.9436378376212,49.868768,59.9081384,12.472553220644,71.396439620644,31.824148,7.2476856,68.42847988,80.902889728,22,5,7.626,71.396439620644,49.868768,8.5674802,68.42847988,-1.11847,-7.158208,-4.250186,254.8, -16.5, -10.1,0,0,1684,364,1684,364,100,-100,100,-100,260.2,0,0,50,3.823,3.817,0,0,0,0,5.459,111.2,71.396439620644,49.868768,38,Tripod,
579100,2023-12-29 04:38:03,-34.957728974157,-54.94364159668,50.85302,60.859582,12.505361620644,72.380691620644,31.824148,7.2476856,69.267718752,82.058401576,23,5,7.626,72.380691620644,50.85302,8.5674802,69.267718752,-1.565858,-7.158208,-4.47388,252.2, -15.2, -10,0,0,1684,364,1684,364,100,-100,100,-100,257.8,0,0,50,3.823,3.817,0,0,0,0,5.459,111.2,72.380691620644,50.85302,38,Tripod,
579200,2023-12-29 04:38:03,-34.957729765216,-54.9436451423726,51.509188,61.4829416,12.538170020644,73.036859620644,31.824148,7.381902,70.049542924,83.157154892,23,5,7.572,73.036859620644,51.509188,8.5674802,70.049542924,-1.789552,-7.158208,-4.697574,250.2, -15.6, -9.2,0,0,1684,364,1684,364,100,-100,100,-100,255.4,0,0,50,3.789,3.781,0,0,0,0,6.5,111.2,73.036859620644,51.509188,38,Tripod,
579300,2023-12-29 04:38:03,-34.9577306805318,-54.9436488340515,52.165356,62.1391096,12.538170020644,73.693027620644,31.824148,7.2253162,70.856629564,84.310370152,22,5,7.572,73.693027620644,52.165356,8.5674802,70.856629564,-2.013246,-6.934514,-4.697574,247.5, -15.8, -9.3,0,0,1684,364,1684,364,100,-100,100,-100,253,0,0,50,3.789,3.781,0,0,0,0,6.5,111.2,73.693027620644,52.165356,38,Tripod,
579400,2023-12-29 04:38:03,-34.9577318397103,-54.9436523672214,52.821524,62.7624692,12.570978420644,74.349195620644,31.824148,7.2253162,71.58956922,85.448493548,22,5,7.572,74.349195620644,52.821524,8.5674802,71.58956922,-2.013246,-6.934514,-4.47388,244.9, -16.4, -10.1,0,0,1684,364,1684,364,100,-100,100,-100,250.6,0,0,50,3.789,3.781,0,0,0,0,6.5,111.2,74.349195620644,52.821524,38,Tripod,
579500,2023-12-29 04:38:03,-34.9577331144823,-54.9436559765726,53.805776,63.7139128,12.603786820644,75.333447620644,31.824148,7.0687304,72.334647984,86.623690436,23,5,7.572,75.333447620644,53.805776,8.5674802,72.334647984,-2.23694,-6.71082,-4.47388,242.7, -17.3, -10.1,0,0,1684,364,1684,364,100,-100,100,-100,248.2,0,0,50,3.789,3.781,0,0,0,0,6.5,111.2,75.333447620644,53.805776,38,Tripod,
579600,2023-12-29 04:38:03,-34.9577342862846,-54.9436591023481,54.461944,64.3700808,12.603786820644,75.989615620644,31.824148,6.934514,72.977692624,87.651577608,23,5,7.572,75.989615620644,54.461944,8.5674802,72.977692624,-2.460634,-6.487126,-4.026492,240.7, -18, -9.5,0,0,1684,364,1684,364,100,-100,100,-100,245.8,0,0,50,3.789,3.781,0,0,0,0,6.5,111.2,75.989615620644,54.461944,38,Tripod,
579700,2023-12-29 04:38:03,-34.9577355970517,-54.9436622911132,55.118112,64.960632,12.669403620644,76.645783620644,31.824148,6.9121446,73.624346188,88.718178692,23,5,7.572,76.645783620644,55.118112,8.5674802,73.624346188,-2.908022,-6.263432,-4.026492,237.7, -17.5, -9.1,0,0,1684,364,1684,364,100,-100,100,-100,243.4,0,0,50,3.789,3.781,0,0,0,0,6.5,111.2,76.645783620644,55.118112,38,Tripod,
579800,2023-12-29 04:38:03,-34.957737431546,-54.9436655137042,56.102364,65.9120756,12.702212020644,77.630035620644,31.824148,6.8002976,74.20931996,89.891407076,23,5,7.572,77.630035620644,56.102364,8.5674802,74.20931996,-3.131716,-6.039738,-4.026492,235.1, -17.2, -8.5,0,0,1684,614,1684,373,100,-62,100,-99,241,0,0,50,3.789,3.781,0,0,0,0,6.5,111.2,77.630035620644,56.102364,38,Tripod,
579900,2023-12-29 04:38:04,-34.9577390670118,-54.9436686792637,56.758532,66.5354352,12.735020420644,78.286203620644,31.824148,7.0239916,74.822508956,91.0105016,23,5,7.572,78.286203620644,56.758532,8.5674802,74.822508956,-3.579104,-6.039738,-4.47388,232.8, -18, -7.1,0,0,1578,1024,1024,1024,84,0,0,0,238.6,0,0,50,3.789,3.781,0,0,0,0,6.5,111.2,78.286203620644,56.758532,38,Tripod,
580000,2023-12-29 04:38:04,-34.9577407000546,-54.9436715730039,57.4147,67.1259864,12.800637220644,78.942371620644,31.824148,6.9568834,75.372705824,92.061026568,23,5,7.572,78.942371620644,57.4147,8.5674802,75.372705824,-3.802798,-5.816044,-4.47388,230.4, -20.4, -2.8,0,0,1514,1024,1024,1024,74,0,0,0,236.6,0,0,50,3.789,3.781,0,0,0,0,6.5,111.2,78.942371620644,57.4147,38,Tripod,
580100,2023-12-29 04:38:04,-34.9577424457009,-54.9436745513088,58.070868,67.7821544,12.800637220644,79.598539620644,31.824148,6.9568834,75.941275396,93.155842876,23,5,7.572,79.598539620644,58.070868,8.5674802,75.941275396,-3.802798,-5.816044,-4.026492,228.1, -21.2, 0.3,0,0,1455,1024,1024,1024,65,0,0,0,235.1,0,0,50,3.789,3.781,0,0,0,0,6.5,111.2,79.598539620644,58.070868,38,Tripod,
580200,2023-12-29 04:38:04,-34.9577444755564,-54.9436778446246,58.727036,68.3727056,12.866254020644,80.254707620644,31.824148,6.7555588,76.569228172,94.38812638,23,5,7.559,80.254707620644,58.727036,8.5674802,76.569228172,-3.802798,-5.59235,-3.131716,226.5, -20.4, 1,0,0,1397,1024,1024,1024,57,0,0,0,234,0,0,50,3.775,3.76,0,0,0,0,7.931,111.2,80.254707620644,58.727036,38,Tripod,
580300,2023-12-29 04:38:04,-34.9577462589045,-54.9436808754034,59.383204,68.9960652,12.899062420644,80.910875620644,31.824148,6.7555588,77.171590396,95.50361198,23,5,7.559,80.910875620644,59.383204,8.5674802,77.171590396,-3.802798,-5.59235,-2.23694,225.4, -18.9, 1.1,0,0,1189,1024,1024,1024,25,0,0,0,233.4,0,0,50,3.775,3.76,0,0,0,0,7.931,111.2,80.910875620644,59.383204,38,Tripod,
580400,2023-12-29 04:38:04,-34.9577479441747,-54.9436834582093,59.711288,69.2585324,12.964679220644,81.238959620644,31.824148,6.6437118,77.67224658,96.490816736,23,5,7.559,81.238959620644,59.711288,8.5674802,77.67224658,-3.579104,-5.59235,-1.342164,225.1, -16.8, 1.9,0,0,1024,1024,1024,1024,0,0,0,0,233.3,0,0,50,3.775,3.76,0,0,0,0,7.931,111.2,81.238959620644,59.711288,38,Tripod,
580500,2023-12-29 04:38:04,-34.9577496729894,-54.9436860987783,60.039372,69.553808,12.997487620644,81.567043620644,31.824148,6.4423872,78.192915888,97.501315456,22,5,7.559,81.567043620644,60.039372,8.5674802,78.192915888,-3.579104,-5.368656,-1.11847,224.9, -14.6, 0.7,0,0,1024,1024,1024,1024,0,0,0,0,233.3,0,0,50,3.775,3.76,0,0,0,0,7.931,111.2,81.567043620644,60.039372,38,Tripod,
580600,2023-12-29 04:38:04,-34.9577515189414,-54.9436881685101,60.039372,69.5209996,13.030296020644,81.567043620644,31.824148,6.4423872,78.54823086,98.416013648,22,5,7.559,81.567043620644,60.039372,8.5674802,78.54823086,-3.579104,-5.368656,-1.342164,224.7, -2.3, -1.4,0,0,1024,1024,1024,1024,0,0,0,0,233.3,0,0,50,3.775,3.76,0,0,0,0,7.931,111.2,81.567043620644,60.039372,38,Tripod,
580700,2023-12-29 04:38:04,-34.9577531302672,-54.9436905471275,59.711288,69.1601072,13.063104420644,81.238959620644,31.824148,5.4581336,79.0272335,99.33891394,22,5,7.559,81.567043620644,60.039372,8.5674802,79.0272335,-3.131716,-4.47388,-1.565858,224.3, 12.4, -3.2,0,0,1024,1024,1024,1024,0,0,0,0,233.3,0,0,50,3.775,3.76,0,0,0,0,7.931,111.2,81.238959620644,59.711288,38,Tripod,
580800,2023-12-29 04:38:04,-34.9577544194868,-54.9436923445174,59.711288,69.1272988,13.095912820644,81.238959620644,31.824148,4.6528352,79.38648548,100.053152808,22,5,7.559,81.567043620644,60.039372,8.5674802,79.38648548,-2.684328,-3.802798,-1.342164,224.2, 13.9, -3,0,0,1024,1024,1024,1024,0,0,0,0,233.3,0,0,50,3.775,3.76,0,0,0,0,7.931,111.2,81.238959620644,59.711288,38,Tripod,
580900,2023-12-29 04:38:05,-34.9577555441228,-54.9436938355514,59.383204,68.7664064,13.128721220644,80.910875620644,31.824148,3.8475368,79.68176108,100.659123956,23,5,7.559,81.567043620644,60.039372,8.5674802,79.68176108,-2.23694,-3.131716,-0.894776,224, 14.8, -3.6,0,0,1024,1024,1024,1024,0,0,0,0,233.3,0,0,50,3.775,3.76,0,0,0,0,7.931,111.2,80.910875620644,59.383204,38,Tripod,
581000,2023-12-29 04:38:05,-34.9577565030614,-54.9436952102227,59.383204,68.733598,13.161529620644,80.910875620644,31.824148,3.1764548,79.96555374,101.198822136,23,5,7.559,81.567043620644,60.039372,8.5674802,79.96555374,-2.013246,-2.460634,-0.447388,224.3, 12.3, -2.9,0,0,1024,1024,1024,1024,0,0,0,0,233.3,0,0,50,3.775,3.76,0,0,0,0,7.931,111.2,80.910875620644,59.383204,38,Tripod,
581100,2023-12-29 04:38:05,-34.9577572169191,-54.9436961835624,59.05512,68.405514,13.161529620644,80.582791620644,31.824148,2.3711564,80.164372644,101.589242096,24,5,7.559,81.567043620644,60.039372,8.5674802,80.164372644,-1.565858,-1.789552,-0.223694,224.5, 9.9, -1.3,0,0,1024,1024,1024,1024,0,0,0,0,233.3,0,0,50,3.775,3.76,0,0,0,0,7.931,111.2,80.582791620644,59.05512,38,Tripod,
581200,2023-12-29 04:38:05,-34.9577578390368,-54.9436969349644,58.727036,68.0446216,13.194338020644,80.254707620644,31.824148,1.7448132,80.311026192,101.908795912,24,5,7.559,81.567043620644,60.039372,8.5674802,80.311026192,-1.11847,-1.342164,0,225, 8.5, 0.6,0,0,1024,1024,1024,1024,0,0,0,0,233.3,0,0,50,3.775,3.76,0,0,0,0,7.931,111.2,80.254707620644,58.727036,38,Tripod,
581300,2023-12-29 04:38:05,-34.9577583401611,-54.9436974971257,58.070868,67.3884536,13.194338020644,79.598539620644,31.824148,1.2750558,80.417653492,102.1571555,24,5,7.612,81.567043620644,60.039372,8.5674802,80.417653492,-0.894776,-0.894776,0.223694,225, 5.1, 0.7,0,0,1024,1024,1024,1024,0,0,0,0,233.3,0,0,50,3.839,3.829,0,0,0,0,6.038,111.2,79.598539620644,58.070868,38,Tripod,
581400,2023-12-29 04:38:05,-34.9577585751847,-54.9436978968685,57.742784,67.0603696,13.194338020644,79.270455620644,31.824148,0.8052984,80.50689234,102.304137132,24,5,7.612,81.567043620644,60.039372,8.5674802,80.50689234,-0.671082,-0.447388,0.223694,225.5, 3.3, 2.5,0,0,1024,1024,1024,1024,0,0,0,0,233.3,0,0,50,3.839,3.829,0,0,0,0,6.038,111.2,79.270455620644,57.742784,38,Tripod,
581500,2023-12-29 04:38:05,-34.9577584951499,-54.9436984729322,57.4147,66.7322856,13.194338020644,78.942371620644,31.824148,0.6263432,80.680120692,102.479005904,24,5,7.612,81.567043620644,60.039372,8.5674802,80.680120692,-0.447388,-0.447388,0.223694,225.4, 0.3, 1.5,0,0,1024,1024,1024,1024,0,0,0,0,233.3,0,0,50,3.839,3.829,0,0,0,0,6.038,111.2,78.942371620644,57.4147,38,Tripod,
581600,2023-12-29 04:38:05,-34.9577585338027,-54.9436985695178,57.086616,66.4042016,13.194338020644,78.614287620644,31.824148,0.223694,80.70374274,102.511158136,24,5,7.612,81.567043620644,60.039372,8.5674802,80.70374274,-0.223694,0,0,224.9, -1.9, 0.3,0,0,1024,1024,1024,1024,0,0,0,0,233.3,0,0,50,3.839,3.829,0,0,0,0,6.038,111.2,78.614287620644,57.086616,38,Tripod,
581700,2023-12-29 04:38:05,-34.9577584869947,-54.9436985539219,57.086616,66.4042016,13.194338020644,78.614287620644,31.824148,0,80.704070824,102.528874672,24,5,7.612,81.567043620644,60.039372,8.5674802,80.704070824,0,0,0,225.1, -5.7, 0.2,0,0,1024,1024,1024,1024,0,0,0,0,233.3,0,0,50,3.839,3.829,0,0,0,0,6.038,111.2,78.614287620644,57.086616,38,Tripod,
581800,2023-12-29 04:38:05,-34.9577583290617,-54.9436986339708,56.758532,66.0761176,13.194338020644,78.286203620644,31.824148,0,80.744097072,102.591210632,24,5,7.612,81.567043620644,60.039372,8.5674802,80.744097072,0,0,0,225, -7.7, 0.1,0,0,1024,1024,1024,1024,0,0,0,0,233.3,0,0,50,3.839,3.829,0,0,0,0,6.038,111.2,78.286203620644,56.758532,38,Tripod,
581900,2023-12-29 04:38:06,-34.9577579968591,-54.9436990064523,56.758532,66.0761176,13.194338020644,78.286203620644,31.824148,0,80.886157444,102.7559088,24,5,7.612,81.567043620644,60.039372,8.5674802,80.886157444,0,0,-0.223694,225.1, -9.4, 0.8,0,0,1024,1024,1024,1024,0,0,0,0,233.3,0,0,50,3.839,3.829,0,0,0,0,6.038,111.2,78.286203620644,56.758532,38,Tripod,
582000,2023-12-29 04:38:06,-34.9577578983903,-54.9436988827099,56.430448,65.7480336,13.194338020644,77.958119620644,31.824148,0,80.86122306,102.807417988,24,5,7.612,81.567043620644,60.039372,8.5674802,80.886157444,0,0,-0.223694,225.1, -8.5, 1.9,0,0,1024,1024,1024,1024,0,0,0,0,233.3,0,0,50,3.839,3.829,0,0,0,0,6.038,111.2,77.958119620644,56.430448,38,Tripod,
582100,2023-12-29 04:38:06,-34.9577577735147,-54.9436987667028,56.430448,65.7480336,13.194338020644,77.958119620644,31.824148,0,80.84153802,102.864504604,24,5,7.612,81.567043620644,60.039372,8.5674802,80.886157444,0,0,-0.223694,225, -10.1, 1.7,0,0,1024,1024,1024,1024,0,0,0,0,233.3,0,0,50,3.839,3.829,0,0,0,0,6.038,111.2,77.958119620644,56.430448,38,Tripod,
582200,2023-12-29 04:38:06,-34.957757699642,-54.9436985344585,56.102364,65.4199496,13.194338020644,77.630035620644,31.824148,0,80.783139068,102.938979672,24,5,7.612,81.567043620644,60.039372,8.5674802,80.886157444,0,0,-0.223694,224.8, -9.5, 0.4,0,0,1024,1024,1024,1024,0,0,0,0,233.3,0,0,50,3.839,3.829,0,0,0,0,6.038,111.2,77.630035620644,56.102364,38,Tripod,
582300,2023-12-29 04:38:06,-34.9577577896298,-54.9436980047224,56.102364,65.4199496,13.194338020644,77.630035620644,31.824148,0,80.622049824,103.100725084,24,5,7.64,81.567043620644,60.039372,8.5674802,80.886157444,0,0,-0.223694,225, -8.7, -0.5,0,0,1024,1024,1024,1024,0,0,0,0,233.3,0,0,50,3.822,3.816,0,0,0,0,3.7,111.2,77.630035620644,56.102364,38,Tripod,
582400,2023-12-29 04:38:06,-34.9577578504294,-54.9436981020814,56.102364,65.4199496,13.194338020644,77.630035620644,31.824148,0,80.643375284,103.137470492,24,5,7.64,81.567043620644,60.039372,8.5674802,80.886157444,0,0,-0.223694,225, -7.7, 0,0,0,1024,1024,1024,1024,0,0,0,0,233.3,0,0,50,3.822,3.816,0,0,0,0,3.7,111.2,77.630035620644,56.102364,38,Tripod,
582500,2023-12-29 04:38:06,-34.9577579020315,-54.943698194653,56.102364,65.4199496,13.194338020644,77.630035620644,31.824148,0,80.664044576,103.17093506,24,5,7.64,81.567043620644,60.039372,8.5674802,80.886157444,0,0,-0.447388,225, -8.3, -0.5,0,0,1024,1024,1024,1024,0,0,0,0,233.3,0,0,50,3.822,3.816,0,0,0,0,3.7,111.2,77.630035620644,56.102364,38,Tripod,
