time(millisecond),datetime(utc),latitude,longitude,height_above_takeoff(feet),height_above_ground_at_drone_location(feet),ground_elevation_at_drone_location(feet),altitude_above_seaLevel(feet),height_sonar(feet),speed(mph),distance(feet),mileage(feet),satellites,gpslevel,voltage(v),max_altitude(feet),max_ascent(feet),max_speed(mph),max_distance(feet), xSpeed(mph), ySpeed(mph), zSpeed(mph), compass_heading(degrees), pitch(degrees), roll(degrees),isPhoto,isVideo,rc_elevator,rc_aileron,rc_throttle,rc_rudder,rc_elevator(percent),rc_aileron(percent),rc_throttle(percent),rc_rudder(percent),gimbal_heading(degrees),gimbal_pitch(degrees),gimbal_roll(degrees),battery_percent,voltageCell1,voltageCell2,voltageCell3,voltageCell4,voltageCell5,voltageCell6,current(A),battery_temperature(f),altitude(feet),ascent(feet),flycStateRaw,flycState,message
76700,2022-08-15 23:29:20,0,0,0,,,3.28084E-5,0.328084,0,0,0,0,0,0,3.28084E-5,0,0,0,0,0,0,187.1, 2.9, 0.3,0,0,364,364,364,1684,-100,-100,-100,100,183.8,0,0,93,4.273,4.267,0,0,0,0,0,79.52,3.28084E-5,0,41,Motors_Started,"En vuelo"
76800,2022-08-15 23:29:20,0,0,0,,,3.28084E-5,0.328084,0,0,0,0,0,0,3.28084E-5,0,0,0,0,0,0,187.1, 2.9, 0.3,0,0,364,364,364,1684,-100,-100,-100,100,183.8,0,0,93,4.273,4.267,0,0,0,0,0,79.52,3.28084E-5,0,41,Motors_Started,"Setting new Return-To-Home altitude to 15m (49 ft). Data Recorder File Index is 72. Setting new Maximum Flight Altitude to 30m (98 ft)"
76900,2022-08-15 23:29:20,0,0,0,,,3.28084E-5,0.328084,0,0,0,0,0,0,3.28084E-5,0,0,0,0,0,0,187.1, 2.9, 0.3,0,0,364,364,364,1684,-100,-100,-100,100,183.8,0,0,93,4.273,4.267,0,0,0,0,0,79.52,3.28084E-5,0,41,Motors_Started,
77000,2022-08-15 23:29:20,0,0,0,,,3.28084E-5,0.328084,0,0,0,0,0,0,3.28084E-5,0,0,0,0,0,0,187.1, 2.9, 0.3,0,0,364,364,364,1684,-100,-100,-100,100,183.8,0,0,93,4.273,4.267,0,0,0,0,0,79.52,3.28084E-5,0,41,Motors_Started,
77100,2022-08-15 23:29:20,0,0,0,,,3.28084E-5,0.328084,0,0,0,0,0,0,3.28084E-5,0,0,0,0,0,0,187.1, 2.9, 0.3,0,0,364,364,364,1684,-100,-100,-100,100,183.8,0,0,93,4.273,4.267,0,0,0,0,0,79.52,3.28084E-5,0,41,Motors_Started,
77200,2022-08-15 23:29:21,0,0,0,,,3.28084E-5,0.328084,0,0,0,0,0,0,3.28084E-5,0,0,0,0,0,0,187.1, 2.9, 0.3,0,0,1024,1024,984,1057,0,0,-6,5,183.8,0,0,93,4.273,4.267,0,0,0,0,0,79.52,3.28084E-5,0,41,Motors_Started,
77300,2022-08-15 23:29:21,0,0,0,,,3.28084E-5,0.328084,0,0,0,0,0,0,3.28084E-5,0,0,0,0,0,0,187.1, 2.9, 0.3,0,0,1024,1024,984,1057,0,0,-6,5,183.8,0,0,93,4.273,4.267,0,0,0,0,0,79.52,3.28084E-5,0,41,Motors_Started,
77400,2022-08-15 23:29:21,0,0,0,,,3.28084E-5,0.328084,0,0,0,0,0,0,3.28084E-5,0,0,0,0,0,0,187.1, 2.9, 0.3,0,0,1024,1024,1024,1024,0,0,0,0,183.8,0,0,93,4.273,4.267,0,0,0,0,0,79.52,3.28084E-5,0,41,Motors_Started,
77500,2022-08-15 23:29:21,0,0,0,,,3.28084E-5,0.328084,0,0,0,0,0,0,3.28084E-5,0,0,0,0,0,0,187.1, 2.9, 0.3,0,0,1024,1024,1024,1024,0,0,0,0,183.8,0,0,93,4.273,4.267,0,0,0,0,0,79.52,3.28084E-5,0,41,Motors_Started,
77600,2022-08-15 23:29:21,0,0,0,,,3.28084E-5,0.328084,0,0,0,0,0,0,3.28084E-5,0,0,0,0,0,0,187.1, 2.9, 0.3,0,0,1024,1024,1024,1024,0,0,0,0,183.8,0,0,93,4.273,4.267,0,0,0,0,0,79.52,3.28084E-5,0,41,Motors_Started,
77700,2022-08-15 23:29:21,0,0,0,,,3.28084E-5,0.328084,0,0,0,0,0,0,3.28084E-5,0,0,0,0,0,0,187.1, 2.9, 0.3,0,0,1024,1024,1024,1024,0,0,0,0,183.9,0,0,93,4.273,4.267,0,0,0,0,0,79.52,3.28084E-5,0,41,Motors_Started,
77800,2022-08-15 23:29:21,0,0,-0.328084,,,-0.3280511916,0.328084,0,0,0,0,0,8.54,3.28084E-5,0,0,0,0,0,0,187.1, 2.9, 0.2,0,0,1024,1024,1024,1024,0,0,0,0,183.9,0,0,93,4.26,4.253,0,0,0,0,0.546,79.52,-0.3280511916,-0.328084,10,Assisted_Takeoff,
77900,2022-08-15 23:29:21,0,0,-0.328084,,,-0.3280511916,0.328084,0,0,0,0,0,8.54,3.28084E-5,0,0,0,0,0,0,187.1, 2.9, 0.3,0,0,1024,1024,1024,1024,0,0,0,0,183.9,0,0,93,4.26,4.253,0,0,0,0,0.546,79.52,-0.3280511916,-0.328084,10,Assisted_Takeoff,
78000,2022-08-15 23:29:21,0,0,-0.328084,,,-0.3280511916,0.328084,0,0,0,0,0,8.54,3.28084E-5,0,0,0,0,0,0,187.2, 2.9, 0.3,0,0,1024,1024,1024,1024,0,0,0,0,183.9,0,0,93,4.26,4.253,0,0,0,0,0.546,79.52,-0.3280511916,-0.328084,10,Assisted_Takeoff,
78100,2022-08-15 23:29:21,0,0,-0.328084,,,-0.3280511916,0.328084,0,0,0,0,0,8.54,3.28084E-5,0,0,0,0,0,0,187.2, 2.9, 0.3,0,0,1024,1024,1024,1024,0,0,0,0,183.9,0,0,93,4.26,4.253,0,0,0,0,0.546,79.52,-0.3280511916,-0.328084,10,Assisted_Takeoff,
78200,2022-08-15 23:29:22,0,0,-0.328084,,,-0.3280511916,0.328084,0,0,0,0,0,8.54,3.28084E-5,0,0,0,0,0,0,187.1, 2.9, 0.3,0,0,1024,1024,1024,1024,0,0,0,0,183.9,0,0,93,4.26,4.253,0,0,0,0,0.546,79.52,-0.3280511916,-0.328084,10,Assisted_Takeoff,
78300,2022-08-15 23:29:22,0,0,-0.328084,,,-0.3280511916,0.328084,0,0,0,0,0,8.54,3.28084E-5,0,0,0,0,0,0,187.1, 2.9, 0.3,0,0,1024,1024,1024,1024,0,0,0,0,183.9,0,0,93,4.26,4.253,0,0,0,0,0.546,79.52,-0.3280511916,-0.328084,10,Assisted_Takeoff,
78400,2022-08-15 23:29:22,0,0,-0.328084,,,-0.3280511916,0.328084,0,0,0,0,0,8.54,3.28084E-5,0,0,0,0,0,0,187.2, 2.9, 0.3,0,0,1024,1024,1024,1024,0,0,0,0,183.9,0,0,93,4.26,4.253,0,0,0,0,0.546,79.52,-0.3280511916,-0.328084,10,Assisted_Takeoff,
78500,2022-08-15 23:29:22,0,0,-0.328084,,,-0.3280511916,0.328084,0,0,0,0,0,8.54,3.28084E-5,0,0,0,0,0,0,187.2, 2.9, 0.3,0,0,1024,1024,1024,1024,0,0,0,0,183.9,0,0,93,4.26,4.253,0,0,0,0,0.546,79.52,-0.3280511916,-0.328084,10,Assisted_Takeoff,
78600,2022-08-15 23:29:22,0,0,-0.328084,,,-0.3280511916,0.328084,0,0,0,0,0,8.54,3.28084E-5,0,0,0,0,0,0,187.2, 2.9, 0.3,0,0,1024,1024,1024,1024,0,0,0,0,183.9,0,0,93,4.26,4.253,0,0,0,0,0.546,79.52,-0.3280511916,-0.328084,10,Assisted_Takeoff,
78700,2022-08-15 23:29:22,0,0,-0.328084,,,-0.3280511916,0.328084,0,0,0,0,0,8.54,3.28084E-5,0,0,0,0,0,0,187.2, 3, 0.2,0,0,1024,1024,1024,1024,0,0,0,0,183.9,0,0,93,4.26,4.253,0,0,0,0,0.546,79.52,-0.3280511916,-0.328084,10,Assisted_Takeoff,
78800,2022-08-15 23:29:22,0,0,-0.328084,,,-0.3280511916,0.328084,0,0,0,0,0,8.498,3.28084E-5,0,0,0,0,0,0,187.3, 2.9, 0.3,0,0,1024,1024,1024,1024,0,0,0,0,183.9,0,0,93,4.258,4.251,0,0,0,0,1.344,79.7,-0.3280511916,-0.328084,10,Assisted_Takeoff,
78900,2022-08-15 23:29:22,0,0,-0.328084,,,-0.3280511916,0.328084,0,0,0,0,0,8.498,3.28084E-5,0,0,0,0,0,0,187.3, 2.9, 0.3,0,0,1024,1024,1425,1024,0,0,61,0,183.9,0,0,93,4.258,4.251,0,0,0,0,1.344,79.7,-0.3280511916,-0.328084,10,Assisted_Takeoff,
79100,2022-08-15 23:29:22,0,0,-0.328084,,,-0.3280511916,0.328084,0,0,0,0,0,8.498,3.28084E-5,0,0,0,0,0,0,187.3, 2.9, 0.3,0,0,1024,1024,1322,1024,0,0,45,0,184,0,0,93,4.258,4.251,0,0,0,0,1.344,79.7,-0.3280511916,-0.328084,10,Assisted_Takeoff,
79200,2022-08-15 23:29:23,0,0,-0.328084,,,-0.3280511916,0.328084,0,0,0,0,0,8.498,3.28084E-5,0,0,0,0,0,0,187.2, 2.9, 0.3,0,0,1024,1024,1024,1024,0,0,0,0,184,0,0,93,4.258,4.251,0,0,0,0,1.344,79.7,-0.3280511916,-0.328084,10,Assisted_Takeoff,
79300,2022-08-15 23:29:23,0,0,-0.328084,,,-0.3280511916,0.328084,0,0,0,0,0,8.498,3.28084E-5,0,0,0,0,0,0,186.9, 2.9, 0.3,0,0,1024,1024,1024,1024,0,0,0,0,183.9,0,0,93,4.258,4.251,0,0,0,0,1.344,79.7,-0.3280511916,-0.328084,10,Assisted_Takeoff,
79400,2022-08-15 23:29:23,0,0,-0.328084,,,-0.3280511916,0.328084,0,0,0,0,0,8.498,3.28084E-5,0,0,0,0,0,0,186.5, 2.9, 0.3,0,0,1024,1024,1024,1024,0,0,0,0,183.7,0,0,93,4.258,4.251,0,0,0,0,1.344,79.7,-0.3280511916,-0.328084,10,Assisted_Takeoff,
79500,2022-08-15 23:29:23,0,0,-0.328084,,,-0.3280511916,0.328084,0,0,0,0,0,8.498,3.28084E-5,0,0,0,0,0,0,185.7, 2.9, 0.3,0,0,1024,1024,1024,1024,0,0,0,0,183.1,0,0,93,4.258,4.251,0,0,0,0,1.344,79.7,-0.3280511916,-0.328084,10,Assisted_Takeoff,
79600,2022-08-15 23:29:23,0,0,-0.328084,,,-0.3280511916,0.328084,0,0,0,0,0,8.498,3.28084E-5,0,0,0,0,0,0,185.4, 2.9, 0.3,0,0,1024,1024,1201,1024,0,0,27,0,182.6,0,0,93,4.258,4.251,0,0,0,0,1.344,79.7,-0.3280511916,-0.328084,10,Assisted_Takeoff,
79700,2022-08-15 23:29:23,0,0,-0.328084,,,-0.3280511916,0.328084,0,0,0,0,0,8.498,3.28084E-5,0,0,0,0,0,0,185.4, 2.9, 0.3,0,0,1024,1024,1409,1024,0,0,58,0,182.4,0,0,93,4.258,4.251,0,0,0,0,1.344,79.7,-0.3280511916,-0.328084,10,Assisted_Takeoff,
79800,2022-08-15 23:29:23,0,0,-0.328084,,,-0.3280511916,0.328084,0,0,0,0,0,8.517,3.28084E-5,0,0,0,0,0,0,185.4, 2.8, 0.3,0,0,1024,1024,1418,1024,0,0,60,0,182.3,0,0,93,4.263,4.256,0,0,0,0,1.144,79.7,-0.3280511916,-0.328084,10,Assisted_Takeoff,
79900,2022-08-15 23:29:23,0,0,-0.328084,,,-0.3280511916,0.328084,0,0,0,0,0,8.517,3.28084E-5,0,0,0,0,0,0,185.3, 2.9, 0.3,0,0,1024,1024,1411,1024,0,0,59,0,182.3,0,0,93,4.263,4.256,0,0,0,0,1.144,79.7,-0.3280511916,-0.328084,10,Assisted_Takeoff,
80000,2022-08-15 23:29:23,0,0,-0.328084,,,-0.3280511916,0.328084,0,0,0,0,0,8.517,3.28084E-5,0,0,0,0,0,0,184.9, 2.2, 0.2,0,0,1024,1024,1407,1024,0,0,58,0,182.1,0,0,93,4.263,4.256,0,0,0,0,1.144,79.7,-0.3280511916,-0.328084,10,Assisted_Takeoff,
80100,2022-08-15 23:29:24,0,0,-0.328084,,,-0.3280511916,0.328084,0,0,0,0,0,8.517,3.28084E-5,0,0,0,0,0,0,184.5, -0.8, 0.3,0,0,1024,1024,1345,1024,0,0,49,0,181.8,0,0,93,4.263,4.256,0,0,0,0,1.144,79.7,-0.3280511916,-0.328084,10,Assisted_Takeoff,
80200,2022-08-15 23:29:24,0,0,-0.328084,,,-0.3280511916,0.328084,0,0,0,0,0,8.517,3.28084E-5,0,0,0,0,0,-0.223694,184.3, -0.8, -0.4,0,0,1024,1024,1345,1024,0,0,49,0,181.6,0,0,93,4.263,4.256,0,0,0,0,1.144,79.7,-0.3280511916,-0.328084,6,P-GPS,
80300,2022-08-15 23:29:24,0,0,-0.328084,,,-0.3280511916,0.328084,0,0,0,0,0,8.517,3.28084E-5,0,0,0,0,0,-0.671082,184.6, -0.6, 0,0,0,1024,1024,1024,1024,0,0,0,0,181.6,0,0,93,4.263,4.256,0,0,0,0,1.144,79.7,-0.3280511916,-0.328084,6,P-GPS,
80400,2022-08-15 23:29:24,0,0,0,,,3.28084E-5,0.656168,0,0,0,0,0,8.517,3.28084E-5,0,0,0,0,0,-0.894776,185, 0, 0.3,0,0,1024,1024,1024,1024,0,0,0,0,181.6,0,0,93,4.263,4.256,0,0,0,0,1.144,79.7,3.28084E-5,0,6,P-GPS,
80500,2022-08-15 23:29:24,0,0,0,,,3.28084E-5,0.656168,0,0,0,0,0,8.517,3.28084E-5,0,0,0,0,0,-0.894776,185, 0, 0.2,0,0,1024,1024,1024,1024,0,0,0,0,181.6,0,0,93,4.263,4.256,0,0,0,0,1.144,79.7,3.28084E-5,0,6,P-GPS,
80600,2022-08-15 23:29:24,0,0,0,,,3.28084E-5,0.656168,0,0,0,0,0,8.517,3.28084E-5,0,0,0,0,0,-0.894776,184.9, 0.1, 0.3,0,0,1024,1024,1024,1024,0,0,0,0,181.6,0,0,93,4.263,4.256,0,0,0,0,1.144,79.7,3.28084E-5,0,6,P-GPS,
80700,2022-08-15 23:29:24,0,0,0,,,3.28084E-5,0.984252,0,0,0,0,0,8.517,3.28084E-5,0,0,0,0,0,-0.894776,184.9, 0.1, 0.1,0,0,1024,1024,1024,1024,0,0,0,0,181.6,0,0,93,4.263,4.256,0,0,0,0,1.144,79.7,3.28084E-5,0,6,P-GPS,
80800,2022-08-15 23:29:24,0,0,0,,,3.28084E-5,0.984252,0,0,0,0,0,8.468,3.28084E-5,0,0,0,0,0,-0.894776,184.9, 0.3, 0.1,0,0,1024,1024,1024,1024,0,0,0,0,181.6,0,0,93,4.232,4.22,0,0,0,0,1.916,79.7,3.28084E-5,0,6,P-GPS,
80900,2022-08-15 23:29:24,0,0,0.328084,,,0.3281168084,1.312336,0,0,0,0,0,8.468,0.3281168084,0.328084,0,0,0,0,-0.894776,184.8, 0, 0.1,0,0,1024,1024,1024,1024,0,0,0,0,181.6,0,0,93,4.232,4.22,0,0,0,0,1.916,79.7,0.3281168084,0.328084,6,P-GPS,
81000,2022-08-15 23:29:24,0,0,0.328084,,,0.3281168084,1.312336,0,0,0,0,0,8.468,0.3281168084,0.328084,0,0,0,0,-0.894776,184.8, -0.1, 0,0,0,1024,1024,1024,1024,0,0,0,0,181.6,0,0,93,4.232,4.22,0,0,0,0,1.916,79.7,0.3281168084,0.328084,6,P-GPS,
81100,2022-08-15 23:29:25,0,0,0.656168,,,0.6562008084,1.312336,0,0,0,0,0,8.468,0.6562008084,0.656168,0,0,0,0,-0.671082,184.8, -0.2, 0,0,0,1024,1024,1077,1024,0,0,8,0,181.6,0,0,93,4.232,4.22,0,0,0,0,1.916,79.7,0.6562008084,0.656168,6,P-GPS,
81200,2022-08-15 23:29:25,0,0,0.656168,,,0.6562008084,1.64042,0,0,0,0,0,8.468,0.6562008084,0.656168,0,0,0,0,-0.447388,184.8, -0.1, 0,0,0,1024,1024,1077,1024,0,0,8,0,181.6,0,0,93,4.232,4.22,0,0,0,0,1.916,79.7,0.6562008084,0.656168,6,P-GPS,
81300,2022-08-15 23:29:25,0,0,0.656168,,,0.6562008084,1.64042,0,0,0,0,0,8.468,0.6562008084,0.656168,0,0,0,0,-0.447388,184.8, -0.2, 0.1,0,0,1024,1024,1356,1024,0,0,50,0,181.6,0,0,93,4.232,4.22,0,0,0,0,1.916,79.7,0.6562008084,0.656168,6,P-GPS,
81400,2022-08-15 23:29:25,0,0,0.984252,,,0.9842848084,1.64042,0,0,0,0,0,8.468,0.9842848084,0.984252,0,0,0,0,-0.223694,184.9, -0.1, 0.2,0,0,1024,1024,1442,1024,0,0,63,0,181.6,0,0,93,4.232,4.22,0,0,0,0,1.916,79.7,0.9842848084,0.984252,6,P-GPS,
81500,2022-08-15 23:29:25,0,0,0.984252,,,0.9842848084,1.64042,0,0,0,0,0,8.468,0.9842848084,0.984252,0,0,0,0,-0.671082,184.9, -0.1, 0.1,0,0,1024,1024,1347,1024,0,0,49,0,181.6,0,0,93,4.232,4.22,0,0,0,0,1.916,79.7,0.9842848084,0.984252,6,P-GPS,
81600,2022-08-15 23:29:25,0,0,1.312336,,,1.3123688084,1.968504,0,0,0,0,0,8.468,1.3123688084,1.312336,0,0,0,0,-1.11847,184.9, 0, 0,0,0,1024,1024,1024,1024,0,0,0,0,181.6,0,0,93,4.232,4.22,0,0,0,0,1.916,79.7,1.3123688084,1.312336,6,P-GPS,
81700,2022-08-15 23:29:25,0,0,1.312336,,,1.3123688084,1.968504,0,0,0,0,0,8.468,1.3123688084,1.312336,0,0,0,0,-1.565858,184.8, 0.1, -0.1,0,0,1024,1024,1024,1024,0,0,0,0,181.6,0,0,93,4.232,4.22,0,0,0,0,1.916,79.7,1.3123688084,1.312336,6,P-GPS,
81800,2022-08-15 23:29:25,0,0,1.64042,,,1.6404528084,2.296588,0,0,0,0,0,8.371,1.6404528084,1.64042,0,0,0,0,-1.342164,184.8, 0.3, -0.1,0,0,1024,1024,1024,1024,0,0,0,0,181.6,0,0,93,4.194,4.185,0,0,0,0,3.976,79.7,1.6404528084,1.64042,6,P-GPS,
81900,2022-08-15 23:29:25,0,0,1.968504,,,1.9685368084,2.624672,0,0,0,0,0,8.371,1.9685368084,1.968504,0,0,0,0,-0.894776,184.8, 0.3, -0.1,0,0,1024,1024,1024,1024,0,0,0,0,181.6,0,0,93,4.194,4.185,0,0,0,0,3.976,79.7,1.9685368084,1.968504,6,P-GPS,
82000,2022-08-15 23:29:25,0,0,1.968504,,,1.9685368084,2.624672,0,0,0,0,0,8.371,1.9685368084,1.968504,0,0,0,0,-0.447388,184.8, 0.1, -0.1,0,0,1024,1024,1024,1024,0,0,0,0,181.6,0,0,93,4.194,4.185,0,0,0,0,3.976,79.7,1.9685368084,1.968504,6,P-GPS,
82100,2022-08-15 23:29:25,0,0,1.968504,,,1.9685368084,2.624672,0,0,0,0,0,8.371,1.9685368084,1.968504,0,0,0,0,-0.223694,184.8, 0, 0,0,0,1024,1024,1024,1024,0,0,0,0,181.6,0,0,93,4.194,4.185,0,0,0,0,3.976,79.7,1.9685368084,1.968504,6,P-GPS,
82200,2022-08-15 23:29:26,0,0,2.296588,,,2.2966208084,2.624672,0,0,0,0,0,8.371,2.2966208084,2.296588,0,0,0,0,0,184.8, 0, 0.1,0,0,1024,1024,1024,1024,0,0,0,0,181.6,0,0,93,4.194,4.185,0,0,0,0,3.976,79.7,2.2966208084,2.296588,6,P-GPS,
82300,2022-08-15 23:29:26,0,0,2.296588,,,2.2966208084,2.624672,0,0,0,0,0,8.371,2.2966208084,2.296588,0,0,0,0,0,184.8, 0, 0.2,0,0,1024,1024,1024,1024,0,0,0,0,181.6,0,0,93,4.194,4.185,0,0,0,0,3.976,79.7,2.2966208084,2.296588,6,P-GPS,
82400,2022-08-15 23:29:26,0,0,2.296588,,,2.2966208084,2.624672,0,0,0,0,0,8.371,2.2966208084,2.296588,0,0,0,0,0,184.8, 0, 0.1,0,0,1024,1024,1024,1024,0,0,0,0,181.6,0,0,93,4.194,4.185,0,0,0,0,3.976,79.7,2.2966208084,2.296588,6,P-GPS,
82500,2022-08-15 23:29:26,0,0,2.296588,,,2.2966208084,2.624672,0,0,0,0,0,8.371,2.2966208084,2.296588,0,0,0,0,0,184.8, 0.1, 0.2,0,0,1024,1024,1024,674,0,0,0,-53,181.6,0,0,93,4.194,4.185,0,0,0,0,3.976,79.7,2.2966208084,2.296588,6,P-GPS,
82600,2022-08-15 23:29:26,0,0,2.296588,,,2.2966208084,2.624672,0,0,0,0,0,8.371,2.2966208084,2.296588,0,0,0,0,0,184.8, 0.1, 0.1,0,0,1024,1024,1024,364,0,0,0,-100,181.4,0,0,93,4.194,4.185,0,0,0,0,3.976,79.7,2.2966208084,2.296588,6,P-GPS,
82700,2022-08-15 23:29:26,0,0,2.296588,,,2.2966208084,2.624672,0,0,0,0,0,8.371,2.2966208084,2.296588,0,0,0,0,0,184.1, 0.2, 0.2,0,0,1024,1024,1024,364,0,0,0,-100,178.9,0,0,93,4.194,4.185,0,0,0,0,3.976,79.7,2.2966208084,2.296588,6,P-GPS,
82800,2022-08-15 23:29:26,0,0,2.296588,,,2.2966208084,2.624672,0,0,0,0,0,8.383,2.2966208084,2.296588,0,0,0,0,0,180.8, 0.2, 0.2,0,0,1024,1024,1024,364,0,0,0,-100,174.5,0,0,93,4.201,4.192,0,0,0,0,4.169,79.88,2.2966208084,2.296588,6,P-GPS,
82900,2022-08-15 23:29:26,0,0,2.296588,,,2.2966208084,2.624672,0,0,0,0,0,8.383,2.2966208084,2.296588,0,0,0,0,0,176.3, 0.1, 0.1,0,0,1024,1024,1024,364,0,0,0,-100,169.7,0,0,93,4.201,4.192,0,0,0,0,4.169,79.88,2.2966208084,2.296588,6,P-GPS,
83000,2022-08-15 23:29:26,0,0,2.296588,,,2.2966208084,2.624672,0,0,0,0,0,8.383,2.2966208084,2.296588,0,0,0,0,0,171.7, 0.1, 0.1,0,0,1024,1024,1024,364,0,0,0,-100,164.9,0,0,93,4.201,4.192,0,0,0,0,4.169,79.88,2.2966208084,2.296588,6,P-GPS,
83100,2022-08-15 23:29:26,0,0,2.296588,,,2.2966208084,2.624672,0,0,0,0,0,8.383,2.2966208084,2.296588,0,0,0,0,0,166.9, 0.2, 0.2,0,0,1024,1024,1024,364,0,0,0,-100,160.1,0,0,93,4.201,4.192,0,0,0,0,4.169,79.88,2.2966208084,2.296588,6,P-GPS,
83200,2022-08-15 23:29:27,0,0,2.296588,,,2.2966208084,2.624672,0,0,0,0,0,8.383,2.2966208084,2.296588,0,0,0,0,0,162.2, 0.2, 0.2,0,0,1024,1024,1024,364,0,0,0,-100,155.3,0,0,93,4.201,4.192,0,0,0,0,4.169,79.88,2.2966208084,2.296588,6,P-GPS,
83300,2022-08-15 23:29:27,0,0,2.624672,,,2.6247048084,2.624672,0,0,0,0,0,8.383,2.6247048084,2.624672,0,0,0,0,0,157.4, 0.3, 0.3,0,0,1024,1024,1024,364,0,0,0,-100,150.5,0,0,93,4.201,4.192,0,0,0,0,4.169,79.88,2.6247048084,2.624672,6,P-GPS,
83400,2022-08-15 23:29:27,0,0,2.624672,,,2.6247048084,2.624672,0,0,0,0,0,8.383,2.6247048084,2.624672,0,0,0,0,0,152.6, 0.4, 0.2,0,0,1024,1024,1024,364,0,0,0,-100,145.7,0,0,93,4.201,4.192,0,0,0,0,4.169,79.88,2.6247048084,2.624672,6,P-GPS,
83500,2022-08-15 23:29:27,0,0,2.624672,,,2.6247048084,2.624672,0,0,0,0,0,8.383,2.6247048084,2.624672,0,0,0,0,0,147.8, 0.4, 0.2,0,0,1024,1024,1024,364,0,0,0,-100,141.1,0,0,93,4.201,4.192,0,0,0,0,4.169,79.88,2.6247048084,2.624672,6,P-GPS,
83600,2022-08-15 23:29:27,0,0,2.624672,,,2.6247048084,2.624672,0,0,0,0,0,8.383,2.6247048084,2.624672,0,0,0,0,0,143, 0.3, 0.1,0,0,1024,1024,1024,364,0,0,0,-100,136.3,0,0,93,4.201,4.192,0,0,0,0,4.169,79.88,2.6247048084,2.624672,6,P-GPS,
83700,2022-08-15 23:29:27,0,0,2.624672,,,2.6247048084,2.624672,0,0,0,0,0,8.383,2.6247048084,2.624672,0,0,0,0,0,138.2, 0.3, 0,0,0,1024,1024,1024,1024,0,0,0,0,131.5,0,0,93,4.201,4.192,0,0,0,0,4.169,79.88,2.6247048084,2.624672,6,P-GPS,
83800,2022-08-15 23:29:27,0,0,2.624672,,,2.6247048084,2.624672,0,0,0,0,0,8.363,2.6247048084,2.624672,0,0,0,0,0,133.5, 0.5, -0.1,0,0,1024,1024,1024,1024,0,0,0,0,127.5,0,0,93,4.185,4.175,0,0,0,0,3.944,79.88,2.6247048084,2.624672,6,P-GPS,
83900,2022-08-15 23:29:27,0,0,2.624672,,,2.6247048084,2.624672,0,0,0,0,0,8.363,2.6247048084,2.624672,0,0,0,0,0,130.4, 0.3, -0.3,0,0,1024,1024,1024,1024,0,0,0,0,125.6,0,0,93,4.185,4.175,0,0,0,0,3.944,79.88,2.6247048084,2.624672,6,P-GPS,
84000,2022-08-15 23:29:27,0,0,2.624672,,,2.6247048084,2.624672,0,0,0,0,0,8.363,2.6247048084,2.624672,0,0,0,0,0,128.9, 0.1, 0,0,0,1024,1024,1024,1684,0,0,0,100,125,0,0,93,4.185,4.175,0,0,0,0,3.944,79.88,2.6247048084,2.624672,6,P-GPS,
84100,2022-08-15 23:29:27,0,0,2.624672,,,2.6247048084,2.624672,0,0,0,0,0,8.363,2.6247048084,2.624672,0,0,0,0,0,128.5, -0.1, 0.2,0,0,1024,1024,1024,1684,0,0,0,100,125.4,0,0,93,4.185,4.175,0,0,0,0,3.944,79.88,2.6247048084,2.624672,6,P-GPS,
84200,2022-08-15 23:29:28,0,0,2.624672,,,2.6247048084,2.624672,0,0,0,0,0,8.363,2.6247048084,2.624672,0,0,0,0,0,129.7, 0, 0.3,0,0,1024,1024,1024,1684,0,0,0,100,128.7,0,0,93,4.185,4.175,0,0,0,0,3.944,79.88,2.6247048084,2.624672,6,P-GPS,
84300,2022-08-15 23:29:28,0,0,2.624672,,,2.6247048084,2.624672,0,0,0,0,0,8.363,2.6247048084,2.624672,0,0,0,0,0,133.6, 0.1, 0.5,0,0,1024,1024,1024,1684,0,0,0,100,133.3,0,0,93,4.185,4.175,0,0,0,0,3.944,79.88,2.6247048084,2.624672,6,P-GPS,
84400,2022-08-15 23:29:28,0,0,2.624672,,,2.6247048084,2.624672,0,0,0,0,0,8.363,2.6247048084,2.624672,0,0,0,0,0,138.1, 0, 0,0,0,1024,1024,1024,1684,0,0,0,100,138.1,0,0,93,4.185,4.175,0,0,0,0,3.944,79.88,2.6247048084,2.624672,6,P-GPS,
84500,2022-08-15 23:29:28,0,0,2.624672,,,2.6247048084,2.624672,0,0,0,0,0,8.363,2.6247048084,2.624672,0,0,0,0,0,142.8, 0.1, 0.1,0,0,1024,1024,1024,1045,0,0,0,3,142.9,0,0,93,4.185,4.175,0,0,0,0,3.944,79.88,2.6247048084,2.624672,6,P-GPS,
84600,2022-08-15 23:29:28,0,0,2.624672,,,2.6247048084,2.624672,0,0,0,0,0,8.363,2.6247048084,2.624672,0,0,0,0,0,147.4, 0, 0.3,0,0,1024,1024,1024,1024,0,0,0,0,146.6,0,0,93,4.185,4.175,0,0,0,0,3.944,79.88,2.6247048084,2.624672,6,P-GPS,
84700,2022-08-15 23:29:28,0,0,2.624672,,,2.6247048084,2.624672,0,0,0,0,0,8.363,2.6247048084,2.624672,0,0,0,0,0,150.2, 0, 0.4,0,0,1024,1024,1024,1024,0,0,0,0,148.3,0,0,93,4.185,4.175,0,0,0,0,3.944,79.88,2.6247048084,2.624672,6,P-GPS,
84800,2022-08-15 23:29:28,0,0,2.624672,,,2.6247048084,2.624672,0,0,0,0,0,8.355,2.6247048084,2.624672,0,0,0,0,0,151.6, -0.1, 0.2,0,0,1024,1027,1024,1024,0,0,0,0,148.7,0,0,93,4.183,4.174,0,0,0,0,4.119,79.88,2.6247048084,2.624672,6,P-GPS,
84900,2022-08-15 23:29:28,0,0,2.624672,,,2.6247048084,2.624672,0,0,0,0,0,8.355,2.6247048084,2.624672,0,0,0,0,0,151.9, 0, 0.3,0,0,1024,1684,1024,1024,0,100,0,0,148.7,0,0,93,4.183,4.174,0,0,0,0,4.119,79.88,2.6247048084,2.624672,6,P-GPS,
85000,2022-08-15 23:29:28,0,0,2.624672,,,2.6247048084,2.624672,0,0,0,0,0,8.355,2.6247048084,2.624672,0,0,0,0,0,152, 0.2, 3.5,0,0,1024,1684,1024,1024,0,100,0,0,148.7,0,0,93,4.183,4.174,0,0,0,0,4.119,79.88,2.6247048084,2.624672,6,P-GPS,
85100,2022-08-15 23:29:28,0,0,2.624672,,,2.6247048084,2.624672,0.223694,0,0,0,0,8.355,2.6247048084,2.624672,0,0,0,-0.223694,0,152.4, 0.1, 16.2,0,0,1024,1186,1024,1024,0,25,0,0,148.7,0,0,93,4.183,4.174,0,0,0,0,4.119,79.88,2.6247048084,2.624672,6,P-GPS,
85200,2022-08-15 23:29:29,0,0,2.624672,,,2.6247048084,2.624672,0.8052984,0,0,0,0,8.355,2.6247048084,2.624672,0,0,-0.447388,-0.671082,0,152.3, 0, 20.7,0,0,1024,1024,1024,1024,0,0,0,0,148.7,0,0,93,4.183,4.174,0,0,0,0,4.119,79.88,2.6247048084,2.624672,6,P-GPS,
85300,2022-08-15 23:29:29,0,0,2.624672,,,2.6247048084,2.624672,1.4987498,0,0,0,0,8.355,2.6247048084,2.624672,0,0,-0.671082,-1.342164,0,151.8, -0.2, 10.3,0,0,1024,1024,1024,1024,0,0,0,0,148.7,0,0,93,4.183,4.174,0,0,0,0,4.119,79.88,2.6247048084,2.624672,6,P-GPS,
85400,2022-08-15 23:29:29,0,0,2.624672,,,2.6247048084,2.624672,1.7000744,0,0,0,0,8.355,2.6247048084,2.624672,0,0,-0.671082,-1.565858,0,151.4, -0.4, -5.3,0,0,1024,1024,1024,1024,0,0,0,0,148.7,0,0,93,4.183,4.174,0,0,0,0,4.119,79.88,2.6247048084,2.624672,6,P-GPS,
85500,2022-08-15 23:29:29,0,0,2.624672,,,2.6247048084,2.624672,1.4987498,0,0,0,0,8.355,2.6247048084,2.624672,0,0,-0.671082,-1.342164,0,151.6, 0, -8.3,0,0,1024,1024,1024,1024,0,0,0,0,148.7,0,0,93,4.183,4.174,0,0,0,0,4.119,79.88,2.6247048084,2.624672,6,P-GPS,
85600,2022-08-15 23:29:29,0,0,2.624672,,,2.6247048084,2.624672,1.2079476,0,0,0,0,8.355,2.6247048084,2.624672,0,0,-0.447388,-1.11847,0,151.8, 0, -7.2,0,0,1024,992,1024,1024,0,-5,0,0,148.7,0,0,93,4.183,4.174,0,0,0,0,4.119,79.88,2.6247048084,2.624672,6,P-GPS,
85700,2022-08-15 23:29:29,0,0,2.952756,,,2.9527888084,2.624672,1.006623,0,0,0,0,8.355,2.9527888084,2.952756,0,0,-0.447388,-0.894776,0,151.9, 0, -6,0,0,1024,503,1024,1024,0,-79,0,0,148.7,0,0,93,4.183,4.174,0,0,0,0,4.119,79.88,2.9527888084,2.952756,6,P-GPS,
85800,2022-08-15 23:29:29,0,0,2.952756,,,2.9527888084,2.624672,0.4921268,0,0,0,0,8.348,2.9527888084,2.952756,0,0,-0.223694,-0.447388,0,151.9, 0, -6.9,0,0,1024,622,1024,1024,0,-61,0,0,148.7,0,0,93,4.179,4.169,0,0,0,0,4.13,79.88,2.9527888084,2.952756,6,P-GPS,
85900,2022-08-15 23:29:29,0,0,2.952756,,,2.9527888084,2.624672,0.223694,0,0,0,0,8.348,2.9527888084,2.952756,0,0,0,-0.223694,0,151.7, 0.1, -14,0,0,1024,1024,1024,1024,0,0,0,0,148.7,0,0,93,4.179,4.169,0,0,0,0,4.13,79.88,2.9527888084,2.952756,6,P-GPS,
86000,2022-08-15 23:29:29,0,0,2.952756,,,2.9527888084,2.624672,0.223694,0,0,0,0,8.348,2.9527888084,2.952756,0,0,0,0.223694,0,151.6, 0, -12.8,0,0,1024,1024,1024,1024,0,0,0,0,148.7,0,0,93,4.179,4.169,0,0,0,0,4.13,79.88,2.9527888084,2.952756,6,P-GPS,
86100,2022-08-15 23:29:30,0,0,2.952756,,,2.9527888084,2.624672,0.4921268,0,0,0,0,8.348,2.9527888084,2.952756,0,0,0.223694,0.447388,0,152.2, 0, 0.8,0,0,1024,819,1024,1024,0,-31,0,0,148.7,0,0,93,4.179,4.169,0,0,0,0,4.13,79.88,2.9527888084,2.952756,6,P-GPS,
86200,2022-08-15 23:29:30,0,0,2.952756,,,2.9527888084,2.624672,0.4921268,0,0,0,0,8.348,2.9527888084,2.952756,0,0,0.223694,0.447388,0,152, 0, 2.6,0,0,1024,819,1024,1024,0,-31,0,0,148.7,0,0,93,4.179,4.169,0,0,0,0,4.13,79.88,2.9527888084,2.952756,6,P-GPS,
86300,2022-08-15 23:29:30,0,0,2.952756,,,2.9527888084,2.624672,0.223694,0,0,0,0,8.348,2.9527888084,2.952756,0,0,0,0.223694,0,151.9, 0, 0.7,0,0,1024,453,1024,1024,0,-87,0,0,148.7,0,0,93,4.179,4.169,0,0,0,0,4.13,79.88,2.9527888084,2.952756,6,P-GPS,
86400,2022-08-15 23:29:30,0,0,2.952756,,,2.9527888084,2.624672,0.3131716,0,0,0,0,8.348,2.9527888084,2.952756,0,0,0.223694,0.223694,0,151.7, -0.2, -9.2,0,0,1024,687,1024,1024,0,-51,0,0,148.7,0,0,93,4.179,4.169,0,0,0,0,4.13,79.88,2.9527888084,2.952756,6,P-GPS,
86500,2022-08-15 23:29:30,0,0,2.952756,,,2.9527888084,2.624672,0.7158208,0,0,0,0,8.348,2.9527888084,2.952756,0,0,0.223694,0.671082,0,151.7, -0.1, -14,0,0,1024,1015,1024,1024,0,-1,0,0,148.7,0,0,93,4.179,4.169,0,0,0,0,4.13,79.88,2.9527888084,2.952756,6,P-GPS,
86600,2022-08-15 23:29:30,0,0,2.952756,,,2.9527888084,2.624672,1.2079476,0,0,0,0,8.348,2.9527888084,2.952756,0,0,0.447388,1.11847,0,152.3, 0, 1.2,0,0,1024,844,1024,1024,0,-27,0,0,148.7,0,0,93,4.179,4.169,0,0,0,0,4.13,79.88,2.9527888084,2.952756,6,P-GPS,
86700,2022-08-15 23:29:30,0,0,2.952756,,,2.9527888084,2.624672,1.006623,0,0,0,0,8.348,2.9527888084,2.952756,0,0,0.447388,0.894776,0,152.3, -0.1, 3.5,0,0,1024,441,1024,1024,0,-88,0,0,148.7,0,0,93,4.179,4.169,0,0,0,0,4.13,79.88,2.9527888084,2.952756,6,P-GPS,
86800,2022-08-15 23:29:30,0,0,2.952756,,,2.9527888084,2.624672,1.006623,0,0,0,0,8.348,2.9527888084,2.952756,0,0,0.447388,0.894776,0,152, 0.1, -3.5,0,0,1024,906,1024,1024,0,-18,0,0,148.7,0,0,93,4.179,4.169,0,0,0,0,4.13,79.88,2.9527888084,2.952756,6,P-GPS,
86900,2022-08-15 23:29:30,0,0,2.952756,,,2.9527888084,2.624672,1.2079476,0,0,0,0,8.343,2.9527888084,2.952756,0,0,0.447388,1.11847,0,151.7, 0, -12.9,0,0,1024,1012,1024,1024,0,-2,0,0,148.7,0,0,93,4.172,4.161,0,0,0,0,4.29,79.88,2.9527888084,2.952756,6,P-GPS,
87000,2022-08-15 23:29:30,0,0,2.952756,,,2.9527888084,2.624672,1.4987498,0,0,0,0,8.343,2.9527888084,2.952756,0,0,0.671082,1.342164,0,151.8, 0, -5.8,0,0,1024,893,1024,1024,0,-20,0,0,148.7,0,0,93,4.172,4.161,0,0,0,0,4.29,79.88,2.9527888084,2.952756,6,P-GPS,
87100,2022-08-15 23:29:31,0,0,2.952756,,,2.9527888084,2.624672,1.4987498,0,0,0,0,8.343,2.9527888084,2.952756,0,0,0.671082,1.342164,0,152.4, -0.2, 6.1,0,0,1024,893,1024,1024,0,-20,0,0,148.7,0,0,93,4.172,4.161,0,0,0,0,4.29,79.88,2.9527888084,2.952756,6,P-GPS,
87200,2022-08-15 23:29:31,0,0,3.28084,,,3.2808728084,2.624672,1.2974252,0,0,0,0,8.343,3.2808728084,3.28084,0,0,0.671082,1.11847,0,151.9, -0.7, 3.3,0,0,1024,1002,1024,1024,0,-3,0,0,148.7,0,0,93,4.172,4.161,0,0,0,0,4.29,79.88,3.2808728084,3.28084,6,P-GPS,
87300,2022-08-15 23:29:31,0,0,3.28084,,,3.2808728084,2.624672,1.2079476,0,0,0,0,8.343,3.2808728084,3.28084,0,0,0.447388,1.11847,0,151.8, -0.1, 0.8,0,0,1024,1024,1024,1024,0,0,0,0,148.7,0,0,93,4.172,4.161,0,0,0,0,4.29,79.88,3.2808728084,3.28084,6,P-GPS,
87400,2022-08-15 23:29:31,0,0,3.28084,,,3.2808728084,2.624672,1.2079476,0,0,0,0,8.343,3.2808728084,3.28084,0,0,0.447388,1.11847,0,151.9, 0.4, 4.2,0,0,1024,1445,1024,1024,0,64,0,0,148.7,0,0,93,4.172,4.161,0,0,0,0,4.29,79.88,3.2808728084,3.28084,6,P-GPS,
87500,2022-08-15 23:29:31,0,0,3.28084,,,3.2808728084,2.624672,1.006623,0,0,0,0,8.343,3.2808728084,3.28084,0,0,0.447388,0.894776,0,151.9, 0, 5.1,0,0,1024,1684,1024,1024,0,100,0,0,148.7,0,0,93,4.172,4.161,0,0,0,0,4.29,79.88,3.2808728084,3.28084,6,P-GPS,
87600,2022-08-15 23:29:31,0,0,3.28084,,,3.2808728084,2.624672,0.4921268,0,0,0,0,8.343,3.2808728084,3.28084,0,0,0.223694,0.447388,0,152.1, 0, 13.7,0,0,1024,1076,1024,1024,0,8,0,0,148.7,0,0,93,4.172,4.161,0,0,0,0,4.29,79.88,3.2808728084,3.28084,6,P-GPS,
87700,2022-08-15 23:29:31,0,0,3.28084,,,3.2808728084,2.624672,0,0,0,0,0,8.343,3.2808728084,3.28084,0,0,0,0,0,152.1, -0.2, 19.9,0,0,1024,1024,1024,1024,0,0,0,0,148.7,0,0,93,4.172,4.161,0,0,0,0,4.29,79.88,3.2808728084,3.28084,6,P-GPS,
87800,2022-08-15 23:29:31,0,0,3.28084,,,3.2808728084,2.624672,0.4921268,0,0,0,0,8.337,3.2808728084,3.28084,0,0,-0.223694,-0.447388,0,151.7, 0, 7.6,0,0,1024,1024,1024,1024,0,0,0,0,148.7,0,0,93,4.166,4.159,0,0,0,0,4.278,80.06,3.2808728084,3.28084,6,P-GPS,
87900,2022-08-15 23:29:31,0,0,3.28084,,,3.2808728084,2.624672,0.4921268,0,0,0,0,8.337,3.2808728084,3.28084,0,0,-0.223694,-0.447388,0,151.4, 0.2, -2.3,0,0,1024,1024,1024,1024,0,0,0,0,148.7,0,0,93,4.166,4.159,0,0,0,0,4.278,80.06,3.2808728084,3.28084,6,P-GPS,
88000,2022-08-15 23:29:31,0,0,3.28084,,,3.2808728084,2.624672,0.4921268,0,0,0,0,8.337,3.2808728084,3.28084,0,0,-0.223694,-0.447388,0,151.7, 0.1, -3.1,0,0,1024,1178,1024,1024,0,23,0,0,148.7,0,0,93,4.166,4.159,0,0,0,0,4.278,80.06,3.2808728084,3.28084,6,P-GPS,
88100,2022-08-15 23:29:31,0,0,3.28084,,,3.2808728084,2.624672,0.223694,0,0,0,0,8.337,3.2808728084,3.28084,0,0,0,-0.223694,0,151.9, 0.3, -2.3,0,0,1024,1552,1024,1024,0,80,0,0,148.7,0,0,93,4.166,4.159,0,0,0,0,4.278,80.06,3.2808728084,3.28084,6,P-GPS,
88200,2022-08-15 23:29:32,0,0,3.28084,,,3.2808728084,2.624672,0.223694,0,0,0,0,8.337,3.2808728084,3.28084,0,0,0,-0.223694,0,152.2, 0.4, 5.7,0,0,1024,1090,1024,1024,0,10,0,0,148.7,0,0,93,4.166,4.159,0,0,0,0,4.278,80.06,3.2808728084,3.28084,6,P-GPS,
88300,2022-08-15 23:29:32,0,0,3.28084,,,3.2808728084,2.624672,0.4921268,0,0,0,0,8.337,3.2808728084,3.28084,0,0,-0.223694,-0.447388,0,152.5, 0.4, 11.6,0,0,1024,1024,1024,1024,0,0,0,0,148.7,0,0,93,4.166,4.159,0,0,0,0,4.278,80.06,3.2808728084,3.28084,6,P-GPS,
88400,2022-08-15 23:29:32,0,0,3.28084,,,3.2808728084,2.624672,1.006623,0,0,0,0,8.337,3.2808728084,3.28084,0,0,-0.447388,-0.894776,0,152.1, 0, 2.4,0,0,1024,1024,1024,1024,0,0,0,0,148.7,0,0,93,4.166,4.159,0,0,0,0,4.278,80.06,3.2808728084,3.28084,6,P-GPS,
88500,2022-08-15 23:29:32,0,0,3.28084,,,3.2808728084,2.624672,1.006623,0,0,0,0,8.337,3.2808728084,3.28084,0,0,-0.447388,-0.894776,0,151.9, -0.3, -4.1,0,0,1024,1024,1024,1024,0,0,0,0,148.7,0,0,93,4.166,4.159,0,0,0,0,4.278,80.06,3.2808728084,3.28084,6,P-GPS,
88600,2022-08-15 23:29:32,0,0,3.28084,,,3.2808728084,2.624672,0.8052984,0,0,0,0,8.337,3.2808728084,3.28084,0,0,-0.447388,-0.671082,0,152.1, -0.4, -4.8,0,0,1024,1024,1024,1024,0,0,0,0,148.7,0,0,93,4.166,4.159,0,0,0,0,4.278,80.06,3.2808728084,3.28084,6,P-GPS,
88700,2022-08-15 23:29:32,0,0,3.28084,,,3.2808728084,2.624672,0.7158208,0,0,0,0,8.337,3.2808728084,3.28084,0,0,-0.223694,-0.671082,0,152.2, -0.4, -4.2,0,0,1024,1024,1024,1024,0,0,0,0,148.7,0,0,93,4.166,4.159,0,0,0,0,4.278,80.06,3.2808728084,3.28084,6,P-GPS,
88800,2022-08-15 23:29:32,0,0,3.28084,,,3.2808728084,2.624672,0.4921268,0,0,0,0,8.337,3.2808728084,3.28084,0,0,-0.223694,-0.447388,0,152.1, -0.3, -3.3,0,0,1024,1024,1024,1024,0,0,0,0,148.7,0,0,92,4.166,4.159,0,0,0,0,4.278,80.06,3.2808728084,3.28084,6,P-GPS,
88900,2022-08-15 23:29:32,0,0,3.28084,,,3.2808728084,2.624672,0.223694,0,0,0,0,8.316,3.2808728084,3.28084,0,0,0,-0.223694,0,152, -0.1, -2.8,0,0,1024,1024,1024,1024,0,0,0,0,148.7,0,0,92,4.17,4.159,0,0,0,0,4.307,80.06,3.2808728084,3.28084,6,P-GPS,
89000,2022-08-15 23:29:32,0,0,3.28084,,,3.2808728084,2.624672,0.223694,0,0,0,0,8.316,3.2808728084,3.28084,0,0,0,-0.223694,0,152, 0, -2.2,0,0,1024,1024,1024,1024,0,0,0,0,148.7,0,0,92,4.17,4.159,0,0,0,0,4.307,80.06,3.2808728084,3.28084,6,P-GPS,
89100,2022-08-15 23:29:32,0,0,3.28084,,,3.2808728084,2.624672,0,0,0,0,0,8.316,3.2808728084,3.28084,0,0,0,0,0,152, 0, -2,0,0,1024,1024,1024,1024,0,0,0,0,148.7,0,0,92,4.17,4.159,0,0,0,0,4.307,80.06,3.2808728084,3.28084,6,P-GPS,
89200,2022-08-15 23:29:33,0,0,3.28084,,,3.2808728084,2.624672,0,0,0,0,0,8.316,3.2808728084,3.28084,0,0,0,0,0,152.1, 0, -1.4,0,0,1024,1024,1024,1024,0,0,0,0,148.7,0,0,92,4.17,4.159,0,0,0,0,4.307,80.06,3.2808728084,3.28084,6,P-GPS,
89300,2022-08-15 23:29:33,0,0,3.28084,,,3.2808728084,2.624672,0,0,0,0,0,8.316,3.2808728084,3.28084,0,0,0,0,0,152, 0, -1.3,0,0,1024,1024,1024,1024,0,0,0,0,148.7,0,0,92,4.17,4.159,0,0,0,0,4.307,80.06,3.2808728084,3.28084,6,P-GPS,
89400,2022-08-15 23:29:33,0,0,3.28084,,,3.2808728084,2.624672,0,0,0,0,0,8.316,3.2808728084,3.28084,0,0,0,0,0,152, 0, -1.1,0,0,1024,1024,1024,1024,0,0,0,0,148.7,0,0,92,4.17,4.159,0,0,0,0,4.307,80.06,3.2808728084,3.28084,6,P-GPS,
89500,2022-08-15 23:29:33,0,0,3.28084,,,3.2808728084,2.624672,0,0,0,0,0,8.316,3.2808728084,3.28084,0,0,0,0,0,152.1, 0, -0.7,0,0,1024,1024,1024,1024,0,0,0,0,148.7,0,0,92,4.17,4.159,0,0,0,0,4.307,80.06,3.2808728084,3.28084,6,P-GPS,
89600,2022-08-15 23:29:33,0,0,3.28084,,,3.2808728084,2.624672,0,0,0,0,0,8.316,3.2808728084,3.28084,0,0,0,0,0,152.1, -0.1, -0.6,0,0,1024,1024,1024,1024,0,0,0,0,148.7,0,0,92,4.17,4.159,0,0,0,0,4.307,80.06,3.2808728084,3.28084,6,P-GPS,
89700,2022-08-15 23:29:33,0,0,3.28084,,,3.2808728084,2.624672,0,0,0,0,0,8.316,3.2808728084,3.28084,0,0,0,0,0,152.1, 0, -0.5,0,0,1024,1024,1024,1024,0,0,0,0,148.7,0,0,92,4.17,4.159,0,0,0,0,4.307,80.06,3.2808728084,3.28084,6,P-GPS,
89800,2022-08-15 23:29:33,0,0,3.28084,,,3.2808728084,2.624672,0,0,0,0,0,8.33,3.2808728084,3.28084,0,0,0,0,0,152.1, 0, -0.5,0,0,1024,1024,1024,1024,0,0,0,0,148.7,0,0,92,4.169,4.158,0,0,0,0,4.238,80.06,3.2808728084,3.28084,6,P-GPS,
89900,2022-08-15 23:29:33,0,0,3.28084,,,3.2808728084,2.624672,0,0,0,0,0,8.33,3.2808728084,3.28084,0,0,0,0,0,152, 0, -0.3,0,0,1024,1024,1024,1024,0,0,0,0,148.7,0,0,92,4.169,4.158,0,0,0,0,4.238,80.06,3.2808728084,3.28084,6,P-GPS,
90000,2022-08-15 23:29:33,0,0,3.28084,,,3.2808728084,2.624672,0,0,0,0,0,8.33,3.2808728084,3.28084,0,0,0,0,0,152, -0.1, 0,0,0,1024,1024,1024,1024,0,0,0,0,148.7,0,0,92,4.169,4.158,0,0,0,0,4.238,80.06,3.2808728084,3.28084,6,P-GPS,
90100,2022-08-15 23:29:33,0,0,3.28084,,,3.2808728084,2.624672,0,0,0,0,0,8.33,3.2808728084,3.28084,0,0,0,0,0,152, 0, 0,0,0,1024,1024,1024,1024,0,0,0,0,148.7,0,0,92,4.169,4.158,0,0,0,0,4.238,80.06,3.2808728084,3.28084,6,P-GPS,
90200,2022-08-15 23:29:34,0,0,3.28084,,,3.2808728084,2.624672,0,0,0,0,0,8.33,3.2808728084,3.28084,0,0,0,0,0,152, 0.1, 0,0,0,1024,1024,1024,1024,0,0,0,0,148.7,0,0,92,4.169,4.158,0,0,0,0,4.238,80.06,3.2808728084,3.28084,6,P-GPS,
90300,2022-08-15 23:29:34,0,0,3.28084,,,3.2808728084,2.624672,0,0,0,0,0,8.33,3.2808728084,3.28084,0,0,0,0,0,152.1, 0, 0,0,0,1024,1024,1024,1024,0,0,0,0,148.7,0,0,92,4.169,4.158,0,0,0,0,4.238,80.06,3.2808728084,3.28084,6,P-GPS,
90400,2022-08-15 23:29:34,0,0,3.28084,,,3.2808728084,2.624672,0,0,0,0,0,8.33,3.2808728084,3.28084,0,0,0,0,0,152, 0, 0.1,0,0,1024,1024,1024,1024,0,0,0,0,148.7,0,0,92,4.169,4.158,0,0,0,0,4.238,80.06,3.2808728084,3.28084,6,P-GPS,
90500,2022-08-15 23:29:34,0,0,3.28084,,,3.2808728084,2.624672,0,0,0,0,0,8.33,3.2808728084,3.28084,0,0,0,0,0,152.1, -0.1, 0.3,0,0,1024,1024,939,1024,0,0,-13,0,148.7,0,0,92,4.169,4.158,0,0,0,0,4.238,80.06,3.2808728084,3.28084,6,P-GPS,
90600,2022-08-15 23:29:34,0,0,3.28084,,,3.2808728084,2.624672,0,0,0,0,0,8.33,3.2808728084,3.28084,0,0,0,0,0,152.1, -0.2, 0.1,0,0,1024,1024,908,1024,0,0,-18,0,148.7,0,0,92,4.169,4.158,0,0,0,0,4.238,80.06,3.2808728084,3.28084,6,P-GPS,
90700,2022-08-15 23:29:34,0,0,3.28084,,,3.2808728084,2.624672,0,0,0,0,0,8.33,3.2808728084,3.28084,0,0,0,0,0,152, -0.1, 0.2,0,0,1024,1024,904,1024,0,0,-18,0,148.7,0,0,92,4.169,4.158,0,0,0,0,4.238,80.06,3.2808728084,3.28084,6,P-GPS,
90800,2022-08-15 23:29:34,0,0,3.28084,,,3.2808728084,2.624672,0,0,0,0,0,8.329,3.2808728084,3.28084,0,0,0,0,0.223694,152, 0, 0.3,0,0,1024,1024,890,1024,0,0,-20,0,148.7,0,0,92,4.17,4.159,0,0,0,0,4.163,80.06,3.2808728084,3.28084,6,P-GPS,
90900,2022-08-15 23:29:34,0,0,3.28084,,,3.2808728084,2.624672,0,0,0,0,0,8.329,3.2808728084,3.28084,0,0,0,0,0.223694,151.9, -0.2, 0,0,0,1024,1024,890,1024,0,0,-20,0,148.7,0,0,92,4.17,4.159,0,0,0,0,4.163,80.06,3.2808728084,3.28084,6,P-GPS,
91000,2022-08-15 23:29:34,0,0,3.28084,,,3.2808728084,2.296588,0,0,0,0,0,8.329,3.2808728084,3.28084,0,0,0,0,0.223694,151.9, -0.3, -0.1,0,0,1024,1024,890,1024,0,0,-20,0,148.7,0,0,92,4.17,4.159,0,0,0,0,4.163,80.06,3.2808728084,3.28084,6,P-GPS,
91100,2022-08-15 23:29:34,0,0,3.28084,,,3.2808728084,2.296588,0,0,0,0,0,8.329,3.2808728084,3.28084,0,0,0,0,0.447388,151.9, -0.2, 0,0,0,1024,1024,890,1024,0,0,-20,0,148.7,0,0,92,4.17,4.159,0,0,0,0,4.163,80.06,3.2808728084,3.28084,6,P-GPS,
91200,2022-08-15 23:29:35,0,0,2.952756,,,2.9527888084,2.296588,0,0,0,0,0,8.329,3.2808728084,3.28084,0,0,0,0,0.447388,152, 0, 0,0,0,1024,1024,889,1024,0,0,-20,0,148.7,0,0,92,4.17,4.159,0,0,0,0,4.163,80.06,2.9527888084,2.952756,6,P-GPS,
91300,2022-08-15 23:29:35,0,0,2.952756,,,2.9527888084,2.296588,0,0,0,0,0,8.329,3.2808728084,3.28084,0,0,0,0,0.447388,152, 0, 0.2,0,0,1024,1024,886,1024,0,0,-21,0,148.7,0,0,92,4.17,4.159,0,0,0,0,4.163,80.06,2.9527888084,2.952756,6,P-GPS,
91400,2022-08-15 23:29:35,0,0,2.952756,,,2.9527888084,1.968504,0,0,0,0,0,8.329,3.2808728084,3.28084,0,0,0,0,0.223694,151.9, 0, 0.3,0,0,1024,1024,879,1024,0,0,-22,0,148.7,0,0,92,4.17,4.159,0,0,0,0,4.163,80.06,2.9527888084,2.952756,6,P-GPS,
91500,2022-08-15 23:29:35,0,0,2.952756,,,2.9527888084,1.968504,0,0,0,0,0,8.329,3.2808728084,3.28084,0,0,0,0,0.223694,152, 0, 0.4,0,0,1024,1024,877,1024,0,0,-22,0,148.7,0,0,92,4.17,4.159,0,0,0,0,4.163,80.06,2.9527888084,2.952756,6,P-GPS,
91600,2022-08-15 23:29:35,0,0,2.952756,,,2.9527888084,1.968504,0,0,0,0,0,8.329,3.2808728084,3.28084,0,0,0,0,0.223694,151.9, 0, 0.3,0,0,1024,1024,867,1024,0,0,-24,0,148.7,0,0,92,4.17,4.159,0,0,0,0,4.163,80.06,2.9527888084,2.952756,6,P-GPS,
91700,2022-08-15 23:29:35,0,0,2.952756,,,2.9527888084,1.968504,0,0,0,0,0,8.329,3.2808728084,3.28084,0,0,0,0,0.223694,152, -0.2, 0.3,0,0,1024,1024,863,1024,0,0,-24,0,148.7,0,0,92,4.17,4.159,0,0,0,0,4.163,80.06,2.9527888084,2.952756,6,P-GPS,
91800,2022-08-15 23:29:35,0,0,2.624672,,,2.6247048084,1.968504,0,0,0,0,0,8.329,3.2808728084,3.28084,0,0,0,0,0.223694,152, -0.4, 0.1,0,0,1024,1024,863,1024,0,0,-24,0,148.7,0,0,92,4.17,4.159,0,0,0,0,4.163,80.06,2.6247048084,2.624672,6,P-GPS,
91900,2022-08-15 23:29:35,0,0,2.624672,,,2.6247048084,1.968504,0,0,0,0,0,8.332,3.2808728084,3.28084,0,0,0,0,0.223694,151.9, -0.4, 0,0,0,1024,1024,864,1024,0,0,-24,0,148.7,0,0,92,4.169,4.158,0,0,0,0,4.001,80.24,2.6247048084,2.624672,6,P-GPS,
92000,2022-08-15 23:29:35,0,0,2.624672,,,2.6247048084,1.968504,0,0,0,0,0,8.332,3.2808728084,3.28084,0,0,0,0,0,151.9, -0.2, 0.2,0,0,1024,1024,862,1024,0,0,-25,0,148.7,0,0,92,4.169,4.158,0,0,0,0,4.001,80.24,2.6247048084,2.624672,6,P-GPS,
92100,2022-08-15 23:29:36,0,0,2.624672,,,2.6247048084,1.968504,0,0,0,0,0,8.332,3.2808728084,3.28084,0,0,0,0,0,151.9, 0, 0.5,0,0,1024,1024,852,1024,0,0,-26,0,148.7,0,0,92,4.169,4.158,0,0,0,0,4.001,80.24,2.6247048084,2.624672,6,P-GPS,
92200,2022-08-15 23:29:36,0,0,2.624672,,,2.6247048084,1.64042,0,0,0,0,0,8.332,3.2808728084,3.28084,0,0,0,0,0,151.9, 0.1, 0.5,0,0,1024,1024,818,1024,0,0,-31,0,148.7,0,0,92,4.169,4.158,0,0,0,0,4.001,80.24,2.6247048084,2.624672,6,P-GPS,
92300,2022-08-15 23:29:36,0,0,2.624672,,,2.6247048084,1.64042,0,0,0,0,0,8.332,3.2808728084,3.28084,0,0,0,0,0,151.9, 0.1, 0.5,0,0,1024,1024,775,1024,0,0,-38,0,148.7,0,0,92,4.169,4.158,0,0,0,0,4.001,80.24,2.6247048084,2.624672,6,P-GPS,
92400,2022-08-15 23:29:36,0,0,2.624672,,,2.6247048084,1.64042,0,0,0,0,0,8.332,3.2808728084,3.28084,0,0,0,0,0,152, 0, 0.4,0,0,1024,1024,749,1024,0,0,-42,0,148.7,0,0,92,4.169,4.158,0,0,0,0,4.001,80.24,2.6247048084,2.624672,6,P-GPS,
92500,2022-08-15 23:29:36,0,0,2.624672,,,2.6247048084,1.64042,0,0,0,0,0,8.332,3.2808728084,3.28084,0,0,0,0,0,152, 0, 0.3,0,0,1024,1024,730,1024,0,0,-45,0,148.7,0,0,92,4.169,4.158,0,0,0,0,4.001,80.24,2.6247048084,2.624672,6,P-GPS,
92600,2022-08-15 23:29:36,0,0,2.624672,,,2.6247048084,1.64042,0,0,0,0,0,8.332,3.2808728084,3.28084,0,0,0,0,0,151.9, -0.2, 0.3,0,0,1024,1024,730,1024,0,0,-45,0,148.7,0,0,92,4.169,4.158,0,0,0,0,4.001,80.24,2.6247048084,2.624672,6,P-GPS,
92700,2022-08-15 23:29:36,0,0,2.624672,,,2.6247048084,1.64042,0,0,0,0,0,8.332,3.2808728084,3.28084,0,0,0,0,0,151.9, -0.2, 0.4,0,0,1024,1024,719,1024,0,0,-46,0,148.7,0,0,92,4.169,4.158,0,0,0,0,4.001,80.24,2.6247048084,2.624672,6,P-GPS,
92800,2022-08-15 23:29:36,0,0,2.624672,,,2.6247048084,1.64042,0,0,0,0,0,8.322,3.2808728084,3.28084,0,0,0,0,0,151.8, 0, 0.5,0,0,1024,1024,662,1024,0,0,-55,0,148.7,0,0,92,4.164,4.154,0,0,0,0,4.156,80.24,2.6247048084,2.624672,6,P-GPS,
92900,2022-08-15 23:29:36,0,0,2.624672,,,2.6247048084,1.64042,0,0,0,0,0,8.322,3.2808728084,3.28084,0,0,0,0,0,151.8, 0, 0.4,0,0,1024,1024,603,1024,0,0,-64,0,148.7,0,0,92,4.164,4.154,0,0,0,0,4.156,80.24,2.6247048084,2.624672,6,P-GPS,
93000,2022-08-15 23:29:36,0,0,2.624672,,,2.6247048084,1.64042,0,0,0,0,0,8.322,3.2808728084,3.28084,0,0,0,0,0,151.9, 0, 0.2,0,0,1024,1024,555,1024,0,0,-71,0,148.7,0,0,92,4.164,4.154,0,0,0,0,4.156,80.24,2.6247048084,2.624672,6,P-GPS,
93100,2022-08-15 23:29:36,0,0,2.624672,,,2.6247048084,1.64042,0,0,0,0,0,8.322,3.2808728084,3.28084,0,0,0,0,0,151.9, 0, 0.3,0,0,1024,1024,500,1024,0,0,-79,0,148.7,0,0,92,4.164,4.154,0,0,0,0,4.156,80.24,2.6247048084,2.624672,6,P-GPS,
93200,2022-08-15 23:29:37,0,0,2.624672,,,2.6247048084,1.64042,0,0,0,0,0,8.322,3.2808728084,3.28084,0,0,0,0,0,151.9, -0.2, 0.5,0,0,1024,1024,435,1024,0,0,-89,0,148.7,0,0,92,4.164,4.154,0,0,0,0,4.156,80.24,2.6247048084,2.624672,6,P-GPS,
93300,2022-08-15 23:29:37,0,0,2.624672,,,2.6247048084,1.64042,0,0,0,0,0,8.322,3.2808728084,3.28084,0,0,0,0,0,151.9, -0.1, 0.4,0,0,1024,1024,409,1024,0,0,-93,0,148.7,0,0,92,4.164,4.154,0,0,0,0,4.156,80.24,2.6247048084,2.624672,6,P-GPS,
93400,2022-08-15 23:29:37,0,0,2.624672,,,2.6247048084,1.64042,0,0,0,0,0,8.322,3.2808728084,3.28084,0,0,0,0,0,151.9, -0.2, 0.3,0,0,1024,1024,364,1024,0,0,-100,0,148.7,0,0,92,4.164,4.154,0,0,0,0,4.156,80.24,2.6247048084,2.624672,6,P-GPS,
93500,2022-08-15 23:29:37,0,0,2.624672,,,2.6247048084,1.64042,0,0,0,0,0,8.322,3.2808728084,3.28084,0,0,0,0,0,151.9, -0.1, 0.1,0,0,1024,1024,364,1024,0,0,-100,0,148.7,0,0,92,4.164,4.154,0,0,0,0,4.156,80.24,2.6247048084,2.624672,6,P-GPS,
93600,2022-08-15 23:29:37,0,0,2.624672,,,2.6247048084,1.64042,0,0,0,0,0,8.322,3.2808728084,3.28084,0,0,0,0,0,151.9, 0, 0.1,0,0,1024,1024,364,1024,0,0,-100,0,148.7,0,0,92,4.164,4.154,0,0,0,0,4.156,80.24,2.6247048084,2.624672,6,P-GPS,
93700,2022-08-15 23:29:37,0,0,2.296588,,,2.2966208084,1.64042,0,0,0,0,0,8.322,3.2808728084,3.28084,0,0,0,0,0,151.9, 0, 0,0,0,1024,1024,364,1024,0,0,-100,0,148.7,0,0,92,4.164,4.154,0,0,0,0,4.156,80.24,2.2966208084,2.296588,6,P-GPS,
93800,2022-08-15 23:29:37,0,0,2.296588,,,2.2966208084,1.64042,0,0,0,0,0,8.317,3.2808728084,3.28084,0,0,0,0,0,151.9, 0.1, 0.3,0,0,1024,1024,364,1024,0,0,-100,0,148.7,0,0,92,4.163,4.152,0,0,0,0,4.222,80.24,2.2966208084,2.296588,6,P-GPS,
93900,2022-08-15 23:29:37,0,0,2.296588,,,2.2966208084,1.64042,0,0,0,0,0,8.317,3.2808728084,3.28084,0,0,0,0,0,151.9, 0, 0.5,0,0,1024,1024,364,1024,0,0,-100,0,148.7,0,0,92,4.163,4.152,0,0,0,0,4.222,80.24,2.2966208084,2.296588,6,P-GPS,
94000,2022-08-15 23:29:37,0,0,2.296588,,,2.2966208084,1.64042,0,0,0,0,0,8.317,3.2808728084,3.28084,0,0,0,0,0,151.9, 0, 0.4,0,0,1024,1024,364,1024,0,0,-100,0,148.7,0,0,92,4.163,4.152,0,0,0,0,4.222,80.24,2.2966208084,2.296588,6,P-GPS,
94100,2022-08-15 23:29:37,0,0,2.296588,,,2.2966208084,1.64042,0,0,0,0,0,8.317,3.2808728084,3.28084,0,0,0,0,0,151.9, 0, 0.4,0,0,1024,1024,364,1024,0,0,-100,0,148.7,0,0,92,4.163,4.152,0,0,0,0,4.222,80.24,2.2966208084,2.296588,6,P-GPS,
94200,2022-08-15 23:29:38,0,0,2.296588,,,2.2966208084,1.64042,0,0,0,0,0,8.317,3.2808728084,3.28084,0,0,0,0,0,151.9, -0.2, 0.3,0,0,1024,1024,364,1024,0,0,-100,0,148.7,0,0,92,4.163,4.152,0,0,0,0,4.222,80.24,2.2966208084,2.296588,6,P-GPS,
94300,2022-08-15 23:29:38,0,0,2.296588,,,2.2966208084,1.64042,0,0,0,0,0,8.317,3.2808728084,3.28084,0,0,0,0,0,151.9, -0.2, 0.3,0,0,1024,1024,364,1024,0,0,-100,0,148.7,0,0,92,4.163,4.152,0,0,0,0,4.222,80.24,2.2966208084,2.296588,33,Confirm_Landing,
94400,2022-08-15 23:29:38,0,0,2.296588,,,2.2966208084,1.64042,0,0,0,0,0,8.317,3.2808728084,3.28084,0,0,0,0,0,151.9, -0.2, 0.2,0,0,1024,1024,364,1024,0,0,-100,0,148.7,0,0,92,4.163,4.152,0,0,0,0,4.222,80.24,2.2966208084,2.296588,33,Confirm_Landing,
94500,2022-08-15 23:29:38,0,0,2.296588,,,2.2966208084,1.64042,0,0,0,0,0,8.317,3.2808728084,3.28084,0,0,0,0,0.223694,151.9, -0.1, 0.2,0,0,1024,1024,364,1024,0,0,-100,0,148.7,0,0,92,4.163,4.152,0,0,0,0,4.222,80.24,2.2966208084,2.296588,33,Confirm_Landing,
94600,2022-08-15 23:29:38,0,0,1.968504,,,1.9685368084,1.64042,0,0,0,0,0,8.317,3.2808728084,3.28084,0,0,0,0,0.447388,151.9, -0.1, 0.2,0,0,1024,1024,364,1024,0,0,-100,0,148.7,0,0,92,4.163,4.152,0,0,0,0,4.222,80.24,1.9685368084,1.968504,33,Confirm_Landing,
94700,2022-08-15 23:29:38,0,0,1.968504,,,1.9685368084,1.312336,0,0,0,0,0,8.317,3.2808728084,3.28084,0,0,0,0,0.671082,151.9, -0.2, 0.1,0,0,1024,1024,364,1024,0,0,-100,0,148.7,0,0,92,4.163,4.152,0,0,0,0,4.222,80.24,1.9685368084,1.968504,33,Confirm_Landing,
94800,2022-08-15 23:29:38,0,0,1.968504,,,1.9685368084,1.312336,0,0,0,0,0,8.317,3.2808728084,3.28084,0,0,0,0,0.671082,151.8, -0.3, 0.1,0,0,1024,1024,364,1024,0,0,-100,0,148.7,0,0,92,4.165,4.154,0,0,0,0,4.173,80.42,1.9685368084,1.968504,33,Confirm_Landing,
94900,2022-08-15 23:29:38,0,0,1.64042,,,1.6404528084,1.312336,0,0,0,0,0,8.317,3.2808728084,3.28084,0,0,0,0,0.671082,151.9, -0.2, 0.4,0,0,1024,1024,364,1024,0,0,-100,0,148.7,0,0,92,4.165,4.154,0,0,0,0,4.173,80.42,1.6404528084,1.64042,33,Confirm_Landing,
95000,2022-08-15 23:29:38,0,0,1.64042,,,1.6404528084,0.984252,0,0,0,0,0,8.317,3.2808728084,3.28084,0,0,0,0,0.671082,151.9, 0, 0.7,0,0,1024,1024,364,1024,0,0,-100,0,148.7,0,0,92,4.165,4.154,0,0,0,0,4.173,80.42,1.6404528084,1.64042,33,Confirm_Landing,
95100,2022-08-15 23:29:38,0,0,1.312336,,,1.3123688084,0.984252,0,0,0,0,0,8.317,3.2808728084,3.28084,0,0,0,0,0.671082,151.9, 0, 0.6,0,0,1024,1024,364,1024,0,0,-100,0,148.7,0,0,92,4.165,4.154,0,0,0,0,4.173,80.42,1.3123688084,1.312336,33,Confirm_Landing,
95200,2022-08-15 23:29:39,0,0,1.312336,,,1.3123688084,0.984252,0,0,0,0,0,8.317,3.2808728084,3.28084,0,0,0,0,0.671082,151.8, 0, 0.3,0,0,1024,1024,364,1024,0,0,-100,0,148.7,0,0,92,4.165,4.154,0,0,0,0,4.173,80.42,1.3123688084,1.312336,33,Confirm_Landing,
95300,2022-08-15 23:29:39,0,0,0.984252,,,0.9842848084,0.656168,0,0,0,0,0,8.317,3.2808728084,3.28084,0,0,0,0,0.447388,151.8, -0.1, 0.1,0,0,1024,1024,364,1024,0,0,-100,0,148.7,0,0,92,4.165,4.154,0,0,0,0,4.173,80.42,0.9842848084,0.984252,33,Confirm_Landing,
95400,2022-08-15 23:29:39,0,0,0.984252,,,0.9842848084,0.656168,0,0,0,0,0,8.317,3.2808728084,3.28084,0,0,0,0,0.447388,151.8, 0.3, 0,0,0,1024,1024,364,1024,0,0,-100,0,148.7,0,0,92,4.165,4.154,0,0,0,0,4.173,80.42,0.9842848084,0.984252,33,Confirm_Landing,
95500,2022-08-15 23:29:39,0,0,0.656168,,,0.6562008084,0.656168,0,0,0,0,0,8.317,3.2808728084,3.28084,0,0,0,0,0.447388,151.8, 0.1, 0,0,0,1024,1024,364,1024,0,0,-100,0,148.7,0,0,92,4.165,4.154,0,0,0,0,4.173,80.42,0.6562008084,0.656168,33,Confirm_Landing,
95600,2022-08-15 23:29:39,0,0,0.656168,,,0.6562008084,0.656168,0,0,0,0,0,8.317,3.2808728084,3.28084,0,0,0,0,0.447388,151.7, 0.2, 0.1,0,0,1024,1024,504,1024,0,0,-79,0,148.7,0,0,92,4.165,4.154,0,0,0,0,4.173,80.42,0.6562008084,0.656168,33,Confirm_Landing,
95700,2022-08-15 23:29:39,0,0,0.328084,,,0.3281168084,0.328084,0,0,0,0,0,8.321,3.2808728084,3.28084,0,0,0,0,0.447388,151.8, 0, 0.2,0,0,1024,1024,504,1024,0,0,-79,0,148.7,0,0,92,4.165,4.155,0,0,0,0,3.929,80.42,0.3281168084,0.328084,33,Confirm_Landing,
95800,2022-08-15 23:29:39,0,0,0,,,3.28084E-5,0.328084,0,0,0,0,0,8.321,3.2808728084,3.28084,0,0,0,0,0.447388,151.9, 0, 0.1,0,0,1024,1024,1024,1024,0,0,0,0,148.7,0,0,92,4.165,4.155,0,0,0,0,3.929,80.42,3.28084E-5,0,33,Confirm_Landing,
95900,2022-08-15 23:29:39,0,0,0,,,3.28084E-5,0.328084,0,0,0,0,0,8.321,3.2808728084,3.28084,0,0,0,0,0.447388,152, 0.4, 0.4,0,0,1024,1024,1024,1024,0,0,0,0,148.7,0,0,92,4.165,4.155,0,0,0,0,3.929,80.42,3.28084E-5,0,33,Confirm_Landing,
96000,2022-08-15 23:29:39,0,0,0,,,3.28084E-5,0.328084,0,0,0,0,0,8.321,3.2808728084,3.28084,0,0,0,0,0.223694,152, 0.5, 0,0,0,1024,1024,1024,1024,0,0,0,0,148.7,0,0,92,4.165,4.155,0,0,0,0,3.929,80.42,3.28084E-5,0,33,Confirm_Landing,
96100,2022-08-15 23:29:39,0,0,-0.328084,,,-0.3280511916,0.328084,0,0,0,0,0,8.321,3.2808728084,3.28084,0,0,0,0,0.223694,151.9, 0.2, -0.2,0,0,1024,1024,1024,1024,0,0,0,0,148.7,0,0,92,4.165,4.155,0,0,0,0,3.929,80.42,-0.3280511916,-0.328084,33,Confirm_Landing,
96200,2022-08-15 23:29:40,0,0,-0.984252,,,-0.9842191916,0.328084,0,0,0,0,0,8.321,3.2808728084,3.28084,0,0,0,0,0.223694,151.9, -0.2, -0.6,0,0,1024,1024,1024,1024,0,0,0,0,148.7,0,0,92,4.165,4.155,0,0,0,0,3.929,80.42,-0.9842191916,-0.984252,33,Confirm_Landing,
96300,2022-08-15 23:29:40,0,0,-1.312336,,,-1.3123031916,0.328084,0,0,0,0,0,8.321,3.2808728084,3.28084,0,0,0,0,0,151.8, 2.6, 0.2,0,0,1024,1024,1024,1024,0,0,0,0,148.7,0,0,92,4.165,4.155,0,0,0,0,3.929,80.42,-1.3123031916,-1.312336,33,Confirm_Landing,
96400,2022-08-15 23:29:40,0,0,-1.64042,,,-1.6403871916,0.328084,0,0,0,0,0,8.321,3.2808728084,3.28084,0,0,0,0,0,151.9, 3.1, 0.2,0,0,1024,1024,1024,1024,0,0,0,0,148.7,0,0,92,4.165,4.155,0,0,0,0,3.929,80.42,-1.6403871916,-1.64042,33,Confirm_Landing,
96500,2022-08-15 23:29:40,0,0,-1.968504,,,-1.9684711916,0.328084,0,0,0,0,0,8.321,3.2808728084,3.28084,0,0,0,0,0,151.9, 3.1, 0.2,0,0,1024,1024,1024,1024,0,0,0,0,148.7,0,0,92,4.165,4.155,0,0,0,0,3.929,80.42,-1.9684711916,-1.968504,33,Confirm_Landing,
96600,2022-08-15 23:29:40,0,0,-2.296588,,,-2.2965551916,0.328084,0,0,0,0,0,8.321,3.2808728084,3.28084,0,0,0,0,0,151.8, 3.1, 0.2,0,0,1024,1024,1024,1024,0,0,0,0,148.7,0,0,92,4.165,4.155,0,0,0,0,3.929,80.42,-2.2965551916,-2.296588,33,Confirm_Landing,
96700,2022-08-15 23:29:40,0,0,-2.296588,,,-2.2965551916,0.328084,0,0,0,0,0,8.322,3.2808728084,3.28084,0,0,0,0,0,151.8, 3.1, 0.2,0,0,1024,1024,1024,1024,0,0,0,0,148.7,0,0,92,4.186,4.177,0,0,0,0,3.918,80.42,-2.2965551916,-2.296588,33,Confirm_Landing,
96800,2022-08-15 23:29:40,0,0,-2.296588,,,-2.2965551916,0.328084,0,0,0,0,0,8.322,3.2808728084,3.28084,0,0,0,0,0,151.9, 3.1, 0.2,0,0,1024,1024,1024,1024,0,0,0,0,148.7,0,0,92,4.186,4.177,0,0,0,0,3.918,80.42,-2.2965551916,-2.296588,33,Confirm_Landing,
96900,2022-08-15 23:29:40,0,0,-2.624672,,,-2.6246391916,0.328084,0,0,0,0,0,8.322,3.2808728084,3.28084,0,0,0,0,0,151.9, 3.1, 0.2,0,0,1024,1024,1024,1024,0,0,0,0,148.7,0,0,92,4.186,4.177,0,0,0,0,3.918,80.42,-2.6246391916,-2.624672,33,Confirm_Landing,
97000,2022-08-15 23:29:40,0,0,-2.624672,,,-2.6246391916,0.328084,0,0,0,0,0,8.322,3.2808728084,3.28084,0,0,0,0,0,151.9, 3.1, 0.2,0,0,1024,1024,1024,1024,0,0,0,0,148.7,0,0,92,4.186,4.177,0,0,0,0,3.918,80.42,-2.6246391916,-2.624672,33,Confirm_Landing,
97100,2022-08-15 23:29:40,0,0,-2.624672,,,-2.6246391916,0.328084,0,0,0,0,0,8.322,3.2808728084,3.28084,0,0,0,0,0,151.9, 3.1, 0.2,0,0,1024,1024,1024,1024,0,0,0,0,148.7,0,0,92,4.186,4.177,0,0,0,0,3.918,80.42,-2.6246391916,-2.624672,33,Confirm_Landing,
