time(millisecond),datetime(utc),latitude,longitude,height_above_takeoff(feet),height_above_ground_at_drone_location(feet),ground_elevation_at_drone_location(feet),altitude_above_seaLevel(feet),height_sonar(feet),speed(mph),distance(feet),mileage(feet),satellites,gpslevel,voltage(v),max_altitude(feet),max_ascent(feet),max_speed(mph),max_distance(feet), xSpeed(mph), ySpeed(mph), zSpeed(mph), compass_heading(degrees), pitch(degrees), roll(degrees),isPhoto,isVideo,rc_elevator,rc_aileron,rc_throttle,rc_rudder,rc_elevator(percent),rc_aileron(percent),rc_throttle(percent),rc_rudder(percent),gimbal_heading(degrees),gimbal_pitch(degrees),gimbal_roll(degrees),battery_percent,voltageCell1,voltageCell2,voltageCell3,voltageCell4,voltageCell5,voltageCell6,current(A),battery_temperature(f),altitude(feet),ascent(feet),flycStateRaw,flycState,message
0,2023-01-04 22:39:14,-34.9535006793508,-54.9408119373633,0,0,15.004046083804,15.004046083804,0.328084,0,0,0,24,5,0,15.004046083804,0,0,0,0,0,0,75.8, 3.8, 3.5,0,0,364,364,364,1684,-100,-100,-100,100,87.4,-2.2,0,50,3.879,3.877,0,0,0,0,0,81.14,15.004046083804,0,41,Motors_Started,"Error de calibración del estabilizador. Reinicia la aeronave o contacta con la Asistencia DJI (Code: 40011)"
100,2023-01-04 22:39:15,-34.9535007158605,-54.9408118670031,0,0,15.004046083804,15.004046083804,0.328084,0,0.0249024286184,0.0249024286184,24,5,0,15.004046083804,0,0,0.0249024286184,0,0,0,75.9, 3.5, 3.2,0,0,364,364,364,1684,-100,-100,-100,100,87.3,-2.2,0,50,3.879,3.877,0,0,0,0,0,81.14,15.004046083804,0,41,Motors_Started,"Setting new Return-To-Home altitude to 100m (328 ft). Data Recorder File Index is 96. Setting new Maximum Flight Altitude to 120m (394 ft) Error de calibración del estabilizador. Reinicia la aeronave o contacta con la Asistencia DJI (Code: 40011)"
200,2023-01-04 22:39:15,-34.9535007688631,-54.9408118060421,0,0,15.004046083804,15.004046083804,0.328084,0,0.051075460952,0.051478348104,24,5,0,15.004046083804,0,0,0.051075460952,0,0,0,75.6, 3.5, 3.2,0,0,364,364,364,1684,-100,-100,-100,100,87.3,-2.2,0,50,3.879,3.877,0,0,0,0,0,81.14,15.004046083804,0,41,Motors_Started,
300,2023-01-04 22:39:15,-34.9535008162574,-54.9408117176385,0,0,15.004046083804,15.004046083804,0.328084,0,0.082536419964,0.083067259876,24,5,0,15.004046083804,0,0,0.082536419964,0,0,0,75.2, 3.5, 3.6,0,0,364,364,364,1684,-100,-100,-100,100,87.2,-2.1,0,50,3.879,3.877,0,0,0,0,0,81.14,15.004046083804,0,41,Motors_Started,
400,2023-01-04 22:39:15,-34.9535007966639,-54.9408116722072,0,0,15.004046083804,15.004046083804,0.328084,0,0.090106302096,0.098418966404,24,5,0,15.004046083804,0,0,0.090106302096,0,0,0,74.9, 3.6, 3.1,0,0,364,364,364,1684,-100,-100,-100,100,86.9,-2.2,0,50,3.879,3.877,0,0,0,0,0,81.14,15.004046083804,0,41,Motors_Started,
500,2023-01-04 22:39:15,-34.9535008477189,-54.9408116329088,0,0,15.004046083804,15.004046083804,0.328084,0,0.109828743672,0.120443573408,24,5,0,15.004046083804,0,0,0.109828743672,0,0,0,74.8, 3.5, 2.7,0,0,364,364,364,1684,-100,-100,-100,100,86.4,-2.2,0,50,3.879,3.877,0,0,0,0,0,81.14,15.004046083804,0,41,Motors_Started,
600,2023-01-04 22:39:15,-34.9535008960707,-54.9408115853243,0,0,15.004046083804,15.004046083804,0.328084,0,0.1316601092,0.143108272296,24,5,0,15.004046083804,0,0,0.1316601092,0,0,0,74.5, 3.4, 2.7,0,0,364,364,364,1684,-100,-100,-100,100,86.1,-2.2,0,50,3.879,3.877,0,0,0,0,0,81.14,15.004046083804,0,41,Motors_Started,
700,2023-01-04 22:39:15,-34.9535009016595,-54.9408114818692,0,0,15.004046083804,15.004046083804,0.328084,0,0.158529860716,0.174112210296,24,5,0,15.004046083804,0,0,0.158529860716,0,0,0,74.5, 3.4, 3.6,0,0,364,364,364,1684,-100,-100,-100,100,86,-2.2,0,50,3.879,3.877,0,0,0,0,0,81.14,15.004046083804,0,41,Motors_Started,
800,2023-01-04 22:39:15,-34.9535009274475,-54.9408113786126,-0.328084,-0.328084,15.004046083804,14.675962083804,0.328084,0,0.190030517892,0.206391410804,24,5,0,15.004046083804,0,0,0.190030517892,0,0,0,74.6, 3.3, 5.5,0,0,364,364,364,1480,-100,-100,-100,69,85.9,-2.2,0,50,3.879,3.877,0,0,0,0,0,81.14,14.675962083804,-0.328084,41,Motors_Started,
900,2023-01-04 22:39:15,-34.9535009369641,-54.9408113771075,-0.328084,-0.328084,15.004046083804,14.675962083804,0.328084,0,0.192101056016,0.209892395168,24,5,0,15.004046083804,0,0,0.192101056016,0,0,0,73.8, 3.2, 6.5,0,0,1024,1024,754,1024,0,0,-41,0,85.6,-2.2,0,50,3.879,3.877,0,0,0,0,0,81.14,14.675962083804,-0.328084,41,Motors_Started,
1000,2023-01-04 22:39:15,-34.9535009955621,-54.9408112865898,-0.328084,-0.328084,15.004046083804,14.675962083804,0.328084,0,0.226232946872,0.244385506508,24,5,0,15.004046083804,0,0,0.226232946872,0,0,0,73, 3, 4,0,0,1024,1024,1117,1024,0,0,14,0,84.8,-2.2,0,50,3.879,3.877,0,0,0,0,0,81.14,14.675962083804,-0.328084,41,Motors_Started,
1100,2023-01-04 22:39:16,-34.953501024151,-54.9408112315318,-0.328084,-0.328084,15.004046083804,14.675962083804,0.328084,0,0.245715559044,0.263875664612,24,5,0,15.004046083804,0,0,0.245715559044,0,0,0,74.6, 4.1, 1.3,0,0,1024,1024,1576,1024,0,0,84,0,85,-2.2,0,50,3.879,3.877,0,0,0,0,0,81.14,14.675962083804,-0.328084,10,Assisted_Takeoff,
1200,2023-01-04 22:39:16,-34.9535010509096,-54.9408111814937,-0.328084,-0.328084,15.004046083804,14.675962083804,0.328084,0,0.263568249904,0.281742463084,24,5,7.783,15.004046083804,0,0,0.263568249904,0,0,0,75.1, 2.9, 2.3,0,0,1024,1024,1684,1024,0,0,100,0,86.2,-2.2,0,50,3.879,3.877,0,0,0,0,0.762,81.14,14.675962083804,-0.328084,10,Assisted_Takeoff,
1300,2023-01-04 22:39:16,-34.9535010948646,-54.9408112068329,-0.328084,-0.328084,15.004046083804,14.675962083804,0.328084,0,0.265904864152,0.299479340292,24,5,7.783,15.004046083804,0,0,0.265904864152,0,0,0,74.5, 1.3, 2.3,0,0,1024,1024,1684,1024,0,0,100,0,86.3,-2.2,0,50,3.879,3.877,0,0,0,0,0.762,81.14,14.675962083804,-0.328084,10,Assisted_Takeoff,
1400,2023-01-04 22:39:16,-34.9535011193043,-54.940811137186,-0.328084,-0.328084,15.004046083804,14.675962083804,0.328084,0,0.28813485174,0.322134852828,24,5,7.783,15.004046083804,0,0,0.28813485174,0,0,0,73.3, 1.1, 0,0,0,1024,1024,1684,1024,0,0,100,0,85.5,-2.2,0,50,3.879,3.877,0,0,0,0,0.762,81.14,14.675962083804,-0.328084,10,Assisted_Takeoff,
1500,2023-01-04 22:39:16,-34.953501074483,-54.9408110382698,-0.328084,-0.328084,15.004046083804,14.675962083804,0.328084,0,0.30507382866,0.35593505076,24,5,7.783,15.004046083804,0,0,0.30507382866,0,0,0,72.8, 2.1, -1.1,0,0,1024,1024,1684,1024,0,0,100,0,84.7,-2.2,0,50,3.879,3.877,0,0,0,0,0.762,81.14,14.675962083804,-0.328084,10,Assisted_Takeoff,
1600,2023-01-04 22:39:16,-34.9535010236234,-54.9408109391002,-0.328084,-0.328084,15.004046083804,14.675962083804,0.328084,0,0.323867136348,0.39091536684,24,5,7.783,15.004046083804,0,0,0.323867136348,0,0,0,73.1, 1.5, -0.9,0,0,1024,1024,1684,1024,0,0,100,0,84.5,-2.2,0,50,3.879,3.877,0,0,0,0,0.762,81.14,14.675962083804,-0.328084,10,Assisted_Takeoff,
1700,2023-01-04 22:39:16,-34.9535009334662,-54.9408108417152,-0.328084,-0.328084,15.004046083804,14.675962083804,0.328084,0,0.34050526024,0.43484909528,24,5,7.783,15.004046083804,0,0,0.34050526024,0,0,0.223694,73.8, 0.1, -0.6,0,0,1024,1024,1684,1024,0,0,100,0,84.7,-2.2,0,50,3.879,3.877,0,0,0,0,0.762,81.14,14.675962083804,-0.328084,10,Assisted_Takeoff,
1800,2023-01-04 22:39:16,-34.9535009102837,-54.9408107403271,-0.328084,-0.328084,15.004046083804,14.675962083804,0.328084,0,0.36773951308,0.46632547424,24,5,7.783,15.004046083804,0,0,0.36773951308,0,0,0.223694,74.7, -0.7, 0,0,0,1024,1024,1684,1024,0,0,100,0,85.5,-2.2,0,50,3.879,3.877,0,0,0,0,0.762,81.14,14.675962083804,-0.328084,10,Assisted_Takeoff,
1900,2023-01-04 22:39:16,-34.9535008778581,-54.9408106809758,-0.328084,-0.328084,15.004046083804,14.675962083804,0.328084,0,0.38262468416,0.48765421508,24,5,7.783,15.004046083804,0,0,0.38262468416,0,0,0,75.2, -2.2, 0.3,0,0,1024,1024,1684,1024,0,0,100,0,86.2,-2.2,0,50,3.879,3.877,0,0,0,0,0.762,81.14,14.675962083804,-0.328084,10,Assisted_Takeoff,
2000,2023-01-04 22:39:16,-34.9535008594372,-54.9408105996118,-0.328084,-0.328084,15.004046083804,14.675962083804,0.328084,0,0.4053969946,0.51289699804,24,5,7.783,15.004046083804,0,0,0.4053969946,0,0,0,75, -1.9, 0.3,0,0,1024,1024,1684,1024,0,0,100,0,86.4,-2.2,0,50,3.879,3.877,0,0,0,0,0.762,81.14,14.675962083804,-0.328084,6,P-GPS,"Error de calibración del estabilizador. Reinicia la aeronave o contacta con la Asistencia DJI (Code: 40011)"
2100,2023-01-04 22:39:17,-34.9535008437259,-54.9408105815475,-0.328084,-0.328084,15.004046083804,14.675962083804,0.328084,0.223694,0.40984909448,0.52077429488,24,5,7.783,15.004046083804,0,0.223694,0.40984909448,0,0.223694,-0.671082,74.9, 0.1, 0.4,0,0,1024,1024,1684,1024,0,0,100,0,86.4,-2.2,0,50,3.879,3.877,0,0,0,0,0.762,81.14,14.675962083804,-0.328084,6,P-GPS,"Error de calibración del estabilizador. Reinicia la aeronave o contacta con la Asistencia DJI (Code: 40011)"
2200,2023-01-04 22:39:17,-34.9535008469112,-54.9408104403853,0,0,15.004046083804,15.004046083804,0.656168,0.223694,0.45180775724,0.56300198652,25,5,7.733,15.004046083804,0,0.223694,0.45180775724,0,0.223694,-1.342164,75, 1.4, 0.7,0,0,1024,1024,1569,1024,0,0,83,0,86.4,-2.2,0,50,3.869,3.865,0,0,0,0,1.608,81.32,15.004046083804,0,6,P-GPS,"Error de calibración del estabilizador. Reinicia la aeronave o contacta con la Asistencia DJI (Code: 40011)"
2300,2023-01-04 22:39:17,-34.9535008461686,-54.9408102949979,0,0,15.004046083804,15.004046083804,0.656168,0,0.49488518644,0.6064796782,25,5,7.733,15.004046083804,0,0.223694,0.49488518644,0,0,-2.013246,75.1, 1.5, 1,0,0,1024,1024,1024,1024,0,0,0,0,86.4,-2.2,0,50,3.869,3.865,0,0,0,0,1.608,81.32,15.004046083804,0,6,P-GPS,
2400,2023-01-04 22:39:17,-34.9535008822419,-54.9408101830711,0.328084,0.328084,15.004046083804,15.332130083804,1.312336,0,0.52979660488,0.64244424628,25,5,7.733,15.332130083804,0.328084,0.223694,0.52979660488,0,0,-2.684328,74.7, 0.7, 0.4,0,0,1024,1024,1024,1024,0,0,0,0,86.4,-2.2,0,50,3.869,3.865,0,0,0,0,1.608,81.32,15.332130083804,0.328084,6,P-GPS,
2500,2023-01-04 22:39:17,-34.953500978978,-54.9408100578227,0.656168,0.656168,15.004046083804,15.660214083804,1.312336,0,0.57258532016,0.69390750252,25,5,7.733,15.660214083804,0.656168,0.223694,0.57258532016,0,0,-2.908022,74.7, 0.3, -1.3,0,0,1024,1024,1024,1024,0,0,0,0,86.4,-2.2,0,50,3.869,3.865,0,0,0,0,1.608,81.32,15.660214083804,0.656168,6,P-GPS,
2600,2023-01-04 22:39:17,-34.9535010813029,-54.9408099080139,0.984252,0.984252,15.004046083804,15.988298083804,3.608924,0,0.62431760528,0.75222115268,25,5,7.733,15.988298083804,0.984252,0.223694,0.62431760528,0,0,-2.908022,74.8, 0.2, -2.2,0,0,1024,1024,1024,1024,0,0,0,0,86.4,-2.2,0,50,3.869,3.865,0,0,0,0,1.608,81.32,15.988298083804,0.984252,6,P-GPS,
2700,2023-01-04 22:39:17,-34.9535012244236,-54.9408097427381,1.64042,1.64042,15.004046083804,16.644466083804,4.265092,0,0.6857447726,0.82412076128,25,5,7.733,16.644466083804,1.64042,0.223694,0.6857447726,0,0,-2.684328,74.7, 1.4, -2.4,0,0,1024,1024,1024,1024,0,0,0,0,86.4,-2.2,0,50,3.869,3.865,0,0,0,0,1.608,81.32,16.644466083804,1.64042,6,P-GPS,
2800,2023-01-04 22:39:17,-34.953501341893,-54.9408096005595,1.968504,1.968504,15.004046083804,16.972550083804,4.593176,0,0.739419315,0.88449149812,25,5,7.733,16.972550083804,1.968504,0.223694,0.739419315,0,0,-2.23694,74.7, 0.9, -3,0,0,1024,1024,1024,1024,0,0,0,0,86.4,-2.2,0,50,3.869,3.865,0,0,0,0,1.608,81.32,16.972550083804,1.968504,6,P-GPS,
2900,2023-01-04 22:39:17,-34.9535014186123,-54.9408095006686,1.968504,1.968504,15.004046083804,16.972550083804,4.92126,0,0.77697837132,0.9254265388,25,5,7.733,16.972550083804,1.968504,0.223694,0.77697837132,0,0,-1.565858,74.7, 1.8, -2.4,0,0,1024,1024,1024,1024,0,0,0,0,86.4,-2.2,0,50,3.869,3.865,0,0,0,0,1.608,81.32,16.972550083804,1.968504,6,P-GPS,
3000,2023-01-04 22:39:17,-34.9535016156279,-54.9408093323224,2.296588,2.296588,15.004046083804,17.300634083804,4.92126,0,0.85061026344,1.01318244712,25,5,7.733,17.300634083804,2.296588,0.223694,0.85061026344,0,0,-0.894776,74.7, 2.4, -1.5,0,0,1024,1024,1024,1024,0,0,0,0,86.4,-2.2,0,50,3.869,3.865,0,0,0,0,1.608,81.32,17.300634083804,2.296588,6,P-GPS,
3100,2023-01-04 22:39:18,-34.9535015842511,-54.9408093881722,2.296588,2.296588,15.004046083804,17.300634083804,4.92126,0,0.8307250922,1.0334317916,25,5,7.733,17.300634083804,2.296588,0.223694,0.85061026344,0,0,-0.447388,74.8, 1.3, -0.7,0,0,1024,1024,1024,1024,0,0,0,0,86.4,-2.2,0,50,3.869,3.865,0,0,0,0,1.608,81.32,17.300634083804,2.296588,6,P-GPS,"Punto de origen actualizado. Altitud de RPO establecida en 100m (Code: 3000001)"
3200,2023-01-04 22:39:18,-34.9535015395405,-54.9408094818439,2.296588,2.296588,15.004046083804,17.300634083804,5.249344,0,0.79854661348,1.0658464908,25,5,7.581,17.300634083804,2.296588,0.223694,0.85061026344,0,0,0,74.9, 1, 0,0,0,1024,1024,1024,1024,0,0,0,0,86.4,-2.2,0,50,3.774,3.767,0,0,0,0,4.087,81.32,17.300634083804,2.296588,6,P-GPS,
3300,2023-01-04 22:39:18,-34.953501605232,-54.9408094383593,2.296588,2.296588,15.004046083804,17.300634083804,5.249344,0,0.82009845144,1.09311355204,25,5,7.581,17.300634083804,2.296588,0.223694,0.85061026344,0,0,0,74.8, 1, 0.6,0,0,1024,1024,1024,1024,0,0,0,0,86.4,-2.2,0,50,3.774,3.767,0,0,0,0,4.087,81.32,17.300634083804,2.296588,6,P-GPS,
3400,2023-01-04 22:39:18,-34.9535016563716,-54.9408094271726,2.296588,2.296588,15.004046083804,17.300634083804,5.249344,0,0.83098099772,1.11207024556,25,5,7.581,17.300634083804,2.296588,0.223694,0.85061026344,0,0,0,74.7, 0.1, 1.7,0,0,1024,1024,1024,1024,0,0,0,0,86.4,-2.2,0,50,3.774,3.767,0,0,0,0,4.087,81.32,17.300634083804,2.296588,6,P-GPS,
3500,2023-01-04 22:39:18,-34.9535017386797,-54.9408094532853,2.296588,2.296588,15.004046083804,17.300634083804,4.92126,0,0.83736223152,1.14309714944,25,5,7.581,17.300634083804,2.296588,0.223694,0.85061026344,0,0,0,74.6, -0.1, 0.4,0,0,1024,1024,1024,1024,0,0,0,0,86.4,-2.2,0,50,3.774,3.767,0,0,0,0,4.087,81.32,17.300634083804,2.296588,6,P-GPS,
3600,2023-01-04 22:39:18,-34.9535018292603,-54.9408094791393,2.296588,2.296588,15.004046083804,17.300634083804,4.92126,0,0.84639766488,1.17704072008,25,5,7.581,17.300634083804,2.296588,0.223694,0.85061026344,0,0,0,74.7, 0.3, 0.1,0,0,1024,1024,1024,1024,0,0,0,0,86.4,-2.2,0,50,3.774,3.767,0,0,0,0,4.087,81.32,17.300634083804,2.296588,6,P-GPS,
3700,2023-01-04 22:39:18,-34.9535018476096,-54.9408095861273,2.296588,2.296588,15.004046083804,17.300634083804,4.92126,0,0.82221459324,1.20972444816,25,5,7.581,17.300634083804,2.296588,0.223694,0.85061026344,0,0,0,74.8, 0.9, -0.4,0,0,1024,1024,1024,1024,0,0,0,0,86.4,-2.2,0,50,3.774,3.767,0,0,0,0,4.087,81.32,17.300634083804,2.296588,6,P-GPS,
3800,2023-01-04 22:39:18,-34.9535017770979,-54.9408098302011,2.296588,2.296588,15.004046083804,17.300634083804,4.92126,0,0.74663388216,1.28711290208,25,5,7.581,17.300634083804,2.296588,0.223694,0.85061026344,0,0,0,75, -0.1, -0.7,0,0,1024,1024,1024,1024,0,0,0,0,86.4,-2.2,0,50,3.774,3.767,0,0,0,0,4.087,81.32,17.300634083804,2.296588,6,P-GPS,
3900,2023-01-04 22:39:18,-34.9535018244791,-54.9408099303428,2.296588,2.296588,15.004046083804,17.300634083804,4.92126,0,0.73127627012,1.32169295568,25,5,7.581,17.300634083804,2.296588,0.223694,0.85061026344,0,0,0,74.9, -0.7, -0.5,0,0,1024,1024,1024,1024,0,0,0,0,86.4,-2.2,0,50,3.774,3.767,0,0,0,0,4.087,81.32,17.300634083804,2.296588,6,P-GPS,
4000,2023-01-04 22:39:18,-34.9535018760161,-54.9408100206619,2.296588,2.296588,15.004046083804,17.300634083804,4.92126,0,0.72051183408,1.35459978088,25,5,7.581,17.300634083804,2.296588,0.223694,0.85061026344,0,0,0,74.9, -1.6, -0.6,0,0,1024,1024,1024,1024,0,0,0,0,86.4,-2.2,0,50,3.774,3.767,0,0,0,0,4.087,81.32,17.300634083804,2.296588,6,P-GPS,
4100,2023-01-04 22:39:19,-34.9535019050871,-54.940810099627,2.296588,2.296588,15.004046083804,17.300634083804,4.92126,0,0.70852036388,1.38048560848,25,5,7.581,17.300634083804,2.296588,0.223694,0.85061026344,0,0,0,74.9, -2.1, -1,0,0,1024,1024,1024,1024,0,0,0,0,86.4,-2.2,0,49,3.774,3.767,0,0,0,0,4.087,81.32,17.300634083804,2.296588,6,P-GPS,
4200,2023-01-04 22:39:19,-34.9535019138416,-54.9408101620435,2.296588,2.296588,15.004046083804,17.300634083804,4.92126,0,0.69620737136,1.39942261696,25,5,7.641,17.300634083804,2.296588,0.223694,0.85061026344,0,0,0,74.9, -1.6, -1.2,0,0,1024,1024,1024,1024,0,0,0,0,86.4,-2.2,0,49,3.812,3.806,0,0,0,0,4.304,81.14,17.300634083804,2.296588,6,P-GPS,
4300,2023-01-04 22:39:19,-34.9535018119727,-54.9408102300807,2.296588,2.296588,15.004046083804,17.300634083804,4.92126,0,0.656824168,1.44179466556,25,5,7.641,17.300634083804,2.296588,0.223694,0.85061026344,0,0,0,74.8, -1.2, -1.1,0,0,1024,1024,1024,1024,0,0,0,0,86.4,-2.2,0,49,3.812,3.806,0,0,0,0,4.304,81.14,17.300634083804,2.296588,6,P-GPS,
4400,2023-01-04 22:39:19,-34.9535018323804,-54.9408101917413,2.296588,2.296588,15.004046083804,17.300634083804,4.92126,0,0.67041996896,1.45546592584,25,5,7.641,17.300634083804,2.296588,0.223694,0.85061026344,0,0,0,75, -0.8, -0.9,0,0,1024,1024,1024,1024,0,0,0,0,86.4,-2.2,0,49,3.812,3.806,0,0,0,0,4.304,81.14,17.300634083804,2.296588,6,P-GPS,
4500,2023-01-04 22:39:19,-34.9535018446132,-54.9408101481052,2.296588,2.296588,15.004046083804,17.300634083804,4.92126,0,0.68339569116,1.46925529636,25,5,7.641,17.300634083804,2.296588,0.223694,0.85061026344,0,0,0,74.9, 0, -0.8,0,0,1024,1024,1024,1024,0,0,0,0,86.4,-2.2,0,49,3.812,3.806,0,0,0,0,4.304,81.14,17.300634083804,2.296588,6,P-GPS,
4600,2023-01-04 22:39:19,-34.953501853042,-54.9408100927468,2.296588,2.296588,15.004046083804,17.300634083804,4.92126,0,0.69831695148,1.48609256724,25,5,7.641,17.300634083804,2.296588,0.223694,0.85061026344,0,0,0,74.7, 0.1, -1.2,0,0,1024,1024,1024,1024,0,0,0,0,86.4,-2.2,0,49,3.812,3.806,0,0,0,0,4.304,81.14,17.300634083804,2.296588,6,P-GPS,
4700,2023-01-04 22:39:19,-34.9535018509576,-54.9408100370434,2.296588,2.296588,15.004046083804,17.300634083804,4.92126,0,0.7110892616,1.50276907696,25,5,7.641,17.300634083804,2.296588,0.223694,0.85061026344,0,0,0,74.7, 0.6, -0.7,0,0,1024,1024,1024,1024,0,0,0,0,86.4,-2.2,0,49,3.812,3.806,0,0,0,0,4.304,81.14,17.300634083804,2.296588,6,P-GPS,
4800,2023-01-04 22:39:19,-34.9535018500587,-54.9408099579397,2.296588,2.296588,15.004046083804,17.300634083804,4.92126,0,0.72994096824,1.52642393336,25,5,7.641,17.300634083804,2.296588,0.223694,0.85061026344,0,0,0,74.6, 0.8, -0.4,0,0,1024,1024,1024,1024,0,0,0,0,86.4,-2.2,0,49,3.812,3.806,0,0,0,0,4.304,81.14,17.300634083804,2.296588,6,P-GPS,
4900,2023-01-04 22:39:19,-34.9535018711699,-54.9408098772394,2.296588,2.296588,15.004046083804,17.300634083804,4.92126,0,0.75405842308,1.551755299,25,5,7.641,17.300634083804,2.296588,0.223694,0.85061026344,0,0,0,74.4, 1.2, -0.8,0,0,1024,1024,1024,1024,0,0,0,0,86.4,-2.2,0,49,3.812,3.806,0,0,0,0,4.304,81.14,17.300634083804,2.296588,6,P-GPS,
5000,2023-01-04 22:39:19,-34.9535018946911,-54.9408098065081,2.296588,2.296588,15.004046083804,17.300634083804,4.92126,0,0.77630251828,1.57458338372,25,5,7.641,17.300634083804,2.296588,0.223694,0.85061026344,0,0,0,74.4, 1.9, -0.5,0,0,1024,1024,1024,1024,0,0,0,0,86.4,-2.2,0,49,3.812,3.806,0,0,0,0,4.304,81.14,17.300634083804,2.296588,6,P-GPS,
5100,2023-01-04 22:39:19,-34.9535019141478,-54.9408096447652,2.296588,2.296588,15.004046083804,17.300634083804,4.92126,0,0.82034779528,1.62346789972,25,5,7.641,17.300634083804,2.296588,0.223694,0.85061026344,0,0,0,74.3, 1.5, -0.7,0,0,1024,1024,1024,1024,0,0,0,0,86.4,-2.2,0,49,3.812,3.806,0,0,0,0,4.304,81.14,17.300634083804,2.296588,6,P-GPS,
5200,2023-01-04 22:39:20,-34.9535019366659,-54.9408095723511,2.296588,2.296588,15.004046083804,17.300634083804,4.92126,0,0.84297246792,1.64662734928,25,5,7.598,17.300634083804,2.296588,0.223694,0.85061026344,0,0,0,74.2, 1.2, -1,0,0,1024,1024,1024,1024,0,0,0,0,86.4,-2.2,0,49,3.799,3.795,0,0,0,0,4.491,81.32,17.300634083804,2.296588,6,P-GPS,
5300,2023-01-04 22:39:20,-34.9535019715081,-54.9408095335858,2.296588,2.296588,15.004046083804,17.300634083804,4.92126,0,0.85962601176,1.66383207424,25,5,7.598,17.300634083804,2.296588,0.223694,0.85962601176,0,0,0,74.4, 0.7, -1,0,0,1024,1024,1024,1024,0,0,0,0,86.4,-2.2,0,49,3.799,3.795,0,0,0,0,4.491,81.32,17.300634083804,2.296588,6,P-GPS,
5400,2023-01-04 22:39:20,-34.9535020078094,-54.9408095138125,2.296588,2.296588,15.004046083804,17.300634083804,4.92126,0,0.87187010664,1.67833666788,25,5,7.598,17.300634083804,2.296588,0.223694,0.87187010664,0,0,0,74.6, 0.1, -0.9,0,0,1024,1024,1024,1024,0,0,0,0,86.4,-2.2,0,49,3.799,3.795,0,0,0,0,4.491,81.32,17.300634083804,2.296588,6,P-GPS,
5500,2023-01-04 22:39:20,-34.9535020315325,-54.9408094776002,2.296588,2.296588,15.004046083804,17.300634083804,4.92126,0,0.88568244304,1.69220149772,25,5,7.598,17.300634083804,2.296588,0.223694,0.88568244304,0,0,0,74.7, -0.2, -0.9,0,0,1024,1024,1024,1024,0,0,0,0,86.4,-2.2,0,49,3.799,3.795,0,0,0,0,4.491,81.32,17.300634083804,2.296588,6,P-GPS,
5600,2023-01-04 22:39:20,-34.9535020706543,-54.9408094802577,2.296588,2.296588,15.004046083804,17.300634083804,4.92126,0,0.89305777136,1.7064961176,25,5,7.598,17.300634083804,2.296588,0.223694,0.89305777136,0,0,0,74.6, -0.1, -1.2,0,0,1024,1024,1024,1024,0,0,0,0,86.4,-2.2,0,49,3.799,3.795,0,0,0,0,4.491,81.32,17.300634083804,2.296588,6,P-GPS,
5700,2023-01-04 22:39:20,-34.9535020984355,-54.9408095510308,2.296588,2.296588,15.004046083804,17.300634083804,4.92126,0,0.881643729,1.72996068528,25,5,7.598,17.300634083804,2.296588,0.223694,0.89305777136,0,0,0,74.4, -0.6, -1.5,0,0,1024,1024,1024,1024,0,0,0,0,86.4,-2.2,0,49,3.799,3.795,0,0,0,0,4.491,81.32,17.300634083804,2.296588,6,P-GPS,
5800,2023-01-04 22:39:20,-34.9535021216571,-54.940809614631,2.624672,2.624672,15.004046083804,17.628718083804,4.92126,0,0.87141078904,1.75078089592,25,5,7.598,17.628718083804,2.624672,0.223694,0.89305777136,0,0,0,74.4, -0.5, -0.9,0,0,1024,1024,1024,1024,0,0,0,0,86.4,-2.2,0,49,3.799,3.795,0,0,0,0,4.491,81.32,17.628718083804,2.624672,6,P-GPS,
5900,2023-01-04 22:39:20,-34.9535021238849,-54.9408096011239,2.624672,2.624672,15.004046083804,17.628718083804,4.92126,0,0.87512469992,1.75490163096,25,5,7.598,17.628718083804,2.624672,0.223694,0.89305777136,0,0,0,74.5, -0.4, -0.8,0,0,1024,1024,1024,1024,0,0,0,0,86.4,-2.2,0,49,3.799,3.795,0,0,0,0,4.491,81.32,17.628718083804,2.624672,6,P-GPS,
6000,2023-01-04 22:39:20,-34.9535020333759,-54.9408096090703,2.624672,2.624672,15.004046083804,17.628718083804,4.92126,0,0.85370409556,1.7880085874,25,5,7.598,17.628718083804,2.624672,0.223694,0.89305777136,0,0,0,74.5, -0.6, -1,0,0,1024,1024,1024,1024,0,0,0,0,86.4,-2.2,0,49,3.799,3.795,0,0,0,0,4.491,81.32,17.628718083804,2.624672,6,P-GPS,
6100,2023-01-04 22:39:21,-34.9535020815453,-54.9408096174166,2.624672,2.624672,15.004046083804,17.628718083804,4.92126,0,0.86198165488,1.80576121264,25,5,7.598,17.628718083804,2.624672,0.223694,0.89305777136,0,0,0,74.5, -0.4, -1.2,0,0,1024,1024,1024,1024,0,0,0,0,86.4,-2.2,0,49,3.799,3.795,0,0,0,0,4.491,81.32,17.628718083804,2.624672,6,P-GPS,
6200,2023-01-04 22:39:21,-34.9535021291871,-54.9408096177902,2.624672,2.624672,15.004046083804,17.628718083804,4.92126,0,0.87232286256,1.82314310296,25,5,7.592,17.628718083804,2.624672,0.223694,0.89305777136,0,0,0,74.5, -0.3, -1.3,0,0,1024,1024,1024,1024,0,0,0,0,86.4,-2.2,0,49,3.796,3.791,0,0,0,0,4.516,81.32,17.628718083804,2.624672,6,P-GPS,
6300,2023-01-04 22:39:21,-34.9535021919147,-54.9408095848051,2.624672,2.624672,15.004046083804,17.628718083804,5.249344,0,0.8941273252,1.8480643636,25,5,7.592,17.628718083804,2.624672,0.223694,0.8941273252,0,0,0,74.5, -0.2, -1.4,0,0,1024,1024,1024,1024,0,0,0,0,86.4,-2.2,0,49,3.796,3.791,0,0,0,0,4.516,81.32,17.628718083804,2.624672,6,P-GPS,
6400,2023-01-04 22:39:21,-34.9535023095861,-54.9408095790197,2.624672,2.624672,15.004046083804,17.628718083804,5.249344,0,0.92256564632,1.89103024424,25,5,7.592,17.628718083804,2.624672,0.223694,0.92256564632,0,0,0,74.5, 0.1, -1.6,0,0,1024,1024,1024,1024,0,0,0,0,86.4,-2.2,0,49,3.796,3.791,0,0,0,0,4.516,81.32,17.628718083804,2.624672,6,P-GPS,
6500,2023-01-04 22:39:21,-34.9535023133967,-54.9408095449292,2.624672,2.624672,15.004046083804,17.628718083804,5.249344,0,0.93126971484,1.90131895848,25,5,7.592,17.628718083804,2.624672,0.223694,0.93126971484,0,0,0,74.7, -0.1, -1.7,0,0,1024,1024,1024,1024,0,0,0,0,86.4,-2.2,0,49,3.796,3.791,0,0,0,0,4.516,81.32,17.628718083804,2.624672,6,P-GPS,
6600,2023-01-04 22:39:21,-34.9535023133706,-54.9408095128483,2.624672,2.624672,15.004046083804,17.628718083804,5.249344,0,0.93865488568,1.91091213464,25,5,7.592,17.628718083804,2.624672,0.223694,0.93865488568,0,0,0,74.7, -0.3, -1.7,0,0,1024,1024,1024,1024,0,0,0,0,86.4,-2.2,0,49,3.796,3.791,0,0,0,0,4.516,81.32,17.628718083804,2.624672,6,P-GPS,
6700,2023-01-04 22:39:21,-34.9535023364489,-54.9408094898347,2.624672,2.624672,15.004046083804,17.628718083804,5.249344,0,0.94932089652,1.92178811924,25,5,7.592,17.628718083804,2.624672,0.223694,0.94932089652,0,0,0,74.6, -0.3, -1.8,0,0,1024,1024,1024,1024,0,0,0,0,86.4,-2.2,0,49,3.796,3.791,0,0,0,0,4.516,81.32,17.628718083804,2.624672,6,P-GPS,
6800,2023-01-04 22:39:21,-34.9535023079577,-54.9408094786219,2.624672,2.624672,15.004046083804,17.628718083804,5.249344,0,0.9453412376,1.9327100356,25,5,7.592,17.628718083804,2.624672,0.223694,0.94932089652,0,0,0,74.4, -0.2, -1.3,0,0,1024,1024,1024,1024,0,0,0,0,86.4,-2.2,0,49,3.796,3.791,0,0,0,0,4.516,81.32,17.628718083804,2.624672,6,P-GPS,
6900,2023-01-04 22:39:21,-34.9535023311858,-54.940809414865,2.624672,2.624672,15.004046083804,17.628718083804,5.249344,0,0.96551184192,1.953576178,25,5,7.592,17.628718083804,2.624672,0.223694,0.96551184192,0,0,0,74.4, -0.2, -1.3,0,0,1024,1024,1024,1024,0,0,0,0,86.4,-2.2,0,49,3.796,3.791,0,0,0,0,4.516,81.32,17.628718083804,2.624672,6,P-GPS,
7000,2023-01-04 22:39:21,-34.9535023526552,-54.9408093453304,2.624672,2.624672,15.004046083804,17.628718083804,5.249344,0,0.98666997908,1.97579402648,25,5,7.592,17.628718083804,2.624672,0.223694,0.98666997908,0,0,0,74.3, 0.9, -1.1,0,0,1024,1024,1024,1024,0,0,0,0,86.4,-2.2,0,49,3.796,3.791,0,0,0,0,4.516,81.32,17.628718083804,2.624672,6,P-GPS,"Error de calibración del estabilizador. Reinicia la aeronave o contacta con la Asistencia DJI (Code: 40011)"
7100,2023-01-04 22:39:22,-34.9535023903048,-54.9408093252148,2.624672,2.624672,15.004046083804,17.628718083804,5.249344,0,0.999918011,1.99079074612,25,5,7.592,17.628718083804,2.624672,0.223694,0.999918011,0,0,0,74, 0.1, -1.2,0,0,1024,1024,1024,1024,0,0,0,0,86.4,-2.2,0,49,3.796,3.791,0,0,0,0,4.516,81.32,17.628718083804,2.624672,31,Sport,"Error de calibración del estabilizador. Reinicia la aeronave o contacta con la Asistencia DJI (Code: 40011)"
7200,2023-01-04 22:39:22,-34.9535025053511,-54.9408093273889,2.624672,2.5918636,15.036854483804,17.628718083804,5.249344,0,1.02615160764,2.03276909392,25,5,7.581,17.628718083804,2.624672,0.223694,1.02615160764,0,0,0,74, 0.1, -1.5,0,0,1024,1024,1024,1024,0,0,0,0,86.4,-2.2,0,49,3.796,3.792,0,0,0,0,4.504,81.32,17.628718083804,2.624672,31,Sport,
7300,2023-01-04 22:39:22,-34.953502528449,-54.9408093551322,2.624672,2.5918636,15.036854483804,17.628718083804,5.249344,0,1.02538061024,2.04459652212,25,5,7.581,17.628718083804,2.624672,0.223694,1.02615160764,0,0,0,74.3, 0.2, -1.4,0,0,1024,1024,1024,1024,0,0,0,0,86.4,-2.2,0,49,3.796,3.792,0,0,0,0,4.504,81.32,17.628718083804,2.624672,31,Sport,
7400,2023-01-04 22:39:22,-34.9535025573701,-54.9408093992439,2.624672,2.5918636,15.036854483804,17.628718083804,5.249344,0,1.02252627944,2.06148956728,25,5,7.581,17.628718083804,2.624672,0.223694,1.02615160764,0,0,0,74.4, -0.2, -1.3,0,0,1024,1024,1024,1024,0,0,0,0,86.4,-2.2,0,49,3.796,3.792,0,0,0,0,4.504,81.32,17.628718083804,2.624672,31,Sport,
7500,2023-01-04 22:39:22,-34.9535026344672,-54.9408094220588,2.952756,2.9199476,15.036854483804,17.956802083804,5.249344,0,1.03662404892,2.09043313776,25,5,7.581,17.956802083804,2.952756,0.223694,1.03662404892,0,0,0,74.6, -1.1, -1.7,0,0,1024,1024,1024,1024,0,0,0,0,86.4,-2.2,0,49,3.796,3.792,0,0,0,0,4.504,81.32,17.956802083804,2.952756,31,Sport,
7600,2023-01-04 22:39:22,-34.9535027035523,-54.9408094375048,2.952756,2.9199476,15.036854483804,17.956802083804,4.92126,0,1.0508366478,2.11605649816,25,5,7.581,17.956802083804,2.952756,0.223694,1.0508366478,0,0,0,74.7, -0.9, -2.3,0,0,1024,1024,1024,1024,0,0,0,0,86.4,-2.2,0,49,3.796,3.792,0,0,0,0,4.504,81.32,17.956802083804,2.952756,31,Sport,
7700,2023-01-04 22:39:22,-34.9535027041516,-54.9408095427996,2.952756,2.9199476,15.036854483804,17.956802083804,4.92126,0,1.02883205392,2.14754600048,25,5,7.581,17.956802083804,2.952756,0.223694,1.0508366478,0,0,0,74.6, -1.1, -1.6,0,0,1024,1024,1024,1024,0,0,0,0,86.4,-2.2,0,49,3.796,3.792,0,0,0,0,4.504,81.32,17.956802083804,2.952756,31,Sport,
7800,2023-01-04 22:39:22,-34.953502713831,-54.9408095656511,2.952756,2.9199476,15.036854483804,17.956802083804,4.92126,0,1.02663717196,2.15523628944,25,5,7.581,17.956802083804,2.952756,0.223694,1.0508366478,0,0,0,74.5, -0.9, -0.3,0,0,1024,1024,1024,1024,0,0,0,0,86.4,-2.2,0,49,3.796,3.792,0,0,0,0,4.504,81.32,17.956802083804,2.952756,31,Sport,
7900,2023-01-04 22:39:22,-34.9535027486146,-54.9408095544827,2.952756,2.9199476,15.036854483804,17.956802083804,4.92126,0,1.038139797,2.16835964944,25,5,7.581,17.956802083804,2.952756,0.223694,1.0508366478,0,0,0,74.2, -1.3, -1.2,0,0,1024,1024,1024,1024,0,0,0,0,86.4,-2.2,0,49,3.796,3.792,0,0,0,0,4.504,81.32,17.956802083804,2.952756,31,Sport,
8000,2023-01-04 22:39:22,-34.9535027886092,-54.9408095294388,2.952756,2.9199476,15.036854483804,17.956802083804,4.92126,0,1.05390095236,2.1847605686,25,5,7.581,17.956802083804,2.952756,0.223694,1.05390095236,0,0,0,74.3, -0.5, -1.7,0,0,1024,1024,1024,1024,0,0,0,0,86.4,-2.2,0,49,3.796,3.792,0,0,0,0,4.504,81.32,17.956802083804,2.952756,31,Sport,
8100,2023-01-04 22:39:23,-34.9535028373713,-54.9408095246934,2.952756,2.9199476,15.036854483804,17.956802083804,4.92126,0,1.06791998168,2.2026083382,25,5,7.581,17.956802083804,2.952756,0.223694,1.06791998168,0,0,0,74.3, -0.1, -2.5,0,0,1024,1024,1024,1024,0,0,0,0,86.4,-2.2,0,49,3.796,3.792,0,0,0,0,4.504,81.32,17.956802083804,2.952756,31,Sport,
8200,2023-01-04 22:39:23,-34.9535028695754,-54.9408095223469,2.952756,2.9199476,15.036854483804,17.956802083804,4.92126,0,1.0770833678,2.21437999212,25,5,7.575,17.956802083804,2.952756,0.223694,1.0770833678,0,0,0,74.5, -0.3, -2.2,0,0,1024,1024,1024,1024,0,0,0,0,86.4,-2.2,0,49,3.786,3.78,0,0,0,0,4.43,81.5,17.956802083804,2.952756,31,Sport,
8300,2023-01-04 22:39:23,-34.9535028700705,-54.9408095089626,2.952756,2.9199476,15.036854483804,17.956802083804,4.92126,0,1.0799048902,2.21838589776,25,5,7.575,17.956802083804,2.952756,0.223694,1.0799048902,0,0,0,74.4, -0.5, -1.7,0,0,1024,1024,1024,1024,0,0,0,0,86.4,-2.2,0,49,3.786,3.78,0,0,0,0,4.43,81.5,17.956802083804,2.952756,31,Sport,
8400,2023-01-04 22:39:23,-34.9535028753987,-54.9408095062084,2.952756,2.9199476,15.036854483804,17.956802083804,4.92126,0,1.08189636008,2.22049875872,25,5,7.575,17.956802083804,2.952756,0.223694,1.08189636008,0,0,0,74.3, -0.8, -1.6,0,0,1024,1024,1024,1024,0,0,0,0,86.4,-2.2,0,49,3.786,3.78,0,0,0,0,4.43,81.5,17.956802083804,2.952756,31,Sport,
8500,2023-01-04 22:39:23,-34.9535027773403,-54.9408095196684,2.952756,2.9199476,15.036854483804,17.956802083804,4.92126,0,1.05290685784,2.25649941604,25,5,7.575,17.956802083804,2.952756,0.223694,1.08189636008,0,0,0,74.4, -1.2, -2,0,0,1024,1024,1024,1024,0,0,0,0,86.4,-2.2,0,49,3.786,3.78,0,0,0,0,4.43,81.5,17.956802083804,2.952756,31,Sport,
8600,2023-01-04 22:39:23,-34.9535027785259,-54.9408095389714,2.952756,2.9199476,15.036854483804,17.956802083804,4.92126,0,1.04926840628,2.26229009864,25,5,7.575,17.956802083804,2.952756,0.223694,1.08189636008,0,0,0,74.4, -1.5, -2,0,0,1037,1024,1024,1024,2,0,0,0,86.4,-2.2,0,49,3.786,3.78,0,0,0,0,4.43,81.5,17.956802083804,2.952756,31,Sport,
8700,2023-01-04 22:39:23,-34.953502825425,-54.9408095705245,2.952756,2.9199476,15.036854483804,17.956802083804,4.92126,0,1.05547247472,2.28182750084,25,5,7.575,17.956802083804,2.952756,0.223694,1.08189636008,0,0,0,74.7, -1.4, -1.1,0,0,1531,1024,1024,1024,77,0,0,0,86.4,-2.2,0,49,3.786,3.78,0,0,0,0,4.43,81.5,17.956802083804,2.952756,31,Sport,
8800,2023-01-04 22:39:23,-34.9535028815608,-54.9408095868877,2.952756,2.9199476,15.036854483804,17.956802083804,4.92126,0,1.06752628088,2.3028872128,25,5,7.575,17.956802083804,2.952756,0.223694,1.08189636008,0,0,0,74.5, -2.5, -1.7,0,0,1684,1024,1024,1024,100,0,0,0,86.4,-2.2,0,49,3.786,3.78,0,0,0,0,4.43,81.5,17.956802083804,2.952756,31,Sport,
8900,2023-01-04 22:39:23,-34.9535029493561,-54.9408095649769,2.952756,2.9199476,15.036854483804,17.956802083804,4.92126,0,1.09051512676,2.32847448396,25,5,7.575,17.956802083804,2.952756,0.223694,1.09051512676,0,0,0,74.9, -14.3, -3,0,0,1684,1024,1024,1024,100,0,0,0,86.4,-2.2,0,49,3.786,3.78,0,0,0,0,4.43,81.5,17.956802083804,2.952756,31,Sport,
9000,2023-01-04 22:39:23,-34.9535029634129,-54.9408093175663,3.28084,3.2480316,15.036854483804,18.284886083804,4.92126,0.671082,1.14376315996,2.40263787216,25,5,7.575,18.284886083804,3.28084,0.671082,1.14376315996,0,0.671082,0,75.3, -24, -2.9,0,0,1684,1024,1024,1024,100,0,0,0,86.4,-2.2,0,49,3.786,3.78,0,0,0,0,4.43,81.5,18.284886083804,3.28084,31,Sport,
9100,2023-01-04 22:39:24,-34.9535029205001,-54.9408086849407,3.28084,3.2480316,15.036854483804,18.284886083804,4.92126,1.5882274,1.27064636612,2.59246071288,25,5,7.575,18.284886083804,3.28084,1.5882274,1.27064636612,0.223694,1.565858,0,75.3, -27.4, -3.5,0,0,1684,1024,1024,1024,100,0,0,0,86.4,-2.2,0,49,3.786,3.78,0,0,0,0,4.43,81.5,18.284886083804,3.28084,31,Sport,
9200,2023-01-04 22:39:24,-34.9535027716082,-54.9408076220844,3.28084,3.2480316,15.036854483804,18.284886083804,4.92126,2.7290668,1.49930779076,2.91490494892,25,5,7.565,18.284886083804,3.28084,2.7290668,1.49930779076,0.447388,2.684328,0,75.2, -27.6, -3.3,0,0,1684,1024,1024,1024,100,0,0,0,86.4,-2.2,0,49,3.778,3.775,0,0,0,0,4.642,81.5,18.284886083804,3.28084,31,Sport,
9300,2023-01-04 22:39:24,-34.9535024462321,-54.9408060126491,3.28084,3.28084,15.004046083804,18.284886083804,4.92126,3.6462122,1.88534126768,3.410597222,25,5,7.565,18.284886083804,3.28084,3.6462122,1.88534126768,0.671082,3.579104,0,75.1, -26.9, -3.6,0,0,1684,1024,1024,1024,100,0,0,0,86.4,-2.2,0,49,3.778,3.775,0,0,0,0,4.642,81.5,18.284886083804,3.28084,31,Sport,
9400,2023-01-04 22:39:24,-34.9535020183161,-54.9408040276125,3.28084,3.28084,15.004046083804,18.284886083804,4.593176,4.6080964,2.41522973608,4.0244095776,25,5,7.565,18.284886083804,3.28084,4.6080964,2.41522973608,1.11847,4.47388,0,74.8, -26.2, -4.4,0,0,1467,1024,1024,1024,67,0,0,0,86.4,-2.2,0,49,3.778,3.775,0,0,0,0,4.642,81.5,18.284886083804,3.28084,31,Sport,
9500,2023-01-04 22:39:24,-34.9535014690289,-54.9408016557331,3.28084,3.28084,15.004046083804,18.284886083804,4.92126,5.5252418,3.0880578416,4.7614502836,25,5,7.565,18.284886083804,3.28084,5.5252418,3.0880578416,1.342164,5.368656,0,75.1, -23.4, -3,0,0,1024,1024,1024,1024,0,0,0,0,86.4,-2.2,0,49,3.778,3.775,0,0,0,0,4.642,81.5,18.284886083804,3.28084,31,Sport,
9600,2023-01-04 22:39:24,-34.953500853438,-54.940799105967,3.28084,3.28084,15.004046083804,18.284886083804,4.92126,6.2410626,3.837598548,5.5562993904,25,5,7.565,18.284886083804,3.28084,6.2410626,3.837598548,1.565858,6.039738,0,74.6, -10, -1.7,0,0,1024,1024,1024,1024,0,0,0,0,86.4,-2.2,0,49,3.778,3.775,0,0,0,0,4.642,81.5,18.284886083804,3.28084,31,Sport,
9700,2023-01-04 22:39:24,-34.9535001630754,-54.9407961542544,2.952756,2.9855644,14.971237683804,17.956802083804,4.92126,6.0173686,4.7234909648,6.4742128056,25,5,7.565,18.284886083804,3.28084,6.2410626,4.7234909648,1.565858,5.816044,0,74.2, 17.4, -0.5,0,0,1024,1024,1024,1024,0,0,0,0,86.4,-2.2,0,49,3.778,3.775,0,0,0,0,4.642,81.5,17.956802083804,2.952756,31,Sport,
9800,2023-01-04 22:39:24,-34.9534995374663,-54.9407934102463,2.952756,2.9855644,14.971237683804,17.956802083804,4.92126,4.8765292,5.555938498,7.3259188696,25,5,7.565,18.284886083804,3.28084,6.2410626,5.555938498,1.342164,4.697574,0,73.6, 26.2, -1.6,0,0,1024,1024,1473,1024,0,0,68,0,86.4,-2.2,0,49,3.778,3.775,0,0,0,0,4.642,81.5,17.956802083804,2.952756,31,Sport,
9900,2023-01-04 22:39:24,-34.9534991501637,-54.9407912533019,2.952756,3.0183728,14.938429283804,17.956802083804,4.593176,3.914645,6.2104004612,7.986220728,25,5,7.565,18.284886083804,3.28084,6.2410626,6.2104004612,0.894776,3.802798,0,73.4, 22.5, -3.2,0,0,1024,1024,1684,1024,0,0,100,0,86.4,-2.2,0,49,3.778,3.775,0,0,0,0,4.642,81.5,17.956802083804,2.952756,31,Sport,
10000,2023-01-04 22:39:24,-34.9534988831901,-54.9407896303857,2.952756,3.0183728,14.938429283804,17.956802083804,4.593176,3.914645,6.7027233116,8.4812338672,25,5,7.565,18.284886083804,3.28084,6.2410626,6.7027233116,0.671082,2.684328,-0.223694,74.3, 14.8, -0.9,0,0,1024,1024,1684,1024,0,0,100,0,86.4,-2.2,0,49,3.778,3.775,0,0,0,0,4.642,81.5,17.956802083804,2.952756,31,Sport,"Error de calibración del estabilizador. Reinicia la aeronave o contacta con la Asistencia DJI (Code: 40011)"
10100,2023-01-04 22:39:24,-34.9534988541387,-54.9407888347917,3.28084,3.3464568,14.938429283804,18.284886083804,4.593176,1.8342908,6.9405514032,8.7193572344,25,5,7.531,18.284886083804,3.28084,6.2410626,6.9405514032,0.447388,1.789552,-1.11847,74.5, 9, -1,0,0,1024,1024,1684,1024,0,0,100,0,86.4,-2.2,0,49,3.781,3.766,0,0,0,0,5.088,81.5,18.284886083804,3.28084,31,Sport,"Error de calibración del estabilizador. Reinicia la aeronave o contacta con la Asistencia DJI (Code: 40011)"
10200,2023-01-04 22:39:25,-34.9534993873564,-54.9407886829028,3.28084,3.3464568,14.938429283804,18.284886083804,4.92126,1.1408394,6.9699149212,8.9191603904,25,5,7.531,18.284886083804,3.28084,6.2410626,6.9699149212,0.223694,1.11847,-2.013246,74.5, 5.5, -1,0,0,1024,1024,1684,1024,0,0,100,0,86.4,-2.2,0,49,3.781,3.766,0,0,0,0,5.088,81.5,18.284886083804,3.28084,31,Sport,
10300,2023-01-04 22:39:25,-34.9534994601348,-54.9407879513977,3.937008,4.0026248,14.938429283804,18.941054083804,5.249344,0.447388,7.1864831696,9.1395016048,25,5,7.531,18.941054083804,3.937008,6.2410626,7.1864831696,0,0.447388,-2.908022,74.4, 2.7, -0.4,0,0,1423,1024,1684,1024,60,0,100,0,86.4,-2.2,0,49,3.781,3.766,0,0,0,0,5.088,81.5,18.941054083804,3.937008,31,Sport,
10400,2023-01-04 22:39:25,-34.9534995658403,-54.9407873857458,4.265092,4.2979004,14.971237683804,19.269138083804,5.905512,0.223694,7.3530842248,9.312992424,25,5,7.531,19.269138083804,4.265092,6.2410626,7.3530842248,0,0.223694,-4.026492,74.5, -2.2, -0.6,0,0,1684,1024,1684,1024,100,0,100,0,86.4,-2.2,0,49,3.781,3.766,0,0,0,0,5.088,81.5,19.269138083804,4.265092,31,Sport,
10500,2023-01-04 22:39:25,-34.9534996294474,-54.9407871292494,5.249344,5.2821524,14.971237683804,20.253390083804,6.56168,0.447388,7.4284123112,9.3931433452,25,5,7.531,20.253390083804,5.249344,6.2410626,7.4284123112,0,0.447388,-5.144962,75, -16.6, -1.2,0,0,1684,1024,1684,1024,100,0,100,0,86.4,-2.2,0,49,3.781,3.766,0,0,0,0,5.088,81.5,20.253390083804,5.249344,31,Sport,
10600,2023-01-04 22:39:25,-34.9534997472881,-54.940786371054,5.905512,5.9383204,14.971237683804,20.909558083804,7.545932,1.5882274,7.6528217672,9.6238848224,25,5,7.531,20.909558083804,5.905512,6.2410626,7.6528217672,0.223694,1.565858,-6.039738,75.2, -24.1, -1.7,0,0,1684,1024,1684,1024,100,0,100,0,86.4,-2.2,0,49,3.781,3.766,0,0,0,0,5.088,81.5,20.909558083804,5.905512,31,Sport,
10700,2023-01-04 22:39:25,-34.9534995980379,-54.9407852831381,6.889764,6.9225724,14.971237683804,21.893810083804,8.530184,2.9751302,7.9803480244,9.953740476,25,5,7.531,21.893810083804,6.889764,6.2410626,7.9803480244,0.671082,2.908022,-6.934514,74.9, -22.7, -1.4,0,0,1684,1024,1684,1024,100,0,100,0,86.4,-2.2,0,49,3.781,3.766,0,0,0,0,5.088,81.5,21.893810083804,6.889764,31,Sport,
10800,2023-01-04 22:39:25,-34.9534993257165,-54.9407836749389,8.2021,8.2677168,14.938429283804,23.206146083804,9.84252,4.3396636,8.4659123444,10.4448166072,25,5,7.531,23.206146083804,8.2021,6.2410626,8.4659123444,0.894776,4.250186,-8.052984,74.6, -19.3, -1.7,0,0,1684,1024,1684,1024,100,0,100,0,86.4,-2.2,0,49,3.781,3.766,0,0,0,0,5.088,81.5,23.206146083804,8.2021,31,Sport,
10900,2023-01-04 22:39:25,-34.9534988405118,-54.9407813919752,9.514436,9.5800528,14.938429283804,24.518482083804,11.154856,5.3239172,9.158792944,11.150098782,25,5,7.531,24.518482083804,9.514436,6.2410626,9.158792944,1.342164,5.144962,-9.171454,74.5, -17.4, -2.1,0,0,1684,1024,1684,1024,100,0,100,0,86.4,-2.2,0,49,3.781,3.766,0,0,0,0,5.088,81.5,24.518482083804,9.514436,31,Sport,
11000,2023-01-04 22:39:25,-34.9534982547801,-54.9407787236896,11.154856,11.2204728,14.938429283804,26.158902083804,12.467192,6.4647566,9.9714242036,11.9761158688,25,5,7.531,26.158902083804,11.154856,6.4647566,9.9714242036,1.565858,6.263432,-9.842536,74.4, -16.6, -1.6,0,0,1684,1024,1684,1024,100,0,100,0,86.4,-2.2,0,49,3.781,3.766,0,0,0,0,5.088,81.5,26.158902083804,11.154856,31,Sport,
11100,2023-01-04 22:39:26,-34.9534974188737,-54.9407760158938,12.795276,12.8937012,14.905620883804,27.799322083804,14.107612,7.158208,10.8075134692,12.841371802,25,5,7.427,27.799322083804,12.795276,7.158208,10.8075134692,1.789552,6.934514,-10.289924,74.7, -17.3, -1.1,0,0,1684,1024,1684,1024,100,0,100,0,86.4,-2.2,0,49,3.67,3.661,0,0,0,0,6.424,81.5,27.799322083804,12.795276,31,Sport,
11200,2023-01-04 22:39:26,-34.9534966932326,-54.9407728487366,14.435696,14.5341212,14.905620883804,29.439742083804,15.419948,7.8740288,11.7790686184,13.824803592,25,5,7.427,29.439742083804,14.435696,7.8740288,11.7790686184,2.013246,7.605596,-10.513618,74.9, -18.2, -1.7,0,0,1684,1024,1684,1024,100,0,100,0,86.4,-2.2,0,49,3.67,3.661,0,0,0,0,6.424,81.5,29.439742083804,14.435696,31,Sport,
11300,2023-01-04 22:39:26,-34.953495876861,-54.9407689947842,16.076116,16.2073496,14.872812483804,31.080162083804,17.060368,8.3661556,12.9604006772,15.0151251524,25,5,7.427,31.080162083804,16.076116,8.3661556,12.9604006772,2.23694,8.052984,-10.737312,74.7, -18.7, -1.8,0,0,1684,1024,1684,1024,100,0,100,0,86.4,-2.2,0,49,3.67,3.661,0,0,0,0,6.424,81.5,31.080162083804,16.076116,31,Sport,
11400,2023-01-04 22:39:26,-34.953495023361,-54.940765093587,18.04462,18.208662,14.840004083804,33.048666083804,18.372704,9.059607,14.1591868048,16.2225726976,24,5,7.427,33.048666083804,18.04462,9.059607,14.1591868048,2.460634,8.724066,-10.961006,74.7, -19.9, -0.2,0,0,1684,1024,1684,1024,100,0,100,0,86.4,-2.2,0,49,3.67,3.661,0,0,0,0,6.424,81.5,33.048666083804,18.04462,31,Sport,
11500,2023-01-04 22:39:26,-34.9534943094641,-54.9407607416045,20.013124,20.177166,14.840004083804,35.017170083804,20.013124,9.5517338,15.4848102068,17.5498037112,24,5,7.427,35.017170083804,20.013124,9.5517338,15.4848102068,2.684328,9.171454,-10.961006,74.4, -20.6, -0.2,0,0,1684,1024,1684,1024,100,0,100,0,86.4,-2.2,0,49,3.67,3.661,0,0,0,0,6.424,81.5,35.017170083804,20.013124,31,Sport,
11600,2023-01-04 22:39:26,-34.9534934577488,-54.9407564817179,21.653544,21.8503944,14.807195683804,36.657590083804,21.32546,10.2675546,16.7913063116,18.8610242256,25,5,7.427,36.657590083804,21.653544,10.2675546,16.7913063116,2.908022,9.842536,-10.961006,74.4, -20.9, 0.6,0,0,1684,1024,1684,1024,100,0,100,0,86.4,-2.2,0,49,3.67,3.661,0,0,0,0,6.424,81.5,36.657590083804,21.653544,31,Sport,
11700,2023-01-04 22:39:26,-34.9534924393786,-54.9407516064732,23.622048,23.8517068,14.774387283804,38.626094083804,22.96588,10.6925732,18.2899284068,20.365486216,25,5,7.427,38.626094083804,23.622048,10.6925732,18.2899284068,2.908022,10.289924,-10.961006,74.5, -20.7, 0,0,0,1684,1024,1684,1024,100,0,100,0,86.4,-2.2,0,49,3.67,3.661,0,0,0,0,6.424,81.5,38.626094083804,23.622048,31,Sport,
11800,2023-01-04 22:39:26,-34.9534914097265,-54.9407467053483,25.590552,25.8202108,14.774387283804,40.594598083804,24.278216,11.408394,19.7978024708,21.8784783904,25,5,7.427,40.594598083804,25.590552,11.408394,19.7978024708,3.131716,10.961006,-10.961006,74.4, -21, 0.4,0,0,1684,1024,1684,1024,100,0,100,0,86.4,-2.2,0,49,3.67,3.661,0,0,0,0,6.424,81.5,40.594598083804,25.590552,31,Sport,
11900,2023-01-04 22:39:26,-34.9534904534651,-54.9407408787794,27.559056,27.8215232,14.741578883804,42.563102083804,25.918636,11.9005208,21.5741804804,23.6554469512,25,5,7.427,42.563102083804,27.559056,11.9005208,21.5741804804,3.35541,11.408394,-10.737312,74.4, -21.5, 1,0,0,1684,1024,1684,1024,100,0,100,0,86.4,-2.2,0,49,3.67,3.661,0,0,0,0,6.424,81.5,42.563102083804,27.559056,31,Sport,
12000,2023-01-04 22:39:26,-34.9534893043503,-54.9407351394252,29.52756,29.8228356,14.708770483804,44.531606083804,27.559056,12.526864,23.3374023216,25.4221792912,25,5,7.427,44.531606083804,29.52756,12.526864,23.3374023216,3.35541,12.079476,-10.737312,74.2, -21, 0.7,0,0,1684,1024,1684,1024,100,0,100,0,86.4,-2.2,0,49,3.67,3.661,0,0,0,0,6.424,81.5,44.531606083804,29.52756,31,Sport,
12100,2023-01-04 22:39:27,-34.9534884256224,-54.9407296501444,31.496064,31.824148,14.675962083804,46.500110083804,28.543308,13.0189908,25.0097448948,27.0946859064,25,5,7.361,46.500110083804,31.496064,13.0189908,25.0097448948,3.579104,12.526864,-10.961006,74.2, -20.6, 0.5,0,0,1684,1024,1684,1024,100,0,100,0,86.4,-2.2,0,49,3.673,3.665,0,0,0,0,9.437,81.5,46.500110083804,31.496064,31,Sport,
12200,2023-01-04 22:39:27,-34.9534875361337,-54.9407239221102,33.464568,33.792652,14.675962083804,48.468614083804,27.88714,13.5111176,26.7530848456,28.8380586656,25,5,7.361,48.468614083804,33.464568,13.5111176,26.7530848456,3.802798,12.974252,-10.737312,74.3, -20.6, 0.9,0,0,1684,1024,1684,1024,100,0,100,0,86.4,-2.2,0,49,3.673,3.665,0,0,0,0,9.437,81.5,48.468614083804,33.464568,31,Sport,
12300,2023-01-04 22:39:27,-34.9534866348812,-54.9407171253193,35.433072,35.761156,14.675962083804,50.437118083804,29.199476,13.9585056,28.8116150952,30.896982616,25,5,7.361,50.437118083804,35.433072,13.9585056,28.8116150952,3.802798,13.42164,-10.737312,74.7, -21, 0.5,0,0,1684,1024,1684,1024,100,0,100,0,86.4,-2.2,0,49,3.673,3.665,0,0,0,0,9.437,81.5,50.437118083804,35.433072,31,Sport,
12400,2023-01-04 22:39:27,-34.9534853680234,-54.9407106449012,37.401576,37.7952768,14.610345283804,52.405622083804,30.839896,14.2269384,30.801018046,32.889108664,25,5,7.361,52.405622083804,37.401576,14.2269384,30.801018046,2.013246,14.092722,-10.737312,81.8, -21.7, 0.5,0,0,1684,1024,1684,1024,100,0,100,0,86.4,-2.2,0,49,3.673,3.665,0,0,0,0,9.437,81.5,52.405622083804,37.401576,31,Sport,
12500,2023-01-04 22:39:27,-34.953484031618,-54.9407037600071,39.37008,39.7965892,14.577536883804,54.374126083804,32.480316,14.6743264,32.914371132,35.00492238,25,5,7.361,54.374126083804,39.37008,14.6743264,32.914371132,2.013246,14.54011,-10.737312,81.6, -22.6, 0.5,0,0,1684,1024,1684,1024,100,0,100,0,86.4,-2.2,0,49,3.673,3.665,0,0,0,0,9.437,81.5,54.374126083804,39.37008,31,Sport,
12600,2023-01-04 22:39:27,-34.9534827454729,-54.9406970164606,41.338584,41.7650932,14.577536883804,56.342630083804,34.120736,14.7190652,34.982940752,37.075460504,25,5,7.361,56.342630083804,41.338584,14.7190652,34.982940752,2.23694,14.54011,-10.961006,81.7, -22.7, -0.1,0,0,1684,1024,1684,1024,100,0,100,0,86.4,-2.2,0,49,3.673,3.665,0,0,0,0,9.437,81.5,56.342630083804,41.338584,31,Sport,
12700,2023-01-04 22:39:27,-34.9534814709224,-54.9406900846353,43.307088,43.799214,14.511920083804,58.311134083804,35.761156,15.3677778,37.1063004,39.199804404,25,5,7.361,58.311134083804,43.307088,15.3677778,37.1063004,2.23694,15.211192,-10.961006,81.9, -23.2, 0.2,0,0,1684,1024,1684,1024,100,0,100,0,86.4,-2.2,0,49,3.673,3.665,0,0,0,0,9.437,81.5,58.311134083804,43.307088,31,Sport,
12800,2023-01-04 22:39:27,-34.9534809847537,-54.9406836322714,44.947508,45.439634,14.511920083804,59.951554083804,37.073492,15.4125166,39.035106236,41.137468508,25,5,7.361,59.951554083804,44.947508,15.4125166,39.035106236,2.460634,15.211192,-10.737312,82, -23.9, 0.5,0,0,1684,1024,1684,1024,100,0,100,0,86.4,-2.2,0,49,3.673,3.665,0,0,0,0,9.437,81.5,59.951554083804,44.947508,31,Sport,
12900,2023-01-04 22:39:27,-34.9534797730806,-54.9406762442516,46.916012,47.408138,14.511920083804,61.920058083804,38.713912,15.8599046,41.288059064,43.390421336,25,5,7.361,61.920058083804,46.916012,15.8599046,41.288059064,2.460634,15.65858,-10.961006,81.9, -24.4, 0.5,0,0,1684,1024,1684,1024,100,0,100,0,86.4,-2.2,0,49,3.673,3.665,0,0,0,0,9.437,81.5,61.920058083804,46.916012,31,Sport,
13000,2023-01-04 22:39:27,-34.9534785604435,-54.9406686567061,48.884516,49.4094504,14.479111683804,63.888562083804,40.354332,16.0612292,43.599738928,45.7021012,25,5,7.361,63.888562083804,48.884516,16.0612292,43.599738928,2.460634,15.882274,-10.961006,81.9, -25.7, 0,0,0,1684,1024,1684,1024,100,0,100,0,86.4,-2.2,0,49,3.673,3.665,0,0,0,0,9.437,81.5,63.888562083804,48.884516,31,Sport,
13100,2023-01-04 22:39:28,-34.9534773993239,-54.9406615639035,50.85302,51.4435712,14.413494883804,65.857066083804,41.994752,16.2849232,45.762468656,47.865159012,25,5,7.361,65.857066083804,50.85302,16.2849232,45.762468656,2.460634,16.105968,-10.737312,82, -27.1, 0.5,0,0,1681,1024,1684,1024,100,0,100,0,86.4,-2.1,0,49,3.673,3.665,0,0,0,0,9.437,81.5,65.857066083804,50.85302,31,Sport,
13200,2023-01-04 22:39:28,-34.953476304078,-54.9406551008992,52.821524,53.4120752,14.413494883804,67.825570083804,43.635172,16.77705,47.735565832,49.838584272,25,5,7.252,67.825570083804,52.821524,16.77705,47.735565832,2.684328,16.553356,-10.513618,82, -27.2, 0.4,0,0,1471,1024,1684,1024,68,0,100,0,86.4,-2.2,0,49,3.613,3.595,0,0,0,0,10.295,81.5,67.825570083804,52.821524,31,Sport,
13300,2023-01-04 22:39:28,-34.9534748852408,-54.9406466412378,54.790028,55.4133876,14.380686483804,69.794074083804,45.275592,17.2020686,50.317586912,52.420933436,25,5,7.252,69.794074083804,54.790028,17.2020686,50.317586912,2.684328,17.000744,-10.513618,82, -26, 0.2,0,0,1024,1024,1544,1024,0,0,79,0,86.4,-2.2,0,49,3.613,3.595,0,0,0,0,10.295,81.5,69.794074083804,54.790028,31,Sport,
13400,2023-01-04 22:39:28,-34.9534735249885,-54.9406384341688,56.430448,57.086616,14.347878083804,71.434494083804,46.587928,17.2020686,52.821195916,54.924870524,25,5,7.252,71.434494083804,56.430448,17.2020686,52.821195916,2.684328,17.000744,-10.513618,81.6, -18.8, 0.2,0,0,1024,1024,1265,1186,0,0,37,25,86.4,-2.2,0,49,3.613,3.595,0,0,0,0,10.295,81.5,71.434494083804,56.430448,31,Sport,
13500,2023-01-04 22:39:28,-34.9534721185471,-54.9406298545767,58.070868,58.7598444,14.315069683804,73.074914083804,47.900264,17.000744,55.437665816,57.541340424,25,5,7.252,73.074914083804,58.070868,17.2020686,55.437665816,2.684328,16.77705,-10.961006,81.5, 3.7, 0.2,0,0,1024,1024,1265,1186,0,0,37,25,86.4,-2.2,0,49,3.613,3.595,0,0,0,0,10.295,81.5,73.074914083804,58.070868,31,Sport,
13600,2023-01-04 22:39:28,-34.9534704519128,-54.9406212800644,59.383204,60.1377972,14.249452883804,74.387250083804,47.900264,15.3677778,58.070539916,60.176511112,25,5,7.252,74.387250083804,59.383204,17.2020686,58.070539916,2.23694,15.211192,-11.1847,81.8, 30.3, 0.8,0,0,1024,1024,1024,1684,0,0,0,100,87.3,-2.2,0,49,3.613,3.595,0,0,0,0,10.295,81.5,74.387250083804,59.383204,31,Sport,
13700,2023-01-04 22:39:28,-34.9534694147112,-54.9406139024552,60.69554,61.4501332,14.249452883804,75.699586083804,47.900264,13.1308378,60.30840088,62.41470016,25,5,7.252,75.699586083804,60.69554,17.2020686,60.30840088,2.013246,12.974252,-11.632088,85, 31.9, 1.6,0,0,1024,1024,1024,1684,0,0,0,100,94.9,-2.2,0,49,3.613,3.595,0,0,0,0,10.295,81.5,75.699586083804,60.69554,31,Sport,
13800,2023-01-04 22:39:28,-34.9534685186241,-54.9406077873063,61.679792,62.4343852,14.249452883804,76.683838083804,47.900264,11.0952224,62.165684404,64.272311768,25,5,7.252,76.683838083804,61.679792,17.2020686,62.165684404,1.789552,10.961006,-11.1847,95.5, 31.9, 9.4,0,0,1024,1024,1024,1684,0,0,0,100,105.2,-2.2,0,49,3.613,3.595,0,0,0,0,10.295,81.5,76.683838083804,61.679792,31,Sport,
13900,2023-01-04 22:39:28,-34.9534676325486,-54.9406025481093,62.664044,63.4514456,14.216644483804,77.668090083804,47.900264,9.7530584,63.765421988,65.872049352,25,5,7.252,77.668090083804,62.664044,17.2020686,63.765421988,1.565858,9.618842,-10.513618,106.1, 24.8, 11,0,0,1024,1024,1024,1684,0,0,0,100,115.6,-2.2,0,49,3.613,3.595,0,0,0,0,10.295,81.5,77.668090083804,62.664044,31,Sport,
14000,2023-01-04 22:39:28,-34.9534670593168,-54.9405975172494,63.648296,64.468506,14.183836083804,78.652342083804,47.900264,8.8582824,65.28215432,67.391078272,26,5,7.252,78.652342083804,63.648296,17.2020686,65.28215432,1.565858,8.724066,-8.94776,116.8, 21.5, 15.1,0,0,1024,1024,1024,1684,0,0,0,100,126,-2.2,0,49,3.613,3.595,0,0,0,0,10.295,81.5,78.652342083804,63.648296,31,Sport,
14100,2023-01-04 22:39:29,-34.9534664065387,-54.9405945025298,64.304464,65.124674,14.183836083804,79.308510083804,47.900264,7.9858758,66.212600544,68.323493,26,5,7.252,79.308510083804,64.304464,17.2020686,66.212600544,1.565858,7.82929,-7.82929,127.2, 17.5, 20,0,0,1024,1024,1024,1684,0,0,0,100,136.4,-2.1,0,49,3.613,3.595,0,0,0,0,10.295,81.5,79.308510083804,64.304464,31,Sport,
14200,2023-01-04 22:39:29,-34.9534657716214,-54.9405918779978,64.960632,65.780842,14.183836083804,79.964678083804,47.900264,7.1134692,67.026905032,69.141734496,26,5,7.252,79.964678083804,64.960632,17.2020686,67.026905032,1.565858,6.934514,-6.71082,137.3, 13.1, 24.1,0,0,1024,1024,1024,1684,0,0,0,100,146.7,-2.1,0,49,3.729,3.729,0,0,0,0,10.295,81.5,79.964678083804,64.960632,31,Sport,
14300,2023-01-04 22:39:29,-34.9534651081738,-54.9405892992054,65.6168,66.4698184,14.151027683804,80.620846083804,47.900264,6.3976484,67.830054664,69.950133472,26,5,7.252,80.620846083804,65.6168,17.2020686,67.830054664,1.342164,6.263432,-5.59235,146.8, 7.8, 26,0,0,1024,1024,1024,1684,0,0,0,100,155.6,-2.1,0,49,3.729,3.729,0,0,0,0,10.295,81.5,80.620846083804,65.6168,6,P-GPS,"Error de calibración del estabilizador. Reinicia la aeronave o contacta con la Asistencia DJI (Code: 40011)"
14400,2023-01-04 22:39:29,-34.9534644671205,-54.9405868845156,65.944884,66.8307108,14.118219283804,80.948930083804,47.900264,5.704197,68.583663612,70.708991764,26,5,7.252,80.948930083804,65.944884,17.2020686,68.583663612,1.11847,5.59235,-4.697574,152.5, 2.9, 21.9,0,0,1024,1024,1024,1498,0,0,0,72,161.5,-2.1,0,49,3.729,3.729,0,0,0,0,10.295,81.5,80.948930083804,65.944884,6,P-GPS,
14500,2023-01-04 22:39:29,-34.9534640960503,-54.9405857879764,66.272968,67.1587948,14.118219283804,81.277014083804,47.900264,4.7870516,68.931760736,71.063978652,26,5,7.252,81.277014083804,66.272968,17.2020686,68.931760736,0.894776,4.697574,-3.802798,158.3, 1.8, 22.8,0,0,1024,1024,1024,1498,0,0,0,72,166.5,-2.1,0,49,3.729,3.729,0,0,0,0,10.295,81.5,81.277014083804,66.272968,6,P-GPS,
14600,2023-01-04 22:39:29,-34.9534637750709,-54.9405849902501,66.272968,67.1587948,14.118219283804,81.277014083804,47.900264,4.1159696,69.188322424,71.329726692,26,5,7.252,81.277014083804,66.272968,17.2020686,69.188322424,0.894776,4.026492,-2.908022,163.2, 0.6, 21.8,0,0,1024,1024,1024,1264,0,0,0,36,170.7,-2.1,0,49,3.729,3.729,0,0,0,0,10.295,81.5,81.277014083804,66.272968,6,P-GPS,
14700,2023-01-04 22:39:29,-34.9534636009707,-54.9405835653806,66.601052,67.4868788,14.118219283804,81.605098083804,47.900264,3.4225182,69.618768632,71.760500984,26,5,7.252,81.605098083804,66.601052,17.2020686,69.618768632,0.671082,3.35541,-2.23694,166.2, -1.1, 21.8,0,0,1024,1024,1024,1374,0,0,0,53,172.6,-2.1,0,49,3.729,3.729,0,0,0,0,10.295,81.5,81.605098083804,66.601052,6,P-GPS,
14800,2023-01-04 22:39:29,-34.9534634885234,-54.9405823910965,66.272968,67.1916032,14.085410883804,81.277014083804,47.900264,2.7290668,69.971130848,72.113847452,25,5,7.252,81.605098083804,66.601052,17.2020686,69.971130848,0.447388,2.684328,-1.342164,167.5, -1.7, 21.7,0,0,1024,1024,1024,1684,0,0,0,100,173.6,-2.2,0,49,3.729,3.729,0,0,0,0,10.295,81.5,81.277014083804,66.272968,6,P-GPS,
14900,2023-01-04 22:39:29,-34.9534643719152,-54.9405809068156,66.272968,67.1587948,14.118219283804,81.277014083804,47.900264,1.789552,70.345146608,72.6624039,25,5,7.252,81.605098083804,66.601052,17.2020686,70.345146608,0,1.789552,-0.671082,168.9, -1.9, 20.2,0,0,1024,1024,1024,1684,0,0,0,100,175.7,-2.1,0,49,3.729,3.729,0,0,0,0,10.295,81.5,81.277014083804,66.272968,6,P-GPS,
15000,2023-01-04 22:39:29,-34.9534645158306,-54.9405802981103,66.272968,67.1259864,14.151027683804,81.277014083804,47.900264,0.894776,70.514109868,72.852036452,25,5,7.252,81.605098083804,66.601052,17.2020686,70.514109868,0,0.894776,-0.223694,171.8, -1.2, 14,0,0,1024,1024,1024,1684,0,0,0,100,179.7,-2.2,0,49,3.729,3.729,0,0,0,0,10.295,81.5,81.277014083804,66.272968,6,P-GPS,
15100,2023-01-04 22:39:30,-34.9534650379293,-54.9405804081112,65.944884,66.7979024,14.151027683804,80.948930083804,47.900264,0.4921268,70.446524564,73.045277928,25,5,7.252,81.605098083804,66.601052,17.2020686,70.514109868,-0.447388,0.223694,0,175.7, -0.7, 6.7,0,0,1024,1024,1024,1684,0,0,0,100,184.5,-2.2,0,48,3.729,3.729,0,0,0,0,10.295,81.5,80.948930083804,65.944884,6,P-GPS,
15200,2023-01-04 22:39:30,-34.9534656530642,-54.940580750866,65.944884,66.765094,14.183836083804,80.948930083804,47.900264,0.7158208,70.304464192,73.291997096,25,5,7.331,81.605098083804,66.601052,17.2020686,70.514109868,-0.671082,-0.223694,0.223694,180.7, -0.1, 2.4,0,0,1024,1024,1024,1684,0,0,0,100,189.3,-2.2,0,48,3.799,3.798,0,0,0,0,11.618,81.68,80.948930083804,65.944884,6,P-GPS,
15300,2023-01-04 22:39:30,-34.9534674341781,-54.9405812800286,65.944884,66.765094,14.183836083804,80.948930083804,47.900264,0.7158208,70.033466808,73.960632288,25,5,7.331,81.605098083804,66.601052,17.2020686,70.514109868,-0.894776,-0.671082,0.223694,185.4, -0.5, -0.2,0,0,1024,1024,1024,1684,0,0,0,100,194.1,-2.2,0,48,3.799,3.798,0,0,0,0,11.618,81.68,80.948930083804,65.944884,6,P-GPS,
15400,2023-01-04 22:39:30,-34.953467934182,-54.9405816030701,65.944884,66.7322856,14.216644483804,80.948930083804,47.900264,1.2750558,69.906826384,74.167325208,25,5,7.331,81.605098083804,66.601052,17.2020686,70.514109868,-0.894776,-0.894776,0.223694,190.4, 1.3, -3,0,0,1024,1024,1024,1684,0,0,0,100,198.9,-2.2,0,48,3.799,3.798,0,0,0,0,11.618,81.68,80.948930083804,65.944884,6,P-GPS,
15500,2023-01-04 22:39:30,-34.9534684877227,-54.9405819882615,66.272968,67.0603696,14.216644483804,81.277014083804,47.900264,1.2750558,69.759188584,74.39960868,25,5,7.331,81.605098083804,66.601052,17.2020686,70.514109868,-0.894776,-0.894776,0,195.5, 3.2, -4.2,0,0,1024,1024,1024,1684,0,0,0,100,203.7,-2.2,0,48,3.799,3.798,0,0,0,0,11.618,81.68,81.277014083804,66.272968,6,P-GPS,
15600,2023-01-04 22:39:30,-34.9534689917652,-54.9405823714461,66.272968,67.0275612,14.249452883804,81.277014083804,47.900264,1.11847,69.615487792,74.616472204,25,5,7.331,81.605098083804,66.601052,17.2020686,70.514109868,-0.671082,-0.894776,0,200.5, 4.6, -4.6,0,0,1038,1171,1024,1567,2,22,0,82,208.5,-2.2,0,48,3.799,3.798,0,0,0,0,11.618,81.68,81.277014083804,66.272968,6,P-GPS,
15700,2023-01-04 22:39:30,-34.9534697290465,-54.9405825882495,66.272968,67.0275612,14.249452883804,81.277014083804,47.900264,1.11847,69.507220072,74.893047016,25,5,7.331,81.605098083804,66.601052,17.2020686,70.514109868,-0.671082,-0.894776,-0.223694,205.2, 4.7, -4.7,0,0,1116,1684,1024,1291,14,100,0,40,212.7,-2.2,0,48,3.799,3.798,0,0,0,0,11.618,81.68,81.277014083804,66.272968,6,P-GPS,
15800,2023-01-04 22:39:30,-34.9534700272928,-54.9405829710787,66.272968,67.0275612,14.249452883804,81.277014083804,47.900264,1.006623,69.37664264,75.05085542,25,5,7.331,81.605098083804,66.601052,17.2020686,70.514109868,-0.447388,-0.894776,-0.223694,209.4, 3.6, 3.2,0,0,1233,1684,1024,1236,32,100,0,32,215.1,-2.1,0,48,3.799,3.798,0,0,0,0,11.618,81.68,81.277014083804,66.272968,6,P-GPS,
15900,2023-01-04 22:39:30,-34.9534702564148,-54.940583368792,66.272968,67.0275612,14.249452883804,81.277014083804,47.900264,1.1408394,69.245737124,75.196524716,25,5,7.331,81.605098083804,66.601052,17.2020686,70.514109868,-0.223694,-1.11847,-0.223694,211.4, 2.3, 12.6,0,0,1397,1684,1024,1548,57,100,0,79,216.2,-2.2,0,48,3.799,3.798,0,0,0,0,11.618,81.68,81.277014083804,66.272968,6,P-GPS,
16000,2023-01-04 22:39:30,-34.9534703815835,-54.9405839873226,66.272968,67.0275612,14.249452883804,81.277014083804,47.900264,1.789552,69.056104572,75.386813436,25,5,7.331,81.605098083804,66.601052,17.2020686,70.514109868,0,-1.789552,-0.223694,211.8, 0.3, 14.4,0,0,1455,1684,1097,1684,65,100,11,100,217.2,-2.1,0,48,3.799,3.798,0,0,0,0,11.618,81.68,81.277014083804,66.272968,6,P-GPS,
