time(millisecond),datetime(utc),latitude,longitude,height_above_takeoff(feet),height_above_ground_at_drone_location(feet),ground_elevation_at_drone_location(feet),altitude_above_seaLevel(feet),height_sonar(feet),speed(mph),distance(feet),mileage(feet),satellites,gpslevel,voltage(v),max_altitude(feet),max_ascent(feet),max_speed(mph),max_distance(feet), xSpeed(mph), ySpeed(mph), zSpeed(mph), compass_heading(degrees), pitch(degrees), roll(degrees),isPhoto,isVideo,rc_elevator,rc_aileron,rc_throttle,rc_rudder,rc_elevator(percent),rc_aileron(percent),rc_throttle(percent),rc_rudder(percent),gimbal_heading(degrees),gimbal_pitch(degrees),gimbal_roll(degrees),battery_percent,voltageCell1,voltageCell2,voltageCell3,voltageCell4,voltageCell5,voltageCell6,current(A),battery_temperature(f),altitude(feet),ascent(feet),flycStateRaw,flycState,message
0,2022-10-20 23:18:18,0,0,0,,,3.28084E-5,0.328084,0,0,0,0,0,0,3.28084E-5,0,0,0,0,0,0,64.5, 2.9, -0.3,0,0,364,364,364,1684,-100,-100,-100,100,64.5,0,0,58,3.927,3.928,0,0,0,0,0,82.4,3.28084E-5,0,41,Motors_Started,"Setting new Return-To-Home altitude to 100m (328 ft). Data Recorder File Index is 11. Setting new Maximum Flight Altitude to 30m (98 ft) Señal débil del GPS. Vuelo estacionario inestable. Vuela con cuidado (Code: 30008). Señal débil del GPS. Vuelo estacionario inestable. Vuela con cuidado (Code: 30002)"
100,2022-10-20 23:18:18,0,0,0,,,3.28084E-5,0.328084,0,0,0,0,0,0,3.28084E-5,0,0,0,0,0,0,64.5, 2.9, -0.3,0,0,364,364,364,1684,-100,-100,-100,100,64.5,0,0,58,3.927,3.928,0,0,0,0,0,82.4,3.28084E-5,0,41,Motors_Started,
200,2022-10-20 23:18:19,0,0,0,,,3.28084E-5,0.328084,0,0,0,0,0,0,3.28084E-5,0,0,0,0,0,0,64.5, 2.9, -0.3,0,0,364,364,364,1684,-100,-100,-100,100,64.5,0,0,58,3.927,3.928,0,0,0,0,0,82.4,3.28084E-5,0,41,Motors_Started,
300,2022-10-20 23:18:19,0,0,0,,,3.28084E-5,0.328084,0,0,0,0,0,0,3.28084E-5,0,0,0,0,0,0,64.2, 2.9, -0.3,0,0,1024,1024,841,1241,0,0,-28,33,64.5,0,0,58,3.927,3.928,0,0,0,0,0,82.4,3.28084E-5,0,41,Motors_Started,
400,2022-10-20 23:18:19,0,0,0,,,3.28084E-5,0.328084,0,0,0,0,0,0,3.28084E-5,0,0,0,0,0,0,64.2, 2.9, -0.3,0,0,1024,1024,1024,1024,0,0,0,0,64.5,0,0,58,3.927,3.928,0,0,0,0,0,82.4,3.28084E-5,0,41,Motors_Started,
500,2022-10-20 23:18:19,0,0,0,,,3.28084E-5,0.328084,0,0,0,0,0,0,3.28084E-5,0,0,0,0,0,0,64.1, 2.9, -0.3,0,0,1024,1024,1024,1024,0,0,0,0,64.4,0,0,58,3.927,3.928,0,0,0,0,0,82.4,3.28084E-5,0,41,Motors_Started,
600,2022-10-20 23:18:19,0,0,0,,,3.28084E-5,0.328084,0,0,0,0,0,0,3.28084E-5,0,0,0,0,0,0,64.1, 2.9, -0.3,0,0,1024,1024,1024,1024,0,0,0,0,64.3,0,0,58,3.927,3.928,0,0,0,0,0,82.4,3.28084E-5,0,41,Motors_Started,
700,2022-10-20 23:18:19,0,0,0,,,3.28084E-5,0.328084,0,0,0,0,0,0,3.28084E-5,0,0,0,0,0,0,64.1, 2.9, -0.3,0,0,1024,1024,1024,1024,0,0,0,0,64.2,0,0,58,3.927,3.928,0,0,0,0,0,82.4,3.28084E-5,0,41,Motors_Started,
800,2022-10-20 23:18:19,0,0,0,,,3.28084E-5,0.328084,0,0,0,0,0,0,3.28084E-5,0,0,0,0,0,0,64.1, 2.9, -0.3,0,0,1024,1024,1024,1024,0,0,0,0,64.2,0,0,58,3.927,3.928,0,0,0,0,0,82.4,3.28084E-5,0,41,Motors_Started,
900,2022-10-20 23:18:19,0,0,0,,,3.28084E-5,0.328084,0,0,0,0,0,0,3.28084E-5,0,0,0,0,0,0,64.1, 2.9, -0.3,0,0,1024,1024,1024,1024,0,0,0,0,64.2,0,0,58,3.927,3.928,0,0,0,0,0,82.4,3.28084E-5,0,41,Motors_Started,"Vuela con cuidado (sin GPS)"
1000,2022-10-20 23:18:19,0,0,0,,,3.28084E-5,0.328084,0,0,0,0,0,0,3.28084E-5,0,0,0,0,0,0,64.1, 2.9, -0.3,0,0,1024,1024,1024,1024,0,0,0,0,64.2,0,0,58,3.927,3.928,0,0,0,0,0,82.4,3.28084E-5,0,41,Motors_Started,
1100,2022-10-20 23:18:19,0,0,0,,,3.28084E-5,0.328084,0,0,0,0,0,0,3.28084E-5,0,0,0,0,0,0,64.1, 2.9, -0.3,0,0,1024,1024,1024,1024,0,0,0,0,64.2,0,0,58,3.927,3.928,0,0,0,0,0,82.4,3.28084E-5,0,10,Assisted_Takeoff,
1200,2022-10-20 23:18:20,0,0,0,,,3.28084E-5,0.328084,0,0,0,0,0,0,3.28084E-5,0,0,0,0,0,0,64.1, 2.9, -0.3,0,0,1024,1024,1024,1024,0,0,0,0,64.2,0,0,58,3.927,3.928,0,0,0,0,0,82.4,3.28084E-5,0,10,Assisted_Takeoff,
1300,2022-10-20 23:18:20,0,0,0,,,3.28084E-5,0.328084,0,0,0,0,0,0,3.28084E-5,0,0,0,0,0,0,64.1, 2.9, -0.3,0,0,1024,1024,1024,1024,0,0,0,0,64.2,0,0,58,3.927,3.928,0,0,0,0,0,82.4,3.28084E-5,0,10,Assisted_Takeoff,
1400,2022-10-20 23:18:20,0,0,0,,,3.28084E-5,0.328084,0,0,0,0,0,7.861,3.28084E-5,0,0,0,0,0,0,64.1, 2.9, -0.3,0,0,1024,1024,1024,1024,0,0,0,0,64.2,0,0,58,3.927,3.928,0,0,0,0,1.275,82.4,3.28084E-5,0,10,Assisted_Takeoff,
1500,2022-10-20 23:18:20,0,0,0,,,3.28084E-5,0.328084,0,0,0,0,0,7.861,3.28084E-5,0,0,0,0,0,0,64.1, 2.9, -0.3,0,0,1024,1024,1104,1024,0,0,12,0,64.2,0,0,58,3.927,3.928,0,0,0,0,1.275,82.4,3.28084E-5,0,10,Assisted_Takeoff,
1600,2022-10-20 23:18:20,0,0,0,,,3.28084E-5,0.328084,0,0,0,0,0,7.861,3.28084E-5,0,0,0,0,0,0,64.1, 2.9, -0.3,0,0,1024,1024,1104,1024,0,0,12,0,64.2,0,0,58,3.927,3.928,0,0,0,0,1.275,82.4,3.28084E-5,0,10,Assisted_Takeoff,
1700,2022-10-20 23:18:20,0,0,0,,,3.28084E-5,0.328084,0,0,0,0,0,7.861,3.28084E-5,0,0,0,0,0,0,64.1, 2.9, -0.3,0,0,1024,1024,1391,1024,0,0,56,0,64.2,0,0,58,3.927,3.928,0,0,0,0,1.275,82.4,3.28084E-5,0,10,Assisted_Takeoff,
1800,2022-10-20 23:18:20,0,0,0,,,3.28084E-5,0.328084,0,0,0,0,0,7.861,3.28084E-5,0,0,0,0,0,0,64.1, 2.9, -0.3,0,0,1024,1024,1230,1024,0,0,31,0,64.2,0,0,58,3.927,3.928,0,0,0,0,1.275,82.4,3.28084E-5,0,10,Assisted_Takeoff,
1900,2022-10-20 23:18:20,0,0,0,,,3.28084E-5,0.328084,0,0,0,0,0,7.861,3.28084E-5,0,0,0,0,0,0,64.1, 2.9, -0.3,0,0,1024,1024,1024,1024,0,0,0,0,64.2,0,0,58,3.927,3.928,0,0,0,0,1.275,82.4,3.28084E-5,0,10,Assisted_Takeoff,
2000,2022-10-20 23:18:20,0,0,0,,,3.28084E-5,0.328084,0,0,0,0,0,7.861,3.28084E-5,0,0,0,0,0,0,63.9, 2.9, -0.3,0,0,1024,1024,1024,1024,0,0,0,0,64.1,0,0,58,3.927,3.928,0,0,0,0,1.275,82.4,3.28084E-5,0,10,Assisted_Takeoff,
2100,2022-10-20 23:18:21,0,0,0,,,3.28084E-5,0.328084,0,0,0,0,0,7.861,3.28084E-5,0,0,0,0,0,0,63.4, 2.8, -0.3,0,0,1024,1024,1032,1024,0,0,1,0,63.9,0,0,58,3.927,3.928,0,0,0,0,1.275,82.4,3.28084E-5,0,10,Assisted_Takeoff,
2200,2022-10-20 23:18:21,0,0,0,,,3.28084E-5,0.328084,0,0,0,0,0,7.861,3.28084E-5,0,0,0,0,0,0,63.4, 2.8, -0.3,0,0,1024,1024,1210,1024,0,0,28,0,63.7,0,0,58,3.927,3.928,0,0,0,0,1.275,82.4,3.28084E-5,0,10,Assisted_Takeoff,
2300,2022-10-20 23:18:21,0,0,0,,,3.28084E-5,0.328084,0,0,0,0,0,7.861,3.28084E-5,0,0,0,0,0,0,63.5, 2.8, -0.4,0,0,1024,1024,1285,1024,0,0,40,0,63.7,0,0,58,3.927,3.928,0,0,0,0,1.275,82.4,3.28084E-5,0,10,Assisted_Takeoff,
2400,2022-10-20 23:18:21,0,0,0,,,3.28084E-5,0.328084,0,0,0,0,0,7.861,3.28084E-5,0,0,0,0,0,0,63.6, 2.8, -0.3,0,0,1024,1024,1024,1024,0,0,0,0,63.6,0,0,58,3.927,3.928,0,0,0,0,1.275,82.4,3.28084E-5,0,10,Assisted_Takeoff,
2500,2022-10-20 23:18:21,0,0,0,,,3.28084E-5,0.328084,0,0,0,0,0,7.871,3.28084E-5,0,0,0,0,0,0,63.6, 2.8, -0.3,0,0,1024,1024,1024,1024,0,0,0,0,63.6,0,0,58,3.926,3.922,0,0,0,0,1.354,82.58,3.28084E-5,0,10,Assisted_Takeoff,
2600,2022-10-20 23:18:21,0,0,0,,,3.28084E-5,0.328084,0,0,0,0,0,7.871,3.28084E-5,0,0,0,0,0,0,63.7, 2.8, -0.3,0,0,1024,1024,1024,1024,0,0,0,0,63.7,0,0,58,3.926,3.922,0,0,0,0,1.354,82.58,3.28084E-5,0,10,Assisted_Takeoff,
2700,2022-10-20 23:18:21,0,0,0,,,3.28084E-5,0.328084,0,0,0,0,0,7.871,3.28084E-5,0,0,0,0,0,0,63.6, 2.8, -0.3,0,0,1024,1024,1037,1024,0,0,2,0,63.7,0,0,58,3.926,3.922,0,0,0,0,1.354,82.58,3.28084E-5,0,10,Assisted_Takeoff,
2800,2022-10-20 23:18:21,0,0,0,,,3.28084E-5,0.328084,0,0,0,0,0,7.871,3.28084E-5,0,0,0,0,0,0,63.4, 2.8, -0.3,0,0,1024,1024,1161,1024,0,0,21,0,63.6,0,0,58,3.926,3.922,0,0,0,0,1.354,82.58,3.28084E-5,0,10,Assisted_Takeoff,
2900,2022-10-20 23:18:21,0,0,0,,,3.28084E-5,0.328084,0,0,0,0,0,7.871,3.28084E-5,0,0,0,0,0,0,63.4, 2.8, -0.3,0,0,1024,1024,1264,1024,0,0,36,0,63.6,0,0,58,3.926,3.922,0,0,0,0,1.354,82.58,3.28084E-5,0,10,Assisted_Takeoff,
3000,2022-10-20 23:18:21,0,0,0,,,3.28084E-5,0.328084,0,0,0,0,0,7.871,3.28084E-5,0,0,0,0,0,0,63.3, 2.7, -0.3,0,0,1024,1024,1107,1024,0,0,13,0,63.5,0,0,58,3.926,3.922,0,0,0,0,1.354,82.58,3.28084E-5,0,10,Assisted_Takeoff,
3100,2022-10-20 23:18:22,0,0,0,,,3.28084E-5,0.328084,0,0,0,0,0,7.871,3.28084E-5,0,0,0,0,0,0,63, 2.6, -0.4,0,0,1024,1024,1024,1024,0,0,0,0,63.4,0,0,58,3.926,3.922,0,0,0,0,1.354,82.58,3.28084E-5,0,10,Assisted_Takeoff,
3200,2022-10-20 23:18:22,0,0,0,,,3.28084E-5,0.328084,0,0,0,0,0,7.871,3.28084E-5,0,0,0,0,0,0,62.6, 1.1, -0.4,0,0,1024,1024,1024,1024,0,0,0,0,63.2,0,0,58,3.926,3.922,0,0,0,0,1.354,82.58,3.28084E-5,0,10,Assisted_Takeoff,
3300,2022-10-20 23:18:22,0,0,0,,,3.28084E-5,0.328084,0,0,0,0,0,7.871,3.28084E-5,0,0,0,0,0,0,62.5, 2.7, -0.4,0,0,1024,1024,1101,1024,0,0,12,0,63,0,0,58,3.926,3.922,0,0,0,0,1.354,82.58,3.28084E-5,0,10,Assisted_Takeoff,
3400,2022-10-20 23:18:22,0,0,0,,,3.28084E-5,0.328084,0,0,0,0,0,7.871,3.28084E-5,0,0,0,0,0,0,62.8, 2.8, -0.4,0,0,1024,1024,1101,1024,0,0,12,0,62.9,0,0,58,3.926,3.922,0,0,0,0,1.354,82.58,3.28084E-5,0,10,Assisted_Takeoff,
3500,2022-10-20 23:18:22,0,0,0,,,3.28084E-5,0.328084,0,0,0,0,0,7.82,3.28084E-5,0,0,0,0,0,0,62.8, 2.8, -0.4,0,0,1024,1024,1255,1024,0,0,35,0,62.9,0,0,58,3.91,3.901,0,0,0,0,2.041,82.58,3.28084E-5,0,10,Assisted_Takeoff,
3600,2022-10-20 23:18:22,0,0,0,,,3.28084E-5,0.328084,0,0,0,0,0,7.82,3.28084E-5,0,0,0,0,0,0,62.9, 2.7, -0.4,0,0,1024,1024,1293,1024,0,0,41,0,62.9,0,0,58,3.91,3.901,0,0,0,0,2.041,82.58,3.28084E-5,0,10,Assisted_Takeoff,
3700,2022-10-20 23:18:22,0,0,0,,,3.28084E-5,0.328084,0,0,0,0,0,7.82,3.28084E-5,0,0,0,0,0,0,63.2, 2.6, -0.3,0,0,1024,1024,1210,1024,0,0,28,0,62.9,0,0,58,3.91,3.901,0,0,0,0,2.041,82.58,3.28084E-5,0,10,Assisted_Takeoff,
3800,2022-10-20 23:18:22,0,0,0,,,3.28084E-5,0.328084,0,0,0,0,0,7.82,3.28084E-5,0,0,0,0,0,0,63.3, 0.5, -0.3,0,0,1024,1024,1024,1024,0,0,0,0,63,0,0,58,3.91,3.901,0,0,0,0,2.041,82.58,3.28084E-5,0,10,Assisted_Takeoff,
3900,2022-10-20 23:18:22,0,0,0,,,3.28084E-5,0.328084,0,0,0,0,0,7.82,3.28084E-5,0,0,0,0,0,0,63, -2.1, -0.2,0,0,1024,1024,1024,1024,0,0,0,0,63,0,0,58,3.91,3.901,0,0,0,0,2.041,82.58,3.28084E-5,0,10,Assisted_Takeoff,
4000,2022-10-20 23:18:22,0,0,0,,,3.28084E-5,0.328084,0,0,0,0,0,7.82,3.28084E-5,0,0,0,0,0,0,62.9, -2.4, -0.6,0,0,1024,1024,1024,1024,0,0,0,0,63,0,0,58,3.91,3.901,0,0,0,0,2.041,82.58,3.28084E-5,0,10,Assisted_Takeoff,
4100,2022-10-20 23:18:22,0,0,0,,,3.28084E-5,0.328084,0,0,0,0,0,7.82,3.28084E-5,0,0,0,0,0,0.223694,62.9, -1.3, -0.3,0,0,1024,1024,1024,1024,0,0,0,0,63,0,0,58,3.91,3.901,0,0,0,0,2.041,82.58,3.28084E-5,0,38,Tripod,"Señal débil del GPS. Vuelo estacionario inestable. Vuela con cuidado (Code: 30002)"
4200,2022-10-20 23:18:23,0,0,0,,,3.28084E-5,0.328084,0,0,0,0,0,7.82,3.28084E-5,0,0,0,0,0,0,63, -1, -0.1,0,0,1024,1024,1024,1024,0,0,0,0,63,0,0,58,3.91,3.901,0,0,0,0,2.041,82.58,3.28084E-5,0,38,Tripod,
4300,2022-10-20 23:18:23,0,0,0,,,3.28084E-5,0.328084,0,0,0,0,0,7.82,3.28084E-5,0,0,0,0,0,-0.223694,63, -0.2, -0.1,0,0,1024,1024,1053,1024,0,0,4,0,63,0,0,58,3.91,3.901,0,0,0,0,2.041,82.58,3.28084E-5,0,38,Tripod,
4400,2022-10-20 23:18:23,0,0,0,,,3.28084E-5,0.328084,0,0,0,0,0,7.82,3.28084E-5,0,0,0,0,0,-0.223694,63, 0, 0,0,0,1024,1024,1053,1024,0,0,4,0,63,0,0,58,3.91,3.901,0,0,0,0,2.041,82.58,3.28084E-5,0,38,Tripod,
4500,2022-10-20 23:18:23,0,0,0,,,3.28084E-5,0.328084,0,0,0,0,0,7.787,3.28084E-5,0,0,0,0,0,-0.223694,62.9, 0.6, -0.4,0,0,1024,1024,1269,1024,0,0,37,0,63,0,0,58,3.909,3.902,0,0,0,0,2.736,82.58,3.28084E-5,0,38,Tripod,
4600,2022-10-20 23:18:23,0,0,0,,,3.28084E-5,0.328084,0,0,0,0,0,7.787,3.28084E-5,0,0,0,0,0,-0.447388,62.7, 0.6, 0.1,0,0,1024,1024,1024,1024,0,0,0,0,63,0,0,58,3.909,3.902,0,0,0,0,2.736,82.58,3.28084E-5,0,38,Tripod,
4700,2022-10-20 23:18:23,0,0,0,,,3.28084E-5,0.656168,0,0,0,0,0,7.787,3.28084E-5,0,0,0,0,0,-0.447388,62.8, 0.6, 0.6,0,0,1024,1024,1024,1024,0,0,0,0,63,0,0,58,3.909,3.902,0,0,0,0,2.736,82.58,3.28084E-5,0,38,Tripod,
4800,2022-10-20 23:18:23,0,0,0,,,3.28084E-5,0.656168,0,0,0,0,0,7.787,3.28084E-5,0,0,0,0,0,-0.671082,62.8, 0.7, 0.3,0,0,1024,1024,1024,1024,0,0,0,0,63,0,0,58,3.909,3.902,0,0,0,0,2.736,82.58,3.28084E-5,0,38,Tripod,
4900,2022-10-20 23:18:23,0,0,0.328084,,,0.3281168084,0.656168,0,0,0,0,0,7.787,0.3281168084,0.328084,0,0,0,0,-0.894776,62.8, 0.6, 0,0,0,1024,1024,1024,1024,0,0,0,0,63,0,0,58,3.909,3.902,0,0,0,0,2.736,82.58,0.3281168084,0.328084,38,Tripod,
5000,2022-10-20 23:18:23,0,0,0.328084,,,0.3281168084,0.656168,0,0,0,0,0,7.787,0.3281168084,0.328084,0,0,0,0,-0.894776,62.8, 0.7, 0,0,0,1024,1024,1024,1024,0,0,0,0,63,0,0,58,3.909,3.902,0,0,0,0,2.736,82.58,0.3281168084,0.328084,38,Tripod,
5100,2022-10-20 23:18:23,0,0,0.656168,,,0.6562008084,0.984252,0,0,0,0,0,7.787,0.6562008084,0.656168,0,0,0,0,-1.11847,62.9, 0.5, 0,0,0,1024,1024,1024,1024,0,0,0,0,63,0,0,58,3.909,3.902,0,0,0,0,2.736,82.58,0.6562008084,0.656168,38,Tripod,
5200,2022-10-20 23:18:24,0,0,0.656168,,,0.6562008084,0.984252,0,0,0,0,0,7.787,0.6562008084,0.656168,0,0,0,0,-1.11847,62.9, 0.3, 0,0,0,1024,1024,1024,1024,0,0,0,0,63,0,0,58,3.909,3.902,0,0,0,0,2.736,82.58,0.6562008084,0.656168,38,Tripod,
5300,2022-10-20 23:18:24,0,0,0.984252,,,0.9842848084,1.312336,0,0,0,0,0,7.787,0.9842848084,0.984252,0,0,0,0,-0.894776,62.9, 0.3, 0,0,0,1024,1024,1024,1024,0,0,0,0,63,0,0,58,3.909,3.902,0,0,0,0,2.736,82.58,0.9842848084,0.984252,38,Tripod,
5400,2022-10-20 23:18:24,0,0,0.984252,,,0.9842848084,1.312336,0,0,0,0,0,7.787,0.9842848084,0.984252,0,0,0,0,-0.671082,63, 0.3, 0.2,0,0,1024,1024,1024,1024,0,0,0,0,63,0,0,58,3.909,3.902,0,0,0,0,2.736,82.58,0.9842848084,0.984252,38,Tripod,
5500,2022-10-20 23:18:24,0,0,1.312336,,,1.3123688084,1.64042,0,0,0,0,0,7.719,1.3123688084,1.312336,0,0,0,0,-0.671082,62.9, 0.1, 0.1,0,0,1024,1024,1024,1024,0,0,0,0,63,0,0,58,3.867,3.856,0,0,0,0,4.383,82.58,1.3123688084,1.312336,1,Atti,"Señal del GPS demasiado débil. Se ha pasado al modo Atti. La aeronave no puede hacer vuelo estacionario. Vuela con precaución (Code: 30022). Señal débil del GPS. Vuelo estacionario inestable. Vuela con cuidado (Code: 30002)"
5600,2022-10-20 23:18:24,0,0,1.312336,,,1.3123688084,1.64042,0,0,0,0,0,7.719,1.3123688084,1.312336,0,0,0,0,-0.447388,62.9, 0, 0,0,0,1024,1024,1024,1024,0,0,0,0,63,0,0,58,3.867,3.856,0,0,0,0,4.383,82.58,1.3123688084,1.312336,38,Tripod,"Vuela con cuidado (modo Atti) Aeronave en modo Atti. No se puede hacer vuelo estacionario. Vuela con cuidado (Code: 30004). La brújula no funciona bien el GPS no tiene buena señal. Cambia a modo Atti (Code: 30020). Señal débil del GPS. Vuelo estacionario inestable. Vuela con cuid"
5700,2022-10-20 23:18:24,0,0,1.312336,,,1.3123688084,1.64042,0,0,0,0,0,7.719,1.3123688084,1.312336,0,0,0,0,-0.223694,63, 0, 0,0,0,1024,1024,1024,1024,0,0,0,0,63,0,0,58,3.867,3.856,0,0,0,0,4.383,82.58,1.3123688084,1.312336,38,Tripod,
5800,2022-10-20 23:18:24,0,0,1.312336,,,1.3123688084,1.64042,0,0,0,0,0,7.719,1.3123688084,1.312336,0,0,0,0,0,63, 0.2, 0.1,0,0,1024,1024,1024,1024,0,0,0,0,63,0,0,58,3.867,3.856,0,0,0,0,4.383,82.58,1.3123688084,1.312336,38,Tripod,
5900,2022-10-20 23:18:24,0,0,1.64042,,,1.6404528084,1.64042,0,0,0,0,0,7.719,1.6404528084,1.64042,0,0,0,0,0,63, 0.3, 0.1,0,0,1024,1024,1024,1024,0,0,0,0,63,0,0,58,3.867,3.856,0,0,0,0,4.383,82.58,1.6404528084,1.64042,38,Tripod,
6000,2022-10-20 23:18:24,0,0,1.64042,,,1.6404528084,1.64042,0,0,0,0,0,7.719,1.6404528084,1.64042,0,0,0,0,0,63, 0.4, 0.1,0,0,1024,1024,1024,1024,0,0,0,0,63,0,0,58,3.867,3.856,0,0,0,0,4.383,82.58,1.6404528084,1.64042,38,Tripod,
6100,2022-10-20 23:18:25,0,0,1.64042,,,1.6404528084,1.64042,0,0,0,0,0,7.719,1.6404528084,1.64042,0,0,0,0,0,63, 0.4, 0.2,0,0,1024,1024,1024,1024,0,0,0,0,63,0,0,58,3.867,3.856,0,0,0,0,4.383,82.58,1.6404528084,1.64042,38,Tripod,
6200,2022-10-20 23:18:25,0,0,1.64042,,,1.6404528084,1.64042,0,0,0,0,0,7.719,1.6404528084,1.64042,0,0,0,0,0,63, 0.4, 0.2,0,0,1024,1024,1024,1024,0,0,0,0,63,0,0,58,3.867,3.856,0,0,0,0,4.383,82.58,1.6404528084,1.64042,38,Tripod,
6300,2022-10-20 23:18:25,0,0,1.64042,,,1.6404528084,1.64042,0,0,0,0,0,7.719,1.6404528084,1.64042,0,0,0,0,0,63, 0.4, 0.2,0,0,1024,1024,1024,1024,0,0,0,0,63,0,0,58,3.867,3.856,0,0,0,0,4.383,82.58,1.6404528084,1.64042,38,Tripod,
6400,2022-10-20 23:18:25,0,0,1.64042,,,1.6404528084,1.64042,0,0,0,0,0,7.719,1.6404528084,1.64042,0,0,0,0,0,63, 0.3, 0,0,0,1024,1024,1024,1024,0,0,0,0,63,0,0,58,3.867,3.856,0,0,0,0,4.383,82.58,1.6404528084,1.64042,38,Tripod,
6500,2022-10-20 23:18:25,0,0,1.64042,,,1.6404528084,1.64042,0,0,0,0,0,7.733,1.6404528084,1.64042,0,0,0,0,0,63.1, 0.3, 0,0,0,1024,1024,1024,1024,0,0,0,0,63,0,0,58,3.868,3.857,0,0,0,0,4.283,82.58,1.6404528084,1.64042,38,Tripod,
6600,2022-10-20 23:18:25,0,0,1.64042,,,1.6404528084,1.64042,0,0,0,0,0,7.733,1.6404528084,1.64042,0,0,0,0,0,63.1, 0.3, 0,0,0,1024,1024,1024,1024,0,0,0,0,63,0,0,58,3.868,3.857,0,0,0,0,4.283,82.58,1.6404528084,1.64042,38,Tripod,
6700,2022-10-20 23:18:25,0,0,1.64042,,,1.6404528084,1.64042,0,0,0,0,0,7.733,1.6404528084,1.64042,0,0,0,0,0,63.1, 0.3, 0,0,0,1024,1024,1024,1024,0,0,0,0,63,0,0,58,3.868,3.857,0,0,0,0,4.283,82.58,1.6404528084,1.64042,38,Tripod,
6800,2022-10-20 23:18:25,0,0,1.64042,,,1.6404528084,1.64042,0,0,0,0,0,7.733,1.6404528084,1.64042,0,0,0,0,0,63.2, 0.3, 0,0,0,1024,1024,1024,1024,0,0,0,0,63,0,0,58,3.868,3.857,0,0,0,0,4.283,82.58,1.6404528084,1.64042,38,Tripod,
6900,2022-10-20 23:18:25,0,0,1.64042,,,1.6404528084,1.64042,0,0,0,0,0,7.733,1.6404528084,1.64042,0,0,0,0,0,63.2, 0.3, 0,0,0,1024,1024,1024,1024,0,0,0,0,63,0,0,58,3.868,3.857,0,0,0,0,4.283,82.58,1.6404528084,1.64042,38,Tripod,
7000,2022-10-20 23:18:25,0,0,1.64042,,,1.6404528084,1.64042,0,0,0,0,0,7.733,1.6404528084,1.64042,0,0,0,0,0,63.2, 0.3, 0,0,0,1024,1024,1024,1024,0,0,0,0,63,0,0,58,3.868,3.857,0,0,0,0,4.283,82.58,1.6404528084,1.64042,38,Tripod,
7100,2022-10-20 23:18:26,0,0,1.64042,,,1.6404528084,1.64042,0,0,0,0,0,7.733,1.6404528084,1.64042,0,0,0,0,0,63.3, 0.3, 0,0,0,1024,1024,1024,1024,0,0,0,0,63,0,0,58,3.868,3.857,0,0,0,0,4.283,82.58,1.6404528084,1.64042,38,Tripod,
7200,2022-10-20 23:18:26,0,0,1.64042,,,1.6404528084,1.64042,0,0,0,0,0,7.733,1.6404528084,1.64042,0,0,0,0,0,63.3, 0.3, 0,0,0,1024,1024,1024,1024,0,0,0,0,63,0,0,58,3.868,3.857,0,0,0,0,4.283,82.58,1.6404528084,1.64042,38,Tripod,
7300,2022-10-20 23:18:26,0,0,1.64042,,,1.6404528084,1.64042,0,0,0,0,0,7.733,1.6404528084,1.64042,0,0,0,0,0,63.4, 0.3, 0,0,0,1024,1024,1024,1024,0,0,0,0,63,0,0,58,3.868,3.857,0,0,0,0,4.283,82.58,1.6404528084,1.64042,38,Tripod,
7400,2022-10-20 23:18:26,0,0,1.64042,,,1.6404528084,1.64042,0,0,0,0,0,7.733,1.6404528084,1.64042,0,0,0,0,0,63.4, 0.3, 0.1,0,0,1024,1024,1024,1024,0,0,0,0,63,0,0,58,3.868,3.857,0,0,0,0,4.283,82.58,1.6404528084,1.64042,38,Tripod,
7500,2022-10-20 23:18:26,0,0,1.64042,,,1.6404528084,1.64042,0,0,0,0,0,7.733,1.6404528084,1.64042,0,0,0,0,0,63.4, 0.4, 0.1,0,0,1024,1024,1024,1024,0,0,0,0,63,0,0,58,3.868,3.857,0,0,0,0,4.283,82.58,1.6404528084,1.64042,38,Tripod,
7600,2022-10-20 23:18:26,0,0,1.64042,,,1.6404528084,1.64042,0,0,0,0,0,7.717,1.6404528084,1.64042,0,0,0,0,0,63.4, 0.4, 0.1,0,0,1024,1024,1024,1024,0,0,0,0,63,0,0,58,3.862,3.852,0,0,0,0,4.524,82.58,1.6404528084,1.64042,38,Tripod,
7700,2022-10-20 23:18:26,0,0,1.64042,,,1.6404528084,1.64042,0,0,0,0,0,7.717,1.6404528084,1.64042,0,0,0,0,0,63.4, 0.4, 0.1,0,0,1024,1024,1024,1198,0,0,0,26,63,0,0,58,3.862,3.852,0,0,0,0,4.524,82.58,1.6404528084,1.64042,38,Tripod,
7800,2022-10-20 23:18:26,0,0,1.64042,,,1.6404528084,1.64042,0,0,0,0,0,7.717,1.6404528084,1.64042,0,0,0,0,0,63.5, 0.4, 0.1,0,0,1024,1024,1024,1198,0,0,0,26,63,0,0,58,3.862,3.852,0,0,0,0,4.524,82.58,1.6404528084,1.64042,38,Tripod,
7900,2022-10-20 23:18:26,0,0,1.64042,,,1.6404528084,1.64042,0,0,0,0,0,7.717,1.6404528084,1.64042,0,0,0,0,0,63.5, 0.4, 0,0,0,1024,1024,1024,1671,0,0,0,98,63,0,0,58,3.862,3.852,0,0,0,0,4.524,82.58,1.6404528084,1.64042,38,Tripod,
8000,2022-10-20 23:18:26,0,0,1.64042,,,1.6404528084,1.64042,0,0,0,0,0,7.717,1.6404528084,1.64042,0,0,0,0,0,63.7, 0.5, 0,0,0,1024,1024,1024,1681,0,0,0,100,63.5,0,0,58,3.862,3.852,0,0,0,0,4.524,82.58,1.6404528084,1.64042,38,Tripod,
8100,2022-10-20 23:18:26,0,0,1.64042,,,1.6404528084,1.64042,0,0,0,0,0,7.717,1.6404528084,1.64042,0,0,0,0,0,64.5, 0.5, 0,0,0,1024,1024,1024,1061,0,0,0,6,65,0,0,58,3.862,3.852,0,0,0,0,4.524,82.58,1.6404528084,1.64042,38,Tripod,
8200,2022-10-20 23:18:27,0,0,1.64042,,,1.6404528084,1.64042,0,0,0,0,0,7.717,1.6404528084,1.64042,0,0,0,0,0,66.2, 0.5, 0.1,0,0,1024,1024,1024,1024,0,0,0,0,66.8,0,0,58,3.862,3.852,0,0,0,0,4.524,82.58,1.6404528084,1.64042,38,Tripod,
8300,2022-10-20 23:18:27,0,0,1.64042,,,1.6404528084,1.64042,0,0,0,0,0,7.717,1.6404528084,1.64042,0,0,0,0,0,67.8, 0.5, 0.1,0,0,1024,1024,1024,1024,0,0,0,0,68.1,0,0,58,3.862,3.852,0,0,0,0,4.524,82.58,1.6404528084,1.64042,38,Tripod,
8400,2022-10-20 23:18:27,0,0,1.64042,,,1.6404528084,1.64042,0,0,0,0,0,7.717,1.6404528084,1.64042,0,0,0,0,0,69, 0.4, 0.1,0,0,1024,1024,1024,1024,0,0,0,0,69.1,0,0,58,3.862,3.852,0,0,0,0,4.524,82.58,1.6404528084,1.64042,38,Tripod,
8500,2022-10-20 23:18:27,0,0,1.64042,,,1.6404528084,1.64042,0,0,0,0,0,7.717,1.6404528084,1.64042,0,0,0,0,0,69.8, 0.4, 0.1,0,0,1024,1024,1024,1024,0,0,0,0,69.7,0,0,58,3.862,3.852,0,0,0,0,4.524,82.58,1.6404528084,1.64042,38,Tripod,
8600,2022-10-20 23:18:27,0,0,1.64042,,,1.6404528084,1.64042,0,0,0,0,0,7.711,1.6404528084,1.64042,0,0,0,0,0,70.3, 0.5, 0,0,0,1024,1024,1024,1435,0,0,0,62,69.9,0,0,58,3.859,3.849,0,0,0,0,4.514,82.58,1.6404528084,1.64042,38,Tripod,"En vuelo"
8700,2022-10-20 23:18:27,0,0,1.64042,,,1.6404528084,1.64042,0,0,0,0,0,7.711,1.6404528084,1.64042,0,0,0,0,0,70.4, 0.4, 0,0,0,1024,1024,1024,1435,0,0,0,62,69.9,0,0,58,3.859,3.849,0,0,0,0,4.514,82.58,1.6404528084,1.64042,38,Tripod,
8800,2022-10-20 23:18:27,0,0,1.64042,,,1.6404528084,1.64042,0,0,0,0,0,7.711,1.6404528084,1.64042,0,0,0,0,0,70.5, 0.5, 0,0,0,1024,1024,1024,1684,0,0,0,100,70.1,0,0,58,3.859,3.849,0,0,0,0,4.514,82.58,1.6404528084,1.64042,38,Tripod,
8900,2022-10-20 23:18:27,0,0,1.64042,,,1.6404528084,1.64042,0,0,0,0,0,7.711,1.6404528084,1.64042,0,0,0,0,0,71, 0.5, 0,0,0,1024,1024,1024,1684,0,0,0,100,71.1,0,0,58,3.859,3.849,0,0,0,0,4.514,82.58,1.6404528084,1.64042,38,Tripod,
9000,2022-10-20 23:18:27,0,0,1.64042,,,1.6404528084,1.64042,0,0,0,0,0,7.711,1.6404528084,1.64042,0,0,0,0,0,72.4, 0.5, 0,0,0,1024,1024,1024,1684,0,0,0,100,72.9,0,0,58,3.859,3.849,0,0,0,0,4.514,82.58,1.6404528084,1.64042,38,Tripod,
9100,2022-10-20 23:18:27,0,0,1.64042,,,1.6404528084,1.64042,0,0,0,0,0,7.711,1.6404528084,1.64042,0,0,0,0,0,74.4, 0.5, 0,0,0,1024,1024,1024,1395,0,0,0,56,75.1,0,0,58,3.859,3.849,0,0,0,0,4.514,82.58,1.6404528084,1.64042,38,Tripod,
9200,2022-10-20 23:18:28,0,0,1.64042,,,1.6404528084,1.64042,0,0,0,0,0,7.711,1.6404528084,1.64042,0,0,0,0,0,76.6, 0.5, 0.1,0,0,1024,1024,1024,1024,0,0,0,0,77.4,0,0,58,3.859,3.849,0,0,0,0,4.514,82.58,1.6404528084,1.64042,38,Tripod,
9300,2022-10-20 23:18:28,0,0,1.64042,,,1.6404528084,1.64042,0,0,0,0,0,7.711,1.6404528084,1.64042,0,0,0,0,0,78.7, 0.4, 0.2,0,0,1024,1024,1024,1024,0,0,0,0,79.2,0,0,58,3.859,3.849,0,0,0,0,4.514,82.58,1.6404528084,1.64042,38,Tripod,
9400,2022-10-20 23:18:28,0,0,1.64042,,,1.6404528084,1.64042,0,0,0,0,0,7.711,1.6404528084,1.64042,0,0,0,0,0,80.2, 0.4, 0.2,0,0,1024,1024,1024,1024,0,0,0,0,80.5,0,0,58,3.859,3.849,0,0,0,0,4.514,82.58,1.6404528084,1.64042,38,Tripod,
9500,2022-10-20 23:18:28,0,0,1.64042,,,1.6404528084,1.64042,0,0,0,0,0,7.711,1.6404528084,1.64042,0,0,0,0,0,81.3, 0.3, 0.1,0,0,1024,1024,1024,1024,0,0,0,0,81.4,0,0,58,3.859,3.849,0,0,0,0,4.514,82.58,1.6404528084,1.64042,38,Tripod,
9600,2022-10-20 23:18:28,0,0,1.64042,,,1.6404528084,1.64042,0,0,0,0,0,7.703,1.6404528084,1.64042,0,0,0,0,0,82.1, 0.4, 0,0,0,1024,1024,1024,1024,0,0,0,0,81.9,0,0,57,3.856,3.844,0,0,0,0,4.541,82.76,1.6404528084,1.64042,38,Tripod,
9700,2022-10-20 23:18:28,0,0,1.64042,,,1.6404528084,1.64042,0,0,0,0,0,7.703,1.6404528084,1.64042,0,0,0,0,0,82.5, 0.4, 0,0,0,1024,1024,1024,1024,0,0,0,0,82,0,0,57,3.856,3.844,0,0,0,0,4.541,82.76,1.6404528084,1.64042,38,Tripod,
9800,2022-10-20 23:18:28,0,0,1.64042,,,1.6404528084,1.64042,0,0,0,0,0,7.703,1.6404528084,1.64042,0,0,0,0,0,82.6, 0.5, 0,0,0,1024,1024,1150,1024,0,0,19,0,82,0,0,57,3.856,3.844,0,0,0,0,4.541,82.76,1.6404528084,1.64042,38,Tripod,
9900,2022-10-20 23:18:28,0,0,1.64042,,,1.6404528084,1.64042,0,0,0,0,0,7.703,1.6404528084,1.64042,0,0,0,0,0,82.6, 0.5, 0,0,0,1024,1024,1403,1024,0,0,57,0,82,0,0,57,3.856,3.844,0,0,0,0,4.541,82.76,1.6404528084,1.64042,38,Tripod,
10000,2022-10-20 23:18:28,0,0,1.64042,,,1.6404528084,1.64042,0,0,0,0,0,7.703,1.6404528084,1.64042,0,0,0,0,-0.223694,82.6, 0.3, 0.1,0,0,1024,1024,1248,1024,0,0,34,0,82,0,0,57,3.856,3.844,0,0,0,0,4.541,82.76,1.6404528084,1.64042,38,Tripod,
10100,2022-10-20 23:18:29,0,0,1.968504,,,1.9685368084,1.64042,0,0,0,0,0,7.703,1.9685368084,1.968504,0,0,0,0,-0.894776,82.6, 0.5, 0.1,0,0,1024,1024,1024,1024,0,0,0,0,82,0,0,57,3.856,3.844,0,0,0,0,4.541,82.76,1.9685368084,1.968504,38,Tripod,
10200,2022-10-20 23:18:29,0,0,1.968504,,,1.9685368084,1.968504,0,0,0,0,0,7.703,1.9685368084,1.968504,0,0,0,0,-0.671082,82.7, 0.9, 0.2,0,0,1024,1024,1024,1024,0,0,0,0,82,0,0,57,3.856,3.844,0,0,0,0,4.541,82.76,1.9685368084,1.968504,38,Tripod,
10300,2022-10-20 23:18:29,0,0,1.968504,,,1.9685368084,1.968504,0,0,0,0,0,7.703,1.9685368084,1.968504,0,0,0,0,-0.447388,82.7, 0.7, 0,0,0,1024,1024,1024,1024,0,0,0,0,82,0,0,57,3.856,3.844,0,0,0,0,4.541,82.76,1.9685368084,1.968504,38,Tripod,
10400,2022-10-20 23:18:29,0,0,1.968504,,,1.9685368084,1.968504,0,0,0,0,0,7.703,1.9685368084,1.968504,0,0,0,0,-0.223694,82.7, 0.4, 0,0,0,1024,1024,1297,1024,0,0,41,0,82,0,0,57,3.856,3.844,0,0,0,0,4.541,82.76,1.9685368084,1.968504,38,Tripod,
10500,2022-10-20 23:18:29,0,0,1.968504,,,1.9685368084,1.968504,0,0,0,0,0,7.703,1.9685368084,1.968504,0,0,0,0,0,82.7, 0.3, 0,0,0,1024,1024,1294,1024,0,0,41,0,82,0,0,57,3.856,3.844,0,0,0,0,4.541,82.76,1.9685368084,1.968504,38,Tripod,
10600,2022-10-20 23:18:29,0,0,1.968504,,,1.9685368084,2.296588,0,0,0,0,0,7.697,1.9685368084,1.968504,0,0,0,0,-0.223694,82.7, 0.1, 0,0,0,1024,1024,1294,1024,0,0,41,0,82,0,0,57,3.848,3.842,0,0,0,0,4.775,82.76,1.9685368084,1.968504,38,Tripod,
10700,2022-10-20 23:18:29,0,0,2.296588,,,2.2966208084,2.296588,0,0,0,0,0,7.697,2.2966208084,2.296588,0,0,0,0,-0.671082,82.7, 0.1, 0,0,0,1024,1024,1024,1024,0,0,0,0,82,0,0,57,3.848,3.842,0,0,0,0,4.775,82.76,2.2966208084,2.296588,38,Tripod,
10800,2022-10-20 23:18:29,0,0,2.296588,,,2.2966208084,2.296588,0,0,0,0,0,7.697,2.2966208084,2.296588,0,0,0,0,-0.447388,82.8, 0.5, 0.2,0,0,1024,1024,1024,1024,0,0,0,0,82,0,0,57,3.848,3.842,0,0,0,0,4.775,82.76,2.2966208084,2.296588,38,Tripod,
10900,2022-10-20 23:18:29,0,0,2.296588,,,2.2966208084,2.296588,0,0,0,0,0,7.697,2.2966208084,2.296588,0,0,0,0,-0.223694,82.7, 0.4, 0.1,0,0,1024,1024,1024,1024,0,0,0,0,82,0,0,57,3.848,3.842,0,0,0,0,4.775,82.76,2.2966208084,2.296588,38,Tripod,
11000,2022-10-20 23:18:29,0,0,2.296588,,,2.2966208084,2.624672,0,0,0,0,0,7.697,2.2966208084,2.296588,0,0,0,0,-0.223694,82.7, 0.4, 0,0,0,1024,1024,1024,1024,0,0,0,0,82,0,0,57,3.848,3.842,0,0,0,0,4.775,82.76,2.2966208084,2.296588,38,Tripod,
11100,2022-10-20 23:18:30,0,0,2.296588,,,2.2966208084,2.624672,0,0,0,0,0,7.697,2.2966208084,2.296588,0,0,0,0,0,82.7, 0.4, 0,0,0,1024,1684,1024,1024,0,100,0,0,82,0,0,57,3.848,3.842,0,0,0,0,4.775,82.76,2.2966208084,2.296588,38,Tripod,
11200,2022-10-20 23:18:30,0,0,2.296588,,,2.2966208084,2.624672,0,0,0,0,0,7.697,2.2966208084,2.296588,0,0,0,0,0,82.7, 0.3, 0.8,0,0,1024,1684,1024,1024,0,100,0,0,82,0,0,57,3.848,3.842,0,0,0,0,4.775,82.76,2.2966208084,2.296588,38,Tripod,
11300,2022-10-20 23:18:30,0,0,2.296588,,,2.2966208084,2.624672,0,0,0,0,0,7.697,2.2966208084,2.296588,0,0,0,0,0,83, 0.3, 7,0,0,1024,1684,1024,1024,0,100,0,0,82,0,0,57,3.848,3.842,0,0,0,0,4.775,82.76,2.2966208084,2.296588,38,Tripod,
11400,2022-10-20 23:18:30,0,0,2.296588,,,2.2966208084,2.624672,0.223694,0,0,0,0,7.697,2.2966208084,2.296588,0,0,-0.223694,0,0,83, 0.3, 9.5,0,0,1024,1684,1024,1024,0,100,0,0,82,0,0,57,3.848,3.842,0,0,0,0,4.775,82.76,2.2966208084,2.296588,38,Tripod,
11500,2022-10-20 23:18:30,0,0,2.296588,,,2.2966208084,2.624672,0.671082,0,0,0,0,7.697,2.2966208084,2.296588,0,0,-0.671082,0,0,82.8, 0.3, 9.9,0,0,1024,1078,1024,1024,0,8,0,0,82,0,0,57,3.848,3.842,0,0,0,0,4.775,82.76,2.2966208084,2.296588,38,Tripod,
11600,2022-10-20 23:18:30,0,0,2.296588,,,2.2966208084,2.624672,1.11847,0,0,0,0,7.706,2.2966208084,2.296588,0,0,-1.11847,0,0,82.7, 0.4, 9.8,0,0,1024,1078,1024,1024,0,8,0,0,82,0,0,57,3.852,3.839,0,0,0,0,4.457,82.76,2.2966208084,2.296588,38,Tripod,
11700,2022-10-20 23:18:30,0,0,2.296588,,,2.2966208084,2.624672,1.342164,0,0,0,0,7.706,2.2966208084,2.296588,0,0,-1.342164,0,0,82.7, 0.4, 7.9,0,0,1024,1024,1024,1024,0,0,0,0,82,0,0,57,3.852,3.839,0,0,0,0,4.457,82.76,2.2966208084,2.296588,38,Tripod,
11800,2022-10-20 23:18:30,0,0,2.296588,,,2.2966208084,2.624672,1.565858,0,0,0,0,7.706,2.2966208084,2.296588,0,0,-1.565858,0,0,82.2, 0.3, -3.3,0,0,1024,1024,1024,1024,0,0,0,0,82,0,0,57,3.852,3.839,0,0,0,0,4.457,82.76,2.2966208084,2.296588,38,Tripod,
11900,2022-10-20 23:18:30,0,0,2.296588,,,2.2966208084,2.624672,1.565858,0,0,0,0,7.706,2.2966208084,2.296588,0,0,-1.342164,0,0,82.3, 0.1, -6.5,0,0,1024,1024,1024,1024,0,0,0,0,82,0,0,57,3.852,3.839,0,0,0,0,4.457,82.76,2.2966208084,2.296588,38,Tripod,
12000,2022-10-20 23:18:30,0,0,2.296588,,,2.2966208084,2.952756,1.11847,0,0,0,0,7.706,2.2966208084,2.296588,0,0,-1.11847,0,0,82.6, 0.1, -6.2,0,0,1024,547,1024,1024,0,-72,0,0,82,0,0,57,3.852,3.839,0,0,0,0,4.457,82.76,2.2966208084,2.296588,38,Tripod,
12100,2022-10-20 23:18:30,0,0,2.296588,,,2.2966208084,2.952756,0.671082,0,0,0,0,7.706,2.2966208084,2.296588,0,0,-0.671082,0,0,82.8, 0.2, -5.5,0,0,1024,364,1024,1024,0,-100,0,0,82,0,0,57,3.852,3.839,0,0,0,0,4.457,82.76,2.2966208084,2.296588,38,Tripod,
12200,2022-10-20 23:18:31,0,0,2.296588,,,2.2966208084,3.28084,0.447388,0,0,0,0,7.706,2.2966208084,2.296588,0,0,-0.447388,0,0,82.7, 0.2, -8.2,0,0,1024,364,1024,1024,0,-100,0,0,82,0,0,57,3.852,3.839,0,0,0,0,4.457,82.76,2.2966208084,2.296588,38,Tripod,
12300,2022-10-20 23:18:31,0,0,2.296588,,,2.2966208084,3.28084,0.223694,0,0,0,0,7.706,2.2966208084,2.296588,0,0,-0.223694,0,0,82.6, 0.3, -10.6,0,0,1024,364,1024,1024,0,-100,0,0,82,0,0,57,3.852,3.839,0,0,0,0,4.457,82.76,2.2966208084,2.296588,38,Tripod,
12400,2022-10-20 23:18:31,0,0,2.296588,,,2.2966208084,3.28084,0,0,0,0,0,7.706,2.2966208084,2.296588,0,0,0,0,0,82.7, 0.3, -10.9,0,0,1024,364,1024,1024,0,-100,0,0,82,0,0,57,3.852,3.839,0,0,0,0,4.457,82.76,2.2966208084,2.296588,38,Tripod,
12500,2022-10-20 23:18:31,0,0,2.296588,,,2.2966208084,3.28084,0.447388,0,0,0,0,7.706,2.2966208084,2.296588,0,0,0.447388,0,0,82.7, 0.3, -10.4,0,0,1024,364,1024,1024,0,-100,0,0,82,0,0,57,3.852,3.839,0,0,0,0,4.457,82.76,2.2966208084,2.296588,38,Tripod,
12600,2022-10-20 23:18:31,0,0,2.296588,,,2.2966208084,3.608924,0.894776,0,0,0,0,7.706,2.2966208084,2.296588,0,0,0.894776,0,0,82.7, 0.3, -10,0,0,1024,364,1024,1024,0,-100,0,0,82,0,0,57,3.852,3.839,0,0,0,0,4.457,82.76,2.2966208084,2.296588,38,Tripod,
12700,2022-10-20 23:18:31,0,0,2.296588,,,2.2966208084,3.608924,1.342164,0,0,0,0,7.687,2.2966208084,2.296588,0,0,1.342164,0,0,82.7, 0.3, -9.8,0,0,1024,364,1024,1024,0,-100,0,0,82,0,0,57,3.847,3.836,0,0,0,0,4.542,82.76,2.2966208084,2.296588,38,Tripod,
12800,2022-10-20 23:18:31,0,0,2.296588,,,2.2966208084,3.608924,1.565858,0,0,0,0,7.687,2.2966208084,2.296588,0,0,1.565858,0,0,82.8, 0.2, -9.6,0,0,1024,364,1024,1024,0,-100,0,0,82,0,0,57,3.847,3.836,0,0,0,0,4.542,82.76,2.2966208084,2.296588,38,Tripod,
12900,2022-10-20 23:18:31,0,0,2.296588,,,2.2966208084,3.608924,2.0356154,0,0,0,0,7.687,2.2966208084,2.296588,0,0,2.013246,-0.223694,0,82.8, 0, -9.5,0,0,1024,364,1024,1024,0,-100,0,0,82,0,0,57,3.847,3.836,0,0,0,0,4.542,82.76,2.2966208084,2.296588,38,Tripod,
13000,2022-10-20 23:18:31,0,0,2.296588,,,2.2966208084,3.608924,2.23694,0,0,0,0,7.687,2.2966208084,2.296588,0,0,2.23694,-0.223694,0,82.8, 0.1, -9.2,0,0,1024,364,1024,1024,0,-100,0,0,82,0,0,57,3.847,3.836,0,0,0,0,4.542,82.76,2.2966208084,2.296588,38,Tripod,
13100,2022-10-20 23:18:31,0,0,2.296588,,,2.2966208084,3.28084,2.460634,0,0,0,0,7.687,2.2966208084,2.296588,0,0,2.460634,-0.223694,0,82.8, 0.3, -9,0,0,1024,364,1024,1024,0,-100,0,0,82,0,0,57,3.847,3.836,0,0,0,0,4.542,82.76,2.2966208084,2.296588,38,Tripod,
13200,2022-10-20 23:18:32,0,0,2.296588,,,2.2966208084,2.952756,2.908022,0,0,0,0,7.687,2.2966208084,2.296588,0,0,2.908022,-0.223694,0,82.8, 0.2, -8.8,0,0,1024,385,1024,1024,0,-97,0,0,82,0,0,57,3.847,3.836,0,0,0,0,4.542,82.76,2.2966208084,2.296588,38,Tripod,
13300,2022-10-20 23:18:32,0,0,2.296588,,,2.2966208084,2.952756,3.131716,0,0,0,0,7.687,2.2966208084,2.296588,0,0,3.131716,-0.223694,0,82.7, 0.2, -8.9,0,0,1024,1024,1024,1024,0,0,0,0,82,0,0,57,3.847,3.836,0,0,0,0,4.542,82.76,2.2966208084,2.296588,38,Tripod,
13400,2022-10-20 23:18:32,0,0,2.296588,,,2.2966208084,2.624672,3.35541,0,0,0,0,7.687,2.2966208084,2.296588,0,0,3.35541,-0.223694,0,82.8, 0, -7.9,0,0,1024,1024,1024,1024,0,0,0,0,82,0,0,57,3.847,3.836,0,0,0,0,4.542,82.76,2.2966208084,2.296588,38,Tripod,
13500,2022-10-20 23:18:32,0,0,2.296588,,,2.2966208084,2.624672,3.6014734,0,0,0,0,7.687,2.2966208084,2.296588,0,0,3.579104,-0.447388,0,83, 0.1, 1,0,0,1024,1024,1024,1024,0,0,0,0,82,0,0,57,3.847,3.836,0,0,0,0,4.542,82.76,2.2966208084,2.296588,38,Tripod,
13600,2022-10-20 23:18:32,0,0,2.296588,,,2.2966208084,2.624672,3.131716,0,0,0,0,7.687,2.2966208084,2.296588,0,0,3.131716,-0.223694,0,83.5, 0.4, 12.5,0,0,1024,1024,1024,1024,0,0,0,0,82,0,0,57,3.847,3.836,0,0,0,0,4.542,82.76,2.2966208084,2.296588,38,Tripod,
13700,2022-10-20 23:18:32,0,0,2.296588,,,2.2966208084,2.624672,2.684328,0,0,0,0,7.681,2.2966208084,2.296588,0,0,2.684328,-0.223694,0,83.1, 0.1, 13.8,0,0,1024,1060,1024,1024,0,5,0,0,82,0,0,57,3.845,3.833,0,0,0,0,4.562,82.76,2.2966208084,2.296588,38,Tripod,
13800,2022-10-20 23:18:32,0,0,2.296588,,,2.2966208084,2.624672,2.0356154,0,0,0,0,7.681,2.2966208084,2.296588,0,0,2.013246,-0.223694,0,82.9, 0.2, 12.3,0,0,1024,1501,1024,1024,0,72,0,0,82,0,0,57,3.845,3.833,0,0,0,0,4.562,82.76,2.2966208084,2.296588,38,Tripod,
13900,2022-10-20 23:18:32,0,0,2.296588,,,2.2966208084,2.952756,1.5882274,0,0,0,0,7.681,2.2966208084,2.296588,0,0,1.565858,-0.223694,0,82.7, 0.1, 9.7,0,0,1024,1684,1024,1024,0,100,0,0,82,0,0,57,3.845,3.833,0,0,0,0,4.562,82.76,2.2966208084,2.296588,38,Tripod,
14000,2022-10-20 23:18:32,0,0,2.296588,,,2.2966208084,2.952756,1.11847,0,0,0,0,7.681,2.2966208084,2.296588,0,0,1.11847,0,0,82.9, 0, 11.6,0,0,1024,1684,1024,1024,0,100,0,0,82,0,0,57,3.845,3.833,0,0,0,0,4.562,82.76,2.2966208084,2.296588,38,Tripod,
14100,2022-10-20 23:18:32,0,0,2.296588,,,2.2966208084,3.28084,0.671082,0,0,0,0,7.681,2.2966208084,2.296588,0,0,0.671082,0,0,82.9, 0, 12.4,0,0,1024,1684,1024,1024,0,100,0,0,82,0,0,57,3.845,3.833,0,0,0,0,4.562,82.76,2.2966208084,2.296588,38,Tripod,
14200,2022-10-20 23:18:33,0,0,2.296588,,,2.2966208084,3.28084,0,0,0,0,0,7.681,2.2966208084,2.296588,0,0,0,0,0,82.8, 0.1, 11.9,0,0,1024,1684,1024,1024,0,100,0,0,82,0,0,57,3.845,3.833,0,0,0,0,4.562,82.76,2.2966208084,2.296588,38,Tripod,
14300,2022-10-20 23:18:33,0,0,2.296588,,,2.2966208084,3.28084,0.223694,0,0,0,0,7.681,2.2966208084,2.296588,0,0,-0.223694,0,0,82.8, 0.2, 11.3,0,0,1024,1684,1024,1024,0,100,0,0,82,0,0,57,3.845,3.833,0,0,0,0,4.562,82.76,2.2966208084,2.296588,38,Tripod,
14400,2022-10-20 23:18:33,0,0,2.296588,,,2.2966208084,3.28084,0.447388,0,0,0,0,7.681,2.2966208084,2.296588,0,0,-0.447388,0,0,82.7, 0.1, 10.6,0,0,1024,1684,1024,1024,0,100,0,0,82,0,0,57,3.845,3.833,0,0,0,0,4.562,82.76,2.2966208084,2.296588,38,Tripod,
14500,2022-10-20 23:18:33,0,0,2.296588,,,2.2966208084,3.28084,0.894776,0,0,0,0,7.681,2.2966208084,2.296588,0,0,-0.894776,0,0,82.7, 0, 10.4,0,0,1024,1684,1024,1024,0,100,0,0,82,0,0,57,3.845,3.833,0,0,0,0,4.562,82.76,2.2966208084,2.296588,38,Tripod,
14600,2022-10-20 23:18:33,0,0,2.296588,,,2.2966208084,3.28084,1.342164,0,0,0,0,7.681,2.2966208084,2.296588,0,0,-1.342164,0,0,82.7, 0, 10,0,0,1024,1684,1024,1024,0,100,0,0,82,0,0,57,3.845,3.833,0,0,0,0,4.562,82.76,2.2966208084,2.296588,38,Tripod,
14700,2022-10-20 23:18:33,0,0,2.296588,,,2.2966208084,3.28084,1.8119214,0,0,0,0,7.676,2.2966208084,2.296588,0,0,-1.789552,0.223694,0,82.7, 0.1, 9.8,0,0,1024,1684,1024,1024,0,100,0,0,82,0,0,57,3.842,3.831,0,0,0,0,4.606,82.94,2.2966208084,2.296588,38,Tripod,
14800,2022-10-20 23:18:33,0,0,2.296588,,,2.2966208084,3.28084,2.0356154,0,0,0,0,7.676,2.2966208084,2.296588,0,0,-2.013246,0.223694,0,82.8, 0.3, 9.7,0,0,1024,1684,1024,1024,0,100,0,0,82,0,0,57,3.842,3.831,0,0,0,0,4.606,82.94,2.2966208084,2.296588,38,Tripod,
14900,2022-10-20 23:18:33,0,0,2.296588,,,2.2966208084,2.952756,2.460634,0,0,0,0,7.676,2.2966208084,2.296588,0,0,-2.460634,0.223694,0,82.8, 0.2, 9.3,0,0,1024,1684,1024,1024,0,100,0,0,82,0,0,57,3.842,3.831,0,0,0,0,4.606,82.94,2.2966208084,2.296588,38,Tripod,
15000,2022-10-20 23:18:33,0,0,2.296588,,,2.2966208084,2.952756,2.684328,0,0,0,0,7.676,2.2966208084,2.296588,0,0,-2.684328,0.223694,0,82.8, 0, 8.9,0,0,1024,1684,1024,1024,0,100,0,0,82,0,0,57,3.842,3.831,0,0,0,0,4.606,82.94,2.2966208084,2.296588,38,Tripod,
15100,2022-10-20 23:18:34,0,0,2.296588,,,2.2966208084,2.624672,2.908022,0,0,0,0,7.676,2.2966208084,2.296588,0,0,-2.908022,0.223694,0,82.8, 0.2, 8.9,0,0,1024,1305,1024,1024,0,43,0,0,82,0,0,57,3.842,3.831,0,0,0,0,4.606,82.94,2.2966208084,2.296588,38,Tripod,
15200,2022-10-20 23:18:34,0,0,1.968504,,,1.9685368084,2.624672,3.3777794,0,0,0,0,7.676,2.2966208084,2.296588,0,0,-3.35541,0.447388,0,82.9, 0.4, 7.9,0,0,1024,1024,1024,1024,0,0,0,0,82,0,0,57,3.842,3.831,0,0,0,0,4.606,82.94,1.9685368084,1.968504,38,Tripod,
15300,2022-10-20 23:18:34,0,0,1.968504,,,1.9685368084,2.624672,3.3777794,0,0,0,0,7.676,2.2966208084,2.296588,0,0,-3.35541,0.447388,0,82.8, 0.6, 2.8,0,0,1024,969,1024,1024,0,-8,0,0,82,0,0,57,3.842,3.831,0,0,0,0,4.606,82.94,1.9685368084,1.968504,38,Tripod,
15400,2022-10-20 23:18:34,0,0,1.968504,,,1.9685368084,2.624672,3.3777794,0,0,0,0,7.676,2.2966208084,2.296588,0,0,-3.35541,0.447388,0,82.3, 0.3, -9.7,0,0,1024,445,1024,1024,0,-88,0,0,82,0,0,57,3.842,3.831,0,0,0,0,4.606,82.94,1.9685368084,1.968504,38,Tripod,
15500,2022-10-20 23:18:34,0,0,1.968504,,,1.9685368084,2.296588,2.908022,0,0,0,0,7.676,2.2966208084,2.296588,0,0,-2.908022,0.223694,0,82.5, 0.3, -9.9,0,0,1024,364,1024,1024,0,-100,0,0,82,0,0,57,3.842,3.831,0,0,0,0,4.606,82.94,1.9685368084,1.968504,38,Tripod,
15600,2022-10-20 23:18:34,0,0,1.968504,,,1.9685368084,2.624672,2.460634,0,0,0,0,7.676,2.2966208084,2.296588,0,0,-2.460634,0.223694,0,82.7, 0, -10.5,0,0,1024,364,1024,1024,0,-100,0,0,82,0,0,57,3.842,3.831,0,0,0,0,4.606,82.94,1.9685368084,1.968504,38,Tripod,
15700,2022-10-20 23:18:34,0,0,1.968504,,,1.9685368084,2.624672,2.0356154,0,0,0,0,7.672,2.2966208084,2.296588,0,0,-2.013246,0.223694,0,82.5, 0.2, -12.3,0,0,1024,509,1024,1024,0,-78,0,0,82,0,0,57,3.841,3.829,0,0,0,0,4.608,82.94,1.9685368084,1.968504,38,Tripod,
15800,2022-10-20 23:18:34,0,0,1.968504,,,1.9685368084,2.952756,1.342164,0,0,0,0,7.672,2.2966208084,2.296588,0,0,-1.342164,0,0,82.6, 0.3, -12,0,0,1024,1024,1024,1024,0,0,0,0,82,0,0,57,3.841,3.829,0,0,0,0,4.608,82.94,1.9685368084,1.968504,38,Tripod,
15900,2022-10-20 23:18:34,0,0,1.968504,,,1.9685368084,2.952756,1.342164,0,0,0,0,7.672,2.2966208084,2.296588,0,0,-0.894776,0,0,82.8, 0.3, -6,0,0,1024,1024,1024,1024,0,0,0,0,82,0,0,57,3.841,3.829,0,0,0,0,4.608,82.94,1.9685368084,1.968504,38,Tripod,
16000,2022-10-20 23:18:34,0,0,1.968504,,,1.9685368084,3.28084,0.671082,0,0,0,0,7.672,2.2966208084,2.296588,0,0,-0.671082,0,0,83.1, 0.2, -2.9,0,0,1024,843,1024,1024,0,-27,0,0,82,0,0,57,3.841,3.829,0,0,0,0,4.608,82.94,1.9685368084,1.968504,38,Tripod,
16100,2022-10-20 23:18:34,0,0,1.968504,,,1.9685368084,3.28084,0.671082,0,0,0,0,7.672,2.2966208084,2.296588,0,0,-0.671082,0,0,82.8, 0.3, -3.1,0,0,1024,501,1024,1024,0,-79,0,0,82,0,0,57,3.841,3.829,0,0,0,0,4.608,82.94,1.9685368084,1.968504,38,Tripod,
16200,2022-10-20 23:18:35,0,0,1.968504,,,1.9685368084,3.28084,0.671082,0,0,0,0,7.672,2.2966208084,2.296588,0,0,-0.671082,0,0,82.8, 0.3, -3.9,0,0,1024,487,1024,1024,0,-81,0,0,82,0,0,57,3.841,3.829,0,0,0,0,4.608,82.94,1.9685368084,1.968504,38,Tripod,
16300,2022-10-20 23:18:35,0,0,1.968504,,,1.9685368084,3.28084,0.447388,0,0,0,0,7.672,2.2966208084,2.296588,0,0,-0.447388,0,0,82.7, 0.3, -7.2,0,0,1024,491,1024,1024,0,-81,0,0,82,0,0,57,3.841,3.829,0,0,0,0,4.608,82.94,1.9685368084,1.968504,38,Tripod,
16400,2022-10-20 23:18:35,0,0,1.968504,,,1.9685368084,3.28084,0,0,0,0,0,7.672,2.2966208084,2.296588,0,0,0,0,0,82.7, 0.2, -8.1,0,0,1024,491,1024,1024,0,-81,0,0,82,0,0,57,3.841,3.829,0,0,0,0,4.608,82.94,1.9685368084,1.968504,38,Tripod,
16500,2022-10-20 23:18:35,0,0,1.968504,,,1.9685368084,3.28084,0,0,0,0,0,7.672,2.2966208084,2.296588,0,0,0,0,0,82.8, 0.2, -7.9,0,0,1024,920,1024,1024,0,-16,0,0,82,0,0,57,3.841,3.829,0,0,0,0,4.608,82.94,1.9685368084,1.968504,38,Tripod,
16600,2022-10-20 23:18:35,0,0,1.968504,,,1.9685368084,3.28084,0.447388,0,0,0,0,7.672,2.2966208084,2.296588,0,0,0.447388,0,0,82.8, 0.2, -5.5,0,0,1024,1024,1024,1024,0,0,0,0,82,0,0,57,3.841,3.829,0,0,0,0,4.608,82.94,1.9685368084,1.968504,38,Tripod,
16700,2022-10-20 23:18:35,0,0,1.968504,,,1.9685368084,3.608924,0.447388,0,0,0,0,7.667,2.2966208084,2.296588,0,0,0.447388,0,0,83.1, 0.2, 1.2,0,0,1024,1024,1024,1024,0,0,0,0,82,0,0,57,3.84,3.828,0,0,0,0,4.613,82.94,1.9685368084,1.968504,38,Tripod,
16800,2022-10-20 23:18:35,0,0,1.968504,,,1.9685368084,3.608924,0.447388,0,0,0,0,7.667,2.2966208084,2.296588,0,0,0.447388,0,0,83, 0.2, 2.6,0,0,1024,1387,1024,1024,0,55,0,0,82,0,0,57,3.84,3.828,0,0,0,0,4.613,82.94,1.9685368084,1.968504,38,Tripod,
16900,2022-10-20 23:18:35,0,0,1.968504,,,1.9685368084,3.608924,0.447388,0,0,0,0,7.667,2.2966208084,2.296588,0,0,0.447388,0,0,82.8, 0.2, 2.4,0,0,1024,1543,1024,1024,0,79,0,0,82,0,0,57,3.84,3.828,0,0,0,0,4.613,82.94,1.9685368084,1.968504,38,Tripod,
17000,2022-10-20 23:18:35,0,0,1.968504,,,1.9685368084,3.608924,0.223694,0,0,0,0,7.667,2.2966208084,2.296588,0,0,0.223694,0,0,82.9, 0.4, 4.6,0,0,1024,1024,1024,1024,0,0,0,0,82,0,0,57,3.84,3.828,0,0,0,0,4.613,82.94,1.9685368084,1.968504,38,Tripod,
17100,2022-10-20 23:18:35,0,0,1.968504,,,1.9685368084,3.608924,0,0,0,0,0,7.667,2.2966208084,2.296588,0,0,0,0,0,83, 0.3, 7.1,0,0,1024,934,1024,1024,0,-14,0,0,82,0,0,57,3.84,3.828,0,0,0,0,4.613,82.94,1.9685368084,1.968504,38,Tripod,
17200,2022-10-20 23:18:36,0,0,1.968504,,,1.9685368084,3.608924,0,0,0,0,0,7.667,2.2966208084,2.296588,0,0,0,0,0,82.8, 0.3, 3.6,0,0,1024,934,1024,1024,0,-14,0,0,82,0,0,57,3.84,3.828,0,0,0,0,4.613,82.94,1.9685368084,1.968504,38,Tripod,
17300,2022-10-20 23:18:36,0,0,1.968504,,,1.9685368084,3.608924,0,0,0,0,0,7.667,2.2966208084,2.296588,0,0,0,0,0,82.5, 0.3, -0.4,0,0,1024,704,1024,1024,0,-48,0,0,82,0,0,57,3.84,3.828,0,0,0,0,4.613,82.94,1.9685368084,1.968504,38,Tripod,
17400,2022-10-20 23:18:36,0,0,1.968504,,,1.9685368084,3.608924,0,0,0,0,0,7.667,2.2966208084,2.296588,0,0,0,0,0,82.6, 0.3, -1.8,0,0,1024,781,1024,1024,0,-37,0,0,82,0,0,57,3.84,3.828,0,0,0,0,4.613,82.94,1.9685368084,1.968504,38,Tripod,
17500,2022-10-20 23:18:36,0,0,1.968504,,,1.9685368084,3.608924,0,0,0,0,0,7.667,2.2966208084,2.296588,0,0,0,0,0,82.6, 0.3, -3.2,0,0,1024,1024,1024,1024,0,0,0,0,82,0,0,57,3.84,3.828,0,0,0,0,4.613,82.94,1.9685368084,1.968504,38,Tripod,
17600,2022-10-20 23:18:36,0,0,1.968504,,,1.9685368084,3.608924,0,0,0,0,0,7.667,2.2966208084,2.296588,0,0,0,0,0,82.7, 0.3, -0.4,0,0,1024,1311,1024,1024,0,43,0,0,82,0,0,57,3.84,3.828,0,0,0,0,4.613,82.94,1.9685368084,1.968504,38,Tripod,
17700,2022-10-20 23:18:36,0,0,1.968504,,,1.9685368084,3.608924,0,0,0,0,0,7.667,2.2966208084,2.296588,0,0,0,0,0,82.8, 0.3, 0.9,0,0,1024,1102,1024,1024,0,12,0,0,82,0,0,57,3.84,3.828,0,0,0,0,4.613,82.94,1.9685368084,1.968504,38,Tripod,
17800,2022-10-20 23:18:36,0,0,1.968504,,,1.9685368084,3.608924,0,0,0,0,0,7.666,2.2966208084,2.296588,0,0,0,0,0,82.8, 0.3, 2.7,0,0,1024,979,1024,1024,0,-7,0,0,82,0,0,57,3.839,3.826,0,0,0,0,4.511,82.94,1.9685368084,1.968504,38,Tripod,
17900,2022-10-20 23:18:36,0,0,1.968504,,,1.9685368084,3.608924,0,0,0,0,0,7.666,2.2966208084,2.296588,0,0,0,0,0,82.9, 0.2, 2.1,0,0,1024,1024,1024,1024,0,0,0,0,82,0,0,57,3.839,3.826,0,0,0,0,4.511,82.94,1.9685368084,1.968504,38,Tripod,
18000,2022-10-20 23:18:36,0,0,1.968504,,,1.9685368084,3.608924,0,0,0,0,0,7.666,2.2966208084,2.296588,0,0,0,0,0,82.7, 0.2, 0,0,0,1024,1024,1024,1024,0,0,0,0,82,0,0,57,3.839,3.826,0,0,0,0,4.511,82.94,1.9685368084,1.968504,38,Tripod,
18100,2022-10-20 23:18:36,0,0,1.968504,,,1.9685368084,3.608924,0,0,0,0,0,7.666,2.2966208084,2.296588,0,0,0,0,0,82.8, 0.3, 0,0,0,1024,1024,1024,1024,0,0,0,0,82,0,0,57,3.839,3.826,0,0,0,0,4.511,82.94,1.9685368084,1.968504,38,Tripod,
18200,2022-10-20 23:18:37,0,0,1.968504,,,1.9685368084,3.608924,0,0,0,0,0,7.666,2.2966208084,2.296588,0,0,0,0,0,82.8, 0.4, 0,0,0,1024,1024,1024,1024,0,0,0,0,82,0,0,57,3.839,3.826,0,0,0,0,4.511,82.94,1.9685368084,1.968504,38,Tripod,
18300,2022-10-20 23:18:37,0,0,1.968504,,,1.9685368084,3.608924,0,0,0,0,0,7.666,2.2966208084,2.296588,0,0,0,0,0,82.8, 0.3, 0,0,0,1024,1024,1024,1024,0,0,0,0,82,0,0,57,3.839,3.826,0,0,0,0,4.511,82.94,1.9685368084,1.968504,38,Tripod,
18400,2022-10-20 23:18:37,0,0,1.968504,,,1.9685368084,3.608924,0,0,0,0,0,7.666,2.2966208084,2.296588,0,0,0,0,0,82.8, 0.3, 0.2,0,0,1024,1024,1024,1024,0,0,0,0,82,0,0,57,3.839,3.826,0,0,0,0,4.511,82.94,1.9685368084,1.968504,38,Tripod,
18500,2022-10-20 23:18:37,0,0,1.968504,,,1.9685368084,3.28084,0,0,0,0,0,7.666,2.2966208084,2.296588,0,0,0,0,0,82.8, 0.2, 0.3,0,0,1024,1024,1024,1024,0,0,0,0,82,0,0,57,3.839,3.826,0,0,0,0,4.511,82.94,1.9685368084,1.968504,38,Tripod,
18600,2022-10-20 23:18:37,0,0,1.968504,,,1.9685368084,3.28084,0,0,0,0,0,7.666,2.2966208084,2.296588,0,0,0,0,0,82.8, 0.1, 0.2,0,0,1024,1024,1024,1024,0,0,0,0,82,0,0,57,3.839,3.826,0,0,0,0,4.511,82.94,1.9685368084,1.968504,38,Tripod,
18700,2022-10-20 23:18:37,0,0,2.296588,,,2.2966208084,3.28084,0,0,0,0,0,7.666,2.2966208084,2.296588,0,0,0,0,0,82.8, 0.1, 0,0,0,1024,1024,1024,1024,0,0,0,0,82,0,0,57,3.839,3.826,0,0,0,0,4.511,82.94,2.2966208084,2.296588,38,Tripod,
18800,2022-10-20 23:18:37,0,0,2.296588,,,2.2966208084,3.28084,0,0,0,0,0,7.664,2.2966208084,2.296588,0,0,0,0,0,82.8, 0.1, 0.1,0,0,1024,1024,1024,1024,0,0,0,0,82,0,0,57,3.837,3.826,0,0,0,0,4.488,83.12,2.2966208084,2.296588,38,Tripod,
18900,2022-10-20 23:18:37,0,0,2.296588,,,2.2966208084,3.28084,0,0,0,0,0,7.664,2.2966208084,2.296588,0,0,0,0,0,82.8, 0.2, 0.3,0,0,1024,1024,1024,1024,0,0,0,0,82,0,0,57,3.837,3.826,0,0,0,0,4.488,83.12,2.2966208084,2.296588,38,Tripod,
19000,2022-10-20 23:18:37,0,0,2.296588,,,2.2966208084,3.28084,0,0,0,0,0,7.664,2.2966208084,2.296588,0,0,0,0,0,82.8, 0.3, 0.4,0,0,1024,1024,1024,1024,0,0,0,0,82,0,0,57,3.837,3.826,0,0,0,0,4.488,83.12,2.2966208084,2.296588,38,Tripod,
19100,2022-10-20 23:18:38,0,0,2.296588,,,2.2966208084,3.28084,0,0,0,0,0,7.664,2.2966208084,2.296588,0,0,0,0,0,82.8, 0.4, 0.4,0,0,1024,1024,1024,1024,0,0,0,0,82,0,0,57,3.837,3.826,0,0,0,0,4.488,83.12,2.2966208084,2.296588,38,Tripod,
19200,2022-10-20 23:18:38,0,0,2.296588,,,2.2966208084,3.28084,0,0,0,0,0,7.664,2.2966208084,2.296588,0,0,0,0,0,82.8, 0.5, 0.3,0,0,1024,1024,1096,1024,0,0,11,0,82,0,0,57,3.837,3.826,0,0,0,0,4.488,83.12,2.2966208084,2.296588,38,Tripod,
19300,2022-10-20 23:18:38,0,0,2.296588,,,2.2966208084,3.28084,0,0,0,0,0,7.664,2.2966208084,2.296588,0,0,0,0,0,82.8, 0.5, 0,0,0,1024,1024,1336,1024,0,0,47,0,82,0,0,57,3.837,3.826,0,0,0,0,4.488,83.12,2.2966208084,2.296588,38,Tripod,
19400,2022-10-20 23:18:38,0,0,2.296588,,,2.2966208084,3.608924,0,0,0,0,0,7.664,2.2966208084,2.296588,0,0,0,0,0,82.7, 0.4, 0.4,0,0,1024,1024,1071,1024,0,0,7,0,82,0,0,57,3.837,3.826,0,0,0,0,4.488,83.12,2.2966208084,2.296588,38,Tripod,
19500,2022-10-20 23:18:38,0,0,2.296588,,,2.2966208084,3.608924,0,0,0,0,0,7.664,2.2966208084,2.296588,0,0,0,0,-0.447388,82.8, 0.5, 0.4,0,0,1024,1024,1024,1024,0,0,0,0,82,0,0,57,3.837,3.826,0,0,0,0,4.488,83.12,2.2966208084,2.296588,38,Tripod,
19600,2022-10-20 23:18:38,0,0,2.296588,,,2.2966208084,3.608924,0,0,0,0,0,7.664,2.2966208084,2.296588,0,0,0,0,-0.223694,82.8, 0.7, 0.3,0,0,1024,1024,1180,1024,0,0,24,0,82,0,0,57,3.837,3.826,0,0,0,0,4.488,83.12,2.2966208084,2.296588,38,Tripod,
19700,2022-10-20 23:18:38,0,0,2.296588,,,2.2966208084,3.608924,0,0,0,0,0,7.664,2.2966208084,2.296588,0,0,0,0,-0.223694,82.8, 0.4, 0.1,0,0,1024,1024,1317,1024,0,0,44,0,82,0,0,57,3.837,3.826,0,0,0,0,4.488,83.12,2.2966208084,2.296588,38,Tripod,
19800,2022-10-20 23:18:38,0,0,2.296588,,,2.2966208084,3.608924,0,0,0,0,0,7.664,2.2966208084,2.296588,0,0,0,0,-0.223694,82.7, 0.2, 0.1,0,0,1024,1024,1097,1024,0,0,11,0,82,0,0,57,3.836,3.822,0,0,0,0,4.488,83.12,2.2966208084,2.296588,38,Tripod,
19900,2022-10-20 23:18:38,0,0,2.624672,,,2.6247048084,3.608924,0,0,0,0,0,7.664,2.6247048084,2.624672,0,0,0,0,-0.447388,82.7, 0, 0,0,0,1024,1024,1097,1024,0,0,11,0,82,0,0,57,3.836,3.822,0,0,0,0,4.488,83.12,2.6247048084,2.624672,38,Tripod,
20000,2022-10-20 23:18:38,0,0,2.624672,,,2.6247048084,3.937008,0,0,0,0,0,7.664,2.6247048084,2.624672,0,0,0,0,-0.447388,82.8, 0.5, 0.2,0,0,1024,1024,1024,1024,0,0,0,0,82,0,0,57,3.836,3.822,0,0,0,0,4.488,83.12,2.6247048084,2.624672,38,Tripod,
20100,2022-10-20 23:18:38,0,0,2.624672,,,2.6247048084,3.937008,0,0,0,0,0,7.664,2.6247048084,2.624672,0,0,0,0,-0.223694,82.8, 0.4, 0.2,0,0,1024,1024,1024,1024,0,0,0,0,82,0,0,57,3.836,3.822,0,0,0,0,4.488,83.12,2.6247048084,2.624672,38,Tripod,
20200,2022-10-20 23:18:39,0,0,2.624672,,,2.6247048084,3.937008,0,0,0,0,0,7.664,2.6247048084,2.624672,0,0,0,0,-0.223694,82.8, 0.4, 0.1,0,0,1024,1024,1024,1024,0,0,0,0,82,0,0,57,3.836,3.822,0,0,0,0,4.488,83.12,2.6247048084,2.624672,38,Tripod,
20300,2022-10-20 23:18:39,0,0,2.624672,,,2.6247048084,3.937008,0,0,0,0,0,7.664,2.6247048084,2.624672,0,0,0,0,0,82.8, 0.3, 0.1,0,0,1024,1024,1024,1024,0,0,0,0,82,0,0,57,3.836,3.822,0,0,0,0,4.488,83.12,2.6247048084,2.624672,38,Tripod,
20400,2022-10-20 23:18:39,0,0,2.624672,,,2.6247048084,3.937008,0,0,0,0,0,7.664,2.6247048084,2.624672,0,0,0,0,0,82.8, 0.6, 0.3,0,0,1024,1024,1024,1024,0,0,0,0,82,0,0,57,3.836,3.822,0,0,0,0,4.488,83.12,2.6247048084,2.624672,38,Tripod,
20500,2022-10-20 23:18:39,0,0,2.624672,,,2.6247048084,3.937008,0,0,0,0,0,7.664,2.6247048084,2.624672,0,0,0,0,0,82.7, 0.4, 0.1,0,0,1024,1024,1024,1024,0,0,0,0,82,0,0,57,3.836,3.822,0,0,0,0,4.488,83.12,2.6247048084,2.624672,38,Tripod,
20600,2022-10-20 23:18:39,0,0,2.624672,,,2.6247048084,3.937008,0,0,0,0,0,7.664,2.6247048084,2.624672,0,0,0,0,0,82.7, 0.3, 0,0,0,1339,1024,1024,1024,48,0,0,0,82,0,0,57,3.836,3.822,0,0,0,0,4.488,83.12,2.6247048084,2.624672,38,Tripod,
20700,2022-10-20 23:18:39,0,0,2.624672,,,2.6247048084,3.937008,0,0,0,0,0,7.664,2.6247048084,2.624672,0,0,0,0,0,82.7, 0.2, 0.1,0,0,1384,1024,1024,1024,55,0,0,0,82,0,0,57,3.836,3.822,0,0,0,0,4.488,83.12,2.6247048084,2.624672,38,Tripod,
20800,2022-10-20 23:18:39,0,0,2.624672,,,2.6247048084,3.937008,0,0,0,0,0,7.659,2.6247048084,2.624672,0,0,0,0,0,82.7, -1.8, 0.4,0,0,1033,1024,1024,1024,1,0,0,0,82,0,0,57,3.836,3.823,0,0,0,0,4.497,83.12,2.6247048084,2.624672,38,Tripod,
20900,2022-10-20 23:18:39,0,0,2.624672,,,2.6247048084,3.937008,0,0,0,0,0,7.659,2.6247048084,2.624672,0,0,0,0,0,82.7, -3.4, 0.3,0,0,1024,1024,1024,1024,0,0,0,0,82,0,0,57,3.836,3.823,0,0,0,0,4.497,83.12,2.6247048084,2.624672,38,Tripod,
21000,2022-10-20 23:18:39,0,0,2.624672,,,2.6247048084,3.937008,0.223694,0,0,0,0,7.659,2.6247048084,2.624672,0,0,0,0.223694,0,82.7, -0.9, 0.3,0,0,1024,1024,1024,1024,0,0,0,0,82,0,0,57,3.836,3.823,0,0,0,0,4.497,83.12,2.6247048084,2.624672,38,Tripod,
21100,2022-10-20 23:18:39,0,0,2.624672,,,2.6247048084,3.937008,0.223694,0,0,0,0,7.659,2.6247048084,2.624672,0,0,0,0.223694,0,82.7, 1.1, 0.3,0,0,1191,1024,1024,1024,25,0,0,0,82,0,0,57,3.836,3.823,0,0,0,0,4.497,83.12,2.6247048084,2.624672,38,Tripod,
21200,2022-10-20 23:18:40,0,0,2.624672,,,2.6247048084,3.937008,0,0,0,0,0,7.659,2.6247048084,2.624672,0,0,0,0,0,82.7, 0.9, 0.3,0,0,1261,1024,1024,1024,36,0,0,0,82,0,0,57,3.836,3.823,0,0,0,0,4.497,83.12,2.6247048084,2.624672,38,Tripod,
21300,2022-10-20 23:18:40,0,0,2.624672,,,2.6247048084,3.937008,0,0,0,0,0,7.659,2.6247048084,2.624672,0,0,0,0,0,82.8, -0.3, 0.4,0,0,1306,1024,1024,1024,43,0,0,0,82,0,0,57,3.836,3.823,0,0,0,0,4.497,83.12,2.6247048084,2.624672,38,Tripod,
21400,2022-10-20 23:18:40,0,0,2.624672,,,2.6247048084,3.937008,0.223694,0,0,0,0,7.659,2.6247048084,2.624672,0,0,0,0.223694,0,82.8, -1.5, 0.2,0,0,1307,1024,1024,1024,43,0,0,0,82,0,0,57,3.836,3.823,0,0,0,0,4.497,83.12,2.6247048084,2.624672,38,Tripod,
21500,2022-10-20 23:18:40,0,0,2.624672,,,2.6247048084,3.937008,0.223694,0,0,0,0,7.659,2.6247048084,2.624672,0,0,0,0.223694,0,82.7, -2.2, 0.2,0,0,1287,1024,1024,1024,40,0,0,0,82,0,0,57,3.836,3.823,0,0,0,0,4.497,83.12,2.6247048084,2.624672,38,Tripod,
21600,2022-10-20 23:18:40,0,0,2.624672,,,2.6247048084,3.937008,0.223694,0,0,0,0,7.659,2.6247048084,2.624672,0,0,0,0.223694,0,82.7, -2.2, 0.1,0,0,1140,1024,1024,1024,18,0,0,0,82,0,0,57,3.836,3.823,0,0,0,0,4.497,83.12,2.6247048084,2.624672,38,Tripod,
21700,2022-10-20 23:18:40,0,0,2.624672,,,2.6247048084,3.937008,0.447388,0,0,0,0,7.659,2.6247048084,2.624672,0,0,0,0.447388,0,82.7, -1.8, 0.1,0,0,1024,1024,1024,1024,0,0,0,0,82,0,0,57,3.836,3.823,0,0,0,0,4.497,83.12,2.6247048084,2.624672,38,Tripod,
21800,2022-10-20 23:18:40,0,0,2.624672,,,2.6247048084,3.937008,0.447388,0,0,0,0,7.649,2.6247048084,2.624672,0,0,0,0.447388,0,82.8, -0.3, 0.7,0,0,1024,1024,1024,1024,0,0,0,0,82,0,0,57,3.833,3.821,0,0,0,0,4.609,83.12,2.6247048084,2.624672,38,Tripod,
21900,2022-10-20 23:18:40,0,0,2.624672,,,2.6247048084,3.937008,0.447388,0,0,0,0,7.649,2.6247048084,2.624672,0,0,0,0.447388,0,82.8, 1.7, 0.6,0,0,1023,1024,1024,1024,-0,0,0,0,82,0,0,57,3.833,3.821,0,0,0,0,4.609,83.12,2.6247048084,2.624672,38,Tripod,
22000,2022-10-20 23:18:40,0,0,2.952756,,,2.9527888084,3.937008,0.447388,0,0,0,0,7.649,2.9527888084,2.952756,0,0,0,0.447388,0,82.7, 2.8, 0.4,0,0,801,1024,1024,1024,-34,0,0,0,82,0,0,57,3.833,3.821,0,0,0,0,4.609,83.12,2.9527888084,2.952756,38,Tripod,
22100,2022-10-20 23:18:41,0,0,2.952756,,,2.9527888084,3.937008,0.223694,0,0,0,0,7.649,2.9527888084,2.952756,0,0,0,0.223694,0,82.7, 2.4, 0,0,0,642,1024,1024,1024,-58,0,0,0,82,0,0,57,3.833,3.821,0,0,0,0,4.609,83.12,2.9527888084,2.952756,38,Tripod,
22200,2022-10-20 23:18:41,0,0,2.624672,,,2.6247048084,3.937008,0.223694,0,0,0,0,7.649,2.9527888084,2.952756,0,0,0,0.223694,0,82.7, 3.5, 0,0,0,567,1024,1024,1024,-69,0,0,0,82,0,0,57,3.833,3.821,0,0,0,0,4.609,83.12,2.6247048084,2.624672,38,Tripod,
22300,2022-10-20 23:18:41,0,0,2.624672,,,2.6247048084,3.937008,0,0,0,0,0,7.649,2.9527888084,2.952756,0,0,0,0,0,82.7, 4.8, -0.2,0,0,548,1024,1024,1024,-72,0,0,0,82,0,0,57,3.833,3.821,0,0,0,0,4.609,83.12,2.6247048084,2.624672,38,Tripod,
22400,2022-10-20 23:18:41,0,0,2.624672,,,2.6247048084,3.937008,0,0,0,0,0,7.649,2.9527888084,2.952756,0,0,0,0,0,82.9, 5.8, -0.3,0,0,664,1024,1024,1024,-55,0,0,0,82,0,0,57,3.833,3.821,0,0,0,0,4.609,83.12,2.6247048084,2.624672,38,Tripod,
22500,2022-10-20 23:18:41,0,0,2.624672,,,2.6247048084,3.937008,0.223694,0,0,0,0,7.649,2.9527888084,2.952756,0,0,0,-0.223694,0,82.9, 6, -0.3,0,0,827,1024,1024,1024,-30,0,0,0,82,0,0,57,3.833,3.821,0,0,0,0,4.609,83.12,2.6247048084,2.624672,38,Tripod,
22600,2022-10-20 23:18:41,0,0,2.624672,,,2.6247048084,3.937008,0.223694,0,0,0,0,7.649,2.9527888084,2.952756,0,0,0,-0.223694,0,82.9, 4.8, 0,0,0,894,1024,1024,1024,-20,0,0,0,82,0,0,57,3.833,3.821,0,0,0,0,4.609,83.12,2.6247048084,2.624672,38,Tripod,
22700,2022-10-20 23:18:41,0,0,2.624672,,,2.6247048084,3.937008,0.447388,0,0,0,0,7.649,2.9527888084,2.952756,0,0,0,-0.447388,0,82.9, 2.3, 0.1,0,0,894,1024,1024,1024,-20,0,0,0,82,0,0,57,3.833,3.821,0,0,0,0,4.609,83.12,2.6247048084,2.624672,38,Tripod,
22800,2022-10-20 23:18:41,0,0,2.624672,,,2.6247048084,3.937008,0.447388,0,0,0,0,7.655,2.9527888084,2.952756,0,0,0,-0.447388,0,83, 1.3, 0.2,0,0,1004,1024,1024,1024,-3,0,0,0,82,0,0,57,3.831,3.818,0,0,0,0,4.452,83.3,2.6247048084,2.624672,38,Tripod,
22900,2022-10-20 23:18:41,0,0,2.624672,,,2.6247048084,3.937008,0.447388,0,0,0,0,7.655,2.9527888084,2.952756,0,0,0,-0.447388,0,82.9, 0.7, 0.4,0,0,1024,1024,1024,1024,0,0,0,0,82,0,0,57,3.831,3.818,0,0,0,0,4.452,83.3,2.6247048084,2.624672,38,Tripod,
23000,2022-10-20 23:18:41,0,0,2.624672,,,2.6247048084,3.937008,0.447388,0,0,0,0,7.655,2.9527888084,2.952756,0,0,0,-0.447388,0,82.9, -1.5, 0.3,0,0,1024,1024,1024,1024,0,0,0,0,82,0,0,57,3.831,3.818,0,0,0,0,4.452,83.3,2.6247048084,2.624672,38,Tripod,
23100,2022-10-20 23:18:42,0,0,2.624672,,,2.6247048084,3.937008,0.447388,0,0,0,0,7.655,2.9527888084,2.952756,0,0,0,-0.447388,0,82.8, -2.1, 0.1,0,0,1024,1024,1024,1024,0,0,0,0,82,0,0,57,3.831,3.818,0,0,0,0,4.452,83.3,2.6247048084,2.624672,38,Tripod,
23200,2022-10-20 23:18:42,0,0,2.624672,,,2.6247048084,3.937008,0.223694,0,0,0,0,7.655,2.9527888084,2.952756,0,0,0,-0.223694,0,82.8, -1.8, 0.1,0,0,1024,1024,1024,1024,0,0,0,0,82,0,0,57,3.831,3.818,0,0,0,0,4.452,83.3,2.6247048084,2.624672,38,Tripod,
23300,2022-10-20 23:18:42,0,0,2.624672,,,2.6247048084,3.937008,0.223694,0,0,0,0,7.655,2.9527888084,2.952756,0,0,0,-0.223694,0,82.8, -1.5, 0.1,0,0,1024,1024,1024,1024,0,0,0,0,82,0,0,57,3.831,3.818,0,0,0,0,4.452,83.3,2.6247048084,2.624672,38,Tripod,
23400,2022-10-20 23:18:42,0,0,2.624672,,,2.6247048084,3.937008,0,0,0,0,0,7.655,2.9527888084,2.952756,0,0,0,0,0,82.8, -1.1, 0.2,0,0,1024,1024,1013,727,0,0,-2,-45,82,0,0,57,3.831,3.818,0,0,0,0,4.452,83.3,2.6247048084,2.624672,38,Tripod,
23500,2022-10-20 23:18:42,0,0,2.624672,,,2.6247048084,3.937008,0,0,0,0,0,7.655,2.9527888084,2.952756,0,0,0,0,0,82.8, -1.5, 0,0,0,1024,1024,1024,545,0,0,0,-73,82,0,0,57,3.831,3.818,0,0,0,0,4.452,83.3,2.6247048084,2.624672,38,Tripod,
23600,2022-10-20 23:18:42,0,0,2.624672,,,2.6247048084,3.937008,0,0,0,0,0,7.655,2.9527888084,2.952756,0,0,0,0,0,82.7, -0.7, 0.1,0,0,1024,1024,1024,481,0,0,0,-82,81.7,0,0,57,3.831,3.818,0,0,0,0,4.452,83.3,2.6247048084,2.624672,38,Tripod,
23700,2022-10-20 23:18:42,0,0,2.624672,,,2.6247048084,3.937008,0,0,0,0,0,7.655,2.9527888084,2.952756,0,0,0,0,0,82.3, -0.3, 0.1,0,0,1024,1024,1024,481,0,0,0,-82,81,0,0,57,3.831,3.818,0,0,0,0,4.452,83.3,2.6247048084,2.624672,38,Tripod,
23800,2022-10-20 23:18:42,0,0,2.624672,,,2.6247048084,3.937008,0,0,0,0,0,7.652,2.9527888084,2.952756,0,0,0,0,0,81.3, 0, 0.3,0,0,1024,1024,1024,440,0,0,0,-88,79.8,0,0,57,3.829,3.817,0,0,0,0,4.472,83.3,2.6247048084,2.624672,38,Tripod,
23900,2022-10-20 23:18:42,0,0,2.624672,,,2.6247048084,3.937008,0,0,0,0,0,7.652,2.9527888084,2.952756,0,0,0,0,0,79.9, 0.2, 0.5,0,0,1024,1024,1024,383,0,0,0,-97,78.2,0,0,57,3.829,3.817,0,0,0,0,4.472,83.3,2.6247048084,2.624672,38,Tripod,
24000,2022-10-20 23:18:42,0,0,2.624672,,,2.6247048084,3.937008,0,0,0,0,0,7.652,2.9527888084,2.952756,0,0,0,0,0,78.4, 0.3, 0.5,0,0,1024,1024,1024,364,0,0,0,-100,76.3,0,0,57,3.829,3.817,0,0,0,0,4.472,83.3,2.6247048084,2.624672,38,Tripod,
24100,2022-10-20 23:18:42,0,0,2.624672,,,2.6247048084,3.937008,0,0,0,0,0,7.652,2.9527888084,2.952756,0,0,0,0,0,76.5, 0.5, 0.5,0,0,1024,1024,1024,364,0,0,0,-100,74.2,0,0,57,3.829,3.817,0,0,0,0,4.472,83.3,2.6247048084,2.624672,38,Tripod,
24200,2022-10-20 23:18:43,0,0,2.624672,,,2.6247048084,3.937008,0,0,0,0,0,7.652,2.9527888084,2.952756,0,0,0,0,0,74.3, 0.5, 0.3,0,0,1024,1024,1024,364,0,0,0,-100,71.9,0,0,57,3.829,3.817,0,0,0,0,4.472,83.3,2.6247048084,2.624672,38,Tripod,
24300,2022-10-20 23:18:43,0,0,2.624672,,,2.6247048084,3.937008,0,0,0,0,0,7.652,2.9527888084,2.952756,0,0,0,0,0,72, 0.4, 0.1,0,0,1024,1024,1024,364,0,0,0,-100,69.6,0,0,57,3.829,3.817,0,0,0,0,4.472,83.3,2.6247048084,2.624672,38,Tripod,
24400,2022-10-20 23:18:43,0,0,2.624672,,,2.6247048084,3.937008,0,0,0,0,0,7.652,2.9527888084,2.952756,0,0,0,0,0,69.7, 0.4, 0.1,0,0,1024,1024,1024,364,0,0,0,-100,67.2,0,0,57,3.829,3.817,0,0,0,0,4.472,83.3,2.6247048084,2.624672,38,Tripod,
24500,2022-10-20 23:18:43,0,0,2.624672,,,2.6247048084,3.937008,0,0,0,0,0,7.652,2.9527888084,2.952756,0,0,0,0,0,67.3, 0.4, 0,0,0,1024,1024,1024,364,0,0,0,-100,64.8,0,0,57,3.829,3.817,0,0,0,0,4.472,83.3,2.6247048084,2.624672,38,Tripod,
24600,2022-10-20 23:18:43,0,0,2.624672,,,2.6247048084,3.937008,0,0,0,0,0,7.652,2.9527888084,2.952756,0,0,0,0,0,64.9, 0.3, 0,0,0,1024,1024,1024,364,0,0,0,-100,62.4,0,0,57,3.829,3.817,0,0,0,0,4.472,83.3,2.6247048084,2.624672,38,Tripod,
24700,2022-10-20 23:18:43,0,0,2.624672,,,2.6247048084,3.937008,0,0,0,0,0,7.652,2.9527888084,2.952756,0,0,0,0,0,62.4, 0.5, 0,0,0,1024,1024,1024,364,0,0,0,-100,60,0,0,57,3.829,3.817,0,0,0,0,4.472,83.3,2.6247048084,2.624672,38,Tripod,
