time(millisecond),datetime(utc),latitude,longitude,height_above_takeoff(feet),height_above_ground_at_drone_location(feet),ground_elevation_at_drone_location(feet),altitude_above_seaLevel(feet),height_sonar(feet),speed(mph),distance(feet),mileage(feet),satellites,gpslevel,voltage(v),max_altitude(feet),max_ascent(feet),max_speed(mph),max_distance(feet), xSpeed(mph), ySpeed(mph), zSpeed(mph), compass_heading(degrees), pitch(degrees), roll(degrees),isPhoto,isVideo,rc_elevator,rc_aileron,rc_throttle,rc_rudder,rc_elevator(percent),rc_aileron(percent),rc_throttle(percent),rc_rudder(percent),gimbal_heading(degrees),gimbal_pitch(degrees),gimbal_roll(degrees),battery_percent,voltageCell1,voltageCell2,voltageCell3,voltageCell4,voltageCell5,voltageCell6,current(A),battery_temperature(f),altitude(feet),ascent(feet),flycStateRaw,flycState,message
0,2022-08-16 02:00:45,0,0,0,,,3.28084E-5,0.328084,0,0,0,0,0,0,3.28084E-5,0,0,0,0,0,0,32.1, 3.7, 0,0,0,364,364,364,1684,-100,-100,-100,100,32.1,0,0,65,4.008,4,0,0,0,0,0,101.84,3.28084E-5,0,41,Motors_Started,"Vuela con cuidado (sin GPS) Sin señal GPS. La aeronave no puede hacer vuelo estacionario. Vuela con cuidado (Code: 30008). Señal débil del GPS. Vuelo estacionario inestable. Vuela con cuidado (Code: 30002)"
100,2022-08-16 02:00:45,0,0,0,,,3.28084E-5,0.328084,0,0,0,0,0,0,3.28084E-5,0,0,0,0,0,0,32.1, 3.7, 0,0,0,364,364,364,1684,-100,-100,-100,100,32.1,0,0,65,4.008,4,0,0,0,0,0,101.84,3.28084E-5,0,41,Motors_Started,
200,2022-08-16 02:00:45,0,0,0,,,3.28084E-5,0.328084,0,0,0,0,0,0,3.28084E-5,0,0,0,0,0,0,32.1, 3.7, 0,0,0,364,364,364,1684,-100,-100,-100,100,32.1,0,0,65,4.008,4,0,0,0,0,0,101.84,3.28084E-5,0,41,Motors_Started,
300,2022-08-16 02:00:45,0,0,0,,,3.28084E-5,0.328084,0,0,0,0,0,0,3.28084E-5,0,0,0,0,0,0,32.1, 3.7, 0.1,0,0,1024,1024,1024,1024,0,0,0,0,32.1,0,0,65,4.008,4,0,0,0,0,0,101.84,3.28084E-5,0,41,Motors_Started,
400,2022-08-16 02:00:45,0,0,0,,,3.28084E-5,0.328084,0,0,0,0,0,0,3.28084E-5,0,0,0,0,0,0,32, 3.7, 0,0,0,1024,1024,1024,1024,0,0,0,0,32.1,0,0,65,4.008,4,0,0,0,0,0,101.84,3.28084E-5,0,41,Motors_Started,
500,2022-08-16 02:00:45,0,0,0,,,3.28084E-5,0.328084,0,0,0,0,0,0,3.28084E-5,0,0,0,0,0,0,31.9, 3.7, 0,0,0,1024,1024,1024,1024,0,0,0,0,32,0,0,65,4.008,4,0,0,0,0,0,101.84,3.28084E-5,0,41,Motors_Started,
600,2022-08-16 02:00:45,0,0,0,,,3.28084E-5,0.328084,0,0,0,0,0,0,3.28084E-5,0,0,0,0,0,0,31.9, 3.7, 0,0,0,1024,1024,1024,1024,0,0,0,0,32,0,0,65,4.008,4,0,0,0,0,0,101.84,3.28084E-5,0,41,Motors_Started,
700,2022-08-16 02:00:45,0,0,0,,,3.28084E-5,0.328084,0,0,0,0,0,0,3.28084E-5,0,0,0,0,0,0,31.9, 3.7, 0,0,0,1024,1024,1024,1024,0,0,0,0,32,0,0,65,4.008,4,0,0,0,0,0,101.84,3.28084E-5,0,41,Motors_Started,"Setting new Return-To-Home altitude to 15m (49 ft). Data Recorder File Index is 77. Setting new Maximum Flight Altitude to 30m (98 ft)"
800,2022-08-16 02:00:46,0,0,0,,,3.28084E-5,0.328084,0,0,0,0,0,0,3.28084E-5,0,0,0,0,0,0,31.9, 3.7, 0,0,0,1024,1024,1024,1024,0,0,0,0,32,0,0,65,4.008,4,0,0,0,0,0,101.84,3.28084E-5,0,41,Motors_Started,
900,2022-08-16 02:00:46,0,0,0,,,3.28084E-5,0.328084,0,0,0,0,0,8.029,3.28084E-5,0,0,0,0,0,0,31.9, 3.7, 0,0,0,1024,1024,1024,1024,0,0,0,0,32,0,0,65,4.008,4,0,0,0,0,0.717,101.84,3.28084E-5,0,41,Motors_Started,
1000,2022-08-16 02:00:46,0,0,0,,,3.28084E-5,0.328084,0,0,0,0,0,8.029,3.28084E-5,0,0,0,0,0,0,31.9, 3.7, 0,0,0,1024,1024,1024,1024,0,0,0,0,31.9,0,0,65,4.008,4,0,0,0,0,0.717,101.84,3.28084E-5,0,41,Motors_Started,
1100,2022-08-16 02:00:46,0,0,0,,,3.28084E-5,0.328084,0,0,0,0,0,8.029,3.28084E-5,0,0,0,0,0,0,31.9, 3.7, 0.1,0,0,1024,1024,1024,1024,0,0,0,0,31.9,0,0,65,4.008,4,0,0,0,0,0.717,101.84,3.28084E-5,0,10,Assisted_Takeoff,
1200,2022-08-16 02:00:46,0,0,0,,,3.28084E-5,0.328084,0,0,0,0,0,8.029,3.28084E-5,0,0,0,0,0,0,31.9, 3.7, 0.1,0,0,1024,1024,1024,1024,0,0,0,0,31.9,0,0,65,4.008,4,0,0,0,0,0.717,101.84,3.28084E-5,0,10,Assisted_Takeoff,
1300,2022-08-16 02:00:46,0,0,0,,,3.28084E-5,0.328084,0,0,0,0,0,8.029,3.28084E-5,0,0,0,0,0,0,31.8, 3.8, 0,0,0,1024,1024,1024,1024,0,0,0,0,31.9,0,0,65,4.008,4,0,0,0,0,0.717,101.84,3.28084E-5,0,10,Assisted_Takeoff,
1400,2022-08-16 02:00:46,0,0,0,,,3.28084E-5,0.328084,0,0,0,0,0,8.029,3.28084E-5,0,0,0,0,0,0,31.8, 3.7, 0,0,0,1024,1024,1024,1024,0,0,0,0,31.9,0,0,65,4.008,4,0,0,0,0,0.717,101.84,3.28084E-5,0,10,Assisted_Takeoff,
1500,2022-08-16 02:00:46,0,0,0,,,3.28084E-5,0.328084,0,0,0,0,0,8.029,3.28084E-5,0,0,0,0,0,0,31.8, 3.7, 0,0,0,1024,1024,1024,1024,0,0,0,0,31.9,0,0,65,4.008,4,0,0,0,0,0.717,101.84,3.28084E-5,0,10,Assisted_Takeoff,
1600,2022-08-16 02:00:46,0,0,0,,,3.28084E-5,0.328084,0,0,0,0,0,8.029,3.28084E-5,0,0,0,0,0,0,31.8, 3.7, 0,0,0,1024,1024,1024,1024,0,0,0,0,31.9,0,0,65,4.008,4,0,0,0,0,0.717,101.84,3.28084E-5,0,10,Assisted_Takeoff,
1700,2022-08-16 02:00:46,0,0,0,,,3.28084E-5,0.328084,0,0,0,0,0,8.029,3.28084E-5,0,0,0,0,0,0,31.8, 3.7, 0,0,0,1024,1024,1024,1024,0,0,0,0,31.9,0,0,65,4.008,4,0,0,0,0,0.717,101.84,3.28084E-5,0,10,Assisted_Takeoff,
1800,2022-08-16 02:00:47,0,0,0,,,3.28084E-5,0.328084,0,0,0,0,0,8.029,3.28084E-5,0,0,0,0,0,0,31.8, 3.7, 0,0,0,1024,1024,1024,1024,0,0,0,0,31.9,0,0,65,4.008,4,0,0,0,0,0.717,101.84,3.28084E-5,0,10,Assisted_Takeoff,
1900,2022-08-16 02:00:47,0,0,0,,,3.28084E-5,0.328084,0,0,0,0,0,8.001,3.28084E-5,0,0,0,0,0,0,31.7, 3.8, 0,0,0,1024,1024,1024,1024,0,0,0,0,31.8,0,0,65,4.01,4.003,0,0,0,0,1.515,101.84,3.28084E-5,0,10,Assisted_Takeoff,
2000,2022-08-16 02:00:47,0,0,0,,,3.28084E-5,0.328084,0,0,0,0,0,8.001,3.28084E-5,0,0,0,0,0,0,31.8, 3.7, 0,0,0,1024,1024,1024,1024,0,0,0,0,31.8,0,0,65,4.01,4.003,0,0,0,0,1.515,101.84,3.28084E-5,0,10,Assisted_Takeoff,
2100,2022-08-16 02:00:47,0,0,0,,,3.28084E-5,0.328084,0,0,0,0,0,8.001,3.28084E-5,0,0,0,0,0,0,31.7, 3.8, 0,0,0,1024,1024,1024,1024,0,0,0,0,31.8,0,0,65,4.01,4.003,0,0,0,0,1.515,101.84,3.28084E-5,0,10,Assisted_Takeoff,
2200,2022-08-16 02:00:47,0,0,0,,,3.28084E-5,0.328084,0,0,0,0,0,8.001,3.28084E-5,0,0,0,0,0,0,31.7, 3.7, 0,0,0,1024,1024,1024,1024,0,0,0,0,31.8,0,0,65,4.01,4.003,0,0,0,0,1.515,101.84,3.28084E-5,0,10,Assisted_Takeoff,
2300,2022-08-16 02:00:47,0,0,0,,,3.28084E-5,0.328084,0,0,0,0,0,8.001,3.28084E-5,0,0,0,0,0,0,31.8, 3.7, 0,0,0,1024,1024,1024,1024,0,0,0,0,31.8,0,0,65,4.01,4.003,0,0,0,0,1.515,101.84,3.28084E-5,0,10,Assisted_Takeoff,
2400,2022-08-16 02:00:47,0,0,0,,,3.28084E-5,0.328084,0,0,0,0,0,8.001,3.28084E-5,0,0,0,0,0,0,31.7, 3.7, 0,0,0,1024,1024,1024,1024,0,0,0,0,31.8,0,0,65,4.01,4.003,0,0,0,0,1.515,101.84,3.28084E-5,0,10,Assisted_Takeoff,
2500,2022-08-16 02:00:47,0,0,0,,,3.28084E-5,0.328084,0,0,0,0,0,8.001,3.28084E-5,0,0,0,0,0,0,31.7, 3.7, 0,0,0,1024,1024,1024,1024,0,0,0,0,31.8,0,0,65,4.01,4.003,0,0,0,0,1.515,101.84,3.28084E-5,0,10,Assisted_Takeoff,
2600,2022-08-16 02:00:47,0,0,0,,,3.28084E-5,0.328084,0,0,0,0,0,8.001,3.28084E-5,0,0,0,0,0,0,31.7, 3.7, 0,0,0,1024,1024,1024,1024,0,0,0,0,31.8,0,0,65,4.01,4.003,0,0,0,0,1.515,101.84,3.28084E-5,0,10,Assisted_Takeoff,
2700,2022-08-16 02:00:47,0,0,0,,,3.28084E-5,0.328084,0,0,0,0,0,8.001,3.28084E-5,0,0,0,0,0,0,31.7, 3.7, 0,0,0,1024,1024,1024,1024,0,0,0,0,31.8,0,0,65,4.01,4.003,0,0,0,0,1.515,101.84,3.28084E-5,0,10,Assisted_Takeoff,
2800,2022-08-16 02:00:48,0,0,0,,,3.28084E-5,0.328084,0,0,0,0,0,8.001,3.28084E-5,0,0,0,0,0,0,31.7, 3.7, 0,0,0,1024,1024,1024,1024,0,0,0,0,31.8,0,0,65,4.01,4.003,0,0,0,0,1.515,101.84,3.28084E-5,0,10,Assisted_Takeoff,
2900,2022-08-16 02:00:48,0,0,0,,,3.28084E-5,0.328084,0,0,0,0,0,8.014,3.28084E-5,0,0,0,0,0,0,31.7, 3.7, 0,0,0,1024,1024,1024,1024,0,0,0,0,31.8,0,0,65,4.011,4.003,0,0,0,0,1.093,101.84,3.28084E-5,0,10,Assisted_Takeoff,
3000,2022-08-16 02:00:48,0,0,0,,,3.28084E-5,0.328084,0,0,0,0,0,8.014,3.28084E-5,0,0,0,0,0,0,31.7, 3.7, 0,0,0,1024,1024,1024,1024,0,0,0,0,31.8,0,0,65,4.011,4.003,0,0,0,0,1.093,101.84,3.28084E-5,0,10,Assisted_Takeoff,
3100,2022-08-16 02:00:48,0,0,0,,,3.28084E-5,0.328084,0,0,0,0,0,8.014,3.28084E-5,0,0,0,0,0,0,31.7, 3.7, 0,0,0,1024,1024,1024,1024,0,0,0,0,31.8,0,0,65,4.011,4.003,0,0,0,0,1.093,101.84,3.28084E-5,0,10,Assisted_Takeoff,
3200,2022-08-16 02:00:48,0,0,0,,,3.28084E-5,0.328084,0,0,0,0,0,8.014,3.28084E-5,0,0,0,0,0,0,31.7, 3.8, 0,0,0,1024,1024,1024,1024,0,0,0,0,31.8,0,0,65,4.011,4.003,0,0,0,0,1.093,101.84,3.28084E-5,0,10,Assisted_Takeoff,
3300,2022-08-16 02:00:48,0,0,0,,,3.28084E-5,0.328084,0,0,0,0,0,8.014,3.28084E-5,0,0,0,0,0,0,31.7, 3.7, 0,0,0,1024,1024,1024,1024,0,0,0,0,31.8,0,0,65,4.011,4.003,0,0,0,0,1.093,101.84,3.28084E-5,0,10,Assisted_Takeoff,
3400,2022-08-16 02:00:48,0,0,0,,,3.28084E-5,0.328084,0,0,0,0,0,8.014,3.28084E-5,0,0,0,0,0,0,31.7, 3.7, 0,0,0,1024,1024,1024,1024,0,0,0,0,31.8,0,0,65,4.011,4.003,0,0,0,0,1.093,101.84,3.28084E-5,0,10,Assisted_Takeoff,
3500,2022-08-16 02:00:48,0,0,0,,,3.28084E-5,0.328084,0,0,0,0,0,8.014,3.28084E-5,0,0,0,0,0,0,31.7, 3.7, 0,0,0,1024,1024,1024,1024,0,0,0,0,31.7,0,0,65,4.011,4.003,0,0,0,0,1.093,101.84,3.28084E-5,0,10,Assisted_Takeoff,
3600,2022-08-16 02:00:48,0,0,0,,,3.28084E-5,0.328084,0,0,0,0,0,8.014,3.28084E-5,0,0,0,0,0,0,31.7, 3.7, 0,0,0,1024,1024,1024,1024,0,0,0,0,31.7,0,0,65,4.011,4.003,0,0,0,0,1.093,101.84,3.28084E-5,0,10,Assisted_Takeoff,
3700,2022-08-16 02:00:48,0,0,0,,,3.28084E-5,0.328084,0,0,0,0,0,8.014,3.28084E-5,0,0,0,0,0,0,31.7, 3.7, 0,0,0,1024,1024,1024,1024,0,0,0,0,31.7,0,0,65,4.011,4.003,0,0,0,0,1.093,101.84,3.28084E-5,0,10,Assisted_Takeoff,
3800,2022-08-16 02:00:49,0,0,0,,,3.28084E-5,0.328084,0,0,0,0,0,8.014,3.28084E-5,0,0,0,0,0,0,31.7, 3.7, 0,0,0,1024,1024,1024,1024,0,0,0,0,31.7,0,0,65,4.011,4.003,0,0,0,0,1.093,101.84,3.28084E-5,0,10,Assisted_Takeoff,
3900,2022-08-16 02:00:49,0,0,0,,,3.28084E-5,0.328084,0,0,0,0,0,8.013,3.28084E-5,0,0,0,0,0,0,31.7, 3.7, 0,0,0,1024,1024,1024,1024,0,0,0,0,31.7,0,0,65,4.01,4.003,0,0,0,0,1.091,101.84,3.28084E-5,0,10,Assisted_Takeoff,
4000,2022-08-16 02:00:49,0,0,0,,,3.28084E-5,0.328084,0,0,0,0,0,8.013,3.28084E-5,0,0,0,0,0,0,31.7, 3.7, 0,0,0,1024,1024,1024,1024,0,0,0,0,31.7,0,0,65,4.01,4.003,0,0,0,0,1.091,101.84,3.28084E-5,0,10,Assisted_Takeoff,
4100,2022-08-16 02:00:49,0,0,0,,,3.28084E-5,0.328084,0,0,0,0,0,8.013,3.28084E-5,0,0,0,0,0,0,31.7, 3.7, 0,0,0,1024,1024,1024,1024,0,0,0,0,31.7,0,0,65,4.01,4.003,0,0,0,0,1.091,101.84,3.28084E-5,0,10,Assisted_Takeoff,
4200,2022-08-16 02:00:49,0,0,0,,,3.28084E-5,0.328084,0,0,0,0,0,8.013,3.28084E-5,0,0,0,0,0,0,31.7, 3.7, 0,0,0,1024,1024,1024,1024,0,0,0,0,31.7,0,0,65,4.01,4.003,0,0,0,0,1.091,101.84,3.28084E-5,0,10,Assisted_Takeoff,
4300,2022-08-16 02:00:49,0,0,0,,,3.28084E-5,0.328084,0,0,0,0,0,8.013,3.28084E-5,0,0,0,0,0,0,31.7, 3.8, 0,0,0,1024,1024,1024,1024,0,0,0,0,31.7,0,0,65,4.01,4.003,0,0,0,0,1.091,101.84,3.28084E-5,0,10,Assisted_Takeoff,
4400,2022-08-16 02:00:49,0,0,0,,,3.28084E-5,0.328084,0,0,0,0,0,8.013,3.28084E-5,0,0,0,0,0,0,31.7, 3.7, 0,0,0,1024,1024,1024,1024,0,0,0,0,31.7,0,0,65,4.01,4.003,0,0,0,0,1.091,101.84,3.28084E-5,0,10,Assisted_Takeoff,
4500,2022-08-16 02:00:49,0,0,0,,,3.28084E-5,0.328084,0,0,0,0,0,8.013,3.28084E-5,0,0,0,0,0,0,31.7, 3.8, 0,0,0,1024,1024,1024,1024,0,0,0,0,31.7,0,0,65,4.01,4.003,0,0,0,0,1.091,101.84,3.28084E-5,0,10,Assisted_Takeoff,
4600,2022-08-16 02:00:49,0,0,0,,,3.28084E-5,0.328084,0,0,0,0,0,8.013,3.28084E-5,0,0,0,0,0,0,31.7, 3.7, 0,0,0,1024,1024,1024,1024,0,0,0,0,31.7,0,0,65,4.01,4.003,0,0,0,0,1.091,101.84,3.28084E-5,0,10,Assisted_Takeoff,
4700,2022-08-16 02:00:49,0,0,0,,,3.28084E-5,0.328084,0,0,0,0,0,8.013,3.28084E-5,0,0,0,0,0,0,31.7, 3.7, 0,0,0,1024,1024,1024,1024,0,0,0,0,31.7,0,0,65,4.01,4.003,0,0,0,0,1.091,101.84,3.28084E-5,0,10,Assisted_Takeoff,
4800,2022-08-16 02:00:50,0,0,0,,,3.28084E-5,0.328084,0,0,0,0,0,8.013,3.28084E-5,0,0,0,0,0,0,31.7, 3.7, 0,0,0,1024,1024,1024,1024,0,0,0,0,31.7,0,0,65,4.01,4.003,0,0,0,0,1.091,101.84,3.28084E-5,0,10,Assisted_Takeoff,
4900,2022-08-16 02:00:50,0,0,0,,,3.28084E-5,0.328084,0,0,0,0,0,8.013,3.28084E-5,0,0,0,0,0,0,31.6, 3.7, 0,0,0,1024,1024,1024,1024,0,0,0,0,31.7,0,0,65,4.01,4.003,0,0,0,0,1.091,101.84,3.28084E-5,0,10,Assisted_Takeoff,
5000,2022-08-16 02:00:50,0,0,0,,,3.28084E-5,0.328084,0,0,0,0,0,8.012,3.28084E-5,0,0,0,0,0,0,31.7, 3.7, 0,0,0,1024,1024,1024,1024,0,0,0,0,31.7,0,0,65,4.009,4.004,0,0,0,0,1.084,101.84,3.28084E-5,0,10,Assisted_Takeoff,
5100,2022-08-16 02:00:50,0,0,0,,,3.28084E-5,0.328084,0,0,0,0,0,8.012,3.28084E-5,0,0,0,0,0,0,31.7, 3.8, 0,0,0,1024,1024,1024,1024,0,0,0,0,31.7,0,0,65,4.009,4.004,0,0,0,0,1.084,101.84,3.28084E-5,0,10,Assisted_Takeoff,
5200,2022-08-16 02:00:50,0,0,0,,,3.28084E-5,0.328084,0,0,0,0,0,8.012,3.28084E-5,0,0,0,0,0,0,31.6, 3.7, 0,0,0,1024,1024,1024,1024,0,0,0,0,31.7,0,0,65,4.009,4.004,0,0,0,0,1.084,101.84,3.28084E-5,0,10,Assisted_Takeoff,
5300,2022-08-16 02:00:50,0,0,0,,,3.28084E-5,0.328084,0,0,0,0,0,8.012,3.28084E-5,0,0,0,0,0,0,31.7, 3.8, 0,0,0,1024,1024,1024,1024,0,0,0,0,31.7,0,0,65,4.009,4.004,0,0,0,0,1.084,101.84,3.28084E-5,0,10,Assisted_Takeoff,
5400,2022-08-16 02:00:50,0,0,0,,,3.28084E-5,0.328084,0,0,0,0,0,8.012,3.28084E-5,0,0,0,0,0,0,31.6, 3.8, 0,0,0,1024,1024,1024,1024,0,0,0,0,31.7,0,0,65,4.009,4.004,0,0,0,0,1.084,101.84,3.28084E-5,0,10,Assisted_Takeoff,
5500,2022-08-16 02:00:50,0,0,0,,,3.28084E-5,0.328084,0,0,0,0,0,8.012,3.28084E-5,0,0,0,0,0,0,31.7, 3.7, 0,0,0,1024,1024,1024,1024,0,0,0,0,31.7,0,0,65,4.009,4.004,0,0,0,0,1.084,101.84,3.28084E-5,0,10,Assisted_Takeoff,
5600,2022-08-16 02:00:50,0,0,0,,,3.28084E-5,0.328084,0,0,0,0,0,8.012,3.28084E-5,0,0,0,0,0,0,31.7, 3.8, 0,0,0,1024,1024,1024,1024,0,0,0,0,31.7,0,0,65,4.009,4.004,0,0,0,0,1.084,101.84,3.28084E-5,0,10,Assisted_Takeoff,
5700,2022-08-16 02:00:50,0,0,0,,,3.28084E-5,0.328084,0,0,0,0,0,8.012,3.28084E-5,0,0,0,0,0,0,31.6, 3.8, 0,0,0,1024,1024,1024,1024,0,0,0,0,31.7,0,0,65,4.009,4.004,0,0,0,0,1.084,101.84,3.28084E-5,0,10,Assisted_Takeoff,
5800,2022-08-16 02:00:51,0,0,0,,,3.28084E-5,0.328084,0,0,0,0,0,8.012,3.28084E-5,0,0,0,0,0,0,31.7, 3.7, 0,0,0,1024,1024,1024,1024,0,0,0,0,31.7,0,0,65,4.009,4.004,0,0,0,0,1.084,101.84,3.28084E-5,0,10,Assisted_Takeoff,
5900,2022-08-16 02:00:51,0,0,0,,,3.28084E-5,0.328084,0,0,0,0,0,8.012,3.28084E-5,0,0,0,0,0,0,31.7, 3.8, 0,0,0,1024,1024,1024,1024,0,0,0,0,31.7,0,0,65,4.009,4.004,0,0,0,0,1.084,101.84,3.28084E-5,0,10,Assisted_Takeoff,
6000,2022-08-16 02:00:51,0,0,0,,,3.28084E-5,0.328084,0,0,0,0,0,8.011,3.28084E-5,0,0,0,0,0,0,31.6, 3.8, 0,0,0,1024,1024,1024,1024,0,0,0,0,31.7,0,0,65,4.009,4.003,0,0,0,0,1.089,102.02,3.28084E-5,0,10,Assisted_Takeoff,
6100,2022-08-16 02:00:51,0,0,0,,,3.28084E-5,0.328084,0,0,0,0,0,8.011,3.28084E-5,0,0,0,0,0,0,31.7, 3.7, 0,0,0,1024,1024,1024,1024,0,0,0,0,31.7,0,0,65,4.009,4.003,0,0,0,0,1.089,102.02,3.28084E-5,0,10,Assisted_Takeoff,
6200,2022-08-16 02:00:51,0,0,0,,,3.28084E-5,0.328084,0,0,0,0,0,8.011,3.28084E-5,0,0,0,0,0,0,31.6, 3.8, 0,0,0,1024,1024,1024,1024,0,0,0,0,31.7,0,0,65,4.009,4.003,0,0,0,0,1.089,102.02,3.28084E-5,0,10,Assisted_Takeoff,
6300,2022-08-16 02:00:51,0,0,0,,,3.28084E-5,0.328084,0,0,0,0,0,8.011,3.28084E-5,0,0,0,0,0,0,31.6, 3.7, 0,0,0,1024,1024,1024,1024,0,0,0,0,31.7,0,0,65,4.009,4.003,0,0,0,0,1.089,102.02,3.28084E-5,0,10,Assisted_Takeoff,
6400,2022-08-16 02:00:51,0,0,0,,,3.28084E-5,0.328084,0,0,0,0,0,8.011,3.28084E-5,0,0,0,0,0,0,31.6, 3.8, 0,0,0,1024,1024,1024,1024,0,0,0,0,31.7,0,0,65,4.009,4.003,0,0,0,0,1.089,102.02,3.28084E-5,0,10,Assisted_Takeoff,
6500,2022-08-16 02:00:51,0,0,0,,,3.28084E-5,0.328084,0,0,0,0,0,8.011,3.28084E-5,0,0,0,0,0,0,31.6, 3.8, 0,0,0,1024,1024,1024,1024,0,0,0,0,31.7,0,0,65,4.009,4.003,0,0,0,0,1.089,102.02,3.28084E-5,0,10,Assisted_Takeoff,
6600,2022-08-16 02:00:51,0,0,0,,,3.28084E-5,0.328084,0,0,0,0,0,8.011,3.28084E-5,0,0,0,0,0,0,31.6, 3.8, 0,0,0,1024,1024,1024,1024,0,0,0,0,31.7,0,0,65,4.009,4.003,0,0,0,0,1.089,102.02,3.28084E-5,0,10,Assisted_Takeoff,
6700,2022-08-16 02:00:51,0,0,0,,,3.28084E-5,0.328084,0,0,0,0,0,8.011,3.28084E-5,0,0,0,0,0,0,31.7, 3.8, 0,0,0,1024,1024,1024,1024,0,0,0,0,31.7,0,0,65,4.009,4.003,0,0,0,0,1.089,102.02,3.28084E-5,0,10,Assisted_Takeoff,
6800,2022-08-16 02:00:52,0,0,0,,,3.28084E-5,0.328084,0,0,0,0,0,8.011,3.28084E-5,0,0,0,0,0,0,31.6, 3.8, 0,0,0,1024,1024,1024,1024,0,0,0,0,31.7,0,0,65,4.009,4.003,0,0,0,0,1.089,102.02,3.28084E-5,0,10,Assisted_Takeoff,
6900,2022-08-16 02:00:52,0,0,0,,,3.28084E-5,0.328084,0,0,0,0,0,8.011,3.28084E-5,0,0,0,0,0,0,31.7, 3.7, 0,0,0,1024,1024,1024,1024,0,0,0,0,31.7,0,0,65,4.009,4.003,0,0,0,0,1.089,102.02,3.28084E-5,0,10,Assisted_Takeoff,
7000,2022-08-16 02:00:52,0,0,0,,,3.28084E-5,0.328084,0,0,0,0,0,8.011,3.28084E-5,0,0,0,0,0,0,31.6, 3.8, 0,0,0,1024,1024,1024,1024,0,0,0,0,31.7,0,0,65,4.008,4.002,0,0,0,0,1.085,102.02,3.28084E-5,0,10,Assisted_Takeoff,
7100,2022-08-16 02:00:52,0,0,0,,,3.28084E-5,0.328084,0,0,0,0,0,8.011,3.28084E-5,0,0,0,0,0,0,31.6, 3.8, 0,0,0,1024,1024,1024,1024,0,0,0,0,31.7,0,0,65,4.008,4.002,0,0,0,0,1.085,102.02,3.28084E-5,0,10,Assisted_Takeoff,
7200,2022-08-16 02:00:52,0,0,0,,,3.28084E-5,0.328084,0,0,0,0,0,8.011,3.28084E-5,0,0,0,0,0,0,31.7, 3.8, 0,0,0,1024,1024,1024,1024,0,0,0,0,31.7,0,0,65,4.008,4.002,0,0,0,0,1.085,102.02,3.28084E-5,0,10,Assisted_Takeoff,
7300,2022-08-16 02:00:52,0,0,0,,,3.28084E-5,0.328084,0,0,0,0,0,8.011,3.28084E-5,0,0,0,0,0,0,31.6, 3.8, 0,0,0,1024,1024,1024,1024,0,0,0,0,31.7,0,0,65,4.008,4.002,0,0,0,0,1.085,102.02,3.28084E-5,0,10,Assisted_Takeoff,
7400,2022-08-16 02:00:52,0,0,0,,,3.28084E-5,0.328084,0,0,0,0,0,8.011,3.28084E-5,0,0,0,0,0,0,31.7, 3.7, 0,0,0,1024,1024,1024,1024,0,0,0,0,31.7,0,0,65,4.008,4.002,0,0,0,0,1.085,102.02,3.28084E-5,0,10,Assisted_Takeoff,
7500,2022-08-16 02:00:52,0,0,0,,,3.28084E-5,0.328084,0,0,0,0,0,8.011,3.28084E-5,0,0,0,0,0,0,31.6, 3.8, 0,0,0,1024,1024,1024,1024,0,0,0,0,31.7,0,0,65,4.008,4.002,0,0,0,0,1.085,102.02,3.28084E-5,0,10,Assisted_Takeoff,
7600,2022-08-16 02:00:52,0,0,0,,,3.28084E-5,0.328084,0,0,0,0,0,8.011,3.28084E-5,0,0,0,0,0,0,31.6, 3.8, 0,0,0,1024,1024,1024,1024,0,0,0,0,31.7,0,0,65,4.008,4.002,0,0,0,0,1.085,102.02,3.28084E-5,0,10,Assisted_Takeoff,
7700,2022-08-16 02:00:52,0,0,0,,,3.28084E-5,0.328084,0,0,0,0,0,8.011,3.28084E-5,0,0,0,0,0,0,31.6, 3.8, 0,0,0,1024,1024,1024,1024,0,0,0,0,31.7,0,0,65,4.008,4.002,0,0,0,0,1.085,102.02,3.28084E-5,0,10,Assisted_Takeoff,
7800,2022-08-16 02:00:53,0,0,0,,,3.28084E-5,0.328084,0,0,0,0,0,8.011,3.28084E-5,0,0,0,0,0,0,31.6, 3.8, 0,0,0,1024,1024,1024,1024,0,0,0,0,31.7,0,0,65,4.008,4.002,0,0,0,0,1.085,102.02,3.28084E-5,0,10,Assisted_Takeoff,
7900,2022-08-16 02:00:53,0,0,0,,,3.28084E-5,0.328084,0,0,0,0,0,8.011,3.28084E-5,0,0,0,0,0,0,31.6, 3.8, 0,0,0,1024,1024,1024,1024,0,0,0,0,31.7,0,0,65,4.008,4.002,0,0,0,0,1.085,102.02,3.28084E-5,0,10,Assisted_Takeoff,
8000,2022-08-16 02:00:53,0,0,0,,,3.28084E-5,0.328084,0,0,0,0,0,8.01,3.28084E-5,0,0,0,0,0,0,31.7, 3.7, 0,0,0,1024,1024,1024,1024,0,0,0,0,31.7,0,0,65,4.008,4.001,0,0,0,0,1.089,102.02,3.28084E-5,0,10,Assisted_Takeoff,
8100,2022-08-16 02:00:53,0,0,0,,,3.28084E-5,0.328084,0,0,0,0,0,8.01,3.28084E-5,0,0,0,0,0,0,31.6, 3.8, 0,0,0,1024,1024,1024,1024,0,0,0,0,31.7,0,0,65,4.008,4.001,0,0,0,0,1.089,102.02,3.28084E-5,0,10,Assisted_Takeoff,
8200,2022-08-16 02:00:53,0,0,0,,,3.28084E-5,0.328084,0,0,0,0,0,8.01,3.28084E-5,0,0,0,0,0,0,31.6, 3.8, 0,0,0,1024,1024,1024,1024,0,0,0,0,31.7,0,0,65,4.008,4.001,0,0,0,0,1.089,102.02,3.28084E-5,0,10,Assisted_Takeoff,
8300,2022-08-16 02:00:53,0,0,0,,,3.28084E-5,0.328084,0,0,0,0,0,8.01,3.28084E-5,0,0,0,0,0,0,31.7, 3.8, 0,0,0,1024,1024,1024,1024,0,0,0,0,31.7,0,0,65,4.008,4.001,0,0,0,0,1.089,102.02,3.28084E-5,0,10,Assisted_Takeoff,
8400,2022-08-16 02:00:53,0,0,0,,,3.28084E-5,0.328084,0,0,0,0,0,8.01,3.28084E-5,0,0,0,0,0,0,31.6, 3.8, 0,0,0,1024,1024,1024,1024,0,0,0,0,31.7,0,0,65,4.008,4.001,0,0,0,0,1.089,102.02,3.28084E-5,0,10,Assisted_Takeoff,
8500,2022-08-16 02:00:53,0,0,0,,,3.28084E-5,0.328084,0,0,0,0,0,8.01,3.28084E-5,0,0,0,0,0,0,31.7, 3.7, 0,0,0,1024,1024,1024,1024,0,0,0,0,31.7,0,0,65,4.008,4.001,0,0,0,0,1.089,102.02,3.28084E-5,0,10,Assisted_Takeoff,
8600,2022-08-16 02:00:53,0,0,0,,,3.28084E-5,0.328084,0,0,0,0,0,8.01,3.28084E-5,0,0,0,0,0,0,31.6, 3.8, 0,0,0,1024,1024,1024,1024,0,0,0,0,31.7,0,0,65,4.008,4.001,0,0,0,0,1.089,102.02,3.28084E-5,0,10,Assisted_Takeoff,
8700,2022-08-16 02:00:53,0,0,0,,,3.28084E-5,0.328084,0,0,0,0,0,8.01,3.28084E-5,0,0,0,0,0,0,31.6, 3.8, 0,0,0,1024,1024,1024,1024,0,0,0,0,31.7,0,0,65,4.008,4.001,0,0,0,0,1.089,102.02,3.28084E-5,0,10,Assisted_Takeoff,
8800,2022-08-16 02:00:54,0,0,0,,,3.28084E-5,0.328084,0,0,0,0,0,8.01,3.28084E-5,0,0,0,0,0,0,31.6, 3.8, 0,0,0,1024,1024,1024,1024,0,0,0,0,31.7,0,0,65,4.008,4.001,0,0,0,0,1.089,102.02,3.28084E-5,0,10,Assisted_Takeoff,
8900,2022-08-16 02:00:54,0,0,0,,,3.28084E-5,0.328084,0,0,0,0,0,8.01,3.28084E-5,0,0,0,0,0,0,31.6, 3.8, 0,0,0,1024,1024,1024,1024,0,0,0,0,31.7,0,0,65,4.008,4.001,0,0,0,0,1.089,102.02,3.28084E-5,0,10,Assisted_Takeoff,
9000,2022-08-16 02:00:54,0,0,0,,,3.28084E-5,0.328084,0,0,0,0,0,8.01,3.28084E-5,0,0,0,0,0,0,31.6, 3.8, 0,0,0,1024,1024,1024,1024,0,0,0,0,31.7,0,0,65,4.008,4,0,0,0,0,1.088,102.02,3.28084E-5,0,10,Assisted_Takeoff,
9100,2022-08-16 02:00:54,0,0,0,,,3.28084E-5,0.328084,0,0,0,0,0,8.01,3.28084E-5,0,0,0,0,0,0,31.7, 3.7, 0,0,0,1024,1024,1024,1024,0,0,0,0,31.7,0,0,65,4.008,4,0,0,0,0,1.088,102.02,3.28084E-5,0,10,Assisted_Takeoff,
9200,2022-08-16 02:00:54,0,0,0,,,3.28084E-5,0.328084,0,0,0,0,0,8.01,3.28084E-5,0,0,0,0,0,0,31.6, 3.8, 0,0,0,1024,1024,1024,1024,0,0,0,0,31.7,0,0,65,4.008,4,0,0,0,0,1.088,102.02,3.28084E-5,0,10,Assisted_Takeoff,
9300,2022-08-16 02:00:54,0,0,0,,,3.28084E-5,0.328084,0,0,0,0,0,8.01,3.28084E-5,0,0,0,0,0,0,31.6, 3.7, 0,0,0,1024,1024,1024,1024,0,0,0,0,31.7,0,0,65,4.008,4,0,0,0,0,1.088,102.02,3.28084E-5,0,10,Assisted_Takeoff,
9400,2022-08-16 02:00:54,0,0,0,,,3.28084E-5,0.328084,0,0,0,0,0,8.01,3.28084E-5,0,0,0,0,0,0,31.7, 3.8, 0,0,0,1024,1024,1024,1024,0,0,0,0,31.7,0,0,65,4.008,4,0,0,0,0,1.088,102.02,3.28084E-5,0,10,Assisted_Takeoff,
9500,2022-08-16 02:00:54,0,0,0,,,3.28084E-5,0.328084,0,0,0,0,0,8.01,3.28084E-5,0,0,0,0,0,0,31.6, 3.8, 0,0,0,1024,1024,1024,1024,0,0,0,0,31.7,0,0,65,4.008,4,0,0,0,0,1.088,102.02,3.28084E-5,0,10,Assisted_Takeoff,
9600,2022-08-16 02:00:54,0,0,0,,,3.28084E-5,0.328084,0,0,0,0,0,8.01,3.28084E-5,0,0,0,0,0,0,31.7, 3.7, 0,0,0,1024,1068,1024,1024,0,7,0,0,31.7,0,0,65,4.008,4,0,0,0,0,1.088,102.02,3.28084E-5,0,10,Assisted_Takeoff,
9700,2022-08-16 02:00:54,0,0,0,,,3.28084E-5,0.328084,0,0,0,0,0,8.01,3.28084E-5,0,0,0,0,0,0,31.6, 3.8, 0,0,0,1024,1068,1024,1024,0,7,0,0,31.7,0,0,65,4.008,4,0,0,0,0,1.088,102.02,3.28084E-5,0,10,Assisted_Takeoff,
9800,2022-08-16 02:00:55,0,0,0,,,3.28084E-5,0.328084,0,0,0,0,0,8.01,3.28084E-5,0,0,0,0,0,0,31.6, 3.8, 0,0,0,1024,1024,1024,1024,0,0,0,0,31.7,0,0,65,4.008,4,0,0,0,0,1.088,102.02,3.28084E-5,0,10,Assisted_Takeoff,
9900,2022-08-16 02:00:55,0,0,0,,,3.28084E-5,0.328084,0,0,0,0,0,8.01,3.28084E-5,0,0,0,0,0,0,31.7, 3.8, 0,0,0,1024,1024,1024,1024,0,0,0,0,31.7,0,0,65,4.008,4,0,0,0,0,1.088,102.02,3.28084E-5,0,10,Assisted_Takeoff,
10000,2022-08-16 02:00:55,0,0,0,,,3.28084E-5,0.328084,0,0,0,0,0,8.008,3.28084E-5,0,0,0,0,0,0,31.6, 3.8, 0,0,0,1024,1024,1024,1024,0,0,0,0,31.7,0,0,65,4.008,4,0,0,0,0,1.09,102.02,3.28084E-5,0,10,Assisted_Takeoff,
10100,2022-08-16 02:00:55,0,0,0,,,3.28084E-5,0.328084,0,0,0,0,0,8.008,3.28084E-5,0,0,0,0,0,0,31.6, 3.8, 0,0,0,1024,1024,1024,1024,0,0,0,0,31.7,0,0,65,4.008,4,0,0,0,0,1.09,102.02,3.28084E-5,0,10,Assisted_Takeoff,
10200,2022-08-16 02:00:55,0,0,0,,,3.28084E-5,0.328084,0,0,0,0,0,8.008,3.28084E-5,0,0,0,0,0,0,31.7, 3.8, 0,0,0,1024,1024,1024,1024,0,0,0,0,31.7,0,0,65,4.008,4,0,0,0,0,1.09,102.02,3.28084E-5,0,10,Assisted_Takeoff,
10300,2022-08-16 02:00:55,0,0,0,,,3.28084E-5,0.328084,0,0,0,0,0,8.008,3.28084E-5,0,0,0,0,0,0,31.6, 3.8, 0,0,0,1024,1024,1024,1024,0,0,0,0,31.7,0,0,65,4.008,4,0,0,0,0,1.09,102.02,3.28084E-5,0,10,Assisted_Takeoff,
10400,2022-08-16 02:00:55,0,0,0,,,3.28084E-5,0.328084,0,0,0,0,0,8.008,3.28084E-5,0,0,0,0,0,0,31.6, 3.7, 0,0,0,1024,1024,1024,1024,0,0,0,0,31.7,0,0,65,4.008,4,0,0,0,0,1.09,102.02,3.28084E-5,0,10,Assisted_Takeoff,
10500,2022-08-16 02:00:55,0,0,0,,,3.28084E-5,0.328084,0,0,0,0,0,8.008,3.28084E-5,0,0,0,0,0,0,31.6, 3.8, 0,0,0,1024,1024,1024,1024,0,0,0,0,31.7,0,0,65,4.008,4,0,0,0,0,1.09,102.02,3.28084E-5,0,10,Assisted_Takeoff,
10600,2022-08-16 02:00:55,0,0,0,,,3.28084E-5,0.328084,0,0,0,0,0,8.008,3.28084E-5,0,0,0,0,0,0,31.6, 3.8, 0,0,0,1024,1024,1024,1024,0,0,0,0,31.7,0,0,65,4.008,4,0,0,0,0,1.09,102.02,3.28084E-5,0,10,Assisted_Takeoff,
10700,2022-08-16 02:00:55,0,0,0,,,3.28084E-5,0.328084,0,0,0,0,0,8.008,3.28084E-5,0,0,0,0,0,0,31.6, 3.8, 0,0,0,1024,1024,1024,1024,0,0,0,0,31.7,0,0,65,4.008,4,0,0,0,0,1.09,102.02,3.28084E-5,0,10,Assisted_Takeoff,
10800,2022-08-16 02:00:56,0,0,0,,,3.28084E-5,0.328084,0,0,0,0,0,8.008,3.28084E-5,0,0,0,0,0,0,31.6, 3.8, 0,0,0,1024,1024,1024,1024,0,0,0,0,31.7,0,0,65,4.008,4,0,0,0,0,1.09,102.02,3.28084E-5,0,10,Assisted_Takeoff,
10900,2022-08-16 02:00:56,0,0,0,,,3.28084E-5,0.328084,0,0,0,0,0,8.008,3.28084E-5,0,0,0,0,0,0,31.6, 3.8, 0,0,0,1024,1024,1024,1024,0,0,0,0,31.7,0,0,65,4.008,4,0,0,0,0,1.09,102.02,3.28084E-5,0,10,Assisted_Takeoff,
11000,2022-08-16 02:00:56,0,0,0,,,3.28084E-5,0.328084,0,0,0,0,0,8.008,3.28084E-5,0,0,0,0,0,0,31.6, 3.8, 0,0,0,1024,1024,1024,1024,0,0,0,0,31.7,0,0,65,4.008,4,0,0,0,0,1.09,102.02,3.28084E-5,0,10,Assisted_Takeoff,
11100,2022-08-16 02:00:56,0,0,0,,,3.28084E-5,0.328084,0,0,0,0,0,8.007,3.28084E-5,0,0,0,0,0,0,31.6, 3.8, 0,0,0,1024,1024,1024,1024,0,0,0,0,31.7,0,0,64,4.008,4,0,0,0,0,1.084,102.02,3.28084E-5,0,10,Assisted_Takeoff,
11200,2022-08-16 02:00:56,0,0,0,,,3.28084E-5,0.328084,0,0,0,0,0,8.007,3.28084E-5,0,0,0,0,0,0,31.6, 3.8, 0,0,0,1024,1024,1024,1024,0,0,0,0,31.7,0,0,64,4.008,4,0,0,0,0,1.084,102.02,3.28084E-5,0,10,Assisted_Takeoff,
11300,2022-08-16 02:00:56,0,0,0,,,3.28084E-5,0.328084,0,0,0,0,0,8.007,3.28084E-5,0,0,0,0,0,0,31.6, 3.8, 0,0,0,1024,1024,1024,1024,0,0,0,0,31.7,0,0,64,4.008,4,0,0,0,0,1.084,102.02,3.28084E-5,0,10,Assisted_Takeoff,
11400,2022-08-16 02:00:56,0,0,0,,,3.28084E-5,0.328084,0,0,0,0,0,8.007,3.28084E-5,0,0,0,0,0,0,31.6, 3.8, 0,0,0,1024,1024,1024,1024,0,0,0,0,31.7,0,0,64,4.008,4,0,0,0,0,1.084,102.02,3.28084E-5,0,10,Assisted_Takeoff,
11500,2022-08-16 02:00:56,0,0,0,,,3.28084E-5,0.328084,0,0,0,0,0,8.007,3.28084E-5,0,0,0,0,0,0,31.6, 3.8, 0,0,0,1024,1024,1024,1024,0,0,0,0,31.7,0,0,64,4.008,4,0,0,0,0,1.084,102.02,3.28084E-5,0,10,Assisted_Takeoff,
11600,2022-08-16 02:00:56,0,0,0,,,3.28084E-5,0.328084,0,0,0,0,0,8.007,3.28084E-5,0,0,0,0,0,0,31.6, 3.8, 0,0,0,1024,1024,1024,1024,0,0,0,0,31.7,0,0,64,4.008,4,0,0,0,0,1.084,102.02,3.28084E-5,0,10,Assisted_Takeoff,
11700,2022-08-16 02:00:56,0,0,0,,,3.28084E-5,0.328084,0,0,0,0,0,8.007,3.28084E-5,0,0,0,0,0,0,31.6, 3.8, 0,0,0,1050,1024,1024,1024,4,0,0,0,31.7,0,0,64,4.008,4,0,0,0,0,1.084,102.02,3.28084E-5,0,10,Assisted_Takeoff,
11800,2022-08-16 02:00:57,0,0,0,,,3.28084E-5,0.328084,0,0,0,0,0,8.007,3.28084E-5,0,0,0,0,0,0,31.6, 3.8, 0,0,0,1040,1024,1024,1024,2,0,0,0,31.7,0,0,64,4.008,4,0,0,0,0,1.084,102.02,3.28084E-5,0,10,Assisted_Takeoff,
11900,2022-08-16 02:00:57,0,0,0,,,3.28084E-5,0.328084,0,0,0,0,0,8.007,3.28084E-5,0,0,0,0,0,0,31.6, 3.8, 0,0,0,1040,1024,1024,1024,2,0,0,0,31.7,0,0,64,4.008,4,0,0,0,0,1.084,102.02,3.28084E-5,0,10,Assisted_Takeoff,
12000,2022-08-16 02:00:57,0,0,0,,,3.28084E-5,0.328084,0,0,0,0,0,8.007,3.28084E-5,0,0,0,0,0,0,31.6, 3.8, 0,0,0,1042,1024,1024,1024,3,0,0,0,31.7,0,0,64,4.008,4,0,0,0,0,1.084,102.02,3.28084E-5,0,10,Assisted_Takeoff,
12100,2022-08-16 02:00:57,0,0,0,,,3.28084E-5,0.328084,0,0,0,0,0,8.006,3.28084E-5,0,0,0,0,0,0,31.6, 3.8, 0,0,0,1073,1024,1024,1024,7,0,0,0,31.7,0,0,64,4.007,3.999,0,0,0,0,1.088,102.02,3.28084E-5,0,10,Assisted_Takeoff,
12200,2022-08-16 02:00:57,0,0,0,,,3.28084E-5,0.328084,0,0,0,0,0,8.006,3.28084E-5,0,0,0,0,0,0,31.5, 3.8, 0,0,0,1051,1024,1024,1024,4,0,0,0,31.7,0,0,64,4.007,3.999,0,0,0,0,1.088,102.02,3.28084E-5,0,10,Assisted_Takeoff,
12300,2022-08-16 02:00:57,0,0,0,,,3.28084E-5,0.328084,0,0,0,0,0,8.006,3.28084E-5,0,0,0,0,0,0,31.6, 3.8, 0,0,0,1024,1024,1024,1024,0,0,0,0,31.7,0,0,64,4.007,3.999,0,0,0,0,1.088,102.02,3.28084E-5,0,10,Assisted_Takeoff,
12400,2022-08-16 02:00:57,0,0,0,,,3.28084E-5,0.328084,0,0,0,0,0,8.006,3.28084E-5,0,0,0,0,0,0,31.6, 3.8, 0,0,0,1024,1024,1024,1024,0,0,0,0,31.7,0,0,64,4.007,3.999,0,0,0,0,1.088,102.02,3.28084E-5,0,10,Assisted_Takeoff,
12500,2022-08-16 02:00:57,0,0,0,,,3.28084E-5,0.328084,0,0,0,0,0,8.006,3.28084E-5,0,0,0,0,0,0,31.6, 3.8, 0,0,0,1024,1024,1024,1024,0,0,0,0,31.7,0,0,64,4.007,3.999,0,0,0,0,1.088,102.02,3.28084E-5,0,10,Assisted_Takeoff,
12600,2022-08-16 02:00:57,0,0,0,,,3.28084E-5,0.328084,0,0,0,0,0,8.006,3.28084E-5,0,0,0,0,0,0,31.6, 3.8, 0,0,0,1024,1024,1024,1024,0,0,0,0,31.7,0,0,64,4.007,3.999,0,0,0,0,1.088,102.02,3.28084E-5,0,10,Assisted_Takeoff,
12700,2022-08-16 02:00:57,0,0,0,,,3.28084E-5,0.328084,0,0,0,0,0,8.006,3.28084E-5,0,0,0,0,0,0,31.5, 3.8, 0,0,0,1024,1024,1024,1024,0,0,0,0,31.7,0,0,64,4.007,3.999,0,0,0,0,1.088,102.02,3.28084E-5,0,10,Assisted_Takeoff,
12800,2022-08-16 02:00:58,0,0,0,,,3.28084E-5,0.328084,0,0,0,0,0,8.006,3.28084E-5,0,0,0,0,0,0,31.6, 3.8, 0,0,0,1024,1024,1024,1024,0,0,0,0,31.7,0,0,64,4.007,3.999,0,0,0,0,1.088,102.02,3.28084E-5,0,10,Assisted_Takeoff,
12900,2022-08-16 02:00:58,0,0,0,,,3.28084E-5,0.328084,0,0,0,0,0,8.006,3.28084E-5,0,0,0,0,0,0,31.6, 3.8, 0,0,0,1024,1024,1024,1024,0,0,0,0,31.7,0,0,64,4.007,3.999,0,0,0,0,1.088,102.02,3.28084E-5,0,10,Assisted_Takeoff,
13000,2022-08-16 02:00:58,0,0,0,,,3.28084E-5,0.328084,0,0,0,0,0,8.006,3.28084E-5,0,0,0,0,0,0,31.5, 3.8, 0,0,0,1024,1024,1024,1024,0,0,0,0,31.7,0,0,64,4.007,3.999,0,0,0,0,1.088,102.02,3.28084E-5,0,10,Assisted_Takeoff,
13100,2022-08-16 02:00:58,0,0,0,,,3.28084E-5,0.328084,0,0,0,0,0,8.006,3.28084E-5,0,0,0,0,0,0,31.6, 3.8, 0,0,0,1024,1024,1024,1024,0,0,0,0,31.7,0,0,64,4.006,3.999,0,0,0,0,1.087,102.02,3.28084E-5,0,10,Assisted_Takeoff,
13200,2022-08-16 02:00:58,0,0,0,,,3.28084E-5,0.328084,0,0,0,0,0,8.006,3.28084E-5,0,0,0,0,0,0,31.6, 3.8, 0,0,0,1024,1024,1024,1024,0,0,0,0,31.7,0,0,64,4.006,3.999,0,0,0,0,1.087,102.02,3.28084E-5,0,10,Assisted_Takeoff,
13300,2022-08-16 02:00:58,0,0,0,,,3.28084E-5,0.328084,0,0,0,0,0,8.006,3.28084E-5,0,0,0,0,0,0,31.5, 3.8, 0,0,0,1024,1024,1024,1024,0,0,0,0,31.7,0,0,64,4.006,3.999,0,0,0,0,1.087,102.02,3.28084E-5,0,10,Assisted_Takeoff,
13400,2022-08-16 02:00:58,0,0,0,,,3.28084E-5,0.328084,0,0,0,0,0,8.006,3.28084E-5,0,0,0,0,0,0,31.6, 3.8, 0,0,0,1024,1024,1024,1024,0,0,0,0,31.7,0,0,64,4.006,3.999,0,0,0,0,1.087,102.02,3.28084E-5,0,10,Assisted_Takeoff,
13500,2022-08-16 02:00:58,0,0,0,,,3.28084E-5,0.328084,0,0,0,0,0,8.006,3.28084E-5,0,0,0,0,0,0,31.5, 3.8, 0,0,0,1024,1024,1024,1024,0,0,0,0,31.7,0,0,64,4.006,3.999,0,0,0,0,1.087,102.02,3.28084E-5,0,10,Assisted_Takeoff,
13600,2022-08-16 02:00:58,0,0,0,,,3.28084E-5,0.328084,0,0,0,0,0,8.006,3.28084E-5,0,0,0,0,0,0,31.5, 3.8, 0,0,0,1024,1024,1024,1024,0,0,0,0,31.7,0,0,64,4.006,3.999,0,0,0,0,1.087,102.02,3.28084E-5,0,10,Assisted_Takeoff,
13700,2022-08-16 02:00:58,0,0,0,,,3.28084E-5,0.328084,0,0,0,0,0,8.006,3.28084E-5,0,0,0,0,0,0,31.6, 3.8, 0,0,0,1024,1024,1024,1024,0,0,0,0,31.7,0,0,64,4.006,3.999,0,0,0,0,1.087,102.02,3.28084E-5,0,10,Assisted_Takeoff,
13800,2022-08-16 02:00:59,0,0,0,,,3.28084E-5,0.328084,0,0,0,0,0,8.006,3.28084E-5,0,0,0,0,0,0,31.5, 3.8, 0,0,0,1024,1024,1024,1024,0,0,0,0,31.7,0,0,64,4.006,3.999,0,0,0,0,1.087,102.02,3.28084E-5,0,10,Assisted_Takeoff,
13900,2022-08-16 02:00:59,0,0,0,,,3.28084E-5,0.328084,0,0,0,0,0,8.006,3.28084E-5,0,0,0,0,0,0,31.6, 3.8, 0,0,0,1024,1024,1024,1024,0,0,0,0,31.7,0,0,64,4.006,3.999,0,0,0,0,1.087,102.02,3.28084E-5,0,10,Assisted_Takeoff,
14000,2022-08-16 02:00:59,0,0,0,,,3.28084E-5,0.328084,0,0,0,0,0,8.006,3.28084E-5,0,0,0,0,0,0,31.6, 3.8, 0,0,0,1024,1024,1024,1024,0,0,0,0,31.7,0,0,64,4.006,3.999,0,0,0,0,1.087,102.02,3.28084E-5,0,10,Assisted_Takeoff,
14100,2022-08-16 02:00:59,0,0,0,,,3.28084E-5,0.328084,0,0,0,0,0,8.006,3.28084E-5,0,0,0,0,0,0,31.5, 3.8, 0,0,0,1024,1024,1024,1024,0,0,0,0,31.7,0,0,64,4.006,3.999,0,0,0,0,1.088,102.02,3.28084E-5,0,10,Assisted_Takeoff,
14200,2022-08-16 02:00:59,0,0,0,,,3.28084E-5,0.328084,0,0,0,0,0,8.006,3.28084E-5,0,0,0,0,0,0,31.6, 3.8, 0,0,0,1024,1024,1024,1024,0,0,0,0,31.7,0,0,64,4.006,3.999,0,0,0,0,1.088,102.02,3.28084E-5,0,10,Assisted_Takeoff,
14300,2022-08-16 02:00:59,0,0,0,,,3.28084E-5,0.328084,0,0,0,0,0,8.006,3.28084E-5,0,0,0,0,0,0,31.6, 3.8, 0,0,0,1024,1024,1024,1024,0,0,0,0,31.7,0,0,64,4.006,3.999,0,0,0,0,1.088,102.02,3.28084E-5,0,10,Assisted_Takeoff,
14400,2022-08-16 02:00:59,0,0,0,,,3.28084E-5,0.328084,0,0,0,0,0,8.006,3.28084E-5,0,0,0,0,0,0,31.5, 3.8, 0,0,0,1024,1024,1024,1024,0,0,0,0,31.7,0,0,64,4.006,3.999,0,0,0,0,1.088,102.02,3.28084E-5,0,10,Assisted_Takeoff,
14500,2022-08-16 02:00:59,0,0,0,,,3.28084E-5,0.328084,0,0,0,0,0,8.006,3.28084E-5,0,0,0,0,0,0,31.6, 3.8, 0,0,0,1024,1024,1024,1024,0,0,0,0,31.7,0,0,64,4.006,3.999,0,0,0,0,1.088,102.02,3.28084E-5,0,10,Assisted_Takeoff,
14600,2022-08-16 02:00:59,0,0,0,,,3.28084E-5,0.328084,0,0,0,0,0,8.006,3.28084E-5,0,0,0,0,0,0,31.5, 3.8, 0,0,0,1024,1024,1024,1024,0,0,0,0,31.7,0,0,64,4.006,3.999,0,0,0,0,1.088,102.02,3.28084E-5,0,10,Assisted_Takeoff,
14700,2022-08-16 02:00:59,0,0,0,,,3.28084E-5,0.328084,0,0,0,0,0,8.006,3.28084E-5,0,0,0,0,0,0,31.5, 3.8, 0,0,0,1024,1024,1024,1024,0,0,0,0,31.7,0,0,64,4.006,3.999,0,0,0,0,1.088,102.02,3.28084E-5,0,10,Assisted_Takeoff,
14800,2022-08-16 02:01:00,0,0,0,,,3.28084E-5,0.328084,0,0,0,0,0,8.006,3.28084E-5,0,0,0,0,0,0,31.5, 3.8, 0,0,0,1024,1024,1024,1024,0,0,0,0,31.7,0,0,64,4.006,3.999,0,0,0,0,1.088,102.02,3.28084E-5,0,10,Assisted_Takeoff,
14900,2022-08-16 02:01:00,0,0,0,,,3.28084E-5,0.328084,0,0,0,0,0,8.006,3.28084E-5,0,0,0,0,0,0,31.5, 3.8, 0,0,0,1024,1024,1024,1024,0,0,0,0,31.7,0,0,64,4.006,3.999,0,0,0,0,1.088,102.02,3.28084E-5,0,10,Assisted_Takeoff,
15000,2022-08-16 02:01:00,0,0,0,,,3.28084E-5,0.328084,0,0,0,0,0,8.006,3.28084E-5,0,0,0,0,0,0,31.6, 3.8, 0,0,0,1024,1024,1024,1024,0,0,0,0,31.7,0,0,64,4.006,3.999,0,0,0,0,1.088,102.02,3.28084E-5,0,10,Assisted_Takeoff,
15100,2022-08-16 02:01:00,0,0,0,,,3.28084E-5,0.328084,0,0,0,0,0,8.006,3.28084E-5,0,0,0,0,0,0,31.5, 3.8, 0,0,0,1024,1024,1024,1024,0,0,0,0,31.7,0,0,64,4.006,3.999,0,0,0,0,1.088,102.02,3.28084E-5,0,10,Assisted_Takeoff,
15200,2022-08-16 02:01:00,0,0,0,,,3.28084E-5,0.328084,0,0,0,0,0,8.006,3.28084E-5,0,0,0,0,0,0,31.5, 3.8, 0,0,0,1024,1024,1024,1024,0,0,0,0,31.7,0,0,64,4.006,3.999,0,0,0,0,1.088,102.02,3.28084E-5,0,10,Assisted_Takeoff,
15300,2022-08-16 02:01:00,0,0,0,,,3.28084E-5,0.328084,0,0,0,0,0,8.006,3.28084E-5,0,0,0,0,0,0,31.6, 3.8, 0,0,0,1024,1024,1024,1024,0,0,0,0,31.7,0,0,64,4.006,3.999,0,0,0,0,1.088,102.02,3.28084E-5,0,10,Assisted_Takeoff,
15400,2022-08-16 02:01:00,0,0,0,,,3.28084E-5,0.328084,0,0,0,0,0,8.006,3.28084E-5,0,0,0,0,0,0,31.5, 3.8, 0,0,0,1024,1024,1024,1024,0,0,0,0,31.7,0,0,64,4.006,3.999,0,0,0,0,1.088,102.02,3.28084E-5,0,10,Assisted_Takeoff,
15500,2022-08-16 02:01:00,0,0,0,,,3.28084E-5,0.328084,0,0,0,0,0,8.006,3.28084E-5,0,0,0,0,0,0,31.5, 3.8, 0,0,0,1024,1024,1024,1024,0,0,0,0,31.7,0,0,64,4.006,3.999,0,0,0,0,1.088,102.02,3.28084E-5,0,10,Assisted_Takeoff,
15600,2022-08-16 02:01:00,0,0,0,,,3.28084E-5,0.328084,0,0,0,0,0,8.006,3.28084E-5,0,0,0,0,0,0,31.6, 3.8, 0,0,0,1024,1024,1024,1024,0,0,0,0,31.7,0,0,64,4.006,3.999,0,0,0,0,1.088,102.02,3.28084E-5,0,10,Assisted_Takeoff,
15700,2022-08-16 02:01:00,0,0,0,,,3.28084E-5,0.328084,0,0,0,0,0,8.006,3.28084E-5,0,0,0,0,0,0,31.5, 3.8, 0,0,0,1024,1024,1024,1024,0,0,0,0,31.7,0,0,64,4.006,3.999,0,0,0,0,1.088,102.02,3.28084E-5,0,10,Assisted_Takeoff,
15800,2022-08-16 02:01:01,0,0,0,,,3.28084E-5,0.328084,0,0,0,0,0,8.006,3.28084E-5,0,0,0,0,0,0,31.5, 3.8, 0,0,0,1024,1024,1024,1024,0,0,0,0,31.7,0,0,64,4.006,3.999,0,0,0,0,1.088,102.02,3.28084E-5,0,10,Assisted_Takeoff,
15900,2022-08-16 02:01:01,0,0,0,,,3.28084E-5,0.328084,0,0,0,0,0,8.006,3.28084E-5,0,0,0,0,0,0,31.5, 3.8, 0,0,0,1024,1024,1024,1024,0,0,0,0,31.7,0,0,64,4.006,3.999,0,0,0,0,1.088,102.02,3.28084E-5,0,10,Assisted_Takeoff,
16000,2022-08-16 02:01:01,0,0,0,,,3.28084E-5,0.328084,0,0,0,0,0,8.006,3.28084E-5,0,0,0,0,0,0,31.5, 3.8, 0,0,0,1024,1024,1024,1024,0,0,0,0,31.7,0,0,64,4.006,3.999,0,0,0,0,1.088,102.02,3.28084E-5,0,10,Assisted_Takeoff,
16100,2022-08-16 02:01:01,0,0,0,,,3.28084E-5,0.328084,0,0,0,0,0,8.005,3.28084E-5,0,0,0,0,0,0,31.5, 3.8, 0,0,0,1024,1024,1024,1024,0,0,0,0,31.7,0,0,64,4.006,3.998,0,0,0,0,1.088,102.02,3.28084E-5,0,10,Assisted_Takeoff,
16200,2022-08-16 02:01:01,0,0,0,,,3.28084E-5,0.328084,0,0,0,0,0,8.005,3.28084E-5,0,0,0,0,0,0,31.5, 3.8, 0,0,0,1024,1024,1024,1024,0,0,0,0,31.7,0,0,64,4.006,3.998,0,0,0,0,1.088,102.02,3.28084E-5,0,10,Assisted_Takeoff,
16300,2022-08-16 02:01:01,0,0,0,,,3.28084E-5,0.328084,0,0,0,0,0,8.005,3.28084E-5,0,0,0,0,0,0,31.5, 3.8, 0,0,0,1024,1024,1024,1024,0,0,0,0,31.7,0,0,64,4.006,3.998,0,0,0,0,1.088,102.02,3.28084E-5,0,10,Assisted_Takeoff,
16400,2022-08-16 02:01:01,0,0,0,,,3.28084E-5,0.328084,0,0,0,0,0,8.005,3.28084E-5,0,0,0,0,0,0,31.5, 3.8, 0,0,0,1024,1024,1024,1024,0,0,0,0,31.7,0,0,64,4.006,3.998,0,0,0,0,1.088,102.02,3.28084E-5,0,10,Assisted_Takeoff,
16500,2022-08-16 02:01:01,0,0,0,,,3.28084E-5,0.328084,0,0,0,0,0,8.005,3.28084E-5,0,0,0,0,0,0,31.5, 3.8, 0,0,0,1024,1024,1024,1024,0,0,0,0,31.7,0,0,64,4.006,3.998,0,0,0,0,1.088,102.02,3.28084E-5,0,10,Assisted_Takeoff,
16600,2022-08-16 02:01:01,0,0,0,,,3.28084E-5,0.328084,0,0,0,0,0,8.005,3.28084E-5,0,0,0,0,0,0,31.5, 3.8, 0,0,0,1024,1024,1024,1024,0,0,0,0,31.7,0,0,64,4.006,3.998,0,0,0,0,1.088,102.02,3.28084E-5,0,10,Assisted_Takeoff,
16700,2022-08-16 02:01:01,0,0,0,,,3.28084E-5,0.328084,0,0,0,0,0,8.005,3.28084E-5,0,0,0,0,0,0,31.5, 3.8, 0,0,0,1024,1024,1024,1024,0,0,0,0,31.7,0,0,64,4.006,3.998,0,0,0,0,1.088,102.02,3.28084E-5,0,10,Assisted_Takeoff,
16800,2022-08-16 02:01:02,0,0,0,,,3.28084E-5,0.328084,0,0,0,0,0,8.005,3.28084E-5,0,0,0,0,0,0,31.5, 3.8, 0,0,0,1024,1024,1024,1024,0,0,0,0,31.7,0,0,64,4.006,3.998,0,0,0,0,1.088,102.02,3.28084E-5,0,10,Assisted_Takeoff,
16900,2022-08-16 02:01:02,0,0,0,,,3.28084E-5,0.328084,0,0,0,0,0,8.005,3.28084E-5,0,0,0,0,0,0,31.5, 3.8, 0,0,0,1024,1024,1024,1024,0,0,0,0,31.7,0,0,64,4.006,3.998,0,0,0,0,1.088,102.02,3.28084E-5,0,10,Assisted_Takeoff,
17000,2022-08-16 02:01:02,0,0,0,,,3.28084E-5,0.328084,0,0,0,0,0,8.005,3.28084E-5,0,0,0,0,0,0,31.5, 3.8, 0,0,0,1024,1024,1024,1024,0,0,0,0,31.7,0,0,64,4.006,3.998,0,0,0,0,1.088,102.02,3.28084E-5,0,10,Assisted_Takeoff,
17100,2022-08-16 02:01:02,0,0,0,,,3.28084E-5,0.328084,0,0,0,0,0,8.005,3.28084E-5,0,0,0,0,0,0,31.5, 3.8, 0,0,0,1024,1024,1024,1024,0,0,0,0,31.7,0,0,64,4.006,3.998,0,0,0,0,1.088,102.02,3.28084E-5,0,10,Assisted_Takeoff,
17200,2022-08-16 02:01:02,0,0,0,,,3.28084E-5,0.328084,0,0,0,0,0,8.005,3.28084E-5,0,0,0,0,0,0,31.5, 3.8, 0,0,0,1024,1024,1024,1024,0,0,0,0,31.7,0,0,64,4.006,3.999,0,0,0,0,1.089,102.02,3.28084E-5,0,10,Assisted_Takeoff,
17300,2022-08-16 02:01:02,0,0,0,,,3.28084E-5,0.328084,0,0,0,0,0,8.005,3.28084E-5,0,0,0,0,0,0,31.4, 3.8, 0,0,0,1024,1024,1024,1024,0,0,0,0,31.7,0,0,64,4.006,3.999,0,0,0,0,1.089,102.02,3.28084E-5,0,10,Assisted_Takeoff,
17400,2022-08-16 02:01:02,0,0,0,,,3.28084E-5,0.328084,0,0,0,0,0,8.005,3.28084E-5,0,0,0,0,0,0,31.5, 3.8, 0,0,0,1024,1024,1024,1024,0,0,0,0,31.7,0,0,64,4.006,3.999,0,0,0,0,1.089,102.02,3.28084E-5,0,10,Assisted_Takeoff,
17500,2022-08-16 02:01:02,0,0,0,,,3.28084E-5,0.328084,0,0,0,0,0,8.005,3.28084E-5,0,0,0,0,0,0,31.5, 3.8, 0,0,0,1024,1024,1024,1024,0,0,0,0,31.7,0,0,64,4.006,3.999,0,0,0,0,1.089,102.02,3.28084E-5,0,10,Assisted_Takeoff,
17600,2022-08-16 02:01:02,0,0,0,,,3.28084E-5,0.328084,0,0,0,0,0,8.005,3.28084E-5,0,0,0,0,0,0,31.4, 3.9, 0,0,0,1024,1024,1024,1024,0,0,0,0,31.7,0,0,64,4.006,3.999,0,0,0,0,1.089,102.02,3.28084E-5,0,10,Assisted_Takeoff,
17700,2022-08-16 02:01:02,0,0,0,,,3.28084E-5,0.328084,0,0,0,0,0,8.005,3.28084E-5,0,0,0,0,0,0,31.5, 3.8, 0,0,0,1024,1024,1127,1024,0,0,16,0,31.7,0,0,64,4.006,3.999,0,0,0,0,1.089,102.02,3.28084E-5,0,10,Assisted_Takeoff,
17800,2022-08-16 02:01:03,0,0,0,,,3.28084E-5,0.328084,0,0,0,0,0,8.005,3.28084E-5,0,0,0,0,0,0,31.4, 3.9, 0,0,0,1024,1024,1024,1024,0,0,0,0,31.7,0,0,64,4.006,3.999,0,0,0,0,1.089,102.02,3.28084E-5,0,10,Assisted_Takeoff,
17900,2022-08-16 02:01:03,0,0,0,,,3.28084E-5,0.328084,0,0,0,0,0,8.005,3.28084E-5,0,0,0,0,0,0,31.5, 3.8, 0,0,0,1024,1024,1024,1024,0,0,0,0,31.7,0,0,64,4.006,3.999,0,0,0,0,1.089,102.02,3.28084E-5,0,10,Assisted_Takeoff,
18000,2022-08-16 02:01:03,0,0,0,,,3.28084E-5,0.328084,0,0,0,0,0,8.005,3.28084E-5,0,0,0,0,0,0,31.5, 3.8, 0,0,0,1024,1024,1024,1024,0,0,0,0,31.7,0,0,64,4.006,3.999,0,0,0,0,1.089,102.02,3.28084E-5,0,10,Assisted_Takeoff,
18100,2022-08-16 02:01:03,0,0,0,,,3.28084E-5,0.328084,0,0,0,0,0,8.005,3.28084E-5,0,0,0,0,0,0,31.5, 3.8, 0,0,0,1024,1024,1024,1024,0,0,0,0,31.7,0,0,64,4.006,3.999,0,0,0,0,1.089,102.02,3.28084E-5,0,10,Assisted_Takeoff,
18200,2022-08-16 02:01:03,0,0,0,,,3.28084E-5,0.328084,0,0,0,0,0,8.007,3.28084E-5,0,0,0,0,0,0,31.5, 3.8, 0,0,0,1024,1024,1024,1024,0,0,0,0,31.7,0,0,64,4.005,3.996,0,0,0,0,1.088,102.02,3.28084E-5,0,10,Assisted_Takeoff,
18300,2022-08-16 02:01:03,0,0,0,,,3.28084E-5,0.328084,0,0,0,0,0,8.007,3.28084E-5,0,0,0,0,0,0,31.5, 3.8, 0,0,0,1024,1024,1024,1024,0,0,0,0,31.7,0,0,64,4.005,3.996,0,0,0,0,1.088,102.02,3.28084E-5,0,10,Assisted_Takeoff,
18400,2022-08-16 02:01:03,0,0,0,,,3.28084E-5,0.328084,0,0,0,0,0,8.007,3.28084E-5,0,0,0,0,0,0,31.5, 3.8, 0,0,0,1024,1024,1024,1024,0,0,0,0,31.7,0,0,64,4.005,3.996,0,0,0,0,1.088,102.02,3.28084E-5,0,10,Assisted_Takeoff,
18500,2022-08-16 02:01:03,0,0,0,,,3.28084E-5,0.328084,0,0,0,0,0,8.007,3.28084E-5,0,0,0,0,0,0,31.5, 3.8, 0,0,0,1024,1024,1024,1024,0,0,0,0,31.7,0,0,64,4.005,3.996,0,0,0,0,1.088,102.02,3.28084E-5,0,10,Assisted_Takeoff,
18600,2022-08-16 02:01:03,0,0,0,,,3.28084E-5,0.328084,0,0,0,0,0,8.007,3.28084E-5,0,0,0,0,0,0,31.4, 3.8, 0,0,0,1024,1024,1024,1024,0,0,0,0,31.7,0,0,64,4.005,3.996,0,0,0,0,1.088,102.02,3.28084E-5,0,10,Assisted_Takeoff,
18700,2022-08-16 02:01:03,0,0,0,,,3.28084E-5,0.328084,0,0,0,0,0,8.007,3.28084E-5,0,0,0,0,0,0,31.5, 3.8, 0,0,0,1024,1024,1024,1024,0,0,0,0,31.7,0,0,64,4.005,3.996,0,0,0,0,1.088,102.02,3.28084E-5,0,10,Assisted_Takeoff,
18800,2022-08-16 02:01:04,0,0,0,,,3.28084E-5,0.328084,0,0,0,0,0,8.007,3.28084E-5,0,0,0,0,0,0,31.4, 3.8, 0,0,0,1024,1024,1024,1024,0,0,0,0,31.7,0,0,64,4.005,3.996,0,0,0,0,1.088,102.02,3.28084E-5,0,10,Assisted_Takeoff,
18900,2022-08-16 02:01:04,0,0,0,,,3.28084E-5,0.328084,0,0,0,0,0,8.007,3.28084E-5,0,0,0,0,0,0,31.5, 3.8, 0,0,0,1024,1024,1024,1024,0,0,0,0,31.7,0,0,64,4.005,3.996,0,0,0,0,1.088,102.02,3.28084E-5,0,10,Assisted_Takeoff,
19000,2022-08-16 02:01:04,0,0,0,,,3.28084E-5,0.328084,0,0,0,0,0,8.007,3.28084E-5,0,0,0,0,0,0,31.4, 3.8, 0,0,0,1024,1024,1024,1024,0,0,0,0,31.7,0,0,64,4.005,3.996,0,0,0,0,1.088,102.02,3.28084E-5,0,10,Assisted_Takeoff,
19100,2022-08-16 02:01:04,0,0,0,,,3.28084E-5,0.328084,0,0,0,0,0,8.007,3.28084E-5,0,0,0,0,0,0,31.5, 3.8, 0,0,0,1024,1024,1024,1024,0,0,0,0,31.7,0,0,64,4.005,3.996,0,0,0,0,1.088,102.02,3.28084E-5,0,10,Assisted_Takeoff,
19200,2022-08-16 02:01:04,0,0,0,,,3.28084E-5,0.328084,0,0,0,0,0,8.002,3.28084E-5,0,0,0,0,0,0,31.4, 3.9, 0,0,0,1024,1024,1024,1049,0,0,0,4,31.7,0,0,64,4.005,3.997,0,0,0,0,1.168,102.2,3.28084E-5,0,10,Assisted_Takeoff,
19300,2022-08-16 02:01:04,0,0,0,,,3.28084E-5,0.328084,0,0,0,0,0,8.002,3.28084E-5,0,0,0,0,0,0,31.4, 3.8, 0,0,0,1024,1024,1122,1024,0,0,15,0,31.7,0,0,64,4.005,3.997,0,0,0,0,1.168,102.2,3.28084E-5,0,10,Assisted_Takeoff,
19400,2022-08-16 02:01:04,0,0,0,,,3.28084E-5,0.328084,0,0,0,0,0,8.002,3.28084E-5,0,0,0,0,0,0,31.5, 3.8, 0,0,0,1024,1024,1280,1024,0,0,39,0,31.7,0,0,64,4.005,3.997,0,0,0,0,1.168,102.2,3.28084E-5,0,10,Assisted_Takeoff,
19500,2022-08-16 02:01:04,0,0,0,,,3.28084E-5,0.328084,0,0,0,0,0,8.002,3.28084E-5,0,0,0,0,0,0,31.4, 3.8, 0,0,0,1024,1024,1280,1024,0,0,39,0,31.7,0,0,64,4.005,3.997,0,0,0,0,1.168,102.2,3.28084E-5,0,10,Assisted_Takeoff,
19600,2022-08-16 02:01:04,0,0,0,,,3.28084E-5,0.328084,0,0,0,0,0,8.002,3.28084E-5,0,0,0,0,0,0,31.4, 3.8, 0,0,0,1024,1024,1024,1024,0,0,0,0,31.7,0,0,64,4.005,3.997,0,0,0,0,1.168,102.2,3.28084E-5,0,10,Assisted_Takeoff,
19700,2022-08-16 02:01:04,0,0,0,,,3.28084E-5,0.328084,0,0,0,0,0,8.002,3.28084E-5,0,0,0,0,0,0,31.4, 3.9, 0,0,0,1024,1024,1024,1024,0,0,0,0,31.7,0,0,64,4.005,3.997,0,0,0,0,1.168,102.2,3.28084E-5,0,10,Assisted_Takeoff,
19800,2022-08-16 02:01:05,0,0,0,,,3.28084E-5,0.328084,0,0,0,0,0,8.002,3.28084E-5,0,0,0,0,0,0,31.4, 3.8, 0,0,0,1024,1024,1024,1024,0,0,0,0,31.7,0,0,64,4.005,3.997,0,0,0,0,1.168,102.2,3.28084E-5,0,10,Assisted_Takeoff,
19900,2022-08-16 02:01:05,0,0,0,,,3.28084E-5,0.328084,0,0,0,0,0,8.002,3.28084E-5,0,0,0,0,0,0,31.3, 3.8, 0,0,0,1024,1024,1024,1024,0,0,0,0,31.7,0,0,64,4.005,3.997,0,0,0,0,1.168,102.2,3.28084E-5,0,10,Assisted_Takeoff,
20000,2022-08-16 02:01:05,0,0,0,,,3.28084E-5,0.328084,0,0,0,0,0,8.002,3.28084E-5,0,0,0,0,0,0,31.3, 3.8, 0,0,0,1024,1024,1024,1024,0,0,0,0,31.7,0,0,64,4.005,3.997,0,0,0,0,1.168,102.2,3.28084E-5,0,10,Assisted_Takeoff,
20100,2022-08-16 02:01:05,0,0,0,,,3.28084E-5,0.328084,0,0,0,0,0,8.002,3.28084E-5,0,0,0,0,0,0,31.3, 3.8, 0,0,0,1024,1024,1024,1024,0,0,0,0,31.6,0,0,64,4.005,3.997,0,0,0,0,1.168,102.2,3.28084E-5,0,10,Assisted_Takeoff,
20200,2022-08-16 02:01:05,0,0,0,,,3.28084E-5,0.328084,0,0,0,0,0,8.002,3.28084E-5,0,0,0,0,0,0,31.3, 3.8, 0,0,0,1024,1024,1024,1024,0,0,0,0,31.6,0,0,64,4.002,3.993,0,0,0,0,1.098,102.2,3.28084E-5,0,10,Assisted_Takeoff,
20300,2022-08-16 02:01:05,0,0,0,,,3.28084E-5,0.328084,0,0,0,0,0,8.002,3.28084E-5,0,0,0,0,0,0,31.3, 3.8, 0,0,0,1024,1024,1024,1024,0,0,0,0,31.6,0,0,64,4.002,3.993,0,0,0,0,1.098,102.2,3.28084E-5,0,10,Assisted_Takeoff,
20400,2022-08-16 02:01:05,0,0,0,,,3.28084E-5,0.328084,0,0,0,0,0,8.002,3.28084E-5,0,0,0,0,0,0,31.3, 3.8, 0,0,0,1031,1024,1024,1024,1,0,0,0,31.6,0,0,64,4.002,3.993,0,0,0,0,1.098,102.2,3.28084E-5,0,10,Assisted_Takeoff,
20500,2022-08-16 02:01:05,0,0,0,,,3.28084E-5,0.328084,0,0,0,0,0,8.002,3.28084E-5,0,0,0,0,0,0,31.2, 3.8, 0,0,0,1031,1024,1024,1024,1,0,0,0,31.6,0,0,64,4.002,3.993,0,0,0,0,1.098,102.2,3.28084E-5,0,10,Assisted_Takeoff,
20600,2022-08-16 02:01:05,0,0,0,,,3.28084E-5,0.328084,0,0,0,0,0,8.002,3.28084E-5,0,0,0,0,0,0,31.2, 3.9, 0,0,0,1024,1024,1024,1024,0,0,0,0,31.6,0,0,64,4.002,3.993,0,0,0,0,1.098,102.2,3.28084E-5,0,10,Assisted_Takeoff,
20700,2022-08-16 02:01:05,0,0,0,,,3.28084E-5,0.328084,0,0,0,0,0,8.002,3.28084E-5,0,0,0,0,0,0,31.3, 3.8, 0,0,0,1024,1024,1024,1024,0,0,0,0,31.6,0,0,64,4.002,3.993,0,0,0,0,1.098,102.2,3.28084E-5,0,10,Assisted_Takeoff,
20800,2022-08-16 02:01:06,0,0,0,,,3.28084E-5,0.328084,0,0,0,0,0,8.002,3.28084E-5,0,0,0,0,0,0,31.2, 3.8, 0,0,0,1024,1024,1024,1024,0,0,0,0,31.6,0,0,64,4.002,3.993,0,0,0,0,1.098,102.2,3.28084E-5,0,10,Assisted_Takeoff,
20900,2022-08-16 02:01:06,0,0,0,,,3.28084E-5,0.328084,0,0,0,0,0,8.002,3.28084E-5,0,0,0,0,0,0,31.3, 3.8, 0,0,0,1024,1024,1024,1024,0,0,0,0,31.6,0,0,64,4.002,3.993,0,0,0,0,1.098,102.2,3.28084E-5,0,10,Assisted_Takeoff,
21000,2022-08-16 02:01:06,0,0,0,,,3.28084E-5,0.328084,0,0,0,0,0,8.002,3.28084E-5,0,0,0,0,0,0,31.2, 3.8, 0,0,0,1024,1024,1024,1024,0,0,0,0,31.6,0,0,64,4.002,3.993,0,0,0,0,1.098,102.2,3.28084E-5,0,10,Assisted_Takeoff,
21100,2022-08-16 02:01:06,0,0,0,,,3.28084E-5,0.328084,0,0,0,0,0,8.002,3.28084E-5,0,0,0,0,0,0,31.3, 3.8, 0,0,0,1024,1024,1024,1024,0,0,0,0,31.6,0,0,64,4.002,3.993,0,0,0,0,1.098,102.2,3.28084E-5,0,10,Assisted_Takeoff,
21200,2022-08-16 02:01:06,0,0,0,,,3.28084E-5,0.328084,0,0,0,0,0,8,3.28084E-5,0,0,0,0,0,0,31.2, 3.9, 0,0,0,1024,1024,1024,1024,0,0,0,0,31.6,0,0,64,4.004,3.996,0,0,0,0,1.305,102.2,3.28084E-5,0,10,Assisted_Takeoff,
21300,2022-08-16 02:01:06,0,0,0,,,3.28084E-5,0.328084,0,0,0,0,0,8,3.28084E-5,0,0,0,0,0,0,31.2, 3.8, 0,0,0,1024,1024,1024,1024,0,0,0,0,31.6,0,0,64,4.004,3.996,0,0,0,0,1.305,102.2,3.28084E-5,0,10,Assisted_Takeoff,
21400,2022-08-16 02:01:06,0,0,0,,,3.28084E-5,0.328084,0,0,0,0,0,8,3.28084E-5,0,0,0,0,0,0,31.2, 3.8, 0,0,0,1024,1024,1187,1024,0,0,25,0,31.6,0,0,64,4.004,3.996,0,0,0,0,1.305,102.2,3.28084E-5,0,10,Assisted_Takeoff,
21500,2022-08-16 02:01:06,0,0,0,,,3.28084E-5,0.328084,0,0,0,0,0,8,3.28084E-5,0,0,0,0,0,0,31.2, 3.8, 0,0,0,1024,1024,1187,1024,0,0,25,0,31.6,0,0,64,4.004,3.996,0,0,0,0,1.305,102.2,3.28084E-5,0,10,Assisted_Takeoff,
21600,2022-08-16 02:01:06,0,0,0,,,3.28084E-5,0.328084,0,0,0,0,0,8,3.28084E-5,0,0,0,0,0,0,31.2, 3.8, 0,0,0,1024,1024,1260,1024,0,0,36,0,31.6,0,0,64,4.004,3.996,0,0,0,0,1.305,102.2,3.28084E-5,0,10,Assisted_Takeoff,
21700,2022-08-16 02:01:06,0,0,0,,,3.28084E-5,0.328084,0,0,0,0,0,8,3.28084E-5,0,0,0,0,0,0,31.2, 3.8, 0,0,0,1024,1024,1024,1024,0,0,0,0,31.6,0,0,64,4.004,3.996,0,0,0,0,1.305,102.2,3.28084E-5,0,10,Assisted_Takeoff,
21800,2022-08-16 02:01:07,0,0,0,,,3.28084E-5,0.328084,0,0,0,0,0,8,3.28084E-5,0,0,0,0,0,0,31.2, 3.8, 0,0,0,1024,1024,1024,1024,0,0,0,0,31.6,0,0,64,4.004,3.996,0,0,0,0,1.305,102.2,3.28084E-5,0,10,Assisted_Takeoff,
21900,2022-08-16 02:01:07,0,0,0,,,3.28084E-5,0.328084,0,0,0,0,0,8,3.28084E-5,0,0,0,0,0,0,31.3, 3.8, 0,0,0,1024,1024,1125,1024,0,0,15,0,31.6,0,0,64,4.004,3.996,0,0,0,0,1.305,102.2,3.28084E-5,0,10,Assisted_Takeoff,
22000,2022-08-16 02:01:07,0,0,0,,,3.28084E-5,0.328084,0,0,0,0,0,8,3.28084E-5,0,0,0,0,0,0,31.2, 3.8, 0,0,0,1024,1024,1502,1024,0,0,72,0,31.6,0,0,64,4.004,3.996,0,0,0,0,1.305,102.2,3.28084E-5,0,10,Assisted_Takeoff,
22100,2022-08-16 02:01:07,0,0,0,,,3.28084E-5,0.328084,0,0,0,0,0,8,3.28084E-5,0,0,0,0,0,0,31.2, 3.8, 0,0,0,1024,1024,1451,1024,0,0,65,0,31.6,0,0,64,4.004,3.996,0,0,0,0,1.305,102.2,3.28084E-5,0,10,Assisted_Takeoff,
22200,2022-08-16 02:01:07,0,0,0,,,3.28084E-5,0.328084,0,0,0,0,0,8.001,3.28084E-5,0,0,0,0,0,0,31.2, 3.8, 0,0,0,1024,1024,1118,1024,0,0,14,0,31.6,0,0,64,3.998,3.991,0,0,0,0,1.084,102.2,3.28084E-5,0,10,Assisted_Takeoff,
22300,2022-08-16 02:01:07,0,0,0,,,3.28084E-5,0.328084,0,0,0,0,0,8.001,3.28084E-5,0,0,0,0,0,0,31.3, 3.8, 0,0,0,1024,1024,1024,1024,0,0,0,0,31.6,0,0,64,3.998,3.991,0,0,0,0,1.084,102.2,3.28084E-5,0,10,Assisted_Takeoff,
22400,2022-08-16 02:01:07,0,0,0,,,3.28084E-5,0.328084,0,0,0,0,0,8.001,3.28084E-5,0,0,0,0,0,0,31.7, 3, 0,0,0,1024,1024,1024,1024,0,0,0,0,31.6,0,0,64,3.998,3.991,0,0,0,0,1.084,102.2,3.28084E-5,0,10,Assisted_Takeoff,
22500,2022-08-16 02:01:07,0,0,0,,,3.28084E-5,0.328084,0,0,0,0,0,8.001,3.28084E-5,0,0,0,0,0,0,32.2, 1.7, 0.1,0,0,1024,1024,1033,1024,0,0,1,0,31.6,0,0,64,3.998,3.991,0,0,0,0,1.084,102.2,3.28084E-5,0,10,Assisted_Takeoff,
22600,2022-08-16 02:01:07,0,0,0,,,3.28084E-5,0.328084,0,0,0,0,0,8.001,3.28084E-5,0,0,0,0,0,0,32.5, 3.4, 0,0,0,1024,1024,1024,1024,0,0,0,0,31.6,0,0,64,3.998,3.991,0,0,0,0,1.084,102.2,3.28084E-5,0,10,Assisted_Takeoff,
22700,2022-08-16 02:01:07,0,0,0,,,3.28084E-5,0.328084,0,0,0,0,0,8.001,3.28084E-5,0,0,0,0,0,0,32.5, 3.6, 0,0,0,1024,1024,1024,1024,0,0,0,0,31.6,0,0,64,3.998,3.991,0,0,0,0,1.084,102.2,3.28084E-5,0,10,Assisted_Takeoff,
22800,2022-08-16 02:01:08,0,0,0,,,3.28084E-5,0.328084,0,0,0,0,0,8.001,3.28084E-5,0,0,0,0,0,0,32.4, 3.6, 0,0,0,1024,1024,1083,1024,0,0,9,0,31.6,0,0,64,3.998,3.991,0,0,0,0,1.084,102.2,3.28084E-5,0,10,Assisted_Takeoff,
22900,2022-08-16 02:01:08,0,0,0,,,3.28084E-5,0.328084,0,0,0,0,0,8.001,3.28084E-5,0,0,0,0,0,0,32.4, 3.6, 0,0,0,1024,1024,1471,1024,0,0,68,0,31.6,0,0,64,3.998,3.991,0,0,0,0,1.084,102.2,3.28084E-5,0,10,Assisted_Takeoff,
23000,2022-08-16 02:01:08,0,0,0,,,3.28084E-5,0.328084,0,0,0,0,0,8.001,3.28084E-5,0,0,0,0,0,0,32.4, 3.6, 0,0,0,1024,1024,1528,1024,0,0,76,0,31.7,0,0,64,3.998,3.991,0,0,0,0,1.084,102.2,3.28084E-5,0,10,Assisted_Takeoff,
23100,2022-08-16 02:01:08,0,0,0,,,3.28084E-5,0.328084,0,0,0,0,0,8.001,3.28084E-5,0,0,0,0,0,0,32.3, 3.6, 0,0,0,1024,1024,1443,1024,0,0,63,0,31.7,0,0,64,3.998,3.991,0,0,0,0,1.084,102.2,3.28084E-5,0,10,Assisted_Takeoff,
23200,2022-08-16 02:01:08,0,0,0,,,3.28084E-5,0.328084,0,0,0,0,0,7.964,3.28084E-5,0,0,0,0,0,0,31.9, 3.6, 0,0,0,1024,1024,1447,1024,0,0,64,0,31.7,0,0,64,3.996,3.989,0,0,0,0,2.031,102.2,3.28084E-5,0,10,Assisted_Takeoff,
23300,2022-08-16 02:01:08,0,0,0,,,3.28084E-5,0.328084,0,0,0,0,0,7.964,3.28084E-5,0,0,0,0,0,0,32.1, 2.4, 0,0,0,1024,1024,1409,1024,0,0,58,0,31.7,0,0,64,3.996,3.989,0,0,0,0,2.031,102.2,3.28084E-5,0,10,Assisted_Takeoff,
23400,2022-08-16 02:01:08,0,0,0,,,3.28084E-5,0.328084,0,0,0,0,0,7.964,3.28084E-5,0,0,0,0,0,0,33.1, -1.1, 0.2,0,0,1024,1024,1409,1024,0,0,58,0,31.7,0,0,64,3.996,3.989,0,0,0,0,2.031,102.2,3.28084E-5,0,10,Assisted_Takeoff,
23500,2022-08-16 02:01:08,0,0,0,,,3.28084E-5,0.328084,0,0,0,0,0,7.964,3.28084E-5,0,0,0,0,0,-0.223694,33.9, -1.4, 0,0,0,1024,1024,1409,1024,0,0,58,0,31.8,0,0,64,3.996,3.989,0,0,0,0,2.031,102.2,3.28084E-5,0,6,P-GPS,"Señal débil del GPS. Vuelo estacionario inestable. Vuela con cuidado (Code: 30002)"
23600,2022-08-16 02:01:08,0,0,0,,,3.28084E-5,0.328084,0,0,0,0,0,7.964,3.28084E-5,0,0,0,0,0,-0.671082,33.6, -0.5, 0.3,0,0,1024,1024,1024,1024,0,0,0,0,31.9,0,0,64,3.996,3.989,0,0,0,0,2.031,102.2,3.28084E-5,0,6,P-GPS,
23700,2022-08-16 02:01:08,0,0,0,,,3.28084E-5,0.656168,0,0,0,0,0,7.964,3.28084E-5,0,0,0,0,0,-0.894776,33.7, -0.2, -0.2,0,0,1024,1024,1024,1024,0,0,0,0,32,0,0,64,3.996,3.989,0,0,0,0,2.031,102.2,3.28084E-5,0,6,P-GPS,
23800,2022-08-16 02:01:09,0,0,0.328084,,,0.3281168084,0.656168,0,0,0,0,0,7.964,0.3281168084,0.328084,0,0,0,0,-0.894776,33.8, 0.2, -0.2,0,0,1024,1024,1024,1024,0,0,0,0,32.1,0,0,64,3.996,3.989,0,0,0,0,2.031,102.2,0.3281168084,0.328084,6,P-GPS,
23900,2022-08-16 02:01:09,0,0,0.328084,,,0.3281168084,0.656168,0,0,0,0,0,7.964,0.3281168084,0.328084,0,0,0,0,-0.894776,33.6, 0.4, -0.4,0,0,1024,1024,1024,1024,0,0,0,0,32.1,0,0,64,3.996,3.989,0,0,0,0,2.031,102.2,0.3281168084,0.328084,6,P-GPS,
24000,2022-08-16 02:01:09,0,0,0.328084,,,0.3281168084,0.984252,0,0,0,0,0,7.964,0.3281168084,0.328084,0,0,0,0,-1.11847,33.6, 0.3, 0,0,0,1024,1024,1024,1024,0,0,0,0,32.2,0,0,64,3.996,3.989,0,0,0,0,2.031,102.2,0.3281168084,0.328084,6,P-GPS,
24100,2022-08-16 02:01:09,0,0,0.656168,,,0.6562008084,0.984252,0,0,0,0,0,7.964,0.6562008084,0.656168,0,0,0,0,-0.894776,33.6, 0, 0,0,0,1024,1024,1024,1024,0,0,0,0,32.2,0,0,64,3.996,3.989,0,0,0,0,2.031,102.2,0.6562008084,0.656168,6,P-GPS,
24200,2022-08-16 02:01:09,0,0,0.656168,,,0.6562008084,1.312336,0,0,0,0,0,7.964,0.6562008084,0.656168,0,0,0,0,-0.894776,33.6, 0, 0,0,0,1024,1024,1024,1024,0,0,0,0,32.3,0,0,64,3.996,3.989,0,0,0,0,2.031,102.2,0.6562008084,0.656168,6,P-GPS,
24300,2022-08-16 02:01:09,0,0,0.656168,,,0.6562008084,1.312336,0,0,0,0,0,7.947,0.6562008084,0.656168,0,0,0,0,-0.671082,33.5, 0, 0,0,0,1024,1024,1024,1024,0,0,0,0,32.3,0,0,64,3.961,3.947,0,0,0,0,2.536,102.2,0.6562008084,0.656168,6,P-GPS,
24400,2022-08-16 02:01:09,0,0,0.656168,,,0.6562008084,1.312336,0,0,0,0,0,7.947,0.6562008084,0.656168,0,0,0,0,-0.671082,33.5, 0, 0.1,0,0,1024,1024,1024,1024,0,0,0,0,32.4,0,0,64,3.961,3.947,0,0,0,0,2.536,102.2,0.6562008084,0.656168,6,P-GPS,
24500,2022-08-16 02:01:09,0,0,0.656168,,,0.6562008084,1.64042,0,0,0,0,0,7.947,0.6562008084,0.656168,0,0,0,0,-0.447388,33.5, 0, 0.1,0,0,1024,1024,1024,1024,0,0,0,0,32.4,0,0,64,3.961,3.947,0,0,0,0,2.536,102.2,0.6562008084,0.656168,6,P-GPS,
24600,2022-08-16 02:01:09,0,0,0.656168,,,0.6562008084,1.64042,0,0,0,0,0,7.947,0.6562008084,0.656168,0,0,0,0,-0.223694,33.5, 0, 0.1,0,0,1024,1024,1024,1024,0,0,0,0,32.4,0,0,64,3.961,3.947,0,0,0,0,2.536,102.2,0.6562008084,0.656168,6,P-GPS,
24700,2022-08-16 02:01:09,0,0,0.656168,,,0.6562008084,1.64042,0,0,0,0,0,7.947,0.6562008084,0.656168,0,0,0,0,-0.223694,33.5, 0.1, 0,0,0,1301,1024,1024,1024,42,0,0,0,32.5,0,0,64,3.961,3.947,0,0,0,0,2.536,102.2,0.6562008084,0.656168,1,Atti,"Señal del GPS demasiado débil. Se ha pasado al modo Atti. La aeronave no puede hacer vuelo estacionario. Vuela con precaución (Code: 30022). Señal débil del GPS. Vuelo estacionario inestable. Vuela con cuidado (Code: 30002). Aeronave en modo Atti. No"
24800,2022-08-16 02:01:10,0,0,0.656168,,,0.6562008084,1.64042,0,0,0,0,0,7.947,0.6562008084,0.656168,0,0,0,0,0,33.6, -0.4, 0,0,0,1490,1024,1024,1024,71,0,0,0,32.5,0,0,64,3.961,3.947,0,0,0,0,2.536,102.2,0.6562008084,0.656168,6,P-GPS,"Vuela con cuidado (modo Atti) La brújula no funciona bien el GPS no tiene buena señal. Cambia a modo Atti (Code: 30020). Aeronave en modo Atti. No se puede hacer vuelo estacionario. Vuela con cuidado (Code: 30004). Señal débil del GPS. Vuelo estacionario inestable. Vuela con cuid"
24900,2022-08-16 02:01:10,0,0,0.656168,,,0.6562008084,1.64042,0,0,0,0,0,7.947,0.6562008084,0.656168,0,0,0,0,0,33.6, -6.9, 0,0,0,1276,1024,1024,1024,38,0,0,0,32.5,0,0,64,3.961,3.947,0,0,0,0,2.536,102.2,0.6562008084,0.656168,6,P-GPS,
25000,2022-08-16 02:01:10,0,0,0.656168,,,0.6562008084,1.64042,0.3131716,0,0,0,0,7.947,0.6562008084,0.656168,0,0,0.223694,0.223694,0,33.6, -11.4, 0.1,0,0,1067,1024,1024,1024,7,0,0,0,32.6,0,0,64,3.961,3.947,0,0,0,0,2.536,102.2,0.6562008084,0.656168,6,P-GPS,
25100,2022-08-16 02:01:10,0,0,0.656168,,,0.6562008084,1.64042,0.8052984,0,0,0,0,7.947,0.6562008084,0.656168,0,0,0.671082,0.447388,0,33.6, -9.2, 0.1,0,0,1024,1024,1024,1024,0,0,0,0,32.6,0,0,64,3.961,3.947,0,0,0,0,2.536,102.2,0.6562008084,0.656168,6,P-GPS,
25200,2022-08-16 02:01:10,0,0,0.328084,,,0.3281168084,1.64042,1.006623,0,0,0,0,7.947,0.6562008084,0.656168,0,0,0.894776,0.447388,0,33.5, -2.6, 0.1,0,0,1024,1024,1024,1024,0,0,0,0,32.6,0,0,64,3.961,3.947,0,0,0,0,2.536,102.2,0.3281168084,0.328084,6,P-GPS,
25300,2022-08-16 02:01:10,0,0,0.328084,,,0.3281168084,1.64042,1.006623,0,0,0,0,7.914,0.6562008084,0.656168,0,0,0.894776,0.447388,0,33.3, 3.8, 0.1,0,0,1024,1024,1024,1024,0,0,0,0,32.6,0,0,64,3.962,3.949,0,0,0,0,4.158,102.2,0.3281168084,0.328084,6,P-GPS,
25400,2022-08-16 02:01:10,0,0,0.328084,,,0.3281168084,1.64042,0.8052984,0,0,0,0,7.914,0.6562008084,0.656168,0,0,0.671082,0.447388,0,32.9, 5, 0,0,0,1024,1024,1024,1024,0,0,0,0,32.6,0,0,64,3.962,3.949,0,0,0,0,4.158,102.2,0.3281168084,0.328084,6,P-GPS,
25500,2022-08-16 02:01:10,0,0,0.328084,,,0.3281168084,1.64042,0.8052984,0,0,0,0,7.914,0.6562008084,0.656168,0,0,0.671082,0.447388,0,32.7, 4.6, 0,0,0,1024,1024,1024,1024,0,0,0,0,32.6,0,0,64,3.962,3.949,0,0,0,0,4.158,102.2,0.3281168084,0.328084,6,P-GPS,
25600,2022-08-16 02:01:10,0,0,0.328084,,,0.3281168084,1.64042,0.4921268,0,0,0,0,7.914,0.6562008084,0.656168,0,0,0.447388,0.223694,0,32.6, 3.9, 0,0,0,1024,1024,1024,1024,0,0,0,0,32.6,0,0,64,3.962,3.949,0,0,0,0,4.158,102.2,0.3281168084,0.328084,6,P-GPS,
25700,2022-08-16 02:01:10,0,0,0.328084,,,0.3281168084,1.64042,0.3131716,0,0,0,0,7.914,0.6562008084,0.656168,0,0,0.223694,0.223694,0,32.6, 3.3, -0.1,0,0,1175,1024,1024,1024,23,0,0,0,32.6,0,0,64,3.962,3.949,0,0,0,0,4.158,102.2,0.3281168084,0.328084,6,P-GPS,
25800,2022-08-16 02:01:11,0,0,0.328084,,,0.3281168084,1.64042,0.223694,0,0,0,0,7.914,0.6562008084,0.656168,0,0,0.223694,0,0,32.6, 2.3, 0,0,0,1201,1024,1024,1024,27,0,0,0,32.6,0,0,64,3.962,3.949,0,0,0,0,4.158,102.2,0.3281168084,0.328084,6,P-GPS,
25900,2022-08-16 02:01:11,0,0,0.328084,,,0.3281168084,1.64042,0.223694,0,0,0,0,7.914,0.6562008084,0.656168,0,0,0.223694,0,0,32.6, -0.3, 0,0,0,1198,1024,1024,1024,26,0,0,0,32.6,0,0,64,3.962,3.949,0,0,0,0,4.158,102.2,0.3281168084,0.328084,6,P-GPS,
26000,2022-08-16 02:01:11,0,0,0.328084,,,0.3281168084,1.64042,0.223694,0,0,0,0,7.914,0.6562008084,0.656168,0,0,0.223694,0,0,32.6, -1.7, 0,0,0,1195,1024,1024,1024,26,0,0,0,32.6,0,0,64,3.962,3.949,0,0,0,0,4.158,102.2,0.3281168084,0.328084,6,P-GPS,
26100,2022-08-16 02:01:11,0,0,0.328084,,,0.3281168084,1.64042,0.223694,0,0,0,0,7.914,0.6562008084,0.656168,0,0,0.223694,0.223694,0,32.5, -2, 0,0,0,1180,1024,1024,1024,24,0,0,0,32.6,0,0,64,3.962,3.949,0,0,0,0,4.158,102.2,0.3281168084,0.328084,6,P-GPS,
26200,2022-08-16 02:01:11,0,0,0.328084,,,0.3281168084,1.64042,0.4921268,0,0,0,0,7.914,0.6562008084,0.656168,0,0,0.447388,0.223694,0,32.5, -2, 0,0,0,1180,1024,1024,1024,24,0,0,0,32.6,0,0,64,3.962,3.949,0,0,0,0,4.158,102.2,0.3281168084,0.328084,6,P-GPS,
26300,2022-08-16 02:01:11,0,0,0.328084,,,0.3281168084,1.64042,0.4921268,0,0,0,0,7.899,0.6562008084,0.656168,0,0,0.447388,0.223694,0,32.5, -1.6, 0,0,0,1176,1024,1024,1024,23,0,0,0,32.6,0,0,64,3.957,3.943,0,0,0,0,4.379,102.2,0.3281168084,0.328084,6,P-GPS,
26400,2022-08-16 02:01:11,0,0,0.328084,,,0.3281168084,1.64042,0.4921268,0,0,0,0,7.899,0.6562008084,0.656168,0,0,0.447388,0.223694,0,32.5, -1.4, 0,0,0,1174,1024,1024,1024,23,0,0,0,32.6,0,0,64,3.957,3.943,0,0,0,0,4.379,102.2,0.3281168084,0.328084,6,P-GPS,
26500,2022-08-16 02:01:11,0,0,0.328084,,,0.3281168084,1.64042,0.8052984,0,0,0,0,7.899,0.6562008084,0.656168,0,0,0.671082,0.447388,0,32.5, -1.2, 0,0,0,1175,1024,1024,1024,23,0,0,0,32.6,0,0,64,3.957,3.943,0,0,0,0,4.379,102.2,0.3281168084,0.328084,6,P-GPS,
