time(millisecond),datetime(utc),latitude,longitude,height_above_takeoff(feet),height_above_ground_at_drone_location(feet),ground_elevation_at_drone_location(feet),altitude_above_seaLevel(feet),height_sonar(feet),speed(mph),distance(feet),mileage(feet),satellites,gpslevel,voltage(v),max_altitude(feet),max_ascent(feet),max_speed(mph),max_distance(feet), xSpeed(mph), ySpeed(mph), zSpeed(mph), compass_heading(degrees), pitch(degrees), roll(degrees),isPhoto,isVideo,rc_elevator,rc_aileron,rc_throttle,rc_rudder,rc_elevator(percent),rc_aileron(percent),rc_throttle(percent),rc_rudder(percent),gimbal_heading(degrees),gimbal_pitch(degrees),gimbal_roll(degrees),battery_percent,voltageCell1,voltageCell2,voltageCell3,voltageCell4,voltageCell5,voltageCell6,current(A),battery_temperature(f),altitude(feet),ascent(feet),flycStateRaw,flycState,message
1155100,2022-08-24 01:10:40,-34.9065234401097,-56.1631280770998,0,0,119.75481354344,119.68919674344,0,0,0,0,19,5,0,119.68919674344,0,0,0,-0.223694,0,0,236.6, -8.2, 0.3,0,0,364,364,364,1684,-100,-100,-100,100,252.4,0,0,29,3.755,3.751,0,0,0,0,0,99.68,119.68919674344,0,41,Motors_Started,"En vuelo. Setting new Return-To-Home altitude to 100m (328 ft). Data Recorder File Index is 6. Setting new Maximum Flight Altitude to 120m (394 ft) Aeronave en Zona de altitud restringida (150). Vuela con precaución (Code: 190001)"
1155200,2022-08-24 01:10:40,-34.9065235024449,-56.1631280921322,0,0.032808399999993,119.72200514344,119.68919674344,0,0,2.96629602668,0.0231834653088,19,5,0,119.68919674344,0,0,2.96629602668,0,0,0,239.2, -6.5, -0.8,0,0,364,364,364,1684,-100,-100,-100,100,253.6,0,0,29,3.755,3.751,0,0,0,0,0,99.68,119.68919674344,0,41,Motors_Started,
1155300,2022-08-24 01:10:40,-34.9065235029921,-56.1631280796383,0,0.032808399999993,119.72200514344,119.68919674344,0.328084,0,2.96331046228,0.0269270677908,19,5,0,119.68919674344,0,0,2.96629602668,0,0,0,240.6, -4.8, 0.5,0,0,364,364,364,1684,-100,-100,-100,100,255.8,0,0,29,3.755,3.751,0,0,0,0,0,99.68,119.68919674344,0,41,Motors_Started,
1155400,2022-08-24 01:10:40,-34.9065233413234,-56.1631280018832,0,0,119.75481354344,119.68919674344,0.328084,0.223694,2.9841864472,0.090333992392,19,5,7.505,119.68919674344,0,0.223694,2.9841864472,-0.223694,0,0,239.1, -6.6, 0,0,0,364,364,364,1684,-100,-100,-100,100,256.2,0,0,29,3.755,3.751,0,0,0,0,0.63,99.68,119.68919674344,0,41,Motors_Started,
1155500,2022-08-24 01:10:40,-34.9065233514588,-56.1631280116428,0,0,119.75481354344,119.68919674344,0.328084,0,2.9839403842,0.0950459348,19,5,7.505,119.68919674344,0,0.223694,2.9841864472,0,0,0,239.6, -6.6, 0,0,0,364,364,364,1684,-100,-100,-100,100,255.9,0,0,29,3.755,3.751,0,0,0,0,0.63,99.68,119.68919674344,0,41,Motors_Started,
1155600,2022-08-24 01:10:41,-34.9065233578179,-56.1631280195141,0,0,119.75481354344,119.68919674344,0.328084,0,2.9841864472,0.098352037268,19,5,7.505,119.68919674344,0,0.223694,2.9841864472,0,0,0,240.4, -5.9, -0.1,0,0,570,364,364,1684,-69,-100,-100,100,256.2,0,0,29,3.755,3.751,0,0,0,0,0.63,99.68,119.68919674344,0,41,Motors_Started,
1155700,2022-08-24 01:10:41,-34.9065234517189,-56.163128115096,0,0,119.75481354344,119.68919674344,0.328084,0.223694,2.98349418996,0.142979663368,19,5,7.505,119.68919674344,0,0.223694,2.9841864472,-0.223694,0,0,240.2, -6.6, -0.7,0,0,754,364,412,1684,-41,-100,-93,100,256.7,0,0,29,3.755,3.751,0,0,0,0,0.63,99.68,119.68919674344,0,41,Motors_Started,
1155800,2022-08-24 01:10:41,-34.9065235910062,-56.1631282403116,0,0.032808399999993,119.72200514344,119.68919674344,0.328084,0,2.97984917672,0.206116148328,19,5,7.505,119.68919674344,0,0.223694,2.9841864472,0,0,0,239.7, -6.9, -0.3,0,0,825,364,439,1684,-30,-100,-89,100,256.4,0,0,29,3.755,3.751,0,0,0,0,0.63,99.68,119.68919674344,0,41,Motors_Started,
1155900,2022-08-24 01:10:41,-34.9065237837309,-56.1631286962966,0,0.065616799999987,119.68919674344,119.68919674344,0.328084,0,3.04462936252,0.35960302988,19,5,7.505,119.68919674344,0,0.223694,3.04462936252,0,0,0,239.5, -7.1, -0.4,0,0,828,364,559,1684,-30,-100,-70,100,256.2,0,0,29,3.755,3.751,0,0,0,0,0.63,99.68,119.68919674344,0,41,Motors_Started,
1156000,2022-08-24 01:10:41,-34.9065239275828,-56.1631288371688,0,0.065616799999987,119.68919674344,119.68919674344,0.328084,0,3.04808736788,0.426919305,19,5,7.505,119.68919674344,0,0.223694,3.04808736788,0,0,0,239.3, -6.5, 0,0,0,828,364,559,1684,-30,-100,-70,100,256,0,0,29,3.755,3.751,0,0,0,0,0.63,99.68,119.68919674344,0,41,Motors_Started,
1156100,2022-08-24 01:10:41,-34.9065240323715,-56.1631289742568,0,0.065616799999987,119.68919674344,119.68919674344,0.328084,0,3.06006899556,0.48299214144,19,5,7.505,119.68919674344,0,0.223694,3.06006899556,0,0,0,239.6, -6.7, -0.4,0,0,1024,889,854,1326,0,-20,-26,46,256,0,0,29,3.755,3.751,0,0,0,0,0.63,99.68,119.68919674344,0,41,Motors_Started,
1156200,2022-08-24 01:10:41,-34.9065241461721,-56.1631291025542,-0.328084,-0.26246720000001,119.68919674344,119.36111274344,0.328084,0,3.06902568876,0.53953741884,18,5,7.505,119.68919674344,0,0.223694,3.06902568876,0,0,0,239.6, -7.1, -0.5,0,0,1024,1024,1024,1024,0,0,0,0,256,0,0,29,3.755,3.751,0,0,0,0,0.63,99.68,119.36111274344,-0.328084,10,Assisted_Takeoff,
1156300,2022-08-24 01:10:41,-34.9065243163819,-56.1631292587356,-0.328084,-0.26246720000001,119.68919674344,119.36111274344,0.328084,0,3.075213353,0.6172572376,18,5,7.505,119.68919674344,0,0.223694,3.075213353,0,0,0,240, -6.7, -0.6,0,0,1024,1024,1024,1024,0,0,0,0,256,0,0,29,3.755,3.751,0,0,0,0,0.63,99.68,119.36111274344,-0.328084,10,Assisted_Takeoff,
1156400,2022-08-24 01:10:41,-34.9065245291023,-56.1631294384318,-0.328084,-0.22965880000002,119.65638834344,119.36111274344,0.328084,0,3.0816602036,0.71167325112,18,5,7.482,119.68919674344,0,0.223694,3.0816602036,0,0,0,240.4, -6.9, -1.2,0,0,1024,1024,1024,1024,0,0,0,0,256.4,0,0,29,3.742,3.737,0,0,0,0,1.355,99.86,119.36111274344,-0.328084,10,Assisted_Takeoff,
1156500,2022-08-24 01:10:42,-34.9065246289357,-56.1631294989843,-0.328084,-0.22965880000002,119.65638834344,119.36111274344,0.328084,0,3.07946532164,0.75235566712,18,5,7.482,119.68919674344,0,0.223694,3.0816602036,0,0,0,241.1, -6.5, -1,0,0,1024,1024,1024,1024,0,0,0,0,256.9,0,0,29,3.742,3.737,0,0,0,0,1.355,99.86,119.36111274344,-0.328084,10,Assisted_Takeoff,
1156600,2022-08-24 01:10:42,-34.9065247224214,-56.1631295142334,-0.328084,-0.1968504,119.62357994344,119.36111274344,0.328084,0,3.0669948488,0.78676511704,18,5,7.482,119.68919674344,0,0.223694,3.0816602036,0,0,0,241.1, -6.6, -1.4,0,0,1024,1024,1024,1024,0,0,0,0,257.3,0,0,29,3.742,3.737,0,0,0,0,1.355,99.86,119.36111274344,-0.328084,10,Assisted_Takeoff,
1156700,2022-08-24 01:10:42,-34.9065245677404,-56.1631291895256,-0.328084,-0.22965880000002,119.65638834344,119.36111274344,0.328084,0,3.01018382336,0.89912404452,18,5,7.482,119.68919674344,0,0.223694,3.0816602036,0,0,0,241.1, -7.6, -1.6,0,0,1024,1024,1024,1024,0,0,0,0,257.4,0,0,29,3.742,3.737,0,0,0,0,1.355,99.86,119.36111274344,-0.328084,10,Assisted_Takeoff,
1156800,2022-08-24 01:10:42,-34.9065246129297,-56.163129093949,-0.328084,-0.22965880000002,119.65638834344,119.36111274344,0.328084,0,2.97717529212,0.93213257576,18,5,7.482,119.68919674344,0,0.223694,3.0816602036,0,0,0,240.7, -7, -0.6,0,0,1024,1024,1024,1024,0,0,0,0,257.2,0,0,29,3.742,3.737,0,0,0,0,1.355,99.86,119.36111274344,-0.328084,10,Assisted_Takeoff,
1156900,2022-08-24 01:10:42,-34.9065246549794,-56.1631290674569,-0.328084,-0.22965880000002,119.65638834344,119.36111274344,0.328084,0,2.96258867748,0.94940291752,18,5,7.482,119.68919674344,0,0.223694,3.0816602036,0,0,0,240.7, -7.7, -1,0,0,1024,1024,1024,1024,0,0,0,0,257.1,0,0,29,3.742,3.737,0,0,0,0,1.355,99.86,119.36111274344,-0.328084,10,Assisted_Takeoff,
1157000,2022-08-24 01:10:42,-34.9065246983009,-56.1631290583163,-0.328084,-0.22965880000002,119.65638834344,119.36111274344,0.328084,0,2.9522966824,0.96544294428,18,5,7.482,119.68919674344,0,0.223694,3.0816602036,0,0,0,240.7, -7.3, -0.8,0,0,1024,1024,1024,1024,0,0,0,0,257.1,0,0,29,3.742,3.737,0,0,0,0,1.355,99.86,119.36111274344,-0.328084,10,Assisted_Takeoff,
1157100,2022-08-24 01:10:42,-34.9065246562186,-56.1631289669496,-0.328084,-0.22965880000002,119.65638834344,119.36111274344,0.328084,0,2.93641413596,0.99679793216,18,5,7.482,119.68919674344,0,0.223694,3.0816602036,0,0,0,241, -7, -0.5,0,0,1024,1024,1024,1024,0,0,0,0,257.1,0,0,29,3.742,3.737,0,0,0,0,1.355,99.86,119.36111274344,-0.328084,10,Assisted_Takeoff,
1157200,2022-08-24 01:10:42,-34.9065247031374,-56.1631289176896,-0.328084,-0.22965880000002,119.65638834344,119.36111274344,0.328084,0,2.91503290168,1.01938651556,18,5,7.482,119.68919674344,0,0.223694,3.0816602036,0,0,0,241.4, -6.9, -0.3,0,0,1024,1024,1024,1024,0,0,0,0,257.4,0,0,29,3.742,3.737,0,0,0,0,1.355,99.86,119.36111274344,-0.328084,10,Assisted_Takeoff,
1157300,2022-08-24 01:10:42,-34.9065247299692,-56.1631289324399,-0.328084,-0.22965880000002,119.65638834344,119.36111274344,0.328084,0,2.91391413524,1.03012470488,18,5,7.482,119.68919674344,0,0.223694,3.0816602036,0,0,0,241.6, -6.9, -0.4,0,0,1024,1024,1284,1024,0,0,39,0,257.7,0,0,29,3.742,3.737,0,0,0,0,1.355,99.86,119.36111274344,-0.328084,10,Assisted_Takeoff,
1157400,2022-08-24 01:10:42,-34.9065247583351,-56.163128957365,-0.328084,-0.22965880000002,119.65638834344,119.36111274344,0.328084,0,2.915190382,1.0428806108,18,5,7.491,119.68919674344,0,0.223694,3.0816602036,0,0,0,241.5, -6.6, -0.2,0,0,1024,1024,1526,1024,0,0,76,0,257.9,0,0,29,3.748,3.743,0,0,0,0,1.273,99.68,119.36111274344,-0.328084,10,Assisted_Takeoff,
1157500,2022-08-24 01:10:43,-34.9065247986603,-56.1631289528208,-0.328084,-0.22965880000002,119.65638834344,119.36111274344,0.328084,0,2.90669956808,1.05765751416,18,5,7.491,119.68919674344,0,0.223694,3.0816602036,0,0,0,241.1, -5.3, 0.5,0,0,1024,1024,1441,1024,0,0,63,0,257.9,0,0,29,3.748,3.743,0,0,0,0,1.273,99.68,119.36111274344,-0.328084,10,Assisted_Takeoff,
1157600,2022-08-24 01:10:43,-34.9065247774791,-56.1631290113154,-0.328084,-0.22965880000002,119.65638834344,119.36111274344,0.328084,0,2.92573500176,1.0767880922,18,5,7.491,119.68919674344,0,0.223694,3.0816602036,0,0,0,240.7, -4.5, 1.8,0,0,1024,1024,1049,1024,0,0,4,0,257.6,0,0,29,3.748,3.743,0,0,0,0,1.273,99.68,119.36111274344,-0.328084,10,Assisted_Takeoff,
1157700,2022-08-24 01:10:43,-34.9065247921839,-56.1631290007097,-0.328084,-0.22965880000002,119.65638834344,119.36111274344,0.328084,0,2.9203248966,1.0830216882,18,5,7.491,119.68919674344,0,0.223694,3.0816602036,0,0,0,240.9, -3.9, 2,0,0,1024,1024,1024,1024,0,0,0,0,257.5,0,0,29,3.748,3.743,0,0,0,0,1.273,99.68,119.36111274344,-0.328084,10,Assisted_Takeoff,
1157800,2022-08-24 01:10:43,-34.9065247946901,-56.163128984126,-0.328084,-0.22965880000002,119.65638834344,119.36111274344,0.328084,0,2.91555783608,1.08806762012,18,5,7.491,119.68919674344,0,0.223694,3.0816602036,0,0,0,240.6, -4.1, 2,0,0,1024,1024,1024,1024,0,0,0,0,257.5,0,0,29,3.748,3.743,0,0,0,0,1.273,99.68,119.36111274344,-0.328084,10,Assisted_Takeoff,
1157900,2022-08-24 01:10:43,-34.9065248321932,-56.1631290089441,-0.328084,-0.22965880000002,119.65638834344,119.36111274344,0.328084,0,2.91529864972,1.10363520592,18,5,7.491,119.68919674344,0,0.223694,3.0816602036,0,0,0,241.3, -5.4, 1.2,0,0,1024,1024,1024,1024,0,0,0,0,257.5,0,0,29,3.748,3.743,0,0,0,0,1.273,99.68,119.36111274344,-0.328084,10,Assisted_Takeoff,
1158000,2022-08-24 01:10:43,-34.9065248150603,-56.1631291520648,-0.328084,-0.22965880000002,119.65638834344,119.36111274344,0.328084,0,2.9557415644,1.14691276636,18,5,7.491,119.68919674344,0,0.223694,3.0816602036,0,0,0,241.5, -6.1, 0.5,0,0,1024,1024,1024,1024,0,0,0,0,257.8,0,0,29,3.748,3.743,0,0,0,0,1.273,99.68,119.36111274344,-0.328084,10,Assisted_Takeoff,
1158100,2022-08-24 01:10:43,-34.9065248839142,-56.1631291918656,-0.328084,-0.22965880000002,119.65638834344,119.36111274344,0.328084,0,2.95411098692,1.17471132368,18,5,7.491,119.68919674344,0,0.223694,3.0816602036,0,0,0,241.3, -6.5, 0,0,0,1024,1024,1075,1024,0,0,8,0,257.8,0,0,29,3.748,3.743,0,0,0,0,1.273,99.68,119.36111274344,-0.328084,10,Assisted_Takeoff,
1158200,2022-08-24 01:10:43,-34.9065249744215,-56.163129238023,-0.328084,-0.22965880000002,119.65638834344,119.36111274344,0.328084,0,2.95073172172,1.21050528808,18,5,7.491,119.68919674344,0,0.223694,3.0816602036,0,0,0,241.1, -7.7, -0.2,0,0,1024,1024,1333,1024,0,0,47,0,257.8,0,0,29,3.748,3.743,0,0,0,0,1.273,99.68,119.36111274344,-0.328084,10,Assisted_Takeoff,
1158300,2022-08-24 01:10:43,-34.9065250505936,-56.1631293280552,-0.328084,-0.22965880000002,119.65638834344,119.36111274344,0.328084,0,2.96185376932,1.24920935756,18,5,7.491,119.68919674344,0,0.223694,3.0816602036,0,0,0,240.4, -6.7, 0.5,0,0,1024,1024,1684,1024,0,0,100,0,257.5,0,0,29,3.748,3.743,0,0,0,0,1.273,99.68,119.36111274344,-0.328084,10,Assisted_Takeoff,
1158400,2022-08-24 01:10:43,-34.9065251871891,-56.1631295829367,-0.328084,-0.1968504,119.62357994344,119.36111274344,0.328084,0,3.0081529834,1.34031172268,18,5,7.465,119.68919674344,0,0.223694,3.0816602036,0,0,0,240.5, -6.1, 0.6,0,0,1024,1024,1684,1024,0,0,100,0,257.2,0,0,28,3.74,3.734,0,0,0,0,1.653,99.68,119.36111274344,-0.328084,10,Assisted_Takeoff,
1158500,2022-08-24 01:10:44,-34.906525259948,-56.1631296456934,-0.328084,-0.1968504,119.62357994344,119.36111274344,0.328084,0,3.01381899408,1.37282812792,18,5,7.465,119.68919674344,0,0.223694,3.0816602036,0,0,0,240.8, -5.7, 0.5,0,0,1024,1024,1684,1024,0,0,100,0,257.2,0,0,28,3.74,3.734,0,0,0,0,1.653,99.68,119.36111274344,-0.328084,10,Assisted_Takeoff,
1158600,2022-08-24 01:10:44,-34.9065253489115,-56.1631297014797,-0.328084,-0.1968504,119.62357994344,119.36111274344,0.328084,0,3.01549550332,1.40932747292,18,5,7.465,119.68919674344,0,0.223694,3.0816602036,0,0,0,240.6, -5.4, 0,0,0,1024,1024,1684,1024,0,0,100,0,257.2,0,0,28,3.74,3.734,0,0,0,0,1.653,99.68,119.36111274344,-0.328084,10,Assisted_Takeoff,
1158700,2022-08-24 01:10:44,-34.9065254258034,-56.1631297592222,0,0.1312336,119.62357994344,119.68919674344,0.328084,0,3.01990823312,1.4422736682,18,5,7.465,119.68919674344,0,0.223694,3.0816602036,0,0,0,240.9, -4.3, -0.1,0,0,1024,1024,1684,1024,0,0,100,0,257.2,0,0,28,3.74,3.734,0,0,0,0,1.653,99.68,119.68919674344,0,10,Assisted_Takeoff,
1158800,2022-08-24 01:10:44,-34.9065254195518,-56.1631299379495,0,0.1312336,119.62357994344,119.68919674344,0.328084,0,3.06987870716,1.4958005728,18,5,7.465,119.68919674344,0,0.223694,3.0816602036,0,0,0,241.2, -3.2, 1.4,0,0,1024,1024,1684,1024,0,0,100,0,257.3,0,0,28,3.74,3.734,0,0,0,0,1.653,99.68,119.68919674344,0,10,Assisted_Takeoff,
1158900,2022-08-24 01:10:44,-34.9065254863115,-56.1631300343227,0,0.1312336,119.62357994344,119.68919674344,0.328084,0,3.08693579432,1.533546637,18,5,7.465,119.68919674344,0,0.223694,3.08693579432,0,0,0,241.7, -2.2, 1.9,0,0,1024,1024,1684,1024,0,0,100,0,257.6,0,0,28,3.74,3.734,0,0,0,0,1.653,99.68,119.68919674344,0,10,Assisted_Takeoff,
1159000,2022-08-24 01:10:44,-34.9065255611727,-56.1631301482275,0,0.19685039999998,119.55796314344,119.68919674344,0.328084,0,3.1081201782,1.57722117908,18,5,7.465,119.68919674344,0,0.223694,3.1081201782,0,0,0,242.2, -1.8, 1.9,0,0,1024,1024,1684,1024,0,0,100,0,258,0,0,28,3.74,3.734,0,0,0,0,1.653,99.68,119.68919674344,0,10,Assisted_Takeoff,
1159100,2022-08-24 01:10:44,-34.906525653836,-56.1631303178978,0,0.19685039999998,119.55796314344,119.68919674344,0.328084,0,3.14299222656,1.63821527552,18,5,7.465,119.68919674344,0,0.223694,3.14299222656,0,0,-0.447388,242.6, -1.4, 2,0,0,1024,1024,1684,1024,0,0,100,0,258.3,0,0,28,3.74,3.734,0,0,0,0,1.653,99.68,119.68919674344,0,38,Tripod,
1159200,2022-08-24 01:10:44,-34.9065257452455,-56.1631305539627,0,0.22965879999998,119.52515474344,119.68919674344,0.656168,0.223694,3.1974738556,1.71632551424,18,5,7.465,119.68919674344,0,0.223694,3.1974738556,0,-0.223694,-1.11847,242.3, 0.6, 0.4,0,0,1024,1024,1678,1024,0,0,99,0,258.3,0,0,28,3.74,3.734,0,0,0,0,1.653,99.68,119.68919674344,0,38,Tripod,
1159300,2022-08-24 01:10:44,-34.9065258199308,-56.1631309989712,0,0.22965879999998,119.52515474344,119.68919674344,0.656168,0.223694,3.3140421008,1.85223431124,18,5,7.465,119.68919674344,0,0.223694,3.3140421008,0,-0.223694,-1.789552,242, 1.5, -0.4,0,0,1024,1024,1024,1024,0,0,0,0,258.3,0,0,28,3.74,3.734,0,0,0,0,1.653,99.68,119.68919674344,0,38,Tripod,
1159400,2022-08-24 01:10:44,-34.906525841379,-56.1631312887384,0.328084,0.55774279999998,119.52515474344,120.01728074344,1.312336,0.223694,3.3937993212,1.9392881198,19,5,7.435,120.01728074344,0.328084,0.223694,3.3937993212,0,-0.223694,-2.460634,241.9, 1.5, -1,0,0,1024,1024,1024,1024,0,0,0,0,258.3,0,0,28,3.706,3.693,0,0,0,0,2.705,99.68,120.01728074344,0.328084,38,Tripod,
1159500,2022-08-24 01:10:45,-34.9065258853861,-56.1631315321132,0.984252,1.2139108,119.52515474344,120.67344874344,1.968504,0,3.4582022104,2.01385833216,19,5,7.435,120.67344874344,0.984252,0.223694,3.4582022104,0,0,-2.684328,241.8, 1.4, -1,0,0,1024,1024,1024,1024,0,0,0,0,258.3,0,0,28,3.706,3.693,0,0,0,0,2.705,99.68,120.67344874344,0.984252,38,Tripod,
1159600,2022-08-24 01:10:45,-34.9065259474103,-56.1631317575045,1.312336,1.5419948,119.52515474344,121.00153274344,2.624672,0,3.515912186,2.0849902242,19,5,7.435,121.00153274344,1.312336,0.223694,3.515912186,0,0,-2.460634,241.9, 1.1, -0.7,0,0,1024,1024,1024,1024,0,0,0,0,258.3,0,0,28,3.706,3.693,0,0,0,0,2.705,99.68,121.00153274344,1.312336,38,Tripod,
1159700,2022-08-24 01:10:45,-34.9065259487456,-56.1631321459771,1.64042,1.8700788,119.52515474344,121.32961674344,2.952756,0,3.6271654704,2.20122710456,19,5,7.435,121.32961674344,1.64042,0.223694,3.6271654704,0,0,-2.013246,241.9, 1.3, -0.2,0,0,1024,1024,1024,1024,0,0,0,0,258.3,0,0,28,3.706,3.693,0,0,0,0,2.705,99.68,121.32961674344,1.64042,38,Tripod,
1159800,2022-08-24 01:10:45,-34.9065259983415,-56.1631323026207,1.968504,2.1981628,119.52515474344,121.65770074344,3.28084,0,3.6671917184,2.25146660748,18,5,7.435,121.65770074344,1.968504,0.223694,3.6671917184,0,0,-1.565858,241.9, 1.3, 0.1,0,0,1024,1024,1024,1024,0,0,0,0,258.3,0,0,28,3.706,3.693,0,0,0,0,2.705,99.68,121.65770074344,1.968504,38,Tripod,
1159900,2022-08-24 01:10:45,-34.9065260131538,-56.1631322163727,1.968504,2.1981628,119.52515474344,121.65770074344,3.608924,0,3.64091219,2.27783471856,18,5,7.435,121.65770074344,1.968504,0.223694,3.6671917184,0,0,-1.11847,241.9, 1.2, 0.1,0,0,1024,1024,1024,1024,0,0,0,0,258.3,0,0,28,3.706,3.693,0,0,0,0,2.705,99.68,121.65770074344,1.968504,38,Tripod,
1160000,2022-08-24 01:10:45,-34.9065260127548,-56.1631320294868,2.296588,2.5262468,119.52515474344,121.98578474344,3.608924,0,3.5872048392,2.33375335552,18,5,7.435,121.98578474344,2.296588,0.223694,3.6671917184,0,0,-0.671082,241.9, 1.1, 0.1,0,0,1024,1024,1024,1024,0,0,0,0,258.3,0,0,28,3.706,3.693,0,0,0,0,2.705,99.68,121.98578474344,2.296588,38,Tripod,
1160100,2022-08-24 01:10:45,-34.906525853765,-56.1631315369264,2.296588,2.5262468,119.52515474344,121.98578474344,3.937008,0,3.4630578536,2.49213590652,18,5,7.435,121.98578474344,2.296588,0.223694,3.6671917184,0,0,-0.223694,241.9, 1.1, 0.2,0,0,1024,1024,1024,1024,0,0,0,0,258.3,0,0,28,3.706,3.693,0,0,0,0,2.705,99.68,121.98578474344,2.296588,38,Tripod,"Punto de origen actualizado. Altitud de RPO establecida en 100m (Code: 3000001)"
1160200,2022-08-24 01:10:45,-34.9065258283466,-56.1631315569469,2.296588,2.5262468,119.52515474344,121.98578474344,3.937008,0,3.4715880376,2.50317593312,18,5,7.435,121.98578474344,2.296588,0.223694,3.6671917184,0,0,0,241.9, 0.8, 0,0,0,1024,1024,1024,1024,0,0,0,0,258.3,0,0,28,3.706,3.693,0,0,0,0,2.705,99.68,121.98578474344,2.296588,38,Tripod,
1160300,2022-08-24 01:10:45,-34.9065257530669,-56.1631317218249,2.296588,2.5262468,119.52515474344,121.98578474344,3.937008,0,3.5269686168,2.55963918952,18,5,7.435,121.98578474344,2.296588,0.223694,3.6671917184,0,0,0,241.9, 0.7, 0,0,0,1024,1024,1024,1024,0,0,0,0,258.3,0,0,28,3.706,3.693,0,0,0,0,2.705,99.68,121.98578474344,2.296588,38,Tripod,
1160400,2022-08-24 01:10:45,-34.9065256596691,-56.1631319312515,2.296588,2.5262468,119.52515474344,121.98578474344,3.937008,0,3.5971457844,2.63096793196,19,5,7.413,121.98578474344,2.296588,0.223694,3.6671917184,0,0,0,241.8, 0.7, -0.5,0,0,1024,1024,1024,1024,0,0,0,0,258.3,0,0,28,3.714,3.706,0,0,0,0,5.041,99.68,121.98578474344,2.296588,38,Tripod,
1160500,2022-08-24 01:10:45,-34.9065253312527,-56.1631323643589,2.296588,2.4934384,119.55796314344,121.98578474344,3.937008,0,3.7583990704,2.8074640006,19,5,7.413,121.98578474344,2.296588,0.223694,3.7583990704,0,0,0,241.8, 1, -0.8,0,0,1024,1024,1024,1024,0,0,0,0,258.3,0,0,28,3.714,3.706,0,0,0,0,5.041,99.68,121.98578474344,2.296588,38,Tripod,
1160600,2022-08-24 01:10:46,-34.9065252418022,-56.1631324223207,2.296588,2.4934384,119.55796314344,121.98578474344,3.937008,0,3.7856628508,2.84441938236,19,5,7.413,121.98578474344,2.296588,0.223694,3.7856628508,0,0,0,241.8, 0.8, -0.5,0,0,1024,1024,1024,1024,0,0,0,0,258.3,0,0,28,3.714,3.706,0,0,0,0,5.041,99.68,121.98578474344,2.296588,38,Tripod,
1160700,2022-08-24 01:10:46,-34.906525214104,-56.1631324623304,2.296588,2.4934384,119.55796314344,121.98578474344,3.937008,0,3.8003282056,2.86008539336,19,5,7.413,121.98578474344,2.296588,0.223694,3.8003282056,0,0,0,241.8, 1.2, -0.1,0,0,1024,1024,1024,1024,0,0,0,0,258.3,0,0,28,3.714,3.706,0,0,0,0,5.041,99.68,121.98578474344,2.296588,38,Tripod,
1160800,2022-08-24 01:10:46,-34.906525205299,-56.1631324883628,2.296588,2.4934384,119.55796314344,121.98578474344,3.937008,0,3.8087599644,2.86851059048,19,5,7.413,121.98578474344,2.296588,0.223694,3.8087599644,0,0,0,241.8, 1.2, 0,0,0,1024,1024,1024,1024,0,0,0,0,258.3,0,0,28,3.714,3.706,0,0,0,0,5.041,99.68,121.98578474344,2.296588,38,Tripod,
1160900,2022-08-24 01:10:46,-34.9065251459943,-56.1631325867574,2.296588,2.5262468,119.52515474344,121.98578474344,3.937008,0,3.8437993356,2.90504930556,19,5,7.413,121.98578474344,2.296588,0.223694,3.8437993356,0,0,0,241.8, 1.3, 0.1,0,0,1024,1024,1024,1024,0,0,0,0,258.3,0,0,28,3.714,3.706,0,0,0,0,5.041,99.68,121.98578474344,2.296588,38,Tripod,
1161000,2022-08-24 01:10:46,-34.9065250335812,-56.1631329019119,2.296588,2.5262468,119.52515474344,121.98578474344,3.937008,0,3.9464240108,3.00787739284,19,5,7.413,121.98578474344,2.296588,0.223694,3.9464240108,0,0,0,241.8, 1.6, 0.1,0,0,1024,1024,1024,1024,0,0,0,0,258.3,0,0,28,3.714,3.706,0,0,0,0,5.041,99.68,121.98578474344,2.296588,38,Tripod,
1161100,2022-08-24 01:10:46,-34.9065249259053,-56.1631330294846,2.296588,2.5262468,119.52515474344,121.98578474344,3.937008,0,3.9958334612,3.06265429748,19,5,7.413,121.98578474344,2.296588,0.223694,3.9958334612,0,0,0,241.9, 1.6, 0,0,0,1024,1024,1024,1024,0,0,0,0,258.3,0,0,28,3.714,3.706,0,0,0,0,5.041,99.68,121.98578474344,2.296588,38,Tripod,
1161200,2022-08-24 01:10:46,-34.9065247966003,-56.1631331577519,2.296588,2.5262468,119.52515474344,121.98578474344,3.937008,0,4.0483597096,3.12347122856,19,5,7.413,121.98578474344,2.296588,0.223694,4.0483597096,0,0,0,241.8, 1.1, -0.1,0,0,1024,1024,1024,1024,0,0,0,0,258.3,0,0,28,3.714,3.706,0,0,0,0,5.041,99.68,121.98578474344,2.296588,38,Tripod,
1161300,2022-08-24 01:10:46,-34.9065247308095,-56.1631330422357,2.296588,2.5262468,119.52515474344,121.98578474344,3.937008,0,4.0247376616,3.1655512824,19,5,7.413,121.98578474344,2.296588,0.223694,4.0483597096,0,0,0,241.9, 0.7, -0.6,0,0,1024,1024,1024,1024,0,0,0,0,258.3,0,0,28,3.714,3.706,0,0,0,0,5.041,99.68,121.98578474344,2.296588,38,Tripod,
1161400,2022-08-24 01:10:46,-34.9065246723109,-56.1631326879098,2.296588,2.5262468,119.52515474344,121.98578474344,3.937008,0,3.9341864776,3.27369433048,19,5,7.413,121.98578474344,2.296588,0.223694,4.0483597096,0,0,0,241.8, 0.5, -1.4,0,0,1024,1024,1024,1024,0,0,0,0,258.3,0,0,28,3.714,3.706,0,0,0,0,5.041,99.68,121.98578474344,2.296588,38,Tripod,
1161500,2022-08-24 01:10:46,-34.9065246446502,-56.1631324674361,2.296588,2.4934384,119.55796314344,121.98578474344,3.937008,0,3.8770670532,3.3404200544,19,5,7.394,121.98578474344,2.296588,0.223694,4.0483597096,0,0,0,241.9, 0.4, -1.2,0,0,1024,1024,1024,1024,0,0,0,0,258.3,0,0,28,3.7,3.691,0,0,0,0,4.382,99.68,121.98578474344,2.296588,38,Tripod,
1161600,2022-08-24 01:10:47,-34.9065246283104,-56.1631322340376,2.296588,2.4934384,119.55796314344,121.98578474344,3.937008,0,3.8150591772,3.4105316052,19,5,7.394,121.98578474344,2.296588,0.223694,4.0483597096,0,0,0,241.9, 0.2, -1.1,0,0,1024,1024,1024,1024,0,0,0,0,258.3,0,0,28,3.7,3.691,0,0,0,0,4.382,99.68,121.98578474344,2.296588,38,Tripod,
1161700,2022-08-24 01:10:47,-34.906524633383,-56.1631320823116,2.296588,2.4934384,119.55796314344,121.98578474344,3.937008,0,3.772637916,3.4559384308,19,5,7.394,121.98578474344,2.296588,0.223694,4.0483597096,0,0,0,241.8, 0.3, -0.9,0,0,1024,1024,1024,1024,0,0,0,0,258.3,0,0,28,3.7,3.691,0,0,0,0,4.382,99.68,121.98578474344,2.296588,38,Tripod,
1161800,2022-08-24 01:10:47,-34.9065247060669,-56.1631318407806,2.296588,2.4934384,119.55796314344,121.98578474344,3.937008,0,3.6957678348,3.5329397456,19,5,7.394,121.98578474344,2.296588,0.223694,4.0483597096,0,0,0,241.9, 0.5, -0.5,0,0,1024,1024,1024,1024,0,0,0,0,258.3,0,0,28,3.7,3.691,0,0,0,0,4.382,99.68,121.98578474344,2.296588,38,Tripod,
1161900,2022-08-24 01:10:47,-34.9065247000661,-56.1631317771934,2.296588,2.4934384,119.55796314344,121.98578474344,3.937008,0,3.6791995928,3.5520998512,19,5,7.394,121.98578474344,2.296588,0.223694,4.0483597096,0,0,0,241.8, 0.4, -0.3,0,0,1024,1024,1024,1024,0,0,0,0,258.3,0,0,28,3.7,3.691,0,0,0,0,4.382,99.68,121.98578474344,2.296588,38,Tripod,
1162000,2022-08-24 01:10:47,-34.9065246881899,-56.1631317266354,2.296588,2.4934384,119.55796314344,121.98578474344,3.937008,0,3.6670932932,3.5678150748,19,5,7.394,121.98578474344,2.296588,0.223694,4.0483597096,0,0,0,241.8, 0.3, -0.1,0,0,1024,1024,364,1024,0,0,-100,0,258.3,0,0,28,3.7,3.691,0,0,0,0,4.382,99.68,121.98578474344,2.296588,38,Tripod,
1162100,2022-08-24 01:10:47,-34.9065246854101,-56.1631317149198,2.296588,2.4934384,119.55796314344,121.98578474344,3.937008,0,3.6643045792,3.5714568072,19,5,7.394,121.98578474344,2.296588,0.223694,4.0483597096,0,0,0,241.8, 0.3, -0.1,0,0,1024,1024,364,959,0,0,-100,-10,258.3,0,0,28,3.7,3.691,0,0,0,0,4.382,99.68,121.98578474344,2.296588,38,Tripod,
1162200,2022-08-24 01:10:47,-34.9065245765845,-56.1631320748163,2.296588,2.4934384,119.55796314344,121.98578474344,3.608924,0,3.7788387036,3.6862533988,19,5,7.394,121.98578474344,2.296588,0.223694,4.0483597096,0,0,0.223694,241.8, 0.6, 0.4,0,0,1024,1024,364,959,0,0,-100,-10,258.3,0,0,28,3.7,3.691,0,0,0,0,4.382,99.68,121.98578474344,2.296588,38,Tripod,
1162300,2022-08-24 01:10:47,-34.9065245525552,-56.1631320619385,2.296588,2.4934384,119.55796314344,121.98578474344,3.608924,0,3.778871512,3.6958334516,19,5,7.394,121.98578474344,2.296588,0.223694,4.0483597096,0,0,0.447388,241.8, 0.7, 0,0,0,1024,1024,1024,1024,0,0,0,0,258.3,0,0,28,3.7,3.691,0,0,0,0,4.382,99.68,121.98578474344,2.296588,38,Tripod,
1162400,2022-08-24 01:10:47,-34.9065245200009,-56.1631320371257,2.296588,2.4934384,119.55796314344,121.98578474344,3.608924,0,3.776903008,3.70980983,19,5,7.394,121.98578474344,2.296588,0.223694,4.0483597096,0,0,0.447388,241.8, 0.9, 0,0,0,1024,1024,1024,1024,0,0,0,0,258.3,0,0,28,3.7,3.691,0,0,0,0,4.382,99.68,121.98578474344,2.296588,38,Tripod,
1162500,2022-08-24 01:10:48,-34.9065245053775,-56.1631318936968,2.296588,2.4934384,119.55796314344,121.98578474344,3.608924,0,3.7399607496,3.7530841096,19,5,7.389,121.98578474344,2.296588,0.223694,4.0483597096,0,0,0.223694,241.7, 0.7, -0.1,0,0,1024,1024,364,1024,0,0,-100,0,258.3,0,0,28,3.698,3.689,0,0,0,0,4.616,99.68,121.98578474344,2.296588,38,Tripod,
1162600,2022-08-24 01:10:48,-34.9065244983312,-56.1631316950769,1.968504,2.132546,119.59077154344,121.65770074344,3.608924,0,3.687007992,3.8125657388,19,5,7.389,121.98578474344,2.296588,0.223694,4.0483597096,0,0,0.223694,241.7, 0.4, -0.5,0,0,1024,1024,364,983,0,0,-100,-6,258.2,0,0,28,3.698,3.689,0,0,0,0,4.616,99.68,121.65770074344,1.968504,38,Tripod,
1162700,2022-08-24 01:10:48,-34.9065244507058,-56.1631312928987,1.968504,2.0997376,119.62357994344,121.65770074344,3.28084,0,3.5856956528,3.9341536692,19,5,7.389,121.98578474344,2.296588,0.223694,4.0483597096,0,0,0.447388,241.7, 0.7, -0.4,0,0,1024,1024,364,996,0,0,-100,-4,258.2,0,0,28,3.698,3.689,0,0,0,0,4.616,99.68,121.65770074344,1.968504,38,Tripod,
1162800,2022-08-24 01:10:48,-34.9065244615789,-56.1631309848816,1.968504,2.0997376,119.62357994344,121.65770074344,3.28084,0,3.5012468312,4.0263780816,19,5,7.389,121.98578474344,2.296588,0.223694,4.0483597096,0,0,0.447388,241.7, 0.8, -0.3,0,0,1024,1024,364,1024,0,0,-100,0,258.2,0,0,28,3.698,3.689,0,0,0,0,4.616,99.68,121.65770074344,1.968504,38,Tripod,
1162900,2022-08-24 01:10:48,-34.9065244787476,-56.1631309015168,1.968504,2.0997376,119.62357994344,121.65770074344,3.28084,0,3.4761484052,4.0520998672,19,5,7.389,121.98578474344,2.296588,0.223694,4.0483597096,0,0,0.447388,241.7, 0.9, -0.2,0,0,1024,1024,963,1024,0,0,-9,0,258.2,0,0,28,3.698,3.689,0,0,0,0,4.616,99.68,121.65770074344,1.968504,38,Tripod,
1163000,2022-08-24 01:10:48,-34.9065245001632,-56.1631308795532,1.968504,2.132546,119.59077154344,121.65770074344,3.28084,0,3.4667652028,4.0623032796,19,5,7.389,121.98578474344,2.296588,0.223694,4.0483597096,0,0,0.447388,241.6, 0.8, -0.2,0,0,1043,1024,1024,1024,3,0,0,0,258.2,0,0,28,3.698,3.689,0,0,0,0,4.616,99.68,121.65770074344,1.968504,38,Tripod,
1163100,2022-08-24 01:10:48,-34.9065244443532,-56.1631305482303,1.64042,1.7716536,119.62357994344,121.32961674344,2.952756,0,3.3877297672,4.1635171936,19,5,7.389,121.98578474344,2.296588,0.223694,4.0483597096,0,0,0.447388,241.6, 0.8, 0,0,0,1043,1024,1024,1024,3,0,0,0,258.2,0,0,28,3.698,3.689,0,0,0,0,4.616,99.68,121.32961674344,1.64042,38,Tripod,
1163200,2022-08-24 01:10:48,-34.9065244211739,-56.1631303348784,1.64042,1.7388452,119.65638834344,121.32961674344,2.952756,0,3.3352691356,4.2279200828,19,5,7.389,121.98578474344,2.296588,0.223694,4.0483597096,0,0,0.223694,241.6, 0.6, 0,0,0,1626,1024,1024,1024,91,0,0,0,258.2,0,0,28,3.698,3.689,0,0,0,0,4.616,99.68,121.32961674344,1.64042,38,Tripod,
1163300,2022-08-24 01:10:48,-34.9065244163847,-56.163130225079,1.64042,1.7388452,119.65638834344,121.32961674344,2.952756,0,3.3071851452,4.2607940996,19,5,7.389,121.98578474344,2.296588,0.223694,4.0483597096,0,0,0.223694,241.7, -1.9, -0.1,0,0,1684,1024,1024,1024,100,0,0,0,258.2,0,0,28,3.698,3.689,0,0,0,0,4.616,99.68,121.32961674344,1.64042,38,Tripod,
1163400,2022-08-24 01:10:48,-34.9065244364797,-56.1631301859311,1.64042,1.7388452,119.65638834344,121.32961674344,2.952756,0,3.2934056172,4.2746392444,19,5,7.389,121.98578474344,2.296588,0.223694,4.0483597096,0,0,0,241.7, -7.5, -0.2,0,0,1684,1024,1024,1024,100,0,0,0,258.2,0,0,28,3.698,3.689,0,0,0,0,4.616,99.68,121.32961674344,1.64042,38,Tripod,
1163500,2022-08-24 01:10:49,-34.9065245013976,-56.1631303381664,1.64042,1.7716536,119.62357994344,121.32961674344,2.952756,0.3131716,3.3224082428,4.325951582,19,5,7.387,121.98578474344,2.296588,0.3131716,4.0483597096,-0.223694,-0.223694,0,241.7, -9.1, -0.2,0,0,1453,1024,1024,1024,65,0,0,0,258.2,0,0,28,3.698,3.689,0,0,0,0,4.358,99.68,121.32961674344,1.64042,38,Tripod,
1163600,2022-08-24 01:10:49,-34.9065246468453,-56.1631305090772,1.64042,1.804462,119.59077154344,121.32961674344,2.952756,0.8052984,3.3437008944,4.3996720568,19,5,7.387,121.98578474344,2.296588,0.8052984,4.0483597096,-0.447388,-0.671082,0,241.7, -8.8, -0.1,0,0,1024,1024,514,1024,0,0,-77,0,258.2,0,0,28,3.698,3.689,0,0,0,0,4.358,99.68,121.32961674344,1.64042,38,Tripod,
1163700,2022-08-24 01:10:49,-34.9065248491762,-56.1631307980949,1.64042,1.804462,119.59077154344,121.32961674344,2.952756,1.006623,3.3896982712,4.5133531628,19,5,7.387,121.98578474344,2.296588,1.006623,4.0483597096,-0.447388,-0.894776,0,241.5, -3.5, -0.1,0,0,1024,1024,364,1024,0,0,-100,0,258.2,0,0,28,3.698,3.689,0,0,0,0,4.358,99.68,121.32961674344,1.64042,38,Tripod,
1163800,2022-08-24 01:10:49,-34.9065250875251,-56.1631311516713,1.64042,1.804462,119.59077154344,121.32961674344,2.952756,1.006623,3.4515092968,4.6502954244,19,5,7.387,121.98578474344,2.296588,1.006623,4.0483597096,-0.447388,-0.894776,0,241.5, 5.1, 0.1,0,0,1024,1024,607,1024,0,0,-63,0,258.2,0,0,28,3.698,3.689,0,0,0,0,4.358,99.68,121.32961674344,1.64042,38,Tripod,
1163900,2022-08-24 01:10:49,-34.9065254853995,-56.1631314310156,1.312336,1.476378,119.59077154344,121.00153274344,2.952756,0.8052984,3.4765092976,4.8178151148,19,5,7.387,121.98578474344,2.296588,1.006623,4.0483597096,-0.447388,-0.671082,0.223694,241.6, 5.7, 0.3,0,0,1083,1024,681,1024,9,0,-52,0,258.2,0,0,28,3.698,3.689,0,0,0,0,4.358,99.68,121.00153274344,1.312336,38,Tripod,
1164000,2022-08-24 01:10:49,-34.906525748561,-56.1631316700212,1.312336,1.5419948,119.52515474344,121.00153274344,2.624672,0.4921268,3.5127625796,4.9375329664,19,5,7.387,121.98578474344,2.296588,1.006623,4.0483597096,-0.223694,-0.447388,0.447388,241.6, 4.9, 0.2,0,0,1083,1024,681,1024,9,0,-52,0,258.2,0,0,28,3.698,3.689,0,0,0,0,4.358,99.68,121.00153274344,1.312336,38,Tripod,
1164100,2022-08-24 01:10:49,-34.906526030443,-56.1631319740399,1.312336,1.5419948,119.52515474344,121.00153274344,2.624672,0.4921268,3.5694554948,5.0748361204,19,5,7.387,121.98578474344,2.296588,1.006623,4.0483597096,-0.223694,-0.447388,0.447388,241.7, 3.6, 0.1,0,0,1187,1024,364,873,25,0,-100,-23,258.2,0,0,28,3.698,3.689,0,0,0,0,4.358,99.68,121.00153274344,1.312336,38,Tripod,
1164200,2022-08-24 01:10:49,-34.9065263135643,-56.1631322827308,1.312336,1.5419948,119.52515474344,121.00153274344,2.624672,0.3131716,3.631725838,5.213418802,19,5,7.387,121.98578474344,2.296588,1.006623,4.0483597096,-0.223694,-0.223694,0.447388,241.7, 1.7, 0.1,0,0,1170,1024,364,924,22,0,-100,-15,258.2,0,0,28,3.698,3.689,0,0,0,0,4.358,99.68,121.00153274344,1.312336,38,Tripod,
1164300,2022-08-24 01:10:49,-34.9065265411067,-56.1631325414004,0.984252,1.312336,119.42672954344,120.67344874344,2.624672,0.223694,3.6878610104,5.3269030576,19,5,7.387,121.98578474344,2.296588,1.006623,4.0483597096,0,-0.223694,0.447388,241.7, 0.5, 0.2,0,0,1043,1024,726,1024,3,0,-45,0,258,0,0,28,3.698,3.689,0,0,0,0,4.358,99.68,120.67344874344,0.984252,38,Tripod,
1164400,2022-08-24 01:10:49,-34.9065270456052,-56.1631332838072,0.984252,1.312336,119.42672954344,120.67344874344,2.296588,0.223694,3.8712927748,5.6153873188,19,5,7.387,121.98578474344,2.296588,1.006623,4.0483597096,0,-0.223694,0.447388,241.4, 0.2, 0.3,0,0,1024,1024,774,1024,0,0,-38,0,257.9,0,0,28,3.698,3.689,0,0,0,0,4.358,99.68,120.67344874344,0.984252,38,Tripod,
1164500,2022-08-24 01:10:50,-34.9065272006135,-56.1631333000774,0.984252,1.312336,119.42672954344,120.67344874344,2.296588,0.223694,3.8674870004,5.6721458508,19,5,7.395,121.98578474344,2.296588,1.006623,4.0483597096,0,-0.223694,0.447388,241.2, 1.5, 0.6,0,0,1024,1024,515,1024,0,0,-77,0,257.7,0,0,28,3.696,3.688,0,0,0,0,4.715,99.68,120.67344874344,0.984252,38,Tripod,
1164600,2022-08-24 01:10:50,-34.9065273323563,-56.1631332209042,0.984252,1.312336,119.42672954344,120.67344874344,2.296588,0.223694,3.8373032724,5.7257547764,18,5,7.395,121.98578474344,2.296588,1.006623,4.0483597096,0,-0.223694,0.447388,241.1, 1.9, 0.3,0,0,1024,1024,364,1012,0,0,-100,-2,257.7,0,0,28,3.696,3.688,0,0,0,0,4.715,99.68,120.67344874344,0.984252,38,Tripod,
1164700,2022-08-24 01:10:50,-34.9065273360838,-56.1631331194789,0.656168,0.98425199999998,119.42672954344,120.34536474344,2.296588,0,3.8070539276,5.7561353548,18,5,7.395,121.98578474344,2.296588,1.006623,4.0483597096,0,0,0.447388,241.1, 1.5, 0.1,0,0,1024,1024,364,1024,0,0,-100,0,257.7,0,0,28,3.696,3.688,0,0,0,0,4.715,99.68,120.34536474344,0.656168,38,Tripod,
1164800,2022-08-24 01:10:50,-34.9065269486656,-56.1631325798327,0.656168,0.98425199999998,119.42672954344,120.34536474344,1.968504,0.223694,3.6696851568,5.9707022908,18,5,7.395,121.98578474344,2.296588,1.006623,4.0483597096,0,-0.223694,0.223694,241.2, 1.5, 0,0,0,1024,1024,364,1024,0,0,-100,0,257.7,0,0,28,3.696,3.688,0,0,0,0,4.715,99.68,120.34536474344,0.656168,38,Tripod,
1164900,2022-08-24 01:10:50,-34.9065269171177,-56.1631324925022,0.656168,0.95144359999999,119.45953794344,120.34536474344,1.968504,0.223694,3.6460631088,5.9992784072,18,5,7.395,121.98578474344,2.296588,1.006623,4.0483597096,0,0,0.223694,241.2, 1.3, 0.1,0,0,1024,1024,566,1024,0,0,-69,0,257.7,0,0,28,3.696,3.688,0,0,0,0,4.715,99.68,120.34536474344,0.656168,38,Tripod,
1165000,2022-08-24 01:10:50,-34.9065268966238,-56.1631323988477,0.656168,0.95144359999999,119.45953794344,120.34536474344,1.968504,0,3.6198820056,6.0282810328,19,5,7.395,121.98578474344,2.296588,1.006623,4.0483597096,0,0,0.223694,241.2, 1.6, -0.1,0,0,1024,1024,364,1024,0,0,-100,0,257.7,0,0,28,3.696,3.688,0,0,0,0,4.715,99.68,120.34536474344,0.656168,38,Tripod,
1165100,2022-08-24 01:10:50,-34.9065268680869,-56.1631323511286,0.656168,0.95144359999999,119.45953794344,120.34536474344,1.968504,0,3.6078085144,6.045931952,19,5,7.395,121.98578474344,2.296588,1.006623,4.0483597096,0,0,0.223694,241.2, 1.3, -0.6,0,0,1050,1024,364,870,4,0,-100,-23,257.7,0,0,28,3.696,3.688,0,0,0,0,4.715,99.68,120.34536474344,0.656168,38,Tripod,
1165200,2022-08-24 01:10:50,-34.9065266815975,-56.1631323292852,0.656168,0.95144359999999,119.45953794344,120.34536474344,1.968504,0,3.6149279372,6.1143046576,19,5,7.395,121.98578474344,2.296588,1.006623,4.0483597096,0,0,0.223694,241.2, 1.1, -0.3,0,0,1046,1024,364,947,3,0,-100,-12,257.6,0,0,28,3.696,3.688,0,0,0,0,4.715,99.68,120.34536474344,0.656168,38,Tripod,
1165300,2022-08-24 01:10:50,-34.9065267159381,-56.1631323471824,0.328084,0.62335959999999,119.45953794344,120.01728074344,1.968504,0,3.6175854176,6.1279201436,19,5,7.395,121.98578474344,2.296588,1.006623,4.0483597096,0,0,0.223694,241.1, 0.8, -0.1,0,0,1045,1024,364,1024,3,0,-100,0,257.5,0,0,28,3.696,3.688,0,0,0,0,4.715,99.68,120.01728074344,0.328084,38,Tripod,
1165400,2022-08-24 01:10:50,-34.9065267750783,-56.1631323814753,0.328084,0.62335959999999,119.45953794344,120.01728074344,1.968504,0,3.6232940792,6.1518046588,19,5,7.395,121.98578474344,2.296588,1.006623,4.0483597096,0,0,0,241, 0.7, -0.1,0,0,1182,1024,811,1024,24,0,-32,0,257.4,0,0,28,3.696,3.688,0,0,0,0,4.715,99.68,120.01728074344,0.328084,38,Tripod,
1165500,2022-08-24 01:10:50,-34.9065268303835,-56.1631324630616,0.328084,0.62335959999999,119.45953794344,120.01728074344,1.968504,0,3.6433072032,6.1834975732,19,5,7.374,121.98578474344,2.296588,1.006623,4.0483597096,0,0,0,240.9, 0.7, 0,0,0,1616,1024,944,1024,90,0,-12,0,257.3,0,0,28,3.692,3.681,0,0,0,0,4.644,99.68,120.01728074344,0.328084,38,Tripod,
1165600,2022-08-24 01:10:51,-34.9065270258587,-56.1631330849418,0.328084,0.65616799999998,119.42672954344,120.01728074344,1.64042,0,3.8137468412,6.3827429864,18,5,7.374,121.98578474344,2.296588,1.006623,4.0483597096,0,0,0,240.8, 0.2, 0.1,0,0,1616,1024,944,1024,90,0,-12,0,257.2,0,0,28,3.692,3.681,0,0,0,0,4.644,99.68,120.01728074344,0.328084,38,Tripod,
1165700,2022-08-24 01:10:51,-34.9065270024368,-56.1631331856882,0.328084,0.65616799999998,119.42672954344,120.01728074344,1.64042,0,3.8448820128,6.4140750084,18,5,7.374,121.98578474344,2.296588,1.006623,4.0483597096,0,0,0,240.8, -3.9, 0,0,0,1684,1024,956,1024,100,0,-10,0,257.2,0,0,28,3.692,3.681,0,0,0,0,4.644,99.68,120.01728074344,0.328084,38,Tripod,
1165800,2022-08-24 01:10:51,-34.9065269743201,-56.1631333433947,0.328084,0.65616799999998,119.42672954344,120.01728074344,1.64042,0,3.8931431692,6.4623689732,18,5,7.374,121.98578474344,2.296588,1.006623,4.0483597096,0,0,0,240.8, -8.3, 0,0,0,1684,1024,949,1024,100,0,-11,0,257.2,0,0,28,3.692,3.681,0,0,0,0,4.644,99.68,120.01728074344,0.328084,38,Tripod,
1165900,2022-08-24 01:10:51,-34.906527014173,-56.1631335586361,0.328084,0.6889764,119.39392114344,120.01728074344,1.64042,0.4921268,3.9542980268,6.5284122824,18,5,7.374,121.98578474344,2.296588,1.006623,4.0483597096,-0.223694,-0.447388,0,240.7, -9.5, -0.1,0,0,1684,1024,966,1024,100,0,-9,0,257.2,0,0,28,3.692,3.681,0,0,0,0,4.644,99.68,120.01728074344,0.328084,38,Tripod,
1166000,2022-08-24 01:10:51,-34.9065271341486,-56.163133910622,0.328084,0.6889764,119.39392114344,120.01728074344,1.64042,0.8052984,4.0517389748,6.6424542808,18,5,7.374,121.98578474344,2.296588,1.006623,4.0517389748,-0.447388,-0.671082,0,240.7, -9.5, -0.3,0,0,1684,1024,760,1024,100,0,-40,0,257.2,0,0,28,3.692,3.681,0,0,0,0,4.644,99.68,120.01728074344,0.328084,38,Tripod,
1166100,2022-08-24 01:10:51,-34.9065272229884,-56.1631345103937,0.328084,0.6889764,119.39392114344,120.01728074344,1.64042,1.006623,4.2250329436,6.824803368,18,5,7.374,121.98578474344,2.296588,1.006623,4.2250329436,-0.447388,-0.894776,0,240.6, -9.3, -0.2,0,0,1501,1024,364,1024,72,0,-100,0,257.2,0,0,28,3.692,3.681,0,0,0,0,4.644,99.68,120.01728074344,0.328084,38,Tripod,
1166200,2022-08-24 01:10:51,-34.9065275656765,-56.1631351439138,0.328084,0.75459319999999,119.32830434344,120.01728074344,1.64042,1.4987498,4.3990486972,7.0519031128,18,5,7.374,121.98578474344,2.296588,1.4987498,4.3990486972,-0.671082,-1.342164,0,240.7, -8.8, 0,0,0,1190,1024,364,1024,25,0,-100,0,257.2,0,0,28,3.692,3.681,0,0,0,0,4.644,99.68,120.01728074344,0.328084,38,Tripod,
1166300,2022-08-24 01:10:51,-34.9065279622482,-56.1631359230749,0.328084,0.78740159999998,119.29549594344,120.01728074344,1.64042,1.8119214,4.6199476544,7.326279762,18,5,7.374,121.98578474344,2.296588,1.8119214,4.6199476544,-0.894776,-1.565858,0,240.7, -6, 0,0,0,1180,1024,440,1024,24,0,-88,0,257.2,0,0,28,3.692,3.681,0,0,0,0,4.644,99.68,120.01728074344,0.328084,38,Tripod,
1166400,2022-08-24 01:10:51,-34.9065284259655,-56.1631368547402,0.328084,0.82021,119.26268754344,120.01728074344,1.64042,1.8119214,4.8913059308,7.6523624496,18,5,7.374,121.98578474344,2.296588,1.8119214,4.8913059308,-0.894776,-1.565858,0,240.7, -1.3, 0,0,0,1264,1024,633,1024,36,0,-59,0,257.2,0,0,28,3.692,3.681,0,0,0,0,4.644,99.68,120.01728074344,0.328084,38,Tripod,
1166500,2022-08-24 01:10:51,-34.9065289489729,-56.1631379913847,0.328084,0.88582679999998,119.19707074344,120.01728074344,1.64042,1.8119214,5.2305775952,8.042323092,18,5,7.369,121.98578474344,2.296588,1.8119214,5.2305775952,-0.894776,-1.565858,0,240.7, 0.2, 0.1,0,0,1264,1024,633,1024,36,0,-59,0,257.2,0,0,28,3.687,3.678,0,0,0,0,4.715,99.68,120.01728074344,0.328084,38,Tripod,
1166600,2022-08-24 01:10:52,-34.9065295175197,-56.1631392602073,0.328084,0.95144359999999,119.13145394344,120.01728074344,1.64042,1.8119214,5.6168308884,8.4749346544,18,5,7.369,121.98578474344,2.296588,1.8119214,5.6168308884,-0.894776,-1.565858,0,240.7, -0.2, 0,0,0,1340,1024,645,1024,48,0,-57,0,257.2,0,0,28,3.687,3.678,0,0,0,0,4.715,99.68,120.01728074344,0.328084,38,Tripod,
1166700,2022-08-24 01:10:52,-34.906530054885,-56.1631403493702,0.328084,0.98425199999999,119.09864554344,120.01728074344,1.64042,1.8119214,5.9548558336,8.8552496272,18,5,7.369,121.98578474344,2.296588,1.8119214,5.9548558336,-0.894776,-1.565858,0,240.7, -1.5, 0,0,0,1399,1024,364,1024,57,0,-100,0,257.2,0,0,28,3.687,3.678,0,0,0,0,4.715,99.68,120.01728074344,0.328084,38,Tripod,
1166800,2022-08-24 01:10:52,-34.906530614832,-56.1631414413224,0.328084,1.0498688,119.03302874344,120.01728074344,1.64042,1.8119214,6.2994424588,9.2405842852,19,5,7.369,121.98578474344,2.296588,1.8119214,6.2994424588,-0.894776,-1.565858,0,240.8, -2.5, 0.1,0,0,1370,1024,364,1024,52,0,-100,0,257.2,0,0,28,3.687,3.678,0,0,0,0,4.715,99.68,120.01728074344,0.328084,38,Tripod,
1166900,2022-08-24 01:10:52,-34.9065312553756,-56.1631426129243,0.328084,1.1154856,118.96741194344,120.01728074344,1.64042,1.8119214,6.6761156992,9.661909758,19,5,7.369,121.98578474344,2.296588,1.8119214,6.6761156992,-0.894776,-1.565858,0,240.8, -3.2, 0,0,0,1164,1024,364,1024,21,0,-100,0,257.2,0,0,28,3.687,3.678,0,0,0,0,4.715,99.68,120.01728074344,0.328084,38,Tripod,
1167000,2022-08-24 01:10:52,-34.9065317521438,-56.1631436836612,0,0.85301839999999,118.90179514344,119.68919674344,1.64042,1.9237684,7.0196524556,10.0299871976,19,5,7.369,121.98578474344,2.296588,1.9237684,7.0196524556,-1.11847,-1.565858,0,240.8, -2.6, 0.1,0,0,1024,1024,426,1024,0,0,-91,0,257.2,0,0,28,3.687,3.678,0,0,0,0,4.715,99.68,119.68919674344,0,38,Tripod,
1167100,2022-08-24 01:10:52,-34.9065322911669,-56.1631446134768,0,0.88582679999999,118.86898674344,119.68919674344,1.64042,2.1027236,7.326771888,10.3707024316,19,5,7.369,121.98578474344,2.296588,2.1027236,7.326771888,-1.11847,-1.789552,0,240.8, -0.2, 0.5,0,0,1024,1024,862,1024,0,0,-25,0,257.2,0,0,28,3.687,3.678,0,0,0,0,4.715,99.68,119.68919674344,0,38,Tripod,
1167200,2022-08-24 01:10:52,-34.9065328679325,-56.1631455295659,0,0.9514436,118.80336994344,119.68919674344,1.64042,1.8119214,7.6353676984,10.7162405004,18,5,7.369,121.98578474344,2.296588,2.1027236,7.6353676984,-0.894776,-1.565858,0,240.8, 7, 0.4,0,0,1024,1024,1024,1024,0,0,0,0,257.2,0,0,28,3.687,3.678,0,0,0,0,4.715,99.68,119.68919674344,0,38,Tripod,
1167300,2022-08-24 01:10:52,-34.9065332809336,-56.1631460481901,0,0.9514436,118.80336994344,119.68919674344,1.64042,1.4987498,7.8181104864,10.9325462816,18,5,7.369,121.98578474344,2.296588,2.1027236,7.8181104864,-0.671082,-1.342164,0,240.8, 8.5, 0.1,0,0,1024,1024,1024,1024,0,0,0,0,257.2,0,0,28,3.687,3.678,0,0,0,0,4.715,99.68,119.68919674344,0,38,Tripod,
1167400,2022-08-24 01:10:52,-34.9065336144503,-56.1631467734413,0,1.0498688,118.70494474344,119.68919674344,1.64042,1.2974252,8.056266662,11.1813323788,18,5,7.369,121.98578474344,2.296588,2.1027236,8.056266662,-0.671082,-1.11847,0,240.9, 7.8, 0.3,0,0,1248,1024,1024,1024,34,0,0,0,257.2,0,0,28,3.687,3.678,0,0,0,0,4.715,99.68,119.68919674344,0,38,Tripod,
1167500,2022-08-24 01:10:52,-34.9065339014098,-56.1631473396977,0,1.0498688,118.70494474344,119.68919674344,1.64042,0.8052984,8.2448821536,11.3805121752,18,5,7.369,121.98578474344,2.296588,2.1027236,8.2448821536,-0.447388,-0.671082,0,240.9, 4.4, 0.4,0,0,1600,1024,1024,1024,87,0,0,0,257.2,0,0,28,3.687,3.678,0,0,0,0,4.715,99.68,119.68919674344,0,38,Tripod,
1167600,2022-08-24 01:10:53,-34.9065341769311,-56.1631478611208,0,1.0498688,118.70494474344,119.68919674344,1.64042,0.8052984,8.419947776,11.566109294,18,5,7.367,121.98578474344,2.296588,2.1027236,8.419947776,-0.447388,-0.671082,0,240.9, -1.8, 0.2,0,0,1684,1024,1024,1024,100,0,0,0,257.2,0,0,28,3.687,3.677,0,0,0,0,4.699,99.68,119.68919674344,0,38,Tripod,
1167700,2022-08-24 01:10:53,-34.9065344370995,-56.1631482890847,0,1.0498688,118.70494474344,119.68919674344,1.64042,1.006623,8.5669950248,11.7254925012,18,5,7.367,121.98578474344,2.296588,2.1027236,8.5669950248,-0.447388,-0.894776,0,241, -5.9, 0.1,0,0,1594,1024,1024,1024,86,0,0,0,257.2,0,0,28,3.687,3.677,0,0,0,0,4.699,99.68,119.68919674344,0,38,Tripod,
1167800,2022-08-24 01:10:53,-34.9065347323592,-56.163148661206,0,1.148294,118.60651954344,119.68919674344,1.64042,1.2974252,8.7014766564,11.880413766,19,5,7.367,121.98578474344,2.296588,2.1027236,8.7014766564,-0.671082,-1.11847,0,241, -7.4, 0.1,0,0,1566,1024,1024,1024,82,0,0,0,257.2,0,0,28,3.687,3.677,0,0,0,0,4.699,99.68,119.68919674344,0,38,Tripod,
1167900,2022-08-24 01:10:53,-34.9065350755016,-56.1631492343917,0,1.148294,118.60651954344,119.68919674344,1.64042,1.4987498,8.8992785,12.0927497308,19,5,7.367,121.98578474344,2.296588,2.1027236,8.8992785,-0.671082,-1.342164,0,240.9, -6.4, 0.2,0,0,1684,1024,1024,1024,100,0,0,0,257.2,0,0,28,3.687,3.677,0,0,0,0,4.699,99.68,119.68919674344,0,38,Tripod,
1168000,2022-08-24 01:10:53,-34.9065354794966,-56.1631499346486,0,1.1811024,118.57371114344,119.68919674344,1.64042,1.8119214,9.1402890064,12.3489505264,19,5,7.367,121.98578474344,2.296588,2.1027236,9.1402890064,-0.894776,-1.565858,0,240.9, -5.7, 0.3,0,0,1684,1024,1024,1024,100,0,0,0,257.2,0,0,28,3.687,3.677,0,0,0,0,4.699,99.68,119.68919674344,0,38,Tripod,
1168100,2022-08-24 01:10:53,-34.9065358350543,-56.1631506427024,0,1.2467192,118.50809434344,119.68919674344,1.968504,1.9908766,9.3794950508,12.5973429228,19,5,7.367,121.98578474344,2.296588,2.1027236,9.3794950508,-0.894776,-1.789552,0,240.9, -6.9, 0.3,0,0,1491,1024,1024,1024,71,0,0,0,257.2,0,0,28,3.687,3.677,0,0,0,0,4.699,99.68,119.68919674344,0,38,Tripod,
1168200,2022-08-24 01:10:53,-34.9065360879851,-56.163151128531,0,1.2467192,118.50809434344,119.68919674344,1.968504,2.3040482,9.54478377,12.769521406,19,5,7.367,121.98578474344,2.296588,2.3040482,9.54478377,-1.11847,-2.013246,0,240.9, -7.8, 0.1,0,0,1491,1024,1024,1024,71,0,0,0,257.2,0,0,28,3.687,3.677,0,0,0,0,4.699,99.68,119.68919674344,0,38,Tripod,
1168300,2022-08-24 01:10:53,-34.9065365921155,-56.1631520129914,0,1.312336,118.44247754344,119.68919674344,1.968504,2.5053728,9.8509517588,13.0918311276,19,5,7.367,121.98578474344,2.296588,2.5053728,9.8509517588,-1.11847,-2.23694,0,240.8, -6.3, 0,0,0,1294,1024,1024,1024,41,0,0,0,257.2,0,0,28,3.687,3.677,0,0,0,0,4.699,99.68,119.68919674344,0,38,Tripod,
1168400,2022-08-24 01:10:53,-34.9065371972754,-56.1631530369464,0,1.3451444,118.40966914344,119.68919674344,1.968504,2.5053728,10.2090226364,13.4694558116,19,5,7.367,121.98578474344,2.296588,2.5053728,10.2090226364,-1.11847,-2.23694,0,240.8, -3.3, 0,0,0,1376,1024,1024,1024,53,0,0,0,257.2,0,0,28,3.687,3.677,0,0,0,0,4.699,99.68,119.68919674344,0,38,Tripod,
1168500,2022-08-24 01:10:54,-34.9065378733125,-56.1631541061978,0,1.4107612,118.34405234344,119.68919674344,1.968504,2.7066974,10.5894360344,13.8734256408,19,5,7.367,121.98578474344,2.296588,2.7066974,10.5894360344,-1.11847,-2.460634,0,240.9, -0.9, 0,0,0,1542,1024,1024,1024,78,0,0,0,257.2,0,0,28,3.687,3.677,0,0,0,0,4.699,99.68,119.68919674344,0,38,Tripod,
1168600,2022-08-24 01:10:54,-34.9065389286745,-56.163155118059,0,1.476378,118.27843554344,119.68919674344,1.968504,2.7066974,11.0012798796,14.3632550528,19,5,7.362,121.98578474344,2.296588,2.7066974,11.0012798796,-1.11847,-2.460634,0,240.7, -2.1, -0.3,0,0,1498,1024,1024,1024,72,0,0,0,257.2,0,0,28,3.685,3.676,0,0,0,0,4.709,99.68,119.68919674344,0,38,Tripod,
1168700,2022-08-24 01:10:54,-34.9065395675905,-56.1631562856652,0,1.5419948,118.21281874344,119.68919674344,1.968504,2.7066974,11.409285142,14.7832353812,19,5,7.362,121.98578474344,2.296588,2.7066974,11.409285142,-1.11847,-2.460634,0,240.6, -4.4, -0.8,0,0,1489,1024,1024,1024,70,0,0,0,257.2,0,0,28,3.685,3.676,0,0,0,0,4.709,99.68,119.68919674344,0,38,Tripod,
1168800,2022-08-24 01:10:54,-34.9065402348633,-56.1631575694564,0,1.6076116,118.14720194344,119.68919674344,1.968504,2.9974996,11.854331088,15.238025422,20,5,7.362,121.98578474344,2.296588,2.9974996,11.854331088,-1.342164,-2.684328,0,240.6, -4.3, -1.1,0,0,1495,1024,1024,1024,71,0,0,0,257.2,0,0,28,3.685,3.676,0,0,0,0,4.709,99.68,119.68919674344,0,38,Tripod,
1168900,2022-08-24 01:10:54,-34.9065408311861,-56.1631588469619,0,1.6732284,118.08158514344,119.68919674344,1.968504,2.9974996,12.2890095796,15.677822024,20,5,7.362,121.98578474344,2.296588,2.9974996,12.2890095796,-1.342164,-2.684328,0,240.6, -3.7, -0.9,0,0,1359,1024,1024,1024,51,0,0,0,257.2,0,0,28,3.685,3.676,0,0,0,0,4.709,99.68,119.68919674344,0,38,Tripod,
1169000,2022-08-24 01:10:54,-34.9065413570607,-56.1631604618898,0,1.7060368,118.04877674344,119.68919674344,1.968504,2.9974996,12.8088586776,16.1977367388,20,5,7.362,121.98578474344,2.296588,2.9974996,12.8088586776,-1.342164,-2.684328,0,240.5, -3.7, -0.7,0,0,1359,1024,1024,1024,51,0,0,0,257.2,0,0,28,3.685,3.676,0,0,0,0,4.709,99.68,119.68919674344,0,38,Tripod,
1169100,2022-08-24 01:10:54,-34.9065420225728,-56.163161714371,0,1.804462,117.95035154344,119.68919674344,1.968504,3.1093466,13.2461618412,16.6442590628,20,5,7.362,121.98578474344,2.296588,3.1093466,13.2461618412,-1.565858,-2.684328,0,240.6, -2.7, -0.5,0,0,1172,1024,1024,1024,22,0,0,0,257.2,0,0,28,3.685,3.676,0,0,0,0,4.709,99.68,119.68919674344,0,38,Tripod,
1169200,2022-08-24 01:10:54,-34.9065427559995,-56.1631630067998,0,1.9028872,117.85192634344,119.68919674344,1.968504,3.1093466,13.7043639556,17.1145346684,20,5,7.362,121.98578474344,2.296588,3.1093466,13.7043639556,-1.565858,-2.684328,0,240.6, -0.4, -0.1,0,0,1065,1024,1024,1024,6,0,0,0,257.2,0,0,28,3.685,3.676,0,0,0,0,4.709,99.68,119.68919674344,0,38,Tripod,
1169300,2022-08-24 01:10:54,-34.9065435266468,-56.1631642175287,0,1.968504,117.78630954344,119.68919674344,2.296588,3.1093466,14.1459322112,17.5730976752,20,5,7.362,121.98578474344,2.296588,3.1093466,14.1459322112,-1.565858,-2.684328,0,240.6, 1.3, 0,0,0,1024,1024,1024,1024,0,0,0,0,257.2,0,0,28,3.685,3.676,0,0,0,0,4.709,99.68,119.68919674344,0,38,Tripod,
1169400,2022-08-24 01:10:54,-34.9065443481681,-56.1631654489996,0,2.0013124,117.75350114344,119.68919674344,2.296588,2.796175,14.6015096536,18.0480976904,20,5,7.362,121.98578474344,2.296588,3.1093466,14.6015096536,-1.342164,-2.460634,0,240.6, 7.4, -0.1,0,0,1024,1024,1024,1024,0,0,0,0,257.2,0,0,28,3.685,3.676,0,0,0,0,4.709,99.68,119.68919674344,0,38,Tripod,
1169500,2022-08-24 01:10:55,-34.9065451114733,-56.1631662515541,0,2.0669292,117.68788434344,119.68919674344,2.296588,2.5053728,14.932087092,18.4158142376,20,5,7.362,121.98578474344,2.296588,3.1093466,14.932087092,-1.11847,-2.23694,0,240.8, 12.3, 0.1,0,0,1024,1024,1024,1024,0,0,0,0,257.2,0,0,28,3.685,3.676,0,0,0,0,4.709,99.68,119.68919674344,0,38,Tripod,
1169600,2022-08-24 01:10:55,-34.9065456420084,-56.1631672195154,0,2.132546,117.62226754344,119.68919674344,2.624672,1.9908766,15.275098914,18.7641738288,20,5,7.36,121.98578474344,2.296588,3.1093466,15.275098914,-0.894776,-1.789552,0,240.8, 12.3, 0.1,0,0,1024,1024,1024,1024,0,0,0,0,257.2,0,0,28,3.684,3.675,0,0,0,0,4.657,99.68,119.68919674344,0,38,Tripod,
1169700,2022-08-24 01:10:55,-34.9065461121583,-56.1631679136637,0,2.1653544,117.58945914344,119.68919674344,2.624672,1.4987498,15.5345149328,19.0335307928,20,5,7.36,121.98578474344,2.296588,3.1093466,15.5345149328,-0.671082,-1.342164,0,240.8, 10.6, 0.1,0,0,1024,1024,1024,1024,0,0,0,0,257.2,0,0,28,3.684,3.675,0,0,0,0,4.657,99.68,119.68919674344,0,38,Tripod,
1169800,2022-08-24 01:10:55,-34.9065465439081,-56.1631684458499,0,2.1981628,117.55665074344,119.68919674344,2.952756,1.006623,15.7443574592,19.2575137396,19,5,7.36,121.98578474344,2.296588,3.1093466,15.7443574592,-0.447388,-0.894776,0,240.8, 8.6, 0.2,0,0,1024,1024,1024,1024,0,0,0,0,257.2,0,0,28,3.684,3.675,0,0,0,0,4.657,99.68,119.68919674344,0,38,Tripod,
1169900,2022-08-24 01:10:55,-34.9065468311534,-56.163168756792,0,2.2309712,117.52384234344,119.68919674344,2.952756,0.7158208,15.8724414528,19.3976712244,19,5,7.36,121.98578474344,2.296588,3.1093466,15.8724414528,-0.223694,-0.671082,0,240.7, 6.9, 0.1,0,0,1024,1024,1024,1024,0,0,0,0,257.2,0,0,28,3.684,3.675,0,0,0,0,4.657,99.68,119.68919674344,0,38,Tripod,
1170000,2022-08-24 01:10:55,-34.906547051422,-56.1631689444274,0,2.2309712,117.52384234344,119.68919674344,2.952756,0.4921268,15.957021508,19.4957027236,20,5,7.36,121.98578474344,2.296588,3.1093466,15.957021508,-0.223694,-0.447388,0,240.8, 5.5, 0,0,0,1024,1024,1024,1024,0,0,0,0,257.2,0,0,28,3.684,3.675,0,0,0,0,4.657,99.68,119.68919674344,0,38,Tripod,
1170100,2022-08-24 01:10:55,-34.9065471828847,-56.163169010271,0,2.2309712,117.52384234344,119.68919674344,3.28084,0.223694,15.9950136352,19.5475399956,20,5,7.36,121.98578474344,2.296588,3.1093466,15.9950136352,0,-0.223694,0,240.8, 4.3, -0.2,0,0,1041,1024,1024,1024,3,0,0,0,257.2,0,0,28,3.684,3.675,0,0,0,0,4.657,99.68,119.68919674344,0,38,Tripod,
1170200,2022-08-24 01:10:55,-34.9065472787935,-56.1631689984758,0,2.2309712,117.52384234344,119.68919674344,3.28084,0.223694,16.006562192,19.5827106004,20,5,7.36,121.98578474344,2.296588,3.1093466,16.006562192,0,-0.223694,0,240.8, 3.4, -0.4,0,0,1504,1024,1024,1024,73,0,0,0,257.2,0,0,28,3.684,3.675,0,0,0,0,4.657,99.68,119.68919674344,0,38,Tripod,
1170300,2022-08-24 01:10:55,-34.9065469721408,-56.1631687536097,0,2.2309712,117.52384234344,119.68919674344,3.28084,0,15.893045128,19.7164376388,20,5,7.36,121.98578474344,2.296588,3.1093466,16.006562192,0,0,0,240.5, 1.1, -0.2,0,0,1684,1024,1024,1024,100,0,0,0,257.2,0,0,28,3.684,3.675,0,0,0,0,4.657,99.68,119.68919674344,0,38,Tripod,
1170400,2022-08-24 01:10:55,-34.9065469681065,-56.1631686692891,0,2.2309712,117.52384234344,119.68919674344,3.28084,0.223694,15.8695215052,19.7417329152,20,5,7.36,121.98578474344,2.296588,3.1093466,16.006562192,0,-0.223694,0,240.7, -4.9, -0.3,0,0,1684,1024,1024,1024,100,0,0,0,257.2,0,0,28,3.684,3.675,0,0,0,0,4.657,99.68,119.68919674344,0,38,Tripod,
1170500,2022-08-24 01:10:56,-34.9065469135898,-56.1631686967761,0,2.2309712,117.52384234344,119.68919674344,3.28084,0.223694,15.8686684868,19.7632552256,20,5,7.36,121.98578474344,2.296588,3.1093466,16.006562192,0,-0.223694,0,240.9, -7.9, -0.3,0,0,1684,1024,1024,1024,100,0,0,0,257.2,0,0,28,3.684,3.675,0,0,0,0,4.657,99.68,119.68919674344,0,38,Tripod,
1170600,2022-08-24 01:10:56,-34.9065468878638,-56.1631688610966,0,2.2309712,117.52384234344,119.68919674344,3.28084,0.7158208,15.909449328,19.8132880356,20,5,7.357,121.98578474344,2.296588,3.1093466,16.006562192,-0.223694,-0.671082,0,240.8, -8.8, -0.1,0,0,1684,1024,1024,1024,100,0,0,0,257.2,0,0,28,3.683,3.674,0,0,0,0,4.69,99.68,119.68919674344,0,38,Tripod,
1170700,2022-08-24 01:10:56,-34.9065464352156,-56.1631691906933,0,2.1981628,117.55665074344,119.68919674344,2.952756,1.006623,15.9315293812,20.0056436848,20,5,7.357,121.98578474344,2.296588,3.1093466,16.006562192,-0.447388,-0.894776,0,240.8, -8.8, -0.1,0,0,1651,1024,1024,1024,95,0,0,0,257.2,0,0,28,3.683,3.674,0,0,0,0,4.69,99.68,119.68919674344,0,38,Tripod,
1170800,2022-08-24 01:10:56,-34.9065465655833,-56.1631696043652,0,2.2637796,117.49103394344,119.68919674344,2.952756,1.2974252,16.063976892,20.1382552376,20,5,7.357,121.98578474344,2.296588,3.1093466,16.063976892,-0.671082,-1.11847,0,240.7, -8.8, -0.1,0,0,1254,1024,1024,1024,35,0,0,0,257.2,0,0,28,3.683,3.674,0,0,0,0,4.69,99.68,119.68919674344,0,38,Tripod,
1170900,2022-08-24 01:10:56,-34.9065467982313,-56.1631700872483,0,2.2637796,117.49103394344,119.68919674344,3.28084,1.4987498,16.2304467136,20.3058077364,20,5,7.357,121.98578474344,2.296588,3.1093466,16.2304467136,-0.671082,-1.342164,0,240.9, -8.1, 0,0,0,1120,1024,1024,1024,15,0,0,0,257.2,0,0,28,3.683,3.674,0,0,0,0,4.69,99.68,119.68919674344,0,38,Tripod,
1171000,2022-08-24 01:10:56,-34.9065471239902,-56.1631706987252,0,2.296588,117.45822554344,119.68919674344,3.28084,1.8119214,16.4459322848,20.5239835964,20,5,7.357,121.98578474344,2.296588,3.1093466,16.4459322848,-0.894776,-1.565858,0,240.8, -4.3, 0.1,0,0,1120,1024,1024,1024,15,0,0,0,257.2,0,0,28,3.683,3.674,0,0,0,0,4.69,99.68,119.68919674344,0,38,Tripod,
1171100,2022-08-24 01:10:56,-34.9065474749405,-56.1631714322891,0,2.296588,117.45822554344,119.68919674344,3.28084,1.9908766,16.6985897732,20.7780846544,20,5,7.357,121.98578474344,2.296588,3.1093466,16.6985897732,-0.894776,-1.789552,0,240.6, 0, -0.1,0,0,1267,1024,1024,1024,37,0,0,0,257.2,0,0,28,3.683,3.674,0,0,0,0,4.69,99.68,119.68919674344,0,38,Tripod,
1171200,2022-08-24 01:10:56,-34.9065479028392,-56.1631722923953,0,2.3622048,117.39260874344,119.68919674344,3.28084,1.9908766,16.9973430636,21.0791017244,20,5,7.357,121.98578474344,2.296588,3.1093466,16.9973430636,-0.894776,-1.789552,0,240.7, 0.8, -0.1,0,0,1684,1024,1024,1024,100,0,0,0,257.2,0,0,28,3.683,3.674,0,0,0,0,4.69,99.68,119.68919674344,0,38,Tripod,
1171300,2022-08-24 01:10:56,-34.9065483199446,-56.1631732025137,0,2.3950132,117.35980034344,119.68919674344,3.608924,1.8119214,17.3081698452,21.3910439916,20,5,7.357,121.98578474344,2.296588,3.1093466,17.3081698452,-0.894776,-1.565858,0,240.8, -2.6, 0,0,0,1684,1024,1024,1024,100,0,0,0,257.2,0,0,28,3.683,3.674,0,0,0,0,4.69,99.68,119.68919674344,0,38,Tripod,
1171400,2022-08-24 01:10:56,-34.9065487868167,-56.1631742239514,0,2.46063,117.29418354344,119.68919674344,3.608924,1.9908766,17.6568575204,21.7409455776,20,5,7.357,121.98578474344,2.296588,3.1093466,17.6568575204,-0.894776,-1.789552,0,240.8, -7.1, -0.2,0,0,1669,1024,1024,1024,98,0,0,0,257.2,0,0,28,3.683,3.674,0,0,0,0,4.69,99.68,119.68919674344,0,38,Tripod,
1171500,2022-08-24 01:10:56,-34.9065492957734,-56.1631752549057,0,2.4934384,117.26137514344,119.68919674344,3.608924,2.3040482,18.014600314,22.1009849592,20,5,7.357,121.98578474344,2.296588,3.1093466,18.014600314,-1.11847,-2.013246,0,240.8, -8.6, 0,0,0,1559,1024,1024,1024,81,0,0,0,257.2,0,0,28,3.683,3.674,0,0,0,0,4.69,99.68,119.68919674344,0,38,Tripod,
