time(millisecond),datetime(utc),latitude,longitude,height_above_takeoff(feet),height_above_ground_at_drone_location(feet),ground_elevation_at_drone_location(feet),altitude_above_seaLevel(feet),height_sonar(feet),speed(mph),distance(feet),mileage(feet),satellites,gpslevel,voltage(v),max_altitude(feet),max_ascent(feet),max_speed(mph),max_distance(feet), xSpeed(mph), ySpeed(mph), zSpeed(mph), compass_heading(degrees), pitch(degrees), roll(degrees),isPhoto,isVideo,rc_elevator,rc_aileron,rc_throttle,rc_rudder,rc_elevator(percent),rc_aileron(percent),rc_throttle(percent),rc_rudder(percent),gimbal_heading(degrees),gimbal_pitch(degrees),gimbal_roll(degrees),battery_percent,voltageCell1,voltageCell2,voltageCell3,voltageCell4,voltageCell5,voltageCell6,current(A),battery_temperature(f),altitude(feet),ascent(feet),flycStateRaw,flycState,message
0,2025-05-05 00:32:50,-22.7543523824398,-41.8864576224628,0,0,0,0,0.328084,0,0,0,18,5,0,0,0,0,0,0,0,0,88.9, 2.4, 0.2,0,0,364,364,364,1684,-100,-100,-100,100,162.1,0,0,93,4.276,4.276,0,0,0,0,0,82.94,0,0,6,P-GPS,"Error de calibraci칩n del estabilizador. Reinicia la aeronave o contacta con la Asistencia DJI (Code: 40011)"
100,2025-05-05 00:32:51,-22.7543522754966,-41.886457633146,0,0,0,0,0.328084,0,0.039183400204,0.039183400204,18,5,0,0,0,0,0.039183400204,0,0,0,88.9, 2.4, 0.2,0,0,364,364,364,1684,-100,-100,-100,100,162.1,0,0,93,4.276,4.276,0,0,0,0,0,82.94,0,0,41,Motors_Started,"Setting new Return-To-Home altitude to 100m (328 ft). Data Recorder File Index is 62. Setting new Maximum Flight Altitude to 500m (1640 ft)"
200,2025-05-05 00:32:51,-22.7543521764033,-41.8864576401664,0,0,0,0,0.328084,0,0.075407810812,0.075414700576,18,5,0,0,0,0,0.075407810812,0,0,0,88.9, 2.4, 0.2,0,0,364,364,364,1684,-100,-100,-100,100,162.1,0,0,93,4.276,4.276,0,0,0,0,0,82.94,0,0,41,Motors_Started,
300,2025-05-05 00:32:51,-22.7543519761943,-41.8864575880924,0,0,0,0,0.328084,0,0.148668968012,0.150532485132,18,5,0,0,0,0,0.148668968012,0,0,0,88.9, 2.4, 0.2,0,0,364,364,364,1684,-100,-100,-100,100,162.1,0,0,93,4.276,4.276,0,0,0,0,0,82.94,0,0,41,Motors_Started,
400,2025-05-05 00:32:51,-22.7543519072289,-41.8864575875049,0,0,0,0,0.328084,0,0.173778876952,0.175695215596,18,5,0,0,0,0,0.173778876952,0,0,0,88.9, 2.4, 0.1,0,0,364,364,364,1684,-100,-100,-100,100,162.1,0,0,93,4.276,4.276,0,0,0,0,0,82.94,0,0,41,Motors_Started,
500,2025-05-05 00:32:51,-22.7543518507577,-41.8864576282271,0,0,0,0,0.328084,0,0.193993444528,0.200438326624,18,5,0,0,0,0,0.193993444528,0,0,0,88.9, 2.4, 0.2,0,0,364,364,364,1684,-100,-100,-100,100,162.1,0,0,93,4.276,4.276,0,0,0,0,0,82.94,0,0,41,Motors_Started,
600,2025-05-05 00:32:51,-22.7543518063378,-41.8864576627559,0,0,0,0,0.328084,0,0.210627303328,0.220378615976,18,5,0,0,0,0,0.210627303328,0,0,0,88.9, 2.4, 0.2,0,0,364,364,364,1684,-100,-100,-100,100,162.1,0,0,93,4.276,4.276,0,0,0,0,0,82.94,0,0,41,Motors_Started,
700,2025-05-05 00:32:51,-22.75435191822,-41.8864577056355,0,0,0,0,0.328084,0,0.171666344076,0.263673236784,18,5,0,0,0,0,0.210627303328,0,0,0,88.9, 2.3, 0.2,0,0,364,364,364,1684,-100,-100,-100,100,162.1,0,0,93,4.276,4.276,0,0,0,0,0,82.94,0,0,41,Motors_Started,
800,2025-05-05 00:32:51,-22.75435191808,-41.8864577064234,0,0,0,0,0.328084,0,0.1717601761,0.263943249916,18,5,0,0,0,0,0.210627303328,0,0,0,88.9, 2.3, 0.2,0,0,364,364,364,1684,-100,-100,-100,100,162.1,0,0,93,4.276,4.276,0,0,0,0,0,82.94,0,0,41,Motors_Started,
900,2025-05-05 00:32:51,-22.7543518872926,-41.8864576946233,0,0,0,0,0.328084,0,0.182278221056,0.275856964208,18,5,8.552,0,0,0,0.210627303328,0,0,0,88.9, 2.4, 0.2,0,0,364,364,364,1684,-100,-100,-100,100,162.1,0,0,93,4.276,4.276,0,0,0,0,0.619,82.94,0,0,41,Motors_Started,
1000,2025-05-05 00:32:51,-22.7543518633065,-41.8864576899894,0,0,0,0,0.328084,0,0.190763129464,0.284746400188,18,5,8.552,0,0,0,0.210627303328,0,0,0,88.9, 2.4, 0.2,0,0,364,364,364,1684,-100,-100,-100,100,162.1,0,0,93,4.276,4.276,0,0,0,0,0.619,82.94,0,0,41,Motors_Started,
1100,2025-05-05 00:32:52,-22.754351941769,-41.8864577763197,0,0,0,0,0.328084,0,0.168906501468,0.325528553724,18,5,8.552,0,0,0,0.210627303328,0,0,0,88.9, 2.4, 0.2,0,0,364,364,364,1684,-100,-100,-100,100,162.1,0,0,93,4.276,4.276,0,0,0,0,0.619,82.94,0,0,41,Motors_Started,
1200,2025-05-05 00:32:52,-22.754351938701,-41.8864578114178,0,0,0,0,0.328084,0,0.173932748348,0.33739174308,18,5,8.552,0,0,0,0.210627303328,0,0,0,88.9, 2.4, 0.2,0,0,364,364,364,1684,-100,-100,-100,100,162.1,0,0,93,4.276,4.276,0,0,0,0,0.619,82.94,0,0,10,Assisted_Takeoff,
1300,2025-05-05 00:32:52,-22.754351898077,-41.8864578194145,0,0,0,0,0.328084,0,0.188734914176,0.35245407952,18,5,8.552,0,0,0,0.210627303328,0,0,0,88.9, 2.4, 0.2,0,0,1005,994,1024,1053,-3,-5,0,4,162.1,0,0,93,4.276,4.276,0,0,0,0,0.619,82.94,0,0,10,Assisted_Takeoff,
1400,2025-05-05 00:32:52,-22.7543518642835,-41.8864578323014,0,0,0,0,0.328084,0,0.201801843728,0.36552494608,18,5,8.552,0,0,0,0.210627303328,0,0,0,88.8, 2.4, 0.1,0,0,1024,1024,1024,1024,0,0,0,0,162.1,0,0,93,4.276,4.276,0,0,0,0,0.619,82.94,0,0,10,Assisted_Takeoff,
1500,2025-05-05 00:32:52,-22.75435185758,-41.8864578775316,0,0,0,0,0.328084,0,0.209845479156,0.3809383324,18,5,8.552,0,0,0,0.210627303328,0,0,0,88.9, 2.3, 0.1,0,0,1024,1024,1024,1024,0,0,0,0,162.1,0,0,93,4.276,4.276,0,0,0,0,0.619,82.94,0,0,10,Assisted_Takeoff,
1600,2025-05-05 00:32:52,-22.7543518568082,-41.8864579495972,0,0,0,0,0.328084,0,0.221116804976,0.40518374,18,5,8.552,0,0,0,0.221116804976,0,0,0,88.8, 2.4, 0.1,0,0,1024,1024,1050,1024,0,0,4,0,162.1,0,0,93,4.276,4.276,0,0,0,0,0.619,82.94,0,0,10,Assisted_Takeoff,
1700,2025-05-05 00:32:52,-22.7543518118696,-41.8864579559802,0,0,0,0,0.328084,0,0.236489836964,0.42172245444,18,5,8.552,0,0,0,0.236489836964,0,0,0,88.9, 2.3, 0.2,0,0,1024,1024,1344,1024,0,0,48,0,162.1,0,0,93,4.276,4.276,0,0,0,0,0.619,82.94,0,0,10,Assisted_Takeoff,
1800,2025-05-05 00:32:52,-22.7543517674408,-41.8864579677004,0,0,0,0,0.328084,0,0.252665034332,0.438402245,18,5,8.552,0,0,0,0.252665034332,0,0,0,88.8, 2.3, 0.2,0,0,1024,1024,1437,1024,0,0,63,0,162.1,0,0,93,4.276,4.276,0,0,0,0,0.619,82.94,0,0,10,Assisted_Takeoff,
1900,2025-05-05 00:32:52,-22.7543517092728,-41.8864580105238,0,0,0,0,0.328084,0,0.278152239872,0.46405513296,18,5,8.507,0,0,0,0.278152239872,0,0,0,88.8, 2.3, 0.2,0,0,1024,1024,1437,1024,0,0,63,0,162.1,0,0,93,4.252,4.249,0,0,0,0,1.185,82.94,0,0,10,Assisted_Takeoff,
2000,2025-05-05 00:32:52,-22.7543515955227,-41.8864580683043,0,0,0,0,0.328084,0,0.323931440812,0.50988518692,18,5,8.507,0,0,0,0.323931440812,0,0,0,88.8, 2.3, 0.2,0,0,1024,1024,1336,1024,0,0,47,0,162.1,0,0,93,4.252,4.249,0,0,0,0,1.185,82.94,0,0,10,Assisted_Takeoff,
2100,2025-05-05 00:32:53,-22.7543515902164,-41.8864580703642,0,0,0,0,0.328084,0,0.325968186284,0.51193899276,18,5,8.507,0,0,0,0.325968186284,0,0,0,88.8, 2.3, 0.1,0,0,1024,1024,1024,1024,0,0,0,0,162.1,0,0,93,4.252,4.249,0,0,0,0,1.185,82.94,0,0,10,Assisted_Takeoff,
2200,2025-05-05 00:32:53,-22.7543515808895,-41.8864580698782,0,0,0,0,0.328084,0,0.32891405252,0.51534778552,18,5,8.507,0,0,0,0.32891405252,0,0,0,88.7, 2.1, 0.1,0,0,1024,1024,1024,1024,0,0,0,0,162,0,0,93,4.252,4.249,0,0,0,0,1.185,82.94,0,0,10,Assisted_Takeoff,
2300,2025-05-05 00:32:53,-22.7543515441705,-41.8864580627673,0,0,0,0,0.328084,0,0.33983268804,0.52895670984,18,5,8.507,0,0,0,0.33983268804,0,0,0,87.9, 2.1, 0.1,0,0,1024,1024,1416,1024,0,0,59,0,161.6,0,0,93,4.252,4.249,0,0,0,0,1.185,82.94,0,0,10,Assisted_Takeoff,
2400,2025-05-05 00:32:53,-22.7543515307758,-41.8864580187349,0,0,0,0,0.328084,0,0.33812665124,0.54455710404,18,5,8.507,0,0,0,0.33983268804,0,0,0,87.6, 2.5, 0.1,0,0,1024,1024,1533,1024,0,0,77,0,161.2,0,0,93,4.252,4.249,0,0,0,0,1.185,82.94,0,0,10,Assisted_Takeoff,
2500,2025-05-05 00:32:53,-22.7543515299102,-41.8864580663374,0,0,0,0,0.328084,0,0.34503938112,0.56057416492,18,5,8.507,0,0,0,0.34503938112,0,0,0,87.1, 2, 0.1,0,0,1024,1024,1329,1024,0,0,46,0,160.7,0,0,93,4.252,4.249,0,0,0,0,1.185,82.94,0,0,10,Assisted_Takeoff,
2600,2025-05-05 00:32:53,-22.7543515220709,-41.8864581060524,0,0,0,0,0.328084,0,0.35356628428,0.57424214436,18,5,8.507,0,0,0,0.35356628428,0,0,0,86.8, -1.1, 0.1,0,0,1024,1024,1199,1024,0,0,27,0,160.3,0,0,93,4.252,4.249,0,0,0,0,1.185,82.94,0,0,10,Assisted_Takeoff,
2700,2025-05-05 00:32:53,-22.7543514813183,-41.8864581025642,0,0.032808399999999,-0.032808399999999,0,0.328084,0,0.36631234768,0.589156843,18,5,8.507,0,0,0,0.36631234768,0,0,-0.223694,86.2, -1.8, 0.4,0,0,1024,1024,1145,1024,0,0,18,0,159.9,0,0,93,4.252,4.249,0,0,0,0,1.185,82.94,0,0,10,Assisted_Takeoff,
2800,2025-05-05 00:32:53,-22.7543514518662,-41.8864581045832,0,0.032808399999999,-0.032808399999999,0,0.328084,0,0.3762795396,0.59992127904,18,5,8.507,0,0,0,0.3762795396,0,0,-0.671082,86.2, -0.6, -0.1,0,0,1024,1024,1145,1024,0,0,18,0,159.9,0,0,93,4.252,4.249,0,0,0,0,1.185,82.94,0,0,6,P-GPS,
2900,2025-05-05 00:32:53,-22.7543513903705,-41.8864580898984,0.328084,0.3608924,-0.032808399999999,0.328084,0.656168,0,0.39464568192,0.62289700156,18,5,8.518,0.328084,0.328084,0,0.39464568192,0,0,-0.671082,86.5, 0.6, 0,0,0,1381,1024,1024,1024,54,0,0,0,159.9,0,0,93,4.261,4.26,0,0,0,0,1.333,82.94,0.328084,0.328084,6,P-GPS,
3000,2025-05-05 00:32:53,-22.7543513385388,-41.8864580860291,0.328084,0.3608924,-0.032808399999999,0.328084,0.656168,0,0.4115649738,0.64185369508,18,5,8.518,0.328084,0.328084,0,0.4115649738,0,0,-0.894776,86.5, 0, 0,0,0,1684,1024,1024,1024,100,0,0,0,159.9,0,0,93,4.261,4.26,0,0,0,0,1.333,82.94,0.328084,0.328084,6,P-GPS,
3100,2025-05-05 00:32:54,-22.7543513231247,-41.8864580722244,0.328084,0.3608924,-0.032808399999999,0.328084,0.656168,0.223694,0.4150590684,0.6491470024,18,5,8.518,0.328084,0.328084,0.223694,0.4150590684,0,0.223694,-0.894776,86.5, -9.5, 0,0,0,1398,1024,1024,1024,57,0,0,0,159.9,0,0,93,4.261,4.26,0,0,0,0,1.333,82.94,0.328084,0.328084,6,P-GPS,"Punto de origen actualizado. Altitud de RPO establecida en 100m (Code: 30213)"
3200,2025-05-05 00:32:54,-22.7543512946058,-41.8864579174054,0.656168,0.6889764,-0.032808399999999,0.656168,0.656168,0.671082,0.40911418632,0.702263802,19,5,8.518,0.656168,0.656168,0.671082,0.4150590684,0,0.671082,-0.894776,86.5, -14.9, 0.4,0,0,1203,1024,1024,1024,27,0,0,0,159.9,0,0,93,4.261,4.26,0,0,0,0,1.333,82.94,0.656168,0.656168,6,P-GPS,
3300,2025-05-05 00:32:54,-22.75435120698,-41.8864574512888,0.656168,0.656168,0,0.656168,0.984252,1.11847,0.43271654928,0.86231630056,19,5,8.518,0.656168,0.656168,1.11847,0.43271654928,0,1.11847,-0.894776,86.5, -8.9, 0.4,0,0,1150,1024,1062,1024,19,0,6,0,159.9,0,0,93,4.261,4.26,0,0,0,0,1.333,82.94,0.656168,0.656168,6,P-GPS,
3400,2025-05-05 00:32:54,-22.7543511558778,-41.8864568613108,0.656168,0.656168,0,0.656168,0.984252,1.342164,0.51560697188,1.06168966652,19,5,8.518,0.656168,0.656168,1.342164,0.51560697188,0,1.342164,-0.894776,86.4, -3.4, 0.2,0,0,1187,1024,1472,1024,25,0,68,0,159.9,0,0,93,4.261,4.26,0,0,0,0,1.333,82.94,0.656168,0.656168,6,P-GPS,
3500,2025-05-05 00:32:54,-22.7543511793632,-41.8864562171065,0.984252,0.984252,0,0.984252,1.312336,1.342164,0.64517062432,1.27860568396,19,5,8.518,0.984252,0.984252,1.342164,0.64517062432,0,1.342164,-0.894776,86.4, -0.9, 0,0,0,1300,1024,1538,1024,42,0,78,0,159.9,0,0,93,4.261,4.26,0,0,0,0,1.333,82.94,0.984252,0.984252,6,P-GPS,
3600,2025-05-05 00:32:54,-22.7543511615798,-41.886455565064,0.984252,0.984252,0,0.984252,1.312336,1.565858,0.82314963264,1.49808403744,19,5,8.518,0.984252,0.984252,1.565858,0.82314963264,0,1.565858,-1.11847,86.4, -0.7, -0.1,0,0,1300,1024,1538,1024,42,0,78,0,159.9,0,0,93,4.261,4.26,0,0,0,0,1.333,82.94,0.984252,0.984252,6,P-GPS,
3700,2025-05-05 00:32:54,-22.7543506953807,-41.8864543721855,1.312336,1.2467192,0.0656168,1.312336,1.64042,1.565858,1.25489505328,1.93398628236,19,5,8.518,1.312336,1.312336,1.565858,1.25489505328,0,1.565858,-1.565858,86.5, -2.2, -0.1,0,0,1348,1024,1557,1024,49,0,81,0,159.9,0,0,93,4.261,4.26,0,0,0,0,1.333,82.94,1.312336,1.312336,6,P-GPS,
3800,2025-05-05 00:32:54,-22.7543504311445,-41.8864535044298,1.64042,1.6076116,0.032808400000001,1.64042,1.968504,1.5882274,1.55773298948,2.24145020296,18,5,8.518,1.64042,1.64042,1.5882274,1.55773298948,0.223694,1.565858,-2.013246,86.7, -4, 0,0,0,1390,1024,1584,1024,55,0,85,0,159.9,0,0,93,4.261,4.26,0,0,0,0,1.333,82.94,1.64042,1.64042,6,P-GPS,
3900,2025-05-05 00:32:54,-22.7543500268491,-41.88645254914,1.968504,1.9356956,0.032808400000001,1.968504,2.296588,1.8119214,1.91109258084,2.5950952274,18,5,8.416,1.968504,1.968504,1.8119214,1.91109258084,0.223694,1.789552,-2.684328,86.8, -5.4, 0,0,0,1391,1024,1584,1024,56,0,85,0,159.9,0,0,93,4.183,4.174,0,0,0,0,2.618,82.94,1.968504,1.968504,6,P-GPS,
4000,2025-05-05 00:32:54,-22.7543495868724,-41.8864515985033,2.296588,2.2309712,0.0656168,2.296588,2.624672,1.8119214,2.26896004636,2.95296269292,18,5,8.416,2.296588,2.296588,1.8119214,2.26896004636,0.447388,1.789552,-3.35541,86.7, -6, 0.9,0,0,1392,1024,1585,1024,56,0,85,0,159.9,0,0,93,4.183,4.174,0,0,0,0,2.618,82.94,2.296588,2.296588,6,P-GPS,
4100,2025-05-05 00:32:55,-22.754348049248,-41.8864511022197,2.952756,2.9199476,0.032808400000001,2.952756,3.28084,2.2816788,2.70407488968,3.5382875148,18,5,8.416,2.952756,2.952756,2.2816788,2.70407488968,0.447388,2.23694,-4.026492,86.8, -6.2, 1.2,0,0,1427,1024,1585,1024,61,0,85,0,159.9,0,0,93,4.183,4.174,0,0,0,0,2.618,82.94,2.952756,2.952756,6,P-GPS,
4200,2025-05-05 00:32:55,-22.7543474820561,-41.8864502495364,3.608924,3.608924,0,3.608924,3.937008,2.5501116,3.05781177764,3.8920276836,18,5,8.416,3.608924,3.608924,2.5501116,3.05781177764,0.671082,2.460634,-4.47388,86.8, -5.2, 1.7,0,0,1559,1024,1553,1024,81,0,80,0,159.9,0,0,93,4.183,4.174,0,0,0,0,2.618,82.94,3.608924,3.608924,6,P-GPS,
4300,2025-05-05 00:32:55,-22.7543469797474,-41.8864492562626,4.265092,4.2322836,0.032808400000001,4.265092,4.593176,2.7738056,3.4363846244,4.2731628664,18,5,8.416,4.265092,4.265092,2.7738056,3.4363846244,0.671082,2.684328,-4.921268,86.8, -6.1, 2.3,0,0,1628,1024,1281,1024,92,0,39,0,159.9,0,0,93,4.183,4.174,0,0,0,0,2.618,82.94,4.265092,4.265092,6,P-GPS,
4400,2025-05-05 00:32:55,-22.7543465120361,-41.8864482233639,4.92126,4.8556432,0.0656168,4.92126,5.577428,2.9751302,3.8194226944,4.6603347948,18,5,8.416,4.92126,4.92126,2.9751302,3.8194226944,0.671082,2.908022,-5.144962,86.8, -8.8, 2.3,0,0,1684,1024,1271,1024,100,0,37,0,159.9,0,0,93,4.183,4.174,0,0,0,0,2.618,82.94,4.92126,4.92126,6,P-GPS,
4500,2025-05-05 00:32:55,-22.7543456746056,-41.8864475848535,5.905512,5.8727036,0.032808400000001,5.905512,6.233596,3.1988242,4.1707350416,5.0338256204,18,5,8.416,5.905512,5.905512,3.1988242,4.1707350416,0.671082,3.131716,-4.697574,86.8, -12.4, 2.5,0,0,1684,1024,1271,1024,100,0,37,0,159.9,0,0,93,4.183,4.174,0,0,0,0,2.618,82.94,5.905512,5.905512,6,P-GPS,
4600,2025-05-05 00:32:55,-22.7543452065696,-41.8864463005237,6.56168,6.5288716,0.032808400000001,6.56168,6.889764,3.4225182,4.6222770508,5.4984581812,18,5,8.416,6.56168,6.56168,3.4225182,4.6222770508,0.671082,3.35541,-4.250186,86.7, -15.5, 2.7,0,0,1684,1024,1530,1024,100,0,77,0,159.9,0,0,93,4.183,4.174,0,0,0,0,2.618,82.94,6.56168,6.56168,6,P-GPS,
4700,2025-05-05 00:32:55,-22.7543446661781,-41.886444749936,7.217848,7.1522312,0.0656168,7.217848,7.545932,3.8699062,5.1655841548,6.0561681728,18,5,8.416,7.217848,7.217848,3.8699062,5.1655841548,0.671082,3.802798,-3.802798,86.5, -17.3, 2.7,0,0,1684,1024,1640,1024,100,0,93,0,159.9,0,0,93,4.183,4.174,0,0,0,0,2.618,82.94,7.217848,7.217848,6,P-GPS,
4800,2025-05-05 00:32:55,-22.7543441394003,-41.8864430453081,7.874016,7.8083992,0.0656168,7.874016,8.2021,4.5186188,5.7532154072,6.6610566436,18,5,8.416,7.874016,7.874016,4.5186188,5.7532154072,0.671082,4.47388,-4.026492,86.5, -16.7, 2.5,0,0,1684,1024,1682,1024,100,0,100,0,159.9,0,0,93,4.183,4.174,0,0,0,0,2.618,82.94,7.874016,7.874016,6,P-GPS,
4900,2025-05-05 00:32:55,-22.7543435014787,-41.8864409353564,8.2021,8.1036748,0.098425200000001,8.2021,8.858268,5.1897008,6.4823492888,7.40813672,18,5,8.307,8.2021,8.2021,5.1897008,6.4823492888,0.671082,5.144962,-4.47388,86.6, -14.6, 2.5,0,0,1684,1024,1684,1024,100,0,100,0,159.9,0,0,93,4.137,4.117,0,0,0,0,4.686,83.12,8.2021,8.2021,6,P-GPS,
5000,2025-05-05 00:32:55,-22.7543423542201,-41.8864388898193,9.186352,9.0879268,0.098425200000001,9.186352,9.514436,5.8831522,7.2876970836,8.2136485568,19,5,8.307,9.186352,9.186352,5.8831522,7.2876970836,0.894776,5.816044,-5.144962,86.7, -13.5, 2.4,0,0,1684,1024,1684,1024,100,0,100,0,159.9,0,0,93,4.137,4.117,0,0,0,0,4.686,83.12,9.186352,9.186352,6,P-GPS,
5100,2025-05-05 00:32:56,-22.7543414998866,-41.8864362954613,9.84252,9.7112864,0.1312336,9.84252,10.498688,6.3305402,8.2008204724,9.1405186652,19,5,8.307,9.84252,9.84252,6.3305402,8.2008204724,0.894776,6.263432,-5.816044,86.8, -13.1, 2.6,0,0,1684,1024,1684,1024,100,0,100,0,159.9,0,0,93,4.137,4.117,0,0,0,0,4.686,83.12,9.84252,9.84252,6,P-GPS,
5200,2025-05-05 00:32:56,-22.7543406129782,-41.8864336077547,10.826772,10.66273,0.164042,10.826772,11.48294,6.8002976,9.1500331012,10.1009517668,19,5,8.307,10.826772,10.826772,6.8002976,9.1500331012,1.11847,6.71082,-6.263432,86.9, -13.3, 2.8,0,0,1684,1024,1684,1024,100,0,100,0,159.9,0,0,93,4.137,4.117,0,0,0,0,4.686,83.12,10.826772,10.826772,6,P-GPS,
5300,2025-05-05 00:32:56,-22.7543394635547,-41.8864304088042,11.811024,11.6141736,0.1968504,11.811024,12.467192,7.2476856,10.2981302508,11.256069914,19,5,8.307,11.811024,11.811024,7.2476856,10.2981302508,1.11847,7.158208,-6.487126,87.4, -13.4, 3.4,0,0,1684,1024,1684,1024,100,0,100,0,159.9,0,0,93,4.137,4.117,0,0,0,0,4.686,83.12,11.811024,11.811024,6,P-GPS,
5400,2025-05-05 00:32:56,-22.7543367702589,-41.8864270589789,12.795276,12.5984256,0.1968504,12.795276,13.451444,7.5384878,11.755413762,12.7513455524,19,5,8.307,12.795276,12.795276,7.5384878,11.755413762,1.565858,7.381902,-6.487126,87.6, -13.5, 3.9,0,0,1684,1024,1684,1024,100,0,100,0,159.9,0,0,93,4.137,4.117,0,0,0,0,4.686,83.12,12.795276,12.795276,6,P-GPS,
5500,2025-05-05 00:32:56,-22.7543351914523,-41.8864233961797,13.779528,13.5498692,0.2296588,13.779528,14.435696,7.941137,13.1128941204,14.1116802416,19,5,8.307,13.779528,13.779528,7.941137,13.1128941204,5.144962,6.039738,-6.487126,86.3, -13.8, 4.6,0,0,1684,1024,1684,1024,100,0,100,0,159.9,0,0,93,4.137,4.117,0,0,0,0,4.686,83.12,13.779528,13.779528,6,P-GPS,
5600,2025-05-05 00:32:56,-22.7543335932135,-41.8864197624072,14.76378,14.5013128,0.2624672,14.76378,15.419948,8.9030212,14.4656500692,15.4662406524,19,5,8.307,14.76378,14.76378,8.9030212,14.4656500692,4.250186,7.82929,-6.487126,84.6, -13.9, 4.2,0,0,1684,1024,1684,1024,100,0,100,0,159.9,0,0,93,4.137,4.117,0,0,0,0,4.686,83.12,14.76378,14.76378,6,P-GPS,
5700,2025-05-05 00:32:56,-22.7543316691296,-41.8864158252015,16.076116,15.7808404,0.2952756,16.076116,16.4042,9.3056704,15.9648299072,16.9654204904,19,5,8.307,16.076116,16.076116,9.3056704,15.9648299072,4.250186,8.276678,-6.487126,83, -13, 1.2,0,0,1684,1024,1684,1024,100,0,100,0,159.9,0,0,93,4.137,4.117,0,0,0,0,4.686,83.12,16.076116,16.076116,6,P-GPS,
5800,2025-05-05 00:32:56,-22.7543252879863,-41.8864120269607,17.060368,16.8307092,0.2296588,17.060368,17.388452,9.5964726,18.2499349672,19.6212604704,19,5,8.307,17.060368,17.060368,9.5964726,18.2499349672,4.47388,8.500372,-6.71082,81.5, -12.7, -0.1,0,0,1684,1024,1684,1024,100,0,100,0,159.9,0,0,93,4.137,4.117,0,0,0,0,4.686,83.12,17.060368,17.060368,6,P-GPS,
5900,2025-05-05 00:32:56,-22.7543229966207,-41.886408086601,18.04462,17.7821528,0.2624672,18.04462,18.372704,9.7083196,19.8171922352,21.1885833552,19,5,8.332,18.04462,18.04462,9.7083196,19.8171922352,4.697574,8.500372,-6.71082,80.1, -12.9, -0.2,0,0,1684,1024,1684,1024,100,0,100,0,159.9,0,0,93,4.097,4.085,0,0,0,0,5.5,83.12,18.04462,18.04462,6,P-GPS,
6000,2025-05-05 00:32:56,-22.7543207178918,-41.886404272242,19.028872,18.7335964,0.2952756,19.028872,19.356956,10.0214912,21.3463261424,22.7177172624,19,5,8.332,19.028872,19.028872,10.0214912,21.3463261424,4.921268,8.724066,-6.71082,78.7, -13, -0.7,0,0,1684,1017,1684,1024,100,-1,100,0,159.9,0,0,93,4.097,4.085,0,0,0,0,5.5,83.12,19.028872,19.028872,6,P-GPS,
6100,2025-05-05 00:32:57,-22.7543182767663,-41.8864001973442,20.013124,19.7178484,0.2952756,20.013124,20.341208,10.3122934,22.9812015228,24.3526254512,19,5,8.332,20.013124,20.013124,10.3122934,22.9812015228,5.144962,8.94776,-6.71082,77.6, -13.2, -0.5,0,0,1684,1018,1684,1024,100,-1,100,0,159.9,0,0,93,4.097,4.085,0,0,0,0,5.5,83.12,20.013124,20.013124,6,P-GPS,
6200,2025-05-05 00:32:57,-22.754315076965,-41.8863963493367,20.997376,20.669292,0.328084,20.997376,21.32546,10.3122934,24.703412864,26.0959325936,19,5,8.332,20.997376,20.997376,10.3122934,24.703412864,5.368656,9.171454,-6.71082,76.4, -13.1, -0.1,0,0,1684,1024,1684,1024,100,0,100,0,159.9,0,0,93,4.097,4.085,0,0,0,0,5.5,83.12,20.997376,20.997376,6,P-GPS,
6300,2025-05-05 00:32:57,-22.7543124452464,-41.8863920324152,21.981628,21.653544,0.328084,21.981628,22.309712,10.737312,26.4445218436,27.8370415732,19,5,8.332,21.981628,21.981628,10.737312,26.4445218436,5.59235,9.171454,-6.71082,75.2, -13.1, -0.3,0,0,1684,1024,1684,1024,100,0,100,0,159.9,0,0,93,4.097,4.085,0,0,0,0,5.5,83.12,21.981628,21.981628,6,P-GPS,
6400,2025-05-05 00:32:57,-22.7543098903123,-41.8863878671115,22.96588,22.5721792,0.3937008,22.96588,23.293964,11.0504836,28.1276583804,29.52017811,19,5,8.332,22.96588,22.96588,11.0504836,28.1276583804,5.816044,9.395148,-6.71082,74.1, -12.9, -0.4,0,0,1684,1024,1684,1024,100,0,100,0,159.9,0,0,93,4.097,4.085,0,0,0,0,5.5,83.12,22.96588,22.96588,6,P-GPS,
6500,2025-05-05 00:32:57,-22.7543072347533,-41.8863835058394,23.622048,23.2611556,0.3608924,23.622048,24.278216,11.0504836,29.8860245784,31.2785771164,19,5,8.332,23.622048,23.622048,11.0504836,29.8860245784,5.816044,9.618842,-6.487126,72.9, -13, -0.2,0,0,1684,1024,1684,1024,100,0,100,0,159.9,0,0,93,4.097,4.085,0,0,0,0,5.5,83.12,23.622048,23.622048,6,P-GPS,
6600,2025-05-05 00:32:57,-22.7543046532005,-41.8863792819621,24.6063,24.2454076,0.3608924,24.6063,25.262468,11.5426104,31.5909787012,32.983596856,19,5,8.332,24.6063,24.6063,11.5426104,31.5909787012,6.039738,9.842536,-6.487126,71.9, -13, -0.1,0,0,1684,1024,1684,1024,100,0,100,0,159.9,0,0,93,4.097,4.085,0,0,0,0,5.5,83.12,24.6063,24.6063,6,P-GPS,
6700,2025-05-05 00:32:57,-22.7543016831858,-41.886374624027,25.590552,25.262468,0.328084,25.590552,25.590552,11.855782,33.49573598,34.888780644,19,5,8.332,25.590552,25.590552,11.855782,33.49573598,6.263432,10.06623,-6.487126,71, -12.9, -0.1,0,0,1684,1024,1684,1024,100,0,100,0,159.9,0,0,93,4.097,4.085,0,0,0,0,5.5,83.12,25.590552,25.590552,6,P-GPS,
6800,2025-05-05 00:32:57,-22.7542989942241,-41.8863702084593,26.574804,26.24672,0.328084,26.574804,25.590552,12.1689536,35.276247848,36.669292512,19,5,8.332,26.574804,26.574804,12.1689536,35.276247848,6.487126,10.289924,-6.487126,70.2, -12.6, 0.2,0,0,1684,1024,1684,1024,100,0,100,0,159.9,0,0,93,4.097,4.085,0,0,0,0,5.5,83.12,26.574804,26.574804,6,P-GPS,
6900,2025-05-05 00:32:57,-22.7542960865364,-41.886365570154,27.559056,27.2637804,0.2952756,27.559056,25.590552,12.2808006,37.163058932,38.556103596,19,5,8.217,27.559056,27.559056,12.2808006,37.163058932,6.71082,10.289924,-6.487126,69.5, -12.7, 0.3,0,0,1684,1024,1684,1024,100,0,100,0,159.9,0,0,93,4.12,4.108,0,0,0,0,6.516,83.12,27.559056,27.559056,6,P-GPS,
7000,2025-05-05 00:32:57,-22.7542932666674,-41.8863610922967,28.543308,28.2480324,0.2952756,28.543308,25.590552,12.5939722,38.987205972,40.38057872,19,5,8.217,28.543308,28.543308,12.5939722,38.987205972,6.934514,10.513618,-6.487126,68.9, -12.8, 0.4,0,0,1684,1024,1684,1024,100,0,100,0,159.9,0,0,93,4.12,4.108,0,0,0,0,6.516,83.12,28.543308,28.543308,6,P-GPS,
7100,2025-05-05 00:32:58,-22.7542897361715,-41.8863563929467,29.52756,29.2322844,0.2952756,29.52756,25.590552,12.7729274,41.017389764,42.419948864,19,5,8.217,29.52756,29.52756,12.7729274,41.017389764,6.934514,10.737312,-6.487126,68.2, -12.5, 0.6,0,0,1684,1024,1684,1024,100,0,100,0,159.9,0,0,93,4.12,4.108,0,0,0,0,6.516,83.12,29.52756,29.52756,6,P-GPS,
7200,2025-05-05 00:32:58,-22.7542867870138,-41.8863517860416,30.511812,30.2493448,0.2624672,30.511812,25.590552,12.4821252,42.904200848,44.306759948,19,5,8.217,30.511812,30.511812,12.7729274,42.904200848,6.71082,10.513618,-6.487126,67.4, -13.2, 0.6,0,0,1684,1024,1684,1024,100,0,100,0,159.9,0,0,93,4.12,4.108,0,0,0,0,6.516,83.12,30.511812,30.511812,6,P-GPS,
7300,2025-05-05 00:32:58,-22.7542839993001,-41.8863470554213,31.496064,31.2335968,0.2624672,31.496064,25.590552,12.7729274,44.792652352,46.195539536,19,5,8.217,31.496064,31.496064,12.7729274,44.792652352,6.934514,10.737312,-6.487126,66.7, -13.9, 0.5,0,0,1684,1024,1684,1024,100,0,100,0,159.9,0,0,93,4.12,4.108,0,0,0,0,6.516,83.12,31.496064,31.496064,6,P-GPS,
7400,2025-05-05 00:32:58,-22.7542813270105,-41.8863424930248,32.480316,32.2506572,0.2296588,32.480316,25.590552,12.974252,46.610565796,48.014109148,19,5,8.217,32.480316,32.480316,12.974252,46.610565796,6.934514,10.961006,-6.487126,66.2, -14, 0.2,0,0,1684,1024,1684,1024,100,0,100,0,159.9,0,0,93,4.12,4.108,0,0,0,0,6.516,83.12,32.480316,32.480316,6,P-GPS,
7500,2025-05-05 00:32:58,-22.7542796648577,-41.8863382023987,33.464568,33.2021008,0.2624672,33.464568,25.590552,12.862405,48.148295504,49.58005408,19,5,8.217,33.464568,33.464568,12.974252,48.148295504,6.71082,10.961006,-6.487126,65.7, -14, 0.1,0,0,1684,1024,1684,1024,100,0,100,0,159.9,0,0,93,4.12,4.108,0,0,0,0,6.516,83.12,33.464568,33.464568,6,P-GPS,
7600,2025-05-05 00:32:58,-22.7542769973687,-41.8863335164356,34.44882,34.2191612,0.2296588,34.44882,25.590552,13.0413602,50.000329684,51.432744428,19,5,8.217,34.44882,34.44882,13.0413602,50.000329684,6.71082,11.1847,-6.487126,65.3, -13.9, -0.3,0,0,1684,1024,1684,1024,100,0,100,0,159.9,0,0,93,4.12,4.108,0,0,0,0,6.516,83.12,34.44882,34.44882,6,P-GPS,
7700,2025-05-05 00:32:58,-22.7542742738222,-41.8863285693298,35.433072,35.2034132,0.2296588,35.433072,25.590552,13.1532072,51.937009536,53.371392784,19,5,8.217,35.433072,35.433072,13.1532072,51.937009536,6.934514,11.1847,-6.71082,64.7, -14.3, -0.4,0,0,1684,1024,1684,1024,100,0,100,0,159.9,0,0,93,4.12,4.108,0,0,0,0,6.516,83.12,35.433072,35.433072,6,P-GPS,
7800,2025-05-05 00:32:58,-22.7542716303039,-41.8863237818824,36.417324,36.1876652,0.2296588,36.417324,25.590552,13.3545318,53.812993848,55.248689432,18,5,8.217,36.417324,36.417324,13.3545318,53.812993848,6.934514,11.408394,-6.71082,64.2, -14.7, -0.4,0,0,1684,1024,1684,1024,100,0,100,0,159.9,0,0,93,4.12,4.108,0,0,0,0,6.516,83.12,36.417324,36.417324,6,P-GPS,
7900,2025-05-05 00:32:58,-22.75426906499,-41.8863184853045,37.401576,37.1719172,0.2296588,37.401576,25.590552,13.6677034,55.81693092,57.261484772,18,5,8.224,37.401576,37.401576,13.6677034,55.81693092,7.158208,11.632088,-6.71082,63.9, -15.2, -0.6,0,0,1684,1024,1684,1024,100,0,100,0,159.9,0,0,93,4.108,4.093,0,0,0,0,5.731,83.12,37.401576,37.401576,6,P-GPS,
8000,2025-05-05 00:32:58,-22.7542661710757,-41.8863133998702,38.385828,38.1561692,0.2296588,38.385828,25.590552,13.7795504,57.827101588,59.272311608,18,5,8.224,38.385828,38.385828,13.7795504,57.827101588,7.381902,11.632088,-6.487126,63.5, -15.1, -0.5,0,0,1684,1024,1576,1024,100,0,84,0,159.9,0,0,93,4.108,4.093,0,0,0,0,5.731,83.12,38.385828,38.385828,6,P-GPS,
8100,2025-05-05 00:32:59,-22.7542630745503,-41.8863080075865,39.37008,39.1732296,0.1968504,39.37008,25.590552,13.9585056,59.96391268,61.409450784,18,5,8.224,39.37008,39.37008,13.9585056,59.96391268,7.381902,11.855782,-6.487126,62.9, -14.8, -0.5,0,0,1624,1024,1276,1024,91,0,38,0,159.9,0,0,93,4.108,4.093,0,0,0,0,5.731,83.12,39.37008,39.37008,6,P-GPS,
8200,2025-05-05 00:32:59,-22.7542600931169,-41.8863028569084,40.354332,40.1574816,0.1968504,40.354332,25.590552,13.9585056,62.009844504,63.455382608,19,5,8.224,40.354332,40.354332,13.9585056,62.009844504,7.381902,11.855782,-6.039738,62.6, -14.6, -0.4,0,0,1591,1024,1077,1024,86,0,8,0,159.9,0,0,93,4.108,4.093,0,0,0,0,5.731,83.12,40.354332,40.354332,6,P-GPS,
8300,2025-05-05 00:32:59,-22.7542569608309,-41.886297523895,41.338584,41.1417336,0.1968504,41.338584,25.590552,13.9585056,64.13714116,65.583007348,19,5,8.224,41.338584,41.338584,13.9585056,64.13714116,7.381902,11.855782,-5.368656,62.3, -14.3, 0,0,0,1442,1024,1024,1024,63,0,0,0,159.9,0,0,93,4.108,4.093,0,0,0,0,5.731,83.12,41.338584,41.338584,6,P-GPS,
8400,2025-05-05 00:32:59,-22.7542541376497,-41.8862925136356,41.994752,41.83071,0.164042,41.994752,25.590552,13.9585056,66.111878756,67.558401112,19,5,8.224,41.994752,41.994752,13.9585056,66.111878756,7.381902,11.855782,-4.697574,62, -13.4, 0.2,0,0,1127,1024,1024,1024,16,0,0,0,159.9,0,0,93,4.108,4.093,0,0,0,0,5.731,83.12,41.994752,41.994752,6,P-GPS,
8500,2025-05-05 00:32:59,-22.754251046407,-41.8862872272581,42.65092,42.486878,0.164042,42.65092,25.590552,13.9585056,68.218178036,69.664372308,19,5,8.224,42.65092,42.65092,13.9585056,68.218178036,7.381902,11.632088,-4.026492,61.8, -10.5, 0.1,0,0,1024,1024,1024,1024,0,0,0,0,159.9,0,0,93,4.108,4.093,0,0,0,0,5.731,83.12,42.65092,42.65092,6,P-GPS,
8600,2025-05-05 00:32:59,-22.7542481333487,-41.8862822512604,42.979004,42.814962,0.164042,42.979004,25.590552,13.7795504,70.201117732,71.647640088,19,5,8.224,42.979004,42.979004,13.9585056,70.201117732,7.381902,11.632088,-3.35541,61.5, -4.5, 0.4,0,0,1024,1024,1024,1024,0,0,0,0,159.9,0,0,93,4.108,4.093,0,0,0,0,5.731,83.12,42.979004,42.979004,6,P-GPS,
8700,2025-05-05 00:32:59,-22.7542452082399,-41.886277172162,43.307088,43.143046,0.164042,43.307088,25.590552,13.2874236,72.215553492,73.662403932,19,5,8.224,43.307088,43.307088,13.9585056,72.215553492,7.158208,11.1847,-2.460634,61.4, 10.8, 0.7,0,0,1024,1024,1024,1024,0,0,0,0,159.9,0,0,93,4.108,4.093,0,0,0,0,5.731,83.12,43.307088,43.307088,6,P-GPS,
8800,2025-05-05 00:32:59,-22.754242906773,-41.8862728123902,43.307088,43.143046,0.164042,43.307088,25.590552,12.2808006,73.903545672,75.352364616,19,5,8.224,43.307088,43.307088,13.9585056,73.903545672,6.71082,10.289924,-2.23694,61, 27, 0,0,0,1024,1024,1024,1024,0,0,0,0,159.8,0,0,93,4.108,4.093,0,0,0,0,5.731,83.12,43.307088,43.307088,6,P-GPS,
8900,2025-05-05 00:32:59,-22.7542403606096,-41.8862685473952,43.307088,43.1758544,0.1312336,43.307088,25.590552,11.296547,75.612863312,77.06201034,19,5,8.182,43.307088,43.307088,13.9585056,75.612863312,6.263432,9.395148,-1.565858,60.9, 21.7, 1.1,0,0,1024,1024,1024,1024,0,0,0,0,159.9,0,0,93,4.092,4.077,0,0,0,0,6.227,83.12,43.307088,43.307088,6,P-GPS,
9000,2025-05-05 00:32:59,-22.7542380878489,-41.8862647673396,43.307088,43.1758544,0.1312336,43.307088,25.590552,10.4912486,77.131236064,78.580055008,19,5,8.182,43.307088,43.307088,13.9585056,77.131236064,5.816044,8.724066,-0.671082,60.7, 22.8, 0.1,0,0,1024,1024,1024,1024,0,0,0,0,159.9,0,0,93,4.092,4.077,0,0,0,0,6.227,83.12,43.307088,43.307088,6,P-GPS,
9100,2025-05-05 00:33:00,-22.7542358134403,-41.88626102162,43.307088,43.1758544,0.1312336,43.307088,25.590552,9.4846256,78.64009438,80.088913324,19,5,8.182,43.307088,43.307088,13.9585056,78.64009438,5.368656,7.82929,-0.223694,60.4, 22.6, -0.5,0,0,1024,1024,1024,1024,0,0,0,0,159.8,0,0,93,4.092,4.077,0,0,0,0,6.227,83.12,43.307088,43.307088,6,P-GPS,
9200,2025-05-05 00:33:00,-22.754234025513,-41.8862580967855,42.979004,42.8477704,0.1312336,42.979004,25.590552,8.500372,79.820540612,81.26968764,19,5,8.182,43.307088,43.307088,13.9585056,79.820540612,4.921268,6.934514,0,60.4, 22.7, 0.1,0,0,1024,1024,1024,1024,0,0,0,0,159.9,0,0,93,4.092,4.077,0,0,0,0,6.227,83.12,42.979004,42.979004,6,P-GPS,
9300,2025-05-05 00:33:00,-22.7542323351816,-41.8862551804793,42.65092,42.5524948,0.098425200000001,42.65092,25.590552,7.381902,80.9793333,82.428480328,19,5,8.182,43.307088,43.307088,13.9585056,80.9793333,4.250186,6.039738,0.223694,60.4, 23, 0.4,0,0,1024,1024,1024,1024,0,0,0,0,159.9,0,0,93,4.092,4.077,0,0,0,0,6.227,83.12,42.65092,42.65092,6,P-GPS,
9400,2025-05-05 00:33:00,-22.7542309572053,-41.8862528097392,42.65092,42.5524948,0.098425200000001,42.65092,25.590552,6.3976484,81.922246716,83.371393744,18,5,8.182,43.307088,43.307088,13.9585056,81.922246716,3.802798,5.144962,0.223694,60.3, 20.9, 1.6,0,0,1024,1024,1024,1024,0,0,0,0,159.9,0,0,93,4.092,4.077,0,0,0,0,6.227,83.12,42.65092,42.65092,6,P-GPS,
9500,2025-05-05 00:33:00,-22.7542297132956,-41.8862507232366,42.65092,42.5524948,0.098425200000001,42.65092,25.590552,5.1002232,82.758204748,84.207351776,18,5,8.182,43.307088,43.307088,13.9585056,82.758204748,3.131716,4.026492,0,59.9, 17.9, 1.3,0,0,1024,1024,1024,1024,0,0,0,0,159.9,0,0,93,4.092,4.077,0,0,0,0,6.227,83.12,42.65092,42.65092,6,P-GPS,
9600,2025-05-05 00:33:00,-22.7542290344299,-41.8862491997468,42.65092,42.5524948,0.098425200000001,42.65092,25.590552,4.4291412,83.323165396,84.776577516,18,5,8.182,43.307088,43.307088,13.9585056,83.323165396,2.908022,3.35541,0,59.5, 16.9, 2.1,0,0,1024,1024,1024,1024,0,0,0,0,159.9,0,0,93,4.092,4.077,0,0,0,0,6.227,83.12,42.65092,42.65092,6,P-GPS,
9700,2025-05-05 00:33:00,-22.7542282293793,-41.886248247482,42.65092,42.5524948,0.098425200000001,42.65092,25.590552,3.6462122,83.7516431,85.211288816,18,5,8.182,43.307088,43.307088,13.9585056,83.7516431,2.460634,2.684328,0,59.5, 16.6, 2.8,0,0,1024,1024,1024,1024,0,0,0,0,159.9,0,0,93,4.092,4.077,0,0,0,0,6.227,83.12,42.65092,42.65092,6,P-GPS,
9800,2025-05-05 00:33:00,-22.7542276627719,-41.8862476104649,42.65092,42.5524948,0.098425200000001,42.65092,25.590552,2.684328,84.04363786,85.509189088,18,5,8.182,43.307088,43.307088,13.9585056,84.04363786,1.789552,2.013246,0,59.5, 16.6, 3.1,0,0,1024,1024,1024,1024,0,0,0,0,159.9,0,0,93,4.092,4.077,0,0,0,0,6.227,83.12,42.65092,42.65092,6,P-GPS,
9900,2025-05-05 00:33:00,-22.754227346919,-41.8862471517049,42.65092,42.5524948,0.098425200000001,42.65092,25.590552,2.0579848,84.235895084,85.701774396,18,5,8.319,43.307088,43.307088,13.9585056,84.235895084,1.342164,1.565858,-0.223694,59.5, 15.8, 3.5,0,0,1024,1024,1024,1024,0,0,0,0,159.9,0,0,93,4.149,4.145,0,0,0,0,4.637,83.12,42.65092,42.65092,6,P-GPS,
10000,2025-05-05 00:33:00,-22.7542272210077,-41.8862469240807,42.979004,42.8805788,0.098425200000001,42.979004,25.590552,1.4316416,84.325133932,85.791013244,18,5,8.319,43.307088,43.307088,13.9585056,84.325133932,0.894776,1.11847,-0.223694,59.2, 11.1, 2.9,0,0,1024,1024,1024,1024,0,0,0,0,159.9,0,0,93,4.149,4.145,0,0,0,0,4.637,83.12,42.979004,42.979004,6,P-GPS,
10100,2025-05-05 00:33:01,-22.7542279673301,-41.8862476741202,42.979004,42.8805788,0.098425200000001,42.979004,25.590552,0.9395148,83.965553868,86.162404332,18,5,8.319,43.307088,43.307088,13.9585056,84.325133932,0.671082,0.671082,0,59.1, 8, 2.2,0,0,1024,1024,1024,1002,0,0,0,-3,159.9,0,0,93,4.149,4.145,0,0,0,0,4.637,83.12,42.979004,42.979004,6,P-GPS,
10200,2025-05-05 00:33:01,-22.754228104888,-41.8862476125273,42.979004,42.8805788,0.098425200000001,42.979004,25.590552,0.9395148,83.956039432,86.216538192,18,5,8.319,43.307088,43.307088,13.9585056,84.325133932,0.223694,0.447388,0,59, 5.7, 1.6,0,0,1024,975,1024,702,0,-7,0,-49,159.9,0,0,93,4.149,4.145,0,0,0,0,4.637,83.12,42.979004,42.979004,6,P-GPS,
10300,2025-05-05 00:33:01,-22.754228378219,-41.8862474914969,43.307088,43.2086628,0.098425200000001,43.307088,25.590552,0.4921268,83.936354392,86.324477828,18,5,8.319,43.307088,43.307088,13.9585056,84.325133932,0.223694,0.447388,0,59, 4.1, 1.3,0,0,1024,364,1024,520,0,-100,0,-76,159.7,0,0,93,4.149,4.145,0,0,0,0,4.637,83.12,43.307088,43.307088,6,P-GPS,
10400,2025-05-05 00:33:01,-22.7542286955963,-41.8862474345676,43.307088,43.1758544,0.1312336,43.307088,25.590552,0.223694,83.890094548,86.441603816,18,5,8.319,43.307088,43.307088,13.9585056,84.325133932,0,0.223694,0,58.4, 3, -0.4,0,0,1024,364,1024,418,0,-100,0,-92,158.6,0,0,93,4.149,4.145,0,0,0,0,4.637,83.12,43.307088,43.307088,6,P-GPS,
10500,2025-05-05 00:33:01,-22.7542296369802,-41.8862469449833,43.307088,43.143046,0.164042,43.307088,25.590552,0,83.84514704,86.82250934,18,5,8.319,43.307088,43.307088,13.9585056,84.325133932,0,0,0,56.6, 1.8, -9.6,0,0,1024,364,1024,364,0,-100,0,-100,156.3,0,0,93,4.149,4.145,0,0,0,0,4.637,83.12,43.307088,43.307088,6,P-GPS,
10600,2025-05-05 00:33:01,-22.754229925775,-41.8862470039935,43.307088,43.143046,0.164042,43.307088,25.590552,0.447388,83.771984308,86.929792808,19,5,8.319,43.307088,43.307088,13.9585056,84.325133932,0.447388,0,0,53.9, 0.6, -15.8,0,0,1024,364,1024,364,0,-100,0,-100,152.7,0,0,93,4.149,4.145,0,0,0,0,4.637,83.12,43.307088,43.307088,6,P-GPS,
10700,2025-05-05 00:33:01,-22.754229916786,-41.8862470508152,43.307088,43.143046,0.164042,43.307088,25.590552,1.006623,83.760501368,86.945868924,19,5,8.319,43.307088,43.307088,13.9585056,84.325133932,0.894776,-0.447388,0,50, -0.2, -17.1,0,0,1024,364,1024,500,0,-100,0,-79,148.1,0,0,93,4.149,4.145,0,0,0,0,4.637,83.12,43.307088,43.307088,6,P-GPS,
10800,2025-05-05 00:33:01,-22.7542296889471,-41.8862472553816,43.307088,43.143046,0.164042,43.307088,25.590552,1.6105968,83.74672184,87.05380856,19,5,8.319,43.307088,43.307088,13.9585056,84.325133932,1.342164,-0.894776,0,45.5, -0.8, -16.9,0,0,1024,364,1024,1024,0,-100,0,0,143.7,0,0,93,4.149,4.145,0,0,0,0,4.637,83.12,43.307088,43.307088,6,P-GPS,
10900,2025-05-05 00:33:01,-22.7542287365028,-41.8862466969396,43.307088,43.1758544,0.1312336,43.307088,25.590552,2.23694,84.091538124,87.448821696,19,5,8.27,43.307088,43.307088,13.9585056,84.325133932,1.789552,-1.342164,0.223694,41.8, -0.7, -16.7,0,0,1024,364,1024,1024,0,-100,0,0,141.6,0,0,93,4.147,4.136,0,0,0,0,4.209,83.3,43.307088,43.307088,6,P-GPS,
11000,2025-05-05 00:33:01,-22.7542279565172,-41.8862472300756,43.307088,43.2086628,0.098425200000001,43.307088,25.590552,2.8632832,84.093506628,87.78543588,19,5,8.27,43.307088,43.307088,13.9585056,84.325133932,2.23694,-1.789552,0.223694,40.1, -0.2, -16.2,0,0,1024,364,1024,1024,0,-100,0,0,140.8,0,0,93,4.147,4.136,0,0,0,0,4.209,83.3,43.307088,43.307088,6,P-GPS,
11100,2025-05-05 00:33:02,-22.754226739835,-41.8862479395362,43.307088,43.2414712,0.0656168,43.307088,25.590552,3.4896264,84.133532876,88.289372904,19,5,8.27,43.307088,43.307088,13.9585056,84.325133932,2.684328,-2.23694,0.223694,39.3, 0.2, -15.7,0,0,1024,364,1024,1024,0,-100,0,0,140.7,0,0,93,4.147,4.136,0,0,0,0,4.209,83.3,43.307088,43.307088,6,P-GPS,
11200,2025-05-05 00:33:02,-22.7542254173822,-41.8862488198776,43.307088,43.307088,0,43.307088,25.590552,3.9593838,84.149937076,88.855645888,19,5,8.27,43.307088,43.307088,13.9585056,84.325133932,2.908022,-2.684328,0.223694,39, 0.5, -15.4,0,0,1024,1024,1024,1024,0,0,0,0,140.7,0,0,93,4.147,4.136,0,0,0,0,4.209,83.3,43.307088,43.307088,6,P-GPS,
11300,2025-05-05 00:33:02,-22.7542226702623,-41.8862495045153,43.307088,43.3398964,-0.032808399999999,43.307088,25.590552,4.4291412,84.515094568,89.883861144,19,5,8.27,43.307088,43.307088,13.9585056,84.515094568,3.131716,-3.131716,0,39.1, 0.5, -12.2,0,0,1024,1024,1024,1024,0,0,0,0,140.7,0,0,93,4.147,4.136,0,0,0,0,4.209,83.3,43.307088,43.307088,6,P-GPS,
11400,2025-05-05 00:33:02,-22.7542210850828,-41.8862508496181,43.307088,43.4055132,-0.098425199999999,43.307088,25.590552,4.585727,84.467194304,90.61844122,19,5,8.27,43.307088,43.307088,13.9585056,84.515094568,3.131716,-3.35541,0,39.7, 1.2, 6.3,0,0,1024,1024,1024,1024,0,0,0,0,140.7,0,0,93,4.147,4.136,0,0,0,0,4.209,83.3,43.307088,43.307088,6,P-GPS,
11500,2025-05-05 00:33:02,-22.7542196244467,-41.8862523456095,43.307088,43.4383216,-0.1312336,43.307088,25.590552,4.1159696,84.357942332,91.351380876,19,5,8.27,43.307088,43.307088,13.9585056,84.515094568,2.908022,-2.908022,0,40.1, 1.7, 18.4,0,0,1024,1024,1024,1024,0,0,0,0,140.7,0,0,93,4.147,4.136,0,0,0,0,4.209,83.3,43.307088,43.307088,6,P-GPS,
11600,2025-05-05 00:33:02,-22.7542184327644,-41.8862535811643,43.307088,43.5039384,-0.1968504,43.307088,25.590552,3.3330406,84.269359652,91.952758848,19,5,8.27,43.307088,43.307088,13.9585056,84.515094568,2.23694,-2.460634,0,39.5, 2.1, 19,0,0,1024,1024,1024,1024,0,0,0,0,140.7,0,0,93,4.147,4.136,0,0,0,0,4.209,83.3,43.307088,43.307088,6,P-GPS,
11700,2025-05-05 00:33:02,-22.7542174895827,-41.8862546403015,43.307088,43.5695552,-0.2624672,43.307088,25.590552,2.5277422,84.17979272,92.448165688,19,5,8.27,43.307088,43.307088,13.9585056,84.515094568,1.789552,-1.789552,0,38.9, 1.5, 16.4,0,0,1024,1024,1024,1024,0,0,0,0,140.7,0,0,93,4.147,4.136,0,0,0,0,4.209,83.3,43.307088,43.307088,6,P-GPS,
11800,2025-05-05 00:33:02,-22.754216649488,-41.8862555733917,43.307088,43.5695552,-0.2624672,43.307088,25.590552,1.5882274,84.105645736,92.88714208,19,5,8.27,43.307088,43.307088,13.9585056,84.515094568,1.11847,-1.11847,0,38.5, 1.5, 13.3,0,0,1465,1024,1024,1024,67,0,0,0,140.7,0,0,93,4.147,4.136,0,0,0,0,4.209,83.3,43.307088,43.307088,6,P-GPS,
11900,2025-05-05 00:33:02,-22.7542161033339,-41.8862561770575,43.307088,43.6023636,-0.2952756,43.307088,25.590552,1.11847,84.059057808,93.171590908,19,5,8.284,43.307088,43.307088,13.9585056,84.515094568,0.894776,-0.671082,0,37.8, -0.4, 8.6,0,0,1684,1024,1024,1024,100,0,0,0,140.7,0,0,93,4.138,4.126,0,0,0,0,4.182,83.3,43.307088,43.307088,6,P-GPS,
12000,2025-05-05 00:33:02,-22.7542157033359,-41.8862566218639,43.307088,43.6023636,-0.2952756,43.307088,25.590552,0.8052984,84.024937072,93.380580416,19,5,8.284,43.307088,43.307088,13.9585056,84.515094568,0.671082,-0.447388,0,37.1, -9.8, 5.1,0,0,1684,1024,1024,1024,100,0,0,0,140.7,0,0,93,4.138,4.126,0,0,0,0,4.182,83.3,43.307088,43.307088,6,P-GPS,
12100,2025-05-05 00:33:03,-22.7542153907659,-41.8862569041135,43.307088,43.635172,-0.328084,43.307088,25.590552,0.894776,84.016406888,93.528874384,19,5,8.284,43.307088,43.307088,13.9585056,84.515094568,0.894776,0,0,37.4, -15.8, 3.3,0,0,1684,1024,1024,1024,100,0,0,0,140.7,0,0,93,4.138,4.126,0,0,0,0,4.182,83.3,43.307088,43.307088,6,P-GPS,
12200,2025-05-05 00:33:03,-22.7542154553956,-41.8862569756467,42.979004,43.307088,-0.328084,42.979004,25.590552,1.5882274,83.983270404,93.562667036,19,5,8.284,43.307088,43.307088,13.9585056,84.515094568,1.565858,0.223694,0,37.9, -16.9, 2.3,0,0,1684,1024,1024,1024,100,0,0,0,140.7,0,0,93,4.138,4.126,0,0,0,0,4.182,83.3,42.979004,42.979004,6,P-GPS,
12300,2025-05-05 00:33:03,-22.7542149691031,-41.8862566629816,42.979004,43.307088,-0.328084,42.979004,25.590552,2.125093,84.17323104,93.769031872,19,5,8.284,43.307088,43.307088,13.9585056,84.515094568,2.013246,0.671082,0,38, -16.6, 1.6,0,0,1684,1024,1024,1024,100,0,0,0,140.7,0,0,93,4.138,4.126,0,0,0,0,4.182,83.3,42.979004,42.979004,6,P-GPS,
12400,2025-05-05 00:33:03,-22.7542143181033,-41.8862561817397,42.979004,43.307088,-0.328084,42.979004,25.590552,2.8185444,84.444884592,94.056433456,19,5,8.284,43.307088,43.307088,13.9585056,84.515094568,2.684328,0.894776,0,38.1, -16.2, 1.4,0,0,1684,1024,1024,1024,100,0,0,0,140.7,0,0,93,4.138,4.126,0,0,0,0,4.182,83.3,42.979004,42.979004,6,P-GPS,
12500,2025-05-05 00:33:03,-22.7542133195284,-41.8862555427717,42.979004,43.3398964,-0.3608924,42.979004,25.590552,3.1988242,84.834976468,94.479333732,19,5,8.284,43.307088,43.307088,13.9585056,84.834976468,2.908022,1.342164,0,38, -15.8, 1.4,0,0,1684,1024,1024,1024,100,0,0,0,140.7,0,0,93,4.138,4.126,0,0,0,0,4.182,83.3,42.979004,42.979004,6,P-GPS,
12600,2025-05-05 00:33:03,-22.7542124784566,-41.8862541858335,42.979004,43.3398964,-0.3608924,42.979004,25.590552,3.1988242,85.384189084,95.0295306,19,5,8.284,43.307088,43.307088,13.9585056,85.384189084,3.35541,1.789552,0,37.8, -15.6, 1.2,0,0,1684,1024,1024,1024,100,0,0,0,140.7,0,0,93,4.138,4.126,0,0,0,0,4.182,83.3,42.979004,42.979004,6,P-GPS,
12700,2025-05-05 00:33:03,-22.7542107815659,-41.8862530672029,42.979004,43.3398964,-0.3608924,42.979004,25.590552,4.1159696,86.0564332,95.753940072,19,5,8.284,43.307088,43.307088,13.9585056,86.0564332,3.579104,2.013246,0,37.9, -15.4, 1.3,0,0,1684,1024,1024,1024,100,0,0,0,140.7,0,0,93,4.138,4.126,0,0,0,0,4.182,83.3,42.979004,42.979004,6,P-GPS,
12800,2025-05-05 00:33:03,-22.754208980129,-41.8862518523649,42.979004,43.3727048,-0.3937008,42.979004,25.590552,4.7199434,86.778546084,96.527890228,19,5,8.284,43.307088,43.307088,13.9585056,86.778546084,4.026492,2.460634,0,38, -15.2, 1.3,0,0,1684,1024,1024,1024,100,0,0,0,140.7,0,0,93,4.138,4.126,0,0,0,0,4.182,83.3,42.979004,42.979004,6,P-GPS,
12900,2025-05-05 00:33:03,-22.7542067711122,-41.8862504007241,42.979004,43.4055132,-0.4265092,42.979004,25.590552,5.2120702,87.654858448,97.47047556,19,5,8.249,43.307088,43.307088,13.9585056,87.654858448,4.47388,2.684328,0,38, -15.4, 1.2,0,0,1684,1024,1024,1024,100,0,0,0,140.7,0,0,93,4.14,4.126,0,0,0,0,4.542,83.48,42.979004,42.979004,6,P-GPS,
13000,2025-05-05 00:33:03,-22.7542032797803,-41.8862483731574,42.979004,43.47113,-0.492126,42.979004,25.590552,5.5252418,88.97145954,98.915357496,19,5,8.249,43.307088,43.307088,13.9585056,88.97145954,4.697574,2.908022,0,38, -15.3, 1.1,0,0,1684,1024,1024,1024,100,0,0,0,140.7,0,0,93,4.14,4.126,0,0,0,0,4.542,83.48,42.979004,42.979004,6,P-GPS,
13100,2025-05-05 00:33:04,-22.7542006939937,-41.8862466279147,42.65092,43.1758544,-0.5249344,42.65092,25.590552,6.151585,90.013782408,100.026578004,19,5,8.249,43.307088,43.307088,13.9585056,90.013782408,5.144962,3.35541,0,38, -15.2, 1.3,0,0,1684,1024,1024,1024,100,0,0,0,140.7,0,0,93,4.14,4.126,0,0,0,0,4.542,83.48,42.65092,42.65092,6,P-GPS,
13200,2025-05-05 00:33:04,-22.7541981227197,-41.8862448567528,42.65092,43.2414712,-0.5905512,42.65092,25.590552,6.4423872,91.06135462,101.138126596,19,5,8.249,43.307088,43.307088,13.9585056,91.06135462,5.368656,3.579104,0,38.1, -15.1, 1.1,0,0,1684,1024,1024,1024,100,0,0,0,140.7,0,0,93,4.14,4.126,0,0,0,0,4.542,83.48,42.65092,42.65092,6,P-GPS,
13300,2025-05-05 00:33:04,-22.7541954298074,-41.8862429401648,42.65092,43.2742796,-0.6233596,42.65092,25.590552,6.9568834,92.176184052,102.313323484,19,5,8.249,43.307088,43.307088,13.9585056,92.176184052,5.816044,3.802798,0,38.1, -15.4, 1,0,0,1684,1024,1024,1024,100,0,0,0,140.7,0,0,93,4.14,4.126,0,0,0,0,4.542,83.48,42.65092,42.65092,6,P-GPS,
13400,2025-05-05 00:33:04,-22.7541927752613,-41.8862410267911,42.65092,43.307088,-0.656168,42.65092,25.590552,7.2476856,93.283139468,103.47605318,19,5,8.249,43.307088,43.307088,13.9585056,93.283139468,6.039738,4.026492,0,38.1, -15.4, 1.3,0,0,1684,1024,1024,1024,100,0,0,0,140.7,0,0,93,4.14,4.126,0,0,0,0,4.542,83.48,42.65092,42.65092,6,P-GPS,
13500,2025-05-05 00:33:04,-22.7541896206266,-41.8862389982398,42.65092,43.3398964,-0.6889764,42.65092,25.590552,7.5608572,94.53576418,104.814307816,19,5,8.249,43.307088,43.307088,13.9585056,94.53576418,6.263432,4.250186,0,38, -15.6, 1.8,0,0,1684,1024,1024,1024,100,0,0,0,140.7,0,0,93,4.14,4.126,0,0,0,0,4.542,83.48,42.65092,42.65092,6,P-GPS,
13600,2025-05-05 00:33:04,-22.7541869165237,-41.8862369707846,42.65092,43.4055132,-0.7545932,42.65092,25.590552,8.1872004,95.687010936,106.01378292,19,5,8.249,43.307088,43.307088,13.9585056,95.687010936,6.71082,4.697574,0,38, -16.1, 1.1,0,0,1684,1024,1024,1024,100,0,0,0,140.7,0,0,93,4.14,4.126,0,0,0,0,4.542,83.48,42.65092,42.65092,6,P-GPS,
13700,2025-05-05 00:33:04,-22.7541839436754,-41.8862346910681,42.65092,43.4383216,-0.7874016,42.65092,25.590552,8.500372,96.967194704,107.342195036,19,5,8.249,43.307088,43.307088,13.9585056,96.967194704,6.934514,4.921268,0,38, -15.7, 1.2,0,0,1684,1024,1024,1024,100,0,0,0,140.7,0,0,93,4.14,4.126,0,0,0,0,4.542,83.48,42.65092,42.65092,6,P-GPS,
13800,2025-05-05 00:33:04,-22.754181006705,-41.8862324246178,42.65092,43.47113,-0.82021,42.65092,25.590552,8.8135436,98.2365517,108.657483792,19,5,8.249,43.307088,43.307088,13.9585056,98.2365517,7.158208,5.144962,0,38, -15.6, 1.2,0,0,1684,1024,1024,1024,100,0,0,0,140.7,0,0,93,4.14,4.126,0,0,0,0,4.542,83.48,42.65092,42.65092,6,P-GPS,
13900,2025-05-05 00:33:04,-22.7541778589488,-41.8862299407994,42.65092,43.5367468,-0.8858268,42.65092,25.590552,8.9924988,99.61286408,110.077759428,19,5,8.25,43.307088,43.307088,13.9585056,99.61286408,7.381902,5.144962,0,38, -15.5, 1.2,0,0,1684,1024,1024,1024,100,0,0,0,140.7,0,0,92,4.131,4.118,0,0,0,0,4.527,83.48,42.65092,42.65092,6,P-GPS,
14000,2025-05-05 00:33:04,-22.7541746549918,-41.8862274673487,42.65092,43.5695552,-0.9186352,42.65092,25.590552,9.618842,101.0006594,111.512798844,19,5,8.25,43.307088,43.307088,13.9585056,101.0006594,7.82929,5.59235,0,38, -15.5, 1.5,0,0,1684,1024,1024,1024,100,0,0,0,140.7,0,0,92,4.131,4.118,0,0,0,0,4.527,83.48,42.65092,42.65092,6,P-GPS,
14100,2025-05-05 00:33:05,-22.7541711513098,-41.886224778964,42.322836,43.307088,-0.984252,42.322836,25.590552,9.7977972,102.515751312,113.078743776,19,5,8.25,43.307088,43.307088,13.9585056,102.515751312,8.052984,5.59235,0,38, -15.6, 1.9,0,0,1684,1024,1024,1024,100,0,0,0,140.7,0,0,92,4.131,4.118,0,0,0,0,4.527,83.48,42.322836,42.322836,6,P-GPS,
14200,2025-05-05 00:33:05,-22.7541677090528,-41.8862221173903,42.322836,43.3398964,-1.0170604,42.322836,25.590552,10.1109688,104.0108301,114.62106666,19,5,8.25,43.307088,43.307088,13.9585056,104.0108301,8.276678,5.816044,0,38, -16, 1.5,0,0,1684,1024,1024,1024,100,0,0,0,140.7,0,0,92,4.131,4.118,0,0,0,0,4.527,83.48,42.322836,42.322836,6,P-GPS,
14300,2025-05-05 00:33:05,-22.7541634960337,-41.8862190157295,42.322836,43.5039384,-1.1811024,42.322836,25.590552,10.4241404,105.802496824,116.479006352,19,5,8.25,43.307088,43.307088,13.9585056,105.802496824,8.500372,6.039738,0,38, -15.7, 1.4,0,0,1684,1024,1024,1024,100,0,0,0,140.7,0,0,92,4.131,4.118,0,0,0,0,4.527,83.48,42.322836,42.322836,6,P-GPS,
14400,2025-05-05 00:33:05,-22.7541597386793,-41.8862161071341,42.322836,43.5695552,-1.2467192,42.322836,25.590552,10.737312,107.438979816,118.163389608,19,5,8.25,43.307088,43.307088,13.9585056,107.438979816,8.724066,6.263432,0,38, -15.4, 1.3,0,0,1684,1024,1024,1024,100,0,0,0,140.7,0,0,92,4.131,4.118,0,0,0,0,4.527,83.48,42.322836,42.322836,6,P-GPS,
14500,2025-05-05 00:33:05,-22.7541556530957,-41.8862129756523,42.322836,43.7335972,-1.4107612,42.322836,25.590552,10.8715284,109.211617668,119.988848984,19,5,8.25,43.307088,43.307088,13.9585056,109.211617668,8.724066,6.487126,0,38, -15, 1.3,0,0,1684,1024,1024,1024,100,0,0,0,140.7,0,0,92,4.131,4.118,0,0,0,0,4.527,83.48,42.322836,42.322836,6,P-GPS,
14600,2025-05-05 00:33:05,-22.754151673426,-41.8862099054289,42.322836,43.8648308,-1.5419948,42.322836,25.590552,11.3636552,110.945541608,121.770673188,19,5,8.25,43.307088,43.307088,13.9585056,110.945541608,9.171454,6.71082,0,37.9, -22.3, 1.2,0,0,1684,999,1024,1024,100,-4,0,0,140.7,0,0,92,4.131,4.118,0,0,0,0,4.527,83.48,42.322836,42.322836,31,Sport,"El 치ngulo de posici칩n de vuelo es mayor en el modo Sport. El estabilizador rotar치 cuando la aeronave comience a moverse o se detenga. Si es necesario, usa el modo Normal para una captura estable (Code: 40022)"
14700,2025-05-05 00:33:05,-22.7541468895526,-41.8862063683075,42.65092,44.3569568,-1.7060368,42.65092,25.590552,11.9899984,112.992785768,123.883206064,19,5,8.25,43.307088,43.307088,13.9585056,112.992785768,9.618842,7.158208,0,37.8, -33.6, 1.1,0,0,1684,1000,1024,1024,100,-4,0,0,140.7,-10.8,0,92,4.131,4.118,0,0,0,0,4.527,83.48,42.65092,42.65092,31,Sport,
14800,2025-05-05 00:33:05,-22.7541425744626,-41.8862029580506,42.65092,44.4881904,-1.8372704,42.65092,25.590552,13.1084684,114.896329136,125.831368856,19,5,8.25,43.307088,43.307088,13.9585056,114.896329136,10.513618,7.82929,0,37.5, -35, 1.1,0,0,1684,1000,1024,1024,100,-4,0,0,140.7,-13.3,0,92,4.131,4.118,0,0,0,0,4.527,83.48,42.65092,42.65092,31,Sport,
14900,2025-05-05 00:33:05,-22.754137861876,-41.8861991957947,42.65092,44.6850408,-2.0341208,42.65092,25.590552,13.1084684,116.986880384,127.966211444,19,5,8.251,43.307088,43.307088,13.9585056,116.986880384,11.1847,8.500372,0,37.5, -32.8, 1.1,0,0,1684,1003,1024,1024,100,-3,0,0,140.7,-13.3,0,92,4.132,4.119,0,0,0,0,4.515,83.48,42.65092,42.65092,31,Sport,
15000,2025-05-05 00:33:05,-22.7541330953032,-41.8861953605564,42.979004,45.1771668,-2.1981628,42.979004,25.590552,15.1664532,119.110240032,130.131893928,18,5,8.251,43.307088,43.307088,15.1664532,119.110240032,12.079476,9.171454,0,37.6, -31.1, 0.9,0,0,1684,1011,1024,1024,100,-2,0,0,140.7,-13.3,0,92,4.132,4.119,0,0,0,0,4.515,83.48,42.979004,42.979004,31,Sport,
15100,2025-05-05 00:33:06,-22.754127918597,-41.8861911227812,42.979004,45.3412088,-2.3622048,42.979004,25.590552,15.9717516,121.435699424,132.49836382,18,5,8.251,43.307088,43.307088,15.9717516,121.435699424,12.750558,9.618842,0,37.6, -30.1, 0.9,0,0,1684,1024,1024,1024,100,0,0,0,140.7,-13.3,0,92,4.132,4.119,0,0,0,0,4.515,83.48,42.979004,42.979004,31,Sport,
15200,2025-05-05 00:33:06,-22.7541233782085,-41.8861873355723,43.307088,45.8661432,-2.5590552,43.307088,25.590552,16.77705,123.494426524,134.5882589,17,5,8.251,43.307088,43.307088,16.77705,123.494426524,13.42164,10.06623,-0.223694,37.7, -30.1, 1.2,0,0,1684,1024,1024,1024,100,0,0,0,140.7,-13.3,0,92,4.132,4.119,0,0,0,0,4.515,83.48,43.307088,43.307088,31,Sport,
15300,2025-05-05 00:33:06,-22.7541176506453,-41.8861826806936,43.635172,46.3582692,-2.7230972,43.635172,25.590552,17.5823484,126.062339992,137.19980754,17,5,8.251,43.635172,43.635172,17.5823484,126.062339992,14.092722,10.513618,-0.223694,37.7, -30.2, 1.2,0,0,1684,1024,1024,1024,100,0,0,0,140.7,-13.3,0,92,4.132,4.119,0,0,0,0,4.515,83.48,43.635172,43.635172,31,Sport,
15400,2025-05-05 00:33:06,-22.7541119639364,-41.8861780581813,43.635172,46.587928,-2.952756,43.635172,25.590552,18.2086916,128.614177344,139.792655392,17,5,8.251,43.635172,43.635172,18.2086916,128.614177344,14.54011,10.961006,0,37.7, -29.6, 1.5,0,0,1684,1024,1024,1024,100,0,0,0,140.7,-13.3,0,92,4.132,4.119,0,0,0,0,4.515,83.48,43.635172,43.635172,31,Sport,
15500,2025-05-05 00:33:06,-22.7541055551104,-41.8861728746444,43.963256,47.1456708,-3.1824148,43.963256,25.590552,18.8350348,131.485240428,142.709650236,17,5,8.251,43.963256,43.963256,18.8350348,131.485240428,14.987498,11.408394,0,37.8, -28.5, 1.4,0,0,1684,1024,1024,1024,100,0,0,0,140.7,-13.3,0,92,4.132,4.119,0,0,0,0,4.515,83.48,43.963256,43.963256,31,Sport,
15600,2025-05-05 00:33:06,-22.7540991229129,-41.8861677677502,43.963256,47.408138,-3.444882,43.963256,25.590552,19.6403332,134.34547674,145.61844298,17,5,8.251,43.963256,43.963256,19.6403332,134.34547674,15.65858,11.855782,0,38, -29, 0.8,0,0,1684,1024,1024,1024,100,0,0,0,140.7,-13.3,0,92,4.132,4.119,0,0,0,0,4.515,83.48,43.963256,43.963256,31,Sport,
15700,2025-05-05 00:33:06,-22.7540922780026,-41.886162224392,43.963256,47.6706052,-3.7073492,43.963256,25.590552,19.9535048,137.418311484,148.73524098,17,5,8.251,43.963256,43.963256,19.9535048,137.418311484,15.882274,12.079476,0,37.9, -29.8, 1,0,0,1684,1024,1024,1024,100,0,0,0,140.7,-13.3,0,92,4.132,4.119,0,0,0,0,4.515,83.48,43.963256,43.963256,31,Sport,
15800,2025-05-05 00:33:06,-22.7540856195948,-41.8861568149031,43.963256,47.900264,-3.937008,43.963256,25.590552,20.579848,140.413062236,151.770674148,17,5,8.251,43.963256,43.963256,20.579848,140.413062236,16.329662,12.526864,0,38, -30.3, 1.3,0,0,1684,1024,1024,1024,100,0,0,0,140.7,-13.3,0,92,4.132,4.119,0,0,0,0,4.515,83.48,43.963256,43.963256,31,Sport,
15900,2025-05-05 00:33:06,-22.7540785321636,-41.8861509825323,44.29134,48.4908152,-4.1994752,44.29134,25.590552,21.2061912,143.620739504,155.016737244,17,5,8.135,44.29134,44.29134,21.2061912,143.620739504,16.77705,12.974252,0,37.9, -30.4, 1,0,0,1684,1024,1024,1024,100,0,0,0,140.7,-13.3,0,92,4.079,4.065,0,0,0,0,5.319,83.66,44.29134,44.29134,31,Sport,
16000,2025-05-05 00:33:06,-22.7540712903819,-41.8861451138188,44.29134,48.8188992,-4.5275592,44.29134,25.590552,21.698318,146.87828554,158.31529378,17,5,8.135,44.29134,44.29134,21.698318,146.87828554,17.224438,13.197946,0,37.9, -30.3, 1.1,0,0,1684,1024,1024,1024,100,0,0,0,140.7,-13.3,0,92,4.079,4.065,0,0,0,0,5.319,83.66,44.29134,44.29134,31,Sport,
16100,2025-05-05 00:33:07,-22.754063891983,-41.8861389805812,44.29134,49.0813664,-4.7900264,44.29134,25.590552,22.1904448,150.24114654,161.712931684,17,5,8.135,44.29134,44.29134,22.1904448,150.24114654,17.671826,13.42164,0,37.9, -30.7, 1.1,0,0,1684,1024,1024,1024,100,0,0,0,140.7,-13.3,0,92,4.079,4.065,0,0,0,0,5.319,83.66,44.29134,44.29134,31,Sport,
16200,2025-05-05 00:33:07,-22.7540567143751,-41.8861330196921,43.963256,49.048558,-5.085302,43.963256,25.590552,22.5036164,153.507550844,165.01148822,18,5,8.135,44.29134,44.29134,22.5036164,153.507550844,17.89552,13.645334,0,38, -30.4, 1,0,0,1684,1024,1024,1024,100,0,0,0,140.7,-13.3,0,92,4.079,4.065,0,0,0,0,5.319,83.66,43.963256,43.963256,31,Sport,
16300,2025-05-05 00:33:07,-22.7540490126948,-41.886126652606,43.963256,49.376642,-5.413386,43.963256,25.590552,22.9510044,157.006894788,168.5449529,18,5,8.135,44.29134,44.29134,22.9510044,157.006894788,18.119214,14.092722,0,37.9, -31.3, 1.1,0,0,1684,1024,1024,1024,100,0,0,0,140.7,-13.3,0,92,4.079,4.065,0,0,0,0,5.319,83.66,43.963256,43.963256,31,Sport,
16400,2025-05-05 00:33:07,-22.7540415918886,-41.8861205026835,43.963256,49.6391092,-5.6758532,43.963256,25.590552,23.4431312,160.3838634,171.952433324,19,5,8.135,44.29134,44.29134,23.4431312,160.3838634,18.566602,14.316416,0,38, -31.6, 0.9,0,0,1684,1024,1024,1024,100,0,0,0,140.7,-13.3,0,92,4.079,4.065,0,0,0,0,5.319,83.66,43.963256,43.963256,31,Sport,
16500,2025-05-05 00:33:07,-22.7540336778071,-41.8861138498733,43.963256,50.0000016,-6.0367456,43.963256,25.590552,23.8905192,164.008863516,175.605976748,19,5,8.135,44.29134,44.29134,23.8905192,164.008863516,18.790296,14.763804,0,38, -31.6, 0.3,0,0,1684,1024,1024,1024,100,0,0,0,140.7,-13.3,0,92,4.079,4.065,0,0,0,0,5.319,83.66,43.963256,43.963256,31,Sport,
16600,2025-05-05 00:33:07,-22.7540260199515,-41.88610739338,43.963256,49.9671932,-6.0039372,43.963256,25.590552,24.382646,167.522315072,179.145018856,19,5,8.135,44.29134,44.29134,24.382646,167.522315072,19.237684,14.987498,0,38, -31.2, 0,0,0,1684,1024,1214,1024,100,0,29,0,140.7,-13.3,0,92,4.079,4.065,0,0,0,0,5.319,83.66,43.963256,43.963256,31,Sport,
16700,2025-05-05 00:33:07,-22.7540178410198,-41.8861004472279,43.963256,49.6719176,-5.7086616,43.963256,25.590552,24.6958176,171.28773514,182.935373308,19,5,8.135,44.29134,44.29134,24.6958176,171.28773514,19.461378,15.211192,0,38.1, -31.3, 0.2,0,0,1684,1024,1684,1024,100,0,100,0,140.7,-13.3,0,92,4.079,4.065,0,0,0,0,5.319,83.66,43.963256,43.963256,31,Sport,
16800,2025-05-05 00:33:07,-22.7540099347028,-41.8860937208408,43.963256,49.4422588,-5.4790028,43.963256,25.590552,25.3221608,174.931764128,186.602040092,19,5,8.135,44.29134,44.29134,25.3221608,174.931764128,19.908766,15.65858,0,38.1, -30.6, 0,0,0,1684,1024,1684,1024,100,0,100,0,140.7,-13.3,0,92,4.079,4.065,0,0,0,0,5.319,83.66,43.963256,43.963256,31,Sport,
16900,2025-05-05 00:33:07,-22.754001695662,-41.8860865766997,43.963256,49.0813664,-5.1181104,43.963256,25.590552,25.9932428,178.76148866,190.450793496,19,5,8.149,44.29134,44.29134,25.9932428,178.76148866,20.579848,15.882274,-0.447388,37.8, -28.7, 0,0,0,1684,1024,1684,1024,100,0,100,0,140.7,-13.3,0,92,4.075,4.058,0,0,0,0,6.181,83.66,43.963256,43.963256,31,Sport,
17000,2025-05-05 00:33:07,-22.7539934306443,-41.8860795577511,44.29134,49.1141748,-4.8228348,44.29134,25.590552,26.619586,182.569559648,194.280846112,19,5,8.149,44.29134,44.29134,26.619586,182.569559648,21.027236,16.329662,-1.342164,38.1, -27.2, 0.3,0,0,1564,1024,1684,1024,82,0,100,0,140.7,-13.3,0,92,4.075,4.058,0,0,0,0,6.181,83.66,44.29134,44.29134,31,Sport,
17100,2025-05-05 00:33:07,-22.7539845570836,-41.886072102357,44.619424,48.9501328,-4.3307088,44.619424,25.590552,26.619586,186.640097836,198.376318684,19,5,8.149,44.619424,44.619424,26.619586,186.640097836,21.25093,16.553356,-2.23694,38, -25, -0.2,0,0,1298,1024,1684,1024,42,0,100,0,140.7,-13.3,0,92,4.075,4.058,0,0,0,0,6.181,83.66,44.619424,44.619424,31,Sport,
17200,2025-05-05 00:33:08,-22.7539759980601,-41.8860649050028,44.947508,48.9173244,-3.9698164,44.947508,25.590552,27.2459292,190.568903736,202.328090464,18,5,8.149,44.947508,44.947508,27.2459292,190.568903736,21.474624,16.77705,-3.35541,37.9, -11.2, 0,0,0,1259,1024,1684,1024,36,0,100,0,140.7,-13.3,0,92,4.075,4.058,0,0,0,0,6.181,83.66,44.947508,44.947508,31,Sport,
17300,2025-05-05 00:33:08,-22.7539670635826,-41.8860576276799,45.275592,48.884516,-3.608924,45.275592,25.590552,26.4406308,194.61614796,206.404862248,18,5,8.149,45.275592,45.275592,27.2459292,194.61614796,20.803542,16.329662,-5.144962,38.2, 0, 0.1,0,0,1129,1024,1684,1024,16,0,100,0,140.7,-13.3,0,92,4.075,4.058,0,0,0,0,6.181,83.66,45.275592,45.275592,31,Sport,
