time(millisecond),datetime(utc),latitude,longitude,height_above_takeoff(feet),height_above_ground_at_drone_location(feet),ground_elevation_at_drone_location(feet),altitude_above_seaLevel(feet),height_sonar(feet),speed(mph),distance(feet),mileage(feet),satellites,gpslevel,voltage(v),max_altitude(feet),max_ascent(feet),max_speed(mph),max_distance(feet), xSpeed(mph), ySpeed(mph), zSpeed(mph), compass_heading(degrees), pitch(degrees), roll(degrees),isPhoto,isVideo,rc_elevator,rc_aileron,rc_throttle,rc_rudder,rc_elevator(percent),rc_aileron(percent),rc_throttle(percent),rc_rudder(percent),gimbal_heading(degrees),gimbal_pitch(degrees),gimbal_roll(degrees),battery_percent,voltageCell1,voltageCell2,voltageCell3,voltageCell4,voltageCell5,voltageCell6,current(A),battery_temperature(f),altitude(feet),ascent(feet),flycStateRaw,flycState,message
0,2022-11-08 20:13:36,-34.9200222476017,-56.1705289677928,0,0,28.14987294804,28.14987294804,0,0,0,0,21,5,0,28.14987294804,0,0,0,0,0,0,252.5, -2.9, 0,0,0,364,364,364,1684,-100,-100,-100,100,263.1,0,0,94,4.271,4.264,0,0,0,0,0,81.68,28.14987294804,0,41,Motors_Started,"Aeronave en Zona de altitud restringida (150). Vuela con precauci贸n (Code: 190001). Error de calibraci贸n del estabilizador. Reinicia la aeronave o contacta con la Asistencia DJI (Code: 40011)"
100,2022-11-08 20:13:36,-34.9200224069213,-56.1705291057471,0,0,28.14987294804,28.14987294804,0,0,0.071288716192,0.071288716192,21,5,0,28.14987294804,0,0,0.071288716192,0,0,0,253.6, -5.9, -1,0,0,364,364,364,1684,-100,-100,-100,100,262.1,0,0,94,4.271,4.264,0,0,0,0,0,81.68,28.14987294804,0,41,Motors_Started,
200,2022-11-08 20:13:36,-34.9200224268901,-56.1705292397609,0,0,28.14987294804,28.14987294804,0.328084,0,0.1043963288,0.112036748992,21,5,0,28.14987294804,0,0,0.1043963288,0,0,0,252.1, -6.3, -0.9,0,0,1024,1024,817,1024,0,0,-31,0,261.9,0,0,94,4.271,4.264,0,0,0,0,0,81.68,28.14987294804,0,41,Motors_Started,
300,2022-11-08 20:13:36,-34.9200224567558,-56.1705293135093,0,0,28.14987294804,28.14987294804,0.328084,0,0.128529203588,0.136643377076,21,5,0,28.14987294804,0,0,0.128529203588,0,0,0,253.3, -6.7, -0.2,0,0,1024,1024,1444,1024,0,0,64,0,261.7,0,0,94,4.271,4.264,0,0,0,0,0,81.68,28.14987294804,0,41,Motors_Started,
400,2022-11-08 20:13:36,-34.9200224822197,-56.17052935729,0,0,28.14987294804,28.14987294804,0.328084,0,0.144584650296,0.152701120372,21,5,0,28.14987294804,0,0,0.144584650296,0,0,0,253.3, -5.5, 0.9,0,0,1024,1024,1684,1015,0,0,100,-1,262.2,0,0,94,4.271,4.264,0,0,0,0,0,81.68,28.14987294804,0,41,Motors_Started,
500,2022-11-08 20:13:36,-34.9200226335966,-56.1705294842359,0,0,28.14987294804,28.14987294804,0.328084,0,0.209052500128,0.21972769732,21,5,0,28.14987294804,0,0,0.209052500128,0,0,0,255.1, -5.5, 1.8,0,0,1024,1024,1684,1015,0,0,100,-1,263.5,0,0,94,4.271,4.264,0,0,0,0,0,81.68,28.14987294804,0,41,Motors_Started,
600,2022-11-08 20:13:36,-34.9200227157638,-56.1705296240931,0,0,28.14987294804,28.14987294804,0.328084,0,0.260238853472,0.271198827576,21,5,0,28.14987294804,0,0,0.260238853472,0,0,0,253.9, -5.6, 2.7,0,0,1024,1024,1684,1013,0,0,100,-2,264,0,0,94,4.271,4.264,0,0,0,0,0,81.68,28.14987294804,0,41,Motors_Started,
700,2022-11-08 20:13:36,-34.9200227859889,-56.1705297433414,0,0,28.14987294804,28.14987294804,0.328084,0,0.30399771314,0.315120416908,21,5,0,28.14987294804,0,0,0.30399771314,0,0,0,252.8, -6.7, 2.2,0,0,1024,1024,1684,1024,0,0,100,0,263.1,0,0,94,4.271,4.264,0,0,0,0,0,81.68,28.14987294804,0,41,Motors_Started,"Setting new Return-To-Home altitude to 80m (262 ft). Data Recorder File Index is 75. Setting new Maximum Flight Altitude to 120m (394 ft)"
800,2022-11-08 20:13:37,-34.9200228546669,-56.1705298483097,-0.328084,-0.328084,28.14987294804,27.82178894804,0.328084,0,0.34415683516,0.35529528696,21,5,0,28.14987294804,0,0,0.34415683516,0,0,0,253, -9.3, 0.9,0,0,1024,1024,1684,1024,0,0,100,0,262.5,0,0,94,4.271,4.264,0,0,0,0,0,81.68,27.82178894804,-0.328084,41,Motors_Started,
900,2022-11-08 20:13:37,-34.9200227900893,-56.1705298120658,-0.328084,-0.328084,28.14987294804,27.82178894804,0.328084,0,0.320885180872,0.38123032716,21,5,0,28.14987294804,0,0,0.34415683516,0,0,0,252.3, -10.1, 0.2,0,0,1024,1024,1684,1024,0,0,100,0,262.3,0,0,94,4.271,4.264,0,0,0,0,0,81.68,27.82178894804,-0.328084,41,Motors_Started,
1000,2022-11-08 20:13:37,-34.9200228012018,-56.17052987082,-0.328084,-0.328084,28.14987294804,27.82178894804,0.328084,0,0.33730644124,0.39926838548,21,5,0,28.14987294804,0,0,0.34415683516,0,0,0,252.6, -10.1, 1.5,0,0,1024,1024,1684,1024,0,0,100,0,262.1,0,0,94,4.271,4.264,0,0,0,0,0,81.68,27.82178894804,-0.328084,41,Motors_Started,
1100,2022-11-08 20:13:37,-34.9200228258808,-56.1705299264933,-0.328084,-0.328084,28.14987294804,27.82178894804,0.328084,0,0.35604988016,0.41820211312,21,5,0,28.14987294804,0,0,0.35604988016,0,0,0,252.3, -9.8, 2.5,0,0,1024,1024,1684,1024,0,0,100,0,262.1,0,0,94,4.271,4.264,0,0,0,0,0,81.68,27.82178894804,-0.328084,10,Assisted_Takeoff,
1200,2022-11-08 20:13:37,-34.9200228900814,-56.1705299785977,-0.328084,-0.328084,28.14987294804,27.82178894804,0.328084,0,0.38260499912,0.44633859696,21,5,0,28.14987294804,0,0,0.38260499912,0,0,0,252.2, -8.5, 2.8,0,0,1024,1024,1684,1024,0,0,100,0,262.2,0,0,94,4.271,4.264,0,0,0,0,0,81.68,27.82178894804,-0.328084,10,Assisted_Takeoff,
1300,2022-11-08 20:13:37,-34.9200229380815,-56.1705300222356,-0.328084,-0.328084,28.14987294804,27.82178894804,0.328084,0,0.40369751948,0.46818242968,21,5,0,28.14987294804,0,0,0.40369751948,0,0,0,252.8, -6.5, 3.7,0,0,1024,1024,1684,1024,0,0,100,0,262.3,0,0,94,4.271,4.264,0,0,0,0,0,81.68,27.82178894804,-0.328084,10,Assisted_Takeoff,
1400,2022-11-08 20:13:37,-34.9200229772838,-56.1705299998753,-0.328084,-0.328084,28.14987294804,27.82178894804,0.328084,0,0.40768374008,0.4839731126,21,5,8.543,28.14987294804,0,0,0.40768374008,0,0,0,253, -5.9, 3.4,0,0,1024,1024,1684,1024,0,0,100,0,262.8,0,0,94,4.271,4.264,0,0,0,0,1.366,81.68,27.82178894804,-0.328084,10,Assisted_Takeoff,
1500,2022-11-08 20:13:37,-34.9200230091777,-56.1705300375421,-0.328084,-0.328084,28.14987294804,27.82178894804,0.328084,0,0.4238189112,0.50017061968,21,5,8.543,28.14987294804,0,0,0.4238189112,0,0,0,253, -6, 3.2,0,0,1024,1024,1684,1024,0,0,100,0,262.8,0,0,94,4.271,4.264,0,0,0,0,1.366,81.68,27.82178894804,-0.328084,10,Assisted_Takeoff,
1600,2022-11-08 20:13:37,-34.9200230316274,-56.1705300769773,-0.328084,-0.328084,28.14987294804,27.82178894804,0.328084,0,0.43810040772,0.51453085636,21,5,8.543,28.14987294804,0,0,0.43810040772,0,0,0,253.5, -5.1, 4.3,0,0,1024,1024,1684,1024,0,0,100,0,263,0,0,94,4.271,4.264,0,0,0,0,1.366,81.68,27.82178894804,-0.328084,10,Assisted_Takeoff,
1700,2022-11-08 20:13:37,-34.9200230258839,-56.1705300961913,-0.328084,-0.328084,28.14987294804,27.82178894804,0.328084,0,0.44111878052,0.52064962296,21,5,8.543,28.14987294804,0,0,0.44111878052,0,0,0,253.9, -4.1, 2.9,0,0,1024,1024,1684,1024,0,0,100,0,263.5,0,0,94,4.271,4.264,0,0,0,0,1.366,81.68,27.82178894804,-0.328084,10,Assisted_Takeoff,"Error de calibraci贸n del estabilizador. Reinicia la aeronave o contacta con la Asistencia DJI (Code: 40011)"
1800,2022-11-08 20:13:38,-34.9200229267043,-56.170530047999,-0.328084,-0.328084,28.14987294804,27.82178894804,0.328084,0.223694,0.40720801828,0.55960303628,21,5,8.543,28.14987294804,0,0.223694,0.44111878052,0,-0.223694,-0.447388,253.9, -3.4, 1.8,0,0,1024,1024,1569,1024,0,0,83,0,263.6,0,0,94,4.271,4.264,0,0,0,0,1.366,81.68,27.82178894804,-0.328084,6,P-GPS,"Error de calibraci贸n del estabilizador. Reinicia la aeronave o contacta con la Asistencia DJI (Code: 40011)"
1900,2022-11-08 20:13:38,-34.9200228335712,-56.170530258808,0,0,28.14987294804,28.14987294804,0.328084,0.4921268,0.44144358368,0.63124017768,21,5,8.543,28.14987294804,0,0.4921268,0.44144358368,0.223694,-0.447388,-1.11847,253.6, 0.3, -0.5,0,0,1024,1024,1024,1024,0,0,0,0,263.6,0,0,94,4.271,4.264,0,0,0,0,1.366,81.68,28.14987294804,0,6,P-GPS,
2000,2022-11-08 20:13:38,-34.9200227227303,-56.1705305371993,0,0,28.14987294804,28.14987294804,0.656168,0.4921268,0.50048229948,0.72382220164,21,5,8.543,28.14987294804,0,0.4921268,0.50048229948,0.223694,-0.447388,-1.565858,253.2, 1.8, -2.1,0,0,1024,1024,1024,1024,0,0,0,0,263.6,0,0,94,4.271,4.264,0,0,0,0,1.366,81.68,28.14987294804,0,6,P-GPS,
2100,2022-11-08 20:13:38,-34.9200226224499,-56.1705307816121,0,0,28.14987294804,28.14987294804,0.984252,0.223694,0.55958991292,0.80558401528,21,5,8.543,28.14987294804,0,0.4921268,0.55958991292,0,-0.223694,-1.789552,253.2, 2.1, -2.2,0,0,1024,1024,1024,1024,0,0,0,0,263.6,0,0,94,4.271,4.264,0,0,0,0,1.366,81.68,28.14987294804,0,6,P-GPS,
2200,2022-11-08 20:13:38,-34.9200224509446,-56.1705310538453,0.328084,0.328084,28.14987294804,28.47795694804,1.312336,0.223694,0.62845474452,0.90828743064,21,5,8.543,28.47795694804,0.328084,0.4921268,0.62845474452,0,-0.223694,-1.789552,253.3, 1.7, -1.9,0,0,1024,1024,1024,1024,0,0,0,0,263.6,0,0,94,4.271,4.264,0,0,0,0,1.366,81.68,28.47795694804,0.328084,6,P-GPS,
2300,2022-11-08 20:13:38,-34.9200223575648,-56.1705312603112,0.656168,0.656168,28.14987294804,28.80604094804,1.64042,0.223694,0.68700133432,0.97882549064,21,5,8.543,28.80604094804,0.656168,0.4921268,0.68700133432,0,-0.223694,-1.565858,253.3, 1.8, -2.2,0,0,1024,1024,1024,1024,0,0,0,0,263.6,0,0,94,4.271,4.264,0,0,0,0,1.366,81.68,28.80604094804,0.656168,6,P-GPS,
2400,2022-11-08 20:13:38,-34.9200222624327,-56.1705314816111,0.984252,0.984252,28.14987294804,29.13412494804,1.968504,0,0.752050549,1.0535761492,20,5,8.404,29.13412494804,0.984252,0.4921268,0.752050549,0,0,-1.11847,253.3, 1.5, -2.5,0,0,1024,1024,1024,1024,0,0,0,0,263.6,0,0,94,4.175,4.168,0,0,0,0,3.322,81.68,29.13412494804,0.984252,6,P-GPS,
2500,2022-11-08 20:13:38,-34.9200221308878,-56.1705316023623,0.984252,0.984252,28.14987294804,29.13412494804,2.296588,0,0.7893044872,1.11364504876,20,5,8.404,29.13412494804,0.984252,0.4921268,0.7893044872,0,0,-0.671082,253.4, 1, -1.8,0,0,1024,1024,1024,1024,0,0,0,0,263.6,0,0,94,4.175,4.168,0,0,0,0,3.322,81.68,29.13412494804,0.984252,6,P-GPS,
2600,2022-11-08 20:13:38,-34.9200217624874,-56.1705317002406,0.984252,0.984252,28.14987294804,29.13412494804,2.296588,0,0.83637797952,1.25121066996,20,5,8.404,29.13412494804,0.984252,0.4921268,0.83637797952,0,0,-0.447388,253.4, 0.7, -1.8,0,0,1024,1024,1024,1024,0,0,0,0,263.6,0,0,94,4.175,4.168,0,0,0,0,3.322,81.68,29.13412494804,0.984252,6,P-GPS,
2700,2022-11-08 20:13:38,-34.9200216753168,-56.1705317561658,0.984252,0.984252,28.14987294804,29.13412494804,2.624672,0,0.85990160232,1.28714571048,20,5,8.404,29.13412494804,0.984252,0.4921268,0.85990160232,0,0,0,253.6, 0.8, -1.7,0,0,1024,1024,1024,1024,0,0,0,0,263.6,0,0,94,4.175,4.168,0,0,0,0,3.322,81.68,29.13412494804,0.984252,6,P-GPS,
2800,2022-11-08 20:13:39,-34.9200216498552,-56.1705318233475,1.312336,1.312336,28.14987294804,29.46220894804,2.624672,0,0.88166341404,1.30928809964,20,5,8.404,29.46220894804,1.312336,0.4921268,0.88166341404,0,0,0,253.6, 1.2, -1.7,0,0,1024,1024,1024,1024,0,0,0,0,263.6,0,0,94,4.175,4.168,0,0,0,0,3.322,81.68,29.46220894804,1.312336,6,P-GPS,
2900,2022-11-08 20:13:39,-34.9200215997716,-56.1705318401605,1.312336,1.312336,28.14987294804,29.46220894804,2.624672,0,0.8912073776,1.32823823148,20,5,8.404,29.46220894804,1.312336,0.4921268,0.8912073776,0,0,0,253.7, 1.3, -1.6,0,0,1024,1024,1024,1024,0,0,0,0,263.6,0,0,94,4.175,4.168,0,0,0,0,3.322,81.68,29.46220894804,1.312336,6,P-GPS,
3000,2022-11-08 20:13:39,-34.9200215254494,-56.1705318153008,1.312336,1.312336,28.14987294804,29.46220894804,2.624672,0,0.89167325688,1.35635831112,20,5,8.404,29.46220894804,1.312336,0.4921268,0.89167325688,0,0,0,253.8, 1.2, -1.1,0,0,1024,1024,1024,1024,0,0,0,0,263.6,0,0,94,4.175,4.168,0,0,0,0,3.322,81.68,29.46220894804,1.312336,6,P-GPS,
3100,2022-11-08 20:13:39,-34.9200215073998,-56.1705317705208,0.984252,0.984252,28.14987294804,29.13412494804,2.624672,0,0.88087929328,1.37128285228,20,5,8.404,29.46220894804,1.312336,0.4921268,0.89167325688,0,0,0,253.7, 1.2, -1,0,0,1024,1024,1024,1024,0,0,0,0,263.6,0,0,94,4.175,4.168,0,0,0,0,3.322,81.68,29.13412494804,0.984252,6,P-GPS,
3200,2022-11-08 20:13:39,-34.9200214845682,-56.1705318051381,0.984252,1.0170604,28.11706454804,29.13412494804,2.624672,0,0.89330383436,1.38457353512,20,5,8.404,29.46220894804,1.312336,0.4921268,0.89330383436,0,0,0,253.7, 0.9, -1,0,0,1024,1024,1024,1024,0,0,0,0,263.6,0,0,94,4.175,4.168,0,0,0,0,3.322,81.68,29.13412494804,0.984252,6,P-GPS,
3300,2022-11-08 20:13:39,-34.9200214283461,-56.1705318138769,0.984252,1.0170604,28.11706454804,29.13412494804,2.624672,0,0.90237535696,1.40525266964,20,5,8.404,29.46220894804,1.312336,0.4921268,0.90237535696,0,0,0,253.7, 0.6, -1,0,0,1024,1024,1024,1024,0,0,0,0,263.6,0,0,94,4.175,4.168,0,0,0,0,3.322,81.68,29.13412494804,0.984252,6,P-GPS,
3400,2022-11-08 20:13:39,-34.9200213399607,-56.170531800773,0.984252,1.0170604,28.11706454804,29.13412494804,2.624672,0,0.90991144644,1.43773954732,21,5,8.427,29.46220894804,1.312336,0.4921268,0.90991144644,0,0,0,253.7, 0.3, -1.3,0,0,1024,1024,1024,1024,0,0,0,0,263.6,0,0,94,4.213,4.203,0,0,0,0,3.86,81.68,29.13412494804,0.984252,6,P-GPS,
3500,2022-11-08 20:13:39,-34.9200212625754,-56.1705319147715,0.984252,1.0170604,28.11706454804,29.13412494804,2.624672,0,0.95205383624,1.48201120228,21,5,8.427,29.46220894804,1.312336,0.4921268,0.95205383624,0,0,0,253.6, 0, -2.2,0,0,1024,1024,1024,1024,0,0,0,0,263.6,0,0,94,4.213,4.203,0,0,0,0,3.86,81.68,29.13412494804,0.984252,6,P-GPS,
3600,2022-11-08 20:13:39,-34.9200211997419,-56.1705319015255,0.984252,1.0170604,28.11706454804,29.13412494804,2.624672,0,0.95730646108,1.50527563872,21,5,8.427,29.46220894804,1.312336,0.4921268,0.95730646108,0,0,0,253.7, 0, -2.2,0,0,1024,1024,1024,1024,0,0,0,0,263.6,0,0,94,4.213,4.203,0,0,0,0,3.86,81.68,29.13412494804,0.984252,6,P-GPS,
3700,2022-11-08 20:13:39,-34.9200211608482,-56.1705318721604,1.312336,1.3451444,28.11706454804,29.46220894804,2.624672,0,0.95506236652,1.5219652718,21,5,8.427,29.46220894804,1.312336,0.4921268,0.95730646108,0,0,0,253.9, -0.3, -2.5,0,0,1024,1024,1024,1024,0,0,0,0,263.6,0,0,94,4.213,4.203,0,0,0,0,3.86,81.68,29.46220894804,1.312336,6,P-GPS,
3800,2022-11-08 20:13:40,-34.920021147731,-56.1705318308143,1.312336,1.3451444,28.11706454804,29.46220894804,2.624672,0,0.94584320612,1.53522970792,21,5,8.427,29.46220894804,1.312336,0.4921268,0.95730646108,0,0,0,254.1, -0.3, -2,0,0,1024,1024,1024,1024,0,0,0,0,263.6,0,0,94,4.213,4.203,0,0,0,0,3.86,81.68,29.46220894804,1.312336,6,P-GPS,
3900,2022-11-08 20:13:40,-34.9200210813972,-56.1705318078647,1.312336,1.3451444,28.11706454804,29.46220894804,2.624672,0,0.95021984668,1.56038718904,21,5,8.427,29.46220894804,1.312336,0.4921268,0.95730646108,0,0,0,254.1, -0.1, -1,0,0,1024,1024,1024,1024,0,0,0,0,263.6,0,0,94,4.213,4.203,0,0,0,0,3.86,81.68,29.46220894804,1.312336,6,P-GPS,
4000,2022-11-08 20:13:40,-34.9200210582668,-56.1705317849507,1.312336,1.3451444,28.11706454804,29.46220894804,2.624672,0,0.94792982036,1.5712598928,21,5,8.427,29.46220894804,1.312336,0.4921268,0.95730646108,0,0,0,254.3, -0.4, -0.7,0,0,1024,1024,1243,1024,0,0,33,0,263.6,0,0,94,4.213,4.203,0,0,0,0,3.86,81.68,29.46220894804,1.312336,6,P-GPS,
4100,2022-11-08 20:13:40,-34.9200210582342,-56.1705317871477,1.312336,1.3451444,28.11706454804,29.46220894804,2.624672,0,0.94851709072,1.5719160608,21,5,8.427,29.46220894804,1.312336,0.4921268,0.95730646108,0,0,0,254.5, -0.5, -0.3,0,0,1024,1024,1500,1024,0,0,72,0,263.6,0,0,94,4.213,4.203,0,0,0,0,3.86,81.68,29.46220894804,1.312336,6,P-GPS,
4200,2022-11-08 20:13:40,-34.9200210667957,-56.1705318166633,1.312336,1.3451444,28.11706454804,29.46220894804,2.624672,0,0.95496394132,1.581282859,21,5,8.427,29.46220894804,1.312336,0.4921268,0.95730646108,0,0,-0.223694,254.6, 0, 0,0,0,1024,1024,1630,1024,0,0,92,0,263.6,0,0,94,4.213,4.203,0,0,0,0,3.86,81.68,29.46220894804,1.312336,6,P-GPS,
4300,2022-11-08 20:13:40,-34.9200210417552,-56.170531960624,1.312336,1.3451444,28.11706454804,29.46220894804,2.624672,0,0.99758533376,1.62530845096,21,5,8.427,29.46220894804,1.312336,0.4921268,0.99758533376,0,0,-0.894776,254.7, 0.6, -1.5,0,0,1024,1024,1643,1024,0,0,94,0,263.6,0,0,94,4.213,4.203,0,0,0,0,3.86,81.68,29.46220894804,1.312336,6,P-GPS,
4400,2022-11-08 20:13:40,-34.9200210259715,-56.1705320357577,1.64042,1.6732284,28.11706454804,29.79029294804,2.952756,0,1.0203084316,1.64851055144,21,5,8.395,29.79029294804,1.64042,0.4921268,1.0203084316,0,0,-1.789552,254.7, 0.8, -2.1,0,0,1024,1024,1334,1024,0,0,47,0,263.6,0,0,94,4.202,4.194,0,0,0,0,4.191,81.68,29.79029294804,1.64042,6,P-GPS,
4500,2022-11-08 20:13:40,-34.920021046529,-56.1705321036479,1.968504,2.0013124,28.11706454804,30.11837694804,3.28084,0,1.03541998064,1.6701608146,21,5,8.395,30.11837694804,1.968504,0.4921268,1.03541998064,0,0,-2.460634,254.6, 1.2, -1.7,0,0,1024,1024,1024,1024,0,0,0,0,263.6,0,0,94,4.202,4.194,0,0,0,0,4.191,81.68,30.11837694804,1.968504,6,P-GPS,
4600,2022-11-08 20:13:40,-34.9200211008473,-56.170532164901,2.624672,2.6574804,28.11706454804,30.77454494804,3.608924,0,1.04395344548,1.69715228528,21,5,8.395,30.77454494804,2.624672,0.4921268,1.04395344548,0,0,-2.908022,254.5, 1.2, -0.8,0,0,1024,1024,1024,1024,0,0,0,0,263.6,0,0,94,4.202,4.194,0,0,0,0,4.191,81.68,30.77454494804,2.624672,6,P-GPS,
4700,2022-11-08 20:13:40,-34.9200211652279,-56.170532253171,2.952756,2.9855644,28.11706454804,31.10262894804,4.265092,0,1.059219194,1.73249349376,21,5,8.395,31.10262894804,2.952756,0.4921268,1.059219194,0,0,-2.460634,254.7, 2.2, 0.4,0,0,1024,1024,1024,1024,0,0,0,0,263.6,0,0,94,4.202,4.194,0,0,0,0,4.191,81.68,31.10262894804,2.952756,6,P-GPS,
4800,2022-11-08 20:13:41,-34.9200212344962,-56.1705324977669,3.28084,3.3136484,28.11706454804,31.43071294804,4.593176,0,1.11884518016,1.8099081944,21,5,8.395,31.43071294804,3.28084,0.4921268,1.11884518016,0,0,-1.789552,254.7, 2.1, 0.6,0,0,1024,1024,1024,1024,0,0,0,0,263.6,0,0,94,4.202,4.194,0,0,0,0,4.191,81.68,31.43071294804,3.28084,6,P-GPS,
4900,2022-11-08 20:13:41,-34.9200212858972,-56.1705325324354,3.608924,3.6417324,28.11706454804,31.75879694804,4.593176,0,1.1226378312,1.83133864128,21,5,8.395,31.75879694804,3.608924,0.4921268,1.1226378312,0,0,-1.11847,254.7, 1.4, 1,0,0,1033,1024,1024,1024,1,0,0,0,263.6,0,0,94,4.202,4.194,0,0,0,0,4.191,81.68,31.75879694804,3.608924,6,P-GPS,
5000,2022-11-08 20:13:41,-34.920021321061,-56.1705325272548,3.608924,3.6417324,28.11706454804,31.75879694804,4.92126,0,1.11721460268,1.84426187004,21,5,8.395,31.75879694804,3.608924,0.4921268,1.1226378312,0,0,-0.447388,254.8, 0.8, 0.9,0,0,1588,1024,1024,1024,85,0,0,0,263.6,0,0,94,4.202,4.194,0,0,0,0,4.191,81.68,31.75879694804,3.608924,6,P-GPS,
5100,2022-11-08 20:13:41,-34.9200213883051,-56.1705325060833,3.608924,3.6417324,28.11706454804,31.75879694804,4.92126,0,1.10396328992,1.86959979736,21,5,8.395,31.75879694804,3.608924,0.4921268,1.1226378312,0,0,-0.223694,255, -1.3, 0.3,0,0,1684,1024,1024,1024,100,0,0,0,263.6,0,0,94,4.202,4.194,0,0,0,0,4.191,81.68,31.75879694804,3.608924,6,P-GPS,"Punto de origen actualizado. Altitud de RPO establecida en 80m (Code: 3000001)"
5200,2022-11-08 20:13:41,-34.9200216677478,-56.1705324582041,3.608924,3.608924,28.14987294804,31.75879694804,4.593176,0,1.0654035774,1.9725558374,21,5,8.395,31.75879694804,3.608924,0.4921268,1.1226378312,0,0,0,255.1, -10.6, 0.2,0,0,1684,1024,1024,1024,100,0,0,0,263.6,0,0,94,4.202,4.194,0,0,0,0,4.191,81.68,31.75879694804,3.608924,6,P-GPS,
5300,2022-11-08 20:13:41,-34.9200217161248,-56.1705326147052,3.608924,3.608924,28.14987294804,31.75879694804,4.593176,0.447388,1.10810371,2.02259192824,21,5,8.395,31.75879694804,3.608924,0.4921268,1.1226378312,0,-0.447388,0,255.2, -16.6, -0.2,0,0,1684,1024,1024,1024,100,0,0,0,263.6,0,0,94,4.202,4.194,0,0,0,0,4.191,81.68,31.75879694804,3.608924,6,P-GPS,
5400,2022-11-08 20:13:41,-34.9200217571257,-56.170533045534,3.608924,3.608924,28.14987294804,31.75879694804,4.265092,1.1408394,1.23294951452,2.15234258856,21,5,8.395,31.75879694804,3.608924,1.1408394,1.23294951452,-0.223694,-1.11847,0,255.1, -17.5, -0.4,0,0,1684,1024,1024,1024,100,0,0,0,263.6,0,0,94,4.202,4.194,0,0,0,0,4.191,81.68,31.75879694804,3.608924,6,P-GPS,
5500,2022-11-08 20:13:41,-34.9200218400266,-56.170533781484,3.608924,3.608924,28.14987294804,31.75879694804,4.265092,1.8342908,1.44771658176,2.37457684764,21,5,8.411,31.75879694804,3.608924,1.8342908,1.44771658176,-0.447388,-1.789552,0,255.1, -16.8, -0.4,0,0,1684,1024,1024,1024,100,0,0,0,263.6,0,0,94,4.211,4.199,0,0,0,0,4.532,81.68,31.75879694804,3.608924,6,P-GPS,
5600,2022-11-08 20:13:41,-34.9200217694921,-56.1705348214491,3.608924,3.608924,28.14987294804,31.75879694804,4.265092,2.5053728,1.75983929516,2.68675533532,21,5,8.411,31.75879694804,3.608924,2.5053728,1.75983929516,-0.447388,-2.460634,0,255.2, -16.2, -0.4,0,0,1684,1024,1024,1024,100,0,0,0,263.6,0,0,94,4.211,4.199,0,0,0,0,4.532,81.68,31.75879694804,3.608924,6,P-GPS,
5700,2022-11-08 20:13:41,-34.920022006377,-56.1705361237442,3.937008,3.9698164,28.11706454804,32.08688094804,4.265092,2.9751302,2.14257552788,3.08582030872,21,5,8.411,32.08688094804,3.937008,2.9751302,2.14257552788,-0.671082,-2.908022,0,255.3, -16, -0.2,0,0,1684,1024,1024,1024,100,0,0,0,263.6,0,0,94,4.211,4.199,0,0,0,0,4.532,81.68,32.08688094804,3.937008,6,P-GPS,
5800,2022-11-08 20:13:42,-34.9200223365782,-56.1705377634515,3.937008,3.9698164,28.11706454804,32.08688094804,4.593176,3.6462122,2.63149942804,3.5909449968,21,5,8.411,32.08688094804,3.937008,3.6462122,2.63149942804,-0.671082,-3.579104,0,255.4, -15.4, -0.7,0,0,1684,1024,1024,1024,100,0,0,0,263.6,0,0,94,4.211,4.199,0,0,0,0,4.532,81.68,32.08688094804,3.937008,6,P-GPS,
5900,2022-11-08 20:13:42,-34.9200227031467,-56.1705396828477,3.937008,3.937008,28.14987294804,32.08688094804,4.593176,4.3396636,3.209809814,4.1805119448,21,5,8.411,32.08688094804,3.937008,4.3396636,3.209809814,-0.894776,-4.250186,0,255.4, -15, -0.2,0,0,1684,1024,1024,1024,100,0,0,0,263.6,0,0,94,4.211,4.199,0,0,0,0,4.532,81.68,32.08688094804,3.937008,6,P-GPS,
6000,2022-11-08 20:13:42,-34.9200232812028,-56.1705423618155,3.937008,3.937008,28.14987294804,32.08688094804,4.593176,4.7870516,4.0246392364,5.0092193204,21,5,8.411,32.08688094804,3.937008,4.7870516,4.0246392364,-0.894776,-4.697574,0,255.5, -15, -1.4,0,0,1684,1024,1024,1024,100,0,0,0,263.6,0,0,94,4.211,4.199,0,0,0,0,4.532,81.68,32.08688094804,3.937008,6,P-GPS,
6100,2022-11-08 20:13:42,-34.9200237277164,-56.1705448839988,3.937008,3.937008,28.14987294804,32.08688094804,4.92126,5.2120702,4.791994904,5.7811353556,21,5,8.411,32.08688094804,3.937008,5.2120702,4.791994904,-0.894776,-5.144962,0,255.6, -15, -2.3,0,0,1684,1024,1024,1024,100,0,0,0,263.6,0,0,94,4.211,4.199,0,0,0,0,4.532,81.68,32.08688094804,3.937008,6,P-GPS,
6200,2022-11-08 20:13:42,-34.9200242458116,-56.1705477888248,3.937008,3.937008,28.14987294804,32.08688094804,4.92126,5.704197,5.67749362,6.6704726544,21,5,8.411,32.08688094804,3.937008,5.704197,5.67749362,-1.11847,-5.59235,0,255.6, -14.7, -2.9,0,0,1684,1024,1024,1024,100,0,0,0,263.6,0,0,94,4.211,4.199,0,0,0,0,4.532,81.68,32.08688094804,3.937008,6,P-GPS,
6300,2022-11-08 20:13:42,-34.920024811336,-56.17055072633,3.937008,3.937008,28.14987294804,32.08688094804,5.249344,6.151585,6.576115696,7.573162972,21,5,8.411,32.08688094804,3.937008,6.151585,6.576115696,-1.11847,-6.039738,0,255.6, -15.1, -3.1,0,0,1684,1024,1024,1024,100,0,0,0,263.6,0,0,94,4.211,4.199,0,0,0,0,4.532,81.68,32.08688094804,3.937008,6,P-GPS,
6400,2022-11-08 20:13:42,-34.920025476548,-56.1705539911707,3.937008,3.937008,28.14987294804,32.08688094804,5.249344,6.6213424,7.578084232,8.579560642,21,5,8.411,32.08688094804,3.937008,6.6213424,7.578084232,-1.342164,-6.487126,0,255.7, -14.9, -3.4,0,0,1684,1024,1024,1024,100,0,0,0,263.6,0,0,94,4.211,4.199,0,0,0,0,4.532,81.68,32.08688094804,3.937008,6,P-GPS,
6500,2022-11-08 20:13:42,-34.9200263954089,-56.1705576439082,3.937008,3.937008,28.14987294804,32.08688094804,5.577428,6.8450364,8.7111879428,9.7225724896,21,5,8.357,32.08688094804,3.937008,6.8450364,8.7111879428,-1.342164,-6.71082,0,255.7, -14.2, -3.1,0,0,1684,1024,1024,1024,100,0,0,0,263.6,0,0,94,4.194,4.185,0,0,0,0,4.504,81.68,32.08688094804,3.937008,6,P-GPS,
6600,2022-11-08 20:13:42,-34.9200271602402,-56.1705613450362,3.937008,3.9041996,28.18268134804,32.08688094804,5.905512,7.3371632,9.850394016,10.8644360432,21,5,8.357,32.08688094804,3.937008,7.3371632,9.850394016,-1.565858,-7.158208,0,255.4, -13.7, -3.7,0,0,1684,1024,1499,1024,100,0,72,0,263.6,0,0,94,4.194,4.185,0,0,0,0,4.504,81.68,32.08688094804,3.937008,6,P-GPS,
6700,2022-11-08 20:13:42,-34.9200279611725,-56.1705649436682,3.937008,3.9041996,28.18268134804,32.08688094804,6.233596,7.605596,10.9625331592,11.9799544516,21,5,8.357,32.08688094804,3.937008,7.605596,10.9625331592,-1.789552,-7.381902,0,255.7, -14, -3.2,0,0,1684,1024,1499,1024,100,0,72,0,263.6,0,0,94,4.194,4.185,0,0,0,0,4.504,81.68,32.08688094804,3.937008,6,P-GPS,
6800,2022-11-08 20:13:43,-34.9200288655565,-56.1705687926475,3.937008,3.8713912,28.21548974804,32.08688094804,6.233596,7.8069206,12.156168368,13.1777563272,21,5,8.357,32.08688094804,3.937008,7.8069206,12.156168368,-1.789552,-7.605596,-0.223694,255.7, -14.7, -1.8,0,0,1684,1024,1684,1024,100,0,100,0,263.6,0,0,94,4.194,4.185,0,0,0,0,4.504,81.68,32.08688094804,3.937008,6,P-GPS,
6900,2022-11-08 20:13:43,-34.9200301542794,-56.1705724708,3.937008,3.8713912,28.21548974804,32.08688094804,6.56168,8.2990474,13.3301841536,14.374344292,21,5,8.357,32.08688094804,3.937008,8.2990474,13.3301841536,-2.013246,-8.052984,-0.894776,255.9, -14.4, -1.6,0,0,1684,1024,1684,1024,100,0,100,0,263.6,0,0,94,4.194,4.185,0,0,0,0,4.504,81.68,32.08688094804,3.937008,6,P-GPS,
7000,2022-11-08 20:13:43,-34.9200312221316,-56.17057666574,3.937008,3.8385828,28.24829814804,32.08688094804,7.217848,8.6345884,14.6401251404,15.6883863288,21,5,8.357,32.08688094804,3.937008,8.6345884,14.6401251404,-2.460634,-8.276678,-1.789552,253.9, -15.4, -1.1,0,0,1684,1024,1684,1024,100,0,100,0,263.6,0,0,94,4.194,4.185,0,0,0,0,4.504,81.68,32.08688094804,3.937008,6,P-GPS,
7100,2022-11-08 20:13:43,-34.9200322532216,-56.1705808387494,4.265092,4.1338584,28.28110654804,32.41496494804,7.874016,9.059607,15.941273476,16.9922249532,21,5,8.357,32.41496494804,4.265092,9.059607,15.941273476,-2.460634,-8.724066,-2.460634,253.7, -15.3, -1.5,0,0,1684,1024,1684,1024,100,0,100,0,263.6,0,0,94,4.194,4.185,0,0,0,0,4.504,81.68,32.41496494804,4.265092,6,P-GPS,
7200,2022-11-08 20:13:43,-34.9200333640321,-56.1705854191517,4.593176,4.4619424,28.28110654804,32.74304894804,8.2021,9.3504092,17.3681436004,18.4211620068,21,5,8.357,32.74304894804,4.593176,9.3504092,17.3681436004,-2.684328,-8.94776,-3.35541,253.8, -15.5, -0.1,0,0,1684,1024,1684,1024,100,0,100,0,263.6,0,0,94,4.194,4.185,0,0,0,0,4.504,81.68,32.74304894804,4.593176,6,P-GPS,
7300,2022-11-08 20:13:43,-34.920034715481,-56.1705899565444,5.249344,5.085302,28.31391494804,33.39921694804,8.858268,9.7754278,18.8038391844,19.8653549664,21,5,8.357,33.39921694804,5.249344,9.7754278,18.8038391844,-2.684328,-9.395148,-4.250186,253.4, -14.9, -1.2,0,0,1684,1024,1684,1024,100,0,100,0,263.6,0,0,94,4.194,4.185,0,0,0,0,4.504,81.68,33.39921694804,5.249344,6,P-GPS,
7400,2022-11-08 20:13:43,-34.9200359511916,-56.1705949942817,5.905512,5.7086616,28.34672334804,34.05538494804,9.514436,10.0438606,20.3753615444,21.4384193212,21,5,8.357,34.05538494804,5.905512,10.0438606,20.3753615444,-2.908022,-9.618842,-5.144962,253.6, -15.9, -2.3,0,0,1684,1024,1684,1024,100,0,100,0,263.6,0,0,94,4.194,4.185,0,0,0,0,4.504,81.68,34.05538494804,5.905512,6,P-GPS,
7500,2022-11-08 20:13:43,-34.9200371419457,-56.1705999012191,6.889764,6.6929136,28.34672334804,35.03963694804,13.12336,10.4688792,21.9051188112,22.969324882,21,5,8.386,35.03963694804,6.889764,10.4688792,21.9051188112,-2.908022,-10.06623,-5.59235,253.6, -15.6, -2,0,0,1684,1024,1684,1024,100,0,100,0,263.6,0,0,94,4.145,4.144,0,0,0,0,4.408,81.86,35.03963694804,6.889764,6,P-GPS,
7600,2022-11-08 20:13:43,-34.9200384185073,-56.1706052169547,7.874016,7.6443572,28.37953174804,36.02388894804,14.76378,10.961006,23.5612868432,24.6263787408,21,5,8.386,36.02388894804,7.874016,10.961006,23.5612868432,-3.131716,-10.513618,-6.039738,253.5, -14.3, -2.5,0,0,1684,1024,1684,1024,100,0,100,0,263.6,0,0,94,4.145,4.144,0,0,0,0,4.408,81.86,36.02388894804,7.874016,6,P-GPS,
7700,2022-11-08 20:13:43,-34.9200396772555,-56.1706101454518,9.186352,8.9238848,28.41234014804,37.33622494804,15.419948,10.961006,25.1038065776,26.1706373204,21,5,8.386,37.33622494804,9.186352,10.961006,25.1038065776,-3.131716,-10.513618,-6.263432,253.7, -13.2, -2,0,0,1684,1024,1024,1024,100,0,0,0,263.6,0,0,94,4.145,4.144,0,0,0,0,4.408,81.86,37.33622494804,9.186352,6,P-GPS,
7800,2022-11-08 20:13:44,-34.9200410249069,-56.17061572588,10.170604,9.8753284,28.44514854804,38.32047694804,16.4042,11.1847,26.8434063708,27.9109917068,21,5,8.386,38.32047694804,10.170604,11.1847,26.8434063708,-3.131716,-10.737312,-6.487126,253.7, -13.8, -2.3,0,0,1684,1024,1024,1024,100,0,0,0,263.6,0,0,94,4.145,4.144,0,0,0,0,4.408,81.86,38.32047694804,10.170604,6,P-GPS,
7900,2022-11-08 20:13:44,-34.9200423142437,-56.170621186181,11.154856,10.826772,28.47795694804,39.30472894804,17.388452,11.1847,28.5428814908,29.6108605276,21,5,8.386,39.30472894804,11.154856,11.1847,28.5428814908,-3.131716,-10.961006,-6.263432,254, -15.5, -2.7,0,0,1684,1024,1024,1024,100,0,0,0,263.6,0,0,94,4.145,4.144,0,0,0,0,4.408,81.86,39.30472894804,11.154856,6,P-GPS,
8000,2022-11-08 20:13:44,-34.92004366268,-56.1706270318503,12.139108,11.7782156,28.51076534804,40.28898094804,20.669292,11.408394,30.3593841736,31.4275272524,21,5,8.386,40.28898094804,12.139108,11.408394,30.3593841736,-3.131716,-10.961006,-5.59235,254, -16.8, -2.2,0,0,1684,1024,1024,1024,100,0,0,0,263.6,0,0,94,4.145,4.144,0,0,0,0,4.408,81.86,40.28898094804,12.139108,6,P-GPS,
8100,2022-11-08 20:13:44,-34.920044908381,-56.1706325586536,12.795276,12.4015752,28.54357374804,40.94514894804,21.32546,11.408394,32.0740495828,33.142389512,21,5,8.386,40.94514894804,12.795276,11.408394,32.0740495828,-3.131716,-10.961006,-4.697574,253.9, -17.8, -2.9,0,0,1684,1024,1024,1024,100,0,0,0,263.6,0,0,94,4.145,4.144,0,0,0,0,4.408,81.86,40.94514894804,12.795276,6,P-GPS,
8200,2022-11-08 20:13:44,-34.9200461666699,-56.1706383764369,13.451444,13.0577432,28.54357374804,41.60131694804,22.309712,11.6097186,33.874016832,34.942258336,21,5,8.386,41.60131694804,13.451444,11.6097186,33.874016832,-3.131716,-11.1847,-3.802798,253.8, -17.1, -3.8,0,0,1684,1024,1024,1024,100,0,0,0,263.6,0,0,94,4.145,4.144,0,0,0,0,4.408,81.86,41.60131694804,13.451444,6,P-GPS,
8300,2022-11-08 20:13:44,-34.9200473774767,-56.1706439541747,13.779528,13.3530188,28.57638214804,41.92940094804,23.293964,11.6097186,35.600066756,36.66830826,21,5,8.386,41.92940094804,13.779528,11.6097186,35.600066756,-3.131716,-11.1847,-3.131716,254, -18.3, -3.3,0,0,1684,1024,1024,1024,100,0,0,0,263.6,0,0,94,4.145,4.144,0,0,0,0,4.408,81.86,41.92940094804,13.779528,6,P-GPS,
8400,2022-11-08 20:13:44,-34.9200486543624,-56.1706498844007,14.107612,13.615486,28.64199894804,42.25748494804,23.622048,11.8334126,37.4343844,38.502625904,21,5,8.386,42.25748494804,14.107612,11.8334126,37.4343844,-3.131716,-11.408394,-2.23694,254.1, -19.4, -3.5,0,0,1684,1024,1024,1024,100,0,0,0,263.6,0,0,94,4.145,4.144,0,0,0,0,4.408,81.86,42.25748494804,14.107612,6,P-GPS,
8500,2022-11-08 20:13:44,-34.920049913827,-56.170655576023,14.435696,13.9107616,28.67480734804,42.58556894804,23.950132,12.1018454,39.1978359,40.266077404,21,5,8.298,42.58556894804,14.435696,12.1018454,39.1978359,-3.35541,-11.632088,-1.565858,253.9, -19.1, -2.8,0,0,1684,1024,1024,1024,100,0,0,0,263.6,0,0,94,4.209,4.196,0,0,0,0,5.555,81.86,42.58556894804,14.435696,6,P-GPS,
8600,2022-11-08 20:13:44,-34.9200511854301,-56.170661400002,14.435696,13.9107616,28.67480734804,42.58556894804,23.950132,12.3255394,41.000985564,42.069227068,21,5,8.298,42.58556894804,14.435696,12.3255394,41.000985564,-3.35541,-11.855782,-0.894776,253.7, -17.9, -2.6,0,0,1684,1024,1024,1024,100,0,0,0,263.6,0,0,94,4.209,4.196,0,0,0,0,5.555,81.86,42.58556894804,14.435696,6,P-GPS,
8700,2022-11-08 20:13:44,-34.9200525175689,-56.1706673131453,14.435696,13.8451448,28.74042414804,42.58556894804,23.950132,12.526864,42.835303208,43.903872796,21,5,8.298,42.58556894804,14.435696,12.526864,42.835303208,-3.35541,-12.079476,-0.447388,254, -16.5, -0.9,0,0,1684,1024,1024,1024,100,0,0,0,263.6,0,0,94,4.209,4.196,0,0,0,0,5.555,81.86,42.58556894804,14.435696,6,P-GPS,
8800,2022-11-08 20:13:45,-34.9200539511305,-56.1706736961196,14.107612,13.4842524,28.77323254804,42.25748494804,23.950132,13.0189908,44.815290148,45.883531652,21,5,8.298,42.58556894804,14.435696,13.0189908,44.815290148,-3.579104,-12.526864,-0.223694,253.7, -16.9, -2.4,0,0,1684,1024,1024,1024,100,0,0,0,263.6,0,0,94,4.209,4.196,0,0,0,0,5.555,81.86,42.25748494804,14.107612,6,P-GPS,
8900,2022-11-08 20:13:45,-34.9200553694141,-56.1706799067103,14.107612,13.451444,28.80604094804,42.25748494804,24.6063,13.4663788,46.7437679,47.812337488,21,5,8.298,42.58556894804,14.435696,13.4663788,46.7437679,-3.579104,-12.974252,0,253.6, -16.9, -2.2,0,0,1684,1024,1024,1024,100,0,0,0,263.6,0,0,94,4.209,4.196,0,0,0,0,5.555,81.86,42.25748494804,14.107612,6,P-GPS,
9000,2022-11-08 20:13:45,-34.9200569228356,-56.1706866170449,14.107612,13.4186356,28.83884934804,42.25748494804,25.262468,13.6677034,48.829397888,49.89829556,21,5,8.298,42.58556894804,14.435696,13.6677034,48.829397888,-3.579104,-13.197946,0,253.7, -16.2, -2.3,0,0,1684,1024,1024,1024,100,0,0,0,263.6,0,0,94,4.209,4.196,0,0,0,0,5.555,81.86,42.25748494804,14.107612,6,P-GPS,
9100,2022-11-08 20:13:45,-34.9200584470071,-56.1706932432618,14.107612,13.3858272,28.87165774804,42.25748494804,25.590552,14.1150914,50.888124988,51.95702266,21,5,8.298,42.58556894804,14.435696,14.1150914,50.888124988,-3.579104,-13.645334,0,253.7, -14.1, -2.8,0,0,1684,1024,1024,1024,100,0,0,0,263.6,0,0,94,4.209,4.196,0,0,0,0,5.555,81.86,42.25748494804,14.107612,6,P-GPS,
9200,2022-11-08 20:13:45,-34.920060090993,-56.1707003871724,14.107612,13.3202104,28.93727454804,42.25748494804,25.918636,14.3835242,53.107941332,54.176839004,21,5,8.298,42.58556894804,14.435696,14.3835242,53.107941332,-3.802798,-13.869028,0,253.5, -13.1, -3.3,0,0,1684,1024,1024,1024,100,0,0,0,263.6,0,0,94,4.209,4.196,0,0,0,0,5.555,81.86,42.25748494804,14.107612,6,P-GPS,
9300,2022-11-08 20:13:45,-34.9200616646431,-56.1707071307738,13.779528,12.959318,28.97008294804,41.92940094804,26.574804,14.6072182,55.20505426,56.274280016,21,5,8.298,42.58556894804,14.435696,14.6072182,55.20505426,-3.802798,-14.092722,0,253.6, -12.9, -3.3,0,0,1684,1024,1024,1024,100,0,0,0,263.6,0,0,94,4.209,4.196,0,0,0,0,5.555,81.86,41.92940094804,13.779528,6,P-GPS,
9400,2022-11-08 20:13:45,-34.9200634506097,-56.1707143522617,13.779528,12.8937012,29.03569974804,41.92940094804,26.902888,14.6072182,57.46063176,58.530841768,21,5,8.298,42.58556894804,14.435696,14.6072182,57.46063176,-3.802798,-14.092722,0,253.5, -11.6, -3.9,0,0,1684,1024,1024,1024,100,0,0,0,263.6,0,0,94,4.209,4.196,0,0,0,0,5.555,81.86,41.92940094804,13.779528,6,P-GPS,
9500,2022-11-08 20:13:45,-34.9200650663714,-56.1707211596071,13.779528,12.8608928,29.06850814804,41.92940094804,27.559056,14.8085428,59.580382484,60.650920576,21,5,8.41,42.58556894804,14.435696,14.8085428,59.580382484,-3.802798,-14.316416,0,253.8, -11.9, -3.3,0,0,1684,1024,1024,1024,100,0,0,0,263.6,0,0,94,4.2,4.19,0,0,0,0,2.955,81.86,41.92940094804,13.779528,6,P-GPS,
9600,2022-11-08 20:13:45,-34.920066781022,-56.1707283727156,13.779528,12.795276,29.13412494804,41.92940094804,28.215224,14.875651,61.826773632,62.897639808,21,5,8.41,42.58556894804,14.435696,14.875651,61.826773632,-4.026492,-14.316416,0,253.9, -13.1, -3,0,0,1684,1024,1024,1024,100,0,0,0,263.6,0,0,94,4.2,4.19,0,0,0,0,2.955,81.86,41.92940094804,13.779528,6,P-GPS,
9700,2022-11-08 20:13:45,-34.9200684424094,-56.1707353779901,13.451444,12.4343836,29.16693334804,41.60131694804,28.871392,14.875651,64.008204148,65.079070324,21,5,8.41,42.58556894804,14.435696,14.875651,64.008204148,-4.026492,-14.316416,0,253.9, -14.2, -3.1,0,0,1684,1024,1024,1024,100,0,0,0,263.6,0,0,94,4.2,4.19,0,0,0,0,2.955,81.86,41.60131694804,13.451444,6,P-GPS,
9800,2022-11-08 20:13:46,-34.9200702184816,-56.1707428659885,13.451444,12.3687668,29.23255014804,41.60131694804,28.871392,15.0769756,66.339897136,67.411091396,21,5,8.41,42.58556894804,14.435696,15.0769756,66.339897136,-4.026492,-14.54011,0,253.4, -9.7, -2.5,0,0,1684,1024,1024,1024,100,0,0,0,263.6,0,0,94,4.2,4.19,0,0,0,0,2.955,81.86,41.60131694804,13.451444,6,P-GPS,
9900,2022-11-08 20:13:46,-34.9200719694758,-56.1707502169077,13.451444,12.30315,29.29816694804,41.60131694804,28.871392,15.1440838,68.629595372,69.701117716,21,5,8.41,42.58556894804,14.435696,15.1440838,68.629595372,-4.250186,-14.54011,0,253.7, -12.7, -2.5,0,0,1684,1024,1024,1024,100,0,0,0,263.6,0,0,94,4.2,4.19,0,0,0,0,2.955,81.86,41.60131694804,13.451444,6,P-GPS,
10000,2022-11-08 20:13:46,-34.9200738102298,-56.1707575990458,13.451444,12.2375332,29.36378374804,41.60131694804,28.871392,14.9427592,70.937010144,72.00951674,21,5,8.41,42.58556894804,14.435696,15.1440838,70.937010144,-4.250186,-14.316416,0,253.8, -13.1, -1.4,0,0,1684,1024,1024,1024,100,0,0,0,263.6,0,0,94,4.2,4.19,0,0,0,0,2.955,81.86,41.60131694804,13.451444,6,P-GPS,
10100,2022-11-08 20:13:46,-34.9200756015052,-56.1707645787016,13.451444,12.1719164,29.42940054804,41.60131694804,28.871392,15.211192,73.123690004,74.197180852,21,5,8.41,42.58556894804,14.435696,15.211192,73.123690004,-4.47388,-14.54011,0,253.6, -14.1, -0.1,0,0,1684,1024,1024,1024,100,0,0,0,263.6,0,0,94,4.2,4.19,0,0,0,0,2.955,81.86,41.60131694804,13.451444,6,P-GPS,
10200,2022-11-08 20:13:46,-34.9200775130639,-56.1707719291401,13.451444,12.1062996,29.49501734804,41.60131694804,28.871392,15.211192,75.429136272,76.50426754,21,5,8.41,42.58556894804,14.435696,15.211192,75.429136272,-4.47388,-14.54011,0,253.3, -12.4, -1.5,0,0,1684,1024,1024,1024,100,0,0,0,263.6,0,0,94,4.2,4.19,0,0,0,0,2.955,81.86,41.60131694804,13.451444,6,P-GPS,
10300,2022-11-08 20:13:46,-34.920079329717,-56.1707784111938,13.12336,11.7454072,29.52782574804,41.27323294804,28.871392,15.5019942,77.474740012,78.553480204,21,5,8.41,42.58556894804,14.435696,15.5019942,77.474740012,-4.697574,-14.763804,-0.223694,253.2, -13.5, -0.3,0,0,1684,1024,1024,1024,100,0,0,0,263.6,0,0,94,4.2,4.19,0,0,0,0,2.955,81.86,41.27323294804,13.12336,6,P-GPS,
10400,2022-11-08 20:13:46,-34.9200813652068,-56.1707858220643,13.12336,11.6797904,29.59344254804,41.27323294804,29.199476,15.7033188,79.810041924,80.891734872,21,5,8.41,42.58556894804,14.435696,15.7033188,79.810041924,-4.697574,-14.987498,-0.223694,253.7, -13.2, 3.1,0,0,1684,1024,1024,1024,100,0,0,0,263.6,0,0,94,4.2,4.19,0,0,0,0,2.955,81.86,41.27323294804,13.12336,6,P-GPS,
10500,2022-11-08 20:13:46,-34.9200833136987,-56.1707929198882,13.12336,11.6141736,29.65905934804,41.27323294804,29.199476,15.7033188,82.046590552,83.130908172,21,5,8.41,42.58556894804,14.435696,15.7033188,82.046590552,-4.697574,-14.987498,0,253.4, -10.9, 1.5,0,0,1684,1024,1024,1024,100,0,0,0,263.6,0,0,94,4.2,4.19,0,0,0,0,2.955,81.86,41.27323294804,13.12336,6,P-GPS,
10600,2022-11-08 20:13:46,-34.9200853596822,-56.1708003946384,13.12336,11.5157484,29.75748454804,41.27323294804,29.199476,15.7033188,84.401577504,85.488191712,21,5,8.377,42.58556894804,14.435696,15.7033188,84.401577504,-4.697574,-14.987498,0,253.3, -13.1, 1.8,0,0,1684,1024,1024,1024,100,0,0,0,263.6,0,0,94,4.188,4.194,0,0,0,0,3.64,81.86,41.27323294804,13.12336,6,P-GPS,
10700,2022-11-08 20:13:46,-34.920087269567,-56.1708075055643,13.12336,11.4501316,29.82310134804,41.27323294804,29.199476,15.7033188,86.638126132,87.726708844,21,5,8.377,42.58556894804,14.435696,15.7033188,86.638126132,-4.697574,-14.987498,0,253.3, -12.3, 1.2,0,0,1684,1024,1024,1024,100,0,0,0,263.6,0,0,94,4.188,4.194,0,0,0,0,3.64,81.86,41.27323294804,13.12336,6,P-GPS,
10800,2022-11-08 20:13:47,-34.9200892920879,-56.1708151270897,13.12336,11.3845148,29.88871814804,41.27323294804,29.199476,15.7033188,89.033139332,90.123362464,21,5,8.377,42.58556894804,14.435696,15.7033188,89.033139332,-4.697574,-14.987498,-0.223694,253.1, -14.9, 1.2,0,0,1684,1024,1024,1024,100,0,0,0,263.6,0,0,94,4.188,4.194,0,0,0,0,3.64,81.86,41.27323294804,13.12336,6,P-GPS,
10900,2022-11-08 20:13:47,-34.9200912462533,-56.1708223804862,13.451444,11.646982,29.95433494804,41.60131694804,29.199476,15.994121,91.31561972,92.407483272,21,5,8.377,42.58556894804,14.435696,15.994121,91.31561972,-4.921268,-15.211192,-0.223694,252.9, -14.5, 2.1,0,0,1684,1024,1024,1024,100,0,0,0,263.6,0,0,94,4.188,4.194,0,0,0,0,3.64,81.86,41.60131694804,13.451444,6,P-GPS,
11000,2022-11-08 20:13:47,-34.9200933276001,-56.1708300245586,13.451444,11.5485568,30.05276014804,41.60131694804,29.199476,16.1954456,93.723100112,94.816932168,21,5,8.377,42.58556894804,14.435696,16.1954456,93.723100112,-4.921268,-15.434886,-0.223694,253.2, -13.5, 2.8,0,0,1684,1024,1024,1024,100,0,0,0,263.6,0,0,94,4.188,4.194,0,0,0,0,3.64,81.86,41.60131694804,13.451444,6,P-GPS,
11100,2022-11-08 20:13:47,-34.9200952277858,-56.1708375179065,13.451444,11.5485568,30.05276014804,41.60131694804,29.199476,16.1954456,96.069228796,97.163388936,21,5,8.377,42.58556894804,14.435696,16.1954456,96.069228796,-4.921268,-15.434886,0,253.4, -11.4, 2.3,0,0,1684,1024,1024,1024,100,0,0,0,263.6,0,0,94,4.188,4.194,0,0,0,0,3.64,81.86,41.60131694804,13.451444,6,P-GPS,
11200,2022-11-08 20:13:47,-34.9200973028664,-56.1708454224922,13.779528,11.8766408,30.05276014804,41.92940094804,29.199476,16.1954456,98.551184256,99.646328648,21,5,8.377,42.58556894804,14.435696,16.1954456,98.551184256,-4.921268,-15.434886,0,253.3, -13.2, 1.9,0,0,1684,1024,1024,1024,100,0,0,0,263.6,0,0,94,4.188,4.194,0,0,0,0,3.64,81.86,41.92940094804,13.779528,6,P-GPS,
11300,2022-11-08 20:13:47,-34.9200992970328,-56.1708529437784,13.779528,11.9094492,30.01995174804,41.92940094804,29.199476,16.1954456,100.914701392,102.01115812,21,5,8.377,42.58556894804,14.435696,16.1954456,100.914701392,-4.921268,-15.434886,0,253.3, -12.9, 2.3,0,0,1684,1024,1024,1024,100,0,0,0,263.6,0,0,94,4.188,4.194,0,0,0,0,3.64,81.86,41.92940094804,13.779528,6,P-GPS,
11400,2022-11-08 20:13:47,-34.9201014105252,-56.1708608548629,14.107612,12.2703416,29.98714334804,42.25748494804,29.199476,16.1954456,103.402562364,104.500331428,21,5,8.377,42.58556894804,14.435696,16.1954456,103.402562364,-4.921268,-15.434886,0,253.4, -13.3, 2.3,0,0,1684,1024,1305,1024,100,0,43,0,263.6,0,0,94,4.188,4.194,0,0,0,0,3.64,81.86,42.25748494804,14.107612,6,P-GPS,
11500,2022-11-08 20:13:47,-34.9201034256009,-56.1708684061351,14.435696,12.5984256,29.98714334804,42.58556894804,29.199476,16.1954456,105.777234356,106.875987672,21,5,8.377,42.58556894804,14.435696,16.1954456,105.777234356,-4.921268,-15.434886,0,253.2, -13.2, 2.4,0,0,1684,1024,1621,1024,100,0,90,0,263.6,0,0,94,4.188,4.194,0,0,0,0,3.64,81.86,42.58556894804,14.435696,6,P-GPS,
11600,2022-11-08 20:13:47,-34.9201055918483,-56.1708766110416,14.435696,12.631234,29.95433494804,42.58556894804,29.199476,16.3520314,108.35466226,109.454399828,22,5,8.363,42.58556894804,14.435696,16.3520314,108.35466226,-4.697574,-15.65858,-0.671082,253.3, -13.2, 1.9,0,0,1684,1024,1684,1024,100,0,100,0,263.6,0,0,94,4.2,4.179,0,0,0,0,3.472,81.86,42.58556894804,14.435696,6,P-GPS,
11700,2022-11-08 20:13:48,-34.9201075322891,-56.1708842362447,14.76378,12.959318,29.95433494804,42.91365294804,29.199476,16.3520314,110.74311378,111.843179432,22,5,8.363,42.91365294804,14.76378,16.3520314,110.74311378,-4.697574,-15.65858,-1.565858,253.3, -13.7, 0.4,0,0,1684,1024,1684,1024,100,0,100,0,263.6,0,0,94,4.2,4.179,0,0,0,0,3.472,81.86,42.91365294804,14.76378,6,P-GPS,
11800,2022-11-08 20:13:48,-34.9201095408054,-56.1708922819636,15.419948,13.6811028,29.88871814804,43.56982094804,29.199476,16.553356,113.258861892,114.358927544,22,5,8.363,43.56982094804,15.419948,16.553356,113.258861892,-4.697574,-15.882274,-2.23694,253.6, -14.9, -0.3,0,0,1684,1024,1684,1024,100,0,100,0,263.6,0,0,94,4.2,4.179,0,0,0,0,3.472,81.86,43.56982094804,15.419948,6,P-GPS,
11900,2022-11-08 20:13:48,-34.9201114598615,-56.1708999589476,16.076116,14.3700792,29.85590974804,44.22598894804,29.199476,16.553356,115.659780604,116.76017434,22,5,8.363,44.22598894804,16.076116,16.553356,115.659780604,-4.697574,-15.882274,-2.684328,253.2, -13.8, -0.2,0,0,1684,1024,1684,1024,100,0,100,0,263.6,0,0,94,4.2,4.179,0,0,0,0,3.472,81.86,44.22598894804,16.076116,6,P-GPS,
12000,2022-11-08 20:13:48,-34.9201134606199,-56.17090799915,16.732284,15.091864,29.79029294804,44.88215694804,29.199476,16.553356,118.173232128,119.273625864,22,5,8.363,44.88215694804,16.732284,16.553356,118.173232128,-4.697574,-15.882274,-3.802798,253.2, -12.9, -0.6,0,0,1684,1024,1684,1024,100,0,100,0,263.6,0,0,94,4.2,4.179,0,0,0,0,3.472,81.86,44.88215694804,16.732284,6,P-GPS,
12100,2022-11-08 20:13:48,-34.9201154057311,-56.1709157521545,17.388452,15.7808404,29.75748454804,45.53832494804,29.199476,16.553356,120.598429056,121.699150876,22,5,8.363,45.53832494804,17.388452,16.553356,120.598429056,-4.697574,-15.882274,-4.697574,253.3, -15.3, -0.4,0,0,1684,1024,1684,1024,100,0,100,0,263.6,0,0,94,4.2,4.179,0,0,0,0,3.472,81.86,45.53832494804,17.388452,6,P-GPS,
12200,2022-11-08 20:13:48,-34.9201174743175,-56.1709239768288,18.372704,16.7979008,29.72467614804,46.52257694804,29.199476,16.8441582,123.171919952,124.272969856,22,5,8.363,46.52257694804,18.372704,16.8441582,123.171919952,-4.921268,-16.105968,-5.144962,253.4, -15.4, -0.4,0,0,1684,1024,1684,1024,100,0,100,0,263.6,0,0,94,4.2,4.179,0,0,0,0,3.472,81.86,46.52257694804,18.372704,6,P-GPS,
12300,2022-11-08 20:13:48,-34.9201194397843,-56.170931842255,19.356956,17.8477696,29.65905934804,47.50682894804,29.199476,16.8441582,125.631893784,126.732615604,22,5,8.363,47.50682894804,19.356956,16.8441582,125.631893784,-4.921268,-16.105968,-5.816044,253.3, -14.8, -0.1,0,0,1684,1024,1684,1024,100,0,100,0,263.6,0,0,94,4.2,4.179,0,0,0,0,3.472,81.86,47.50682894804,19.356956,6,P-GPS,
12400,2022-11-08 20:13:48,-34.9201215386922,-56.1709402512341,20.669292,19.192914,29.62625094804,48.81916494804,29.199476,16.8441582,128.26115896,129.362208864,22,5,8.363,48.81916494804,20.669292,16.8441582,128.26115896,-4.921268,-16.105968,-6.039738,253.3, -14.5, 0.1,0,0,1684,1024,1684,1024,100,0,100,0,263.6,0,0,94,4.2,4.179,0,0,0,0,3.472,81.86,48.81916494804,20.669292,6,P-GPS,
12500,2022-11-08 20:13:48,-34.9201234980621,-56.1709482704984,21.653544,20.2427828,29.56063414804,49.80341694804,29.199476,16.8441582,130.76443988,131.865489784,22,5,8.363,49.80341694804,21.653544,16.8441582,130.76443988,-4.921268,-16.105968,-6.263432,253.5, -14.8, 0.4,0,0,1684,1024,1684,1024,100,0,100,0,263.6,0,0,94,4.2,4.179,0,0,0,0,3.472,81.86,49.80341694804,21.653544,6,P-GPS,
12600,2022-11-08 20:13:48,-34.9201255366786,-56.1709567767285,22.96588,21.6207356,29.49501734804,51.11575294804,29.199476,16.8441582,133.415686684,134.516736588,22,5,8.363,51.11575294804,22.96588,16.8441582,133.415686684,-4.921268,-16.105968,-6.263432,253.6, -13.4, 0.7,0,0,1684,1024,1684,1024,100,0,100,0,263.6,0,0,94,4.2,4.179,0,0,0,0,3.472,81.86,51.11575294804,22.96588,6,P-GPS,
12700,2022-11-08 20:13:48,-34.9201274033444,-56.1709646997448,24.278216,22.9986884,29.42940054804,52.42808894804,29.199476,17.000744,135.881894112,136.982944016,22,5,8.363,52.42808894804,24.278216,17.000744,135.881894112,-4.697574,-16.329662,-6.71082,253.6, -13.1, -0.7,0,0,1684,1024,1684,1024,100,0,100,0,263.6,0,0,94,4.11,4.099,0,0,0,0,3.472,81.86,52.42808894804,24.278216,6,P-GPS,
12800,2022-11-08 20:13:49,-34.9201290985285,-56.1709728305114,25.262468,24.0485572,29.36378374804,53.41234094804,29.199476,16.77705,138.389768208,139.492786616,22,5,8.363,53.41234094804,25.262468,17.000744,138.389768208,-4.697574,-16.105968,-6.71082,253.6, -13.3, -2,0,0,1684,1024,1684,1024,100,0,100,0,263.6,0,0,94,4.11,4.099,0,0,0,0,3.472,81.86,53.41234094804,25.262468,6,P-GPS,
12900,2022-11-08 20:13:49,-34.9201309290299,-56.1709807074724,26.574804,25.42651,29.29816694804,54.72467694804,29.199476,17.000744,140.838915268,141.941933676,22,5,8.363,54.72467694804,26.574804,17.000744,140.838915268,-4.697574,-16.329662,-6.71082,253.8, -13.8, -1,0,0,1684,1024,1684,1024,100,0,100,0,263.6,0,0,94,4.11,4.099,0,0,0,0,3.472,81.86,54.72467694804,26.574804,6,P-GPS,
13000,2022-11-08 20:13:49,-34.9201328670085,-56.170989083519,27.559056,26.4763788,29.23255014804,55.70892894804,29.199476,17.000744,143.442589892,144.5456083,22,5,8.363,55.70892894804,27.559056,17.000744,143.442589892,-4.697574,-16.329662,-6.71082,253.9, -14.7, -1.9,0,0,1684,1024,1684,1024,100,0,100,0,263.6,0,0,94,4.11,4.099,0,0,0,0,3.472,81.86,55.70892894804,27.559056,6,P-GPS,
13100,2022-11-08 20:13:49,-34.9201346557956,-56.1709971104313,28.871392,27.8543316,29.16693334804,57.02126494804,29.199476,17.1573298,145.930450864,147.03412544,22,5,8.363,57.02126494804,28.871392,17.1573298,145.930450864,-4.47388,-16.553356,-6.487126,253.9, -13.1, -2.9,0,0,1684,1024,1684,1024,100,0,100,0,263.6,0,0,94,4.11,4.099,0,0,0,0,3.472,81.86,57.02126494804,28.871392,6,P-GPS,
13200,2022-11-08 20:13:49,-34.9201365043531,-56.1710056237244,29.855644,28.9370088,29.06850814804,58.00551694804,29.199476,17.2020686,148.564309216,149.66863996,22,5,8.363,58.00551694804,29.855644,17.2020686,148.564309216,-4.697574,-16.553356,-6.487126,253.9, -13.3, -3.1,0,0,1684,1024,1684,1024,100,0,100,0,263.6,0,0,94,4.11,4.099,0,0,0,0,3.472,81.86,58.00551694804,29.855644,6,P-GPS,
13300,2022-11-08 20:13:49,-34.9201381687792,-56.1710138384103,31.16798,30.3149616,29.00289134804,59.31785294804,29.199476,17.4257626,151.093508772,152.200136104,22,5,8.363,59.31785294804,31.16798,17.4257626,151.093508772,-4.697574,-16.77705,-6.487126,253.8, -12.6, -2.6,0,0,1684,1024,1684,1024,100,0,100,0,263.6,0,0,94,4.11,4.099,0,0,0,0,3.472,81.86,59.31785294804,31.16798,6,P-GPS,
13400,2022-11-08 20:13:49,-34.9201401120861,-56.1710225888339,32.152232,31.3976388,28.90446614804,60.30210494804,29.199476,17.6270872,153.805123032,154.912078448,22,5,8.363,60.30210494804,32.152232,17.6270872,153.805123032,-4.697574,-17.000744,-6.487126,253.7, -10.8, -2.7,0,0,1684,1024,1684,1024,100,0,100,0,263.6,0,0,94,4.11,4.099,0,0,0,0,3.472,81.86,60.30210494804,32.152232,6,P-GPS,
13500,2022-11-08 20:13:49,-34.9201419906852,-56.1710309581101,33.136484,32.480316,28.80604094804,61.28635694804,29.199476,17.6270872,156.400595556,157.507879056,22,5,8.363,61.28635694804,33.136484,17.6270872,156.400595556,-4.697574,-17.000744,-6.71082,253.7, -9.8, -3.5,0,0,1684,1024,1684,1024,100,0,100,0,263.6,0,0,94,4.11,4.099,0,0,0,0,3.472,81.86,61.28635694804,33.136484,6,P-GPS,
13600,2022-11-08 20:13:49,-34.9201439908443,-56.1710397647445,34.120736,33.5301848,28.74042414804,62.27060894804,29.199476,17.6270872,159.134191444,160.241803028,22,5,8.363,62.27060894804,34.120736,17.6270872,159.134191444,-4.697574,-17.000744,-6.71082,253.7, -9.7, -3,0,0,1684,1024,1684,1024,100,0,100,0,263.6,0,0,94,4.11,4.099,0,0,0,0,3.472,81.86,62.27060894804,34.120736,6,P-GPS,
13700,2022-11-08 20:13:49,-34.9201460873813,-56.1710486682539,35.104988,34.612862,28.64199894804,63.25486094804,29.199476,17.6270872,161.905188908,163.012800492,22,5,8.242,63.25486094804,35.104988,17.6270872,161.905188908,-4.697574,-17.000744,-6.71082,253.5, -9.4, -4.4,0,0,1684,1024,1684,1024,100,0,100,0,263.6,0,0,94,4.134,4.131,0,0,0,0,5.947,82.04,63.25486094804,35.104988,6,P-GPS,
13800,2022-11-08 20:13:50,-34.9201481110291,-56.171057545643,36.08924,35.7283476,28.51076534804,64.23911294804,29.199476,17.6270872,164.661422592,165.76936226,22,5,8.242,64.23911294804,36.08924,17.6270872,164.661422592,-4.697574,-17.000744,-6.71082,253.8, -9, -3.5,0,0,1684,1024,1684,1024,100,0,100,0,263.6,0,0,94,4.134,4.131,0,0,0,0,5.947,82.04,64.23911294804,36.08924,6,P-GPS,
13900,2022-11-08 20:13:50,-34.9201500143675,-56.1710659660314,37.073492,36.7782164,28.44514854804,65.22336494804,29.199476,17.6270872,167.274283568,168.38255132,22,5,8.242,65.22336494804,37.073492,17.6270872,167.274283568,-4.697574,-17.000744,-6.71082,253.5, -9.8, -2.3,0,0,1684,1024,1684,1024,100,0,100,0,263.6,0,0,94,4.134,4.131,0,0,0,0,5.947,82.04,65.22336494804,37.073492,6,P-GPS,
14000,2022-11-08 20:13:50,-34.9201519938258,-56.1710747882544,38.057744,37.893702,28.31391494804,66.20761694804,29.199476,17.6270872,170.010176044,171.11877188,22,5,8.242,66.20761694804,38.057744,17.6270872,170.010176044,-4.697574,-17.000744,-6.487126,253.4, -10.2, -2.3,0,0,1684,1024,1684,1024,100,0,100,0,263.6,0,0,94,4.134,4.131,0,0,0,0,5.947,82.04,66.20761694804,38.057744,6,P-GPS,
14100,2022-11-08 20:13:50,-34.9201539118332,-56.1710832703703,39.041996,38.9763792,28.21548974804,67.19186894804,29.199476,17.9178894,172.642393976,173.750989812,22,5,8.242,67.19186894804,39.041996,17.9178894,172.642393976,-4.921268,-17.224438,-6.487126,253.8, -10.1, -2.3,0,0,1684,1024,1684,1024,100,0,100,0,263.6,0,0,94,4.134,4.131,0,0,0,0,5.947,82.04,67.19186894804,39.041996,6,P-GPS,
14200,2022-11-08 20:13:50,-34.9201560098032,-56.1710920948501,40.026248,40.0590564,28.11706454804,68.17612094804,29.199476,17.9178894,175.391081728,176.499677564,22,5,8.242,68.17612094804,40.026248,17.9178894,175.391081728,-4.921268,-17.224438,-6.487126,253.7, -9, -2.1,0,0,1684,1024,1684,1024,100,0,100,0,263.6,0,0,94,4.134,4.131,0,0,0,0,5.947,82.04,68.17612094804,40.026248,6,P-GPS,
14300,2022-11-08 20:13:50,-34.9201579942641,-56.1711004679295,41.0105,41.1417336,28.01863934804,69.16037294804,29.199476,17.9178894,177.998365276,179.106961112,22,5,8.242,69.16037294804,41.0105,17.9178894,177.998365276,-4.921268,-17.224438,-6.487126,253.5, -9, -3.3,0,0,1684,1024,1684,1024,100,0,100,0,263.6,0,0,94,4.134,4.131,0,0,0,0,5.947,82.04,69.16037294804,41.0105,6,P-GPS,
14400,2022-11-08 20:13:50,-34.9201600755719,-56.1711092357805,41.994752,42.2572192,27.88740574804,70.14462494804,29.199476,18.119214,180.729008408,181.837604244,21,5,8.242,70.14462494804,41.994752,18.119214,180.729008408,-4.921268,-17.448132,-6.263432,253.8, -8.3, -1,0,0,1684,1024,1684,1024,100,0,100,0,263.6,0,0,94,4.134,4.131,0,0,0,0,5.947,82.04,70.14462494804,41.994752,6,P-GPS,
14500,2022-11-08 20:13:50,-34.9201619609974,-56.1711173659202,42.979004,43.3398964,27.78898054804,71.12887694804,29.199476,18.119214,183.256567544,184.36516338,21,5,8.242,71.12887694804,42.979004,18.119214,183.256567544,-4.921268,-17.448132,-6.487126,253.7, -8.2, -2.2,0,0,1684,1024,1684,1024,100,0,100,0,263.6,0,0,94,4.134,4.131,0,0,0,0,5.947,82.04,71.12887694804,42.979004,6,P-GPS,
14600,2022-11-08 20:13:50,-34.9201640139572,-56.1711260950296,43.963256,44.455382,27.65774694804,72.11312894804,29.199476,17.9178894,185.973431148,187.082026984,21,5,8.242,72.11312894804,43.963256,18.119214,185.973431148,-4.921268,-17.224438,-6.487126,253.5, -8.5, -2.8,0,0,1684,1024,1684,1024,100,0,100,0,263.6,0,0,94,4.134,4.131,0,0,0,0,5.947,82.04,72.11312894804,43.963256,6,P-GPS,
14700,2022-11-08 20:13:50,-34.9201659991086,-56.1711344206327,44.947508,45.5708676,27.52651334804,73.09738094804,29.199476,17.9178894,188.567263252,189.675859088,21,5,8.242,73.09738094804,44.947508,18.119214,188.567263252,-4.921268,-17.224438,-6.487126,253.4, -8.3, -1.9,0,0,1684,1024,1684,1024,100,0,100,0,263.6,0,0,94,4.134,4.131,0,0,0,0,5.947,82.04,73.09738094804,44.947508,6,P-GPS,
14800,2022-11-08 20:13:51,-34.9201681202025,-56.1711432070396,45.93176,46.6863532,27.39527974804,74.08163294804,29.199476,18.119214,191.307092736,192.416016656,21,5,8.258,74.08163294804,45.93176,18.119214,191.307092736,-4.921268,-17.448132,-6.71082,253.4, -8, -0.9,0,0,1684,1024,1684,1024,100,0,100,0,263.6,0,0,94,4.133,4.119,0,0,0,0,5.887,82.04,74.08163294804,45.93176,6,P-GPS,
14900,2022-11-08 20:13:51,-34.9201701354215,-56.1711515791159,46.916012,47.8018388,27.26404614804,75.06588494804,29.199476,18.119214,193.91732904,195.02625296,21,5,8.258,75.06588494804,46.916012,18.119214,193.91732904,-4.921268,-17.448132,-6.71082,253.4, -8.2, -2.1,0,0,1684,1024,1684,1024,100,0,100,0,263.6,0,0,94,4.133,4.119,0,0,0,0,5.887,82.04,75.06588494804,46.916012,6,P-GPS,
15000,2022-11-08 20:13:51,-34.9201722080008,-56.1711604637769,47.900264,48.9173244,27.13281254804,76.05013694804,29.199476,18.1863222,196.680780572,197.789704492,22,5,8.258,76.05013694804,47.900264,18.1863222,196.680780572,-5.144962,-17.448132,-6.71082,253.5, -7.9, -1.4,0,0,1684,1024,1684,1024,100,0,100,0,263.6,0,0,94,4.133,4.119,0,0,0,0,5.887,82.04,76.05013694804,47.900264,6,P-GPS,
15100,2022-11-08 20:13:51,-34.9201742775316,-56.1711689843001,48.884516,50.03281,27.00157894804,77.03438894804,29.199476,18.119214,199.339245224,200.44784106,22,5,8.258,77.03438894804,48.884516,18.1863222,199.339245224,-4.921268,-17.448132,-6.71082,253.4, -7.5, -1.7,0,0,1684,1024,1684,1024,100,0,100,0,263.6,0,0,94,4.133,4.119,0,0,0,0,5.887,82.04,77.03438894804,48.884516,6,P-GPS,
15200,2022-11-08 20:13:51,-34.9201764849852,-56.1711780208766,49.868768,51.181104,26.83753694804,78.01864094804,29.199476,18.4100162,202.159783372,203.268707292,22,5,8.258,78.01864094804,49.868768,18.4100162,202.159783372,-5.144962,-17.671826,-6.487126,253.4, -6.7, -2,0,0,1684,1024,1684,1024,100,0,100,0,263.6,0,0,94,4.133,4.119,0,0,0,0,5.887,82.04,78.01864094804,49.868768,6,P-GPS,
15300,2022-11-08 20:13:51,-34.9201785504124,-56.1711864790455,50.85302,52.2965896,26.70630334804,79.00289294804,29.199476,18.4100162,204.79987532,205.90879924,22,5,8.258,79.00289294804,50.85302,18.4100162,204.79987532,-5.144962,-17.671826,-6.487126,253.4, -5.6, -2.8,0,0,1684,1024,1684,1024,100,0,100,0,263.6,0,0,94,4.133,4.119,0,0,0,0,5.887,82.04,79.00289294804,50.85302,6,P-GPS,
15400,2022-11-08 20:13:51,-34.9201808133763,-56.1711953698499,52.165356,53.7401592,26.57506974804,80.31522894804,29.199476,18.4100162,207.584324228,208.693904316,22,5,8.258,80.31522894804,52.165356,18.4100162,207.584324228,-5.144962,-17.671826,-6.487126,253.4, -5.8, -2.2,0,0,1684,1024,1684,1024,100,0,100,0,263.6,0,0,94,4.133,4.119,0,0,0,0,5.887,82.04,80.31522894804,52.165356,6,P-GPS,
15500,2022-11-08 20:13:51,-34.9201828705701,-56.1712037156806,53.149608,54.8884532,26.41102774804,81.29948094804,29.199476,18.4100162,210.191607776,211.30085978,22,5,8.258,81.29948094804,53.149608,18.4100162,210.191607776,-5.144962,-17.671826,-6.71082,253.6, -5.4, -2.1,0,0,1684,1024,1684,1024,100,0,100,0,263.6,0,0,94,4.133,4.119,0,0,0,0,5.887,82.04,81.29948094804,53.149608,6,P-GPS,
15600,2022-11-08 20:13:51,-34.9201850152959,-56.1712124751313,54.13386,56.0039388,26.27979414804,82.28373294804,29.199476,18.119214,212.926187916,214.035768004,22,5,8.258,82.28373294804,54.13386,18.4100162,212.926187916,-4.921268,-17.448132,-6.71082,253.5, -6.7, -1.8,0,0,1684,1024,1684,1024,100,0,100,0,263.6,0,0,94,4.133,4.119,0,0,0,0,5.887,82.04,82.28373294804,54.13386,6,P-GPS,
15700,2022-11-08 20:13:51,-34.9201870035479,-56.1712208482943,55.118112,57.1522328,26.11575214804,83.26798494804,29.199476,18.342908,215.534127632,216.64370772,22,5,8.258,83.26798494804,55.118112,18.4100162,215.534127632,-4.921268,-17.671826,-6.71082,253.5, -6.3, -1.7,0,0,1684,1024,1684,1024,100,0,100,0,263.6,0,0,94,4.133,4.119,0,0,0,0,5.887,82.04,83.26798494804,55.118112,6,P-GPS,
15800,2022-11-08 20:13:52,-34.9201889544368,-56.1712297146083,56.102364,58.3005268,25.95171014804,84.25223694804,29.199476,18.119214,218.279862628,219.3897708,21,5,8.258,84.25223694804,56.102364,18.4100162,218.279862628,-4.921268,-17.448132,-6.487126,253.6, -7.2, -3.8,0,0,1684,1024,1684,1024,100,0,100,0,263.6,0,0,94,4.133,4.119,0,0,0,0,5.887,82.04,84.25223694804,56.102364,6,P-GPS,
15900,2022-11-08 20:13:52,-34.9201909529024,-56.1712380669168,57.086616,59.4488208,25.78766814804,85.23648894804,29.199476,18.119214,220.882553,221.992789256,21,5,8.258,85.23648894804,57.086616,18.4100162,220.882553,-4.921268,-17.448132,-6.487126,253.5, -7, -3.2,0,0,1684,1024,1684,1024,100,0,100,0,263.6,0,0,94,4.133,4.119,0,0,0,0,5.887,82.04,85.23648894804,57.086616,6,P-GPS,
16000,2022-11-08 20:13:52,-34.9201931120498,-56.1712468090655,58.070868,60.5971148,25.62362614804,86.22074094804,29.199476,18.119214,223.6138523,224.724088556,22,5,8.258,86.22074094804,58.070868,18.4100162,223.6138523,-4.921268,-17.448132,-6.487126,253.5, -6.4, -2.5,0,0,1024,1024,1024,1024,0,0,0,0,263.6,0,0,94,4.133,4.119,0,0,0,0,5.887,82.04,86.22074094804,58.070868,6,P-GPS,
