time(millisecond),datetime(utc),latitude,longitude,height_above_takeoff(feet),height_above_ground_at_drone_location(feet),ground_elevation_at_drone_location(feet),altitude_above_seaLevel(feet),height_sonar(feet),speed(mph),distance(feet),mileage(feet),satellites,gpslevel,voltage(v),max_altitude(feet),max_ascent(feet),max_speed(mph),max_distance(feet), xSpeed(mph), ySpeed(mph), zSpeed(mph), compass_heading(degrees), pitch(degrees), roll(degrees),isPhoto,isVideo,rc_elevator,rc_aileron,rc_throttle,rc_rudder,rc_elevator(percent),rc_aileron(percent),rc_throttle(percent),rc_rudder(percent),gimbal_heading(degrees),gimbal_pitch(degrees),gimbal_roll(degrees),battery_percent,voltageCell1,voltageCell2,voltageCell3,voltageCell4,voltageCell5,voltageCell6,current(A),battery_temperature(f),altitude(feet),ascent(feet),flycStateRaw,flycState,message
0,2022-09-03 19:51:14,-34.8664695321806,-55.2772802562399,0,0,9.699295257884,9.699295257884,0.328084,0,0,0,17,5,0,9.699295257884,0,0,0,0.223694,0,0,218.5, -11.4, 1.9,0,0,364,364,364,1684,-100,-100,-100,100,227.7,0,0,60,3.911,3.91,0,0,0,0,0,70.34,9.699295257884,0,6,P-GPS,"En vuelo"
100,2022-09-03 19:51:14,-34.8664693112203,-55.2772800664494,0,-0.032808399999999,9.732103657884,9.699295257884,0.328084,0.223694,0.098625659324,0.098625659324,17,5,0,9.699295257884,0,0.223694,0.098625659324,0.223694,0,0,220.5, -8.6, 3.1,0,0,364,364,364,1684,-100,-100,-100,100,229.6,0,0,60,3.911,3.91,0,0,0,0,0,70.34,9.699295257884,0,41,Motors_Started,
200,2022-09-03 19:51:14,-34.8664688442542,-55.2772793507675,0,-0.0656168,9.764912057884,9.699295257884,0.328084,0.223694,0.36941602232,0.37235237412,17,5,0,9.699295257884,0,0.223694,0.36941602232,0.223694,0,0,218.4, -8.5, 3,0,0,364,364,364,1684,-100,-100,-100,100,229.9,0,0,60,3.911,3.91,0,0,0,0,0,70.34,9.699295257884,0,41,Motors_Started,
300,2022-09-03 19:51:14,-34.8664685990692,-55.2772791467821,0,-0.0656168,9.764912057884,9.699295257884,0.328084,0,0.47561353228,0.48066274504,17,5,0,9.699295257884,0,0.223694,0.47561353228,0,0,0,220.5, -8.4, 2.6,0,0,364,364,364,1684,-100,-100,-100,100,230.2,0,0,60,3.911,3.91,0,0,0,0,0,70.34,9.699295257884,0,41,Motors_Started,
400,2022-09-03 19:51:14,-34.8664683372805,-55.2772790444432,0,-0.0656168,9.764912057884,9.699295257884,0.328084,0,0.5671424066,0.58096786636,17,5,0,9.699295257884,0,0.223694,0.5671424066,0,0,0,220.5, -8.5, 1.8,0,0,364,364,364,1684,-100,-100,-100,100,231.3,0,0,60,3.911,3.91,0,0,0,0,0,70.34,9.699295257884,0,41,Motors_Started,
500,2022-09-03 19:51:15,-34.8664680836731,-55.2772789591699,0,-0.0656168,9.764912057884,9.699295257884,0.328084,0,0.6557907034,0.67695540224,17,5,0,9.699295257884,0,0.223694,0.6557907034,0,0,0,220.2, -8.5, 2,0,0,364,364,364,1684,-100,-100,-100,100,231.1,0,0,60,3.911,3.91,0,0,0,0,0,70.34,9.699295257884,0,41,Motors_Started,
600,2022-09-03 19:51:15,-34.8664678362278,-55.2772788745035,0,-0.0656168,9.764912057884,9.699295257884,0.328084,0,0.74428480072,0.77072509028,17,5,0,9.699295257884,0,0.223694,0.74428480072,0,0,0,221.6, -7.2, 2.2,0,0,364,364,364,1684,-100,-100,-100,100,231.9,0,0,60,3.911,3.91,0,0,0,0,0,70.34,9.699295257884,0,41,Motors_Started,
700,2022-09-03 19:51:15,-34.8664674639134,-55.2772789518819,0,-0.098425199999999,9.797720457884,9.699295257884,0.328084,0,0.84964241564,0.90852365112,17,5,0,9.699295257884,0,0.223694,0.84964241564,0,0,0,221, -7.5, 1.8,0,0,364,364,364,1684,-100,-100,-100,100,232.2,0,0,60,3.911,3.91,0,0,0,0,0,70.34,9.699295257884,0,41,Motors_Started,"Setting new Return-To-Home altitude to 60m (197 ft). Data Recorder File Index is 52. Setting new Maximum Flight Altitude to 120m (394 ft)"
800,2022-09-03 19:51:15,-34.8664672915719,-55.2772789627167,0,-0.098425199999999,9.797720457884,9.699295257884,0.328084,0,0.90455711556,0.97148625156,17,5,0,9.699295257884,0,0.223694,0.90455711556,0,0,0,221.1, -7.9, 1.4,0,0,364,364,364,1684,-100,-100,-100,100,232.1,0,0,60,3.911,3.91,0,0,0,0,0,70.34,9.699295257884,0,41,Motors_Started,
900,2022-09-03 19:51:15,-34.8664671363682,-55.2772789849912,-0.328084,-0.4265092,9.797720457884,9.371211257884,0.328084,0,0.95335632972,1.02850396992,17,5,0,9.699295257884,0,0.223694,0.95335632972,0,0,0,221.2, -7.7, 1.8,0,0,364,364,364,1684,-100,-100,-100,100,232.1,0,0,60,3.911,3.91,0,0,0,0,0,70.34,9.371211257884,-0.328084,41,Motors_Started,
1000,2022-09-03 19:51:15,-34.8664670069655,-55.2772790343295,-0.328084,-0.4265092,9.797720457884,9.371211257884,0.328084,0,0.99127955928,1.07797247544,17,5,0,9.699295257884,0,0.223694,0.99127955928,0,0,0,220.7, -8, 2.5,0,0,1024,637,550,1462,0,-59,-72,66,232.1,0,0,60,3.911,3.91,0,0,0,0,0,70.34,9.371211257884,-0.328084,41,Motors_Started,
1100,2022-09-03 19:51:15,-34.8664670268846,-55.277279394042,-0.328084,-0.4265092,9.797720457884,9.371211257884,0.328084,0,0.94979661832,1.18589898808,17,5,0,9.699295257884,0,0.223694,0.99127955928,0,0,0,220.7, -8.6, 2.4,0,0,1024,1024,1024,1024,0,0,0,0,232,0,0,60,3.911,3.91,0,0,0,0,0,70.34,9.371211257884,-0.328084,41,Motors_Started,
1200,2022-09-03 19:51:15,-34.8664668679876,-55.2772793952996,-0.328084,-0.4265092,9.797720457884,9.371211257884,0.328084,0,1.00561683008,1.24387471172,17,5,0,9.699295257884,0,0.223694,1.00561683008,0,0,0,219.8, -8.9, 2.5,0,0,1024,1024,1024,1024,0,0,0,0,231.7,0,0,60,3.911,3.91,0,0,0,0,0,70.34,9.371211257884,-0.328084,10,Assisted_Takeoff,
1300,2022-09-03 19:51:15,-34.8664667022576,-55.2772794159296,-0.328084,-0.4265092,9.797720457884,9.371211257884,0.328084,0,1.0626968844,1.30465555356,17,5,0,9.699295257884,0,0.223694,1.0626968844,0,0,0,220.3, -9, 2.5,0,0,1024,1024,1024,1024,0,0,0,0,231.3,0,0,60,3.911,3.91,0,0,0,0,0,70.34,9.371211257884,-0.328084,10,Assisted_Takeoff,
1400,2022-09-03 19:51:15,-34.8664665025061,-55.2772794871606,-0.328084,-0.4265092,9.797720457884,9.371211257884,0.328084,0,1.12909780516,1.38059059536,17,5,0,9.699295257884,0,0.223694,1.12909780516,0,0,0,220, -9.1, 2.5,0,0,1024,1024,1024,1024,0,0,0,0,231.4,0,0,60,3.911,3.91,0,0,0,0,0,70.34,9.371211257884,-0.328084,10,Assisted_Takeoff,
1500,2022-09-03 19:51:16,-34.866466307653,-55.277279548682,-0.328084,-0.4265092,9.797720457884,9.371211257884,0.328084,0,1.19538061568,1.45402891792,17,5,0,9.699295257884,0,0.223694,1.19538061568,0,0,0,220.2, -9, 2,0,0,1024,1024,1024,1024,0,0,0,0,231.4,0,0,60,3.911,3.91,0,0,0,0,0,70.34,9.371211257884,-0.328084,10,Assisted_Takeoff,
1600,2022-09-03 19:51:16,-34.8664661579795,-55.2772796396307,-0.328084,-0.4265092,9.797720457884,9.371211257884,0.328084,0,1.24483599784,1.51504598024,17,5,0,9.699295257884,0,0.223694,1.24483599784,0,0,0,220, -8.9, 1.7,0,0,1024,1024,1684,1024,0,0,100,0,231.4,0,0,60,3.911,3.91,0,0,0,0,0,70.34,9.371211257884,-0.328084,10,Assisted_Takeoff,
1700,2022-09-03 19:51:16,-34.8664660085209,-55.277279698654,-0.328084,-0.4265092,9.797720457884,9.371211257884,0.328084,0,1.29639439844,1.57236881672,17,5,7.8,9.699295257884,0,0.223694,1.29639439844,0,0,0,220.2, -9.2, 0.6,0,0,1024,1024,1684,1024,0,0,100,0,231.2,0,0,60,3.911,3.91,0,0,0,0,1.551,70.34,9.371211257884,-0.328084,10,Assisted_Takeoff,
1800,2022-09-03 19:51:16,-34.8664658053106,-55.2772797080368,-0.328084,-0.4265092,9.797720457884,9.371211257884,0.328084,0,1.36961290472,1.64656173248,17,5,7.8,9.699295257884,0,0.223694,1.36961290472,0,0,0,219.7, -8.6, 0.9,0,0,1024,1024,1144,1016,0,0,18,-1,231.2,0,0,60,3.911,3.91,0,0,0,0,1.551,70.34,9.371211257884,-0.328084,10,Assisted_Takeoff,
1900,2022-09-03 19:51:16,-34.8664655344483,-55.2772797018196,-0.328084,-0.4265092,9.797720457884,9.371211257884,0.328084,0,1.46798233044,1.74540359916,17,5,7.8,9.699295257884,0,0.223694,1.46798233044,0,0,0,219.7, -8, 0.7,0,0,1024,1024,1144,1016,0,0,18,-1,231,0,0,60,3.911,3.91,0,0,0,0,1.551,70.34,9.371211257884,-0.328084,10,Assisted_Takeoff,
2000,2022-09-03 19:51:16,-34.8664653262094,-55.2772796757739,-0.328084,-0.4265092,9.797720457884,9.371211257884,0.328084,0,1.54435372396,1.82177827352,17,5,7.8,9.699295257884,0,0.223694,1.54435372396,0,0,0,219.5, -7.8, 0.2,0,0,1024,1024,1024,1024,0,0,0,0,230.8,0,0,60,3.911,3.91,0,0,0,0,1.551,70.34,9.371211257884,-0.328084,10,Assisted_Takeoff,
2100,2022-09-03 19:51:16,-34.8664651456149,-55.2772796774282,-0.328084,-0.4265092,9.797720457884,9.371211257884,0.328084,0,1.60978679692,1.88767066408,17,5,7.8,9.699295257884,0,0.223694,1.60978679692,0,0,0,219.8, -7.6, 0.8,0,0,1024,1024,1024,1024,0,0,0,0,230.7,0,0,60,3.911,3.91,0,0,0,0,1.551,70.34,9.371211257884,-0.328084,10,Assisted_Takeoff,
2200,2022-09-03 19:51:16,-34.8664649791945,-55.2772797095912,-0.328084,-0.4265092,9.797720457884,9.371211257884,0.328084,0,1.66919624764,1.949147044,17,5,7.8,9.699295257884,0,0.223694,1.66919624764,0,0,0,220.2, -7.5, 0.7,0,0,1024,1024,1033,1024,0,0,1,0,231,0,0,60,3.911,3.91,0,0,0,0,1.551,70.34,9.371211257884,-0.328084,10,Assisted_Takeoff,
2300,2022-09-03 19:51:16,-34.8664648510229,-55.2772797539882,-0.328084,-0.4265092,9.797720457884,9.371211257884,0.328084,0,1.71452433308,1.99776253112,17,5,7.8,9.699295257884,0,0.223694,1.71452433308,0,0,0,220.5, -8.7, -0.2,0,0,1024,1024,1530,1024,0,0,77,0,231.2,0,0,60,3.911,3.91,0,0,0,0,1.551,70.34,9.371211257884,-0.328084,10,Assisted_Takeoff,
2400,2022-09-03 19:51:17,-34.8664648078496,-55.2772798164297,-0.328084,-0.4265092,9.797720457884,9.371211257884,0.328084,0,1.7286910002,2.02220806996,17,5,7.8,9.699295257884,0,0.223694,1.7286910002,0,0,0,220.6, -7, 0,0,0,1024,1024,1684,1024,0,0,100,0,231.3,0,0,60,3.911,3.91,0,0,0,0,1.551,70.34,9.371211257884,-0.328084,10,Assisted_Takeoff,
2500,2022-09-03 19:51:17,-34.866464664299,-55.2772798573158,-0.328084,-0.4265092,9.797720457884,9.371211257884,0.328084,0,1.7800525504,2.07599088008,17,5,7.8,9.699295257884,0,0.223694,1.7800525504,0,0,0,222, -7.6, 0.2,0,0,1024,1024,1684,1024,0,0,100,0,232.2,0,0,60,3.911,3.91,0,0,0,0,1.551,70.34,9.371211257884,-0.328084,10,Assisted_Takeoff,
2600,2022-09-03 19:51:17,-34.8664644663844,-55.2772799196861,-0.328084,-0.4593176,9.830528857884,9.371211257884,0.328084,0,1.85099743456,2.15057749664,17,5,7.8,9.699295257884,0,0.223694,1.85099743456,0,0,0,223.1, -6.7, 0.7,0,0,1024,1024,1684,1024,0,0,100,0,233.5,0,0,60,3.911,3.91,0,0,0,0,1.551,70.34,9.371211257884,-0.328084,10,Assisted_Takeoff,
2700,2022-09-03 19:51:17,-34.8664642724172,-55.2772799685402,-0.328084,-0.4593176,9.830528857884,9.371211257884,0.328084,0,1.92095150504,2.22284127848,17,5,7.779,9.699295257884,0,0.223694,1.92095150504,0,0,0,223, -4.9, 0.9,0,0,1024,1024,1684,1024,0,0,100,0,233.9,0,0,60,3.894,3.891,0,0,0,0,1.541,70.34,9.371211257884,-0.328084,10,Assisted_Takeoff,
2800,2022-09-03 19:51:17,-34.8664640701775,-55.2772801005636,-0.328084,-0.4593176,9.830528857884,9.371211257884,0.328084,0,1.99335308216,2.3065453494,17,5,7.779,9.699295257884,0,0.223694,1.99335308216,0,0,0,224.4, -2.8, 0.8,0,0,1024,1024,1684,1024,0,0,100,0,234.7,0,0,60,3.894,3.891,0,0,0,0,1.541,70.34,9.371211257884,-0.328084,10,Assisted_Takeoff,
2900,2022-09-03 19:51:17,-34.8664639019397,-55.2772801045653,-0.328084,-0.4593176,9.830528857884,9.371211257884,0.328084,0,2.0546916668,2.36793970832,17,5,7.779,9.699295257884,0,0.223694,2.0546916668,0,0,0,225.2, -1.1, 0.4,0,0,1024,1024,1684,1024,0,0,100,0,235.6,0,0,60,3.894,3.891,0,0,0,0,1.541,70.34,9.371211257884,-0.328084,10,Assisted_Takeoff,
3000,2022-09-03 19:51:17,-34.8664636975504,-55.2772800816825,-0.328084,-0.4593176,9.830528857884,9.371211257884,0.328084,0,2.12940295528,2.44282488132,17,5,7.779,9.699295257884,0,0.223694,2.12940295528,0,0,0,225.1, -0.6, 0.9,0,0,1024,1024,1684,1024,0,0,100,0,235.9,0,0,60,3.894,3.891,0,0,0,0,1.541,70.34,9.371211257884,-0.328084,10,Assisted_Takeoff,
3100,2022-09-03 19:51:17,-34.8664634553357,-55.277280053311,-0.328084,-0.4593176,9.830528857884,9.371211257884,0.328084,0,2.21796595024,2.53160113088,17,5,7.779,9.699295257884,0,0.223694,2.21796595024,0,0,-0.223694,225.7, 0.1, 1.1,0,0,1024,1024,1684,1024,0,0,100,0,236.2,0,0,60,3.894,3.891,0,0,0,0,1.541,70.34,9.371211257884,-0.328084,6,P-GPS,
3200,2022-09-03 19:51:17,-34.8664631403229,-55.2772800282121,-0.328084,-0.4593176,9.830528857884,9.371211257884,0.328084,0,2.33306437912,2.64678158076,17,5,7.779,9.699295257884,0,0.223694,2.33306437912,0,0,-0.894776,225.4, -0.2, 0.1,0,0,1024,1024,1684,1024,0,0,100,0,236.2,0,0,60,3.894,3.891,0,0,0,0,1.541,70.34,9.371211257884,-0.328084,6,P-GPS,
3300,2022-09-03 19:51:17,-34.8664628545375,-55.2772800430452,0,-0.1312336,9.830528857884,9.699295257884,0.656168,0,2.43716871316,2.75114182032,17,5,7.779,9.699295257884,0,0.223694,2.43716871316,0,0,-1.565858,225.3, -0.7, -0.5,0,0,1024,1024,1561,1024,0,0,81,0,236.2,0,0,60,3.894,3.891,0,0,0,0,1.541,70.34,9.699295257884,0,6,P-GPS,
3400,2022-09-03 19:51:17,-34.8664625826265,-55.2772800493074,0,-0.1312336,9.830528857884,9.699295257884,0.984252,0,2.53629601292,2.85036754528,17,5,7.779,9.699295257884,0,0.223694,2.53629601292,0,0,-2.23694,225.2, -0.9, -0.5,0,0,1024,1024,1339,1024,0,0,48,0,236.2,0,0,60,3.894,3.891,0,0,0,0,1.541,70.34,9.699295257884,0,6,P-GPS,
3500,2022-09-03 19:51:18,-34.8664623451603,-55.2772800633313,0.328084,0.164042,9.863337257884,10.027379257884,1.312336,0,2.62281504456,2.93710967404,17,5,7.779,10.027379257884,0.328084,0.223694,2.62281504456,0,0,-2.908022,225.2, -0.9, -0.5,0,0,1024,1024,1396,1024,0,0,56,0,236.2,0,0,60,3.894,3.891,0,0,0,0,1.541,70.34,10.027379257884,0.328084,6,P-GPS,
3600,2022-09-03 19:51:18,-34.866462143826,-55.277280158608,0.984252,0.82021,9.863337257884,10.683547257884,1.968504,0,2.69579404952,3.01590888916,17,5,7.779,10.683547257884,0.984252,0.223694,2.69579404952,0,0,-2.908022,225.2, -0.8, -0.3,0,0,1024,1024,1024,1024,0,0,0,0,236.2,0,0,60,3.894,3.891,0,0,0,0,1.541,70.34,10.683547257884,0.984252,6,P-GPS,
3700,2022-09-03 19:51:18,-34.8664619496242,-55.277280197586,1.312336,1.148294,9.863337257884,11.011631257884,2.296588,0,2.76654536412,3.08771663424,17,5,7.663,11.011631257884,1.312336,0.223694,2.76654536412,0,0,-3.131716,225.1, -0.9, -0.5,0,0,1024,1024,1024,1024,0,0,0,0,236.2,0,0,60,3.774,3.774,0,0,0,0,3.178,70.52,11.011631257884,1.312336,6,P-GPS,
3800,2022-09-03 19:51:18,-34.8664617587445,-55.2772802538762,1.968504,1.804462,9.863337257884,11.667799257884,2.624672,0,2.83613198052,3.15937017984,17,5,7.663,11.667799257884,1.968504,0.223694,2.83613198052,0,0,-2.908022,225.1, -0.9, -0.6,0,0,1024,1024,1024,1024,0,0,0,0,236.2,0,0,60,3.774,3.774,0,0,0,0,3.178,70.52,11.667799257884,1.968504,6,P-GPS,
3900,2022-09-03 19:51:18,-34.8664616041596,-55.2772802458697,2.296588,2.132546,9.863337257884,11.995883257884,2.952756,0,2.8925361818,3.21582031288,17,5,7.663,11.995883257884,2.296588,0.223694,2.8925361818,0,0,-2.460634,225, -0.6, -0.2,0,0,1024,1024,1024,1024,0,0,0,0,236.2,0,0,60,3.774,3.774,0,0,0,0,3.178,70.52,11.995883257884,2.296588,6,P-GPS,
4000,2022-09-03 19:51:18,-34.8664614314078,-55.2772800791231,2.624672,2.46063,9.863337257884,12.323967257884,4.593176,0,2.95603684,3.2962271396,17,5,7.663,12.323967257884,2.624672,0.223694,2.95603684,0,0,-2.013246,225, 0, -0.3,0,0,1024,1024,1024,1024,0,0,0,0,236.2,0,0,60,3.774,3.774,0,0,0,0,3.178,70.52,12.323967257884,2.624672,6,P-GPS,
4100,2022-09-03 19:51:18,-34.8664613156384,-55.2772797313874,2.952756,2.788714,9.863337257884,12.652051257884,4.92126,0,3.00191610656,3.4085631012,17,5,7.663,12.652051257884,2.952756,0.223694,3.00191610656,0,0,-1.342164,225, 0.9, -0.6,0,0,1024,1024,1024,1024,0,0,0,0,236.2,0,0,60,3.774,3.774,0,0,0,0,3.178,70.52,12.652051257884,2.952756,6,P-GPS,
4200,2022-09-03 19:51:18,-34.8664611482409,-55.2772796744922,2.952756,2.788714,9.863337257884,12.652051257884,4.92126,0,3.0638288382,3.47194893,17,5,7.663,12.652051257884,2.952756,0.223694,3.0638288382,0,0,-0.894776,225, 0.6, -0.6,0,0,1024,1024,1024,1024,0,0,0,0,236.2,0,0,60,3.774,3.774,0,0,0,0,3.178,70.52,12.652051257884,2.952756,6,P-GPS,
4300,2022-09-03 19:51:18,-34.8664609403016,-55.2772795932865,3.28084,3.116798,9.863337257884,12.980135257884,5.249344,0,3.14101716088,3.5516405336,17,5,7.663,12.980135257884,3.28084,0.223694,3.14101716088,0,0,-0.447388,225, 0.4, -0.7,0,0,1024,1024,1024,1024,0,0,0,0,236.2,0,0,60,3.774,3.774,0,0,0,0,3.178,70.52,12.980135257884,3.28084,6,P-GPS,
4400,2022-09-03 19:51:18,-34.866460585835,-55.2772794605184,3.28084,3.0839896,9.896145657884,12.980135257884,5.249344,0,3.27274944856,3.6869423752,17,5,7.663,12.980135257884,3.28084,0.223694,3.27274944856,0,0,0,225, 0.3, -0.5,0,0,1024,1024,1024,1024,0,0,0,0,236.2,0,0,60,3.774,3.774,0,0,0,0,3.178,70.52,12.980135257884,3.28084,6,P-GPS,
4500,2022-09-03 19:51:19,-34.8664600557504,-55.2772793869139,3.28084,3.0511812,9.928954057884,12.980135257884,5.249344,0,3.4672573288,3.8815946124,17,5,7.663,12.980135257884,3.28084,0.223694,3.4672573288,0,0,0,225.1, 0.3, -0.7,0,0,1024,1024,1024,1024,0,0,0,0,236.2,0,0,60,3.774,3.774,0,0,0,0,3.178,70.52,12.980135257884,3.28084,6,P-GPS,
4600,2022-09-03 19:51:19,-34.866459833344,-55.2772793645219,3.28084,3.0511812,9.928954057884,12.980135257884,5.249344,0,3.5486549692,3.9629922528,17,5,7.663,12.980135257884,3.28084,0.223694,3.5486549692,0,0,0,225.1, 0.1, -0.5,0,0,1024,1024,1024,1024,0,0,0,0,236.2,0,0,60,3.774,3.774,0,0,0,0,3.178,70.52,12.980135257884,3.28084,6,P-GPS,
4700,2022-09-03 19:51:19,-34.8664596537918,-55.2772792576019,3.28084,3.0511812,9.928954057884,12.980135257884,5.249344,0,3.6165027404,4.035925326,17,5,7.662,12.980135257884,3.28084,0.223694,3.6165027404,0,0,0,225.1, -0.1, -0.1,0,0,1024,1024,1024,1024,0,0,0,0,236.2,0,0,60,3.835,3.831,0,0,0,0,4.739,70.52,12.980135257884,3.28084,6,P-GPS,"Punto de origen actualizado. Altitud de RPO establecida en 60m (Code: 3000001)"
4800,2022-09-03 19:51:19,-34.8664595552449,-55.2772789187021,3.28084,3.0511812,9.928954057884,12.980135257884,5.249344,0,3.6620407996,4.143536878,17,5,7.662,12.980135257884,3.28084,0.223694,3.6620407996,0,0,0,225.1, -0.3, 0.1,0,0,1024,1024,1024,1024,0,0,0,0,236.2,0,0,60,3.835,3.831,0,0,0,0,4.739,70.52,12.980135257884,3.28084,6,P-GPS,
4900,2022-09-03 19:51:19,-34.8664594823427,-55.277278462227,3.28084,3.0183728,9.961762457884,12.980135257884,5.249344,0,3.7058072052,4.2827429192,17,5,7.662,12.980135257884,3.28084,0.223694,3.7058072052,0,0,0,225.2, -0.4, 0,0,0,1024,1024,1024,1024,0,0,0,0,236.2,0,0,60,3.835,3.831,0,0,0,0,4.739,70.52,12.980135257884,3.28084,6,P-GPS,
5000,2022-09-03 19:51:19,-34.8664594563462,-55.2772776252273,3.608924,3.3464568,9.961762457884,13.308219257884,5.249344,0,3.7595801728,4.5334975204,17,5,7.662,13.308219257884,3.608924,0.223694,3.7595801728,0,0,0,225.2, -0.6, 0,0,0,1024,1024,1024,1024,0,0,0,0,236.2,0,0,60,3.835,3.831,0,0,0,0,4.739,70.52,13.308219257884,3.608924,6,P-GPS,
5100,2022-09-03 19:51:19,-34.8664594088543,-55.2772768700265,3.608924,3.3136484,9.994570857884,13.308219257884,5.249344,0,3.830052616,4.7602363728,17,5,7.662,13.308219257884,3.608924,0.223694,3.830052616,0,0,0,225.2, -0.7, 0.1,0,0,1024,1024,1024,1024,0,0,0,0,236.2,0,0,60,3.835,3.831,0,0,0,0,4.739,70.52,13.308219257884,3.608924,6,P-GPS,
5200,2022-09-03 19:51:19,-34.8664592620663,-55.2772762997133,3.608924,3.28084,10.027379257884,13.308219257884,5.249344,0,3.929790152,4.9391733864,17,5,7.662,13.308219257884,3.608924,0.223694,3.929790152,0,0,0,225.2, -0.7, 0.2,0,0,1024,1024,1024,1024,0,0,0,0,236.2,0,0,60,3.835,3.831,0,0,0,0,4.739,70.52,13.308219257884,3.608924,6,P-GPS,
5300,2022-09-03 19:51:19,-34.8664593000091,-55.2772754582793,3.608924,3.2480316,10.060187657884,13.308219257884,5.249344,0,3.9999673196,5.191437174,17,5,7.662,13.308219257884,3.608924,0.223694,3.9999673196,0,0,0,225.2, -0.7, 0.3,0,0,1024,1024,1024,1024,0,0,0,0,236.2,0,0,60,3.835,3.831,0,0,0,0,4.739,70.52,13.308219257884,3.608924,6,P-GPS,
5400,2022-09-03 19:51:19,-34.8664592039048,-55.277275023138,3.608924,3.2480316,10.060187657884,13.308219257884,5.249344,0,4.0809056424,5.3263125064,17,5,7.662,13.308219257884,3.608924,0.223694,4.0809056424,0,0,0,225.2, -0.5, 0.3,0,0,1024,1024,1024,1024,0,0,0,0,236.2,0,0,60,3.835,3.831,0,0,0,0,4.739,70.52,13.308219257884,3.608924,6,P-GPS,
5500,2022-09-03 19:51:20,-34.8664591028175,-55.2772746177197,3.608924,3.2480316,10.060187657884,13.308219257884,5.249344,0,4.162729792,5.4531825892,17,5,7.662,13.308219257884,3.608924,0.223694,4.162729792,0,0,0,225.2, -0.4, 0.1,0,0,1024,1024,1024,1024,0,0,0,0,236.2,0,0,60,3.835,3.831,0,0,0,0,4.739,70.52,13.308219257884,3.608924,6,P-GPS,
5600,2022-09-03 19:51:20,-34.8664589638396,-55.2772742125139,3.608924,3.2152232,10.092996057884,13.308219257884,5.249344,0,4.2592192964,5.584645848,17,5,7.662,13.308219257884,3.608924,0.223694,4.2592192964,0,0,0,225.2, -0.4, 0,0,0,1024,1024,1024,1024,0,0,0,0,236.2,0,0,60,3.835,3.831,0,0,0,0,4.739,70.52,13.308219257884,3.608924,6,P-GPS,
5700,2022-09-03 19:51:20,-34.8664588257215,-55.2772738428342,3.608924,3.2152232,10.092996057884,13.308219257884,5.249344,0,4.3525591944,5.7062337784,17,5,7.633,13.308219257884,3.608924,0.223694,4.3525591944,0,0,0,225.2, -0.3, 0,0,0,1024,1024,1024,1024,0,0,0,0,236.2,0,0,60,3.816,3.814,0,0,0,0,3.998,70.52,13.308219257884,3.608924,6,P-GPS,
5800,2022-09-03 19:51:20,-34.8664586669482,-55.2772736408923,3.608924,3.2152232,10.092996057884,13.308219257884,5.249344,0,4.4312993544,5.7899608152,17,5,7.633,13.308219257884,3.608924,0.223694,4.4312993544,0,0,0,225.2, 0, -0.1,0,0,1024,1024,1024,1024,0,0,0,0,236.2,0,0,60,3.816,3.814,0,0,0,0,3.998,70.52,13.308219257884,3.608924,6,P-GPS,
5900,2022-09-03 19:51:20,-34.8664585114383,-55.2772733255386,3.608924,3.1824148,10.125804457884,13.308219257884,5.249344,0,4.5246392524,5.900098614,17,5,7.633,13.308219257884,3.608924,0.223694,4.5246392524,0,0,0,225.2, -0.1, -0.1,0,0,1024,1024,1024,1024,0,0,0,0,236.2,0,0,60,3.816,3.814,0,0,0,0,3.998,70.52,13.308219257884,3.608924,6,P-GPS,
6000,2022-09-03 19:51:20,-34.8664583432526,-55.2772730323362,3.608924,3.1824148,10.125804457884,13.308219257884,5.249344,0,4.6196851872,6.0071852316,17,5,7.633,13.308219257884,3.608924,0.223694,4.6196851872,0,0,0,225.1, -0.1, -0.2,0,0,1024,1024,1024,1024,0,0,0,0,236.2,0,0,60,3.816,3.814,0,0,0,0,3.998,70.52,13.308219257884,3.608924,6,P-GPS,
6100,2022-09-03 19:51:20,-34.8664581821995,-55.2772727360244,3.608924,3.1824148,10.125804457884,13.308219257884,5.249344,0,4.7133859776,6.1136156812,17,5,7.633,13.308219257884,3.608924,0.223694,4.7133859776,0,0,0,225.1, -0.2, -0.1,0,0,1684,1024,1024,1024,100,0,0,0,236.2,0,0,60,3.816,3.814,0,0,0,0,3.998,70.52,13.308219257884,3.608924,6,P-GPS,
6200,2022-09-03 19:51:20,-34.8664579879001,-55.2772725689111,3.608924,3.1824148,10.125804457884,13.308219257884,5.249344,0,4.7995736444,6.2003610908,17,5,7.633,13.308219257884,3.608924,0.223694,4.7995736444,0,0,0,225.2, -0.1, 0,0,0,1684,1024,1024,1024,100,0,0,0,236.2,0,0,60,3.816,3.814,0,0,0,0,3.998,70.52,13.308219257884,3.608924,6,P-GPS,
6300,2022-09-03 19:51:20,-34.866457835823,-55.2772722524102,3.937008,3.4776904,10.158612857884,13.636303257884,5.249344,0,4.894029028,6.3101708056,17,5,7.633,13.636303257884,3.937008,0.223694,4.894029028,0,0,0,225.2, -9.2, 0.4,0,0,1684,1024,1024,1024,100,0,0,0,236.2,0,0,60,3.816,3.814,0,0,0,0,3.998,70.52,13.636303257884,3.937008,6,P-GPS,
6400,2022-09-03 19:51:21,-34.8664577525183,-55.2772720811038,3.937008,3.4776904,10.158612857884,13.636303257884,4.92126,0.3131716,4.9457350664,6.3697836684,17,5,7.633,13.636303257884,3.937008,0.3131716,4.9457350664,-0.223694,-0.223694,0,225.2, -15.8, 0.2,0,0,1684,1024,1024,1024,100,0,0,0,236.2,0,0,60,3.816,3.814,0,0,0,0,3.998,70.52,13.636303257884,3.937008,6,P-GPS,
6500,2022-09-03 19:51:21,-34.8664578047653,-55.2772720860006,3.937008,3.4776904,10.158612857884,13.636303257884,4.593176,0.9395148,4.9284450396,6.3888781572,17,5,7.633,13.636303257884,3.937008,0.9395148,4.9457350664,-0.671082,-0.671082,0,225.2, -17.2, 0,0,0,1684,1024,1024,1024,100,0,0,0,236.2,0,0,60,3.816,3.814,0,0,0,0,3.998,70.52,13.636303257884,3.937008,6,P-GPS,
6600,2022-09-03 19:51:21,-34.8664580603789,-55.2772725325294,3.608924,3.1824148,10.125804457884,13.308219257884,4.593176,1.5882274,4.781660258,6.5518702884,17,5,7.633,13.636303257884,3.937008,1.5882274,4.9457350664,-1.11847,-1.11847,0,225.2, -17.3, -0.3,0,0,1684,1024,1024,1024,100,0,0,0,236.2,0,0,60,3.816,3.814,0,0,0,0,3.998,70.52,13.308219257884,3.608924,6,P-GPS,
6700,2022-09-03 19:51:21,-34.8664584449327,-55.2772729301937,3.608924,3.1824148,10.125804457884,13.308219257884,4.593176,2.2145706,4.6014109084,6.735892604,17,5,7.633,13.636303257884,3.937008,2.2145706,4.9457350664,-1.565858,-1.565858,0,225, -17.1, -0.5,0,0,1684,1024,1024,1024,100,0,0,0,236.2,0,0,60,3.806,3.804,0,0,0,0,3.998,70.52,13.308219257884,3.608924,6,P-GPS,
6800,2022-09-03 19:51:21,-34.8664590239162,-55.2772735461273,3.608924,3.2152232,10.092996057884,13.308219257884,4.593176,2.8409138,4.3282809784,7.0162731904,17,5,7.633,13.636303257884,3.937008,2.8409138,4.9457350664,-2.013246,-2.013246,0,225, -16.7, -0.4,0,0,1684,1024,1024,1024,100,0,0,0,236.2,0,0,60,3.806,3.804,0,0,0,0,3.998,70.52,13.308219257884,3.608924,6,P-GPS,
6900,2022-09-03 19:51:21,-34.8664597695286,-55.2772743302733,3.608924,3.2480316,10.060187657884,13.308219257884,4.92126,3.4896264,3.9791996024,7.3755907872,17,5,7.633,13.636303257884,3.937008,3.4896264,4.9457350664,-2.460634,-2.460634,0,225, -16.6, -0.2,0,0,1684,1024,1024,1024,100,0,0,0,236.2,0,0,60,3.806,3.804,0,0,0,0,3.998,70.52,13.308219257884,3.608924,6,P-GPS,
7000,2022-09-03 19:51:21,-34.8664611355846,-55.2772756278577,3.608924,3.3136484,9.994570857884,13.308219257884,4.92126,4.1159696,3.3622376404,8.0074805712,17,5,7.633,13.636303257884,3.937008,4.1159696,4.9457350664,-2.908022,-2.908022,0,225, -16.3, -0.1,0,0,1684,1024,1024,1024,100,0,0,0,236.2,0,0,60,3.806,3.804,0,0,0,0,3.998,70.52,13.308219257884,3.608924,6,P-GPS,
7100,2022-09-03 19:51:21,-34.866462313334,-55.2772768448558,3.608924,3.3464568,9.961762457884,13.308219257884,4.92126,4.1159696,2.82484261008,8.5708336076,17,5,7.633,13.636303257884,3.937008,4.1159696,4.9457350664,-3.131716,-3.131716,0,225, -16, -0.2,0,0,1684,1024,1024,1024,100,0,0,0,236.2,0,0,60,3.806,3.804,0,0,0,0,3.998,70.52,13.308219257884,3.608924,6,P-GPS,
7200,2022-09-03 19:51:21,-34.8664637306339,-55.2772783663513,3.608924,3.4120736,9.896145657884,13.308219257884,5.249344,5.0554844,2.1909941646,9.2599084328,17,5,7.633,13.636303257884,3.937008,5.0554844,4.9457350664,-3.579104,-3.579104,0,225, -16.1, -0.4,0,0,1684,1024,1024,1024,100,0,0,0,236.2,0,0,60,3.806,3.804,0,0,0,0,3.998,70.52,13.308219257884,3.608924,6,P-GPS,
7300,2022-09-03 19:51:21,-34.8664652168952,-55.2772799314867,3.608924,3.5104988,9.797720457884,13.308219257884,5.249344,5.368656,1.577427872,9.976542314,17,5,7.633,13.636303257884,3.937008,5.368656,4.9457350664,-3.802798,-3.802798,0,225, -16.3, -0.3,0,0,1684,1024,1024,1024,100,0,0,0,236.2,0,0,60,3.806,3.804,0,0,0,0,3.998,70.52,13.308219257884,3.608924,6,P-GPS,
7400,2022-09-03 19:51:21,-34.8664669828255,-55.2772816376101,3.28084,3.28084,9.699295257884,12.980135257884,5.249344,5.8607828,1.01791013756,10.798720818,17,5,7.633,13.636303257884,3.937008,5.8607828,4.9457350664,-4.250186,-4.026492,0,225.1, -16.9, -0.4,0,0,1684,1024,1024,1024,100,0,0,0,236.2,0,0,60,3.806,3.804,0,0,0,0,3.998,70.52,12.980135257884,3.28084,6,P-GPS,
7500,2022-09-03 19:51:22,-34.8664693521268,-55.2772836548014,3.28084,3.3792652,9.600870057884,12.980135257884,5.249344,6.1739544,1.01949150244,11.853182794,17,5,7.633,13.636303257884,3.937008,6.1739544,4.9457350664,-4.47388,-4.250186,0,225.2, -17.5, 0,0,0,1668,1024,1024,1024,98,0,0,0,236.2,0,0,60,3.806,3.804,0,0,0,0,3.998,70.52,12.980135257884,3.28084,6,P-GPS,
7600,2022-09-03 19:51:22,-34.8664713154245,-55.277285667995,3.28084,3.444882,9.535253257884,12.980135257884,5.249344,6.6437118,1.74579401912,12.7893048712,17,5,7.633,13.636303257884,3.937008,6.6437118,4.9457350664,-4.697574,-4.697574,0,225.1, -17.6, 0.3,0,0,1407,1024,1024,1024,58,0,0,0,236.2,0,0,60,3.806,3.804,0,0,0,0,3.998,70.52,12.980135257884,3.28084,6,P-GPS,
7700,2022-09-03 19:51:22,-34.866473309161,-55.2772876993381,3.28084,3.5433072,9.436828057884,12.980135257884,5.577428,7.1134692,2.61982619932,13.7374020144,17,5,7.627,13.636303257884,3.937008,7.1134692,4.9457350664,-5.144962,-4.921268,0,225.1, -16.1, 0.3,0,0,1024,1024,1024,1024,0,0,0,0,236.2,0,0,60,3.807,3.802,0,0,0,0,4.255,70.7,12.980135257884,3.28084,6,P-GPS,
7800,2022-09-03 19:51:22,-34.8664756260069,-55.2772899973802,2.952756,3.3464568,9.305594457884,12.652051257884,5.577428,7.1134692,3.6669620596,14.827264254,17,5,7.627,13.636303257884,3.937008,7.1134692,4.9457350664,-5.144962,-4.921268,0,225, 2, 0.3,0,0,1024,1024,1024,1024,0,0,0,0,236.2,0,0,60,3.807,3.802,0,0,0,0,4.255,70.7,12.652051257884,2.952756,6,P-GPS,
7900,2022-09-03 19:51:22,-34.8664778321707,-55.2772918593358,2.952756,3.4120736,9.239977657884,12.652051257884,5.577428,6.487126,4.6081366304,15.8063325268,17,5,7.627,13.636303257884,3.937008,7.1134692,4.9457350664,-4.697574,-4.47388,0,225.2, 23.7, 0.7,0,0,1024,1024,1024,1024,0,0,0,0,236.2,0,0,60,3.807,3.802,0,0,0,0,4.255,70.7,12.652051257884,2.952756,6,P-GPS,
8000,2022-09-03 19:51:22,-34.8664797710548,-55.2772935350059,2.952756,3.5104988,9.141552457884,12.652051257884,5.905512,5.368656,5.4549214344,16.6735241556,17,5,7.627,13.636303257884,3.937008,7.1134692,5.4549214344,-3.802798,-3.802798,0,225.3, 25.8, 0.1,0,0,1024,1024,1024,1024,0,0,0,0,236.2,0,0,60,3.807,3.802,0,0,0,0,4.255,70.7,12.652051257884,2.952756,6,P-GPS,
8100,2022-09-03 19:51:22,-34.8664812920931,-55.2772947097778,2.952756,3.5761156,9.075935657884,12.652051257884,5.905512,4.2725554,6.0934057068,17.3305123656,17,5,7.627,13.636303257884,3.937008,7.1134692,6.0934057068,-3.131716,-2.908022,0,225.7, 23.3, 2.2,0,0,1024,1024,1024,1024,0,0,0,0,236.2,0,0,60,3.807,3.802,0,0,0,0,4.255,70.7,12.652051257884,2.952756,6,P-GPS,
8200,2022-09-03 19:51:22,-34.8664825227473,-55.2772954194194,2.624672,3.28084,9.043127257884,12.323967257884,6.233596,3.1540854,6.5625986352,17.8272315416,17,5,7.627,13.636303257884,3.937008,7.1134692,6.5625986352,-2.23694,-2.23694,0,225.3, 17.6, 0.8,0,0,1024,1024,1024,1024,0,0,0,0,236.2,0,0,60,3.807,3.802,0,0,0,0,4.255,70.7,12.323967257884,2.624672,6,P-GPS,
8300,2022-09-03 19:51:22,-34.8664834558523,-55.2772957384135,2.952756,3.608924,9.043127257884,12.652051257884,6.233596,2.2145706,6.8765422148,18.1808076684,17,5,7.627,13.636303257884,3.937008,7.1134692,6.8765422148,-1.565858,-1.565858,0,225.1, 11.9, 0.3,0,0,1024,1024,1024,1024,0,0,0,0,236.2,0,0,60,3.807,3.802,0,0,0,0,4.255,70.7,12.652051257884,2.952756,6,P-GPS,
8400,2022-09-03 19:51:22,-34.8664842628896,-55.277295694829,2.952756,3.6417324,9.010318857884,12.652051257884,6.233596,1.5882274,7.0883204368,18.475558334,17,5,7.627,13.636303257884,3.937008,7.1134692,7.0883204368,-1.11847,-1.11847,0,225.1, 9.2, 0.4,0,0,1024,1024,1024,1024,0,0,0,0,236.2,0,0,60,3.807,3.802,0,0,0,0,4.255,70.7,12.652051257884,2.952756,6,P-GPS,
8500,2022-09-03 19:51:23,-34.8664847757973,-55.2772954766611,2.952756,3.6417324,9.010318857884,12.652051257884,6.233596,0.9395148,7.1896655844,18.6737538784,17,5,7.627,13.636303257884,3.937008,7.1134692,7.1896655844,-0.671082,-0.671082,0,225, 7, 0.4,0,0,1024,1024,1024,1024,0,0,0,0,236.2,0,0,60,3.807,3.802,0,0,0,0,4.255,70.7,12.652051257884,2.952756,6,P-GPS,
8600,2022-09-03 19:51:23,-34.8664848244683,-55.2772951358238,2.952756,3.6417324,9.010318857884,12.652051257884,6.233596,0.4921268,7.1393374988,18.7773299972,17,5,7.627,13.636303257884,3.937008,7.1134692,7.1896655844,-0.447388,-0.223694,0,225.1, 5.1, 0.6,0,0,1104,1024,1024,1024,12,0,0,0,236.2,0,0,60,3.807,3.802,0,0,0,0,4.255,70.7,12.652051257884,2.952756,6,P-GPS,
8700,2022-09-03 19:51:23,-34.8664834566079,-55.2772939012834,2.952756,3.5761156,9.075935657884,12.652051257884,6.233596,0.223694,6.5187666128,19.3983273924,17,5,7.61,13.636303257884,3.937008,7.1134692,7.1896655844,-0.223694,0,0,225, 3.2, 0.7,0,0,1129,1024,1024,1024,16,0,0,0,236.2,0,0,60,3.795,3.794,0,0,0,0,4.434,70.7,12.652051257884,2.952756,6,P-GPS,
8800,2022-09-03 19:51:23,-34.8664832189006,-55.2772934041584,3.28084,3.8713912,9.108744057884,12.980135257884,6.233596,0.223694,6.3582351116,19.5705714924,17,5,7.61,13.636303257884,3.937008,7.1134692,7.1896655844,-0.223694,0,0,225, 0.7, 0.6,0,0,1164,1024,1024,1024,21,0,0,0,236.2,0,0,60,3.795,3.794,0,0,0,0,4.434,70.7,12.980135257884,3.28084,6,P-GPS,
8900,2022-09-03 19:51:23,-34.8664829763602,-55.2772929462456,3.28084,3.8713912,9.108744057884,12.980135257884,6.233596,0,6.2041012484,19.7337276656,17,5,7.61,13.636303257884,3.937008,7.1134692,7.1896655844,0,0,0,225.1, -0.6, 0.8,0,0,1230,1024,1024,1024,31,0,0,0,236.2,0,0,60,3.795,3.794,0,0,0,0,4.434,70.7,12.980135257884,3.28084,6,P-GPS,
9000,2022-09-03 19:51:23,-34.8664827600182,-55.2772926120216,3.28084,3.8713912,9.108744057884,12.980135257884,6.233596,0,6.0805120056,19.8611554912,17,5,7.61,13.636303257884,3.937008,7.1134692,7.1896655844,0,0,0,225.1, -1.7, 0.8,0,0,1305,1024,1024,1024,43,0,0,0,236.2,0,0,60,3.795,3.794,0,0,0,0,4.434,70.7,12.980135257884,3.28084,6,P-GPS,
9100,2022-09-03 19:51:23,-34.8664825643443,-55.2772923497927,3.28084,3.8385828,9.141552457884,12.980135257884,6.233596,0.223694,5.9761156768,19.9672906652,17,5,7.61,13.636303257884,3.937008,7.1134692,7.1896655844,-0.223694,0,0,225.1, -3.3, 0.7,0,0,1280,1024,1024,1024,39,0,0,0,236.2,0,0,60,3.795,3.794,0,0,0,0,4.434,70.7,12.980135257884,3.28084,6,P-GPS,
9200,2022-09-03 19:51:23,-34.8664821862001,-55.2772928974326,3.28084,3.8385828,9.141552457884,12.980135257884,6.233596,0.3131716,5.9695211884,20.1815295172,17,5,7.61,13.636303257884,3.937008,7.1134692,7.1896655844,-0.223694,-0.223694,0,225.1, -5, 0.6,0,0,1280,1024,1024,1024,39,0,0,0,236.2,0,0,60,3.795,3.794,0,0,0,0,4.434,70.7,12.980135257884,3.28084,6,P-GPS,
9300,2022-09-03 19:51:23,-34.8664821252702,-55.2772928830576,3.28084,3.8385828,9.141552457884,12.980135257884,6.233596,0.3131716,5.9496064896,20.2042001216,17,5,7.61,13.636303257884,3.937008,7.1134692,7.1896655844,-0.223694,-0.223694,0,225.1, -4.9, 0.7,0,0,1031,1024,1024,1024,1,0,0,0,236.2,0,0,60,3.795,3.794,0,0,0,0,4.434,70.7,12.980135257884,3.28084,6,P-GPS,
9400,2022-09-03 19:51:23,-34.8664821659357,-55.2772929982302,3.28084,3.8385828,9.141552457884,12.980135257884,6.233596,0.6263432,5.9829726324,20.2417329312,17,5,7.61,13.636303257884,3.937008,7.1134692,7.1896655844,-0.447388,-0.447388,0,225.1, -2.8, 0.6,0,0,1024,1024,1024,1024,0,0,0,0,236.2,0,0,60,3.795,3.794,0,0,0,0,4.434,70.7,12.980135257884,3.28084,6,P-GPS,
9500,2022-09-03 19:51:24,-34.8664822526667,-55.2772931492894,3.28084,3.8385828,9.141552457884,12.980135257884,6.233596,0.6263432,6.0362206656,20.29691666,17,5,7.61,13.636303257884,3.937008,7.1134692,7.1896655844,-0.447388,-0.447388,0,225.1, 1.8, 0.6,0,0,1024,1024,1024,1024,0,0,0,0,236.2,0,0,60,3.795,3.794,0,0,0,0,4.434,70.7,12.980135257884,3.28084,6,P-GPS,
9600,2022-09-03 19:51:24,-34.8664828859946,-55.2772942683283,3.28084,3.9041996,9.075935657884,12.980135257884,6.233596,0.3131716,6.4290028304,20.7038720536,17,5,7.61,13.636303257884,3.937008,7.1134692,7.1896655844,-0.223694,-0.223694,0,225.1, 2.4, 0.5,0,0,1024,1024,1024,1024,0,0,0,0,236.2,0,0,60,3.795,3.794,0,0,0,0,4.434,70.7,12.980135257884,3.28084,6,P-GPS,
9700,2022-09-03 19:51:24,-34.8664829935696,-55.2772944107134,3.28084,3.9041996,9.075935657884,12.980135257884,6.233596,0.3131716,6.486548764,20.761811688,16,5,7.562,13.636303257884,3.937008,7.1134692,7.1896655844,-0.223694,-0.223694,0,225.1, 2, 0.6,0,0,1024,1024,1024,1024,0,0,0,0,236.2,0,0,60,3.799,3.795,0,0,0,0,4.703,70.7,12.980135257884,3.28084,6,P-GPS,
9800,2022-09-03 19:51:24,-34.8664830003439,-55.2772945507179,3.28084,3.937008,9.043127257884,12.980135257884,6.233596,0.3131716,6.5158794736,20.80380644,16,5,7.562,13.636303257884,3.937008,7.1134692,7.1896655844,-0.223694,-0.223694,0,225.1, 1.5, 0.5,0,0,1024,1024,1024,1024,0,0,0,0,236.2,0,0,60,3.799,3.795,0,0,0,0,4.703,70.7,12.980135257884,3.28084,6,P-GPS,
9900,2022-09-03 19:51:24,-34.8664829863523,-55.2772946432303,3.28084,3.937008,9.043127257884,12.980135257884,6.233596,0,6.5302495528,20.8319560472,16,5,7.562,13.636303257884,3.937008,7.1134692,7.1896655844,0,0,0,225, 0.9, 0.4,0,0,1024,1024,1024,1024,0,0,0,0,236.2,0,0,60,3.799,3.795,0,0,0,0,4.703,70.7,12.980135257884,3.28084,6,P-GPS,
10000,2022-09-03 19:51:24,-34.8664832211674,-55.2772952668227,3.28084,3.937008,9.043127257884,12.980135257884,6.233596,0,6.7183073016,21.0373366312,16,5,7.562,13.636303257884,3.937008,7.1134692,7.1896655844,0,0,0,225.1, 1.2, 0,0,0,1024,1024,1024,1024,0,0,0,0,236.2,0,0,60,3.799,3.795,0,0,0,0,4.703,70.7,12.980135257884,3.28084,6,P-GPS,
10100,2022-09-03 19:51:24,-34.8664831633707,-55.2772952273651,3.28084,3.937008,9.043127257884,12.980135257884,6.56168,0,6.694718062,21.061516422,16,5,7.562,13.636303257884,3.937008,7.1134692,7.1896655844,0,0,0,225.1, 0.3, 0,0,0,1024,1024,1024,1024,0,0,0,0,236.2,0,0,60,3.799,3.795,0,0,0,0,4.703,70.7,12.980135257884,3.28084,6,P-GPS,
10200,2022-09-03 19:51:24,-34.8664829871731,-55.2772950513016,3.28084,3.937008,9.043127257884,12.980135257884,6.233596,0,6.6116800016,21.1446529076,16,5,7.562,13.636303257884,3.937008,7.1134692,7.1896655844,0,0,0,225.1, -0.3, 0.3,0,0,1024,1024,1024,1024,0,0,0,0,236.2,0,0,60,3.799,3.795,0,0,0,0,4.703,70.7,12.980135257884,3.28084,6,P-GPS,
10300,2022-09-03 19:51:24,-34.8664827925675,-55.2772948348147,3.28084,3.937008,9.043127257884,12.980135257884,6.233596,0,6.5155513896,21.2407815196,17,5,7.562,13.636303257884,3.937008,7.1134692,7.1896655844,0,0,0,225.1, -0.9, 0.6,0,0,1024,1024,1024,1024,0,0,0,0,236.2,0,0,60,3.799,3.795,0,0,0,0,4.703,70.7,12.980135257884,3.28084,6,P-GPS,
10400,2022-09-03 19:51:25,-34.8664824380161,-55.2772944411863,3.28084,3.8713912,9.108744057884,12.980135257884,6.233596,0,6.3405841924,21.4157487168,17,5,7.562,13.636303257884,3.937008,7.1134692,7.1896655844,0,0,0,225.1, -1.2, 0.8,0,0,1024,1024,1024,1024,0,0,0,0,236.2,0,0,60,3.799,3.795,0,0,0,0,4.703,70.7,12.980135257884,3.28084,6,P-GPS,
10500,2022-09-03 19:51:25,-34.8664822419189,-55.27729418644,3.28084,3.8713912,9.108744057884,12.980135257884,6.233596,0,6.236384714,21.520341896,17,5,7.562,13.636303257884,3.937008,7.1134692,7.1896655844,0,0,0,225.1, -1.5, 0.8,0,0,1024,1024,1024,1024,0,0,0,0,236.2,0,0,60,3.799,3.795,0,0,0,0,4.703,70.7,12.980135257884,3.28084,6,P-GPS,
10600,2022-09-03 19:51:25,-34.8664820517427,-55.2772939040999,3.28084,3.8713912,9.108744057884,12.980135257884,6.233596,0,6.1283138444,21.6296922932,17,5,7.562,13.636303257884,3.937008,7.1134692,7.1896655844,0,0,0,225.1, -1.4, 0.7,0,0,1024,1024,1024,1024,0,0,0,0,236.2,0,0,60,3.799,3.795,0,0,0,0,4.703,70.7,12.980135257884,3.28084,6,P-GPS,
10700,2022-09-03 19:51:25,-34.8664818687577,-55.2772936554017,3.28084,3.8713912,9.108744057884,12.980135257884,6.233596,0,6.0289043924,21.7296922964,17,5,7.599,13.636303257884,3.937008,7.1134692,7.1896655844,0,0,0,225.1, -1.5, 0.6,0,0,1024,1024,1024,1024,0,0,0,0,236.2,0,0,60,3.798,3.793,0,0,0,0,4.404,70.7,12.980135257884,3.28084,6,P-GPS,
10800,2022-09-03 19:51:25,-34.8664816768619,-55.277293454749,3.28084,3.8385828,9.141552457884,12.980135257884,6.233596,0,5.93667998,21.8219167088,17,5,7.599,13.636303257884,3.937008,7.1134692,7.1896655844,0,0,0,225.1, -1.5, 0.4,0,0,1024,1024,1024,1024,0,0,0,0,236.2,0,0,60,3.798,3.793,0,0,0,0,4.404,70.7,12.980135257884,3.28084,6,P-GPS,
10900,2022-09-03 19:51:25,-34.8664815179974,-55.2772932351323,3.28084,3.8385828,9.141552457884,12.980135257884,6.233596,0,5.8496721032,21.9095807536,17,5,7.599,13.636303257884,3.937008,7.1134692,7.1896655844,0,0,0,225.1, -1, 0.3,0,0,1024,1024,1024,1024,0,0,0,0,236.2,0,0,60,3.798,3.793,0,0,0,0,4.404,70.7,12.980135257884,3.28084,6,P-GPS,
11000,2022-09-03 19:51:25,-34.8664814058432,-55.2772930555345,3.28084,3.8385828,9.141552457884,12.980135257884,6.233596,0,5.7833991352,21.9771332492,17,5,7.599,13.636303257884,3.937008,7.1134692,7.1896655844,0,0,0,225.1, -1, 0.2,0,0,1024,1024,1024,1024,0,0,0,0,236.2,0,0,60,3.798,3.793,0,0,0,0,4.404,70.7,12.980135257884,3.28084,6,P-GPS,
11100,2022-09-03 19:51:25,-34.866481297695,-55.2772928883226,3.608924,4.1666668,9.141552457884,13.308219257884,6.233596,0,5.7206694744,22.0408799704,17,5,7.599,13.636303257884,3.937008,7.1134692,7.1896655844,0,0,0,225.1, -0.9, 0.2,0,0,1024,1024,1024,1024,0,0,0,0,236.2,0,0,60,3.798,3.793,0,0,0,0,4.404,70.7,13.308219257884,3.608924,6,P-GPS,
11200,2022-09-03 19:51:25,-34.8664811624104,-55.2772927389314,3.608924,4.1666668,9.141552457884,13.308219257884,6.233596,0,5.6541012308,22.1074810224,17,5,7.599,13.636303257884,3.937008,7.1134692,7.1896655844,0,0,0,225.1, -0.9, 0.3,0,0,1024,1024,1024,1024,0,0,0,0,236.2,0,0,60,3.798,3.793,0,0,0,0,4.404,70.7,13.308219257884,3.608924,6,P-GPS,
11300,2022-09-03 19:51:25,-34.8664811881202,-55.2772927496742,3.608924,4.1666668,9.141552457884,13.308219257884,6.233596,0,5.6632547744,22.1173891592,17,5,7.599,13.636303257884,3.937008,7.1134692,7.1896655844,0,0,0,225.1, -0.9, 0.4,0,0,1024,1024,1024,1024,0,0,0,0,236.2,0,0,60,3.798,3.793,0,0,0,0,4.404,70.7,13.308219257884,3.608924,6,P-GPS,
11400,2022-09-03 19:51:25,-34.8664810362776,-55.2772926368026,3.608924,4.1666668,9.141552457884,13.308219257884,6.233596,0,5.5993440112,22.1822841744,17,5,7.599,13.636303257884,3.937008,7.1134692,7.1896655844,0,0,0,225.1, -0.9, 0.3,0,0,1024,1024,1024,1024,0,0,0,0,236.2,0,0,60,3.798,3.793,0,0,0,0,4.404,70.7,13.308219257884,3.608924,6,P-GPS,
11500,2022-09-03 19:51:26,-34.8664809018724,-55.27729251734,3.608924,4.1666668,9.141552457884,13.308219257884,6.233596,0,5.5389109384,22.2429797144,17,5,7.599,13.636303257884,3.937008,7.1134692,7.1896655844,0,0,0,225.1, -1, 0.3,0,0,1024,1024,1024,1024,0,0,0,0,236.2,0,0,60,3.798,3.793,0,0,0,0,4.404,70.7,13.308219257884,3.608924,6,P-GPS,
11600,2022-09-03 19:51:26,-34.8664807936264,-55.2772923565182,3.608924,4.1338584,9.174360857884,13.308219257884,6.233596,0,5.4774608052,22.3052500576,17,5,7.599,13.636303257884,3.937008,7.1134692,7.1896655844,0,0,0,225.1, -1.3, 0.3,0,0,1024,1024,1024,1024,0,0,0,0,236.2,0,0,60,3.798,3.793,0,0,0,0,4.404,70.7,13.308219257884,3.608924,6,P-GPS,
11700,2022-09-03 19:51:26,-34.8664806913927,-55.2772922199672,3.608924,4.1338584,9.174360857884,13.308219257884,6.233596,0,5.4224411184,22.3605978284,17,5,7.591,13.636303257884,3.937008,7.1134692,7.1896655844,0,0,0,225.1, -1.4, 0.4,0,0,1024,1024,1024,1024,0,0,0,0,236.2,0,0,60,3.795,3.791,0,0,0,0,4.378,70.7,13.308219257884,3.608924,6,P-GPS,
11800,2022-09-03 19:51:26,-34.8664805814923,-55.2772921330148,3.608924,4.1338584,9.174360857884,13.308219257884,6.233596,0,5.375164214,22.4083996672,17,5,7.591,13.636303257884,3.937008,7.1134692,7.1896655844,0,0,0,225.1, -1.4, 0.6,0,0,1093,1024,1024,1024,10,0,0,0,236.2,0,0,60,3.795,3.791,0,0,0,0,4.378,70.7,13.308219257884,3.608924,6,P-GPS,
11900,2022-09-03 19:51:26,-34.8664804778255,-55.2772920329691,3.608924,4.10105,9.207169257884,13.308219257884,6.233596,0,5.3269686744,22.4566280152,17,5,7.591,13.636303257884,3.937008,7.1134692,7.1896655844,0,0,0,225.1, -1.4, 0.7,0,0,1167,1024,1024,1024,22,0,0,0,236.2,0,0,60,3.795,3.791,0,0,0,0,4.378,70.7,13.308219257884,3.608924,6,P-GPS,
12000,2022-09-03 19:51:26,-34.8664803679968,-55.2772918602938,3.608924,4.10105,9.207169257884,13.308219257884,6.233596,0,5.2627298272,22.5220479648,17,5,7.591,13.636303257884,3.937008,7.1134692,7.1896655844,0,0,0,225.1, -2.2, 0.8,0,0,1342,1024,1024,1024,48,0,0,0,236.2,0,0,60,3.795,3.791,0,0,0,0,4.378,70.7,13.308219257884,3.608924,6,P-GPS,
12100,2022-09-03 19:51:26,-34.8664802895774,-55.277291666381,3.608924,4.10105,9.207169257884,13.308219257884,6.233596,0,5.2029857308,22.5867461296,17,5,7.591,13.636303257884,3.937008,7.1134692,7.1896655844,0,0,0,225.1, -3.1, 0.7,0,0,1362,1024,1024,1024,51,0,0,0,236.2,0,0,60,3.795,3.791,0,0,0,0,4.378,70.7,13.308219257884,3.608924,6,P-GPS,
12200,2022-09-03 19:51:26,-34.8664801653206,-55.2772914921591,3.608924,4.10105,9.207169257884,13.308219257884,6.233596,0,5.1345474084,22.65584062,17,5,7.591,13.636303257884,3.937008,7.1134692,7.1896655844,0,0,0,225.1, -5.8, 0.5,0,0,1364,1024,1024,1024,52,0,0,0,236.2,0,0,60,3.795,3.791,0,0,0,0,4.378,70.7,13.308219257884,3.608924,6,P-GPS,
12300,2022-09-03 19:51:26,-34.8664800821202,-55.2772913829355,3.608924,4.10105,9.207169257884,13.308219257884,6.233596,0,5.09022326,22.700460044,17,5,7.591,13.636303257884,3.937008,7.1134692,7.1896655844,0,0,0,225.1, -7.3, 0.7,0,0,1364,1024,1024,1024,52,0,0,0,236.2,0,0,60,3.795,3.791,0,0,0,0,4.378,70.7,13.308219257884,3.608924,6,P-GPS,
12400,2022-09-03 19:51:26,-34.8664800440341,-55.2772913778871,3.608924,4.10105,9.207169257884,13.308219257884,6.233596,0.3131716,5.0787075116,22.7144364224,17,5,7.591,13.636303257884,3.937008,7.1134692,7.1896655844,-0.223694,-0.223694,0,225.1, -7.7, 0.7,0,0,1384,1024,1024,1024,55,0,0,0,236.2,0,0,60,3.795,3.791,0,0,0,0,4.378,70.7,13.308219257884,3.608924,6,P-GPS,
12500,2022-09-03 19:51:27,-34.8664800777364,-55.2772914554032,3.608924,4.10105,9.207169257884,13.308219257884,6.233596,0.6263432,5.1032153864,22.7407159508,17,5,7.591,13.636303257884,3.937008,7.1134692,7.1896655844,-0.447388,-0.447388,0,225.1, -7.9, 0.5,0,0,1448,1024,1024,1024,64,0,0,0,236.2,0,0,60,3.795,3.791,0,0,0,0,4.378,70.7,13.308219257884,3.608924,6,P-GPS,
12600,2022-09-03 19:51:27,-34.8664802298135,-55.2772917137752,3.608924,4.10105,9.207169257884,13.308219257884,6.233596,0.8052984,5.1959319248,22.8358931192,17,5,7.591,13.636303257884,3.937008,7.1134692,7.1896655844,-0.447388,-0.671082,0,225.1, -9, 0.3,0,0,1458,1024,1024,1024,66,0,0,0,236.2,0,0,60,3.795,3.791,0,0,0,0,4.378,70.7,13.308219257884,3.608924,6,P-GPS,
12700,2022-09-03 19:51:27,-34.8664804387624,-55.27729196739,3.28084,3.772966,9.207169257884,12.980135257884,6.233596,1.11847,5.303313818,22.9435046712,17,5,7.589,13.636303257884,3.937008,7.1134692,7.1896655844,-0.671082,-0.894776,0,225.1, -10.2, 0.3,0,0,1439,1024,1024,1024,63,0,0,0,236.2,0,0,59,3.789,3.787,0,0,0,0,4.335,70.88,12.980135257884,3.28084,6,P-GPS,
12800,2022-09-03 19:51:27,-34.8664807771205,-55.2772923483049,3.28084,3.8057744,9.174360857884,12.980135257884,6.233596,1.5882274,5.4713256344,23.111549296,17,5,7.589,13.636303257884,3.937008,7.1134692,7.1896655844,-1.11847,-1.11847,0,225.1, -10.3, 0.2,0,0,1428,1024,1024,1024,61,0,0,0,236.2,0,0,59,3.789,3.787,0,0,0,0,4.335,70.88,12.980135257884,3.28084,6,P-GPS,
12900,2022-09-03 19:51:27,-34.8664811855213,-55.2772928134717,3.28084,3.8385828,9.141552457884,12.980135257884,6.233596,1.901399,5.6751642236,23.3154863104,17,5,7.589,13.636303257884,3.937008,7.1134692,7.1896655844,-1.342164,-1.342164,0,225.1, -10, 0.2,0,0,1426,1024,1024,1024,61,0,0,0,236.2,0,0,59,3.789,3.787,0,0,0,0,4.335,70.88,12.980135257884,3.28084,6,P-GPS,
13000,2022-09-03 19:51:27,-34.8664818894129,-55.2772935552124,3.28084,3.8713912,9.108744057884,12.980135257884,6.56168,1.901399,6.0146327384,23.6549876336,17,5,7.589,13.636303257884,3.937008,7.1134692,7.1896655844,-1.342164,-1.342164,0,225.1, -9.7, 0.3,0,0,1406,1024,1024,1024,58,0,0,0,236.2,0,0,59,3.789,3.787,0,0,0,0,4.335,70.88,12.980135257884,3.28084,6,P-GPS,
13100,2022-09-03 19:51:27,-34.8664824757244,-55.2772942249265,3.28084,3.8713912,9.108744057884,12.980135257884,6.56168,2.2145706,6.3077101756,23.948163496,17,5,7.589,13.636303257884,3.937008,7.1134692,7.1896655844,-1.565858,-1.565858,0,225.1, -9.3, 0.4,0,0,1381,1024,1024,1024,54,0,0,0,236.2,0,0,59,3.789,3.787,0,0,0,0,4.335,70.88,12.980135257884,3.28084,6,P-GPS,
13200,2022-09-03 19:51:27,-34.8664831810686,-55.2772950082313,3.28084,3.937008,9.043127257884,12.980135257884,6.56168,2.5277422,6.6558072996,24.2963262368,17,5,7.589,13.636303257884,3.937008,7.1134692,7.1896655844,-1.789552,-1.789552,0,225.1, -8.9, 0.3,0,0,1381,1024,1024,1024,54,0,0,0,236.2,0,0,59,3.789,3.787,0,0,0,0,4.335,70.88,12.980135257884,3.28084,6,P-GPS,
13300,2022-09-03 19:51:27,-34.8664839262381,-55.2772957958849,3.28084,3.9698164,9.010318857884,12.980135257884,6.56168,2.8409138,7.0156826392,24.6562015764,17,5,7.589,13.636303257884,3.937008,7.1134692,7.1896655844,-2.013246,-2.013246,0,225.1, -8.1, 0.4,0,0,1371,1024,1024,1024,53,0,0,0,236.2,0,0,59,3.789,3.787,0,0,0,0,4.335,70.88,12.980135257884,3.28084,6,P-GPS,
13400,2022-09-03 19:51:27,-34.8664850523657,-55.2772965812493,3.28084,4.0026248,8.977510457884,12.980135257884,6.56168,2.8409138,7.4797574572,25.1295611716,17,5,7.589,13.636303257884,3.937008,7.1134692,7.4797574572,-2.013246,-2.013246,0,225.1, -7.8, 0.7,0,0,1370,1024,1024,1024,52,0,0,0,236.2,0,0,59,3.789,3.787,0,0,0,0,4.335,70.88,12.980135257884,3.28084,6,P-GPS,
13500,2022-09-03 19:51:28,-34.8664859354449,-55.2772974122316,3.28084,4.0354332,8.944702057884,12.980135257884,6.56168,3.1540854,7.8862207248,25.5366149904,17,5,7.589,13.636303257884,3.937008,7.1134692,7.8862207248,-2.23694,-2.23694,0,225.1, -7.5, 0.7,0,0,1370,1024,1024,1024,52,0,0,0,236.2,0,0,59,3.789,3.787,0,0,0,0,4.335,70.88,12.980135257884,3.28084,6,P-GPS,
13600,2022-09-03 19:51:28,-34.8664869276428,-55.2772983549382,3.28084,4.0682416,8.911893657884,12.980135257884,6.56168,3.1540854,8.3447509232,25.9956045064,17,5,7.589,13.636303257884,3.937008,7.1134692,8.3447509232,-2.23694,-2.23694,0,225.1, -7.3, 0.7,0,0,1362,1024,1024,1024,51,0,0,0,236.2,0,0,59,3.789,3.787,0,0,0,0,4.335,70.88,12.980135257884,3.28084,6,P-GPS,
13700,2022-09-03 19:51:28,-34.8664879203227,-55.2772992931603,3.28084,4.1338584,8.846276857884,12.980135257884,6.56168,3.1540854,8.8025921452,26.4539378544,16,5,7.583,13.636303257884,3.937008,7.1134692,8.8025921452,-2.23694,-2.23694,0,225.1, -7.3, 0.8,0,0,1353,1024,1024,1024,50,0,0,0,236.2,0,0,59,3.79,3.787,0,0,0,0,4.34,70.88,12.980135257884,3.28084,6,P-GPS,
13800,2022-09-03 19:51:28,-34.8664893529105,-55.277300264476,3.28084,4.1666668,8.813468457884,12.980135257884,6.56168,3.4896264,9.3898953136,27.0520349864,16,5,7.583,13.636303257884,3.937008,7.1134692,9.3898953136,-2.460634,-2.460634,0,225.1, -7.3, 0.5,0,0,1323,1024,1024,1024,45,0,0,0,236.2,0,0,59,3.79,3.787,0,0,0,0,4.34,70.88,12.980135257884,3.28084,6,P-GPS,
13900,2022-09-03 19:51:28,-34.8664904197758,-55.2773012872672,2.952756,3.8713912,8.780660057884,12.652051257884,6.56168,3.4896264,9.885006878,27.5472777844,17,5,7.583,13.636303257884,3.937008,7.1134692,9.885006878,-2.460634,-2.460634,0,225.1, -7.1, 0.2,0,0,1314,1024,1024,1024,44,0,0,0,236.2,0,0,59,3.79,3.787,0,0,0,0,4.34,70.88,12.652051257884,2.952756,6,P-GPS,
14000,2022-09-03 19:51:28,-34.8664915059284,-55.2773023977573,2.952756,3.937008,8.715043257884,12.652051257884,6.56168,3.6462122,10.402231304,28.0645350188,17,5,7.583,13.636303257884,3.937008,7.1134692,10.402231304,-2.460634,-2.684328,0,225.1, -6.4, 0.4,0,0,1317,1024,1024,1024,44,0,0,0,236.2,0,0,59,3.79,3.787,0,0,0,0,4.34,70.88,12.652051257884,2.952756,6,P-GPS,
14100,2022-09-03 19:51:28,-34.8664925563594,-55.2773034666546,2.952756,3.9698164,8.682234857884,12.652051257884,6.889764,3.802798,10.9014767268,28.5637804416,17,5,7.583,13.636303257884,3.937008,7.1134692,10.9014767268,-2.684328,-2.684328,0,225.2, -5.7, 0.2,0,0,1317,1024,1024,1024,44,0,0,0,236.2,0,0,59,3.79,3.787,0,0,0,0,4.34,70.88,12.652051257884,2.952756,6,P-GPS,
14200,2022-09-03 19:51:28,-34.8664936697983,-55.2773045744091,2.952756,4.0682416,8.583809657884,12.652051257884,6.889764,3.802798,11.4258861924,29.0881899072,17,5,7.583,13.636303257884,3.937008,7.1134692,11.4258861924,-2.684328,-2.684328,0,225.2, -5.6, 0.3,0,0,1301,1024,1024,1024,42,0,0,0,236.2,0,0,59,3.79,3.787,0,0,0,0,4.34,70.88,12.652051257884,2.952756,6,P-GPS,
14300,2022-09-03 19:51:28,-34.8664947109863,-55.2773055439394,2.952756,4.10105,8.551001257884,12.652051257884,6.889764,3.802798,11.9036093048,29.5662411036,17,5,7.583,13.636303257884,3.937008,7.1134692,11.9036093048,-2.684328,-2.684328,0,225.2, -5.2, 0.6,0,0,1293,1024,1024,1024,41,0,0,0,236.2,0,0,59,3.79,3.787,0,0,0,0,4.34,70.88,12.652051257884,2.952756,6,P-GPS,
14400,2022-09-03 19:51:29,-34.8664959118204,-55.277306685769,2.952756,4.1338584,8.518192857884,12.652051257884,6.889764,3.802798,12.4590883252,30.1219497828,17,5,7.583,13.636303257884,3.937008,7.1134692,12.4590883252,-2.684328,-2.684328,0,225.2, -5, 0.6,0,0,1292,1024,1024,1024,41,0,0,0,236.2,0,0,59,3.79,3.787,0,0,0,0,4.34,70.88,12.652051257884,2.952756,6,P-GPS,
14500,2022-09-03 19:51:29,-34.8664970894395,-55.2773077685141,2.952756,4.1666668,8.485384457884,12.652051257884,6.889764,3.802798,12.9968508096,30.6601387764,17,5,7.583,13.636303257884,3.937008,7.1134692,12.9968508096,-2.684328,-2.684328,0,225.2, -4.8, 0.9,0,0,1289,1024,1024,1024,40,0,0,0,236.2,0,0,59,3.79,3.787,0,0,0,0,4.34,70.88,12.652051257884,2.952756,6,P-GPS,
14600,2022-09-03 19:51:29,-34.8664984104984,-55.2773088969684,2.952756,4.2322836,8.419767657884,12.652051257884,6.889764,3.802798,13.5838587024,31.2487214724,17,5,7.583,13.636303257884,3.937008,7.1134692,13.5838587024,-2.684328,-2.684328,0,225.1, -5.2, 0.3,0,0,1287,1024,1024,1038,40,0,0,2,236.2,0,0,59,3.79,3.787,0,0,0,0,4.34,70.88,12.652051257884,2.952756,6,P-GPS,
14700,2022-09-03 19:51:29,-34.8664999602234,-55.2773098911871,2.952756,4.2979004,8.354150857884,12.652051257884,6.889764,3.802798,14.2108272264,31.8876978708,17,5,7.575,13.636303257884,3.937008,7.1134692,14.2108272264,-2.908022,-2.460634,0,219.4, -5.1, 0.7,0,0,1281,1024,1024,1112,39,0,0,13,236.2,0,0,59,3.791,3.788,0,0,0,0,4.41,70.88,12.652051257884,2.952756,6,P-GPS,
14800,2022-09-03 19:51:29,-34.8665012880501,-55.2773110121107,2.624672,4.0026248,8.321342457884,12.323967257884,6.889764,3.9817532,14.7988193712,32.4770023516,17,5,7.575,13.636303257884,3.937008,7.1134692,14.7988193712,-3.131716,-2.460634,0,219.4, -5, 1.1,0,0,1270,1024,1024,1112,37,0,0,13,236.3,0,0,59,3.791,3.788,0,0,0,0,4.41,70.88,12.323967257884,2.624672,6,P-GPS,
14900,2022-09-03 19:51:29,-34.8665025342038,-55.2773120771369,2.624672,4.0682416,8.255725657884,12.323967257884,6.889764,3.9817532,15.3531500976,33.032153288,17,5,7.575,13.636303257884,3.937008,7.1134692,15.3531500976,-3.131716,-2.460634,0,219.4, -4.9, 1.1,0,0,1255,1024,1024,1097,35,0,0,11,236.4,0,0,59,3.791,3.788,0,0,0,0,4.41,70.88,12.323967257884,2.624672,6,P-GPS,
15000,2022-09-03 19:51:29,-34.8665037698671,-55.2773131928581,2.624672,4.10105,8.222917257884,12.323967257884,7.217848,3.9817532,15.9139440788,33.593505012,17,5,7.575,13.636303257884,3.937008,7.1134692,15.9139440788,-3.131716,-2.460634,0,219.5, -4.5, 1.2,0,0,1255,1024,1024,1097,35,0,0,11,236.5,0,0,59,3.791,3.788,0,0,0,0,4.41,70.88,12.323967257884,2.624672,6,P-GPS,
15100,2022-09-03 19:51:29,-34.8665050291527,-55.2773142966084,2.624672,4.1338584,8.190108857884,12.323967257884,7.217848,3.9817532,16.479331236,34.159449912,17,5,7.575,13.636303257884,3.937008,7.1134692,16.479331236,-3.131716,-2.460634,0,219.7, -4.1, 1.3,0,0,1257,1024,1024,1168,35,0,0,22,236.6,0,0,59,3.791,3.788,0,0,0,0,4.41,70.88,12.323967257884,2.624672,6,P-GPS,
15200,2022-09-03 19:51:29,-34.8665062158454,-55.2773154571801,2.624672,4.1666668,8.157300457884,12.323967257884,7.217848,3.802798,17.0344165556,34.71456804,17,5,7.575,13.636303257884,3.937008,7.1134692,17.0344165556,-2.908022,-2.460634,0,219.8, -4.2, 1,0,0,1251,1024,1024,1392,34,0,0,56,236.8,0,0,59,3.791,3.788,0,0,0,0,4.41,70.88,12.323967257884,2.624672,6,P-GPS,
15300,2022-09-03 19:51:29,-34.8665073280042,-55.277316562635,2.624672,4.2322836,8.091683657884,12.323967257884,7.217848,3.802798,17.5579401944,35.23786202,17,5,7.575,13.636303257884,3.937008,7.1134692,17.5579401944,-2.908022,-2.460634,0,220, -4.3, 0.8,0,0,1240,1024,1024,1684,33,0,0,100,237.5,0,0,59,3.791,3.788,0,0,0,0,4.41,70.88,12.323967257884,2.624672,6,P-GPS,
15400,2022-09-03 19:51:29,-34.8665084889285,-55.2773177204058,2.624672,4.2979004,8.026066857884,12.323967257884,7.217848,3.6685816,18.105151498,35.785434216,17,5,7.575,13.636303257884,3.937008,7.1134692,18.105151498,-2.908022,-2.23694,0,221.2, -4.2, 0.7,0,0,1221,1024,1024,1536,30,0,0,78,240,0,0,59,3.791,3.788,0,0,0,0,4.41,70.88,12.323967257884,2.624672,6,P-GPS,
15500,2022-09-03 19:51:30,-34.8665093772707,-55.2773188139628,2.624672,4.3307088,7.993258457884,12.323967257884,7.217848,3.6685816,18.5624677856,36.246064152,17,5,7.575,13.636303257884,3.937008,7.1134692,18.5624677856,-2.908022,-2.23694,0,224.5, -4.1, 0.6,0,0,1217,1024,1024,1237,29,0,0,32,244.3,0,0,59,3.791,3.788,0,0,0,0,4.41,70.88,12.323967257884,2.624672,6,P-GPS,
15600,2022-09-03 19:51:30,-34.8665105391525,-55.277319924158,2.624672,4.3963256,7.927641657884,12.323967257884,7.217848,3.6685816,19.1011160968,36.78477808,17,5,7.575,13.636303257884,3.937008,7.1134692,19.1011160968,-2.908022,-2.23694,0,228.6, -3.9, 1,0,0,1212,1024,1024,1463,28,0,0,67,247.5,0,0,59,3.791,3.788,0,0,0,0,4.41,70.88,12.323967257884,2.624672,6,P-GPS,
15700,2022-09-03 19:51:30,-34.8665116282591,-55.2773209823608,2.296588,4.10105,7.894833257884,11.995883257884,7.217848,3.6685816,19.6092854044,37.292652112,17,5,7.575,13.636303257884,3.937008,7.1134692,19.6092854044,-2.908022,-2.23694,0,230.6, -3.7, 0.9,0,0,1218,1024,1024,1437,29,0,0,63,248.5,0,0,59,3.791,3.788,0,0,0,0,4.41,70.88,11.995883257884,2.296588,6,P-GPS,
15800,2022-09-03 19:51:30,-34.8665127647013,-55.2773220967377,2.296588,4.1338584,7.862024857884,11.995883257884,7.217848,3.4896264,20.1414376524,37.825132444,17,5,7.575,13.636303257884,3.937008,7.1134692,20.1414376524,-2.684328,-2.23694,0,231.6, -3.6, 0.5,0,0,1218,1024,1024,1437,29,0,0,63,250,0,0,59,3.791,3.788,0,0,0,0,4.41,70.88,11.995883257884,2.296588,6,P-GPS,
15900,2022-09-03 19:51:30,-34.866513887647,-55.2773232190813,2.296588,4.1666668,7.829216457884,11.995883257884,7.217848,3.6462122,20.6712276956,38.35466002,17,5,7.575,13.636303257884,3.937008,7.1134692,20.6712276956,-2.684328,-2.460634,0,233.9, -3.4, 0.1,0,0,1215,1024,1024,1024,29,0,0,0,252.9,0,0,59,3.787,3.784,0,0,0,0,4.188,71.06,11.995883257884,2.296588,6,P-GPS,
16000,2022-09-03 19:51:30,-34.8665150513559,-55.2773242516195,2.296588,4.1994752,7.796408057884,11.995883257884,7.217848,3.6462122,21.1959324368,38.879922504,17,5,7.575,13.636303257884,3.937008,7.1134692,21.1959324368,-2.684328,-2.460634,0,236.3, -3.5, 0.2,0,0,1298,1024,1024,1024,42,0,0,0,254.3,0,0,59,3.787,3.784,0,0,0,0,4.188,71.06,11.995883257884,2.296588,6,P-GPS,
16100,2022-09-03 19:51:30,-34.8665160935535,-55.2773253343906,2.296588,4.265092,7.730791257884,11.995883257884,7.217848,3.6462122,21.6952762848,39.379594436,17,5,7.575,13.636303257884,3.937008,7.1134692,21.6952762848,-2.684328,-2.460634,0,237.4, -3.9, 0,0,0,1454,1024,1024,1024,65,0,0,0,254.7,0,0,59,3.787,3.784,0,0,0,0,4.188,71.06,11.995883257884,2.296588,6,P-GPS,
16200,2022-09-03 19:51:30,-34.8665171577514,-55.277326490256,2.296588,4.2979004,7.697982857884,11.995883257884,7.217848,3.6462122,22.2145348316,39.899607576,17,5,7.575,13.636303257884,3.937008,7.1134692,22.2145348316,-2.684328,-2.460634,0,237.7, -6.7, -0.1,0,0,1474,1024,1024,1024,68,0,0,0,254.7,0,0,59,3.787,3.784,0,0,0,0,4.188,71.06,11.995883257884,2.296588,6,P-GPS,
16300,2022-09-03 19:51:30,-34.8665181683117,-55.2773276424721,2.296588,4.3635172,7.632366057884,11.995883257884,7.545932,3.802798,22.7178813044,40.404528852,17,5,7.575,13.636303257884,3.937008,7.1134692,22.7178813044,-2.684328,-2.684328,0,237.7, -9.6, -0.4,0,0,1473,1024,1024,1024,68,0,0,0,254.8,0,0,59,3.787,3.784,0,0,0,0,4.188,71.06,11.995883257884,2.296588,6,P-GPS,
16400,2022-09-03 19:51:30,-34.8665192319006,-55.2773290237438,2.296588,4.3963256,7.599557657884,11.995883257884,7.217848,3.802798,23.2792986452,40.971786088,17,5,7.575,13.636303257884,3.937008,7.1134692,23.2792986452,-2.684328,-2.684328,0,237.8, -10.8, -0.3,0,0,1346,1024,1024,1024,49,0,0,0,254.8,0,0,59,3.787,3.784,0,0,0,0,4.188,71.06,11.995883257884,2.296588,6,P-GPS,
16500,2022-09-03 19:51:31,-34.8665203030356,-55.2773303777846,2.296588,4.429134,7.566749257884,11.995883257884,7.545932,4.1159696,23.8379928888,41.534778232,17,5,7.575,13.636303257884,3.937008,7.1134692,23.8379928888,-2.908022,-2.908022,0,237.9, -10.8, -0.3,0,0,1302,1024,1024,1024,42,0,0,0,254.7,0,0,59,3.787,3.784,0,0,0,0,4.188,71.06,11.995883257884,2.296588,6,P-GPS,
16600,2022-09-03 19:51:31,-34.8665215028406,-55.2773319083091,2.296588,4.5275592,7.468324057884,11.995883257884,7.545932,4.2725554,24.4666674496,42.168308436,17,5,7.575,13.636303257884,3.937008,7.1134692,24.4666674496,-2.908022,-3.131716,0,237.8, -8.4, -0.2,0,0,1204,1024,1024,1024,27,0,0,0,254.7,0,0,59,3.787,3.784,0,0,0,0,4.188,71.06,11.995883257884,2.296588,6,P-GPS,
