time(millisecond),datetime(utc),latitude,longitude,height_above_takeoff(feet),height_above_ground_at_drone_location(feet),ground_elevation_at_drone_location(feet),altitude_above_seaLevel(feet),height_sonar(feet),speed(mph),distance(feet),mileage(feet),satellites,gpslevel,voltage(v),max_altitude(feet),max_ascent(feet),max_speed(mph),max_distance(feet), xSpeed(mph), ySpeed(mph), zSpeed(mph), compass_heading(degrees), pitch(degrees), roll(degrees),isPhoto,isVideo,rc_elevator,rc_aileron,rc_throttle,rc_rudder,rc_elevator(percent),rc_aileron(percent),rc_throttle(percent),rc_rudder(percent),gimbal_heading(degrees),gimbal_pitch(degrees),gimbal_roll(degrees),battery_percent,voltageCell1,voltageCell2,voltageCell3,voltageCell4,voltageCell5,voltageCell6,current(A),battery_temperature(f),altitude(feet),ascent(feet),flycStateRaw,flycState,message
0,2022-10-24 20:42:17,-34.9287090625374,-56.1628263760747,0,0,6.770581909572,6.770581909572,0,0,0,0,26,5,0,6.770581909572,0,0,0,0,0,0,187.6, -3.6, -0.6,0,0,364,364,364,1684,-100,-100,-100,100,197.7,-90,0,22,3.727,3.724,0,0,0,0,0,99.68,6.770581909572,0,41,Motors_Started,"Aeronave en Zona de altitud restringida (150). Vuela con precauci贸n (Code: 190001). Error de calibraci贸n del estabilizador. Reinicia la aeronave o contacta con la Asistencia DJI (Code: 40011)"
100,2022-10-24 20:42:17,-34.9287089916569,-56.1628263530366,0,0,6.770581909572,6.770581909572,0.328084,0,0.0267631570244,0.0267631570244,26,5,0,6.770581909572,0,0,0.0267631570244,0,0,0,187.5, -3, 0.3,0,0,364,364,364,1684,-100,-100,-100,100,197.8,-90,0,22,3.727,3.724,0,0,0,0,0,99.68,6.770581909572,0,41,Motors_Started,
200,2022-10-24 20:42:17,-34.9287089470351,-56.1628263377624,0,0,6.770581909572,6.770581909572,0.328084,0,0.043671589324,0.043672245492,26,5,0,6.770581909572,0,0,0.043671589324,0,0,0,187.1, -3.2, 0.3,0,0,991,751,364,1557,-5,-41,-100,81,197.8,-90,0,22,3.727,3.724,0,0,0,0,0,99.68,6.770581909572,0,41,Motors_Started,
300,2022-10-24 20:42:18,-34.9287089227086,-56.162826343584,0,0,6.770581909572,6.770581909572,0.328084,0,0.05193405678,0.052717193288,26,5,0,6.770581909572,0,0,0.05193405678,0,0,0,187, -3.4, 0.6,0,0,1024,1024,998,1024,0,0,-4,0,197.6,-90,0,22,3.727,3.724,0,0,0,0,0,99.68,6.770581909572,0,41,Motors_Started,
400,2022-10-24 20:42:18,-34.92870890703,-56.162826579599,0,0,6.770581909572,6.770581909572,0.328084,0,0.083218834684,0.123546919964,26,5,0,6.770581909572,0,0,0.083218834684,0,0,0,187, -3.6, 1.1,0,0,1024,1024,1170,1011,0,0,22,-2,197.5,-90,0,22,3.727,3.724,0,0,0,0,0,99.68,6.770581909572,0,41,Motors_Started,
500,2022-10-24 20:42:18,-34.9287088625865,-56.1628266234768,0,0,6.770581909572,6.770581909572,0.328084,0,0.103916669992,0.144408469188,26,5,0,6.770581909572,0,0,0.103916669992,0,0,0,187.5, -4, 1.5,0,0,1024,1024,1538,1018,0,0,78,-1,197.7,-90,0,22,3.727,3.724,0,0,0,0,0,99.68,6.770581909572,0,41,Motors_Started,
600,2022-10-24 20:42:18,-34.9287087987519,-56.1628266747005,0,0,6.770581909572,6.770581909572,0.328084,0,0.131308403152,0.17228675092,26,5,0,6.770581909572,0,0,0.131308403152,0,0,0,187.2, -4, 1.8,0,0,1024,1024,1684,1024,0,0,100,0,197.8,-90,0,22,3.727,3.724,0,0,0,0,0,99.68,6.770581909572,0,41,Motors_Started,
700,2022-10-24 20:42:18,-34.928708788351,-56.1628266919888,0,0,6.770581909572,6.770581909572,0.328084,0,0.137612865296,0.178701121204,26,5,0,6.770581909572,0,0,0.137612865296,0,0,0,186.8, -4.1, 1.6,0,0,1024,1024,1684,1024,0,0,100,0,197.6,-90,0,22,3.727,3.724,0,0,0,0,0,99.68,6.770581909572,0,41,Motors_Started,
800,2022-10-24 20:42:18,-34.9287088439876,-56.162826846079,0,0,6.770581909572,6.770581909572,0.328084,0,0.161629270264,0.229065624128,26,5,0,6.770581909572,0,0,0.161629270264,0,0,0,185.8, -4.5, 1.6,0,0,1024,1024,1540,1024,0,0,78,0,196.9,-89.9,0,22,3.727,3.724,0,0,0,0,0,99.68,6.770581909572,0,41,Motors_Started,"Setting new Return-To-Home altitude to 100m (328 ft). Data Recorder File Index is 25. Setting new Maximum Flight Altitude to 120m (394 ft)"
900,2022-10-24 20:42:18,-34.9287088419358,-56.1628268564799,0,0,6.770581909572,6.770581909572,0.328084,0,0.164707026268,0.23226542738,26,5,0,6.770581909572,0,0,0.164707026268,0,0,0,182.9, -4.6, 3.9,0,0,1024,1024,1540,1024,0,0,78,0,196.9,-89.9,0,22,3.727,3.724,0,0,0,0,0,99.68,6.770581909572,0,41,Motors_Started,
1000,2022-10-24 20:42:18,-34.9287088156319,-56.1628268801841,0,0,6.770581909572,6.770581909572,0.328084,0,0.175651580424,0.24419784246,26,5,0,6.770581909572,0,0,0.175651580424,0,0,0,180.7, -4.6, 6.7,0,0,1024,1024,1109,1024,0,0,13,0,194.6,-89.9,0,22,3.727,3.724,0,0,0,0,0,99.68,6.770581909572,0,41,Motors_Started,
1100,2022-10-24 20:42:18,-34.928708807495,-56.1628269122359,0,0,6.770581909572,6.770581909572,0.328084,0,0.18541995344,0.254234260104,26,5,7.46,6.770581909572,0,0,0.18541995344,0,0,0,180.6, -4.4, 8.2,0,0,1024,1024,1024,1024,0,0,0,0,191.7,-89.9,0,22,3.727,3.724,0,0,0,0,1.076,99.68,6.770581909572,0,10,Assisted_Takeoff,
1200,2022-10-24 20:42:18,-34.928708798694,-56.1628269330104,0,0,6.770581909572,6.770581909572,0.328084,0,0.192406830304,0.261229010984,26,5,7.46,6.770581909572,0,0,0.192406830304,0,0,0,183.6, -4, 7.7,0,0,1024,1024,1024,1012,0,0,0,-2,193.6,-89.9,0,22,3.727,3.724,0,0,0,0,1.076,99.68,6.770581909572,0,10,Assisted_Takeoff,
1300,2022-10-24 20:42:19,-34.9287088114619,-56.1628269166207,0,0,6.770581909572,6.770581909572,0.328084,0,0.185837932456,0.267991806476,26,5,7.46,6.770581909572,0,0,0.192406830304,0,0,0,186.4, -2.3, 7.9,0,0,1024,1024,1457,1024,0,0,66,0,196.2,-90,0,22,3.727,3.724,0,0,0,0,1.076,99.68,6.770581909572,0,10,Assisted_Takeoff,
1400,2022-10-24 20:42:19,-34.9287088226281,-56.1628268868468,0,0,6.770581909572,6.770581909572,0.328084,0,0.1760826828,0.277785770044,26,5,7.46,6.770581909572,0,0,0.192406830304,0,0,0,187, -0.6, 6.8,0,0,1024,1024,1684,1024,0,0,100,0,197.2,-89.9,0,22,3.727,3.724,0,0,0,0,1.076,99.68,6.770581909572,0,10,Assisted_Takeoff,
1500,2022-10-24 20:42:19,-34.9287088249857,-56.1628268555121,0,0,6.770581909572,6.770581909572,0.328084,0,0.167567918748,0.28719817192,26,5,7.46,6.770581909572,0,0,0.192406830304,0,0,0,188.9, -2.4, 3.3,0,0,1024,1024,1684,1024,0,0,100,0,198.6,-90,0,22,3.727,3.724,0,0,0,0,1.076,99.68,6.770581909572,0,10,Assisted_Takeoff,
1600,2022-10-24 20:42:19,-34.9287088284343,-56.1628268085961,0,0,6.770581909572,6.770581909572,0.328084,0,0.15502953252,0.301288395468,26,5,7.46,6.770581909572,0,0,0.192406830304,0,0,0,189.6, -1.6, 2,0,0,1024,1024,1594,1024,0,0,86,0,199.8,-90,0,22,3.727,3.724,0,0,0,0,1.076,99.68,6.770581909572,0,10,Assisted_Takeoff,
1700,2022-10-24 20:42:19,-34.9287088270595,-56.1628267338943,0,0,6.770581909572,6.770581909572,0.328084,0,0.137249348224,0.323639446052,26,5,7.46,6.770581909572,0,0,0.192406830304,0,0,0,189, -1.5, 1.7,0,0,1024,1024,1181,1024,0,0,24,0,199.7,-90,0,22,3.727,3.724,0,0,0,0,1.076,99.68,6.770581909572,0,10,Assisted_Takeoff,
1800,2022-10-24 20:42:19,-34.9287087850017,-56.1628267074394,0,0,6.770581909572,6.770581909572,0.328084,0,0.141697511096,0.34090552272,26,5,7.46,6.770581909572,0,0,0.192406830304,0,0,0,188.7, -1.8, 1.4,0,0,1024,1024,1181,1024,0,0,24,0,199.4,-90,0,22,3.727,3.724,0,0,0,0,1.076,99.68,6.770581909572,0,10,Assisted_Takeoff,
1900,2022-10-24 20:42:19,-34.9287087841048,-56.1628266671535,0,0,6.770581909572,6.770581909572,0.328084,0,0.133793967536,0.35295932888,26,5,7.46,6.770581909572,0,0,0.192406830304,0,0,0,188.7, -1.6, 1.9,0,0,1024,1024,1024,1024,0,0,0,0,199.4,-90,0,22,3.727,3.724,0,0,0,0,1.076,99.68,6.770581909572,0,10,Assisted_Takeoff,
2000,2022-10-24 20:42:19,-34.928708806686,-56.1628266215398,0,0,6.770581909572,6.770581909572,0.328084,0,0.118764439496,0.3688976496,26,5,7.46,6.770581909572,0,0,0.192406830304,0,0,0,187.8, -1.9, 1.6,0,0,1024,1024,1140,1024,0,0,18,0,199.3,-90,0,22,3.727,3.724,0,0,0,0,1.076,99.68,6.770581909572,0,10,Assisted_Takeoff,
2100,2022-10-24 20:42:19,-34.928708926248,-56.1628265502418,0,0,6.770581909572,6.770581909572,0.328084,0,0.07201935926,0.4174540816,26,5,7.455,6.770581909572,0,0,0.192406830304,0,0,0.223694,186.5, -2.1, 0.5,0,0,1024,1024,1294,1024,0,0,41,0,197.5,-90,0,22,3.714,3.709,0,0,0,0,1.606,99.68,6.770581909572,0,6,P-GPS,"Error de calibraci贸n del estabilizador. Reinicia la aeronave o contacta con la Asistencia DJI (Code: 40011)"
2200,2022-10-24 20:42:19,-34.9287089702718,-56.162826493339,0,0,6.770581909572,6.770581909572,0.328084,0,0.048616799456,0.44085959416,26,5,7.455,6.770581909572,0,0,0.192406830304,0,0,0,186.4, -1.1, 0.2,0,0,1024,1024,1447,1024,0,0,64,0,197.4,-89.9,0,22,3.714,3.709,0,0,0,0,1.606,99.68,6.770581909572,0,6,P-GPS,
2300,2022-10-24 20:42:20,-34.9287089356083,-56.1628264590589,0,0,6.770581909572,6.770581909572,0.328084,0,0.052543308768,0.45713912224,26,5,7.455,6.770581909572,0,0,0.192406830304,0,0,0,186.7, -1, 0.5,0,0,1024,1024,1557,1024,0,0,81,0,197.4,-90,0,22,3.714,3.709,0,0,0,0,1.606,99.68,6.770581909572,0,6,P-GPS,
2400,2022-10-24 20:42:20,-34.9287088599353,-56.1628264270345,0,0,6.770581909572,6.770581909572,0.328084,0,0.075474739948,0.48636484496,26,5,7.455,6.770581909572,0,0,0.192406830304,0,0,0,186.8, -0.6, 1,0,0,1024,1024,1579,1024,0,0,84,0,197.4,-90,0,22,3.714,3.709,0,0,0,0,1.606,99.68,6.770581909572,0,6,P-GPS,
2500,2022-10-24 20:42:20,-34.928708702554,-56.1628265789956,0,0,6.770581909572,6.770581909572,0.328084,0,0.144687668672,0.55959975544,26,5,7.455,6.770581909572,0,0,0.192406830304,0,0,0,186.9, -0.7, 1,0,0,1024,1024,1534,1024,0,0,77,0,197.4,-89.9,0,22,3.714,3.709,0,0,0,0,1.606,99.68,6.770581909572,0,6,P-GPS,
2600,2022-10-24 20:42:20,-34.9287086620143,-56.1628266051318,0,0,6.770581909572,6.770581909572,0.328084,0,0.161396330624,0.5763287586,26,5,7.455,6.770581909572,0,0,0.192406830304,0,0,-0.223694,186.9, -0.5, 0.1,0,0,1024,1024,1534,1024,0,0,77,0,197.4,-90,0,22,3.714,3.709,0,0,0,0,1.606,99.68,6.770581909572,0,6,P-GPS,
2700,2022-10-24 20:42:20,-34.9287086249488,-56.1628266158175,0,0,6.770581909572,6.770581909572,0.328084,0,0.175020674892,0.590223116,26,5,7.455,6.770581909572,0,0,0.192406830304,0,0,-0.671082,186.9, -0.5, -0.4,0,0,1024,1024,1176,1024,0,0,23,0,197.4,-90,0,22,3.714,3.709,0,0,0,0,1.606,99.68,6.770581909572,0,6,P-GPS,
2800,2022-10-24 20:42:20,-34.928708592213,-56.1628266131699,0,0,6.770581909572,6.770581909572,0.656168,0,0.185676187044,0.60219490116,25,5,7.455,6.770581909572,0,0,0.192406830304,0,0,-1.11847,186.9, -0.4, -0.6,0,0,1024,1024,1024,1024,0,0,0,0,197.4,-90,0,22,3.714,3.709,0,0,0,0,1.606,99.68,6.770581909572,0,6,P-GPS,
2900,2022-10-24 20:42:20,-34.9287085586655,-56.1628266399135,0,0,6.770581909572,6.770581909572,0.656168,0,0.200062014276,0.61681760504,25,5,7.455,6.770581909572,0,0,0.200062014276,0,0,-1.342164,186.9, -0.5, -0.7,0,0,1024,1024,1024,1024,0,0,0,0,197.4,-90,0,22,3.714,3.709,0,0,0,0,1.606,99.68,6.770581909572,0,6,P-GPS,"Error de calibraci贸n del estabilizador. Reinicia la aeronave o contacta con la Asistencia DJI (Code: 40011)"
3000,2022-10-24 20:42:20,-34.9287084981028,-56.1628266945828,0.328084,0.2952756,6.803390309572,7.098665909572,0.984252,0,0.226904862904,0.64430448256,26,5,7.455,7.098665909572,0.328084,0,0.226904862904,0,0,-1.342164,187, -0.5, -0.8,0,0,1024,1024,1024,1024,0,0,0,0,197.4,-90,0,22,3.714,3.709,0,0,0,0,1.606,99.68,7.098665909572,0.328084,6,P-GPS,
3100,2022-10-24 20:42:20,-34.9287085059674,-56.162826729661,0.656168,0.656168,6.770581909572,7.426749909572,0.984252,0,0.228958012576,0.655183748,26,5,7.394,7.426749909572,0.656168,0,0.228958012576,0,0,-1.342164,187, -0.2, -0.8,0,0,1024,1024,1024,1024,0,0,0,0,197.4,-90,0,22,3.674,3.672,0,0,0,0,3.413,99.68,7.426749909572,0.656168,6,P-GPS,
3200,2022-10-24 20:42:20,-34.9287085283178,-56.1628267552409,0.656168,0.656168,6.770581909572,7.426749909572,1.64042,0,0.225507553148,0.66636485072,26,5,7.394,7.426749909572,0.656168,0,0.228958012576,0,0,-1.11847,187.1, 0, -0.7,0,0,1024,1024,1024,1024,0,0,0,0,197.4,-90,0,22,3.674,3.672,0,0,0,0,3.413,99.68,7.426749909572,0.656168,6,P-GPS,
3300,2022-10-24 20:42:21,-34.9287085577747,-56.1628268113926,0.984252,0.984252,6.770581909572,7.754833909572,1.968504,0,0.22554790748,0.68630579624,26,5,7.394,7.754833909572,0.984252,0,0.228958012576,0,0,-0.894776,187.2, 0, -0.6,0,0,1024,1024,1024,1024,0,0,0,0,197.4,-90,0,22,3.674,3.672,0,0,0,0,3.413,99.68,7.754833909572,0.984252,6,P-GPS,
3400,2022-10-24 20:42:21,-34.9287087072146,-56.1628270361395,0.984252,0.984252,6.770581909572,7.754833909572,1.968504,0,0.236199482624,0.77286419796,24,5,7.394,7.754833909572,0.984252,0,0.236199482624,0,0,-0.447388,187.2, 0.1, -0.3,0,0,1024,1024,1024,1024,0,0,0,0,197.4,-90,0,22,3.674,3.672,0,0,0,0,3.413,99.68,7.754833909572,0.984252,6,P-GPS,
3500,2022-10-24 20:42:21,-34.9287087649063,-56.1628270185821,1.312336,1.312336,6.770581909572,8.082917909572,2.296588,0,0.220747382392,0.79456039288,24,5,7.394,8.082917909572,1.312336,0,0.236199482624,0,0,-0.223694,187.2, 0.4, -0.2,0,0,1024,1024,1024,1024,0,0,0,0,197.4,-89.9,0,22,3.674,3.672,0,0,0,0,3.413,99.68,8.082917909572,1.312336,6,P-GPS,
3600,2022-10-24 20:42:21,-34.9287088287625,-56.1628269568621,1.312336,1.312336,6.770581909572,8.082917909572,2.296588,0,0.193537407768,0.82428480328,24,5,7.394,8.082917909572,1.312336,0,0.236199482624,0,0,0,187.2, 0.6, -0.2,0,0,1024,1024,1024,1024,0,0,0,0,197.4,-89.9,0,22,3.674,3.672,0,0,0,0,3.413,99.68,8.082917909572,1.312336,6,P-GPS,
3700,2022-10-24 20:42:21,-34.9287088101941,-56.1628269043768,1.312336,1.312336,6.770581909572,8.082917909572,2.296588,0,0.182892722388,0.84138454136,24,5,7.394,8.082917909572,1.312336,0,0.236199482624,0,0,0,187.2, 0.4, -0.5,0,0,1024,1024,1024,1024,0,0,0,0,197.4,-89.9,0,22,3.674,3.672,0,0,0,0,3.413,99.68,8.082917909572,1.312336,6,P-GPS,
3800,2022-10-24 20:42:21,-34.9287087436767,-56.1628266768935,1.312336,1.312336,6.770581909572,8.082917909572,2.296588,0,0.14707513594,0.91362863816,24,5,7.394,8.082917909572,1.312336,0,0.236199482624,0,0,0,187.1, 0.2, -0.7,0,0,1024,1024,1024,1024,0,0,0,0,197.4,-89.9,0,22,3.674,3.672,0,0,0,0,3.413,99.68,8.082917909572,1.312336,6,P-GPS,
3900,2022-10-24 20:42:21,-34.9287087486434,-56.1628266405549,1.312336,1.312336,6.770581909572,8.082917909572,2.296588,0,0.13919291784,0.92464897972,24,5,7.394,8.082917909572,1.312336,0,0.236199482624,0,0,0,187.1, 0.3, -0.7,0,0,1024,1024,1024,1024,0,0,0,0,197.4,-89.9,0,22,3.674,3.672,0,0,0,0,3.413,99.68,8.082917909572,1.312336,6,P-GPS,
4000,2022-10-24 20:42:21,-34.9287087722379,-56.162826600508,1.312336,1.312336,6.770581909572,8.082917909572,2.296588,0,0.125399938396,0.93939963636,24,5,7.394,8.082917909572,1.312336,0,0.236199482624,0,0,0,187.2, 0.1, -0.7,0,0,1024,1024,1024,1024,0,0,0,0,197.4,-89.9,0,22,3.674,3.672,0,0,0,0,3.413,99.68,8.082917909572,1.312336,6,P-GPS,
4100,2022-10-24 20:42:21,-34.92870871497,-56.1628266029414,1.312336,1.312336,6.770581909572,8.082917909572,2.296588,0,0.143826120088,0.96030842968,24,5,7.394,8.082917909572,1.312336,0,0.236199482624,0,0,0,187.2, -0.3, -0.6,0,0,1024,1024,1024,1024,0,0,0,0,197.4,-89.9,0,22,3.674,3.672,0,0,0,0,3.413,99.68,8.082917909572,1.312336,6,P-GPS,
4200,2022-10-24 20:42:21,-34.9287086389356,-56.1628267389557,1.312336,1.312336,6.770581909572,8.082917909572,2.296588,0,0.188861226516,1.00955055724,24,5,7.376,8.082917909572,1.312336,0,0.236199482624,0,0,0,187.2, -0.8, -0.6,0,0,1024,1024,1024,1024,0,0,0,0,197.4,-89.9,0,22,3.688,3.681,0,0,0,0,4.919,99.68,8.082917909572,1.312336,6,P-GPS,
4300,2022-10-24 20:42:22,-34.928708612234,-56.1628267348452,1.312336,1.312336,6.770581909572,8.082917909572,2.296588,0,0.196237867172,1.01937011136,24,5,7.376,8.082917909572,1.312336,0,0.236199482624,0,0,0,187.3, -0.9, -0.6,0,0,1024,1024,1024,1024,0,0,0,0,197.4,-89.9,0,22,3.688,3.681,0,0,0,0,4.919,99.68,8.082917909572,1.312336,6,P-GPS,
4400,2022-10-24 20:42:22,-34.928708613886,-56.16282671766,1.312336,1.312336,6.770581909572,8.082917909572,2.296588,0,0.192962932684,1.02454399604,24,5,7.376,8.082917909572,1.312336,0,0.236199482624,0,0,0,187.2, -0.8, -0.6,0,0,1024,1024,1024,1024,0,0,0,0,197.4,-89.9,0,22,3.688,3.681,0,0,0,0,4.919,99.68,8.082917909572,1.312336,6,P-GPS,
4500,2022-10-24 20:42:22,-34.9287085900488,-56.1628267362819,1.64042,1.64042,6.770581909572,8.411001909572,2.296588,0,0.203290360836,1.03487208036,24,5,7.376,8.411001909572,1.64042,0,0.236199482624,0,0,0,187.2, -0.8, -0.7,0,0,1024,1024,1024,1024,0,0,0,0,197.4,-90,0,22,3.688,3.681,0,0,0,0,4.919,99.68,8.411001909572,1.64042,6,P-GPS,
4600,2022-10-24 20:42:22,-34.9287085564768,-56.1628267665901,1.64042,1.64042,6.770581909572,8.411001909572,2.296588,0,0.218485571296,1.05011158216,24,5,7.376,8.411001909572,1.64042,0,0.236199482624,0,0,0,187.2, -0.9, -0.6,0,0,1024,1024,1024,1024,0,0,0,0,197.4,-90,0,22,3.688,3.681,0,0,0,0,4.919,99.68,8.411001909572,1.64042,6,P-GPS,
4700,2022-10-24 20:42:22,-34.9287086085146,-56.1628269121406,1.64042,1.64042,6.770581909572,8.411001909572,2.296588,0,0.230548563808,1.09761158368,24,5,7.376,8.411001909572,1.64042,0,0.236199482624,0,0,0,187.1, -0.8, -0.5,0,0,1024,1024,1024,1024,0,0,0,0,197.4,-89.9,0,22,3.688,3.681,0,0,0,0,4.919,99.68,8.411001909572,1.64042,6,P-GPS,
4800,2022-10-24 20:42:22,-34.9287086309163,-56.1628269303406,1.64042,1.64042,6.770581909572,8.411001909572,2.296588,0,0.228664049312,1.1074311378,24,5,7.376,8.411001909572,1.64042,0,0.236199482624,0,0,0,187, -0.8, 0,0,0,1024,1024,1024,1024,0,0,0,0,197.4,-90,0,22,3.688,3.681,0,0,0,0,4.919,99.68,8.411001909572,1.64042,6,P-GPS,
4900,2022-10-24 20:42:22,-34.9287086285436,-56.1628269565291,1.64042,1.64042,6.770581909572,8.411001909572,2.296588,0,0.23498852458,1.11531171548,24,5,7.376,8.411001909572,1.64042,0,0.236199482624,0,0,0,186.8, -0.4, -0.2,0,0,1024,1024,1024,1024,0,0,0,0,197.4,-90,0,22,3.688,3.681,0,0,0,0,4.919,99.68,8.411001909572,1.64042,6,P-GPS,
5000,2022-10-24 20:42:22,-34.9287086132281,-56.1628269941817,1.64042,1.64042,6.770581909572,8.411001909572,2.296588,0,0.247100073524,1.12788389436,24,5,7.376,8.411001909572,1.64042,0,0.247100073524,0,0,0,186.7, 0, -1,0,0,1024,1024,1024,1024,0,0,0,0,197.4,-90,0,22,3.688,3.681,0,0,0,0,4.919,99.68,8.411001909572,1.64042,6,P-GPS,
5100,2022-10-24 20:42:22,-34.9287086557842,-56.1628270679862,1.64042,1.64042,6.770581909572,8.411001909572,2.296588,0,0.254676517336,1.15487536504,24,5,7.376,8.411001909572,1.64042,0,0.254676517336,0,0,0,186.6, -0.4, -1.8,0,0,1024,1024,1024,1024,0,0,0,0,197.4,-89.9,0,22,3.688,3.681,0,0,0,0,4.919,99.68,8.411001909572,1.64042,6,P-GPS,
5200,2022-10-24 20:42:22,-34.9287086568175,-56.1628270873566,1.64042,1.64042,6.770581909572,8.411001909572,2.296588,0,0.259191609344,1.16068245184,24,5,7.358,8.411001909572,1.64042,0,0.259191609344,0,0,0,186.6, -0.7, -1.8,0,0,1024,1024,1024,1024,0,0,0,0,197.4,-89.9,0,21,3.681,3.675,0,0,0,0,4.649,99.68,8.411001909572,1.64042,6,P-GPS,
5300,2022-10-24 20:42:23,-34.9287086943609,-56.1628271162135,1.64042,1.64042,6.770581909572,8.411001909572,2.296588,0,0.25895998204,1.17687339724,24,5,7.358,8.411001909572,1.64042,0,0.259191609344,0,0,0,186.7, -0.7, -1.4,0,0,1024,1024,1024,1024,0,0,0,0,197.4,-90,0,21,3.681,3.675,0,0,0,0,4.649,99.68,8.411001909572,1.64042,6,P-GPS,
5400,2022-10-24 20:42:23,-34.9287087527442,-56.1628271494096,1.968504,1.968504,6.770581909572,8.739085909572,2.296588,0,0.25746227858,1.20037405416,24,5,7.358,8.739085909572,1.968504,0,0.259191609344,0,0,0,186.7, -0.6, -1.2,0,0,1024,1024,1024,1024,0,0,0,0,197.4,-89.9,0,21,3.681,3.675,0,0,0,0,4.649,99.68,8.739085909572,1.968504,6,P-GPS,
5500,2022-10-24 20:42:23,-34.9287088741244,-56.1628272665485,1.968504,1.968504,6.770581909572,8.739085909572,2.296588,0,0.275092528488,1.25684387224,24,5,7.358,8.739085909572,1.968504,0,0.275092528488,0,0,0,186.7, -0.7, -1.4,0,0,1024,1024,1024,1024,0,0,0,0,197.4,-89.9,0,21,3.681,3.675,0,0,0,0,4.649,99.68,8.739085909572,1.968504,6,P-GPS,"Punto de origen actualizado. Altitud de RPO establecida en 100m (Code: 3000001)"
5600,2022-10-24 20:42:23,-34.9287088954619,-56.1628272726992,1.968504,1.968504,6.770581909572,8.739085909572,2.296588,0,0.275044956308,1.26484256016,26,5,7.358,8.739085909572,1.968504,0,0.275092528488,0,0,0,186.7, -0.6, -1.3,0,0,1024,1024,1024,1024,0,0,0,0,197.4,-90,0,21,3.681,3.675,0,0,0,0,4.649,99.68,8.739085909572,1.968504,6,P-GPS,
5700,2022-10-24 20:42:23,-34.9287089061469,-56.1628272661162,1.968504,1.968504,6.770581909572,8.739085909572,2.296588,0,0.272281504776,1.26921263904,26,5,7.358,8.739085909572,1.968504,0,0.275092528488,0,0,0,186.7, -0.4, -1.3,0,0,1024,1024,1024,1024,0,0,0,0,197.4,-89.9,0,21,3.681,3.675,0,0,0,0,4.649,99.68,8.739085909572,1.968504,6,P-GPS,
5800,2022-10-24 20:42:23,-34.9287089128191,-56.1628272458132,1.968504,1.968504,6.770581909572,8.739085909572,2.296588,0,0.265835310344,1.275754634,25,5,7.358,8.739085909572,1.968504,0,0.275092528488,0,0,0,186.8, -0.6, -1,0,0,1024,1024,1024,1024,0,0,0,0,197.4,-90,0,21,3.681,3.675,0,0,0,0,4.649,99.68,8.739085909572,1.968504,6,P-GPS,
5900,2022-10-24 20:42:23,-34.9287089751132,-56.162827317857,1.968504,1.968504,6.770581909572,8.739085909572,2.296588,0,0.283512804348,1.30707353264,25,5,7.358,8.739085909572,1.968504,0,0.283512804348,0,0,0,186.8, -0.6, -1.2,0,0,1024,1024,1024,1024,0,0,0,0,197.4,-90,0,21,3.681,3.675,0,0,0,0,4.649,99.68,8.739085909572,1.968504,6,P-GPS,
6000,2022-10-24 20:42:23,-34.9287090272999,-56.1628273120237,1.968504,1.968504,6.770581909572,8.739085909572,2.296588,0,0.280262804244,1.32619426816,26,5,7.358,8.739085909572,1.968504,0,0.283512804348,0,0,0,186.9, -0.4, -1.2,0,0,1024,1024,1024,1024,0,0,0,0,197.4,-89.9,0,21,3.681,3.675,0,0,0,0,4.649,99.68,8.739085909572,1.968504,6,P-GPS,
6100,2022-10-24 20:42:23,-34.9287090111751,-56.1628272826365,1.968504,1.968504,6.770581909572,8.739085909572,2.296588,0,0.27182415568,1.33677169632,26,5,7.358,8.739085909572,1.968504,0,0.283512804348,0,0,0,186.9, -0.6, -1.1,0,0,1024,1024,1024,1024,0,0,0,0,197.4,-89.9,0,21,3.681,3.675,0,0,0,0,4.649,99.68,8.739085909572,1.968504,6,P-GPS,
6200,2022-10-24 20:42:23,-34.9287089664816,-56.1628272370019,1.968504,1.968504,6.770581909572,8.739085909572,2.296588,0,0.259900598868,1.3580381012,26,5,7.353,8.739085909572,1.968504,0,0.283512804348,0,0,0,186.8, -1, -0.4,0,0,1024,1024,1024,1024,0,0,0,0,197.4,-90,0,21,3.681,3.676,0,0,0,0,4.658,99.68,8.739085909572,1.968504,6,P-GPS,
6300,2022-10-24 20:42:23,-34.9287089368219,-56.1628272067121,1.968504,1.968504,6.770581909572,8.739085909572,2.296588,0,0.252664378164,1.37215227488,26,5,7.353,8.739085909572,1.968504,0,0.283512804348,0,0,0,186.8, -0.5, 0,0,0,1024,1024,1024,1024,0,0,0,0,197.4,-89.9,0,21,3.681,3.676,0,0,0,0,4.658,99.68,8.739085909572,1.968504,6,P-GPS,
6400,2022-10-24 20:42:24,-34.9287087719114,-56.1628272103236,1.968504,1.968504,6.770581909572,8.739085909572,2.296588,0,0.27114010054,1.43232944216,26,5,7.353,8.739085909572,1.968504,0,0.283512804348,0,0,0,186.8, -0.6, -0.4,0,0,1024,1024,1024,1024,0,0,0,0,197.4,-90,0,21,3.681,3.676,0,0,0,0,4.658,99.68,8.739085909572,1.968504,6,P-GPS,
6500,2022-10-24 20:42:24,-34.9287087621965,-56.1628271940906,1.968504,1.968504,6.770581909572,8.739085909572,2.296588,0,0.268106635876,1.43833994104,26,5,7.353,8.739085909572,1.968504,0,0.283512804348,0,0,0,186.8, -0.4, -1.1,0,0,1024,1024,1024,1024,0,0,0,0,197.4,-89.9,0,21,3.681,3.676,0,0,0,0,4.658,99.68,8.739085909572,1.968504,6,P-GPS,
6600,2022-10-24 20:42:24,-34.9287087566032,-56.1628271682901,1.968504,1.968504,6.770581909572,8.739085909572,2.296588,0,0.261945218356,1.4463255056,26,5,7.353,8.739085909572,1.968504,0,0.283512804348,0,0,0,186.7, -0.4, -1.4,0,0,1024,1024,1024,1024,0,0,0,0,197.4,-89.9,0,21,3.681,3.676,0,0,0,0,4.658,99.68,8.739085909572,1.968504,6,P-GPS,
6700,2022-10-24 20:42:24,-34.9287087579939,-56.1628271723784,1.968504,1.968504,6.770581909572,8.739085909572,2.296588,0,0.262837278752,1.44764768412,26,5,7.353,8.739085909572,1.968504,0,0.283512804348,0,0,0,186.8, -0.6, -1.1,0,0,1024,1024,1024,1024,0,0,0,0,197.4,-89.9,0,21,3.681,3.676,0,0,0,0,4.658,99.68,8.739085909572,1.968504,6,P-GPS,
6800,2022-10-24 20:42:24,-34.9287087785954,-56.1628272115357,1.968504,1.968504,6.770581909572,8.739085909572,2.296588,0,0.270530520468,1.4615650074,26,5,7.353,8.739085909572,1.968504,0,0.283512804348,0,0,0,186.6, -0.9, -1.5,0,0,1024,1024,1083,1024,0,0,9,0,197.4,-90,0,21,3.681,3.676,0,0,0,0,4.658,99.68,8.739085909572,1.968504,6,P-GPS,
6900,2022-10-24 20:42:24,-34.9287087891493,-56.1628271879504,1.968504,1.968504,6.770581909572,8.739085909572,2.296588,0,0.262540034648,1.4696030654,26,5,7.353,8.739085909572,1.968504,0,0.283512804348,0,0,0,186.4, -0.8, -2.1,0,0,1024,1024,1415,1024,0,0,59,0,197.4,-90,0,21,3.681,3.676,0,0,0,0,4.658,99.68,8.739085909572,1.968504,6,P-GPS,
7000,2022-10-24 20:42:24,-34.9287088050381,-56.1628271192517,1.968504,1.968504,6.770581909572,8.739085909572,2.296588,0,0.241341215072,1.49095477212,26,5,7.353,8.739085909572,1.968504,0,0.283512804348,0,0,0,186.4, -0.4, -1.6,0,0,1024,1024,1415,1024,0,0,59,0,197.4,-89.9,0,21,3.681,3.676,0,0,0,0,4.658,99.68,8.739085909572,1.968504,6,P-GPS,
7100,2022-10-24 20:42:24,-34.9287088219902,-56.1628270609917,1.968504,1.968504,6.770581909572,8.739085909572,2.296588,0,0.2228838654,1.50944558636,26,5,7.353,8.739085909572,1.968504,0,0.283512804348,0,0,-0.223694,186.3, -0.6, -0.9,0,0,1024,1024,1398,1024,0,0,57,0,197.4,-89.9,0,21,3.681,3.676,0,0,0,0,4.658,99.68,8.739085909572,1.968504,6,P-GPS,
7200,2022-10-24 20:42:24,-34.9287088503198,-56.1628270264595,2.296588,2.296588,6.770581909572,9.067169909572,2.296588,0,0.209389442396,1.52405844772,26,5,7.349,9.067169909572,2.296588,0,0.283512804348,0,0,-0.894776,186.4, -0.9, 0.3,0,0,1024,1024,1024,1024,0,0,0,0,197.4,-89.9,0,21,3.676,3.672,0,0,0,0,4.584,99.68,9.067169909572,2.296588,6,P-GPS,
7300,2022-10-24 20:42:25,-34.9287088758994,-56.1628269153041,2.296588,2.296588,6.770581909572,9.067169909572,2.624672,0,0.175083010852,1.55859256956,26,5,7.349,9.067169909572,2.296588,0,0.283512804348,0,0,-1.342164,187, -0.7, 0.6,0,0,1024,1024,1024,1024,0,0,0,0,197.4,-90,0,21,3.676,3.672,0,0,0,0,4.584,99.68,9.067169909572,2.296588,6,P-GPS,
7400,2022-10-24 20:42:25,-34.9287089055468,-56.1628267865847,2.624672,2.624672,6.770581909572,9.395253909572,2.624672,0,0.135496395412,1.59858929,26,5,7.349,9.395253909572,2.624672,0,0.283512804348,0,0,-0.894776,187.1, -0.2, 0,0,0,1024,1024,1024,1024,0,0,0,0,197.4,-90,0,21,3.676,3.672,0,0,0,0,4.584,99.68,9.395253909572,2.624672,6,P-GPS,
7500,2022-10-24 20:42:25,-34.9287089278683,-56.1628267081473,2.624672,2.624672,6.770581909572,9.395253909572,2.952756,0,0.110819557352,1.6234252488,26,5,7.349,9.395253909572,2.624672,0,0.283512804348,0,0,-0.671082,187.2, 0, -0.2,0,0,1024,1024,1024,1024,0,0,0,0,197.4,-90,0,21,3.676,3.672,0,0,0,0,4.584,99.68,9.395253909572,2.624672,6,P-GPS,
7600,2022-10-24 20:42:25,-34.9287089279746,-56.1628266443623,2.624672,2.624672,6.770581909572,9.395253909572,2.952756,0,0.094078415084,1.6425033334,26,5,7.349,9.395253909572,2.624672,0,0.283512804348,0,0,-0.447388,187.2, 0, -0.2,0,0,1024,1024,1024,1024,0,0,0,0,197.4,-89.9,0,21,3.676,3.672,0,0,0,0,4.584,99.68,9.395253909572,2.624672,6,P-GPS,
7700,2022-10-24 20:42:25,-34.9287089363542,-56.162826545874,2.624672,2.624672,6.770581909572,9.395253909572,2.952756,0,0.068551183296,1.67212275692,26,5,7.349,9.395253909572,2.624672,0,0.283512804348,0,0,0,187, 0.2, 0,0,0,1024,1024,1024,1024,0,0,0,0,197.4,-89.9,0,21,3.676,3.672,0,0,0,0,4.584,99.68,9.395253909572,2.624672,6,P-GPS,
7800,2022-10-24 20:42:25,-34.9287089395455,-56.16282642129,2.624672,2.624672,6.770581909572,9.395253909572,2.952756,0,0.046867455568,1.70940622268,26,5,7.349,9.395253909572,2.624672,0,0.283512804348,0,0,0,186.6, 0.2, 0.1,0,0,1024,1024,1024,1024,0,0,0,0,197.4,-89.9,0,21,3.676,3.672,0,0,0,0,4.584,99.68,9.395253909572,2.624672,6,P-GPS,
7900,2022-10-24 20:42:25,-34.9287089307206,-56.1628263556685,2.624672,2.624672,6.770581909572,9.395253909572,2.952756,0,0.048479004176,1.7292979556,26,5,7.349,9.395253909572,2.624672,0,0.283512804348,0,0,0,186.1, 0.1, -0.2,0,0,1024,1024,1024,1024,0,0,0,0,197.4,-89.9,0,21,3.676,3.672,0,0,0,0,4.584,99.68,9.395253909572,2.624672,6,P-GPS,
8000,2022-10-24 20:42:25,-34.9287089167509,-56.1628263120023,2.624672,2.624672,6.770581909572,9.395253909572,2.952756,0,0.056537731468,1.74332026576,25,5,7.349,9.395253909572,2.624672,0,0.283512804348,0,0,0,185.7, 0, -0.2,0,0,1024,1024,1024,1024,0,0,0,0,197.4,-89.9,0,21,3.676,3.672,0,0,0,0,4.584,99.68,9.395253909572,2.624672,6,P-GPS,
8100,2022-10-24 20:42:25,-34.9287088860177,-56.1628262104237,2.624672,2.624672,6.770581909572,9.395253909572,2.952756,0,0.081259188952,1.77570871824,25,5,7.349,9.395253909572,2.624672,0,0.283512804348,0,0,0,185.2, 0.1, 0.4,0,0,1024,1024,1024,1024,0,0,0,0,197.4,-89.9,0,21,3.676,3.672,0,0,0,0,4.584,99.68,9.395253909572,2.624672,6,P-GPS,
8200,2022-10-24 20:42:25,-34.9287089219978,-56.1628260919185,2.624672,2.624672,6.770581909572,9.395253909572,3.28084,0,0.099267391628,1.81350727588,25,5,7.347,9.395253909572,2.624672,0,0.283512804348,0,0,0,184.8, 0.2, 0.5,0,0,1024,1024,1024,1024,0,0,0,0,197.4,-89.9,0,21,3.676,3.67,0,0,0,0,4.865,99.68,9.395253909572,2.624672,6,P-GPS,
8300,2022-10-24 20:42:26,-34.9287089343048,-56.1628260263023,2.624672,2.624672,6.770581909572,9.395253909572,3.28084,0,0.114610567972,1.83364179096,25,5,7.347,9.395253909572,2.624672,0,0.283512804348,0,0,0,184.3, 0.2, 0.5,0,0,1024,1024,1024,1024,0,0,0,0,197.4,-89.9,0,21,3.676,3.67,0,0,0,0,4.865,99.68,9.395253909572,2.624672,6,P-GPS,
8400,2022-10-24 20:42:26,-34.9287089353307,-56.1628259839018,2.624672,2.624672,6.770581909572,9.395253909572,3.28084,0,0.126156828184,1.84633208008,25,5,7.347,9.395253909572,2.624672,0,0.283512804348,0,0,0,183.9, 0.2, 0.3,0,0,1024,1024,1024,1024,0,0,0,0,197.4,-90,0,21,3.676,3.67,0,0,0,0,4.865,99.68,9.395253909572,2.624672,6,P-GPS,
8500,2022-10-24 20:42:26,-34.9287090467753,-56.162825886367,2.624672,2.624672,6.770581909572,9.395253909572,3.28084,0,0.14659777372,1.89637801344,25,5,7.347,9.395253909572,2.624672,0,0.283512804348,0,0,0,183.4, 0.3, 0,0,0,1024,1024,1024,1024,0,0,0,0,197.4,-89.9,0,21,3.676,3.67,0,0,0,0,4.865,99.68,9.395253909572,2.624672,6,P-GPS,
8600,2022-10-24 20:42:26,-34.9287090836115,-56.1628258248234,2.624672,2.624672,6.770581909572,9.395253909572,3.28084,0,0.165073496096,1.91917000892,25,5,7.347,9.395253909572,2.624672,0,0.283512804348,0,0,0,183, 0.1, -0.3,0,0,1024,1024,1024,1024,0,0,0,0,197.4,-89.9,0,21,3.676,3.67,0,0,0,0,4.865,99.68,9.395253909572,2.624672,6,P-GPS,
8700,2022-10-24 20:42:26,-34.9287090907249,-56.1628257852872,2.624672,2.624672,6.770581909572,9.395253909572,3.28084,0,0.177019690704,1.93127630852,25,5,7.347,9.395253909572,2.624672,0,0.283512804348,0,0,0,182.7, 0, -0.3,0,0,1024,1024,1024,1024,0,0,0,0,197.4,-89.9,0,21,3.676,3.67,0,0,0,0,4.865,99.68,9.395253909572,2.624672,6,P-GPS,
8800,2022-10-24 20:42:26,-34.9287090854785,-56.1628257444828,2.624672,2.624672,6.770581909572,9.395253909572,3.28084,0,0.189111554608,1.94363195196,25,5,7.347,9.395253909572,2.624672,0,0.283512804348,0,0,0,182.3, 0, 0,0,0,1024,1024,1024,1024,0,0,0,0,197.4,-89.9,0,21,3.676,3.67,0,0,0,0,4.865,99.68,9.395253909572,2.624672,6,P-GPS,
8900,2022-10-24 20:42:26,-34.9287091321884,-56.1628257597479,2.624672,2.624672,6.770581909572,9.395253909572,3.28084,0,0.186103352412,1.96127630948,25,5,7.347,9.395253909572,2.624672,0,0.283512804348,0,0,0,181.9, 0, 0.2,0,0,1024,1024,1024,1024,0,0,0,0,197.4,-89.9,0,21,3.676,3.67,0,0,0,0,4.865,99.68,9.395253909572,2.624672,6,P-GPS,
9000,2022-10-24 20:42:26,-34.9287091664916,-56.1628257061784,2.624672,2.624672,6.770581909572,9.395253909572,3.28084,0,0.20394193566,1.98160767496,25,5,7.347,9.395253909572,2.624672,0,0.283512804348,0,0,0,181.6, 0, 0.4,0,0,1024,1024,1024,1024,0,0,0,0,197.4,-89.9,0,21,3.676,3.67,0,0,0,0,4.865,99.68,9.395253909572,2.624672,6,P-GPS,
9100,2022-10-24 20:42:26,-34.928709177889,-56.1628256472524,2.624672,2.624672,6.770581909572,9.395253909572,3.28084,0,0.22203576826,1.99971791176,25,5,7.347,9.395253909572,2.624672,0,0.283512804348,0,0,0,181.3, 0, 0.4,0,0,1024,1024,1024,1024,0,0,0,0,197.4,-89.9,0,21,3.676,3.67,0,0,0,0,4.865,99.68,9.395253909572,2.624672,6,P-GPS,
9200,2022-10-24 20:42:26,-34.9287091807262,-56.162825582655,2.624672,2.624672,6.770581909572,9.395253909572,3.28084,0,0.241219167824,2.01906830608,25,5,7.347,9.395253909572,2.624672,0,0.283512804348,0,0,0,181, 0.1, 0.1,0,0,1024,1024,1024,1024,0,0,0,0,197.4,-89.9,0,21,3.676,3.67,0,0,0,0,4.865,99.68,9.395253909572,2.624672,6,P-GPS,
9300,2022-10-24 20:42:27,-34.9287091371047,-56.1628255188151,2.624672,2.624672,6.770581909572,9.395253909572,3.28084,0,0.257868774656,2.04392723076,25,5,7.336,9.395253909572,2.624672,0,0.283512804348,0,0,0,180.8, 0.1, 0,0,0,1024,1024,1024,1024,0,0,0,0,197.4,-89.9,0,21,3.674,3.665,0,0,0,0,4.678,99.68,9.395253909572,2.624672,6,P-GPS,
9400,2022-10-24 20:42:27,-34.9287091303877,-56.1628254510412,2.624672,2.624672,6.770581909572,9.395253909572,3.28084,0,0.277807751672,2.06434717892,25,5,7.336,9.395253909572,2.624672,0,0.283512804348,0,0,0,180.6, 0, 0.3,0,0,1024,1024,1024,1024,0,0,0,0,197.5,-76.3,0,21,3.674,3.665,0,0,0,0,4.678,99.68,9.395253909572,2.624672,6,P-GPS,
9500,2022-10-24 20:42:27,-34.9287091246381,-56.1628253872405,2.624672,2.624672,6.770581909572,9.395253909572,3.28084,0,0.296653880884,2.0835466546,25,5,7.336,9.395253909572,2.624672,0,0.296653880884,0,0,0,180.4, 0, 0.6,0,0,1024,1024,1024,1024,0,0,0,0,197.5,-58.6,0,21,3.674,3.665,0,0,0,0,4.678,99.68,9.395253909572,2.624672,6,P-GPS,
9600,2022-10-24 20:42:27,-34.9287091219231,-56.1628253220358,2.624672,2.624672,6.770581909572,9.395253909572,3.28084,0,0.316035443184,2.10307749512,25,5,7.336,9.395253909572,2.624672,0,0.316035443184,0,0,0,180.2, 0, 0.6,0,0,1024,1024,1024,1024,0,0,0,0,197.5,-40.6,0,21,3.674,3.665,0,0,0,0,4.678,99.68,9.395253909572,2.624672,6,P-GPS,
9700,2022-10-24 20:42:27,-34.928709122101,-56.1628252626173,2.624672,2.624672,6.770581909572,9.395253909572,3.28084,0,0.33377297656,2.1208498054,25,5,7.336,9.395253909572,2.624672,0,0.33377297656,0,0,0,179.9, 0, 0.5,0,0,1024,1024,1024,1024,0,0,0,0,197.4,-22.7,0,21,3.674,3.665,0,0,0,0,4.678,99.68,9.395253909572,2.624672,6,P-GPS,
9800,2022-10-24 20:42:27,-34.9287091030189,-56.1628252282993,2.624672,2.624672,6.770581909572,9.395253909572,3.28084,0,0.34364830496,2.13325466144,25,5,7.336,9.395253909572,2.624672,0,0.34364830496,0,0,0,179.7, -0.1, 0.6,0,0,1024,1024,1024,1024,0,0,0,0,197.4,-4.7,0,21,3.674,3.665,0,0,0,0,4.678,99.68,9.395253909572,2.624672,6,P-GPS,
9900,2022-10-24 20:42:27,-34.9287091087217,-56.1628251710673,2.296588,2.296588,6.770581909572,9.067169909572,3.28084,0,0.3608431874,2.15049875648,25,5,7.336,9.395253909572,2.624672,0,0.3608431874,0,0,0,179.5, 0, 0.7,0,0,1024,1024,1024,1024,0,0,0,0,197.4,-4.7,0,21,3.674,3.665,0,0,0,0,4.678,99.68,9.067169909572,2.296588,6,P-GPS,
10000,2022-10-24 20:42:27,-34.9287091177689,-56.16282511281,2.296588,2.296588,6.770581909572,9.067169909572,3.28084,0,0.37841536644,2.16823497752,25,5,7.336,9.395253909572,2.624672,0,0.37841536644,0,0,0,179.3, 0.1, 0.8,0,0,1024,1024,1024,1024,0,0,0,0,197.4,0,0,21,3.674,3.665,0,0,0,0,4.678,99.68,9.067169909572,2.296588,6,P-GPS,
10100,2022-10-24 20:42:27,-34.9287091273136,-56.1628250639179,2.296588,2.296588,6.770581909572,9.067169909572,3.28084,0,0.39321195484,2.18327106724,25,5,7.336,9.395253909572,2.624672,0,0.39321195484,0,0,0,179.1, 0.1, 0.6,0,0,1024,1024,1024,1024,0,0,0,0,197.4,0,0,21,3.674,3.665,0,0,0,0,4.678,99.68,9.067169909572,2.296588,6,P-GPS,
10200,2022-10-24 20:42:28,-34.9287091329786,-56.1628250647212,2.296588,2.296588,6.770581909572,9.067169909572,3.28084,0,0.39310368712,2.1853511198,25,5,7.336,9.395253909572,2.624672,0,0.39321195484,0,0,0,178.9, 0, 0.9,0,0,1024,1024,1024,1024,0,0,0,0,197.4,0,0,21,3.674,3.665,0,0,0,0,4.678,99.68,9.067169909572,2.296588,6,P-GPS,
10300,2022-10-24 20:42:28,-34.9287091405395,-56.162825019289,2.296588,2.296588,6.770581909572,9.067169909572,3.28084,0,0.40684712588,2.19921923048,25,5,7.332,9.395253909572,2.624672,0,0.40684712588,0,0,0,178.8, 0.1, 1.1,0,0,1024,1024,1024,1024,0,0,0,0,197.4,0,0,21,3.668,3.662,0,0,0,0,4.672,99.68,9.067169909572,2.296588,6,P-GPS,
10400,2022-10-24 20:42:28,-34.9287091477925,-56.1628249747764,2.296588,2.296588,6.770581909572,9.067169909572,3.28084,0,0.42031825492,2.2127953464,25,5,7.332,9.395253909572,2.624672,0,0.42031825492,0,0,0,178.7, 0, 1.1,0,0,1024,1024,1439,1024,0,0,63,0,197.4,0,0,21,3.668,3.662,0,0,0,0,4.672,99.68,9.067169909572,2.296588,6,P-GPS,
10500,2022-10-24 20:42:28,-34.9287091503439,-56.1628249728316,2.296588,2.296588,6.770581909572,9.067169909572,3.28084,0,0.42096786124,2.21389114696,25,5,7.332,9.395253909572,2.624672,0,0.42096786124,0,0,0,178.5, 0, 0.9,0,0,1024,1024,1596,1024,0,0,87,0,197.4,0,0,21,3.668,3.662,0,0,0,0,4.672,99.68,9.067169909572,2.296588,6,P-GPS,
10600,2022-10-24 20:42:28,-34.9287091301858,-56.1628250978793,2.624672,2.624672,6.770581909572,9.395253909572,3.28084,0,0.38313977604,2.25201122692,25,5,7.332,9.395253909572,2.624672,0,0.42096786124,0,0,-0.671082,178.5, -0.3, 0.9,0,0,1024,1024,1253,1024,0,0,35,0,197.4,0,0,21,3.668,3.662,0,0,0,0,4.672,99.68,9.395253909572,2.624672,6,P-GPS,
10700,2022-10-24 20:42:28,-34.9287091653635,-56.1628250985507,2.624672,2.624672,6.770581909572,9.395253909572,3.608924,0,0.38397967108,2.26484915384,25,5,7.332,9.395253909572,2.624672,0,0.42096786124,0,0,-1.342164,178.5, -0.2, 1.5,0,0,1024,1024,1024,1024,0,0,0,0,197.4,0,0,21,3.668,3.662,0,0,0,0,4.672,99.68,9.395253909572,2.624672,6,P-GPS,
10800,2022-10-24 20:42:28,-34.9287092181975,-56.1628250981706,2.952756,2.952756,6.770581909572,9.723337909572,3.937008,0,0.38645342444,2.28412736968,25,5,7.332,9.723337909572,2.952756,0,0.42096786124,0,0,-1.342164,178.5, 0.2, 1.7,0,0,1047,1024,1024,1024,3,0,0,0,197.4,0,0,21,3.668,3.662,0,0,0,0,4.672,99.68,9.723337909572,2.952756,6,P-GPS,
10900,2022-10-24 20:42:28,-34.9287092418938,-56.162825097575,2.952756,2.952756,6.770581909572,9.723337909572,3.937008,0,0.3879921384,2.29277238308,25,5,7.332,9.723337909572,2.952756,0,0.42096786124,0,0,-0.894776,178.3, 0.1, 1.1,0,0,1481,1024,1024,1024,69,0,0,0,197.4,0,0,21,3.668,3.662,0,0,0,0,4.672,99.68,9.723337909572,2.952756,6,P-GPS,
11000,2022-10-24 20:42:28,-34.9287093069872,-56.1628250736292,3.28084,3.28084,6.770581909572,10.051421909572,3.937008,0,0.39967520964,2.31757881432,24,5,7.332,10.051421909572,3.28084,0,0.42096786124,0,0,-0.447388,178.2, -0.2, 0.4,0,0,1620,1024,1024,1024,90,0,0,0,197.4,0,0,21,3.668,3.662,0,0,0,0,4.672,99.68,10.051421909572,3.28084,6,P-GPS,
11100,2022-10-24 20:42:28,-34.9287093101981,-56.162825032476,3.28084,3.28084,6.770581909572,10.051421909572,4.265092,0,0.41193898956,2.32994430028,24,5,7.332,10.051421909572,3.28084,0,0.42096786124,0,0,-0.223694,178.1, -5.6, 0,0,0,1620,1024,1024,1024,90,0,0,0,197.4,0,0,21,3.668,3.662,0,0,0,0,4.672,99.68,10.051421909572,3.28084,6,P-GPS,
11200,2022-10-24 20:42:28,-34.9287093720977,-56.16282496009,3.28084,3.28084,6.770581909572,10.051421909572,4.265092,0.223694,0.43835959408,2.36123039052,24,5,7.332,10.051421909572,3.28084,0.223694,0.43835959408,-0.223694,0,0,178, -12.1, -0.2,0,0,1580,1024,1024,1024,84,0,0,0,197.4,0,0,21,3.668,3.662,0,0,0,0,4.672,99.68,10.051421909572,3.28084,6,P-GPS,
11300,2022-10-24 20:42:29,-34.9287096074897,-56.1628249513505,3.28084,3.3136484,6.737773509572,10.051421909572,3.937008,0.671082,0.47027232476,2.44715559012,24,5,7.298,10.051421909572,3.28084,0.671082,0.47027232476,-0.671082,0,0,177.8, -14.8, 0,0,0,1550,1024,1024,1024,80,0,0,0,197.4,0,0,21,3.672,3.671,0,0,0,0,5.238,99.86,10.051421909572,3.28084,6,P-GPS,
11400,2022-10-24 20:42:29,-34.9287100732926,-56.1628249477821,3.28084,3.3136484,6.737773509572,10.051421909572,3.937008,1.11847,0.56438322016,2.61710638296,24,5,7.298,10.051421909572,3.28084,1.11847,0.56438322016,-1.11847,0,0,177.6, -14.3, 0.3,0,0,1522,1024,1024,1024,75,0,0,0,197.4,0,0,21,3.672,3.671,0,0,0,0,5.238,99.86,10.051421909572,3.28084,6,P-GPS,
11500,2022-10-24 20:42:29,-34.9287107223285,-56.1628248818184,3.28084,3.3464568,6.704965109572,10.051421909572,3.937008,1.789552,0.75266406608,2.85472778164,24,5,7.298,10.051421909572,3.28084,1.789552,0.75266406608,-1.789552,0,0,177.6, -13.3, 0.5,0,0,1380,1024,1024,1037,54,0,0,2,197.4,0,0,21,3.672,3.671,0,0,0,0,5.238,99.86,10.051421909572,3.28084,6,P-GPS,
11600,2022-10-24 20:42:29,-34.928711573217,-56.162824804644,3.28084,3.3792652,6.672156709572,10.051421909572,3.937008,2.23694,1.02958664712,3.16603028504,24,5,7.298,10.051421909572,3.28084,2.23694,1.02958664712,-2.23694,0,0,177.6, -11.5, 0.8,0,0,1110,1024,1038,1274,13,0,2,38,197.4,0,0,21,3.672,3.671,0,0,0,0,5.238,99.86,10.051421909572,3.28084,6,P-GPS,
11700,2022-10-24 20:42:29,-34.9287125395908,-56.162824674578,3.28084,3.4120736,6.639348309572,10.051421909572,4.265092,2.684328,1.36689308836,3.5207350208,24,5,7.298,10.051421909572,3.28084,2.684328,1.36689308836,-2.684328,0,0,177.7, -6.9, 1.1,0,0,1024,1024,1034,1369,0,0,2,52,197.5,0,0,21,3.672,3.671,0,0,0,0,5.238,99.86,10.051421909572,3.28084,6,P-GPS,
11800,2022-10-24 20:42:29,-34.9287136585226,-56.1628245245526,3.28084,3.444882,6.606539909572,10.051421909572,4.265092,2.908022,1.76593837672,3.9314633804,25,5,7.298,10.051421909572,3.28084,2.908022,1.76593837672,-2.908022,0,0,177.9, -1.2, 1.2,0,0,1024,1024,1024,1125,0,0,0,15,198.3,0,0,21,3.672,3.671,0,0,0,0,5.238,99.86,10.051421909572,3.28084,6,P-GPS,
11900,2022-10-24 20:42:29,-34.9287149979381,-56.1628243077838,3.28084,3.4776904,6.573731509572,10.051421909572,4.265092,2.684328,2.25217198808,4.4244095904,25,5,7.298,10.051421909572,3.28084,2.908022,2.25217198808,-2.684328,0,0,178.6, 8.9, 0.9,0,0,1024,1024,1024,1024,0,0,0,0,198.3,0,0,21,3.672,3.671,0,0,0,0,5.238,99.86,10.051421909572,3.28084,6,P-GPS,
12000,2022-10-24 20:42:29,-34.9287161396779,-56.162824212092,3.28084,3.5104988,6.540923109572,10.051421909572,4.265092,2.460634,2.661991555,4.8419620972,24,5,7.298,10.051421909572,3.28084,2.908022,2.661991555,-2.460634,0,0,179.6, 11.5, 0.5,0,0,1024,1024,1024,1024,0,0,0,0,199.4,0,0,21,3.672,3.671,0,0,0,0,5.238,99.86,10.051421909572,3.28084,6,P-GPS,
12100,2022-10-24 20:42:29,-34.9287170692309,-56.1628241766076,3.28084,3.5433072,6.508114709572,10.051421909572,4.265092,1.789552,2.99440954464,5.18126657,24,5,7.298,10.051421909572,3.28084,2.908022,2.99440954464,-1.789552,0,0,180.2, 10.7, 0.6,0,0,1024,1024,1024,1174,0,0,0,23,200.4,0,0,21,3.672,3.671,0,0,0,0,5.238,99.86,10.051421909572,3.28084,6,P-GPS,
12200,2022-10-24 20:42:29,-34.9287178725407,-56.1628241690906,3.28084,3.5761156,6.475306309572,10.051421909572,4.265092,1.342164,3.2814305512,5.4743768156,24,5,7.298,10.051421909572,3.28084,2.908022,3.2814305512,-1.342164,0,0,180.5, 9, 0.3,0,0,1024,1024,1024,1486,0,0,0,70,200.6,0,0,21,3.672,3.671,0,0,0,0,5.238,99.86,10.051421909572,3.28084,6,P-GPS,
12300,2022-10-24 20:42:30,-34.9287185544903,-56.1628242597838,3.28084,3.6417324,6.409689509572,10.051421909572,4.265092,0.894776,3.520505362,5.7246720992,24,5,7.325,10.051421909572,3.28084,2.908022,3.520505362,-0.894776,0,0,180.9, 7.3, 0.4,0,0,1024,1024,1024,1535,0,0,0,77,202,0,0,21,3.663,3.659,0,0,0,0,4.335,99.86,10.051421909572,3.28084,6,P-GPS,
12400,2022-10-24 20:42:30,-34.9287190091552,-56.1628242538878,3.28084,3.6417324,6.409689509572,10.051421909572,4.593176,0.447388,3.6841208528,5.8905513696,25,5,7.325,10.051421909572,3.28084,2.908022,3.6841208528,-0.447388,0,0,182.6, 5.8, 0.5,0,0,1024,1024,1024,1483,0,0,0,70,204.5,0,0,21,3.663,3.659,0,0,0,0,4.335,99.86,10.051421909572,3.28084,6,P-GPS,
12500,2022-10-24 20:42:30,-34.9287192284659,-56.1628242622459,3.28084,3.6417324,6.409689509572,10.051421909572,4.593176,0.223694,3.7625329288,5.9706038656,25,5,7.325,10.051421909572,3.28084,2.908022,3.7625329288,-0.223694,0,0,185, 4.3, 0.5,0,0,1024,1024,1024,1160,0,0,0,21,207.4,0,0,21,3.663,3.659,0,0,0,0,4.335,99.86,10.051421909572,3.28084,6,P-GPS,
12600,2022-10-24 20:42:30,-34.9287193408492,-56.1628242792259,3.28084,3.6417324,6.409689509572,10.051421909572,4.593176,0,3.8021326676,6.0119096412,25,5,7.325,10.051421909572,3.28084,2.908022,3.8021326676,0,0,0,187.9, 3.2, 0.5,0,0,1024,1024,1024,1068,0,0,0,7,209.5,0,0,21,3.663,3.659,0,0,0,0,4.335,99.86,10.051421909572,3.28084,6,P-GPS,
12700,2022-10-24 20:42:30,-34.9287188542785,-56.1628242949495,3.28084,3.6417324,6.409689509572,10.051421909572,4.593176,0,3.6263452604,6.1895015104,25,5,7.325,10.051421909572,3.28084,2.908022,3.8021326676,0,0,0,189.4, 2.5, 0.1,0,0,1024,1024,1024,1031,0,0,0,1,210.2,0,0,21,3.663,3.659,0,0,0,0,4.335,99.86,10.051421909572,3.28084,6,P-GPS,
12800,2022-10-24 20:42:30,-34.9287188395914,-56.1628242961002,3.28084,3.6417324,6.409689509572,10.051421909572,4.593176,0,3.6209974912,6.194882088,25,5,7.325,10.051421909572,3.28084,2.908022,3.8021326676,0,0,0,189.9, 1.7, 0.1,0,0,1024,1024,1024,1031,0,0,0,1,210.3,0,0,21,3.663,3.659,0,0,0,0,4.335,99.86,10.051421909572,3.28084,6,P-GPS,
12900,2022-10-24 20:42:30,-34.9287188018713,-56.1628243120262,3.28084,3.6417324,6.409689509572,10.051421909572,4.593176,0,3.606627412,6.2094490176,25,5,7.325,10.051421909572,3.28084,2.908022,3.8021326676,0,0,0,190.1, 1.2, 0.2,0,0,1024,1024,1024,1024,0,0,0,0,210.3,0,0,21,3.663,3.659,0,0,0,0,4.335,99.86,10.051421909572,3.28084,6,P-GPS,
13000,2022-10-24 20:42:30,-34.9287187507341,-56.1628243411444,3.28084,3.6417324,6.409689509572,10.051421909572,4.593176,0,3.5867455216,6.2300198844,25,5,7.325,10.051421909572,3.28084,2.908022,3.8021326676,0,0,0,190.1, 0.9, 0.2,0,0,1024,1024,1024,1024,0,0,0,0,210.4,0,0,21,3.663,3.659,0,0,0,0,4.335,99.86,10.051421909572,3.28084,6,P-GPS,
13100,2022-10-24 20:42:30,-34.9287187621827,-56.1628243666811,3.28084,3.6417324,6.409689509572,10.051421909572,4.593176,0,3.5895998524,6.2387469188,25,5,7.325,10.051421909572,3.28084,2.908022,3.8021326676,0,0,0,190, 0.8, -0.2,0,0,1024,1024,1024,1024,0,0,0,0,210.4,0,0,21,3.663,3.659,0,0,0,0,4.335,99.86,10.051421909572,3.28084,6,P-GPS,
13200,2022-10-24 20:42:30,-34.9287187702209,-56.1628243960475,3.28084,3.6417324,6.409689509572,10.051421909572,4.593176,0,3.5910106136,6.2479988876,25,5,7.325,10.051421909572,3.28084,2.908022,3.8021326676,0,0,0,190, 1.1, -0.9,0,0,1024,1024,1024,1024,0,0,0,0,210.4,0,0,21,3.663,3.659,0,0,0,0,4.335,99.86,10.051421909572,3.28084,6,P-GPS,
13300,2022-10-24 20:42:31,-34.9287187907456,-56.1628244041679,3.28084,3.6417324,6.409689509572,10.051421909572,4.593176,0,3.5979988028,6.2558729036,25,5,7.323,10.051421909572,3.28084,2.908022,3.8021326676,0,0,0,190.1, 1.1, -1,0,0,1024,1024,1024,1024,0,0,0,0,210.4,0,0,21,3.664,3.658,0,0,0,0,4.674,99.86,10.051421909572,3.28084,6,P-GPS,
13400,2022-10-24 20:42:31,-34.9287187995197,-56.1628243951201,3.28084,3.6417324,6.409689509572,10.051421909572,4.593176,0,3.6016077268,6.2600723788,25,5,7.323,10.051421909572,3.28084,2.908022,3.8021326676,0,0,0,190.1, 1, -1,0,0,1024,1024,1024,1024,0,0,0,0,210.4,0,0,21,3.664,3.658,0,0,0,0,4.674,99.86,10.051421909572,3.28084,6,P-GPS,
13500,2022-10-24 20:42:31,-34.9287187958489,-56.1628243683804,3.28084,3.6417324,6.409689509572,10.051421909572,4.593176,0,3.6016077268,6.2681760536,25,5,7.323,10.051421909572,3.28084,2.908022,3.8021326676,0,0,0,190.1, 0.7, -0.9,0,0,1024,1024,1024,1024,0,0,0,0,210.4,0,0,21,3.664,3.658,0,0,0,0,4.674,99.86,10.051421909572,3.28084,6,P-GPS,
13600,2022-10-24 20:42:31,-34.9287188626245,-56.1628242752944,3.28084,3.6417324,6.409689509572,10.051421909572,4.593176,0,3.6303478852,6.3051839288,25,5,7.323,10.051421909572,3.28084,2.908022,3.8021326676,0,0,0,190.1, 0.9, -0.8,0,0,1024,1024,1024,1545,0,0,0,79,210.4,0,0,21,3.664,3.658,0,0,0,0,4.674,99.86,10.051421909572,3.28084,6,P-GPS,
13700,2022-10-24 20:42:31,-34.92871881296,-56.1628242612597,3.28084,3.6417324,6.409689509572,10.051421909572,4.593176,0,3.6132547088,6.3237862916,25,5,7.323,10.051421909572,3.28084,2.908022,3.8021326676,0,0,0,190, 0.7, -0.9,0,0,1024,1024,1024,1684,0,0,0,100,210.5,0,0,21,3.664,3.658,0,0,0,0,4.674,99.86,10.051421909572,3.28084,6,P-GPS,
13800,2022-10-24 20:42:31,-34.928718741955,-56.1628242519703,3.28084,3.6417324,6.409689509572,10.051421909572,4.593176,0,3.5882218996,6.3498361612,25,5,7.323,10.051421909572,3.28084,2.908022,3.8021326676,0,0,0,190.2, 0.2, -1.2,0,0,1024,1024,1024,1684,0,0,0,100,212.4,0,0,21,3.664,3.658,0,0,0,0,4.674,99.86,10.051421909572,3.28084,6,P-GPS,
13900,2022-10-24 20:42:31,-34.9287187130847,-56.1628242181434,3.28084,3.6417324,6.409689509572,10.051421909572,4.593176,0,3.5796917156,6.3644358992,25,5,7.323,10.051421909572,3.28084,2.908022,3.8021326676,0,0,0,192.7, 0, -1.1,0,0,1024,1024,1024,1684,0,0,0,100,212.4,0,0,21,3.664,3.658,0,0,0,0,4.674,99.86,10.051421909572,3.28084,6,P-GPS,
14000,2022-10-24 20:42:31,-34.9287187690572,-56.162824207493,3.28084,3.6417324,6.409689509572,10.051421909572,4.593176,0,3.6003281992,6.3851051912,25,5,7.323,10.051421909572,3.28084,2.908022,3.8021326676,0,0,0,197.1, 0, -0.6,0,0,1024,1024,1024,1684,0,0,0,100,216.7,0,0,21,3.664,3.658,0,0,0,0,4.674,99.86,10.051421909572,3.28084,6,P-GPS,
14100,2022-10-24 20:42:31,-34.9287187162962,-56.1628241600233,3.28084,3.6417324,6.409689509572,10.051421909572,4.593176,0,3.583989616,6.4090225148,25,5,7.323,10.051421909572,3.28084,2.908022,3.8021326676,0,0,0,201.7, 0, -0.5,0,0,1024,1024,1024,1684,0,0,0,100,226.2,0,0,21,3.664,3.658,0,0,0,0,4.674,99.86,10.051421909572,3.28084,6,P-GPS,
14200,2022-10-24 20:42:31,-34.9287186414946,-56.1628241126567,3.28084,3.6417324,6.409689509572,10.051421909572,4.593176,0,3.5598426336,6.4397639856,25,5,7.323,10.051421909572,3.28084,2.908022,3.8021326676,0,0,0,206.3, -0.2, -0.6,0,0,1024,1024,1024,1684,0,0,0,100,231,0,0,21,3.664,3.658,0,0,0,0,4.674,99.86,10.051421909572,3.28084,6,P-GPS,
14300,2022-10-24 20:42:32,-34.9287185679897,-56.1628240797951,3.28084,3.6417324,6.409689509572,10.051421909572,4.593176,0,3.535433184,6.468340102,25,5,7.323,10.051421909572,3.28084,2.908022,3.8021326676,0,0,0,211.2, -0.4, -0.7,0,0,1024,1024,1024,1684,0,0,0,100,235.8,0,0,21,3.664,3.658,0,0,0,0,4.674,99.86,10.051421909572,3.28084,6,P-GPS,
14400,2022-10-24 20:42:32,-34.9287184493179,-56.1628241117346,3.28084,3.5761156,6.475306309572,10.051421909572,4.593176,0,3.4911090356,6.5126642504,25,5,7.317,10.051421909572,3.28084,2.908022,3.8021326676,0,0,0,215.9, -0.4, -0.9,0,0,1024,1024,1024,1684,0,0,0,100,240.6,0,0,21,3.66,3.655,0,0,0,0,4.71,99.86,10.051421909572,3.28084,6,P-GPS,
14500,2022-10-24 20:42:32,-34.9287183973522,-56.1628240868326,3.28084,3.5761156,6.475306309572,10.051421909572,4.593176,0,3.4739502424,6.5330382668,25,5,7.317,10.051421909572,3.28084,2.908022,3.8021326676,0,0,0,220.7, -0.2, -1,0,0,1024,1024,1024,1684,0,0,0,100,245.5,0,0,21,3.66,3.655,0,0,0,0,4.71,99.86,10.051421909572,3.28084,6,P-GPS,
14600,2022-10-24 20:42:32,-34.9287183526471,-56.1628240541199,3.28084,3.5761156,6.475306309572,10.051421909572,4.593176,0,3.4599082472,6.5520671388,24,5,7.317,10.051421909572,3.28084,2.908022,3.8021326676,0,0,0,225.6, -0.1, -1.3,0,0,1024,1024,1024,1656,0,0,0,96,250.2,0,0,21,3.66,3.655,0,0,0,0,4.71,99.86,10.051421909572,3.28084,6,P-GPS,
14700,2022-10-24 20:42:32,-34.9287183281045,-56.1628239833653,2.952756,3.2480316,6.475306309572,9.723337909572,4.593176,0,3.4554791132,6.5750330188,24,5,7.317,10.051421909572,3.28084,2.908022,3.8021326676,0,0,0,230.4, 0, -1.4,0,0,1024,1024,1024,1024,0,0,0,0,255,0,0,21,3.66,3.655,0,0,0,0,4.71,99.86,9.723337909572,2.952756,6,P-GPS,
14800,2022-10-24 20:42:32,-34.9287183168599,-56.1628238868101,2.952756,3.2480316,6.475306309572,9.723337909572,4.593176,0,3.4575788508,6.6042324948,24,5,7.317,10.051421909572,3.28084,2.908022,3.8021326676,0,0,0,235.2, 0, -1.2,0,0,1024,1024,1024,1024,0,0,0,0,258.8,0,0,21,3.66,3.655,0,0,0,0,4.71,99.86,9.723337909572,2.952756,6,P-GPS,
14900,2022-10-24 20:42:32,-34.9287183150785,-56.1628238149204,2.952756,3.2480316,6.475306309572,9.723337909572,4.593176,0,3.461614284,6.6257219968,24,5,7.317,10.051421909572,3.28084,2.908022,3.8021326676,0,0,0,238.4, 0.3, -0.7,0,0,1024,1024,1024,1024,0,0,0,0,258.8,0,0,21,3.66,3.655,0,0,0,0,4.71,99.86,9.723337909572,2.952756,6,P-GPS,
15000,2022-10-24 20:42:32,-34.9287182675483,-56.162823748002,2.952756,3.2480316,6.475306309572,9.723337909572,4.593176,0,3.4492127088,6.652231184,24,5,7.317,10.051421909572,3.28084,2.908022,3.8021326676,0,0,0,239.8, 0.2, -0.7,0,0,1024,1024,1024,1024,0,0,0,0,260.4,0,0,21,3.66,3.655,0,0,0,0,4.71,99.86,9.723337909572,2.952756,6,P-GPS,
15100,2022-10-24 20:42:32,-34.9287182042943,-56.1628237033274,2.952756,3.2480316,6.475306309572,9.723337909572,4.593176,0,3.4298557528,6.6788716048,24,5,7.317,10.051421909572,3.28084,2.908022,3.8021326676,0,0,0,240.4, 0.2, -0.7,0,0,1024,1024,1024,1024,0,0,0,0,261,0,0,21,3.66,3.655,0,0,0,0,4.71,99.86,9.723337909572,2.952756,6,P-GPS,
15200,2022-10-24 20:42:32,-34.9287181317957,-56.162823659511,2.952756,3.2480316,6.475306309572,9.723337909572,4.593176,0,3.4072179568,6.7083991648,24,5,7.317,10.051421909572,3.28084,2.908022,3.8021326676,0,0,0,240.5, 0.1, -0.9,0,0,1024,1024,1024,1024,0,0,0,0,261,0,0,21,3.66,3.655,0,0,0,0,4.71,99.86,9.723337909572,2.952756,6,P-GPS,
15300,2022-10-24 20:42:33,-34.9287179676624,-56.1628236846493,2.952756,3.2480316,6.475306309572,9.723337909572,4.593176,0,3.34727701,6.7687666208,24,5,7.317,10.051421909572,3.28084,2.908022,3.8021326676,0,0,0,240.6, -0.1, -0.9,0,0,1024,1024,1024,1024,0,0,0,0,261,0,0,21,3.66,3.655,0,0,0,0,4.71,99.86,9.723337909572,2.952756,6,P-GPS,
15400,2022-10-24 20:42:33,-34.9287179369117,-56.1628236114744,2.952756,3.2480316,6.475306309572,9.723337909572,4.593176,0,3.3417651988,6.7933401124,24,5,7.314,10.051421909572,3.28084,2.908022,3.8021326676,0,0,0,240.7, -0.1, -0.8,0,0,1024,1024,1024,1024,0,0,0,0,261,0,0,21,3.658,3.655,0,0,0,0,4.758,99.86,9.723337909572,2.952756,6,P-GPS,
15500,2022-10-24 20:42:33,-34.9287179111045,-56.1628235450849,2.952756,3.2480316,6.475306309572,9.723337909572,4.593176,0,3.337598532,6.8153217404,24,5,7.314,10.051421909572,3.28084,2.908022,3.8021326676,0,0,0,240.7, -0.2, -0.7,0,0,1024,1024,1024,1253,0,0,0,35,261,0,0,21,3.658,3.655,0,0,0,0,4.758,99.86,9.723337909572,2.952756,6,P-GPS,
15600,2022-10-24 20:42:33,-34.9287178878359,-56.1628234799573,2.952756,3.2480316,6.475306309572,9.723337909572,4.593176,0,3.3344161172,6.8365815836,24,5,7.314,10.051421909572,3.28084,2.908022,3.8021326676,0,0,0,240.8, -0.4, -0.7,0,0,1024,1024,1024,1547,0,0,0,79,261.1,0,0,21,3.658,3.655,0,0,0,0,4.758,99.86,9.723337909572,2.952756,6,P-GPS,
15700,2022-10-24 20:42:33,-34.9287177426214,-56.1628234497066,2.952756,3.2480316,6.475306309572,9.723337909572,4.593176,0,3.2856628348,6.8903217428,24,5,7.314,10.051421909572,3.28084,2.908022,3.8021326676,0,0,0,241, -0.5, -0.6,0,0,1024,1024,1024,1684,0,0,0,100,261.7,0,0,21,3.658,3.655,0,0,0,0,4.758,99.86,9.723337909572,2.952756,6,P-GPS,
15800,2022-10-24 20:42:33,-34.9287176715352,-56.1628234077698,2.952756,3.2480316,6.475306309572,9.723337909572,4.593176,0,3.26407162676,6.919127518,24,5,7.314,10.051421909572,3.28084,2.908022,3.8021326676,0,0,0,242, -0.4, -0.8,0,0,1024,1024,1024,1509,0,0,0,73,264.4,0,0,21,3.658,3.655,0,0,0,0,4.758,99.86,9.723337909572,2.952756,6,P-GPS,
15900,2022-10-24 20:42:33,-34.928717664494,-56.1628233477204,2.952756,3.2480316,6.475306309572,9.723337909572,4.593176,0,3.2665355376,6.9373033716,24,5,7.314,10.051421909572,3.28084,2.908022,3.8021326676,0,0,0,245.1, -0.3, -0.7,0,0,1024,1024,1024,1509,0,0,0,73,264.4,0,0,21,3.658,3.655,0,0,0,0,4.758,99.86,9.723337909572,2.952756,6,P-GPS,
16000,2022-10-24 20:42:33,-34.9287176887721,-56.1628232791967,2.952756,3.2480316,6.475306309572,9.723337909572,4.593176,0,3.28077766404,6.9596130836,24,5,7.314,10.051421909572,3.28084,2.908022,3.8021326676,0,0,0,249.3, -0.3, -0.1,0,0,1024,1024,1024,1024,0,0,0,0,268.8,0,0,21,3.658,3.655,0,0,0,0,4.758,99.86,9.723337909572,2.952756,6,P-GPS,
16100,2022-10-24 20:42:33,-34.9287177355338,-56.1628232143172,2.952756,3.2480316,6.475306309572,9.723337909572,4.593176,0,3.302657586,6.9854661028,24,5,7.314,10.051421909572,3.28084,2.908022,3.8021326676,0,0,0,252.4, -0.3, 0,0,0,1024,1024,1024,1024,0,0,0,0,273.9,0,0,21,3.658,3.655,0,0,0,0,4.758,99.86,9.723337909572,2.952756,6,P-GPS,
16200,2022-10-24 20:42:33,-34.92871772011,-56.1628232026819,2.952756,3.2480316,6.475306309572,9.723337909572,4.593176,0,3.2982612604,6.9920605912,24,5,7.314,10.051421909572,3.28084,2.908022,3.8021326676,0,0,0,253.4, -0.3, -0.2,0,0,1024,1024,1024,1024,0,0,0,0,274.5,0,0,21,3.658,3.655,0,0,0,0,4.758,99.86,9.723337909572,2.952756,6,P-GPS,
16300,2022-10-24 20:42:34,-34.9287176821461,-56.1628231699012,2.952756,3.2480316,6.475306309572,9.723337909572,4.593176,0,3.2878609976,7.0090553424,24,5,7.314,10.051421909572,3.28084,2.908022,3.8021326676,0,0,0,253.9, -0.3, -0.4,0,0,1024,1024,1024,1020,0,0,0,-1,274.6,0,0,21,3.658,3.655,0,0,0,0,4.758,99.86,9.723337909572,2.952756,6,P-GPS,
16400,2022-10-24 20:42:34,-34.928717633234,-56.1628231289192,2.952756,3.2480316,6.475306309572,9.723337909572,4.593176,0,3.27439643024,7.0307088864,24,5,7.312,10.051421909572,3.28084,2.908022,3.8021326676,0,0,0,254, 0, -0.4,0,0,1024,1024,1024,538,0,0,0,-74,274.6,0,0,21,3.659,3.655,0,0,0,0,4.713,99.86,9.723337909572,2.952756,6,P-GPS,
16500,2022-10-24 20:42:34,-34.9287176132776,-56.1628231367457,2.952756,3.2480316,6.475306309572,9.723337909572,4.593176,0,3.2667487922,7.0383532436,24,5,7.312,10.051421909572,3.28084,2.908022,3.8021326676,0,0,0,254, 0, -0.6,0,0,1024,1024,1024,364,0,0,0,-100,274.3,0,0,21,3.659,3.655,0,0,0,0,4.713,99.86,9.723337909572,2.952756,6,P-GPS,
16600,2022-10-24 20:42:34,-34.9287175870993,-56.1628231616868,2.952756,3.2480316,6.475306309572,9.723337909572,4.593176,0,3.25541677084,7.0504595432,24,5,7.312,10.051421909572,3.28084,2.908022,3.8021326676,0,0,0,253.5, 0.1, -0.8,0,0,1024,1024,1010,364,0,0,-2,-100,271.7,0,0,21,3.659,3.655,0,0,0,0,4.713,99.86,9.723337909572,2.952756,6,P-GPS,
16700,2022-10-24 20:42:34,-34.9287176235268,-56.1628231566908,2.952756,3.2480316,6.475306309572,9.723337909572,4.593176,0,3.26855653504,7.0638453704,24,5,7.312,10.051421909572,3.28084,2.908022,3.8021326676,0,0,0,250.4, -0.1, -0.5,0,0,1024,1024,1000,364,0,0,-4,-100,267.3,0,0,21,3.659,3.655,0,0,0,0,4.713,99.86,9.723337909572,2.952756,6,P-GPS,
16800,2022-10-24 20:42:34,-34.928717674217,-56.1628231432412,2.952756,3.2480316,6.475306309572,9.723337909572,4.593176,0,3.28740168,7.0827758172,24,5,7.312,10.051421909572,3.28084,2.908022,3.8021326676,0,0,0,245.9, -0.3, -0.6,0,0,1024,1024,1000,364,0,0,-4,-100,262.5,0,0,21,3.659,3.655,0,0,0,0,4.713,99.86,9.723337909572,2.952756,6,P-GPS,
16900,2022-10-24 20:42:34,-34.9287177039809,-56.1628231468724,2.952756,3.2480316,6.475306309572,9.723337909572,4.593176,0,3.2974738588,7.093668206,24,5,7.312,10.051421909572,3.28084,2.908022,3.8021326676,0,0,0,241.4, -0.5, -0.7,0,0,1024,1024,984,364,0,0,-6,-100,262.5,0,0,21,3.659,3.655,0,0,0,0,4.713,99.86,9.723337909572,2.952756,6,P-GPS,
17000,2022-10-24 20:42:34,-34.928717887282,-56.1628231274106,2.952756,3.2480316,6.475306309572,9.723337909572,4.593176,0,3.3631562756,7.1607941924,24,5,7.312,10.051421909572,3.28084,2.908022,3.8021326676,0,0,0,236.8, -0.3, -0.8,0,0,1024,1024,984,364,0,0,-6,-100,257.7,0,0,21,3.659,3.655,0,0,0,0,4.713,99.86,9.723337909572,2.952756,6,P-GPS,
17100,2022-10-24 20:42:34,-34.928717900942,-56.162823137259,2.952756,3.2480316,6.475306309572,9.723337909572,4.593176,0,3.3670932836,7.1666012792,24,5,7.312,10.051421909572,3.28084,2.908022,3.8021326676,0,0,0,231.9, -0.3, -1,0,0,1024,1024,984,364,0,0,-6,-100,248.1,0,0,21,3.659,3.655,0,0,0,0,4.713,99.86,9.723337909572,2.952756,6,P-GPS,
17200,2022-10-24 20:42:34,-34.9287179140424,-56.1628231422107,2.952756,3.2480316,6.475306309572,9.723337909572,4.593176,0,3.371227142,7.171588156,24,5,7.312,10.051421909572,3.28084,2.908022,3.8021326676,0,0,0,227.2, -0.6, -1.2,0,0,1024,1024,984,364,0,0,-6,-100,243.3,0,0,21,3.659,3.655,0,0,0,0,4.713,99.86,9.723337909572,2.952756,6,P-GPS,
17300,2022-10-24 20:42:35,-34.9287178862712,-56.1628231391634,2.952756,3.2480316,6.475306309572,9.723337909572,4.593176,0,3.3617783228,7.18175876,24,5,7.312,10.051421909572,3.28084,2.908022,3.8021326676,0,0,0,222.4, -0.6, -0.6,0,0,1024,1024,984,364,0,0,-6,-100,238.5,0,0,21,3.659,3.655,0,0,0,0,4.713,99.86,9.723337909572,2.952756,6,P-GPS,
17400,2022-10-24 20:42:35,-34.9287177211264,-56.1628231547132,2.952756,3.2480316,6.475306309572,9.723337909572,4.593176,0,3.3027888196,7.2421918328,24,5,7.308,10.051421909572,3.28084,2.908022,3.8021326676,0,0,0,217.6, -0.6, 0,0,0,1024,1024,1002,364,0,0,-3,-100,233.7,0,0,21,3.658,3.653,0,0,0,0,4.645,99.86,9.723337909572,2.952756,6,P-GPS,
