time(millisecond),datetime(utc),latitude,longitude,height_above_takeoff(feet),height_above_ground_at_drone_location(feet),ground_elevation_at_drone_location(feet),altitude_above_seaLevel(feet),height_sonar(feet),speed(mph),distance(feet),mileage(feet),satellites,gpslevel,voltage(v),max_altitude(feet),max_ascent(feet),max_speed(mph),max_distance(feet), xSpeed(mph), ySpeed(mph), zSpeed(mph), compass_heading(degrees), pitch(degrees), roll(degrees),isPhoto,isVideo,rc_elevator,rc_aileron,rc_throttle,rc_rudder,rc_elevator(percent),rc_aileron(percent),rc_throttle(percent),rc_rudder(percent),gimbal_heading(degrees),gimbal_pitch(degrees),gimbal_roll(degrees),battery_percent,voltageCell1,voltageCell2,voltageCell3,voltageCell4,voltageCell5,voltageCell6,current(A),battery_temperature(f),altitude(feet),ascent(feet),flycStateRaw,flycState,message
72200,,-34.9223709226984,-56.154027656369,15.748032,15.748032,82.727144379552,95.456803579552,16.732284,0,0,0,16,5,0,95.456803579552,15.748032,0,0,0,0,0,243.3, -0.6, 0.3,0,0,1024,1024,1024,1024,0,0,0,0,253.3,0,0,94,4.089,4.075,0,0,0,0,0,71.6,95.456803579552,15.748032,6,P-GPS,
72300,,-34.9223711381676,-56.1540276193816,15.748032,15.748032,82.727144379552,95.456803579552,16.732284,0,0.079388782068,0.079388782068,16,5,0,95.456803579552,15.748032,0,0.079388782068,0,0,0,243.3, -0.9, 0.3,0,0,1024,1024,1024,1024,0,0,0,0,253.3,0,0,94,4.089,4.075,0,0,0,0,0,71.6,95.456803579552,15.748032,6,P-GPS,
72400,,-34.9223712006086,-56.154027593365,16.076116,16.076116,82.727144379552,95.784887579552,16.732284,0,0.103132221148,0.10346292982,16,5,0,95.784887579552,16.076116,0,0.103132221148,0,0,0,243.3, -1.2, 0.6,0,0,1024,1024,1024,1024,0,0,0,0,253.3,0,0,94,4.089,4.075,0,0,0,0,0,71.6,95.784887579552,16.076116,6,P-GPS,
72500,2022-08-11 21:09:00,-34.9223712572134,-56.1540275606197,16.076116,16.076116,82.727144379552,95.784887579552,16.4042,0,0.125363849156,0.1263205421,16,5,0,95.784887579552,16.076116,0,0.125363849156,0,0,0,243.1, -1.7, 0.6,0,0,1024,1024,1024,1024,0,0,0,0,253.3,0,0,94,4.089,4.075,0,0,0,0,0,71.6,95.784887579552,16.076116,6,P-GPS,
72600,2022-08-11 21:09:00,-34.9223713092193,-56.1540275163393,16.076116,16.076116,82.727144379552,95.784887579552,16.4042,0,0.147112209432,0.149461290872,16,5,0,95.784887579552,16.076116,0,0.147112209432,0,0,0,243.1, -2.3, 0,0,0,1024,1024,1024,1024,0,0,0,0,253.3,0,0,94,4.089,4.075,0,0,0,0,0,71.6,95.784887579552,16.076116,6,P-GPS,
72700,2022-08-11 21:09:00,-34.9223713650489,-56.1540274126911,16.076116,16.076116,82.727144379552,95.784887579552,16.4042,0,0.177090556848,0.18656004534,16,5,0,95.784887579552,16.076116,0,0.177090556848,0,0,0,243.1, -2.8, -0.3,0,0,1024,1024,1024,1024,0,0,0,0,253.3,0,0,94,4.089,4.075,0,0,0,0,0,71.6,95.784887579552,16.076116,6,P-GPS,
72800,2022-08-11 21:09:00,-34.9223714490441,-56.1540273412657,16.076116,16.076116,82.727144379552,95.784887579552,16.732284,0,0.213924547528,0.22391897042,16,5,0,95.784887579552,16.076116,0,0.213924547528,0,0,0,243, -2.2, -1,0,0,1024,1024,1024,1024,0,0,0,0,253.3,0,0,94,4.089,4.075,0,0,0,0,0,71.6,95.784887579552,16.076116,6,P-GPS,
72900,2022-08-11 21:09:00,-34.92237163128,-56.1540272293841,16.076116,16.0433076,82.759952779552,95.784887579552,16.4042,0,0.288359261196,0.298356636844,16,5,0,95.784887579552,16.076116,0,0.288359261196,0,0,0,243.1, -2.3, -0.1,0,0,1024,1024,1024,1024,0,0,0,0,253.3,0,0,94,4.089,4.075,0,0,0,0,0,71.6,95.784887579552,16.076116,6,P-GPS,
73000,2022-08-11 21:09:00,-34.9223718484753,-56.1540271243775,16.076116,16.0433076,82.759952779552,95.784887579552,16.4042,0.223694,0.37338255788,0.38359909364,16,5,0,95.784887579552,16.076116,0.223694,0.37338255788,-0.223694,0,0,243.3, -1.5, 2,0,0,1024,1024,1024,1024,0,0,0,0,253.3,0,0,94,4.089,4.075,0,0,0,0,0,71.6,95.784887579552,16.076116,6,P-GPS,
73100,2022-08-11 21:09:00,-34.9223721538021,-56.1540269704724,16.076116,16.0433076,82.759952779552,95.784887579552,16.732284,0.223694,0.4938156326,0.50413715524,16,5,0,95.784887579552,16.076116,0.223694,0.4938156326,-0.223694,0,0,243.3, -1, 3,0,0,1024,1024,1024,1024,0,0,0,0,253.3,0,0,94,4.089,4.075,0,0,0,0,0,71.6,95.784887579552,16.076116,6,P-GPS,"Setting new Return-To-Home altitude to 40m (131 ft). Data Recorder File Index is 25. Setting new Maximum Flight Altitude to 120m (394 ft)"
73200,2022-08-11 21:09:01,-34.9223723615264,-56.1540269011994,16.076116,16.0433076,82.759952779552,95.784887579552,16.732284,0.223694,75.901249148,0.58270671156,16,5,8.167,95.784887579552,16.076116,0.223694,75.901249148,-0.223694,0,0,243.4, -0.7, 3.5,0,0,1024,1024,1024,1024,0,0,0,0,253.3,0,0,94,4.098,4.083,0,0,0,0,4.444,71.6,95.784887579552,16.076116,6,P-GPS,
73300,2022-08-11 21:09:01,-34.9223725751326,-56.1540268212273,16.076116,16.0104992,82.792761179552,95.784887579552,16.732284,0,75.917325264,0.66422902388,16,5,8.167,95.784887579552,16.076116,0.223694,75.917325264,0,0,0,243.5, -0.6, 3.7,0,0,1024,1024,1024,1024,0,0,0,0,253.3,0,0,94,4.098,4.083,0,0,0,0,4.444,71.6,95.784887579552,16.076116,6,P-GPS,
73400,2022-08-11 21:09:01,-34.9223727462625,-56.1540267585368,16.076116,16.0104992,82.792761179552,95.784887579552,16.732284,0,75.930776708,0.72942259552,16,5,8.167,95.784887579552,16.076116,0.223694,75.930776708,0,0,0,243.4, -0.1, 3.5,0,0,1024,1024,1024,1024,0,0,0,0,253.3,0,0,94,4.098,4.083,0,0,0,0,4.444,71.6,95.784887579552,16.076116,6,P-GPS,
73500,2022-08-11 21:09:01,-34.9223728650347,-56.1540267534589,16.076116,16.0104992,82.792761179552,95.784887579552,16.732284,0,75.950133664,0.77278217696,16,5,8.167,95.784887579552,16.076116,0.223694,75.950133664,0,0,0,243.4, -0.6, 2.8,0,0,1024,1024,1024,1024,0,0,0,0,253.3,0,0,94,4.098,4.083,0,0,0,0,4.444,71.6,95.784887579552,16.076116,6,P-GPS,
73600,2022-08-11 21:09:01,-34.92237294036,-56.1540267651402,16.076116,16.0104992,82.792761179552,95.784887579552,16.732284,0,75.96620978,0.80048558992,16,5,8.167,95.784887579552,16.076116,0.223694,75.96620978,0,0,0,243.5, -0.7, 2.2,0,0,1024,1024,1024,1024,0,0,0,0,253.3,0,0,94,4.098,4.083,0,0,0,0,4.444,71.6,95.784887579552,16.076116,6,P-GPS,
73700,2022-08-11 21:09:01,-34.9223729909395,-56.1540267680449,16.076116,16.0104992,82.792761179552,95.784887579552,16.732284,0,75.975724216,0.81895999996,16,5,8.167,95.784887579552,16.076116,0.223694,75.975724216,0,0,0,243.4, -1.4, 1.6,0,0,1024,1024,1024,1024,0,0,0,0,253.3,0,0,94,4.098,4.083,0,0,0,0,4.444,71.6,95.784887579552,16.076116,6,P-GPS,
73800,2022-08-11 21:09:01,-34.9223730156202,-56.1540267766752,16.076116,16.0104992,82.792761179552,95.784887579552,16.732284,0,75.982285896,0.828330079,16,5,8.167,95.784887579552,16.076116,0.223694,75.982285896,0,0,0,243.4, -2, 0.5,0,0,1024,1024,1024,1024,0,0,0,0,253.3,0,0,94,4.098,4.083,0,0,0,0,4.444,71.6,95.784887579552,16.076116,6,P-GPS,
73900,2022-08-11 21:09:01,-34.9223730120246,-56.1540268123252,16.076116,16.0104992,82.792761179552,95.784887579552,16.4042,0,75.991144164,0.83907483,16,5,8.167,95.784887579552,16.076116,0.223694,75.991144164,0,0,0,243.3, -2, -0.1,0,0,1024,1024,1024,1024,0,0,0,0,253.3,0,0,94,4.098,4.083,0,0,0,0,4.444,71.6,95.784887579552,16.076116,6,P-GPS,
74000,2022-08-11 21:09:01,-34.9223729831946,-56.1540269557193,16.076116,16.0104992,82.792761179552,95.784887579552,16.4042,0,76.02362448,0.88324149808,16,5,8.167,95.784887579552,16.076116,0.223694,76.02362448,0,0,0,243, -2.5, -0.1,0,0,1024,1024,1024,1024,0,0,0,0,253.3,0,0,94,4.098,4.083,0,0,0,0,4.444,71.6,95.784887579552,16.076116,6,P-GPS,
74100,2022-08-11 21:09:01,-34.922373018597,-56.1540270439039,16.076116,16.0104992,82.792761179552,95.784887579552,16.4042,0,76.05315204,0.9126148586,16,5,8.167,95.784887579552,16.076116,0.223694,76.05315204,0,0,0,242.8, -2.5, 0,0,0,1024,1024,1024,1024,0,0,0,0,253.3,0,0,94,4.098,4.083,0,0,0,0,4.444,71.6,95.784887579552,16.076116,6,P-GPS,
74200,2022-08-11 21:09:01,-34.9223730667599,-56.1540271429757,16.076116,16.0104992,82.792761179552,95.784887579552,16.4042,0,76.08760086,0.94707024028,16,5,8.178,95.784887579552,16.076116,0.223694,76.08760086,0,0,0,242.8, -2.5, 0.4,0,0,1024,1024,1024,1024,0,0,0,0,253.3,0,0,94,4.096,4.085,0,0,0,0,4.239,71.78,95.784887579552,16.076116,6,P-GPS,
74300,2022-08-11 21:09:02,-34.9223731357212,-56.1540272689418,16.076116,16.0104992,82.792761179552,95.784887579552,16.4042,0,76.132548368,0.99237864068,16,5,8.178,95.784887579552,16.076116,0.223694,76.132548368,0,0,0,242.8, -1.9, 0,0,0,1024,1024,1024,1024,0,0,0,0,253.3,0,0,94,4.096,4.085,0,0,0,0,4.239,71.78,95.784887579552,16.076116,6,P-GPS,
74400,2022-08-11 21:09:02,-34.9223732164139,-56.1540276057986,16.076116,16.0104992,82.792761179552,95.784887579552,16.4042,0,76.23523866,1.09736223984,16,5,8.178,95.784887579552,16.076116,0.223694,76.23523866,0,0,0,242.9, -1.2, 0,0,0,1024,1024,1024,1024,0,0,0,0,253.3,0,0,94,4.096,4.085,0,0,0,0,4.239,71.78,95.784887579552,16.076116,6,P-GPS,N/A
74500,2022-08-11 21:09:02,-34.9223733422796,-56.1540277800155,16.076116,16.0104992,82.792761179552,95.784887579552,16.4042,0,76.302823964,1.16682418432,16,5,8.178,95.784887579552,16.076116,0.223694,76.302823964,0,0,0,243, -1.1, 0.1,0,0,1024,1024,1024,1024,0,0,0,0,253.3,0,0,94,4.096,4.085,0,0,0,0,4.239,71.78,95.784887579552,16.076116,6,P-GPS,
74600,2022-08-11 21:09:02,-34.9223734717213,-56.1540279327504,16.076116,16.0104992,82.792761179552,95.784887579552,16.4042,0,76.365816092,1.23253612868,16,5,8.178,95.784887579552,16.076116,0.223694,76.365816092,0,0,0,243.1, -1.2, 0.8,0,0,1024,1024,1024,1024,0,0,0,0,253.3,0,0,94,4.096,4.085,0,0,0,0,4.239,71.78,95.784887579552,16.076116,6,P-GPS,
74700,2022-08-11 21:09:02,-34.9223736014497,-56.1540279889002,16.076116,15.9776908,82.825569579552,95.784887579552,16.4042,0,76.403217668,1.2827592274,16,5,8.178,95.784887579552,16.076116,0.223694,76.403217668,0,0,0,243.2, -1.3, 1.3,0,0,1024,1024,1024,1024,0,0,0,0,253.3,0,0,94,4.096,4.085,0,0,0,0,4.239,71.78,95.784887579552,16.076116,6,P-GPS,
74800,2022-08-11 21:09:02,-34.9223736983812,-56.1540279103072,16.076116,15.9776908,82.825569579552,95.784887579552,16.4042,0,76.39928066,1.3252297012,16,5,8.178,95.784887579552,16.076116,0.223694,76.403217668,0,0,0,243.1, -1.4, 0.8,0,0,1024,1024,1024,1024,0,0,0,0,253.3,0,0,94,4.096,4.085,0,0,0,0,4.239,71.78,95.784887579552,16.076116,6,P-GPS,
74900,2022-08-11 21:09:02,-34.9223737780121,-56.15402794579,16.076116,15.9776908,82.825569579552,95.784887579552,16.4042,0,76.422574624,1.35615817988,16,5,8.178,95.784887579552,16.076116,0.223694,76.422574624,0,0,0,243.3, -1.2, 0.1,0,0,1024,1024,1024,1024,0,0,0,0,253.3,0,0,94,4.096,4.085,0,0,0,0,4.239,71.78,95.784887579552,16.076116,6,P-GPS,
75000,2022-08-11 21:09:02,-34.9223738590044,-56.1540279629045,16.076116,15.9776908,82.825569579552,95.784887579552,16.4042,0,76.441275412,1.38614833832,16,5,8.178,95.784887579552,16.076116,0.223694,76.441275412,0,0,0,243.3, -1.3, 0,0,0,1024,1024,1024,1024,0,0,0,0,253.3,0,0,94,4.096,4.085,0,0,0,0,4.239,71.78,95.784887579552,16.076116,6,P-GPS,"Se detectó tarjeta SD de baja velocidad"
75100,2022-08-11 21:09:02,-34.9223739712498,-56.1540278811143,15.748032,15.6496068,82.825569579552,95.456803579552,16.4042,0,76.439634992,1.43385503276,16,5,8.178,95.784887579552,16.076116,0.223694,76.441275412,0,0,0,243.3, -1.5, 0,0,0,1024,1024,1024,1024,0,0,0,0,253.3,0,0,94,4.096,4.085,0,0,0,0,4.239,71.78,95.456803579552,15.748032,6,P-GPS,"Se detectó tarjeta SD de baja velocidad"
75200,2022-08-11 21:09:03,-34.9223740873513,-56.1540277968374,15.748032,15.6496068,82.825569579552,95.456803579552,16.4042,0,76.437994572,1.48314965376,16,5,8.192,95.784887579552,16.076116,0.223694,76.441275412,0,0,0,243.4, -1.2, 0.1,0,0,1024,1024,1024,1024,0,0,0,0,253.3,0,0,94,4.105,4.089,0,0,0,0,4.068,71.78,95.456803579552,15.748032,6,P-GPS,
75300,2022-08-11 21:09:03,-34.9223740582282,-56.1540274180615,15.748032,15.6496068,82.825569579552,95.456803579552,16.4042,0,76.333335776,1.59695871252,16,5,8.192,95.784887579552,16.076116,0.223694,76.441275412,0,0,0,243.3, -1.4, 0.8,0,0,1024,1024,1024,1024,0,0,0,0,253.3,0,0,94,4.105,4.089,0,0,0,0,4.068,71.78,95.456803579552,15.748032,6,P-GPS,
75400,2022-08-11 21:09:03,-34.9223741414091,-56.1540273547442,15.748032,15.6496068,82.825569579552,95.456803579552,16.4042,0,76.331367272,1.63273299188,16,5,8.192,95.784887579552,16.076116,0.223694,76.441275412,0,0,0,243.4, -1.2, 0.8,0,0,1024,1024,1024,1024,0,0,0,0,253.3,0,0,94,4.105,4.089,0,0,0,0,4.068,71.78,95.456803579552,15.748032,6,P-GPS,
75500,2022-08-11 21:09:03,-34.9223742253391,-56.1540272631116,15.748032,15.6496068,82.825569579552,95.456803579552,16.4042,0,76.32218092,1.67383207456,16,5,8.192,95.784887579552,16.076116,0.223694,76.441275412,0,0,0,243.3, -1.2, 0.8,0,0,1024,1024,1024,1024,0,0,0,0,253.3,0,0,94,4.105,4.089,0,0,0,0,4.068,71.78,95.456803579552,15.748032,6,P-GPS,
75600,2022-08-11 21:09:03,-34.9223742953297,-56.1540271667145,15.748032,15.6496068,82.825569579552,95.456803579552,16.4042,0,76.309385644,1.71234913616,16,5,8.192,95.784887579552,16.076116,0.223694,76.441275412,0,0,0,243.2, -1.7, 0.6,0,0,1024,1024,1024,1024,0,0,0,0,253.3,0,0,94,4.105,4.089,0,0,0,0,4.068,71.78,95.456803579552,15.748032,6,P-GPS,
75700,2022-08-11 21:09:03,-34.9223741071402,-56.1540267676896,15.748032,15.6496068,82.825569579552,95.456803579552,16.4042,0,76.171590364,1.85005583348,16,5,8.192,95.784887579552,16.076116,0.223694,76.441275412,0,0,0,243.2, -1.5, 0.5,0,0,1024,1024,1024,1024,0,0,0,0,253.3,0,0,94,4.105,4.089,0,0,0,0,4.068,71.78,95.456803579552,15.748032,6,P-GPS,
75800,2022-08-11 21:09:03,-34.9223741411812,-56.1540266526526,15.748032,15.6496068,82.825569579552,95.456803579552,16.4042,0,76.147640232,1.88664376116,16,5,8.192,95.784887579552,16.076116,0.223694,76.441275412,0,0,0,243.2, -1.1, 0.9,0,0,1024,1024,1024,1024,0,0,0,0,253.3,0,0,94,4.105,4.089,0,0,0,0,4.068,71.78,95.456803579552,15.748032,6,P-GPS,
75900,2022-08-11 21:09:03,-34.9223742401515,-56.1540266303766,15.748032,15.6496068,82.825569579552,95.456803579552,16.4042,0,76.159123172,1.9233596416,16,5,8.192,95.784887579552,16.076116,0.223694,76.441275412,0,0,0,243.3, -0.8, 1.3,0,0,1024,1024,1024,1024,0,0,0,0,253.3,0,0,94,4.105,4.089,0,0,0,0,4.068,71.78,95.456803579552,15.748032,6,P-GPS,
76000,2022-08-11 21:09:03,-34.9223743259705,-56.1540266067213,15.748032,15.6496068,82.825569579552,95.456803579552,16.4042,0,76.16798144,1.955462661,16,5,8.192,95.784887579552,16.076116,0.223694,76.441275412,0,0,0,243.3, -0.8, 0.7,0,0,1024,1024,1024,1024,0,0,0,0,253.3,0,0,94,4.105,4.089,0,0,0,0,4.068,71.78,95.456803579552,15.748032,6,P-GPS,
76100,2022-08-11 21:09:03,-34.9223743452578,-56.1540266640622,15.748032,15.6496068,82.825569579552,95.456803579552,16.732284,0,76.186354144,1.97400268784,16,5,8.192,95.784887579552,16.076116,0.223694,76.441275412,0,0,0,243.2, -1.1, 1.1,0,0,1024,1024,1024,1024,0,0,0,0,253.3,0,0,94,4.105,4.089,0,0,0,0,4.068,71.78,95.456803579552,15.748032,6,P-GPS,
76200,2022-08-11 21:09:04,-34.9223744005597,-56.1540266160831,15.748032,15.6496068,82.825569579552,95.456803579552,16.4042,0,76.183729472,1.99876318732,16,5,8.189,95.784887579552,16.076116,0.223694,76.441275412,0,0,0,243.1, -1.1, 0.8,0,0,1024,1024,1024,1024,0,0,0,0,253.3,0,0,94,4.1,4.085,0,0,0,0,4.078,71.96,95.456803579552,15.748032,6,P-GPS,
76300,2022-08-11 21:09:04,-34.9223744520381,-56.1540265920518,15.748032,15.6496068,82.825569579552,95.456803579552,16.4042,0,76.186354144,2.01887473652,16,5,8.189,95.784887579552,16.076116,0.223694,76.441275412,0,0,0,243.3, -1, 1,0,0,1024,1024,1024,1024,0,0,0,0,253.3,0,0,94,4.1,4.085,0,0,0,0,4.078,71.96,95.456803579552,15.748032,6,P-GPS,
76400,2022-08-11 21:09:04,-34.9223745116782,-56.1540265589094,15.748032,15.6167984,82.858377979552,95.456803579552,16.4042,0,76.188322648,2.04278549844,16,5,8.189,95.784887579552,16.076116,0.223694,76.441275412,0,0,0,243.4, -1.6, 1.9,0,0,1024,1024,1024,1024,0,0,0,0,253.3,0,0,94,4.1,4.085,0,0,0,0,4.078,71.96,95.456803579552,15.748032,6,P-GPS,"Baja velocidad de la tarjeta SD. Puede afectar a su uso normal. Sustituye la tarjeta SD (Code: 10028)"
76500,2022-08-11 21:09:04,-34.9223745874725,-56.1540265662024,15.748032,15.6167984,82.858377979552,95.456803579552,16.4042,0,76.203742596,2.07052500064,16,5,8.189,95.784887579552,16.076116,0.223694,76.441275412,0,0,0,243.2, -1.9, 2.1,0,0,1024,1024,1024,1024,0,0,0,0,253.3,0,0,94,4.1,4.085,0,0,0,0,4.078,71.96,95.456803579552,15.748032,6,P-GPS,
76600,2022-08-11 21:09:04,-34.9223746839025,-56.1540265102407,15.748032,15.6167984,82.858377979552,95.456803579552,16.732284,0,76.206039184,2.10948825648,16,5,8.189,95.784887579552,16.076116,0.223694,76.441275412,0,0,0,243.3, -1.1, 2.2,0,0,1024,1024,1024,1024,0,0,0,0,253.3,0,0,94,4.1,4.085,0,0,0,0,4.078,71.96,95.456803579552,15.748032,6,P-GPS,
76700,2022-08-11 21:09:04,-34.9223747984146,-56.1540264512908,15.748032,15.58399,82.891186379552,95.456803579552,16.732284,0,76.210960444,2.15483602696,16,5,8.189,95.784887579552,16.076116,0.223694,76.441275412,0,0,0,243.2, -0.7, 2,0,0,1024,1024,1024,1024,0,0,0,0,253.3,0,0,94,4.1,4.085,0,0,0,0,4.078,71.96,95.456803579552,15.748032,6,P-GPS,
76800,2022-08-11 21:09:04,-34.9223749027979,-56.1540263911497,15.748032,15.58399,82.891186379552,95.456803579552,16.732284,0,76.2139132,2.19695545088,16,5,8.189,95.784887579552,16.076116,0.223694,76.441275412,0,0,0,243.2, -1.1, 1.9,0,0,1024,1024,1024,1024,0,0,0,0,253.3,0,0,94,4.1,4.085,0,0,0,0,4.078,71.96,95.456803579552,15.748032,6,P-GPS,
76900,2022-08-11 21:09:04,-34.9223750480486,-56.154026380346,15.748032,15.58399,82.891186379552,95.456803579552,16.4042,0,76.23687908,2.2500492846,16,5,8.189,95.784887579552,16.076116,0.223694,76.441275412,0,0,0,243.2, -1.5, 2.1,0,0,1024,1024,1024,1024,0,0,0,0,253.3,0,0,94,4.1,4.085,0,0,0,0,4.078,71.96,95.456803579552,15.748032,6,P-GPS,
77000,2022-08-11 21:09:04,-34.9223753428751,-56.154026470892,15.748032,15.58399,82.891186379552,95.456803579552,16.4042,0,76.312994568,2.360974485,17,5,8.189,95.784887579552,16.076116,0.223694,76.441275412,0,0,0,243.3, -1.4, 1.8,0,0,1024,1024,1024,1024,0,0,0,0,253.3,0,0,94,4.1,4.085,0,0,0,0,4.078,71.96,95.456803579552,15.748032,6,P-GPS,
77100,2022-08-11 21:09:04,-34.9223754334817,-56.1540264841615,15.419948,15.255906,82.891186379552,95.128719579552,16.4042,0,76.332351524,2.39427173016,17,5,8.189,95.784887579552,16.076116,0.223694,76.441275412,0,0,0,243.2, -1.5, 2.1,0,0,1024,1024,1024,1024,0,0,0,0,253.3,0,0,94,4.1,4.085,0,0,0,0,4.078,71.96,95.128719579552,15.419948,6,P-GPS,
77200,2022-08-11 21:09:05,-34.9223755166431,-56.1540265036582,15.748032,15.58399,82.891186379552,95.456803579552,16.4042,0,76.352364648,2.42516740044,17,5,8.18,95.784887579552,16.076116,0.223694,76.441275412,0,0,0,243.1, -1.2, 2.1,0,0,1024,1024,1024,1024,0,0,0,0,253.3,0,0,94,4.099,4.084,0,0,0,0,4.196,71.96,95.456803579552,15.748032,6,P-GPS,
77300,2022-08-11 21:09:05,-34.9223755807517,-56.1540265163635,15.419948,15.255906,82.891186379552,95.128719579552,16.4042,0,76.367128428,2.44886490776,17,5,8.18,95.784887579552,16.076116,0.223694,76.441275412,0,0,0,243.1, -1.4, 1.8,0,0,1024,1024,1024,1024,0,0,0,0,253.3,0,0,94,4.099,4.084,0,0,0,0,4.196,71.96,95.128719579552,15.419948,6,P-GPS,
77400,2022-08-11 21:09:05,-34.9223756343992,-56.1540266762242,15.419948,15.255906,82.891186379552,95.128719579552,16.4042,0,76.418309532,2.50053813776,17,5,8.18,95.784887579552,16.076116,0.223694,76.441275412,0,0,0,243, -1.2, 1.5,0,0,1024,1024,1024,1024,0,0,0,0,253.3,0,0,94,4.099,4.084,0,0,0,0,4.196,71.96,95.128719579552,15.419948,6,P-GPS,
77500,2022-08-11 21:09:05,-34.9223757100958,-56.1540266900997,15.748032,15.58399,82.891186379552,95.456803579552,16.4042,0,76.435697984,2.52846464784,17,5,8.18,95.784887579552,16.076116,0.223694,76.441275412,0,0,0,243.1, -1.8, 1.6,0,0,1024,1024,1024,1024,0,0,0,0,253.3,0,0,94,4.099,4.084,0,0,0,0,4.196,71.96,95.456803579552,15.748032,6,P-GPS,
77600,2022-08-11 21:09:05,-34.9223757803338,-56.1540267049991,15.419948,15.255906,82.891186379552,95.128719579552,16.4042,0,76.452102184,2.55447514736,17,5,8.18,95.784887579552,16.076116,0.223694,76.452102184,0,0,0,243.3, -1.4, 1.9,0,0,1024,1024,1024,1024,0,0,0,0,253.3,0,0,94,4.099,4.084,0,0,0,0,4.196,71.96,95.128719579552,15.419948,6,P-GPS,
77700,2022-08-11 21:09:05,-34.9223758143031,-56.1540267196478,15.419948,15.255906,82.891186379552,95.128719579552,16.4042,0,76.461944704,2.56762147324,17,5,8.18,95.784887579552,16.076116,0.223694,76.461944704,0,0,0,243.2, -1.7, 1.5,0,0,1024,1024,1024,1024,0,0,0,0,253.3,0,0,94,4.099,4.084,0,0,0,0,4.196,71.96,95.128719579552,15.419948,6,P-GPS,
77800,2022-08-11 21:09:05,-34.9223757978103,-56.1540268079369,15.419948,15.255906,82.891186379552,95.128719579552,16.4042,0,76.481957828,2.59471136912,17,5,8.18,95.784887579552,16.076116,0.223694,76.481957828,0,0,0,243.2, -1.6, 1.4,0,0,1024,1024,1024,1024,0,0,0,0,253.3,0,0,94,4.099,4.084,0,0,0,0,4.196,71.96,95.128719579552,15.419948,6,P-GPS,
77900,2022-08-11 21:09:05,-34.9223758403452,-56.1540269176243,15.419948,15.255906,82.891186379552,95.128719579552,16.4042,0,76.518047068,2.63100730204,17,5,8.18,95.784887579552,16.076116,0.223694,76.518047068,0,0,0,243.2, -1.5, 1.4,0,0,1024,1024,1024,1024,0,0,0,0,253.3,0,0,94,4.099,4.084,0,0,0,0,4.196,71.96,95.128719579552,15.419948,6,P-GPS,
78000,2022-08-11 21:09:05,-34.9223758909833,-56.1540270202696,15.748032,15.58399,82.891186379552,95.456803579552,16.4042,0,76.554136308,2.66684391736,17,5,8.18,95.784887579552,16.076116,0.223694,76.554136308,0,0,0,243.2, -1.4, 1.2,0,0,1024,1024,1024,1024,0,0,0,0,253.3,0,0,94,4.099,4.084,0,0,0,0,4.196,71.96,95.456803579552,15.748032,6,P-GPS,
78100,2022-08-11 21:09:05,-34.9223759686796,-56.1540271041285,15.748032,15.58399,82.891186379552,95.456803579552,16.4042,0,76.589897464,2.70469824928,17,5,8.18,95.784887579552,16.076116,0.223694,76.589897464,0,0,0,243.2, -1, 1.9,0,0,1024,1024,1024,1024,0,0,0,0,253.3,0,0,94,4.099,4.084,0,0,0,0,4.196,71.96,95.456803579552,15.748032,6,P-GPS,
78200,2022-08-11 21:09:06,-34.9223759999327,-56.1540273876776,15.748032,15.58399,82.891186379552,95.456803579552,16.4042,0,76.669293792,2.79028552236,17,5,8.184,95.784887579552,16.076116,0.223694,76.669293792,0,0,0,243.2, -1.2, 1.7,0,0,1024,1024,1024,1024,0,0,0,0,253.3,0,0,94,4.095,4.081,0,0,0,0,4.174,71.96,95.456803579552,15.748032,6,P-GPS,
78300,2022-08-11 21:09:06,-34.922376081876,-56.1540274440154,15.419948,15.255906,82.891186379552,95.128719579552,16.4042,0,76.698493268,2.8246063896,17,5,8.184,95.784887579552,16.076116,0.223694,76.698493268,0,0,0,243.4, -1.4, 1.9,0,0,1024,1024,1024,1024,0,0,0,0,253.3,0,0,94,4.095,4.081,0,0,0,0,4.174,71.96,95.128719579552,15.419948,6,P-GPS,
78400,2022-08-11 21:09:06,-34.9223761565956,-56.1540274941051,15.419948,15.255906,82.891186379552,95.128719579552,16.4042,0,76.725068072,2.85571203364,17,5,8.184,95.784887579552,16.076116,0.223694,76.725068072,0,0,0,243.5, -1.1, 2.5,0,0,1024,1024,1024,1024,0,0,0,0,253.3,0,0,94,4.095,4.081,0,0,0,0,4.174,71.96,95.128719579552,15.419948,6,P-GPS,
78500,2022-08-11 21:09:06,-34.9223761683594,-56.154027489466,15.419948,15.255906,82.891186379552,95.128719579552,16.4042,0,76.726052324,2.86022318864,17,5,8.184,95.784887579552,16.076116,0.223694,76.726052324,0,0,0,243.3, -1.5, 2,0,0,1024,1024,1024,1024,0,0,0,0,253.3,0,0,94,4.095,4.081,0,0,0,0,4.174,71.96,95.128719579552,15.419948,6,P-GPS,
78600,2022-08-11 21:09:06,-34.9223761784102,-56.1540274888182,15.419948,15.255906,82.891186379552,95.128719579552,16.4042,0,76.727692744,2.86389772944,17,5,8.184,95.784887579552,16.076116,0.223694,76.727692744,0,0,0,243.3, -1, 2.1,0,0,1024,1024,1024,1024,0,0,0,0,253.3,0,0,94,4.095,4.081,0,0,0,0,4.174,71.96,95.128719579552,15.419948,6,P-GPS,
78700,2022-08-11 21:09:06,-34.9223760821822,-56.1540275929262,15.419948,15.255906,82.891186379552,95.128719579552,16.4042,0,76.737535264,2.9108268648,17,5,8.184,95.784887579552,16.076116,0.223694,76.737535264,0,0,0,243.4, -0.6, 2.4,0,0,1024,1024,1024,1024,0,0,0,0,253.3,0,0,94,4.095,4.081,0,0,0,0,4.174,71.96,95.128719579552,15.419948,6,P-GPS,
78800,2022-08-11 21:09:06,-34.9223761022381,-56.1540276649367,15.419948,15.255906,82.891186379552,95.128719579552,16.4042,0,76.759844976,2.9335794902,17,5,8.184,95.784887579552,16.076116,0.223694,76.759844976,0,0,0,243.4, -0.7, 2.6,0,0,1024,1024,1024,1024,0,0,0,0,253.3,0,0,94,4.095,4.081,0,0,0,0,4.174,71.96,95.128719579552,15.419948,6,P-GPS,
78900,2022-08-11 21:09:06,-34.9223761257789,-56.1540276635366,15.419948,15.255906,82.891186379552,95.128719579552,16.4042,0,76.763781984,2.94217857184,17,5,8.184,95.784887579552,16.076116,0.223694,76.763781984,0,0,0,243, -1.3, 2.3,0,0,1024,1024,1024,1024,0,0,0,0,253.3,0,0,94,4.095,4.081,0,0,0,0,4.174,71.96,95.128719579552,15.419948,6,P-GPS,
79000,2022-08-11 21:09:06,-34.9223761490331,-56.1540276532553,15.419948,15.255906,82.891186379552,95.128719579552,16.4042,0,76.76509432,2.95120088184,17,5,8.184,95.784887579552,16.076116,0.223694,76.76509432,0,0,0,243.1, -1.7, 3,0,0,1024,1024,1024,1024,0,0,0,0,253.3,0,0,94,4.095,4.081,0,0,0,0,4.174,71.96,95.128719579552,15.419948,6,P-GPS,
79100,2022-08-11 21:09:06,-34.9223761762672,-56.1540274480067,15.419948,15.255906,82.891186379552,95.128719579552,16.732284,0,76.716537888,3.0134023274,17,5,8.184,95.784887579552,16.076116,0.223694,76.76509432,0,0,0,243.2, -2, 2.8,0,0,1024,1024,1024,1024,0,0,0,0,253.3,0,0,94,4.095,4.081,0,0,0,0,4.174,71.96,95.128719579552,15.419948,6,P-GPS,
79200,2022-08-11 21:09:07,-34.922376220867,-56.1540274308504,15.419948,15.255906,82.891186379552,95.128719579552,16.732284,0,76.720146812,3.0304626954,18,5,8.178,95.784887579552,16.076116,0.223694,76.76509432,0,0,0,243.3, -1.3, 3.3,0,0,1024,1024,1024,1024,0,0,0,0,253.3,0,0,94,4.094,4.079,0,0,0,0,4.221,72.14,95.128719579552,15.419948,6,P-GPS,
79300,2022-08-11 21:09:07,-34.922376315447,-56.1540274006545,15.419948,15.255906,82.891186379552,95.128719579552,16.732284,0,76.72900508,3.06613198788,18,5,8.178,95.784887579552,16.076116,0.223694,76.76509432,0,0,0,243.3, -0.9, 2.6,0,0,1024,1024,1024,1024,0,0,0,0,253.3,0,0,94,4.094,4.079,0,0,0,0,4.221,72.14,95.128719579552,15.419948,6,P-GPS,
79400,2022-08-11 21:09:07,-34.9223763917689,-56.1540273948034,15.419948,15.255906,82.891186379552,95.128719579552,16.732284,0,76.741144188,3.09403553208,17,5,8.178,95.784887579552,16.076116,0.223694,76.76509432,0,0,0,243.1, -0.7, 1.4,0,0,1024,1024,1024,1024,0,0,0,0,253.3,0,0,94,4.094,4.079,0,0,0,0,4.221,72.14,95.128719579552,15.419948,6,P-GPS,
79500,2022-08-11 21:09:07,-34.9223765895793,-56.1540273572936,15.419948,15.2230976,82.923994779552,95.128719579552,16.732284,0,76.76673474,3.16707359216,17,5,8.178,95.784887579552,16.076116,0.223694,76.76673474,0,0,0,243.1, -0.3, 1.3,0,0,1024,1024,1024,1024,0,0,0,0,253.3,0,0,94,4.094,4.079,0,0,0,0,4.221,72.14,95.128719579552,15.419948,6,P-GPS,
79600,2022-08-11 21:09:07,-34.9223766732357,-56.154027423432,15.419948,15.2230976,82.923994779552,95.128719579552,16.732284,0,76.798886972,3.2034449844,17,5,8.178,95.784887579552,16.076116,0.223694,76.798886972,0,0,0,243.1, 0.5, 1.8,0,0,1024,1024,1024,1024,0,0,0,0,253.3,0,0,94,4.094,4.079,0,0,0,0,4.221,72.14,95.128719579552,15.419948,6,P-GPS,
79700,2022-08-11 21:09:07,-34.9223767954667,-56.1540275021713,15.419948,15.2230976,82.923994779552,95.128719579552,16.732284,0,76.841537892,3.25388133772,17,5,8.178,95.784887579552,16.076116,0.223694,76.841537892,0,0,0,243.2, 0.9, 2.6,0,0,1024,1024,1024,1024,0,0,0,0,253.3,0,0,94,4.094,4.079,0,0,0,0,4.221,72.14,95.128719579552,15.419948,6,P-GPS,
79800,2022-08-11 21:09:07,-34.9223768998174,-56.154027572719,15.419948,15.2230976,82.923994779552,95.128719579552,16.732284,0,76.878611384,3.297408242,17,5,8.178,95.784887579552,16.076116,0.223694,76.878611384,0,0,0,243.1, 0.8, 2.1,0,0,1024,1024,1024,1024,0,0,0,0,253.3,0,0,94,4.094,4.079,0,0,0,0,4.221,72.14,95.128719579552,15.419948,6,P-GPS,
79900,2022-08-11 21:09:07,-34.9223770178405,-56.1540275818718,15.419948,15.2230976,82.923994779552,95.128719579552,16.732284,0,76.902233432,3.340551288,17,5,8.178,95.784887579552,16.076116,0.223694,76.902233432,0,0,0,243.2, 1.5, 1.9,0,0,1024,1024,1024,1024,0,0,0,0,253.3,0,0,94,4.094,4.079,0,0,0,0,4.221,72.14,95.128719579552,15.419948,6,P-GPS,
80000,2022-08-11 21:09:07,-34.922377071755,-56.1540275791343,15.419948,15.2230976,82.923994779552,95.128719579552,16.732284,0,76.9110917,3.360236328,17,5,8.178,95.784887579552,16.076116,0.223694,76.9110917,0,0,0,243.2, 0.7, 2.3,0,0,1024,1024,1024,1024,0,0,0,0,253.3,0,0,94,4.094,4.079,0,0,0,0,4.221,72.14,95.128719579552,15.419948,6,P-GPS,
80100,2022-08-11 21:09:07,-34.9223771469175,-56.1540275630019,15.419948,15.2230976,82.923994779552,95.128719579552,16.732284,0,76.920278052,3.3880906596,17,5,8.178,95.784887579552,16.076116,0.223694,76.920278052,0,0,0,243.1, 0, 1.8,0,0,1024,1024,1024,1024,0,0,0,0,253.3,0,0,94,4.094,4.079,0,0,0,0,4.221,72.14,95.128719579552,15.419948,6,P-GPS,
80200,2022-08-11 21:09:07,-34.9223772115146,-56.1540275447381,15.419948,15.2230976,82.923994779552,95.128719579552,16.732284,0,76.927167816,3.4122704504,17,5,8.178,95.784887579552,16.076116,0.223694,76.927167816,0,0,0,243.2, -0.5, 1.3,0,0,1024,1024,1024,1024,0,0,0,0,253.3,0,0,94,4.087,4.072,0,0,0,0,4.287,72.14,95.128719579552,15.419948,6,P-GPS,
80300,2022-08-11 21:09:08,-34.9223772856023,-56.1540275800329,15.419948,15.2230976,82.923994779552,95.128719579552,16.732284,0,76.949805612,3.4413058844,17,5,8.178,95.784887579552,16.076116,0.223694,76.949805612,0,0,0,243.3, -0.2, 1.6,0,0,1024,1024,1024,1024,0,0,0,0,253.3,0,0,94,4.087,4.072,0,0,0,0,4.287,72.14,95.128719579552,15.419948,6,P-GPS,
80400,2022-08-11 21:09:08,-34.9223773888001,-56.1540276667965,15.419948,15.2230976,82.923994779552,95.128719579552,16.732284,0,76.990816112,3.487040794,17,5,8.178,95.784887579552,16.076116,0.223694,76.990816112,0,0,0,243.3, -0.1, 1.1,0,0,1024,1024,1024,1024,0,0,0,0,253.3,0,0,94,4.087,4.072,0,0,0,0,4.287,72.14,95.128719579552,15.419948,6,P-GPS,
80500,2022-08-11 21:09:08,-34.9223773898162,-56.1540276915801,15.419948,15.2230976,82.923994779552,95.128719579552,16.732284,0,76.997705876,3.4944554924,17,5,8.178,95.784887579552,16.076116,0.223694,76.997705876,0,0,0,243.1, -0.1, 1.2,0,0,1024,1024,1024,1024,0,0,0,0,253.3,0,0,94,4.087,4.072,0,0,0,0,4.287,72.14,95.128719579552,15.419948,6,P-GPS,
80600,2022-08-11 21:09:08,-34.9223774020621,-56.1540277160503,15.419948,15.2230976,82.923994779552,95.128719579552,16.732284,0,77.00623606,3.5030184848,17,5,8.178,95.784887579552,16.076116,0.223694,77.00623606,0,0,0,243.1, 0.1, 1.6,0,0,1024,1024,1024,1024,0,0,0,0,253.3,0,0,94,4.087,4.072,0,0,0,0,4.287,72.14,95.128719579552,15.419948,6,P-GPS,
80700,2022-08-11 21:09:08,-34.922377435341,-56.1540277294034,15.419948,15.2230976,82.923994779552,95.128719579552,16.732284,0,77.015750496,3.5158137608,17,5,8.178,95.784887579552,16.076116,0.223694,77.015750496,0,0,0,243.2, 0.7, 1.9,0,0,1024,1024,1024,1024,0,0,0,0,253.3,0,0,94,4.087,4.072,0,0,0,0,4.287,72.14,95.128719579552,15.419948,6,P-GPS,
80800,2022-08-11 21:09:08,-34.9223772961546,-56.1540277777377,15.419948,15.2230976,82.923994779552,95.128719579552,16.732284,0,77.003283304,3.5686024764,17,5,8.178,95.784887579552,16.076116,0.223694,77.015750496,0,0,0,243.1, 0.8, 1.8,0,0,1024,1024,1024,1024,0,0,0,0,253.3,0,0,94,4.087,4.072,0,0,0,0,4.287,72.14,95.128719579552,15.419948,6,P-GPS,
80900,2022-08-11 21:09:08,-34.9223773915228,-56.1540278457778,15.419948,15.2230976,82.923994779552,95.128719579552,16.732284,0,77.038060208,3.608924,17,5,8.178,95.784887579552,16.076116,0.223694,77.038060208,0,0,0,243.1, 1.2, 1.8,0,0,1024,1024,1024,1024,0,0,0,0,253.3,0,0,94,4.087,4.072,0,0,0,0,4.287,72.14,95.128719579552,15.419948,6,P-GPS,
81000,2022-08-11 21:09:08,-34.9223774828199,-56.1540279124178,15.419948,15.2230976,82.923994779552,95.128719579552,16.732284,0,77.07185286,3.6477363372,17,5,8.178,95.784887579552,16.076116,0.223694,77.07185286,0,0,0,243.2, 1.7, 1.7,0,0,1024,1024,1024,1024,0,0,0,0,253.3,0,0,94,4.087,4.072,0,0,0,0,4.287,72.14,95.128719579552,15.419948,6,P-GPS,
81100,2022-08-11 21:09:08,-34.92237757058,-56.1540279737291,15.419948,15.1902892,82.956803179552,95.128719579552,16.4042,0,77.103677008,3.6846457872,17,5,8.178,95.784887579552,16.076116,0.223694,77.103677008,0,0,0,243.3, 1.6, 1.8,0,0,1024,1024,1024,1024,0,0,0,0,253.3,0,0,94,4.087,4.072,0,0,0,0,4.287,72.14,95.128719579552,15.419948,6,P-GPS,
81200,2022-08-11 21:09:08,-34.922377683594,-56.1540281072389,15.748032,15.5183732,82.956803179552,95.456803579552,16.4042,0,77.15879512,3.7420604872,17,5,8.162,95.784887579552,16.076116,0.223694,77.15879512,0,0,0,243.4, 1.3, 1.9,0,0,1024,1024,1024,1024,0,0,0,0,253.3,0,0,94,4.087,4.069,0,0,0,0,4.515,72.14,95.456803579552,15.748032,6,P-GPS,
81300,2022-08-11 21:09:09,-34.9223777257902,-56.1540280398466,15.748032,15.5183732,82.956803179552,95.456803579552,16.4042,0,77.148624516,3.7674213804,17,5,8.162,95.784887579552,16.076116,0.223694,77.15879512,0,0,0,243.1, 0.4, 1.6,0,0,1024,1024,1024,1024,0,0,0,0,253.3,0,0,94,4.087,4.069,0,0,0,0,4.515,72.14,95.456803579552,15.748032,6,P-GPS,
81400,2022-08-11 21:09:09,-34.9223777687095,-56.1540279436585,15.748032,15.5183732,82.956803179552,95.456803579552,16.4042,0,77.131564148,3.8001641636,17,5,8.162,95.784887579552,16.076116,0.223694,77.15879512,0,0,0,243, -0.4, 2,0,0,1024,1024,1024,1024,0,0,0,0,253.3,0,0,94,4.087,4.069,0,0,0,0,4.515,72.14,95.456803579552,15.748032,6,P-GPS,
81500,2022-08-11 21:09:09,-34.9223778187158,-56.1540278172327,15.748032,15.5183732,82.956803179552,95.456803579552,16.732284,0,77.107614016,3.8421589156,17,5,8.162,95.784887579552,16.076116,0.223694,77.15879512,0,0,0,243.1, -0.3, 2.6,0,0,1024,1024,1024,1024,0,0,0,0,253.3,0,0,94,4.087,4.069,0,0,0,0,4.515,72.14,95.456803579552,15.748032,6,P-GPS,
81600,2022-08-11 21:09:09,-34.9223776850596,-56.1540274831134,15.748032,15.4855648,82.989611579552,95.456803579552,16.732284,0,76.996721624,3.9533793916,17,5,8.162,95.784887579552,16.076116,0.223694,77.15879512,0,0,0,243.4, -0.3, 2.8,0,0,1024,1024,1024,1024,0,0,0,0,253.3,0,0,94,4.087,4.069,0,0,0,0,4.515,72.14,95.456803579552,15.748032,6,P-GPS,
81700,2022-08-11 21:09:09,-34.9223776989991,-56.154027349311,15.748032,15.4855648,82.989611579552,95.456803579552,16.732284,0,76.964241308,3.9937337236,17,5,8.162,95.784887579552,16.076116,0.223694,77.15879512,0,0,0,243.3, -0.6, 2.7,0,0,1024,1024,1024,1024,0,0,0,0,253.3,0,0,94,4.087,4.069,0,0,0,0,4.515,72.14,95.456803579552,15.748032,6,P-GPS,
81800,2022-08-11 21:09:09,-34.9223777204359,-56.1540272241599,15.748032,15.4855648,82.989611579552,95.456803579552,16.732284,0,76.935698,4.031988318,17,5,8.162,95.784887579552,16.076116,0.223694,77.15879512,0,0,0,243.3, 0.2, 3.4,0,0,1024,1024,1024,1024,0,0,0,0,253.3,0,0,94,4.087,4.069,0,0,0,0,4.515,72.14,95.456803579552,15.748032,6,P-GPS,
81900,2022-08-11 21:09:09,-34.9223777844468,-56.1540270678098,15.748032,15.4855648,82.989611579552,95.456803579552,16.732284,0,76.906498524,4.0842520992,17,5,8.162,95.784887579552,16.076116,0.223694,77.15879512,0,0,0,243.2, 0.1, 3.1,0,0,1024,1024,1024,1024,0,0,0,0,253.3,0,0,94,4.087,4.069,0,0,0,0,4.515,72.14,95.456803579552,15.748032,6,P-GPS,
82000,2022-08-11 21:09:09,-34.9223778389606,-56.1540269289086,15.748032,15.4855648,82.989611579552,95.456803579552,16.732284,0,76.880251804,4.1303150928,17,5,8.162,95.784887579552,16.076116,0.223694,77.15879512,0,0,0,243.2, 1, 2.6,0,0,1024,1024,1024,1024,0,0,0,0,253.3,0,0,94,4.087,4.069,0,0,0,0,4.515,72.14,95.456803579552,15.748032,6,P-GPS,
82100,2022-08-11 21:09:09,-34.9223777736079,-56.1540267446613,15.748032,15.4855648,82.989611579552,95.456803579552,16.732284,0,76.8208686,4.1903872732,17,5,8.162,95.784887579552,16.076116,0.223694,77.15879512,0,0,0,243.2, 0.3, 3.1,0,0,1024,1024,1024,1024,0,0,0,0,253.3,0,0,94,4.087,4.069,0,0,0,0,4.515,72.14,95.456803579552,15.748032,6,P-GPS,
82200,2022-08-11 21:09:10,-34.9223777706637,-56.1540266552856,15.748032,15.4855648,82.989611579552,95.456803579552,16.732284,0,76.796918468,4.2171261192,17,5,8.167,95.784887579552,16.076116,0.223694,77.15879512,0,0,0,243.3, 0.9, 3.3,0,0,1024,1024,1024,1024,0,0,0,0,253.3,0,0,94,4.093,4.079,0,0,0,0,4.403,72.32,95.456803579552,15.748032,6,P-GPS,
82300,2022-08-11 21:09:10,-34.92237778005,-56.1540265418367,15.748032,15.4855648,82.989611579552,95.456803579552,16.732284,0,76.769359412,4.2512468552,17,5,8.167,95.784887579552,16.076116,0.223694,77.15879512,0,0,0,243.3, 0, 3.1,0,0,1024,1024,1024,1024,0,0,0,0,253.3,0,0,94,4.093,4.079,0,0,0,0,4.403,72.32,95.456803579552,15.748032,6,P-GPS,
82400,2022-08-11 21:09:10,-34.9223777835218,-56.15402642471,15.748032,15.4855648,82.989611579552,95.456803579552,16.732284,0,76.739503768,4.2863190348,17,5,8.167,95.784887579552,16.076116,0.223694,77.15879512,0,0,0,243.3, -0.5, 3.1,0,0,1024,1024,1024,1024,0,0,0,0,253.3,0,0,94,4.093,4.079,0,0,0,0,4.403,72.32,95.456803579552,15.748032,6,P-GPS,
82500,2022-08-11 21:09:10,-34.9223778123127,-56.1540263829163,16.076116,15.8136488,82.989611579552,95.784887579552,16.732284,0,76.73392634,4.3026248096,17,5,8.167,95.784887579552,16.076116,0.223694,77.15879512,0,0,0,243.1, -0.6, 3,0,1,1024,1024,1024,1024,0,0,0,0,253.3,0,0,94,4.093,4.079,0,0,0,0,4.403,72.32,95.784887579552,16.076116,6,P-GPS,
82600,2022-08-11 21:09:10,-34.9223778273856,-56.1540263002903,16.076116,15.8136488,82.989611579552,95.784887579552,16.732284,0,76.715225552,4.3279528944,17,5,8.167,95.784887579552,16.076116,0.223694,77.15879512,0,0,0,243.4, -0.7, 3.4,0,1,1024,1024,1024,1024,0,0,0,0,253.3,0,0,94,4.093,4.079,0,0,0,0,4.403,72.32,95.784887579552,16.076116,6,P-GPS,
82700,2022-08-11 21:09:10,-34.9223778088148,-56.1540262312681,16.076116,15.8136488,82.989611579552,95.784887579552,16.732284,0,76.693900092,4.3497048636,17,5,8.167,95.784887579552,16.076116,0.223694,77.15879512,0,0,0,243.6, -0.7, 3.4,0,1,1024,1024,1024,1024,0,0,0,0,253.3,0,0,94,4.093,4.079,0,0,0,0,4.403,72.32,95.784887579552,16.076116,6,P-GPS,
82800,2022-08-11 21:09:10,-34.9223777844273,-56.154026161201,16.076116,15.8136488,82.989611579552,95.784887579552,16.732284,0,76.671262296,4.3724738932,17,5,8.167,95.784887579552,16.076116,0.223694,77.15879512,0,0,0,243.5, -0.9, 3.7,0,1,1024,1024,1024,1024,0,0,0,0,253.3,0,0,94,4.093,4.079,0,0,0,0,4.403,72.32,95.784887579552,16.076116,6,P-GPS,
82900,2022-08-11 21:09:10,-34.9223777051155,-56.1540261571052,16.076116,15.8136488,82.989611579552,95.784887579552,16.732284,0,76.655842348,4.401410902,17,5,8.167,95.784887579552,16.076116,0.223694,77.15879512,0,0,0,243.3, -1.1, 3.3,0,1,1024,1024,1024,1024,0,0,0,0,253.3,0,0,94,4.093,4.079,0,0,0,0,4.403,72.32,95.784887579552,16.076116,6,P-GPS,
83000,2022-08-11 21:09:10,-34.9223776875804,-56.1540260816677,16.076116,15.8136488,82.989611579552,95.784887579552,16.732284,0,76.632876468,4.424868908,17,5,8.167,95.784887579552,16.076116,0.223694,77.15879512,0,0,0,243.2, -1.4, 3.2,0,1,1024,1024,1024,1024,0,0,0,0,253.3,0,0,94,4.093,4.079,0,0,0,0,4.403,72.32,95.784887579552,16.076116,6,P-GPS,
83100,2022-08-11 21:09:10,-34.9223777285912,-56.1540260220281,16.076116,15.8136488,82.989611579552,95.784887579552,16.732284,0,76.625002452,4.448162872,17,5,8.167,95.784887579552,16.076116,0.223694,77.15879512,0,0,0,243.2, -1, 3.4,0,1,1024,1024,1024,1024,0,0,0,0,253.3,0,0,94,4.093,4.079,0,0,0,0,4.403,72.32,95.784887579552,16.076116,6,P-GPS,
83200,2022-08-11 21:09:11,-34.9223777631598,-56.1540259911844,16.076116,15.8136488,82.989611579552,95.784887579552,16.732284,0,76.623362032,4.4637796704,16,5,8.173,95.784887579552,16.076116,0.223694,77.15879512,0,0,0,243.1, -0.8, 3,0,1,1024,1024,1024,1024,0,0,0,0,253.3,0,0,94,4.094,4.08,0,0,0,0,4.257,72.5,95.784887579552,16.076116,6,P-GPS,
83300,2022-08-11 21:09:11,-34.922377706275,-56.1540259599228,16.076116,15.8136488,82.989611579552,95.784887579552,16.732284,0,76.604661244,4.4865487,16,5,8.173,95.784887579552,16.076116,0.223694,77.15879512,0,0,0,243.3, -0.2, 3.1,0,1,1024,1024,1024,1024,0,0,0,0,253.3,0,0,94,4.094,4.08,0,0,0,0,4.257,72.5,95.784887579552,16.076116,6,P-GPS,
83400,2022-08-11 21:09:11,-34.9223776709377,-56.1540259449397,16.076116,15.8136488,82.989611579552,95.784887579552,16.732284,0,76.59449064,4.5001969944,16,5,8.173,95.784887579552,16.076116,0.223694,77.15879512,0,0,0,243.2, 0, 3.3,0,1,1024,1024,1024,1024,0,0,0,0,253.3,0,0,94,4.094,4.08,0,0,0,0,4.257,72.5,95.784887579552,16.076116,6,P-GPS,
83500,2022-08-11 21:09:11,-34.9223776665149,-56.1540259251295,16.076116,15.8136488,82.989611579552,95.784887579552,16.732284,0,76.588585128,4.5063649736,16,5,8.173,95.784887579552,16.076116,0.223694,77.15879512,0,0,0,243.3, 0.2, 3.4,0,1,1024,1024,1024,1024,0,0,0,0,253.3,0,0,94,4.094,4.08,0,0,0,0,4.257,72.5,95.784887579552,16.076116,6,P-GPS,
83600,2022-08-11 21:09:11,-34.9223776658309,-56.1540259088927,16.076116,15.8136488,82.989611579552,95.784887579552,16.732284,0,76.584320036,4.5112206168,16,5,8.173,95.784887579552,16.076116,0.223694,77.15879512,0,0,0,243.2, 0.4, 3.4,0,1,1024,1024,1024,1024,0,0,0,0,253.3,0,0,94,4.094,4.08,0,0,0,0,4.257,72.5,95.784887579552,16.076116,6,P-GPS,
83700,2022-08-11 21:09:11,-34.9223777173745,-56.1540259355989,16.076116,15.8136488,82.989611579552,95.784887579552,16.732284,0,76.600396152,4.53166025,16,5,8.173,95.784887579552,16.076116,0.223694,77.15879512,0,0,0,243.4, 0.5, 3.4,0,1,1024,1024,1024,1024,0,0,0,0,253.3,0,0,94,4.094,4.08,0,0,0,0,4.257,72.5,95.784887579552,16.076116,6,P-GPS,
83800,2022-08-11 21:09:11,-34.922377837723,-56.1540260162815,16.076116,15.8136488,82.989611579552,95.784887579552,16.732284,0,76.643375156,4.5817586768,16,5,8.173,95.784887579552,16.076116,0.223694,77.15879512,0,0,0,243.3, -0.4, 3.1,0,1,1024,1024,1024,1024,0,0,0,0,253.3,0,0,94,4.094,4.08,0,0,0,0,4.257,72.5,95.784887579552,16.076116,6,P-GPS,
83900,2022-08-11 21:09:11,-34.9223777855541,-56.1540259846228,16.076116,15.8136488,82.989611579552,95.784887579552,16.732284,0,76.62565862,4.60301852,16,5,8.173,95.784887579552,16.076116,0.223694,77.15879512,0,0,0,243.3, -0.8, 2.9,0,1,1024,1024,1024,1024,0,0,0,0,253.3,0,0,94,4.094,4.08,0,0,0,0,4.257,72.5,95.784887579552,16.076116,6,P-GPS,
84000,2022-08-11 21:09:11,-34.9223777394431,-56.1540259469667,16.076116,15.8136488,82.989611579552,95.784887579552,16.732284,0,76.607614,4.6232613028,16,5,8.173,95.784887579552,16.076116,0.223694,77.15879512,0,0,0,243.3, -0.7, 3.3,0,1,1024,1024,1024,1024,0,0,0,0,253.3,0,0,94,4.094,4.08,0,0,0,0,4.257,72.5,95.784887579552,16.076116,6,P-GPS,
84100,2022-08-11 21:09:11,-34.9223777050243,-56.1540258376763,16.076116,15.8136488,82.989611579552,95.784887579552,16.732284,0,76.572837096,4.6582678656,16,5,8.173,95.784887579552,16.076116,0.223694,77.15879512,0,0,0,243.3, -0.9, 3.6,0,1,1024,1024,1024,1024,0,0,0,0,253.3,0,0,93,4.094,4.08,0,0,0,0,4.257,72.5,95.784887579552,16.076116,6,P-GPS,
84200,2022-08-11 21:09:12,-34.922377601781,-56.1540256481003,16.076116,15.8136488,82.989611579552,95.784887579552,16.732284,0,76.504923708,4.726378104,16,5,8.166,95.784887579552,16.076116,0.223694,77.15879512,0,0,0,243.3, -0.5, 3.6,0,1,1024,1024,1024,1024,0,0,0,0,253.3,0,0,93,4.088,4.072,0,0,0,0,4.301,72.5,95.784887579552,16.076116,6,P-GPS,
84300,2022-08-11 21:09:12,-34.9223775343113,-56.1540255900907,16.076116,15.8136488,82.989611579552,95.784887579552,16.732284,0,76.477692736,4.7564962152,16,5,8.166,95.784887579552,16.076116,0.223694,77.15879512,0,0,0,243.1, -1, 3.2,0,1,1024,1024,1024,1024,0,0,0,0,253.3,0,0,93,4.088,4.072,0,0,0,0,4.301,72.5,95.784887579552,16.076116,6,P-GPS,
84400,2022-08-11 21:09:12,-34.9223774631939,-56.1540255393114,16.076116,15.8464572,82.956803179552,95.784887579552,16.732284,0,76.451446016,4.7865487096,16,5,8.166,95.784887579552,16.076116,0.223694,77.15879512,0,0,0,243.1, -1.1, 3.8,0,1,1024,1024,1024,1024,0,0,0,0,253.3,0,0,93,4.088,4.072,0,0,0,0,4.301,72.5,95.784887579552,16.076116,6,P-GPS,
84500,2022-08-11 21:09:12,-34.9223773820909,-56.1540254995239,16.076116,15.8464572,82.956803179552,95.784887579552,16.732284,0,76.426511632,4.8184384744,16,5,8.166,95.784887579552,16.076116,0.223694,77.15879512,0,0,0,243, -1.1, 3.4,0,1,1024,1024,1024,1024,0,0,0,0,253.3,0,0,93,4.088,4.072,0,0,0,0,4.301,72.5,95.784887579552,16.076116,6,P-GPS,
84600,2022-08-11 21:09:12,-34.9223771891724,-56.1540255240985,16.4042,16.1745412,82.956803179552,96.112971579552,16.732284,0,76.397968324,4.8892061932,16,5,8.166,96.112971579552,16.4042,0.223694,77.15879512,0,0,0,243.2, -1.2, 3.1,0,1,1024,1024,1024,1024,0,0,0,0,253.3,0,0,93,4.088,4.072,0,0,0,0,4.301,72.5,96.112971579552,16.4042,6,P-GPS,
84700,2022-08-11 21:09:12,-34.9223770997056,-56.1540255220089,16.076116,15.8464572,82.956803179552,95.784887579552,16.732284,0,76.38123604,4.9218505512,16,5,8.166,96.112971579552,16.4042,0.223694,77.15879512,0,0,0,243.3, -0.3, 2.6,0,1,1024,1024,1024,1024,0,0,0,0,253.3,0,0,93,4.088,4.072,0,0,0,0,4.301,72.5,95.784887579552,16.076116,6,P-GPS,
84800,2022-08-11 21:09:12,-34.9223770060897,-56.1540255175369,16.076116,15.8464572,82.956803179552,95.784887579552,16.732284,0,76.36319142,4.956036904,16,5,8.166,96.112971579552,16.4042,0.223694,77.15879512,0,0,0,243.4, -0.4, 3.1,0,1,1024,1024,1024,1024,0,0,0,0,253.3,0,0,93,4.088,4.072,0,0,0,0,4.301,72.5,95.784887579552,16.076116,6,P-GPS,
84900,2022-08-11 21:09:12,-34.9223769046832,-56.1540254996493,16.076116,15.8464572,82.956803179552,95.784887579552,16.732284,0,76.34022554,4.99343848,16,5,8.166,96.112971579552,16.4042,0.223694,77.15879512,0,0,0,243.2, -1.2, 2.6,0,1,1024,1024,1024,1024,0,0,0,0,253.3,0,0,93,4.088,4.072,0,0,0,0,4.301,72.5,95.784887579552,16.076116,6,P-GPS,
85000,2022-08-11 21:09:12,-34.9223768274168,-56.1540254964938,16.076116,15.8464572,82.956803179552,95.784887579552,16.732284,0,76.32546176,5.0216208956,16,5,8.166,96.112971579552,16.4042,0.223694,77.15879512,0,0,0,243.2, -1.5, 2,0,1,1024,1024,1024,1024,0,0,0,0,253.3,0,0,93,4.088,4.072,0,0,0,0,4.301,72.5,95.784887579552,16.076116,6,P-GPS,
85100,2022-08-11 21:09:12,-34.9223767516485,-56.1540254661516,16.076116,15.8464572,82.956803179552,95.784887579552,16.732284,0,76.303808216,5.0507219464,16,5,8.166,96.112971579552,16.4042,0.223694,77.15879512,0,0,0,243.2, -1.1, 1.9,0,1,1024,1024,1024,1024,0,0,0,0,253.3,0,0,93,4.088,4.072,0,0,0,0,4.301,72.5,95.784887579552,16.076116,6,P-GPS,
85200,2022-08-11 21:09:13,-34.9223766890511,-56.1540254359766,16.076116,15.8464572,82.956803179552,95.784887579552,16.732284,0,76.28445126,5.075295438,16,5,8.161,96.112971579552,16.4042,0.223694,77.15879512,0,0,0,243.3, -1.1, 1.8,0,1,1024,1024,1024,1024,0,0,0,0,253.3,0,0,93,4.093,4.076,0,0,0,0,4.374,72.5,95.784887579552,16.076116,6,P-GPS,
85300,2022-08-11 21:09:13,-34.9223766436566,-56.1540254145574,16.076116,15.8464572,82.956803179552,95.784887579552,16.732284,0,76.270999816,5.0930447824,16,5,8.161,96.112971579552,16.4042,0.223694,77.15879512,0,0,0,243.3, -1.3, 1.9,0,1,1024,1024,1024,1024,0,0,0,0,253.3,0,0,93,4.093,4.076,0,0,0,0,4.374,72.5,95.784887579552,16.076116,6,P-GPS,
85400,2022-08-11 21:09:13,-34.9223766107556,-56.1540253908395,16.076116,15.8464572,82.956803179552,95.784887579552,16.732284,0,76.258860708,5.1069883524,17,5,8.161,96.112971579552,16.4042,0.223694,77.15879512,0,0,0,243.3, -1.5, 2.3,0,1,1024,1024,1024,1024,0,0,0,0,253.3,0,0,93,4.093,4.076,0,0,0,0,4.374,72.5,95.784887579552,16.076116,6,P-GPS,
85500,2022-08-11 21:09:13,-34.922376682127,-56.1540254543031,16.076116,15.8464572,82.956803179552,95.784887579552,16.732284,0,76.288060184,5.1392062012,17,5,8.161,96.112971579552,16.4042,0.223694,77.15879512,0,0,0,243.3, -1.4, 2.5,0,1,1024,1024,1024,1024,0,0,0,0,253.3,0,0,93,4.093,4.076,0,0,0,0,4.374,72.5,95.784887579552,16.076116,6,P-GPS,
85600,2022-08-11 21:09:13,-34.9223766759194,-56.1540254531956,16.076116,15.8464572,82.956803179552,95.784887579552,16.732284,0,76.286747848,5.1415027892,17,5,8.161,96.112971579552,16.4042,0.223694,77.15879512,0,0,0,243.3, -1.4, 2.4,0,1,1024,1024,1024,1024,0,0,0,0,253.3,0,0,93,4.093,4.076,0,0,0,0,4.374,72.5,95.784887579552,16.076116,6,P-GPS,
85700,2022-08-11 21:09:13,-34.9223767142529,-56.1540254529657,15.748032,15.5183732,82.956803179552,95.456803579552,16.732284,0,76.293637612,5.1554791676,17,5,8.161,96.112971579552,16.4042,0.223694,77.15879512,0,0,0,243.3, -1, 2.4,0,1,1024,1024,1024,1024,0,0,0,0,253.3,0,0,93,4.093,4.076,0,0,0,0,4.374,72.5,95.456803579552,15.748032,6,P-GPS,
85800,2022-08-11 21:09:13,-34.922376749727,-56.1540254513985,15.748032,15.5183732,82.956803179552,95.456803579552,16.732284,0,76.299543124,5.1684384856,17,5,8.161,96.112971579552,16.4042,0.223694,77.15879512,0,0,0,243.2, -1.2, 2.2,0,1,1024,1024,1024,1024,0,0,0,0,253.3,0,0,93,4.093,4.076,0,0,0,0,4.374,72.5,95.456803579552,15.748032,6,P-GPS,
85900,2022-08-11 21:09:13,-34.9223769759048,-56.1540254929832,15.748032,15.5183732,82.956803179552,95.456803579552,16.732284,0,76.351380396,5.2519030552,17,5,8.161,96.112971579552,16.4042,0.223694,77.15879512,0,0,0,243.3, -1.5, 2.2,0,1,1024,1024,1024,1024,0,0,0,0,253.3,0,0,93,4.093,4.076,0,0,0,0,4.374,72.5,95.456803579552,15.748032,6,P-GPS,
86000,2022-08-11 21:09:13,-34.9223770136717,-56.1540254844573,15.748032,15.5183732,82.956803179552,95.456803579552,16.732284,0,76.355973572,5.265912242,18,5,8.161,96.112971579552,16.4042,0.223694,77.15879512,0,0,0,243.3, -1.8, 2.2,0,1,1024,1024,1024,1024,0,0,0,0,253.3,0,0,93,4.093,4.076,0,0,0,0,4.374,72.5,95.456803579552,15.748032,6,P-GPS,
86100,2022-08-11 21:09:13,-34.922377084509,-56.154025478836,15.748032,15.5183732,82.956803179552,95.456803579552,16.732284,0,76.367128428,5.2917980696,18,5,8.161,96.112971579552,16.4042,0.223694,77.15879512,0,0,0,243.2, -1.9, 2.3,0,1,1024,1024,1024,1024,0,0,0,0,253.3,0,0,93,4.093,4.076,0,0,0,0,4.374,72.5,95.456803579552,15.748032,6,P-GPS,
86200,2022-08-11 21:09:13,-34.9223771511058,-56.1540254728804,15.748032,15.5183732,82.956803179552,95.456803579552,16.732284,0,76.377627116,5.3161747108,18,5,8.179,96.112971579552,16.4042,0.223694,77.15879512,0,0,0,243.3, -1.5, 2.7,0,1,1024,1024,1024,1024,0,0,0,0,253.3,0,0,93,4.094,4.081,0,0,0,0,4.187,72.68,95.456803579552,15.748032,6,P-GPS,
86300,2022-08-11 21:09:14,-34.9223772508252,-56.1540252385225,15.748032,15.5183732,82.956803179552,95.456803579552,16.732284,0,76.334976196,5.3951445296,18,5,8.179,96.112971579552,16.4042,0.223694,77.15879512,0,0,0,243.2, -2, 2.3,0,1,1024,1024,1024,1024,0,0,0,0,253.3,0,0,93,4.094,4.081,0,0,0,0,4.187,72.68,95.456803579552,15.748032,6,P-GPS,
86400,2022-08-11 21:09:14,-34.9223772702949,-56.1540251412269,15.748032,15.5183732,82.956803179552,95.456803579552,16.732284,0,76.313322652,5.4251314072,18,5,8.179,96.112971579552,16.4042,0.223694,77.15879512,0,0,0,243.2, -2.2, 2.2,0,1,1024,1024,1024,1024,0,0,0,0,253.3,0,0,93,4.094,4.081,0,0,0,0,4.187,72.68,95.456803579552,15.748032,6,P-GPS,
86500,2022-08-11 21:09:14,-34.9223773241183,-56.1540250728316,15.748032,15.5183732,82.956803179552,95.456803579552,16.732284,0,76.305120552,5.4534778648,18,5,8.179,96.112971579552,16.4042,0.223694,77.15879512,0,0,0,243.3, -2.1, 2.4,0,1,1024,1024,1024,1024,0,0,0,0,253.3,0,0,93,4.094,4.081,0,0,0,0,4.187,72.68,95.456803579552,15.748032,6,P-GPS,
86600,2022-08-11 21:09:14,-34.9223773754338,-56.1540250140279,15.748032,15.5183732,82.956803179552,95.456803579552,16.732284,0,76.29921504,5.479166842,18,5,8.179,96.112971579552,16.4042,0.223694,77.15879512,0,0,0,243.2, -1.8, 2.7,0,1,1024,1024,1024,1024,0,0,0,0,253.3,0,0,93,4.094,4.081,0,0,0,0,4.187,72.68,95.456803579552,15.748032,6,P-GPS,
86700,2022-08-11 21:09:14,-34.9223773600743,-56.1540249356648,15.748032,15.5183732,82.956803179552,95.456803579552,16.732284,0,76.27624916,5.503281016,18,5,8.179,96.112971579552,16.4042,0.223694,77.15879512,0,0,0,243.3, -1.9, 2.4,0,1,1024,1024,1024,1024,0,0,0,0,253.3,0,0,93,4.094,4.081,0,0,0,0,4.187,72.68,95.456803579552,15.748032,6,P-GPS,
86800,2022-08-11 21:09:14,-34.9223773550522,-56.1540249054898,15.419948,15.1902892,82.956803179552,95.128719579552,16.732284,0,76.267390892,5.512467368,18,5,8.179,96.112971579552,16.4042,0.223694,77.15879512,0,0,0,243.3, -2, 2.4,0,1,1024,1024,1024,1024,0,0,0,0,253.3,0,0,93,4.094,4.081,0,0,0,0,4.187,72.68,95.128719579552,15.419948,6,P-GPS,
86900,2022-08-11 21:09:14,-34.9223773400119,-56.1540248779895,15.419948,15.1902892,82.956803179552,95.128719579552,16.732284,0,76.257548372,5.5223755048,18,5,8.179,96.112971579552,16.4042,0.223694,77.15879512,0,0,0,243.2, -2.1, 2.7,0,1,1024,1024,1024,1024,0,0,0,0,253.3,0,0,93,4.094,4.081,0,0,0,0,4.187,72.68,95.128719579552,15.419948,6,P-GPS,
87000,2022-08-11 21:09:14,-34.9223773332115,-56.1540248614393,15.419948,15.1902892,82.956803179552,95.128719579552,16.732284,0,76.251970944,5.5279201244,18,5,8.179,96.112971579552,16.4042,0.223694,77.15879512,0,0,0,243, -2.2, 2.7,0,1,1024,1024,1024,1024,0,0,0,0,253.3,0,0,93,4.094,4.081,0,0,0,0,4.187,72.68,95.128719579552,15.419948,6,P-GPS,
87100,2022-08-11 21:09:14,-34.9223774123929,-56.1540248975281,15.419948,15.1902892,82.956803179552,95.128719579552,16.732284,0,76.275921076,5.5587600204,18,5,8.179,96.112971579552,16.4042,0.223694,77.15879512,0,0,0,242.8, -1.7, 2.4,0,1,1024,1024,1024,1024,0,0,0,0,253.3,0,0,93,4.094,4.081,0,0,0,0,4.187,72.68,95.128719579552,15.419948,6,P-GPS,
87200,2022-08-11 21:09:14,-34.9223775843892,-56.1540250190222,15.748032,15.4855648,82.989611579552,95.456803579552,16.732284,0,76.33858512,5.6312665844,18,5,8.179,96.112971579552,16.4042,0.223694,77.15879512,0,0,0,242.9, -1.7, 1.9,0,1,1024,1024,1024,1024,0,0,0,0,253.3,0,0,93,4.098,4.083,0,0,0,0,4.178,72.68,95.456803579552,15.748032,6,P-GPS,
87300,2022-08-11 21:09:15,-34.9223776588612,-56.1540250903222,15.748032,15.4855648,82.989611579552,95.456803579552,16.732284,0,76.370737352,5.6658138296,18,5,8.179,96.112971579552,16.4042,0.223694,77.15879512,0,0,0,243, -2.1, 1.1,0,1,1024,1024,1024,1024,0,0,0,0,253.3,0,0,93,4.098,4.083,0,0,0,0,4.178,72.68,95.456803579552,15.748032,6,P-GPS,
87400,2022-08-11 21:09:15,-34.9223777486992,-56.1540251725512,15.748032,15.4855648,82.989611579552,95.456803579552,16.732284,0,76.408138928,5.7067915212,18,5,8.179,96.112971579552,16.4042,0.223694,77.15879512,0,0,0,243.2, -0.7, 1.9,0,1,1024,1024,1024,1024,0,0,0,0,253.3,0,0,93,4.098,4.083,0,0,0,0,4.178,72.68,95.456803579552,15.748032,6,P-GPS,
87500,2022-08-11 21:09:15,-34.9223778406216,-56.1540252474454,15.748032,15.4855648,82.989611579552,95.456803579552,16.732284,0,76.444556252,5.7471130448,18,5,8.179,96.112971579552,16.4042,0.223694,77.15879512,0,0,0,243.1, -0.6, 2.7,0,1,1024,1024,1024,1024,0,0,0,0,253.3,0,0,93,4.098,4.083,0,0,0,0,4.178,72.68,95.456803579552,15.748032,6,P-GPS,
87600,2022-08-11 21:09:15,-34.9223779923926,-56.154025402479,15.748032,15.4855648,82.989611579552,95.456803579552,16.732284,0,76.512141556,5.8193571416,18,5,8.179,96.112971579552,16.4042,0.223694,77.15879512,0,0,0,243, -0.7, 2.3,0,1,1024,1024,1024,1024,0,0,0,0,253.3,0,0,93,4.098,4.083,0,0,0,0,4.178,72.68,95.456803579552,15.748032,6,P-GPS,
87700,2022-08-11 21:09:15,-34.9223780867511,-56.1540255195012,15.748032,15.4855648,82.989611579552,95.456803579552,16.732284,0,76.559713736,5.868438508,18,5,8.179,96.112971579552,16.4042,0.223694,77.15879512,0,0,0,243.1, 0, 2.4,0,1,1024,1024,1024,1024,0,0,0,0,253.3,0,0,93,4.098,4.083,0,0,0,0,4.178,72.68,95.456803579552,15.748032,6,P-GPS,
87800,2022-08-11 21:09:15,-34.9223781760941,-56.1540256381325,15.748032,15.4855648,82.989611579552,95.456803579552,16.732284,0.223694,76.606957832,5.9166340476,18,5,8.179,96.112971579552,16.4042,0.223694,77.15879512,0,-0.223694,0,243.1, 0.3, 2.7,0,1,1024,1024,1024,1024,0,0,0,0,253.3,0,0,93,4.098,4.083,0,0,0,0,4.178,72.68,95.456803579552,15.748032,6,P-GPS,
87900,2022-08-11 21:09:15,-34.9223782112034,-56.1540257423032,15.748032,15.4855648,82.989611579552,95.456803579552,16.732284,0.223694,76.640094316,5.9503282744,18,5,8.179,96.112971579552,16.4042,0.223694,77.15879512,0,-0.223694,0,243.1, 1, 2.2,0,1,1024,1024,1024,1024,0,0,0,0,253.3,0,0,93,4.098,4.083,0,0,0,0,4.178,72.68,95.456803579552,15.748032,6,P-GPS,
88000,2022-08-11 21:09:15,-34.9223781727721,-56.1540258615823,15.748032,15.4855648,82.989611579552,95.456803579552,16.732284,0,76.664044448,5.988681294,18,5,8.179,96.112971579552,16.4042,0.223694,77.15879512,0,0,0,243.1, 1.7, 2.4,0,1,1024,1024,1024,1024,0,0,0,0,253.3,0,0,93,4.098,4.083,0,0,0,0,4.178,72.68,95.456803579552,15.748032,6,P-GPS,
88100,2022-08-11 21:09:15,-34.9223782606169,-56.1540260178906,15.748032,15.4855648,82.989611579552,95.456803579552,16.732284,0,76.720474896,6.0453414008,18,5,8.179,96.112971579552,16.4042,0.223694,77.15879512,0,0,0,243.1, 1.2, 2.8,0,1,1024,1024,1024,1024,0,0,0,0,253.3,0,0,93,4.098,4.083,0,0,0,0,4.178,72.68,95.456803579552,15.748032,6,P-GPS,
88200,2022-08-11 21:09:16,-34.922378326647,-56.1540261556007,15.748032,15.4855648,82.989611579552,95.456803579552,16.732284,0,76.76837516,6.0930776228,17,5,8.174,96.112971579552,16.4042,0.223694,77.15879512,0,0,0,243.2, 1.3, 2.6,0,1,1024,1024,1024,1024,0,0,0,0,253.3,0,0,93,4.092,4.078,0,0,0,0,4.171,72.68,95.456803579552,15.748032,6,P-GPS,
88300,2022-08-11 21:09:16,-34.9223783112615,-56.1540262904897,15.748032,15.4855648,82.989611579552,95.456803579552,16.732284,0,76.800527392,6.1338256556,17,5,8.174,96.112971579552,16.4042,0.223694,77.15879512,0,0,0,243.2, 1.1, 2.3,0,1,1024,1024,1024,1024,0,0,0,0,253.3,0,0,93,4.092,4.078,0,0,0,0,4.171,72.68,95.456803579552,15.748032,6,P-GPS,
88400,2022-08-11 21:09:16,-34.9223779971542,-56.1540268036321,15.748032,15.4855648,82.989611579552,95.456803579552,16.732284,0,76.87664288,6.3253939032,17,5,8.174,96.112971579552,16.4042,0.223694,77.15879512,0,0,0,243.4, 1.6, 2.7,0,1,1024,1024,1024,1024,0,0,0,0,253.3,0,0,93,4.092,4.078,0,0,0,0,4.171,72.68,95.456803579552,15.748032,6,P-GPS,
88500,2022-08-11 21:09:16,-34.922377890934,-56.1540269761564,15.748032,15.4855648,82.989611579552,95.456803579552,16.732284,0,76.902233432,6.389928026,17,5,8.174,96.112971579552,16.4042,0.223694,77.15879512,0,0,0,243.3, 0.9, 2.5,0,1,1024,1024,1024,1024,0,0,0,0,253.3,0,0,93,4.092,4.078,0,0,0,0,4.171,72.68,95.456803579552,15.748032,6,P-GPS,
88600,2022-08-11 21:09:16,-34.922377795416,-56.1540271065317,15.748032,15.4855648,82.989611579552,95.456803579552,16.732284,0,76.918637632,6.4422246156,18,5,8.174,96.112971579552,16.4042,0.223694,77.15879512,0,0,0,243.3, 0.5, 3.1,0,1,1024,1024,1024,1024,0,0,0,0,253.3,0,0,93,4.092,4.078,0,0,0,0,4.171,72.68,95.456803579552,15.748032,6,P-GPS,
88700,2022-08-11 21:09:16,-34.9223777884984,-56.1540271210758,15.748032,15.4855648,82.989611579552,95.456803579552,16.732284,0,76.921262304,6.4472771092,18,5,8.174,96.112971579552,16.4042,0.223694,77.15879512,0,0,0,243.3, 0.2, 2.9,0,1,1024,1024,1024,1024,0,0,0,0,253.3,0,0,93,4.092,4.078,0,0,0,0,4.171,72.68,95.456803579552,15.748032,6,P-GPS,
88800,2022-08-11 21:09:16,-34.92237778999,-56.1540271124455,15.748032,15.4855648,82.989611579552,95.456803579552,16.732284,0,76.9192938,6.4499017812,18,5,8.174,96.112971579552,16.4042,0.223694,77.15879512,0,0,0,243.4, 0.3, 3.1,0,1,1024,1024,1024,1024,0,0,0,0,253.3,0,0,93,4.092,4.078,0,0,0,0,4.171,72.68,95.456803579552,15.748032,6,P-GPS,
88900,2022-08-11 21:09:16,-34.9223779834948,-56.1540268295442,15.748032,15.4855648,82.989611579552,95.456803579552,16.732284,0,76.880907972,6.5601051968,18,5,8.174,96.112971579552,16.4042,0.223694,77.15879512,0,0,0,243.3, -0.4, 3.6,0,1,1024,1024,1024,1024,0,0,0,0,253.3,0,0,93,4.092,4.078,0,0,0,0,4.171,72.68,95.456803579552,15.748032,6,P-GPS,
89000,2022-08-11 21:09:16,-34.9223780398454,-56.1540267437418,15.748032,15.4855648,82.989611579552,95.456803579552,16.732284,0,76.868768864,6.593012022,18,5,8.174,96.112971579552,16.4042,0.223694,77.15879512,0,0,0,243.6, -0.4, 3.1,0,1,1024,1024,1024,1024,0,0,0,0,253.3,0,0,93,4.092,4.078,0,0,0,0,4.171,72.68,95.456803579552,15.748032,6,P-GPS,
89100,2022-08-11 21:09:16,-34.9223781118357,-56.1540266430609,16.076116,15.8136488,82.989611579552,95.784887579552,16.732284,0,76.855645504,6.6329726532,18,5,8.174,96.112971579552,16.4042,0.223694,77.15879512,0,0,0,243.3, -0.2, 3.3,0,1,1024,1024,1024,1024,0,0,0,0,253.3,0,0,93,4.092,4.078,0,0,0,0,4.171,72.68,95.784887579552,16.076116,6,P-GPS,
89200,2022-08-11 21:09:17,-34.9223781732932,-56.1540265420248,16.076116,15.8136488,82.989611579552,95.784887579552,16.732284,0,76.84055364,6.670603888,18,5,8.167,96.112971579552,16.4042,0.223694,77.15879512,0,0,0,243.3, -0.2, 3.8,0,1,1024,1024,1024,1024,0,0,0,0,253.3,0,0,93,4.095,4.079,0,0,0,0,4.271,72.86,95.784887579552,16.076116,6,P-GPS,
