time(millisecond),datetime(utc),latitude,longitude,height_above_takeoff(feet),height_above_ground_at_drone_location(feet),ground_elevation_at_drone_location(feet),altitude_above_seaLevel(feet),height_sonar(feet),speed(mph),distance(feet),mileage(feet),satellites,gpslevel,voltage(v),max_altitude(feet),max_ascent(feet),max_speed(mph),max_distance(feet), xSpeed(mph), ySpeed(mph), zSpeed(mph), compass_heading(degrees), pitch(degrees), roll(degrees),isPhoto,isVideo,rc_elevator,rc_aileron,rc_throttle,rc_rudder,rc_elevator(percent),rc_aileron(percent),rc_throttle(percent),rc_rudder(percent),gimbal_heading(degrees),gimbal_pitch(degrees),gimbal_roll(degrees),battery_percent,voltageCell1,voltageCell2,voltageCell3,voltageCell4,voltageCell5,voltageCell6,current(A),battery_temperature(f),altitude(feet),ascent(feet),flycStateRaw,flycState,message
0,2022-08-11 20:05:05,-34.9287621373424,-56.1628233671978,0,0,6.107061875216,6.107061875216,0.328084,0,0,0,23,5,0,6.107061875216,0,0,0,0,0,0,207.3, 0, -1.1,0,0,364,364,364,1684,-100,-100,-100,100,217.8,0,0,13,3.709,3.705,0,0,0,0,0,98.96,6.107061875216,0,41,Motors_Started,"Baja velocidad de la tarjeta SD. Puede afectar a su uso normal. Sustituye la tarjeta SD (Code: 10028). Batería baja. Regresa al punto de origen cuanto antes (Code: 30183). Batería muy baja (Code: 30183). Baja velocidad de la tarjeta SD. Puede afectar"
100,2022-08-11 20:05:05,-34.9287621239672,-56.162823365505,0,0,6.107061875216,6.107061875216,0.328084,0,0.0049061353276,0.0049061353276,23,5,0,6.107061875216,0,0,0.0049061353276,0,0,0,207.3, 0, -1.1,0,0,364,364,364,1684,-100,-100,-100,100,217.8,0,0,13,3.709,3.705,0,0,0,0,0,98.96,6.107061875216,0,41,Motors_Started,
200,2022-08-11 20:05:05,-34.9287621218152,-56.1628233640735,0,0,6.107061875216,6.107061875216,0.328084,0,0.0057416668504,0.0058004595032,23,5,0,6.107061875216,0,0,0.0057416668504,0,0,0,207.3, 0, -1.1,0,0,364,364,364,1684,-100,-100,-100,100,217.8,0,0,13,3.709,3.705,0,0,0,0,0,98.96,6.107061875216,0,41,Motors_Started,
300,2022-08-11 20:05:05,-34.9287621251445,-56.1628233621234,0,0,6.107061875216,6.107061875216,0.328084,0,0.004702099888,0.0071479989164,23,5,0,6.107061875216,0,0,0.0057416668504,0,0,0,207.3, 0, -1.1,0,0,564,364,997,1041,-70,-100,-4,3,217.8,0,0,13,3.709,3.705,0,0,0,0,0,98.96,6.107061875216,0,41,Motors_Started,"Setting new Return-To-Home altitude to 40m (131 ft). Data Recorder File Index is 13. Setting new Maximum Flight Altitude to 120m (394 ft)"
400,2022-08-11 20:05:05,-34.9287621844875,-56.1628234856561,0,0,6.107061875216,6.107061875216,0.328084,0,0.039388452704,0.049975723384,23,5,0,6.107061875216,0,0,0.039388452704,0,0,0,207.3, 0, -1,0,0,858,588,1024,1024,-25,-66,0,0,217.8,0,0,13,3.709,3.705,0,0,0,0,0,98.96,6.107061875216,0,41,Motors_Started,
500,2022-08-11 20:05:05,-34.9287621966503,-56.1628235363012,0,0,6.107061875216,6.107061875216,0.328084,0,0.055017390212,0.065761813128,23,5,0,6.107061875216,0,0,0.055017390212,0,0,0,207.3, 0, -1.1,0,0,858,588,1024,1024,-25,-66,0,0,217.8,0,0,13,3.709,3.705,0,0,0,0,0,98.96,6.107061875216,0,41,Motors_Started,
600,2022-08-11 20:05:06,-34.9287622083108,-56.1628235626778,0,0,6.107061875216,6.107061875216,0.328084,0,0.063949805196,0.074725724176,23,5,0,6.107061875216,0,0,0.063949805196,0,0,0,207.3, 0, -1.1,0,0,1024,974,1024,1024,0,-8,0,0,217.8,0,0,13,3.709,3.705,0,0,0,0,0,98.96,6.107061875216,0,41,Motors_Started,
700,2022-08-11 20:05:06,-34.9287622189429,-56.162823577167,0,0,6.107061875216,6.107061875216,0.328084,0,0.069506563904,0.080541997328,23,5,0,6.107061875216,0,0,0.069506563904,0,0,0,207.3, 0, -1.1,0,0,1024,1024,1024,1024,0,0,0,0,217.8,0,0,13,3.709,3.705,0,0,0,0,0,98.96,6.107061875216,0,41,Motors_Started,
800,2022-08-11 20:05:06,-34.928762215134,-56.1628235464644,0,0,6.107061875216,6.107061875216,0.328084,0,0.060671589868,0.089830711536,23,5,0,6.107061875216,0,0,0.069506563904,0,0,0,207.3, 0, -1.1,0,0,1024,1024,1024,1024,0,0,0,0,217.8,0,0,13,3.709,3.705,0,0,0,0,0,98.96,6.107061875216,0,41,Motors_Started,
900,2022-08-11 20:05:06,-34.9287622192035,-56.1628235414357,0,0,6.107061875216,6.107061875216,0.328084,0,0.06007053998,0.091944228664,23,5,0,6.107061875216,0,0,0.069506563904,0,0,0,207.3, 0, -1.1,0,0,1024,1024,1024,1024,0,0,0,0,217.8,0,0,13,3.709,3.705,0,0,0,0,0,98.96,6.107061875216,0,41,Motors_Started,
1000,2022-08-11 20:05:06,-34.9287622209915,-56.1628235346646,0,0,6.107061875216,6.107061875216,0.328084,0,0.058658466444,0.094072181488,23,5,0,6.107061875216,0,0,0.069506563904,0,0,0,207.3, 0, -1.1,0,0,1024,1024,1024,1024,0,0,0,0,217.8,0,0,13,3.709,3.705,0,0,0,0,0,98.96,6.107061875216,0,41,Motors_Started,
1100,2022-08-11 20:05:06,-34.9287622225059,-56.1628235268825,0,0,6.107061875216,6.107061875216,0.328084,0,0.056982941456,0.096464570016,23,5,0,6.107061875216,0,0,0.069506563904,0,0,0,207.3, 0, -1.1,0,0,1024,1024,1024,1024,0,0,0,0,217.8,0,0,13,3.709,3.705,0,0,0,0,0,98.96,6.107061875216,0,10,Assisted_Takeoff,
1200,2022-08-11 20:05:06,-34.9287622237623,-56.1628234901297,0,0,6.107061875216,6.107061875216,0.328084,0,0.048439306012,0.107467851208,23,5,0,6.107061875216,0,0,0.069506563904,0,0,0,207.3, 0, -1.1,0,0,1024,1024,1024,1024,0,0,0,0,217.8,0,0,13,3.709,3.705,0,0,0,0,0,98.96,6.107061875216,0,10,Assisted_Takeoff,
1300,2022-08-11 20:05:06,-34.9287622219124,-56.162823485165,0,0,6.107061875216,6.107061875216,0.328084,0,0.046874673416,0.109099084856,23,5,7.422,6.107061875216,0,0,0.069506563904,0,0,0,207.3, 0, -1.1,0,0,1024,1024,1391,1024,0,0,56,0,217.8,0,0,13,3.709,3.705,0,0,0,0,1.175,98.96,6.107061875216,0,10,Assisted_Takeoff,
1400,2022-08-11 20:05:06,-34.9287621850094,-56.1628234811211,0,0,6.107061875216,6.107061875216,0.328084,0,0.038258859492,0.122617457992,23,5,7.422,6.107061875216,0,0,0.069506563904,0,0,0,207.3, 0, -1.1,0,0,1024,1024,1684,1024,0,0,100,0,217.8,0,0,13,3.709,3.705,0,0,0,0,1.175,98.96,6.107061875216,0,10,Assisted_Takeoff,
1500,2022-08-11 20:05:06,-34.9287621295731,-56.1628234771099,0,0,6.107061875216,6.107061875216,0.328084,0,0.032999672972,0.14287894158,23,5,7.422,6.107061875216,0,0,0.069506563904,0,0,0,207.3, -0.1, -1.1,0,0,1024,1024,1684,1024,0,0,100,0,217.8,0,0,13,3.709,3.705,0,0,0,0,1.175,98.96,6.107061875216,0,10,Assisted_Takeoff,
1600,2022-08-11 20:05:07,-34.9287621324839,-56.1628234747771,0,0,6.107061875216,6.107061875216,0.328084,0,0.032228675572,0.144149610912,23,5,7.422,6.107061875216,0,0,0.069506563904,0,0,0,207.3, 0, -1.1,0,0,1024,1024,1684,1024,0,0,100,0,217.8,0,0,13,3.709,3.705,0,0,0,0,1.175,98.96,6.107061875216,0,10,Assisted_Takeoff,
1700,2022-08-11 20:05:07,-34.9287621734173,-56.1628234679576,0,0,6.107061875216,6.107061875216,0.328084,0,0.032888452496,0.159222774124,23,5,7.422,6.107061875216,0,0,0.069506563904,0,0,0,207.2, 0, -1,0,0,1024,1024,1684,1024,0,0,100,0,217.8,0,0,13,3.709,3.705,0,0,0,0,1.175,98.96,6.107061875216,0,10,Assisted_Takeoff,
1800,2022-08-11 20:05:07,-34.9287621946628,-56.1628234641358,0,0,6.107061875216,6.107061875216,0.328084,0,0.035751641564,0.167058076212,23,5,7.422,6.107061875216,0,0,0.069506563904,0,0,0,207.2, 0, -0.9,0,0,1024,1024,1239,1024,0,0,33,0,217.8,0,0,13,3.709,3.705,0,0,0,0,1.175,98.96,6.107061875216,0,10,Assisted_Takeoff,
1900,2022-08-11 20:05:07,-34.928762209717,-56.1628234587623,0,0,6.107061875216,6.107061875216,0.328084,0,0.038045276808,0.172780845424,23,5,7.422,6.107061875216,0,0,0.069506563904,0,0,0,207.3, -0.2, -0.8,0,0,1024,1024,1238,1024,0,0,32,0,217.8,0,0,13,3.709,3.705,0,0,0,0,1.175,98.96,6.107061875216,0,10,Assisted_Takeoff,
2000,2022-08-11 20:05:07,-34.9287622209036,-56.1628234553088,0,0,6.107061875216,6.107061875216,0.328084,0,0.040300526224,0.176991147396,23,5,7.422,6.107061875216,0,0,0.069506563904,0,0,0,207.9, -0.6, 0,0,0,1024,1024,1684,1024,0,0,100,0,217.9,0,0,13,3.709,3.705,0,0,0,0,1.175,98.96,6.107061875216,0,10,Assisted_Takeoff,
2100,2022-08-11 20:05:07,-34.928762257743,-56.1628234743304,0,0,6.107061875216,6.107061875216,0.328084,0,0.05437500174,0.191586620304,23,5,7.422,6.107061875216,0,0,0.069506563904,0,0,0,208.4, -1.5, 1.1,0,0,1024,1024,1684,1024,0,0,100,0,218.4,0,0,13,3.709,3.705,0,0,0,0,1.175,98.96,6.107061875216,0,10,Assisted_Takeoff,
2200,2022-08-11 20:05:07,-34.9287622832233,-56.1628235076871,0,0,6.107061875216,6.107061875216,0.328084,0,0.0678149628,0.205224087932,23,5,7.422,6.107061875216,0,0,0.069506563904,0,0,-0.223694,208.6, -1.6, 2.1,0,0,1024,1024,1470,1024,0,0,68,0,218.8,0,0,13,3.709,3.705,0,0,0,0,1.175,98.96,6.107061875216,0,10,Assisted_Takeoff,"Batería baja. Regresa al punto de origen cuanto antes (Code: 30183). Baja velocidad de la tarjeta SD. Puede afectar a su uso normal. Sustituye la tarjeta SD (Code: 10028)"
2300,2022-08-11 20:05:07,-34.9287623197753,-56.1628235821957,0,0,6.107061875216,6.107061875216,0.328084,0,0.092554464904,0.231196857792,23,5,7.424,6.107061875216,0,0,0.092554464904,0,0,-0.671082,208.6, -0.3, 0.7,0,0,1024,1024,1024,1024,0,0,0,0,218.8,0,0,13,3.688,3.683,0,0,0,0,1.569,98.96,6.107061875216,0,6,P-GPS,"Batería baja. Regresa al punto de origen cuanto antes (Code: 30183). Baja velocidad de la tarjeta SD. Puede afectar a su uso normal. Sustituye la tarjeta SD (Code: 10028)"
2400,2022-08-11 20:05:07,-34.9287623512638,-56.1628236761674,0.328084,0.328084,6.107061875216,6.435145875216,0.656168,0,0.120968179724,0.261563656664,23,5,7.424,6.435145875216,0.328084,0,0.120968179724,0,0,-0.894776,208.1, 1.2, -1.7,0,0,1024,1024,1024,1024,0,0,0,0,218.8,0,0,13,3.688,3.683,0,0,0,0,1.569,98.96,6.435145875216,0.328084,6,P-GPS,
2500,2022-08-11 20:05:08,-34.9287623684691,-56.1628237566583,0.328084,0.328084,6.107061875216,6.435145875216,0.656168,0,0.143814965232,0.286445547224,23,5,7.424,6.435145875216,0.328084,0,0.143814965232,0,0,-0.894776,207.9, 1, -1.8,0,0,1024,1024,1024,1024,0,0,0,0,218.8,0,0,13,3.688,3.683,0,0,0,0,1.569,98.96,6.435145875216,0.328084,6,P-GPS,
2600,2022-08-11 20:05:08,-34.9287624272746,-56.1628237587599,0.656168,0.656168,6.107061875216,6.763229875216,0.656168,0,0.157824152032,0.307909786756,23,5,7.424,6.763229875216,0.656168,0,0.157824152032,0,0,-1.11847,208, 0.1, 0.1,0,0,1239,1024,1024,1024,33,0,0,0,218.8,0,0,13,3.688,3.683,0,0,0,0,1.569,98.96,6.763229875216,0.656168,6,P-GPS,
2700,2022-08-11 20:05:08,-34.9287625184097,-56.162823728504,0.656168,0.6889764,6.074253475216,6.763229875216,0.984252,0.223694,0.176097774664,0.34236877736,23,5,7.424,6.763229875216,0.656168,0.223694,0.176097774664,-0.223694,0,-1.11847,207.9, 0.9, 0,0,0,1684,1024,1024,1024,100,0,0,0,218.8,0,0,13,3.688,3.683,0,0,0,0,1.569,98.96,6.763229875216,0.656168,6,P-GPS,"Batería baja"
2800,2022-08-11 20:05:08,-34.9287626596153,-56.1628237073847,0.984252,1.0170604,6.074253475216,7.091313875216,0.984252,0.223694,0.216020020036,0.394274947,23,5,7.424,7.091313875216,0.984252,0.223694,0.216020020036,-0.223694,0,-1.11847,208.3, -6.5, 1.4,0,0,1596,1024,1024,1024,87,0,0,0,218.8,0,0,13,3.688,3.683,0,0,0,0,1.569,98.96,7.091313875216,0.984252,6,P-GPS,
2900,2022-08-11 20:05:08,-34.9287629428506,-56.162823786973,0.984252,1.0170604,6.074253475216,7.091313875216,1.312336,0.671082,0.31958990524,0.50031825748,23,5,7.424,7.091313875216,0.984252,0.671082,0.31958990524,-0.671082,0,-0.894776,208.1, -17.1, 2.3,0,0,1024,1024,1024,1024,0,0,0,0,218.8,0,0,13,3.688,3.683,0,0,0,0,1.569,98.96,7.091313875216,0.984252,6,P-GPS,
3000,2022-08-11 20:05:08,-34.9287634002797,-56.1628239665243,0.984252,1.0170604,6.074253475216,7.091313875216,1.312336,1.3645334,0.49442914968,0.67564306624,23,5,7.424,7.091313875216,0.984252,1.3645334,0.49442914968,-1.342164,-0.223694,-0.894776,208.1, -16.9, 2.9,0,0,1024,1024,1024,1024,0,0,0,0,218.8,0,0,13,3.688,3.683,0,0,0,0,1.569,98.96,7.091313875216,0.984252,6,P-GPS,
3100,2022-08-11 20:05:08,-34.9287640980085,-56.1628243130669,1.312336,1.3779528,6.041445075216,7.419397875216,1.312336,1.8342908,0.76926839732,0.95050527976,23,5,7.424,7.419397875216,1.312336,1.8342908,0.76926839732,-1.789552,-0.447388,-0.671082,208.5, -1.5, 3.1,0,0,1024,1024,1024,1024,0,0,0,0,218.8,0,0,13,3.688,3.683,0,0,0,0,1.569,98.96,7.419397875216,1.312336,6,P-GPS,
3200,2022-08-11 20:05:08,-34.9287648253669,-56.1628245502853,1.312336,1.4107612,6.008636675216,7.419397875216,1.64042,1.8342908,1.04262142444,1.22520345128,23,5,7.424,7.419397875216,1.312336,1.8342908,1.04262142444,-1.789552,-0.447388,-0.447388,208.9, 8, 3,0,0,1024,1024,1024,1024,0,0,0,0,218.8,0,0,13,3.688,3.683,0,0,0,0,1.569,98.96,7.419397875216,1.312336,6,P-GPS,
3300,2022-08-11 20:05:08,-34.9287655209604,-56.1628246800928,1.312336,1.4435696,5.975828275216,7.419397875216,1.64042,1.8342908,1.2954724824,1.48194230464,23,5,7.424,7.419397875216,1.312336,1.8342908,1.2954724824,-1.789552,-0.447388,-0.223694,208.8, 8.8, 3.1,0,0,1024,1024,1024,1024,0,0,0,0,218.8,0,0,13,3.688,3.683,0,0,0,0,1.569,98.96,7.419397875216,1.312336,6,P-GPS,
3400,2022-08-11 20:05:08,-34.9287662134081,-56.162824683865,1.64042,1.7716536,5.975828275216,7.747481875216,1.64042,1.5882274,1.5384186844,1.73458666968,23,5,7.331,7.747481875216,1.64042,1.8342908,1.5384186844,-1.565858,-0.223694,-0.223694,208.4, 9.2, 3.2,0,0,1024,1024,1024,1024,0,0,0,0,218.8,0,0,13,3.664,3.66,0,0,0,0,4.287,98.96,7.747481875216,1.64042,6,P-GPS,
3500,2022-08-11 20:05:09,-34.9287668387266,-56.1628247617056,1.64042,1.804462,5.943019875216,7.747481875216,1.64042,1.1408394,1.7652887704,1.96391738568,23,5,7.331,7.747481875216,1.64042,1.8342908,1.7652887704,-1.11847,-0.223694,0,208.2, 7.7, 3.3,0,0,1024,1024,1024,1024,0,0,0,0,218.8,0,0,13,3.664,3.66,0,0,0,0,4.287,98.96,7.747481875216,1.64042,6,P-GPS,
3600,2022-08-11 20:05:09,-34.9287673747057,-56.1628249440783,1.64042,1.804462,5.943019875216,7.747481875216,1.64042,0.894776,1.96820544356,2.16693576488,23,5,7.331,7.747481875216,1.64042,1.8342908,1.96820544356,-0.894776,0,0,208.1, 7.4, 3.4,0,0,1024,1024,1024,1024,0,0,0,0,218.8,0,0,13,3.664,3.66,0,0,0,0,4.287,98.96,7.747481875216,1.64042,6,P-GPS,
3700,2022-08-11 20:05:09,-34.9287678601571,-56.16282516312,1.64042,1.8372704,5.910211475216,7.747481875216,1.64042,0.671082,2.15596791676,2.35578419612,23,5,7.331,7.747481875216,1.64042,1.8342908,2.15596791676,-0.671082,0,0,208.2, 5.6, 3.9,0,0,1293,1024,1024,1024,41,0,0,0,218.8,0,0,13,3.664,3.66,0,0,0,0,4.287,98.96,7.747481875216,1.64042,6,P-GPS,
3800,2022-08-11 20:05:09,-34.9287683603552,-56.1628252323243,1.64042,1.8372704,5.910211475216,7.747481875216,1.64042,0.447388,2.33800532416,2.53944890016,23,5,7.331,7.747481875216,1.64042,1.8342908,2.33800532416,-0.447388,0,0,208.2, 4.4, 3.6,0,0,1684,1024,1024,1024,100,0,0,0,218.8,0,0,13,3.664,3.66,0,0,0,0,4.287,98.96,7.747481875216,1.64042,6,P-GPS,
3900,2022-08-11 20:05:09,-34.928768576555,-56.1628250835801,1.64042,1.9028872,5.844594675216,7.747481875216,1.64042,0.447388,2.4047901032,2.63001320752,23,5,7.331,7.747481875216,1.64042,1.8342908,2.4047901032,-0.447388,0,0,207.8, -4.1, 3.2,0,0,1684,1024,1024,1024,100,0,0,0,218.8,0,0,13,3.664,3.66,0,0,0,0,4.287,98.96,7.747481875216,1.64042,6,P-GPS,
4000,2022-08-11 20:05:09,-34.9287687874265,-56.1628249689776,1.968504,2.2309712,5.844594675216,8.075565875216,1.64042,0.671082,2.47313656208,2.71424221284,23,5,7.331,8.075565875216,1.968504,1.8342908,2.47313656208,-0.671082,0,0,207.4, -16, 3.8,0,0,1211,1024,1024,1024,28,0,0,0,218.8,0,0,13,3.664,3.66,0,0,0,0,4.287,98.96,8.075565875216,1.968504,6,P-GPS,
4100,2022-08-11 20:05:09,-34.9287691831411,-56.1628249758989,1.968504,2.2309712,5.844594675216,8.075565875216,1.64042,1.3645334,2.6153052018,2.85863198124,23,5,7.331,8.075565875216,1.968504,1.8342908,2.6153052018,-1.342164,-0.223694,0,207.5, -18.9, 3.8,0,0,1024,1024,1024,1024,0,0,0,0,218.8,0,0,13,3.664,3.66,0,0,0,0,4.287,98.96,8.075565875216,1.968504,6,P-GPS,
4200,2022-08-11 20:05:09,-34.9287694365154,-56.1628250841548,1.968504,2.2309712,5.844594675216,8.075565875216,1.64042,2.125093,2.7121720028,2.95658474028,23,5,7.331,8.075565875216,1.968504,2.125093,2.7121720028,-2.013246,-0.671082,0,208.1, -9.2, 3.9,0,0,1024,1024,1024,1024,0,0,0,0,218.8,0,0,13,3.664,3.66,0,0,0,0,4.287,98.96,8.075565875216,1.968504,6,P-GPS,
4300,2022-08-11 20:05:09,-34.9287702711312,-56.1628254510344,1.968504,2.2637796,5.811786275216,8.075565875216,1.64042,2.3264176,3.0323655826,3.280265853,23,5,7.331,8.075565875216,1.968504,2.3264176,3.0323655826,-2.23694,-0.671082,0,209.1, 7.9, 4.4,0,0,1024,1024,1024,1024,0,0,0,0,218.8,0,0,13,3.664,3.66,0,0,0,0,4.287,98.96,8.075565875216,1.968504,6,P-GPS,
4400,2022-08-11 20:05:09,-34.9287710999913,-56.1628257848119,1.968504,2.296588,5.778977875216,8.075565875216,1.64042,2.125093,3.3490158552,3.5987205876,23,5,7.327,8.075565875216,1.968504,2.3264176,3.3490158552,-2.013246,-0.671082,0,209.2, 11.7, 4.2,0,0,1024,1024,1024,1024,0,0,0,0,218.8,0,0,13,3.663,3.657,0,0,0,0,4.464,98.96,8.075565875216,1.968504,6,P-GPS,
4500,2022-08-11 20:05:10,-34.928771869042,-56.1628260478556,1.968504,2.3293964,5.746169475216,8.075565875216,1.64042,1.8342908,3.6400263632,3.8901247964,23,5,7.327,8.075565875216,1.968504,2.3264176,3.6400263632,-1.789552,-0.447388,0,209, 11.2, 4.3,0,0,1024,1024,1024,1024,0,0,0,0,218.8,0,0,13,3.663,3.657,0,0,0,0,4.464,98.96,8.075565875216,1.968504,6,P-GPS,
4600,2022-08-11 20:05:10,-34.9287730474952,-56.1628265217959,1.968504,2.3622048,5.713361075216,8.075565875216,1.64042,1.4092722,4.090879396,4.3428807164,23,5,7.327,8.075565875216,1.968504,2.3264176,4.090879396,-1.342164,-0.447388,0,209.1, 10, 4.2,0,0,1024,1024,1024,1024,0,0,0,0,218.8,0,0,13,3.663,3.657,0,0,0,0,4.464,98.96,8.075565875216,1.968504,6,P-GPS,
4700,2022-08-11 20:05:10,-34.9287737039318,-56.1628266975294,1.968504,2.3950132,5.680552675216,8.075565875216,1.64042,1.1408394,4.3360565692,4.5880578896,24,5,7.327,8.075565875216,1.968504,2.3264176,4.3360565692,-1.11847,-0.223694,0,208.9, 7.9, 4.2,0,0,1024,1024,1024,1024,0,0,0,0,218.8,0,0,13,3.663,3.657,0,0,0,0,4.464,98.96,8.075565875216,1.968504,6,P-GPS,
4800,2022-08-11 20:05:10,-34.928774230827,-56.1628268140741,1.968504,2.3950132,5.680552675216,8.075565875216,1.64042,1.1408394,4.531168124,4.7834319116,24,5,7.327,8.075565875216,1.968504,2.3264176,4.531168124,-0.671082,0,0,208.9, 6.5, 3.8,0,0,1024,1024,1024,1024,0,0,0,0,218.8,0,0,13,3.663,3.657,0,0,0,0,4.464,98.96,8.075565875216,1.968504,6,P-GPS,
4900,2022-08-11 20:05:10,-34.9287747023935,-56.1628268937173,2.296588,2.7559056,5.647744275216,8.403649875216,1.64042,0.447388,4.7041668172,4.9571195812,24,5,7.327,8.403649875216,2.296588,2.3264176,4.7041668172,-0.447388,0,0,209.1, 5.7, 4,0,0,1024,1024,1132,1024,0,0,16,0,218.8,0,0,13,3.663,3.657,0,0,0,0,4.464,98.96,8.403649875216,2.296588,6,P-GPS,
5000,2022-08-11 20:05:10,-34.9287749775578,-56.1628268185634,2.296588,2.7559056,5.647744275216,8.403649875216,1.64042,0.223694,4.7971458228,5.0600067236,24,5,7.327,8.403649875216,2.296588,2.3264176,4.7971458228,-0.223694,0,0,209.2, 4.2, 3.7,0,0,1024,1024,1543,1024,0,0,79,0,218.8,0,0,13,3.663,3.657,0,0,0,0,4.464,98.96,8.403649875216,2.296588,6,P-GPS,
5100,2022-08-11 20:05:10,-34.9287752056975,-56.1628264076819,2.296588,2.7559056,5.647744275216,8.403649875216,1.64042,0.223694,4.8539371632,5.2084647336,24,5,7.327,8.403649875216,2.296588,2.3264176,4.8539371632,-0.223694,0,0,209.2, 3.4, 3.5,0,0,1024,1024,1498,1024,0,0,72,0,218.8,0,0,13,3.663,3.657,0,0,0,0,4.464,98.96,8.403649875216,2.296588,6,P-GPS,
5200,2022-08-11 20:05:10,-34.9287752973915,-56.1628261917383,2.296588,2.7559056,5.647744275216,8.403649875216,1.968504,0.223694,4.8751970064,5.2812009564,24,5,7.327,8.403649875216,2.296588,2.3264176,4.8751970064,-0.223694,0,-0.447388,209.4, 3.2, 3.3,0,0,1024,1024,1498,1024,0,0,72,0,218.8,0,0,13,3.663,3.657,0,0,0,0,4.464,98.96,8.403649875216,2.296588,6,P-GPS,
5300,2022-08-11 20:05:10,-34.9287753512954,-56.1628259314728,2.296588,2.7559056,5.647744275216,8.403649875216,1.968504,0.223694,4.881725878,5.3614831112,23,5,7.327,8.403649875216,2.296588,2.3264176,4.881725878,-0.223694,0,-1.11847,209.6, 2.8, 3.4,0,0,1024,1024,1196,1024,0,0,26,0,218.8,0,0,13,3.663,3.657,0,0,0,0,4.464,98.96,8.403649875216,2.296588,6,P-GPS,
5400,2022-08-11 20:05:10,-34.9287753774149,-56.1628257168772,2.624672,3.0839896,5.647744275216,8.731733875216,2.296588,0.223694,4.8814962192,5.4263781264,23,5,7.313,8.731733875216,2.624672,2.3264176,4.881725878,-0.223694,0,-1.342164,209.8, 2.6, 4.5,0,0,1024,1024,1068,1024,0,0,7,0,218.8,0,0,12,3.66,3.655,0,0,0,0,4.76,98.96,8.731733875216,2.624672,6,P-GPS,
5500,2022-08-11 20:05:10,-34.9287749854183,-56.1628254536846,2.952756,3.4120736,5.647744275216,9.059817875216,2.296588,0.223694,4.7289699676,5.5896327248,23,5,7.313,9.059817875216,2.952756,2.3264176,4.881725878,-0.223694,0,-1.11847,210.3, 4.7, 5.8,0,0,1024,1024,1025,1024,0,0,0,0,218.8,0,0,12,3.66,3.655,0,0,0,0,4.76,98.96,9.059817875216,2.952756,6,P-GPS,
5600,2022-08-11 20:05:11,-34.928775013355,-56.1628252875501,2.952756,3.4120736,5.647744275216,9.059817875216,2.624672,0.223694,4.7328085504,5.6403873196,23,5,7.313,9.059817875216,2.952756,2.3264176,4.881725878,-0.223694,0,-0.671082,210.4, 4.7, 6.1,0,0,1024,1024,1024,1024,0,0,0,0,218.8,0,0,12,3.66,3.655,0,0,0,0,4.76,98.96,9.059817875216,2.952756,6,P-GPS,
5700,2022-08-11 20:05:11,-34.9287750287569,-56.1628251261544,3.28084,3.7401576,5.647744275216,9.387901875216,2.624672,0.223694,4.732775742,5.68897656,23,5,7.313,9.387901875216,3.28084,2.3264176,4.881725878,-0.223694,0,-0.447388,210.3, 3.8, 6.1,0,0,1024,1024,1024,1024,0,0,0,0,218.8,0,0,12,3.66,3.655,0,0,0,0,4.76,98.96,9.387901875216,3.28084,6,P-GPS,
5800,2022-08-11 20:05:11,-34.9287751088535,-56.1628249871672,3.28084,3.7401576,5.647744275216,9.387901875216,2.624672,0.223694,4.757382042,5.7397967716,23,5,7.313,9.387901875216,3.28084,2.3264176,4.881725878,-0.223694,0,0,210.3, 4, 6,0,0,1024,1024,1024,1024,0,0,0,0,218.8,0,0,12,3.66,3.655,0,0,0,0,4.76,98.96,9.387901875216,3.28084,6,P-GPS,
5900,2022-08-11 20:05:11,-34.9287752795669,-56.1628250749189,3.28084,3.7401576,5.647744275216,9.387901875216,2.624672,0.223694,4.8220802068,5.8073820756,23,5,7.313,9.387901875216,3.28084,2.3264176,4.881725878,-0.223694,0,0,210.4, 4.6, 5.2,0,0,1024,1024,1024,1024,0,0,0,0,218.8,0,0,12,3.66,3.655,0,0,0,0,4.76,98.96,9.387901875216,3.28084,6,P-GPS,
6000,2022-08-11 20:05:11,-34.9287754704487,-56.1628250248799,3.28084,3.7401576,5.647744275216,9.387901875216,2.624672,0.223694,4.8897967444,5.878609112,23,5,7.313,9.387901875216,3.28084,2.3264176,4.8897967444,-0.223694,0,0,210.6, 4.5, 4.4,0,0,1024,1024,1024,1024,0,0,0,0,218.8,0,0,12,3.66,3.655,0,0,0,0,4.76,98.96,9.387901875216,3.28084,6,P-GPS,
6100,2022-08-11 20:05:11,-34.928775694155,-56.1628249873513,3.28084,3.772966,5.614935875216,9.387901875216,2.624672,0,4.9698820488,5.9610238128,23,5,7.313,9.387901875216,3.28084,2.3264176,4.9698820488,0,0,0,210.5, 3.9, 4.9,0,0,1024,1024,1024,1024,0,0,0,0,218.8,0,0,12,3.66,3.655,0,0,0,0,4.76,98.96,9.387901875216,3.28084,6,P-GPS,
6200,2022-08-11 20:05:11,-34.9287758692363,-56.1628249456117,3.28084,3.772966,5.614935875216,9.387901875216,2.624672,0,5.0322836256,6.02608287,23,5,7.313,9.387901875216,3.28084,2.3264176,5.0322836256,0,0,0,210.5, 3.7, 5.1,0,0,1024,1024,1024,1024,0,0,0,0,218.8,0,0,12,3.66,3.655,0,0,0,0,4.76,98.96,9.387901875216,3.28084,6,P-GPS,
6300,2022-08-11 20:05:11,-34.9287764935052,-56.1628252327933,3.28084,3.772966,5.614935875216,9.387901875216,2.624672,0,5.2674870452,6.269521198,23,5,7.313,9.387901875216,3.28084,2.3264176,5.2674870452,0,0,0,210.7, 4.1, 5.1,0,0,1024,1024,1024,1024,0,0,0,0,218.8,0,0,12,3.66,3.655,0,0,0,0,4.76,98.96,9.387901875216,3.28084,6,P-GPS,
6400,2022-08-11 20:05:11,-34.9287766195529,-56.1628252045436,3.28084,3.8057744,5.582127475216,9.387901875216,2.624672,0,5.312336128,6.316273168,23,5,7.316,9.387901875216,3.28084,2.3264176,5.312336128,0,0,0,210.7, 4.3, 5,0,0,1024,1024,1024,1024,0,0,0,0,218.8,0,0,12,3.656,3.651,0,0,0,0,4.699,98.96,9.387901875216,3.28084,6,P-GPS,
6500,2022-08-11 20:05:11,-34.9287767270367,-56.162825173009,3.28084,3.8057744,5.582127475216,9.387901875216,2.624672,0,5.350393872,6.3566275,23,5,7.316,9.387901875216,3.28084,2.3264176,5.350393872,0,0,0,210.8, 4.2, 6,0,0,1024,1024,1024,1024,0,0,0,0,218.8,0,0,12,3.656,3.651,0,0,0,0,4.699,98.96,9.387901875216,3.28084,6,P-GPS,
6600,2022-08-11 20:05:12,-34.9287768342677,-56.1628251078224,3.28084,3.8057744,5.582127475216,9.387901875216,2.624672,0,5.3873689388,6.4003282888,23,5,7.316,9.387901875216,3.28084,2.3264176,5.3873689388,0,0,0,210.9, 3.8, 4.7,0,0,1024,1024,1024,1024,0,0,0,0,218.8,0,0,12,3.656,3.651,0,0,0,0,4.699,98.96,9.387901875216,3.28084,6,P-GPS,
6700,2022-08-11 20:05:12,-34.9287769480548,-56.1628250193549,3.28084,3.8057744,5.582127475216,9.387901875216,2.624672,0,5.4262468928,6.4495736972,23,5,7.316,9.387901875216,3.28084,2.3264176,5.4262468928,0,0,0,210.8, 3.6, 5,0,0,1024,1024,1024,1024,0,0,0,0,218.8,0,0,12,3.656,3.651,0,0,0,0,4.699,98.96,9.387901875216,3.28084,6,P-GPS,
6800,2022-08-11 20:05:12,-34.9287772569267,-56.1628250554872,3.28084,3.8057744,5.582127475216,9.387901875216,2.624672,0,5.5394358728,6.5627626772,23,5,7.316,9.387901875216,3.28084,2.3264176,5.5394358728,0,0,0,210.9, 3.8, 4.8,0,0,1024,1024,1024,1024,0,0,0,0,218.8,0,0,12,3.656,3.651,0,0,0,0,4.699,98.96,9.387901875216,3.28084,6,P-GPS,
6900,2022-08-11 20:05:12,-34.9287773396618,-56.162825007316,3.28084,3.8057744,5.582127475216,9.387901875216,2.624672,0,5.5682088396,6.5962272452,23,5,7.316,9.387901875216,3.28084,2.3264176,5.5682088396,0,0,0,210.9, 3.1, 4.5,0,0,1024,1024,1024,1024,0,0,0,0,218.8,0,0,12,3.656,3.651,0,0,0,0,4.699,98.96,9.387901875216,3.28084,6,P-GPS,
7000,2022-08-11 20:05:12,-34.9287773940233,-56.1628249784028,3.28084,3.8057744,5.582127475216,9.387901875216,2.624672,0,5.5872049032,6.6178479808,23,5,7.316,9.387901875216,3.28084,2.3264176,5.5872049032,0,0,0,211.2, 3.5, 4.6,0,0,1024,1024,1024,1024,0,0,0,0,218.8,0,0,12,3.656,3.651,0,0,0,0,4.699,98.96,9.387901875216,3.28084,6,P-GPS,
7100,2022-08-11 20:05:12,-34.9287774404124,-56.1628249561563,3.28084,3.8057744,5.582127475216,9.387901875216,2.624672,0,5.603510678,6.6360566428,23,5,7.316,9.387901875216,3.28084,2.3264176,5.603510678,0,0,0,211.1, 4.1, 4.8,0,0,1024,1024,1024,1024,0,0,0,0,218.8,0,0,12,3.656,3.651,0,0,0,0,4.699,98.96,9.387901875216,3.28084,6,P-GPS,
7200,2022-08-11 20:05:12,-34.9287775805583,-56.1628250461508,3.28084,3.8385828,5.549319075216,9.387901875216,2.624672,0,5.6567915196,6.6938322352,23,5,7.316,9.387901875216,3.28084,2.3264176,5.6567915196,0,0,0,211, 4.2, 4.5,0,0,1024,1024,1024,1024,0,0,0,0,218.8,0,0,12,3.656,3.651,0,0,0,0,4.699,98.96,9.387901875216,3.28084,6,P-GPS,
7300,2022-08-11 20:05:12,-34.928777616972,-56.1628250099166,3.28084,3.8385828,5.549319075216,9.387901875216,2.624672,0,5.6690618612,6.71095822,23,5,7.316,9.387901875216,3.28084,2.3264176,5.6690618612,0,0,0,211.1, 3.9, 4.6,0,0,1024,1024,1024,1024,0,0,0,0,218.8,0,0,12,3.656,3.651,0,0,0,0,4.699,98.96,9.387901875216,3.28084,6,P-GPS,
7400,2022-08-11 20:05:12,-34.9287776235753,-56.1628249570314,3.28084,3.8385828,5.549319075216,9.387901875216,2.624672,0,5.67011173,6.7269687192,23,5,7.316,9.387901875216,3.28084,2.3264176,5.67011173,0,0,0,211, 3.5, 4.8,0,0,1024,1024,1024,1024,0,0,0,0,218.8,0,0,12,3.656,3.651,0,0,0,0,4.699,98.96,9.387901875216,3.28084,6,P-GPS,
7500,2022-08-11 20:05:12,-34.9287776158137,-56.1628248981876,3.28084,3.8385828,5.549319075216,9.387901875216,2.624672,0,5.665846638,6.7448164888,23,5,7.304,9.387901875216,3.28084,2.3264176,5.67011173,0,0,0,211.2, 3.4, 4.6,0,0,1024,1024,1024,1024,0,0,0,0,218.8,0,0,12,3.656,3.651,0,0,0,0,4.602,98.96,9.387901875216,3.28084,6,P-GPS,
7600,2022-08-11 20:05:13,-34.928777710237,-56.1628249216306,3.28084,3.8385828,5.549319075216,9.387901875216,2.624672,0,5.7007547756,6.7799542852,23,5,7.304,9.387901875216,3.28084,2.3264176,5.7007547756,0,0,0,211.2, 2.9, 4.9,0,0,1024,1024,1024,1024,0,0,0,0,218.8,0,0,12,3.656,3.651,0,0,0,0,4.602,98.96,9.387901875216,3.28084,6,P-GPS,
7700,2022-08-11 20:05:13,-34.9287777521589,-56.1628249158691,3.28084,3.8385828,5.549319075216,9.387901875216,2.624672,0,5.7158466396,6.7953414248,23,5,7.304,9.387901875216,3.28084,2.3264176,5.7158466396,0,0,0,211.4, 4.2, 4.3,0,0,1024,1024,1024,1024,0,0,0,0,218.8,0,0,12,3.656,3.651,0,0,0,0,4.602,98.96,9.387901875216,3.28084,6,P-GPS,
7800,2022-08-11 20:05:13,-34.9287777409715,-56.1628248890811,3.28084,3.8385828,5.549319075216,9.387901875216,2.624672,0,5.7111550384,6.8043309264,23,5,7.304,9.387901875216,3.28084,2.3264176,5.7158466396,0,0,0,211.1, 3.5, 4.1,0,0,1024,1024,1024,1024,0,0,0,0,218.8,0,0,12,3.656,3.651,0,0,0,0,4.602,98.96,9.387901875216,3.28084,6,P-GPS,
7900,2022-08-11 20:05:13,-34.9287776977143,-56.1628248451026,3.28084,3.8385828,5.549319075216,9.387901875216,2.624672,0,5.694389946,6.8249017932,23,5,7.304,9.387901875216,3.28084,2.3264176,5.7158466396,0,0,0,211.2, 3, 4.5,0,0,1024,1024,1024,1024,0,0,0,0,218.8,0,0,12,3.656,3.651,0,0,0,0,4.602,98.96,9.387901875216,3.28084,6,P-GPS,
8000,2022-08-11 20:05:13,-34.9287775807651,-56.1628247973912,3.28084,3.8385828,5.549319075216,9.387901875216,2.624672,0,5.650754774,6.8698821096,23,5,7.304,9.387901875216,3.28084,2.3264176,5.7158466396,0,0,0,211.3, 3.2, 4.5,0,0,1024,1024,1024,1024,0,0,0,0,218.8,0,0,12,3.656,3.651,0,0,0,0,4.602,98.96,9.387901875216,3.28084,6,P-GPS,
8100,2022-08-11 20:05:13,-34.9287775387961,-56.1628247628511,3.28084,3.8385828,5.549319075216,9.387901875216,2.624672,0,5.6347114664,6.8883532388,23,5,7.304,9.387901875216,3.28084,2.3264176,5.7158466396,0,0,0,211.4, 3.9, 4.1,0,0,1024,1024,1024,1024,0,0,0,0,218.8,0,0,12,3.656,3.651,0,0,0,0,4.602,98.96,9.387901875216,3.28084,6,P-GPS,
8200,2022-08-11 20:05:13,-34.9287774994166,-56.1628247398379,3.28084,3.8057744,5.582127475216,9.387901875216,2.624672,0,5.6198492612,6.9042981212,23,5,7.304,9.387901875216,3.28084,2.3264176,5.7158466396,0,0,0,211.5, 3.7, 4.2,0,0,1024,1024,1024,1024,0,0,0,0,218.8,0,0,12,3.656,3.651,0,0,0,0,4.602,98.96,9.387901875216,3.28084,6,P-GPS,
8300,2022-08-11 20:05:13,-34.9287774579784,-56.1628247110266,3.28084,3.8057744,5.582127475216,9.387901875216,2.624672,0,5.604166846,6.9216865732,23,5,7.304,9.387901875216,3.28084,2.3264176,5.7158466396,0,0,0,211.5, 3, 4.7,0,0,1024,1024,1024,1024,0,0,0,0,218.8,0,0,12,3.656,3.651,0,0,0,0,4.602,98.96,9.387901875216,3.28084,6,P-GPS,
8400,2022-08-11 20:05:13,-34.9287773661826,-56.1628247237447,3.28084,3.8057744,5.582127475216,9.387901875216,2.624672,0,5.571030362,6.9553808,23,5,7.304,9.387901875216,3.28084,2.3264176,5.7158466396,0,0,0,211.4, 2.7, 4.3,0,0,1024,1024,1024,1024,0,0,0,0,218.8,0,0,12,3.656,3.651,0,0,0,0,4.602,98.96,9.387901875216,3.28084,6,P-GPS,
8500,2022-08-11 20:05:14,-34.9287771304686,-56.1628249305726,3.28084,3.8057744,5.582127475216,9.387901875216,2.624672,0,5.4901904644,7.061351932,23,5,7.298,9.387901875216,3.28084,2.3264176,5.7158466396,0,0,0,211.5, 2.7, 4.4,0,0,1024,1024,1024,1024,0,0,0,0,218.8,0,0,12,3.653,3.648,0,0,0,0,4.479,98.96,9.387901875216,3.28084,6,P-GPS,
8600,2022-08-11 20:05:14,-34.9287770678399,-56.1628248917718,3.28084,3.8057744,5.582127475216,9.387901875216,2.624672,0,5.4664371828,7.0869752924,23,5,7.298,9.387901875216,3.28084,2.3264176,5.7158466396,0,0,0,211.4, 1.7, 4.9,0,0,1024,1024,1024,1024,0,0,0,0,218.8,0,0,12,3.653,3.648,0,0,0,0,4.479,98.96,9.387901875216,3.28084,6,P-GPS,
8700,2022-08-11 20:05:14,-34.9287770365811,-56.1628248236045,3.28084,3.8057744,5.582127475216,9.387901875216,2.624672,0,5.453412248,7.1103348732,23,5,7.298,9.387901875216,3.28084,2.3264176,5.7158466396,0,0,0,211.6, 2.2, 4.6,0,0,1024,1024,1024,1024,0,0,0,0,218.8,0,0,12,3.653,3.648,0,0,0,0,4.479,98.96,9.387901875216,3.28084,6,P-GPS,
8800,2022-08-11 20:05:14,-34.928777005556,-56.162824746976,3.28084,3.8057744,5.582127475216,9.387901875216,2.624672,0,5.4403216964,7.1358926168,23,5,7.298,9.387901875216,3.28084,2.3264176,5.7158466396,0,0,0,211.8, 2.2, 5,0,0,1024,1024,1024,1024,0,0,0,0,218.8,0,0,12,3.653,3.648,0,0,0,0,4.479,98.96,9.387901875216,3.28084,6,P-GPS,
8900,2022-08-11 20:05:14,-34.9287770368962,-56.162824553855,3.608924,4.1338584,5.582127475216,9.715985875216,2.624672,0,5.447670778,7.1947836948,23,5,7.298,9.715985875216,3.608924,2.3264176,5.7158466396,0,0,0,211.7, 2.3, 5,0,0,1024,1024,1024,1024,0,0,0,0,218.8,0,0,12,3.653,3.648,0,0,0,0,4.479,98.96,9.715985875216,3.608924,6,P-GPS,
9000,2022-08-11 20:05:14,-34.9287769973002,-56.1628244960091,3.608924,4.1338584,5.582127475216,9.715985875216,2.624672,0,5.4321524048,7.2173230656,23,5,7.298,9.715985875216,3.608924,2.3264176,5.7158466396,0,0,0,211.4, 2, 5.8,0,0,1024,1024,1024,1024,0,0,0,0,218.8,0,0,12,3.653,3.648,0,0,0,0,4.479,98.96,9.715985875216,3.608924,6,P-GPS,
9100,2022-08-11 20:05:14,-34.9287769617268,-56.1628244598794,3.608924,4.1338584,5.582127475216,9.715985875216,2.624672,0,5.4185369188,7.2342193916,23,5,7.298,9.715985875216,3.608924,2.3264176,5.7158466396,0,0,0,211.2, 1.1, 5.7,0,0,1024,1024,1024,1024,0,0,0,0,218.8,0,0,12,3.653,3.648,0,0,0,0,4.479,98.96,9.715985875216,3.608924,6,P-GPS,
9200,2022-08-11 20:05:14,-34.9287769364187,-56.1628244428392,3.608924,4.1338584,5.582127475216,9.715985875216,2.624672,0,5.4090224828,7.244750888,23,5,7.298,9.715985875216,3.608924,2.3264176,5.7158466396,0,0,0,211.3, 0.7, 5.5,0,0,1024,1024,1024,1024,0,0,0,0,218.8,0,0,12,3.653,3.648,0,0,0,0,4.479,98.96,9.715985875216,3.608924,6,P-GPS,
9300,2022-08-11 20:05:14,-34.928776924058,-56.1628245318619,3.608924,4.1338584,5.582127475216,9.715985875216,2.624672,0,5.406168152,7.2717522012,23,5,7.298,9.715985875216,3.608924,2.3264176,5.7158466396,0,0,0,211.4, 1.5, 5.1,0,0,1024,1024,1024,1024,0,0,0,0,218.8,0,0,12,3.653,3.648,0,0,0,0,4.479,98.96,9.715985875216,3.608924,6,P-GPS,
9400,2022-08-11 20:05:14,-34.9287768820198,-56.1628245535768,3.937008,4.4619424,5.582127475216,10.044069875216,2.624672,0,5.3912731384,7.2884188684,23,5,7.298,10.044069875216,3.937008,2.3264176,5.7158466396,0,0,0,211.3, 1.8, 4.7,0,0,1024,1024,1024,1024,0,0,0,0,218.8,0,0,12,3.653,3.648,0,0,0,0,4.479,98.96,10.044069875216,3.937008,6,P-GPS,
9500,2022-08-11 20:05:15,-34.9287768308272,-56.1628245709892,3.937008,4.4619424,5.582127475216,10.044069875216,2.624672,0,5.3729988596,7.3078086328,23,5,7.295,10.044069875216,3.937008,2.3264176,5.7158466396,0,0,0,211.5, 3.2, 4.8,0,0,1024,1024,1024,1024,0,0,0,0,218.8,0,0,12,3.65,3.645,0,0,0,0,4.522,98.96,10.044069875216,3.937008,6,P-GPS,
9600,2022-08-11 20:05:15,-34.928776763432,-56.1628245722065,3.937008,4.4619424,5.582127475216,10.044069875216,2.624672,0,5.3484909848,7.3324149328,23,5,7.295,10.044069875216,3.937008,2.3264176,5.7158466396,0,0,0,211.7, 4, 5.5,0,0,1024,1024,1024,1024,0,0,0,0,218.8,0,0,12,3.65,3.645,0,0,0,0,4.522,98.96,10.044069875216,3.937008,6,P-GPS,
9700,2022-08-11 20:05:15,-34.9287764946736,-56.1628245796138,3.937008,4.429134,5.614935875216,10.044069875216,2.624672,0,5.2507875696,7.4304792404,23,5,7.295,10.044069875216,3.937008,2.3264176,5.7158466396,0,0,0,211.7, 4.1, 5.7,0,0,1024,1024,1024,1024,0,0,0,0,218.8,0,0,12,3.65,3.645,0,0,0,0,4.522,98.96,10.044069875216,3.937008,6,P-GPS,
9800,2022-08-11 20:05:15,-34.9287763900302,-56.1628245666292,3.937008,4.429134,5.614935875216,10.044069875216,2.624672,0,5.21243455,7.4688650684,23,5,7.295,10.044069875216,3.937008,2.3264176,5.7158466396,0,0,0,211.6, 3.4, 5.1,0,0,1024,1024,1024,1024,0,0,0,0,218.8,0,0,12,3.65,3.645,0,0,0,0,4.522,98.96,10.044069875216,3.937008,6,P-GPS,
9900,2022-08-11 20:05:15,-34.9287762710056,-56.1628245505504,3.937008,4.429134,5.614935875216,10.044069875216,2.624672,0,5.168799378,7.5125658572,23,5,7.295,10.044069875216,3.937008,2.3264176,5.7158466396,0,0,0,211.3, 2.4, 3.8,0,0,1024,1024,1024,1024,0,0,0,0,218.8,0,0,12,3.65,3.645,0,0,0,0,4.522,98.96,10.044069875216,3.937008,6,P-GPS,
10000,2022-08-11 20:05:15,-34.9287761470114,-56.1628245474378,3.608924,4.10105,5.614935875216,9.715985875216,2.624672,0.223694,5.1235894028,7.5578086408,23,5,7.295,10.044069875216,3.937008,2.3264176,5.7158466396,0.223694,0,0,211.4, 1.1, 4.3,0,0,1024,1024,1024,1024,0,0,0,0,218.8,0,0,12,3.65,3.645,0,0,0,0,4.522,98.96,9.715985875216,3.608924,6,P-GPS,
10100,2022-08-11 20:05:15,-34.9287760133165,-56.1628245503845,3.608924,4.10105,5.614935875216,9.715985875216,2.624672,0.223694,5.0750001624,7.6065947316,23,5,7.295,10.044069875216,3.937008,2.3264176,5.7158466396,0.223694,0,0,211.7, 1.1, 4,0,0,1024,1024,1024,1024,0,0,0,0,218.8,0,0,12,3.65,3.645,0,0,0,0,4.522,98.96,9.715985875216,3.608924,6,P-GPS,
10200,2022-08-11 20:05:15,-34.9287758239163,-56.1628245833246,3.28084,3.772966,5.614935875216,9.387901875216,2.624672,0.223694,5.0067586904,7.6763781984,23,5,7.295,10.044069875216,3.937008,2.3264176,5.7158466396,0,0,0,211.4, 0.6, 4.3,0,0,1024,1024,1024,1024,0,0,0,0,218.8,0,0,12,3.65,3.645,0,0,0,0,4.522,98.96,9.387901875216,3.28084,6,P-GPS,
10300,2022-08-11 20:05:15,-34.9287756700133,-56.1628245571413,3.28084,3.772966,5.614935875216,9.387901875216,2.624672,0,4.9501970088,7.7330711136,23,5,7.295,10.044069875216,3.937008,2.3264176,5.7158466396,0,0,0,211.5, 0.8, 4.1,0,0,1024,1024,1024,1024,0,0,0,0,218.8,0,0,12,3.65,3.645,0,0,0,0,4.522,98.96,9.387901875216,3.28084,6,P-GPS,
10400,2022-08-11 20:05:15,-34.9287755242814,-56.1628245322067,3.28084,3.772966,5.614935875216,9.387901875216,2.624672,0,4.8966208916,7.7867784644,23,5,7.295,10.044069875216,3.937008,2.3264176,5.7158466396,0,0,0,211.5, 0.3, 4.4,0,0,1024,1024,1024,1024,0,0,0,0,218.8,0,0,12,3.65,3.645,0,0,0,0,4.522,98.96,9.387901875216,3.28084,6,P-GPS,
10500,2022-08-11 20:05:15,-34.9287753890073,-56.1628245023479,3.28084,3.7401576,5.647744275216,9.387901875216,2.624672,0,4.846784932,7.836942508,23,5,7.295,10.044069875216,3.937008,2.3264176,5.7158466396,0,0,0,211.6, 0.5, 4.7,0,0,1024,1024,1024,1024,0,0,0,0,218.8,0,0,12,3.65,3.645,0,0,0,0,4.522,98.96,9.387901875216,3.28084,6,P-GPS,
10600,2022-08-11 20:05:16,-34.9287752610112,-56.1628245179486,3.28084,3.7401576,5.647744275216,9.387901875216,2.624672,0,4.800525088,7.88385852,23,5,7.288,10.044069875216,3.937008,2.3264176,5.7158466396,0,0,0,211.3, 0.1, 5.1,0,0,1024,1024,1024,1024,0,0,0,0,218.8,0,0,12,3.647,3.64,0,0,0,0,4.539,98.96,9.387901875216,3.28084,6,P-GPS,
10700,2022-08-11 20:05:16,-34.9287752450008,-56.1628245026705,3.28084,3.7401576,5.647744275216,9.387901875216,2.624672,0,4.7943571088,7.8912732184,23,5,7.288,10.044069875216,3.937008,2.3264176,5.7158466396,0,0,0,211.3, 1.3, 5,0,0,1024,1024,1024,1024,0,0,0,0,218.8,0,0,12,3.647,3.64,0,0,0,0,4.539,98.96,9.387901875216,3.28084,6,P-GPS,
10800,2022-08-11 20:05:16,-34.9287752284672,-56.162824510463,3.28084,3.7401576,5.647744275216,9.387901875216,2.624672,0,4.7885172136,7.8977364732,23,5,7.288,10.044069875216,3.937008,2.3264176,5.7158466396,0,0,0,211.5, 2.1, 5.3,0,0,1024,1024,1024,1024,0,0,0,0,218.8,0,0,12,3.647,3.64,0,0,0,0,4.539,98.96,9.387901875216,3.28084,6,P-GPS,
10900,2022-08-11 20:05:16,-34.9287752067328,-56.1628245360181,3.28084,3.7401576,5.647744275216,9.387901875216,2.624672,0,4.781168132,7.9087600956,23,5,7.288,10.044069875216,3.937008,2.3264176,5.7158466396,0,0,0,211.5, 2.9, 5.1,0,0,1024,1024,1024,1024,0,0,0,0,218.8,0,0,12,3.647,3.64,0,0,0,0,4.539,98.96,9.387901875216,3.28084,6,P-GPS,
11000,2022-08-11 20:05:16,-34.9287752619476,-56.1628246681754,3.28084,3.7401576,5.647744275216,9.387901875216,2.624672,0,4.804298054,7.9531170524,23,5,7.288,10.044069875216,3.937008,2.3264176,5.7158466396,0,0,0,211.4, 3.1, 4.5,0,0,1024,1024,1024,1024,0,0,0,0,218.8,0,0,12,3.647,3.64,0,0,0,0,4.539,98.96,9.387901875216,3.28084,6,P-GPS,
11100,2022-08-11 20:05:16,-34.9287752764534,-56.1628247189275,2.952756,3.4120736,5.647744275216,9.059817875216,2.624672,0,4.8108269256,7.9692259768,23,5,7.288,10.044069875216,3.937008,2.3264176,5.7158466396,0,0,0,211.3, 3.1, 4.6,0,0,1024,1024,1024,1024,0,0,0,0,218.8,0,0,12,3.647,3.64,0,0,0,0,4.539,98.96,9.059817875216,2.952756,6,P-GPS,
11200,2022-08-11 20:05:16,-34.9287753010608,-56.1628247631816,2.952756,3.4120736,5.647744275216,9.059817875216,2.624672,0,4.8208991044,7.9852036676,23,5,7.288,10.044069875216,3.937008,2.3264176,5.7158466396,0,0,0,211.4, 3.1, 4.1,0,0,1024,1024,1024,1024,0,0,0,0,218.8,0,0,12,3.647,3.64,0,0,0,0,4.539,98.96,9.059817875216,2.952756,6,P-GPS,
11300,2022-08-11 20:05:16,-34.9287753250767,-56.1628248062182,2.952756,3.4120736,5.647744275216,9.059817875216,2.624672,0,4.8307416244,8.0007876576,23,5,7.288,10.044069875216,3.937008,2.3264176,5.7158466396,0,0,0,211.5, 2.4, 4,0,0,1024,1024,1024,1024,0,0,0,0,218.8,0,0,12,3.647,3.64,0,0,0,0,4.539,98.96,9.059817875216,2.952756,6,P-GPS,
11400,2022-08-11 20:05:16,-34.9287753987597,-56.1628249256967,2.624672,3.0839896,5.647744275216,8.731733875216,2.624672,0,4.8608269272,8.0455055068,23,5,7.288,10.044069875216,3.937008,2.3264176,5.7158466396,0,0,0,211.4, 2.4, 4,0,0,1024,1024,1024,1024,0,0,0,0,218.8,0,0,12,3.647,3.64,0,0,0,0,4.539,98.96,8.731733875216,2.624672,6,P-GPS,
11500,2022-08-11 20:05:16,-34.9287753800676,-56.162824970272,2.624672,3.0839896,5.647744275216,8.731733875216,2.624672,0,4.8553479244,8.0604661372,23,5,7.288,10.044069875216,3.937008,2.3264176,5.7158466396,0,0,0,211.4, 2.1, 3.6,0,0,1024,1024,1024,1024,0,0,0,0,218.8,0,0,12,3.647,3.64,0,0,0,0,4.539,98.96,8.731733875216,2.624672,6,P-GPS,
11600,2022-08-11 20:05:17,-34.9287753642994,-56.1628249884159,2.624672,3.0839896,5.647744275216,8.731733875216,2.624672,0,4.8501641972,8.0683729616,23,5,7.286,10.044069875216,3.937008,2.3264176,5.7158466396,0,0,0,211.5, 2.1, 4.4,0,0,1024,1024,1024,1024,0,0,0,0,218.8,0,0,12,3.643,3.639,0,0,0,0,4.625,98.96,8.731733875216,2.624672,6,P-GPS,
11700,2022-08-11 20:05:17,-34.9287753445675,-56.1628249925002,2.624672,3.0839896,5.647744275216,8.731733875216,2.624672,0,4.8431103912,8.0756892348,23,5,7.286,10.044069875216,3.937008,2.3264176,5.7158466396,0,0,0,211.5, 2.4, 4,0,0,1024,1024,1024,1024,0,0,0,0,218.8,0,0,12,3.643,3.639,0,0,0,0,4.625,98.96,8.731733875216,2.624672,6,P-GPS,
11800,2022-08-11 20:05:17,-34.9287753291991,-56.1628249874493,2.624672,3.0839896,5.647744275216,8.731733875216,2.624672,0,4.8373689212,8.0814963216,23,5,7.286,10.044069875216,3.937008,2.3264176,5.7158466396,0,0,0,211.4, 1.9, 4.3,0,0,1024,1024,1024,1024,0,0,0,0,218.8,0,0,12,3.643,3.639,0,0,0,0,4.625,98.96,8.731733875216,2.624672,6,P-GPS,
11900,2022-08-11 20:05:17,-34.928775337564,-56.162825010234,2.624672,3.0839896,5.647744275216,8.731733875216,2.624672,0,4.8411090788,8.0889766368,23,5,7.286,10.044069875216,3.937008,2.3264176,5.7158466396,0,0,0,211.5, 2, 4,0,0,1024,1024,1024,1024,0,0,0,0,218.8,0,0,12,3.643,3.639,0,0,0,0,4.625,98.96,8.731733875216,2.624672,6,P-GPS,
12000,2022-08-11 20:05:17,-34.9287753444083,-56.1628249986993,2.624672,3.0839896,5.647744275216,8.731733875216,2.624672,0,4.8432416248,8.0932089204,23,5,7.286,10.044069875216,3.937008,2.3264176,5.7158466396,0,0,0,211.5, 1.7, 4.4,0,0,1024,1024,1024,1024,0,0,0,0,218.8,0,0,12,3.643,3.639,0,0,0,0,4.625,98.96,8.731733875216,2.624672,6,P-GPS,
12100,2022-08-11 20:05:17,-34.9287753661078,-56.1628249800434,2.624672,3.0839896,5.647744275216,8.731733875216,2.624672,0,4.850557898,8.1029202068,23,5,7.286,10.044069875216,3.937008,2.3264176,5.7158466396,0,0,0,211.6, 1.1, 4.9,0,0,1024,1024,1024,1024,0,0,0,0,218.8,0,0,12,3.643,3.639,0,0,0,0,4.625,98.96,8.731733875216,2.624672,6,P-GPS,
12200,2022-08-11 20:05:17,-34.928775397827,-56.162824951125,2.952756,3.4120736,5.647744275216,9.059817875216,2.624672,0,4.861220628,8.1173559028,23,5,7.286,10.044069875216,3.937008,2.3264176,5.7158466396,0,0,0,211.6, 2.9, 5.2,0,0,1024,1024,1024,1024,0,0,0,0,218.8,0,0,12,3.643,3.639,0,0,0,0,4.625,98.96,9.059817875216,2.952756,6,P-GPS,
12300,2022-08-11 20:05:17,-34.9287754772869,-56.1628249345916,2.952756,3.4120736,5.647744275216,9.059817875216,2.624672,0,4.889599894,8.1467522292,23,5,7.286,10.044069875216,3.937008,2.3264176,5.7158466396,0,0,0,211.5, 2.9, 5.2,0,0,1024,1024,1024,1024,0,0,0,0,218.8,0,0,12,3.643,3.639,0,0,0,0,4.625,98.96,9.059817875216,2.952756,6,P-GPS,
12400,2022-08-11 20:05:17,-34.9287754768456,-56.162824880254,2.952756,3.4120736,5.647744275216,9.059817875216,2.624672,0,4.8878938572,8.1630251956,23,5,7.286,10.044069875216,3.937008,2.3264176,5.7158466396,0,0,0,211.4, 1.7, 5.5,0,0,1024,1024,1024,1024,0,0,0,0,218.8,0,0,12,3.643,3.639,0,0,0,0,4.625,98.96,9.059817875216,2.952756,6,P-GPS,
12500,2022-08-11 20:05:17,-34.9287754661419,-56.1628248368843,2.952756,3.4120736,5.647744275216,9.059817875216,2.624672,0,4.8828413636,8.1765750648,23,5,7.286,10.044069875216,3.937008,2.3264176,5.7158466396,0,0,0,211.4, 2.6, 5.7,0,0,1024,1024,1024,1024,0,0,0,0,218.8,0,0,12,3.643,3.639,0,0,0,0,4.625,98.96,9.059817875216,2.952756,6,P-GPS,
12600,2022-08-11 20:05:18,-34.9287754749269,-56.1628247999317,2.952756,3.4120736,5.647744275216,9.059817875216,2.624672,0,4.8850395264,8.1880908132,23,5,7.28,10.044069875216,3.937008,2.3264176,5.7158466396,0,0,0,211.4, 3.5, 5.5,0,0,1024,1024,1024,1024,0,0,0,0,218.8,0,0,12,3.639,3.632,0,0,0,0,4.681,98.96,9.059817875216,2.952756,6,P-GPS,
12700,2022-08-11 20:05:18,-34.9287753996334,-56.1628247392854,2.952756,3.4120736,5.647744275216,9.059817875216,2.624672,0,4.8561025176,8.2209976384,23,5,7.28,10.044069875216,3.937008,2.3264176,5.7158466396,0,0,0,211.4, 3.2, 5.1,0,0,1024,1024,1024,1024,0,0,0,0,218.8,0,0,12,3.639,3.632,0,0,0,0,4.681,98.96,9.059817875216,2.952756,6,P-GPS,
12800,2022-08-11 20:05:18,-34.9287753923457,-56.1628247422517,2.952756,3.4120736,5.647744275216,9.059817875216,2.624672,0,4.8535434624,8.2237863524,23,5,7.28,10.044069875216,3.937008,2.3264176,5.7158466396,0,0,0,211.3, 2.1, 4.6,0,0,1024,1024,1024,1024,0,0,0,0,218.8,0,0,12,3.639,3.632,0,0,0,0,4.681,98.96,9.059817875216,2.952756,6,P-GPS,
12900,2022-08-11 20:05:18,-34.9287753861942,-56.1628247759728,2.952756,3.4120736,5.647744275216,9.059817875216,2.624672,0,4.8521655096,8.2341209984,23,5,7.28,10.044069875216,3.937008,2.3264176,5.7158466396,0,0,0,211.2, 2.5, 4.4,0,0,1024,1024,1024,1024,0,0,0,0,218.8,0,0,12,3.639,3.632,0,0,0,0,4.681,98.96,9.059817875216,2.952756,6,P-GPS,
13000,2022-08-11 20:05:18,-34.9287754103106,-56.162824803713,2.952756,3.4120736,5.647744275216,9.059817875216,2.624672,0,4.8616471372,8.246227298,23,5,7.28,10.044069875216,3.937008,2.3264176,5.7158466396,0,0,0,211.3, 2.8, 3.9,0,0,1024,1024,1024,1024,0,0,0,0,218.8,0,0,12,3.639,3.632,0,0,0,0,4.681,98.96,9.059817875216,2.952756,6,P-GPS,
13100,2022-08-11 20:05:18,-34.9287754982572,-56.1628248896166,2.952756,3.4120736,5.647744275216,9.059817875216,2.624672,0,4.8959319152,8.2873362232,23,5,7.28,10.044069875216,3.937008,2.3264176,5.7158466396,0,0,0,211.3, 3, 4,0,0,1024,1024,1024,1024,0,0,0,0,218.8,0,0,12,3.639,3.632,0,0,0,0,4.681,98.96,9.059817875216,2.952756,6,P-GPS,
13200,2022-08-11 20:05:18,-34.9287754862136,-56.1628248975006,2.952756,3.4120736,5.647744275216,9.059817875216,2.624672,0,4.8917980568,8.2923231,23,5,7.28,10.044069875216,3.937008,2.3264176,5.7158466396,0,0,0,211.3, 3.1, 4.2,0,0,1024,1024,1024,1024,0,0,0,0,218.8,0,0,12,3.639,3.632,0,0,0,0,4.681,98.96,9.059817875216,2.952756,6,P-GPS,
13300,2022-08-11 20:05:18,-34.9287754425192,-56.1628249023739,2.952756,3.4120736,5.647744275216,9.059817875216,2.624672,0,4.8760500248,8.3083335992,23,5,7.28,10.044069875216,3.937008,2.3264176,5.7158466396,0,0,0,211.4, 2.6, 4.3,0,0,1024,1024,1024,1024,0,0,0,0,218.8,0,0,12,3.639,3.632,0,0,0,0,4.681,98.96,9.059817875216,2.952756,6,P-GPS,
13400,2022-08-11 20:05:18,-34.9287754277639,-56.1628249066202,2.952756,3.4120736,5.647744275216,9.059817875216,2.624672,0,4.8708334892,8.3138782188,23,5,7.28,10.044069875216,3.937008,2.3264176,5.7158466396,0,0,0,211.5, 3.9, 4,0,0,1024,1024,1024,1024,0,0,0,0,218.8,0,0,12,3.639,3.632,0,0,0,0,4.681,98.96,9.059817875216,2.952756,6,P-GPS,
13500,2022-08-11 20:05:18,-34.9287754304378,-56.1628249024927,2.952756,3.4120736,5.647744275216,9.059817875216,2.624672,0,4.8716865076,8.3154202136,23,5,7.28,10.044069875216,3.937008,2.3264176,5.7158466396,0,0,0,211.5, 3.7, 4.5,0,0,1024,1024,1024,1024,0,0,0,0,218.8,0,0,12,3.639,3.632,0,0,0,0,4.681,98.96,9.059817875216,2.952756,6,P-GPS,
13600,2022-08-11 20:05:19,-34.9287753298057,-56.1628248887937,2.952756,3.4120736,5.647744275216,9.059817875216,2.624672,0,4.8347442492,8.3523952804,23,5,7.28,10.044069875216,3.937008,2.3264176,5.7158466396,0,0,0,211.6, 3.6, 4.3,0,0,1024,696,1024,1024,0,-50,0,0,218.8,0,0,12,3.639,3.632,0,0,0,0,4.681,98.96,9.059817875216,2.952756,6,P-GPS,
13700,2022-08-11 20:05:19,-34.9287753356371,-56.1628248631185,2.952756,3.4120736,5.647744275216,9.059817875216,2.624672,0,4.836122202,8.3603349132,23,5,7.28,10.044069875216,3.937008,2.3264176,5.7158466396,0,0,0,211.5, 3.5, 4.6,0,0,1024,364,1024,1024,0,-100,0,0,218.8,0,0,12,3.639,3.632,0,0,0,0,4.681,98.96,9.059817875216,2.952756,6,P-GPS,
13800,2022-08-11 20:05:19,-34.9287753476933,-56.162824838547,3.28084,3.7401576,5.647744275216,9.387901875216,2.624672,0,4.8398295512,8.368930714,23,5,7.28,10.044069875216,3.937008,2.3264176,5.7158466396,0,0,0,211.2, 4.5, -3.5,0,0,1024,364,1024,1024,0,-100,0,0,218.8,0,0,12,3.642,3.636,0,0,0,0,4.681,98.96,9.387901875216,3.28084,6,P-GPS,
13900,2022-08-11 20:05:19,-34.9287754101539,-56.162824701459,3.28084,3.7401576,5.647744275216,9.387901875216,2.624672,0.3131716,4.8589896568,8.4158139176,23,5,7.28,10.044069875216,3.937008,2.3264176,5.7158466396,-0.223694,0.223694,0,210.9, 3.1, -13.5,0,0,1024,430,1024,1024,0,-90,0,0,218.8,0,0,12,3.642,3.636,0,0,0,0,4.681,98.96,9.387901875216,3.28084,6,P-GPS,
14000,2022-08-11 20:05:19,-34.9287755828394,-56.1628243036391,3.28084,3.772966,5.614935875216,9.387901875216,2.624672,1.11847,4.9135828344,8.5504923996,23,5,7.28,10.044069875216,3.937008,2.3264176,5.7158466396,-0.671082,0.894776,0,210.9, 3.1, -17.2,0,0,1024,1024,1024,1024,0,0,0,0,218.8,0,0,12,3.642,3.636,0,0,0,0,4.681,98.96,9.387901875216,3.28084,6,P-GPS,
14100,2022-08-11 20:05:19,-34.9287759162149,-56.1628235721004,3.608924,4.10105,5.614935875216,9.715985875216,2.624672,1.8119214,5.0275920244,8.8008204916,23,5,7.28,10.044069875216,3.937008,2.3264176,5.7158466396,-0.894776,1.565858,0,211.3, 2.8, -15.3,0,0,1024,1024,1024,1024,0,0,0,0,218.8,0,0,12,3.642,3.636,0,0,0,0,4.681,98.96,9.715985875216,3.608924,6,P-GPS,
14200,2022-08-11 20:05:19,-34.9287763731265,-56.162822540862,3.608924,4.10105,5.614935875216,9.715985875216,2.624672,2.6172198,5.199803316,9.1514766708,23,5,7.28,10.044069875216,3.937008,2.6172198,5.7158466396,-1.342164,2.23694,0,211.7, 3.5, 1.4,0,0,1024,1024,1024,1024,0,0,0,0,218.8,0,0,12,3.642,3.636,0,0,0,0,4.681,98.96,9.715985875216,3.608924,6,P-GPS,
14300,2022-08-11 20:05:19,-34.9287768839991,-56.1628213359303,3.608924,4.1338584,5.582127475216,9.715985875216,2.624672,2.6172198,5.4145014856,9.557250962,23,5,7.28,10.044069875216,3.937008,2.6172198,5.7158466396,-1.342164,2.23694,0,212.1, 3.5, 13.6,0,0,1024,1024,1024,1024,0,0,0,0,218.8,0,0,12,3.642,3.636,0,0,0,0,4.681,98.96,9.715985875216,3.608924,6,P-GPS,
14400,2022-08-11 20:05:19,-34.9287772244917,-56.1628199940647,3.608924,4.1338584,5.582127475216,9.715985875216,2.624672,2.3040482,5.5962600216,9.9773953324,23,5,7.28,10.044069875216,3.937008,2.6172198,5.7158466396,-1.11847,2.013246,0,211.8, 2.9, 15.6,0,0,1024,1024,1024,1024,0,0,0,0,218.8,0,0,12,3.642,3.636,0,0,0,0,4.681,98.96,9.715985875216,3.608924,6,P-GPS,
14500,2022-08-11 20:05:20,-34.9287775351207,-56.1628190040604,3.608924,4.1666668,5.549319075216,9.715985875216,2.624672,1.8119214,5.7674870612,10.2944885184,23,5,7.28,10.044069875216,3.937008,2.6172198,5.7674870612,-0.894776,1.565858,0,211.4, 1.9, 15.1,0,0,1024,1024,1024,1024,0,0,0,0,218.8,0,0,12,3.642,3.636,0,0,0,0,4.681,98.96,9.715985875216,3.608924,6,P-GPS,
14600,2022-08-11 20:05:20,-34.9287777872266,-56.1628181664276,3.608924,4.1666668,5.549319075216,9.715985875216,2.952756,1.4987498,5.917979192,10.5614176608,23,5,7.28,10.044069875216,3.937008,2.6172198,5.917979192,-0.671082,1.342164,0,211.6, 2.3, 13.8,0,0,1024,1115,1024,1024,0,14,0,0,218.8,0,0,12,3.642,3.636,0,0,0,0,4.681,98.96,9.715985875216,3.608924,6,P-GPS,
14700,2022-08-11 20:05:20,-34.9287780113803,-56.1628173956075,3.608924,4.1666668,5.549319075216,9.715985875216,2.952756,1.006623,6.0608269656,10.8060370912,23,5,7.28,10.044069875216,3.937008,2.6172198,6.0608269656,-0.447388,0.894776,0,212, 3.2, 11.9,0,0,1024,1684,1024,1024,0,100,0,0,218.8,0,0,12,3.642,3.636,0,0,0,0,4.681,98.96,9.715985875216,3.608924,6,P-GPS,
14800,2022-08-11 20:05:20,-34.9287780292948,-56.1628164542159,3.937008,4.4947508,5.549319075216,10.044069875216,2.952756,0.7158208,6.1558729004,11.0877300136,23,5,7.274,10.044069875216,3.937008,2.6172198,6.1558729004,-0.223694,0.671082,0,211.8, 2.4, 13.7,0,0,1024,1684,1024,1024,0,100,0,0,218.8,0,0,12,3.638,3.635,0,0,0,0,4.545,98.96,10.044069875216,3.937008,6,P-GPS,
14900,2022-08-11 20:05:20,-34.9287780378295,-56.1628160125508,3.937008,4.4947508,5.549319075216,10.044069875216,2.952756,0,6.2044293324,11.2198822488,23,5,7.274,10.044069875216,3.937008,2.6172198,6.2044293324,0,0,0,212.1, 2.3, 22.7,0,0,1024,1220,1024,1024,0,30,0,0,218.8,0,0,12,3.638,3.635,0,0,0,0,4.545,98.96,10.044069875216,3.937008,6,P-GPS,
15000,2022-08-11 20:05:20,-34.9287778796155,-56.162816030628,3.937008,4.4947508,5.549319075216,10.044069875216,2.952756,0.223694,6.1485566272,11.2778546916,23,5,7.274,10.044069875216,3.937008,2.6172198,6.2044293324,0,-0.223694,0,212.1, 2.4, 23.9,0,0,1024,1024,1024,1024,0,0,0,0,218.8,0,0,12,3.638,3.635,0,0,0,0,4.545,98.96,10.044069875216,3.937008,6,P-GPS,
15100,2022-08-11 20:05:20,-34.9287775448624,-56.1628164626484,3.937008,4.4947508,5.549319075216,10.044069875216,2.952756,1.006623,5.9888125276,11.4556762196,23,5,7.274,10.044069875216,3.937008,2.6172198,6.2044293324,0.447388,-0.894776,0,212.5, 3.8, 20.6,0,0,1024,1024,1024,1024,0,0,0,0,218.8,0,0,12,3.638,3.635,0,0,0,0,4.545,98.96,10.044069875216,3.937008,6,P-GPS,
15200,2022-08-11 20:05:20,-34.9287771388339,-56.1628171409898,3.937008,4.4619424,5.582127475216,10.044069875216,2.952756,1.2974252,5.7814634396,11.7068901384,23,5,7.274,10.044069875216,3.937008,2.6172198,6.2044293324,0.671082,-1.11847,0,211.5, 3.3, 4.6,0,0,1024,1024,1024,1024,0,0,0,0,218.8,0,0,12,3.638,3.635,0,0,0,0,4.545,98.96,10.044069875216,3.937008,6,P-GPS,
15300,2022-08-11 20:05:20,-34.9287764556284,-56.1628185956632,3.937008,4.429134,5.614935875216,10.044069875216,2.952756,1.2974252,5.4154857376,12.2083665324,23,5,7.274,10.044069875216,3.937008,2.6172198,6.2044293324,0.671082,-1.11847,0,211.2, 1.9, -0.3,0,0,1024,1024,1024,1024,0,0,0,0,218.8,0,0,12,3.638,3.635,0,0,0,0,4.545,98.96,10.044069875216,3.937008,6,P-GPS,
15400,2022-08-11 20:05:20,-34.9287761311756,-56.1628192815803,4.265092,4.757218,5.614935875216,10.372153875216,2.952756,1.2079476,5.2498689344,12.4452431804,23,5,7.274,10.372153875216,4.265092,2.6172198,6.2044293324,0.447388,-1.11847,0,211.3, 3.2, -1.2,0,0,1024,1024,1024,1024,0,0,0,0,218.8,0,0,12,3.638,3.635,0,0,0,0,4.545,98.96,10.372153875216,4.265092,6,P-GPS,
15500,2022-08-11 20:05:21,-34.9287758555541,-56.1628199103359,4.265092,4.757218,5.614935875216,10.372153875216,2.952756,1.006623,5.1107941268,12.6584977804,23,5,7.274,10.372153875216,4.265092,2.6172198,6.2044293324,0.447388,-0.894776,0,211.4, 3.4, -1.3,0,0,1024,1024,1024,1024,0,0,0,0,218.8,0,0,12,3.638,3.635,0,0,0,0,4.545,98.96,10.372153875216,4.265092,6,P-GPS,
15600,2022-08-11 20:05:21,-34.92877563268,-56.1628204045857,4.593176,5.085302,5.614935875216,10.700237875216,2.952756,0.7158208,5.0028872992,12.8272313816,23,5,7.274,10.700237875216,4.593176,2.6172198,6.2044293324,0.223694,-0.671082,0,211.5, 3.3, -0.6,0,0,1024,1024,1024,1024,0,0,0,0,218.8,0,0,12,3.638,3.635,0,0,0,0,4.545,98.96,10.700237875216,4.593176,6,P-GPS,
15700,2022-08-11 20:05:21,-34.9287754762162,-56.1628213263078,4.593176,5.0524936,5.647744275216,10.700237875216,2.952756,0.4921268,4.9048229916,13.1087930704,23,5,7.274,10.700237875216,4.593176,2.6172198,6.2044293324,0.223694,-0.447388,0,211.4, 3.3, 0.4,0,0,1024,1024,1024,1024,0,0,0,0,218.8,0,0,12,3.638,3.635,0,0,0,0,4.545,98.96,10.700237875216,4.593176,6,P-GPS,
15800,2022-08-11 20:05:21,-34.9287753859784,-56.1628215844965,4.593176,5.0524936,5.647744275216,10.700237875216,2.952756,0.223694,4.8630907068,13.192749766,23,5,7.26,10.700237875216,4.593176,2.6172198,6.2044293324,0,-0.223694,0,211.4, 3.6, 1.8,0,0,1024,1024,1024,1024,0,0,0,0,218.8,0,0,12,3.64,3.633,0,0,0,0,4.787,98.96,10.700237875216,4.593176,6,P-GPS,
15900,2022-08-11 20:05:21,-34.9287753436719,-56.1628217580435,4.593176,5.0524936,5.647744275216,10.700237875216,2.952756,0.223694,4.8422901812,13.2469164344,23,5,7.26,10.700237875216,4.593176,2.6172198,6.2044293324,0,0,0,211.5, 3.3, 3.1,0,0,1024,1024,1024,1024,0,0,0,0,218.8,0,0,12,3.64,3.633,0,0,0,0,4.787,98.96,10.700237875216,4.593176,6,P-GPS,
16000,2022-08-11 20:05:21,-34.9287753350961,-56.1628218167972,4.265092,4.7244096,5.647744275216,10.372153875216,2.624672,0,4.8374673464,13.264764204,23,5,7.26,10.700237875216,4.593176,2.6172198,6.2044293324,0,0,0,211.5, 2.9, 3.3,0,0,1024,1024,1024,1024,0,0,0,0,218.8,0,0,12,3.64,3.633,0,0,0,0,4.787,98.96,10.372153875216,4.265092,6,P-GPS,
16100,2022-08-11 20:05:21,-34.9287756872569,-56.1628214895635,4.265092,4.757218,5.614935875216,10.372153875216,2.624672,0,4.9754922852,13.4262799572,23,5,7.26,10.700237875216,4.593176,2.6172198,6.2044293324,0,0,0,211.3, 2.4, 3,0,0,1024,1024,1024,1024,0,0,0,0,218.8,0,0,12,3.64,3.633,0,0,0,0,4.787,98.96,10.372153875216,4.265092,6,P-GPS,
16200,2022-08-11 20:05:21,-34.9287756800901,-56.1628214713843,4.265092,4.757218,5.614935875216,10.372153875216,2.624672,0,4.9734909728,13.4323167028,23,5,7.26,10.700237875216,4.593176,2.6172198,6.2044293324,0,0,0,211.4, 2.7, 2.4,0,0,1024,1024,1024,1024,0,0,0,0,218.8,0,0,12,3.64,3.633,0,0,0,0,4.787,98.96,10.372153875216,4.265092,6,P-GPS,
16300,2022-08-11 20:05:21,-34.928775658422,-56.1628214465934,3.937008,4.429134,5.614935875216,10.044069875216,2.624672,0,4.9665027836,13.4431762832,23,5,7.26,10.700237875216,4.593176,2.6172198,6.2044293324,0,0,0,211.4, 2.7, 2.7,0,0,1024,1024,1024,1024,0,0,0,0,218.8,0,0,12,3.64,3.633,0,0,0,0,4.787,98.96,10.044069875216,3.937008,6,P-GPS,
16400,2022-08-11 20:05:21,-34.9287756507398,-56.1628214023446,3.937008,4.429134,5.614935875216,10.044069875216,2.624672,0,4.9652560644,13.456693344,23,5,7.26,10.700237875216,4.593176,2.6172198,6.2044293324,0,0,0,211.5, 2.7, 3.1,0,0,1024,1024,1024,1024,0,0,0,0,218.8,0,0,12,3.64,3.633,0,0,0,0,4.787,98.96,10.044069875216,3.937008,6,P-GPS,
16500,2022-08-11 20:05:21,-34.9287757111054,-56.1628211311204,3.608924,4.10105,5.614935875216,9.715985875216,2.624672,0,4.9973426796,13.5407484648,23,5,7.26,10.700237875216,4.593176,2.6172198,6.2044293324,0,0,0,211.3, 1.8, 3.5,0,0,1024,1024,1024,1024,0,0,0,0,218.8,0,0,12,3.64,3.633,0,0,0,0,4.787,98.96,9.715985875216,3.608924,6,P-GPS,
16600,2022-08-11 20:05:22,-34.9287756636566,-56.1628211103028,3.608924,4.10105,5.614935875216,9.715985875216,2.624672,0,4.9810369048,13.5591539772,23,5,7.26,10.700237875216,4.593176,2.6172198,6.2044293324,0,0,0,211.2, 2, 3.1,0,0,1024,1024,1024,1024,0,0,0,0,218.8,0,0,12,3.64,3.633,0,0,0,0,4.787,98.96,9.715985875216,3.608924,6,P-GPS,
16700,2022-08-11 20:05:22,-34.928775598126,-56.1628211089497,3.28084,3.772966,5.614935875216,9.387901875216,2.624672,0,4.9573820484,13.5830713008,23,5,7.26,10.700237875216,4.593176,2.6172198,6.2044293324,0,0,0,211.1, 2.1, 2.4,0,0,1024,1024,1024,1024,0,0,0,0,218.8,0,0,12,3.64,3.633,0,0,0,0,4.787,98.96,9.387901875216,3.28084,6,P-GPS,
16800,2022-08-11 20:05:22,-34.9287755130077,-56.1628211679672,3.28084,3.772966,5.614935875216,9.387901875216,2.624672,0,4.9242455644,13.6187996484,23,5,7.26,10.700237875216,4.593176,2.6172198,6.2044293324,0,0,0,211.3, 2.1, 2.8,0,0,1024,1024,1024,1024,0,0,0,0,218.8,0,0,12,3.64,3.633,0,0,0,0,4.787,98.96,9.387901875216,3.28084,6,P-GPS,
16900,2022-08-11 20:05:22,-34.9287754213161,-56.162821263744,2.952756,3.4120736,5.647744275216,9.059817875216,2.624672,0,4.8873361144,13.6628285212,23,5,7.26,10.700237875216,4.593176,2.6172198,6.2044293324,0,0,0,211.3, 2.9, 2.1,0,0,1024,1024,1024,1024,0,0,0,0,218.8,0,0,12,3.634,3.629,0,0,0,0,4.619,98.96,9.059817875216,2.952756,6,P-GPS,
17000,2022-08-11 20:05:22,-34.9287751825105,-56.1628214648614,2.952756,3.4120736,5.647744275216,9.059817875216,2.952756,0,4.7934056652,13.7687340364,23,5,7.26,10.700237875216,4.593176,2.6172198,6.2044293324,0,0,0,211.2, 2.9, 1.6,0,0,1024,1185,1024,1024,0,24,0,0,218.8,0,0,12,3.634,3.629,0,0,0,0,4.619,98.96,9.059817875216,2.952756,6,P-GPS,
17100,2022-08-11 20:05:22,-34.9287751377046,-56.162821548295,2.624672,3.0839896,5.647744275216,8.731733875216,2.952756,0,4.774278368,13.798556872,23,5,7.26,10.700237875216,4.593176,2.6172198,6.2044293324,0,0,0,211.3, 2.9, 1.7,0,0,1024,1507,1024,1024,0,73,0,0,218.8,0,0,12,3.634,3.629,0,0,0,0,4.619,98.96,8.731733875216,2.624672,6,P-GPS,
