time(millisecond),datetime(utc),latitude,longitude,height_above_takeoff(feet),height_above_ground_at_drone_location(feet),ground_elevation_at_drone_location(feet),altitude_above_seaLevel(feet),height_sonar(feet),speed(mph),distance(feet),mileage(feet),satellites,gpslevel,voltage(v),max_altitude(feet),max_ascent(feet),max_speed(mph),max_distance(feet), xSpeed(mph), ySpeed(mph), zSpeed(mph), compass_heading(degrees), pitch(degrees), roll(degrees),isPhoto,isVideo,rc_elevator,rc_aileron,rc_throttle,rc_rudder,rc_elevator(percent),rc_aileron(percent),rc_throttle(percent),rc_rudder(percent),gimbal_heading(degrees),gimbal_pitch(degrees),gimbal_roll(degrees),battery_percent,voltageCell1,voltageCell2,voltageCell3,voltageCell4,voltageCell5,voltageCell6,current(A),battery_temperature(f),altitude(feet),ascent(feet),flycStateRaw,flycState,message
0,2023-01-04 22:47:32,-34.9535181587103,-54.9408052908092,0,0,15.131077583932,15.131077583932,0.328084,0,0,0,23,5,0,15.131077583932,0,0,0,0,0,-0.223694,94.2, -8.9, 5.9,0,0,364,364,364,1684,-100,-100,-100,100,107.1,0,0,31,3.768,3.765,0,0,0,0,0,80.96,15.131077583932,0,41,Motors_Started,"Error de calibración del estabilizador. Reinicia la aeronave o contacta con la Asistencia DJI (Code: 40011)"
100,2023-01-04 22:47:32,-34.9535182001444,-54.9408053167964,0,0,15.131077583932,15.131077583932,0.328084,0,0.0169976711476,0.0169976711476,23,5,0,15.131077583932,0,0,0.0169976711476,0,0,-0.223694,94.8, -8.5, 5.1,0,0,364,364,364,1684,-100,-100,-100,100,107.1,0,0,31,3.768,3.765,0,0,0,0,0,80.96,15.131077583932,0,41,Motors_Started,"Error de calibración del estabilizador. Reinicia la aeronave o contacta con la Asistencia DJI (Code: 40011)"
200,2023-01-04 22:47:32,-34.9535181407835,-54.9408053572783,0,0,15.131077583932,15.131077583932,0.328084,0,0.0209251647116,0.041809056456,23,5,0,15.131077583932,0,0,0.0209251647116,0,0,0,94.5, -7.2, 5.4,0,0,364,364,364,1684,-100,-100,-100,100,107.2,0,0,31,3.768,3.765,0,0,0,0,0,80.96,15.131077583932,0,41,Motors_Started,
300,2023-01-04 22:47:32,-34.9535181508668,-54.940805391444,0,0,15.131077583932,15.131077583932,0.328084,0,0.0302292660592,0.052667980688,23,5,0,15.131077583932,0,0,0.0302292660592,0,0,0,94.6, -6.2, 4.3,0,0,364,364,364,1684,-100,-100,-100,100,107.1,0,0,31,3.768,3.765,0,0,0,0,0,80.96,15.131077583932,0,41,Motors_Started,
400,2023-01-04 22:47:32,-34.9535181882893,-54.9408053460046,0,0,15.131077583932,15.131077583932,0.328084,0,0.0197204402636,0.07193077658,23,5,0,15.131077583932,0,0,0.0302292660592,0,0,-0.223694,94.9, -7.3, 2.2,0,0,1024,1024,364,1473,0,0,-100,68,107.1,0,0,31,3.768,3.765,0,0,0,0,0,80.96,15.131077583932,0,41,Motors_Started,
500,2023-01-04 22:47:32,-34.9535182969489,-54.940805212641,0,0,15.131077583932,15.131077583932,0.328084,0.223694,0.055589568708,0.128163718012,23,5,0,15.131077583932,0,0.223694,0.055589568708,0,0.223694,-0.223694,93.7, -9.3, 0.8,0,0,1024,1024,989,1024,0,0,-5,0,106.6,0,0,31,3.768,3.765,0,0,0,0,0,80.96,15.131077583932,0,41,Motors_Started,
600,2023-01-04 22:47:32,-34.953518388934,-54.9408050468502,0,0,15.131077583932,15.131077583932,0.328084,0.223694,0.111254596736,0.188032486332,23,5,0,15.131077583932,0,0.223694,0.111254596736,0,0.223694,-0.223694,90.8, -13.4, -0.7,0,0,1024,1024,1415,1024,0,0,59,0,104.2,0,0,31,3.768,3.765,0,0,0,0,0,80.96,15.131077583932,0,41,Motors_Started,
700,2023-01-04 22:47:33,-34.953518752616,-54.9408047254889,0,-0.032808399999999,15.163885983932,15.131077583932,0.328084,0.223694,0.274829733204,0.35186680916,23,5,0,15.131077583932,0,0.223694,0.274829733204,0,0.223694,0,88.8, -17.2, -2.6,0,0,1024,1024,1684,1024,0,0,100,0,101.3,0,0,31,3.768,3.765,0,0,0,0,0,80.96,15.131077583932,0,41,Motors_Started,
800,2023-01-04 22:47:33,-34.9535187594025,-54.9408045125762,0,-0.032808399999999,15.163885983932,15.131077583932,0.328084,0.3131716,0.319672910492,0.4155840028,23,5,0,15.131077583932,0,0.3131716,0.319672910492,0.223694,0.223694,0,85.7, -19.7, -6.3,0,0,1024,1024,1684,1024,0,0,100,0,97.4,0,0,31,3.768,3.765,0,0,0,0,0,80.96,15.131077583932,0,41,Motors_Started,
900,2023-01-04 22:47:33,-34.9535187053618,-54.9408042862618,0,-0.032808399999999,15.163885983932,15.131077583932,0.328084,0.3131716,0.36057743936,0.4860728502,23,5,0,15.131077583932,0,0.3131716,0.36057743936,0.223694,0.223694,-0.223694,86.6, -17.4, -6.2,0,0,1024,1024,1684,1024,0,0,100,0,95.7,0,0,31,3.768,3.765,0,0,0,0,0,80.96,15.131077583932,0,41,Motors_Started,"Setting new Return-To-Home altitude to 100m (328 ft). Data Recorder File Index is 97. Setting new Maximum Flight Altitude to 120m (394 ft)"
1000,2023-01-04 22:47:33,-34.9535186692494,-54.9408041298644,0,-0.032808399999999,15.163885983932,15.131077583932,0.328084,0,0.3939796714,0.5346620906,23,5,0,15.131077583932,0,0.3131716,0.3939796714,0,0,-0.223694,86.8, -11.3, -0.8,0,0,1024,1024,1684,1024,0,0,100,0,97.7,0,0,31,3.768,3.765,0,0,0,0,0,80.96,15.131077583932,0,41,Motors_Started,
1100,2023-01-04 22:47:33,-34.9535185774329,-54.9408038886327,0,-0.032808399999999,15.163885983932,15.131077583932,0.328084,0,0.44626641848,0.61419621388,23,5,0,15.131077583932,0,0.3131716,0.44626641848,0,0,-0.223694,85, -9.2, 1.4,0,0,1024,1024,1684,1024,0,0,100,0,97.9,0,0,31,3.768,3.765,0,0,0,0,0,80.96,15.131077583932,0,10,Assisted_Takeoff,
1200,2023-01-04 22:47:33,-34.95351860166,-54.940803773353,0,-0.032808399999999,15.163885983932,15.131077583932,0.328084,0,0.48169620964,0.6497867662,23,5,0,15.131077583932,0,0.3131716,0.48169620964,0,0,0,82.8, -8, 0.4,0,0,1024,1024,1684,1013,0,0,100,-2,95.9,0,0,31,3.768,3.765,0,0,0,0,0,80.96,15.131077583932,0,10,Assisted_Takeoff,
1300,2023-01-04 22:47:33,-34.9535186252293,-54.9408036856227,0,-0.032808399999999,15.163885983932,15.131077583932,0.328084,0,0.50929463572,0.6773950348,23,5,0,15.131077583932,0,0.3131716,0.50929463572,0,0,0,82, -3.7, 1.5,0,0,1024,1024,1684,959,0,0,100,-10,94.3,0,0,31,3.768,3.765,0,0,0,0,0,80.96,15.131077583932,0,10,Assisted_Takeoff,
1400,2023-01-04 22:47:33,-34.9535186994668,-54.940803661555,0,-0.032808399999999,15.163885983932,15.131077583932,0.328084,0.223694,0.5256397806,0.70541997008,23,5,0,15.131077583932,0,0.3131716,0.5256397806,-0.223694,0,0,83.1, -3.6, 3.5,0,0,1024,1024,1684,957,0,0,100,-10,94.3,0,0,31,3.768,3.765,0,0,0,0,0,80.96,15.131077583932,0,10,Assisted_Takeoff,
1500,2023-01-04 22:47:33,-34.9535187655287,-54.9408039410684,0,-0.032808399999999,15.163885983932,15.131077583932,0.328084,0.223694,0.46035762628,0.79240816184,23,5,0,15.131077583932,0,0.3131716,0.5256397806,-0.223694,0,0,82.7, -3.2, 5.5,0,0,1024,1024,1684,1024,0,0,100,0,94.2,0,0,31,3.768,3.765,0,0,0,0,0,80.96,15.131077583932,0,10,Assisted_Takeoff,
1600,2023-01-04 22:47:33,-34.9535188160935,-54.9408038979508,0,-0.032808399999999,15.163885983932,15.131077583932,0.328084,0,0.48063649832,0.81491800508,23,5,7.549,15.131077583932,0,0.3131716,0.5256397806,0,0,0.223694,82.2, -3.8, 4.5,0,0,1024,1024,1684,1024,0,0,100,0,93.8,0,0,31,3.768,3.765,0,0,0,0,1.655,80.96,15.131077583932,0,10,Assisted_Takeoff,
1700,2023-01-04 22:47:34,-34.9535187885102,-54.9408037574891,0,-0.032808399999999,15.163885983932,15.131077583932,0.328084,0,0.51287403216,0.85811026368,23,5,7.549,15.131077583932,0,0.3131716,0.5256397806,0,0,0.223694,82, -4.2, 3.6,0,0,1024,1024,1684,1015,0,0,100,-1,93.5,0,0,31,3.768,3.765,0,0,0,0,1.655,80.96,15.131077583932,0,10,Assisted_Takeoff,
1800,2023-01-04 22:47:34,-34.9535187347243,-54.9408036392004,0,-0.032808399999999,15.163885983932,15.131077583932,0.328084,0,0.536745424,0.89855974004,23,5,7.549,15.131077583932,0,0.3131716,0.536745424,0,0,0,81.9, -3.6, 2.4,0,0,1024,1024,1684,1015,0,0,100,-1,93.2,0,0,31,3.768,3.765,0,0,0,0,1.655,80.96,15.131077583932,0,10,Assisted_Takeoff,
1900,2023-01-04 22:47:34,-34.9535184713552,-54.9408035379914,0,0,15.131077583932,15.131077583932,0.328084,0,0.53642390168,0.99930449392,23,5,7.549,15.131077583932,0,0.3131716,0.536745424,0,0,0,83.1, -2.8, 2.1,0,0,1024,1024,1684,1024,0,0,100,0,93.4,0,0,31,3.768,3.765,0,0,0,0,1.655,80.96,15.131077583932,0,10,Assisted_Takeoff,
2000,2023-01-04 22:47:34,-34.9535184384737,-54.9408033685954,0,0,15.131077583932,15.131077583932,0.328084,0.223694,0.58380579296,1.0513615822,23,5,7.549,15.131077583932,0,0.3131716,0.58380579296,0,0.223694,-0.223694,83.1, -1.8, 1.7,0,0,1024,1024,1684,1024,0,0,100,0,93.8,0,0,31,3.768,3.765,0,0,0,0,1.655,80.96,15.131077583932,0,6,P-GPS,"Error de calibración del estabilizador. Reinicia la aeronave o contacta con la Asistencia DJI (Code: 40011)"
2100,2023-01-04 22:47:34,-34.953518438985,-54.9408030821896,0,0,15.131077583932,15.131077583932,0.328084,0.223694,0.66832679304,1.1370079104,23,5,7.549,15.131077583932,0,0.3131716,0.66832679304,0,0.223694,-0.894776,82.8, 0.6, 0.1,0,0,1024,1024,1684,1024,0,0,100,0,93.8,0,0,31,3.768,3.765,0,0,0,0,1.655,80.96,15.131077583932,0,6,P-GPS,
2200,2023-01-04 22:47:34,-34.9535184449052,-54.9408027859685,0,0,15.131077583932,15.131077583932,0.656168,0.223694,0.7562828326,1.22561355628,23,5,7.549,15.131077583932,0,0.3131716,0.7562828326,0,0.223694,-1.565858,82.7, 1.6, -0.7,0,0,1024,1024,1684,1024,0,0,100,0,93.8,0,0,31,3.768,3.765,0,0,0,0,1.655,80.96,15.131077583932,0,6,P-GPS,
2300,2023-01-04 22:47:34,-34.9535184376847,-54.9408024759127,0.328084,0.328084,15.131077583932,15.459161583932,0.984252,0.223694,0.84789044708,1.31836946476,23,5,7.549,15.459161583932,0.328084,0.3131716,0.84789044708,0,0.223694,-2.23694,82.6, 1, -1.1,0,0,1024,1024,1684,1024,0,0,100,0,93.8,0,0,31,3.768,3.765,0,0,0,0,1.655,80.96,15.459161583932,0.328084,6,P-GPS,
2400,2023-01-04 22:47:34,-34.9535183323032,-54.9408019455474,0.984252,0.984252,15.131077583932,16.115329583932,0.984252,0.223694,1.00235895596,1.4815617272,24,5,7.549,16.115329583932,0.984252,0.3131716,1.00235895596,0,0.223694,-2.908022,82.6, 0.4, -0.9,0,0,1024,1024,1684,1024,0,0,100,0,93.8,0,0,31,3.768,3.765,0,0,0,0,1.655,80.96,16.115329583932,0.984252,6,P-GPS,
2500,2023-01-04 22:47:34,-34.9535183668132,-54.9408016844472,1.312336,1.312336,15.131077583932,16.443413583932,3.28084,0,1.08110567764,1.56064965624,24,5,7.549,16.443413583932,1.312336,0.3131716,1.08110567764,0,0,-3.802798,82.6, 0.7, -0.6,0,0,1024,1024,1684,1024,0,0,100,0,93.8,0,0,31,3.768,3.765,0,0,0,0,1.655,80.96,16.443413583932,1.312336,6,P-GPS,
2600,2023-01-04 22:47:34,-34.9535184003412,-54.9408014564859,1.968504,1.968504,15.131077583932,17.099581583932,3.937008,0,1.14998691344,1.62990818864,24,5,7.434,17.099581583932,1.968504,0.3131716,1.14998691344,0,0,-4.47388,82.4, 1.3, -0.7,0,0,1024,1024,1684,1010,0,0,100,-2,93.8,0,0,31,3.668,3.663,0,0,0,0,3.448,81.14,17.099581583932,1.968504,6,P-GPS,
2700,2023-01-04 22:47:35,-34.953518432643,-54.9408012605398,2.624672,2.624672,15.131077583932,17.755749583932,4.92126,0.223694,1.20933730904,1.68967525092,24,5,7.434,17.755749583932,2.624672,0.3131716,1.20933730904,0,0.223694,-5.144962,82.4, 2.2, 0,0,0,1024,1024,1024,1024,0,0,0,0,93.8,0,0,31,3.668,3.663,0,0,0,0,3.448,81.14,17.755749583932,2.624672,6,P-GPS,
2800,2023-01-04 22:47:35,-34.9535186219822,-54.9408010642154,3.608924,3.5761156,15.163885983932,18.740001583932,5.577428,0,1.27515752112,1.78033470264,24,5,7.434,18.740001583932,3.608924,0.3131716,1.27515752112,0,0,-5.816044,82.4, 2.5, 0.3,0,0,1024,1024,1024,1024,0,0,0,0,93.8,0,0,31,3.668,3.663,0,0,0,0,3.448,81.14,18.740001583932,3.608924,6,P-GPS,
2900,2023-01-04 22:47:35,-34.9535187131319,-54.940801068514,4.593176,4.5603676,15.163885983932,19.724253583932,6.56168,0,1.2787237942,1.8136155436,24,5,7.434,19.724253583932,4.593176,0.3131716,1.2787237942,0,0,-6.039738,82.6, 2.2, -0.1,0,0,1024,1024,1024,1024,0,0,0,0,93.8,0,0,31,3.668,3.663,0,0,0,0,3.448,81.14,19.724253583932,4.593176,6,P-GPS,
3000,2023-01-04 22:47:35,-34.9535187859844,-54.9408011199204,5.249344,5.2165356,15.163885983932,20.380421583932,7.545932,0,1.26807090672,1.84432092516,24,5,7.434,20.380421583932,5.249344,0.3131716,1.2787237942,0,0,-6.039738,82.5, 2.1, -0.5,0,0,1024,1024,1024,1024,0,0,0,0,93.8,0,0,31,3.668,3.663,0,0,0,0,3.448,81.14,20.380421583932,5.249344,6,P-GPS,"Punto de origen actualizado. Altitud de RPO establecida en 100m (Code: 3000001)"
3100,2023-01-04 22:47:35,-34.9535188208934,-54.9408012312585,6.233596,6.2007876,15.163885983932,21.364673583932,8.2021,0,1.2377625068,1.87996725176,24,5,7.434,21.364673583932,6.233596,0.3131716,1.2787237942,0,0,-5.816044,82.5, 2.2, -0.3,0,0,1024,1024,1024,1024,0,0,0,0,93.8,0,0,31,3.668,3.663,0,0,0,0,3.448,81.14,21.364673583932,6.233596,6,P-GPS,
3200,2023-01-04 22:47:35,-34.9535188445767,-54.9408018615568,7.217848,7.1850396,15.163885983932,22.348925583932,9.186352,0,1.05556433824,2.06864836016,24,5,7.434,22.348925583932,7.217848,0.3131716,1.2787237942,0,0,-5.368656,82.4, 2.3, -0.3,0,0,1024,1024,1024,1024,0,0,0,0,93.8,0,0,31,3.668,3.663,0,0,0,0,3.448,81.14,22.348925583932,7.217848,6,P-GPS,
3300,2023-01-04 22:47:35,-34.9535188852894,-54.9408020424853,7.874016,7.8412076,15.163885983932,23.005093583932,9.84252,0,1.00689307684,2.124754005,24,5,7.434,23.005093583932,7.874016,0.3131716,1.2787237942,0,0,-4.697574,82.5, 2.2, -0.1,0,0,1024,1024,1024,1024,0,0,0,0,93.8,0,0,31,3.668,3.663,0,0,0,0,3.448,81.14,23.005093583932,7.874016,6,P-GPS,
3400,2023-01-04 22:47:35,-34.953518947005,-54.9408021911237,8.530184,8.4973756,15.163885983932,23.661261583932,10.498688,0,0.97051512292,2.17458012208,24,5,7.434,23.661261583932,8.530184,0.3131716,1.2787237942,0,0,-4.026492,82.4, 1.9, -0.2,0,0,1024,1024,1024,1024,0,0,0,0,93.8,0,0,31,3.668,3.663,0,0,0,0,3.448,81.14,23.661261583932,8.530184,6,P-GPS,
3500,2023-01-04 22:47:35,-34.9535190447434,-54.9408022819476,8.858268,8.8254596,15.163885983932,23.989345583932,11.154856,0,0.9560695844,2.219406239,24,5,7.434,23.989345583932,8.858268,0.3131716,1.2787237942,0,0,-3.35541,82.4, 1.8, -0.3,0,0,1024,1024,1024,1024,0,0,0,0,93.8,0,0,31,3.668,3.663,0,0,0,0,3.448,81.14,23.989345583932,8.858268,6,P-GPS,
3600,2023-01-04 22:47:35,-34.9535190820038,-54.9408022726502,9.514436,9.4816276,15.163885983932,24.645513583932,11.48294,0,0.96335633004,2.23328091136,24,5,7.434,24.645513583932,9.514436,0.3131716,1.2787237942,0,0,-2.684328,82.5, 1.8, -0.3,0,0,1024,1024,1024,1024,0,0,0,0,93.8,0,0,31,3.668,3.663,0,0,0,0,3.448,81.14,24.645513583932,9.514436,6,P-GPS,
3700,2023-01-04 22:47:36,-34.9535191344788,-54.940802415914,9.84252,9.8097116,15.163885983932,24.973597583932,11.811024,0,0.93049871744,2.28020676588,24,5,7.305,24.973597583932,9.84252,0.3131716,1.2787237942,0,0,-2.013246,82.5, 2, -0.5,0,0,1024,1024,1024,1024,0,0,0,0,93.8,0,0,31,3.714,3.716,0,0,0,0,6.834,81.14,24.973597583932,9.84252,6,P-GPS,
3800,2023-01-04 22:47:36,-34.9535191599012,-54.9408025849778,9.84252,9.8097116,15.163885983932,24.973597583932,12.139108,0,0.88777561896,2.33160440532,24,5,7.305,24.973597583932,9.84252,0.3131716,1.2787237942,0,0,-1.11847,82.5, 1.7, -0.4,0,0,1024,1024,1024,1024,0,0,0,0,93.8,0,0,31,3.714,3.716,0,0,0,0,6.834,81.14,24.973597583932,9.84252,6,P-GPS,
3900,2023-01-04 22:47:36,-34.9535191421878,-54.9408028138792,9.84252,9.8097116,15.163885983932,24.973597583932,12.139108,0,0.8230315224,2.4003609692,24,5,7.305,24.973597583932,9.84252,0.3131716,1.2787237942,0,0,-0.671082,82.5, 1.2, -0.7,0,0,1024,1024,1298,1024,0,0,42,0,93.8,0,0,31,3.714,3.716,0,0,0,0,6.834,81.14,24.973597583932,9.84252,6,P-GPS,
4000,2023-01-04 22:47:36,-34.9535191312903,-54.940803049005,10.170604,10.1377956,15.163885983932,25.301681583932,12.139108,0,0.75850396128,2.4707841998,24,5,7.305,25.301681583932,10.170604,0.3131716,1.2787237942,0,0,-0.223694,82.4, 0.9, -1.1,0,0,1024,1024,1684,1024,0,0,100,0,93.8,0,0,31,3.714,3.716,0,0,0,0,6.834,81.14,25.301681583932,10.170604,6,P-GPS,
4100,2023-01-04 22:47:36,-34.9535188663832,-54.9408035237326,10.170604,10.1377956,15.163885983932,25.301681583932,12.139108,0,0.58812665924,2.64252305044,24,5,7.305,25.301681583932,10.170604,0.3131716,1.2787237942,0,0,0,82.4, 0.1, -1.3,0,0,1024,1024,1684,1024,0,0,100,0,93.8,0,0,31,3.714,3.716,0,0,0,0,6.834,81.14,25.301681583932,10.170604,6,P-GPS,
4200,2023-01-04 22:47:36,-34.953518859012,-54.9408037541486,10.170604,10.1377956,15.163885983932,25.301681583932,12.139108,0,0.52577429504,2.71147646472,24,5,7.305,25.301681583932,10.170604,0.3131716,1.2787237942,0,0,-0.223694,82.3, 0, -1,0,0,1024,1024,1684,1024,0,0,100,0,93.8,0,0,31,3.714,3.716,0,0,0,0,6.834,81.14,25.301681583932,10.170604,6,P-GPS,
4300,2023-01-04 22:47:36,-34.9535188462271,-54.940803940031,10.170604,10.1377956,15.163885983932,25.301681583932,12.139108,0.223694,0.47548229868,2.76726058724,24,5,7.305,25.301681583932,10.170604,0.3131716,1.2787237942,0,-0.223694,-0.671082,82.2, -0.1, -1.3,0,0,1024,1024,1684,1024,0,0,100,0,93.8,0,0,31,3.714,3.716,0,0,0,0,6.834,81.14,25.301681583932,10.170604,6,P-GPS,
4400,2023-01-04 22:47:36,-34.9535188531268,-54.940804102677,10.170604,10.1377956,15.163885983932,25.301681583932,12.467192,0.223694,0.43637796672,2.8159613762,24,5,7.305,25.301681583932,10.170604,0.3131716,1.2787237942,0,-0.223694,-1.342164,82.2, 0, -1.1,0,0,1024,1024,1684,1024,0,0,100,0,93.8,0,0,31,3.714,3.716,0,0,0,0,6.834,81.14,25.301681583932,10.170604,6,P-GPS,
4500,2023-01-04 22:47:36,-34.9535189538314,-54.9408042243473,10.498688,10.4658796,15.163885983932,25.629765583932,12.795276,0.223694,0.4311187802,2.86767069544,24,5,7.305,25.629765583932,10.498688,0.3131716,1.2787237942,0,-0.223694,-2.013246,82.2, -0.7, -0.9,0,0,1024,1024,1684,1024,0,0,100,0,93.8,0,0,31,3.714,3.716,0,0,0,0,6.834,81.14,25.629765583932,10.498688,6,P-GPS,
4600,2023-01-04 22:47:36,-34.9535189698871,-54.9408043510954,11.154856,11.1220476,15.163885983932,26.285933583932,13.12336,0.223694,0.40811353012,2.9060204342,24,5,7.305,26.285933583932,11.154856,0.3131716,1.2787237942,0,-0.223694,-2.908022,82.2, -0.5, -1,0,0,1024,1024,1684,1024,0,0,100,0,93.8,0,0,31,3.714,3.716,0,0,0,0,6.834,81.14,26.285933583932,11.154856,6,P-GPS,
4700,2023-01-04 22:47:36,-34.9535189249705,-54.940804452015,11.48294,11.4501316,15.163885983932,26.614017583932,13.451444,0.223694,0.37560040572,2.94036426732,24,5,7.458,26.614017583932,11.48294,0.3131716,1.2787237942,0,0,-3.802798,82.1, -0.3, -0.8,0,0,1024,1024,1684,1024,0,0,100,0,93.8,0,0,31,3.673,3.669,0,0,0,0,3.614,81.14,26.614017583932,11.48294,6,P-GPS,
4800,2023-01-04 22:47:37,-34.9535188660249,-54.9408045473511,12.139108,12.1062996,15.163885983932,27.270185583932,14.107612,0,0.34062337048,2.97607292988,25,5,7.458,27.270185583932,12.139108,0.3131716,1.2787237942,0,0,-4.47388,82.2, -0.3, -0.6,0,0,1024,1024,1684,1024,0,0,100,0,93.8,0,0,31,3.673,3.669,0,0,0,0,3.614,81.14,27.270185583932,12.139108,6,P-GPS,
4900,2023-01-04 22:47:37,-34.9535186852782,-54.9408047419189,13.12336,13.0905516,15.163885983932,28.254437583932,14.76378,0,0.25268701596,3.06401912692,25,5,7.458,28.254437583932,13.12336,0.3131716,1.2787237942,0,0,-5.368656,82.1, -0.5, -0.6,0,0,1024,1024,1684,1024,0,0,100,0,93.8,0,0,31,3.673,3.669,0,0,0,0,3.614,81.14,28.254437583932,13.12336,6,P-GPS,
5000,2023-01-04 22:47:37,-34.9535186328358,-54.9408048216358,13.779528,13.7467196,15.163885983932,28.910605583932,15.419948,0,0.2227280255,3.09458343236,24,5,7.458,28.910605583932,13.779528,0.3131716,1.2787237942,0,0,-5.816044,82.1, -0.6, 0.4,0,0,1024,1024,1684,1024,0,0,100,0,93.8,0,0,31,3.673,3.669,0,0,0,0,3.614,81.14,28.910605583932,13.779528,6,P-GPS,
5100,2023-01-04 22:47:37,-34.9535186387723,-54.9408048445289,14.76378,14.7309716,15.163885983932,29.894857583932,16.4042,0,0.220199154028,3.10176519112,24,5,7.458,29.894857583932,14.76378,0.3131716,1.2787237942,0,0,-6.487126,82, -0.5, -0.3,0,0,1024,1024,1684,1024,0,0,100,0,93.8,0,0,31,3.673,3.669,0,0,0,0,3.614,81.14,29.894857583932,14.76378,6,P-GPS,
5200,2023-01-04 22:47:37,-34.9535186462175,-54.9408048140848,15.748032,15.7152236,15.163885983932,30.879109583932,17.388452,0,0.22794620152,3.11126650376,24,5,7.458,30.879109583932,15.748032,0.3131716,1.2787237942,0,0,-6.71082,81.8, -0.1, -2,0,0,1024,1024,1684,1024,0,0,100,0,93.8,0,0,31,3.673,3.669,0,0,0,0,3.614,81.14,30.879109583932,15.748032,6,P-GPS,
5300,2023-01-04 22:47:37,-34.9535186685069,-54.9408045965867,16.732284,16.6994756,15.163885983932,31.863361583932,18.04462,0,0.278733932804,3.17681112528,24,5,7.458,31.863361583932,16.732284,0.3131716,1.2787237942,0,0,-6.71082,81.9, 0, -1.9,0,0,1024,1024,1684,1024,0,0,100,0,93.8,0,0,31,3.673,3.669,0,0,0,0,3.614,81.14,31.863361583932,16.732284,6,P-GPS,
5400,2023-01-04 22:47:37,-34.9535186488914,-54.9408045790861,17.716536,17.6837276,15.163885983932,32.847613583932,19.028872,0,0.277996071888,3.1856792358,25,5,7.458,32.847613583932,17.716536,0.3131716,1.2787237942,0,0,-6.71082,82.1, -0.4, -0.8,0,0,1024,1024,1684,1024,0,0,100,0,93.8,0,0,31,3.673,3.669,0,0,0,0,3.614,81.14,32.847613583932,17.716536,6,P-GPS,
5500,2023-01-04 22:47:37,-34.9535186568439,-54.9408046463028,18.700788,18.6679796,15.163885983932,33.831865583932,19.68504,0,0.264907816876,3.2059876354,25,5,7.458,33.831865583932,18.700788,0.3131716,1.2787237942,0,0,-6.71082,82.1, -0.9, -0.9,0,0,1024,1024,1684,1024,0,0,100,0,93.8,0,0,31,3.673,3.669,0,0,0,0,3.614,81.14,33.831865583932,18.700788,6,P-GPS,
5600,2023-01-04 22:47:37,-34.9535186693341,-54.9408046850504,19.68504,19.6522316,15.163885983932,34.816117583932,20.669292,0,0.259848433512,3.2184384232,25,5,7.458,34.816117583932,19.68504,0.3131716,1.2787237942,0,0,-6.487126,82, -0.4, -0.2,0,0,1024,1024,1684,1024,0,0,100,0,93.8,0,0,31,3.673,3.669,0,0,0,0,3.614,81.14,34.816117583932,19.68504,6,P-GPS,
5700,2023-01-04 22:47:38,-34.9535186997144,-54.9408046791173,20.669292,20.6364836,15.163885983932,35.800369583932,21.32546,0,0.269109588664,3.22966217684,25,5,7.27,35.800369583932,20.669292,0.3131716,1.2787237942,0,0,-6.487126,82, -0.8, -0.4,0,0,1024,1024,1684,1024,0,0,100,0,93.8,0,0,31,3.664,3.664,0,0,0,0,6.898,81.14,35.800369583932,20.669292,6,P-GPS,
5800,2023-01-04 22:47:38,-34.9535188608082,-54.9408047910692,21.653544,21.6207356,15.163885983932,36.784621583932,22.309712,0,0.296564313952,3.2973098168,25,5,7.27,36.784621583932,21.653544,0.3131716,1.2787237942,0,0,-6.71082,82, -0.4, -0.6,0,0,1024,1024,1684,1024,0,0,100,0,93.8,0,0,31,3.664,3.664,0,0,0,0,6.898,81.14,36.784621583932,21.653544,6,P-GPS,
5900,2023-01-04 22:47:38,-34.9535189469455,-54.9408048719713,22.637796,22.6049876,15.163885983932,37.768873583932,22.96588,0,0.313677175392,3.3369751724,25,5,7.27,37.768873583932,22.637796,0.3131716,1.2787237942,0,0,-6.71082,81.9, 0.4, -1.4,0,0,1024,1024,1684,1024,0,0,100,0,93.8,0,0,31,3.664,3.664,0,0,0,0,6.898,81.14,37.768873583932,22.637796,6,P-GPS,
6000,2023-01-04 22:47:38,-34.9535190186321,-54.9408049637263,23.622048,23.5892396,15.163885983932,38.753125583932,23.950132,0,0.32863518112,3.3748688744,25,5,7.27,38.753125583932,23.622048,0.3131716,1.2787237942,0,0,-6.71082,82, 0.3, -1.8,0,0,1024,1024,1684,1024,0,0,100,0,93.8,0,0,31,3.664,3.664,0,0,0,0,6.898,81.14,38.753125583932,23.622048,6,P-GPS,
6100,2023-01-04 22:47:38,-34.9535190485092,-54.9408050621547,24.6063,24.5734916,15.163885983932,39.737377583932,24.934384,0,0.33176510248,3.4062665132,25,5,7.27,39.737377583932,24.6063,0.3131716,1.2787237942,0,0,-6.71082,82.2, -0.4, -0.6,0,0,1024,1024,1024,1024,0,0,0,0,93.8,0,0,31,3.664,3.664,0,0,0,0,6.898,81.14,39.737377583932,24.6063,6,P-GPS,
6200,2023-01-04 22:47:38,-34.9535191581238,-54.9408053688026,25.590552,25.5577436,15.163885983932,40.721629583932,25.590552,0,0.36538058912,3.5062993248,25,5,7.27,40.721629583932,25.590552,0.3131716,1.2787237942,0,0,-6.71082,82.2, -0.3, 0.3,0,0,1024,1024,1024,1024,0,0,0,0,93.8,0,0,31,3.664,3.664,0,0,0,0,6.898,81.14,40.721629583932,25.590552,6,P-GPS,
6300,2023-01-04 22:47:38,-34.9535191959069,-54.9408054678833,26.574804,26.5419956,15.163885983932,41.705881583932,26.574804,0,0.38210631144,3.5389764912,25,5,7.27,41.705881583932,26.574804,0.3131716,1.2787237942,0,0,-6.263432,82.2, -0.1, 0.6,0,0,1024,1024,1024,1024,0,0,0,0,93.8,0,0,31,3.664,3.664,0,0,0,0,6.898,81.14,41.705881583932,26.574804,6,P-GPS,
6400,2023-01-04 22:47:38,-34.9535192190577,-54.9408055479622,27.230972,27.1981636,15.163885983932,42.362049583932,27.230972,0,0.39443570816,3.5643701928,25,5,7.27,42.362049583932,27.230972,0.3131716,1.2787237942,0,0,-5.59235,82.3, 0, 0.5,0,0,1024,1024,1024,1024,0,0,0,0,93.8,0,0,31,3.664,3.664,0,0,0,0,6.898,81.14,42.362049583932,27.230972,6,P-GPS,
6500,2023-01-04 22:47:38,-34.953519214003,-54.940805613496,27.88714,27.8543316,15.163885983932,43.018217583932,27.88714,0,0.39692914656,3.5840552328,25,5,7.27,43.018217583932,27.88714,0.3131716,1.2787237942,0,0,-4.921268,82.2, -0.4, 0,0,0,1024,1024,1024,1024,0,0,0,0,93.8,0,0,31,3.664,3.664,0,0,0,0,6.898,81.14,43.018217583932,27.88714,6,P-GPS,
6600,2023-01-04 22:47:38,-34.9535191184638,-54.9408057267098,28.543308,28.5104996,15.163885983932,43.674385583932,28.215224,0,0.37364174424,3.6326444732,25,5,7.27,43.674385583932,28.543308,0.3131716,1.2787237942,0,0,-4.250186,82.1, -1.2, -0.4,0,0,1024,1024,1024,1024,0,0,0,0,93.8,0,0,31,3.664,3.664,0,0,0,0,6.898,81.14,43.674385583932,28.543308,6,P-GPS,
6700,2023-01-04 22:47:39,-34.9535191162288,-54.9408058609016,28.871392,28.8385836,15.163885983932,44.002469583932,28.543308,0,0.38872704656,3.6727691464,25,5,7.27,44.002469583932,28.871392,0.3131716,1.2787237942,0,0,-3.35541,82.2, -1.1, -0.1,0,0,1024,1024,1024,1024,0,0,0,0,93.8,0,0,31,3.709,3.705,0,0,0,0,6.898,81.14,44.002469583932,28.871392,6,P-GPS,
6800,2023-01-04 22:47:39,-34.9535191192626,-54.9408059981478,29.199476,29.1666676,15.163885983932,44.330553583932,28.871392,0,0.40934056428,3.7138452632,25,5,7.27,44.330553583932,29.199476,0.3131716,1.2787237942,0,0,-2.460634,82.2, -1.2, 0.3,0,0,1024,1024,1024,1024,0,0,0,0,93.8,0,0,31,3.709,3.705,0,0,0,0,6.898,81.14,44.330553583932,29.199476,6,P-GPS,
6900,2023-01-04 22:47:39,-34.9535191415764,-54.940806158486,29.52756,29.4947516,15.163885983932,44.658637583932,29.199476,0,0.44262468608,3.762467312,25,5,7.27,44.658637583932,29.52756,0.3131716,1.2787237942,0,0,-1.565858,82.1, -1.7, 0.4,0,0,1024,1024,1024,1024,0,0,0,0,93.8,-0.2,0,31,3.709,3.705,0,0,0,0,6.898,81.14,44.658637583932,29.52756,6,P-GPS,
7000,2023-01-04 22:47:39,-34.953519141832,-54.9408065561779,29.52756,29.4947516,15.163885983932,44.658637583932,29.199476,0,0.52138125028,3.881397762,24,5,7.27,44.658637583932,29.52756,0.3131716,1.2787237942,0,0,-0.894776,82, -1.9, 0.1,0,0,1024,1024,1024,1024,0,0,0,0,93.8,-0.9,0,31,3.709,3.705,0,0,0,0,6.898,81.14,44.658637583932,29.52756,6,P-GPS,
7100,2023-01-04 22:47:39,-34.9535191595096,-54.9408068268468,29.855644,29.8228356,15.163885983932,44.986721583932,28.871392,0,0.58678151484,3.962598552,24,5,7.27,44.986721583932,29.855644,0.3131716,1.2787237942,0,0,-0.447388,82, -2.8, 0.1,0,0,1024,1024,1024,1024,0,0,0,0,93.8,-2,0,31,3.709,3.705,0,0,0,0,6.898,81.14,44.986721583932,29.855644,6,P-GPS,
7200,2023-01-04 22:47:39,-34.9535191485046,-54.9408070673602,29.855644,29.8228356,15.163885983932,44.986721583932,28.871392,0.223694,0.6423720678,4.03461299,24,5,7.27,44.986721583932,29.855644,0.3131716,1.2787237942,0,-0.223694,0,82, -2.9, 0.7,0,0,1024,1024,1024,1024,0,0,0,0,93.8,-3.3,0,31,3.709,3.705,0,0,0,0,6.898,81.14,44.986721583932,29.855644,6,P-GPS,
7300,2023-01-04 22:47:39,-34.9535190948441,-54.9408072718743,29.855644,29.8228356,15.163885983932,44.986721583932,28.871392,0,0.68381891952,4.0988518372,24,5,7.27,44.986721583932,29.855644,0.3131716,1.2787237942,0,0,0,81.9, -3.1, 0.6,0,0,1024,1024,1024,1024,0,0,0,0,93.8,-4.7,0,31,3.709,3.705,0,0,0,0,6.898,81.14,44.986721583932,29.855644,6,P-GPS,
7400,2023-01-04 22:47:39,-34.9535190509665,-54.9408074430751,29.855644,29.8228356,15.163885983932,44.986721583932,28.543308,0,0.72125330392,4.1524935712,23,5,7.27,44.986721583932,29.855644,0.3131716,1.2787237942,0,0,0,82, -3.3, 0.8,0,0,1024,1024,1024,1387,0,0,0,55,93.8,-5.7,0,31,3.709,3.705,0,0,0,0,6.898,81.14,44.986721583932,29.855644,6,P-GPS,
7500,2023-01-04 22:47:39,-34.9535188905989,-54.9408076753797,29.855644,29.8228356,15.163885983932,44.986721583932,28.543308,0,0.7614337514,4.2433072224,23,5,7.27,44.986721583932,29.855644,0.3131716,1.2787237942,0,0,0,81.9, -3.6, 0.6,0,0,1024,1024,1024,1684,0,0,0,100,94,-6.5,0,31,3.709,3.705,0,0,0,0,6.898,81.14,44.986721583932,29.855644,6,P-GPS,
7600,2023-01-04 22:47:39,-34.9535188736159,-54.9408077514373,29.52756,29.4947516,15.163885983932,44.658637583932,28.543308,0,0.78068243968,4.266896462,23,5,7.27,44.986721583932,29.855644,0.3131716,1.2787237942,0,0,0,83.1, -3, 0,0,0,1024,1024,1024,1684,0,0,0,100,96.9,-7.1,0,31,3.709,3.705,0,0,0,0,6.898,81.14,44.658637583932,29.52756,6,P-GPS,
7700,2023-01-04 22:47:40,-34.9535188588687,-54.9408077262859,29.52756,29.4947516,15.163885983932,44.658637583932,28.543308,0,0.77179792496,4.2761156224,23,5,7.346,44.986721583932,29.855644,0.3131716,1.2787237942,0,0,0,86.9, -3, 0,0,0,1024,1024,1024,1684,0,0,0,100,101.5,-7.4,0,31,3.697,3.696,0,0,0,0,5.68,81.14,44.658637583932,29.52756,6,P-GPS,
7800,2023-01-04 22:47:40,-34.9535188440531,-54.9408077097958,29.52756,29.4947516,15.163885983932,44.658637583932,28.543308,0,0.76536419772,4.2834318956,23,5,7.346,44.986721583932,29.855644,0.3131716,1.2787237942,0,0,0,91.5, -3, -0.2,0,0,1024,608,1024,1684,0,-63,0,100,106.2,-7.4,0,31,3.697,3.696,0,0,0,0,5.68,81.14,44.658637583932,29.52756,6,P-GPS,
7900,2023-01-04 22:47:40,-34.953518858679,-54.9408076019082,29.52756,29.4947516,15.163885983932,44.658637583932,28.215224,0,0.73678151964,4.3161418704,23,5,7.346,44.986721583932,29.855644,0.3131716,1.2787237942,0,0,0,96.3, -3.1, -0.5,0,0,1024,364,1024,1684,0,-100,0,100,111,-7.4,0,31,3.697,3.696,0,0,0,0,5.68,81.14,44.658637583932,29.52756,6,P-GPS,
8000,2023-01-04 22:47:40,-34.9535188408589,-54.9408076023382,29.52756,29.4947516,15.163885983932,44.658637583932,28.215224,0,0.73467193952,4.3226379336,23,5,7.346,44.986721583932,29.855644,0.3131716,1.2787237942,0,0,0,100.8, -2.4, -7.2,0,0,1024,364,1024,1684,0,-100,0,100,115.8,-7.4,0,31,3.697,3.696,0,0,0,0,5.68,81.14,44.658637583932,29.52756,6,P-GPS,
8100,2023-01-04 22:47:40,-34.9535187445894,-54.9408075637057,29.52756,29.4947516,15.163885983932,44.658637583932,28.215224,0.223694,0.7125000228,4.3596130004,23,5,7.346,44.986721583932,29.855644,0.3131716,1.2787237942,0.223694,0,0,105.4, -0.7, -18.1,0,0,1024,364,1024,1684,0,-100,0,100,120.7,-7.4,0,31,3.697,3.696,0,0,0,0,5.68,81.14,44.658637583932,29.52756,6,P-GPS,
8200,2023-01-04 22:47:40,-34.9535184455281,-54.9408074929423,29.52756,29.52756,15.131077583932,44.658637583932,28.215224,0.894776,0.6667815174,4.4707678596,23,5,7.346,44.986721583932,29.855644,0.894776,1.2787237942,0.894776,0,0,110.5, -0.1, -22.7,0,0,1024,364,1024,1684,0,-100,0,100,125.5,-7.4,0,31,3.697,3.696,0,0,0,0,5.68,81.14,44.658637583932,29.52756,6,P-GPS,
8300,2023-01-04 22:47:40,-34.953517844344,-54.9408074550738,29.52756,29.52756,15.131077583932,44.658637583932,28.543308,1.5882274,0.65728020476,4.6903872892,23,5,7.346,44.986721583932,29.855644,1.5882274,1.2787237942,1.565858,0.223694,0,115.8, -0.9, -22.3,0,0,1024,364,1024,1684,0,-100,0,100,130.3,-7.4,0,31,3.697,3.696,0,0,0,0,5.68,81.14,44.658637583932,29.52756,6,P-GPS,
8400,2023-01-04 22:47:40,-34.9535169745693,-54.940807165006,29.52756,29.5603684,15.098269183932,44.658637583932,28.871392,2.3264176,0.7076443796,5.0193899244,23,5,7.346,44.986721583932,29.855644,2.3264176,1.2787237942,2.23694,0.671082,0,120.3, -0.4, -22.6,0,0,1024,364,1024,1684,0,-100,0,100,135.1,-7.4,0,31,3.697,3.696,0,0,0,0,5.68,81.14,44.658637583932,29.52756,6,P-GPS,
8500,2023-01-04 22:47:40,-34.9535157994165,-54.9408066515814,29.52756,29.5603684,15.098269183932,44.658637583932,29.199476,3.2659324,0.95212273388,5.4748033248,23,5,7.346,44.986721583932,29.855644,3.2659324,1.2787237942,3.131716,0.894776,0,125.1, -0.1, -22.2,0,0,1024,1024,1024,1684,0,0,0,100,139.9,-7.4,0,31,3.697,3.696,0,0,0,0,5.68,81.14,44.658637583932,29.52756,6,P-GPS,
8600,2023-01-04 22:47:40,-34.9535144087954,-54.9408059930432,29.52756,29.6259852,15.032652383932,44.658637583932,29.52756,3.8251674,1.38417655348,6.019029064,24,5,7.346,44.986721583932,29.855644,3.8251674,1.38417655348,3.579104,1.342164,0,129.9, -0.3, -18.2,0,0,1024,1024,1024,1684,0,0,0,100,144.7,-7.4,0,31,3.697,3.696,0,0,0,0,5.68,81.14,44.658637583932,29.52756,6,P-GPS,
8700,2023-01-04 22:47:41,-34.9535126746442,-54.9408051072819,29.52756,29.6587936,14.999843983932,44.658637583932,29.855644,4.1159696,2.00161095644,6.7049542828,24,5,7.448,44.986721583932,29.855644,4.1159696,2.00161095644,3.802798,1.565858,0,135.3, -4.7, 5.4,0,0,1024,1024,1024,1684,0,0,0,100,149.5,-7.4,0,31,3.675,3.673,0,0,0,0,3.618,81.14,44.658637583932,29.52756,6,P-GPS,
8800,2023-01-04 22:47:41,-34.9535110491379,-54.9408043094574,29.855644,30.019686,14.967035583932,44.986721583932,29.855644,3.4001488,2.61046924364,7.3441931484,24,5,7.448,44.986721583932,29.855644,4.1159696,2.61046924364,3.131716,1.342164,0,139, -9.4, 13.8,0,0,1024,1024,1024,1684,0,0,0,100,154.3,-7.4,0,31,3.675,3.673,0,0,0,0,3.618,81.14,44.986721583932,29.855644,6,P-GPS,
8900,2023-01-04 22:47:41,-34.9535094659044,-54.9408035914122,29.855644,30.0853028,14.901418783932,44.986721583932,29.855644,2.7066974,3.21202110016,7.960466134,24,5,7.448,44.986721583932,29.855644,4.1159696,3.21202110016,2.460634,1.11847,0,142.9, -8.6, 13.2,0,0,1024,1024,1024,1684,0,0,0,100,159.1,-7.4,0,31,3.675,3.673,0,0,0,0,3.618,81.14,44.986721583932,29.855644,6,P-GPS,
9000,2023-01-04 22:47:41,-34.9535082276225,-54.9408030389765,30.183728,30.4133868,14.901418783932,45.314805583932,29.855644,1.901399,3.6854003804,8.4415028948,23,5,7.448,45.314805583932,30.183728,4.1159696,3.6854003804,1.789552,0.671082,0,147.8, -8.2, 9.8,0,0,1024,1024,1024,1684,0,0,0,100,163.9,-7.4,0,31,3.675,3.673,0,0,0,0,3.618,81.14,45.314805583932,30.183728,6,P-GPS,
9100,2023-01-04 22:47:41,-34.9535071869964,-54.9408025527627,30.183728,30.4461952,14.868610383932,45.314805583932,29.855644,1.2079476,4.0858925192,8.8480645876,23,5,7.448,45.314805583932,30.183728,4.1159696,4.0858925192,1.11847,0.447388,0,152.8, -7.7, 6.4,0,0,1024,1024,1024,1684,0,0,0,100,168.7,-7.4,0,31,3.675,3.673,0,0,0,0,3.618,81.14,45.314805583932,30.183728,6,P-GPS,
9200,2023-01-04 22:47:41,-34.9535058745535,-54.940801873792,30.511812,30.8070876,14.835801983932,45.642889583932,29.855644,0.447388,4.5968833492,9.3681761528,24,5,7.448,45.642889583932,30.511812,4.1159696,4.5968833492,0.447388,0,0,158.1, -6.2, 3.2,0,0,1024,1024,1024,1684,0,0,0,100,173.5,-7.4,0,31,3.675,3.673,0,0,0,0,3.618,81.14,45.642889583932,30.511812,6,P-GPS,
9300,2023-01-04 22:47:41,-34.9535053771421,-54.9408014044928,30.511812,30.8070876,14.835801983932,45.642889583932,30.183728,0,4.8059712824,9.5975724856,24,5,7.448,45.642889583932,30.511812,4.1159696,4.8059712824,0,0,0,162.9, -4.4, 0.5,0,0,1024,1024,1024,1684,0,0,0,100,178.3,-7.4,0,31,3.675,3.673,0,0,0,0,3.618,81.14,45.642889583932,30.511812,6,P-GPS,
9400,2023-01-04 22:47:41,-34.9535050997106,-54.9408010689706,30.511812,30.8070876,14.835801983932,45.642889583932,30.183728,0,4.9290027824,9.7401249836,24,5,7.448,45.642889583932,30.511812,4.1159696,4.9290027824,0,0,0,167.8, -3.6, -0.9,0,0,364,1024,1024,1684,-100,0,0,100,183.2,-7.4,0,31,3.675,3.673,0,0,0,0,3.618,81.14,45.642889583932,30.511812,6,P-GPS,
9500,2023-01-04 22:47:41,-34.9535050660458,-54.9408008951542,30.511812,30.8070876,14.835801983932,45.642889583932,30.183728,0,4.954396484,9.7935042504,24,5,7.448,45.642889583932,30.511812,4.1159696,4.954396484,-0.223694,-0.223694,0,172.5, 4.2, -1.1,0,0,364,1024,1024,1684,-100,0,0,100,188,-7.4,0,31,3.675,3.673,0,0,0,0,3.618,81.14,45.642889583932,30.511812,6,P-GPS,
9600,2023-01-04 22:47:41,-34.9535057422995,-54.9408005870135,30.511812,30.8070876,14.835801983932,45.642889583932,29.855644,0.223694,4.7434712804,10.0568900856,24,5,7.448,45.642889583932,30.511812,4.1159696,4.954396484,0,-0.223694,0,177.2, 18.4, -0.3,0,0,364,1024,1024,1684,-100,0,0,100,192.8,-7.4,0,31,3.675,3.673,0,0,0,0,3.618,81.14,45.642889583932,30.511812,6,P-GPS,
9700,2023-01-04 22:47:41,-34.9535054295812,-54.9408005466984,30.183728,30.4790036,14.835801983932,45.314805583932,29.855644,0.223694,4.8560697092,10.1716210604,24,5,7.37,45.642889583932,30.511812,4.1159696,4.954396484,0.671082,-0.447388,0,182.4, 22.8, -0.1,0,0,364,1024,1024,1684,-100,0,0,100,197.6,-7.4,0,31,3.676,3.674,0,0,0,0,4.69,81.32,45.314805583932,30.183728,6,P-GPS,
9800,2023-01-04 22:47:42,-34.9535048174035,-54.9408005115063,30.183728,30.4790036,14.835801983932,45.314805583932,29.855644,1.6329662,5.0730316584,10.3952103064,25,5,7.37,45.642889583932,30.511812,4.1159696,5.0730316584,1.565858,-0.447388,0,187.4, 23.3, -0.4,0,0,364,1024,1024,1684,-100,0,0,100,202.4,-7.4,0,31,3.676,3.674,0,0,0,0,4.69,81.32,45.314805583932,30.183728,6,P-GPS,
9900,2023-01-04 22:47:42,-34.9535037755365,-54.9408004230832,30.183728,30.511812,14.802993583932,45.314805583932,30.183728,2.2816788,5.4458335076,10.7762798724,25,5,7.37,45.642889583932,30.511812,4.1159696,5.4458335076,2.23694,-0.447388,0,192.3, 23.6, -0.2,0,0,364,1024,1024,1024,-100,0,0,0,207.2,-7.4,0,31,3.676,3.674,0,0,0,0,4.69,81.32,45.314805583932,30.183728,6,P-GPS,
10000,2023-01-04 22:47:42,-34.9535023036071,-54.940800592586,30.183728,30.5774288,14.737376783932,45.314805583932,30.183728,3.131716,5.9528873296,11.3156827768,24,5,7.37,45.642889583932,30.511812,4.1159696,5.9528873296,3.131716,-0.223694,0,197.1, 23.7, -0.4,0,0,364,1024,1024,1024,-100,0,0,0,211.4,-7.4,0,31,3.676,3.674,0,0,0,0,4.69,81.32,45.314805583932,30.183728,6,P-GPS,
10100,2023-01-04 22:47:42,-34.9535005009717,-54.9408003544061,30.183728,30.5774288,14.737376783932,45.314805583932,30.511812,4.026492,6.6093834136,11.9772313544,24,5,7.37,45.642889583932,30.511812,4.1159696,6.6093834136,4.026492,0,0,200.2, 23.8, 0,0,0,364,1024,1024,1024,-100,0,0,0,213.4,-7.4,0,31,3.676,3.674,0,0,0,0,4.69,81.32,45.314805583932,30.183728,6,P-GPS,
10200,2023-01-04 22:47:42,-34.9534984836846,-54.9408000143481,30.183728,30.6430456,14.671759983932,45.314805583932,30.511812,4.921268,7.3497705764,12.7202103808,24,5,7.37,45.642889583932,30.511812,4.921268,7.3497705764,4.921268,0,0,201.2, 24.2, -1.5,0,0,364,1024,1024,1024,-100,0,0,0,214.1,-7.4,0,31,3.676,3.674,0,0,0,0,4.69,81.32,45.314805583932,30.183728,6,P-GPS,
10300,2023-01-04 22:47:42,-34.9534960363613,-54.940799507134,30.183728,30.7086624,14.606143183932,45.314805583932,30.511812,5.59235,8.2545606316,13.6259190712,24,5,7.37,45.642889583932,30.511812,5.59235,8.2545606316,5.59235,0.223694,0,201.4, 24.3, -2.9,0,0,364,1024,1024,1024,-100,0,0,0,214.2,-7.4,0,31,3.676,3.674,0,0,0,0,4.69,81.32,45.314805583932,30.183728,6,P-GPS,
10400,2023-01-04 22:47:42,-34.9534926337568,-54.9407986100782,30.183728,30.7742792,14.540526383932,45.314805583932,27.230972,6.0621074,9.5246394124,14.895997852,24,5,7.37,45.642889583932,30.511812,6.0621074,9.5246394124,6.039738,0.447388,0,201.5, 23.7, -2.7,0,0,364,1024,1024,1024,-100,0,0,0,214.2,-7.4,0,31,3.676,3.674,0,0,0,0,4.69,81.32,45.314805583932,30.183728,6,P-GPS,
10500,2023-01-04 22:47:42,-34.9534896198718,-54.940797691657,30.183728,30.839896,14.474909583932,45.314805583932,27.230972,6.7779282,10.6574478476,16.0293968384,24,5,7.37,45.642889583932,30.511812,6.7779282,10.6574478476,6.71082,0.894776,0,201.4, 23.5, -2.4,0,0,364,1024,1024,1024,-100,0,0,0,214.2,-7.4,0,31,3.676,3.674,0,0,0,0,4.69,81.32,45.314805583932,30.183728,6,P-GPS,
10600,2023-01-04 22:47:42,-34.9534865867808,-54.9407966633695,30.183728,30.9055128,14.409292783932,45.314805583932,27.559056,7.4713796,11.8043638948,17.1779533056,24,5,7.37,45.642889583932,30.511812,7.4713796,11.8043638948,7.381902,1.11847,0,201.4, 22.5, -3.2,0,0,364,1024,1024,1024,-100,0,0,0,214.2,-7.9,0,31,3.676,3.674,0,0,0,0,4.69,81.32,45.314805583932,30.183728,6,P-GPS,
10700,2023-01-04 22:47:43,-34.9534832595864,-54.9407953904274,30.183728,31.003938,14.310867583932,45.314805583932,27.559056,7.941137,13.0725725968,18.4501646324,24,5,7.37,45.642889583932,30.511812,7.941137,13.0725725968,7.82929,1.342164,0,201.5, 21.7, -3.6,0,0,364,1024,1024,1024,-100,0,0,0,214.2,-8.8,0,31,3.676,3.674,0,0,0,0,4.69,81.32,45.314805583932,30.183728,6,P-GPS,
10800,2023-01-04 22:47:43,-34.9534799305746,-54.9407940161515,30.183728,31.0695548,14.245250783932,45.314805583932,27.559056,8.6793272,14.3492130576,19.7323825212,24,5,7.37,45.642889583932,30.511812,8.6793272,14.3492130576,8.500372,1.789552,0,201.6, 20.4, -3.4,0,0,364,1024,1024,1024,-100,0,0,0,214.2,-10.1,0,31,3.676,3.674,0,0,0,0,4.69,81.32,45.314805583932,30.183728,6,P-GPS,
10900,2023-01-04 22:47:43,-34.9534764382266,-54.9407918668841,30.183728,31.16798,14.146825583932,45.314805583932,27.559056,9.171454,15.742126488,21.1594823044,24,5,7.358,45.642889583932,30.511812,9.171454,15.742126488,8.94776,2.013246,0,201.5, 19.3, -3.7,0,0,364,1024,1024,1024,-100,0,0,0,214.2,-11.4,0,31,3.661,3.659,0,0,0,0,5.069,81.32,45.314805583932,30.183728,6,P-GPS,
11000,2023-01-04 22:47:43,-34.953472823804,-54.9407901832694,30.183728,31.2335968,14.081208783932,45.314805583932,28.215224,9.6635808,17.1462931996,22.571030906,24,5,7.358,45.642889583932,30.511812,9.6635808,17.1462931996,9.395148,2.23694,0,201.5, 19.7, -3.4,0,0,364,1024,1024,1024,-100,0,0,0,214.2,-12.9,0,31,3.661,3.659,0,0,0,0,5.069,81.32,45.314805583932,30.183728,6,P-GPS,
11100,2023-01-04 22:47:43,-34.9534688813085,-54.9407882984829,30.183728,31.332022,13.982783583932,45.314805583932,28.215224,9.9320136,18.6831042724,24.1159456536,24,5,7.358,45.642889583932,30.511812,9.9320136,18.6831042724,9.618842,2.460634,0,201.5, 20.1, -3.4,0,0,364,1024,1024,1024,-100,0,0,0,214.2,-14.3,0,31,3.661,3.659,0,0,0,0,5.069,81.32,45.314805583932,30.183728,6,P-GPS,
11200,2023-01-04 22:47:43,-34.953464999567,-54.9407864238104,30.183728,31.4304472,13.884358383932,45.314805583932,28.543308,10.4241404,20.1990163944,25.639108432,24,5,7.358,45.642889583932,30.511812,10.4241404,20.1990163944,10.06623,2.684328,0,201.7, 21.3, -3.6,0,0,364,1024,1024,1024,-100,0,0,0,214.2,-15.8,0,31,3.661,3.659,0,0,0,0,5.069,81.32,45.314805583932,30.183728,6,P-GPS,
11300,2023-01-04 22:47:43,-34.9534609358241,-54.9407840804216,30.183728,31.5288724,13.785933183932,45.314805583932,28.871392,10.9162672,21.8199482048,27.279036306,24,5,7.358,45.642889583932,30.511812,10.9162672,21.8199482048,10.513618,2.908022,0,201.7, 20.1, -3.8,0,0,510,1024,1024,1024,-78,0,0,0,214.2,-17.2,0,31,3.661,3.659,0,0,0,0,5.069,81.32,45.314805583932,30.183728,6,P-GPS,
11400,2023-01-04 22:47:43,-34.9534567758467,-54.9407819923311,30.511812,31.9553816,13.687507983932,45.642889583932,29.199476,11.2294388,23.4542002256,28.9202108992,24,5,7.358,45.642889583932,30.511812,11.2294388,23.4542002256,10.289924,4.47388,0,208.6, 18, -2.6,0,0,620,1024,1024,1024,-61,0,0,0,214.1,-18.7,0,31,3.661,3.659,0,0,0,0,5.069,81.32,45.642889583932,30.511812,6,P-GPS,
11500,2023-01-04 22:47:43,-34.95345227983,-54.9407796172164,30.511812,32.0866152,13.556274383932,45.642889583932,29.199476,11.520241,25.2322186552,30.7077437648,24,5,7.358,45.642889583932,30.511812,11.520241,25.2322186552,10.513618,4.697574,-0.447388,209.3, 11.8, -2.8,0,0,577,1024,1024,1024,-68,0,0,0,214.1,-20.1,0,31,3.661,3.659,0,0,0,0,5.069,81.32,45.642889583932,30.511812,6,P-GPS,
11600,2023-01-04 22:47:43,-34.9534479364768,-54.940777295694,30.511812,32.152232,13.490657583932,45.642889583932,29.52756,11.8110432,26.953576978,32.4377963136,24,5,7.358,45.642889583932,30.511812,11.8110432,26.953576978,10.737312,4.921268,-0.671082,209, 9.8, -2.4,0,0,574,1024,1024,1024,-68,0,0,0,214.1,-21.5,0,31,3.661,3.659,0,0,0,0,5.069,81.32,45.642889583932,30.511812,6,P-GPS,
11700,2023-01-04 22:47:44,-34.9534436607561,-54.9407741724899,30.183728,31.9225732,13.392232383932,45.314805583932,29.52756,11.8110432,28.729331628,34.255906608,24,5,7.358,45.642889583932,30.511812,11.8110432,28.729331628,10.737312,4.921268,-0.223694,209.1, 11.1, -2.1,0,0,611,1024,1024,1024,-63,0,0,0,214.2,-23,0,31,3.661,3.659,0,0,0,0,5.069,81.32,45.314805583932,30.183728,6,P-GPS,
11800,2023-01-04 22:47:44,-34.9534393561272,-54.9407717504254,30.183728,32.0538068,13.260998783932,45.314805583932,29.199476,11.8110432,30.45029625,35.985565456,24,5,7.358,45.642889583932,30.511812,11.8110432,30.45029625,10.737312,4.921268,0,209, 11, -1.7,0,0,694,1024,1024,1024,-50,0,0,0,214.2,-24.4,0,31,3.661,3.659,0,0,0,0,5.069,81.32,45.314805583932,30.183728,6,P-GPS,
11900,2023-01-04 22:47:44,-34.9534348519879,-54.9407691763197,29.855644,31.824148,13.162573583932,44.986721583932,29.199476,11.9005208,32.2560049692,37.80019806,24,5,7.358,45.642889583932,30.511812,11.9005208,32.2560049692,10.737312,5.144962,0,209.1, 10.1, -1.5,0,0,778,1024,1024,1024,-37,0,0,0,214.2,-25.8,0,31,3.661,3.659,0,0,0,0,5.069,81.32,44.986721583932,29.855644,6,P-GPS,
12000,2023-01-04 22:47:44,-34.9534305592011,-54.9407667309515,29.855644,31.9225732,13.064148383932,44.986721583932,28.871392,11.9005208,33.977035208,39.528872656,24,5,7.322,45.642889583932,30.511812,11.9005208,33.977035208,10.737312,5.144962,0,209.1, 7.4, -1.5,0,0,778,1024,1024,1024,-37,0,0,0,214.2,-26.9,0,31,3.708,3.706,0,0,0,0,5.432,81.5,44.986721583932,29.855644,6,P-GPS,
12100,2023-01-04 22:47:44,-34.9534262133921,-54.9407642859857,29.52756,31.6929144,12.965723183932,44.658637583932,28.871392,11.9005208,35.71686466,41.27460762,24,5,7.322,45.642889583932,30.511812,11.9005208,35.71686466,10.737312,5.144962,0,209.2, 3.7, -1.4,0,0,861,1024,1024,1024,-25,0,0,0,214.2,-27.7,0,31,3.708,3.706,0,0,0,0,5.432,81.5,44.658637583932,29.52756,6,P-GPS,
12200,2023-01-04 22:47:44,-34.9534219690027,-54.9407619385909,29.199476,31.4632556,12.867297983932,44.330553583932,28.543308,11.6097186,37.412730856,42.975066992,24,5,7.322,45.642889583932,30.511812,11.9005208,37.412730856,10.513618,4.921268,0,209.2, 0.6, -1.9,0,0,913,1024,1024,1107,-17,0,0,13,214.2,-28.3,0,31,3.708,3.706,0,0,0,0,5.432,81.5,44.330553583932,29.199476,6,P-GPS,
12300,2023-01-04 22:47:44,-34.9534175899148,-54.9407595653786,29.199476,31.5616808,12.768872783932,44.330553583932,28.215224,11.408394,39.157481568,44.723098544,24,5,7.322,45.642889583932,30.511812,11.9005208,39.157481568,10.289924,4.921268,0,209.3, -1.5, -1.9,0,0,989,1024,1024,1646,-5,0,0,94,214.2,-28.6,0,31,3.708,3.706,0,0,0,0,5.432,81.5,44.330553583932,29.199476,6,P-GPS,
12400,2023-01-04 22:47:44,-34.9534135327183,-54.9407573699624,28.871392,31.332022,12.670447583932,44.002469583932,28.215224,11.1175918,40.773951436,46.342521168,24,5,7.322,45.642889583932,30.511812,11.9005208,40.773951436,10.06623,4.697574,0,209.2, -3, -3.7,0,0,1024,1024,1024,1684,0,0,0,100,214.9,-28.7,0,31,3.708,3.706,0,0,0,0,5.432,81.5,44.002469583932,28.871392,6,P-GPS,
12500,2023-01-04 22:47:44,-34.9534094239717,-54.9407551052412,28.543308,31.1351716,12.539213983932,43.674385583932,28.215224,10.7149426,42.415355688,47.987534344,24,5,7.322,45.642889583932,30.511812,11.9005208,42.415355688,9.618842,4.697574,0,211.9, -14.5, -5,0,0,1024,1024,1024,1361,0,0,0,51,218.3,-28.7,0,31,3.708,3.706,0,0,0,0,5.432,81.5,43.674385583932,28.543308,6,P-GPS,
12600,2023-01-04 22:47:44,-34.9534058914467,-54.9407533560818,28.543308,31.2007884,12.473597183932,43.674385583932,28.215224,9.3056704,43.806103764,49.37828242,24,5,7.322,45.642889583932,30.511812,11.9005208,43.806103764,8.276678,4.250186,0,218.4, -31.8, -10.4,0,0,1024,1024,1024,1024,0,0,0,0,222.9,-28.7,0,31,3.708,3.706,0,0,0,0,5.432,81.5,43.674385583932,28.543308,6,P-GPS,
12700,2023-01-04 22:47:45,-34.9534026957231,-54.9407514356955,28.215224,30.9383212,12.407980383932,43.346301583932,28.215224,7.9187676,45.10006706,50.678151228,24,5,7.322,45.642889583932,30.511812,11.9005208,45.10006706,6.934514,3.802798,-0.223694,221, -19, -4.1,0,0,1024,1024,1024,1024,0,0,0,0,225.7,-28.7,0,31,3.708,3.706,0,0,0,0,5.432,81.5,43.346301583932,28.215224,6,P-GPS,
12800,2023-01-04 22:47:45,-34.9534000070057,-54.9407497928897,28.215224,31.003938,12.342363583932,43.346301583932,24.934384,7.1134692,46.191930612,51.775264124,24,5,7.322,45.642889583932,30.511812,11.9005208,46.191930612,6.263432,3.35541,0.223694,221.5, -20.5, -5.3,0,0,1024,1024,1024,1024,0,0,0,0,226.9,-28.7,0,31,3.708,3.706,0,0,0,0,5.432,81.5,43.346301583932,28.215224,6,P-GPS,
12900,2023-01-04 22:47:45,-34.9533975598192,-54.9407482461053,27.88714,30.7086624,12.309555183932,43.018217583932,24.934384,6.1068462,47.191274476,52.780841584,24,5,7.322,45.642889583932,30.511812,11.9005208,47.191274476,5.368656,2.908022,0.447388,222.3, -19.2, -3.7,0,0,1024,1024,1024,1024,0,0,0,0,227.2,-28.7,0,31,3.708,3.706,0,0,0,0,5.432,81.5,43.018217583932,27.88714,6,P-GPS,
13000,2023-01-04 22:47:45,-34.9533957934264,-54.9407470379959,27.88714,30.7742792,12.243938383932,43.018217583932,24.6063,5.1002232,47.922901796,53.519686752,24,5,7.322,45.642889583932,30.511812,11.9005208,47.922901796,4.47388,2.460634,0.223694,223, -18.9, -2.4,0,0,1024,1024,1024,1024,0,0,0,0,227.2,-28.7,0,31,3.708,3.706,0,0,0,0,5.432,81.5,43.018217583932,27.88714,6,P-GPS,
13100,2023-01-04 22:47:45,-34.953394068774,-54.940745924481,27.88714,30.8070876,12.211129983932,43.018217583932,24.6063,4.2054472,48.6302509,54.231629032,24,5,7.404,45.642889583932,30.511812,11.9005208,48.6302509,3.802798,1.789552,0.223694,223.1, -17.8, -4.6,0,0,1024,1024,1024,1024,0,0,0,0,227.2,-28.7,0,30,3.617,3.668,0,0,0,0,3.681,81.68,43.018217583932,27.88714,6,P-GPS,
13200,2023-01-04 22:47:45,-34.9533927709171,-54.9407451611075,27.88714,30.839896,12.178321583932,43.018217583932,24.278216,3.4001488,49.154529132,54.7572196,24,5,7.404,45.642889583932,30.511812,11.9005208,49.154529132,3.131716,1.342164,0.223694,222.7, -17.3, -6.5,0,0,1024,1024,1024,1024,0,0,0,0,227.2,-28.7,0,30,3.617,3.668,0,0,0,0,3.681,81.68,43.018217583932,27.88714,6,P-GPS,
13300,2023-01-04 22:47:45,-34.953391794932,-54.9407446476049,27.88714,30.8727044,12.145513183932,43.018217583932,24.278216,2.4158952,49.541996336,55.145014888,24,5,7.404,45.642889583932,30.511812,11.9005208,49.541996336,2.23694,0.894776,0,222.8, -16.6, -6,0,0,1024,1024,1024,1024,0,0,0,0,227.2,-28.7,0,30,3.617,3.668,0,0,0,0,3.681,81.68,43.018217583932,27.88714,6,P-GPS,
13400,2023-01-04 22:47:45,-34.9533916835334,-54.9407440772097,27.88714,30.8727044,12.145513183932,43.018217583932,24.6063,1.7000744,49.64239004,55.320211744,23,5,7.404,45.642889583932,30.511812,11.9005208,49.64239004,1.565858,0.671082,0,222.8, -11.8, -4.5,0,0,1024,1024,1024,1024,0,0,0,0,227.2,-28.7,0,30,3.617,3.668,0,0,0,0,3.681,81.68,43.018217583932,27.88714,6,P-GPS,
13500,2023-01-04 22:47:45,-34.9533911947657,-54.9407437867153,27.88714,30.8727044,12.145513183932,43.018217583932,24.6063,1.2079476,49.840224692,55.518702564,23,5,7.404,45.642889583932,30.511812,11.9005208,49.840224692,1.11847,0.447388,0,222.6, -8.1, -3.9,0,0,1024,945,1024,1108,0,-12,0,13,227.2,-28.7,0,30,3.617,3.668,0,0,0,0,3.681,81.68,43.018217583932,27.88714,6,P-GPS,
13600,2023-01-04 22:47:45,-34.9533909142434,-54.9407435772221,27.559056,30.5446204,12.145513183932,42.690133583932,24.6063,0.7158208,49.958663016,55.638781308,23,5,7.404,45.642889583932,30.511812,11.9005208,49.958663016,0.671082,0.223694,0,222.3, -6.1, -3.3,0,0,1024,511,1024,1563,0,-78,0,82,227.2,-28.7,0,30,3.617,3.668,0,0,0,0,3.681,81.68,42.690133583932,27.559056,6,P-GPS,
13700,2023-01-04 22:47:46,-34.9533907907813,-54.9407433874736,27.559056,30.5446204,12.145513183932,42.690133583932,24.934384,0.3131716,50.02132706,55.710959788,23,5,7.404,45.642889583932,30.511812,11.9005208,50.02132706,0.223694,0.223694,0,222.3, -4, -2.7,0,0,1024,364,1036,1684,0,-100,2,100,227.6,-28.7,0,30,3.617,3.668,0,0,0,0,3.681,81.68,42.690133583932,27.559056,6,P-GPS,
13800,2023-01-04 22:47:46,-34.9533911842525,-54.9407427124494,27.559056,30.5446204,12.145513183932,42.690133583932,24.934384,0.447388,49.963256192,55.958663208,23,5,7.404,45.642889583932,30.511812,11.9005208,50.02132706,0,0.447388,0,223.2, -2.3, -10.3,0,0,1024,364,1051,1684,0,-100,4,100,229.9,-28.7,0,30,3.617,3.668,0,0,0,0,3.681,81.68,42.690133583932,27.559056,6,P-GPS,
13900,2023-01-04 22:47:46,-34.9533913420422,-54.9407424185998,27.559056,30.5446204,12.145513183932,42.690133583932,24.934384,0.7158208,49.942914984,56.063978172,23,5,7.404,45.642889583932,30.511812,11.9005208,50.02132706,-0.223694,0.671082,0,226.2, -0.6, -19.9,0,0,1024,364,1051,1684,0,-100,4,100,234.1,-28.7,0,30,3.617,3.668,0,0,0,0,3.681,81.68,42.690133583932,27.559056,6,P-GPS,
14000,2023-01-04 22:47:46,-34.9533916839763,-54.9407419462067,27.559056,30.5446204,12.145513183932,42.690133583932,25.262468,1.2974252,49.880907108,56.252298388,23,5,7.404,45.642889583932,30.511812,11.9005208,50.02132706,-0.671082,1.11847,0,230.6, 0.7, -23.5,0,0,1024,364,1077,1684,0,-100,8,100,238.9,-28.7,0,30,3.617,3.668,0,0,0,0,3.681,81.68,42.690133583932,27.559056,6,P-GPS,
14100,2023-01-04 22:47:46,-34.9533922922588,-54.940741189183,27.559056,30.5446204,12.145513183932,42.690133583932,25.262468,2.0579848,49.762468784,56.569227532,23,5,7.33,45.642889583932,30.511812,11.9005208,50.02132706,-1.342164,1.565858,0,235.5, 2, -22.7,0,0,1024,364,1084,1684,0,-100,9,100,243.7,-28.7,0,30,3.67,3.668,0,0,0,0,4.81,81.68,42.690133583932,27.559056,6,P-GPS,
14200,2023-01-04 22:47:46,-34.9533931271686,-54.9407402407175,27.559056,30.511812,12.178321583932,42.690133583932,25.262468,3.019869,49.591865104,56.985566128,23,5,7.33,45.642889583932,30.511812,11.9005208,50.02132706,-2.23694,2.013246,0,240, 2.7, -22.4,0,0,1024,364,1083,1684,0,-100,9,100,248.5,-28.7,0,30,3.67,3.668,0,0,0,0,4.81,81.68,42.690133583932,27.559056,6,P-GPS,
14300,2023-01-04 22:47:46,-34.9533942452321,-54.9407382712675,27.559056,30.4790036,12.211129983932,42.690133583932,25.590552,3.802798,49.452757488,57.702101584,23,5,7.33,45.642889583932,30.511812,11.9005208,50.02132706,-2.908022,2.460634,0,244.5, 3.8, -21.5,0,0,1024,364,1083,1684,0,-100,9,100,253.3,-28.7,0,30,3.67,3.668,0,0,0,0,4.81,81.68,42.690133583932,27.559056,6,P-GPS,
14400,2023-01-04 22:47:46,-34.9533955713457,-54.9407369092144,27.559056,30.4461952,12.243938383932,42.690133583932,25.590552,4.6080964,49.178807348,58.334319452,23,5,7.33,45.642889583932,30.511812,11.9005208,50.02132706,-3.579104,2.908022,0,249.3, 3.5, -20.3,0,0,1024,364,1082,1684,0,-100,9,100,258.1,-28.7,0,30,3.67,3.668,0,0,0,0,4.81,81.68,42.690133583932,27.559056,6,P-GPS,
14500,2023-01-04 22:47:46,-34.9533972453992,-54.9407353052447,27.559056,30.4133868,12.276746783932,42.690133583932,25.590552,5.4581336,48.827757468,59.11089428,23,5,7.33,45.642889583932,30.511812,11.9005208,50.02132706,-4.47388,3.131716,0,254.1, 3.7, -19.5,0,0,1024,364,1081,1684,0,-100,9,100,262.9,-28.7,0,30,3.67,3.668,0,0,0,0,4.81,81.68,42.690133583932,27.559056,6,P-GPS,
14600,2023-01-04 22:47:46,-34.9533991245063,-54.940733687901,27.559056,30.3805784,12.309555183932,42.690133583932,25.590552,5.8384134,48.420933308,59.950133152,23,5,7.33,45.642889583932,30.511812,11.9005208,50.02132706,-4.921268,3.131716,0,259, 3.7, -18.5,0,0,1024,364,1081,1684,0,-100,9,100,267.7,-28.7,0,30,3.67,3.668,0,0,0,0,4.81,81.68,42.690133583932,27.559056,6,P-GPS,
14700,2023-01-04 22:47:46,-34.9534014550181,-54.9407312621599,27.559056,30.3149616,12.375171983932,42.690133583932,25.262468,5.8384134,47.990159016,61.067587256,23,5,7.33,45.642889583932,30.511812,11.9005208,50.02132706,-5.59235,3.131716,0,264.1, 3.1, -17.5,0,0,1024,364,1081,1684,0,-100,9,100,272.5,-28.7,0,30,3.67,3.668,0,0,0,0,4.81,81.68,42.690133583932,27.559056,6,P-GPS,
14800,2023-01-04 22:47:47,-34.9534039269049,-54.9407295451208,27.559056,30.2493448,12.440788783932,42.690133583932,24.934384,7.0016222,47.434712804,62.105645032,23,5,7.33,45.642889583932,30.511812,11.9005208,50.02132706,-6.263432,3.131716,0,268.9, 2.2, -17.3,0,0,1024,364,1081,1684,0,-100,9,100,277.3,-28.7,0,30,3.67,3.668,0,0,0,0,4.81,81.68,42.690133583932,27.559056,6,P-GPS,
14900,2023-01-04 22:47:47,-34.9534068383543,-54.940727743903,27.559056,30.183728,12.506405583932,42.690133583932,24.934384,7.4042714,46.769030368,63.296589952,23,5,7.33,45.642889583932,30.511812,11.9005208,50.02132706,-6.71082,3.131716,0,273.8, 2, -17.2,0,0,1024,364,1065,1684,0,-100,6,100,282.1,-28.7,0,30,3.67,3.668,0,0,0,0,4.81,81.68,42.690133583932,27.559056,6,P-GPS,
15000,2023-01-04 22:47:47,-34.9534097988525,-54.9407261010135,27.559056,30.1181112,12.572022383932,42.690133583932,24.934384,7.941137,46.084647144,64.48326978,22,5,7.33,45.642889583932,30.511812,11.9005208,50.02132706,-7.381902,2.908022,0,278.1, 2.3, -17.4,0,0,1024,364,1062,1684,0,-100,6,100,286.9,-28.7,0,30,3.67,3.668,0,0,0,0,4.81,81.68,42.690133583932,27.559056,6,P-GPS,
15100,2023-01-04 22:47:47,-34.9534132301794,-54.940724237682,27.230972,29.7244104,12.637639183932,42.362049583932,24.934384,8.276678,45.310696988,65.853348564,22,5,7.304,45.642889583932,30.511812,11.9005208,50.02132706,-7.82929,2.684328,0,283.2, 1.8, -18,0,0,1024,364,1061,1684,0,-100,6,100,291.7,-28.7,0,30,3.655,3.656,0,0,0,0,5.102,81.68,42.362049583932,27.230972,6,P-GPS,
15200,2023-01-04 22:47:47,-34.953416565845,-54.9407228249345,27.230972,29.6259852,12.736064383932,42.362049583932,22.96588,8.6345884,44.520014548,67.141734432,23,5,7.304,45.642889583932,30.511812,11.9005208,50.02132706,-8.276678,2.460634,0,288.3, 1.3, -18.8,0,0,1024,364,1060,1684,0,-100,5,100,296.5,-28.7,0,30,3.655,3.656,0,0,0,0,5.102,81.68,42.362049583932,27.230972,6,P-GPS,
15300,2023-01-04 22:47:47,-34.9534203166466,-54.9407215093739,27.230972,29.5603684,12.801681183932,42.362049583932,22.637796,9.171454,43.61220612,68.565618992,23,5,7.304,45.642889583932,30.511812,11.9005208,50.02132706,-8.94776,2.013246,0,293.2, 0.9, -18.5,0,0,1024,364,1060,1684,0,-100,5,100,301.3,-28.7,0,30,3.655,3.656,0,0,0,0,5.102,81.68,42.362049583932,27.230972,6,P-GPS,
15400,2023-01-04 22:47:47,-34.9534240764111,-54.9407204346272,26.902888,29.1338592,12.900106383932,42.033965583932,22.637796,9.5741032,42.686681156,69.974411688,24,5,7.304,45.642889583932,30.511812,11.9005208,50.02132706,-9.395148,1.789552,0,298.2, 0.6, -17.5,0,0,1024,364,1058,1684,0,-100,5,100,306.1,-28.7,0,30,3.655,3.656,0,0,0,0,5.102,81.68,42.033965583932,26.902888,6,P-GPS,
15500,2023-01-04 22:47:47,-34.9534282302396,-54.9407195384972,26.902888,29.035434,12.998531583932,42.033965583932,22.637796,9.9320136,41.642389784,71.513453732,24,5,7.304,45.642889583932,30.511812,11.9005208,50.02132706,-9.842536,1.342164,0,302.9, 0.1, -17.8,0,0,1024,364,1024,1675,0,-100,0,99,310.9,-28.7,0,30,3.655,3.656,0,0,0,0,5.102,81.68,42.033965583932,26.902888,6,P-GPS,
15600,2023-01-04 22:47:47,-34.9534323473694,-54.9407188932363,26.574804,28.6089248,13.096956783932,41.705881583932,22.637796,10.1109688,40.591864816,73.027889476,24,5,7.304,45.642889583932,30.511812,11.9005208,50.02132706,-10.06623,0.894776,0,308.1, -0.4, -17.2,0,0,1024,782,1024,1024,0,-37,0,0,315.7,-28.7,0,30,3.655,3.656,0,0,0,0,5.102,81.68,41.705881583932,26.574804,6,P-GPS,
15700,2023-01-04 22:47:48,-34.9534368576251,-54.9407184942559,26.574804,28.4776912,13.228190383932,41.705881583932,22.309712,10.513618,39.415027508,74.677823912,24,5,7.304,45.642889583932,30.511812,11.9005208,50.02132706,-10.513618,0.223694,0,312.8, -0.9, -17.9,0,0,1024,782,1024,1024,0,-37,0,0,320.3,-28.7,0,30,3.655,3.656,0,0,0,0,5.102,81.68,41.705881583932,26.574804,6,P-GPS,
15800,2023-01-04 22:47:48,-34.9534411810202,-54.9407184157267,26.574804,28.379266,13.326615583932,41.705881583932,22.309712,10.737312,38.258203324,76.255579868,24,5,7.304,45.642889583932,30.511812,11.9005208,50.02132706,-10.737312,0,0,316.6, -0.9, -12.6,0,0,1024,1024,1024,1024,0,0,0,0,322.7,-28.7,0,30,3.655,3.656,0,0,0,0,5.102,81.68,41.705881583932,26.574804,6,P-GPS,
15900,2023-01-04 22:47:48,-34.9534456476662,-54.9407186359493,26.574804,28.2808408,13.425040783932,41.705881583932,22.309712,10.513618,37.032153416,77.886485432,24,5,7.304,45.642889583932,30.511812,11.9005208,50.02132706,-10.513618,-0.223694,0,317.9, -10.8, 8.9,0,0,1024,1024,1024,1024,0,0,0,0,323.7,-28.7,0,30,3.655,3.656,0,0,0,0,5.102,81.68,41.705881583932,26.574804,6,P-GPS,
16000,2023-01-04 22:47:48,-34.9534496062637,-54.9407192389196,26.574804,28.1824156,13.523465983932,41.705881583932,22.309712,9.618842,35.885171752,79.341866056,23,5,7.304,45.642889583932,30.511812,11.9005208,50.02132706,-9.618842,-0.223694,0,317.1, -15.1, 13.8,0,0,1024,1024,1024,1024,0,0,0,0,323.9,-28.7,0,30,3.655,3.656,0,0,0,0,5.102,81.68,41.705881583932,26.574804,6,P-GPS,
16100,2023-01-04 22:47:48,-34.9534535103279,-54.9407195425318,26.574804,28.0839904,13.621891183932,41.705881583932,21.981628,8.724066,34.840224212,80.76935954,23,5,7.316,45.642889583932,30.511812,11.9005208,50.02132706,-8.724066,-0.223694,0,317, -14.3, 13.9,0,0,1024,1024,1024,1024,0,0,0,0,323.9,-28.7,0,30,3.659,3.663,0,0,0,0,5.06,81.68,41.705881583932,26.574804,6,P-GPS,
