time(millisecond),datetime(utc),latitude,longitude,height_above_takeoff(feet),height_above_ground_at_drone_location(feet),ground_elevation_at_drone_location(feet),altitude_above_seaLevel(feet),height_sonar(feet),speed(mph),distance(feet),mileage(feet),satellites,gpslevel,voltage(v),max_altitude(feet),max_ascent(feet),max_speed(mph),max_distance(feet), xSpeed(mph), ySpeed(mph), zSpeed(mph), compass_heading(degrees), pitch(degrees), roll(degrees),isPhoto,isVideo,rc_elevator,rc_aileron,rc_throttle,rc_rudder,rc_elevator(percent),rc_aileron(percent),rc_throttle(percent),rc_rudder(percent),gimbal_heading(degrees),gimbal_pitch(degrees),gimbal_roll(degrees),battery_percent,voltageCell1,voltageCell2,voltageCell3,voltageCell4,voltageCell5,voltageCell6,current(A),battery_temperature(f),altitude(feet),ascent(feet),flycStateRaw,flycState,message
0,2022-08-28 21:04:33,-34.9105346561402,-56.1389544507849,0,0,41.934293664732,41.934293664732,0.984252,0,0,0,19,5,0,41.934293664732,0,0,0,0,0,0,259.9, -7, -0.5,0,0,364,364,364,1684,-100,-100,-100,100,270.3,0,0,96,4.26,4.254,0,0,0,0,0,60.8,41.934293664732,0,41,Motors_Started,"En vuelo Aeronave en Zona de altitud restringida (150). Vuela con precauci칩n (Code: 190001)"
100,2022-08-28 21:04:33,-34.9105348018066,-56.1389543849534,0,0,41.934293664732,41.934293664732,0.984252,0,0.056678807588,0.056678807588,19,5,0,41.934293664732,0,0,0.056678807588,0,0,0,259.4, -6.9, -0.7,0,0,364,364,364,1684,-100,-100,-100,100,270.2,0,0,96,4.26,4.254,0,0,0,0,0,60.8,41.934293664732,0,41,Motors_Started,
200,2022-08-28 21:04:33,-34.9105348904288,-56.1389543335826,0,0,41.934293664732,41.934293664732,0.328084,0,0.092393047576,0.092479661752,19,5,0,41.934293664732,0,0,0.092393047576,0,0,0,259.9, -6.8, -0.4,0,0,364,364,364,1684,-100,-100,-100,100,270.3,0,0,96,4.26,4.254,0,0,0,0,0,60.8,41.934293664732,0,41,Motors_Started,"Setting new Return-To-Home altitude to 100m (328 ft). Data Recorder File Index is 24. Setting new Maximum Flight Altitude to 120m (394 ft)"
300,2022-08-28 21:04:33,-34.9105351544874,-56.13895422475,0,0,41.934293664732,41.934293664732,0.328084,0,0.193991476024,0.194175203064,19,5,0,41.934293664732,0,0,0.193991476024,0,0,0,260.3, -6.1, -0.4,0,0,364,364,364,1344,-100,-100,-100,48,270.4,0,0,96,4.26,4.254,0,0,0,0,0,60.8,41.934293664732,0,41,Motors_Started,
400,2022-08-28 21:04:34,-34.9105352441274,-56.1389541857349,0,0,41.934293664732,41.934293664732,0.328084,0,0.228714902332,0.22890092596,19,5,0,41.934293664732,0,0,0.228714902332,0,0,0,260, -5.8, -0.6,0,0,918,1022,589,1024,-16,-0,-66,0,270.5,0,0,96,4.26,4.254,0,0,0,0,0,60.8,41.934293664732,0,41,Motors_Started,
500,2022-08-28 21:04:34,-34.9105353466013,-56.138954137933,0,0,41.934293664732,41.934293664732,0.328084,0,0.268742134584,0.268930782884,19,5,0,41.934293664732,0,0,0.268742134584,0,0,0,260.1, -5.9, -0.7,0,0,1024,1024,801,1024,0,0,-34,0,270.5,0,0,96,4.26,4.254,0,0,0,0,0,60.8,41.934293664732,0,41,Motors_Started,
600,2022-08-28 21:04:34,-34.9105354436413,-56.1389540883435,0,0,41.934293664732,41.934293664732,0.328084,0,0.307102043948,0.307318907472,19,5,0,41.934293664732,0,0,0.307102043948,0,0,0,259.9, -5.8, -0.4,0,0,1024,1024,987,1024,0,0,-6,0,270.5,0,0,96,4.26,4.254,0,0,0,0,0,60.8,41.934293664732,0,41,Motors_Started,
700,2022-08-28 21:04:34,-34.9105355977877,-56.1389540381499,0,0.1312336,41.803060064732,41.934293664732,0.328084,0,0.36506890932,0.36552822692,19,5,0,41.934293664732,0,0,0.36506890932,0,0,0,259.7, -5.9, -0.5,0,0,1024,1024,1024,1024,0,0,0,0,270.4,0,0,96,4.26,4.254,0,0,0,0,0,60.8,41.934293664732,0,41,Motors_Started,
800,2022-08-28 21:04:34,-34.9105356719507,-56.1389539968696,0,0.1312336,41.803060064732,41.934293664732,0.328084,0,0.3947178604,0.39527232236,19,5,0,41.934293664732,0,0,0.3947178604,0,0,0,259.7, -6, -0.9,0,0,1024,1024,1024,1024,0,0,0,0,270.3,0,0,96,4.26,4.254,0,0,0,0,0,60.8,41.934293664732,0,41,Motors_Started,
900,2022-08-28 21:04:34,-34.9105357387605,-56.1389539571219,0,0.1312336,41.803060064732,41.934293664732,0.328084,0,0.42170605024,0.42239502664,19,5,8.535,41.934293664732,0,0,0.42170605024,0,0,0,259.8, -6, -0.8,0,0,994,1024,676,1024,-5,0,-53,0,270.3,0,0,96,4.26,4.254,0,0,0,0,0.78,60.8,41.934293664732,0,41,Motors_Started,
1000,2022-08-28 21:04:34,-34.9105357745718,-56.1389538792978,0,0.1312336,41.803060064732,41.934293664732,0.328084,0,0.44243439736,0.44909450256,19,5,8.535,41.934293664732,0,0,0.44243439736,0,0,0,259.5, -6, -0.8,0,0,705,603,364,1202,-48,-64,-100,27,270.2,0,0,96,4.26,4.254,0,0,0,0,0.78,60.8,41.934293664732,0,41,Motors_Started,
1100,2022-08-28 21:04:34,-34.9105357322905,-56.1389537267546,0,0.1312336,41.803060064732,41.934293664732,0.328084,0,0.44842849204,0.49727035712,19,5,8.535,41.934293664732,0,0,0.44842849204,0,0,0,259.7, -5.7, -0.9,0,0,364,364,364,1684,-100,-100,-100,100,270.2,0,0,96,4.26,4.254,0,0,0,0,0.78,60.8,41.934293664732,0,10,Assisted_Takeoff,
1200,2022-08-28 21:04:34,-34.9105358268552,-56.1389536670069,0,0.1312336,41.803060064732,41.934293664732,0.328084,0,0.48727363764,0.53612862608,19,5,8.535,41.934293664732,0,0,0.48727363764,0,0,0,259.8, -5.5, -0.8,0,0,364,364,364,1684,-100,-100,-100,100,270.1,0,0,96,4.26,4.254,0,0,0,0,0.78,60.8,41.934293664732,0,10,Assisted_Takeoff,
1300,2022-08-28 21:04:34,-34.910535926918,-56.1389536043592,0,0.1312336,41.803060064732,41.934293664732,0.328084,0,0.528297261,0.57716865364,19,5,8.535,41.934293664732,0,0,0.528297261,0,0,0,259.8, -5.2, -0.4,0,0,364,364,364,1684,-100,-100,-100,100,270.2,0,0,96,4.26,4.254,0,0,0,0,0.78,60.8,41.934293664732,0,10,Assisted_Takeoff,
1400,2022-08-28 21:04:35,-34.9105359894067,-56.1389535090227,0,0.1312336,41.803060064732,41.934293664732,0.328084,0,0.5621555298,0.61368440284,19,5,8.535,41.934293664732,0,0,0.5621555298,0,0,0,259.5, -5.3, -1.3,0,0,364,364,364,1684,-100,-100,-100,100,270.1,0,0,96,4.26,4.254,0,0,0,0,0.78,60.8,41.934293664732,0,10,Assisted_Takeoff,
1500,2022-08-28 21:04:35,-34.9105360171505,-56.138953328493,0,0.098425200000004,41.835868464732,41.934293664732,0.328084,0,0.59943899556,0.66863847284,19,5,8.535,41.934293664732,0,0,0.59943899556,0,0,0,259.1, -5, -1.1,0,0,1024,1024,622,1315,0,0,-61,44,269.9,0,0,96,4.26,4.254,0,0,0,0,0.78,60.8,41.934293664732,0,10,Assisted_Takeoff,
1600,2022-08-28 21:04:35,-34.9105360552803,-56.1389532768204,0,0.098425200000004,41.835868464732,41.934293664732,0.328084,0,0.61964240828,0.6894357176,19,5,8.535,41.934293664732,0,0,0.61964240828,0,0,0,258.5, -6, -0.6,0,0,1024,1024,1024,1024,0,0,0,0,269.4,0,0,96,4.26,4.254,0,0,0,0,0.78,60.8,41.934293664732,0,10,Assisted_Takeoff,
1700,2022-08-28 21:04:35,-34.9105360956045,-56.1389532427033,0,0.098425200000004,41.835868464732,41.934293664732,0.328084,0,0.637549233,0.70734254232,19,5,8.535,41.934293664732,0,0,0.637549233,0,0,0,258.5, -7.2, -0.3,0,0,1024,1024,1024,1024,0,0,0,0,269.1,0,0,96,4.26,4.254,0,0,0,0,0.78,60.8,41.934293664732,0,10,Assisted_Takeoff,
1800,2022-08-28 21:04:35,-34.9105361479667,-56.1389532251466,0,0.098425200000004,41.835868464732,41.934293664732,0.328084,0,0.65629595276,0.72715553508,19,5,8.535,41.934293664732,0,0,0.65629595276,0,0,0,258.4, -7.6, -0.4,0,0,1024,1024,1024,1024,0,0,0,0,269,0,0,96,4.262,4.26,0,0,0,0,0.78,60.8,41.934293664732,0,10,Assisted_Takeoff,
1900,2022-08-28 21:04:35,-34.9105362032411,-56.1389531977344,0,0.098425200000004,41.835868464732,41.934293664732,0.328084,0,0.67761813192,0.74892718932,19,5,8.535,41.934293664732,0,0,0.67761813192,0,0,0,258.7, -7.6, -0.5,0,0,1024,1024,1047,1003,0,0,3,-3,268.9,0,0,96,4.262,4.26,0,0,0,0,0.78,60.8,41.934293664732,0,10,Assisted_Takeoff,
2000,2022-08-28 21:04:35,-34.9105362778082,-56.1389531984156,0,0.098425200000004,41.835868464732,41.934293664732,0.328084,0,0.70033466808,0.7761319146,19,5,8.535,41.934293664732,0,0,0.70033466808,0,0,0,258.5, -7.9, -0.8,0,0,1024,1024,1471,1024,0,0,68,0,269,0,0,96,4.262,4.26,0,0,0,0,0.78,60.8,41.934293664732,0,10,Assisted_Takeoff,
2100,2022-08-28 21:04:35,-34.9105363544102,-56.1389532013881,0,0.098425200000004,41.835868464732,41.934293664732,0.328084,0,0.7236384746,0.80409451392,19,5,8.535,41.934293664732,0,0,0.7236384746,0,0,0,258.9, -7.3, -0.8,0,0,1024,1024,1684,1007,0,0,100,-3,269.1,0,0,96,4.262,4.26,0,0,0,0,0.78,60.8,41.934293664732,0,10,Assisted_Takeoff,
2200,2022-08-28 21:04:35,-34.9105364133638,-56.1389531613694,0,0.098425200000004,41.835868464732,41.934293664732,0.328084,0,0.74824149376,0.82871065644,19,5,8.535,41.934293664732,0,0,0.74824149376,0,0,-0.223694,258.8, -6.3, -0.5,0,0,1024,1024,1684,1024,0,0,100,0,269.1,0,0,96,4.262,4.26,0,0,0,0,0.78,60.8,41.934293664732,0,10,Assisted_Takeoff,
2300,2022-08-28 21:04:35,-34.9105364727309,-56.1389531128439,0,0.098425200000004,41.835868464732,41.934293664732,0.328084,0,0.77428808252,0.85478677276,19,5,8.535,41.934293664732,0,0,0.77428808252,0,0,-0.223694,258.5, -5.2, -0.1,0,0,1024,1024,1201,1024,0,0,27,0,269.1,0,0,96,4.262,4.26,0,0,0,0,0.78,60.8,41.934293664732,0,10,Assisted_Takeoff,
2400,2022-08-28 21:04:35,-34.9105364545062,-56.138953000487,0,0.098425200000004,41.835868464732,41.934293664732,0.328084,0,0.78663716428,0.88905514656,19,5,8.535,41.934293664732,0,0,0.78663716428,0,0,-0.447388,257.9, -4.7, 1.2,0,0,1024,1024,1024,1024,0,0,0,0,269,0,0,96,4.262,4.26,0,0,0,0,0.78,60.8,41.934293664732,0,6,P-GPS,
2500,2022-08-28 21:04:36,-34.9105364743736,-56.1389529568646,0,0.098425200000004,41.835868464732,41.934293664732,0.328084,0,0.79991144292,0.9039862494,19,5,8.535,41.934293664732,0,0,0.79991144292,0,0,-0.447388,257.2, -4.9, 0.3,0,0,1024,1024,1024,1024,0,0,0,0,269,0,0,96,4.262,4.26,0,0,0,0,0.78,60.8,41.934293664732,0,6,P-GPS,
2600,2022-08-28 21:04:36,-34.9105364394056,-56.1389528997832,0,0.098425200000004,41.835868464732,41.934293664732,0.656168,0,0.79915684972,0.92530186688,19,5,8.535,41.934293664732,0,0,0.79991144292,0,0,-0.447388,258.3, -3.3, -0.2,0,0,1024,1024,1289,1024,0,0,40,0,269,0,0,96,4.262,4.26,0,0,0,0,0.78,60.8,41.934293664732,0,6,P-GPS,
2700,2022-08-28 21:04:36,-34.9105363743491,-56.1389528707751,0,0.098425200000004,41.835868464732,41.934293664732,0.656168,0.223694,0.78515094376,0.9505741774,19,5,8.535,41.934293664732,0,0.223694,0.79991144292,0.223694,0,-0.671082,259.7, -2.5, -0.9,0,0,1024,1024,1289,1024,0,0,40,0,269,0,0,96,4.262,4.26,0,0,0,0,0.78,60.8,41.934293664732,0,6,P-GPS,
2800,2022-08-28 21:04:36,-34.9105361469727,-56.1389530281249,0.328084,0.4265092,41.835868464732,42.262377664732,0.656168,0.223694,0.69067915596,1.04596131956,19,5,8.517,42.262377664732,0.328084,0.223694,0.79991144292,0.223694,0,-0.671082,259.2, 0, -1,0,0,1024,1024,1684,1024,0,0,100,0,269,0,0,96,4.178,4.18,0,0,0,0,1.412,60.8,42.262377664732,0.328084,6,P-GPS,
2900,2022-08-28 21:04:36,-34.9105360111143,-56.138953100355,0.328084,0.4265092,41.835868464732,42.262377664732,0.656168,0.223694,0.6384678682,1.10003612444,19,5,8.517,42.262377664732,0.328084,0.223694,0.79991144292,0.223694,0,-0.671082,258.4, 4.1, -2.1,0,0,1024,1024,1684,1024,0,0,100,0,269,0,0,96,4.178,4.18,0,0,0,0,1.412,60.8,42.262377664732,0.328084,6,P-GPS,
3000,2022-08-28 21:04:36,-34.9105359219979,-56.1389530978037,0.656168,0.7545932,41.835868464732,42.590461664732,0.656168,0.223694,0.6141404396,1.13255909136,19,5,8.517,42.590461664732,0.656168,0.223694,0.79991144292,0.223694,0,-0.671082,258.6, 2.4, -2.5,0,0,1024,1024,1287,1024,0,0,40,0,269,0,0,96,4.178,4.18,0,0,0,0,1.412,60.8,42.590461664732,0.656168,6,P-GPS,
3100,2022-08-28 21:04:36,-34.9105358211801,-56.1389530362532,0.656168,0.7545932,41.835868464732,42.590461664732,0.656168,0.223694,0.59982941552,1.17369426328,19,5,8.517,42.590461664732,0.656168,0.223694,0.79991144292,0.223694,0,-0.894776,258.7, 1.1, -3.4,0,0,1024,1024,1024,1024,0,0,0,0,269,0,0,96,4.178,4.18,0,0,0,0,1.412,60.8,42.590461664732,0.656168,6,P-GPS,
3200,2022-08-28 21:04:36,-34.910535897115,-56.1389528942045,0.984252,1.0826772,41.835868464732,42.918545664732,0.984252,0.223694,0.64953414152,1.2244258922,19,5,8.517,42.918545664732,0.984252,0.223694,0.79991144292,0.223694,0,-1.11847,258.9, 0, -2.6,0,0,1024,1024,1110,1024,0,0,13,0,269,0,0,96,4.178,4.18,0,0,0,0,1.412,60.8,42.918545664732,0.984252,6,P-GPS,
3300,2022-08-28 21:04:36,-34.9105358597563,-56.1389527247849,1.312336,1.4107612,41.835868464732,43.246629664732,1.312336,0.223694,0.67788059912,1.27691605136,19,5,8.517,43.246629664732,1.312336,0.223694,0.79991144292,0.223694,0,-1.11847,258.5, -2.1, -3.5,0,0,1024,1024,1594,1024,0,0,86,0,269,0,0,96,4.178,4.18,0,0,0,0,1.412,60.8,43.246629664732,1.312336,6,P-GPS,
3400,2022-08-28 21:04:37,-34.9105357360218,-56.1389525784622,1.312336,1.4107612,41.835868464732,43.246629664732,1.64042,0.223694,0.68486550748,1.33980319248,19,5,8.517,43.246629664732,1.312336,0.223694,0.79991144292,0.223694,0,-0.894776,258.4, -2.9, -3.6,0,0,1024,1024,1684,1024,0,0,100,0,269,0,0,96,4.178,4.18,0,0,0,0,1.412,60.8,43.246629664732,1.312336,6,P-GPS,
3500,2022-08-28 21:04:37,-34.9105355914769,-56.1389524455771,1.64042,1.6732284,41.901485264732,43.574713664732,1.968504,0.223694,0.69020999584,1.40584650168,19,5,8.517,43.574713664732,1.64042,0.223694,0.79991144292,0.223694,0,-1.11847,258.1, -1.3, -3.6,0,0,1024,1024,1684,1024,0,0,100,0,269,0,0,96,4.178,4.18,0,0,0,0,1.412,60.8,43.574713664732,1.64042,6,P-GPS,
3600,2022-08-28 21:04:37,-34.9105355132766,-56.1389522869843,1.968504,2.0013124,41.901485264732,43.902797664732,2.296588,0.223694,0.71896983928,1.46121395752,19,5,8.517,43.902797664732,1.968504,0.223694,0.79991144292,0.223694,0,-1.565858,258.2, -2.5, -3.8,0,0,1024,1024,1684,1024,0,0,100,0,269,0,0,96,4.178,4.18,0,0,0,0,1.412,60.8,43.902797664732,1.968504,6,P-GPS,
3700,2022-08-28 21:04:37,-34.9105353830181,-56.1389520184697,2.624672,2.5262468,42.032718864732,44.558965664732,2.624672,0.223694,0.77455054972,1.55455713636,19,5,8.517,44.558965664732,2.624672,0.223694,0.79991144292,0.223694,0,-2.013246,258.4, -3.7, -4.5,0,0,1024,1024,1684,1024,0,0,100,0,269,0,0,96,4.178,4.18,0,0,0,0,1.412,60.8,44.558965664732,2.624672,6,P-GPS,
3800,2022-08-28 21:04:37,-34.9105353326533,-56.1389520033423,2.952756,2.8543308,42.032718864732,44.887049664732,3.28084,0.223694,0.77273952604,1.57348102148,19,5,8.505,44.887049664732,2.952756,0.223694,0.79991144292,0.223694,0,-2.684328,258.2, -2.1, -4.8,0,0,1024,1024,1684,1024,0,0,100,0,269,0,0,96,4.092,4.09,0,0,0,0,1.32,60.8,44.887049664732,2.952756,6,P-GPS,
3900,2022-08-28 21:04:37,-34.9105352895788,-56.1389520069711,3.608924,3.5104988,42.032718864732,45.543217664732,3.937008,0,0.76682745236,1.58923233432,19,5,8.505,45.543217664732,3.608924,0.223694,0.79991144292,0,0,-3.579104,258.3, -1.8, -4.8,0,0,1024,1024,1684,1024,0,0,100,0,269,0,0,96,4.092,4.09,0,0,0,0,1.32,60.8,45.543217664732,3.608924,6,P-GPS,
4000,2022-08-28 21:04:37,-34.9105351589736,-56.1389519934827,4.265092,4.1666668,42.032718864732,46.199385664732,4.593176,0,0.75775264892,1.637057139,19,5,8.505,46.199385664732,4.265092,0.223694,0.79991144292,0,0,-4.250186,258.3, -1.6, -5.7,0,0,1024,1024,1684,1024,0,0,100,0,269,0,0,96,4.092,4.09,0,0,0,0,1.32,60.8,46.199385664732,4.265092,6,P-GPS,
4100,2022-08-28 21:04:37,-34.9105349854484,-56.1389521585102,4.92126,4.8228348,42.032718864732,46.855553664732,5.249344,0,0.69627954984,1.71734257464,19,5,8.505,46.855553664732,4.92126,0.223694,0.79991144292,0,0,-4.697574,258.6, -1.2, -5.1,0,0,1024,1024,1684,1024,0,0,100,0,269,0,0,96,4.092,4.09,0,0,0,0,1.32,60.8,46.855553664732,4.92126,6,P-GPS,
4200,2022-08-28 21:04:37,-34.9105349090284,-56.1389521022537,5.905512,5.8070868,42.032718864732,47.839805664732,5.905512,0,0.70869752924,1.74991147332,19,5,8.505,47.839805664732,5.905512,0.223694,0.79991144292,0,0,-5.59235,258.7, -1.2, -4.9,0,0,1024,1024,1684,1024,0,0,100,0,269,0,0,96,4.092,4.09,0,0,0,0,1.32,60.8,47.839805664732,5.905512,6,P-GPS,
4300,2022-08-28 21:04:37,-34.9105348454823,-56.1389520384559,6.889764,6.7913388,42.032718864732,48.824057664732,6.889764,0,0.72505251664,1.77994428268,19,5,8.505,48.824057664732,6.889764,0.223694,0.79991144292,0,0,-6.039738,259, -0.8, -5,0,0,1024,1024,1684,1024,0,0,100,0,269,0,0,96,4.092,4.09,0,0,0,0,1.32,60.8,48.824057664732,6.889764,6,P-GPS,
4400,2022-08-28 21:04:38,-34.9105347700174,-56.1389520605469,7.874016,7.7755908,42.032718864732,49.808309664732,7.874016,0,0.71634844812,1.80825793188,19,5,8.505,49.808309664732,7.874016,0.223694,0.79991144292,0,0,-6.487126,259.4, -1.1, -5.2,0,0,1024,1024,1684,1024,0,0,100,0,269,0,0,96,4.092,4.09,0,0,0,0,1.32,60.8,49.808309664732,7.874016,6,P-GPS,
4500,2022-08-28 21:04:38,-34.9105345977617,-56.138952249787,8.858268,8.7598428,42.032718864732,50.792561664732,8.858268,0,0.65886813132,1.8928478296,19,5,8.505,50.792561664732,8.858268,0.223694,0.79991144292,0,0,-6.487126,259.7, -1.2, -5.6,0,0,1024,1024,1684,1022,0,0,100,-0,269,0,0,96,4.092,4.09,0,0,0,0,1.32,60.8,50.792561664732,8.858268,6,P-GPS,
4600,2022-08-28 21:04:38,-34.9105345528639,-56.1389522953813,10.170604,10.0721788,42.032718864732,52.104897664732,9.84252,0,0.64598427264,1.91416672792,19,5,8.505,52.104897664732,10.170604,0.223694,0.79991144292,0,0,-6.71082,259.9, -0.8, -5.8,0,0,1024,1024,1684,1022,0,0,100,-0,269,0,0,96,4.092,4.09,0,0,0,0,1.32,60.8,52.104897664732,10.170604,6,P-GPS,
4700,2022-08-28 21:04:38,-34.9105345267787,-56.1389523271438,11.154856,11.0564308,42.032718864732,53.089149664732,10.826772,0,0.63712928548,1.92761489108,19,5,8.505,53.089149664732,11.154856,0.223694,0.79991144292,0,0,-6.71082,260.3, -0.3, -5.5,0,0,1024,1024,1684,882,0,0,100,-22,269,0,0,96,4.092,4.09,0,0,0,0,1.32,60.8,53.089149664732,11.154856,6,P-GPS,
4800,2022-08-28 21:04:38,-34.9105345380651,-56.1389522279348,12.139108,12.0406828,42.032718864732,54.073401664732,11.811024,0,0.66645671424,1.95758208364,19,5,8.222,54.073401664732,12.139108,0.223694,0.79991144292,0,0,-6.71082,260.7, -1.2, -6.1,0,0,1024,1024,1684,884,0,0,100,-21,268.9,0,0,96,4.065,4.066,0,0,0,0,3.746,60.8,54.073401664732,12.139108,6,P-GPS,
4900,2022-08-28 21:04:38,-34.9105346004529,-56.1389521435422,13.12336,13.0249348,42.032718864732,55.057653664732,12.795276,0,0.69061025832,1.99157814772,19,5,8.222,55.057653664732,13.12336,0.223694,0.79991144292,0,0,-6.487126,260.8, -2.3, -5.5,0,0,1024,1024,1684,885,0,0,100,-21,268.6,0,0,96,4.065,4.066,0,0,0,0,3.746,60.8,55.057653664732,13.12336,6,P-GPS,
5000,2022-08-28 21:04:38,-34.9105347372293,-56.1389520783274,14.107612,14.0091868,42.032718864732,56.041905664732,13.451444,0.223694,0.71043965528,2.0451608266,19,5,8.222,56.041905664732,14.107612,0.223694,0.79991144292,0,0.223694,-6.487126,260.8, -3.2, -5.4,0,0,1024,1024,1684,884,0,0,100,-21,268.3,0,0,96,4.065,4.066,0,0,0,0,3.746,60.8,56.041905664732,14.107612,6,P-GPS,
5100,2022-08-28 21:04:38,-34.9105348939055,-56.1389520109974,15.419948,15.3215228,42.032718864732,57.354241664732,14.435696,0.223694,0.7351050104,2.10576778392,19,5,8.222,57.354241664732,15.419948,0.223694,0.79991144292,0,0.223694,-6.487126,260.9, -3.8, -5.1,0,0,1024,1024,1684,704,0,0,100,-48,268.1,0,0,96,4.065,4.066,0,0,0,0,3.746,60.8,57.354241664732,15.419948,6,P-GPS,
5200,2022-08-28 21:04:38,-34.9105349584578,-56.1389518787691,16.4042,16.3057748,42.032718864732,58.338493664732,15.419948,0,0.777395038,2.15181109248,19,5,8.222,58.338493664732,16.4042,0.223694,0.79991144292,0,0,-6.487126,260.9, -3.8, -5.2,0,0,1024,1024,1684,699,0,0,100,-49,267.8,0,0,96,4.065,4.066,0,0,0,0,3.746,60.8,58.338493664732,16.4042,6,P-GPS,
5300,2022-08-28 21:04:38,-34.9105350208188,-56.1389517400069,17.388452,17.2900268,42.032718864732,59.322745664732,16.4042,0,0.82188979008,2.19915361368,19,5,8.222,59.322745664732,17.388452,0.223694,0.82188979008,0,0,-6.487126,260.7, -3.5, -5.4,0,0,1024,1024,1024,1024,0,0,0,0,267,0,0,96,4.065,4.066,0,0,0,0,3.746,60.8,59.322745664732,17.388452,6,P-GPS,
5400,2022-08-28 21:04:39,-34.91053516423,-56.1389513927559,18.700788,18.5695544,42.065527264732,60.635081664732,17.060368,0,0.93353349444,2.31547907672,19,5,8.222,60.635081664732,18.700788,0.223694,0.93353349444,0,0,-6.487126,259.8, -3.6, -5.4,0,0,1024,1024,1024,1024,0,0,0,0,265.8,0,0,96,4.065,4.066,0,0,0,0,3.746,60.8,60.635081664732,18.700788,6,P-GPS,
5500,2022-08-28 21:04:39,-34.9105353288584,-56.1389510138354,19.68504,19.5538064,42.065527264732,61.619333664732,18.04462,0,1.05719819656,2.44377960576,19,5,8.222,61.619333664732,19.68504,0.223694,1.05719819656,0,0,-6.487126,259.1, -3.9, -5.9,0,0,1024,1024,1024,1024,0,0,0,0,265,0,0,96,4.065,4.066,0,0,0,0,3.746,60.8,61.619333664732,19.68504,6,P-GPS,
5600,2022-08-28 21:04:39,-34.9105354518185,-56.1389508694238,20.669292,20.5380584,42.065527264732,62.603585664732,19.028872,0,1.11014767332,2.50606307232,19,5,8.222,62.603585664732,20.669292,0.223694,1.11014767332,0,0,-5.816044,258.6, -3.9, -6.3,0,0,1024,1024,1024,1024,0,0,0,0,264.7,0,0,96,4.065,4.066,0,0,0,0,3.746,60.8,62.603585664732,20.669292,6,P-GPS,
5700,2022-08-28 21:04:39,-34.9105355743212,-56.1389507351026,21.653544,21.653544,41.934293664732,63.587837664732,19.68504,0,1.16108599516,2.56617134196,19,5,8.222,63.587837664732,21.653544,0.223694,1.16108599516,0,0,-5.144962,258.7, -4.3, -6.6,0,0,1024,1024,1024,1024,0,0,0,0,264.7,0,0,96,4.065,4.066,0,0,0,0,3.746,60.8,63.587837664732,21.653544,6,P-GPS,
5800,2022-08-28 21:04:39,-34.9105357665297,-56.1389516342838,22.309712,22.3425204,41.901485264732,64.244005664732,20.341208,0,0.93500331076,2.84418972356,19,5,8.222,64.244005664732,22.309712,0.223694,1.16108599516,0,0,-4.47388,258.9, -4.5, -7.1,0,0,1024,1024,1024,1024,0,0,0,0,264.7,0,0,96,4.065,4.066,0,0,0,0,3.746,60.8,64.244005664732,22.309712,6,P-GPS,
5900,2022-08-28 21:04:39,-34.9105358777897,-56.138951847638,22.96588,22.9986884,41.901485264732,64.900173664732,20.997376,0,0.89736551428,2.91983605144,19,5,8.125,64.900173664732,22.96588,0.223694,1.16108599516,0,0,-3.802798,259.1, -4.7, -7.3,0,0,1024,1024,1024,1024,0,0,0,0,264.7,0,0,96,4.116,4.119,0,0,0,0,5.534,60.98,64.900173664732,22.96588,6,P-GPS,"Punto de origen actualizado. Altitud de RPO establecida en 100m (Code: 3000001)"
6000,2022-08-28 21:04:39,-34.9105359785904,-56.1389518183327,23.293964,23.3267724,41.901485264732,65.228257664732,21.32546,0,0.92365160436,2.9576444516,19,5,8.125,65.228257664732,23.293964,0.223694,1.16108599516,0,0,-2.908022,259.3, -5.1, -7.6,0,0,1024,1024,1024,1024,0,0,0,0,264.7,0,0,96,4.116,4.119,0,0,0,0,5.534,60.98,65.228257664732,23.293964,6,P-GPS,
6100,2022-08-28 21:04:39,-34.910536086936,-56.1389517469502,23.622048,23.6548564,41.901485264732,65.556341664732,21.653544,0,0.9627789022,3.0025755554,19,5,8.125,65.556341664732,23.622048,0.223694,1.16108599516,0,0,-2.013246,259.5, -5.5, -7.8,0,0,1024,1024,1024,1024,0,0,0,0,264.7,0,0,96,4.116,4.119,0,0,0,0,5.534,60.98,65.556341664732,23.622048,6,P-GPS,
6200,2022-08-28 21:04:39,-34.9105361812669,-56.1389513188456,23.950132,23.950132,41.934293664732,65.884425664732,21.981628,0.223694,1.08981630784,3.1352035124,19,5,8.125,65.884425664732,23.950132,0.223694,1.16108599516,0,0.223694,-1.342164,259.6, -5.6, -8.1,0,0,1024,1024,1024,1024,0,0,0,0,264.7,0,0,96,4.116,4.119,0,0,0,0,5.534,60.98,65.884425664732,23.950132,6,P-GPS,
6300,2022-08-28 21:04:39,-34.9105363126976,-56.1389510799137,23.950132,23.950132,41.934293664732,65.884425664732,21.981628,0.223694,1.17577759668,3.22128291148,20,5,8.125,65.884425664732,23.950132,0.223694,1.17577759668,0,0.223694,-0.671082,259.7, -5.8, -8,0,0,1024,1024,1024,1024,0,0,0,0,264.7,0,0,96,4.116,4.119,0,0,0,0,5.534,60.98,65.884425664732,23.950132,6,P-GPS,
6400,2022-08-28 21:04:39,-34.910536453728,-56.1389508937299,24.278216,24.278216,41.934293664732,66.212509664732,22.309712,0.223694,1.25010502688,3.2971129664,20,5,8.125,66.212509664732,24.278216,0.223694,1.25010502688,0,0.223694,-0.447388,259.8, -5.5, -7.6,0,0,1024,1024,1024,1024,0,0,0,0,264.7,0,0,96,4.116,4.119,0,0,0,0,5.534,60.98,66.212509664732,24.278216,6,P-GPS,
6500,2022-08-28 21:04:40,-34.9105366378272,-56.1389506943155,24.278216,24.4094496,41.803060064732,66.212509664732,22.309712,0.223694,1.33638783804,3.3869423656,20,5,8.125,66.212509664732,24.278216,0.223694,1.33638783804,0,0.223694,-0.223694,260, -5.8, -7.1,0,0,1024,1024,1024,1024,0,0,0,0,264.7,0,0,96,4.116,4.119,0,0,0,0,5.534,60.98,66.212509664732,24.278216,6,P-GPS,
6600,2022-08-28 21:04:40,-34.9105367160492,-56.1389507163237,24.278216,24.4094496,41.803060064732,66.212509664732,22.309712,0,1.3465715654,3.4162402668,20,5,8.125,66.212509664732,24.278216,0.223694,1.3465715654,0,0,0,259.9, -5.8, -7,0,0,1024,1024,1024,1024,0,0,0,0,264.7,0,0,96,4.116,4.119,0,0,0,0,5.534,60.98,66.212509664732,24.278216,6,P-GPS,
6700,2022-08-28 21:04:40,-34.9105368998022,-56.1389506945222,24.278216,24.4094496,41.803060064732,66.212509664732,22.309712,0,1.39037406024,3.483595912,21,5,8.125,66.212509664732,24.278216,0.223694,1.39037406024,0,0,0,259.9, -5.8, -6.6,0,0,1024,1024,1024,1024,0,0,0,0,264.7,0,0,96,4.116,4.119,0,0,0,0,5.534,60.98,66.212509664732,24.278216,6,P-GPS,
6800,2022-08-28 21:04:40,-34.910537157241,-56.1389506255997,24.278216,24.4094496,41.803060064732,66.212509664732,22.309712,0,1.46373364264,3.5797573324,21,5,8.125,66.212509664732,24.278216,0.223694,1.46373364264,0,0,0,260, -5.7, -6.5,0,0,1024,1024,1024,1024,0,0,0,0,264.7,0,0,96,4.116,4.119,0,0,0,0,5.534,60.98,66.212509664732,24.278216,6,P-GPS,
6900,2022-08-28 21:04:40,-34.9105374496756,-56.1389505591075,24.278216,24.4094496,41.803060064732,66.212509664732,22.309712,0,1.54743443272,3.6882875196,21,5,8.125,66.212509664732,24.278216,0.223694,1.54743443272,0,0,0,260.1, -5.6, -6.3,0,0,1024,1024,1024,1024,0,0,0,0,264.7,0,0,96,4.116,4.119,0,0,0,0,5.534,60.98,66.212509664732,24.278216,6,P-GPS,
7000,2022-08-28 21:04:40,-34.9105377262363,-56.1389505249921,24.278216,24.5406832,41.671826464732,66.212509664732,22.309712,0.223694,1.62305123304,3.7897310924,21,5,8.125,66.212509664732,24.278216,0.223694,1.62305123304,-0.223694,0,0,260.1, -5.4, -6.1,0,0,1024,1024,1024,1024,0,0,0,0,264.7,0,0,96,4.116,4.119,0,0,0,0,5.534,60.98,66.212509664732,24.278216,6,P-GPS,
7100,2022-08-28 21:04:40,-34.9105380949083,-56.1389505278561,24.278216,24.5406832,41.671826464732,66.212509664732,22.309712,0.223694,1.71805451692,3.9242455324,21,5,8.125,66.212509664732,24.278216,0.223694,1.71805451692,-0.223694,0,0,260.1, -4.9, -5.6,0,0,1024,1024,1024,1024,0,0,0,0,264.7,0,0,96,4.116,4.119,0,0,0,0,5.534,60.98,66.212509664732,24.278216,6,P-GPS,
7200,2022-08-28 21:04:40,-34.9105384291374,-56.1389505006421,23.950132,24.2125992,41.671826464732,65.884425664732,22.309712,0.223694,1.81431764336,4.0464568224,21,5,8.125,66.212509664732,24.278216,0.223694,1.81431764336,-0.223694,0,0,260.2, -4.9, -5.2,0,0,1024,1024,1024,1024,0,0,0,0,264.7,0,0,96,4.116,4.119,0,0,0,0,5.534,60.98,65.884425664732,23.950132,6,P-GPS,
7300,2022-08-28 21:04:40,-34.9105388129336,-56.1389504746936,23.950132,24.3110244,41.573401264732,65.884425664732,22.309712,0.223694,1.92750662336,4.186679924,21,5,8.125,66.212509664732,24.278216,0.223694,1.92750662336,-0.223694,0,0,260.2, -5, -4.7,0,0,1024,1024,1024,1024,0,0,0,0,264.7,0,0,96,4.116,4.119,0,0,0,0,5.534,60.98,65.884425664732,23.950132,6,P-GPS,
7400,2022-08-28 21:04:41,-34.910539165396,-56.138950431345,23.950132,24.3110244,41.573401264732,65.884425664732,22.309712,0.223694,2.03786751928,4.31594502,21,5,8.125,66.212509664732,24.278216,0.223694,2.03786751928,-0.223694,0,0,260.2, -4.7, -4.2,0,0,1024,1024,1024,1024,0,0,0,0,264.7,0,0,96,4.116,4.119,0,0,0,0,5.534,60.98,65.884425664732,23.950132,6,P-GPS,
7500,2022-08-28 21:04:41,-34.9105396647967,-56.1389503251455,23.950132,24.442258,41.442167664732,65.884425664732,22.309712,0.223694,2.20523629104,4.5008859708,21,5,8.125,66.212509664732,24.278216,0.223694,2.20523629104,-0.223694,0,0,260.2, -4.5, -3.5,0,0,1024,1024,1024,1024,0,0,0,0,264.7,0,0,96,4.116,4.119,0,0,0,0,5.534,60.98,65.884425664732,23.950132,6,P-GPS,
7600,2022-08-28 21:04:41,-34.9105400325978,-56.138950247816,23.622048,24.114174,41.442167664732,65.556341664732,21.981628,0.223694,2.33005912968,4.6370736392,21,5,8.125,66.212509664732,24.278216,0.223694,2.33005912968,-0.223694,0,0,260.2, -4.5, -3.4,0,0,1024,1024,1024,1024,0,0,0,0,264.7,0,0,96,4.116,4.119,0,0,0,0,5.534,60.98,65.556341664732,23.622048,31,Sport,
7700,2022-08-28 21:04:41,-34.9105403973363,-56.1389501653073,23.622048,24.114174,41.442167664732,65.556341664732,21.981628,0.223694,2.45594167964,4.7724082892,21,5,8.125,66.212509664732,24.278216,0.223694,2.45594167964,-0.223694,0,0,260.2, -4.7, -3.4,0,0,1024,1024,1024,1024,0,0,0,0,264.7,0,0,96,4.116,4.119,0,0,0,0,5.534,60.98,65.556341664732,23.622048,31,Sport,
7800,2022-08-28 21:04:41,-34.9105407486589,-56.1389501131966,23.622048,24.2454076,41.310934064732,65.556341664732,21.981628,0.223694,2.5739666178,4.9015421516,21,5,8.336,66.212509664732,24.278216,0.223694,2.5739666178,-0.223694,0,0,260.3, -4.8, -3.4,0,0,1024,1024,1580,1024,0,0,84,0,264.7,0,0,96,4.131,4.129,0,0,0,0,3.472,60.98,65.556341664732,23.622048,31,Sport,
7900,2022-08-28 21:04:41,-34.9105412605358,-56.1389499604109,23.622048,24.2454076,41.310934064732,65.556341664732,21.981628,0,2.75883867096,5.0937993756,21,5,8.336,66.212509664732,24.278216,0.223694,2.75883867096,0,0,0,260.2, -4.3, -2.4,0,0,1024,1024,1684,1024,0,0,100,0,264.7,0,0,96,4.131,4.129,0,0,0,0,3.472,60.98,65.556341664732,23.622048,31,Sport,
8000,2022-08-28 21:04:41,-34.9105415490611,-56.1389498739844,23.622048,24.3766412,41.179700464732,65.556341664732,21.981628,0,2.863517152,5.2021983292,21,5,8.336,66.212509664732,24.278216,0.223694,2.863517152,0,0,-0.671082,260.3, -4.1, -2.2,0,0,1024,1024,1684,1024,0,0,100,0,264.7,0,0,96,4.131,4.129,0,0,0,0,3.472,60.98,65.556341664732,23.622048,31,Sport,
8100,2022-08-28 21:04:41,-34.9105418051909,-56.1389497848296,23.950132,24.7047252,41.179700464732,65.884425664732,22.309712,0,2.95841872984,5.29937681,21,5,8.336,66.212509664732,24.278216,0.223694,2.95841872984,0,0,-1.565858,260.2, -4.5, -3.2,0,0,1024,1024,1684,1024,0,0,100,0,264.7,0,0,96,4.131,4.129,0,0,0,0,3.472,60.98,65.884425664732,23.950132,31,Sport,
8200,2022-08-28 21:04:41,-34.9105419931996,-56.1389497820373,24.278216,25.0328092,41.179700464732,66.212509664732,22.637796,0,3.01945875804,5.3679791744,21,5,8.336,66.212509664732,24.278216,0.223694,3.01945875804,0,0,-2.460634,260.2, -4.6, -4.1,0,0,1024,1024,1684,1024,0,0,100,0,264.7,0,0,96,4.131,4.129,0,0,0,0,3.472,60.98,66.212509664732,24.278216,31,Sport,
8300,2022-08-28 21:04:41,-34.9105422503725,-56.1389497889375,24.6063,25.3608932,41.179700464732,66.540593664732,23.293964,0,3.1020178158,5.4618440068,21,5,8.336,66.540593664732,24.6063,0.223694,3.1020178158,0,0,-3.579104,260.3, -4.3, -4.3,0,0,1024,1024,1684,1024,0,0,100,0,264.7,0,0,96,4.131,4.129,0,0,0,0,3.472,60.98,66.540593664732,24.6063,31,Sport,
8400,2022-08-28 21:04:42,-34.9105424986426,-56.138949827411,25.262468,26.0170612,41.179700464732,67.196761664732,23.950132,0,3.17815955052,5.553149784,21,5,8.336,67.196761664732,25.262468,0.223694,3.17815955052,0,0,-4.697574,260.3, -4.1, -4,0,0,1024,1024,1684,1024,0,0,100,0,264.7,0,0,96,4.131,4.129,0,0,0,0,3.472,60.98,67.196761664732,25.262468,31,Sport,
8500,2022-08-28 21:04:42,-34.9105427649274,-56.1389498557743,25.918636,26.8044628,41.048466864732,67.852929664732,24.6063,0,3.26231637736,5.6506563488,21,5,8.336,67.852929664732,25.918636,0.223694,3.26231637736,0,0,-5.59235,260.3, -4, -4.7,0,0,1024,1024,1684,1024,0,0,100,0,264.7,0,0,96,4.131,4.129,0,0,0,0,3.472,60.98,67.852929664732,25.918636,31,Sport,
8600,2022-08-28 21:04:42,-34.9105429623827,-56.1389498078822,26.902888,27.7887148,41.048466864732,68.837181664732,25.590552,0,3.3337271408,5.7241143564,21,5,8.336,68.837181664732,26.902888,0.223694,3.3337271408,0,0,-6.487126,260.3, -4.5, -4,0,0,1024,1024,1684,1024,0,0,100,0,264.7,0,0,96,4.131,4.129,0,0,0,0,3.472,60.98,68.837181664732,26.902888,31,Sport,
8700,2022-08-28 21:04:42,-34.9105431487997,-56.1389497518766,27.88714,28.7729668,41.048466864732,69.821433664732,26.574804,0,3.402559164,5.7941602904,21,5,8.336,69.821433664732,27.88714,0.223694,3.402559164,0,0,-7.381902,260.2, -5, -3.8,0,0,1024,1024,1684,1024,0,0,100,0,264.7,0,0,96,4.131,4.129,0,0,0,0,3.472,60.98,69.821433664732,27.88714,31,Sport,
8800,2022-08-28 21:04:42,-34.9105434854992,-56.1389497813591,29.199476,30.0853028,41.048466864732,71.133769664732,27.88714,0,3.5112862016,5.917323024,21,5,8.265,71.133769664732,29.199476,0.223694,3.5112862016,0,0,-8.500372,260.2, -3.6, -3.3,0,0,1024,1024,1684,1024,0,0,100,0,264.7,0,0,96,4.123,4.122,0,0,0,0,3.677,60.98,71.133769664732,29.199476,31,Sport,
8900,2022-08-28 21:04:42,-34.9105438176554,-56.1389498336056,30.839896,31.8569564,40.917233264732,72.774189664732,29.52756,0,3.616798016,6.039534314,21,5,8.265,72.774189664732,30.839896,0.223694,3.616798016,0,0,-9.395148,260.1, -3, -3.9,0,0,1024,1024,1684,1024,0,0,100,0,264.7,0,0,96,4.123,4.122,0,0,0,0,3.677,60.98,72.774189664732,30.839896,31,Sport,
9000,2022-08-28 21:04:42,-34.9105439993523,-56.1389500312112,32.480316,33.4973764,40.917233264732,74.414609664732,30.839896,0,3.656332138,6.1283466528,21,5,8.265,74.414609664732,32.480316,0.223694,3.656332138,0,0,-10.06623,260.2, -3.1, -4.4,0,0,1024,1024,1684,1024,0,0,100,0,264.7,0,0,96,4.123,4.122,0,0,0,0,3.677,60.98,74.414609664732,32.480316,31,Sport,
9100,2022-08-28 21:04:42,-34.9105441722002,-56.1389502363591,34.120736,35.1377964,40.917233264732,76.055029664732,32.480316,0,3.6937993308,6.2163387816,21,5,8.265,76.055029664732,34.120736,0.223694,3.6937993308,0,0,-10.513618,259.9, -2.3, -4.4,0,0,1024,1024,1684,1024,0,0,100,0,264.7,0,0,96,4.123,4.122,0,0,0,0,3.677,60.98,76.055029664732,34.120736,31,Sport,
9200,2022-08-28 21:04:42,-34.9105444265957,-56.138950711363,35.761156,36.8438332,40.851616464732,77.695449664732,34.120736,0,3.7361877836,6.3860894432,21,5,8.265,77.695449664732,35.761156,0.223694,3.7361877836,0,0,-10.961006,260.2, -2, -3.7,0,0,1024,1024,1684,1024,0,0,100,0,264.7,0,0,96,4.123,4.122,0,0,0,0,3.677,60.98,77.695449664732,35.761156,31,Sport,
9300,2022-08-28 21:04:42,-34.9105446008669,-56.1389507470712,37.401576,38.6154868,40.720382864732,79.335869664732,35.761156,0,3.7937665256,6.4505579492,21,5,8.265,79.335869664732,37.401576,0.223694,3.7937665256,0,0,-11.1847,260.5, -2.9, -3.7,0,0,1024,1024,1684,1022,0,0,100,-0,264.7,0,0,96,4.123,4.122,0,0,0,0,3.677,60.98,79.335869664732,37.401576,31,Sport,
9400,2022-08-28 21:04:43,-34.9105447212594,-56.1389508538467,39.37008,40.5839908,40.720382864732,81.304373664732,37.401576,0,3.8267061592,6.5048886596,21,5,8.265,81.304373664732,39.37008,0.223694,3.8267061592,0,0,-11.1847,260.2, -3.4, -4,0,0,1024,1024,1684,1013,0,0,100,-2,264.7,0,0,96,4.123,4.122,0,0,0,0,3.677,60.98,81.304373664732,39.37008,31,Sport,
9500,2022-08-28 21:04:43,-34.9105448431875,-56.1389509688824,41.0105,42.2244108,40.720382864732,82.944793664732,39.041996,0,3.8599738768,6.5611222572,21,5,8.265,82.944793664732,41.0105,0.223694,3.8599738768,0,0,-11.1847,260.2, -2.6, -3.7,0,0,1024,1024,1684,1012,0,0,100,-2,264.7,0,0,96,4.123,4.122,0,0,0,0,3.677,60.98,82.944793664732,41.0105,31,Sport,
9600,2022-08-28 21:04:43,-34.9105451575839,-56.1389510762142,42.979004,44.1929148,40.720382864732,84.913297664732,40.682416,0,3.9622376596,6.6802495576,21,5,8.265,84.913297664732,42.979004,0.223694,3.9622376596,0,0,-11.1847,260.3, -2.4, -3.9,0,0,1024,1024,1684,1012,0,0,100,-2,264.7,0,0,96,4.123,4.122,0,0,0,0,3.677,60.98,84.913297664732,42.979004,31,Sport,
9700,2022-08-28 21:04:43,-34.9105453323045,-56.1389510370784,44.619424,45.8333348,40.720382864732,86.553717664732,42.322836,0.223694,4.0268702076,6.7450461476,21,5,8.265,86.553717664732,44.619424,0.223694,4.0268702076,0.223694,0,-11.1847,260.3, -2.1, -4.2,0,0,1024,1024,1684,1013,0,0,100,-2,264.7,0,0,96,4.123,4.122,0,0,0,0,3.677,60.98,86.553717664732,44.619424,31,Sport,
9800,2022-08-28 21:04:43,-34.9105454790965,-56.1389509309652,46.259844,47.4737548,40.720382864732,88.194137664732,43.963256,0.223694,4.086778346,6.8073164908,21,5,8.034,88.194137664732,46.259844,0.223694,4.086778346,0.223694,0,-11.1847,260.4, -2.1, -4.5,0,0,1024,1024,1684,1012,0,0,100,-2,264.7,0,0,96,3.95,3.946,0,0,0,0,5.457,61.16,88.194137664732,46.259844,31,Sport,
9900,2022-08-28 21:04:43,-34.9105456140994,-56.138950797059,48.228348,49.5734924,40.589149264732,90.162641664732,45.603676,0.223694,4.1447507888,6.8708007448,21,5,8.034,90.162641664732,48.228348,0.223694,4.1447507888,0.223694,0,-11.1847,260.3, -2.2, -4.8,0,0,1024,1024,1684,1012,0,0,100,-2,264.7,0,0,96,3.95,3.946,0,0,0,0,5.457,61.16,90.162641664732,48.228348,31,Sport,
10000,2022-08-28 21:04:43,-34.9105457501388,-56.1389503006554,49.868768,51.181104,40.621957664732,91.803061664732,47.244096,0.223694,4.2338255948,7.027395238,21,5,8.034,91.803061664732,49.868768,0.223694,4.2338255948,0.223694,0,-11.1847,260.4, -2.4, -5.2,0,0,1024,1024,1684,1012,0,0,100,-2,264.7,0,0,96,3.95,3.946,0,0,0,0,5.457,61.16,91.803061664732,49.868768,31,Sport,
10100,2022-08-28 21:04:43,-34.9105458309568,-56.1389500617439,51.509188,52.821524,40.621957664732,93.443481664732,47.57218,0.223694,4.2833990872,7.1047246368,21,5,8.034,93.443481664732,51.509188,0.223694,4.2833990872,0.223694,0,-11.1847,260.5, -2.5, -5.5,0,0,1024,1024,1684,1012,0,0,100,-2,264.7,0,0,96,3.95,3.946,0,0,0,0,5.457,61.16,93.443481664732,51.509188,31,Sport,
10200,2022-08-28 21:04:43,-34.9105459662773,-56.1389498736598,53.477692,54.790028,40.621957664732,95.411985664732,47.57218,0.223694,4.3478019764,7.1795934056,21,5,8.034,95.411985664732,53.477692,0.223694,4.3478019764,0.223694,0,-11.1847,260.6, -2.7, -5.8,0,0,1024,1024,1684,1016,0,0,100,-1,264.7,0,0,95,3.95,3.946,0,0,0,0,5.457,61.16,95.411985664732,53.477692,31,Sport,
10300,2022-08-28 21:04:43,-34.9105461301053,-56.1389496662245,55.118112,56.430448,40.621957664732,97.052405664732,47.57218,0.223694,4.4242455484,7.265748264,21,5,8.034,97.052405664732,55.118112,0.223694,4.4242455484,0.223694,0,-11.1847,260.6, -2.8, -5.8,0,0,1024,1024,1684,1017,0,0,100,-1,264.7,0,0,95,3.95,3.946,0,0,0,0,5.457,61.16,97.052405664732,55.118112,31,Sport,
10400,2022-08-28 21:04:44,-34.91054628928,-56.1389494984015,56.758532,58.0052512,40.687574464732,98.692825664732,47.57218,0.223694,4.4955382016,7.34251992,21,5,8.034,98.692825664732,56.758532,0.223694,4.4955382016,0.223694,0,-11.1847,260.5, -2.7, -6.2,0,0,1062,1024,1684,1024,6,0,100,0,264.7,0,0,95,3.95,3.946,0,0,0,0,5.457,61.16,98.692825664732,56.758532,31,Sport,
10500,2022-08-28 21:04:44,-34.9105466312988,-56.1389493054385,58.727036,60.1049888,40.556340864732,100.66132966473,47.57218,0.223694,4.6324148464,7.4800199244,21,5,8.034,100.66132966473,58.727036,0.223694,4.6324148464,0.223694,0,-10.961006,260.5, -1.9, -6.1,0,0,1062,1024,1684,1024,6,0,100,0,264.7,0,0,95,3.95,3.946,0,0,0,0,5.457,61.16,100.66132966473,58.727036,31,Sport,
10600,2022-08-28 21:04:44,-34.9105468154343,-56.1389491201879,60.367456,61.7454088,40.556340864732,102.30174966473,47.57218,0.223694,4.7142718044,7.5671262264,21,5,8.034,102.30174966473,60.367456,0.223694,4.7142718044,0.223694,0,-11.1847,260.5, -2.3, -6.1,0,0,1515,1024,1024,1024,74,0,0,0,264.7,0,0,95,3.95,3.946,0,0,0,0,5.457,61.16,102.30174966473,60.367456,31,Sport,
10700,2022-08-28 21:04:44,-34.9105470056341,-56.1389489195476,62.007876,63.3858288,40.556340864732,103.94216966473,47.57218,0.223694,4.8000001536,7.6588585128,21,5,8.034,103.94216966473,62.007876,0.223694,4.8000001536,0.223694,0,-11.1847,261, -7.2, -6.1,0,0,1684,1024,1024,1024,100,0,0,0,264.7,0,0,95,3.95,3.946,0,0,0,0,5.457,61.16,103.94216966473,62.007876,31,Sport,
10800,2022-08-28 21:04:44,-34.910547172745,-56.138948908531,63.648296,65.0262488,40.556340864732,105.58258966473,47.57218,0.3131716,4.8583991056,7.7199477536,21,5,7.933,105.58258966473,63.648296,0.3131716,4.8583991056,0.223694,-0.223694,-10.513618,262.5, -23, -7.6,0,0,1684,1024,1024,1024,100,0,0,0,264.7,0,0,95,4.007,4.008,0,0,0,0,8.26,61.16,105.58258966473,63.648296,31,Sport,"El 치ngulo de posici칩n de vuelo es mayor en el modo Sport. El estabilizador rotar치 cuando la aeronave comience a moverse o se detenga. Si es necesario, usa el modo Normal para una captura estable (Code: 40022)"
10900,2022-08-28 21:04:44,-34.9105474420522,-56.138949318629,65.288716,66.6666688,40.556340864732,107.22300966473,47.57218,0.9171454,4.9111550128,7.877132798,21,5,7.933,107.22300966473,65.288716,0.9171454,4.9111550128,0.223694,-0.894776,-9.395148,263.3, -32.4, -8,0,0,1684,1024,1024,1024,100,0,0,0,264.6,-8.2,0,95,4.007,4.008,0,0,0,0,8.26,61.16,107.22300966473,65.288716,31,Sport,
11000,2022-08-28 21:04:44,-34.9105476653616,-56.1389498746636,66.601052,68.1758552,40.359490464732,108.53534566473,47.57218,1.565858,4.9399279796,8.0623690244,21,5,7.933,108.53534566473,66.601052,1.565858,4.9399279796,0,-1.565858,-8.500372,262.9, -33.5, -7.4,0,0,1684,1024,1024,1024,100,0,0,0,264.7,-9.9,0,95,4.007,4.008,0,0,0,0,8.26,61.16,108.53534566473,66.601052,31,Sport,
11100,2022-08-28 21:04:44,-34.9105479241327,-56.1389508035851,67.585304,69.1929156,40.326682064732,109.51959766473,47.57218,2.23694,4.9622705,8.3559057792,21,5,7.933,109.51959766473,67.585304,2.23694,4.9622705,0,-2.23694,-7.605596,262.8, -34.4, -7.7,0,0,1684,1024,1024,1024,100,0,0,0,264.7,-9.9,0,95,4.007,4.008,0,0,0,0,8.26,61.16,109.51959766473,67.585304,31,Sport,
11200,2022-08-28 21:04:44,-34.9105481961773,-56.1389517589732,68.569556,70.2427844,40.261065264732,110.50384966473,47.57218,2.908022,5.0052823124,8.658464844,21,5,7.933,110.50384966473,68.569556,2.908022,5.0052823124,0,-2.908022,-6.487126,262.9, -34.6, -6.9,0,0,1684,1024,1024,1024,100,0,0,0,264.7,-9.9,0,95,4.007,4.008,0,0,0,0,8.26,61.16,110.50384966473,68.569556,31,Sport,
11300,2022-08-28 21:04:44,-34.9105486194197,-56.1389530301255,69.553808,71.3910784,40.097023264732,111.48810166473,47.57218,3.802798,5.112204888,9.0689635448,20,5,7.933,111.48810166473,69.553808,3.802798,5.112204888,0,-3.802798,-5.368656,263.3, -35.2, -7.6,0,0,1684,1024,1024,1024,100,0,0,0,264.7,-9.9,0,95,4.007,4.008,0,0,0,0,8.26,61.16,111.48810166473,69.553808,31,Sport,
11400,2022-08-28 21:04:45,-34.9105489031256,-56.1389549067367,70.209976,72.1456716,39.998598064732,112.14426966473,47.57218,4.250186,5.199803316,9.6398953216,20,5,7.933,112.14426966473,70.209976,4.250186,5.199803316,0,-4.250186,-4.47388,263.3, -35.9, -7.8,0,0,1426,1024,1024,1024,61,0,0,0,264.7,-9.9,0,95,4.007,4.008,0,0,0,0,8.26,61.16,112.14426966473,70.209976,31,Sport,
11500,2022-08-28 21:04:45,-34.9105492236245,-56.1389572931072,70.866144,72.9002648,39.900172864732,112.80043766473,47.57218,4.921268,5.382546104,10.3633861584,20,5,7.933,112.80043766473,70.866144,4.921268,5.382546104,0,-4.921268,-3.35541,263.4, -35.9, -7.7,0,0,1426,1024,1024,1024,61,0,0,0,264.7,-9.9,0,95,4.007,4.008,0,0,0,0,8.26,61.16,112.80043766473,70.866144,31,Sport,
11600,2022-08-28 21:04:45,-34.9105496000524,-56.1389602597573,71.194228,73.490816,39.637705664732,113.12852166473,47.57218,5.59235,5.7225723616,11.2615489168,20,5,7.933,113.12852166473,71.194228,5.59235,5.7225723616,0,-5.59235,-2.23694,263.9, -35.9, -9.2,0,0,1024,1024,1024,1024,0,0,0,0,264.7,-9.9,0,95,4.007,4.008,0,0,0,0,8.26,61.16,113.12852166473,71.194228,31,Sport,
11700,2022-08-28 21:04:45,-34.9105502232188,-56.1389644992662,71.194228,73.6876664,39.440855264732,113.12852166473,47.57218,6.039738,6.4262797332,12.550197252,19,5,7.933,113.12852166473,71.194228,6.039738,6.4262797332,-0.223694,-6.039738,-1.342164,262.3, -18, -11.6,0,0,1024,1024,1024,1024,0,0,0,0,264.7,-9.9,0,95,4.007,4.008,0,0,0,0,8.26,61.16,113.12852166473,71.194228,31,Sport,
11800,2022-08-28 21:04:45,-34.9105507386441,-56.1389678709198,71.194228,74.0157504,39.112771264732,113.12852166473,47.57218,6.0621074,7.1099739808,13.5763455788,19,5,8.014,113.12852166473,71.194228,6.0621074,7.1099739808,-0.447388,-6.039738,-1.11847,259.1, 11.1, -10.6,0,0,1024,1024,1024,1024,0,0,0,0,264.7,-9.9,0,95,4.011,4.075,0,0,0,0,6.545,61.34,113.12852166473,71.194228,31,Sport,
11900,2022-08-28 21:04:45,-34.9105513350601,-56.1389713284474,71.194228,74.146984,38.981537664732,113.12852166473,47.57218,5.1897008,7.9076118016,14.6334650352,20,5,8.014,113.12852166473,71.194228,6.0621074,7.9076118016,-0.671082,-5.144962,-1.11847,258.4, 20.1, -7.4,0,0,1024,1024,1024,1024,0,0,0,0,264.7,-9.9,0,95,4.011,4.075,0,0,0,0,6.545,61.34,113.12852166473,71.194228,31,Sport,
12000,2022-08-28 21:04:45,-34.9105517408325,-56.1389737041121,71.194228,74.4422596,38.686262064732,113.12852166473,47.57218,4.4962494,8.4875002716,15.3595149272,20,5,8.014,113.12852166473,71.194228,6.0621074,8.4875002716,-0.447388,-4.47388,-0.671082,258.8, 20.9, -6.3,0,0,1026,1024,1024,1024,0,0,0,0,264.7,-9.9,0,95,4.011,4.075,0,0,0,0,6.545,61.34,113.12852166473,71.194228,31,Sport,
12100,2022-08-28 21:04:45,-34.9105521552341,-56.138975970623,70.866144,74.2126008,38.587836864732,112.80043766473,47.57218,3.8699062,9.0673887416,16.0542656056,20,5,8.014,113.12852166473,71.194228,6.0621074,9.0673887416,-0.671082,-3.802798,-0.223694,259.1, 20.1, -4.9,0,0,1297,1024,1024,1024,41,0,0,0,264.7,-9.9,0,95,4.011,4.075,0,0,0,0,6.545,61.34,112.80043766473,70.866144,31,Sport,
12200,2022-08-28 21:04:45,-34.9105525898739,-56.1389779851952,70.866144,74.4422596,38.358178064732,112.80043766473,47.57218,2.9527608,9.6121066068,16.6775267804,20,5,8.014,113.12852166473,71.194228,6.0621074,9.6121066068,-0.447388,-2.908022,0,259.4, 16, -5,0,0,1684,1024,1024,1024,100,0,0,0,264.7,-9.9,0,95,4.011,4.075,0,0,0,0,6.545,61.34,112.80043766473,70.866144,31,Sport,
12300,2022-08-28 21:04:45,-34.910553017233,-56.1389798852218,70.53806,74.1797924,38.292561264732,112.47235366473,47.57218,2.2816788,10.1383533428,17.2669953032,20,5,8.014,113.12852166473,71.194228,6.0621074,10.1383533428,-0.447388,-2.23694,0,260.3, 1, -5.5,0,0,1684,1024,1024,1024,100,0,0,0,264.7,-9.9,0,95,4.011,4.075,0,0,0,0,6.545,61.34,112.47235366473,70.53806,31,Sport,
12400,2022-08-28 21:04:46,-34.9105532447901,-56.1389807116646,70.53806,74.2454092,38.226944464732,112.47235366473,47.57218,2.2816788,10.3792982324,17.5278220832,20,5,8.014,113.12852166473,71.194228,6.0621074,10.3792982324,-0.447388,-2.23694,0.223694,262, -22.5, -6.2,0,0,1684,1024,1024,1024,100,0,0,0,264.7,-9.9,0,95,4.011,4.075,0,0,0,0,6.545,61.34,112.47235366473,70.53806,31,Sport,
12500,2022-08-28 21:04:46,-34.9105535009867,-56.138981851691,70.53806,74.4422596,38.030094064732,112.47235366473,47.57218,2.9527608,10.6996722584,17.8814966352,21,5,8.014,113.12852166473,71.194228,6.0621074,10.6996722584,-0.447388,-2.908022,0.223694,262.9, -32.7, -6.9,0,0,1684,1024,1024,1024,100,0,0,0,264.7,-9.9,0,95,4.011,4.075,0,0,0,0,6.545,61.34,112.47235366473,70.53806,31,Sport,
12600,2022-08-28 21:04:46,-34.910553603919,-56.1389809696417,70.209976,74.0485588,38.095710864732,112.14426966473,47.57218,4.2949248,10.523458342,18.1480648852,21,5,8.014,113.12852166473,71.194228,6.0621074,10.6996722584,-0.671082,-4.250186,0.223694,263, -34.8, -7.3,0,0,1684,1024,1024,1024,100,0,0,0,264.7,-9.9,0,95,4.011,4.075,0,0,0,0,6.545,61.34,112.14426966473,70.209976,31,Sport,
12700,2022-08-28 21:04:46,-34.9105539220909,-56.1389827581183,70.209976,74.146984,37.997285664732,112.14426966473,47.57218,4.2949248,11.0063323732,18.6956042728,21,5,8.014,113.12852166473,71.194228,6.0621074,11.0063323732,-0.894776,-5.59235,0,262.9, -34.1, -8.2,0,0,1684,1024,1024,1024,100,0,0,0,264.7,-9.9,0,95,4.011,4.075,0,0,0,0,6.545,61.34,112.14426966473,70.209976,31,Sport,
12800,2022-08-28 21:04:46,-34.9105543079621,-56.1389851059118,70.209976,74.2454092,37.898860464732,112.14426966473,47.57218,6.7779282,11.6417654644,19.4120084952,21,5,8.193,113.12852166473,71.194228,6.7779282,11.6417654644,-0.894776,-6.71082,0,262.9, -34.1, -9,0,0,1684,1024,1024,1024,100,0,0,0,264.7,-9.9,0,95,4.049,4.082,0,0,0,0,4.551,61.34,112.14426966473,70.209976,31,Sport,
12900,2022-08-28 21:04:46,-34.9105547728308,-56.1389881140781,70.209976,74.5078764,37.636393264732,112.14426966473,47.57218,7.9187676,12.4624019736,20.3278877896,20,5,8.193,113.12852166473,71.194228,7.9187676,12.4624019736,-1.11847,-7.82929,0,263, -34, -9.5,0,0,1684,1024,1024,1024,100,0,0,0,264.7,-9.9,0,95,4.049,4.082,0,0,0,0,4.551,61.34,112.14426966473,70.209976,31,Sport,
13000,2022-08-28 21:04:46,-34.9105550299035,-56.1389914319443,70.209976,74.6719184,37.472351264732,112.14426966473,47.57218,8.835913,13.3295936024,21.3250006824,20,5,8.193,113.12852166473,71.194228,8.835913,13.3295936024,-1.342164,-8.724066,0,263.1, -34.1, -9.3,0,0,1684,1024,1024,1024,100,0,0,0,264.7,-9.9,0,95,4.049,4.082,0,0,0,0,4.551,61.34,112.14426966473,70.209976,31,Sport,
13100,2022-08-28 21:04:46,-34.9105555199299,-56.1389958308612,70.209976,74.967194,37.177075664732,112.14426966473,47.57218,9.7530584,14.5335962656,22.653215948,21,5,8.193,113.12852166473,71.194228,9.7530584,14.5335962656,-1.565858,-9.618842,0,263, -34.6, -8.6,0,0,1684,1024,1024,1024,100,0,0,0,264.7,-9.9,0,95,4.049,4.082,0,0,0,0,4.551,61.34,112.14426966473,70.209976,31,Sport,
13200,2022-08-28 21:04:46,-34.910556241215,-56.1390010357502,70.209976,75.2296612,36.914608464732,112.14426966473,47.57218,10.625465,16.0089243968,24.2325467072,21,5,8.193,113.12852166473,71.194228,10.625465,16.0089243968,-1.565858,-10.513618,0,262.9, -34.7, -8.3,0,0,1684,1024,1271,1024,100,0,37,0,264.7,-9.9,0,95,4.049,4.082,0,0,0,0,4.551,61.34,112.14426966473,70.209976,31,Sport,
13300,2022-08-28 21:04:46,-34.9105571096153,-56.1390073145311,70.209976,75.4921284,36.652141264732,112.14426966473,47.57218,11.7663044,17.8121396776,26.1376648784,20,5,8.193,113.12852166473,71.194228,11.7663044,17.8121396776,-1.789552,-11.632088,0,262.9, -34.3, -8.5,0,0,1684,1024,1500,1024,100,0,72,0,264.7,-9.9,0,95,4.049,4.082,0,0,0,0,4.551,61.34,112.14426966473,70.209976,31,Sport,
13400,2022-08-28 21:04:47,-34.910558484978,-56.1390149546493,69.881892,75.5577452,36.258440464732,111.81618566473,47.57218,12.6834498,20.0818247896,28.4779536672,20,5,8.193,113.12852166473,71.194228,12.6834498,20.0818247896,-2.013246,-12.526864,-0.223694,262.8, -32.9, -7.8,0,0,1684,1024,1498,1024,100,0,72,0,264.7,-9.9,0,95,4.049,4.082,0,0,0,0,4.551,61.34,111.81618566473,69.881892,31,Sport,
13500,2022-08-28 21:04:47,-34.9105595284784,-56.1390219950393,70.209976,76.2139132,35.930356464732,112.14426966473,47.57218,13.8242892,22.1527566144,30.6185377252,20,5,8.193,113.12852166473,71.194228,13.8242892,22.1527566144,-2.23694,-13.645334,-0.894776,262.5, -30.4, -7.5,0,0,1684,1024,1671,1024,100,0,98,0,264.7,-9.9,0,95,4.049,4.082,0,0,0,0,4.551,61.34,112.14426966473,70.209976,31,Sport,
13600,2022-08-28 21:04:47,-34.910560680438,-56.1390291339858,70.209976,76.5419972,35.602272464732,112.14426966473,47.57218,14.7414346,24.2784128504,32.7954078736,20,5,8.193,113.12852166473,71.194228,14.7414346,24.2784128504,-2.460634,-14.54011,-1.789552,262.4, -29.9, -7.4,0,0,1684,1024,1671,1024,100,0,98,0,264.7,-9.9,0,95,4.049,4.082,0,0,0,0,4.551,61.34,112.14426966473,70.209976,31,Sport,
13700,2022-08-28 21:04:47,-34.9105619498313,-56.1390370536226,70.53806,77.2309736,35.241380064732,112.47235366473,47.57218,15.6362106,26.645013976,35.209646796,20,5,8.193,113.12852166473,71.194228,15.6362106,26.645013976,-2.460634,-15.434886,-2.460634,262.5, -30.3, -7.6,0,0,1684,1024,1684,1024,100,0,100,0,264.7,-9.9,0,95,4.049,4.082,0,0,0,0,4.551,61.34,112.47235366473,70.53806,31,Sport,
13800,2022-08-28 21:04:47,-34.9105631014278,-56.139044892374,71.194228,78.248034,34.880487664732,113.12852166473,47.57218,16.553356,28.9814969904,37.592520888,20,5,8.193,113.12852166473,71.194228,16.553356,28.9814969904,-2.684328,-16.329662,-3.35541,262.2, -30.5, -7.7,0,0,1684,1024,1684,1024,100,0,100,0,264.7,-9.9,0,95,4.049,4.082,0,0,0,0,4.551,61.34,113.12852166473,71.194228,31,Sport,
13900,2022-08-28 21:04:47,-34.9105646393987,-56.1390539357688,71.850396,79.2979028,34.486786864732,113.78468966473,47.57218,17.2468074,31.7118448468,40.355644336,19,5,8.159,113.78468966473,71.850396,17.2468074,31.7118448468,-2.908022,-17.000744,-4.026492,262, -29.7, -8,0,0,1684,1024,1684,1024,100,0,100,0,264.7,-9.9,0,95,4.046,4.037,0,0,0,0,3.919,61.52,113.78468966473,71.850396,31,Sport,
14000,2022-08-28 21:04:47,-34.9105659229936,-56.1390625316996,72.834648,80.708664,34.060277664732,114.76894166473,47.57218,18.119214,34.290355428,42.969817648,19,5,8.159,114.76894166473,72.834648,18.119214,34.290355428,-2.908022,-17.89552,-4.697574,261.8, -29.4, -7.7,0,0,1684,1024,1465,1024,100,0,67,0,264.7,-9.9,0,95,4.046,4.037,0,0,0,0,3.919,61.52,114.76894166473,72.834648,31,Sport,
14100,2022-08-28 21:04:47,-34.9105673338417,-56.1390719360993,73.8189,82.0866168,33.666576864732,115.75319366473,47.57218,18.6113408,37.11778334,45.830382044,19,5,8.159,115.75319366473,73.8189,18.6113408,37.11778334,-3.131716,-18.342908,-5.59235,262, -29.2, -7.3,0,0,1684,1024,1169,1024,100,0,22,0,264.7,-9.9,0,95,4.046,4.037,0,0,0,0,3.919,61.52,115.75319366473,73.8189,31,Sport,
14200,2022-08-28 21:04:47,-34.9105687982786,-56.1390812622827,74.803152,83.4645696,33.272876064732,116.73744566473,47.57218,19.2600534,39.933728312,48.6712614,19,5,8.159,116.73744566473,74.803152,19.2600534,39.933728312,-3.131716,-19.01399,-5.816044,261.9, -30.1, -8.2,0,0,1684,1024,1024,1024,100,0,0,0,264.7,-9.9,0,95,4.046,4.037,0,0,0,0,3.919,61.52,116.73744566473,74.803152,31,Sport,
14300,2022-08-28 21:04:47,-34.9105705204754,-56.1390912053586,75.787404,84.8753308,32.846366864732,117.72169766473,47.57218,19.2600534,42.957350456,51.711943912,18,5,8.159,117.72169766473,75.787404,19.2600534,42.957350456,-3.131716,-19.01399,-5.144962,262.1, -33.4, -9.5,0,0,1684,1024,1024,1024,100,0,0,0,264.7,-9.9,0,95,4.046,4.037,0,0,0,0,3.919,61.52,117.72169766473,75.787404,31,Sport,
14400,2022-08-28 21:04:48,-34.9105720468615,-56.1391007320294,76.771656,86.286092,32.419857664732,118.70594966473,47.57218,19.461378,45.84317732,54.61614348,18,5,8.159,118.70594966473,76.771656,19.461378,45.84317732,-2.908022,-19.237684,-4.47388,262.8, -36.7, -10.9,0,0,1684,1024,1024,1024,100,0,0,0,264.7,-10.1,0,95,4.046,4.037,0,0,0,0,3.919,61.52,118.70594966473,76.771656,31,Sport,
14500,2022-08-28 21:04:48,-34.9105736201371,-56.1391108009703,77.755908,87.6968532,31.993348464732,119.69020166473,47.57218,19.461378,48.891405764,57.682744628,18,5,8.159,119.69020166473,77.755908,19.461378,48.891405764,-2.908022,-19.237684,-3.35541,262.9, -39.4, -9.4,0,0,1684,1024,1024,1024,100,0,0,0,264.7,-15.6,0,95,4.046,4.037,0,0,0,0,3.919,61.52,119.69020166473,77.755908,31,Sport,
14600,2022-08-28 21:04:48,-34.9105750847205,-56.1391202857697,78.412076,88.746722,31.599647664732,120.34636966473,47.57218,19.685072,51.762796932,60.570539996,18,5,8.159,120.34636966473,78.412076,19.685072,51.762796932,-2.908022,-19.461378,-2.460634,262.7, -39, -8.5,0,0,1684,1024,1024,1024,100,0,0,0,264.7,-15.9,0,95,4.046,4.037,0,0,0,0,3.919,61.52,120.34636966473,78.412076,31,Sport,
14700,2022-08-28 21:04:48,-34.9105771047141,-56.139130245122,78.74016,89.4685068,31.205946864732,120.67445366473,47.57218,19.6403332,54.82939808,63.6400939,18,5,8.159,120.67445366473,78.74016,19.685072,54.82939808,-2.684328,-19.461378,-1.789552,262.9, -38.7, -7.9,0,0,1684,1024,1024,1024,100,0,0,0,264.7,-15.8,0,95,4.046,4.037,0,0,0,0,3.919,61.52,120.67445366473,78.74016,31,Sport,
14800,2022-08-28 21:04:48,-34.9105783593586,-56.1391396895022,79.068244,90.2231,30.779437664732,121.00253766473,47.57218,20.0877212,57.670277436,66.5026268,18,5,7.799,121.00253766473,79.068244,20.0877212,57.670277436,-2.684328,-19.908766,-1.342164,262.8, -38.7, -7.9,0,0,1684,1024,1024,1024,100,0,0,0,264.7,-15.9,0,95,3.78,3.768,0,0,0,0,8.034,61.7,121.00253766473,79.068244,31,Sport,
14900,2022-08-28 21:04:48,-34.9105796287762,-56.139149762789,79.068244,90.6168008,30.385736864732,121.00253766473,47.57218,20.3114152,60.695868084,69.551839496,19,5,7.799,121.00253766473,79.068244,20.3114152,60.695868084,-2.684328,-20.13246,-0.671082,262.6, -37.9, -8.1,0,0,1684,1024,1024,1024,100,0,0,0,264.7,-15.9,0,95,3.78,3.768,0,0,0,0,8.034,61.7,121.00253766473,79.068244,31,Sport,
15000,2022-08-28 21:04:48,-34.9105807674299,-56.1391594041987,79.068244,90.9776932,30.024844464732,121.00253766473,47.57218,20.7588032,63.586616208,72.466209668,19,5,7.799,121.00253766473,79.068244,20.7588032,63.586616208,-2.684328,-20.579848,-0.447388,262.5, -37.1, -8.2,0,0,1684,1024,1024,1024,100,0,0,0,264.7,-15.9,0,95,3.78,3.768,0,0,0,0,8.034,61.7,121.00253766473,79.068244,31,Sport,
15100,2022-08-28 21:04:48,-34.910581774756,-56.1391687837451,79.068244,91.2401604,29.762377264732,121.00253766473,47.57218,21.2061912,66.391406324,75.296590336,19,5,7.799,121.00253766473,79.068244,21.2061912,66.391406324,-2.684328,-21.027236,0,262.7, -37.2, -8.3,0,0,1684,1024,1024,1024,100,0,0,0,264.7,-15.9,0,95,3.78,3.768,0,0,0,0,8.034,61.7,121.00253766473,79.068244,31,Sport,
15200,2022-08-28 21:04:48,-34.9105829956949,-56.139178916287,78.74016,90.7808428,29.893610864732,120.67445366473,47.57218,21.6312098,69.43569776,78.360566812,19,5,7.799,121.00253766473,79.068244,21.6312098,69.43569776,-2.684328,-21.474624,0,262.7, -36.8, -8.2,0,0,1684,1024,1024,1024,100,0,0,0,264.7,-15.9,0,95,3.78,3.768,0,0,0,0,8.034,61.7,120.67445366473,78.74016,31,Sport,
15300,2022-08-28 21:04:48,-34.910584307006,-56.1391898060867,78.74016,90.6496092,30.024844464732,120.67445366473,47.57218,22.1233366,72.709647996,81.65354592,19,5,7.799,121.00253766473,79.068244,22.1233366,72.709647996,-2.908022,-21.922012,0,262.7, -36.9, -8,0,0,1684,1024,1024,1024,100,0,0,0,264.7,-15.9,0,95,3.78,3.768,0,0,0,0,8.034,61.7,120.67445366473,78.74016,31,Sport,
15400,2022-08-28 21:04:49,-34.9105855283032,-56.1392004747872,78.412076,90.1574832,30.188886464732,120.34636966473,47.57218,22.593094,75.912732088,84.876643136,19,5,7.799,121.00253766473,79.068244,22.593094,75.912732088,-3.131716,-22.3694,0,262.7, -37.2, -8.4,0,0,1684,1024,1024,1024,100,0,0,0,264.7,-15.8,0,95,3.78,3.768,0,0,0,0,8.034,61.7,120.34636966473,78.412076,31,Sport,
15500,2022-08-28 21:04:49,-34.9105868425063,-56.1392119246899,78.412076,90.0262496,30.320120064732,120.34636966473,47.57218,23.040482,79.352692828,88.335632748,18,5,7.799,121.00253766473,79.068244,23.040482,79.352692828,-3.131716,-22.816788,0,262.8, -37.3, -8.5,0,0,1684,1024,1024,1024,100,0,0,0,264.7,-15.9,0,95,3.78,3.768,0,0,0,0,8.034,61.7,120.34636966473,78.412076,31,Sport,
15600,2022-08-28 21:04:49,-34.9105882015243,-56.1392228393952,78.083992,89.566932,30.451353664732,120.01828566473,47.57218,23.7339334,82.642391096,91.63878246,18,5,7.799,121.00253766473,79.068244,23.7339334,82.642391096,-3.35541,-23.48787,0,263, -37.5, -8.5,0,0,1684,1024,1024,1024,100,0,0,0,264.7,-15.8,0,95,3.78,3.768,0,0,0,0,8.034,61.7,120.01828566473,78.083992,31,Sport,
15700,2022-08-28 21:04:49,-34.9105896703123,-56.1392345615664,78.083992,89.40289,30.615395664732,120.01828566473,47.57218,24.158952,86.177496196,95.186682836,18,5,7.799,121.00253766473,79.068244,24.158952,86.177496196,-3.35541,-23.935258,0,263.1, -37.7, -8.9,0,0,1684,1024,1024,1024,100,0,0,0,264.7,-15.9,0,95,3.78,3.768,0,0,0,0,8.034,61.7,120.01828566473,78.083992,31,Sport,
15800,2022-08-28 21:04:49,-34.9105911727864,-56.1392462227065,78.083992,89.2716564,30.746629264732,120.01828566473,47.57218,24.8747728,89.698493684,98.718507096,18,5,7.896,121.00253766473,79.068244,24.8747728,89.698493684,-3.579104,-24.60634,0,263.3, -38.6, -9.2,0,0,1684,1024,1024,1024,100,0,0,0,264.7,-15.9,0,95,3.927,3.936,0,0,0,0,10.325,61.7,120.01828566473,78.083992,31,Sport,
15900,2022-08-28 21:04:49,-34.9105927716383,-56.1392587682857,78.083992,89.074806,30.943479664732,120.01828566473,47.57218,25.2997914,93.486223464,102.517063648,18,5,7.896,121.00253766473,79.068244,25.2997914,93.486223464,-3.579104,-25.053728,0,263.4, -38.7, -9.7,0,0,1684,1024,1024,1024,100,0,0,0,264.7,-15.9,0,95,3.927,3.936,0,0,0,0,10.325,61.7,120.01828566473,78.083992,31,Sport,
16000,2022-08-28 21:04:49,-34.9105946515206,-56.1392713741439,78.083992,88.910764,31.107521664732,120.01828566473,47.57218,25.2997914,97.315291828,106.350397104,18,5,7.896,121.00253766473,79.068244,25.2997914,97.315291828,-3.802798,-25.72481,0,263.3, -38.3, -9.6,0,0,1684,1024,1024,1024,100,0,0,0,264.7,-15.8,0,95,3.927,3.936,0,0,0,0,10.325,61.7,120.01828566473,78.083992,31,Sport,
16100,2022-08-28 21:04:49,-34.9105963724342,-56.1392845691893,78.083992,88.746722,31.271563664732,120.01828566473,47.57218,26.4853696,101.303480932,110.348100644,19,5,7.896,121.00253766473,79.068244,26.4853696,101.303480932,-4.026492,-26.172198,-0.223694,263.5, -38.1, -10.1,0,0,1684,1024,1024,1024,100,0,0,0,264.7,-15.9,0,95,3.927,3.936,0,0,0,0,10.325,61.7,120.01828566473,78.083992,31,Sport,
