time(millisecond),datetime(utc),latitude,longitude,height_above_takeoff(feet),height_above_ground_at_drone_location(feet),ground_elevation_at_drone_location(feet),altitude_above_seaLevel(feet),height_sonar(feet),speed(mph),distance(feet),mileage(feet),satellites,gpslevel,voltage(v),max_altitude(feet),max_ascent(feet),max_speed(mph),max_distance(feet), xSpeed(mph), ySpeed(mph), zSpeed(mph), compass_heading(degrees), pitch(degrees), roll(degrees),isPhoto,isVideo,rc_elevator,rc_aileron,rc_throttle,rc_rudder,rc_elevator(percent),rc_aileron(percent),rc_throttle(percent),rc_rudder(percent),gimbal_heading(degrees),gimbal_pitch(degrees),gimbal_roll(degrees),battery_percent,voltageCell1,voltageCell2,voltageCell3,voltageCell4,voltageCell5,voltageCell6,current(A),battery_temperature(f),altitude(feet),ascent(feet),flycStateRaw,flycState,message
0,2025-05-04 19:20:00,0,0,0,,,24.89861792274,0.328084,0,0,0,0,0,0,24.89861792274,0,0,0,0,0,-0.223694,157.5, 2.1, 10.7,0,0,364,364,364,1684,-100,-100,-100,100,157.3,0,0,95,4.246,4.244,0,0,0,0,0,77.18,24.89861792274,0,41,Motors_Started,"Error de calibración del estabilizador No hay señal de posicionamiento por satélite. No se puede mantener vuelo estacionario. Vuela con precaución (Code: 30007). Error de calibración del estabilizador. Reinicia la aeronave o contacta con la Asistencia DJI (Code: 40011). Aeronave en modo A"
100,2025-05-04 19:20:00,0,0,0,,,24.89861792274,0.328084,0,0,0,0,0,0,24.89861792274,0,0,0,0,0,-0.223694,159.6, 2.6, 6,0,0,1024,1024,364,1684,0,0,-100,100,157.8,0,0,95,4.246,4.244,0,0,0,0,0,77.18,24.89861792274,0,41,Motors_Started,
200,2025-05-04 19:20:00,0,0,0,,,24.89861792274,0.328084,0,0,0,0,0,0,24.89861792274,0,0,0,0,0,-0.223694,162.5, 2.4, 1,0,0,1024,1024,781,1474,0,0,-37,68,160,0,0,95,4.246,4.244,0,0,0,0,0,77.18,24.89861792274,0,41,Motors_Started,
300,2025-05-04 19:20:01,0,0,0,,,24.89861792274,0.328084,0,0,0,0,0,0,24.89861792274,0,0,0,0,0,-0.223694,162.9, 3.7, -1.7,0,0,1024,1024,1024,1024,0,0,0,0,162.1,0,0,95,4.246,4.244,0,0,0,0,0,77.18,24.89861792274,0,41,Motors_Started,
400,2025-05-04 19:20:01,0,0,0,,,24.89861792274,0.328084,0,0,0,0,0,0,24.89861792274,0,0,0,0,0,-0.223694,163.2, 4.1, -3.7,0,0,1024,1024,1024,1024,0,0,0,0,162.9,0,0,95,4.246,4.244,0,0,0,0,0,77.18,24.89861792274,0,41,Motors_Started,
500,2025-05-04 19:20:01,0,0,0,,,24.89861792274,0.328084,0,0,0,0,0,0,24.89861792274,0,0,0,0,0,0,163.2, 3.5, -5.2,0,0,1024,1024,1024,1024,0,0,0,0,163.4,0,0,95,4.246,4.244,0,0,0,0,0,77.18,24.89861792274,0,41,Motors_Started,"Setting new Return-To-Home altitude to 100m (328 ft). Data Recorder File Index is 59. Setting new Maximum Flight Altitude to 30m (98 ft)"
600,2025-05-04 19:20:01,0,0,0,,,24.89861792274,0.328084,0,0,0,0,0,0,24.89861792274,0,0,0,0,0,0,162.8, 3.3, -5.3,0,0,1024,1024,1024,1024,0,0,0,0,163.5,0,0,95,4.246,4.244,0,0,0,0,0,77.18,24.89861792274,0,41,Motors_Started,
700,2025-05-04 19:20:01,0,0,0,,,24.89861792274,0.328084,0,0,0,0,0,0,24.89861792274,0,0,0,0,0,0,161.9, 4.1, -4.2,0,0,1024,1024,1024,1024,0,0,0,0,162.7,0,0,95,4.246,4.244,0,0,0,0,0,77.18,24.89861792274,0,41,Motors_Started,
800,2025-05-04 19:20:01,0,0,0,,,24.89861792274,0.328084,0,0,0,0,0,0,24.89861792274,0,0,0,0,0,0,162.7, 3.5, -3.2,0,0,1024,1024,1024,1024,0,0,0,0,162.5,0,0,95,4.246,4.244,0,0,0,0,0,77.18,24.89861792274,0,41,Motors_Started,
900,2025-05-04 19:20:01,0,0,0,,,24.89861792274,0.328084,0,0,0,0,0,0,24.89861792274,0,0,0,0,0,0,163.2, 3.8, -1.2,0,0,1024,1024,1024,1024,0,0,0,0,163,0,0,95,4.246,4.244,0,0,0,0,0,77.18,24.89861792274,0,41,Motors_Started,
1000,2025-05-04 19:20:01,0,0,0,,,24.89861792274,0.328084,0,0,0,0,0,0,24.89861792274,0,0,0,0,0,0,164, 2.5, -1.3,0,0,1024,1024,1024,1024,0,0,0,0,163.3,0,0,95,4.246,4.244,0,0,0,0,0,77.18,24.89861792274,0,41,Motors_Started,
1100,2025-05-04 19:20:01,0,0,0,,,24.89861792274,0.328084,0,0,0,0,0,0,24.89861792274,0,0,0,0,0,0,164, 2, -1.5,0,0,1024,1024,1024,1024,0,0,0,0,164.1,0,0,95,4.246,4.244,0,0,0,0,0,77.18,24.89861792274,0,10,Assisted_Takeoff,
1200,2025-05-04 19:20:01,0,0,0,,,24.89861792274,0.328084,0,0,0,0,0,0,24.89861792274,0,0,0,0,0,0,163.8, 0.6, 0,0,0,1024,1024,1024,1024,0,0,0,0,163.9,0,0,95,4.246,4.244,0,0,0,0,0,77.18,24.89861792274,0,10,Assisted_Takeoff,
1300,2025-05-04 19:20:02,0,0,0,,,24.89861792274,0.328084,0,0,0,0,0,0,24.89861792274,0,0,0,0,0,0,164.7, -0.6, 1,0,0,1024,1024,1024,1024,0,0,0,0,164,0,0,95,4.246,4.244,0,0,0,0,0,77.18,24.89861792274,0,10,Assisted_Takeoff,
1400,2025-05-04 19:20:02,0,0,0,,,24.89861792274,0.328084,0,0,0,0,0,8.566,24.89861792274,0,0,0,0,0,0,165.9, -1.6, 1.6,0,0,1024,1024,1024,1024,0,0,0,0,165,0,0,95,4.246,4.244,0,0,0,0,0.609,77.18,24.89861792274,0,10,Assisted_Takeoff,
1500,2025-05-04 19:20:02,0,0,0,,,24.89861792274,0.328084,0,0,0,0,0,8.566,24.89861792274,0,0,0,0,0,0,167.4, -1.6, 2.7,0,0,1024,1024,1024,1024,0,0,0,0,166.4,0,0,95,4.246,4.244,0,0,0,0,0.609,77.18,24.89861792274,0,10,Assisted_Takeoff,
1600,2025-05-04 19:20:02,0,0,0,,,24.89861792274,0.328084,0,0,0,0,0,8.566,24.89861792274,0,0,0,0,0,0,168.7, -0.2, 5.3,0,0,1024,1024,1024,1024,0,0,0,0,168,0,0,95,4.246,4.244,0,0,0,0,0.609,77.18,24.89861792274,0,10,Assisted_Takeoff,
1700,2025-05-04 19:20:02,0,0,0,,,24.89861792274,0.328084,0,0,0,0,0,8.566,24.89861792274,0,0,0,0,0,-0.223694,170.2, -0.7, 6.1,0,0,1024,1024,1534,1024,0,0,77,0,169.1,0,0,95,4.246,4.244,0,0,0,0,0.609,77.18,24.89861792274,0,10,Assisted_Takeoff,
1800,2025-05-04 19:20:02,0,0,0,,,24.89861792274,0.328084,0,0,0,0,0,8.566,24.89861792274,0,0,0,0,0,-0.223694,172, -0.6, 6.8,0,0,1024,1024,1684,943,0,0,100,-12,171,0,0,95,4.246,4.244,0,0,0,0,0.609,77.18,24.89861792274,0,10,Assisted_Takeoff,
1900,2025-05-04 19:20:02,0,0,0,,,24.89861792274,0.328084,0,0,0,0,0,8.566,24.89861792274,0,0,0,0,0,-0.223694,173.9, -2.1, 6.1,0,0,1024,1024,1684,947,0,0,100,-12,172.9,0,0,95,4.246,4.244,0,0,0,0,0.609,77.18,24.89861792274,0,10,Assisted_Takeoff,
2000,2025-05-04 19:20:02,0,0,0,,,24.89861792274,0.328084,0,0,0,0,0,8.566,24.89861792274,0,0,0,0,0,-0.447388,174.7, -3.1, 5.3,0,0,1024,1024,1684,1024,0,0,100,0,174.3,0,0,95,4.246,4.244,0,0,0,0,0.609,77.18,24.89861792274,0,10,Assisted_Takeoff,
2100,2025-05-04 19:20:02,0,0,0,,,24.89861792274,0.656168,0,0,0,0,0,8.566,24.89861792274,0,0,0,0,0,-0.447388,175.2, -3.2, 5.1,0,0,1024,1024,1684,1024,0,0,100,0,175,0,0,95,4.246,4.244,0,0,0,0,0.609,77.18,24.89861792274,0,10,Assisted_Takeoff,
2200,2025-05-04 19:20:03,0,0,0,,,24.89861792274,0.656168,0,0,0,0,0,8.566,24.89861792274,0,0,0,0,0,-0.447388,172.9, -2.8, -0.3,0,0,1024,1024,1684,1024,0,0,100,0,174.2,0,0,95,4.246,4.244,0,0,0,0,0.609,77.18,24.89861792274,0,10,Assisted_Takeoff,
2300,2025-05-04 19:20:03,0,0,0,,,24.89861792274,0.656168,0,0,0,0,0,8.566,24.89861792274,0,0,0,0,0,0,172.7, -1.6, -0.8,0,0,1024,1024,1684,1024,0,0,100,0,173.1,0,0,95,4.246,4.244,0,0,0,0,0.609,77.18,24.89861792274,0,6,P-GPS,
2400,2025-05-04 19:20:03,0,0,0,,,24.89861792274,0.656168,0,0,0,0,0,8.508,24.89861792274,0,0,0,0,0,-0.223694,172.8, 1.6, -0.4,0,0,1024,1024,1684,1024,0,0,100,0,173.1,0,0,95,4.227,4.219,0,0,0,0,1.16,77.36,24.89861792274,0,6,P-GPS,
2500,2025-05-04 19:20:03,0,0,0.328084,,,25.22670192274,0.656168,0,0,0,0,0,8.508,25.22670192274,0.328084,0,0,0,0,-0.671082,172.8, 2.8, -0.4,0,0,1024,1024,1684,1024,0,0,100,0,173.1,0,0,95,4.227,4.219,0,0,0,0,1.16,77.36,25.22670192274,0.328084,6,P-GPS,
2600,2025-05-04 19:20:03,0,0,0.328084,,,25.22670192274,0.656168,0,0,0,0,0,8.508,25.22670192274,0.328084,0,0,0,0,-1.11847,172.9, 2.8, -0.9,0,0,1024,1024,1684,1024,0,0,100,0,173.1,0,0,95,4.227,4.219,0,0,0,0,1.16,77.36,25.22670192274,0.328084,6,P-GPS,
2700,2025-05-04 19:20:03,0,0,0.656168,,,25.55478592274,0.656168,0,0,0,0,0,8.508,25.55478592274,0.656168,0,0,0,0,-1.789552,173, 2, -0.1,0,0,1024,1024,1684,1014,0,0,100,-2,173.1,0,0,95,4.227,4.219,0,0,0,0,1.16,77.36,25.55478592274,0.656168,6,P-GPS,
2800,2025-05-04 19:20:03,0,0,0.984252,,,25.88286992274,5.577428,0,0,0,0,0,8.508,25.88286992274,0.984252,0,0,0,0,-2.460634,173, 1.4, 0,0,0,1024,1024,1684,1010,0,0,100,-2,173.1,0,0,95,4.227,4.219,0,0,0,0,1.16,77.36,25.88286992274,0.984252,6,P-GPS,
2900,2025-05-04 19:20:03,0,0,1.312336,,,26.21095392274,5.905512,0,0,0,0,0,8.508,26.21095392274,1.312336,0,0,0,0,-3.131716,173, 1.2, 0,0,0,1024,1024,1684,1014,0,0,100,-2,173.1,0,0,95,4.227,4.219,0,0,0,0,1.16,77.36,26.21095392274,1.312336,6,P-GPS,
3000,2025-05-04 19:20:03,0,0,1.968504,,,26.86712192274,6.56168,0.4921268,0,0,0,0,8.508,26.86712192274,1.968504,0,0,-0.447388,-0.223694,-3.802798,172.1, 3.6, -5,0,0,1024,1024,1684,1003,0,0,100,-3,173.1,0,0,95,4.227,4.219,0,0,0,0,1.16,77.36,26.86712192274,1.968504,1,Atti,"Vuela con cuidado (modo Atti) Aeronave en modo Atti. No se puede hacer vuelo estacionario. Vuela con cuidado (Code: 30004). Error de calibración del estabilizador. Reinicia la aeronave o contacta con la Asistencia DJI (Code: 40011). Aeronave en modo Atti. No se puede hacer vuelo "
3100,2025-05-04 19:20:03,0,0,2.624672,,,27.52328992274,7.217848,0.447388,0,0,0,0,8.508,27.52328992274,2.624672,0,0,-0.447388,0,-4.47388,173, -0.4, -0.1,0,0,1024,1024,1684,992,0,0,100,-5,173.1,0,0,95,4.227,4.219,0,0,0,0,1.16,77.36,27.52328992274,2.624672,6,P-GPS,"Aeronave en modo Atti. No se puede hacer vuelo estacionario. Vuela con cuidado (Code: 30020). Error de calibración del estabilizador. Reinicia la aeronave o contacta con la Asistencia DJI (Code: 40011)"
3200,2025-05-04 19:20:03,0,0,3.28084,,,28.17945792274,7.874016,0.671082,0,0,0,0,8.508,28.17945792274,3.28084,0,0,-0.671082,0,-4.697574,173.1, 2.8, 0.5,0,0,1024,1024,1684,904,0,0,100,-18,173,0,0,95,4.227,4.219,0,0,0,0,1.16,77.36,28.17945792274,3.28084,6,P-GPS,
3300,2025-05-04 19:20:04,0,0,3.937008,,,28.83562592274,8.530184,0.7158208,0,0,0,0,8.508,28.83562592274,3.937008,0,0,-0.671082,-0.223694,-4.921268,173.2, 4.1, 0.4,0,0,1024,1024,1684,904,0,0,100,-18,173,0,0,95,4.227,4.219,0,0,0,0,1.16,77.36,28.83562592274,3.937008,6,P-GPS,
3400,2025-05-04 19:20:04,0,0,4.593176,,,29.49179392274,9.514436,0.4921268,0,0,0,0,8.521,29.49179392274,4.593176,0,0,-0.447388,-0.223694,-4.697574,173.2, 4, -0.5,0,0,1024,1024,1684,902,0,0,100,-18,172.9,0,0,95,4.057,4.084,0,0,0,0,1.363,77.36,29.49179392274,4.593176,6,P-GPS,
3500,2025-05-04 19:20:04,0,0,5.249344,,,30.14796192274,10.170604,0.4921268,0,0,0,0,8.521,30.14796192274,5.249344,0,0,-0.447388,-0.223694,-4.47388,173.1, 3.8, -1.8,0,0,1085,1024,1684,894,9,0,100,-20,172.7,0,0,94,4.057,4.084,0,0,0,0,1.363,77.36,30.14796192274,5.249344,6,P-GPS,
3600,2025-05-04 19:20:04,0,0,5.905512,,,30.80412992274,10.826772,0.4921268,0,0,0,0,8.521,30.80412992274,5.905512,0,0,-0.447388,-0.223694,-4.026492,173.2, 4.2, -2.2,0,0,1684,1024,1684,886,100,0,100,-21,172.5,0,0,94,4.057,4.084,0,0,0,0,1.363,77.36,30.80412992274,5.905512,6,P-GPS,
3700,2025-05-04 19:20:04,0,0,6.56168,,,31.46029792274,11.48294,0.3131716,0,0,0,0,8.521,31.46029792274,6.56168,0,0,-0.223694,-0.223694,-3.802798,173.4, -2.5, -1.6,0,0,1684,1024,1684,909,100,0,100,-17,172.3,0,0,94,4.057,4.084,0,0,0,0,1.363,77.36,31.46029792274,6.56168,6,P-GPS,
3800,2025-05-04 19:20:04,0,0,7.217848,,,32.11646592274,11.811024,0.4921268,0,0,0,0,8.521,32.11646592274,7.217848,0,0,-0.447388,-0.223694,-3.131716,173.9, -13, -1.8,0,0,1684,1024,1684,1024,100,0,100,0,172,0,0,94,4.057,4.084,0,0,0,0,1.363,77.36,32.11646592274,7.217848,6,P-GPS,
3900,2025-05-04 19:20:04,0,0,7.545932,,,32.44454992274,12.139108,1.1408394,0,0,0,0,8.521,32.44454992274,7.545932,0,0,-1.11847,-0.223694,-2.908022,174.1, -17.1, -1.7,0,0,1684,1024,1684,1024,100,0,100,0,171.8,0,0,94,4.057,4.084,0,0,0,0,1.363,77.36,32.44454992274,7.545932,6,P-GPS,
4000,2025-05-04 19:20:04,0,0,7.874016,,,32.77263392274,12.467192,1.8119214,0,0,0,0,8.521,32.77263392274,7.874016,0,0,-1.789552,-0.223694,-2.684328,173.9, -17.1, -1.9,0,0,1684,1024,1684,1024,100,0,100,0,171.7,0,0,94,4.057,4.084,0,0,0,0,1.363,77.36,32.77263392274,7.874016,6,P-GPS,
4100,2025-05-04 19:20:04,0,0,8.2021,,,33.10071792274,13.12336,2.23694,0,0,0,0,8.521,33.10071792274,8.2021,0,0,-2.23694,-0.223694,-2.23694,173.8, -16.4, -2,0,0,1156,1024,1684,1024,20,0,100,0,171.7,0,0,94,4.057,4.084,0,0,0,0,1.363,77.36,33.10071792274,8.2021,6,P-GPS,
4200,2025-05-04 19:20:04,0,0,8.530184,,,33.42880192274,13.451444,2.908022,0,0,0,0,8.521,33.42880192274,8.530184,0,0,-2.908022,-0.223694,-2.013246,173.9, -15.7, -2.6,0,0,1156,1024,1684,1024,20,0,100,0,171.7,0,0,94,4.057,4.084,0,0,0,0,1.363,77.36,33.42880192274,8.530184,6,P-GPS,
4300,2025-05-04 19:20:05,0,0,8.858268,,,33.75688592274,13.451444,3.35541,0,0,0,0,8.521,33.75688592274,8.858268,0,0,-3.35541,0,-1.789552,173.7, -7.8, -3,0,0,1024,1024,1684,1013,0,0,100,-2,171.7,0,0,94,4.057,4.084,0,0,0,0,1.363,77.36,33.75688592274,8.858268,6,P-GPS,
4400,2025-05-04 19:20:05,0,0,9.186352,,,34.08496992274,13.779528,3.579104,0,0,0,0,8.211,34.08496992274,9.186352,0,0,-3.579104,0,-1.565858,173.1, 11.6, -2.3,0,0,1024,1024,1684,1009,0,0,100,-2,171.7,0,0,94,4.161,4.16,0,0,0,0,5.006,77.36,34.08496992274,9.186352,6,P-GPS,
4500,2025-05-04 19:20:05,0,0,9.514436,,,34.41305392274,14.107612,3.131716,0,0,0,0,8.211,34.41305392274,9.514436,0,0,-3.131716,-0.223694,-1.342164,173.3, 15.3, -2.7,0,0,1024,1024,1684,1004,0,0,100,-3,171.7,0,0,94,4.161,4.16,0,0,0,0,5.006,77.36,34.41305392274,9.514436,6,P-GPS,"Se ha alcanzado la altitud máxima (Code: 20000001)"
4600,2025-05-04 19:20:05,0,0,9.514436,,,34.41305392274,14.107612,2.460634,0,0,0,0,8.211,34.41305392274,9.514436,0,0,-2.460634,-0.223694,-1.11847,173.7, 14.3, -2.4,0,0,1024,1024,1684,975,0,0,100,-7,171.7,0,0,94,4.161,4.16,0,0,0,0,5.006,77.36,34.41305392274,9.514436,6,P-GPS,
4700,2025-05-04 19:20:05,0,0,9.84252,,,34.74113792274,14.435696,2.0356154,0,0,0,0,8.211,34.74113792274,9.84252,0,0,-2.013246,-0.223694,-1.11847,174.1, 12.1, -3.2,0,0,1024,1024,1684,960,0,0,100,-10,171.7,0,0,94,4.161,4.16,0,0,0,0,5.006,77.36,34.74113792274,9.84252,6,P-GPS,
4800,2025-05-04 19:20:05,0,0,10.170604,,,35.06922192274,14.435696,1.565858,0,0,0,0,8.211,35.06922192274,10.170604,0,0,-1.565858,0,-1.11847,174.5, 10.2, -2.9,0,0,1024,1024,1684,945,0,0,100,-12,171.6,0,0,94,4.161,4.16,0,0,0,0,5.006,77.36,35.06922192274,10.170604,6,P-GPS,
4900,2025-05-04 19:20:05,0,0,10.170604,,,35.06922192274,14.76378,0.894776,0,0,0,0,8.211,35.06922192274,10.170604,0,0,-0.894776,0,-1.11847,174.8, 8.8, -2.3,0,0,1024,1024,1684,940,0,0,100,-13,171.6,0,0,94,4.161,4.16,0,0,0,0,5.006,77.36,35.06922192274,10.170604,6,P-GPS,
5000,2025-05-04 19:20:05,0,0,10.498688,,,35.39730592274,14.76378,0.894776,0,0,0,0,8.211,35.39730592274,10.498688,0,0,-0.447388,0,-0.894776,174.7, 6.8, -2,0,0,1024,1024,1684,918,0,0,100,-16,171.5,0,0,94,4.161,4.16,0,0,0,0,5.006,77.36,35.39730592274,10.498688,6,P-GPS,
5100,2025-05-04 19:20:05,0,0,10.498688,,,35.39730592274,15.091864,0.223694,0,0,0,0,8.211,35.39730592274,10.498688,0,0,-0.223694,0,-0.894776,174.6, 5.5, -1.9,0,0,1024,1024,1684,918,0,0,100,-16,171.3,0,0,94,4.161,4.16,0,0,0,0,5.006,77.36,35.39730592274,10.498688,6,P-GPS,
5200,2025-05-04 19:20:05,0,0,10.826772,,,35.72538992274,15.091864,0,0,0,0,0,8.211,35.72538992274,10.826772,0,0,0,0,-0.671082,174.5, 4, -1.8,0,0,1024,1024,1684,921,0,0,100,-16,171.2,0,0,94,4.161,4.16,0,0,0,0,5.006,77.36,35.72538992274,10.826772,6,P-GPS,
5300,2025-05-04 19:20:06,0,0,10.826772,,,35.72538992274,15.091864,0,0,0,0,0,8.211,35.72538992274,10.826772,0,0,0,0,-0.671082,174.5, 2.8, -1.8,0,0,1024,1024,1684,921,0,0,100,-16,171,0,0,94,4.161,4.16,0,0,0,0,5.006,77.36,35.72538992274,10.826772,6,P-GPS,
5400,2025-05-04 19:20:06,0,0,11.154856,,,36.05347392274,15.419948,0.223694,0,0,0,0,8.328,36.05347392274,11.154856,0,0,0,-0.223694,-0.671082,174.4, 1.9, -1.7,0,0,1024,1024,1684,917,0,0,100,-16,170.8,0,0,94,4.15,4.15,0,0,0,0,4.26,77.36,36.05347392274,11.154856,6,P-GPS,
5500,2025-05-04 19:20:06,0,0,11.154856,,,36.05347392274,15.419948,0.223694,0,0,0,0,8.328,36.05347392274,11.154856,0,0,0,-0.223694,-0.447388,174.3, 1.4, -2,0,0,1024,1024,1684,888,0,0,100,-21,170.7,0,0,94,4.15,4.15,0,0,0,0,4.26,77.36,36.05347392274,11.154856,6,P-GPS,
5600,2025-05-04 19:20:06,0,0,11.154856,,,36.05347392274,15.419948,0.223694,0,0,0,0,8.328,36.05347392274,11.154856,0,0,0,-0.223694,-0.447388,174.2, 0.6, -1.7,0,0,1024,1024,1684,887,0,0,100,-21,170.5,0,0,94,4.15,4.15,0,0,0,0,4.26,77.36,36.05347392274,11.154856,6,P-GPS,
5700,2025-05-04 19:20:06,0,0,11.48294,,,36.38155792274,15.748032,0.223694,0,0,0,0,8.328,36.38155792274,11.48294,0,0,0,-0.223694,-0.447388,173.8, 0.6, -2.4,0,0,1024,1024,1684,886,0,0,100,-21,170.2,0,0,94,4.15,4.15,0,0,0,0,4.26,77.36,36.38155792274,11.48294,6,P-GPS,
5800,2025-05-04 19:20:06,0,0,11.48294,,,36.38155792274,15.748032,0.223694,0,0,0,0,8.328,36.38155792274,11.48294,0,0,0,-0.223694,-0.223694,174, 0.3, -2.5,0,0,1024,1024,1684,879,0,0,100,-22,170,0,0,94,4.15,4.15,0,0,0,0,4.26,77.36,36.38155792274,11.48294,6,P-GPS,
5900,2025-05-04 19:20:06,0,0,11.811024,,,36.70964192274,15.748032,0.223694,0,0,0,0,8.328,36.70964192274,11.811024,0,0,0,-0.223694,-0.223694,173.9, 1, -3.7,0,0,1024,1024,1280,1024,0,0,39,0,169.7,0,0,94,4.15,4.15,0,0,0,0,4.26,77.36,36.70964192274,11.811024,6,P-GPS,
6000,2025-05-04 19:20:06,0,0,11.811024,,,36.70964192274,15.748032,0,0,0,0,0,8.328,36.70964192274,11.811024,0,0,0,0,-0.223694,173.6, 0.9, -3.5,0,0,1024,1024,1280,1024,0,0,39,0,169.4,0,0,94,4.15,4.15,0,0,0,0,4.26,77.36,36.70964192274,11.811024,6,P-GPS,"Error de calibración del estabilizador"
6100,2025-05-04 19:20:06,0,0,11.811024,,,36.70964192274,15.748032,0,0,0,0,0,8.328,36.70964192274,11.811024,0,0,0,0,-0.223694,173.3, 1.2, -3.2,0,0,1024,1024,1080,1024,0,0,8,0,169.2,0,0,94,4.15,4.15,0,0,0,0,4.26,77.36,36.70964192274,11.811024,6,P-GPS,
6200,2025-05-04 19:20:06,0,0,11.811024,,,36.70964192274,16.076116,0,0,0,0,0,8.328,36.70964192274,11.811024,0,0,0,0,-0.223694,173.2, 1.4, -3.3,0,0,1024,1024,1684,1024,0,0,100,0,169.1,0,0,94,4.15,4.15,0,0,0,0,4.26,77.36,36.70964192274,11.811024,6,P-GPS,
6300,2025-05-04 19:20:07,0,0,12.139108,,,37.03772592274,16.076116,0,0,0,0,0,8.328,37.03772592274,12.139108,0,0,0,0,0,173.5, 0.8, -2.1,0,0,1024,1024,1684,1024,0,0,100,0,169.1,0,0,94,4.15,4.15,0,0,0,0,4.26,77.36,37.03772592274,12.139108,6,P-GPS,
6400,2025-05-04 19:20:07,0,0,12.139108,,,37.03772592274,16.076116,0,0,0,0,0,8.328,37.03772592274,12.139108,0,0,0,0,0,173.6, 0.7, -2.2,0,0,1024,1024,1684,1024,0,0,100,0,169.1,0,0,94,4.15,4.15,0,0,0,0,4.26,77.36,37.03772592274,12.139108,6,P-GPS,
6500,2025-05-04 19:20:07,0,0,12.139108,,,37.03772592274,16.076116,0,0,0,0,0,8.328,37.03772592274,12.139108,0,0,0,0,0,173.6, 0, -2.9,0,0,1024,1024,1684,1024,0,0,100,0,169.1,0,0,94,4.15,4.15,0,0,0,0,4.26,77.36,37.03772592274,12.139108,6,P-GPS,
6600,2025-05-04 19:20:07,0,0,12.139108,,,37.03772592274,16.076116,0,0,0,0,0,8.328,37.03772592274,12.139108,0,0,0,0,0,173.5, 0.8, -3.1,0,0,1024,1024,1674,1024,0,0,98,0,169.1,0,0,94,4.15,4.15,0,0,0,0,4.26,77.36,37.03772592274,12.139108,6,P-GPS,
6700,2025-05-04 19:20:07,0,0,12.139108,,,37.03772592274,16.076116,0,0,0,0,0,8.288,37.03772592274,12.139108,0,0,0,0,0,173.7, 0.4, -2.1,0,0,1024,1024,1024,1024,0,0,0,0,169.1,0,0,94,4.133,4.139,0,0,0,0,4.014,77.36,37.03772592274,12.139108,6,P-GPS,
6800,2025-05-04 19:20:07,0,0,12.467192,,,37.36580992274,16.076116,0,0,0,0,0,8.288,37.36580992274,12.467192,0,0,0,0,0,173.7, 1.2, -2.5,0,0,1024,1024,1024,1024,0,0,0,0,169.1,0,0,94,4.133,4.139,0,0,0,0,4.014,77.36,37.36580992274,12.467192,6,P-GPS,
6900,2025-05-04 19:20:07,0,0,12.467192,,,37.36580992274,16.076116,0,0,0,0,0,8.288,37.36580992274,12.467192,0,0,0,0,0,173.5, 1.7, -3,0,0,1024,1024,1024,1024,0,0,0,0,169.1,0,0,94,4.133,4.139,0,0,0,0,4.014,77.36,37.36580992274,12.467192,6,P-GPS,
7000,2025-05-04 19:20:07,0,0,12.467192,,,37.36580992274,16.076116,0,0,0,0,0,8.288,37.36580992274,12.467192,0,0,0,0,0,173.3, 1.7, -2.6,0,0,1024,1024,1024,1024,0,0,0,0,169.1,0,0,94,4.133,4.139,0,0,0,0,4.014,77.36,37.36580992274,12.467192,6,P-GPS,
7100,2025-05-04 19:20:07,0,0,12.467192,,,37.36580992274,16.076116,0,0,0,0,0,8.288,37.36580992274,12.467192,0,0,0,0,0,173.4, 1.4, -2.2,0,0,1024,1024,1024,1024,0,0,0,0,169.1,0,0,94,4.133,4.139,0,0,0,0,4.014,77.36,37.36580992274,12.467192,6,P-GPS,
7200,2025-05-04 19:20:07,0,0,12.467192,,,37.36580992274,16.076116,0,0,0,0,0,8.288,37.36580992274,12.467192,0,0,0,0,0,173.4, 2, -2.2,0,0,1024,1024,1024,1024,0,0,0,0,169.1,0,0,94,4.133,4.139,0,0,0,0,4.014,77.36,37.36580992274,12.467192,6,P-GPS,"Señal de posicionamiento por satélite débil. Altitud de vuelo limitada. Espera a que la aeronave obtenga la señal de posicionamiento por satélite antes de ascender (Code: 30214)"
7300,2025-05-04 19:20:08,0,0,12.467192,,,37.36580992274,16.076116,0,0,0,0,0,8.288,37.36580992274,12.467192,0,0,0,0,0,173.4, 2, -1.4,0,0,1024,1024,1024,1024,0,0,0,0,169.1,0,0,94,4.133,4.139,0,0,0,0,4.014,77.36,37.36580992274,12.467192,6,P-GPS,
7400,2025-05-04 19:20:08,0,0,12.467192,,,37.36580992274,16.076116,0,0,0,0,0,8.288,37.36580992274,12.467192,0,0,0,0,0,173.5, 1.3, -1.4,0,0,1024,1024,1024,1024,0,0,0,0,169.1,0,0,94,4.133,4.139,0,0,0,0,4.014,77.36,37.36580992274,12.467192,6,P-GPS,
7500,2025-05-04 19:20:08,0,0,12.139108,,,37.03772592274,16.076116,0,0,0,0,0,8.288,37.36580992274,12.467192,0,0,0,0,0,173.5, 0.6, -1.9,0,0,1024,1024,1024,1024,0,0,0,0,169.1,0,0,94,4.133,4.139,0,0,0,0,4.014,77.36,37.03772592274,12.139108,6,P-GPS,
7600,2025-05-04 19:20:08,0,0,12.139108,,,37.03772592274,16.076116,0,0,0,0,0,8.288,37.36580992274,12.467192,0,0,0,0,0,173.6, 0.8, -1.8,0,0,1024,1024,1024,1024,0,0,0,0,169.1,0,0,94,4.133,4.139,0,0,0,0,4.014,77.36,37.03772592274,12.139108,6,P-GPS,
7700,2025-05-04 19:20:08,0,0,12.139108,,,37.03772592274,16.076116,0,0,0,0,0,8.288,37.36580992274,12.467192,0,0,0,0,0,173.6, 0.8, -1.7,0,0,1024,1024,1024,1024,0,0,0,0,169.1,0,0,94,4.133,4.139,0,0,0,0,4.014,77.36,37.03772592274,12.139108,6,P-GPS,
7800,2025-05-04 19:20:08,0,0,12.139108,,,37.03772592274,16.076116,0,0,0,0,0,8.278,37.36580992274,12.467192,0,0,0,0,0,173.6, 1, -1.9,0,0,1024,1024,1024,1024,0,0,0,0,169.1,0,0,94,4.135,4.133,0,0,0,0,4.045,77.36,37.03772592274,12.139108,6,P-GPS,
7900,2025-05-04 19:20:08,0,0,12.139108,,,37.03772592274,16.076116,0,0,0,0,0,8.278,37.36580992274,12.467192,0,0,0,0,0,173.6, 0.5, -1.6,0,0,1024,1024,1684,1024,0,0,100,0,169.1,0,0,94,4.135,4.133,0,0,0,0,4.045,77.36,37.03772592274,12.139108,6,P-GPS,
8000,2025-05-04 19:20:08,0,0,12.139108,,,37.03772592274,16.076116,0,0,0,6,0,8.278,37.36580992274,12.467192,0,0,0,0,0,173.7, 0.4, -1.7,0,0,1024,1024,1684,1024,0,0,100,0,169.1,0,0,94,4.135,4.133,0,0,0,0,4.045,77.36,37.03772592274,12.139108,6,P-GPS,
8100,2025-05-04 19:20:08,0,0,12.139108,,,37.03772592274,16.076116,0,0,0,6,0,8.278,37.36580992274,12.467192,0,0,0,0,0,173.7, 0.6, -1.4,0,0,1024,1024,1684,1024,0,0,100,0,169.1,0,0,94,4.135,4.133,0,0,0,0,4.045,77.36,37.03772592274,12.139108,6,P-GPS,
8200,2025-05-04 19:20:08,0,0,12.139108,,,37.03772592274,16.076116,0,0,0,6,0,8.278,37.36580992274,12.467192,0,0,0,0,0,173.7, 0.2, -1.7,0,0,1024,1024,1684,1024,0,0,100,0,169.1,0,0,94,4.135,4.133,0,0,0,0,4.045,77.36,37.03772592274,12.139108,6,P-GPS,
8300,2025-05-04 19:20:09,0,0,12.467192,,,37.36580992274,16.076116,0,0,0,3,0,8.278,37.36580992274,12.467192,0,0,0,0,0,173.8, 0.7, -2,0,0,1024,1024,1684,1024,0,0,100,0,169.1,0,0,94,4.135,4.133,0,0,0,0,4.045,77.36,37.36580992274,12.467192,6,P-GPS,
8400,2025-05-04 19:20:09,0,0,12.467192,,,37.36580992274,16.076116,0,0,0,3,0,8.278,37.36580992274,12.467192,0,0,0,0,0,173.8, 0.2, -2.1,0,0,1024,1024,1684,1024,0,0,100,0,169.1,0,0,94,4.135,4.133,0,0,0,0,4.045,77.36,37.36580992274,12.467192,6,P-GPS,
8500,2025-05-04 19:20:09,0,0,12.467192,,,37.36580992274,16.076116,0,0,0,3,0,8.278,37.36580992274,12.467192,0,0,0,0,0,173.9, -0.3, -2.1,0,0,1024,1024,1168,1024,0,0,22,0,169.1,0,0,94,4.135,4.133,0,0,0,0,4.045,77.36,37.36580992274,12.467192,6,P-GPS,
8600,2025-05-04 19:20:09,0,0,12.467192,,,37.36580992274,16.076116,0,0,0,3,0,8.278,37.36580992274,12.467192,0,0,0,0,0,174, -0.1, -2.1,0,0,1024,1024,1024,1024,0,0,0,0,169.1,0,0,94,4.135,4.133,0,0,0,0,4.045,77.36,37.36580992274,12.467192,6,P-GPS,
8700,2025-05-04 19:20:09,0,0,12.467192,,,37.36580992274,16.076116,0,0,0,3,0,8.278,37.36580992274,12.467192,0,0,0,0,0,174.1, -0.1, -2.1,0,0,1024,1024,1024,1024,0,0,0,0,169.1,0,0,94,4.135,4.133,0,0,0,0,4.045,77.36,37.36580992274,12.467192,6,P-GPS,
8800,2025-05-04 19:20:09,0,0,12.467192,,,37.36580992274,16.076116,0,0,0,3,0,8.251,37.36580992274,12.467192,0,0,0,0,0,174.1, 0.2, -1.9,0,0,1024,1024,1024,1024,0,0,0,0,169.1,0,0,94,4.128,4.129,0,0,0,0,4.29,77.54,37.36580992274,12.467192,6,P-GPS,
8900,2025-05-04 19:20:09,0,0,12.139108,,,37.03772592274,16.076116,0,0,0,3,0,8.251,37.36580992274,12.467192,0,0,0,0,0,173.9, 0.1, -2.3,0,0,1024,1024,1024,1024,0,0,0,0,169.1,0,0,94,4.128,4.129,0,0,0,0,4.29,77.54,37.03772592274,12.139108,6,P-GPS,
9000,2025-05-04 19:20:09,0,0,12.139108,,,37.03772592274,16.4042,0,0,0,3,0,8.251,37.36580992274,12.467192,0,0,0,0,0,173.9, 0, -2.4,0,0,1024,1024,1024,1024,0,0,0,0,169.1,0,0,94,4.128,4.129,0,0,0,0,4.29,77.54,37.03772592274,12.139108,6,P-GPS,
9100,2025-05-04 19:20:09,0,0,12.139108,,,37.03772592274,16.4042,0,0,0,3,0,8.251,37.36580992274,12.467192,0,0,0,0,0,173.9, 0.4, -2.5,0,0,1024,1024,1024,1024,0,0,0,0,169.1,0,0,94,4.128,4.129,0,0,0,0,4.29,77.54,37.03772592274,12.139108,6,P-GPS,
9200,2025-05-04 19:20:09,0,0,12.139108,,,37.03772592274,16.076116,0,0,0,3,0,8.251,37.36580992274,12.467192,0,0,0,0,0,173.8, 0.6, -2.4,0,0,1024,1024,1024,1024,0,0,0,0,169.1,0,0,94,4.128,4.129,0,0,0,0,4.29,77.54,37.03772592274,12.139108,6,P-GPS,
9300,2025-05-04 19:20:10,0,0,12.139108,,,37.03772592274,16.076116,0,0,0,3,0,8.251,37.36580992274,12.467192,0,0,0,0,0,173.7, 0.5, -2.1,0,0,1024,1024,1024,1024,0,0,0,0,169.1,0,0,94,4.128,4.129,0,0,0,0,4.29,77.54,37.03772592274,12.139108,6,P-GPS,
9400,2025-05-04 19:20:10,0,0,12.139108,,,37.03772592274,16.076116,0,0,0,3,0,8.251,37.36580992274,12.467192,0,0,0,0,0,173.6, 0.3, -1.9,0,0,1024,1024,1024,1024,0,0,0,0,169.1,0,0,94,4.128,4.129,0,0,0,0,4.29,77.54,37.03772592274,12.139108,6,P-GPS,
9500,2025-05-04 19:20:10,0,0,12.139108,,,37.03772592274,16.076116,0,0,0,3,0,8.251,37.36580992274,12.467192,0,0,0,0,0,173.5, 0.6, -1.7,0,0,1024,1024,1024,1024,0,0,0,0,169.1,0,0,94,4.128,4.129,0,0,0,0,4.29,77.54,37.03772592274,12.139108,6,P-GPS,
9600,2025-05-04 19:20:10,0,0,12.139108,,,37.03772592274,16.076116,0,0,0,3,0,8.251,37.36580992274,12.467192,0,0,0,0,0,173.5, 0.7, -1.4,0,0,1024,1024,1024,1024,0,0,0,0,169.1,0,0,94,4.128,4.129,0,0,0,0,4.29,77.54,37.03772592274,12.139108,6,P-GPS,
9700,2025-05-04 19:20:10,0,0,12.139108,,,37.03772592274,16.076116,0,0,0,3,0,8.251,37.36580992274,12.467192,0,0,0,0,0,173.7, 0.1, -1,0,0,1024,1024,1024,1024,0,0,0,0,169.1,0,0,94,4.128,4.129,0,0,0,0,4.29,77.54,37.03772592274,12.139108,6,P-GPS,
9800,2025-05-04 19:20:10,0,0,12.139108,,,37.03772592274,16.076116,0,0,0,3,0,8.263,37.36580992274,12.467192,0,0,0,0,0,173.6, -0.3, -1.6,0,0,1024,1024,1024,1024,0,0,0,0,169.1,0,0,94,4.128,4.128,0,0,0,0,4.127,77.54,37.03772592274,12.139108,6,P-GPS,
9900,2025-05-04 19:20:10,0,0,12.139108,,,37.03772592274,16.076116,0,0,0,3,0,8.263,37.36580992274,12.467192,0,0,0,0,0,173.6, -0.5, -1.9,0,0,1024,1024,1024,1024,0,0,0,0,169.1,0,0,94,4.128,4.128,0,0,0,0,4.127,77.54,37.03772592274,12.139108,6,P-GPS,
10000,2025-05-04 19:20:10,0,0,12.139108,,,37.03772592274,16.076116,0,0,0,3,0,8.263,37.36580992274,12.467192,0,0,0,0,0,173.8, -0.3, -1.6,0,0,1024,1024,1024,1024,0,0,0,0,169.1,0,0,94,4.128,4.128,0,0,0,0,4.127,77.54,37.03772592274,12.139108,6,P-GPS,
10100,2025-05-04 19:20:10,0,0,11.811024,,,36.70964192274,16.076116,0,0,0,3,0,8.263,37.36580992274,12.467192,0,0,0,0,0,173.9, -0.3, -1.6,0,0,1024,1024,1024,1024,0,0,0,0,169.1,0,0,94,4.128,4.128,0,0,0,0,4.127,77.54,36.70964192274,11.811024,6,P-GPS,
10200,2025-05-04 19:20:10,0,0,11.811024,,,36.70964192274,16.076116,0,0,0,3,0,8.263,37.36580992274,12.467192,0,0,0,0,0,173.9, -0.1, -1.3,0,0,1024,1024,1024,1024,0,0,0,0,169.1,0,0,94,4.128,4.128,0,0,0,0,4.127,77.54,36.70964192274,11.811024,6,P-GPS,
10300,2025-05-04 19:20:11,0,0,11.811024,,,36.70964192274,16.076116,0,0,0,3,0,8.263,37.36580992274,12.467192,0,0,0,0,0,173.9, 0.3, -1.5,0,0,1024,1024,1024,1024,0,0,0,0,169.1,0,0,94,4.128,4.128,0,0,0,0,4.127,77.54,36.70964192274,11.811024,6,P-GPS,
10400,2025-05-04 19:20:11,0,0,11.811024,,,36.70964192274,16.076116,0,0,0,3,0,8.263,37.36580992274,12.467192,0,0,0,0,0,173.9, 0.5, -1.2,0,0,1024,1024,1024,1024,0,0,0,0,169.1,0,0,94,4.128,4.128,0,0,0,0,4.127,77.54,36.70964192274,11.811024,6,P-GPS,
10500,2025-05-04 19:20:11,0,0,11.811024,,,36.70964192274,16.076116,0,0,0,3,0,8.263,37.36580992274,12.467192,0,0,0,0,0,173.8, 0.4, -1.2,0,0,1024,1024,1024,1024,0,0,0,0,169.1,0,0,94,4.128,4.128,0,0,0,0,4.127,77.54,36.70964192274,11.811024,6,P-GPS,
10600,2025-05-04 19:20:11,0,0,11.811024,,,36.70964192274,16.076116,0,0,0,3,0,8.263,37.36580992274,12.467192,0,0,0,0,0,173.8, 0.7, -1,0,0,1024,1024,1024,1024,0,0,0,0,169.1,0,0,94,4.128,4.128,0,0,0,0,4.127,77.54,36.70964192274,11.811024,6,P-GPS,
10700,2025-05-04 19:20:11,0,0,11.48294,,,36.38155792274,16.076116,0,0,0,3,0,8.263,37.36580992274,12.467192,0,0,0,0,0,173.8, 0.9, -0.9,0,0,1024,1024,1024,1024,0,0,0,0,169.1,0,0,94,4.128,4.128,0,0,0,0,4.127,77.54,36.38155792274,11.48294,6,P-GPS,
10800,2025-05-04 19:20:11,0,0,11.48294,,,36.38155792274,16.076116,0,0,0,3,0,8.259,37.36580992274,12.467192,0,0,0,0,0,173.8, 0.8, -1.1,0,0,1024,1024,1024,1024,0,0,0,0,169.1,0,0,94,4.13,4.13,0,0,0,0,4.142,77.54,36.38155792274,11.48294,6,P-GPS,
10900,2025-05-04 19:20:11,0,0,11.48294,,,36.38155792274,16.076116,0,0,0,3,0,8.259,37.36580992274,12.467192,0,0,0,0,0,173.8, 0.7, -0.8,0,0,1024,1024,1024,1024,0,0,0,0,169.1,0,0,94,4.13,4.13,0,0,0,0,4.142,77.54,36.38155792274,11.48294,6,P-GPS,
11000,2025-05-04 19:20:11,0,0,11.48294,,,36.38155792274,16.076116,0,0,0,3,0,8.259,37.36580992274,12.467192,0,0,0,0,0,173.7, 0.9, -0.7,0,0,1024,1024,1024,1024,0,0,0,0,169.1,0,0,94,4.13,4.13,0,0,0,0,4.142,77.54,36.38155792274,11.48294,6,P-GPS,
11100,2025-05-04 19:20:11,0,0,11.48294,,,36.38155792274,16.076116,0,0,0,3,0,8.259,37.36580992274,12.467192,0,0,0,0,0,173.7, 0.4, -1.2,0,0,1024,1024,1024,1024,0,0,0,0,169.1,0,0,94,4.13,4.13,0,0,0,0,4.142,77.54,36.38155792274,11.48294,6,P-GPS,
11200,2025-05-04 19:20:11,0,0,11.48294,,,36.38155792274,16.076116,0,0,0,3,0,8.259,37.36580992274,12.467192,0,0,0,0,0,173.8, 0, -1,0,0,1024,1024,1024,1024,0,0,0,0,169.1,0,0,94,4.13,4.13,0,0,0,0,4.142,77.54,36.38155792274,11.48294,6,P-GPS,
11300,2025-05-04 19:20:12,0,0,11.48294,,,36.38155792274,16.076116,0,0,0,3,0,8.259,37.36580992274,12.467192,0,0,0,0,0,173.9, 0.2, -1.1,0,0,1024,1024,1024,1024,0,0,0,0,169.1,0,0,94,4.13,4.13,0,0,0,0,4.142,77.54,36.38155792274,11.48294,6,P-GPS,
11400,2025-05-04 19:20:12,0,0,11.48294,,,36.38155792274,16.076116,0,0,0,3,0,8.259,37.36580992274,12.467192,0,0,0,0,0,173.9, 0.3, -1.2,0,0,1024,1024,1024,1024,0,0,0,0,169.1,0,0,94,4.13,4.13,0,0,0,0,4.142,77.54,36.38155792274,11.48294,6,P-GPS,
11500,2025-05-04 19:20:12,0,0,11.48294,,,36.38155792274,16.076116,0,0,0,3,0,8.259,37.36580992274,12.467192,0,0,0,0,0,174, 0.4, -1.3,0,0,1024,1024,1024,1024,0,0,0,0,169.1,0,0,94,4.13,4.13,0,0,0,0,4.142,77.54,36.38155792274,11.48294,6,P-GPS,
11600,2025-05-04 19:20:12,0,0,11.48294,,,36.38155792274,16.076116,0,0,0,3,0,8.259,37.36580992274,12.467192,0,0,0,0,0,173.9, 0.4, -1.1,0,0,1024,1024,1024,1024,0,0,0,0,169.1,0,0,94,4.13,4.13,0,0,0,0,4.142,77.54,36.38155792274,11.48294,6,P-GPS,
11700,2025-05-04 19:20:12,0,0,11.48294,,,36.38155792274,16.076116,0,0,0,3,0,8.259,37.36580992274,12.467192,0,0,0,0,0,173.9, 0.4, -1.3,0,0,1024,1024,1024,1024,0,0,0,0,169.1,0,0,94,4.13,4.13,0,0,0,0,4.142,77.54,36.38155792274,11.48294,6,P-GPS,
11800,2025-05-04 19:20:12,0,0,11.48294,,,36.38155792274,16.076116,0,0,0,3,0,8.259,37.36580992274,12.467192,0,0,0,0,0,173.8, 0.9, -1.4,0,0,1024,1024,1024,1024,0,0,0,0,169.1,0,0,94,4.13,4.13,0,0,0,0,4.142,77.54,36.38155792274,11.48294,6,P-GPS,
11900,2025-05-04 19:20:12,0,0,11.48294,,,36.38155792274,16.076116,0,0,0,3,0,8.253,37.36580992274,12.467192,0,0,0,0,0,173.9, 1, -1.3,0,0,1024,1024,1024,1024,0,0,0,0,169.1,0,0,94,4.123,4.123,0,0,0,0,4.113,77.54,36.38155792274,11.48294,6,P-GPS,
12000,2025-05-04 19:20:12,0,0,11.48294,,,36.38155792274,16.076116,0,0,0,3,0,8.253,37.36580992274,12.467192,0,0,0,0,0,174, 1.2, -1.4,0,0,1024,1024,1024,1024,0,0,0,0,169.1,0,0,94,4.123,4.123,0,0,0,0,4.113,77.54,36.38155792274,11.48294,6,P-GPS,
12100,2025-05-04 19:20:12,0,0,11.48294,,,36.38155792274,16.076116,0,0,0,3,0,8.253,37.36580992274,12.467192,0,0,0,0,0,174, 1.3, -1.5,0,0,1024,1024,1024,1024,0,0,0,0,169.1,0,0,94,4.123,4.123,0,0,0,0,4.113,77.54,36.38155792274,11.48294,6,P-GPS,
12200,2025-05-04 19:20:12,0,0,11.48294,,,36.38155792274,16.076116,0,0,0,3,0,8.253,37.36580992274,12.467192,0,0,0,0,0,174, 1.3, -1.3,0,0,1024,1024,1024,1024,0,0,0,0,169.1,0,0,94,4.123,4.123,0,0,0,0,4.113,77.54,36.38155792274,11.48294,6,P-GPS,
12300,2025-05-04 19:20:13,0,0,11.48294,,,36.38155792274,16.076116,0,0,0,3,0,8.253,37.36580992274,12.467192,0,0,0,0,0,173.9, 1.6, -1.5,0,0,1024,1024,1024,1024,0,0,0,0,169.1,0,0,94,4.123,4.123,0,0,0,0,4.113,77.54,36.38155792274,11.48294,6,P-GPS,
12400,2025-05-04 19:20:13,0,0,11.48294,,,36.38155792274,16.076116,0,0,0,3,0,8.253,37.36580992274,12.467192,0,0,0,0,0,173.8, 1.5, -1.6,0,0,1024,1024,1024,1024,0,0,0,0,169.1,0,0,94,4.123,4.123,0,0,0,0,4.113,77.54,36.38155792274,11.48294,6,P-GPS,
12500,2025-05-04 19:20:13,0,0,11.48294,,,36.38155792274,16.076116,0,0,0,3,0,8.253,37.36580992274,12.467192,0,0,0,0,0,173.6, 1.7, -1.2,0,0,1024,1024,1024,1024,0,0,0,0,169.1,0,0,94,4.123,4.123,0,0,0,0,4.113,77.54,36.38155792274,11.48294,6,P-GPS,
12600,2025-05-04 19:20:13,0,0,11.48294,,,36.38155792274,16.076116,0,0,0,3,0,8.253,37.36580992274,12.467192,0,0,0,0,0,173.6, 1.3, -1.2,0,0,1024,1024,1024,1024,0,0,0,0,169.1,0,0,94,4.123,4.123,0,0,0,0,4.113,77.54,36.38155792274,11.48294,6,P-GPS,
12700,2025-05-04 19:20:13,0,0,11.48294,,,36.38155792274,16.076116,0,0,0,3,0,8.253,37.36580992274,12.467192,0,0,0,0,0,173.6, 1, -1.2,0,0,1024,1024,1024,1024,0,0,0,0,169.1,0,0,94,4.123,4.123,0,0,0,0,4.113,77.54,36.38155792274,11.48294,6,P-GPS,
12800,2025-05-04 19:20:13,0,0,11.48294,,,36.38155792274,16.076116,0,0,0,3,0,8.253,37.36580992274,12.467192,0,0,0,0,0,173.7, 0.7, -1.1,0,0,1024,1024,1024,1024,0,0,0,0,169.1,0,0,94,4.123,4.123,0,0,0,0,4.113,77.54,36.38155792274,11.48294,6,P-GPS,
12900,2025-05-04 19:20:13,0,0,11.48294,,,36.38155792274,16.076116,0,0,0,3,0,8.239,37.36580992274,12.467192,0,0,0,0,0,173.7, 0.6, -1.2,0,0,1024,1024,1024,1024,0,0,0,0,169.1,0,0,94,4.119,4.119,0,0,0,0,4.192,77.72,36.38155792274,11.48294,6,P-GPS,
13000,2025-05-04 19:20:13,0,0,11.48294,,,36.38155792274,16.076116,0,0,0,3,0,8.239,37.36580992274,12.467192,0,0,0,0,0,173.8, 0.6, -1.2,0,0,1024,1024,1024,1024,0,0,0,0,169.1,0,0,94,4.119,4.119,0,0,0,0,4.192,77.72,36.38155792274,11.48294,6,P-GPS,
13100,2025-05-04 19:20:13,0,0,11.48294,,,36.38155792274,16.076116,0,0,0,3,0,8.239,37.36580992274,12.467192,0,0,0,0,0,173.9, 0.3, -1.4,0,0,1024,1024,1024,1024,0,0,0,0,169.1,0,0,94,4.119,4.119,0,0,0,0,4.192,77.72,36.38155792274,11.48294,6,P-GPS,
13200,2025-05-04 19:20:14,0,0,11.48294,,,36.38155792274,16.076116,0,0,0,3,0,8.239,37.36580992274,12.467192,0,0,0,0,0,173.8, 0.5, -1.3,0,0,1024,1024,1024,1024,0,0,0,0,169.1,0,0,94,4.119,4.119,0,0,0,0,4.192,77.72,36.38155792274,11.48294,6,P-GPS,
13300,2025-05-04 19:20:14,0,0,11.48294,,,36.38155792274,16.076116,0,0,0,3,0,8.239,37.36580992274,12.467192,0,0,0,0,0,173.9, 0, -0.8,0,0,1024,1024,1024,1024,0,0,0,0,169.1,0,0,94,4.119,4.119,0,0,0,0,4.192,77.72,36.38155792274,11.48294,6,P-GPS,
13400,2025-05-04 19:20:14,0,0,11.48294,,,36.38155792274,16.076116,0,0,0,3,0,8.239,37.36580992274,12.467192,0,0,0,0,0,173.9, 0.3, -1.5,0,0,1024,1024,1024,1024,0,0,0,0,169.1,0,0,94,4.119,4.119,0,0,0,0,4.192,77.72,36.38155792274,11.48294,6,P-GPS,
13500,2025-05-04 19:20:14,0,0,11.48294,,,36.38155792274,16.076116,0,0,0,3,0,8.239,37.36580992274,12.467192,0,0,0,0,0,174, 0.6, -2.1,0,0,1024,1024,1024,1024,0,0,0,0,169.1,0,0,94,4.119,4.119,0,0,0,0,4.192,77.72,36.38155792274,11.48294,6,P-GPS,
13600,2025-05-04 19:20:14,0,0,11.48294,,,36.38155792274,16.076116,0,0,0,3,0,8.239,37.36580992274,12.467192,0,0,0,0,0,174, 0.6, -2.1,0,0,1024,1024,1024,1024,0,0,0,0,169.1,0,0,94,4.119,4.119,0,0,0,0,4.192,77.72,36.38155792274,11.48294,6,P-GPS,
13700,2025-05-04 19:20:14,0,0,11.48294,,,36.38155792274,16.076116,0,0,0,3,0,8.239,37.36580992274,12.467192,0,0,0,0,0,173.8, 0.4, -2.4,0,0,1024,1024,1024,1024,0,0,0,0,169.1,0,0,94,4.119,4.119,0,0,0,0,4.192,77.72,36.38155792274,11.48294,6,P-GPS,
13800,2025-05-04 19:20:14,0,0,11.48294,,,36.38155792274,16.076116,0,0,0,3,0,8.239,37.36580992274,12.467192,0,0,0,0,0,173.9, 0.8, -2.1,0,0,1024,1024,1024,1024,0,0,0,0,169.1,0,0,94,4.119,4.119,0,0,0,0,4.192,77.72,36.38155792274,11.48294,6,P-GPS,
13900,2025-05-04 19:20:14,0,0,11.48294,,,36.38155792274,16.076116,0,0,0,3,0,8.226,37.36580992274,12.467192,0,0,0,0,0,173.9, 1.7, -2.1,0,0,1024,1024,1024,1024,0,0,0,0,169.1,0,0,94,4.119,4.119,0,0,0,0,4.277,77.72,36.38155792274,11.48294,6,P-GPS,
14000,2025-05-04 19:20:14,0,0,11.48294,,,36.38155792274,16.076116,0,0,0,3,0,8.226,37.36580992274,12.467192,0,0,0,0,0,173.8, 1.1, -1.7,0,0,1024,1024,1024,1024,0,0,0,0,169.1,0,0,94,4.119,4.119,0,0,0,0,4.277,77.72,36.38155792274,11.48294,6,P-GPS,
14100,2025-05-04 19:20:14,0,0,11.48294,,,36.38155792274,16.076116,0,0,0,3,0,8.226,37.36580992274,12.467192,0,0,0,0,0,173.8, 0.9, -1.4,0,0,1024,1024,1024,1024,0,0,0,0,169.1,0,0,94,4.119,4.119,0,0,0,0,4.277,77.72,36.38155792274,11.48294,6,P-GPS,
14200,2025-05-04 19:20:14,0,0,11.48294,,,36.38155792274,16.076116,0,0,0,3,0,8.226,37.36580992274,12.467192,0,0,0,0,0,173.8, 0.8, -1.5,0,0,1024,1024,1024,1024,0,0,0,0,169.1,0,0,94,4.119,4.119,0,0,0,0,4.277,77.72,36.38155792274,11.48294,6,P-GPS,
14300,2025-05-04 19:20:15,0,0,11.48294,,,36.38155792274,16.076116,0,0,0,3,0,8.226,37.36580992274,12.467192,0,0,0,0,0,173.8, 0.6, -1.7,0,0,1024,1024,1024,1024,0,0,0,0,169.1,0,0,94,4.119,4.119,0,0,0,0,4.277,77.72,36.38155792274,11.48294,6,P-GPS,
14400,2025-05-04 19:20:15,0,0,11.48294,,,36.38155792274,16.076116,0,0,0,3,0,8.226,37.36580992274,12.467192,0,0,0,0,0,173.8, 0.1, -1.8,0,0,1024,1024,1684,1024,0,0,100,0,169.1,0,0,94,4.119,4.119,0,0,0,0,4.277,77.72,36.38155792274,11.48294,6,P-GPS,
14500,2025-05-04 19:20:15,0,0,11.48294,,,36.38155792274,16.076116,0,0,0,3,0,8.226,37.36580992274,12.467192,0,0,0,0,0,173.7, 0.3, -1.6,0,0,1024,1024,1684,1024,0,0,100,0,169.1,0,0,94,4.119,4.119,0,0,0,0,4.277,77.72,36.38155792274,11.48294,6,P-GPS,
14600,2025-05-04 19:20:15,0,0,11.48294,,,36.38155792274,16.076116,0,0,0,3,0,8.226,37.36580992274,12.467192,0,0,0,0,0,173.8, 0, -1.1,0,0,1024,1024,1684,1024,0,0,100,0,169.1,0,0,94,4.119,4.119,0,0,0,0,4.277,77.72,36.38155792274,11.48294,6,P-GPS,
14700,2025-05-04 19:20:15,0,0,11.48294,,,36.38155792274,16.076116,0,0,0,3,0,8.226,37.36580992274,12.467192,0,0,0,0,0,174, 0.1, -1.4,0,0,1024,1024,1684,1024,0,0,100,0,169.1,0,0,94,4.119,4.119,0,0,0,0,4.277,77.72,36.38155792274,11.48294,6,P-GPS,
14800,2025-05-04 19:20:15,0,0,11.48294,,,36.38155792274,16.076116,0,0,0,3,0,8.226,37.36580992274,12.467192,0,0,0,0,0,174, 0.8, -0.9,0,0,1024,1024,1684,1024,0,0,100,0,169.1,0,0,94,4.119,4.119,0,0,0,0,4.277,77.72,36.38155792274,11.48294,6,P-GPS,
14900,2025-05-04 19:20:15,0,0,11.48294,,,36.38155792274,16.4042,0,0,0,3,0,8.226,37.36580992274,12.467192,0,0,0,0,0,174, 0.7, -1.1,0,0,1024,1024,1684,1024,0,0,100,0,169.1,0,0,94,4.119,4.119,0,0,0,0,4.277,77.72,36.38155792274,11.48294,6,P-GPS,
15000,2025-05-04 19:20:15,0,0,11.48294,,,36.38155792274,16.4042,0,0,0,3,0,8.225,37.36580992274,12.467192,0,0,0,0,0,174, 0.7, -1.4,0,0,1024,1024,1684,1024,0,0,100,0,169.1,0,0,94,4.111,4.11,0,0,0,0,4.184,77.72,36.38155792274,11.48294,6,P-GPS,
15100,2025-05-04 19:20:15,0,0,11.154856,,,36.05347392274,16.4042,0,0,0,3,0,8.225,37.36580992274,12.467192,0,0,0,0,0,173.9, 1.1, -0.9,0,0,1024,1024,1684,1024,0,0,100,0,169.1,0,0,94,4.111,4.11,0,0,0,0,4.184,77.72,36.05347392274,11.154856,6,P-GPS,
15200,2025-05-04 19:20:15,0,0,11.154856,,,36.05347392274,16.4042,0,0,0,3,0,8.225,37.36580992274,12.467192,0,0,0,0,0,173.7, 1, -1.1,0,0,1024,1024,1150,1024,0,0,19,0,169.1,0,0,94,4.111,4.11,0,0,0,0,4.184,77.72,36.05347392274,11.154856,6,P-GPS,
15300,2025-05-04 19:20:16,0,0,11.154856,,,36.05347392274,16.4042,0,0,0,3,0,8.225,37.36580992274,12.467192,0,0,0,0,0,173.7, 0.7, -0.9,0,0,1024,1370,1024,1024,0,52,0,0,169.1,0,0,94,4.111,4.11,0,0,0,0,4.184,77.72,36.05347392274,11.154856,6,P-GPS,
15400,2025-05-04 19:20:16,0,0,11.154856,,,36.05347392274,16.4042,0,0,0,3,0,8.225,37.36580992274,12.467192,0,0,0,0,0,173.7, 0.4, -0.7,0,0,1024,1684,1024,1381,0,100,0,54,169.1,0,0,94,4.111,4.11,0,0,0,0,4.184,77.72,36.05347392274,11.154856,6,P-GPS,
15500,2025-05-04 19:20:16,0,0,11.154856,,,36.05347392274,16.4042,0,0,0,3,0,8.225,37.36580992274,12.467192,0,0,0,0,0,173.9, 0.6, 4.1,0,0,1024,1684,1349,1684,0,100,49,100,169.1,0,0,94,4.111,4.11,0,0,0,0,4.184,77.72,36.05347392274,11.154856,6,P-GPS,
15600,2025-05-04 19:20:16,0,0,11.154856,,,36.05347392274,16.4042,0.223694,0,0,3,0,8.225,37.36580992274,12.467192,0,0,0,-0.223694,0,174.6, 0.4, 12.8,0,0,1024,1417,1345,1684,0,60,49,100,170.5,0,0,94,4.111,4.11,0,0,0,0,4.184,77.72,36.05347392274,11.154856,6,P-GPS,
15700,2025-05-04 19:20:16,0,0,11.154856,,,36.05347392274,16.4042,0.671082,0,0,3,0,8.225,37.36580992274,12.467192,0,0,0,-0.671082,0,176.9, -0.5, 15.7,0,0,1024,1417,1345,1684,0,60,49,100,174.6,0,0,94,4.111,4.11,0,0,0,0,4.184,77.72,36.05347392274,11.154856,6,P-GPS,
15800,2025-05-04 19:20:16,0,0,11.154856,,,36.05347392274,16.4042,0.671082,0,0,3,0,8.225,37.36580992274,12.467192,0,0,0,-1.342164,0,181.2, -1, 12.7,0,0,1024,1024,1308,1684,0,0,43,100,179.3,0,0,94,4.111,4.11,0,0,0,0,4.184,77.72,36.05347392274,11.154856,6,P-GPS,
15900,2025-05-04 19:20:16,0,0,11.154856,,,36.05347392274,16.4042,1.789552,0,0,3,0,8.225,37.36580992274,12.467192,0,0,0,-1.789552,0,185.5, -0.1, 4.2,0,0,1024,1024,1124,1684,0,0,15,100,184.2,0,0,94,4.111,4.11,0,0,0,0,4.184,77.72,36.05347392274,11.154856,6,P-GPS,
16000,2025-05-04 19:20:16,0,0,11.154856,,,36.05347392274,16.4042,1.789552,0,0,3,0,8.234,37.36580992274,12.467192,0,0,0,-1.789552,0,190, 2, -6,0,0,1024,1024,1024,1024,0,0,0,0,189,0,0,94,4.109,4.104,0,0,0,0,4.159,77.72,36.05347392274,11.154856,6,P-GPS,
16100,2025-05-04 19:20:16,0,0,11.154856,,,36.05347392274,16.4042,1.565858,0,0,3,0,8.234,37.36580992274,12.467192,0,0,0,-1.565858,0,194.4, 2.7, -8.1,0,0,1024,1024,1024,1024,0,0,0,0,192.4,0,0,94,4.109,4.104,0,0,0,0,4.159,77.72,36.05347392274,11.154856,6,P-GPS,
16200,2025-05-04 19:20:16,0,0,11.154856,,,36.05347392274,16.4042,1.342164,0,0,3,0,8.234,37.36580992274,12.467192,0,0,0,-1.342164,0,197, 2.7, -7.8,0,0,1024,1024,1684,1024,0,0,100,0,193.8,0,0,94,4.109,4.104,0,0,0,0,4.159,77.72,36.05347392274,11.154856,6,P-GPS,
16300,2025-05-04 19:20:17,0,0,11.154856,,,36.05347392274,16.4042,1.11847,0,0,3,0,8.234,37.36580992274,12.467192,0,0,0,-1.11847,0,198.2, 2.7, -7.4,0,0,1024,1024,1684,1024,0,0,100,0,194.2,0,0,94,4.109,4.104,0,0,0,0,4.159,77.72,36.05347392274,11.154856,6,P-GPS,
16400,2025-05-04 19:20:17,0,0,11.154856,,,36.05347392274,16.4042,0.894776,0,0,3,0,8.234,37.36580992274,12.467192,0,0,0,-0.894776,0,198.5, 2.9, -6.6,0,0,1024,1024,1684,1205,0,0,100,27,194.2,0,0,94,4.109,4.104,0,0,0,0,4.159,77.72,36.05347392274,11.154856,6,P-GPS,
16500,2025-05-04 19:20:17,0,0,11.154856,,,36.05347392274,16.4042,0.447388,0,0,3,0,8.234,37.36580992274,12.467192,0,0,0,-0.447388,0,198.8, 2.6, -5,0,0,1024,1024,1684,1205,0,0,100,27,194.2,0,0,94,4.109,4.104,0,0,0,0,4.159,77.72,36.05347392274,11.154856,6,P-GPS,
16600,2025-05-04 19:20:17,0,0,11.154856,,,36.05347392274,16.4042,0.223694,0,0,3,0,8.234,37.36580992274,12.467192,0,0,0,-0.223694,0,199.2, 1.9, -3.7,0,0,1024,1024,1684,1280,0,0,100,39,194.3,0,0,94,4.109,4.104,0,0,0,0,4.159,77.72,36.05347392274,11.154856,6,P-GPS,
16700,2025-05-04 19:20:17,0,0,11.154856,,,36.05347392274,16.4042,0.223694,0,0,3,0,8.234,37.36580992274,12.467192,0,0,0,-0.223694,0,199.7, 1.7, -2.7,0,0,1024,1024,1684,1086,0,0,100,9,194.9,0,0,94,4.109,4.104,0,0,0,0,4.159,77.72,36.05347392274,11.154856,6,P-GPS,
16800,2025-05-04 19:20:17,0,0,11.154856,,,36.05347392274,16.4042,0.223694,0,0,3,0,8.234,37.36580992274,12.467192,0,0,0,-0.223694,0,200.2, 1.8, -2.8,0,0,1024,1024,1267,1024,0,0,37,0,195.6,0,0,94,4.109,4.104,0,0,0,0,4.159,77.72,36.05347392274,11.154856,6,P-GPS,
16900,2025-05-04 19:20:17,0,0,11.154856,,,36.05347392274,16.4042,0,0,0,3,0,8.234,37.36580992274,12.467192,0,0,0,0,0,200.6, 1, -3.2,0,0,1024,1024,1024,1024,0,0,0,0,195.9,0,0,94,4.109,4.104,0,0,0,0,4.159,77.72,36.05347392274,11.154856,6,P-GPS,
17000,2025-05-04 19:20:17,0,0,11.154856,,,36.05347392274,16.4042,0,0,0,3,0,8.217,37.36580992274,12.467192,0,0,0,0,0,201, 0.8, -2.4,0,0,1024,1024,1024,1024,0,0,0,0,196,0,0,94,4.111,4.112,0,0,0,0,4.293,77.9,36.05347392274,11.154856,6,P-GPS,
17100,2025-05-04 19:20:17,0,0,11.154856,,,36.05347392274,16.4042,0,0,0,3,0,8.217,37.36580992274,12.467192,0,0,0,0,0,201, 0.9, -2.7,0,0,1024,1024,1366,1024,0,0,52,0,196,0,0,94,4.111,4.112,0,0,0,0,4.293,77.9,36.05347392274,11.154856,6,P-GPS,
17200,2025-05-04 19:20:17,0,0,11.154856,,,36.05347392274,16.4042,0,0,0,3,0,8.217,37.36580992274,12.467192,0,0,0,0,0,200.9, 0.7, -1.8,0,0,1024,1024,1684,1024,0,0,100,0,196,0,0,94,4.111,4.112,0,0,0,0,4.293,77.9,36.05347392274,11.154856,6,P-GPS,
17300,2025-05-04 19:20:18,0,0,11.154856,,,36.05347392274,16.4042,0,0,0,3,0,8.217,37.36580992274,12.467192,0,0,0,0,0,200.9, 0.8, -1,0,0,1024,1024,1684,1024,0,0,100,0,196,0,0,94,4.111,4.112,0,0,0,0,4.293,77.9,36.05347392274,11.154856,6,P-GPS,
17400,2025-05-04 19:20:18,0,0,11.154856,,,36.05347392274,16.4042,0,0,0,3,0,8.217,37.36580992274,12.467192,0,0,0,0,0,200.9, 0.7, -0.6,0,0,1024,1024,1684,1024,0,0,100,0,196,0,0,94,4.111,4.112,0,0,0,0,4.293,77.9,36.05347392274,11.154856,6,P-GPS,
17500,2025-05-04 19:20:18,0,0,11.154856,,,36.05347392274,16.4042,0,0,0,3,0,8.217,37.36580992274,12.467192,0,0,0,0,0,200.8, 0.5, -0.8,0,0,1024,1024,1684,1024,0,0,100,0,196,0,0,94,4.111,4.112,0,0,0,0,4.293,77.9,36.05347392274,11.154856,6,P-GPS,
17600,2025-05-04 19:20:18,0,0,11.154856,,,36.05347392274,16.4042,0,0,0,3,0,8.217,37.36580992274,12.467192,0,0,0,0,0,200.9, 0.2, -0.6,0,0,1024,1024,1684,1024,0,0,100,0,196,0,0,94,4.111,4.112,0,0,0,0,4.293,77.9,36.05347392274,11.154856,6,P-GPS,
17700,2025-05-04 19:20:18,0,0,11.154856,,,36.05347392274,16.4042,0,0,0,3,0,8.217,37.36580992274,12.467192,0,0,0,0,0,201, 0.1, -0.6,0,0,1024,1024,1684,1024,0,0,100,0,196,0,0,94,4.111,4.112,0,0,0,0,4.293,77.9,36.05347392274,11.154856,6,P-GPS,
17800,2025-05-04 19:20:18,0,0,11.154856,,,36.05347392274,16.4042,0,0,0,3,0,8.217,37.36580992274,12.467192,0,0,0,0,0,200.9, 0.6, -0.9,0,0,1024,1024,1684,1024,0,0,100,0,196,0,0,94,4.111,4.112,0,0,0,0,4.293,77.9,36.05347392274,11.154856,6,P-GPS,
17900,2025-05-04 19:20:18,0,0,11.154856,,,36.05347392274,16.4042,0,0,0,3,0,8.217,37.36580992274,12.467192,0,0,0,0,0,201, 0.4, -0.7,0,0,1024,1024,1443,1024,0,0,63,0,196,0,0,94,4.111,4.112,0,0,0,0,4.293,77.9,36.05347392274,11.154856,6,P-GPS,
18000,2025-05-04 19:20:18,0,0,11.154856,,,36.05347392274,16.4042,0,0,0,3,0,8.227,37.36580992274,12.467192,0,0,0,0,0,201.2, 0.2, -0.7,0,0,1024,1024,1024,1024,0,0,0,0,196,0,0,94,4.111,4.11,0,0,0,0,4.099,77.9,36.05347392274,11.154856,6,P-GPS,
18100,2025-05-04 19:20:18,0,0,11.154856,,,36.05347392274,16.4042,0,0,0,3,0,8.227,37.36580992274,12.467192,0,0,0,0,0,201.2, 0, -1,0,0,1024,1024,1024,1024,0,0,0,0,196,0,0,94,4.111,4.11,0,0,0,0,4.099,77.9,36.05347392274,11.154856,6,P-GPS,
18200,2025-05-04 19:20:18,0,0,11.154856,,,36.05347392274,16.4042,0,0,0,3,0,8.227,37.36580992274,12.467192,0,0,0,0,0,201.1, 0, -0.9,0,0,1024,1024,1024,1024,0,0,0,0,196,0,0,94,4.111,4.11,0,0,0,0,4.099,77.9,36.05347392274,11.154856,6,P-GPS,
18300,2025-05-04 19:20:19,0,0,11.154856,,,36.05347392274,16.4042,0,0,0,3,0,8.227,37.36580992274,12.467192,0,0,0,0,0,201.2, 0, -0.4,0,0,1024,1024,1024,940,0,0,0,-13,196,0,0,94,4.111,4.11,0,0,0,0,4.099,77.9,36.05347392274,11.154856,6,P-GPS,
18400,2025-05-04 19:20:19,0,0,11.154856,,,36.05347392274,16.4042,0,0,0,3,0,8.227,37.36580992274,12.467192,0,0,0,0,0,201.1, 0.3, -0.6,0,0,1024,1024,1024,364,0,0,0,-100,196,0,0,94,4.111,4.11,0,0,0,0,4.099,77.9,36.05347392274,11.154856,6,P-GPS,
18500,2025-05-04 19:20:19,0,0,11.154856,,,36.05347392274,16.4042,0,0,0,3,0,8.227,37.36580992274,12.467192,0,0,0,0,0,201.1, 0.4, -0.2,0,0,1024,1024,1024,364,0,0,0,-100,195.6,0,0,94,4.111,4.11,0,0,0,0,4.099,77.9,36.05347392274,11.154856,6,P-GPS,
18600,2025-05-04 19:20:19,0,0,11.154856,,,36.05347392274,16.4042,0,0,0,3,0,8.227,37.36580992274,12.467192,0,0,0,0,0,199.9, 0.5, 0.1,0,0,1024,1024,1024,364,0,0,0,-100,192.7,0,0,94,4.111,4.11,0,0,0,0,4.099,77.9,36.05347392274,11.154856,6,P-GPS,
18700,2025-05-04 19:20:19,0,0,11.154856,,,36.05347392274,16.4042,0,0,0,3,0,8.227,37.36580992274,12.467192,0,0,0,0,0,196, 0.6, -0.1,0,0,1024,1024,1024,466,0,0,0,-85,188.1,0,0,94,4.111,4.11,0,0,0,0,4.099,77.9,36.05347392274,11.154856,6,P-GPS,
18800,2025-05-04 19:20:19,0,0,11.154856,,,36.05347392274,16.4042,0,0,0,3,0,8.227,37.36580992274,12.467192,0,0,0,0,0,191.4, 0.6, -0.3,0,0,1024,1024,1024,1024,0,0,0,0,183.5,0,0,94,4.111,4.11,0,0,0,0,4.099,77.9,36.05347392274,11.154856,6,P-GPS,
18900,2025-05-04 19:20:19,0,0,11.154856,,,36.05347392274,16.4042,0,0,0,3,0,8.227,37.36580992274,12.467192,0,0,0,0,0,187.4, 0.7, 0,0,0,1024,1024,1024,1024,0,0,0,0,180.7,0,0,94,4.111,4.11,0,0,0,0,4.099,77.9,36.05347392274,11.154856,6,P-GPS,
19000,2025-05-04 19:20:19,0,0,11.154856,,,36.05347392274,16.4042,0,0,0,3,0,8.224,37.36580992274,12.467192,0,0,0,0,0,185.6, 0.6, -0.3,0,0,1024,1024,1024,1024,0,0,0,0,179.4,0,0,93,4.108,4.111,0,0,0,0,4.07,77.9,36.05347392274,11.154856,6,P-GPS,
19100,2025-05-04 19:20:19,0,0,11.154856,,,36.05347392274,16.4042,0,0,0,3,0,8.224,37.36580992274,12.467192,0,0,0,0,0,184.6, 0.5, -0.2,0,0,1024,1024,1024,1001,0,0,0,-3,179.2,0,0,93,4.108,4.111,0,0,0,0,4.07,77.9,36.05347392274,11.154856,6,P-GPS,
19200,2025-05-04 19:20:19,0,0,11.154856,,,36.05347392274,16.4042,0,0,0,3,0,8.224,37.36580992274,12.467192,0,0,0,0,0,184.5, 0.4, -0.2,0,0,1024,1024,1024,364,0,0,0,-100,179.1,0,0,93,4.108,4.111,0,0,0,0,4.07,77.9,36.05347392274,11.154856,6,P-GPS,
19300,2025-05-04 19:20:20,0,0,11.154856,,,36.05347392274,16.4042,0,0,0,3,0,8.224,37.36580992274,12.467192,0,0,0,0,0,184.4, 0.3, -0.1,0,0,1024,1024,1024,364,0,0,0,-100,179,0,0,93,4.108,4.111,0,0,0,0,4.07,77.9,36.05347392274,11.154856,6,P-GPS,
19400,2025-05-04 19:20:20,0,0,11.154856,,,36.05347392274,16.4042,0,0,0,3,0,8.224,37.36580992274,12.467192,0,0,0,0,0,183.7, 0.1, 0,0,0,1024,1024,1024,364,0,0,0,-100,176.8,0,0,93,4.108,4.111,0,0,0,0,4.07,77.9,36.05347392274,11.154856,6,P-GPS,
19500,2025-05-04 19:20:20,0,0,11.154856,,,36.05347392274,16.4042,0,0,0,3,0,8.224,37.36580992274,12.467192,0,0,0,0,0,180.4, 0.1, 0,0,0,1024,1024,1024,364,0,0,0,-100,172.5,0,0,93,4.108,4.111,0,0,0,0,4.07,77.9,36.05347392274,11.154856,6,P-GPS,
19600,2025-05-04 19:20:20,0,0,11.154856,,,36.05347392274,16.4042,0,0,0,3,0,8.224,37.36580992274,12.467192,0,0,0,0,0,175.8, 0.1, -0.2,0,0,1024,1024,1024,364,0,0,0,-100,167.7,0,0,93,4.108,4.111,0,0,0,0,4.07,77.9,36.05347392274,11.154856,6,P-GPS,
19700,2025-05-04 19:20:20,0,0,11.154856,,,36.05347392274,16.4042,0,0,0,3,0,8.224,37.36580992274,12.467192,0,0,0,0,0,171.1, 0.5, -0.2,0,0,1024,1024,1024,364,0,0,0,-100,162.9,0,0,93,4.108,4.111,0,0,0,0,4.07,77.9,36.05347392274,11.154856,6,P-GPS,
19800,2025-05-04 19:20:20,0,0,11.154856,,,36.05347392274,16.4042,0,0,0,3,0,8.224,37.36580992274,12.467192,0,0,0,0,0,166.5, 0.8, 0,0,0,1024,1024,1024,364,0,0,0,-100,158.1,0,0,93,4.108,4.111,0,0,0,0,4.07,77.9,36.05347392274,11.154856,6,P-GPS,
19900,2025-05-04 19:20:20,0,0,11.154856,,,36.05347392274,16.4042,0,0,0,3,0,8.224,37.36580992274,12.467192,0,0,0,0,0,161.8, 0.5, -0.2,0,0,1024,1024,1024,966,0,0,0,-9,153.3,0,0,93,4.108,4.111,0,0,0,0,4.07,77.9,36.05347392274,11.154856,6,P-GPS,
20000,2025-05-04 19:20:20,0,0,11.154856,,,36.05347392274,16.4042,0,0,0,3,0,8.224,37.36580992274,12.467192,0,0,0,0,0,157.2, 0.3, 0,0,0,1024,1024,1024,1024,0,0,0,0,149.5,0,0,93,4.108,4.111,0,0,0,0,4.07,77.9,36.05347392274,11.154856,6,P-GPS,
20100,2025-05-04 19:20:20,0,0,11.154856,,,36.05347392274,16.4042,0,0,0,3,0,8.215,37.36580992274,12.467192,0,0,0,0,0,154.6, 0.4, -0.3,0,0,1024,1024,1024,1024,0,0,0,0,148.2,0,0,93,4.108,4.108,0,0,0,0,4.05,78.08,36.05347392274,11.154856,6,P-GPS,
20200,2025-05-04 19:20:20,0,0,11.154856,,,36.05347392274,16.4042,0,0,0,3,0,8.215,37.36580992274,12.467192,0,0,0,0,0,153.4, 0.4, -0.3,0,0,1024,1024,1024,1024,0,0,0,0,147.6,0,0,93,4.108,4.108,0,0,0,0,4.05,78.08,36.05347392274,11.154856,6,P-GPS,
20300,2025-05-04 19:20:21,0,0,11.154856,,,36.05347392274,16.4042,0,0,0,3,0,8.215,37.36580992274,12.467192,0,0,0,0,0,153, 0.2, -0.2,0,0,1024,1024,1024,1024,0,0,0,0,147.6,0,0,93,4.108,4.108,0,0,0,0,4.05,78.08,36.05347392274,11.154856,6,P-GPS,
20400,2025-05-04 19:20:21,0,0,11.154856,,,36.05347392274,16.4042,0,0,0,3,0,8.215,37.36580992274,12.467192,0,0,0,0,0,153, 0, -0.3,0,0,1024,1024,1024,1024,0,0,0,0,147.6,0,0,93,4.108,4.108,0,0,0,0,4.05,78.08,36.05347392274,11.154856,6,P-GPS,
20500,2025-05-04 19:20:21,0,0,11.154856,,,36.05347392274,16.4042,0,0,0,3,0,8.215,37.36580992274,12.467192,0,0,0,0,0,152.9, 0.2, -0.4,0,0,1024,1024,1024,1024,0,0,0,0,147.6,0,0,93,4.108,4.108,0,0,0,0,4.05,78.08,36.05347392274,11.154856,6,P-GPS,
20600,2025-05-04 19:20:21,0,0,11.154856,,,36.05347392274,16.4042,0,0,0,3,0,8.215,37.36580992274,12.467192,0,0,0,0,0,152.7, 0, -0.8,0,0,1024,1024,1024,1024,0,0,0,0,147.6,0,0,93,4.108,4.108,0,0,0,0,4.05,78.08,36.05347392274,11.154856,6,P-GPS,
20700,2025-05-04 19:20:21,0,0,11.154856,,,36.05347392274,16.4042,0,0,0,3,0,8.215,37.36580992274,12.467192,0,0,0,0,0,152.8, 0, 0.1,0,0,1024,1024,1024,1024,0,0,0,0,147.6,0,0,93,4.108,4.108,0,0,0,0,4.05,78.08,36.05347392274,11.154856,6,P-GPS,
20800,2025-05-04 19:20:21,0,0,11.154856,,,36.05347392274,16.4042,0,0,0,3,0,8.215,37.36580992274,12.467192,0,0,0,0,0,152.7, -0.1, 0,0,0,1024,1024,1024,1024,0,0,0,0,147.6,0,0,93,4.108,4.108,0,0,0,0,4.05,78.08,36.05347392274,11.154856,6,P-GPS,
20900,2025-05-04 19:20:21,0,0,11.154856,,,36.05347392274,16.4042,0,0,0,3,0,8.215,37.36580992274,12.467192,0,0,0,0,0,152.6, -0.4, -0.3,0,0,1024,1024,1024,1024,0,0,0,0,147.6,0,0,93,4.108,4.108,0,0,0,0,4.05,78.08,36.05347392274,11.154856,6,P-GPS,
21000,2025-05-04 19:20:21,0,0,11.154856,,,36.05347392274,16.4042,0,0,0,3,0,8.215,37.36580992274,12.467192,0,0,0,0,0,152.7, 0, -0.7,0,0,1024,1024,1024,1024,0,0,0,0,147.6,0,0,93,4.108,4.108,0,0,0,0,4.05,78.08,36.05347392274,11.154856,6,P-GPS,
21100,2025-05-04 19:20:21,0,0,11.154856,,,36.05347392274,16.4042,0.223694,0,0,3,0,8.21,37.36580992274,12.467192,0,0,0,-0.223694,0,152.8, 0.5, -1.5,0,0,1024,1024,1024,1024,0,0,0,0,147.6,0,0,93,4.103,4.101,0,0,0,0,4.072,78.08,36.05347392274,11.154856,6,P-GPS,
21200,2025-05-04 19:20:22,0,0,11.154856,,,36.05347392274,16.4042,0.223694,0,0,3,0,8.21,37.36580992274,12.467192,0,0,0,-0.223694,0,152.7, 0.7, -2,0,0,1024,1024,1024,1024,0,0,0,0,147.6,0,0,93,4.103,4.101,0,0,0,0,4.072,78.08,36.05347392274,11.154856,6,P-GPS,
21300,2025-05-04 19:20:22,0,0,11.154856,,,36.05347392274,16.4042,0.223694,0,0,3,0,8.21,37.36580992274,12.467192,0,0,0,-0.223694,0,152.7, 0.4, -2.5,0,0,1024,1024,1024,1024,0,0,0,0,147.6,0,0,93,4.103,4.101,0,0,0,0,4.072,78.08,36.05347392274,11.154856,6,P-GPS,
21400,2025-05-04 19:20:22,0,0,11.154856,,,36.05347392274,16.4042,0,0,0,3,0,8.21,37.36580992274,12.467192,0,0,0,0,0,152.7, 0.3, -2.4,0,0,1024,1024,1024,1024,0,0,0,0,147.6,0,0,93,4.103,4.101,0,0,0,0,4.072,78.08,36.05347392274,11.154856,6,P-GPS,
21500,2025-05-04 19:20:22,0,0,11.154856,,,36.05347392274,16.4042,0,0,0,3,0,8.21,37.36580992274,12.467192,0,0,0,0,0,152.7, 0.6, -3.2,0,0,1024,1024,1024,1024,0,0,0,0,147.6,0,0,93,4.103,4.101,0,0,0,0,4.072,78.08,36.05347392274,11.154856,6,P-GPS,
21600,2025-05-04 19:20:22,0,0,11.154856,,,36.05347392274,16.4042,0,0,0,3,0,8.21,37.36580992274,12.467192,0,0,0,0,0,152.7, 0.5, -3.3,0,0,1024,1024,1024,1024,0,0,0,0,147.6,0,0,93,4.103,4.101,0,0,0,0,4.072,78.08,36.05347392274,11.154856,6,P-GPS,
21700,2025-05-04 19:20:22,0,0,11.154856,,,36.05347392274,16.4042,0,0,0,3,0,8.21,37.36580992274,12.467192,0,0,0,0,0,152.7, 0.6, -2.9,0,0,1024,1024,1024,1024,0,0,0,0,147.6,0,0,93,4.103,4.101,0,0,0,0,4.072,78.08,36.05347392274,11.154856,6,P-GPS,
21800,2025-05-04 19:20:22,0,0,11.154856,,,36.05347392274,16.4042,0,0,0,3,0,8.21,37.36580992274,12.467192,0,0,0,0,0,152.7, 1, -2.4,0,0,1024,1024,1024,1024,0,0,0,0,147.6,0,0,93,4.103,4.101,0,0,0,0,4.072,78.08,36.05347392274,11.154856,6,P-GPS,
21900,2025-05-04 19:20:22,0,0,11.154856,,,36.05347392274,16.4042,0,0,0,3,0,8.21,37.36580992274,12.467192,0,0,0,0,0,152.7, 1.2, -2.1,0,0,1024,1024,1024,1024,0,0,0,0,147.6,0,0,93,4.103,4.101,0,0,0,0,4.072,78.08,36.05347392274,11.154856,6,P-GPS,
22000,2025-05-04 19:20:22,0,0,11.154856,,,36.05347392274,16.4042,0,0,0,3,0,8.21,37.36580992274,12.467192,0,0,0,0,0,152.7, 1.2, -1.7,0,0,1024,1024,1024,1024,0,0,0,0,147.6,0,0,93,4.103,4.101,0,0,0,0,4.072,78.08,36.05347392274,11.154856,6,P-GPS,
22100,2025-05-04 19:20:22,0,0,11.154856,,,36.05347392274,16.4042,0,0,0,3,0,8.202,37.36580992274,12.467192,0,0,0,0,0,152.6, 0.9, -1.8,0,0,1024,1024,1024,1024,0,0,0,0,147.6,0,0,93,4.099,4.099,0,0,0,0,4.182,78.08,36.05347392274,11.154856,6,P-GPS,
22200,2025-05-04 19:20:22,0,0,11.154856,,,36.05347392274,16.4042,0,0,0,3,0,8.202,37.36580992274,12.467192,0,0,0,0,0,152.6, 0.8, -0.6,0,0,1024,1024,1024,1020,0,0,0,-1,147.6,0,0,93,4.099,4.099,0,0,0,0,4.182,78.08,36.05347392274,11.154856,6,P-GPS,
22300,2025-05-04 19:20:23,0,0,11.154856,,,36.05347392274,16.4042,0,0,0,3,0,8.202,37.36580992274,12.467192,0,0,0,0,0,152.6, 0.5, 0.2,0,0,1024,1024,1024,677,0,0,0,-53,147.6,0,0,93,4.099,4.099,0,0,0,0,4.182,78.08,36.05347392274,11.154856,6,P-GPS,
22400,2025-05-04 19:20:23,0,0,11.154856,,,36.05347392274,16.4042,0,0,0,3,0,8.202,37.36580992274,12.467192,0,0,0,0,0,152.5, 0.5, 0.1,0,0,1024,1024,1024,364,0,0,0,-100,147.5,0,0,93,4.099,4.099,0,0,0,0,4.182,78.08,36.05347392274,11.154856,6,P-GPS,
22500,2025-05-04 19:20:23,0,0,11.154856,,,36.05347392274,16.4042,0,0,0,3,0,8.202,37.36580992274,12.467192,0,0,0,0,0,152, 0.5, -0.5,0,0,1024,1024,1024,364,0,0,0,-100,146.1,0,0,93,4.099,4.099,0,0,0,0,4.182,78.08,36.05347392274,11.154856,6,P-GPS,
22600,2025-05-04 19:20:23,0,0,11.154856,,,36.05347392274,16.4042,0,0,0,3,0,8.202,37.36580992274,12.467192,0,0,0,0,0,149.6, 0.3, -0.6,0,0,1024,1024,1024,364,0,0,0,-100,142.1,0,0,93,4.099,4.099,0,0,0,0,4.182,78.08,36.05347392274,11.154856,6,P-GPS,
22700,2025-05-04 19:20:23,0,0,11.154856,,,36.05347392274,16.4042,0,0,0,3,0,8.202,37.36580992274,12.467192,0,0,0,0,0,145.3, 0.2, -0.8,0,0,1024,1024,1024,364,0,0,0,-100,137.4,0,0,93,4.099,4.099,0,0,0,0,4.182,78.08,36.05347392274,11.154856,6,P-GPS,
22800,2025-05-04 19:20:23,0,0,11.154856,,,36.05347392274,16.4042,0,0,0,3,0,8.202,37.36580992274,12.467192,0,0,0,0,0,140.7, -0.4, -0.9,0,0,1024,1024,1024,364,0,0,0,-100,132.6,0,0,93,4.099,4.099,0,0,0,0,4.182,78.08,36.05347392274,11.154856,6,P-GPS,
22900,2025-05-04 19:20:23,0,0,11.154856,,,36.05347392274,16.4042,0,0,0,3,0,8.202,37.36580992274,12.467192,0,0,0,0,0,136.1, -0.5, -1,0,0,1024,1024,1024,364,0,0,0,-100,127.8,0,0,93,4.099,4.099,0,0,0,0,4.182,78.08,36.05347392274,11.154856,6,P-GPS,
23000,2025-05-04 19:20:23,0,0,11.154856,,,36.05347392274,16.4042,0,0,0,3,0,8.202,37.36580992274,12.467192,0,0,0,0,0,131.4, -0.8, -0.9,0,0,1024,1024,1024,364,0,0,0,-100,123,0,0,93,4.099,4.099,0,0,0,0,4.182,78.08,36.05347392274,11.154856,6,P-GPS,
23100,2025-05-04 19:20:23,0,0,11.154856,,,36.05347392274,16.4042,0,0,0,3,0,8.194,37.36580992274,12.467192,0,0,0,0,0,126.7, -1.1, -0.2,0,0,1024,1024,1024,364,0,0,0,-100,118.2,0,0,93,4.1,4.099,0,0,0,0,4.23,78.26,36.05347392274,11.154856,6,P-GPS,
23200,2025-05-04 19:20:23,0,0,11.154856,,,36.05347392274,16.4042,0,0,0,3,0,8.194,37.36580992274,12.467192,0,0,0,0,0,121.7, -0.7, 0.7,0,0,1024,1024,1024,364,0,0,0,-100,113.4,0,0,93,4.1,4.099,0,0,0,0,4.23,78.26,36.05347392274,11.154856,6,P-GPS,
23300,2025-05-04 19:20:24,0,0,11.154856,,,36.05347392274,16.4042,0,0,0,3,0,8.194,37.36580992274,12.467192,0,0,0,0,0,116.9, -0.3, 0.7,0,0,1024,1024,1024,364,0,0,0,-100,108.6,0,0,93,4.1,4.099,0,0,0,0,4.23,78.26,36.05347392274,11.154856,6,P-GPS,
23400,2025-05-04 19:20:24,0,0,11.154856,,,36.05347392274,16.4042,0,0,0,3,0,8.194,37.36580992274,12.467192,0,0,0,0,0,112.1, -0.3, 0.9,0,0,1024,1024,1024,364,0,0,0,-100,103.8,0,0,93,4.1,4.099,0,0,0,0,4.23,78.26,36.05347392274,11.154856,6,P-GPS,
