time(millisecond),datetime(utc),latitude,longitude,height_above_takeoff(feet),height_above_ground_at_drone_location(feet),ground_elevation_at_drone_location(feet),altitude_above_seaLevel(feet),height_sonar(feet),speed(mph),distance(feet),mileage(feet),satellites,gpslevel,voltage(v),max_altitude(feet),max_ascent(feet),max_speed(mph),max_distance(feet), xSpeed(mph), ySpeed(mph), zSpeed(mph), compass_heading(degrees), pitch(degrees), roll(degrees),isPhoto,isVideo,rc_elevator,rc_aileron,rc_throttle,rc_rudder,rc_elevator(percent),rc_aileron(percent),rc_throttle(percent),rc_rudder(percent),gimbal_heading(degrees),gimbal_pitch(degrees),gimbal_roll(degrees),battery_percent,voltageCell1,voltageCell2,voltageCell3,voltageCell4,voltageCell5,voltageCell6,current(A),battery_temperature(f),altitude(feet),ascent(feet),flycStateRaw,flycState,message
110600,2022-09-03 18:41:19,-34.8657003421863,-55.2576143061445,0,0,448.81751633066,448.91594153066,0,0,0,0,15,5,0,448.91594153066,0,0,0,1.789552,-0.447388,0,24.6, 1.9, 1.6,0,0,364,364,364,1684,-100,-100,-100,100,41.9,0,0,78,4.064,4.058,0,0,0,0,0,78.98,448.91594153066,0,41,Motors_Started,"En vuelo"
110700,2022-09-03 18:41:19,-34.8656996812464,-55.2576143867559,0,0,448.81751633066,448.91594153066,0,1.8342908,0.242347776784,0.242347776784,15,5,0,448.91594153066,0,1.8342908,0.242347776784,1.789552,-0.447388,0,23.1, 1.3, 3,0,0,364,364,364,1684,-100,-100,-100,100,39.8,0,0,78,4.064,4.058,0,0,0,0,0,78.98,448.91594153066,0,41,Motors_Started,
110800,2022-09-03 18:41:19,-34.8656989951667,-55.2576145312919,0,-0.032808400000063,448.85032473066,448.91594153066,0.328084,1.7000744,0.49605972716,0.4963746878,15,5,0,448.91594153066,0,1.8342908,0.49605972716,1.565858,-0.671082,0,21, 1, 4.2,0,0,364,364,364,1684,-100,-100,-100,100,37.5,0,0,78,4.064,4.058,0,0,0,0,0,78.98,448.91594153066,0,41,Motors_Started,
110900,2022-09-03 18:41:19,-34.8656984239542,-55.2576146230724,0,-0.098425200000004,448.91594153066,448.91594153066,0.328084,1.4092722,0.7062664268,0.70658466828,15,5,0,448.91594153066,0,1.8342908,0.7062664268,1.342164,-0.447388,-0.447388,16.8, 2.3, 6,0,0,364,364,364,1684,-100,-100,-100,100,34.1,0,0,78,4.064,4.058,0,0,0,0,0,78.98,448.91594153066,0,41,Motors_Started,
111000,2022-09-03 18:41:19,-34.8656979016959,-55.2576148616213,0,-0.098425200000004,448.91594153066,448.91594153066,0.328084,1.11847,0.90580383476,0.9100722076,15,5,0,448.91594153066,0,1.8342908,0.90580383476,0.894776,-0.671082,-0.447388,14.8, 4, 4.9,0,0,364,364,364,1684,-100,-100,-100,100,30.9,0,0,78,4.064,4.058,0,0,0,0,0,78.98,448.91594153066,0,41,Motors_Started,
111100,2022-09-03 18:41:19,-34.8656974288739,-55.2576150959077,0,-0.19685040000001,449.01436673066,448.91594153066,0.328084,0.9395148,1.0888943918,1.096292686,15,5,0,448.91594153066,0,1.8342908,1.0888943918,0.671082,-0.671082,-0.223694,12.6, 5.4, 3.1,0,0,364,364,364,1684,-100,-100,-100,100,28.6,0,0,78,4.064,4.058,0,0,0,0,0,78.98,448.91594153066,0,41,Motors_Started,
111200,2022-09-03 18:41:19,-34.8656971085101,-55.2576152902298,0,-0.19685040000001,449.01436673066,448.91594153066,0.328084,0.6263432,1.2160269418,1.2268537138,15,5,8.147,448.91594153066,0,1.8342908,1.2160269418,0.447388,-0.447388,0,10.6, 5.3, 2.3,0,0,364,364,364,1684,-100,-100,-100,100,26.5,0,0,78,4.064,4.058,0,0,0,0,0.594,78.98,448.91594153066,0,41,Motors_Started,
111300,2022-09-03 18:41:19,-34.8656971321616,-55.2576151578801,0,-0.19685040000001,449.01436673066,448.91594153066,0.328084,0.4921268,1.19860896224,1.26740161536,15,5,8.147,448.91594153066,0,1.8342908,1.2160269418,0.223694,-0.447388,0,9.9, 4.5, 2.1,0,0,364,364,364,1684,-100,-100,-100,100,25,0,0,78,4.064,4.058,0,0,0,0,0.594,78.98,448.91594153066,0,41,Motors_Started,
111400,2022-09-03 18:41:19,-34.8656970688803,-55.2576152447578,0,-0.19685040000001,449.01436673066,448.91594153066,0.328084,0.3131716,1.22687339884,1.30217851936,16,5,8.147,448.91594153066,0,1.8342908,1.22687339884,0.223694,-0.223694,0,9.1, 2.7, 3.1,0,0,364,364,364,1684,-100,-100,-100,100,24.2,0,0,78,4.064,4.058,0,0,0,0,0.594,78.98,448.91594153066,0,41,Motors_Started,
111500,2022-09-03 18:41:19,-34.8656969717306,-55.2576154185544,0,-0.19685040000001,449.01436673066,448.91594153066,0.328084,0.223694,1.2739993846,1.36513455812,16,5,8.147,448.91594153066,0,1.8342908,1.2739993846,0.223694,0,0,7.3, 2.8, 3.2,0,0,364,364,364,1684,-100,-100,-100,100,22.9,0,0,78,4.064,4.058,0,0,0,0,0.594,78.98,448.91594153066,0,41,Motors_Started,"Setting new Return-To-Home altitude to 60m (197 ft). Data Recorder File Index is 50. Setting new Maximum Flight Altitude to 120m (394 ft)"
111600,2022-09-03 18:41:20,-34.8656969566154,-55.2576155883157,0,-0.13123360000007,448.94874993066,448.91594153066,0.328084,0.223694,0.72556760852,1.41625004532,15,5,8.147,448.91594153066,0,1.8342908,1.2739993846,0.223694,0,0,6.9, 2, 2.9,0,0,364,364,364,1684,-100,-100,-100,100,22,0,0,78,4.064,4.058,0,0,0,0,0.594,78.98,448.91594153066,0,41,Motors_Started,
111700,2022-09-03 18:41:20,-34.865697495487,-55.2576163802618,0,-0.13123360000007,448.94874993066,448.91594153066,0.328084,0.223694,0.7227854562,1.72424218116,15,5,8.147,448.91594153066,0,1.8342908,1.2739993846,0.223694,0,0,6.1, 1.2, 2.9,0,0,364,364,364,1684,-100,-100,-100,100,21.1,0,0,78,4.064,4.058,0,0,0,0,0.594,78.98,448.91594153066,0,10,Assisted_Takeoff,
111800,2022-09-03 18:41:20,-34.8656975874257,-55.2576165504111,0,0.03280839999997,448.78470793066,448.91594153066,0.328084,0.223694,0.74396984008,1.78522971592,16,5,8.147,448.91594153066,0,1.8342908,1.2739993846,0.223694,0,0,5.6, 1.5, 2.8,0,0,1024,1024,1024,1024,0,0,0,0,20.8,0,0,78,4.064,4.058,0,0,0,0,0.594,78.98,448.91594153066,0,10,Assisted_Takeoff,
111900,2022-09-03 18:41:20,-34.8656976385621,-55.2576166135138,0,0.03280839999997,448.78470793066,448.91594153066,0.328084,0,0.74960960404,1.81178155404,16,5,8.147,448.91594153066,0,1.8342908,1.2739993846,0,0,0,5.3, 1.6, 2.8,0,0,1024,1024,1024,1024,0,0,0,0,20.4,0,0,78,4.064,4.058,0,0,0,0,0.594,78.98,448.91594153066,0,10,Assisted_Takeoff,
112000,2022-09-03 18:41:20,-34.8656977629134,-55.2576166130942,0,0.03280839999997,448.78470793066,448.91594153066,0.328084,0.223694,0.72640750356,1.8571522904,15,5,8.147,448.91594153066,0,1.8342908,1.2739993846,0,0.223694,0,4.1, 1.8, 3.3,0,0,1024,1024,1024,1024,0,0,0,0,19.5,0,0,78,4.064,4.058,0,0,0,0,0.594,78.98,448.91594153066,0,10,Assisted_Takeoff,
112100,2022-09-03 18:41:20,-34.8656981632761,-55.2576166692771,0,0.03280839999997,448.78470793066,448.91594153066,0.328084,0.223694,0.6837598644,2.00418969668,15,5,8.147,448.91594153066,0,1.8342908,1.2739993846,0,0.223694,0,4.3, 2.6, 3,0,0,1024,1024,1024,1024,0,0,0,0,18.9,0,0,78,4.064,4.058,0,0,0,0,0.594,78.98,448.91594153066,0,10,Assisted_Takeoff,
112200,2022-09-03 18:41:20,-34.8656983980945,-55.2576165562947,0,0.03280839999997,448.78470793066,448.91594153066,0.328084,0.3131716,0.62966537448,2.09629599884,15,5,8.11,448.91594153066,0,1.8342908,1.2739993846,-0.223694,0.223694,0,3.5, 3, 3.3,0,0,1024,1024,1024,1024,0,0,0,0,18.5,0,0,78,4.063,4.054,0,0,0,0,1.323,78.98,448.91594153066,0,10,Assisted_Takeoff,
112300,2022-09-03 18:41:20,-34.8656987084954,-55.2576164373217,0,0.03280839999997,448.78470793066,448.91594153066,0.328084,0.4921268,0.58232613412,2.21501319424,15,5,8.11,448.91594153066,0,1.8342908,1.2739993846,-0.447388,0.223694,0,3.8, 2.9, 3,0,0,1024,1024,1024,1024,0,0,0,0,18.3,0,0,78,4.063,4.054,0,0,0,0,1.323,78.98,448.91594153066,0,10,Assisted_Takeoff,
112400,2022-09-03 18:41:20,-34.8656990507162,-55.2576163778825,0,0.03280839999997,448.78470793066,448.91594153066,0.328084,0.671082,0.57645343052,2.34113524552,15,5,8.11,448.91594153066,0,1.8342908,1.2739993846,-0.671082,0,0,4.3, 3, 3.5,0,0,1024,1024,1024,1024,0,0,0,0,18.5,0,0,78,4.063,4.054,0,0,0,0,1.323,78.98,448.91594153066,0,10,Assisted_Takeoff,
112500,2022-09-03 18:41:20,-34.8656994446759,-55.2576164099406,0,0.03280839999997,448.78470793066,448.91594153066,0.328084,0.447388,0.63046918028,2.48519036824,15,5,8.11,448.91594153066,0,1.8342908,1.2739993846,-0.447388,0,0,5.3, 2.3, 2.5,0,0,1024,1024,1024,1024,0,0,0,0,19.1,0,0,78,4.063,4.054,0,0,0,0,1.323,78.98,448.91594153066,0,10,Assisted_Takeoff,"Punto de origen actualizado. Altitud de RPO establecida en 60m (Code: 3000001)"
112600,2022-09-03 18:41:21,-34.865699818762,-55.257616486603,0,0.13123359999997,448.68628273066,448.91594153066,0.328084,0.671082,0.71703414368,2.62359260364,14,5,8.11,448.91594153066,0,1.8342908,1.2739993846,-0.671082,0,0.223694,3.8, 1.3, 1,0,0,1024,1024,1024,1024,0,0,0,0,19.5,0,0,78,4.063,4.054,0,0,0,0,1.323,78.98,448.91594153066,0,10,Assisted_Takeoff,
112700,2022-09-03 18:41:21,-34.8657001895978,-55.2576165174316,0,0.19685039999991,448.62066593066,448.91594153066,0.328084,0.447388,0.80685041952,2.75920612504,14,5,8.11,448.91594153066,0,1.8342908,1.2739993846,-0.447388,0,0,4.2, -0.4, 2.1,0,0,1024,1024,1024,1024,0,0,0,0,19.1,0,0,78,4.063,4.054,0,0,0,0,1.323,78.98,448.91594153066,0,10,Assisted_Takeoff,
112800,2022-09-03 18:41:21,-34.8657004784349,-55.2576166394123,0,0.19685039999991,448.62066593066,448.91594153066,0.328084,0.3131716,0.90550199748,2.870735,14,5,8.11,448.91594153066,0,1.8342908,1.2739993846,-0.223694,-0.223694,0,4.8, -1.6, 2.3,0,0,1024,1024,1024,1024,0,0,0,0,19.5,0,0,78,4.063,4.054,0,0,0,0,1.323,78.98,448.91594153066,0,10,Assisted_Takeoff,
112900,2022-09-03 18:41:21,-34.8657007079087,-55.2576169063159,0,0.29527559999992,448.52224073066,448.91594153066,0.328084,0.3131716,1.0211942584,2.98646335016,14,5,8.11,448.91594153066,0,1.8342908,1.2739993846,-0.223694,-0.223694,0,359.6, -0.1, 2.4,0,0,1024,1024,1024,1024,0,0,0,0,15.5,0,0,78,4.063,4.054,0,0,0,0,1.323,78.98,448.91594153066,0,10,Assisted_Takeoff,
113000,2022-09-03 18:41:21,-34.8657007425718,-55.2576176061497,0,0.36089239999995,448.45662393066,448.91594153066,0.328084,0,1.1865649986,3.19634524664,14,5,8.11,448.91594153066,0,1.8342908,1.2739993846,0,0,0,3, -0.3, 1.8,0,0,1024,1024,1024,1024,0,0,0,0,16.5,0,0,78,4.063,4.054,0,0,0,0,1.323,78.98,448.91594153066,0,10,Assisted_Takeoff,
113100,2022-09-03 18:41:21,-34.865700738201,-55.2576177907475,0,0.36089239999995,448.45662393066,448.91594153066,0.328084,0.223694,1.22950135168,3.25163068148,14,5,8.11,448.91594153066,0,1.8342908,1.2739993846,0.223694,0,0,1.3, 0.4, 2.6,0,0,1024,1024,1024,1024,0,0,0,0,16.6,0,0,78,4.063,4.054,0,0,0,0,1.323,78.98,448.91594153066,0,10,Assisted_Takeoff,
113200,2022-09-03 18:41:21,-34.8657006710082,-55.2576179147518,0,0.36089239999995,448.45662393066,448.91594153066,0.328084,0.223694,1.24541014484,3.2961287144,14,5,8.127,448.91594153066,0,1.8342908,1.2739993846,0.223694,0,0,2.4, 1.4, 2.6,0,0,1024,1024,1024,1024,0,0,0,0,16.5,0,0,78,4.067,4.06,0,0,0,0,1.255,78.98,448.91594153066,0,10,Assisted_Takeoff,
113300,2022-09-03 18:41:21,-34.865700567488,-55.2576179615664,0,0.36089239999995,448.45662393066,448.91594153066,0.328084,0.223694,1.23608271672,3.3364174296,14,5,8.127,448.91594153066,0,1.8342908,1.2739993846,0.223694,0,0,2.9, 2, 2.2,0,0,1024,1024,1684,1024,0,0,100,0,17.2,0,0,78,4.067,4.06,0,0,0,0,1.255,78.98,448.91594153066,0,10,Assisted_Takeoff,
113400,2022-09-03 18:41:21,-34.865700338962,-55.2576174819979,0,0.19685039999991,448.62066593066,448.91594153066,0.328084,0.223694,1.0702756248,3.5024279336,14,5,8.127,448.91594153066,0,1.8342908,1.2739993846,0.223694,0,0,2.3, 1.6, 2.5,0,0,1024,1024,1684,1024,0,0,100,0,17.2,0,0,78,4.067,4.06,0,0,0,0,1.255,78.98,448.91594153066,0,10,Assisted_Takeoff,
113500,2022-09-03 18:41:22,-34.8657002057031,-55.2576172138348,0,0.19685039999991,448.62066593066,448.91594153066,0.328084,0.223694,0.9764928134,3.5962599576,14,5,8.127,448.91594153066,0,1.8342908,1.2739993846,0.223694,0,0,3, 1.2, 2.6,0,0,1024,1024,1024,1024,0,0,0,0,17.2,0,0,78,4.067,4.06,0,0,0,0,1.255,78.98,448.91594153066,0,10,Assisted_Takeoff,
113600,2022-09-03 18:41:22,-34.8657001023653,-55.2576170116972,0,0.19685039999991,448.62066593066,448.91594153066,0.328084,0,0.90522312608,3.6675526108,14,5,8.127,448.91594153066,0,1.8342908,1.2739993846,0,0,0,2.6, 2.1, 1.9,0,0,1024,1024,1024,1024,0,0,0,0,17.4,0,0,78,4.067,4.06,0,0,0,0,1.255,78.98,448.91594153066,0,6,P-GPS,
113700,2022-09-03 18:41:22,-34.8656999955003,-55.2576168899926,0,0.19685039999991,448.62066593066,448.91594153066,0.328084,0.223694,0.8533956966,3.7209318776,14,5,8.127,448.91594153066,0,1.8342908,1.2739993846,0.223694,0,0,3, 1.7, 1,0,0,1024,1024,1090,1024,0,0,10,0,17.4,0,0,78,4.067,4.06,0,0,0,0,1.255,78.98,448.91594153066,0,6,P-GPS,
113800,2022-09-03 18:41:22,-34.8656999604041,-55.2576164979211,0,0.13123359999997,448.68628273066,448.91594153066,0.328084,0,0.7496063232,3.8390093092,14,5,8.127,448.91594153066,0,1.8342908,1.2739993846,0,0,0,2.2, 2.4, 1.2,0,0,1024,1024,1024,1024,0,0,0,0,17.4,0,0,78,4.067,4.06,0,0,0,0,1.255,78.98,448.91594153066,0,6,P-GPS,
113900,2022-09-03 18:41:22,-34.8656999103066,-55.2576164452634,0,0.13123359999997,448.68628273066,448.91594153066,0.328084,0.223694,0.72605645368,3.8631234832,14,5,8.127,448.91594153066,0,1.8342908,1.2739993846,0.223694,0,0,2.5, 2, 1.8,0,0,1024,1024,1024,1024,0,0,0,0,17.4,0,0,78,4.067,4.06,0,0,0,0,1.255,78.98,448.91594153066,0,6,P-GPS,
114000,2022-09-03 18:41:22,-34.8656998861536,-55.2576164197878,0,0.13123359999997,448.68628273066,448.91594153066,0.328084,0,0.71469490476,3.8747704652,14,5,8.127,448.91594153066,0,1.8342908,1.2739993846,0,0,0,2.5, 2.7, 1.5,0,0,1024,1024,1024,1024,0,0,0,0,17.4,0,0,78,4.067,4.06,0,0,0,0,1.255,78.98,448.91594153066,0,6,P-GPS,
114100,2022-09-03 18:41:22,-34.8656999055353,-55.2576164807912,0,0.13123359999997,448.68628273066,448.91594153066,0.328084,0,0.7336286324,3.89435708,14,5,8.127,448.91594153066,0,1.8342908,1.2739993846,0,0,0,2.9, 3.2, 1.8,0,0,1024,1024,1024,1024,0,0,0,0,17.4,0,0,78,4.067,4.06,0,0,0,0,1.255,78.98,448.91594153066,0,6,P-GPS,
114200,2022-09-03 18:41:22,-34.8656999362738,-55.2576165365225,0,0.19685039999991,448.62066593066,448.91594153066,0.328084,0,0.75372049656,3.9144686292,14,5,8.126,448.91594153066,0,1.8342908,1.2739993846,0,0,0,3, 1.5, 0.7,0,0,1024,1024,1024,1024,0,0,0,0,17.4,0,0,78,4.04,4.032,0,0,0,0,1.106,79.16,448.91594153066,0,6,P-GPS,
114300,2022-09-03 18:41:22,-34.8657001821232,-55.2576165347873,0,0.19685039999991,448.62066593066,448.91594153066,0.328084,0,0.808973123,4.0041667948,14,5,8.126,448.91594153066,0,1.8342908,1.2739993846,0,0,0,2.9, -0.1, -0.7,0,0,1024,1024,1024,1024,0,0,0,0,17.4,0,0,78,4.04,4.032,0,0,0,0,1.106,79.16,448.91594153066,0,6,P-GPS,
114400,2022-09-03 18:41:22,-34.8657002166723,-55.2576165035978,0,0.19685039999991,448.62066593066,448.91594153066,0.328084,0,0.81032154824,4.01984921,14,5,8.126,448.91594153066,0,1.8342908,1.2739993846,0,0,-0.447388,2.9, -0.5, -0.6,0,0,1024,1024,1024,1024,0,0,0,0,17.4,0,0,78,4.04,4.032,0,0,0,0,1.106,79.16,448.91594153066,0,6,P-GPS,
114500,2022-09-03 18:41:22,-34.8657002799927,-55.2576164322617,0,0.13123359999997,448.68628273066,448.91594153066,0.656168,0,0.81052496032,4.0513124656,14,5,8.126,448.91594153066,0,1.8342908,1.2739993846,0,0,-0.671082,2.9, -0.6, -0.4,0,0,1024,1024,1024,1024,0,0,0,0,17.4,0,0,78,4.04,4.032,0,0,0,0,1.106,79.16,448.91594153066,0,6,P-GPS,
114600,2022-09-03 18:41:23,-34.8657003515726,-55.2576164129176,0,0.13123359999997,448.68628273066,448.91594153066,0.656168,0,0.82490488204,4.07808412,15,5,8.126,448.91594153066,0,1.8342908,1.2739993846,0,0,-1.11847,3, -0.9, -0.2,0,0,1024,1024,1024,1024,0,0,0,0,17.4,0,0,78,4.04,4.032,0,0,0,0,1.106,79.16,448.91594153066,0,6,P-GPS,
114700,2022-09-03 18:41:23,-34.8657006854036,-55.2576163753832,0.328084,0.52493439999991,448.62066593066,449.24402553066,0.984252,0,0.90917653828,4.2003938352,15,5,8.126,449.24402553066,0.328084,1.8342908,1.2739993846,0,0,-1.11847,3, -1.2, -0.1,0,0,1024,1024,1024,1024,0,0,0,0,17.4,0,0,78,4.04,4.032,0,0,0,0,1.106,79.16,449.24402553066,0.328084,6,P-GPS,
114800,2022-09-03 18:41:23,-34.8657007592177,-55.2576164435374,0.656168,0.85301839999991,448.62066593066,449.57210953066,1.312336,0,0.94295606692,4.2341536788,16,5,8.126,449.57210953066,0.656168,1.8342908,1.2739993846,0,0,-1.11847,2.9, -1, 0,0,0,1024,1024,1024,1024,0,0,0,0,17.4,0,0,78,4.04,4.032,0,0,0,0,1.106,79.16,449.57210953066,0.656168,6,P-GPS,
114900,2022-09-03 18:41:23,-34.8657007938026,-55.2576165394558,0.656168,0.95144359999992,448.52224073066,449.57210953066,1.312336,0,0.97076118592,4.2655185092,16,5,8.126,449.57210953066,0.656168,1.8342908,1.2739993846,0,0,-1.11847,2.9, -0.8, 0.3,0,0,1024,1024,1024,1024,0,0,0,0,17.4,0,0,78,4.04,4.032,0,0,0,0,1.106,79.16,449.57210953066,0.656168,6,P-GPS,
115000,2022-09-03 18:41:23,-34.8657008341978,-55.2576166271818,0.984252,1.2795275999999,448.52224073066,449.90019353066,1.312336,0,0.99882877212,4.2956366204,16,5,8.126,449.90019353066,0.984252,1.8342908,1.2739993846,0,0,-0.894776,2.9, -0.7, 0.5,0,0,1024,1024,1024,1024,0,0,0,0,17.4,0,0,78,4.04,4.032,0,0,0,0,1.106,79.16,449.90019353066,0.984252,6,P-GPS,
115100,2022-09-03 18:41:23,-34.86570110748,-55.2576167314113,0.984252,1.2795275999999,448.52224073066,449.90019353066,5.577428,0,1.09614176736,4.4001313744,16,5,8.126,449.90019353066,0.984252,1.8342908,1.2739993846,0,0,-0.447388,2.9, -0.5, 0.2,0,0,1024,1024,940,1065,0,0,-13,6,17.4,0,0,78,4.04,4.032,0,0,0,0,1.106,79.16,449.90019353066,0.984252,6,P-GPS,
115200,2022-09-03 18:41:23,-34.8657012049424,-55.2576167323693,0.984252,1.2795275999999,448.52224073066,449.90019353066,5.577428,0,1.12465882864,4.43569568,16,5,7.961,449.90019353066,0.984252,1.8342908,1.2739993846,0,0,-0.223694,2.8, -0.5, -0.2,0,0,1024,1024,364,1024,0,0,-100,0,17.4,0,0,78,3.997,3.989,0,0,0,0,4.273,79.16,449.90019353066,0.984252,6,P-GPS,
115300,2022-09-03 18:41:23,-34.8657013254896,-55.2576166045234,0.984252,1.2795275999999,448.52224073066,449.90019353066,5.577428,0,1.13857287108,4.4939962068,16,5,7.961,449.90019353066,0.984252,1.8342908,1.2739993846,0,0,0,2.7, -0.5, -0.3,0,0,1024,1024,1024,1024,0,0,0,0,17.4,0,0,78,3.997,3.989,0,0,0,0,4.273,79.16,449.90019353066,0.984252,6,P-GPS,
115400,2022-09-03 18:41:23,-34.8657014329409,-55.2576165375079,0.984252,1.2795275999999,448.52224073066,449.90019353066,5.577428,0,1.16066932848,4.5380250796,16,5,7.961,449.90019353066,0.984252,1.8342908,1.2739993846,0,0,0.223694,2.8, -0.4, -0.1,0,0,1024,1024,1024,1024,0,0,0,0,17.4,0,0,78,3.997,3.989,0,0,0,0,4.273,79.16,449.90019353066,0.984252,6,P-GPS,
115500,2022-09-03 18:41:23,-34.8657017666449,-55.2576163889461,0.984252,1.2795275999999,448.52224073066,449.90019353066,5.577428,0,1.24482943616,4.667651068,16,5,7.961,449.90019353066,0.984252,1.8342908,1.2739993846,0,0,0.447388,2.8, -0.4, -0.1,0,0,1024,1024,1024,1024,0,0,0,0,17.4,0,0,78,3.997,3.989,0,0,0,0,4.273,79.16,449.90019353066,0.984252,6,P-GPS,
115600,2022-09-03 18:41:24,-34.8657018507507,-55.2576164313194,0.984252,1.2795275999999,448.52224073066,449.90019353066,5.249344,0,1.27792655008,4.7008531688,16,5,7.961,449.90019353066,0.984252,1.8342908,1.27792655008,0,0,0.447388,2.8, -1.1, -0.4,0,0,1024,1024,1022,1024,0,0,-0,0,17.4,0,0,78,3.997,3.989,0,0,0,0,4.273,79.16,449.90019353066,0.984252,6,P-GPS,
115700,2022-09-03 18:41:24,-34.8657019202039,-55.2576164345248,0.984252,1.2795275999999,448.52224073066,449.90019353066,5.249344,0,1.30098101276,4.726214062,16,5,7.961,449.90019353066,0.984252,1.8342908,1.30098101276,0,0,0.447388,2.8, -0.8, -0.4,0,0,1024,1024,364,1024,0,0,-100,0,17.4,0,0,78,3.997,3.989,0,0,0,0,4.273,79.16,449.90019353066,0.984252,6,P-GPS,
115800,2022-09-03 18:41:24,-34.8657019637517,-55.2576164353535,0.984252,1.2795275999999,448.52224073066,449.90019353066,5.249344,0,1.31532484524,4.7420933276,16,5,7.961,449.90019353066,0.984252,1.8342908,1.31532484524,0,0,0.447388,2.8, -0.7, -0.5,0,0,1024,1024,1024,1024,0,0,0,0,17.4,0,0,78,3.997,3.989,0,0,0,0,4.273,79.16,449.90019353066,0.984252,6,P-GPS,
115900,2022-09-03 18:41:24,-34.8657019659566,-55.2576164219609,0.656168,0.95144359999992,448.52224073066,449.57210953066,5.249344,0,1.31427825728,4.7461943776,16,5,7.961,449.90019353066,0.984252,1.8342908,1.31532484524,0,0,0.671082,2.8, -0.5, -0.3,0,0,1024,1024,1024,1024,0,0,0,0,17.4,0,0,78,3.997,3.989,0,0,0,0,4.273,79.16,449.57210953066,0.656168,6,P-GPS,
116000,2022-09-03 18:41:24,-34.8657019976885,-55.2576162166681,0.656168,0.95144359999992,448.52224073066,449.57210953066,4.92126,0,1.2990650022,4.808727188,16,5,7.961,449.90019353066,0.984252,1.8342908,1.31532484524,0,0,0.671082,2.8, -0.9, -0.4,0,0,1024,1024,1024,1024,0,0,0,0,17.4,0,0,78,3.997,3.989,0,0,0,0,4.273,79.16,449.57210953066,0.656168,6,P-GPS,
116100,2022-09-03 18:41:24,-34.8657020228186,-55.2576161977182,0.656168,0.95144359999992,448.52224073066,449.57210953066,4.92126,0,1.30525266644,4.8194883432,16,5,7.961,449.90019353066,0.984252,1.8342908,1.31532484524,0,0,0.447388,2.8, -0.8, -0.3,0,0,1024,1024,1024,1024,0,0,0,0,17.4,0,0,78,3.997,3.989,0,0,0,0,4.273,79.16,449.57210953066,0.656168,6,P-GPS,
116200,2022-09-03 18:41:24,-34.8657020055311,-55.2576161954629,0.656168,0.95144359999992,448.52224073066,449.57210953066,4.92126,0,1.29918639328,4.8258531728,16,5,7.959,449.90019353066,0.984252,1.8342908,1.31532484524,0,0,0.223694,2.7, -0.6, -0.1,0,0,1024,1024,1024,1024,0,0,0,0,17.4,0,0,78,4.01,4.009,0,0,0,0,3.943,78.98,449.57210953066,0.656168,6,P-GPS,
116300,2022-09-03 18:41:24,-34.8657018887749,-55.2576162297945,0.656168,0.95144359999992,448.52224073066,449.57210953066,4.92126,0,1.26431106408,4.8696523868,16,5,7.959,449.90019353066,0.984252,1.8342908,1.31532484524,0,0,0,2.7, -0.5, -0.1,0,0,1024,1024,1024,1024,0,0,0,0,17.4,0,0,78,4.01,4.009,0,0,0,0,3.943,78.98,449.57210953066,0.656168,6,P-GPS,
116400,2022-09-03 18:41:24,-34.8657016980743,-55.2576161894795,0.656168,0.95144359999992,448.52224073066,449.57210953066,4.92126,0,1.19605974956,4.940288872,16,5,7.959,449.90019353066,0.984252,1.8342908,1.31532484524,0,0,0,2.7, -0.6, -0.1,0,0,1024,1024,1024,1024,0,0,0,0,17.4,0,0,78,4.01,4.009,0,0,0,0,3.943,78.98,449.57210953066,0.656168,6,P-GPS,
116500,2022-09-03 18:41:24,-34.865701656321,-55.2576163931807,0.656168,0.95144359999992,448.52224073066,449.57210953066,4.92126,0,1.2097441332,5.0031497664,16,5,7.959,449.90019353066,0.984252,1.8342908,1.31532484524,0,0,0,2.7, -0.5, -0.3,0,0,1024,897,1024,1024,0,-19,0,0,17.4,0,0,78,4.01,4.009,0,0,0,0,3.943,78.98,449.57210953066,0.656168,6,P-GPS,
116600,2022-09-03 18:41:25,-34.8657016006999,-55.2576165665804,0.656168,1.0170604,448.45662393066,449.57210953066,4.92126,0,1.21751316232,5.0588584296,16,5,7.959,449.90019353066,0.984252,1.8342908,1.31532484524,0,0,0,2.7, -0.4, -0.5,0,0,1024,1024,1024,1024,0,0,0,0,17.4,0,0,78,4.01,4.009,0,0,0,0,3.943,78.98,449.57210953066,0.656168,6,P-GPS,
116700,2022-09-03 18:41:25,-34.8657015126467,-55.2576167075117,0.656168,1.0170604,448.45662393066,449.57210953066,4.92126,0.223694,1.21254268972,5.1119096124,16,5,7.959,449.90019353066,0.984252,1.8342908,1.31532484524,0,-0.223694,0,2.5, -0.3, -7.3,0,0,1024,1024,1024,1024,0,0,0,0,17.4,0,0,78,4.01,4.009,0,0,0,0,3.943,78.98,449.57210953066,0.656168,6,P-GPS,
116800,2022-09-03 18:41:25,-34.8657014154514,-55.2576169391271,0.656168,0.95144359999992,448.52224073066,449.57210953066,4.92126,0.223694,1.2232283856,5.1897639456,16,5,7.959,449.90019353066,0.984252,1.8342908,1.31532484524,0,-0.223694,0,2.9, 0.1, 0.9,0,0,1024,1024,1024,1024,0,0,0,0,17.4,0,0,78,4.01,4.009,0,0,0,0,3.943,78.98,449.57210953066,0.656168,6,P-GPS,
116900,2022-09-03 18:41:25,-34.8657013106936,-55.2576172292706,0.656168,0.95144359999992,448.52224073066,449.57210953066,4.92126,0.223694,1.24805778272,5.2846786468,16,5,7.959,449.90019353066,0.984252,1.8342908,1.31532484524,0,-0.223694,0,2.8, 0.4, 2,0,0,1024,1024,1024,1024,0,0,0,0,17.4,0,0,78,4.01,4.009,0,0,0,0,3.943,78.98,449.57210953066,0.656168,6,P-GPS,
117000,2022-09-03 18:41:25,-34.8657012156283,-55.2576174633867,0.656168,0.95144359999992,448.52224073066,449.57210953066,4.92126,0.223694,1.27015752096,5.362861064,15,5,7.959,449.90019353066,0.984252,1.8342908,1.31532484524,0,-0.223694,0,2.8, 0.5, 1.7,0,0,1024,1024,1024,1024,0,0,0,0,17.4,0,0,78,4.01,4.009,0,0,0,0,3.943,78.98,449.57210953066,0.656168,6,P-GPS,
117100,2022-09-03 18:41:25,-34.8657011174982,-55.2576176208501,0.656168,1.0170604,448.45662393066,449.57210953066,4.92126,0.223694,1.27895673384,5.4220474176,15,5,7.959,449.90019353066,0.984252,1.8342908,1.31532484524,0,-0.223694,0,2.7, 0.4, 1.4,0,0,1024,1024,1024,1024,0,0,0,0,17.4,0,0,78,4.01,4.009,0,0,0,0,3.943,78.98,449.57210953066,0.656168,6,P-GPS,
117200,2022-09-03 18:41:25,-34.8657009538136,-55.2576177587475,0.656168,1.0170604,448.45662393066,449.57210953066,4.92126,0,1.27055122176,5.4946524068,16,5,7.973,449.90019353066,0.984252,1.8342908,1.31532484524,0,0,0,2.7, 0.3, 1.2,0,0,1024,1024,1024,1024,0,0,0,0,17.4,0,0,78,3.982,3.976,0,0,0,0,4.324,79.16,449.57210953066,0.656168,6,P-GPS,
117300,2022-09-03 18:41:25,-34.8657008788954,-55.2576178731682,0.656168,1.0170604,448.45662393066,449.57210953066,4.92126,0,1.28017720632,5.5384844292,16,5,7.973,449.90019353066,0.984252,1.8342908,1.31532484524,0,0,0,2.7, 0.5, 1.4,0,0,1024,1024,1024,1024,0,0,0,0,17.4,0,0,78,3.982,3.976,0,0,0,0,4.324,79.16,449.57210953066,0.656168,6,P-GPS,
117400,2022-09-03 18:41:25,-34.8657008171806,-55.2576179718946,0.656168,1.0170604,448.45662393066,449.57210953066,4.92126,0,1.2902559468,5.575623538,16,5,7.973,449.90019353066,0.984252,1.8342908,1.31532484524,0,0,0,2.7, 0.2, 0.8,0,0,1024,1024,1024,1024,0,0,0,0,17.4,0,0,78,3.982,3.976,0,0,0,0,4.324,79.16,449.57210953066,0.656168,6,P-GPS,
117500,2022-09-03 18:41:26,-34.8657007619633,-55.2576180870611,0.656168,1.0170604,448.45662393066,449.57210953066,4.92126,0,1.30671264024,5.6155513608,16,5,7.973,449.90019353066,0.984252,1.8342908,1.31532484524,0,0,0,2.7, 0.1, 0.5,0,0,1024,1024,1024,1024,0,0,0,0,17.4,0,0,78,3.982,3.976,0,0,0,0,4.324,79.16,449.57210953066,0.656168,6,P-GPS,
117600,2022-09-03 18:41:26,-34.8657007428584,-55.2576181350934,0.656168,1.0170604,448.45662393066,449.57210953066,4.92126,0,1.31467523892,5.63156186,15,5,7.973,449.90019353066,0.984252,1.8342908,1.31532484524,0,0,0,2.8, 0, 0.4,0,0,1024,1024,1024,1024,0,0,0,0,17.4,0,0,78,3.982,3.976,0,0,0,0,4.324,79.16,449.57210953066,0.656168,6,P-GPS,
117700,2022-09-03 18:41:26,-34.8657008876434,-55.2576181017452,0.656168,1.0170604,448.45662393066,449.57210953066,4.92126,0,1.3368110664,5.6853020192,15,5,7.973,449.90019353066,0.984252,1.8342908,1.3368110664,0,0,0,2.8, -0.2, 0.4,0,0,1024,1024,1024,1024,0,0,0,0,17.4,0,0,78,3.982,3.976,0,0,0,0,4.324,79.16,449.57210953066,0.656168,6,P-GPS,
117800,2022-09-03 18:41:26,-34.8657009206747,-55.2576180588989,0.656168,1.0170604,448.45662393066,449.57210953066,4.92126,0,1.33365161748,5.70292013,15,5,7.973,449.90019353066,0.984252,1.8342908,1.3368110664,0,0,0,2.8, -0.3, 0.4,0,0,1024,1205,1024,364,0,27,0,-100,17.4,0,0,78,3.982,3.976,0,0,0,0,4.324,79.16,449.57210953066,0.656168,6,P-GPS,
117900,2022-09-03 18:41:26,-34.865700917623,-55.2576180463572,0.656168,1.0170604,448.45662393066,449.57210953066,4.92126,0,1.32997707668,5.7068243296,15,5,7.973,449.90019353066,0.984252,1.8342908,1.3368110664,0,0,0,2.7, -0.3, 0.9,0,0,1024,1024,1024,1024,0,0,0,0,16.5,0,0,78,3.982,3.976,0,0,0,0,4.324,79.16,449.57210953066,0.656168,6,P-GPS,
118000,2022-09-03 18:41:26,-34.865700901547,-55.2576179966426,0.656168,1.0170604,448.45662393066,449.57210953066,4.593176,0,1.31456040952,5.7228348288,15,5,7.973,449.90019353066,0.984252,1.8342908,1.3368110664,0,0,0,0.9, -0.1, 0.9,0,0,1024,1250,1024,1024,0,34,0,0,14,0,0,78,3.982,3.976,0,0,0,0,4.324,79.16,449.57210953066,0.656168,6,P-GPS,
118100,2022-09-03 18:41:26,-34.8657008313187,-55.2576176508943,0.328084,0.68897639999995,448.45662393066,449.24402553066,4.593176,0,1.21724413344,5.8294293204,15,5,7.973,449.90019353066,0.984252,1.8342908,1.3368110664,0,0,0,359, -0.1, -0.2,0,0,1024,1108,1024,1024,0,13,0,0,12.8,0,0,78,3.982,3.976,0,0,0,0,4.324,79.16,449.24402553066,0.328084,6,P-GPS,
118200,2022-09-03 18:41:26,-34.8657007778439,-55.2576175438666,0.328084,0.68897639999995,448.45662393066,449.24402553066,4.593176,0,1.18007877792,5.86696213,15,5,7.973,449.90019353066,0.984252,1.8342908,1.3368110664,0,0,0,358.4, -0.1, 4.1,0,0,1024,1024,1024,1024,0,0,0,0,12.7,0,0,78,3.982,3.976,0,0,0,0,4.324,79.16,449.24402553066,0.328084,6,P-GPS,
118300,2022-09-03 18:41:26,-34.8657007027433,-55.2576174628333,0.328084,0.62335959999992,448.52224073066,449.24402553066,4.593176,0.223694,1.14396985288,5.903543496,15,5,7.969,449.90019353066,0.984252,1.8342908,1.3368110664,0,0.223694,0,358.5, 0, 3.9,0,0,1024,1024,1024,1024,0,0,0,0,12.7,0,0,78,3.988,3.979,0,0,0,0,4.278,79.16,449.24402553066,0.328084,6,P-GPS,
118400,2022-09-03 18:41:26,-34.865700639817,-55.2576173020731,0.328084,0.62335959999992,448.52224073066,449.24402553066,4.593176,0.223694,1.09218835516,5.9568899544,15,5,7.969,449.90019353066,0.984252,1.8342908,1.3368110664,0,0.223694,0,358.1, -0.1, -1.1,0,0,1024,1374,1024,1024,0,53,0,0,12.7,0,0,78,3.988,3.979,0,0,0,0,4.278,79.16,449.24402553066,0.328084,6,P-GPS,
118500,2022-09-03 18:41:26,-34.865700581092,-55.2576170964104,0.328084,0.62335959999992,448.52224073066,449.24402553066,4.593176,0.223694,1.03135830072,6.0220474368,15,5,7.969,449.90019353066,0.984252,1.8342908,1.3368110664,0,0.223694,0,358.1, 0, -1.5,0,0,1024,1374,1024,1024,0,53,0,0,12.7,0,0,78,3.988,3.979,0,0,0,0,4.278,79.16,449.24402553066,0.328084,6,P-GPS,
118600,2022-09-03 18:41:27,-34.8657005316069,-55.2576169467119,0.328084,0.62335959999992,448.52224073066,449.24402553066,4.593176,0.223694,0.98579071396,6.07037421,16,5,7.969,449.90019353066,0.984252,1.8342908,1.3368110664,0,0.223694,0,358.2, 0, 2.6,0,0,1024,1024,1024,939,0,0,0,-13,12.7,0,0,78,3.988,3.979,0,0,0,0,4.278,79.16,449.24402553066,0.328084,6,P-GPS,
118700,2022-09-03 18:41:27,-34.8657004318907,-55.2576167876288,0.328084,0.52493439999991,448.62066593066,449.24402553066,4.593176,0.223694,0.9260498984,6.1303151568,16,5,7.969,449.90019353066,0.984252,1.8342908,1.3368110664,0,0.223694,0,358, 0, -0.7,0,0,1024,1024,1024,1024,0,0,0,0,12.7,0,0,78,3.988,3.979,0,0,0,0,4.278,79.16,449.24402553066,0.328084,6,P-GPS,
118800,2022-09-03 18:41:27,-34.8657003318847,-55.2576166654354,0.328084,0.52493439999991,448.62066593066,449.24402553066,4.593176,0.223694,0.87445212772,6.1819555784,16,5,7.969,449.90019353066,0.984252,1.8342908,1.3368110664,0,0.223694,0,357.9, -0.1, -1.2,0,0,1024,1024,1024,1024,0,0,0,0,12.1,0,0,78,3.988,3.979,0,0,0,0,4.278,79.16,449.24402553066,0.328084,6,P-GPS,
118900,2022-09-03 18:41:27,-34.8657000356708,-55.2576167533402,0.328084,0.52493439999991,448.62066593066,449.24402553066,4.593176,0,0.82763454092,6.2932088628,16,5,7.969,449.90019353066,0.984252,1.8342908,1.3368110664,0,0,0,357.2, -0.1, -1,0,0,1024,1024,1024,1024,0,0,0,0,11.5,0,0,78,3.988,3.979,0,0,0,0,4.278,79.16,449.24402553066,0.328084,6,P-GPS,
119000,2022-09-03 18:41:27,-34.8656999407195,-55.2576167285218,0.328084,0.52493439999991,448.62066593066,449.24402553066,4.593176,0,0.80198165296,6.3286419348,16,5,7.969,449.90019353066,0.984252,1.8342908,1.3368110664,0,0,0,356.8, -0.2, -0.7,0,0,1024,1024,1024,1024,0,0,0,0,11.3,0,0,78,3.988,3.979,0,0,0,0,4.278,79.16,449.24402553066,0.328084,6,P-GPS,
119100,2022-09-03 18:41:27,-34.8656998748815,-55.2576166993409,0.328084,0.52493439999991,448.62066593066,449.24402553066,4.593176,0,0.7816109174,6.3541996784,16,5,7.969,449.90019353066,0.984252,1.8342908,1.3368110664,0,0,0,356.8, -0.2, -0.5,0,0,1024,1024,1024,1024,0,0,0,0,11.3,0,0,78,3.988,3.979,0,0,0,0,4.278,79.16,449.24402553066,0.328084,6,P-GPS,
119200,2022-09-03 18:41:27,-34.8656998430096,-55.2576166661839,0.328084,0.52493439999991,448.62066593066,449.24402553066,4.593176,0,0.76702102192,6.3694883928,16,5,7.969,449.90019353066,0.984252,1.8342908,1.3368110664,0,0,0,356.7, -0.2, -0.8,0,0,1024,1024,1024,1024,0,0,0,0,11.3,0,0,78,3.988,3.979,0,0,0,0,4.278,79.16,449.24402553066,0.328084,6,P-GPS,
119300,2022-09-03 18:41:27,-34.8656998995622,-55.2576165847466,0.328084,0.52493439999991,448.62066593066,449.24402553066,4.593176,0,0.75786747832,6.401410966,16,5,7.961,449.90019353066,0.984252,1.8342908,1.3368110664,0,0,0,356.7, -0.2, -0.5,0,0,1024,1024,1024,1024,0,0,0,0,11.3,0,0,78,3.983,3.976,0,0,0,0,4.342,79.16,449.24402553066,0.328084,6,P-GPS,
119400,2022-09-03 18:41:27,-34.8657001420766,-55.2576163881422,0.328084,0.45931759999997,448.68628273066,449.24402553066,4.593176,0,0.76643047072,6.5076773736,16,5,7.961,449.90019353066,0.984252,1.8342908,1.3368110664,0,0,0,356.8, -0.1, -0.3,0,0,1024,1024,1024,1024,0,0,0,0,11.3,0,0,78,3.983,3.976,0,0,0,0,4.342,79.16,449.24402553066,0.328084,6,P-GPS,
119500,2022-09-03 18:41:27,-34.8657001771435,-55.2576163780737,0.328084,0.45931759999997,448.68628273066,449.24402553066,4.593176,0,0.77288060216,6.520833542,16,5,7.961,449.90019353066,0.984252,1.8342908,1.3368110664,0,0,0,356.8, -0.1, 0,0,0,1024,1024,1024,1024,0,0,0,0,11.3,0,0,78,3.983,3.976,0,0,0,0,4.342,79.16,449.24402553066,0.328084,6,P-GPS,
119600,2022-09-03 18:41:28,-34.8657002214665,-55.2576163550198,0.328084,0.45931759999997,448.68628273066,449.24402553066,4.593176,0,0.77906170472,6.5384188444,15,5,7.961,449.90019353066,0.984252,1.8342908,1.3368110664,0,0,0,356.8, -0.1, 0,0,0,1024,1024,1024,1024,0,0,0,0,11.3,0,0,78,3.983,3.976,0,0,0,0,4.342,79.16,449.24402553066,0.328084,6,P-GPS,
119700,2022-09-03 18:41:28,-34.8657002855913,-55.2576162896807,0.328084,0.45931759999997,448.68628273066,449.24402553066,4.593176,0,0.78199149484,6.568897848,15,5,7.961,449.90019353066,0.984252,1.8342908,1.3368110664,0,0,0,356.7, -0.1, 0.1,0,0,1024,1024,1024,1024,0,0,0,0,11.3,0,0,78,3.983,3.976,0,0,0,0,4.342,79.16,449.24402553066,0.328084,6,P-GPS,
119800,2022-09-03 18:41:28,-34.8657005885438,-55.2576160691734,0.328084,0.52493439999991,448.62066593066,449.24402553066,4.593176,0,0.82612863536,6.6976380096,15,5,7.961,449.90019353066,0.984252,1.8342908,1.3368110664,0,0,0,356.8, -0.1, 0.1,0,0,1024,1024,1024,1024,0,0,0,0,11.3,0,0,78,3.983,3.976,0,0,0,0,4.342,79.16,449.24402553066,0.328084,6,P-GPS,
119900,2022-09-03 18:41:28,-34.8657006645824,-55.2576159957503,0.328084,0.52493439999991,448.62066593066,449.24402553066,4.593176,0,0.83702102416,6.7330382732,15,5,7.961,449.90019353066,0.984252,1.8342908,1.3368110664,0,0,0,356.8, -0.1, 0.1,0,0,1024,1024,1024,1024,0,0,0,0,11.3,0,0,78,3.983,3.976,0,0,0,0,4.342,79.16,449.24402553066,0.328084,6,P-GPS,
120000,2022-09-03 18:41:28,-34.865700737478,-55.2576159200844,0.328084,0.52493439999991,448.62066593066,449.24402553066,4.593176,0,0.84792325548,6.7679792192,15,5,7.961,449.90019353066,0.984252,1.8342908,1.3368110664,0,0,0,356.8, -0.1, 0.1,0,0,1024,1024,1024,1024,0,0,0,0,11.3,0,0,78,3.983,3.976,0,0,0,0,4.342,79.16,449.24402553066,0.328084,6,P-GPS,
120100,2022-09-03 18:41:28,-34.8657008088267,-55.2576158302907,0.328084,0.52493439999991,448.62066593066,449.24402553066,4.593176,0,0.85762469936,6.8054136036,15,5,7.961,449.90019353066,0.984252,1.8342908,1.3368110664,0,0,0,356.8, -0.1, 0.1,0,0,1024,1024,1024,1024,0,0,0,0,11.3,0,0,78,3.983,3.976,0,0,0,0,4.342,79.16,449.24402553066,0.328084,6,P-GPS,
120200,2022-09-03 18:41:28,-34.8657010255726,-55.25761553856,0.328084,0.52493439999991,448.62066593066,449.24402553066,4.593176,0,0.8940781126,6.923228568,15,5,7.961,449.90019353066,0.984252,1.8342908,1.3368110664,0,0,0,356.8, -0.1, 0.1,0,0,1024,1024,1024,1024,0,0,0,0,11.3,0,0,78,3.983,3.976,0,0,0,0,4.342,79.16,449.24402553066,0.328084,6,P-GPS,
120300,2022-09-03 18:41:28,-34.8657010869519,-55.2576154881547,0.328084,0.45931759999997,448.68628273066,449.24402553066,4.593176,0,0.91003283752,6.9502298812,15,5,7.955,449.90019353066,0.984252,1.8342908,1.3368110664,0,0,0,356.8, -0.2, 0.9,0,0,1024,1024,1024,1024,0,0,0,0,11.3,0,0,78,3.98,3.973,0,0,0,0,4.335,79.16,449.24402553066,0.328084,6,P-GPS,
120400,2022-09-03 18:41:28,-34.8657011570434,-55.2576154008424,0.328084,0.45931759999997,448.68628273066,449.24402553066,4.593176,0,0.92622378292,6.9867784388,15,5,7.955,449.90019353066,0.984252,1.8342908,1.3368110664,0,0,0,356.9, -0.1, 1.2,0,0,1024,1491,1024,1024,0,71,0,0,11.3,0,0,78,3.98,3.973,0,0,0,0,4.335,79.16,449.24402553066,0.328084,6,P-GPS,
120500,2022-09-03 18:41:28,-34.8657012644555,-55.2576152159737,0.328084,0.45931759999997,448.68628273066,449.24402553066,4.593176,0,0.94961945296,7.0545934016,15,5,7.955,449.90019353066,0.984252,1.8342908,1.3368110664,0,0,0,356.8, 0, 0.1,0,0,1024,1491,1024,1024,0,71,0,0,11.3,0,0,78,3.98,3.973,0,0,0,0,4.335,79.16,449.24402553066,0.328084,6,P-GPS,
120600,2022-09-03 18:41:29,-34.8657013337067,-55.2576149160129,0.328084,0.45931759999997,448.68628273066,449.24402553066,4.593176,0,0.95827430888,7.1478676828,15,5,7.955,449.90019353066,0.984252,1.8342908,1.3368110664,0,0,0,356.8, -0.1, 3.1,0,0,1024,1024,1024,1024,0,0,0,0,11.3,0,0,78,3.98,3.973,0,0,0,0,4.335,79.16,449.24402553066,0.328084,6,P-GPS,
120700,2022-09-03 18:41:29,-34.8657013422007,-55.2576147753479,0.328084,0.45931759999997,448.68628273066,449.24402553066,4.593176,0,0.95669950568,7.1900920936,15,5,7.955,449.90019353066,0.984252,1.8342908,1.3368110664,0,0,0,356.8, -0.1, 1,0,0,1024,1024,1024,1024,0,0,0,0,11.3,0,0,78,3.98,3.973,0,0,0,0,4.335,79.16,449.24402553066,0.328084,6,P-GPS,
120800,2022-09-03 18:41:29,-34.8657013525478,-55.2576146041926,0.328084,0.45931759999997,448.68628273066,449.24402553066,4.593176,0.223694,0.95730318024,7.241470048,15,5,7.955,449.90019353066,0.984252,1.8342908,1.3368110664,0,0.223694,0,356.7, -0.1, -0.7,0,0,1024,1587,1024,1024,0,85,0,0,11.3,0,0,78,3.98,3.973,0,0,0,0,4.335,79.16,449.24402553066,0.328084,6,P-GPS,
120900,2022-09-03 18:41:29,-34.8657013774272,-55.2576144176886,0.328084,0.39370079999994,448.75189953066,449.24402553066,4.593176,0,0.96604989968,7.2980317296,15,5,7.955,449.90019353066,0.984252,1.8342908,1.3368110664,0,0,0,356.7, -0.1, 0,0,0,1024,1024,1024,1024,0,0,0,0,11.3,0,0,78,3.98,3.973,0,0,0,0,4.335,79.16,449.24402553066,0.328084,6,P-GPS,
121000,2022-09-03 18:41:29,-34.8657013917021,-55.2576142432627,0.328084,0.39370079999994,448.75189953066,449.24402553066,4.593176,0.223694,0.97385501804,7.3505251696,15,5,7.955,449.90019353066,0.984252,1.8342908,1.3368110664,0,0.223694,0,357, -0.2, 7.6,0,0,1024,1024,1024,1024,0,0,0,0,11.3,0,0,78,3.98,3.973,0,0,0,0,4.335,79.16,449.24402553066,0.328084,6,P-GPS,
121100,2022-09-03 18:41:29,-34.8657012660775,-55.2576140113869,0.328084,0.39370079999994,448.75189953066,449.24402553066,4.593176,0.223694,0.93629924256,7.4336944636,15,5,7.955,449.90019353066,0.984252,1.8342908,1.3368110664,0,0.223694,0,356.6, -0.2, -0.5,0,0,1024,1267,1024,1024,0,37,0,0,11.3,0,0,78,3.98,3.973,0,0,0,0,4.335,79.16,449.24402553066,0.328084,6,P-GPS,
121200,2022-09-03 18:41:29,-34.865701226135,-55.2576137709031,0.328084,0.39370079999994,448.75189953066,449.24402553066,4.593176,0.223694,0.93584648664,7.5071524712,16,5,7.955,449.90019353066,0.984252,1.8342908,1.3368110664,0,0.223694,0,356.6, -0.3, -1.9,0,0,1024,1024,1024,1024,0,0,0,0,11.3,0,0,78,3.98,3.973,0,0,0,0,4.335,79.16,449.24402553066,0.328084,6,P-GPS,
121300,2022-09-03 18:41:29,-34.8657011494125,-55.2576135746172,0.328084,0.39370079999994,448.75189953066,449.24402553066,4.593176,0.223694,0.9243602658,7.5722443368,16,5,7.948,449.90019353066,0.984252,1.8342908,1.3368110664,0,0.223694,0,356.7, -0.2, 2,0,0,1024,1024,1024,1024,0,0,0,0,11.3,0,0,78,3.979,3.97,0,0,0,0,4.366,79.34,449.24402553066,0.328084,6,P-GPS,
121400,2022-09-03 18:41:29,-34.8657010736768,-55.2576133751368,0.328084,0.328084,448.81751633066,449.24402553066,4.593176,0.447388,0.9180446488,7.6380251788,16,5,7.948,449.90019353066,0.984252,1.8342908,1.3368110664,0,0.447388,0,357, -0.1, 1.3,0,0,1024,1024,1024,1024,0,0,0,0,11.3,0,0,78,3.979,3.97,0,0,0,0,4.366,79.34,449.24402553066,0.328084,6,P-GPS,
121500,2022-09-03 18:41:30,-34.8657007591624,-55.2576132227674,0.328084,0.328084,448.81751633066,449.24402553066,4.593176,0.223694,0.8320702366,7.7615159964,16,5,7.948,449.90019353066,0.984252,1.8342908,1.3368110664,0,0.223694,0,356.6, -0.1, -1.7,0,0,1024,1024,1024,1024,0,0,0,0,11.3,0,0,78,3.979,3.97,0,0,0,0,4.366,79.34,449.24402553066,0.328084,6,P-GPS,
121600,2022-09-03 18:41:30,-34.8657006986494,-55.2576130864038,0.328084,0.328084,448.81751633066,449.24402553066,4.593176,0.223694,0.83236879304,7.8079398824,14,5,7.948,449.90019353066,0.984252,1.8342908,1.3368110664,0,0.223694,0,356.7, -0.1, -1.6,0,0,1024,1024,1024,1024,0,0,0,0,11.3,0,0,78,3.979,3.97,0,0,0,0,4.366,79.34,449.24402553066,0.328084,6,P-GPS,
121700,2022-09-03 18:41:30,-34.8657006856349,-55.2576131262943,0.328084,0.328084,448.81751633066,449.24402553066,4.593176,0,0.82227364836,7.8207679668,14,5,7.948,449.90019353066,0.984252,1.8342908,1.3368110664,0,0,0,356.7, -0.1, -1.2,0,0,1024,1024,1024,1024,0,0,0,0,11.3,0,0,78,3.979,3.97,0,0,0,0,4.366,79.34,449.24402553066,0.328084,6,P-GPS,
121800,2022-09-03 18:41:30,-34.8657006383872,-55.2576132055562,0.328084,0.328084,448.81751633066,449.24402553066,4.593176,0,0.79560698084,7.8500986764,15,5,7.948,449.90019353066,0.984252,1.8342908,1.3368110664,0,0,0,356.7, -0.2, -0.9,0,0,1024,1440,1024,1024,0,63,0,0,11.3,0,0,78,3.979,3.97,0,0,0,0,4.366,79.34,449.24402553066,0.328084,6,P-GPS,
121900,2022-09-03 18:41:30,-34.8657003678929,-55.2576137439723,0.328084,0.328084,448.81751633066,449.24402553066,4.593176,0,0.6380741674,8.0391078688,15,5,7.948,449.90019353066,0.984252,1.8342908,1.3368110664,0,0,0,356.7, -0.2, 0.2,0,0,1024,1024,1024,1024,0,0,0,0,11.3,0,0,78,3.979,3.97,0,0,0,0,4.366,79.34,449.24402553066,0.328084,6,P-GPS,
122000,2022-09-03 18:41:30,-34.8657002901868,-55.257613788531,0.328084,0.328084,448.81751633066,449.24402553066,4.593176,0,0.60685041312,8.0704398908,15,5,7.948,449.90019353066,0.984252,1.8342908,1.3368110664,0,0,0,356.8, -0.3, 5,0,0,1024,1024,1024,1024,0,0,0,0,11.3,0,0,78,3.979,3.97,0,0,0,0,4.366,79.34,449.24402553066,0.328084,6,P-GPS,
122100,2022-09-03 18:41:30,-34.8657003210914,-55.2576137296354,0.328084,0.328084,448.81751633066,449.24402553066,4.593176,0.223694,0.62367456064,8.09137165,15,5,7.948,449.90019353066,0.984252,1.8342908,1.3368110664,0,0.223694,0,356.5, -0.3, -0.5,0,0,1024,1024,1024,1024,0,0,0,0,11.3,0,0,78,3.979,3.97,0,0,0,0,4.366,79.34,449.24402553066,0.328084,6,P-GPS,
122200,2022-09-03 18:41:30,-34.8657003538557,-55.2576136418483,0.328084,0.328084,448.81751633066,449.24402553066,4.593176,0.223694,0.64473099176,8.120243042,15,5,7.948,449.90019353066,0.984252,1.8342908,1.3368110664,0,0.223694,0,356.6, -0.3, -1.4,0,0,1024,1024,1024,1024,0,0,0,0,11.3,0,0,78,3.979,3.97,0,0,0,0,4.366,79.34,449.24402553066,0.328084,6,P-GPS,
122300,2022-09-03 18:41:30,-34.8657005952432,-55.2576133600198,0.328084,0.328084,448.81751633066,449.24402553066,4.593176,0.223694,0.76015750464,8.2421918648,15,5,7.943,449.90019353066,0.984252,1.8342908,1.3368110664,0,0.223694,0,356.7, -0.3, -1.1,0,0,1024,1024,1024,1024,0,0,0,0,11.3,0,0,78,3.977,3.968,0,0,0,0,4.414,79.34,449.24402553066,0.328084,6,P-GPS,
122400,2022-09-03 18:41:30,-34.8657006213537,-55.2576131628274,0.328084,0.328084,448.81751633066,449.24402553066,4.593176,0.223694,0.7964895268,8.3019687696,14,4,7.943,449.90019353066,0.984252,1.8342908,1.3368110664,0,0,0,356.7, -0.3, -0.9,0,0,1024,1024,1024,1024,0,0,0,0,11.3,0,0,78,3.977,3.968,0,0,0,0,4.414,79.34,449.24402553066,0.328084,6,P-GPS,
122500,2022-09-03 18:41:31,-34.8657006346711,-55.2576128397885,0.328084,0.328084,448.81751633066,449.24402553066,4.593176,0,0.8529035706,8.3988191664,14,4,7.943,449.90019353066,0.984252,1.8342908,1.3368110664,0,0,0,356.8, -0.3, -0.7,0,0,1024,1024,1024,1024,0,0,0,0,11.3,0,0,78,3.977,3.968,0,0,0,0,4.414,79.34,449.24402553066,0.328084,6,P-GPS,
122600,2022-09-03 18:41:31,-34.8657006435266,-55.2576125884375,0.328084,0.328084,448.81751633066,449.24402553066,4.593176,0,0.90113848028,8.4741144444,14,4,7.943,449.90019353066,0.984252,1.8342908,1.3368110664,0,0,0,356.8, -0.2, -0.8,0,0,1024,1024,1024,1024,0,0,0,0,11.3,0,0,78,3.977,3.968,0,0,0,0,4.414,79.34,449.24402553066,0.328084,6,P-GPS,
122700,2022-09-03 18:41:31,-34.8657006468844,-55.2576124450842,0.328084,0.26246719999997,448.88313313066,449.24402553066,4.593176,0,0.92979333684,8.51706064,14,4,7.943,449.90019353066,0.984252,1.8342908,1.3368110664,0,0,0,356.8, -0.1, -0.5,0,0,1024,1024,1024,1024,0,0,0,0,11.3,0,0,78,3.977,3.968,0,0,0,0,4.414,79.34,449.24402553066,0.328084,6,P-GPS,
122800,2022-09-03 18:41:31,-34.8657007105045,-55.2576118715225,0.328084,0.26246719999997,448.88313313066,449.24402553066,4.593176,0,1.06650922048,8.6903218004,14,4,7.943,449.90019353066,0.984252,1.8342908,1.3368110664,0,0,0,356.8, -0.2, -0.2,0,0,1024,1024,1024,1024,0,0,0,0,11.3,0,0,78,3.977,3.968,0,0,0,0,4.414,79.34,449.24402553066,0.328084,6,P-GPS,
122900,2022-09-03 18:41:31,-34.8657007191027,-55.257611767517,0.328084,0.26246719999997,448.88313313066,449.24402553066,4.593176,0,1.09169951,8.721621014,14,4,7.943,449.90019353066,0.984252,1.8342908,1.3368110664,0,0,0,356.8, -0.3, -0.1,0,0,1024,1024,1024,1024,0,0,0,0,11.3,0,0,78,3.977,3.968,0,0,0,0,4.414,79.34,449.24402553066,0.328084,6,P-GPS,
123000,2022-09-03 18:41:31,-34.8657007134259,-55.2576117033013,0.328084,0.26246719999997,448.88313313066,449.24402553066,4.593176,0,1.10478021908,8.7409451616,15,4,7.943,449.90019353066,0.984252,1.8342908,1.3368110664,0,0,0,356.8, -0.4, 0,0,0,1024,1024,1024,1024,0,0,0,0,11.3,0,0,78,3.977,3.968,0,0,0,0,4.414,79.34,449.24402553066,0.328084,6,P-GPS,
123100,2022-09-03 18:41:31,-34.8657006721807,-55.2576117115138,0.328084,0.26246719999997,448.88313313066,449.24402553066,4.593176,0,1.0931102712,8.7562010676,15,4,7.943,449.90019353066,0.984252,1.8342908,1.3368110664,0,0,0,356.7, -0.4, 0,0,0,1024,1024,1024,487,0,0,0,-81,11.3,0,0,78,3.977,3.968,0,0,0,0,4.414,79.34,449.24402553066,0.328084,6,P-GPS,
123200,2022-09-03 18:41:31,-34.8657005595282,-55.257611780007,0.328084,0.26246719999997,448.88313313066,449.24402553066,4.593176,0,1.05101053232,8.8021328276,15,4,7.943,449.90019353066,0.984252,1.8342908,1.3368110664,0,0,0,356.7, -0.5, -0.3,0,0,1024,1024,1024,1024,0,0,0,0,11.3,0,0,78,3.977,3.968,0,0,0,0,4.414,79.34,449.24402553066,0.328084,6,P-GPS,
123300,2022-09-03 18:41:31,-34.8657005516628,-55.2576116802472,0.328084,0.26246719999997,448.88313313066,449.24402553066,4.593176,0,1.07246722592,8.8321197052,15,4,7.943,449.90019353066,0.984252,1.8342908,1.3368110664,0,0,0,356.4, -0.5, -0.3,0,0,1024,1024,1024,1024,0,0,0,0,10,0,0,78,3.977,3.968,0,0,0,0,4.414,79.34,449.24402553066,0.328084,6,P-GPS,
123400,2022-09-03 18:41:31,-34.8657005471715,-55.2576115832282,0.328084,0.26246719999997,448.88313313066,449.24402553066,4.593176,0,1.09441932636,8.861220756,15,4,7.941,449.90019353066,0.984252,1.8342908,1.3368110664,0,0,0,355.1, -0.6, -0.3,0,0,1024,1024,1024,1024,0,0,0,0,9.1,0,0,78,3.975,3.966,0,0,0,0,4.355,79.34,449.24402553066,0.328084,6,P-GPS,
123500,2022-09-03 18:41:31,-34.8657005478522,-55.257611476361,0.328084,0.19685039999993,448.94874993066,449.24402553066,4.593176,0,1.12019032456,8.893208946,15,4,7.941,449.90019353066,0.984252,1.8342908,1.3368110664,0,0,0,354.4, -0.5, -0.3,0,0,1024,1024,1024,1024,0,0,0,0,8.9,0,0,78,3.975,3.966,0,0,0,0,4.355,79.34,449.24402553066,0.328084,6,P-GPS,
123600,2022-09-03 18:41:32,-34.8657005509365,-55.257611397744,0.328084,0.19685039999993,448.94874993066,449.24402553066,4.593176,0,1.13989833044,8.9167653772,16,4,7.941,449.90019353066,0.984252,1.8342908,1.3368110664,0,0,0,354.3, -0.5, -0.1,0,0,1024,1024,1024,1024,0,0,0,0,8.9,0,0,78,3.975,3.966,0,0,0,0,4.355,79.34,449.24402553066,0.328084,6,P-GPS,
123700,2022-09-03 18:41:32,-34.8657005626841,-55.2576113454037,0.328084,0.19685039999993,448.94874993066,449.24402553066,4.593176,0,1.15514111308,8.9330055352,16,4,7.941,449.90019353066,0.984252,1.8342908,1.3368110664,0,0,0,354.3, -0.4, 0.1,0,0,1024,1024,1024,1024,0,0,0,0,8.9,0,0,78,3.975,3.966,0,0,0,0,4.355,79.34,449.24402553066,0.328084,6,P-GPS,
123800,2022-09-03 18:41:32,-34.8657005839548,-55.2576112861731,0.328084,0.19685039999993,448.94874993066,449.24402553066,4.593176,0,1.17410108744,8.9523624912,16,4,7.941,449.90019353066,0.984252,1.8342908,1.3368110664,0,0,0,354.3, -0.4, 0,0,0,1024,1024,1024,1024,0,0,0,0,8.9,0,0,78,3.975,3.966,0,0,0,0,4.355,79.34,449.24402553066,0.328084,6,P-GPS,
123900,2022-09-03 18:41:32,-34.8657006304241,-55.2576112091066,0.656168,0.52493439999993,448.94874993066,449.57210953066,4.593176,0,1.20272641644,8.9810042244,16,4,7.941,449.90019353066,0.984252,1.8342908,1.3368110664,0,0,0,354.3, -0.3, 0.1,0,0,1024,1024,1024,1024,0,0,0,0,8.9,0,0,78,3.975,3.966,0,0,0,0,4.355,79.34,449.57210953066,0.656168,6,P-GPS,
124000,2022-09-03 18:41:32,-34.8657006799809,-55.2576111984287,0.656168,0.52493439999993,448.94874993066,449.57210953066,4.593176,0,1.21582681056,8.99934412,16,4,7.941,449.90019353066,0.984252,1.8342908,1.3368110664,0,0,0,354.3, -0.3, 0.2,0,0,1024,1024,1024,1024,0,0,0,0,8.9,0,0,78,3.975,3.966,0,0,0,0,4.355,79.34,449.57210953066,0.656168,6,P-GPS,
124100,2022-09-03 18:41:32,-34.8657006432758,-55.2576111901694,0.328084,0.19685039999993,448.94874993066,449.24402553066,4.593176,0,1.21005909384,9.012959606,16,4,7.941,449.90019353066,0.984252,1.8342908,1.3368110664,0,0,0,354.3, -0.4, 0.2,0,0,1024,1024,1024,1441,0,0,0,63,8.9,0,0,78,3.975,3.966,0,0,0,0,4.355,79.34,449.24402553066,0.328084,6,P-GPS,
124200,2022-09-03 18:41:32,-34.865700610518,-55.2576111556103,0.328084,0.19685039999993,448.94874993066,449.24402553066,4.593176,0,1.21171919888,9.0287732548,16,4,7.941,449.90019353066,0.984252,1.8342908,1.3368110664,0,0,0,354.2, -0.5, 0.2,0,0,1024,1024,1024,1024,0,0,0,0,8.9,0,0,78,3.975,3.966,0,0,0,0,4.355,79.34,449.24402553066,0.328084,6,P-GPS,
124300,2022-09-03 18:41:32,-34.8657005903514,-55.2576110488032,0.328084,0.19685039999993,448.94874993066,449.24402553066,4.593176,0,1.23414702112,9.0615816548,16,4,7.941,449.90019353066,0.984252,1.8342908,1.3368110664,0,0,0,354.5, -0.4, 0.1,0,0,1024,1024,1024,1024,0,0,0,0,10,0,0,78,3.975,3.966,0,0,0,0,4.355,79.34,449.24402553066,0.328084,6,P-GPS,
124400,2022-09-03 18:41:32,-34.8657005740865,-55.2576109479916,0.328084,0.19685039999993,448.94874993066,449.24402553066,4.593176,0,1.25627628692,9.092355934,16,4,7.938,449.90019353066,0.984252,1.8342908,1.3368110664,0,0,0,355.7, -0.4, 0.1,0,0,1024,1024,1024,1024,0,0,0,0,10.9,0,0,78,3.972,3.964,0,0,0,0,4.312,79.34,449.24402553066,0.328084,6,P-GPS,
124500,2022-09-03 18:41:32,-34.8657005578411,-55.2576106388678,0.328084,0.19685039999993,448.94874993066,449.24402553066,4.593176,0,1.33237208988,9.1850724724,16,4,7.938,449.90019353066,0.984252,1.8342908,1.3368110664,0,0,0,356.3, -0.4, 0.1,0,0,1024,1024,1024,1024,0,0,0,0,11.1,0,0,78,3.972,3.964,0,0,0,0,4.312,79.34,449.24402553066,0.328084,6,P-GPS,
124600,2022-09-03 18:41:33,-34.8657005657488,-55.2576105253576,0.328084,0.19685039999993,448.94874993066,449.24402553066,4.593176,0,1.36331369192,9.2191932084,16,4,7.938,449.90019353066,0.984252,1.8342908,1.36331369192,0,0,0,356.4, -0.4, 0.1,0,0,1024,1024,1024,1024,0,0,0,0,11.1,0,0,78,3.972,3.964,0,0,0,0,4.312,79.34,449.24402553066,0.328084,6,P-GPS,
124700,2022-09-03 18:41:33,-34.8657006049976,-55.2576104449515,0.328084,0.13123359999999,449.01436673066,449.24402553066,4.593176,0,1.39131238048,9.2471787736,16,4,7.938,449.90019353066,0.984252,1.8342908,1.39131238048,0,0,0,356.5, -0.3, 0.2,0,0,1024,1024,1024,1024,0,0,0,0,11.1,0,0,78,3.972,3.964,0,0,0,0,4.312,79.34,449.24402553066,0.328084,6,P-GPS,
124800,2022-09-03 18:41:33,-34.8657006356905,-55.2576103548314,0.328084,0.13123359999999,449.01436673066,449.24402553066,4.593176,0,1.42031500608,9.276411058,16,4,7.938,449.90019353066,0.984252,1.8342908,1.42031500608,0,0,0,356.5, -0.1, 0.1,0,0,1024,1024,1024,1024,0,0,0,0,11.1,0,0,78,3.972,3.964,0,0,0,0,4.312,79.34,449.24402553066,0.328084,6,P-GPS,
124900,2022-09-03 18:41:33,-34.8657007202849,-55.2576102554099,0.328084,0.13123359999999,449.01436673066,449.24402553066,4.593176,0,1.46143049296,9.3192588284,16,4,7.938,449.90019353066,0.984252,1.8342908,1.46143049296,0,0,0,356.4, 0, 0.2,0,0,1024,1024,1024,1024,0,0,0,0,11.1,0,0,78,3.972,3.964,0,0,0,0,4.312,79.34,449.24402553066,0.328084,6,P-GPS,
125000,2022-09-03 18:41:33,-34.8657007401128,-55.2576101473874,0.328084,0.13123359999999,449.01436673066,449.24402553066,4.593176,0,1.49312012652,9.3523953124,16,4,7.938,449.90019353066,0.984252,1.8342908,1.49312012652,0,0,0,356.5, 0, 0.3,0,0,1024,1024,1024,1024,0,0,0,0,11.1,0,0,78,3.972,3.964,0,0,0,0,4.312,79.34,449.24402553066,0.328084,6,P-GPS,
125100,2022-09-03 18:41:33,-34.8657007982809,-55.2576100197039,0.328084,0.13123359999999,449.01436673066,449.24402553066,4.593176,0,1.53683731952,9.3961289096,16,4,7.938,449.90019353066,0.984252,1.8342908,1.53683731952,0,0,0,356.5, 0, 0.2,0,0,1024,1024,1024,1024,0,0,0,0,11.1,0,0,78,3.972,3.964,0,0,0,0,4.312,79.34,449.24402553066,0.328084,6,P-GPS,
125200,2022-09-03 18:41:33,-34.8657008433269,-55.2576098881179,0.328084,0.13123359999999,449.01436673066,449.24402553066,4.593176,0,1.579232334,9.438812638,15,4,7.938,449.90019353066,0.984252,1.8342908,1.579232334,0,0,0,356.5, 0, 0.2,0,0,1024,1024,1024,1024,0,0,0,0,11.1,0,0,78,3.972,3.964,0,0,0,0,4.312,79.34,449.24402553066,0.328084,6,P-GPS,
125300,2022-09-03 18:41:33,-34.8657009446259,-55.2576096000467,0.328084,0.13123359999999,449.01436673066,449.24402553066,4.593176,0,1.67256567032,9.532644662,15,4,7.938,449.90019353066,0.984252,1.8342908,1.67256567032,0,0,0,356.5, -0.1, 0.2,0,0,1024,1024,1024,1024,0,0,0,0,11.1,0,0,78,3.972,3.964,0,0,0,0,4.312,79.34,449.24402553066,0.328084,6,P-GPS,
125400,2022-09-03 18:41:33,-34.8657009852783,-55.257609431969,0.328084,0.032808399999989,449.11279193066,449.24402553066,4.593176,0,1.72382223364,9.5851052936,15,4,7.933,449.90019353066,0.984252,1.8342908,1.72382223364,0,0,0,356.5, -0.2, 0.2,0,0,1024,1024,1024,1024,0,0,0,0,11.1,0,0,77,3.97,3.962,0,0,0,0,4.321,79.34,449.24402553066,0.328084,6,P-GPS,
125500,2022-09-03 18:41:33,-34.8657010560212,-55.2576092752817,0.328084,0.032808399999989,449.11279193066,449.24402553066,4.593176,0,1.77735898076,9.638615794,15,4,7.933,449.90019353066,0.984252,1.8342908,1.77735898076,0,0,0,356.5, -0.1, 0.1,0,0,1024,1024,1024,1024,0,0,0,0,11.1,0,0,77,3.97,3.962,0,0,0,0,4.321,79.34,449.24402553066,0.328084,6,P-GPS,
125600,2022-09-03 18:41:34,-34.8657011049787,-55.2576091053748,0.328084,0.032808399999989,449.11279193066,449.24402553066,4.593176,0,1.83060045228,9.6925199952,15,4,7.933,449.90019353066,0.984252,1.8342908,1.83060045228,0,0,0,356.5, -0.2, 0,0,0,1024,1024,1024,1024,0,0,0,0,11.1,0,0,77,3.97,3.962,0,0,0,0,4.321,79.34,449.24402553066,0.328084,6,P-GPS,
125700,2022-09-03 18:41:34,-34.865701118231,-55.2576087965559,0.328084,0.032808399999989,449.11279193066,449.24402553066,4.593176,0,1.91473431324,9.7851053,15,4,7.933,449.90019353066,0.984252,1.8342908,1.91473431324,0,0,0,356.5, -0.2, 0,0,0,1024,1024,1024,1024,0,0,0,0,11.1,0,0,77,3.97,3.962,0,0,0,0,4.321,79.34,449.24402553066,0.328084,6,P-GPS,
125800,2022-09-03 18:41:34,-34.8657011459374,-55.2576086130168,0.328084,0.032808399999989,449.11279193066,449.24402553066,4.593176,0,1.9683235538,9.8409780052,15,4,7.933,449.90019353066,0.984252,1.8342908,1.9683235538,0,0,0,356.5, -0.2, 0.1,0,0,1024,1024,1039,1024,0,0,2,0,11.1,0,0,77,3.97,3.962,0,0,0,0,4.321,79.34,449.24402553066,0.328084,6,P-GPS,
125900,2022-09-03 18:41:34,-34.8657011914459,-55.2576084822056,0.328084,-0.032808400000045,449.17840873066,449.24402553066,4.593176,0,2.01077434256,9.8834976916,15,4,7.933,449.90019353066,0.984252,1.8342908,2.01077434256,0,0,0,356.5, -0.2, 0.1,0,0,1024,1024,1062,1024,0,0,6,0,11.1,0,0,77,3.97,3.962,0,0,0,0,4.321,79.34,449.24402553066,0.328084,6,P-GPS,
126000,2022-09-03 18:41:34,-34.8657012421426,-55.2576083389173,0.328084,-0.032808400000045,449.17840873066,449.24402553066,4.593176,0,2.05741804484,9.9302168532,15,4,7.933,449.90019353066,0.984252,1.8342908,2.05741804484,0,0,0,356.5, -0.2, 0,0,0,1024,1024,1076,1024,0,0,8,0,11.1,0,0,77,3.97,3.962,0,0,0,0,4.321,79.34,449.24402553066,0.328084,6,P-GPS,
126100,2022-09-03 18:41:34,-34.8657012953601,-55.2576081940371,0.328084,-0.032808400000045,449.17840873066,449.24402553066,4.593176,0,2.10489836132,9.9777234164,15,4,7.933,449.90019353066,0.984252,1.8342908,2.10489836132,0,0,0,356.5, -0.2, 0.2,0,0,1024,1024,1085,1024,0,0,9,0,11.1,0,0,77,3.97,3.962,0,0,0,0,4.321,79.34,449.24402553066,0.328084,6,P-GPS,
126200,2022-09-03 18:41:34,-34.8657013722748,-55.2576081223829,0.328084,-0.032808400000045,449.17840873066,449.24402553066,4.593176,0,2.13664376916,10.0130580632,14,4,7.933,449.90019353066,0.984252,1.8342908,2.13664376916,0,0,0,356.5, -0.1, 0.2,0,0,1024,1024,1092,1024,0,0,10,0,11.1,0,0,77,3.97,3.962,0,0,0,0,4.321,79.34,449.24402553066,0.328084,6,P-GPS,
126300,2022-09-03 18:41:34,-34.865701423307,-55.2576079534166,0.328084,-0.032808400000045,449.17840873066,449.24402553066,4.593176,0,2.19019363964,10.0669622644,14,4,7.933,449.90019353066,0.984252,1.8342908,2.19019363964,0,0,0,356.5, -0.1, 0,0,0,1024,1024,1094,1024,0,0,11,0,11.1,0,0,77,3.97,3.962,0,0,0,0,4.321,79.34,449.24402553066,0.328084,6,P-GPS,
126400,2022-09-03 18:41:34,-34.8657014737594,-55.2576078230021,0.328084,-0.032808400000045,449.17840873066,449.24402553066,4.92126,0,2.23334324732,10.1101381188,14,4,7.929,449.90019353066,0.984252,1.8342908,2.23334324732,0,0,0,356.5, -0.1, 0,0,0,1024,1024,1087,1024,0,0,10,0,11.1,0,0,77,3.963,3.956,0,0,0,0,4.33,79.34,449.24402553066,0.328084,6,P-GPS,
126500,2022-09-03 18:41:35,-34.8657015303413,-55.2576077547397,0.328084,0.065616799999959,449.07998353066,449.24402553066,4.92126,0,2.26088261828,10.1391735528,14,4,7.929,449.90019353066,0.984252,1.8342908,2.26088261828,0,0,0,356.5, -0.1, 0,0,0,1024,1024,1024,1024,0,0,0,0,11.1,0,0,77,3.963,3.956,0,0,0,0,4.33,79.34,449.24402553066,0.328084,6,P-GPS,
126600,2022-09-03 18:41:35,-34.8657016207949,-55.2576079156325,0.328084,0.065616799999959,449.07998353066,449.24402553066,4.92126,0,2.2334154258,10.1975725048,14,4,7.929,449.90019353066,0.984252,1.8342908,2.26088261828,0,0,0,356.5, -0.1, 0,0,1,1024,1024,1024,1024,0,0,0,0,11.1,0,0,77,3.963,3.956,0,0,0,0,4.33,79.34,449.24402553066,0.328084,6,P-GPS,
126700,2022-09-03 18:41:35,-34.8657016758103,-55.2576078479105,0.328084,0.065616799999959,449.07998353066,449.24402553066,4.92126,0,2.2607776314,10.2260830044,14,4,7.929,449.90019353066,0.984252,1.8342908,2.26088261828,0,0,0,356.6, -0.1, 0,0,1,1024,1024,1024,1024,0,0,0,0,11.1,0,0,77,3.963,3.956,0,0,0,0,4.33,79.34,449.24402553066,0.328084,6,P-GPS,
126800,2022-09-03 18:41:35,-34.8657017019891,-55.2576077766092,0.328084,0.065616799999959,449.07998353066,449.24402553066,4.92126,0,2.28409784212,10.2494753936,14,4,7.929,449.90019353066,0.984252,1.8342908,2.28409784212,0,0,0,356.5, -0.1, 0,0,1,1057,1024,1024,1024,5,0,0,0,11.1,0,0,77,3.963,3.956,0,0,0,0,4.33,79.34,449.24402553066,0.328084,6,P-GPS,
126900,2022-09-03 18:41:35,-34.8657016599101,-55.2576076904973,0.328084,0.065616799999959,449.07998353066,449.24402553066,4.92126,0,2.29964246204,10.2794622712,14,4,7.929,449.90019353066,0.984252,1.8342908,2.29964246204,0,0,0,356.5, -0.1, -0.1,0,1,1139,1024,1024,1024,17,0,0,0,11.1,0,0,77,3.963,3.956,0,0,0,0,4.33,79.34,449.24402553066,0.328084,6,P-GPS,
127000,2022-09-03 18:41:35,-34.8657014134972,-55.2576077211142,0.328084,-0.032808400000045,449.17840873066,449.24402553066,4.92126,0,2.2510007282,10.3698494132,14,4,7.929,449.90019353066,0.984252,1.8342908,2.29964246204,0,0,0,356.5, -0.8, 0.1,0,1,1162,1024,1024,1024,21,0,0,0,11.1,0,0,77,3.963,3.956,0,0,0,0,4.33,79.34,449.24402553066,0.328084,6,P-GPS,
127100,2022-09-03 18:41:35,-34.8657013825535,-55.2576076253041,0.328084,-0.032808400000045,449.17840873066,449.24402553066,4.92126,0,2.2720309126,10.4006565008,14,4,7.929,449.90019353066,0.984252,1.8342908,2.29964246204,0,0,0,356.5, -1.4, 0.2,0,1,1165,1024,1024,1024,21,0,0,0,11.1,0,0,77,3.963,3.956,0,0,0,0,4.33,79.34,449.24402553066,0.328084,6,P-GPS,
127200,2022-09-03 18:41:35,-34.865701339999,-55.2576075454918,0.328084,-0.032808400000045,449.17840873066,449.24402553066,4.92126,0,2.28716542752,10.4291670004,14,4,7.929,449.90019353066,0.984252,1.8342908,2.29964246204,0,0,0,356.5, -1.8, 0.1,0,1,1164,1024,1024,1024,21,0,0,0,11.1,0,0,77,3.963,3.956,0,0,0,0,4.33,79.34,449.24402553066,0.328084,6,P-GPS,
127300,2022-09-03 18:41:35,-34.8657012828341,-55.2576074938935,0.328084,-0.098425200000078,449.24402553066,449.24402553066,4.92126,0,2.2926673962,10.4551184448,14,4,7.929,449.90019353066,0.984252,1.8342908,2.29964246204,0,0,0,356.5, -1.9, 0.1,0,1,1164,1024,1024,1024,21,0,0,0,11.1,0,0,77,3.963,3.956,0,0,0,0,4.33,79.34,449.24402553066,0.328084,6,P-GPS,
