time(millisecond),datetime(utc),latitude,longitude,height_above_takeoff(feet),height_above_ground_at_drone_location(feet),ground_elevation_at_drone_location(feet),altitude_above_seaLevel(feet),height_sonar(feet),speed(mph),distance(feet),mileage(feet),satellites,gpslevel,voltage(v),max_altitude(feet),max_ascent(feet),max_speed(mph),max_distance(feet), xSpeed(mph), ySpeed(mph), zSpeed(mph), compass_heading(degrees), pitch(degrees), roll(degrees),isPhoto,isVideo,rc_elevator,rc_aileron,rc_throttle,rc_rudder,rc_elevator(percent),rc_aileron(percent),rc_throttle(percent),rc_rudder(percent),gimbal_heading(degrees),gimbal_pitch(degrees),gimbal_roll(degrees),battery_percent,voltageCell1,voltageCell2,voltageCell3,voltageCell4,voltageCell5,voltageCell6,current(A),battery_temperature(f),altitude(feet),ascent(feet),flycStateRaw,flycState,message
59300,2022-08-30 05:04:54,0,0,0,,,3.28084E-5,0.328084,0,0,0,0,0,8.634,3.28084E-5,0,0,0,0,0,0,46.8, 2.3, -0.4,0,0,364,364,364,1684,-100,-100,-100,100,46.8,0,0,97,4.318,4.317,0,0,0,0,0.542,75.74,3.28084E-5,0,41,Motors_Started,"Sin tarjeta SD. Inserta una tarjeta (Code: 10022). Sin señal GPS. La aeronave no puede hacer vuelo estacionario. Vuela con cuidado (Code: 30008). Sin tarjeta SD. Inserta una tarjeta (Code: 10022). Señal débil del GPS. Vuelo estacionario inestable. Vu"
59400,2022-08-30 05:04:54,0,0,0,,,3.28084E-5,0.328084,0,0,0,0,0,8.634,3.28084E-5,0,0,0,0,0,0,46.8, 2.3, -0.4,0,0,364,364,364,1684,-100,-100,-100,100,46.9,0,0,97,4.318,4.317,0,0,0,0,0.542,75.74,3.28084E-5,0,41,Motors_Started,
59500,2022-08-30 05:04:54,0,0,0,,,3.28084E-5,0.328084,0,0,0,0,0,8.634,3.28084E-5,0,0,0,0,0,0,46.8, 2.3, -0.4,0,0,364,364,364,1684,-100,-100,-100,100,46.9,0,0,97,4.318,4.317,0,0,0,0,0.542,75.74,3.28084E-5,0,41,Motors_Started,
59600,2022-08-30 05:04:54,0,0,0,,,3.28084E-5,0.328084,0,0,0,0,0,8.634,3.28084E-5,0,0,0,0,0,0,46.7, 2.3, -0.4,0,0,364,364,364,1684,-100,-100,-100,100,46.9,0,0,97,4.318,4.317,0,0,0,0,0.542,75.74,3.28084E-5,0,41,Motors_Started,
59700,2022-08-30 05:04:54,0,0,0,,,3.28084E-5,0.328084,0,0,0,0,0,8.634,3.28084E-5,0,0,0,0,0,0,46.7, 2.3, -0.4,0,0,364,364,364,1684,-100,-100,-100,100,46.9,0,0,97,4.318,4.317,0,0,0,0,0.542,75.74,3.28084E-5,0,41,Motors_Started,
59800,2022-08-30 05:04:54,0,0,0,,,3.28084E-5,0.328084,0,0,0,0,0,8.634,3.28084E-5,0,0,0,0,0,0,46.7, 2.3, -0.4,0,0,619,520,1024,1024,-61,-76,0,0,46.8,0,0,97,4.318,4.317,0,0,0,0,0.542,75.74,3.28084E-5,0,41,Motors_Started,
59900,2022-08-30 05:04:54,0,0,0,,,3.28084E-5,0.328084,0,0,0,0,0,8.634,3.28084E-5,0,0,0,0,0,0,46.7, 2.3, -0.4,0,0,619,520,1024,1024,-61,-76,0,0,46.8,0,0,97,4.318,4.317,0,0,0,0,0.542,75.74,3.28084E-5,0,41,Motors_Started,
60000,2022-08-30 05:04:55,0,0,0,,,3.28084E-5,0.328084,0,0,0,0,0,8.634,3.28084E-5,0,0,0,0,0,0,46.7, 2.3, -0.4,0,0,1024,1024,1024,1024,0,0,0,0,46.8,0,0,97,4.318,4.317,0,0,0,0,0.542,75.74,3.28084E-5,0,41,Motors_Started,"Setting new Return-To-Home altitude to 60m (197 ft). Data Recorder File Index is 34. Setting new Maximum Flight Altitude to 30m (98 ft)"
60100,2022-08-30 05:04:55,0,0,0,,,3.28084E-5,0.328084,0,0,0,0,0,8.634,3.28084E-5,0,0,0,0,0,0,46.7, 2.3, -0.4,0,0,1024,1024,1024,1024,0,0,0,0,46.8,0,0,97,4.318,4.317,0,0,0,0,0.542,75.74,3.28084E-5,0,41,Motors_Started,
60200,2022-08-30 05:04:55,0,0,0,,,3.28084E-5,0.328084,0,0,0,0,0,8.634,3.28084E-5,0,0,0,0,0,0,46.7, 2.3, -0.4,0,0,1024,1024,1024,1024,0,0,0,0,46.8,0,0,97,4.318,4.317,0,0,0,0,0.542,75.74,3.28084E-5,0,41,Motors_Started,
60300,2022-08-30 05:04:55,0,0,0,,,3.28084E-5,0.328084,0,0,0,0,0,8.608,3.28084E-5,0,0,0,0,0,0,46.7, 2.3, -0.4,0,0,1024,1024,1617,1024,0,0,90,0,46.8,0,0,97,4.298,4.294,0,0,0,0,0.751,75.92,3.28084E-5,0,41,Motors_Started,
60400,2022-08-30 05:04:55,0,0,0,,,3.28084E-5,0.328084,0,0,0,0,0,8.608,3.28084E-5,0,0,0,0,0,0,46.7, 2.3, -0.4,0,0,1024,1024,1684,1024,0,0,100,0,46.8,0,0,97,4.298,4.294,0,0,0,0,0.751,75.92,3.28084E-5,0,10,Assisted_Takeoff,
60500,2022-08-30 05:04:55,0,0,0,,,3.28084E-5,0.328084,0,0,0,0,0,8.608,3.28084E-5,0,0,0,0,0,0,46.7, 2.3, -0.4,0,0,1024,1024,1024,1024,0,0,0,0,46.8,0,0,97,4.298,4.294,0,0,0,0,0.751,75.92,3.28084E-5,0,10,Assisted_Takeoff,
60600,2022-08-30 05:04:55,0,0,0,,,3.28084E-5,0.328084,0,0,0,0,0,8.608,3.28084E-5,0,0,0,0,0,0,46.6, 2.3, -0.4,0,0,1024,1024,1024,1024,0,0,0,0,46.7,0,0,97,4.298,4.294,0,0,0,0,0.751,75.92,3.28084E-5,0,10,Assisted_Takeoff,
60700,2022-08-30 05:04:55,0,0,0,,,3.28084E-5,0.328084,0,0,0,0,0,8.608,3.28084E-5,0,0,0,0,0,0,46.5, 2.2, -0.4,0,0,1024,1024,1024,1024,0,0,0,0,46.7,0,0,97,4.298,4.294,0,0,0,0,0.751,75.92,3.28084E-5,0,10,Assisted_Takeoff,"Vuela con cuidado (sin GPS)"
60800,2022-08-30 05:04:55,0,0,0,,,3.28084E-5,0.328084,0,0,0,0,0,8.608,3.28084E-5,0,0,0,0,0,0,46.4, 2.3, -0.4,0,0,1024,1024,1684,1024,0,0,100,0,46.6,0,0,97,4.298,4.294,0,0,0,0,0.751,75.92,3.28084E-5,0,10,Assisted_Takeoff,
60900,2022-08-30 05:04:56,0,0,0,,,3.28084E-5,0.328084,0,0,0,0,0,8.608,3.28084E-5,0,0,0,0,0,0,46.5, 2.3, -0.4,0,0,1024,1024,1684,1024,0,0,100,0,46.5,0,0,97,4.298,4.294,0,0,0,0,0.751,75.92,3.28084E-5,0,10,Assisted_Takeoff,
61000,2022-08-30 05:04:56,0,0,0,,,3.28084E-5,0.328084,0,0,0,0,0,8.608,3.28084E-5,0,0,0,0,0,0,46.6, 2.3, -0.4,0,0,1024,1024,1684,1024,0,0,100,0,46.5,0,0,97,4.298,4.294,0,0,0,0,0.751,75.92,3.28084E-5,0,10,Assisted_Takeoff,
61100,2022-08-30 05:04:56,0,0,0,,,3.28084E-5,0.328084,0,0,0,0,0,8.608,3.28084E-5,0,0,0,0,0,0,46.6, 2.3, -0.4,0,0,1024,1024,1431,1024,0,0,62,0,46.5,0,0,97,4.298,4.294,0,0,0,0,0.751,75.92,3.28084E-5,0,10,Assisted_Takeoff,
61200,2022-08-30 05:04:56,0,0,0,,,3.28084E-5,0.328084,0,0,0,0,0,8.608,3.28084E-5,0,0,0,0,0,0,47.7, 1.2, -0.5,0,0,1024,1024,1024,1024,0,0,0,0,47,0,0,97,4.298,4.294,0,0,0,0,0.751,75.92,3.28084E-5,0,10,Assisted_Takeoff,
61300,2022-08-30 05:04:56,0,0,0,,,3.28084E-5,0.328084,0,0,0,0,0,8.608,3.28084E-5,0,0,0,0,0,0,48.9, -1.4, 0,0,0,1024,1024,1024,1024,0,0,0,0,48.1,0,0,97,4.291,4.287,0,0,0,0,0.751,75.92,3.28084E-5,0,10,Assisted_Takeoff,
61400,2022-08-30 05:04:56,0,0,0,,,3.28084E-5,0.328084,0,0,0,0,0,8.608,3.28084E-5,0,0,0,0,0,0,49.6, -1.5, 0.4,0,0,1024,1024,1284,1024,0,0,39,0,49,0,0,97,4.291,4.287,0,0,0,0,0.751,75.92,3.28084E-5,0,10,Assisted_Takeoff,
61500,2022-08-30 05:04:56,0,0,0,,,3.28084E-5,0.328084,0,0,0,0,0,8.608,3.28084E-5,0,0,0,0,0,0,49.8, -0.9, 0.1,0,0,1024,1024,1024,1024,0,0,0,0,49.3,0,0,97,4.291,4.287,0,0,0,0,0.751,75.92,3.28084E-5,0,6,P-GPS,"Sin tarjeta SD. Inserta una tarjeta (Code: 10022). Señal débil del GPS. Vuelo estacionario inestable. Vuela con cuidado (Code: 30002)"
61600,2022-08-30 05:04:56,0,0,0,,,3.28084E-5,0.328084,0,0,0,0,0,8.608,3.28084E-5,0,0,0,0,0,0,49.5, 0.4, 0.1,0,0,1024,1024,1129,1024,0,0,16,0,49.3,0,0,97,4.291,4.287,0,0,0,0,0.751,75.92,3.28084E-5,0,6,P-GPS,
61700,2022-08-30 05:04:56,0,0,0,,,3.28084E-5,0.328084,0,0,0,0,0,8.608,3.28084E-5,0,0,0,0,0,-0.223694,49.6, -1, 0.6,0,0,1024,1024,1684,1024,0,0,100,0,49.3,0,0,97,4.291,4.287,0,0,0,0,0.751,75.92,3.28084E-5,0,6,P-GPS,
61800,2022-08-30 05:04:56,0,0,0,,,3.28084E-5,0.328084,0,0,0,0,0,8.608,3.28084E-5,0,0,0,0,0,-0.447388,49.5, -0.7, 0.1,0,0,1024,1024,1684,1024,0,0,100,0,49.3,0,0,97,4.291,4.287,0,0,0,0,0.751,75.92,3.28084E-5,0,6,P-GPS,
61900,2022-08-30 05:04:57,0,0,0,,,3.28084E-5,0.328084,0,0,0,0,0,8.608,3.28084E-5,0,0,0,0,0,-0.671082,49.5, -0.2, -0.2,0,0,1024,1024,1024,1024,0,0,0,0,49.3,0,0,97,4.291,4.287,0,0,0,0,0.751,75.92,3.28084E-5,0,6,P-GPS,
62000,2022-08-30 05:04:57,0,0,0,,,3.28084E-5,0.656168,0,0,0,0,0,8.608,3.28084E-5,0,0,0,0,0,-0.894776,49.4, 0.3, -0.4,0,0,1024,1024,1024,1024,0,0,0,0,49.3,0,0,97,4.291,4.287,0,0,0,0,0.751,75.92,3.28084E-5,0,6,P-GPS,
62100,2022-08-30 05:04:57,0,0,0.328084,,,0.3281168084,0.656168,0,0,0,0,0,8.608,0.3281168084,0.328084,0,0,0,0,-0.894776,49.4, 0.4, -0.4,0,0,1024,1024,1024,1024,0,0,0,0,49.3,0,0,97,4.291,4.287,0,0,0,0,0.751,75.92,0.3281168084,0.328084,6,P-GPS,
62200,2022-08-30 05:04:57,0,0,0.328084,,,0.3281168084,0.656168,0,0,0,0,0,8.608,0.3281168084,0.328084,0,0,0,0,-0.894776,49.3, 0.3, -0.1,0,0,1024,1024,1024,1024,0,0,0,0,49.3,0,0,97,4.291,4.287,0,0,0,0,0.751,75.92,0.3281168084,0.328084,6,P-GPS,
62300,2022-08-30 05:04:57,0,0,0.328084,,,0.3281168084,0.984252,0,0,0,0,0,8.557,0.3281168084,0.328084,0,0,0,0,-0.894776,49.4, 0.3, 0,0,0,1024,1024,1024,1024,0,0,0,0,49.3,0,0,97,4.229,4.219,0,0,0,0,1.668,75.74,0.3281168084,0.328084,6,P-GPS,
62400,2022-08-30 05:04:57,0,0,0.656168,,,0.6562008084,0.984252,0,0,0,0,0,8.557,0.6562008084,0.656168,0,0,0,0,-0.894776,49.3, 0, 0,0,0,1024,1024,1024,1024,0,0,0,0,49.3,0,0,97,4.229,4.219,0,0,0,0,1.668,75.74,0.6562008084,0.656168,1,Atti,"Vuela con cuidado (modo Atti) Señal del GPS demasiado débil. Se ha pasado al modo Atti. La aeronave no puede hacer vuelo estacionario. Vuela con precaución (Code: 30022). Sin tarjeta SD. Inserta una tarjeta (Code: 10022). Señal débil del GPS. Vuelo estacionario inestable. Vuela c"
62500,2022-08-30 05:04:57,0,0,0.656168,,,0.6562008084,1.312336,0,0,0,0,0,8.557,0.6562008084,0.656168,0,0,0,0,-0.894776,49.4, 0, 0,0,0,1024,1024,1024,1024,0,0,0,0,49.3,0,0,97,4.229,4.219,0,0,0,0,1.668,75.74,0.6562008084,0.656168,1,Atti,"Aeronave en modo Atti. No se puede hacer vuelo estacionario. Vuela con cuidado (Code: 30004). Sin tarjeta SD. Inserta una tarjeta (Code: 10022). La brújula no funciona bien el GPS no tiene buena señal. Cambia a modo Atti (Code: 30020)"
62600,2022-08-30 05:04:57,0,0,0.984252,,,0.9842848084,1.312336,0,0,0,0,0,8.557,0.9842848084,0.984252,0,0,0,0,-0.671082,49.4, -0.1, 0,0,0,1024,1024,1024,1024,0,0,0,0,49.3,0,0,97,4.229,4.219,0,0,0,0,1.668,75.74,0.9842848084,0.984252,1,Atti,
62700,2022-08-30 05:04:57,0,0,0.984252,,,0.9842848084,1.312336,0,0,0,0,0,8.557,0.9842848084,0.984252,0,0,0,0,-0.671082,49.4, 0, 0,0,0,1024,1024,1024,1024,0,0,0,0,49.3,0,0,97,4.229,4.219,0,0,0,0,1.668,75.74,0.9842848084,0.984252,1,Atti,
62800,2022-08-30 05:04:57,0,0,0.984252,,,0.9842848084,1.64042,0,0,0,0,0,8.557,0.9842848084,0.984252,0,0,0,0,-0.447388,49.4, 0, 0,0,0,1024,1024,1024,1024,0,0,0,0,49.3,0,0,97,4.229,4.219,0,0,0,0,1.668,75.74,0.9842848084,0.984252,6,P-GPS,"Sin tarjeta SD. Inserta una tarjeta (Code: 10022). Señal débil del GPS. Vuelo estacionario inestable. Vuela con cuidado (Code: 30002)"
62900,2022-08-30 05:04:57,0,0,0.984252,,,0.9842848084,1.64042,0,0,0,0,0,8.557,0.9842848084,0.984252,0,0,0,0,-0.223694,49.4, 0.2, 0,0,0,1024,1024,1024,1024,0,0,0,0,49.3,0,0,97,4.229,4.219,0,0,0,0,1.668,75.74,0.9842848084,0.984252,6,P-GPS,
63000,2022-08-30 05:04:58,0,0,0.984252,,,0.9842848084,1.64042,0,0,0,0,0,8.557,0.9842848084,0.984252,0,0,0,0,-0.223694,49.3, 0.4, 0,0,0,1024,1024,1024,1024,0,0,0,0,49.3,0,0,97,4.229,4.219,0,0,0,0,1.668,75.74,0.9842848084,0.984252,6,P-GPS,
63100,2022-08-30 05:04:58,0,0,1.312336,,,1.3123688084,1.64042,0,0,0,0,0,8.557,1.3123688084,1.312336,0,0,0,0,0,49.4, 0.5, 0,0,0,1024,1024,1024,1024,0,0,0,0,49.3,0,0,97,4.229,4.219,0,0,0,0,1.668,75.74,1.3123688084,1.312336,6,P-GPS,
63200,2022-08-30 05:04:58,0,0,1.312336,,,1.3123688084,1.64042,0,0,0,0,0,8.557,1.3123688084,1.312336,0,0,0,0,0,49.4, 0.4, 0,0,0,1024,1024,1024,1024,0,0,0,0,49.3,0,0,97,4.229,4.219,0,0,0,0,1.668,75.74,1.3123688084,1.312336,6,P-GPS,
63300,2022-08-30 05:04:58,0,0,1.312336,,,1.3123688084,1.64042,0,0,0,0,0,8.485,1.3123688084,1.312336,0,0,0,0,0,49.4, 0.3, 0.1,0,0,1024,1024,1024,1024,0,0,0,0,49.3,0,0,97,4.234,4.227,0,0,0,0,2.998,75.74,1.3123688084,1.312336,6,P-GPS,
63400,2022-08-30 05:04:58,0,0,1.312336,,,1.3123688084,1.64042,0,0,0,0,0,8.485,1.3123688084,1.312336,0,0,0,0,0,49.4, 0.4, 0,0,0,1024,1024,1024,887,0,0,0,-21,49.3,0,0,97,4.234,4.227,0,0,0,0,2.998,75.74,1.3123688084,1.312336,6,P-GPS,
63500,2022-08-30 05:04:58,0,0,1.312336,,,1.3123688084,1.64042,0,0,0,0,0,8.485,1.3123688084,1.312336,0,0,0,0,0,49.4, 0.3, 0,0,0,1024,1024,1024,574,0,0,0,-68,49.3,0,0,97,4.234,4.227,0,0,0,0,2.998,75.74,1.3123688084,1.312336,6,P-GPS,
63600,2022-08-30 05:04:58,0,0,1.312336,,,1.3123688084,1.64042,0,0,0,0,0,8.485,1.3123688084,1.312336,0,0,0,0,0,49.3, 0.3, 0,0,0,1024,1024,1024,558,0,0,0,-71,48.9,0,0,97,4.234,4.227,0,0,0,0,2.998,75.74,1.3123688084,1.312336,6,P-GPS,
63700,2022-08-30 05:04:58,0,0,1.312336,,,1.3123688084,1.64042,0,0,0,0,0,8.485,1.3123688084,1.312336,0,0,0,0,0,48.3, 0.4, 0,0,0,1024,1024,1024,1024,0,0,0,0,47.1,0,0,97,4.234,4.227,0,0,0,0,2.998,75.74,1.3123688084,1.312336,6,P-GPS,
63800,2022-08-30 05:04:58,0,0,1.312336,,,1.3123688084,1.64042,0,0,0,0,0,8.485,1.3123688084,1.312336,0,0,0,0,0,46.1, 0.3, -0.1,0,0,1024,1024,1024,1024,0,0,0,0,44.9,0,0,97,4.234,4.227,0,0,0,0,2.998,75.74,1.3123688084,1.312336,6,P-GPS,
63900,2022-08-30 05:04:59,0,0,1.312336,,,1.3123688084,1.64042,0,0,0,0,0,8.485,1.3123688084,1.312336,0,0,0,0,0,44.4, 0.3, -0.3,0,0,1024,1024,1024,1024,0,0,0,0,43.7,0,0,97,4.234,4.227,0,0,0,0,2.998,75.74,1.3123688084,1.312336,6,P-GPS,
64000,2022-08-30 05:04:59,0,0,1.312336,,,1.3123688084,1.64042,0,0,0,0,0,8.485,1.3123688084,1.312336,0,0,0,0,0,43.6, 0.3, -0.2,0,0,1024,1024,1024,1024,0,0,0,0,43.3,0,0,97,4.234,4.227,0,0,0,0,2.998,75.74,1.3123688084,1.312336,6,P-GPS,
64100,2022-08-30 05:04:59,0,0,1.312336,,,1.3123688084,1.64042,0,0,0,0,0,8.485,1.3123688084,1.312336,0,0,0,0,0,43.4, 0.3, -0.1,0,0,1024,1024,1024,1024,0,0,0,0,43.3,0,0,97,4.234,4.227,0,0,0,0,2.998,75.74,1.3123688084,1.312336,6,P-GPS,
64200,2022-08-30 05:04:59,0,0,1.312336,,,1.3123688084,1.64042,0,0,0,0,0,8.485,1.3123688084,1.312336,0,0,0,0,0,43.4, 0.3, -0.1,0,0,1024,1024,1024,1024,0,0,0,0,43.3,0,0,97,4.234,4.227,0,0,0,0,2.998,75.74,1.3123688084,1.312336,6,P-GPS,
64300,2022-08-30 05:04:59,0,0,1.312336,,,1.3123688084,1.64042,0,0,0,0,0,8.463,1.3123688084,1.312336,0,0,0,0,0,43.3, 0.4, -0.2,0,0,1024,1024,1024,1024,0,0,0,0,43.3,0,0,97,4.225,4.217,0,0,0,0,4.003,75.74,1.3123688084,1.312336,6,P-GPS,
64400,2022-08-30 05:04:59,0,0,1.312336,,,1.3123688084,1.64042,0,0,0,0,0,8.463,1.3123688084,1.312336,0,0,0,0,0,43.3, 0.3, -0.2,0,0,1024,1024,1024,1024,0,0,0,0,43.3,0,0,97,4.225,4.217,0,0,0,0,4.003,75.74,1.3123688084,1.312336,6,P-GPS,
64500,2022-08-30 05:04:59,0,0,1.64042,,,1.6404528084,1.64042,0,0,0,0,0,8.463,1.6404528084,1.64042,0,0,0,0,0,43.3, 0.3, -0.1,0,0,1024,1024,1024,1024,0,0,0,0,43.3,0,0,97,4.225,4.217,0,0,0,0,4.003,75.74,1.6404528084,1.64042,6,P-GPS,
64600,2022-08-30 05:04:59,0,0,1.64042,,,1.6404528084,1.64042,0,0,0,0,0,8.463,1.6404528084,1.64042,0,0,0,0,0,43.3, 0.3, -0.2,0,0,1024,1024,1024,1024,0,0,0,0,43.3,0,0,97,4.225,4.217,0,0,0,0,4.003,75.74,1.6404528084,1.64042,6,P-GPS,
64700,2022-08-30 05:04:59,0,0,1.64042,,,1.6404528084,1.64042,0,0,0,0,0,8.463,1.6404528084,1.64042,0,0,0,0,0,43.3, 0.3, -0.1,0,0,1024,1024,1024,1024,0,0,0,0,43.3,0,0,97,4.225,4.217,0,0,0,0,4.003,75.74,1.6404528084,1.64042,6,P-GPS,
64800,2022-08-30 05:04:59,0,0,1.64042,,,1.6404528084,1.64042,0,0,0,0,0,8.463,1.6404528084,1.64042,0,0,0,0,0,43.3, 0.3, -0.1,0,0,1024,1024,1024,1024,0,0,0,0,43.3,0,0,97,4.225,4.217,0,0,0,0,4.003,75.74,1.6404528084,1.64042,6,P-GPS,
64900,2022-08-30 05:05:00,0,0,1.64042,,,1.6404528084,1.64042,0,0,0,0,0,8.463,1.6404528084,1.64042,0,0,0,0,0,43.3, 0.3, 0,0,0,1024,1024,1024,1024,0,0,0,0,43.3,0,0,97,4.225,4.217,0,0,0,0,4.003,75.74,1.6404528084,1.64042,6,P-GPS,
65000,2022-08-30 05:05:00,0,0,1.64042,,,1.6404528084,1.64042,0,0,0,0,0,8.463,1.6404528084,1.64042,0,0,0,0,0,43.3, 0.2, 0,0,0,1024,1024,1024,1024,0,0,0,0,43.3,0,0,97,4.225,4.217,0,0,0,0,4.003,75.74,1.6404528084,1.64042,6,P-GPS,
65100,2022-08-30 05:05:00,0,0,1.64042,,,1.6404528084,1.64042,0,0,0,0,0,8.463,1.6404528084,1.64042,0,0,0,0,0,43.3, 0.2, 0,0,0,1024,1024,1024,1024,0,0,0,0,43.3,0,0,97,4.225,4.217,0,0,0,0,4.003,75.74,1.6404528084,1.64042,6,P-GPS,
65200,2022-08-30 05:05:00,0,0,1.64042,,,1.6404528084,1.64042,0,0,0,0,0,8.463,1.6404528084,1.64042,0,0,0,0,0,43.3, 0.3, 0,0,0,1024,1024,1024,1024,0,0,0,0,43.3,0,0,97,4.225,4.217,0,0,0,0,4.003,75.74,1.6404528084,1.64042,6,P-GPS,
65300,2022-08-30 05:05:00,0,0,1.64042,,,1.6404528084,1.64042,0,0,0,0,0,8.445,1.6404528084,1.64042,0,0,0,0,0,43.3, 0.3, 0,0,0,1024,1024,1024,1024,0,0,0,0,43.3,0,0,97,4.22,4.213,0,0,0,0,3.958,75.74,1.6404528084,1.64042,6,P-GPS,
65400,2022-08-30 05:05:00,0,0,1.64042,,,1.6404528084,1.64042,0,0,0,0,0,8.445,1.6404528084,1.64042,0,0,0,0,0,43.3, 0.2, 0,0,0,1024,1024,1024,1024,0,0,0,0,43.3,0,0,97,4.22,4.213,0,0,0,0,3.958,75.74,1.6404528084,1.64042,6,P-GPS,"Sin tarjeta SD"
65500,2022-08-30 05:05:00,0,0,1.64042,,,1.6404528084,1.64042,0,0,0,0,0,8.445,1.6404528084,1.64042,0,0,0,0,0,43.3, 0.1, 0,0,0,1024,1024,1024,1024,0,0,0,0,43.3,0,0,97,4.22,4.213,0,0,0,0,3.958,75.74,1.6404528084,1.64042,6,P-GPS,
65600,2022-08-30 05:05:00,0,0,1.64042,,,1.6404528084,1.64042,0,0,0,0,0,8.445,1.6404528084,1.64042,0,0,0,0,0,43.3, 0.2, 0.1,0,0,1024,1024,1024,1024,0,0,0,0,43.3,0,0,97,4.22,4.213,0,0,0,0,3.958,75.74,1.6404528084,1.64042,6,P-GPS,
65700,2022-08-30 05:05:00,0,0,1.64042,,,1.6404528084,1.64042,0,0,0,0,0,8.445,1.6404528084,1.64042,0,0,0,0,0,43.3, 0.2, 0,0,0,1024,1024,1024,1024,0,0,0,0,43.3,0,0,97,4.22,4.213,0,0,0,0,3.958,75.74,1.6404528084,1.64042,6,P-GPS,
65800,2022-08-30 05:05:00,0,0,1.64042,,,1.6404528084,1.64042,0,0,0,0,0,8.445,1.6404528084,1.64042,0,0,0,0,0,43.3, 0.3, 0,0,0,1024,1024,1024,1024,0,0,0,0,43.3,0,0,97,4.22,4.213,0,0,0,0,3.958,75.74,1.6404528084,1.64042,6,P-GPS,
65900,2022-08-30 05:05:00,0,0,1.64042,,,1.6404528084,1.64042,0,0,0,0,0,8.445,1.6404528084,1.64042,0,0,0,0,0,43.3, 0.3, 0.1,0,0,1024,1024,1612,1024,0,0,89,0,43.3,0,0,97,4.22,4.213,0,0,0,0,3.958,75.74,1.6404528084,1.64042,6,P-GPS,
66000,2022-08-30 05:05:01,0,0,1.64042,,,1.6404528084,1.64042,0,0,0,0,0,8.445,1.6404528084,1.64042,0,0,0,0,0,43.3, 0.3, 0.1,0,0,1024,1024,1684,1024,0,0,100,0,43.3,0,0,97,4.22,4.213,0,0,0,0,3.958,75.74,1.6404528084,1.64042,6,P-GPS,
66100,2022-08-30 05:05:01,0,0,1.64042,,,1.6404528084,1.64042,0,0,0,0,0,8.445,1.6404528084,1.64042,0,0,0,0,0,43.3, 0.3, 0.4,0,0,1024,1024,1684,1024,0,0,100,0,43.3,0,0,97,4.22,4.213,0,0,0,0,3.958,75.74,1.6404528084,1.64042,6,P-GPS,
66200,2022-08-30 05:05:01,0,0,1.64042,,,1.6404528084,1.64042,0,0,0,0,0,8.445,1.6404528084,1.64042,0,0,0,0,-0.671082,43.3, 0.3, 0.4,0,0,1024,1024,1024,1024,0,0,0,0,43.3,0,0,97,4.22,4.213,0,0,0,0,3.958,75.74,1.6404528084,1.64042,6,P-GPS,
66300,2022-08-30 05:05:01,0,0,1.64042,,,1.6404528084,1.968504,0,0,0,0,0,8.437,1.6404528084,1.64042,0,0,0,0,-1.342164,43.2, 0, 0,0,0,1024,1024,1024,1024,0,0,0,0,43.3,0,0,97,4.179,4.175,0,0,0,0,4.027,75.74,1.6404528084,1.64042,6,P-GPS,
66400,2022-08-30 05:05:01,0,0,1.968504,,,1.9685368084,1.968504,0,0,0,0,0,8.437,1.9685368084,1.968504,0,0,0,0,-0.894776,43.2, 0.7, 0,0,0,1024,1024,1109,1024,0,0,13,0,43.3,0,0,97,4.179,4.175,0,0,0,0,4.027,75.74,1.9685368084,1.968504,6,P-GPS,
66500,2022-08-30 05:05:01,0,0,1.968504,,,1.9685368084,2.296588,0,0,0,0,0,8.437,1.9685368084,1.968504,0,0,0,0,-0.671082,43.2, 0.7, 0,0,0,1024,1024,1539,1024,0,0,78,0,43.3,0,0,97,4.179,4.175,0,0,0,0,4.027,75.74,1.9685368084,1.968504,6,P-GPS,
66600,2022-08-30 05:05:01,0,0,1.968504,,,1.9685368084,2.296588,0,0,0,0,0,8.437,1.9685368084,1.968504,0,0,0,0,-0.671082,43.3, 0.4, 0.1,0,0,1024,1024,1447,1024,0,0,64,0,43.3,0,0,97,4.179,4.175,0,0,0,0,4.027,75.74,1.9685368084,1.968504,6,P-GPS,
66700,2022-08-30 05:05:01,0,0,2.296588,,,2.2966208084,2.296588,0,0,0,0,0,8.437,2.2966208084,2.296588,0,0,0,0,-1.11847,43.2, 0.2, 0,0,0,1024,1024,1024,1024,0,0,0,0,43.3,0,0,97,4.179,4.175,0,0,0,0,4.027,75.74,2.2966208084,2.296588,6,P-GPS,
66800,2022-08-30 05:05:01,0,0,2.624672,,,2.6247048084,2.624672,0,0,0,0,0,8.437,2.6247048084,2.624672,0,0,0,0,-1.789552,43.2, 0, -0.2,0,0,1024,1024,1024,1024,0,0,0,0,43.3,0,0,97,4.179,4.175,0,0,0,0,4.027,75.74,2.6247048084,2.624672,6,P-GPS,
66900,2022-08-30 05:05:01,0,0,2.624672,,,2.6247048084,2.952756,0,0,0,0,0,8.437,2.6247048084,2.624672,0,0,0,0,-1.342164,43.2, 0.6, 0,0,0,1024,1024,1024,1024,0,0,0,0,43.3,0,0,97,4.179,4.175,0,0,0,0,4.027,75.74,2.6247048084,2.624672,6,P-GPS,
67000,2022-08-30 05:05:02,0,0,2.952756,,,2.9527888084,2.952756,0,0,0,0,0,8.437,2.9527888084,2.952756,0,0,0,0,-0.894776,43.2, 0.6, 0,0,0,1024,1024,1024,1024,0,0,0,0,43.3,0,0,97,4.179,4.175,0,0,0,0,4.027,75.74,2.9527888084,2.952756,6,P-GPS,
67100,2022-08-30 05:05:02,0,0,2.952756,,,2.9527888084,3.28084,0,0,0,0,0,8.437,2.9527888084,2.952756,0,0,0,0,-0.671082,43.2, 0.4, 0,0,0,1024,1024,1024,1024,0,0,0,0,43.3,0,0,97,4.179,4.175,0,0,0,0,4.027,75.74,2.9527888084,2.952756,6,P-GPS,
67200,2022-08-30 05:05:02,0,0,2.952756,,,2.9527888084,3.28084,0,0,0,0,0,8.437,2.9527888084,2.952756,0,0,0,0,-0.223694,43.3, 0.3, 0,0,0,1024,1024,1024,1024,0,0,0,0,43.3,0,0,97,4.179,4.175,0,0,0,0,4.027,75.74,2.9527888084,2.952756,6,P-GPS,
67300,2022-08-30 05:05:02,0,0,3.28084,,,3.2808728084,3.28084,0,0,0,0,0,8.437,3.2808728084,3.28084,0,0,0,0,0,43.3, 0.1, 0.1,0,0,1024,1024,1024,1024,0,0,0,0,43.3,0,0,97,4.179,4.175,0,0,0,0,4.027,75.74,3.2808728084,3.28084,6,P-GPS,
67400,2022-08-30 05:05:02,0,0,3.28084,,,3.2808728084,3.28084,0,0,0,0,0,8.437,3.2808728084,3.28084,0,0,0,0,0,43.3, 0, 0.1,0,0,1024,1024,1024,1024,0,0,0,0,43.3,0,0,97,4.179,4.175,0,0,0,0,4.027,75.74,3.2808728084,3.28084,6,P-GPS,
67500,2022-08-30 05:05:02,0,0,3.28084,,,3.2808728084,3.28084,0,0,0,0,0,8.351,3.2808728084,3.28084,0,0,0,0,0,43.3, 0.1, -0.1,0,0,1024,1024,1024,1024,0,0,0,0,43.3,0,0,96,4.226,4.216,0,0,0,0,4.576,75.92,3.2808728084,3.28084,6,P-GPS,
67600,2022-08-30 05:05:02,0,0,3.28084,,,3.2808728084,3.28084,0,0,0,0,0,8.351,3.2808728084,3.28084,0,0,0,0,0,43.3, 0, 0,0,0,1024,1024,1024,1024,0,0,0,0,43.3,0,0,96,4.226,4.216,0,0,0,0,4.576,75.92,3.2808728084,3.28084,6,P-GPS,
67700,2022-08-30 05:05:02,0,0,3.28084,,,3.2808728084,3.28084,0,0,0,0,0,8.351,3.2808728084,3.28084,0,0,0,0,0,43.3, 0, 0,0,0,1024,1024,1024,1024,0,0,0,0,43.3,0,0,96,4.226,4.216,0,0,0,0,4.576,75.92,3.2808728084,3.28084,6,P-GPS,
67800,2022-08-30 05:05:02,0,0,3.28084,,,3.2808728084,3.28084,0,0,0,0,0,8.351,3.2808728084,3.28084,0,0,0,0,0,43.3, 0, 0.1,0,0,1024,1024,1024,1024,0,0,0,0,43.3,0,0,96,4.226,4.216,0,0,0,0,4.576,75.92,3.2808728084,3.28084,6,P-GPS,
67900,2022-08-30 05:05:03,0,0,3.28084,,,3.2808728084,3.28084,0,0,0,0,0,8.351,3.2808728084,3.28084,0,0,0,0,0,43.3, 0.1, 0.1,0,0,1024,1024,1024,1024,0,0,0,0,43.3,0,0,96,4.226,4.216,0,0,0,0,4.576,75.92,3.2808728084,3.28084,6,P-GPS,
68000,2022-08-30 05:05:03,0,0,3.28084,,,3.2808728084,3.28084,0,0,0,0,0,8.351,3.2808728084,3.28084,0,0,0,0,0,43.3, 0.1, 0.1,0,0,1024,1024,1024,1024,0,0,0,0,43.3,0,0,96,4.226,4.216,0,0,0,0,4.576,75.92,3.2808728084,3.28084,6,P-GPS,
68100,2022-08-30 05:05:03,0,0,3.28084,,,3.2808728084,3.28084,0,0,0,0,0,8.351,3.2808728084,3.28084,0,0,0,0,0,43.3, 0.1, 0.2,0,0,1024,1024,1024,1024,0,0,0,0,43.3,0,0,96,4.226,4.216,0,0,0,0,4.576,75.92,3.2808728084,3.28084,6,P-GPS,
68200,2022-08-30 05:05:03,0,0,3.28084,,,3.2808728084,3.28084,0,0,0,0,0,8.351,3.2808728084,3.28084,0,0,0,0,0,43.3, 0.1, 0.2,0,0,1024,1024,1024,1024,0,0,0,0,43.3,0,0,96,4.226,4.216,0,0,0,0,4.576,75.92,3.2808728084,3.28084,6,P-GPS,
68300,2022-08-30 05:05:03,0,0,3.28084,,,3.2808728084,3.28084,0,0,0,0,0,8.351,3.2808728084,3.28084,0,0,0,0,0,43.3, 0.1, 0.2,0,0,1024,1024,1024,1024,0,0,0,0,43.3,0,0,96,4.226,4.216,0,0,0,0,4.576,75.92,3.2808728084,3.28084,6,P-GPS,
68400,2022-08-30 05:05:03,0,0,3.28084,,,3.2808728084,3.28084,0,0,0,0,0,8.351,3.2808728084,3.28084,0,0,0,0,0,43.3, 0.1, 0.1,0,0,1024,1024,1024,1024,0,0,0,0,43.3,0,0,96,4.226,4.216,0,0,0,0,4.576,75.92,3.2808728084,3.28084,6,P-GPS,
68500,2022-08-30 05:05:03,0,0,3.28084,,,3.2808728084,3.28084,0,0,0,0,0,8.42,3.2808728084,3.28084,0,0,0,0,0,43.4, 0.1, 0.1,0,0,1024,1024,1024,1024,0,0,0,0,43.3,0,0,96,4.211,4.204,0,0,0,0,3.776,75.92,3.2808728084,3.28084,6,P-GPS,
68600,2022-08-30 05:05:03,0,0,3.28084,,,3.2808728084,3.28084,0,0,0,0,0,8.42,3.2808728084,3.28084,0,0,0,0,0,43.4, 0.2, 0,0,0,1024,1024,1024,1024,0,0,0,0,43.3,0,0,96,4.211,4.204,0,0,0,0,3.776,75.92,3.2808728084,3.28084,6,P-GPS,
68700,2022-08-30 05:05:03,0,0,3.28084,,,3.2808728084,3.28084,0,0,0,0,0,8.42,3.2808728084,3.28084,0,0,0,0,0,43.4, 0.2, 0,0,0,1024,1024,1024,1024,0,0,0,0,43.3,0,0,96,4.211,4.204,0,0,0,0,3.776,75.92,3.2808728084,3.28084,6,P-GPS,
68800,2022-08-30 05:05:03,0,0,3.28084,,,3.2808728084,3.28084,0,0,0,0,0,8.42,3.2808728084,3.28084,0,0,0,0,0,43.3, 0.2, 0,0,0,1024,1024,1024,1024,0,0,0,0,43.3,0,0,96,4.211,4.204,0,0,0,0,3.776,75.92,3.2808728084,3.28084,6,P-GPS,
68900,2022-08-30 05:05:04,0,0,3.28084,,,3.2808728084,3.28084,0,0,0,0,0,8.42,3.2808728084,3.28084,0,0,0,0,0,43.4, 0.3, 0,0,0,1024,1024,1024,1024,0,0,0,0,43.3,0,0,96,4.211,4.204,0,0,0,0,3.776,75.92,3.2808728084,3.28084,6,P-GPS,
69000,2022-08-30 05:05:04,0,0,3.28084,,,3.2808728084,3.28084,0,0,0,0,0,8.42,3.2808728084,3.28084,0,0,0,0,0,43.4, 0.4, 0,0,0,1024,1024,1024,1024,0,0,0,0,43.3,0,0,96,4.211,4.204,0,0,0,0,3.776,75.92,3.2808728084,3.28084,6,P-GPS,
69100,2022-08-30 05:05:04,0,0,3.28084,,,3.2808728084,3.28084,0,0,0,0,0,8.42,3.2808728084,3.28084,0,0,0,0,0,43.4, 0.3, 0,0,0,1024,1024,1024,1024,0,0,0,0,43.3,0,0,96,4.211,4.204,0,0,0,0,3.776,75.92,3.2808728084,3.28084,6,P-GPS,
69200,2022-08-30 05:05:04,0,0,3.28084,,,3.2808728084,3.28084,0,0,0,0,0,8.42,3.2808728084,3.28084,0,0,0,0,0,43.3, 0.2, 0.1,0,0,1024,1024,1024,1024,0,0,0,0,43.3,0,0,96,4.211,4.204,0,0,0,0,3.776,75.92,3.2808728084,3.28084,6,P-GPS,
69300,2022-08-30 05:05:04,0,0,3.28084,,,3.2808728084,3.28084,0,0,0,0,0,8.42,3.2808728084,3.28084,0,0,0,0,0,43.4, 0.2, 0,0,0,1024,1024,1024,1024,0,0,0,0,43.3,0,0,96,4.211,4.204,0,0,0,0,3.776,75.92,3.2808728084,3.28084,6,P-GPS,
69400,2022-08-30 05:05:04,0,0,3.28084,,,3.2808728084,3.28084,0,0,0,0,0,8.42,3.2808728084,3.28084,0,0,0,0,0,43.3, 0.2, 0.1,0,0,1024,1024,1024,1024,0,0,0,0,43.3,0,0,96,4.211,4.204,0,0,0,0,3.776,75.92,3.2808728084,3.28084,6,P-GPS,
69500,2022-08-30 05:05:04,0,0,3.28084,,,3.2808728084,3.28084,0,0,0,0,0,8.413,3.2808728084,3.28084,0,0,0,0,0,43.3, 0.2, 0,0,0,1024,1024,1024,1142,0,0,0,18,43.3,0,0,96,4.21,4.201,0,0,0,0,4.074,75.92,3.2808728084,3.28084,6,P-GPS,
69600,2022-08-30 05:05:04,0,0,3.28084,,,3.2808728084,3.28084,0,0,0,0,0,8.413,3.2808728084,3.28084,0,0,0,0,0,43.3, 0.2, 0.2,0,0,1024,1024,1024,1684,0,0,0,100,43.4,0,0,96,4.21,4.201,0,0,0,0,4.074,75.92,3.2808728084,3.28084,6,P-GPS,
69700,2022-08-30 05:05:04,0,0,3.28084,,,3.2808728084,3.28084,0,0,0,0,0,8.413,3.2808728084,3.28084,0,0,0,0,0,43.8, 0.1, 0,0,0,1024,1024,1024,1684,0,0,0,100,44.8,0,0,96,4.21,4.201,0,0,0,0,4.074,75.92,3.2808728084,3.28084,6,P-GPS,
69800,2022-08-30 05:05:04,0,0,3.28084,,,3.2808728084,3.28084,0,0,0,0,0,8.413,3.2808728084,3.28084,0,0,0,0,0,46.5, 0.2, 0,0,0,1024,1024,1024,1684,0,0,0,100,48.8,0,0,96,4.21,4.201,0,0,0,0,4.074,75.92,3.2808728084,3.28084,6,P-GPS,
69900,2022-08-30 05:05:04,0,0,3.28084,,,3.2808728084,3.28084,0,0,0,0,0,8.413,3.2808728084,3.28084,0,0,0,0,0,50.8, 0.3, 0.1,0,0,1024,1024,1024,1684,0,0,0,100,53.5,0,0,96,4.21,4.201,0,0,0,0,4.074,75.92,3.2808728084,3.28084,6,P-GPS,
70000,2022-08-30 05:05:05,0,0,3.28084,,,3.2808728084,3.28084,0,0,0,0,0,8.413,3.2808728084,3.28084,0,0,0,0,0,55.5, 0.3, 0.3,0,0,1024,1024,1024,1684,0,0,0,100,58.3,0,0,96,4.21,4.201,0,0,0,0,4.074,75.92,3.2808728084,3.28084,6,P-GPS,
70100,2022-08-30 05:05:05,0,0,3.28084,,,3.2808728084,3.28084,0,0,0,0,0,8.413,3.2808728084,3.28084,0,0,0,0,0,60.2, 0.3, 0.4,0,0,1024,1024,1024,1684,0,0,0,100,63.1,0,0,96,4.21,4.201,0,0,0,0,4.074,75.92,3.2808728084,3.28084,6,P-GPS,
70200,2022-08-30 05:05:05,0,0,3.28084,,,3.2808728084,3.28084,0,0,0,0,0,8.413,3.2808728084,3.28084,0,0,0,0,0,64.9, 0.2, 0.3,0,0,1024,1024,1024,1684,0,0,0,100,67.9,0,0,96,4.21,4.201,0,0,0,0,4.074,75.92,3.2808728084,3.28084,6,P-GPS,
70300,2022-08-30 05:05:05,0,0,3.28084,,,3.2808728084,3.28084,0,0,0,0,0,8.413,3.2808728084,3.28084,0,0,0,0,0,69.7, 0.2, 0.3,0,0,1024,1024,1024,1684,0,0,0,100,72.7,0,0,96,4.21,4.201,0,0,0,0,4.074,75.92,3.2808728084,3.28084,6,P-GPS,
70400,2022-08-30 05:05:05,0,0,3.28084,,,3.2808728084,3.28084,0,0,0,0,0,8.413,3.2808728084,3.28084,0,0,0,0,0,74.3, 0.2, 0.3,0,0,1024,1024,1024,1684,0,0,0,100,77.5,0,0,96,4.21,4.201,0,0,0,0,4.074,75.92,3.2808728084,3.28084,6,P-GPS,
70500,2022-08-30 05:05:05,0,0,3.28084,,,3.2808728084,3.28084,0,0,0,0,0,8.406,3.2808728084,3.28084,0,0,0,0,0,79.1, 0.2, 0.2,0,0,1024,1024,1024,1684,0,0,0,100,82.3,0,0,96,4.207,4.199,0,0,0,0,4.102,75.92,3.2808728084,3.28084,6,P-GPS,
70600,2022-08-30 05:05:05,0,0,3.28084,,,3.2808728084,3.28084,0,0,0,0,0,8.406,3.2808728084,3.28084,0,0,0,0,0,83.9, 0.2, 0.2,0,0,1024,1024,1024,1684,0,0,0,100,87.1,0,0,96,4.207,4.199,0,0,0,0,4.102,75.92,3.2808728084,3.28084,6,P-GPS,
70700,2022-08-30 05:05:05,0,0,3.28084,,,3.2808728084,3.28084,0,0,0,0,0,8.406,3.2808728084,3.28084,0,0,0,0,0,88.7, 0.1, 0,0,0,1024,1024,1024,1684,0,0,0,100,91.9,0,0,96,4.207,4.199,0,0,0,0,4.102,75.92,3.2808728084,3.28084,6,P-GPS,
70800,2022-08-30 05:05:05,0,0,3.28084,,,3.2808728084,3.28084,0,0,0,0,0,8.406,3.2808728084,3.28084,0,0,0,0,0,93.6, 0.1, 0,0,0,1024,1024,1024,1684,0,0,0,100,96.7,0,0,96,4.207,4.199,0,0,0,0,4.102,75.92,3.2808728084,3.28084,6,P-GPS,
70900,2022-08-30 05:05:05,0,0,3.28084,,,3.2808728084,3.28084,0,0,0,0,0,8.406,3.2808728084,3.28084,0,0,0,0,0,98.4, 0.1, 0,0,0,1024,1024,1024,1684,0,0,0,100,101.5,0,0,96,4.207,4.199,0,0,0,0,4.102,75.92,3.2808728084,3.28084,6,P-GPS,
71000,2022-08-30 05:05:06,0,0,3.28084,,,3.2808728084,3.28084,0,0,0,0,0,8.406,3.2808728084,3.28084,0,0,0,0,0,103.2, 0, 0,0,0,1024,1024,1024,1684,0,0,0,100,106.3,0,0,96,4.207,4.199,0,0,0,0,4.102,75.92,3.2808728084,3.28084,6,P-GPS,
71100,2022-08-30 05:05:06,0,0,3.28084,,,3.2808728084,3.28084,0,0,0,0,0,8.406,3.2808728084,3.28084,0,0,0,0,0,107.9, -0.1, 0,0,0,1024,1024,1024,1684,0,0,0,100,111.1,0,0,96,4.207,4.199,0,0,0,0,4.102,75.92,3.2808728084,3.28084,6,P-GPS,
71200,2022-08-30 05:05:06,0,0,3.28084,,,3.2808728084,3.28084,0,0,0,0,0,8.406,3.2808728084,3.28084,0,0,0,0,0,112.6, -0.1, 0,0,0,1024,1024,1024,1684,0,0,0,100,115.9,0,0,96,4.207,4.199,0,0,0,0,4.102,75.92,3.2808728084,3.28084,6,P-GPS,
71300,2022-08-30 05:05:06,0,0,3.28084,,,3.2808728084,3.28084,0,0,0,0,0,8.406,3.2808728084,3.28084,0,0,0,0,0,117.5, -0.2, 0,0,0,1024,1024,1024,1684,0,0,0,100,120.7,0,0,96,4.207,4.199,0,0,0,0,4.102,75.92,3.2808728084,3.28084,6,P-GPS,
71400,2022-08-30 05:05:06,0,0,3.28084,,,3.2808728084,3.28084,0,0,0,0,0,8.406,3.2808728084,3.28084,0,0,0,0,0,122.4, -0.3, 0,0,0,1024,1024,1024,1684,0,0,0,100,125.5,0,0,96,4.207,4.199,0,0,0,0,4.102,75.92,3.2808728084,3.28084,6,P-GPS,
71500,2022-08-30 05:05:06,0,0,3.28084,,,3.2808728084,3.28084,0,0,0,0,0,8.406,3.2808728084,3.28084,0,0,0,0,0,127.2, -0.4, 0,0,0,1024,1024,1024,1684,0,0,0,100,130.3,0,0,96,4.207,4.199,0,0,0,0,4.102,75.92,3.2808728084,3.28084,6,P-GPS,
71600,2022-08-30 05:05:06,0,0,3.28084,,,3.2808728084,3.28084,0,0,0,0,0,8.404,3.2808728084,3.28084,0,0,0,0,0,132, -0.4, 0.2,0,0,1024,1024,1024,1684,0,0,0,100,135.1,0,0,96,4.205,4.197,0,0,0,0,4.077,75.92,3.2808728084,3.28084,6,P-GPS,
71700,2022-08-30 05:05:06,0,0,3.28084,,,3.2808728084,3.28084,0,0,0,0,0,8.404,3.2808728084,3.28084,0,0,0,0,0,136.8, -0.5, 0.3,0,0,1024,1024,1024,1684,0,0,0,100,139.9,0,0,96,4.205,4.197,0,0,0,0,4.077,75.92,3.2808728084,3.28084,6,P-GPS,
71800,2022-08-30 05:05:06,0,0,3.28084,,,3.2808728084,3.28084,0,0,0,0,0,8.404,3.2808728084,3.28084,0,0,0,0,0,141.5, -0.5, 0.3,0,0,1024,1024,1024,1684,0,0,0,100,144.7,0,0,96,4.205,4.197,0,0,0,0,4.077,75.92,3.2808728084,3.28084,6,P-GPS,
71900,2022-08-30 05:05:07,0,0,3.28084,,,3.2808728084,3.28084,0,0,0,0,0,8.404,3.2808728084,3.28084,0,0,0,0,0,146.2, -0.3, 0.3,0,0,1024,1024,1024,1684,0,0,0,100,149.5,0,0,96,4.205,4.197,0,0,0,0,4.077,75.92,3.2808728084,3.28084,6,P-GPS,
72000,2022-08-30 05:05:07,0,0,3.28084,,,3.2808728084,3.28084,0,0,0,0,0,8.404,3.2808728084,3.28084,0,0,0,0,0,151, -0.3, 0.1,0,0,1024,1024,1024,1684,0,0,0,100,154.3,0,0,96,4.205,4.197,0,0,0,0,4.077,75.92,3.2808728084,3.28084,6,P-GPS,
72100,2022-08-30 05:05:07,0,0,3.28084,,,3.2808728084,3.28084,0,0,0,0,0,8.404,3.2808728084,3.28084,0,0,0,0,0,155.8, -0.2, 0,0,0,1024,1024,1024,1684,0,0,0,100,159.1,0,0,96,4.205,4.197,0,0,0,0,4.077,75.92,3.2808728084,3.28084,6,P-GPS,
72200,2022-08-30 05:05:07,0,0,3.28084,,,3.2808728084,3.28084,0,0,0,0,0,8.404,3.2808728084,3.28084,0,0,0,0,0,160.7, -0.1, -0.1,0,0,1024,1024,1024,1684,0,0,0,100,163.9,0,0,96,4.205,4.197,0,0,0,0,4.077,75.92,3.2808728084,3.28084,6,P-GPS,
72300,2022-08-30 05:05:07,0,0,3.28084,,,3.2808728084,3.28084,0,0,0,0,0,8.404,3.2808728084,3.28084,0,0,0,0,0,165.5, -0.1, -0.2,0,0,1024,1024,1024,1684,0,0,0,100,168.7,0,0,96,4.205,4.197,0,0,0,0,4.077,75.92,3.2808728084,3.28084,6,P-GPS,
72400,2022-08-30 05:05:07,0,0,3.28084,,,3.2808728084,3.28084,0,0,0,0,0,8.404,3.2808728084,3.28084,0,0,0,0,0,170.3, -0.2, -0.3,0,0,1024,1024,1024,1684,0,0,0,100,173.5,0,0,96,4.205,4.197,0,0,0,0,4.077,75.92,3.2808728084,3.28084,6,P-GPS,
72500,2022-08-30 05:05:07,0,0,3.28084,,,3.2808728084,3.28084,0,0,0,0,0,8.404,3.2808728084,3.28084,0,0,0,0,0,175.1, -0.1, -0.2,0,0,1024,1024,1024,1684,0,0,0,100,178.3,0,0,96,4.205,4.197,0,0,0,0,4.077,75.92,3.2808728084,3.28084,6,P-GPS,
72600,2022-08-30 05:05:07,0,0,3.28084,,,3.2808728084,3.28084,0,0,0,0,0,8.399,3.2808728084,3.28084,0,0,0,0,0,179.8, -0.1, -0.2,0,0,1024,1024,1024,1684,0,0,0,100,183.2,0,0,96,4.202,4.194,0,0,0,0,4.082,76.1,3.2808728084,3.28084,6,P-GPS,
72700,2022-08-30 05:05:07,0,0,3.28084,,,3.2808728084,3.28084,0,0,0,0,0,8.399,3.2808728084,3.28084,0,0,0,0,0,184.7, -0.1, -0.5,0,0,1024,1024,1024,1684,0,0,0,100,188,0,0,96,4.202,4.194,0,0,0,0,4.082,76.1,3.2808728084,3.28084,6,P-GPS,
72800,2022-08-30 05:05:07,0,0,3.28084,,,3.2808728084,3.28084,0,0,0,0,0,8.399,3.2808728084,3.28084,0,0,0,0,0,189.5, 0.2, -0.6,0,0,1024,1024,1024,1684,0,0,0,100,192.8,0,0,96,4.202,4.194,0,0,0,0,4.082,76.1,3.2808728084,3.28084,6,P-GPS,
72900,2022-08-30 05:05:08,0,0,3.28084,,,3.2808728084,3.28084,0,0,0,0,0,8.399,3.2808728084,3.28084,0,0,0,0,0,194.4, 0.2, -0.5,0,0,1024,1024,1024,1684,0,0,0,100,197.6,0,0,96,4.202,4.194,0,0,0,0,4.082,76.1,3.2808728084,3.28084,6,P-GPS,
73000,2022-08-30 05:05:08,0,0,3.28084,,,3.2808728084,3.28084,0,0,0,0,0,8.399,3.2808728084,3.28084,0,0,0,0,0,199.2, 0.3, -0.4,0,0,1024,1024,1024,1684,0,0,0,100,202.4,0,0,96,4.202,4.194,0,0,0,0,4.082,76.1,3.2808728084,3.28084,6,P-GPS,
73100,2022-08-30 05:05:08,0,0,3.28084,,,3.2808728084,3.28084,0,0,0,0,0,8.399,3.2808728084,3.28084,0,0,0,0,0,204.1, 0.3, -0.3,0,0,1024,1024,1024,1684,0,0,0,100,207.2,0,0,96,4.202,4.194,0,0,0,0,4.082,76.1,3.2808728084,3.28084,6,P-GPS,
73200,2022-08-30 05:05:08,0,0,3.28084,,,3.2808728084,3.28084,0,0,0,0,0,8.399,3.2808728084,3.28084,0,0,0,0,0,208.9, 0.3, -0.1,0,0,1024,1024,1024,1684,0,0,0,100,212,0,0,96,4.202,4.194,0,0,0,0,4.082,76.1,3.2808728084,3.28084,6,P-GPS,
73300,2022-08-30 05:05:08,0,0,3.28084,,,3.2808728084,3.28084,0,0,0,0,0,8.399,3.2808728084,3.28084,0,0,0,0,0,213.7, 0.2, 0,0,0,1024,1024,1024,1684,0,0,0,100,216.8,0,0,96,4.202,4.194,0,0,0,0,4.082,76.1,3.2808728084,3.28084,6,P-GPS,
73400,2022-08-30 05:05:08,0,0,3.28084,,,3.2808728084,3.28084,0,0,0,0,0,8.399,3.2808728084,3.28084,0,0,0,0,0,218.6, 0.2, 0.1,0,0,1024,1024,1024,1024,0,0,0,0,221.6,0,0,96,4.202,4.194,0,0,0,0,4.082,76.1,3.2808728084,3.28084,6,P-GPS,
73500,2022-08-30 05:05:08,0,0,3.28084,,,3.2808728084,3.28084,0,0,0,0,0,8.399,3.2808728084,3.28084,0,0,0,0,0,223.1, 0.2, 0.2,0,0,1024,1024,1024,1024,0,0,0,0,225.8,0,0,96,4.202,4.194,0,0,0,0,4.082,76.1,3.2808728084,3.28084,6,P-GPS,
73600,2022-08-30 05:05:08,0,0,3.28084,,,3.2808728084,3.28084,0,0,0,0,0,8.398,3.2808728084,3.28084,0,0,0,0,0,226.3, 0.2, 0.4,0,0,1024,1024,1024,1024,0,0,0,0,227.8,0,0,96,4.203,4.194,0,0,0,0,4.046,76.1,3.2808728084,3.28084,6,P-GPS,
73700,2022-08-30 05:05:08,0,0,3.28084,,,3.2808728084,3.28084,0,0,0,0,0,8.398,3.2808728084,3.28084,0,0,0,0,0,227.8, 0.2, 0.3,0,0,1024,1024,1024,1024,0,0,0,0,228.4,0,0,96,4.203,4.194,0,0,0,0,4.046,76.1,3.2808728084,3.28084,6,P-GPS,
73800,2022-08-30 05:05:08,0,0,3.28084,,,3.2808728084,3.28084,0,0,0,0,0,8.398,3.2808728084,3.28084,0,0,0,0,0,228, 0.1, 0.1,0,0,1024,1024,1024,1024,0,0,0,0,228.4,0,0,96,4.203,4.194,0,0,0,0,4.046,76.1,3.2808728084,3.28084,6,P-GPS,
73900,2022-08-30 05:05:08,0,0,3.28084,,,3.2808728084,3.28084,0,0,0,0,0,8.398,3.2808728084,3.28084,0,0,0,0,0,228.2, 0.2, 0,0,0,1024,1024,1024,1024,0,0,0,0,228.4,0,0,96,4.203,4.194,0,0,0,0,4.046,76.1,3.2808728084,3.28084,6,P-GPS,
74000,2022-08-30 05:05:09,0,0,3.28084,,,3.2808728084,3.28084,0,0,0,0,0,8.398,3.2808728084,3.28084,0,0,0,0,0,228.3, 0.3, 0,0,0,1024,1024,1024,1024,0,0,0,0,228.4,0,0,96,4.203,4.194,0,0,0,0,4.046,76.1,3.2808728084,3.28084,6,P-GPS,
74100,2022-08-30 05:05:09,0,0,3.28084,,,3.2808728084,3.28084,0,0,0,0,0,8.398,3.2808728084,3.28084,0,0,0,0,0,228.3, 0.4, -0.1,0,0,1024,1024,1024,1024,0,0,0,0,228.4,0,0,96,4.203,4.194,0,0,0,0,4.046,76.1,3.2808728084,3.28084,6,P-GPS,
74200,2022-08-30 05:05:09,0,0,3.28084,,,3.2808728084,3.28084,0,0,0,0,0,8.398,3.2808728084,3.28084,0,0,0,0,0,228.3, 0.3, -0.1,0,0,1024,1024,1024,1024,0,0,0,0,228.4,0,0,96,4.203,4.194,0,0,0,0,4.046,76.1,3.2808728084,3.28084,6,P-GPS,
74300,2022-08-30 05:05:09,0,0,3.28084,,,3.2808728084,3.28084,0,0,0,0,0,8.398,3.2808728084,3.28084,0,0,0,0,0,228.3, 0.3, 0,0,0,1024,1024,1024,1024,0,0,0,0,228.4,0,0,96,4.203,4.194,0,0,0,0,4.046,76.1,3.2808728084,3.28084,6,P-GPS,
74400,2022-08-30 05:05:09,0,0,3.28084,,,3.2808728084,3.28084,0,0,0,0,0,8.398,3.2808728084,3.28084,0,0,0,0,0,228.3, 0.3, 0,0,0,1024,1024,1024,1024,0,0,0,0,228.4,0,0,96,4.203,4.194,0,0,0,0,4.046,76.1,3.2808728084,3.28084,6,P-GPS,
74500,2022-08-30 05:05:09,0,0,3.28084,,,3.2808728084,3.28084,0,0,0,0,0,8.398,3.2808728084,3.28084,0,0,0,0,0,228.4, 0.3, 0,0,0,1024,1024,1024,1024,0,0,0,0,228.4,0,0,96,4.203,4.194,0,0,0,0,4.046,76.1,3.2808728084,3.28084,6,P-GPS,
74600,2022-08-30 05:05:09,0,0,3.28084,,,3.2808728084,3.28084,0,0,0,0,0,8.393,3.2808728084,3.28084,0,0,0,0,0,228.4, 0.4, -0.1,0,0,1024,1024,1024,1024,0,0,0,0,228.4,0,0,96,4.201,4.193,0,0,0,0,4.029,76.1,3.2808728084,3.28084,6,P-GPS,
74700,2022-08-30 05:05:09,0,0,3.28084,,,3.2808728084,3.28084,0,0,0,0,0,8.393,3.2808728084,3.28084,0,0,0,0,0,228.4, 0.4, -0.2,0,0,1024,1024,1024,1024,0,0,0,0,228.4,0,0,96,4.201,4.193,0,0,0,0,4.029,76.1,3.2808728084,3.28084,6,P-GPS,
74800,2022-08-30 05:05:09,0,0,3.28084,,,3.2808728084,3.28084,0,0,0,0,0,8.393,3.2808728084,3.28084,0,0,0,0,0,228.4, 0.5, -0.1,0,0,1024,1024,1024,1024,0,0,0,0,228.4,0,0,96,4.201,4.193,0,0,0,0,4.029,76.1,3.2808728084,3.28084,6,P-GPS,
74900,2022-08-30 05:05:10,0,0,3.28084,,,3.2808728084,3.28084,0,0,0,0,0,8.393,3.2808728084,3.28084,0,0,0,0,0,228.4, 0.5, -0.3,0,0,1024,1024,1024,1024,0,0,0,0,228.4,0,0,96,4.201,4.193,0,0,0,0,4.029,76.1,3.2808728084,3.28084,6,P-GPS,
75000,2022-08-30 05:05:10,0,0,3.28084,,,3.2808728084,3.28084,0,0,0,0,0,8.393,3.2808728084,3.28084,0,0,0,0,0,228.4, 0.5, -0.3,0,0,1024,1024,1024,918,0,0,0,-16,228.4,0,0,96,4.201,4.193,0,0,0,0,4.029,76.1,3.2808728084,3.28084,6,P-GPS,
75100,2022-08-30 05:05:10,0,0,3.28084,,,3.2808728084,3.28084,0,0,0,0,0,8.393,3.2808728084,3.28084,0,0,0,0,0,228.4, 0.4, -0.1,0,0,1024,1024,1024,544,0,0,0,-73,228.3,0,0,96,4.201,4.193,0,0,0,0,4.029,76.1,3.2808728084,3.28084,6,P-GPS,
75200,2022-08-30 05:05:10,0,0,3.28084,,,3.2808728084,3.28084,0,0,0,0,0,8.393,3.2808728084,3.28084,0,0,0,0,0,228.1, 0.3, 0,0,0,1024,1024,1024,516,0,0,0,-77,227.5,0,0,96,4.201,4.193,0,0,0,0,4.029,76.1,3.2808728084,3.28084,6,P-GPS,
75300,2022-08-30 05:05:10,0,0,3.28084,,,3.2808728084,3.28084,0,0,0,0,0,8.393,3.2808728084,3.28084,0,0,0,0,0,226.4, 0.4, 0,0,0,1024,1024,1024,1024,0,0,0,0,225.1,0,0,96,4.201,4.193,0,0,0,0,4.029,76.1,3.2808728084,3.28084,6,P-GPS,
75400,2022-08-30 05:05:10,0,0,3.28084,,,3.2808728084,3.28084,0,0,0,0,0,8.393,3.2808728084,3.28084,0,0,0,0,0,223.9, 0.4, -0.3,0,0,1024,1024,1024,1024,0,0,0,0,222.9,0,0,96,4.201,4.193,0,0,0,0,4.029,76.1,3.2808728084,3.28084,6,P-GPS,
75500,2022-08-30 05:05:10,0,0,3.28084,,,3.2808728084,3.28084,0,0,0,0,0,8.393,3.2808728084,3.28084,0,0,0,0,0,222.4, 0.3, -0.4,0,0,1024,1024,1024,1024,0,0,0,0,221.8,0,0,96,4.201,4.193,0,0,0,0,4.029,76.1,3.2808728084,3.28084,6,P-GPS,
75600,2022-08-30 05:05:10,0,0,3.28084,,,3.2808728084,3.28084,0,0,0,0,0,8.39,3.2808728084,3.28084,0,0,0,0,0,221.9, 0.2, -0.2,0,0,1024,1024,1024,1024,0,0,0,0,221.7,0,0,96,4.199,4.191,0,0,0,0,4.03,76.1,3.2808728084,3.28084,6,P-GPS,
75700,2022-08-30 05:05:10,0,0,3.28084,,,3.2808728084,3.28084,0,0,0,0,0,8.39,3.2808728084,3.28084,0,0,0,0,0,221.8, 0.3, -0.1,0,0,1024,1024,1024,1024,0,0,0,0,221.7,0,0,96,4.199,4.191,0,0,0,0,4.03,76.1,3.2808728084,3.28084,6,P-GPS,
75800,2022-08-30 05:05:10,0,0,3.28084,,,3.2808728084,3.28084,0,0,0,0,0,8.39,3.2808728084,3.28084,0,0,0,0,0,221.7, 0.5, -0.3,0,0,1024,1024,1024,1024,0,0,0,0,221.7,0,0,96,4.199,4.191,0,0,0,0,4.03,76.1,3.2808728084,3.28084,6,P-GPS,
75900,2022-08-30 05:05:11,0,0,3.28084,,,3.2808728084,3.28084,0,0,0,0,0,8.39,3.2808728084,3.28084,0,0,0,0,0,221.7, 0.5, -0.2,0,0,1024,1024,1024,1024,0,0,0,0,221.7,0,0,96,4.199,4.191,0,0,0,0,4.03,76.1,3.2808728084,3.28084,6,P-GPS,
76000,2022-08-30 05:05:11,0,0,3.28084,,,3.2808728084,3.28084,0,0,0,0,0,8.39,3.2808728084,3.28084,0,0,0,0,0,221.8, 0.5, -0.1,0,0,1024,1024,1024,1024,0,0,0,0,221.7,0,0,96,4.199,4.191,0,0,0,0,4.03,76.1,3.2808728084,3.28084,6,P-GPS,
76100,2022-08-30 05:05:11,0,0,3.28084,,,3.2808728084,3.28084,0,0,0,0,0,8.39,3.2808728084,3.28084,0,0,0,0,0,221.8, 0.5, -0.1,0,0,1024,1024,1024,1024,0,0,0,0,221.7,0,0,96,4.199,4.191,0,0,0,0,4.03,76.1,3.2808728084,3.28084,6,P-GPS,
76200,2022-08-30 05:05:11,0,0,3.28084,,,3.2808728084,3.28084,0,0,0,0,0,8.39,3.2808728084,3.28084,0,0,0,0,0,221.7, 0.6, -0.5,0,0,1024,1024,1024,1024,0,0,0,0,221.7,0,0,96,4.199,4.191,0,0,0,0,4.03,76.1,3.2808728084,3.28084,6,P-GPS,
76300,2022-08-30 05:05:11,0,0,3.28084,,,3.2808728084,3.28084,0,0,0,0,0,8.39,3.2808728084,3.28084,0,0,0,0,0,221.8, 0.5, -0.4,0,0,1024,1024,1024,1024,0,0,0,0,221.7,0,0,96,4.199,4.191,0,0,0,0,4.03,76.1,3.2808728084,3.28084,6,P-GPS,
76400,2022-08-30 05:05:11,0,0,3.28084,,,3.2808728084,3.28084,0,0,0,0,0,8.39,3.2808728084,3.28084,0,0,0,0,0,221.8, 0.5, -0.3,0,0,1024,1024,1024,1024,0,0,0,0,221.7,0,0,96,4.199,4.191,0,0,0,0,4.03,76.1,3.2808728084,3.28084,6,P-GPS,
76500,2022-08-30 05:05:11,0,0,3.28084,,,3.2808728084,3.28084,0,0,0,0,0,8.39,3.2808728084,3.28084,0,0,0,0,0,221.8, 0.4, -0.3,0,0,1024,1024,1024,1024,0,0,0,0,221.7,0,0,96,4.199,4.191,0,0,0,0,4.03,76.1,3.2808728084,3.28084,6,P-GPS,
76600,2022-08-30 05:05:11,0,0,3.28084,,,3.2808728084,3.28084,0,0,0,0,0,8.39,3.2808728084,3.28084,0,0,0,0,0,221.8, 0.4, -0.4,0,0,1024,1024,1024,1024,0,0,0,0,221.7,0,0,96,4.199,4.191,0,0,0,0,4.03,76.1,3.2808728084,3.28084,6,P-GPS,
76700,2022-08-30 05:05:11,0,0,3.28084,,,3.2808728084,3.28084,0,0,0,0,0,8.387,3.2808728084,3.28084,0,0,0,0,0,221.7, 0.4, -0.3,0,0,1024,1024,1024,1024,0,0,0,0,221.7,0,0,96,4.198,4.189,0,0,0,0,4.034,76.28,3.2808728084,3.28084,6,P-GPS,
76800,2022-08-30 05:05:11,0,0,2.952756,,,2.9527888084,3.28084,0,0,0,0,0,8.387,3.2808728084,3.28084,0,0,0,0,0,221.7, 0.4, -0.1,0,0,1024,1024,1024,1024,0,0,0,0,221.7,0,0,96,4.198,4.189,0,0,0,0,4.034,76.28,2.9527888084,2.952756,6,P-GPS,
76900,2022-08-30 05:05:12,0,0,2.952756,,,2.9527888084,3.28084,0,0,0,0,0,8.387,3.2808728084,3.28084,0,0,0,0,0,221.7, 0.4, -0.2,0,0,1024,1024,1024,1024,0,0,0,0,221.7,0,0,96,4.198,4.189,0,0,0,0,4.034,76.28,2.9527888084,2.952756,6,P-GPS,
77000,2022-08-30 05:05:12,0,0,2.952756,,,2.9527888084,3.28084,0,0,0,0,0,8.387,3.2808728084,3.28084,0,0,0,0,0,221.8, 0.5, -0.2,0,0,1024,1024,1024,1024,0,0,0,0,221.7,0,0,96,4.198,4.189,0,0,0,0,4.034,76.28,2.9527888084,2.952756,6,P-GPS,
77100,2022-08-30 05:05:12,0,0,2.952756,,,2.9527888084,3.28084,0,0,0,0,0,8.387,3.2808728084,3.28084,0,0,0,0,0,221.8, 0.5, -0.2,0,0,1024,1024,1024,1024,0,0,0,0,221.7,0,0,96,4.198,4.189,0,0,0,0,4.034,76.28,2.9527888084,2.952756,6,P-GPS,
77200,2022-08-30 05:05:12,0,0,2.952756,,,2.9527888084,3.28084,0,0,0,0,0,8.387,3.2808728084,3.28084,0,0,0,0,0,221.8, 0.5, -0.1,0,0,1024,1024,1024,1024,0,0,0,0,221.7,0,0,96,4.198,4.189,0,0,0,0,4.034,76.28,2.9527888084,2.952756,6,P-GPS,
77300,2022-08-30 05:05:12,0,0,2.952756,,,2.9527888084,3.28084,0,0,0,0,0,8.387,3.2808728084,3.28084,0,0,0,0,0,221.8, 0.4, -0.1,0,0,1024,1024,1024,1024,0,0,0,0,221.7,0,0,96,4.198,4.189,0,0,0,0,4.034,76.28,2.9527888084,2.952756,6,P-GPS,
77400,2022-08-30 05:05:12,0,0,2.952756,,,2.9527888084,3.28084,0,0,0,0,0,8.387,3.2808728084,3.28084,0,0,0,0,0,221.7, 0.3, -0.1,0,0,1024,1024,1024,1024,0,0,0,0,221.7,0,0,96,4.198,4.189,0,0,0,0,4.034,76.28,2.9527888084,2.952756,6,P-GPS,
77500,2022-08-30 05:05:12,0,0,2.952756,,,2.9527888084,3.28084,0,0,0,0,0,8.387,3.2808728084,3.28084,0,0,0,0,0,221.7, 0.3, -0.2,0,0,1024,1024,1024,1024,0,0,0,0,221.7,0,0,96,4.198,4.189,0,0,0,0,4.034,76.28,2.9527888084,2.952756,6,P-GPS,
77600,2022-08-30 05:05:12,0,0,2.952756,,,2.9527888084,3.28084,0,0,0,0,0,8.387,3.2808728084,3.28084,0,0,0,0,0,221.7, 0.2, -0.2,0,0,1024,1024,1024,1024,0,0,0,0,221.7,0,0,96,4.198,4.189,0,0,0,0,4.034,76.28,2.9527888084,2.952756,6,P-GPS,
77700,2022-08-30 05:05:12,0,0,2.952756,,,2.9527888084,3.28084,0,0,0,0,0,8.382,3.2808728084,3.28084,0,0,0,0,0,221.7, 0.2, -0.2,0,0,1024,1024,1024,1024,0,0,0,0,221.7,0,0,96,4.195,4.186,0,0,0,0,4.047,76.46,2.9527888084,2.952756,6,P-GPS,
77800,2022-08-30 05:05:12,0,0,2.952756,,,2.9527888084,3.28084,0,0,0,0,0,8.382,3.2808728084,3.28084,0,0,0,0,0,221.7, 0.1, 0,0,0,1024,1024,1024,1024,0,0,0,0,221.7,0,0,96,4.195,4.186,0,0,0,0,4.047,76.46,2.9527888084,2.952756,6,P-GPS,
77900,2022-08-30 05:05:12,0,0,2.952756,,,2.9527888084,3.28084,0,0,0,0,0,8.382,3.2808728084,3.28084,0,0,0,0,0,221.7, 0.2, -0.2,0,0,1024,1024,1024,1024,0,0,0,0,221.7,0,0,96,4.195,4.186,0,0,0,0,4.047,76.46,2.9527888084,2.952756,6,P-GPS,
78000,2022-08-30 05:05:13,0,0,2.952756,,,2.9527888084,3.28084,0,0,0,0,0,8.382,3.2808728084,3.28084,0,0,0,0,0,221.7, 0.2, -0.1,0,0,1024,1024,1024,1024,0,0,0,0,221.7,0,0,96,4.195,4.186,0,0,0,0,4.047,76.46,2.9527888084,2.952756,6,P-GPS,
78100,2022-08-30 05:05:13,0,0,2.952756,,,2.9527888084,3.28084,0,0,0,0,0,8.382,3.2808728084,3.28084,0,0,0,0,0,221.6, 0.2, -0.2,0,0,1024,1024,1024,1024,0,0,0,0,221.7,0,0,96,4.195,4.186,0,0,0,0,4.047,76.46,2.9527888084,2.952756,6,P-GPS,
78200,2022-08-30 05:05:13,0,0,2.952756,,,2.9527888084,3.28084,0,0,0,0,0,8.382,3.2808728084,3.28084,0,0,0,0,0,221.6, 0.1, -0.3,0,0,1024,1024,1024,1024,0,0,0,0,221.7,0,0,96,4.195,4.186,0,0,0,0,4.047,76.46,2.9527888084,2.952756,6,P-GPS,
78300,2022-08-30 05:05:13,0,0,2.952756,,,2.9527888084,3.28084,0,0,0,0,0,8.382,3.2808728084,3.28084,0,0,0,0,0,221.7, 0.3, -0.3,0,0,1024,1024,1024,1024,0,0,0,0,221.7,0,0,96,4.195,4.186,0,0,0,0,4.047,76.46,2.9527888084,2.952756,6,P-GPS,
78400,2022-08-30 05:05:13,0,0,2.952756,,,2.9527888084,3.28084,0,0,0,0,0,8.382,3.2808728084,3.28084,0,0,0,0,0,221.7, 0.3, -0.3,0,0,1024,1024,1024,809,0,0,0,-33,221.7,0,0,96,4.195,4.186,0,0,0,0,4.047,76.46,2.9527888084,2.952756,6,P-GPS,
78500,2022-08-30 05:05:13,0,0,2.952756,,,2.9527888084,3.28084,0,0,0,0,0,8.382,3.2808728084,3.28084,0,0,0,0,0,221.7, 0.3, -0.1,0,0,1024,1024,1024,497,0,0,0,-80,221.6,0,0,96,4.195,4.186,0,0,0,0,4.047,76.46,2.9527888084,2.952756,6,P-GPS,
78600,2022-08-30 05:05:13,0,0,2.952756,,,2.9527888084,3.28084,0,0,0,0,0,8.382,3.2808728084,3.28084,0,0,0,0,0,221.3, 0.3, -0.2,0,0,1024,1024,1024,364,0,0,0,-100,220.4,0,0,96,4.195,4.186,0,0,0,0,4.047,76.46,2.9527888084,2.952756,6,P-GPS,
78700,2022-08-30 05:05:13,0,0,2.952756,,,2.9527888084,3.28084,0,0,0,0,0,8.38,3.2808728084,3.28084,0,0,0,0,0,219.1, 0.3, -0.2,0,0,1024,1024,1024,364,0,0,0,-100,217,0,0,96,4.193,4.185,0,0,0,0,4.055,76.46,2.9527888084,2.952756,6,P-GPS,
78800,2022-08-30 05:05:13,0,0,2.952756,,,2.9527888084,3.28084,0,0,0,0,0,8.38,3.2808728084,3.28084,0,0,0,0,0,215, 0.3, -0.4,0,0,1024,1024,1024,364,0,0,0,-100,212.4,0,0,96,4.193,4.185,0,0,0,0,4.055,76.46,2.9527888084,2.952756,6,P-GPS,
78900,2022-08-30 05:05:14,0,0,3.28084,,,3.2808728084,3.28084,0,0,0,0,0,8.38,3.2808728084,3.28084,0,0,0,0,0,210.5, 0.2, -0.5,0,0,1024,1024,1024,364,0,0,0,-100,207.6,0,0,96,4.193,4.185,0,0,0,0,4.055,76.46,3.2808728084,3.28084,6,P-GPS,
79000,2022-08-30 05:05:14,0,0,3.28084,,,3.2808728084,3.28084,0,0,0,0,0,8.38,3.2808728084,3.28084,0,0,0,0,0,205.9, 0.2, -0.5,0,0,1024,1024,1024,364,0,0,0,-100,202.8,0,0,96,4.193,4.185,0,0,0,0,4.055,76.46,3.2808728084,3.28084,6,P-GPS,
79100,2022-08-30 05:05:14,0,0,3.28084,,,3.2808728084,3.28084,0,0,0,0,0,8.38,3.2808728084,3.28084,0,0,0,0,0,201.2, 0.2, -0.5,0,0,1024,1024,1024,364,0,0,0,-100,198,0,0,96,4.193,4.185,0,0,0,0,4.055,76.46,3.2808728084,3.28084,6,P-GPS,
79200,2022-08-30 05:05:14,0,0,3.28084,,,3.2808728084,3.28084,0,0,0,0,0,8.38,3.2808728084,3.28084,0,0,0,0,0,196.4, 0.2, -0.6,0,0,1024,1024,1024,364,0,0,0,-100,193.2,0,0,96,4.193,4.185,0,0,0,0,4.055,76.46,3.2808728084,3.28084,6,P-GPS,
79300,2022-08-30 05:05:14,0,0,2.952756,,,2.9527888084,3.28084,0,0,0,0,0,8.38,3.2808728084,3.28084,0,0,0,0,0,191.6, 0.1, -0.5,0,0,1024,1024,1024,364,0,0,0,-100,188.4,0,0,96,4.193,4.185,0,0,0,0,4.055,76.46,2.9527888084,2.952756,6,P-GPS,
79400,2022-08-30 05:05:14,0,0,3.28084,,,3.2808728084,3.28084,0,0,0,0,0,8.38,3.2808728084,3.28084,0,0,0,0,0,186.8, 0.1, -0.5,0,0,1024,1024,1024,364,0,0,0,-100,183.6,0,0,96,4.193,4.185,0,0,0,0,4.055,76.46,3.2808728084,3.28084,6,P-GPS,
79500,2022-08-30 05:05:14,0,0,3.28084,,,3.2808728084,3.28084,0,0,0,0,0,8.38,3.2808728084,3.28084,0,0,0,0,0,182, 0, -0.5,0,0,1024,1024,1024,364,0,0,0,-100,178.7,0,0,96,4.193,4.185,0,0,0,0,4.055,76.46,3.2808728084,3.28084,6,P-GPS,
79600,2022-08-30 05:05:14,0,0,3.28084,,,3.2808728084,3.28084,0,0,0,0,0,8.38,3.2808728084,3.28084,0,0,0,0,0,177.2, 0, -0.5,0,0,1024,1024,1024,364,0,0,0,-100,173.9,0,0,96,4.193,4.185,0,0,0,0,4.055,76.46,3.2808728084,3.28084,6,P-GPS,
79700,2022-08-30 05:05:14,0,0,3.28084,,,3.2808728084,3.28084,0,0,0,0,0,8.375,3.2808728084,3.28084,0,0,0,0,0,172.3, 0, -0.5,0,0,1024,1024,1024,364,0,0,0,-100,169.1,0,0,96,4.191,4.183,0,0,0,0,4.066,76.46,3.2808728084,3.28084,6,P-GPS,
79800,2022-08-30 05:05:14,0,0,3.28084,,,3.2808728084,3.28084,0,0,0,0,0,8.375,3.2808728084,3.28084,0,0,0,0,0,167.6, 0, -0.4,0,0,1024,1024,1024,364,0,0,0,-100,164.3,0,0,96,4.191,4.183,0,0,0,0,4.066,76.46,3.2808728084,3.28084,6,P-GPS,
79900,2022-08-30 05:05:15,0,0,3.28084,,,3.2808728084,3.28084,0,0,0,0,0,8.375,3.2808728084,3.28084,0,0,0,0,0,162.9, 0, -0.4,0,0,1024,1024,1024,364,0,0,0,-100,159.5,0,0,96,4.191,4.183,0,0,0,0,4.066,76.46,3.2808728084,3.28084,6,P-GPS,
80000,2022-08-30 05:05:15,0,0,3.28084,,,3.2808728084,3.28084,0,0,0,0,0,8.375,3.2808728084,3.28084,0,0,0,0,0,158.1, 0, -0.5,0,0,1024,1024,1024,364,0,0,0,-100,154.7,0,0,96,4.191,4.183,0,0,0,0,4.066,76.46,3.2808728084,3.28084,6,P-GPS,
80100,2022-08-30 05:05:15,0,0,3.28084,,,3.2808728084,3.28084,0,0,0,0,0,8.375,3.2808728084,3.28084,0,0,0,0,0,153.3, 0, -0.5,0,0,1024,1024,1024,364,0,0,0,-100,149.9,0,0,96,4.191,4.183,0,0,0,0,4.066,76.46,3.2808728084,3.28084,6,P-GPS,
80200,2022-08-30 05:05:15,0,0,3.28084,,,3.2808728084,3.28084,0,0,0,0,0,8.375,3.2808728084,3.28084,0,0,0,0,0,148.3, 0, -0.5,0,0,1024,1024,1024,364,0,0,0,-100,145.1,0,0,96,4.191,4.183,0,0,0,0,4.066,76.46,3.2808728084,3.28084,6,P-GPS,
80300,2022-08-30 05:05:15,0,0,3.28084,,,3.2808728084,3.28084,0,0,0,0,0,8.375,3.2808728084,3.28084,0,0,0,0,0,143.5, -0.2, -0.3,0,0,1024,1024,1024,364,0,0,0,-100,140.3,0,0,96,4.191,4.183,0,0,0,0,4.066,76.46,3.2808728084,3.28084,6,P-GPS,
80400,2022-08-30 05:05:15,0,0,3.28084,,,3.2808728084,3.28084,0,0,0,0,0,8.375,3.2808728084,3.28084,0,0,0,0,0,138.7, -0.3, -0.2,0,0,1024,1024,1024,364,0,0,0,-100,135.5,0,0,96,4.191,4.183,0,0,0,0,4.066,76.46,3.2808728084,3.28084,6,P-GPS,
80500,2022-08-30 05:05:15,0,0,3.28084,,,3.2808728084,3.28084,0,0,0,0,0,8.375,3.2808728084,3.28084,0,0,0,0,0,133.9, -0.3, -0.2,0,0,1024,1024,1024,364,0,0,0,-100,130.7,0,0,96,4.191,4.183,0,0,0,0,4.066,76.46,3.2808728084,3.28084,6,P-GPS,
80600,2022-08-30 05:05:15,0,0,3.28084,,,3.2808728084,3.28084,0,0,0,0,0,8.375,3.2808728084,3.28084,0,0,0,0,0,129.2, -0.1, 0,0,0,1024,1024,1024,364,0,0,0,-100,125.9,0,0,96,4.191,4.183,0,0,0,0,4.066,76.46,3.2808728084,3.28084,6,P-GPS,
80700,2022-08-30 05:05:15,0,0,3.28084,,,3.2808728084,3.28084,0,0,0,0,0,8.37,3.2808728084,3.28084,0,0,0,0,0,124.4, 0, 0,0,0,1024,1024,1024,364,0,0,0,-100,121.1,0,0,96,4.189,4.182,0,0,0,0,4.116,76.64,3.2808728084,3.28084,6,P-GPS,
80800,2022-08-30 05:05:15,0,0,3.28084,,,3.2808728084,3.28084,0,0,0,0,0,8.37,3.2808728084,3.28084,0,0,0,0,0,119.5, 0, 0,0,0,1024,1024,1024,364,0,0,0,-100,116.3,0,0,96,4.189,4.182,0,0,0,0,4.116,76.64,3.2808728084,3.28084,6,P-GPS,
80900,2022-08-30 05:05:16,0,0,3.28084,,,3.2808728084,3.28084,0,0,0,0,0,8.37,3.2808728084,3.28084,0,0,0,0,0,114.6, 0, 0,0,0,1024,1024,1024,364,0,0,0,-100,111.5,0,0,96,4.189,4.182,0,0,0,0,4.116,76.64,3.2808728084,3.28084,6,P-GPS,
81000,2022-08-30 05:05:16,0,0,2.952756,,,2.9527888084,3.28084,0,0,0,0,0,8.37,3.2808728084,3.28084,0,0,0,0,0,109.8, -0.1, -0.1,0,0,1024,1024,1024,364,0,0,0,-100,106.7,0,0,96,4.189,4.182,0,0,0,0,4.116,76.64,2.9527888084,2.952756,6,P-GPS,
81100,2022-08-30 05:05:16,0,0,2.952756,,,2.9527888084,3.28084,0,0,0,0,0,8.37,3.2808728084,3.28084,0,0,0,0,0,105, 0, 0,0,0,1024,1024,1024,364,0,0,0,-100,101.9,0,0,96,4.189,4.182,0,0,0,0,4.116,76.64,2.9527888084,2.952756,6,P-GPS,
81200,2022-08-30 05:05:16,0,0,2.952756,,,2.9527888084,3.28084,0,0,0,0,0,8.37,3.2808728084,3.28084,0,0,0,0,0,100.2, -0.1, 0,0,0,1024,1024,1024,364,0,0,0,-100,97.1,0,0,96,4.189,4.182,0,0,0,0,4.116,76.64,2.9527888084,2.952756,6,P-GPS,
81300,2022-08-30 05:05:16,0,0,2.952756,,,2.9527888084,3.28084,0,0,0,0,0,8.37,3.2808728084,3.28084,0,0,0,0,0,95.5, 0, 0,0,0,1024,1024,1024,364,0,0,0,-100,92.3,0,0,96,4.189,4.182,0,0,0,0,4.116,76.64,2.9527888084,2.952756,6,P-GPS,
81400,2022-08-30 05:05:16,0,0,2.952756,,,2.9527888084,3.28084,0,0,0,0,0,8.37,3.2808728084,3.28084,0,0,0,0,0,90.8, 0, 0,0,0,1024,1024,1024,364,0,0,0,-100,87.5,0,0,96,4.189,4.182,0,0,0,0,4.116,76.64,2.9527888084,2.952756,6,P-GPS,
81500,2022-08-30 05:05:16,0,0,3.28084,,,3.2808728084,3.28084,0,0,0,0,0,8.37,3.2808728084,3.28084,0,0,0,0,0,86, 0, 0,0,0,1024,1024,1024,364,0,0,0,-100,82.7,0,0,96,4.189,4.182,0,0,0,0,4.116,76.64,3.2808728084,3.28084,6,P-GPS,
81600,2022-08-30 05:05:16,0,0,3.28084,,,3.2808728084,3.28084,0,0,0,0,0,8.37,3.2808728084,3.28084,0,0,0,0,0,81.1, 0, 0,0,0,1024,1024,1024,364,0,0,0,-100,77.9,0,0,96,4.189,4.182,0,0,0,0,4.116,76.64,3.2808728084,3.28084,6,P-GPS,
81700,2022-08-30 05:05:16,0,0,3.28084,,,3.2808728084,3.28084,0,0,0,0,0,8.37,3.2808728084,3.28084,0,0,0,0,0,76.3, -0.1, 0,0,0,1024,1024,1024,364,0,0,0,-100,73.1,0,0,96,4.189,4.182,0,0,0,0,4.116,76.64,3.2808728084,3.28084,6,P-GPS,
81800,2022-08-30 05:05:16,0,0,3.28084,,,3.2808728084,3.28084,0,0,0,0,0,8.369,3.2808728084,3.28084,0,0,0,0,0,71.4, -0.1, 0,0,0,1024,1024,1024,364,0,0,0,-100,68.3,0,0,96,4.188,4.18,0,0,0,0,4.103,76.64,3.2808728084,3.28084,6,P-GPS,
81900,2022-08-30 05:05:16,0,0,3.28084,,,3.2808728084,3.28084,0,0,0,0,0,8.369,3.2808728084,3.28084,0,0,0,0,0,66.6, 0, 0.1,0,0,1024,1024,1024,364,0,0,0,-100,63.5,0,0,96,4.188,4.18,0,0,0,0,4.103,76.64,3.2808728084,3.28084,6,P-GPS,
82000,2022-08-30 05:05:17,0,0,3.28084,,,3.2808728084,3.28084,0,0,0,0,0,8.369,3.2808728084,3.28084,0,0,0,0,0,61.8, 0, 0,0,0,1024,1024,1024,467,0,0,0,-84,58.7,0,0,96,4.188,4.18,0,0,0,0,4.103,76.64,3.2808728084,3.28084,6,P-GPS,
82100,2022-08-30 05:05:17,0,0,3.28084,,,3.2808728084,3.28084,0,0,0,0,0,8.369,3.2808728084,3.28084,0,0,0,0,0,57.2, 0, 0.1,0,0,1024,1024,1024,1024,0,0,0,0,53.9,0,0,96,4.188,4.18,0,0,0,0,4.103,76.64,3.2808728084,3.28084,6,P-GPS,
82200,2022-08-30 05:05:17,0,0,3.28084,,,3.2808728084,3.28084,0,0,0,0,0,8.369,3.2808728084,3.28084,0,0,0,0,0,53, 0, 0.3,0,0,1024,1024,1024,1024,0,0,0,0,51.2,0,0,96,4.188,4.18,0,0,0,0,4.103,76.64,3.2808728084,3.28084,6,P-GPS,
82300,2022-08-30 05:05:17,0,0,2.952756,,,2.9527888084,3.28084,0,0,0,0,0,8.369,3.2808728084,3.28084,0,0,0,0,0,51.2, 0.1, 0.3,0,0,1024,1024,1024,1024,0,0,0,0,50.1,0,0,96,4.188,4.18,0,0,0,0,4.103,76.64,2.9527888084,2.952756,6,P-GPS,
82400,2022-08-30 05:05:17,0,0,2.952756,,,2.9527888084,3.28084,0,0,0,0,0,8.369,3.2808728084,3.28084,0,0,0,0,0,50.3, 0.1, 0.5,0,0,1024,1024,1024,528,0,0,0,-75,49.9,0,0,96,4.188,4.18,0,0,0,0,4.103,76.64,2.9527888084,2.952756,6,P-GPS,
82500,2022-08-30 05:05:17,0,0,3.28084,,,3.2808728084,3.28084,0,0,0,0,0,8.369,3.2808728084,3.28084,0,0,0,0,0,50.2, 0, 0.9,0,0,1024,1024,1024,364,0,0,0,-100,49.9,0,0,96,4.188,4.18,0,0,0,0,4.103,76.64,3.2808728084,3.28084,6,P-GPS,
82600,2022-08-30 05:05:17,0,0,3.28084,,,3.2808728084,3.28084,0,0,0,0,0,8.369,3.2808728084,3.28084,0,0,0,0,0,49.9, 0.1, 0.9,0,0,1024,1024,1024,364,0,0,0,-100,48.9,0,0,96,4.188,4.18,0,0,0,0,4.103,76.64,3.2808728084,3.28084,6,P-GPS,
82700,2022-08-30 05:05:17,0,0,3.28084,,,3.2808728084,3.28084,0,0,0,0,0,8.369,3.2808728084,3.28084,0,0,0,0,0,47.6, -0.1, 1,0,0,1024,1024,1024,364,0,0,0,-100,45.2,0,0,96,4.188,4.18,0,0,0,0,4.103,76.64,3.2808728084,3.28084,6,P-GPS,
82800,2022-08-30 05:05:17,0,0,3.28084,,,3.2808728084,3.28084,0,0,0,0,0,8.367,3.2808728084,3.28084,0,0,0,0,0,43.4, 0, 0.7,0,0,1024,1024,1024,1024,0,0,0,0,40.6,0,0,96,4.186,4.179,0,0,0,0,4.096,76.64,3.2808728084,3.28084,6,P-GPS,
82900,2022-08-30 05:05:17,0,0,3.28084,,,3.2808728084,3.28084,0,0,0,0,0,8.367,3.2808728084,3.28084,0,0,0,0,0,39.6, 0.1, 0.6,0,0,1024,1024,1024,1024,0,0,0,0,37.6,0,0,96,4.186,4.179,0,0,0,0,4.096,76.64,3.2808728084,3.28084,6,P-GPS,
83000,2022-08-30 05:05:18,0,0,3.28084,,,3.2808728084,3.28084,0,0,0,0,0,8.367,3.2808728084,3.28084,0,0,0,0,0,37.4, 0.2, 0.9,0,0,1172,1024,1024,1024,22,0,0,0,36.4,0,0,96,4.186,4.179,0,0,0,0,4.096,76.64,3.2808728084,3.28084,6,P-GPS,
83100,2022-08-30 05:05:18,0,0,3.28084,,,3.2808728084,3.28084,0,0,0,0,0,8.367,3.2808728084,3.28084,0,0,0,0,0,36.7, 0.1, 0.9,0,0,1285,1024,1024,1024,40,0,0,0,36.3,0,0,96,4.186,4.179,0,0,0,0,4.096,76.64,3.2808728084,3.28084,6,P-GPS,
83200,2022-08-30 05:05:18,0,0,3.28084,,,3.2808728084,3.28084,0,0,0,0,0,8.367,3.2808728084,3.28084,0,0,0,0,0,36.5, -1.5, 0.9,0,0,1024,1024,1024,1024,0,0,0,0,36.3,0,0,96,4.186,4.179,0,0,0,0,4.096,76.64,3.2808728084,3.28084,6,P-GPS,
83300,2022-08-30 05:05:18,0,0,3.28084,,,3.2808728084,3.28084,0,0,0,0,0,8.367,3.2808728084,3.28084,0,0,0,0,0,36.4, -3.7, 0.7,0,0,1024,1024,1024,1024,0,0,0,0,36.3,0,0,96,4.186,4.179,0,0,0,0,4.096,76.64,3.2808728084,3.28084,6,P-GPS,
83400,2022-08-30 05:05:18,0,0,3.28084,,,3.2808728084,3.28084,0,0,0,0,0,8.367,3.2808728084,3.28084,0,0,0,0,0,36.4, -0.4, 0.6,0,0,1024,1024,1024,1024,0,0,0,0,36.3,0,0,96,4.186,4.179,0,0,0,0,4.096,76.64,3.2808728084,3.28084,6,P-GPS,
83500,2022-08-30 05:05:18,0,0,3.28084,,,3.2808728084,3.28084,0,0,0,0,0,8.367,3.2808728084,3.28084,0,0,0,0,0,36.4, 0.8, 0.5,0,0,1024,1024,1024,1024,0,0,0,0,36.3,0,0,96,4.186,4.179,0,0,0,0,4.096,76.64,3.2808728084,3.28084,6,P-GPS,
83600,2022-08-30 05:05:18,0,0,3.28084,,,3.2808728084,3.28084,0,0,0,0,0,8.367,3.2808728084,3.28084,0,0,0,0,0,36.4, 0.8, 0.3,0,0,1404,1024,1024,1024,58,0,0,0,36.3,0,0,96,4.186,4.179,0,0,0,0,4.096,76.64,3.2808728084,3.28084,6,P-GPS,
83700,2022-08-30 05:05:18,0,0,3.28084,,,3.2808728084,3.28084,0,0,0,0,0,8.367,3.2808728084,3.28084,0,0,0,0,0,36.4, -0.4, 0.4,0,0,1684,1024,1024,1024,100,0,0,0,36.3,0,0,96,4.186,4.179,0,0,0,0,4.096,76.64,3.2808728084,3.28084,6,P-GPS,
83800,2022-08-30 05:05:18,0,0,3.28084,,,3.2808728084,3.28084,0.223694,0,0,0,0,8.364,3.2808728084,3.28084,0,0,0.223694,0,0,36.4, -9.3, 0.4,0,0,1684,1024,1024,1024,100,0,0,0,36.3,0,0,95,4.186,4.176,0,0,0,0,4.107,76.64,3.2808728084,3.28084,6,P-GPS,
83900,2022-08-30 05:05:19,0,0,3.28084,,,3.2808728084,3.28084,0.4921268,0,0,0,0,8.364,3.2808728084,3.28084,0,0,0.447388,0.223694,0,36.3, -15.9, 0.7,0,0,1684,1024,1024,1024,100,0,0,0,36.3,0,0,95,4.186,4.176,0,0,0,0,4.107,76.64,3.2808728084,3.28084,6,P-GPS,
84000,2022-08-30 05:05:19,0,0,3.28084,,,3.2808728084,3.28084,1.11847,0,0,0,0,8.364,3.2808728084,3.28084,0,0,0.894776,0.671082,0,36.4, -17.3, 0.9,0,0,1684,1024,1024,1024,100,0,0,0,36.3,0,0,95,4.186,4.176,0,0,0,0,4.107,76.64,3.2808728084,3.28084,6,P-GPS,
84100,2022-08-30 05:05:19,0,0,3.28084,,,3.2808728084,3.28084,1.7448132,0,0,0,0,8.364,3.2808728084,3.28084,0,0,1.342164,1.11847,0,36.3, -17, 1.1,0,0,1684,1024,1024,1024,100,0,0,0,36.3,0,0,95,4.186,4.176,0,0,0,0,4.107,76.64,3.2808728084,3.28084,6,P-GPS,
84200,2022-08-30 05:05:19,0,0,3.28084,,,3.2808728084,3.28084,2.4158952,0,0,0,0,8.364,3.2808728084,3.28084,0,0,2.013246,1.342164,0,36.3, -16.3, 0.9,0,0,1684,1024,1024,1024,100,0,0,0,36.3,0,0,95,4.186,4.176,0,0,0,0,4.107,76.64,3.2808728084,3.28084,6,P-GPS,
84300,2022-08-30 05:05:19,0,0,3.28084,,,3.2808728084,3.28084,3.0422384,0,0,0,0,8.364,3.2808728084,3.28084,0,0,2.460634,1.789552,0,36.3, -16.1, 0.7,0,0,1684,1024,1024,1024,100,0,0,0,36.3,0,0,95,4.186,4.176,0,0,0,0,4.107,76.64,3.2808728084,3.28084,6,P-GPS,
