time(millisecond),datetime(utc),latitude,longitude,height_above_takeoff(feet),height_above_ground_at_drone_location(feet),ground_elevation_at_drone_location(feet),altitude_above_seaLevel(feet),height_sonar(feet),speed(mph),distance(feet),mileage(feet),satellites,gpslevel,voltage(v),max_altitude(feet),max_ascent(feet),max_speed(mph),max_distance(feet), xSpeed(mph), ySpeed(mph), zSpeed(mph), compass_heading(degrees), pitch(degrees), roll(degrees),isPhoto,isVideo,rc_elevator,rc_aileron,rc_throttle,rc_rudder,rc_elevator(percent),rc_aileron(percent),rc_throttle(percent),rc_rudder(percent),gimbal_heading(degrees),gimbal_pitch(degrees),gimbal_roll(degrees),battery_percent,voltageCell1,voltageCell2,voltageCell3,voltageCell4,voltageCell5,voltageCell6,current(A),battery_temperature(f),altitude(feet),ascent(feet),flycStateRaw,flycState,message
0,2022-09-04 16:40:46,-34.845473257187,-55.2712888906677,0,0,193.64953342776,193.64953342776,0.328084,0,0,0,21,5,0,193.64953342776,0,0,0,0,0,0,39.2, 4, 3.9,0,0,364,364,364,1684,-100,-100,-100,100,48.4,0,0,100,4.336,4.336,0,0,0,0,0,76.1,193.64953342776,0,41,Motors_Started,"En vuelo"
100,2022-09-04 16:40:46,-34.8454732752343,-55.2712888286828,0,0,193.64953342776,193.64953342776,0.328084,0,0.019693570184,0.019693570184,21,5,0,193.64953342776,0,0,0.019693570184,0,0,0,39.6, 4, 2.9,0,0,364,364,364,1684,-100,-100,-100,100,49.4,0,0,100,4.336,4.336,0,0,0,0,0,76.1,193.64953342776,0,41,Motors_Started,
200,2022-09-04 16:40:46,-34.8454733020427,-55.271288754884,0,0,193.64953342776,193.64953342776,0.328084,0,0.043828085392,0.043859253372,21,5,0,193.64953342776,0,0,0.043828085392,0,0,0,39.5, 3.4, 3.2,0,0,364,364,364,1684,-100,-100,-100,100,50.1,0,0,100,4.336,4.336,0,0,0,0,0,76.1,193.64953342776,0,41,Motors_Started,"Setting new Return-To-Home altitude to 60m (197 ft). Data Recorder File Index is 55. Setting new Maximum Flight Altitude to 120m (394 ft)"
300,2022-09-04 16:40:46,-34.8454733561324,-55.2712886495711,0,0,193.64953342776,193.64953342776,0.328084,0,0.080714569512,0.081059057712,21,5,0,193.64953342776,0,0,0.080714569512,0,0,0,39.1, 3.1, 3.7,0,0,364,364,364,1684,-100,-100,-100,100,50.2,0,0,100,4.336,4.336,0,0,0,0,0,76.1,193.64953342776,0,41,Motors_Started,
400,2022-09-04 16:40:46,-34.8454733600612,-55.2712885923762,0,0,193.64953342776,193.64953342776,0.328084,0,0.096883533284,0.0982447538,21,5,0,193.64953342776,0,0,0.096883533284,0,0,0,38.9, 3.2, 3.4,0,0,364,364,364,1684,-100,-100,-100,100,49.9,0,0,100,4.336,4.336,0,0,0,0,0,76.1,193.64953342776,0,41,Motors_Started,
500,2022-09-04 16:40:46,-34.8454733968448,-55.2712885533248,0,0,193.64953342776,193.64953342776,0.328084,0,0.11313484614,0.11604495122,21,5,0,193.64953342776,0,0,0.11313484614,0,0,0,38.6, 3.3, 3.3,0,0,364,364,364,1684,-100,-100,-100,100,49.8,0,0,100,4.336,4.336,0,0,0,0,0,76.1,193.64953342776,0,41,Motors_Started,
600,2022-09-04 16:40:47,-34.8454734314186,-55.2712885340121,0,0,193.64953342776,193.64953342776,0.328084,0,0.124281171956,0.129921592084,21,5,0,193.64953342776,0,0,0.124281171956,0,0,0,38.5, 3.4, 3.7,0,0,364,364,364,1684,-100,-100,-100,100,49.5,0,0,100,4.336,4.336,0,0,0,0,0,76.1,193.64953342776,0,41,Motors_Started,
700,2022-09-04 16:40:47,-34.8454734622656,-55.2712885476084,0,0,193.64953342776,193.64953342776,0.328084,0,0.127083993568,0.14188976832,21,5,0,193.64953342776,0,0,0.127083993568,0,0,0,38.5, 3.7, 3.4,0,0,364,364,364,1684,-100,-100,-100,100,49.4,0,0,100,4.336,4.336,0,0,0,0,0,76.1,193.64953342776,0,41,Motors_Started,
800,2022-09-04 16:40:47,-34.8454734352959,-55.2712886682262,0,0,193.64953342776,193.64953342776,0.328084,0,0.09305446492,0.179322840384,21,5,0,193.64953342776,0,0,0.127083993568,0,0,0,38.4, 3.4, 3.7,0,0,748,364,567,1673,-42,-100,-69,98,49.3,0,0,100,4.336,4.336,0,0,0,0,0,76.1,193.64953342776,0,41,Motors_Started,
900,2022-09-04 16:40:47,-34.8454734971001,-55.2712886344861,0,0,193.64953342776,193.64953342776,0.328084,0,0.116387799,0.204031830676,21,5,8.689,193.64953342776,0,0,0.127083993568,0,0,0,38.1, 3.9, 3.8,0,0,1024,642,1024,1485,0,-58,0,70,49.2,0,0,100,4.336,4.336,0,0,0,0,0.769,76.1,193.64953342776,0,41,Motors_Started,
1000,2022-09-04 16:40:47,-34.8454735386168,-55.2712886368152,-0.328084,-0.26246720000001,193.58391662776,193.32144942776,0.328084,0,0.127752956844,0.219195216988,21,5,8.689,193.64953342776,0,0,0.127752956844,0,0,0,38.2, 4.2, 3,0,0,1024,1024,1024,1024,0,0,0,0,49.1,0,0,100,4.336,4.336,0,0,0,0,0.769,76.1,193.32144942776,-0.328084,41,Motors_Started,
1100,2022-09-04 16:40:47,-34.8454735510551,-55.2712886323559,-0.328084,-0.26246720000001,193.58391662776,193.32144942776,0.328084,0,0.13220472864,0.2239255321,21,5,8.689,193.64953342776,0,0,0.13220472864,0,0,0,37.9, 4.4, 3.6,0,0,1024,1024,1024,1024,0,0,0,0,49,0,0,100,4.336,4.336,0,0,0,0,0.769,76.1,193.32144942776,-0.328084,10,Assisted_Takeoff,
1200,2022-09-04 16:40:47,-34.8454735388844,-55.2712887427054,-0.328084,-0.26246720000001,193.58391662776,193.32144942776,0.328084,0,0.111919623004,0.257264443928,21,5,8.689,193.64953342776,0,0,0.13220472864,0,0,0,37.7, 4.7, 3.2,0,0,1024,1024,1024,1024,0,0,0,0,48.8,0,0,100,4.336,4.336,0,0,0,0,0.769,76.1,193.32144942776,-0.328084,10,Assisted_Takeoff,
1300,2022-09-04 16:40:47,-34.8454735576286,-55.2712887586451,-0.328084,-0.26246720000001,193.58391662776,193.32144942776,0.328084,0,0.116526250448,0.265604339208,21,5,8.689,193.64953342776,0,0,0.13220472864,0,0,0,37.6, 4.3, 3.2,0,0,1024,1024,1024,1024,0,0,0,0,48.7,0,0,100,4.336,4.336,0,0,0,0,0.769,76.1,193.32144942776,-0.328084,10,Assisted_Takeoff,
1400,2022-09-04 16:40:47,-34.8454735674963,-55.2712887478999,-0.328084,-0.26246720000001,193.58391662776,193.32144942776,0.328084,0,0.121018048492,0.270432751436,20,5,8.689,193.64953342776,0,0,0.13220472864,0,0,0,37.6, 4.3, 3.6,0,0,1024,1024,1024,1024,0,0,0,0,48.7,0,0,100,4.336,4.336,0,0,0,0,0.769,76.1,193.32144942776,-0.328084,10,Assisted_Takeoff,
1500,2022-09-04 16:40:47,-34.8454735597884,-55.2712887066734,-0.328084,-0.26246720000001,193.58391662776,193.32144942776,0.328084,0,0.123386814972,0.283093512996,20,5,8.689,193.64953342776,0,0,0.13220472864,0,0,0,37.6, 4.2, 3.9,0,0,1024,1024,1024,1024,0,0,0,0,48.5,0,0,100,4.336,4.336,0,0,0,0,0.769,76.1,193.32144942776,-0.328084,10,Assisted_Takeoff,
1600,2022-09-04 16:40:48,-34.845473432229,-55.2712887675081,-0.328084,-0.328084,193.64953342776,193.32144942776,0.328084,0,0.07374672152,0.3330708768,20,5,8.689,193.64953342776,0,0,0.13220472864,0,0,0,37.5, 4.3, 3.1,0,0,1024,1024,1024,1024,0,0,0,0,48.5,0,0,100,4.336,4.336,0,0,0,0,0.769,76.1,193.32144942776,-0.328084,10,Assisted_Takeoff,
1700,2022-09-04 16:40:48,-34.8454734158202,-55.2712887487787,-0.328084,-0.328084,193.64953342776,193.32144942776,0.328084,0,0.071797246392,0.3412729768,20,5,8.689,193.64953342776,0,0,0.13220472864,0,0,0,38.3, 3.4, 3.9,0,0,1024,1024,1024,1024,0,0,0,0,48.8,0,0,100,4.336,4.336,0,0,0,0,0.769,76.1,193.32144942776,-0.328084,10,Assisted_Takeoff,
1800,2022-09-04 16:40:48,-34.8454734050275,-55.2712887152343,-0.328084,-0.328084,193.64953342776,193.32144942776,0.328084,0,0.07529199716,0.35206365956,20,5,8.689,193.64953342776,0,0,0.13220472864,0,0,0,37.9, 3.3, 3.9,0,0,1024,1024,1024,1024,0,0,0,0,48.9,0,0,100,4.336,4.336,0,0,0,0,0.769,76.1,193.32144942776,-0.328084,10,Assisted_Takeoff,
1900,2022-09-04 16:40:48,-34.8454733986089,-55.271288695067,-0.328084,-0.328084,193.64953342776,193.32144942776,0.328084,0,0.078055448692,0.35854003772,20,5,8.678,193.64953342776,0,0,0.13220472864,0,0,0,38.3, 3.3, 3.9,0,0,1024,1024,1024,1024,0,0,0,0,49,0,0,100,4.342,4.343,0,0,0,0,1.393,76.1,193.32144942776,-0.328084,10,Assisted_Takeoff,
2000,2022-09-04 16:40:48,-34.8454734139055,-55.271288665929,-0.328084,-0.328084,193.64953342776,193.32144942776,0.328084,0,0.08830544902,0.3688976496,21,5,8.678,193.64953342776,0,0,0.13220472864,0,0,0,38.1, 3.4, 3.9,0,0,1024,1024,1024,1024,0,0,0,0,49,0,0,100,4.342,4.343,0,0,0,0,1.393,76.1,193.32144942776,-0.328084,10,Assisted_Takeoff,
2100,2022-09-04 16:40:48,-34.8454735266056,-55.2712885460922,-0.328084,-0.26246720000001,193.58391662776,193.32144942776,0.328084,0,0.142505253904,0.42347114216,21,5,8.678,193.64953342776,0,0,0.142505253904,0,0,0,38.4, 3.4, 4.1,0,0,1024,1024,1024,1024,0,0,0,0,49.1,0,0,100,4.342,4.343,0,0,0,0,1.393,76.1,193.32144942776,-0.328084,10,Assisted_Takeoff,
2200,2022-09-04 16:40:48,-34.84547355173,-55.2712885086705,-0.328084,-0.26246720000001,193.58391662776,193.32144942776,0.328084,0,0.156944558828,0.43794620824,21,5,8.678,193.64953342776,0,0,0.156944558828,0,0,0,38.5, 3.2, 4,0,0,1024,1024,1024,1024,0,0,0,0,49.2,0,0,100,4.342,4.343,0,0,0,0,1.393,76.1,193.32144942776,-0.328084,10,Assisted_Takeoff,
2300,2022-09-04 16:40:48,-34.8454735669717,-55.2712885001598,-0.328084,-0.26246720000001,193.58391662776,193.32144942776,0.328084,0,0.162625989456,0.44406497484,21,5,8.678,193.64953342776,0,0,0.162625989456,0,0,0,38, 3.6, 4.4,0,0,1024,1024,1024,1024,0,0,0,0,49.2,0,0,100,4.342,4.343,0,0,0,0,1.393,76.1,193.32144942776,-0.328084,10,Assisted_Takeoff,
2400,2022-09-04 16:40:48,-34.845473567385,-55.271288531364,-0.328084,-0.26246720000001,193.58391662776,193.32144942776,0.328084,0,0.156152235968,0.45340880716,21,5,8.678,193.64953342776,0,0,0.162625989456,0,0,0,37.9, 3.6, 3.9,0,0,1024,1024,1024,1024,0,0,0,0,49,0,0,100,4.342,4.343,0,0,0,0,1.393,76.1,193.32144942776,-0.328084,10,Assisted_Takeoff,
2500,2022-09-04 16:40:48,-34.8454735009086,-55.2712886568272,-0.328084,-0.26246720000001,193.58391662776,193.32144942776,0.328084,0,0.113180121732,0.49812665636,21,5,8.678,193.64953342776,0,0,0.162625989456,0,0,0,36.9, 2.5, 4.1,0,0,1024,1024,1024,1024,0,0,0,0,48.7,0,0,100,4.342,4.343,0,0,0,0,1.393,76.1,193.32144942776,-0.328084,10,Assisted_Takeoff,
2600,2022-09-04 16:40:49,-34.8454734607984,-55.2712886716996,-0.328084,-0.328084,193.64953342776,193.32144942776,0.328084,0,0.099083336504,0.51342193244,21,5,8.678,193.64953342776,0,0,0.162625989456,0,0,0,36.3, 1.1, 4.5,0,0,1024,1024,1024,1024,0,0,0,0,47.7,0,0,100,4.342,4.343,0,0,0,0,1.393,76.1,193.32144942776,-0.328084,10,Assisted_Takeoff,
2700,2022-09-04 16:40:49,-34.8454734028773,-55.2712886516595,-0.328084,-0.328084,193.64953342776,193.32144942776,0.328084,0,0.08914698448,0.53539043708,21,5,8.678,193.64953342776,0,0,0.162625989456,0,0,0,35.9, 0, 4.2,0,0,1024,1024,1024,1024,0,0,0,0,47.5,0,0,100,4.342,4.343,0,0,0,0,1.393,76.1,193.32144942776,-0.328084,10,Assisted_Takeoff,
2800,2022-09-04 16:40:49,-34.8454733018525,-55.2712885846334,-0.328084,-0.328084,193.64953342776,193.32144942776,0.328084,0.223694,0.093073821876,0.57735894236,22,5,8.678,193.64953342776,0,0.223694,0.162625989456,0.223694,0,0,36, -4.6, 4.8,0,0,1024,1024,1024,1024,0,0,0,0,47.2,0,0,100,4.342,4.343,0,0,0,0,1.393,76.1,193.32144942776,-0.328084,10,Assisted_Takeoff,
2900,2022-09-04 16:40:49,-34.845473159282,-55.2712884333281,-0.328084,-0.29527560000001,193.61672502776,193.32144942776,0.328084,0,0.141523626576,0.64633860336,22,5,8.678,193.64953342776,0,0.223694,0.162625989456,0,0,-0.447388,35.7, -3.4, 4.2,0,0,1024,1024,1024,1024,0,0,0,0,47.2,0,0,100,4.342,4.343,0,0,0,0,1.393,76.1,193.32144942776,-0.328084,6,P-GPS,
3000,2022-09-04 16:40:49,-34.845473156971,-55.2712883980816,-0.328084,-0.29527560000001,193.61672502776,193.32144942776,0.328084,0,0.151959650532,0.65692587404,21,5,8.683,193.64953342776,0,0.223694,0.162625989456,0,0,0,35.8, -1.4, 2.9,0,0,1024,1024,1024,1024,0,0,0,0,47.2,0,0,100,4.341,4.34,0,0,0,0,1.081,76.1,193.32144942776,-0.328084,6,P-GPS,
3100,2022-09-04 16:40:49,-34.845473134983,-55.2712884443897,-0.328084,-0.29527560000001,193.61672502776,193.32144942776,0.328084,0,0.1408710675,0.67294621576,21,5,8.683,193.64953342776,0,0.223694,0.162625989456,0,0,0,35.9, -1.4, 3.1,0,0,1024,1024,1024,1024,0,0,0,0,47.2,0,0,100,4.341,4.34,0,0,0,0,1.081,76.1,193.32144942776,-0.328084,6,P-GPS,
3200,2022-09-04 16:40:49,-34.8454731309365,-55.2712884292923,-0.328084,-0.29527560000001,193.61672502776,193.32144942776,0.328084,0,0.14562664508,0.67770343376,21,5,8.683,193.64953342776,0,0.223694,0.162625989456,0,0,0,36.2, -0.9, 2.6,0,0,1024,1024,1024,1024,0,0,0,0,47.2,0,0,100,4.341,4.34,0,0,0,0,1.081,76.1,193.32144942776,-0.328084,6,P-GPS,
3300,2022-09-04 16:40:49,-34.8454732562349,-55.2712883787017,-0.328084,-0.29527560000001,193.61672502776,193.32144942776,0.328084,0,0.153298561336,0.72586288412,21,5,8.683,193.64953342776,0,0.223694,0.162625989456,0,0,0,36.4, -0.3, 1.9,0,0,1024,1024,1024,1024,0,0,0,0,47.2,0,0,100,4.341,4.34,0,0,0,0,1.081,76.1,193.32144942776,-0.328084,6,P-GPS,
3400,2022-09-04 16:40:49,-34.8454732757925,-55.2712883053759,-0.328084,-0.29527560000001,193.61672502776,193.32144942776,0.328084,0,0.1753855043,0.7489501552,21,5,8.683,193.64953342776,0,0.223694,0.1753855043,0,0,-0.223694,36.6, 0.5, 0.6,0,0,1024,1024,1024,1024,0,0,0,0,47.2,0,0,100,4.341,4.34,0,0,0,0,1.081,76.1,193.32144942776,-0.328084,6,P-GPS,
3500,2022-09-04 16:40:49,-34.8454732934951,-55.2712882195851,0,0.032808399999993,193.61672502776,193.64953342776,0.328084,0,0.201378615368,0.77543637652,21,5,8.683,193.64953342776,0,0.223694,0.201378615368,0,0,-0.447388,36.9, 1.5, -0.4,0,0,1024,1024,1024,1024,0,0,0,0,47.2,0,0,100,4.341,4.34,0,0,0,0,1.081,76.1,193.64953342776,0,6,P-GPS,
3600,2022-09-04 16:40:50,-34.8454732726447,-55.2712881672572,0,0.032808399999993,193.61672502776,193.64953342776,0.328084,0,0.216684390136,0.79285435608,21,5,8.683,193.64953342776,0,0.223694,0.216684390136,0,0,-0.447388,35.8, 2.9, -1.6,0,0,1024,1024,1024,1024,0,0,0,0,47.2,0,0,100,4.341,4.34,0,0,0,0,1.081,76.1,193.64953342776,0,6,P-GPS,
3700,2022-09-04 16:40:50,-34.8454732387807,-55.2712882086964,0,0.032808399999993,193.61672502776,193.64953342776,0.656168,0,0.204313326748,0.81036419916,21,5,8.683,193.64953342776,0,0.223694,0.216684390136,0,0,-0.447388,35.8, 2.1, -0.7,0,0,1024,1024,1024,1024,0,0,0,0,47.2,0,0,100,4.341,4.34,0,0,0,0,1.081,76.1,193.64953342776,0,6,P-GPS,
3800,2022-09-04 16:40:50,-34.8454733306147,-55.2712883247506,0,0.032808399999993,193.61672502776,193.64953342776,0.656168,0,0.171557420188,0.85863519808,22,5,8.683,193.64953342776,0,0.223694,0.216684390136,0,0,-0.671082,35.8, 0.9, 0.2,0,0,1024,1024,1024,1024,0,0,0,0,47.2,0,0,100,4.341,4.34,0,0,0,0,1.081,76.1,193.64953342776,0,6,P-GPS,
3900,2022-09-04 16:40:50,-34.8454733175176,-55.2712883684353,0,0.032808399999993,193.61672502776,193.64953342776,0.656168,0,0.157914047048,0.87256236388,22,5,8.683,193.64953342776,0,0.223694,0.216684390136,0,0,-0.894776,35.8, 0.4, 0.7,0,0,1024,1024,1024,1024,0,0,0,0,47.2,0,0,100,4.341,4.34,0,0,0,0,1.081,76.1,193.64953342776,0,6,P-GPS,
4000,2022-09-04 16:40:50,-34.8454733031664,-55.2712884058192,0,0.032808399999993,193.61672502776,193.64953342776,0.984252,0,0.146144361632,0.88492128816,22,5,8.62,193.64953342776,0,0.223694,0.216684390136,0,0,-0.894776,35.8, 0.1, 1,0,0,1024,1024,1024,1024,0,0,0,0,47.2,0,0,100,4.274,4.265,0,0,0,0,1.722,76.1,193.64953342776,0,6,P-GPS,
4100,2022-09-04 16:40:50,-34.8454732775052,-55.2712884327912,0.328084,0.36089239999999,193.61672502776,193.97761742776,0.984252,0,0.137302497832,0.89728349328,22,5,8.62,193.97761742776,0.328084,0.223694,0.216684390136,0,0,-1.11847,35.9, 0.2, 1,0,0,1024,1024,1024,1024,0,0,0,0,47.2,0,0,100,4.274,4.265,0,0,0,0,1.722,76.1,193.97761742776,0.328084,6,P-GPS,
4200,2022-09-04 16:40:50,-34.8454732122551,-55.2712883828582,0.328084,0.36089239999999,193.61672502776,193.97761742776,0.984252,0,0.15293471618,0.92539701124,23,5,8.62,193.97761742776,0.328084,0.223694,0.216684390136,0,0,-0.894776,35.9, 0.4, 0.6,0,0,1024,1024,1024,1024,0,0,0,0,47.2,0,0,100,4.274,4.265,0,0,0,0,1.722,76.1,193.97761742776,0.328084,6,P-GPS,
4300,2022-09-04 16:40:50,-34.8454731977749,-55.2712883463897,0.656168,0.68897639999999,193.61672502776,194.30570142776,3.28084,0,0.164408797912,0.93752627672,23,5,8.62,194.30570142776,0.656168,0.223694,0.216684390136,0,0,-0.671082,35.9, 0.5, 0.5,0,0,1024,1024,1024,1024,0,0,0,0,47.2,0,0,100,4.274,4.265,0,0,0,0,1.722,76.1,194.30570142776,0.656168,6,P-GPS,"Punto de origen actualizado. Altitud de RPO establecida en 60m (Code: 3000001)"
4400,2022-09-04 16:40:50,-34.8454731775238,-55.2712883013988,0.656168,0.68897639999999,193.61672502776,194.30570142776,3.28084,0,0.178822840368,0.95289373128,22,5,8.62,194.30570142776,0.656168,0.223694,0.216684390136,0,0,-0.447388,35.9, 0.8, 0.2,0,0,1024,1024,1024,1024,0,0,0,0,47.2,0,0,100,4.274,4.265,0,0,0,0,1.722,76.1,194.30570142776,0.656168,6,P-GPS,
4500,2022-09-04 16:40:50,-34.8454731434831,-55.2712882456698,0.656168,0.68897639999999,193.61672502776,194.30570142776,3.28084,0,0.197537079812,0.97369425688,22,5,8.62,194.30570142776,0.656168,0.223694,0.216684390136,0,0,-0.223694,35.9, 0.8, 0,0,0,1024,1024,1024,1024,0,0,0,0,47.2,0,0,100,4.274,4.265,0,0,0,0,1.722,76.1,194.30570142776,0.656168,6,P-GPS,
4600,2022-09-04 16:40:51,-34.8454730905666,-55.2712882037381,0.984252,1.0170604,193.61672502776,194.63378542776,3.608924,0,0.214482946496,0.99672575368,22,5,8.62,194.63378542776,0.984252,0.223694,0.216684390136,0,0,0,35.9, 1, 0,0,0,1024,1024,1024,1024,0,0,0,0,47.2,0,0,100,4.274,4.265,0,0,0,0,1.722,76.1,194.63378542776,0.984252,6,P-GPS,
4700,2022-09-04 16:40:51,-34.8454729873475,-55.2712881832778,0.984252,1.0170604,193.61672502776,194.63378542776,3.608924,0,0.23357612296,1.03487864204,22,5,8.62,194.63378542776,0.984252,0.223694,0.23357612296,0,0,0,35.9, 1.1, 0,0,0,1024,1024,1024,1024,0,0,0,0,47.2,0,0,100,4.274,4.265,0,0,0,0,1.722,76.1,194.63378542776,0.984252,6,P-GPS,
4800,2022-09-04 16:40:51,-34.8454729400351,-55.2712881317575,0.984252,1.0170604,193.61672502776,194.63378542776,3.608924,0,0.255005585588,1.05802824908,22,5,8.62,194.63378542776,0.984252,0.223694,0.255005585588,0,0,0,35.9, 0.9, 0,0,0,1024,1024,1024,1024,0,0,0,0,47.2,0,0,100,4.274,4.265,0,0,0,0,1.722,76.1,194.63378542776,0.984252,6,P-GPS,
4900,2022-09-04 16:40:51,-34.8454729999783,-55.2712880167753,0.984252,1.0170604,193.61672502776,194.63378542776,3.608924,0,0.277988525956,1.0988189328,22,5,8.62,194.63378542776,0.984252,0.223694,0.277988525956,0,0,0,36, 0.8, 0.1,0,0,1024,1024,1024,1024,0,0,0,0,47.2,0,0,100,4.274,4.265,0,0,0,0,1.722,76.1,194.63378542776,0.984252,6,P-GPS,
5000,2022-09-04 16:40:51,-34.8454731090178,-55.2712878759627,0.984252,1.0170604,193.61672502776,194.63378542776,3.28084,0,0.308605324836,1.15678809476,21,5,8.523,194.63378542776,0.984252,0.223694,0.308605324836,0,0,0,35.9, 0.7, 0.2,0,0,1024,1024,1024,1024,0,0,0,0,47.2,0,0,100,4.273,4.268,0,0,0,0,4.042,76.1,194.63378542776,0.984252,6,P-GPS,
5100,2022-09-04 16:40:51,-34.8454731063108,-55.2712879267947,0.656168,0.68897639999999,193.61672502776,194.30570142776,3.28084,0,0.2938156262,1.17204071992,21,5,8.523,194.63378542776,0.984252,0.223694,0.308605324836,0,0,0,36, 0.7, 0.4,0,0,1024,1024,1024,1024,0,0,0,0,47.2,0,0,100,4.273,4.268,0,0,0,0,4.042,76.1,194.30570142776,0.656168,6,P-GPS,
5200,2022-09-04 16:40:51,-34.8454730956269,-55.2712879809957,0.656168,0.68897639999999,193.61672502776,194.30570142776,3.28084,0,0.278688657212,1.188730353,20,5,8.523,194.63378542776,0.984252,0.223694,0.308605324836,0,0,0,36, 0.6, 0.4,0,0,1024,1024,1024,1024,0,0,0,0,47.2,0,0,100,4.273,4.268,0,0,0,0,4.042,76.1,194.30570142776,0.656168,6,P-GPS,
5300,2022-09-04 16:40:51,-34.8454730674056,-55.2712880401433,0.656168,0.68897639999999,193.61672502776,194.30570142776,3.28084,0,0.263917987448,1.20921591796,20,5,8.523,194.63378542776,0.984252,0.223694,0.308605324836,0,0,0,35.9, 0.6, 0.5,0,0,1024,1024,1024,1024,0,0,0,0,47.2,0,0,100,4.273,4.268,0,0,0,0,4.042,76.1,194.30570142776,0.656168,6,P-GPS,
5400,2022-09-04 16:40:51,-34.8454730550746,-55.2712881105437,0.656168,0.68897639999999,193.61672502776,194.30570142776,3.28084,0,0.2449557165,1.23077103676,20,5,8.523,194.63378542776,0.984252,0.223694,0.308605324836,0,0,0,36, 0.6, 0.5,0,0,1024,1024,1024,1024,0,0,0,0,47.2,0,0,100,4.273,4.268,0,0,0,0,4.042,76.1,194.30570142776,0.656168,6,P-GPS,
5500,2022-09-04 16:40:51,-34.8454729878025,-55.2712883483046,0.656168,0.68897639999999,193.61672502776,194.30570142776,3.28084,0,0.189825465392,1.30607615728,20,5,8.523,194.63378542776,0.984252,0.223694,0.308605324836,0,0,0,35.9, 0.5, 0.6,0,0,1024,1024,1024,1024,0,0,0,0,47.2,0,0,100,4.273,4.268,0,0,0,0,4.042,76.1,194.30570142776,0.656168,6,P-GPS,
5600,2022-09-04 16:40:52,-34.845472988229,-55.271288426241,0.656168,0.68897639999999,193.61672502776,194.30570142776,3.28084,0,0.170199808596,1.3294127722,20,5,8.523,194.63378542776,0.984252,0.223694,0.308605324836,0,0,0,35.9, 0.5, 0.6,0,0,1024,1024,1024,1024,0,0,0,0,47.2,0,0,100,4.273,4.268,0,0,0,0,4.042,76.1,194.30570142776,0.656168,6,P-GPS,
5700,2022-09-04 16:40:52,-34.8454729668796,-55.2712884972761,0.656168,0.68897639999999,193.61672502776,194.30570142776,3.28084,0,0.158410766224,1.35206369156,20,5,8.523,194.63378542776,0.984252,0.223694,0.308605324836,0,0,0,35.9, 0.5, 0.5,0,0,1024,1024,1024,1024,0,0,0,0,47.2,0,0,100,4.273,4.268,0,0,0,0,4.042,76.1,194.30570142776,0.656168,6,P-GPS,
5800,2022-09-04 16:40:52,-34.8454729796622,-55.2712885557394,0.984252,0.984252,193.64953342776,194.63378542776,3.28084,0,0.142513784088,1.37018049004,20,5,8.523,194.63378542776,0.984252,0.223694,0.308605324836,0,0,0,35.9, 0.5, 0.5,0,0,1024,1024,1024,1024,0,0,0,0,47.2,0,0,100,4.273,4.268,0,0,0,0,4.042,76.1,194.63378542776,0.984252,6,P-GPS,
5900,2022-09-04 16:40:52,-34.845473043459,-55.2712886449475,0.984252,0.984252,193.64953342776,194.63378542776,3.28084,0,0.107210633352,1.4056102812,20,5,8.523,194.63378542776,0.984252,0.223694,0.308605324836,0,0,0,35.9, 0.7, 0.5,0,0,1024,1024,1024,1024,0,0,0,0,47.2,0,0,100,4.273,4.268,0,0,0,0,4.042,76.1,194.63378542776,0.984252,6,P-GPS,
6000,2022-09-04 16:40:52,-34.8454730962511,-55.2712886668032,0.984252,0.984252,193.64953342776,194.63378542776,3.28084,0,0.089112207576,1.42595477004,20,5,8.523,194.63378542776,0.984252,0.223694,0.308605324836,0,0,0,35.9, 0.7, 0.4,0,0,1024,1024,1024,1024,0,0,0,0,47.2,0,0,100,4.261,4.257,0,0,0,0,3.818,76.1,194.63378542776,0.984252,6,P-GPS,
6100,2022-09-04 16:40:52,-34.8454731356329,-55.2712886547995,0.984252,0.984252,193.64953342776,194.63378542776,3.28084,0,0.083396000044,1.4407644818,20,5,8.523,194.63378542776,0.984252,0.223694,0.308605324836,0,0,0,35.9, 0.8, 0.3,0,0,1024,1024,1024,1024,0,0,0,0,47.2,0,0,100,4.261,4.257,0,0,0,0,3.818,76.1,194.63378542776,0.984252,6,P-GPS,
6200,2022-09-04 16:40:52,-34.8454731664468,-55.2712886566061,0.984252,0.984252,193.64953342776,194.63378542776,3.28084,0,0.077511157336,1.45202104384,20,5,8.523,194.63378542776,0.984252,0.223694,0.308605324836,0,0,0,35.9, 0.8, 0.3,0,0,1024,1024,1024,1024,0,0,0,0,47.2,0,0,100,4.261,4.257,0,0,0,0,3.818,76.1,194.63378542776,0.984252,6,P-GPS,
6300,2022-09-04 16:40:52,-34.8454731499211,-55.2712885957191,0.984252,0.984252,193.64953342776,194.63378542776,3.28084,0,0.09659941254,1.47122380036,20,5,8.523,194.63378542776,0.984252,0.223694,0.308605324836,0,0,0,35.9, 0.9, 0.3,0,0,1024,1024,1024,1024,0,0,0,0,47.2,0,0,100,4.261,4.257,0,0,0,0,3.818,76.1,194.63378542776,0.984252,6,P-GPS,
6400,2022-09-04 16:40:52,-34.8454731687233,-55.2712886133042,0.984252,0.984252,193.64953342776,194.63378542776,3.28084,0,0.089102365056,1.4798720946,21,5,8.523,194.63378542776,0.984252,0.223694,0.308605324836,0,0,0,36, 0.9, 0.3,0,0,1024,1024,1024,1024,0,0,0,0,47.2,0,0,100,4.261,4.257,0,0,0,0,3.818,76.1,194.63378542776,0.984252,6,P-GPS,
6500,2022-09-04 16:40:52,-34.8454731873024,-55.2712886217523,0.984252,0.984252,193.64953342776,194.63378542776,3.28084,0,0.08446194496,1.4871063468,21,5,8.523,194.63378542776,0.984252,0.223694,0.308605324836,0,0,0,35.9, 0.8, 0.2,0,0,1024,1024,1024,1024,0,0,0,0,47.2,0,0,100,4.261,4.257,0,0,0,0,3.818,76.1,194.63378542776,0.984252,6,P-GPS,
6600,2022-09-04 16:40:53,-34.8454732042616,-55.2712886297835,0.984252,0.984252,193.64953342776,194.63378542776,3.28084,0,0.080467850344,1.49374348612,21,5,8.523,194.63378542776,0.984252,0.223694,0.308605324836,0,0,0,35.9, 0.7, 0.2,0,0,1024,1024,1024,1024,0,0,0,0,47.2,0,0,100,4.261,4.257,0,0,0,0,3.818,76.1,194.63378542776,0.984252,6,P-GPS,
6700,2022-09-04 16:40:53,-34.8454731281306,-55.2712885570566,0.656168,0.656168,193.64953342776,194.30570142776,3.28084,0,0.110434386736,1.52903876284,21,5,8.523,194.63378542776,0.984252,0.223694,0.308605324836,0,0,0,36, 0.7, 0.2,0,0,1024,1024,1024,1024,0,0,0,0,47.2,0,0,100,4.261,4.257,0,0,0,0,3.818,76.1,194.30570142776,0.656168,6,P-GPS,
6800,2022-09-04 16:40:53,-34.8454731413433,-55.2712885650578,0.656168,0.656168,193.64953342776,194.30570142776,3.28084,0,0.106264439096,1.53442262128,21,5,8.523,194.63378542776,0.984252,0.223694,0.308605324836,0,0,0,36, 0.7, 0.2,0,0,1024,1024,1024,1024,0,0,0,0,47.2,0,0,100,4.261,4.257,0,0,0,0,3.818,76.1,194.30570142776,0.656168,6,P-GPS,
6900,2022-09-04 16:40:53,-34.8454731535258,-55.2712885764489,0.656168,0.656168,193.64953342776,194.30570142776,3.28084,0,0.101403874636,1.540026296,21,5,8.523,194.63378542776,0.984252,0.223694,0.308605324836,0,0,0,36, 0.7, 0.2,0,0,1024,1024,1024,1024,0,0,0,0,47.2,0,0,100,4.261,4.257,0,0,0,0,3.818,76.1,194.30570142776,0.656168,6,P-GPS,
7000,2022-09-04 16:40:53,-34.8454731833601,-55.2712885892792,0.656168,0.656168,193.64953342776,194.30570142776,3.28084,0,0.094178808788,1.55156829112,21,5,8.515,194.63378542776,0.984252,0.223694,0.308605324836,0,0,0,36, 0.6, 0.3,0,0,1024,1024,1024,1024,0,0,0,0,47.2,0,0,100,4.258,4.255,0,0,0,0,3.97,76.1,194.30570142776,0.656168,6,P-GPS,
7100,2022-09-04 16:40:53,-34.8454732441287,-55.2712886053318,0.656168,0.656168,193.64953342776,194.30570142776,2.952756,0,0.08557086888,1.57425529972,21,5,8.515,194.63378542776,0.984252,0.223694,0.308605324836,0,0,0,36, 0.6, 0.3,0,0,1024,1024,1024,1024,0,0,0,0,47.2,0,0,100,4.258,4.255,0,0,0,0,3.97,76.1,194.30570142776,0.656168,6,P-GPS,
7200,2022-09-04 16:40:53,-34.8454733014078,-55.2712885858814,0.656168,0.656168,193.64953342776,194.30570142776,2.952756,0,0.092677496404,1.59595149464,22,5,8.515,194.63378542776,0.984252,0.223694,0.308605324836,0,0,0,36, 0.6, 0.4,0,0,1024,1024,1024,1024,0,0,0,0,47.2,0,0,100,4.258,4.255,0,0,0,0,3.97,76.1,194.30570142776,0.656168,6,P-GPS,
7300,2022-09-04 16:40:53,-34.8454733724933,-55.27128864715,0.656168,0.656168,193.64953342776,194.30570142776,2.952756,0,0.084182417392,1.62771658752,22,5,8.515,194.63378542776,0.984252,0.223694,0.308605324836,0,0,0,36, 0.7, 0.5,0,0,1024,1024,1024,1024,0,0,0,0,47.2,0,0,100,4.258,4.255,0,0,0,0,3.97,76.1,194.30570142776,0.656168,6,P-GPS,
7400,2022-09-04 16:40:53,-34.8454734423822,-55.2712886914644,0.656168,0.656168,193.64953342776,194.30570142776,2.952756,0,0.090129267976,1.6564633076,22,5,8.515,194.63378542776,0.984252,0.223694,0.308605324836,0,0,0,36, 0.7, 0.5,0,0,1024,1024,1024,1024,0,0,0,0,47.2,0,0,100,4.258,4.255,0,0,0,0,3.97,76.1,194.30570142776,0.656168,6,P-GPS,
7500,2022-09-04 16:40:53,-34.8454735164299,-55.2712887086685,0.656168,0.72178479999999,193.58391662776,194.30570142776,2.952756,0,0.109160764648,1.68396658932,22,5,8.515,194.63378542776,0.984252,0.223694,0.308605324836,0,0,0,36, 0.7, 0.5,0,0,1024,1024,1024,1024,0,0,0,0,47.2,0,0,100,4.258,4.255,0,0,0,0,3.97,76.1,194.30570142776,0.656168,6,P-GPS,
7600,2022-09-04 16:40:54,-34.8454736436755,-55.2712887557615,0.656168,0.72178479999999,193.58391662776,194.30570142776,2.952756,0,0.146682091308,1.73248693208,22,5,8.515,194.63378542776,0.984252,0.223694,0.308605324836,0,0,0,36, 0.8, 0.5,0,0,1024,1024,1024,1024,0,0,0,0,47.2,0,0,100,4.258,4.255,0,0,0,0,3.97,76.1,194.30570142776,0.656168,6,P-GPS,
7700,2022-09-04 16:40:54,-34.8454737138003,-55.2712888003531,0.656168,0.72178479999999,193.58391662776,194.30570142776,2.952756,0,0.168775595952,1.76134520072,22,5,8.515,194.63378542776,0.984252,0.223694,0.308605324836,0,0,0,36, 0.7, 0.5,0,0,1024,1024,1024,1024,0,0,0,0,47.2,0,0,100,4.258,4.255,0,0,0,0,3.97,76.1,194.30570142776,0.656168,6,P-GPS,
7800,2022-09-04 16:40:54,-34.8454737615264,-55.2712888283364,0.656168,0.72178479999999,193.58391662776,194.30570142776,2.952756,0,0.184952105656,1.78066934832,22,5,8.515,194.63378542776,0.984252,0.223694,0.308605324836,0,0,0,36, 0.8, 0.5,0,0,1024,1024,1024,1024,0,0,0,0,47.2,0,0,100,4.258,4.255,0,0,0,0,3.97,76.1,194.30570142776,0.656168,6,P-GPS,
7900,2022-09-04 16:40:54,-34.8454737776418,-55.2712888274125,0.656168,0.72178479999999,193.58391662776,194.30570142776,2.952756,0,0.1908300586,1.78655517528,22,5,8.515,194.63378542776,0.984252,0.223694,0.308605324836,0,0,0,36, 0.9, 0.4,0,0,1024,1024,1024,1024,0,0,0,0,47.2,0,0,100,4.258,4.255,0,0,0,0,3.97,76.1,194.30570142776,0.656168,6,P-GPS,
8000,2022-09-04 16:40:54,-34.8454736984746,-55.2712887450078,0.656168,0.72178479999999,193.58391662776,194.30570142776,2.952756,0,0.166806435784,1.82454402164,22,5,8.515,194.63378542776,0.984252,0.223694,0.308605324836,0,0,0,36, 0.9, 0.2,0,0,1024,1024,1054,1024,0,0,5,0,47.2,0,0,100,4.258,4.255,0,0,0,0,3.97,76.1,194.30570142776,0.656168,6,P-GPS,
8100,2022-09-04 16:40:54,-34.8454737461771,-55.2712887300069,0.656168,0.72178479999999,193.58391662776,194.30570142776,2.952756,0,0.184779861556,1.842519744,22,5,8.51,194.63378542776,0.984252,0.223694,0.308605324836,0,0,0,36, 0.9, 0.1,0,0,1024,1024,1360,1024,0,0,51,0,47.2,0,0,100,4.255,4.252,0,0,0,0,3.97,76.28,194.30570142776,0.656168,6,P-GPS,
8200,2022-09-04 16:40:54,-34.8454737763754,-55.2712886974542,0.656168,0.72178479999999,193.58391662776,194.30570142776,2.952756,0,0.198063326548,1.85722774972,22,5,8.51,194.63378542776,0.984252,0.223694,0.308605324836,0,0,0,36, 0.7, 0.3,0,0,1024,1024,1109,1024,0,0,13,0,47.2,0,0,100,4.255,4.252,0,0,0,0,3.97,76.28,194.30570142776,0.656168,6,P-GPS,
8300,2022-09-04 16:40:54,-34.8454737880515,-55.271288639064,0.656168,0.72178479999999,193.58391662776,194.30570142776,2.952756,0,0.207821857044,1.87522315712,22,5,8.51,194.63378542776,0.984252,0.223694,0.308605324836,0,0,-0.447388,36, 0.5, 0.5,0,0,1024,1024,1109,1024,0,0,13,0,47.2,0,0,100,4.255,4.252,0,0,0,0,3.97,76.28,194.30570142776,0.656168,6,P-GPS,
8400,2022-09-04 16:40:54,-34.8454737421958,-55.2712884777234,0.984252,1.0498688,193.58391662776,194.63378542776,3.28084,0,0.215875006908,1.92634848684,22,5,8.51,194.63378542776,0.984252,0.223694,0.308605324836,0,0,-0.671082,35.9, 0.5, 0,0,0,1024,1024,1024,1024,0,0,0,0,47.2,0,0,100,4.255,4.252,0,0,0,0,3.97,76.28,194.63378542776,0.984252,6,P-GPS,
8500,2022-09-04 16:40:54,-34.8454737829883,-55.2712884564124,0.984252,1.0498688,193.58391662776,194.63378542776,3.28084,0,0.231753288256,1.94254271308,22,5,8.51,194.63378542776,0.984252,0.223694,0.308605324836,0,0,-0.447388,35.9, 1.3, 0.3,0,0,1024,1024,1024,1024,0,0,0,0,47.2,0,0,100,4.255,4.252,0,0,0,0,3.97,76.28,194.63378542776,0.984252,6,P-GPS,
8600,2022-09-04 16:40:55,-34.8454738301754,-55.2712884493304,0.984252,1.0498688,193.58391662776,194.63378542776,3.28084,0,0.247320217888,1.95988851416,22,5,8.51,194.63378542776,0.984252,0.223694,0.308605324836,0,0,-0.223694,36, 1, 0.3,0,0,1024,1024,1024,1024,0,0,0,0,47.2,0,0,100,4.255,4.252,0,0,0,0,3.97,76.28,194.63378542776,0.984252,6,P-GPS,
8700,2022-09-04 16:40:55,-34.8454738916639,-55.2712884609675,0.984252,1.0498688,193.58391662776,194.63378542776,3.28084,0,0.264842856244,1.98259192696,22,5,8.51,194.63378542776,0.984252,0.223694,0.308605324836,0,0,-0.223694,36, 0.8, 0.2,0,0,1024,1024,1024,1024,0,0,0,0,47.2,0,0,100,4.255,4.252,0,0,0,0,3.97,76.28,194.63378542776,0.984252,6,P-GPS,
8800,2022-09-04 16:40:55,-34.8454739160518,-55.271288494247,0.984252,1.0498688,193.58391662776,194.63378542776,3.28084,0,0.268095809104,1.99595150744,22,5,8.51,194.63378542776,0.984252,0.223694,0.308605324836,0,0,0,36, 0.7, 0.3,0,0,1024,1024,1276,1024,0,0,38,0,47.2,0,0,100,4.255,4.252,0,0,0,0,3.97,76.28,194.63378542776,0.984252,6,P-GPS,
8900,2022-09-04 16:40:55,-34.8454737562234,-55.2712886878996,0.984252,1.0498688,193.58391662776,194.63378542776,3.28084,0,0.191929468084,2.07818904288,22,5,8.51,194.63378542776,0.984252,0.223694,0.308605324836,0,0,0,36, 0.8, 0.5,0,0,1024,1024,1379,1024,0,0,54,0,47.2,0,0,100,4.255,4.252,0,0,0,0,3.97,76.28,194.63378542776,0.984252,6,P-GPS,
9000,2022-09-04 16:40:55,-34.845473746194,-55.2712887259084,0.984252,1.0498688,193.58391662776,194.63378542776,3.28084,0,0.185108929808,2.090141143,22,5,8.51,194.63378542776,0.984252,0.223694,0.308605324836,0,0,-0.447388,35.9, 0.4, 0.5,0,0,1024,1024,1170,1024,0,0,22,0,47.2,0,0,100,4.255,4.252,0,0,0,0,3.97,76.28,194.63378542776,0.984252,6,P-GPS,
9100,2022-09-04 16:40:55,-34.8454737857549,-55.2712887037604,1.312336,1.3779528,193.58391662776,194.96186942776,3.608924,0,0.200804468368,2.10602697028,22,5,8.531,194.96186942776,1.312336,0.223694,0.308605324836,0,0,-1.11847,35.9, 0.4, 0.1,0,0,1024,1024,1024,1024,0,0,0,0,47.2,0,0,100,4.255,4.263,0,0,0,0,4.128,76.1,194.96186942776,1.312336,6,P-GPS,
9200,2022-09-04 16:40:55,-34.8454738109233,-55.2712886992235,1.312336,1.3779528,193.58391662776,194.96186942776,3.608924,0,0.210005584148,2.11530846664,22,5,8.531,194.96186942776,1.312336,0.223694,0.308605324836,0,0,-1.11847,35.9, 0.6, 0,0,0,1024,1024,1024,1024,0,0,0,0,47.2,0,0,100,4.255,4.263,0,0,0,0,4.128,76.1,194.96186942776,1.312336,6,P-GPS,
9300,2022-09-04 16:40:55,-34.8454738042887,-55.2712887159533,1.312336,1.3779528,193.58391662776,194.96186942776,3.937008,0,0.206351384556,2.12087277128,22,5,8.531,194.96186942776,1.312336,0.223694,0.308605324836,0,0,-0.671082,36, 1.2, 0.4,0,0,1024,1024,1024,1024,0,0,0,0,47.2,0,0,100,4.255,4.263,0,0,0,0,4.128,76.1,194.96186942776,1.312336,6,P-GPS,
9400,2022-09-04 16:40:55,-34.8454738287457,-55.2712887431125,1.64042,1.7060368,193.58391662776,195.28995342776,3.937008,0,0.213162080312,2.13294626248,22,5,8.531,195.28995342776,1.64042,0.223694,0.308605324836,0,0,-0.447388,36, 1.1, 0.5,0,0,1024,1024,1024,1024,0,0,0,0,47.2,0,0,100,4.255,4.263,0,0,0,0,4.128,76.1,195.28995342776,1.64042,6,P-GPS,
9500,2022-09-04 16:40:55,-34.8454738844631,-55.2712887545526,1.64042,1.7060368,193.58391662776,195.28995342776,3.937008,0,0.232461949696,2.1535597802,22,5,8.531,195.28995342776,1.64042,0.223694,0.308605324836,0,0,-0.223694,36, 0.8, 0.4,0,0,1168,1024,1024,1024,22,0,0,0,47.2,0,0,100,4.255,4.263,0,0,0,0,4.128,76.1,195.28995342776,1.64042,6,P-GPS,
9600,2022-09-04 16:40:56,-34.8454739256096,-55.2712887402745,1.64042,1.7060368,193.58391662776,195.28995342776,3.937008,0,0.247996399012,2.16917001692,21,5,8.531,195.28995342776,1.64042,0.223694,0.308605324836,0,0,0,36, 0.1, 0.4,0,0,1184,1024,1024,1024,24,0,0,0,47.2,0,0,100,4.255,4.263,0,0,0,0,4.128,76.1,195.28995342776,1.64042,6,P-GPS,
9700,2022-09-04 16:40:56,-34.8454739362059,-55.2712885636759,1.64042,1.7060368,193.58391662776,195.28995342776,3.937008,0,0.26638616338,2.22219167216,21,5,8.531,195.28995342776,1.64042,0.223694,0.308605324836,0,0,0,36.1, -1.1, 0.4,0,0,1199,1024,1024,1024,27,0,0,0,47.2,0,0,100,4.255,4.263,0,0,0,0,4.128,76.1,195.28995342776,1.64042,6,P-GPS,
9800,2022-09-04 16:40:56,-34.8454739679492,-55.2712886084901,1.64042,1.7060368,193.58391662776,195.28995342776,3.937008,0,0.272738853872,2.23991476984,21,5,8.531,195.28995342776,1.64042,0.223694,0.308605324836,0,0,0,36.2, -1.7, 0.4,0,0,1216,1024,1024,1024,29,0,0,0,47.2,0,0,100,4.255,4.263,0,0,0,0,4.128,76.1,195.28995342776,1.64042,6,P-GPS,
9900,2022-09-04 16:40:56,-34.8454740316275,-55.2712888021903,1.64042,1.7060368,193.58391662776,195.28995342776,3.937008,0,0.283793316168,2.3023950868,21,5,8.531,195.28995342776,1.64042,0.223694,0.308605324836,0,0,0,36.4, -1.9, 0.4,0,0,1235,1024,1024,1024,32,0,0,0,47.2,0,0,100,4.255,4.263,0,0,0,0,4.128,76.1,195.28995342776,1.64042,6,P-GPS,
10000,2022-09-04 16:40:56,-34.8454740786066,-55.2712888799349,1.64042,1.7060368,193.58391662776,195.28995342776,3.937008,0,0.299711623764,2.33130584888,21,5,8.531,195.28995342776,1.64042,0.223694,0.308605324836,0,0,0,36.5, -2.1, 0.3,0,0,1232,1024,1024,1024,32,0,0,0,47.2,0,0,100,4.255,4.263,0,0,0,0,4.128,76.1,195.28995342776,1.64042,6,P-GPS,
10100,2022-09-04 16:40:56,-34.8454743266243,-55.2712890907107,1.64042,1.7060368,193.58391662776,195.28995342776,3.937008,0.3131716,0.39475394964,2.44162737472,21,5,8.507,195.28995342776,1.64042,0.3131716,0.39475394964,0.223694,0.223694,0,36.6, -2.3, 0.3,0,0,1228,1024,1024,1024,31,0,0,0,47.2,0,0,100,4.252,4.251,0,0,0,0,4.073,76.28,195.28995342776,1.64042,6,P-GPS,
10200,2022-09-04 16:40:56,-34.8454743074695,-55.2712889587031,1.64042,1.7060368,193.58391662776,195.28995342776,3.937008,0.3131716,0.38373688892,2.48176845212,21,5,8.507,195.28995342776,1.64042,0.3131716,0.39475394964,0.223694,0.223694,0,36.8, -2.3, 0.2,0,0,1228,1024,1024,1024,31,0,0,0,47.2,0,0,100,4.252,4.251,0,0,0,0,4.073,76.28,195.28995342776,1.64042,6,P-GPS,
10300,2022-09-04 16:40:56,-34.8454742219728,-55.2712887639969,1.64042,1.7060368,193.58391662776,195.28995342776,3.937008,0.4921268,0.35403872524,2.54789050148,21,5,8.507,195.28995342776,1.64042,0.4921268,0.39475394964,0.447388,0.223694,0,36.9, -2, 0.2,0,0,1199,1024,1024,1024,27,0,0,0,47.2,0,0,100,4.252,4.251,0,0,0,0,4.073,76.28,195.28995342776,1.64042,6,P-GPS,
10400,2022-09-04 16:40:56,-34.8454740956171,-55.2712885622726,1.64042,1.7060368,193.58391662776,195.28995342776,3.937008,0.4921268,0.321316611332,2.62387475588,21,5,8.507,195.28995342776,1.64042,0.4921268,0.39475394964,0.447388,0.223694,0,37.1, -1.5, 0.2,0,0,1197,1024,1024,1024,26,0,0,0,47.2,0,0,100,4.252,4.251,0,0,0,0,4.073,76.28,195.28995342776,1.64042,6,P-GPS,
10500,2022-09-04 16:40:56,-34.8454739141925,-55.2712883498195,1.64042,1.7060368,193.58391662776,195.28995342776,3.937008,0.6263432,0.28928642658,2.7156825016,21,5,8.507,195.28995342776,1.64042,0.6263432,0.39475394964,0.447388,0.447388,0,37.2, -1.2, 0.3,0,0,1182,1024,1024,1024,24,0,0,0,47.2,0,0,100,4.252,4.251,0,0,0,0,4.073,76.28,195.28995342776,1.64042,6,P-GPS,
10600,2022-09-04 16:40:57,-34.8454736509702,-55.2712879944308,1.64042,1.7060368,193.58391662776,195.28995342776,3.937008,0.6263432,0.304399287956,2.8590224012,22,5,8.507,195.28995342776,1.64042,0.6263432,0.39475394964,0.447388,0.447388,0,37.3, -1.1, 0.3,0,0,1161,1024,1043,1024,21,0,3,0,47.2,0,0,100,4.252,4.251,0,0,0,0,4.073,76.28,195.28995342776,1.64042,6,P-GPS,
10700,2022-09-04 16:40:57,-34.8454734287716,-55.2712877258051,1.64042,1.6732284,193.61672502776,195.28995342776,3.937008,0.8052984,0.35437009008,2.97322516076,22,5,8.507,195.28995342776,1.64042,0.8052984,0.39475394964,0.671082,0.447388,0,37.4, -0.7, 0.2,0,0,1138,1024,1049,1024,17,0,4,0,47.2,0,0,100,4.252,4.251,0,0,0,0,4.073,76.28,195.28995342776,1.64042,6,P-GPS,
10800,2022-09-04 16:40:57,-34.8454731937727,-55.2712874464856,1.64042,1.7060368,193.58391662776,195.28995342776,3.937008,0.8052984,0.43305119496,3.09300206748,22,5,8.507,195.28995342776,1.64042,0.8052984,0.43305119496,0.671082,0.447388,0,37.5, -0.4, 0.3,0,0,1088,1024,1050,1024,10,0,4,0,47.2,0,0,100,4.252,4.251,0,0,0,0,4.073,76.28,195.28995342776,1.64042,6,P-GPS,
10900,2022-09-04 16:40:57,-34.8454729167277,-55.2712871172104,1.64042,1.7060368,193.58391662776,195.28995342776,3.937008,0.8052984,0.54536090984,3.2342028594,22,5,8.507,195.28995342776,1.64042,0.8052984,0.54536090984,0.671082,0.447388,0,37.6, 0, 0.3,0,0,1078,1024,1051,1024,8,0,4,0,47.2,0,0,100,4.252,4.251,0,0,0,0,4.073,76.28,195.28995342776,1.64042,6,P-GPS,
11000,2022-09-04 16:40:57,-34.8454725277984,-55.2712866972285,1.64042,1.7060368,193.58391662776,195.28995342776,3.937008,0.8052984,0.70864831664,3.4238190072,22,5,8.507,195.28995342776,1.64042,0.8052984,0.70864831664,0.671082,0.447388,0,37.7, 0.4, 0.3,0,0,1078,1024,1051,1024,8,0,4,0,47.2,0,0,100,4.252,4.251,0,0,0,0,4.073,76.28,195.28995342776,1.64042,6,P-GPS,
11100,2022-09-04 16:40:57,-34.845472294925,-55.2712864024051,1.64042,1.6732284,193.61672502776,195.28995342776,3.937008,0.8052984,0.82363519696,3.5463255728,22,5,8.488,195.28995342776,1.64042,0.8052984,0.82363519696,0.671082,0.447388,0,37.8, 0.7, 0.3,0,0,1024,1024,1125,1024,0,0,15,0,47.2,0,0,100,4.244,4.242,0,0,0,0,4.005,76.28,195.28995342776,1.64042,6,P-GPS,
11200,2022-09-04 16:40:57,-34.8454720657333,-55.2712861287728,1.64042,1.6732284,193.61672502776,195.28995342776,3.937008,0.8052984,0.9342848068,3.6634187524,21,5,8.488,195.28995342776,1.64042,0.8052984,0.9342848068,0.671082,0.447388,0,37.9, 2.9, 0.2,0,0,1024,1024,1134,1024,0,0,17,0,47.2,0,0,100,4.244,4.242,0,0,0,0,4.005,76.28,195.28995342776,1.64042,6,P-GPS,
11300,2022-09-04 16:40:57,-34.8454718225753,-55.271285868462,1.64042,1.6732284,193.61672502776,195.28995342776,3.937008,0.6263432,1.04541013844,3.781496184,21,5,8.488,195.28995342776,1.64042,0.8052984,1.04541013844,0.447388,0.447388,0,38, 4, 0.2,0,0,1024,1024,1174,1024,0,0,23,0,47.2,0,0,100,4.244,4.242,0,0,0,0,4.005,76.28,195.28995342776,1.64042,6,P-GPS,
11400,2022-09-04 16:40:57,-34.845471452226,-55.2712856461959,1.968504,1.968504,193.64953342776,195.61803742776,3.937008,0.4921268,1.17365817404,3.9321195484,20,5,8.488,195.61803742776,1.968504,0.8052984,1.17365817404,0.447388,0.223694,-0.223694,38, 4, 0.2,0,0,1024,1024,1177,1024,0,0,23,0,47.2,0,0,100,4.244,4.242,0,0,0,0,4.005,76.28,195.61803742776,1.968504,6,P-GPS,
11500,2022-09-04 16:40:57,-34.8454712444807,-55.2712854398604,1.968504,1.968504,193.64953342776,195.61803742776,3.937008,0.3131716,1.26763783584,4.0298885804,20,5,8.488,195.61803742776,1.968504,0.8052984,1.26763783584,0.223694,0.223694,-0.447388,38.1, 3.5, 0.2,0,0,1024,1024,1156,1024,0,0,20,0,47.2,0,0,100,4.244,4.242,0,0,0,0,4.005,76.28,195.61803742776,1.968504,6,P-GPS,
11600,2022-09-04 16:40:58,-34.8454711451646,-55.2712852836745,1.968504,1.968504,193.64953342776,195.61803742776,3.937008,0.223694,1.32675201096,4.089074934,21,5,8.488,195.61803742776,1.968504,0.8052984,1.32675201096,0.223694,0,-0.447388,38.1, 2.9, 0.2,0,0,1024,1024,1154,1024,0,0,20,0,47.2,0,0,100,4.244,4.242,0,0,0,0,4.005,76.28,195.61803742776,1.968504,6,P-GPS,
11700,2022-09-04 16:40:58,-34.8454711641099,-55.2712851532079,1.968504,1.968504,193.64953342776,195.61803742776,4.265092,0.223694,1.35483600136,4.1287402896,21,5,8.488,195.61803742776,1.968504,0.8052984,1.35483600136,0.223694,0,-0.447388,38.2, 2.5, 0.2,0,0,1024,1024,1145,1024,0,0,18,0,47.2,0,0,100,4.244,4.242,0,0,0,0,4.005,76.28,195.61803742776,1.968504,6,P-GPS,
11800,2022-09-04 16:40:58,-34.8454715020521,-55.2712849731215,1.968504,2.0341208,193.58391662776,195.61803742776,4.265092,0,1.33643705064,4.2633203464,21,5,8.488,195.61803742776,1.968504,0.8052984,1.35483600136,0,0,-0.447388,38.3, 2, 0.3,0,0,1024,1024,1145,1024,0,0,18,0,47.2,0,0,100,4.244,4.242,0,0,0,0,4.005,76.28,195.61803742776,1.968504,6,P-GPS,
11900,2022-09-04 16:40:58,-34.8454715925938,-55.2712848614848,1.968504,2.0341208,193.58391662776,195.61803742776,4.265092,0,1.35069886212,4.3103019752,21,5,8.488,195.61803742776,1.968504,0.8052984,1.35483600136,0,0,-0.447388,38.3, 1.8, 0.2,0,0,1024,1024,1145,1024,0,0,18,0,47.2,0,0,100,4.244,4.242,0,0,0,0,4.005,76.28,195.61803742776,1.968504,6,P-GPS,
12000,2022-09-04 16:40:58,-34.8454716856756,-55.2712847795106,2.296588,2.3622048,193.58391662776,195.94612142776,4.265092,0,1.35798560776,4.352198302,21,5,8.488,195.94612142776,2.296588,0.8052984,1.35798560776,0,0,-0.447388,38.4, 1.6, 0.4,0,0,1024,1024,1151,1024,0,0,19,0,47.2,0,0,100,4.244,4.242,0,0,0,0,4.005,76.28,195.94612142776,2.296588,6,P-GPS,
12100,2022-09-04 16:40:58,-34.8454717787715,-55.2712847200003,2.296588,2.3622048,193.58391662776,195.94612142776,4.593176,0,1.3603346892,4.39058413,21,5,8.469,195.94612142776,2.296588,0.8052984,1.3603346892,0,0,-0.447388,38.4, 1.3, 0.4,0,0,1024,1024,1152,1024,0,0,19,0,47.2,0,0,100,4.245,4.238,0,0,0,0,4.187,76.46,195.94612142776,2.296588,6,P-GPS,
12200,2022-09-04 16:40:58,-34.8454718628998,-55.2712847092759,2.296588,2.3622048,193.58391662776,195.94612142776,4.593176,0,1.35143377028,4.421424026,21,5,8.469,195.94612142776,2.296588,0.8052984,1.3603346892,0,0,-0.447388,38.4, 1.1, 0.4,0,0,1024,1024,1218,1024,0,0,29,0,47.2,0,0,100,4.245,4.238,0,0,0,0,4.187,76.46,195.94612142776,2.296588,6,P-GPS,
12300,2022-09-04 16:40:58,-34.845471909205,-55.2712848705703,2.296588,2.3622048,193.58391662776,195.94612142776,4.593176,0,1.30033468728,4.47260513,21,5,8.469,195.94612142776,2.296588,0.8052984,1.3603346892,0,0,-0.447388,38.5, 1.3, 0.4,0,0,1024,1024,1218,1024,0,0,29,0,47.2,0,0,100,4.245,4.238,0,0,0,0,4.187,76.46,195.94612142776,2.296588,6,P-GPS,
12400,2022-09-04 16:40:58,-34.8454719769082,-55.2712849319648,2.624672,2.6902888,193.58391662776,196.27420542776,4.593176,0,1.27407156308,4.5033794092,21,5,8.469,196.27420542776,2.624672,0.8052984,1.3603346892,0,0,-0.671082,38.5, 1.1, 0.4,0,0,1024,1024,1218,1024,0,0,29,0,47.2,0,0,100,4.245,4.238,0,0,0,0,4.187,76.46,196.27420542776,2.624672,6,P-GPS,
12500,2022-09-04 16:40:58,-34.8454720498214,-55.2712850174985,2.624672,2.6902888,193.58391662776,196.27420542776,4.92126,0,1.24058731004,4.5403216676,21,5,8.469,196.27420542776,2.624672,0.8052984,1.3603346892,0,0,-0.894776,38.6, 1.2, 0.4,0,0,1024,1024,1195,1024,0,0,26,0,47.2,0,0,100,4.245,4.238,0,0,0,0,4.187,76.46,196.27420542776,2.624672,6,P-GPS,
12600,2022-09-04 16:40:58,-34.8454721121501,-55.2712850928363,2.624672,2.6902888,193.58391662776,196.27420542776,4.92126,0,1.21149610176,4.572342666,21,5,8.469,196.27420542776,2.624672,0.8052984,1.3603346892,0,0,-0.894776,38.6, 1.1, 0.3,0,0,1024,1024,1206,1024,0,0,28,0,47.2,0,0,100,4.245,4.238,0,0,0,0,4.187,76.46,196.27420542776,2.624672,6,P-GPS,
12700,2022-09-04 16:40:59,-34.8454720122059,-55.2712853276835,2.952756,3.0183728,193.58391662776,196.60228942776,5.249344,0,1.15953743868,4.651574952,21,5,8.469,196.60228942776,2.952756,0.8052984,1.3603346892,0,0,-0.894776,38.7, 1.5, 0.3,0,0,1024,1024,1206,1024,0,0,28,0,47.2,0,0,100,4.245,4.238,0,0,0,0,4.187,76.46,196.60228942776,2.952756,6,P-GPS,
12800,2022-09-04 16:40:59,-34.8454720566963,-55.2712853617172,2.952756,3.0183728,193.58391662776,196.60228942776,5.249344,0,1.14385502348,4.6707350576,21,5,8.469,196.60228942776,2.952756,0.8052984,1.3603346892,0,0,-0.894776,38.7, 1.3, 0.3,0,0,1024,1024,1209,1024,0,0,28,0,47.2,0,0,100,4.245,4.238,0,0,0,0,4.187,76.46,196.60228942776,2.952756,6,P-GPS,
12900,2022-09-04 16:40:59,-34.8454720888432,-55.2712853458949,3.28084,3.3464568,193.58391662776,196.93037342776,5.249344,0,1.14381237256,4.6833662916,21,5,8.469,196.93037342776,3.28084,0.8052984,1.3603346892,0,0,-0.894776,38.7, 1.1, 0.3,0,0,1024,1024,1199,1024,0,0,27,0,47.2,0,0,100,4.245,4.238,0,0,0,0,4.187,76.46,196.93037342776,3.28084,6,P-GPS,
13000,2022-09-04 16:40:59,-34.8454721343447,-55.2712853368225,3.28084,3.3464568,193.58391662776,196.93037342776,5.577428,0,1.14026250368,4.7001970008,22,5,8.469,196.93037342776,3.28084,0.8052984,1.3603346892,0,0,-0.894776,38.7, 1.1, 0.2,0,0,1024,1024,1143,1024,0,0,18,0,47.2,0,0,100,4.245,4.238,0,0,0,0,4.187,76.46,196.93037342776,3.28084,6,P-GPS,
13100,2022-09-04 16:40:59,-34.8454720675295,-55.2712851852256,3.28084,3.3464568,193.58391662776,196.93037342776,5.577428,0,1.19140095676,4.7517061888,22,5,8.469,196.93037342776,3.28084,0.8052984,1.3603346892,0,0,-0.671082,38.8, 1.2, 0.4,0,0,1024,1024,1125,1024,0,0,15,0,47.2,0,0,100,4.245,4.238,0,0,0,0,4.187,76.46,196.93037342776,3.28084,6,P-GPS,
13200,2022-09-04 16:40:59,-34.8454720715507,-55.271285251401,3.608924,3.6745408,193.58391662776,197.25845742776,5.905512,0,1.17242785904,4.7715880792,22,5,8.473,197.25845742776,3.608924,0.8052984,1.3603346892,0,0,-0.671082,38.8, 1.3, 0.5,0,0,1024,1024,1148,1024,0,0,19,0,47.2,0,0,99,4.24,4.239,0,0,0,0,4.177,76.46,197.25845742776,3.608924,6,P-GPS,
13300,2022-09-04 16:40:59,-34.8454719507652,-55.2712854221292,3.608924,3.6745408,193.58391662776,197.25845742776,5.905512,0,1.14273953788,4.839074958,22,5,8.473,197.25845742776,3.608924,0.8052984,1.3603346892,0,0,-0.447388,38.9, 1.2, 0.6,0,0,1025,1024,1128,1024,0,0,16,0,47.2,0,0,99,4.24,4.239,0,0,0,0,4.177,76.46,197.25845742776,3.608924,6,P-GPS,
13400,2022-09-04 16:40:59,-34.8454718831758,-55.2712855286758,3.608924,3.6417324,193.61672502776,197.25845742776,5.905512,0,1.12459649268,4.8793964816,23,5,8.473,197.25845742776,3.608924,0.8052984,1.3603346892,0,0,-0.447388,38.9, 1, 0.4,0,0,1042,1024,1160,1024,3,0,21,0,47.2,0,0,99,4.24,4.239,0,0,0,0,4.177,76.46,197.25845742776,3.608924,6,P-GPS,
13500,2022-09-04 16:40:59,-34.8454715572545,-55.2712856147379,3.608924,3.6417324,193.61672502776,197.25845742776,5.905512,0,1.16054465656,5.0010828372,23,5,8.473,197.25845742776,3.608924,0.8052984,1.3603346892,0,0,-0.447388,38.9, 1, 0.3,0,0,1024,1024,1305,1024,0,0,43,0,47.2,0,0,99,4.24,4.239,0,0,0,0,4.177,76.46,197.25845742776,3.608924,6,P-GPS,
13600,2022-09-04 16:41:00,-34.8454715830173,-55.2712856354494,3.937008,3.9698164,193.61672502776,197.58654142776,5.905512,0,1.15028875072,5.0123361184,23,5,8.473,197.58654142776,3.937008,0.8052984,1.3603346892,0,0,-0.447388,38.9, 0.9, 0.2,0,0,1024,1024,1305,1024,0,0,43,0,47.2,0,0,99,4.24,4.239,0,0,0,0,4.177,76.46,197.58654142776,3.937008,6,P-GPS,
13700,2022-09-04 16:41:00,-34.8454716124217,-55.2712857073608,3.937008,3.9698164,193.61672502776,197.58654142776,6.233596,0,1.12634846124,5.0363846756,23,5,8.473,197.58654142776,3.937008,0.8052984,1.3603346892,0,0,-0.671082,38.9, 0.8, 0.2,0,0,1024,1024,1370,1024,0,0,52,0,47.2,0,0,99,4.24,4.239,0,0,0,0,4.177,76.46,197.58654142776,3.937008,6,P-GPS,
13800,2022-09-04 16:41:00,-34.84547165272,-55.2712857845841,4.265092,4.2979004,193.61672502776,197.91462542776,6.233596,0,1.09894688556,5.063812498,22,5,8.473,197.91462542776,4.265092,0.8052984,1.3603346892,0,0,-1.11847,38.9, 0.6, 0,0,0,1024,1024,1339,1024,0,0,48,0,47.2,0,0,99,4.24,4.239,0,0,0,0,4.177,76.46,197.91462542776,4.265092,6,P-GPS,
13900,2022-09-04 16:41:00,-34.8454717147281,-55.271285881308,4.265092,4.2979004,193.61672502776,197.91462542776,6.56168,0,1.06239176628,5.100557906,22,5,8.473,197.91462542776,4.265092,0.8052984,1.3603346892,0,0,-1.565858,38.9, 1, 0,0,0,1024,1024,1188,1024,0,0,25,0,47.2,0,0,99,4.24,4.239,0,0,0,0,4.177,76.46,197.91462542776,4.265092,6,P-GPS,
14000,2022-09-04 16:41:00,-34.8454717939778,-55.2712860568053,4.593176,4.6259844,193.61672502776,198.24270942776,6.889764,0,1.0025098746,5.1605316612,22,5,8.473,198.24270942776,4.593176,0.8052984,1.3603346892,0,0,-1.565858,38.9, 1.2, 0,0,0,1024,1024,1024,1024,0,0,0,0,47.2,0,0,99,4.24,4.239,0,0,0,0,4.177,76.46,198.24270942776,4.593176,6,P-GPS,
14100,2022-09-04 16:41:00,-34.8454717984525,-55.2712860670312,4.92126,4.9540684,193.61672502776,198.57079342776,6.889764,0,0.9990485884,5.1640093516,22,5,8.473,198.57079342776,4.92126,0.8052984,1.3603346892,0,0,-1.342164,38.9, 1.3, 0,0,0,1024,1024,1024,1024,0,0,0,0,47.2,0,0,99,4.24,4.239,0,0,0,0,4.177,76.46,198.57079342776,4.92126,6,P-GPS,
14200,2022-09-04 16:41:00,-34.8454717942509,-55.2712860880427,4.92126,4.9540684,193.61672502776,198.57079342776,7.217848,0,0.99455055676,5.1704726064,23,5,8.476,198.57079342776,4.92126,0.8052984,1.3603346892,0,0,-0.894776,39, 1.1, 0.3,0,0,1024,1024,1024,1024,0,0,0,0,47.2,0,0,99,4.23,4.204,0,0,0,0,3.971,76.46,198.57079342776,4.92126,6,P-GPS,
14300,2022-09-04 16:41:00,-34.845471783802,-55.2712861298375,4.92126,4.9540684,193.61672502776,198.57079342776,7.217848,0,0.9860892704,5.183563158,23,5,8.476,198.57079342776,4.92126,0.8052984,1.3603346892,0,0,-0.447388,39, 0.9, 0.4,0,0,1032,1024,1024,1024,1,0,0,0,47.2,0,0,99,4.23,4.204,0,0,0,0,3.971,76.46,198.57079342776,4.92126,6,P-GPS,
14400,2022-09-04 16:41:00,-34.8454716825885,-55.2712860417111,4.92126,4.9540684,193.61672502776,198.57079342776,7.217848,0,1.02847444236,5.2289371752,20,5,8.476,198.57079342776,4.92126,0.8052984,1.3603346892,0,0,-0.223694,39.1, 0.8, 0.4,0,0,1024,1024,1024,1024,0,0,0,0,47.2,0,0,99,4.23,4.204,0,0,0,0,3.971,76.46,198.57079342776,4.92126,6,P-GPS,
14500,2022-09-04 16:41:00,-34.845471736053,-55.2712860441407,5.249344,5.2821524,193.61672502776,198.89887742776,7.217848,0,1.01709648924,5.2484581732,20,5,8.476,198.89887742776,5.249344,0.8052984,1.3603346892,0,0,0,39.1, 0.7, 0.4,0,0,1024,1024,1024,1024,0,0,0,0,47.2,0,0,99,4.23,4.204,0,0,0,0,3.971,76.46,198.89887742776,5.249344,6,P-GPS,
14600,2022-09-04 16:41:01,-34.8454717853242,-55.2712860353723,5.249344,5.2821524,193.61672502776,198.89887742776,7.217848,0,1.00962273572,5.2666340268,21,5,8.476,198.89887742776,5.249344,0.8052984,1.3603346892,0,0,0,39.1, 0.5, 0.1,0,0,1024,1024,1024,1024,0,0,0,0,47.2,0,0,99,4.23,4.204,0,0,0,0,3.971,76.46,198.89887742776,5.249344,6,P-GPS,
14700,2022-09-04 16:41:01,-34.8454718269106,-55.2712860205651,5.249344,5.2821524,193.61672502776,198.89887742776,7.217848,0,1.00542326052,5.2824476756,21,5,8.476,198.89887742776,5.249344,0.8052984,1.3603346892,0,0,0,39.1, 0.4, -0.1,0,0,1024,1024,1024,1024,0,0,0,0,47.2,0,0,99,4.23,4.204,0,0,0,0,3.971,76.46,198.89887742776,5.249344,6,P-GPS,
14800,2022-09-04 16:41:01,-34.8454719425633,-55.2712857352005,5.249344,5.2821524,193.61672502776,198.89887742776,7.217848,0,1.0596128948,5.3777232692,21,5,8.476,198.89887742776,5.249344,0.8052984,1.3603346892,0,0,0,39.1, 0.4, 0,0,0,1081,1024,1024,1024,9,0,0,0,47.2,0,0,99,4.23,4.204,0,0,0,0,3.971,76.46,198.89887742776,5.249344,6,P-GPS,
14900,2022-09-04 16:41:01,-34.8454720173445,-55.2712856681522,5.249344,5.2821524,193.61672502776,198.89887742776,7.217848,0,1.06568901048,5.4116143464,21,5,8.476,198.89887742776,5.249344,0.8052984,1.3603346892,0,0,0,39.1, 0.5, 0,0,0,1427,1024,1024,1024,61,0,0,0,47.2,0,0,99,4.23,4.204,0,0,0,0,3.971,76.46,198.89887742776,5.249344,6,P-GPS,
15000,2022-09-04 16:41:01,-34.8454721332284,-55.271285616125,5.249344,5.2821524,193.61672502776,198.89887742776,7.217848,0,1.06279859044,5.4566602796,21,5,8.476,198.89887742776,5.249344,0.8052984,1.3603346892,0,0,0,39.1, -3, 0.3,0,0,1247,1024,1024,1024,34,0,0,0,47.2,0,0,99,4.23,4.204,0,0,0,0,3.971,76.46,198.89887742776,5.249344,6,P-GPS,
15100,2022-09-04 16:41:01,-34.8454722818032,-55.2712855548688,5.249344,5.2821524,193.61672502776,198.89887742776,7.217848,0,1.06034124128,5.5139109376,21,5,8.476,198.89887742776,5.249344,0.8052984,1.3603346892,0,0,0,39.1, -5.9, 0.2,0,0,1291,1024,1024,1024,40,0,0,0,47.2,0,0,99,4.23,4.204,0,0,0,0,3.971,76.46,198.89887742776,5.249344,6,P-GPS,
15200,2022-09-04 16:41:01,-34.8454725894608,-55.2712854495226,5.249344,5.3477692,193.55110822776,198.89887742776,7.217848,0.3131716,1.0587926848,5.6304791828,21,5,8.485,198.89887742776,5.249344,0.8052984,1.3603346892,0.223694,0.223694,0,39.1, -4.3, 0.1,0,0,1248,1024,1024,1024,34,0,0,0,47.2,0,0,99,4.238,4.232,0,0,0,0,4.062,76.64,198.89887742776,5.249344,6,P-GPS,
15300,2022-09-04 16:41:01,-34.8454725817491,-55.2712852893726,5.249344,5.3477692,193.55110822776,198.89887742776,7.217848,0.3131716,1.10613848684,5.6785434888,21,5,8.485,198.89887742776,5.249344,0.8052984,1.3603346892,0.223694,0.223694,0,39.1, -3.5, 0.1,0,0,1253,1024,1024,1024,35,0,0,0,47.2,0,0,99,4.238,4.232,0,0,0,0,4.062,76.64,198.89887742776,5.249344,6,P-GPS,
15400,2022-09-04 16:41:01,-34.8454725226075,-55.2712850940028,5.249344,5.3477692,193.55110822776,198.89887742776,7.217848,0.6263432,1.16800200588,5.7408794488,21,5,8.485,198.89887742776,5.249344,0.8052984,1.3603346892,0.447388,0.447388,0,39.1, -2.8, 0.1,0,0,1259,1024,1024,1024,36,0,0,0,47.2,0,0,99,4.238,4.232,0,0,0,0,4.062,76.64,198.89887742776,5.249344,6,P-GPS,
15500,2022-09-04 16:41:01,-34.8454724045374,-55.2712848517117,5.249344,5.3149608,193.58391662776,198.89887742776,7.217848,0.6263432,1.24875660164,5.8252626536,21,5,8.485,198.89887742776,5.249344,0.8052984,1.3603346892,0.447388,0.447388,0,39.1, -2.4, 0.1,0,0,1259,1024,1024,1024,36,0,0,0,47.2,0,0,99,4.238,4.232,0,0,0,0,4.062,76.64,198.89887742776,5.249344,6,P-GPS,
15600,2022-09-04 16:41:02,-34.8454722132433,-55.2712846030634,5.249344,5.3149608,193.58391662776,198.89887742776,7.217848,0.8052984,1.33914702448,5.9272967776,22,5,8.485,198.89887742776,5.249344,0.8052984,1.3603346892,0.671082,0.447388,0,39.1, -2.4, 0.1,0,0,1216,1024,1024,1024,29,0,0,0,47.2,0,0,99,4.238,4.232,0,0,0,0,4.062,76.64,198.89887742776,5.249344,6,P-GPS,
15700,2022-09-04 16:41:02,-34.8454716945761,-55.2712844303962,5.249344,5.3149608,193.58391662776,198.89887742776,7.217848,0.9395148,1.45213915408,6.1234910096,22,5,8.485,198.89887742776,5.249344,0.9395148,1.45213915408,0.671082,0.671082,0,39.1, -1.9, 0.1,0,0,1176,1024,1024,1024,23,0,0,0,47.2,0,0,99,4.238,4.232,0,0,0,0,4.062,76.64,198.89887742776,5.249344,6,P-GPS,
15800,2022-09-04 16:41:02,-34.8454713902448,-55.2712841396974,5.249344,5.2821524,193.61672502776,198.89887742776,7.217848,0.9395148,1.57725070664,6.2645671296,20,5,8.485,198.89887742776,5.249344,0.9395148,1.57725070664,0.671082,0.671082,0,39.1, -1.1, 0.1,0,0,1024,1024,1024,1024,0,0,0,0,47.2,0,0,99,4.238,4.232,0,0,0,0,4.062,76.64,198.89887742776,5.249344,6,P-GPS,
15900,2022-09-04 16:41:02,-34.8454711041131,-55.2712837988726,5.249344,5.2821524,193.61672502776,198.89887742776,7.217848,1.11847,1.71511160344,6.4105645096,20,5,8.485,198.89887742776,5.249344,1.11847,1.71511160344,0.894776,0.671082,0,39.1, 0.7, 0.1,0,0,1024,1024,1024,1024,0,0,0,0,47.2,0,0,99,4.238,4.232,0,0,0,0,4.062,76.64,198.89887742776,5.249344,6,P-GPS,
16000,2022-09-04 16:41:02,-34.8454708307686,-55.2712834729905,5.249344,5.3149608,193.58391662776,198.89887742776,7.217848,0.9395148,1.84805452108,6.5500658264,20,5,8.485,198.89887742776,5.249344,1.11847,1.84805452108,0.671082,0.671082,0,39.1, 4.4, 0.1,0,0,1024,1024,1024,1024,0,0,0,0,47.2,0,0,99,4.238,4.232,0,0,0,0,4.062,76.64,198.89887742776,5.249344,6,P-GPS,
16100,2022-09-04 16:41:02,-34.8454704692398,-55.2712831229419,5.249344,5.249344,193.64953342776,198.89887742776,7.217848,0.8052984,2.00432093028,6.7185697688,20,5,8.485,198.89887742776,5.249344,1.11847,2.00432093028,0.671082,0.447388,0,39.1, 5.1, 0.1,0,0,1024,1024,1024,1024,0,0,0,0,47.2,0,0,99,4.238,4.232,0,0,0,0,4.062,76.64,198.89887742776,5.249344,6,P-GPS,
16200,2022-09-04 16:41:02,-34.845470269297,-55.2712828548309,5.249344,5.249344,193.64953342776,198.89887742776,7.217848,0.4921268,2.1106299888,6.8270343392,21,5,8.466,198.89887742776,5.249344,1.11847,2.1106299888,0.447388,0.223694,0,39.1, 4.7, 0,0,0,1013,1024,1024,1024,-2,0,0,0,47.2,0,0,99,4.234,4.231,0,0,0,0,4.124,76.64,198.89887742776,5.249344,6,P-GPS,
16300,2022-09-04 16:41:02,-34.8454701166755,-55.2712826000786,5.249344,5.249344,193.64953342776,198.89887742776,7.217848,0.4921268,2.20472448,6.9214897228,21,5,8.466,198.89887742776,5.249344,1.11847,2.20472448,0.223694,0.223694,0,39.1, 4.1, 0.1,0,0,1024,1024,1024,1024,0,0,0,0,47.2,0,0,99,4.234,4.231,0,0,0,0,4.124,76.64,198.89887742776,5.249344,6,P-GPS,
16400,2022-09-04 16:41:02,-34.8454700172326,-55.2712823996592,5.249344,5.2821524,193.61672502776,198.89887742776,7.217848,0.223694,2.274852435,6.9916012736,21,5,8.466,198.89887742776,5.249344,1.11847,2.274852435,0.223694,0,0,39.1, 3.4, 0.1,0,0,1024,1024,1024,1024,0,0,0,0,47.2,0,0,99,4.234,4.231,0,0,0,0,4.124,76.64,198.89887742776,5.249344,6,P-GPS,
16500,2022-09-04 16:41:02,-34.8454698924425,-55.2712820402367,5.249344,5.2821524,193.61672502776,198.89887742776,7.217848,0,2.39052173004,7.1084647944,21,5,8.466,198.89887742776,5.249344,1.11847,2.39052173004,0,0,0,39.1, 2.7, 0.2,0,0,1024,1024,1024,1024,0,0,0,0,47.2,0,0,99,4.234,4.231,0,0,0,0,4.124,76.64,198.89887742776,5.249344,6,P-GPS,
16600,2022-09-04 16:41:02,-34.8454698428832,-55.2712819143044,5.249344,5.2821524,193.61672502776,198.89887742776,7.217848,0,2.432168713,7.150262696,21,5,8.466,198.89887742776,5.249344,1.11847,2.432168713,0,0,0,39.1, 2.1, 0.1,0,0,1024,1024,1024,939,0,0,0,-13,47.2,0,0,99,4.234,4.231,0,0,0,0,4.124,76.64,198.89887742776,5.249344,6,P-GPS,
16700,2022-09-04 16:41:03,-34.8454697815524,-55.2712818413204,5.249344,5.2821524,193.61672502776,198.89887742776,7.217848,0,2.46241149612,7.1815619096,21,5,8.466,198.89887742776,5.249344,1.11847,2.46241149612,0,0,0,39.1, 1.7, 0.2,0,0,1024,1024,1024,364,0,0,0,-100,47.2,0,0,99,4.234,4.231,0,0,0,0,4.124,76.64,198.89887742776,5.249344,6,P-GPS,
16800,2022-09-04 16:41:03,-34.845469766955,-55.2712817934217,5.249344,5.2821524,193.61672502776,198.89887742776,7.217848,0,2.47745086668,7.196850624,22,5,8.466,198.89887742776,5.249344,1.11847,2.47745086668,0,0,0,38.7, 1.9, 0.1,0,0,1024,1024,1024,373,0,0,0,-99,45.7,0,0,99,4.234,4.231,0,0,0,0,4.124,76.64,198.89887742776,5.249344,6,P-GPS,
16900,2022-09-04 16:41:03,-34.845469810099,-55.2712818464914,5.249344,5.2821524,193.61672502776,198.89887742776,7.217848,0,2.45573170588,7.2192259528,22,5,8.466,198.89887742776,5.249344,1.11847,2.47745086668,0,0,0,36.1, 1.5, 0,0,0,1024,1024,1024,780,0,0,0,-37,41.8,0,0,99,4.234,4.231,0,0,0,0,4.124,76.64,198.89887742776,5.249344,6,P-GPS,
