time(millisecond),datetime(utc),latitude,longitude,height_above_takeoff(feet),height_above_ground_at_drone_location(feet),ground_elevation_at_drone_location(feet),altitude_above_seaLevel(feet),height_sonar(feet),speed(mph),distance(feet),mileage(feet),satellites,gpslevel,voltage(v),max_altitude(feet),max_ascent(feet),max_speed(mph),max_distance(feet), xSpeed(mph), ySpeed(mph), zSpeed(mph), compass_heading(degrees), pitch(degrees), roll(degrees),isPhoto,isVideo,rc_elevator,rc_aileron,rc_throttle,rc_rudder,rc_elevator(percent),rc_aileron(percent),rc_throttle(percent),rc_rudder(percent),gimbal_heading(degrees),gimbal_pitch(degrees),gimbal_roll(degrees),battery_percent,voltageCell1,voltageCell2,voltageCell3,voltageCell4,voltageCell5,voltageCell6,current(A),battery_temperature(f),altitude(feet),ascent(feet),flycStateRaw,flycState,message
0,2022-11-02 22:40:50,-34.9197577093786,-56.1687192326832,0,0,43.969837693124,43.969837693124,0,0,0,0,20,5,0,43.969837693124,0,0,0,0,0,0,265, -3, 4.6,0,0,1024,1024,1024,1024,0,0,0,0,274.6,0,0,29,3.776,3.773,0,0,0,0,0,106.52,43.969837693124,0,41,Motors_Started,"Aeronave en Zona de altitud restringida (150). Vuela con precaución (Code: 190001). Error de calibración del estabilizador. Reinicia la aeronave o contacta con la Asistencia DJI (Code: 40011)"
100,2022-11-02 22:40:50,-34.9197577098739,-56.1687186709594,0,0,43.969837693124,43.969837693124,0,0,0.168045280968,0.168045280968,20,5,0,43.969837693124,0,0,0.168045280968,0,0,0,264.3, -3.3, 4.5,0,0,364,364,364,1684,-100,-100,-100,100,274.6,0,0,29,3.776,3.773,0,0,0,0,0,106.52,43.969837693124,0,41,Motors_Started,
200,2022-11-02 22:40:50,-34.9197577211301,-56.1687184473752,0,0,43.969837693124,43.969837693124,0,0,0.234971792296,0.235058734556,20,5,0,43.969837693124,0,0,0.234971792296,0,0,0,264.4, -2.4, 4.3,0,0,364,364,364,1684,-100,-100,-100,100,274.3,0,0,29,3.776,3.773,0,0,0,0,0,106.52,43.969837693124,0,41,Motors_Started,
300,2022-11-02 22:40:50,-34.9197577625463,-56.1687182521177,0,0,43.969837693124,43.969837693124,0.328084,0,0.293986557964,0.295394694492,20,5,0,43.969837693124,0,0,0.293986557964,0,0,0,264.1, -2.8, 5.1,0,0,364,364,364,1684,-100,-100,-100,100,274.2,0,0,29,3.776,3.773,0,0,0,0,0,106.52,43.969837693124,0,41,Motors_Started,"Setting new Return-To-Home altitude to 80m (262 ft). Data Recorder File Index is 71. Setting new Maximum Flight Altitude to 120m (394 ft)"
400,2022-11-02 22:40:51,-34.9197578413139,-56.1687180718572,0,0,43.969837693124,43.969837693124,0.328084,0,0.35059384324,0.35650263608,20,5,0,43.969837693124,0,0,0.35059384324,0,0,0,263.9, -2.7, 6.2,0,0,364,364,364,1684,-100,-100,-100,100,274.1,0,0,29,3.776,3.773,0,0,0,0,0,106.52,43.969837693124,0,41,Motors_Started,
500,2022-11-02 22:40:51,-34.919757912952,-56.1687178649553,0,0,43.969837693124,43.969837693124,0.328084,0,0.41585631252,0.42369095844,20,5,0,43.969837693124,0,0,0.41585631252,0,0,0,263.8, -3.3, 5.9,0,0,1024,1024,364,1592,0,0,-100,86,274.1,0,0,29,3.776,3.773,0,0,0,0,0,106.52,43.969837693124,0,41,Motors_Started,
600,2022-11-02 22:40:51,-34.919758106849,-56.1687174395157,0,-0.032808400000005,44.002646093124,43.969837693124,0.328084,0.223694,0.55569883668,0.56930448016,20,5,0,43.969837693124,0,0.223694,0.55569883668,0,0.223694,0,264.2, -2.2, 6.6,0,0,1024,1024,1024,1024,0,0,0,0,274.1,0,0,29,3.776,3.773,0,0,0,0,0,106.52,43.969837693124,0,41,Motors_Started,
700,2022-11-02 22:40:51,-34.9197581440594,-56.1687171363286,0,-0.032808400000005,44.002646093124,43.969837693124,0.328084,0,0.64688650364,0.66101708152,20,5,0,43.969837693124,0,0.223694,0.64688650364,0,0,0,265.5, 0.2, 9.9,0,0,1024,1024,1024,1024,0,0,0,0,274.8,0,0,29,3.776,3.773,0,0,0,0,0,106.52,43.969837693124,0,41,Motors_Started,
800,2022-11-02 22:40:51,-34.9197582233186,-56.1687169001694,0,-0.032808400000005,44.002646093124,43.969837693124,0.328084,0,0.72254923572,0.73735566664,20,5,0,43.969837693124,0,0.223694,0.72254923572,0,0,-0.223694,265.6, -0.4, 8.3,0,0,1024,1024,1024,1024,0,0,0,0,275.2,0,0,29,3.776,3.773,0,0,0,0,0,106.52,43.969837693124,0,41,Motors_Started,
900,2022-11-02 22:40:51,-34.9197583146035,-56.1687167146796,0,-0.032808400000005,44.002646093124,43.969837693124,0.328084,0,0.78498362092,0.80207351648,20,5,0,43.969837693124,0,0.223694,0.78498362092,0,0,0,266, -0.5, 7.2,0,0,1024,1024,1024,1024,0,0,0,0,275.8,0,0,29,3.776,3.773,0,0,0,0,0,106.52,43.969837693124,0,41,Motors_Started,
1000,2022-11-02 22:40:51,-34.9197584750916,-56.1687165532603,0,-0.032808400000005,44.002646093124,43.969837693124,0.328084,0,0.84886485656,0.87797246904,20,5,0,43.969837693124,0,0.223694,0.84886485656,0,0,0,265.5, -0.8, 7.3,0,0,1024,1024,1024,1024,0,0,0,0,275.8,0,0,29,3.776,3.773,0,0,0,0,0,106.52,43.969837693124,0,41,Motors_Started,
1100,2022-11-02 22:40:51,-34.9197585226633,-56.1687164218101,0,-0.065616800000004,44.035454493124,43.969837693124,0.328084,0,0.89171918864,0.92095475388,20,5,0,43.969837693124,0,0.223694,0.89171918864,0,0,0,266.2, -2.2, 6.6,0,0,1024,1024,1024,1024,0,0,0,0,276,0,0,29,3.776,3.773,0,0,0,0,0,106.52,43.969837693124,0,10,Assisted_Takeoff,
1200,2022-11-02 22:40:51,-34.9197585601442,-56.1687162973908,0,-0.065616800000004,44.035454493124,43.969837693124,0.328084,0,0.93136814004,0.96061026696,20,5,0,43.969837693124,0,0.223694,0.93136814004,0,0,0,265.4, -2.9, 6.4,0,0,1024,1024,1267,1024,0,0,37,0,276.1,0,0,29,3.776,3.773,0,0,0,0,0,106.52,43.969837693124,0,10,Assisted_Takeoff,
1300,2022-11-02 22:40:51,-34.9197586094904,-56.1687162887182,0,-0.065616800000004,44.035454493124,43.969837693124,0.328084,0,0.93995409832,0.97879924392,20,5,7.552,43.969837693124,0,0.223694,0.93995409832,0,0,0,265.4, -3, 5.9,0,0,1024,1024,1684,1024,0,0,100,0,275.9,0,0,29,3.776,3.773,0,0,0,0,1.4,106.52,43.969837693124,0,10,Assisted_Takeoff,
1400,2022-11-02 22:40:52,-34.9197586891019,-56.168716898834,0,-0.032808400000005,44.002646093124,43.969837693124,0.328084,0,0.78437666552,1.16361880364,20,5,7.552,43.969837693124,0,0.223694,0.93995409832,0,0,0,264.4, -2.7, 4.9,0,0,1024,1024,1684,1024,0,0,100,0,275.4,0,0,29,3.776,3.773,0,0,0,0,1.4,106.52,43.969837693124,0,10,Assisted_Takeoff,
1500,2022-11-02 22:40:52,-34.9197587465673,-56.1687170220472,0,-0.032808400000005,44.002646093124,43.969837693124,0.328084,0,0.76194556244,1.20602366064,20,5,7.552,43.969837693124,0,0.223694,0.93995409832,0,0,0,263.5, -3.1, 4.1,0,0,1024,1024,1684,1024,0,0,100,0,274.5,0,0,29,3.776,3.773,0,0,0,0,1.4,106.52,43.969837693124,0,10,Assisted_Takeoff,
1600,2022-11-02 22:40:52,-34.9197587684334,-56.1687171204011,0,-0.032808400000005,44.002646093124,43.969837693124,0.328084,0,0.7406824384,1.23650922592,20,5,7.552,43.969837693124,0,0.223694,0.93995409832,0,0,0,261.3, -3.9, 2.5,0,0,1024,1024,1643,1024,0,0,94,0,272.7,0,0,29,3.776,3.773,0,0,0,0,1.4,106.52,43.969837693124,0,10,Assisted_Takeoff,
1700,2022-11-02 22:40:52,-34.9197588109509,-56.1687171842116,0,-0.032808400000005,44.002646093124,43.969837693124,0.328084,0,0.732857635,1.26110896424,20,5,7.552,43.969837693124,0,0.223694,0.93995409832,0,0,0,260.4, -4.4, -2.1,0,0,1024,1024,1624,1024,0,0,91,0,271.1,0,0,29,3.776,3.773,0,0,0,0,1.4,106.52,43.969837693124,0,10,Assisted_Takeoff,
1800,2022-11-02 22:40:52,-34.9197588261344,-56.1687174836132,0,-0.032808400000005,44.002646093124,43.969837693124,0.328084,0,0.66317915508,1.35084649992,20,5,7.552,43.969837693124,0,0.223694,0.93995409832,0,0,0,260.6, -3.5, -3.1,0,0,1024,1024,1589,1024,0,0,86,0,270.5,0,0,29,3.776,3.773,0,0,0,0,1.4,106.52,43.969837693124,0,10,Assisted_Takeoff,
1900,2022-11-02 22:40:52,-34.9197589344315,-56.1687175015781,0,-0.032808400000005,44.002646093124,43.969837693124,0.328084,0,0.68408466756,1.39072511012,20,5,7.552,43.969837693124,0,0.223694,0.93995409832,0,0,0,262.1, -2.8, -3.2,0,0,1024,1024,1024,1024,0,0,0,0,271.3,0,0,29,3.776,3.773,0,0,0,0,1.4,106.52,43.969837693124,0,10,Assisted_Takeoff,
2000,2022-11-02 22:40:52,-34.9197590870613,-56.1687175425947,0,-0.032808400000005,44.002646093124,43.969837693124,0.328084,0.223694,0.71294621704,1.44774610932,20,5,7.552,43.969837693124,0,0.223694,0.93995409832,-0.223694,0,0,261.5, -3.1, -3.3,0,0,1024,1024,1024,1024,0,0,0,0,271.8,0,0,29,3.776,3.773,0,0,0,0,1.4,106.52,43.969837693124,0,10,Assisted_Takeoff,
2100,2022-11-02 22:40:52,-34.9197592920383,-56.1687175860869,0,-0.032808400000005,44.002646093124,43.969837693124,0.328084,0.4921268,0.75899936812,1.5236549044,20,5,7.552,43.969837693124,0,0.4921268,0.93995409832,-0.447388,-0.223694,0,259.1, -2.5, -3.7,0,0,1024,1024,1024,1024,0,0,0,0,270.3,0,0,29,3.776,3.773,0,0,0,0,1.4,106.52,43.969837693124,0,10,Assisted_Takeoff,
2200,2022-11-02 22:40:52,-34.9197595796071,-56.1687176265531,0,-0.065616800000004,44.035454493124,43.969837693124,0.328084,0.7158208,0.83455055164,1.62927170568,20,5,7.552,43.969837693124,0,0.7158208,0.93995409832,-0.671082,-0.223694,0,257.3, -3.1, -2.2,0,0,1024,1024,1024,1024,0,0,0,0,268.4,0,0,29,3.776,3.773,0,0,0,0,1.4,106.52,43.969837693124,0,10,Assisted_Takeoff,"Error de calibración del estabilizador. Reinicia la aeronave o contacta con la Asistencia DJI (Code: 40011)"
2300,2022-11-02 22:40:53,-34.9197598662234,-56.1687176080149,0,-0.065616800000004,44.035454493124,43.969837693124,0.656168,0.7158208,0.92492128944,1.7339895568,20,5,7.531,43.969837693124,0,0.7158208,0.93995409832,-0.671082,-0.223694,0.447388,257.3, -1.4, -0.4,0,0,1024,1024,1024,1024,0,0,0,0,268,0,0,29,3.755,3.749,0,0,0,0,2.117,106.52,43.969837693124,0,6,P-GPS,
2400,2022-11-02 22:40:53,-34.9197602108318,-56.1687177638236,0,-0.065616800000004,44.035454493124,43.969837693124,0.656168,0.8052984,1.01293310328,1.86808076844,20,5,7.531,43.969837693124,0,0.8052984,1.01293310328,-0.671082,-0.447388,0.671082,257.5, 1.5, 2.4,0,0,1024,1024,1024,1024,0,0,0,0,268,0,0,29,3.755,3.749,0,0,0,0,2.117,106.52,43.969837693124,0,6,P-GPS,"Error de calibración del estabilizador. Reinicia la aeronave o contacta con la Asistencia DJI (Code: 40011)"
2500,2022-11-02 22:40:53,-34.9197605660238,-56.1687179182968,0,-0.065616800000004,44.035454493124,43.969837693124,0.656168,0.7158208,1.11395344772,2.00566607468,20,5,7.531,43.969837693124,0,0.8052984,1.11395344772,-0.671082,-0.223694,0.447388,257.6, 3.1, 3.1,0,0,1024,1024,1024,1024,0,0,0,0,268,0,0,29,3.755,3.749,0,0,0,0,2.117,106.52,43.969837693124,0,6,P-GPS,"Error de calibración del estabilizador. Reinicia la aeronave o contacta con la Asistencia DJI (Code: 40011)"
2600,2022-11-02 22:40:53,-34.9197609519769,-56.1687180649654,0,-0.065616800000004,44.035454493124,43.969837693124,0.656168,0.7158208,1.23355975076,2.15315951772,20,5,7.531,43.969837693124,0,0.8052984,1.23355975076,-0.671082,-0.223694,0.447388,257.7, 3, 2.6,0,0,1024,1024,1104,1059,0,0,12,5,268,0,0,29,3.755,3.749,0,0,0,0,2.117,106.52,43.969837693124,0,6,P-GPS,
2700,2022-11-02 22:40:53,-34.9197613067233,-56.1687180972579,0,-0.065616800000004,44.035454493124,43.969837693124,0.656168,0.447388,1.35573167068,2.28294954812,20,5,7.531,43.969837693124,0,0.8052984,1.35573167068,-0.447388,0,0,257.7, 2.9, 2.6,0,0,1024,1024,1485,1024,0,0,70,0,268,0,0,29,3.755,3.749,0,0,0,0,2.117,106.52,43.969837693124,0,6,P-GPS,
2800,2022-11-02 22:40:53,-34.9197615527728,-56.1687180138755,0,-0.098425200000004,44.068262893124,43.969837693124,0.984252,0.447388,1.44888784164,2.37612212328,20,5,7.531,43.969837693124,0,0.8052984,1.44888784164,-0.447388,0,-0.223694,257.6, 2.3, 3.5,0,0,1024,1024,1024,1024,0,0,0,0,268,0,0,29,3.755,3.749,0,0,0,0,2.117,106.52,43.969837693124,0,6,P-GPS,
2900,2022-11-02 22:40:53,-34.9197617602183,-56.1687179441402,0,-0.098425200000004,44.068262893124,43.969837693124,0.984252,0.223694,1.52739178116,2.45462934364,20,5,7.531,43.969837693124,0,0.8052984,1.52739178116,-0.223694,0,-0.671082,257.4, 1.5, 3.1,0,0,1024,1024,1024,1024,0,0,0,0,268.1,0,0,29,3.755,3.749,0,0,0,0,2.117,106.52,43.969837693124,0,6,P-GPS,
3000,2022-11-02 22:40:53,-34.9197619533009,-56.1687179109721,0,-0.098425200000004,44.068262893124,43.969837693124,1.312336,0.223694,1.5980807598,2.5257710782,20,5,7.531,43.969837693124,0,0.8052984,1.5980807598,-0.223694,0,-1.11847,257.5, 1.3, 2,0,0,1024,1024,1024,1024,0,0,0,0,268.1,0,0,29,3.755,3.749,0,0,0,0,2.117,106.52,43.969837693124,0,6,P-GPS,
3100,2022-11-02 22:40:53,-34.9197619439787,-56.1687175938982,0,-0.098425200000004,44.068262893124,43.969837693124,1.312336,0.223694,1.62091212536,2.62068906024,20,5,7.531,43.969837693124,0,0.8052984,1.62091212536,-0.223694,0,-1.11847,257.6, 1.6, 2.1,0,0,1024,1024,1024,1024,0,0,0,0,268.1,0,0,29,3.755,3.749,0,0,0,0,2.117,106.52,43.969837693124,0,6,P-GPS,
3200,2022-11-02 22:40:53,-34.9197619859779,-56.1687175042789,0.328084,0.2296588,44.068262893124,44.297921693124,1.64042,0,1.64375989512,2.65156832632,20,5,7.531,44.297921693124,0.328084,0.8052984,1.64375989512,0,0,-0.894776,257.5, 1.1, 1.9,0,0,1024,1024,1024,1024,0,0,0,0,268.1,0,0,29,3.755,3.749,0,0,0,0,2.117,106.52,44.297921693124,0.328084,6,P-GPS,
3300,2022-11-02 22:40:53,-34.9197620060533,-56.1687173749496,0.328084,0.1968504,44.101071293124,44.297921693124,1.64042,0,1.6632382422,2.690944968,19,5,7.531,44.297921693124,0.328084,0.8052984,1.6632382422,0,0,-0.671082,257.5, 0.7, 1.5,0,0,1024,1024,1024,1024,0,0,0,0,268.1,0,0,29,3.755,3.749,0,0,0,0,2.117,106.52,44.297921693124,0.328084,6,P-GPS,
3400,2022-11-02 22:40:54,-34.9197620193268,-56.1687171981239,0.328084,0.1968504,44.101071293124,44.297921693124,1.64042,0,1.68616803296,2.74406504844,19,5,7.531,44.297921693124,0.328084,0.8052984,1.68616803296,0,0,-0.447388,257.7, 0.4, 3,0,0,1024,1024,1024,1024,0,0,0,0,268.1,0,0,29,3.755,3.749,0,0,0,0,2.117,106.52,44.297921693124,0.328084,6,P-GPS,
3500,2022-11-02 22:40:54,-34.9197617316648,-56.1687167812576,0.328084,0.1968504,44.101071293124,44.297921693124,1.64042,0,1.64057091864,2.90706374132,18,5,7.531,44.297921693124,0.328084,0.8052984,1.68616803296,0,0,-0.223694,257.7, 0.5, 2.8,0,0,1024,1024,1024,1024,0,0,0,0,268.1,0,0,29,3.755,3.749,0,0,0,0,2.117,106.52,44.297921693124,0.328084,6,P-GPS,
3600,2022-11-02 22:40:54,-34.9197616441779,-56.1687166445128,0.328084,0.1968504,44.101071293124,44.297921693124,1.64042,0,1.63109585272,2.95895022592,18,5,7.46,44.297921693124,0.328084,0.8052984,1.68616803296,0,0,0,257.5, 0.1, 1.8,0,0,1024,1024,1024,1024,0,0,0,0,268.1,0,0,29,3.737,3.732,0,0,0,0,4.851,106.52,44.297921693124,0.328084,6,P-GPS,
3700,2022-11-02 22:40:54,-34.9197615649984,-56.1687165880597,0.328084,0.1968504,44.101071293124,44.297921693124,1.64042,0,1.61394034036,2.99241479392,18,5,7.46,44.297921693124,0.328084,0.8052984,1.68616803296,0,0,0,257.4, -0.1, 1.1,0,0,1024,1024,1024,1024,0,0,0,0,268.1,0,0,29,3.737,3.732,0,0,0,0,4.851,106.52,44.297921693124,0.328084,6,P-GPS,
3800,2022-11-02 22:40:54,-34.9197615083418,-56.1687166213369,0.328084,0.1968504,44.101071293124,44.297921693124,1.64042,0,1.591043358,3.01535770804,18,5,7.46,44.297921693124,0.328084,0.8052984,1.68616803296,0,0,0,257.4, 0.4, 1.4,0,0,1024,1024,1024,1024,0,0,0,0,268.1,0,0,29,3.737,3.732,0,0,0,0,4.851,106.52,44.297921693124,0.328084,6,P-GPS,
3900,2022-11-02 22:40:54,-34.9197614509113,-56.1687166925107,0.328084,0.2296588,44.068262893124,44.297921693124,1.64042,0,1.56235897388,3.04522975624,18,5,7.46,44.297921693124,0.328084,0.8052984,1.68616803296,0,0,0,257.3, 0.3, 0.6,0,0,1024,1024,1024,1024,0,0,0,0,268.1,0,0,29,3.737,3.732,0,0,0,0,4.851,106.52,44.297921693124,0.328084,6,P-GPS,
4000,2022-11-02 22:40:54,-34.919761335925,-56.1687171356064,0.328084,0.2296588,44.068262893124,44.297921693124,1.64042,0,1.46434059804,3.18426519376,18,5,7.46,44.297921693124,0.328084,0.8052984,1.68616803296,0,0,0,257.6, 0.5, 0.5,0,0,1024,1024,1024,1024,0,0,0,0,268.1,0,0,29,3.737,3.732,0,0,0,0,4.851,106.52,44.297921693124,0.328084,6,P-GPS,
4100,2022-11-02 22:40:54,-34.9197612801374,-56.1687172334411,0.328084,0.2296588,44.068262893124,44.297921693124,1.64042,0,1.43351710624,3.21991808204,18,5,7.46,44.297921693124,0.328084,0.8052984,1.68616803296,0,0,0,257.5, 0.8, 0,0,0,1024,1024,1024,1024,0,0,0,0,268.1,0,0,29,3.737,3.732,0,0,0,0,4.851,106.52,44.297921693124,0.328084,6,P-GPS,
4200,2022-11-02 22:40:54,-34.9197612278586,-56.1687173115806,0.328084,0.2296588,44.068262893124,44.297921693124,1.64042,0,1.40649282716,3.25008868668,19,5,7.46,44.297921693124,0.328084,0.8052984,1.68616803296,0,0,0,257.5, 0.7, 1.6,0,0,1024,1024,1024,1024,0,0,0,0,268.1,0,0,29,3.737,3.732,0,0,0,0,4.851,106.52,44.297921693124,0.328084,6,P-GPS,
4300,2022-11-02 22:40:54,-34.919761205135,-56.1687174067909,0.328084,0.2296588,44.068262893124,44.297921693124,1.64042,0,1.38747379768,3.27975076112,19,5,7.46,44.297921693124,0.328084,0.8052984,1.68616803296,0,0,0,257.6, 0.5, 1.6,0,0,1024,1024,1024,1024,0,0,0,0,268.1,0,0,29,3.737,3.732,0,0,0,0,4.851,106.52,44.297921693124,0.328084,6,P-GPS,
4400,2022-11-02 22:40:55,-34.9197612449341,-56.1687177760779,0,-0.065616800000004,44.035454493124,43.969837693124,1.64042,0,1.36155844252,3.3911746492,19,5,7.46,44.297921693124,0.328084,0.8052984,1.68616803296,0,0,0,257.4, 0.6, 0.9,0,0,1024,1024,1024,1024,0,0,0,0,268.1,0,0,29,3.737,3.732,0,0,0,0,4.851,106.52,43.969837693124,0,6,P-GPS,
4500,2022-11-02 22:40:55,-34.9197612372469,-56.1687178640052,0,-0.065616800000004,44.035454493124,43.969837693124,1.64042,0,1.35069886212,3.4176182196,19,5,7.46,44.297921693124,0.328084,0.8052984,1.68616803296,0,0,0,257.4, 0.4, 1.3,0,0,1024,1024,1024,1024,0,0,0,0,268.1,0,0,29,3.737,3.732,0,0,0,0,4.851,106.52,43.969837693124,0,6,P-GPS,
4600,2022-11-02 22:40:55,-34.9197612144725,-56.1687179179063,0,-0.065616800000004,44.035454493124,43.969837693124,1.64042,0,1.33795279872,3.4357612648,19,5,7.468,44.297921693124,0.328084,0.8052984,1.68616803296,0,0,0,257.6, 0.2, 1.9,0,0,1024,1024,1024,1024,0,0,0,0,268.1,0,0,29,3.736,3.731,0,0,0,0,4.388,106.52,43.969837693124,0,6,P-GPS,
4700,2022-11-02 22:40:55,-34.9197611991572,-56.1687179333819,0,-0.065616800000004,44.035454493124,43.969837693124,1.64042,0,1.33125332344,3.4430447296,19,5,7.468,44.297921693124,0.328084,0.8052984,1.68616803296,0,0,0,257.6, 0.2, 2.1,0,0,1024,1024,1024,1024,0,0,0,0,268.1,0,0,29,3.736,3.731,0,0,0,0,4.388,106.52,43.969837693124,0,6,P-GPS,
4800,2022-11-02 22:40:55,-34.919761221229,-56.1687177976245,0,-0.065616800000004,44.035454493124,43.969837693124,1.64042,0,1.35130581752,3.484416122,19,5,7.468,44.297921693124,0.328084,0.8052984,1.68616803296,0,0,0,257.4, 0.1, 1.7,0,0,1024,1024,1024,1024,0,0,0,0,268.1,0,0,29,3.736,3.731,0,0,0,0,4.388,106.52,43.969837693124,0,6,P-GPS,
4900,2022-11-02 22:40:55,-34.919761207841,-56.1687178026644,0,-0.065616800000004,44.035454493124,43.969837693124,1.64042,0,1.34619754964,3.4895342324,19,5,7.468,44.297921693124,0.328084,0.8052984,1.68616803296,0,0,0,257.5, 0.8, 1.8,0,0,1024,1024,1024,1024,0,0,0,0,268.1,0,0,29,3.736,3.731,0,0,0,0,4.388,106.52,43.969837693124,0,6,P-GPS,"Punto de origen actualizado. Altitud de RPO establecida en 80m (Code: 3000001)"
5000,2022-11-02 22:40:55,-34.9197611941338,-56.1687178305804,0,-0.065616800000004,44.035454493124,43.969837693124,1.64042,0,1.33881565964,3.4992783272,19,5,7.468,44.297921693124,0.328084,0.8052984,1.68616803296,0,0,0,257.9, 0.6, 2.5,0,0,1024,1024,1024,1024,0,0,0,0,268.1,0,0,29,3.736,3.731,0,0,0,0,4.388,106.52,43.969837693124,0,6,P-GPS,
5100,2022-11-02 22:40:55,-34.9197611749869,-56.1687178425246,0,-0.065616800000004,44.035454493124,43.969837693124,1.64042,0,1.33106303472,3.5071195348,19,5,7.468,44.297921693124,0.328084,0.8052984,1.68616803296,0,0,0,257.7, 1, 2.1,0,0,1024,1024,1024,1024,0,0,0,0,268.1,0,0,29,3.736,3.731,0,0,0,0,4.388,106.52,43.969837693124,0,6,P-GPS,
5200,2022-11-02 22:40:55,-34.9197612118953,-56.1687177698182,0,-0.065616800000004,44.035454493124,43.969837693124,1.64042,0,1.35075135556,3.5327100868,19,5,7.468,44.297921693124,0.328084,0.8052984,1.68616803296,0,0,0,257.8, 0.9, 2.3,0,0,1024,1024,1024,1024,0,0,0,0,268.1,0,0,29,3.736,3.731,0,0,0,0,4.388,106.52,43.969837693124,0,6,P-GPS,
5300,2022-11-02 22:40:55,-34.9197612023747,-56.1687177545567,0,-0.065616800000004,44.035454493124,43.969837693124,1.64042,0,1.34895345524,3.5384515568,19,5,7.468,44.297921693124,0.328084,0.8052984,1.68616803296,0,0,0,257.6, 1.5, 1,0,0,1024,1024,1024,1024,0,0,0,0,268.1,0,0,29,3.736,3.731,0,0,0,0,4.388,106.52,43.969837693124,0,6,P-GPS,
5400,2022-11-02 22:40:56,-34.9197612281893,-56.1687177235082,0,-0.065616800000004,44.035454493124,43.969837693124,1.64042,0,1.3609088362,3.551673342,19,5,7.468,44.297921693124,0.328084,0.8052984,1.68616803296,0,0,0,257.6, 1.4, 1.5,0,0,1024,1024,1024,1024,0,0,0,0,268.1,0,0,29,3.736,3.731,0,0,0,0,4.388,106.52,43.969837693124,0,6,P-GPS,
5500,2022-11-02 22:40:56,-34.9197612275328,-56.1687176787923,0,-0.065616800000004,44.035454493124,43.969837693124,1.64042,0,1.36518048988,3.5650591692,19,5,7.468,44.297921693124,0.328084,0.8052984,1.68616803296,0,0,0,257.6, 1.1, 1.9,0,0,1024,1024,1024,1024,0,0,0,0,268.1,0,0,29,3.736,3.731,0,0,0,0,4.388,106.52,43.969837693124,0,6,P-GPS,
5600,2022-11-02 22:40:56,-34.9197611880572,-56.1687176218364,0,-0.065616800000004,44.035454493124,43.969837693124,1.64042,0,1.35760174948,3.5873688812,19,5,7.465,44.297921693124,0.328084,0.8052984,1.68616803296,0,0,0,257.6, 1.2, 2,0,0,1024,1024,1024,1024,0,0,0,0,268.1,0,0,29,3.735,3.73,0,0,0,0,4.545,106.52,43.969837693124,0,6,P-GPS,
5700,2022-11-02 22:40:56,-34.9197611971229,-56.1687175448378,0,-0.065616800000004,44.035454493124,43.969837693124,1.64042,0,1.36902235352,3.6106300368,19,5,7.465,44.297921693124,0.328084,0.8052984,1.68616803296,0,0,0,257.6, 1.6, 2,0,0,1024,1024,1024,1024,0,0,0,0,268.1,0,0,29,3.735,3.73,0,0,0,0,4.545,106.52,43.969837693124,0,6,P-GPS,
5800,2022-11-02 22:40:56,-34.919761137707,-56.1687175341252,0,-0.065616800000004,44.035454493124,43.969837693124,1.64042,0,1.3500984684,3.632546048,19,5,7.465,44.297921693124,0.328084,0.8052984,1.68616803296,0,0,0,257.8, 1.2, 2.4,0,0,1024,1024,1125,1024,0,0,15,0,268.1,0,0,29,3.735,3.73,0,0,0,0,4.545,106.52,43.969837693124,0,6,P-GPS,
5900,2022-11-02 22:40:56,-34.9197610759708,-56.1687175547681,0,-0.065616800000004,44.035454493124,43.969837693124,1.64042,0,1.32690949128,3.6559056288,19,5,7.465,44.297921693124,0.328084,0.8052984,1.68616803296,0,0,0,257.7, 1.2, 2.3,0,0,1024,1024,1591,1024,0,0,86,0,268.1,0,0,29,3.735,3.73,0,0,0,0,4.545,106.52,43.969837693124,0,6,P-GPS,
6000,2022-11-02 22:40:56,-34.9197610048716,-56.1687176135556,0,-0.065616800000004,44.035454493124,43.969837693124,1.64042,0,1.296259884,3.6872376508,19,5,7.465,44.297921693124,0.328084,0.8052984,1.68616803296,0,0,0,257.7, 0.8, 2.8,0,0,1024,1024,1641,1024,0,0,93,0,268.1,0,0,29,3.735,3.73,0,0,0,0,4.545,106.52,43.969837693124,0,6,P-GPS,
6100,2022-11-02 22:40:56,-34.9197608899312,-56.1687177620742,0,-0.065616800000004,44.035454493124,43.969837693124,1.968504,0,1.24102038092,3.7483268916,19,5,7.465,44.297921693124,0.328084,0.8052984,1.68616803296,0,0,-0.671082,257.7, 0.4, 2.5,0,0,1024,1024,1393,1024,0,0,56,0,268.1,0,0,29,3.735,3.73,0,0,0,0,4.545,106.52,43.969837693124,0,6,P-GPS,
6200,2022-11-02 22:40:56,-34.9197607252444,-56.1687179956063,0.328084,0.2624672,44.035454493124,44.297921693124,1.968504,0,1.16090554896,3.8404856872,19,5,7.465,44.297921693124,0.328084,0.8052984,1.68616803296,0,0,-1.342164,257.6, 0.9, 1.4,0,0,1024,1024,1024,1024,0,0,0,0,268.1,0,0,29,3.735,3.73,0,0,0,0,4.545,106.52,44.297921693124,0.328084,6,P-GPS,
6300,2022-11-02 22:40:57,-34.9197606063371,-56.1687181350709,0.656168,0.5905512,44.035454493124,44.626005693124,2.296588,0,1.10678481232,3.9006891012,19,5,7.465,44.626005693124,0.656168,0.8052984,1.68616803296,0,0,-2.013246,257.8, 0.7, 2.7,0,0,1024,1024,1024,1024,0,0,0,0,268.1,0,0,29,3.735,3.73,0,0,0,0,4.545,106.52,44.626005693124,0.656168,6,P-GPS,
6400,2022-11-02 22:40:57,-34.919760522699,-56.1687181932838,0.984252,0.9186352,44.035454493124,44.954089693124,2.624672,0,1.07250331516,3.9358268976,19,5,7.465,44.954089693124,0.984252,0.8052984,1.68616803296,0,0,-1.565858,257.9, 1.4, 2.1,0,0,1024,1024,1024,1024,0,0,0,0,268.1,0,0,29,3.735,3.73,0,0,0,0,4.545,106.52,44.954089693124,0.984252,6,P-GPS,
6500,2022-11-02 22:40:57,-34.9197603878938,-56.1687182779259,0.984252,0.9186352,44.035454493124,44.954089693124,2.624672,0,1.01813979636,3.99114186,19,5,7.465,44.954089693124,0.984252,0.8052984,1.68616803296,0,0,-1.11847,257.8, 1.1, 0.6,0,0,1024,1024,1024,1024,0,0,0,0,268.1,0,0,29,3.735,3.73,0,0,0,0,4.545,106.52,44.954089693124,0.984252,6,P-GPS,
6600,2022-11-02 22:40:57,-34.9197602279649,-56.1687182922071,1.312336,1.2467192,44.035454493124,45.282173693124,2.952756,0,0.96101381028,4.0496392372,19,5,7.465,45.282173693124,1.312336,0.8052984,1.68616803296,0,0,-0.671082,257.6, 1, 0.3,0,0,1024,1024,1024,1024,0,0,0,0,268.1,-0.1,0,29,3.735,3.73,0,0,0,0,4.545,106.52,45.282173693124,1.312336,6,P-GPS,
6700,2022-11-02 22:40:57,-34.9197600937477,-56.1687183181406,1.312336,1.2467192,44.035454493124,45.282173693124,2.952756,0,0.91194556724,4.0992127296,19,5,7.458,45.282173693124,1.312336,0.8052984,1.68616803296,0,0,-0.223694,257.5, 0.9, 0.4,0,0,1024,1024,1024,1024,0,0,0,0,268.1,-0.7,0,29,3.714,3.705,0,0,0,0,4.917,106.52,45.282173693124,1.312336,6,P-GPS,"Entorno demasiado oscuro. El posicionamiento visual no será preciso. Vuela con precaución (Code: 180032). Error de calibración del estabilizador. Reinicia la aeronave o contacta con la Asistencia DJI (Code: 40011)"
6800,2022-11-02 22:40:57,-34.919759974611,-56.168718358518,1.312336,1.2467192,44.035454493124,45.282173693124,2.952756,0,0.86685698312,4.1443242796,19,5,7.458,45.282173693124,1.312336,0.8052984,1.68616803296,0,0,0,257.5, 0.1, 0.1,0,0,1024,1024,1024,1024,0,0,0,0,268.1,-1.7,0,29,3.714,3.705,0,0,0,0,4.917,106.52,45.282173693124,1.312336,6,P-GPS,
6900,2022-11-02 22:40:57,-34.9197600037208,-56.1687182766708,1.312336,1.2467192,44.035454493124,45.282173693124,2.952756,0,0.88459976584,4.1710303172,19,5,7.458,45.282173693124,1.312336,0.8052984,1.68616803296,0,0,0,257.7, -0.1, 0.4,0,0,1024,1024,1024,1024,0,0,0,0,268.1,-3,0,29,3.714,3.705,0,0,0,0,4.917,106.52,45.282173693124,1.312336,6,P-GPS,
7000,2022-11-02 22:40:57,-34.9197600047628,-56.1687182381062,1.312336,1.2467192,44.035454493124,45.282173693124,2.952756,0,0.88875330928,4.182578874,19,5,7.458,45.282173693124,1.312336,0.8052984,1.68616803296,0,0,0,257.6, -0.2, 0.3,0,0,1024,1024,1024,1024,0,0,0,0,268.1,-4.4,0,29,3.714,3.705,0,0,0,0,4.917,106.52,45.282173693124,1.312336,6,P-GPS,
7100,2022-11-02 22:40:57,-34.9197600151298,-56.1687181949966,1.312336,1.2467192,44.035454493124,45.282173693124,2.952756,0,0.8967027846,4.1959975096,20,5,7.458,45.282173693124,1.312336,0.8052984,1.68616803296,0,0,0,257.6, 0, 0.7,0,0,1024,1024,1024,1024,0,0,0,0,268.1,-5.7,0,29,3.714,3.705,0,0,0,0,4.917,106.52,45.282173693124,1.312336,6,P-GPS,
7200,2022-11-02 22:40:57,-34.9197600195584,-56.1687181489623,1.312336,1.2467192,44.035454493124,45.282173693124,2.952756,0,0.90307089504,4.2098754628,20,5,7.458,45.282173693124,1.312336,0.8052984,1.68616803296,0,0,0,257.5, 0.5, 1,0,0,1024,1024,1024,1024,0,0,0,0,268.1,-6.7,0,29,3.714,3.705,0,0,0,0,4.917,106.52,45.282173693124,1.312336,6,P-GPS,
7300,2022-11-02 22:40:58,-34.9197600323892,-56.1687181789242,1.312336,1.2467192,44.035454493124,45.282173693124,2.952756,0,0.90427824416,4.21998045,20,5,7.458,45.282173693124,1.312336,0.8052984,1.68616803296,0,0,0,257.4, 0.6, 0.9,0,0,1024,1024,1024,1024,0,0,0,0,268.1,-7.4,0,29,3.714,3.705,0,0,0,0,4.917,106.52,45.282173693124,1.312336,6,P-GPS,
7400,2022-11-02 22:40:58,-34.9197601550299,-56.168718339142,1.312336,1.2467192,44.035454493124,45.282173693124,2.952756,0,0.93147312692,4.2855644416,20,5,7.458,45.282173693124,1.312336,0.8052984,1.68616803296,0,0,0,257.4, 0.5, 0.8,0,0,1024,1024,1024,1024,0,0,0,0,268.1,-7.9,0,29,3.714,3.705,0,0,0,0,4.917,106.52,45.282173693124,1.312336,6,P-GPS,
7500,2022-11-02 22:40:58,-34.9197601845983,-56.1687184263484,1.312336,1.2467192,44.035454493124,45.282173693124,2.952756,0,0.9347441244,4.3137796656,20,5,7.458,45.282173693124,1.312336,0.8052984,1.68616803296,0,0,0,257.4, 0.4, 0.7,0,0,1024,1024,1024,1024,0,0,0,0,268.1,-8.1,0,29,3.714,3.705,0,0,0,0,4.917,106.52,45.282173693124,1.312336,6,P-GPS,
7600,2022-11-02 22:40:58,-34.9197602269505,-56.1687184876161,1.312336,1.2467192,44.035454493124,45.282173693124,2.952756,0,0.94519031896,4.337762606,20,5,7.458,45.282173693124,1.312336,0.8052984,1.68616803296,0,0,0,257.5, 0.2, 0.6,0,0,1024,1024,1054,1100,0,0,5,12,268.1,-8.1,0,29,3.714,3.705,0,0,0,0,4.917,106.52,45.282173693124,1.312336,6,P-GPS,
7700,2022-11-02 22:40:58,-34.9197602643141,-56.1687185491221,1.312336,1.2795276,44.002646093124,45.282173693124,2.952756,0,0.95433402004,4.3606628692,20,5,7.455,45.282173693124,1.312336,0.8052984,1.68616803296,0,0,0,257.5, 0.5, 0.5,0,0,1024,1024,1062,1316,0,0,6,44,268.1,-8.1,0,29,3.729,3.722,0,0,0,0,4.69,106.52,45.282173693124,1.312336,6,P-GPS,
7800,2022-11-02 22:40:58,-34.9197603573683,-56.1687186453897,1.312336,1.2795276,44.002646093124,45.282173693124,2.952756,0,0.98196197368,4.405183868,20,5,7.455,45.282173693124,1.312336,0.8052984,1.68616803296,0,0,0,257.5, 0.8, 0.7,0,0,1024,1024,1024,1024,0,0,0,0,268.5,-8.1,0,29,3.729,3.722,0,0,0,0,4.69,106.52,45.282173693124,1.312336,6,P-GPS,
7900,2022-11-02 22:40:58,-34.9197603629506,-56.1687186746248,1.312336,1.2795276,44.002646093124,45.282173693124,2.952756,0,0.98244425716,4.4141405612,20,5,7.455,45.282173693124,1.312336,0.8052984,1.68616803296,0,0,0,258.2, 0.6, 0.9,0,0,1024,1024,1024,1024,0,0,0,0,269.5,-8.1,0,29,3.729,3.722,0,0,0,0,4.69,106.52,45.282173693124,1.312336,6,P-GPS,
8000,2022-11-02 22:40:58,-34.9197603364857,-56.1687186721022,1.312336,1.2795276,44.002646093124,45.282173693124,2.952756,0,0.97305777392,4.4238518476,20,5,7.455,45.282173693124,1.312336,0.8052984,1.68616803296,0,0,0,259.1, 0.7, 1.2,0,0,1024,1024,1024,1024,0,0,0,0,270.1,-8.1,0,29,3.729,3.722,0,0,0,0,4.69,106.52,45.282173693124,1.312336,6,P-GPS,
8100,2022-11-02 22:40:58,-34.9197603429541,-56.1687186793969,1.312336,1.2795276,44.002646093124,45.282173693124,2.952756,0,0.97500987372,4.4270670708,20,5,7.455,45.282173693124,1.312336,0.8052984,1.68616803296,0,0,0,259.5, 0.5, 1.1,0,0,1024,1024,1024,1024,0,0,0,0,270.4,-8.1,0,29,3.729,3.722,0,0,0,0,4.69,106.52,45.282173693124,1.312336,6,P-GPS,
8200,2022-11-02 22:40:58,-34.9197603448163,-56.1687186378735,1.312336,1.2795276,44.002646093124,45.282173693124,2.952756,0,0.97786420452,4.4395014544,20,5,7.455,45.282173693124,1.312336,0.8052984,1.68616803296,0,0,0,259.6, 0.3, 1.3,0,0,1024,1024,1024,1024,0,0,0,0,270.4,-8.1,0,29,3.729,3.722,0,0,0,0,4.69,106.52,45.282173693124,1.312336,6,P-GPS,
8300,2022-11-02 22:40:58,-34.919760371368,-56.1687186843539,1.312336,1.2795276,44.002646093124,45.282173693124,2.952756,0,0.98498034648,4.4564305888,20,5,7.455,45.282173693124,1.312336,0.8052984,1.68616803296,0,0,0,259.7, 0.8, 1.2,0,0,1024,1024,1024,1024,0,0,0,0,270.4,-8.1,0,29,3.729,3.722,0,0,0,0,4.69,106.52,45.282173693124,1.312336,6,P-GPS,
8400,2022-11-02 22:40:59,-34.9197603751238,-56.1687187491459,1.312336,1.2795276,44.002646093124,45.282173693124,2.952756,0,0.98329399472,4.47588597,20,5,7.455,45.282173693124,1.312336,0.8052984,1.68616803296,0,0,0,259.8, 1.1, 1.1,0,0,1024,1024,1024,1024,0,0,0,0,270.4,-8.1,0,29,3.729,3.722,0,0,0,0,4.69,106.52,45.282173693124,1.312336,6,P-GPS,
8500,2022-11-02 22:40:59,-34.9197603651752,-56.1687188164486,1.312336,1.2795276,44.002646093124,45.282173693124,2.952756,0,0.97693244596,4.4963256032,20,5,7.455,45.282173693124,1.312336,0.8052984,1.68616803296,0,0,0,259.7, 0.8, 0.9,0,0,1024,1024,1024,1024,0,0,0,0,270.4,-8.1,0,29,3.729,3.722,0,0,0,0,4.69,106.52,45.282173693124,1.312336,6,P-GPS,
8600,2022-11-02 22:40:59,-34.9197603019904,-56.1687189283191,1.312336,1.2795276,44.002646093124,45.282173693124,2.952756,0,0.95028546348,4.5369752108,20,5,7.455,45.282173693124,1.312336,0.8052984,1.68616803296,0,0,0,259.8, 1.2, 1.4,0,0,1024,1024,1024,1024,0,0,0,0,270.4,-8.1,0,29,3.729,3.722,0,0,0,0,4.69,106.52,45.282173693124,1.312336,6,P-GPS,
8700,2022-11-02 22:40:59,-34.9197602949181,-56.1687189734638,1.312336,1.2795276,44.002646093124,45.282173693124,2.952756,0,0.94651577832,4.5507219304,20,5,7.452,45.282173693124,1.312336,0.8052984,1.68616803296,0,0,0,259.9, 1.4, 1.4,0,0,1024,1024,1024,1024,0,0,0,0,270.4,-8.1,0,29,3.726,3.72,0,0,0,0,4.592,106.52,45.282173693124,1.312336,6,P-GPS,
8800,2022-11-02 22:40:59,-34.9197603012133,-56.1687189894291,1.312336,1.2795276,44.002646093124,45.282173693124,2.952756,0,0.9484252272,4.5560368912,20,5,7.452,45.282173693124,1.312336,0.8052984,1.68616803296,0,0,0,259.9, 1.7, 0.9,0,0,1024,1024,1024,1024,0,0,0,0,270.4,-8.1,0,29,3.726,3.72,0,0,0,0,4.592,106.52,45.282173693124,1.312336,6,P-GPS,
8900,2022-11-02 22:40:59,-34.9197602918588,-56.1687190257288,1.312336,1.2795276,44.002646093124,45.282173693124,2.952756,0,0.94424871788,4.567421406,20,5,7.452,45.282173693124,1.312336,0.8052984,1.68616803296,0,0,0,259.9, 1.3, 0,0,0,1024,1024,1024,1024,0,0,0,0,270.4,-8.1,0,29,3.726,3.72,0,0,0,0,4.592,106.52,45.282173693124,1.312336,6,P-GPS,
9000,2022-11-02 22:40:59,-34.9197602789299,-56.1687190902014,1.312336,1.2795276,44.002646093124,45.282173693124,2.952756,0,0.9384678778,4.587270488,20,5,7.452,45.282173693124,1.312336,0.8052984,1.68616803296,0,0,0,259.9, 0.9, 0.1,0,0,1024,1024,1024,1024,0,0,0,0,270.4,-8.3,0,29,3.726,3.72,0,0,0,0,4.592,106.52,45.282173693124,1.312336,6,P-GPS,
9100,2022-11-02 22:40:59,-34.9197603328004,-56.1687191432631,1.312336,1.2795276,44.002646093124,45.282173693124,2.952756,0,0.95752627736,4.612532956,20,5,7.452,45.282173693124,1.312336,0.8052984,1.68616803296,0,0,0,259.9, 1.2, 1,0,0,1024,1024,1024,1024,0,0,0,0,270.4,-8.6,0,29,3.726,3.72,0,0,0,0,4.592,106.52,45.282173693124,1.312336,6,P-GPS,
9200,2022-11-02 22:40:59,-34.9197603388032,-56.1687191619681,0.984252,0.95144359999999,44.002646093124,44.954089693124,2.952756,0,0.95957680236,4.6185368932,20,5,7.452,45.282173693124,1.312336,0.8052984,1.68616803296,0,0,0,259.9, 1.2, 1.2,0,0,1024,1024,1024,1024,0,0,0,0,270.4,-8.8,0,29,3.726,3.72,0,0,0,0,4.592,106.52,44.954089693124,0.984252,6,P-GPS,
9300,2022-11-02 22:40:59,-34.9197603280648,-56.1687191937954,0.984252,0.95144359999999,44.002646093124,44.954089693124,2.952756,0,0.9554954374,4.6288387308,20,5,7.452,45.282173693124,1.312336,0.8052984,1.68616803296,0,0,0,259.8, 1, 1.3,0,0,1024,1024,1024,1024,0,0,0,0,270.4,-8.5,0,29,3.726,3.72,0,0,0,0,4.592,106.52,44.954089693124,0.984252,6,P-GPS,
9400,2022-11-02 22:41:00,-34.9197602969069,-56.1687192475048,0.984252,0.95144359999999,44.002646093124,44.954089693124,2.952756,0,0.94406827168,4.6485237708,20,5,7.452,45.282173693124,1.312336,0.8052984,1.68616803296,0,0,0,259.8, 0.9, 1.5,0,0,1024,1024,1024,1024,0,0,0,0,270.4,-7.6,0,29,3.726,3.72,0,0,0,0,4.592,106.52,44.954089693124,0.984252,6,P-GPS,
9500,2022-11-02 22:41:00,-34.9197602099003,-56.168719335712,0.984252,0.95144359999999,44.002646093124,44.954089693124,2.952756,0,0.91283467488,4.689796738,20,5,7.452,45.282173693124,1.312336,0.8052984,1.68616803296,0,0,0,259.9, 0.5, 1.8,0,0,1024,1024,1024,1024,0,0,0,0,270.4,-6.8,0,29,3.726,3.72,0,0,0,0,4.592,106.52,44.954089693124,0.984252,6,P-GPS,
9600,2022-11-02 22:41:00,-34.9197602112741,-56.1687193281058,0.984252,0.95144359999999,44.002646093124,44.954089693124,2.952756,0,0.91326118408,4.6921261344,20,5,7.452,45.282173693124,1.312336,0.8052984,1.68616803296,0,0,0,259.9, 0.7, 1.7,0,0,1024,1024,1024,1024,0,0,0,0,270.4,-6.1,0,29,3.726,3.72,0,0,0,0,4.592,106.52,44.954089693124,0.984252,6,P-GPS,
9700,2022-11-02 22:41:00,-34.9197601826158,-56.1687193263018,0.984252,0.95144359999999,44.002646093124,44.954089693124,2.952756,0,0.90279202364,4.702592014,20,5,7.445,45.282173693124,1.312336,0.8052984,1.68616803296,0,0,0,259.9, 0.6, 1.3,0,0,1024,1024,1024,1024,0,0,0,0,270.4,-5.6,0,29,3.724,3.718,0,0,0,0,4.581,106.52,44.954089693124,0.984252,6,P-GPS,
9800,2022-11-02 22:41:00,-34.9197601263278,-56.1687193361652,0.984252,0.95144359999999,44.002646093124,44.954089693124,2.952756,0,0.8823655138,4.7233269228,20,5,7.445,45.282173693124,1.312336,0.8052984,1.68616803296,0,0,0,259.8, 1.1, 0.9,0,0,1024,1024,1024,1024,0,0,0,0,270.4,-5.4,0,29,3.724,3.718,0,0,0,0,4.581,106.52,44.954089693124,0.984252,6,P-GPS,
9900,2022-11-02 22:41:00,-34.9197600456616,-56.1687192380611,0.984252,0.95144359999999,44.002646093124,44.954089693124,2.952756,0,0.85239175956,4.7648951656,20,5,7.445,45.282173693124,1.312336,0.8052984,1.68616803296,0,0,0,259.9, 1.5, 1.5,0,0,1024,1024,1024,1024,0,0,0,0,270.4,-5.3,0,29,3.724,3.718,0,0,0,0,4.581,106.52,44.954089693124,0.984252,6,P-GPS,
10000,2022-11-02 22:41:00,-34.9197600215083,-56.1687192612611,0.984252,0.95144359999999,44.002646093124,44.954089693124,2.952756,0,0.84362207424,4.7761156384,20,5,7.445,45.282173693124,1.312336,0.8052984,1.68616803296,0,0,0,259.9, 1.3, 1.4,0,0,1024,1024,1024,1024,0,0,0,0,270.4,-5.3,0,29,3.724,3.718,0,0,0,0,4.581,106.52,44.954089693124,0.984252,6,P-GPS,
10100,2022-11-02 22:41:00,-34.9197599817327,-56.1687192820992,0.984252,0.95144359999999,44.002646093124,44.954089693124,2.952756,0,0.8291995016,4.7919292872,20,5,7.445,45.282173693124,1.312336,0.8052984,1.68616803296,0,0,0,259.9, 1.7, 1.2,0,0,1024,1024,1024,1024,0,0,0,0,270.4,-5.3,0,29,3.724,3.718,0,0,0,0,4.581,106.52,44.954089693124,0.984252,6,P-GPS,
10200,2022-11-02 22:41:00,-34.9197599209606,-56.1687192999262,0.984252,0.95144359999999,44.002646093124,44.954089693124,2.952756,0,0.80714569512,4.8147311252,20,5,7.445,45.282173693124,1.312336,0.8052984,1.68616803296,0,0,0,259.9, 1.6, 0.6,0,0,1024,1024,1024,1024,0,0,0,0,270.4,-5.3,0,29,3.724,3.718,0,0,0,0,4.581,106.52,44.954089693124,0.984252,6,P-GPS,
10300,2022-11-02 22:41:01,-34.9197597915535,-56.1687193466564,0.984252,0.95144359999999,44.002646093124,44.954089693124,2.952756,0,0.76044621856,4.8639765336,20,5,7.445,45.282173693124,1.312336,0.8052984,1.68616803296,0,0,0,259.9, 1.9, 0,0,0,1024,1024,1024,1024,0,0,0,0,270.4,-5.3,0,29,3.724,3.718,0,0,0,0,4.581,106.52,44.954089693124,0.984252,6,P-GPS,
10400,2022-11-02 22:41:01,-34.9197597462897,-56.168719368871,0.984252,0.95144359999999,44.002646093124,44.954089693124,2.952756,0,0.74428151988,4.8817586864,20,5,7.445,45.282173693124,1.312336,0.8052984,1.68616803296,0,0,0,259.9, 1.6, 0.7,0,0,1024,1024,1024,1024,0,0,0,0,270.4,-5.3,0,29,3.724,3.718,0,0,0,0,4.581,106.52,44.954089693124,0.984252,6,P-GPS,
10500,2022-11-02 22:41:01,-34.9197597350006,-56.1687193795366,0.984252,0.95144359999999,44.002646093124,44.954089693124,2.952756,0,0.74035107356,4.886975222,20,5,7.445,45.282173693124,1.312336,0.8052984,1.68616803296,0,0,0,260, 1.1, 1.5,0,0,1024,1024,1024,1024,0,0,0,0,270.4,-5.3,0,29,3.724,3.718,0,0,0,0,4.581,106.52,44.954089693124,0.984252,6,P-GPS,
10600,2022-11-02 22:41:01,-34.9197597496879,-56.168719387006,0.984252,0.95144359999999,44.002646093124,44.954089693124,2.952756,0,0.74583663804,4.8927823088,20,5,7.445,45.282173693124,1.312336,0.8052984,1.68616803296,0,0,0,259.9, 0.9, 1.5,0,0,1024,1024,1024,1024,0,0,0,0,270.4,-5.3,0,29,3.724,3.718,0,0,0,0,4.581,106.52,44.954089693124,0.984252,6,P-GPS,
10700,2022-11-02 22:41:01,-34.9197597701003,-56.1687193716398,0.984252,0.95144359999999,44.002646093124,44.954089693124,2.952756,0,0.7530019926,4.9015421516,20,5,7.445,45.282173693124,1.312336,0.8052984,1.68616803296,0,0,0,259.9, 1, 1.7,0,0,1024,1024,1024,1024,0,0,0,0,270.4,-5.3,0,29,3.724,3.718,0,0,0,0,4.581,106.52,44.954089693124,0.984252,6,P-GPS,
10800,2022-11-02 22:41:01,-34.9197599302091,-56.1687193165266,0.984252,0.95144359999999,44.002646093124,44.954089693124,2.952756,0,0.81065619392,4.9622376916,20,5,7.441,45.282173693124,1.312336,0.8052984,1.68616803296,0,0,0,260, 0.8, 1.6,0,0,1024,1024,1024,1024,0,0,0,0,270.4,-5.3,0,29,3.722,3.715,0,0,0,0,4.558,106.52,44.954089693124,0.984252,6,P-GPS,
10900,2022-11-02 22:41:01,-34.9197599453612,-56.168719274169,0.984252,0.95144359999999,44.002646093124,44.954089693124,2.952756,0,0.81589241456,4.976050028,20,5,7.441,45.282173693124,1.312336,0.8052984,1.68616803296,0,0,0,260, 0.5, 1.2,0,0,1024,1024,1024,1024,0,0,0,0,270.4,-5.3,0,29,3.722,3.715,0,0,0,0,4.558,106.52,44.954089693124,0.984252,6,P-GPS,
11000,2022-11-02 22:41:01,-34.9197599516769,-56.1687192319914,0.984252,0.95144359999999,44.002646093124,44.954089693124,2.952756,0,0.81810041988,4.9888781124,20,5,7.441,45.282173693124,1.312336,0.8052984,1.68616803296,0,0,0,259.9, 0.5, 1.4,0,0,1024,1024,1024,1024,0,0,0,0,270.4,-5.3,0,29,3.722,3.715,0,0,0,0,4.558,106.52,44.954089693124,0.984252,6,P-GPS,
11100,2022-11-02 22:41:01,-34.9197599486032,-56.1687191819165,0.984252,0.95144359999999,44.002646093124,44.954089693124,2.952756,0,0.81711944872,5.0039043596,20,5,7.441,45.282173693124,1.312336,0.8052984,1.68616803296,0,0,0,260, 0.3, 1.5,0,0,1024,1024,1024,1024,0,0,0,0,270.4,-5.3,0,29,3.722,3.715,0,0,0,0,4.558,106.52,44.954089693124,0.984252,6,P-GPS,
11200,2022-11-02 22:41:01,-34.9197599336466,-56.1687190445602,0.984252,0.95144359999999,44.002646093124,44.954089693124,2.952756,0,0.81347115464,5.0453413688,20,5,7.441,45.282173693124,1.312336,0.8052984,1.68616803296,0,0,0,259.9, 0.2, 1.2,0,0,1024,1024,1024,1024,0,0,0,0,270.4,-5.3,0,29,3.722,3.715,0,0,0,0,4.558,106.52,44.954089693124,0.984252,6,P-GPS,
11300,2022-11-02 22:41:02,-34.9197599432577,-56.1687189704792,0.984252,0.95144359999999,44.002646093124,44.954089693124,2.952756,0,0.81879595796,5.0677823144,20,5,7.441,45.282173693124,1.312336,0.8052984,1.68616803296,0,0,0,259.9, 0.1, 1.4,0,0,1024,1024,1024,1024,0,0,0,0,270.4,-5.3,0,29,3.722,3.715,0,0,0,0,4.558,106.52,44.954089693124,0.984252,6,P-GPS,
11400,2022-11-02 22:41:02,-34.9197599853058,-56.168718875488,0.984252,0.95144359999999,44.002646093124,44.954089693124,2.952756,0,0.83721787456,5.1000985884,20,5,7.441,45.282173693124,1.312336,0.8052984,1.68616803296,0,0,0,259.9, 0.2, 1.6,0,0,1024,1024,1024,1024,0,0,0,0,270.4,-5.3,0,29,3.722,3.715,0,0,0,0,4.558,106.52,44.954089693124,0.984252,6,P-GPS,
11500,2022-11-02 22:41:02,-34.9197600144943,-56.1687188095758,0.984252,0.95144359999999,44.002646093124,44.954089693124,2.952756,0,0.8504921532,5.1225067256,19,5,7.441,45.282173693124,1.312336,0.8052984,1.68616803296,0,0,0,260, 0.5, 1.1,0,0,1024,1024,1024,1024,0,0,0,0,270.4,-5.3,0,29,3.722,3.715,0,0,0,0,4.558,106.52,44.954089693124,0.984252,6,P-GPS,
11600,2022-11-02 22:41:02,-34.9197601187182,-56.1687186630352,0.984252,0.95144359999999,44.002646093124,44.954089693124,2.952756,0,0.89541341448,5.1805447852,19,5,7.441,45.282173693124,1.312336,0.8052984,1.68616803296,0,0,0,260, 0.2, 1.2,0,0,1024,1024,1024,1024,0,0,0,0,270.4,-5.3,0,29,3.722,3.715,0,0,0,0,4.558,106.52,44.954089693124,0.984252,6,P-GPS,
11700,2022-11-02 22:41:02,-34.9197601288777,-56.168718638187,0.984252,0.95144359999999,44.002646093124,44.954089693124,2.952756,0,0.90048887396,5.1888453104,19,5,7.441,45.282173693124,1.312336,0.8052984,1.68616803296,0,0,0,259.8, 0.4, 1,0,0,1024,1024,1024,1024,0,0,0,0,270.4,-5.3,0,29,3.722,3.715,0,0,0,0,4.558,106.52,44.954089693124,0.984252,6,P-GPS,
11800,2022-11-02 22:41:02,-34.9197601357172,-56.1687186231051,0.984252,0.95144359999999,44.002646093124,44.954089693124,2.952756,0,0.90383533076,5.1939962292,19,5,7.436,45.282173693124,1.312336,0.8052984,1.68616803296,0,0,0,259.7, 0.8, 1.3,0,0,1024,1024,1024,1024,0,0,0,0,270.4,-5.3,0,29,3.72,3.714,0,0,0,0,4.643,106.52,44.954089693124,0.984252,6,P-GPS,
11900,2022-11-02 22:41:02,-34.9197601370112,-56.1687186279642,0.656168,0.62335959999999,44.002646093124,44.626005693124,2.952756,0,0.90400593444,5.1955054156,19,5,7.436,45.282173693124,1.312336,0.8052984,1.68616803296,0,0,0,259.8, 0.7, 1.3,0,0,1024,1024,1024,1024,0,0,0,0,270.4,-5.3,0,29,3.72,3.714,0,0,0,0,4.643,106.52,44.626005693124,0.656168,6,P-GPS,"Punto de origen actualizado. Altitud de RPO establecida en 80m (Code: 3000001)"
12000,2022-11-02 22:41:02,-34.9197600998549,-56.1687187520622,0.656168,0.62335959999999,44.002646093124,44.626005693124,2.952756,0,0.88393703616,5.2350395376,19,5,7.436,45.282173693124,1.312336,0.8052984,1.68616803296,0,0,0,259.9, 0.5, 1.3,0,1,1024,1024,1024,1024,0,0,0,0,270.4,-5.3,0,29,3.72,3.714,0,0,0,0,4.643,106.52,44.626005693124,0.656168,6,P-GPS,
12100,2022-11-02 22:41:02,-34.9197600870311,-56.1687187846844,0.656168,0.62335959999999,44.002646093124,44.626005693124,2.952756,0,0.87777561864,5.2458663096,19,5,7.436,45.282173693124,1.312336,0.8052984,1.68616803296,0,0,0,259.9, 0.4, 1.4,0,1,1024,1024,1024,1024,0,0,0,0,270.4,-5.3,0,29,3.72,3.714,0,0,0,0,4.643,106.52,44.626005693124,0.656168,6,P-GPS,
12200,2022-11-02 22:41:02,-34.9197600666315,-56.1687188258526,0.656168,0.62335959999999,44.002646093124,44.626005693124,2.952756,0,0.86861223252,5.2602691972,19,5,7.436,45.282173693124,1.312336,0.8052984,1.68616803296,0,0,0,259.9, 0.5, 1.2,0,1,1024,1024,1024,1024,0,0,0,0,270.4,-5.3,0,29,3.72,3.714,0,0,0,0,4.643,106.52,44.626005693124,0.656168,6,P-GPS,
12300,2022-11-02 22:41:02,-34.9197600402678,-56.1687188664546,0.656168,0.62335959999999,44.002646093124,44.626005693124,2.952756,0,0.85745081484,5.275754762,19,5,7.436,45.282173693124,1.312336,0.8052984,1.68616803296,0,0,0,259.9, 0.6, 0.9,0,1,1024,1024,1024,1024,0,0,0,0,270.4,-5.3,0,29,3.72,3.714,0,0,0,0,4.643,106.52,44.626005693124,0.656168,6,P-GPS,
12400,2022-11-02 22:41:03,-34.9197600078527,-56.168718902019,0.656168,0.62335959999999,44.002646093124,44.626005693124,2.952756,0,0.84441275668,5.291666836,19,5,7.436,45.282173693124,1.312336,0.8052984,1.68616803296,0,0,0,259.9, 0.8, 0.7,0,1,1024,1024,1024,1024,0,0,0,0,270.4,-5.3,0,29,3.72,3.714,0,0,0,0,4.643,106.52,44.626005693124,0.656168,6,P-GPS,
12500,2022-11-02 22:41:03,-34.9197599517894,-56.1687189800043,0.656168,0.62335959999999,44.002646093124,44.626005693124,2.952756,0,0.82162732288,5.322670774,19,5,7.436,45.282173693124,1.312336,0.8052984,1.68616803296,0,0,0,260, 0.8, 0.4,0,1,1024,1024,1024,1024,0,0,0,0,270.4,-5.3,0,29,3.72,3.714,0,0,0,0,4.643,106.52,44.626005693124,0.656168,6,P-GPS,
12600,2022-11-02 22:41:03,-34.9197599200119,-56.1687189950881,0.656168,0.62335959999999,44.002646093124,44.626005693124,2.952756,0,0.80967522276,5.335137966,19,5,7.436,45.282173693124,1.312336,0.8052984,1.68616803296,0,0,0,260, 0.9, 0,0,1,1024,1024,1024,1024,0,0,0,0,270.4,-5.3,0,29,3.72,3.714,0,0,0,0,4.643,106.52,44.626005693124,0.656168,6,P-GPS,
12700,2022-11-02 22:41:03,-34.9197599034256,-56.1687190159379,0.656168,0.62335959999999,44.002646093124,44.626005693124,2.952756,0,0.80312010444,5.343832192,19,5,7.436,45.282173693124,1.312336,0.8052984,1.68616803296,0,0,0,260, 0.8, -0.4,0,1,1024,1024,1024,1024,0,0,0,0,270.4,-5.3,0,29,3.72,3.714,0,0,0,0,4.643,106.52,44.626005693124,0.656168,6,P-GPS,
12800,2022-11-02 22:41:03,-34.9197599102679,-56.1687190449017,0.656168,0.62335959999999,44.002646093124,44.626005693124,2.952756,0,0.80495737484,5.3528216936,19,5,7.433,45.282173693124,1.312336,0.8052984,1.68616803296,0,0,0,259.9, 0.5, 0.2,0,1,1024,1024,1024,1024,0,0,0,0,270.4,-5.3,0,28,3.72,3.714,0,0,0,0,4.631,106.52,44.626005693124,0.656168,6,P-GPS,
12900,2022-11-02 22:41:03,-34.919759975058,-56.1687191003455,0.656168,0.62335959999999,44.002646093124,44.626005693124,2.952756,0,0.82757876664,5.381725894,20,5,7.433,45.282173693124,1.312336,0.8052984,1.68616803296,0,0,0,260, 0.5, 1.3,0,1,1024,1024,1024,1024,0,0,0,0,270.4,-5.3,0,28,3.72,3.714,0,0,0,0,4.631,106.52,44.626005693124,0.656168,6,P-GPS,
13000,2022-11-02 22:41:03,-34.9197600105885,-56.1687191220277,0.656168,0.62335959999999,44.002646093124,44.626005693124,2.952756,0,0.84024608988,5.3961943984,20,5,7.433,45.282173693124,1.312336,0.8052984,1.68616803296,0,0,0,260.1, 0.5, 1.7,0,1,1024,1024,1089,1024,0,0,10,0,270.4,-5.3,0,28,3.72,3.714,0,0,0,0,4.631,106.52,44.626005693124,0.656168,6,P-GPS,
13100,2022-11-02 22:41:03,-34.9197600090967,-56.168719148718,0.656168,0.62335959999999,44.002646093124,44.626005693124,2.952756,0,0.83942587988,5.404199648,20,5,7.433,45.282173693124,1.312336,0.8052984,1.68616803296,0,0,0,260, 0.5, 0.9,0,1,1024,1024,1119,1024,0,0,14,0,270.4,-5.3,0,28,3.72,3.714,0,0,0,0,4.631,106.52,44.626005693124,0.656168,6,P-GPS,
13200,2022-11-02 22:41:03,-34.9197599741402,-56.1687191803036,0.656168,0.62335959999999,44.002646093124,44.626005693124,2.952756,0,0.82644687684,5.4200789136,20,5,7.433,45.282173693124,1.312336,0.8052984,1.68616803296,0,0,0,259.9, 0.4, 0.6,0,1,1024,1024,1121,1024,0,0,15,0,270.4,-5.3,0,28,3.72,3.714,0,0,0,0,4.631,106.52,44.626005693124,0.656168,6,P-GPS,
13300,2022-11-02 22:41:03,-34.9197600250411,-56.1687191235152,0.984252,0.95144359999999,44.002646093124,44.954089693124,2.952756,0,0.84549871472,5.4452429564,20,5,7.433,45.282173693124,1.312336,0.8052984,1.68616803296,0,0,0,260, 0.1, 0.4,0,1,1024,1024,1122,1024,0,0,15,0,270.4,-5.3,0,28,3.72,3.714,0,0,0,0,4.631,106.52,44.954089693124,0.984252,6,P-GPS,
13400,2022-11-02 22:41:04,-34.9197600581802,-56.168719068964,0.984252,0.95144359999999,44.002646093124,44.954089693124,3.28084,0,0.85835632668,5.465551356,20,5,7.433,45.282173693124,1.312336,0.8052984,1.68616803296,0,0,-0.223694,260, 0.4, 0.2,0,1,1024,1024,1122,1024,0,0,15,0,270.4,-5.3,0,28,3.72,3.714,0,0,0,0,4.631,106.52,44.954089693124,0.984252,6,P-GPS,
13500,2022-11-02 22:41:04,-34.9197600791736,-56.1687190279415,0.984252,0.95144359999999,44.002646093124,44.954089693124,3.28084,0,0.86678480464,5.4800198604,20,5,7.433,45.282173693124,1.312336,0.8052984,1.68616803296,0,0,-0.223694,260.1, 0.6, 0.1,0,1,1024,1024,1134,1024,0,0,17,0,270.4,-5.3,0,28,3.72,3.714,0,0,0,0,4.631,106.52,44.954089693124,0.984252,6,P-GPS,
13600,2022-11-02 22:41:04,-34.9197600846965,-56.168719002439,0.984252,0.95144359999999,44.002646093124,44.954089693124,3.28084,0,0.86936682572,5.4879266848,20,5,7.433,45.282173693124,1.312336,0.8052984,1.68616803296,0,0,-0.223694,260, 0.4, 0,0,1,1024,1024,1144,1024,0,0,18,0,270.4,-5.3,0,28,3.72,3.714,0,0,0,0,4.631,106.52,44.954089693124,0.984252,6,P-GPS,
13700,2022-11-02 22:41:04,-34.9197599953291,-56.1687189830626,0.984252,0.95144359999999,44.002646093124,44.954089693124,3.28084,0,0.83736551236,5.5210303604,20,5,7.433,45.282173693124,1.312336,0.8052984,1.68616803296,0,0,-0.223694,259.9, 0.4, -0.1,0,1,1024,1024,1150,1024,0,0,19,0,270.4,-5.3,0,28,3.72,3.714,0,0,0,0,4.631,106.52,44.954089693124,0.984252,6,P-GPS,
13800,2022-11-02 22:41:04,-34.9197599687555,-56.1687189663871,0.984252,0.95144359999999,44.002646093124,44.954089693124,3.28084,0,0.82817259868,5.5319555576,20,5,7.432,45.282173693124,1.312336,0.8052984,1.68616803296,0,0,-0.223694,259.9, 0.3, 0.1,0,1,1024,1024,1150,1024,0,0,19,0,270.4,-5.3,0,28,3.716,3.709,0,0,0,0,4.575,106.52,44.954089693124,0.984252,6,P-GPS,
13900,2022-11-02 22:41:04,-34.9197599630985,-56.1687189475087,0.984252,0.95144359999999,44.002646093124,44.954089693124,3.28084,0,0.82668309732,5.5379594948,20,5,7.432,45.282173693124,1.312336,0.8052984,1.68616803296,0,0,-0.447388,259.8, 0, 0.1,0,1,1024,1024,1148,1024,0,0,19,0,270.4,-5.3,0,28,3.716,3.709,0,0,0,0,4.575,106.52,44.954089693124,0.984252,6,P-GPS,
14000,2022-11-02 22:41:04,-34.9197599830034,-56.1687189286293,1.312336,1.2795276,44.002646093124,45.282173693124,3.608924,0,0.83450133904,5.5471458468,20,5,7.432,45.282173693124,1.312336,0.8052984,1.68616803296,0,0,-0.447388,259.9, 0.1, 0.5,0,1,1024,1024,1147,1024,0,0,19,0,270.4,-5.3,0,28,3.716,3.709,0,0,0,0,4.575,106.52,45.282173693124,1.312336,6,P-GPS,
14100,2022-11-02 22:41:04,-34.919760007029,-56.1687188892742,1.312336,1.2795276,44.002646093124,45.282173693124,3.608924,0,0.84456695616,5.56184401,20,5,7.432,45.282173693124,1.312336,0.8052984,1.68616803296,0,0,-0.447388,259.9, 0, 0.6,0,1,1024,1024,1143,1024,0,0,18,0,270.4,-5.3,0,28,3.716,3.709,0,0,0,0,4.575,106.52,45.282173693124,1.312336,6,P-GPS,
14200,2022-11-02 22:41:04,-34.9197600429383,-56.1687187687165,1.312336,1.2795276,44.002646093124,45.282173693124,3.608924,0,0.86263782288,5.6001970296,20,5,7.432,45.282173693124,1.312336,0.8052984,1.68616803296,0,0,-0.447388,259.8, -0.4, 0.5,0,1,1024,1024,1142,1024,0,0,18,0,270.4,-5.3,0,28,3.716,3.709,0,0,0,0,4.575,106.52,45.282173693124,1.312336,6,P-GPS,
14300,2022-11-02 22:41:05,-34.9197600671169,-56.168718710226,1.312336,1.2795276,44.002646093124,45.282173693124,3.608924,0,0.87430448992,5.6198164528,20,5,7.432,45.282173693124,1.312336,0.8052984,1.68616803296,0,0,-0.447388,259.8, -0.3, 0.6,0,1,1024,1024,1142,1024,0,0,18,0,270.4,-5.3,0,28,3.716,3.709,0,0,0,0,4.575,106.52,45.282173693124,1.312336,6,P-GPS,
14400,2022-11-02 22:41:05,-34.9197600901972,-56.1687186569903,1.312336,1.2795276,44.002646093124,45.282173693124,3.608924,0,0.8855479286,5.6378282644,20,5,7.432,45.282173693124,1.312336,0.8052984,1.68616803296,0,0,-0.447388,259.7, -0.2, 0.2,0,1,1024,1024,1142,1024,0,0,18,0,270.4,-5.3,0,28,3.716,3.709,0,0,0,0,4.575,106.52,45.282173693124,1.312336,6,P-GPS,
14500,2022-11-02 22:41:05,-34.9197601368825,-56.1687186429402,1.64042,1.6076116,44.002646093124,45.610257693124,3.937008,0,0.90307417588,5.65534795,19,5,7.432,45.610257693124,1.64042,0.8052984,1.68616803296,0,0,-0.447388,259.8, 0, 0.6,0,1,1024,1024,1137,1024,0,0,17,0,270.4,-5.3,0,28,3.716,3.709,0,0,0,0,4.575,106.52,45.610257693124,1.64042,6,P-GPS,
14600,2022-11-02 22:41:05,-34.919760238554,-56.1687186837597,1.64042,1.6076116,44.002646093124,45.610257693124,3.937008,0,0.93726709036,5.6944227544,19,5,7.432,45.610257693124,1.64042,0.8052984,1.68616803296,0,0,-0.447388,259.9, 0, 1.2,0,1,1024,1024,1139,1024,0,0,17,0,270.4,-5.3,0,28,3.716,3.709,0,0,0,0,4.575,106.52,45.610257693124,1.64042,6,P-GPS,
14700,2022-11-02 22:41:05,-34.9197602853658,-56.1687187054199,1.64042,1.6076116,44.002646093124,45.610257693124,3.937008,0,0.95299215648,5.7126642248,19,5,7.432,45.610257693124,1.64042,0.8052984,1.68616803296,0,0,-0.447388,259.8, 0, 1.2,0,1,1024,1024,1140,1024,0,0,18,0,270.4,-5.3,0,28,3.716,3.709,0,0,0,0,4.575,106.52,45.610257693124,1.64042,6,P-GPS,
14800,2022-11-02 22:41:05,-34.919760307647,-56.168718722863,1.64042,1.6076116,44.002646093124,45.610257693124,3.937008,0,0.96016735356,5.7223427028,19,5,7.432,45.610257693124,1.64042,0.8052984,1.68616803296,0,0,-0.447388,259.8, 0.1, 0.7,0,1,1024,1024,1139,1024,0,0,17,0,270.4,-5.3,0,28,3.715,3.708,0,0,0,0,4.575,106.52,45.610257693124,1.64042,6,P-GPS,
14900,2022-11-02 22:41:05,-34.9197603208799,-56.1687187616666,1.64042,1.6076116,44.002646093124,45.610257693124,3.937008,0,0.96316932216,5.73490832,18,5,7.432,45.610257693124,1.64042,0.8052984,1.68616803296,0,0,-0.223694,259.8, 0.3, 0.4,0,1,1024,1024,1139,1024,0,0,17,0,270.4,-5.3,0,28,3.715,3.708,0,0,0,0,4.575,106.52,45.610257693124,1.64042,6,P-GPS,
15000,2022-11-02 22:41:05,-34.9197602518877,-56.1687188469924,1.968504,1.9356956,44.002646093124,45.938341693124,4.265092,0,0.93478021364,5.7707679012,18,5,7.432,45.938341693124,1.968504,0.8052984,1.68616803296,0,0,-0.223694,259.9, 0.7, 0.5,0,1,1024,1024,1139,1024,0,0,17,0,270.4,-5.3,0,28,3.715,3.708,0,0,0,0,4.575,106.52,45.938341693124,1.968504,6,P-GPS,
15100,2022-11-02 22:41:05,-34.9197602878863,-56.1687188925961,1.968504,1.9356956,44.002646093124,45.938341693124,4.265092,0,0.94625331112,5.789698348,19,5,7.432,45.938341693124,1.968504,0.8052984,1.68616803296,0,0,-0.223694,259.9, 0.7, 0.6,0,1,1024,1024,1139,1024,0,0,17,0,270.4,-5.3,0,28,3.715,3.708,0,0,0,0,4.575,106.52,45.938341693124,1.968504,6,P-GPS,
15200,2022-11-02 22:41:05,-34.9197603512326,-56.1687189272018,1.968504,1.9356956,44.002646093124,45.938341693124,4.265092,0,0.96820213072,5.8150264328,19,5,7.432,45.938341693124,1.968504,0.8052984,1.68616803296,0,0,-0.447388,259.8, 0.7, 0.8,0,1,1024,1024,1139,1024,0,0,17,0,270.4,-5.3,0,28,3.715,3.708,0,0,0,0,4.575,106.52,45.938341693124,1.968504,6,P-GPS,
15300,2022-11-02 22:41:06,-34.9197604254564,-56.1687189424195,1.968504,1.9356956,44.002646093124,45.938341693124,4.265092,0,0.99475724968,5.8424870636,19,5,7.432,45.938341693124,1.968504,0.8052984,1.68616803296,0,0,-0.447388,259.9, 0.8, 1.5,0,1,1024,1024,1139,1024,0,0,17,0,270.4,-5.3,0,28,3.715,3.708,0,0,0,0,4.575,106.52,45.938341693124,1.968504,6,P-GPS,
15400,2022-11-02 22:41:06,-34.9197605822103,-56.16871894402,1.968504,1.9028872,44.035454493124,45.938341693124,4.593176,0,1.05170278956,5.8996721048,19,5,7.432,45.938341693124,1.968504,0.8052984,1.68616803296,0,0,-0.447388,259.9, 0.9, 1.7,0,1,1024,1024,1140,1024,0,0,18,0,270.4,-5.3,0,28,3.715,3.708,0,0,0,0,4.575,106.52,45.938341693124,1.968504,6,P-GPS,
15500,2022-11-02 22:41:06,-34.919760661627,-56.1687189755462,2.296588,2.2309712,44.035454493124,46.266425693124,4.593176,0,1.07986880096,5.9301511084,19,5,7.432,46.266425693124,2.296588,0.8052984,1.68616803296,0,0,-0.447388,259.8, 1.1, 1.5,0,1,1024,1024,1142,1024,0,0,18,0,270.4,-5.3,0,28,3.715,3.708,0,0,0,0,4.575,106.52,46.266425693124,2.296588,6,P-GPS,
15600,2022-11-02 22:41:06,-34.9197607418212,-56.1687190358719,2.296588,2.2309712,44.035454493124,46.266425693124,4.593176,0,1.10794951052,5.9645343116,19,5,7.432,46.266425693124,2.296588,0.8052984,1.68616803296,0,0,-0.447388,259.9, 0.8, 2.1,0,1,1024,1024,1142,1024,0,0,18,0,270.4,-5.3,0,28,3.715,3.708,0,0,0,0,4.575,106.52,46.266425693124,2.296588,6,P-GPS,
15700,2022-11-02 22:41:06,-34.9197608084232,-56.1687190538711,2.296588,2.2309712,44.035454493124,46.266425693124,4.593176,0,1.13194885512,5.9894030788,19,5,7.432,46.266425693124,2.296588,0.8052984,1.68616803296,0,0,-0.447388,259.9, 0.6, 2,0,1,1024,1024,1147,1024,0,0,19,0,270.4,-5.3,0,28,3.715,3.708,0,0,0,0,4.575,106.52,46.266425693124,2.296588,6,P-GPS,
15800,2022-11-02 22:41:06,-34.9197608631995,-56.1687190295975,2.296588,2.2309712,44.035454493124,46.266425693124,4.593176,0,1.15227365892,6.010662922,19,5,7.424,46.266425693124,2.296588,0.8052984,1.68616803296,0,0,-0.223694,260.1, 0.7, 2.4,0,1,1024,1024,1153,1024,0,0,20,0,270.4,-5.3,0,28,3.714,3.707,0,0,0,0,4.733,106.52,46.266425693124,2.296588,6,P-GPS,
15900,2022-11-02 22:41:06,-34.919760878549,-56.1687190188911,2.624672,2.5590552,44.035454493124,46.594509693124,4.92126,0,1.1580380948,6.0171261768,20,5,7.424,46.594509693124,2.624672,0.8052984,1.68616803296,0,0,-0.223694,260, 0.8, 2,0,1,1024,1024,1153,1024,0,0,20,0,270.4,-5.3,0,28,3.714,3.707,0,0,0,0,4.733,106.52,46.594509693124,2.624672,6,P-GPS,
16000,2022-11-02 22:41:06,-34.9197609003889,-56.1687189692904,2.624672,2.5590552,44.035454493124,46.594509693124,4.92126,0,1.16690292448,6.0339896944,20,5,7.424,46.594509693124,2.624672,0.8052984,1.68616803296,0,0,-0.447388,259.8, 0.6, 1.7,0,1,1024,1024,1154,1024,0,0,20,0,270.4,-5.3,0,28,3.714,3.707,0,0,0,0,4.733,106.52,46.594509693124,2.624672,6,P-GPS,
16100,2022-11-02 22:41:06,-34.9197609421538,-56.1687189258119,2.624672,2.5590552,44.035454493124,46.594509693124,4.92126,0,1.18304465728,6.0540028184,20,5,7.424,46.594509693124,2.624672,0.8052984,1.68616803296,0,0,-0.447388,259.8, 0.5, 2,0,1,1024,1024,1154,1024,0,0,20,0,270.4,-5.3,0,28,3.714,3.707,0,0,0,0,4.733,106.52,46.594509693124,2.624672,6,P-GPS,
16200,2022-11-02 22:41:06,-34.9197610108856,-56.1687188929529,2.624672,2.5590552,44.035454493124,46.594509693124,4.92126,0,1.20883205968,6.0809385148,20,5,7.424,46.594509693124,2.624672,0.8052984,1.68616803296,0,0,-0.447388,259.8, 0.6, 2.1,0,1,1024,1024,1156,1024,0,0,20,0,270.4,-5.3,0,28,3.714,3.707,0,0,0,0,4.733,106.52,46.594509693124,2.624672,6,P-GPS,
16300,2022-11-02 22:41:06,-34.9197610842148,-56.1687187952586,2.952756,2.8871392,44.035454493124,46.922593693124,4.92126,0,1.23824150944,6.120571062,20,5,7.424,46.922593693124,2.952756,0.8052984,1.68616803296,0,0,-0.447388,259.9, 0.3, 2.1,0,1,1024,1024,1168,1024,0,0,22,0,270.4,-5.3,0,28,3.714,3.707,0,0,0,0,4.733,106.52,46.922593693124,2.952756,6,P-GPS,
16400,2022-11-02 22:41:07,-34.9197611073934,-56.1687187931239,2.952756,2.8871392,44.035454493124,46.922593693124,5.249344,0,1.2467192,6.1290356292,20,5,7.424,46.922593693124,2.952756,0.8052984,1.68616803296,0,0,-0.447388,259.9, 0.5, 2,0,1,1024,1024,1172,1024,0,0,22,0,270.4,-5.3,0,28,3.714,3.707,0,0,0,0,4.733,106.52,46.922593693124,2.952756,6,P-GPS,
16500,2022-11-02 22:41:07,-34.9197611199463,-56.168718827062,2.952756,2.8871392,44.035454493124,46.922593693124,5.249344,0,1.250246103,6.1401904852,20,5,7.424,46.922593693124,2.952756,0.8052984,1.68616803296,0,0,-0.447388,259.9, 0.8, 1.8,0,1,1024,1024,1187,1024,0,0,25,0,270.4,-5.3,0,28,3.714,3.707,0,0,0,0,4.733,106.52,46.922593693124,2.952756,6,P-GPS,
16600,2022-11-02 22:41:07,-34.9197611247676,-56.1687188966682,2.952756,2.8871392,44.035454493124,46.922593693124,5.249344,0,1.25015095864,6.161089436,20,5,7.424,46.922593693124,2.952756,0.8052984,1.68616803296,0,0,-0.447388,259.8, 0.8, 1.5,0,1,1024,1024,1201,1024,0,0,27,0,270.4,-5.3,0,28,3.714,3.707,0,0,0,0,4.733,106.52,46.922593693124,2.952756,6,P-GPS,
