time(millisecond),datetime(utc),latitude,longitude,height_above_takeoff(feet),height_above_ground_at_drone_location(feet),ground_elevation_at_drone_location(feet),altitude_above_seaLevel(feet),height_sonar(feet),speed(mph),distance(feet),mileage(feet),satellites,gpslevel,voltage(v),max_altitude(feet),max_ascent(feet),max_speed(mph),max_distance(feet), xSpeed(mph), ySpeed(mph), zSpeed(mph), compass_heading(degrees), pitch(degrees), roll(degrees),isPhoto,isVideo,rc_elevator,rc_aileron,rc_throttle,rc_rudder,rc_elevator(percent),rc_aileron(percent),rc_throttle(percent),rc_rudder(percent),gimbal_heading(degrees),gimbal_pitch(degrees),gimbal_roll(degrees),battery_percent,voltageCell1,voltageCell2,voltageCell3,voltageCell4,voltageCell5,voltageCell6,current(A),battery_temperature(f),altitude(feet),ascent(feet),flycStateRaw,flycState,message
57300,2022-08-15 23:28:49,0,0,0,,,3.28084E-5,0.328084,0,0,0,0,0,0,3.28084E-5,0,0,0,0,0,0,205.9, 3.1, 0.2,0,0,364,364,364,1684,-100,-100,-100,100,202.7,0,0,94,4.288,4.281,0,0,0,0,0,78.26,3.28084E-5,0,41,Motors_Started,"En vuelo. Setting new Return-To-Home altitude to 15m (49 ft). Data Recorder File Index is 72. Setting new Maximum Flight Altitude to 30m (98 ft)"
57400,2022-08-15 23:28:49,0,0,0,,,3.28084E-5,0.328084,0,0,0,0,0,0,3.28084E-5,0,0,0,0,0,0,205.9, 3.1, 0.2,0,0,364,364,364,1684,-100,-100,-100,100,202.7,0,0,94,4.288,4.281,0,0,0,0,0,78.26,3.28084E-5,0,41,Motors_Started,
57500,2022-08-15 23:28:49,0,0,0,,,3.28084E-5,0.328084,0,0,0,0,0,0,3.28084E-5,0,0,0,0,0,0,206, 3, 0.2,0,0,1024,1024,1024,1024,0,0,0,0,202.7,0,0,94,4.288,4.281,0,0,0,0,0,78.26,3.28084E-5,0,41,Motors_Started,
57600,2022-08-15 23:28:49,0,0,0,,,3.28084E-5,0.328084,0,0,0,0,0,0,3.28084E-5,0,0,0,0,0,0,206, 3.1, 0.2,0,0,1024,1024,1024,1024,0,0,0,0,202.7,0,0,94,4.288,4.281,0,0,0,0,0,78.26,3.28084E-5,0,41,Motors_Started,
57700,2022-08-15 23:28:49,0,0,0,,,3.28084E-5,0.328084,0,0,0,0,0,0,3.28084E-5,0,0,0,0,0,0,206, 3.1, 0.2,0,0,1024,1024,1024,1024,0,0,0,0,202.7,0,0,94,4.288,4.281,0,0,0,0,0,78.26,3.28084E-5,0,41,Motors_Started,
57800,2022-08-15 23:28:50,0,0,0,,,3.28084E-5,0.328084,0,0,0,0,0,0,3.28084E-5,0,0,0,0,0,0,206, 3, 0.2,0,0,1024,1024,1024,1024,0,0,0,0,202.7,0,0,94,4.288,4.281,0,0,0,0,0,78.26,3.28084E-5,0,41,Motors_Started,
57900,2022-08-15 23:28:50,0,0,0,,,3.28084E-5,0.328084,0,0,0,0,0,0,3.28084E-5,0,0,0,0,0,0,206, 3, 0.2,0,0,1024,1024,1024,1024,0,0,0,0,202.7,0,0,94,4.288,4.281,0,0,0,0,0,78.26,3.28084E-5,0,41,Motors_Started,
58000,2022-08-15 23:28:50,0,0,0,,,3.28084E-5,0.328084,0,0,0,0,0,0,3.28084E-5,0,0,0,0,0,0,206, 3.1, 0.2,0,0,1024,1024,1024,1024,0,0,0,0,202.7,0,0,94,4.288,4.281,0,0,0,0,0,78.26,3.28084E-5,0,41,Motors_Started,
58100,2022-08-15 23:28:50,0,0,0,,,3.28084E-5,0.328084,0,0,0,0,0,0,3.28084E-5,0,0,0,0,0,0,205.9, 3, 0.2,0,0,1024,1024,1024,1024,0,0,0,0,202.7,0,0,94,4.288,4.281,0,0,0,0,0,78.26,3.28084E-5,0,41,Motors_Started,
58200,2022-08-15 23:28:50,0,0,0,,,3.28084E-5,0.328084,0,0,0,0,0,0,3.28084E-5,0,0,0,0,0,0,205.9, 3, 0.2,0,0,1024,1024,1024,1024,0,0,0,0,202.7,0,0,94,4.288,4.281,0,0,0,0,0,78.26,3.28084E-5,0,41,Motors_Started,
58300,2022-08-15 23:28:50,0,0,0,,,3.28084E-5,0.328084,0,0,0,0,0,8.541,3.28084E-5,0,0,0,0,0,0,206, 3.1, 0.2,0,0,1024,1024,1024,1024,0,0,0,0,202.7,0,0,94,4.269,4.262,0,0,0,0,0.894,78.26,3.28084E-5,0,41,Motors_Started,
58400,2022-08-15 23:28:50,0,0,0,,,3.28084E-5,0.328084,0,0,0,0,0,8.541,3.28084E-5,0,0,0,0,0,0,206, 3.1, 0.2,0,0,1024,1024,1024,1024,0,0,0,0,202.7,0,0,94,4.269,4.262,0,0,0,0,0.894,78.26,3.28084E-5,0,10,Assisted_Takeoff,
58500,2022-08-15 23:28:50,0,0,0,,,3.28084E-5,0.328084,0,0,0,0,0,8.541,3.28084E-5,0,0,0,0,0,0,206, 3, 0.2,0,0,1024,1024,1024,1024,0,0,0,0,202.7,0,0,94,4.269,4.262,0,0,0,0,0.894,78.26,3.28084E-5,0,10,Assisted_Takeoff,
58600,2022-08-15 23:28:50,0,0,0,,,3.28084E-5,0.328084,0,0,0,0,0,8.541,3.28084E-5,0,0,0,0,0,0,206.2, 3.1, 0.2,0,0,1024,1024,1024,1024,0,0,0,0,202.7,0,0,94,4.269,4.262,0,0,0,0,0.894,78.26,3.28084E-5,0,10,Assisted_Takeoff,
58700,2022-08-15 23:28:50,0,0,0,,,3.28084E-5,0.328084,0,0,0,0,0,8.541,3.28084E-5,0,0,0,0,0,0,206.3, 3, 0.2,0,0,1024,1024,1038,1024,0,0,2,0,202.8,0,0,94,4.269,4.262,0,0,0,0,0.894,78.26,3.28084E-5,0,10,Assisted_Takeoff,
58800,2022-08-15 23:28:51,0,0,0,,,3.28084E-5,0.328084,0,0,0,0,0,8.541,3.28084E-5,0,0,0,0,0,0,206.4, 3, 0.2,0,0,1024,1024,1038,1024,0,0,2,0,202.9,0,0,94,4.269,4.262,0,0,0,0,0.894,78.26,3.28084E-5,0,10,Assisted_Takeoff,
58900,2022-08-15 23:28:51,0,0,0,,,3.28084E-5,0.328084,0,0,0,0,0,8.541,3.28084E-5,0,0,0,0,0,0,206.6, 3, 0.2,0,0,1024,1024,1024,1024,0,0,0,0,203.1,0,0,94,4.269,4.262,0,0,0,0,0.894,78.26,3.28084E-5,0,10,Assisted_Takeoff,
59000,2022-08-15 23:28:51,0,0,0,,,3.28084E-5,0.328084,0,0,0,0,0,8.541,3.28084E-5,0,0,0,0,0,0,206.7, 3.1, 0.2,0,0,1024,1024,1036,1024,0,0,2,0,203.2,0,0,94,4.269,4.262,0,0,0,0,0.894,78.26,3.28084E-5,0,10,Assisted_Takeoff,
59100,2022-08-15 23:28:51,0,0,0,,,3.28084E-5,0.328084,0,0,0,0,0,8.541,3.28084E-5,0,0,0,0,0,0,206.8, 3.1, 0.2,0,0,1024,1024,1117,1024,0,0,14,0,203.3,0,0,94,4.269,4.262,0,0,0,0,0.894,78.26,3.28084E-5,0,10,Assisted_Takeoff,
59200,2022-08-15 23:28:51,0,0,0,,,3.28084E-5,0.328084,0,0,0,0,0,8.541,3.28084E-5,0,0,0,0,0,0,206.9, 3.1, 0.2,0,0,1024,1024,1204,1024,0,0,27,0,203.4,0,0,94,4.269,4.262,0,0,0,0,0.894,78.26,3.28084E-5,0,10,Assisted_Takeoff,
59300,2022-08-15 23:28:51,0,0,0,,,3.28084E-5,0.328084,0,0,0,0,0,8.538,3.28084E-5,0,0,0,0,0,0,207, 3.1, 0.2,0,0,1024,1024,1177,1024,0,0,23,0,203.5,0,0,94,4.276,4.269,0,0,0,0,1.347,78.26,3.28084E-5,0,10,Assisted_Takeoff,
59400,2022-08-15 23:28:51,0,0,0,,,3.28084E-5,0.328084,0,0,0,0,0,8.538,3.28084E-5,0,0,0,0,0,0,207, 3, 0.2,0,0,1024,1024,1099,1024,0,0,11,0,203.6,0,0,94,4.276,4.269,0,0,0,0,1.347,78.26,3.28084E-5,0,10,Assisted_Takeoff,
59500,2022-08-15 23:28:51,0,0,0,,,3.28084E-5,0.328084,0,0,0,0,0,8.538,3.28084E-5,0,0,0,0,0,0,206.9, 3, 0.3,0,0,1024,1024,1085,1024,0,0,9,0,203.6,0,0,94,4.276,4.269,0,0,0,0,1.347,78.26,3.28084E-5,0,10,Assisted_Takeoff,
59600,2022-08-15 23:28:51,0,0,0,,,3.28084E-5,0.328084,0,0,0,0,0,8.538,3.28084E-5,0,0,0,0,0,0,206.8, 2.8, 0.3,0,0,1024,1024,1085,1024,0,0,9,0,203.6,0,0,94,4.276,4.269,0,0,0,0,1.347,78.26,3.28084E-5,0,10,Assisted_Takeoff,
59700,2022-08-15 23:28:51,0,0,0,,,3.28084E-5,0.328084,0,0,0,0,0,8.538,3.28084E-5,0,0,0,0,0,0,206.9, 0.3, 0.3,0,0,1024,1024,1113,1024,0,0,13,0,203.6,0,0,94,4.276,4.269,0,0,0,0,1.347,78.26,3.28084E-5,0,10,Assisted_Takeoff,
59800,2022-08-15 23:28:52,0,0,0,,,3.28084E-5,0.328084,0,0,0,0,0,8.538,3.28084E-5,0,0,0,0,0,-0.223694,207.3, -0.8, -0.1,0,0,1024,1024,1086,1024,0,0,9,0,203.7,0,0,94,4.276,4.269,0,0,0,0,1.347,78.26,3.28084E-5,0,10,Assisted_Takeoff,
59900,2022-08-15 23:28:52,0,0,0,,,3.28084E-5,0.328084,0,0,0,0,0,8.538,3.28084E-5,0,0,0,0,0,-0.447388,207.5, -0.5, -0.1,0,0,1024,1024,1024,1024,0,0,0,0,203.8,0,0,94,4.276,4.269,0,0,0,0,1.347,78.26,3.28084E-5,0,6,P-GPS,
60000,2022-08-15 23:28:52,0,0,0,,,3.28084E-5,0.328084,0,0,0,0,0,8.538,3.28084E-5,0,0,0,0,0,-0.671082,207.3, -0.3, 0.3,0,0,1024,1024,1024,1024,0,0,0,0,203.8,0,0,94,4.276,4.269,0,0,0,0,1.347,78.26,3.28084E-5,0,6,P-GPS,
60100,2022-08-15 23:28:52,0,0,0.328084,,,0.3281168084,0.656168,0,0,0,0,0,8.538,0.3281168084,0.328084,0,0,0,0,-0.894776,207.2, 0, 0.4,0,0,1024,1024,1024,1024,0,0,0,0,203.8,0,0,94,4.276,4.269,0,0,0,0,1.347,78.26,0.3281168084,0.328084,6,P-GPS,
60200,2022-08-15 23:28:52,0,0,0.328084,,,0.3281168084,0.656168,0,0,0,0,0,8.538,0.3281168084,0.328084,0,0,0,0,-0.894776,207.2, 0.4, 0.7,0,0,1024,1024,1024,1024,0,0,0,0,203.8,0,0,94,4.276,4.269,0,0,0,0,1.347,78.26,0.3281168084,0.328084,6,P-GPS,
60300,2022-08-15 23:28:52,0,0,0.328084,,,0.3281168084,0.656168,0,0,0,0,0,8.486,0.3281168084,0.328084,0,0,0,0,-0.894776,207.2, 0.1, 0.3,0,0,1024,1024,1024,1024,0,0,0,0,203.8,0,0,94,4.226,4.213,0,0,0,0,1.787,78.26,0.3281168084,0.328084,6,P-GPS,
60400,2022-08-15 23:28:52,0,0,0.656168,,,0.6562008084,0.984252,0,0,0,0,0,8.486,0.6562008084,0.656168,0,0,0,0,-0.894776,207.1, 0.1, -0.1,0,0,1024,1024,1024,1024,0,0,0,0,203.8,0,0,94,4.226,4.213,0,0,0,0,1.787,78.26,0.6562008084,0.656168,6,P-GPS,
60500,2022-08-15 23:28:52,0,0,0.656168,,,0.6562008084,0.984252,0,0,0,0,0,8.486,0.6562008084,0.656168,0,0,0,0,-0.894776,207.2, 0.2, -0.1,0,0,1024,1024,1049,1024,0,0,4,0,203.8,0,0,94,4.226,4.213,0,0,0,0,1.787,78.26,0.6562008084,0.656168,6,P-GPS,
60600,2022-08-15 23:28:52,0,0,0.656168,,,0.6562008084,0.984252,0,0,0,0,0,8.486,0.6562008084,0.656168,0,0,0,0,-0.894776,207.1, 0, -0.1,0,0,1024,1024,1049,1024,0,0,4,0,203.8,0,0,94,4.226,4.213,0,0,0,0,1.787,78.26,0.6562008084,0.656168,6,P-GPS,
60700,2022-08-15 23:28:52,0,0,0.984252,,,0.9842848084,1.312336,0,0,0,0,0,8.486,0.9842848084,0.984252,0,0,0,0,-0.894776,207.1, -0.1, -0.1,0,0,1024,1024,1024,1024,0,0,0,0,203.8,0,0,94,4.226,4.213,0,0,0,0,1.787,78.26,0.9842848084,0.984252,6,P-GPS,
60800,2022-08-15 23:28:53,0,0,0.984252,,,0.9842848084,1.312336,0,0,0,0,0,8.486,0.9842848084,0.984252,0,0,0,0,-0.671082,207.2, -0.1, 0,0,0,1024,1024,1103,1024,0,0,12,0,203.8,0,0,94,4.226,4.213,0,0,0,0,1.787,78.26,0.9842848084,0.984252,1,Atti,"Vuela con cuidado (modo Atti) Señal del GPS demasiado débil. Se ha pasado al modo Atti. La aeronave no puede hacer vuelo estacionario. Vuela con precaución (Code: 30022). Aeronave en modo Atti. No se puede hacer vuelo estacionario. Vuela con cuidado (Code: 30004)"
60900,2022-08-15 23:28:53,0,0,0.984252,,,0.9842848084,1.312336,0,0,0,0,0,8.486,0.9842848084,0.984252,0,0,0,0,-0.447388,207.2, 0, 0,0,0,1024,1024,1224,1024,0,0,30,0,203.8,0,0,94,4.226,4.213,0,0,0,0,1.787,78.26,0.9842848084,0.984252,1,Atti,"La brújula no funciona bien el GPS no tiene buena señal. Cambia a modo Atti (Code: 30020). Aeronave en modo Atti. No se puede hacer vuelo estacionario. Vuela con cuidado (Code: 30004)"
61000,2022-08-15 23:28:53,0,0,1.312336,,,1.3123688084,1.64042,0,0,0,0,0,8.486,1.3123688084,1.312336,0,0,0,0,-0.447388,207.2, 0, 0,0,0,1024,1024,1179,1024,0,0,23,0,203.8,0,0,94,4.226,4.213,0,0,0,0,1.787,78.26,1.3123688084,1.312336,1,Atti,
61100,2022-08-15 23:28:53,0,0,1.312336,,,1.3123688084,1.64042,0,0,0,0,0,8.486,1.3123688084,1.312336,0,0,0,0,-0.447388,207.2, 0, 0,0,0,1024,1024,1024,1024,0,0,0,0,203.9,0,0,94,4.226,4.213,0,0,0,0,1.787,78.26,1.3123688084,1.312336,1,Atti,
61200,2022-08-15 23:28:53,0,0,1.312336,,,1.3123688084,1.64042,0,0,0,0,0,8.486,1.3123688084,1.312336,0,0,0,0,-0.447388,207.2, 0, -0.1,0,0,1024,1024,1024,1024,0,0,0,0,203.9,0,0,94,4.226,4.213,0,0,0,0,1.787,78.26,1.3123688084,1.312336,6,P-GPS,"Señal débil del GPS. Vuelo estacionario inestable. Vuela con cuidado (Code: 30002)"
61300,2022-08-15 23:28:53,0,0,1.64042,,,1.6404528084,1.64042,0,0,0,0,0,8.398,1.6404528084,1.64042,0,0,0,0,-0.447388,207.2, 0, 0,0,0,1024,1024,1024,1024,0,0,0,0,203.9,0,0,94,4.189,4.183,0,0,0,0,4.073,78.26,1.6404528084,1.64042,6,P-GPS,
61400,2022-08-15 23:28:53,0,0,1.64042,,,1.6404528084,1.64042,0,0,0,0,0,8.398,1.6404528084,1.64042,0,0,0,0,-0.223694,207.2, 0, 0,0,0,1024,1024,1024,1024,0,0,0,0,203.9,0,0,94,4.189,4.183,0,0,0,0,4.073,78.26,1.6404528084,1.64042,6,P-GPS,
61500,2022-08-15 23:28:53,0,0,1.64042,,,1.6404528084,1.968504,0,0,0,0,0,8.398,1.6404528084,1.64042,0,0,0,0,0,207.2, 0, 0,0,0,1024,1024,1024,1024,0,0,0,0,203.9,0,0,94,4.189,4.183,0,0,0,0,4.073,78.26,1.6404528084,1.64042,6,P-GPS,
61600,2022-08-15 23:28:53,0,0,1.64042,,,1.6404528084,1.968504,0,0,0,0,0,8.398,1.6404528084,1.64042,0,0,0,0,0,207.2, 0, 0.1,0,0,1024,1024,1024,972,0,0,0,-8,203.9,0,0,94,4.189,4.183,0,0,0,0,4.073,78.26,1.6404528084,1.64042,6,P-GPS,
61700,2022-08-15 23:28:53,0,0,1.64042,,,1.6404528084,1.968504,0,0,0,0,0,8.398,1.6404528084,1.64042,0,0,0,0,0,207.2, 0.1, 0.1,0,0,1024,1024,1024,364,0,0,0,-100,203.8,0,0,94,4.189,4.183,0,0,0,0,4.073,78.26,1.6404528084,1.64042,6,P-GPS,
61800,2022-08-15 23:28:54,0,0,1.64042,,,1.6404528084,1.968504,0,0,0,0,0,8.398,1.6404528084,1.64042,0,0,0,0,0,206.9, 0, 0,0,0,1024,1024,1024,364,0,0,0,-100,202.2,0,0,94,4.189,4.183,0,0,0,0,4.073,78.26,1.6404528084,1.64042,6,P-GPS,
61900,2022-08-15 23:28:54,0,0,1.64042,,,1.6404528084,1.968504,0,0,0,0,0,8.398,1.6404528084,1.64042,0,0,0,0,0,204.1, 0.1, 0,0,0,1024,1024,1024,406,0,0,0,-94,198,0,0,94,4.189,4.183,0,0,0,0,4.073,78.26,1.6404528084,1.64042,6,P-GPS,
62000,2022-08-15 23:28:54,0,0,1.64042,,,1.6404528084,1.968504,0,0,0,0,0,8.398,1.6404528084,1.64042,0,0,0,0,0,199.7, 0, -0.1,0,0,1024,1024,1024,1024,0,0,0,0,193.3,0,0,94,4.189,4.183,0,0,0,0,4.073,78.26,1.6404528084,1.64042,6,P-GPS,
62100,2022-08-15 23:28:54,0,0,1.64042,,,1.6404528084,1.968504,0,0,0,0,0,8.398,1.6404528084,1.64042,0,0,0,0,0,195.4, -0.1, -0.4,0,0,1024,1024,1024,1013,0,0,0,-2,190.2,0,0,94,4.189,4.183,0,0,0,0,4.073,78.26,1.6404528084,1.64042,6,P-GPS,
62200,2022-08-15 23:28:54,0,0,1.64042,,,1.6404528084,1.968504,0,0,0,0,0,8.398,1.6404528084,1.64042,0,0,0,0,0,193.4, -0.1, -0.5,0,0,1024,1024,1024,364,0,0,0,-100,189,0,0,94,4.189,4.183,0,0,0,0,4.073,78.26,1.6404528084,1.64042,6,P-GPS,
62300,2022-08-15 23:28:54,0,0,1.64042,,,1.6404528084,1.968504,0,0,0,0,0,8.398,1.6404528084,1.64042,0,0,0,0,0,192.4, -0.1, -0.3,0,0,1024,1024,1024,364,0,0,0,-100,188.3,0,0,94,4.189,4.183,0,0,0,0,4.073,78.26,1.6404528084,1.64042,6,P-GPS,
62400,2022-08-15 23:28:54,0,0,1.64042,,,1.6404528084,1.968504,0,0,0,0,0,8.396,1.6404528084,1.64042,0,0,0,0,0,191, 0, 0,0,0,1024,1024,1024,364,0,0,0,-100,185.4,0,0,94,4.198,4.189,0,0,0,0,3.961,78.26,1.6404528084,1.64042,6,P-GPS,
62500,2022-08-15 23:28:54,0,0,1.64042,,,1.6404528084,1.968504,0,0,0,0,0,8.396,1.6404528084,1.64042,0,0,0,0,0,187.1, 0, -0.1,0,0,1024,1024,1024,364,0,0,0,-100,180.9,0,0,94,4.198,4.189,0,0,0,0,3.961,78.26,1.6404528084,1.64042,6,P-GPS,
62600,2022-08-15 23:28:54,0,0,1.64042,,,1.6404528084,1.968504,0,0,0,0,0,8.396,1.6404528084,1.64042,0,0,0,0,0,182.6, 0, -0.2,0,0,1024,1024,1024,364,0,0,0,-100,176,0,0,94,4.198,4.189,0,0,0,0,3.961,78.26,1.6404528084,1.64042,6,P-GPS,
62700,2022-08-15 23:28:54,0,0,1.64042,,,1.6404528084,1.968504,0,0,0,0,0,8.396,1.6404528084,1.64042,0,0,0,0,0,177.9, 0, 0,0,0,1024,1024,1024,364,0,0,0,-100,171.1,0,0,94,4.198,4.189,0,0,0,0,3.961,78.26,1.6404528084,1.64042,6,P-GPS,
62800,2022-08-15 23:28:55,0,0,1.64042,,,1.6404528084,1.968504,0,0,0,0,0,8.396,1.6404528084,1.64042,0,0,0,0,0,173.2, 0, 0,0,0,1024,1024,1024,364,0,0,0,-100,166.5,0,0,94,4.198,4.189,0,0,0,0,3.961,78.26,1.6404528084,1.64042,6,P-GPS,
62900,2022-08-15 23:28:55,0,0,1.64042,,,1.6404528084,1.968504,0,0,0,0,0,8.396,1.6404528084,1.64042,0,0,0,0,0,168.4, 0, -0.1,0,0,1024,1024,1024,364,0,0,0,-100,161.7,0,0,94,4.198,4.189,0,0,0,0,3.961,78.26,1.6404528084,1.64042,6,P-GPS,
63000,2022-08-15 23:28:55,0,0,1.64042,,,1.6404528084,1.968504,0,0,0,0,0,8.396,1.6404528084,1.64042,0,0,0,0,0,163.6, 0, -0.1,0,0,1024,1024,1024,364,0,0,0,-100,156.9,0,0,94,4.198,4.189,0,0,0,0,3.961,78.26,1.6404528084,1.64042,6,P-GPS,
63100,2022-08-15 23:28:55,0,0,1.64042,,,1.6404528084,1.968504,0,0,0,0,0,8.396,1.6404528084,1.64042,0,0,0,0,0,158.7, 0, 0,0,0,1024,1024,1024,364,0,0,0,-100,152.1,0,0,94,4.198,4.189,0,0,0,0,3.961,78.26,1.6404528084,1.64042,6,P-GPS,
63200,2022-08-15 23:28:55,0,0,1.64042,,,1.6404528084,1.968504,0,0,0,0,0,8.396,1.6404528084,1.64042,0,0,0,0,0,153.8, 0, 0,0,0,1024,1024,1024,364,0,0,0,-100,147.3,0,0,94,4.198,4.189,0,0,0,0,3.961,78.26,1.6404528084,1.64042,6,P-GPS,
63300,2022-08-15 23:28:55,0,0,1.64042,,,1.6404528084,1.968504,0,0,0,0,0,8.396,1.6404528084,1.64042,0,0,0,0,0,149, 0, 0.1,0,0,1024,1024,1024,364,0,0,0,-100,142.5,0,0,94,4.198,4.189,0,0,0,0,3.961,78.26,1.6404528084,1.64042,6,P-GPS,
63400,2022-08-15 23:28:55,0,0,1.64042,,,1.6404528084,1.968504,0,0,0,0,0,8.382,1.6404528084,1.64042,0,0,0,0,0,144.3, 0.1, 0,0,0,1024,1024,1024,364,0,0,0,-100,137.7,0,0,94,4.193,4.185,0,0,0,0,4.096,78.44,1.6404528084,1.64042,6,P-GPS,
63500,2022-08-15 23:28:55,0,0,1.64042,,,1.6404528084,1.968504,0,0,0,0,0,8.382,1.6404528084,1.64042,0,0,0,0,0,139.5, 0.1, 0.1,0,0,1024,1024,1024,364,0,0,0,-100,132.9,0,0,94,4.193,4.185,0,0,0,0,4.096,78.44,1.6404528084,1.64042,6,P-GPS,
63600,2022-08-15 23:28:55,0,0,1.64042,,,1.6404528084,1.968504,0,0,0,0,0,8.382,1.6404528084,1.64042,0,0,0,0,0,134.8, 0.2, 0.2,0,0,1024,1024,1024,364,0,0,0,-100,128.1,0,0,94,4.193,4.185,0,0,0,0,4.096,78.44,1.6404528084,1.64042,6,P-GPS,
63700,2022-08-15 23:28:55,0,0,1.64042,,,1.6404528084,1.968504,0,0,0,0,0,8.382,1.6404528084,1.64042,0,0,0,0,0,130, 0.2, 0.2,0,0,1024,1024,1024,364,0,0,0,-100,123.3,0,0,94,4.193,4.185,0,0,0,0,4.096,78.44,1.6404528084,1.64042,6,P-GPS,
63800,2022-08-15 23:28:56,0,0,1.64042,,,1.6404528084,1.968504,0,0,0,0,0,8.382,1.6404528084,1.64042,0,0,0,0,0,125.1, 0.2, 0.3,0,0,1024,1024,1024,364,0,0,0,-100,118.5,0,0,94,4.193,4.185,0,0,0,0,4.096,78.44,1.6404528084,1.64042,6,P-GPS,"En vuelo"
63900,2022-08-15 23:28:56,0,0,1.64042,,,1.6404528084,1.968504,0,0,0,0,0,8.382,1.6404528084,1.64042,0,0,0,0,0,120.2, 0.1, 0.2,0,0,1024,1024,1024,364,0,0,0,-100,113.7,0,0,94,4.193,4.185,0,0,0,0,4.096,78.44,1.6404528084,1.64042,6,P-GPS,
64000,2022-08-15 23:28:56,0,0,1.64042,,,1.6404528084,1.968504,0,0,0,0,0,8.382,1.6404528084,1.64042,0,0,0,0,0,115.4, 0.1, 0.3,0,0,1024,1024,1024,364,0,0,0,-100,108.9,0,0,94,4.193,4.185,0,0,0,0,4.096,78.44,1.6404528084,1.64042,6,P-GPS,
64100,2022-08-15 23:28:56,0,0,1.64042,,,1.6404528084,1.968504,0,0,0,0,0,8.382,1.6404528084,1.64042,0,0,0,0,0,110.5, 0.4, 0.5,0,0,1024,1024,1024,364,0,0,0,-100,104.1,0,0,94,4.193,4.185,0,0,0,0,4.096,78.44,1.6404528084,1.64042,6,P-GPS,
64200,2022-08-15 23:28:56,0,0,1.64042,,,1.6404528084,1.968504,0,0,0,0,0,8.382,1.6404528084,1.64042,0,0,0,0,0,105.7, 0.3, 0.6,0,0,1024,1024,1024,364,0,0,0,-100,99.3,0,0,94,4.193,4.185,0,0,0,0,4.096,78.44,1.6404528084,1.64042,6,P-GPS,
64300,2022-08-15 23:28:56,0,0,1.64042,,,1.6404528084,1.968504,0,0,0,0,0,8.382,1.6404528084,1.64042,0,0,0,0,0,100.9, 0.2, 0.4,0,0,1024,1024,1024,364,0,0,0,-100,94.5,0,0,94,4.193,4.185,0,0,0,0,4.096,78.44,1.6404528084,1.64042,6,P-GPS,
64400,2022-08-15 23:28:56,0,0,1.64042,,,1.6404528084,1.968504,0,0,0,0,0,8.375,1.6404528084,1.64042,0,0,0,0,0,96.2, 0.3, 0.3,0,0,1024,1024,1024,364,0,0,0,-100,89.7,0,0,94,4.191,4.182,0,0,0,0,4.104,78.44,1.6404528084,1.64042,6,P-GPS,
64500,2022-08-15 23:28:56,0,0,1.64042,,,1.6404528084,1.968504,0,0,0,0,0,8.375,1.6404528084,1.64042,0,0,0,0,0,91.4, 0.4, 0.3,0,0,1024,1024,1024,364,0,0,0,-100,84.9,0,0,94,4.191,4.182,0,0,0,0,4.104,78.44,1.6404528084,1.64042,6,P-GPS,
64600,2022-08-15 23:28:56,0,0,1.64042,,,1.6404528084,1.968504,0,0,0,0,0,8.375,1.6404528084,1.64042,0,0,0,0,0,86.7, 0.4, 0.2,0,0,1024,1024,1024,364,0,0,0,-100,80.1,0,0,94,4.191,4.182,0,0,0,0,4.104,78.44,1.6404528084,1.64042,6,P-GPS,
64700,2022-08-15 23:28:56,0,0,1.64042,,,1.6404528084,1.64042,0,0,0,0,0,8.375,1.6404528084,1.64042,0,0,0,0,0,81.9, 0.3, 0,0,0,1024,1024,1024,364,0,0,0,-100,75.3,0,0,94,4.191,4.182,0,0,0,0,4.104,78.44,1.6404528084,1.64042,6,P-GPS,
64800,2022-08-15 23:28:57,0,0,1.64042,,,1.6404528084,1.64042,0,0,0,0,0,8.375,1.6404528084,1.64042,0,0,0,0,0,77.2, 0.4, 0,0,0,1024,1024,1024,364,0,0,0,-100,70.5,0,0,94,4.191,4.182,0,0,0,0,4.104,78.44,1.6404528084,1.64042,6,P-GPS,
64900,2022-08-15 23:28:57,0,0,1.64042,,,1.6404528084,1.64042,0,0,0,0,0,8.375,1.6404528084,1.64042,0,0,0,0,0,72.4, 0.6, -0.2,0,0,1024,1024,1024,364,0,0,0,-100,65.7,0,0,94,4.191,4.182,0,0,0,0,4.104,78.44,1.6404528084,1.64042,6,P-GPS,
65000,2022-08-15 23:28:57,0,0,1.64042,,,1.6404528084,1.64042,0,0,0,0,0,8.375,1.6404528084,1.64042,0,0,0,0,0,67.6, 0.5, -0.1,0,0,1024,1024,1024,364,0,0,0,-100,60.9,0,0,94,4.191,4.182,0,0,0,0,4.104,78.44,1.6404528084,1.64042,6,P-GPS,
65100,2022-08-15 23:28:57,0,0,1.64042,,,1.6404528084,1.64042,0,0,0,0,0,8.375,1.6404528084,1.64042,0,0,0,0,0,62.8, 0.6, 0,0,0,1024,1024,1024,364,0,0,0,-100,56.1,0,0,94,4.191,4.182,0,0,0,0,4.104,78.44,1.6404528084,1.64042,6,P-GPS,
65200,2022-08-15 23:28:57,0,0,1.64042,,,1.6404528084,1.64042,0,0,0,0,0,8.375,1.6404528084,1.64042,0,0,0,0,0,57.9, 0.4, -0.1,0,0,1024,1024,1024,364,0,0,0,-100,51.3,0,0,94,4.191,4.182,0,0,0,0,4.104,78.44,1.6404528084,1.64042,6,P-GPS,
65300,2022-08-15 23:28:57,0,0,1.64042,,,1.6404528084,1.64042,0,0,0,0,0,8.375,1.6404528084,1.64042,0,0,0,0,0,53.1, 0.5, -0.2,0,0,1024,1024,1024,364,0,0,0,-100,46.5,0,0,94,4.191,4.182,0,0,0,0,4.104,78.44,1.6404528084,1.64042,6,P-GPS,
65400,2022-08-15 23:28:57,0,0,1.64042,,,1.6404528084,1.64042,0,0,0,0,0,8.371,1.6404528084,1.64042,0,0,0,0,0,48.3, 0.4, 0,0,0,1024,1024,1024,364,0,0,0,-100,41.7,0,0,94,4.188,4.178,0,0,0,0,4.107,78.62,1.6404528084,1.64042,6,P-GPS,
65500,2022-08-15 23:28:57,0,0,1.64042,,,1.6404528084,1.64042,0,0,0,0,0,8.371,1.6404528084,1.64042,0,0,0,0,0,43.5, 0.5, 0.1,0,0,1024,1024,1024,364,0,0,0,-100,36.9,0,0,94,4.188,4.178,0,0,0,0,4.107,78.62,1.6404528084,1.64042,6,P-GPS,
65600,2022-08-15 23:28:57,0,0,1.64042,,,1.6404528084,1.64042,0,0,0,0,0,8.371,1.6404528084,1.64042,0,0,0,0,0,38.7, 0.5, 0,0,0,1024,1024,1024,491,0,0,0,-81,32.1,0,0,94,4.188,4.178,0,0,0,0,4.107,78.62,1.6404528084,1.64042,6,P-GPS,
65700,2022-08-15 23:28:57,0,0,1.64042,,,1.6404528084,1.64042,0,0,0,0,0,8.371,1.6404528084,1.64042,0,0,0,0,0,33.8, 0.5, 0,0,0,1024,1024,1024,900,0,0,0,-19,27.3,0,0,94,4.188,4.178,0,0,0,0,4.107,78.62,1.6404528084,1.64042,6,P-GPS,
65800,2022-08-15 23:28:58,0,0,1.64042,,,1.6404528084,1.64042,0,0,0,0,0,8.371,1.6404528084,1.64042,0,0,0,0,0,29.2, 0.5, -0.2,0,0,1024,1024,1024,900,0,0,0,-19,23.3,0,0,94,4.188,4.178,0,0,0,0,4.107,78.62,1.6404528084,1.64042,6,P-GPS,
65900,2022-08-15 23:28:58,0,0,1.64042,,,1.6404528084,1.64042,0,0,0,0,0,8.371,1.6404528084,1.64042,0,0,0,0,0,26.2, 0.5, -0.3,0,0,1024,1024,1024,1024,0,0,0,0,21.7,0,0,94,4.188,4.178,0,0,0,0,4.107,78.62,1.6404528084,1.64042,6,P-GPS,
66000,2022-08-15 23:28:58,0,0,1.64042,,,1.6404528084,1.64042,0,0,0,0,0,8.371,1.6404528084,1.64042,0,0,0,0,0,25.2, 0.7, -0.1,0,0,1024,1024,1024,1024,0,0,0,0,21.1,0,0,94,4.188,4.178,0,0,0,0,4.107,78.62,1.6404528084,1.64042,6,P-GPS,
66100,2022-08-15 23:28:58,0,0,1.64042,,,1.6404528084,1.64042,0,0,0,0,0,8.371,1.6404528084,1.64042,0,0,0,0,0,24.7, 0.4, 0,0,0,1024,1024,1024,1024,0,0,0,0,21,0,0,94,4.188,4.178,0,0,0,0,4.107,78.62,1.6404528084,1.64042,6,P-GPS,
66200,2022-08-15 23:28:58,0,0,1.312336,,,1.3123688084,1.64042,0,0,0,0,0,8.371,1.6404528084,1.64042,0,0,0,0,0,24.5, 0.4, 0,0,0,1024,1024,1024,1024,0,0,0,0,21,0,0,94,4.188,4.178,0,0,0,0,4.107,78.62,1.3123688084,1.312336,6,P-GPS,
66300,2022-08-15 23:28:58,0,0,1.312336,,,1.3123688084,1.64042,0,0,0,0,0,8.371,1.6404528084,1.64042,0,0,0,0,0,24.4, 0.6, 0,0,0,1024,1024,1024,1024,0,0,0,0,21,0,0,94,4.188,4.178,0,0,0,0,4.107,78.62,1.3123688084,1.312336,6,P-GPS,
66400,2022-08-15 23:28:58,0,0,1.312336,,,1.3123688084,1.64042,0,0,0,0,0,8.367,1.6404528084,1.64042,0,0,0,0,0,24.4, 0.5, -0.1,0,0,1024,1024,1024,1024,0,0,0,0,21,0,0,94,4.185,4.176,0,0,0,0,4.123,78.62,1.3123688084,1.312336,6,P-GPS,
66500,2022-08-15 23:28:58,0,0,1.312336,,,1.3123688084,1.64042,0,0,0,0,0,8.367,1.6404528084,1.64042,0,0,0,0,0,24.4, 0.5, -0.1,0,0,1024,1024,1024,1024,0,0,0,0,21,0,0,94,4.185,4.176,0,0,0,0,4.123,78.62,1.3123688084,1.312336,6,P-GPS,
66600,2022-08-15 23:28:58,0,0,1.312336,,,1.3123688084,1.64042,0,0,0,0,0,8.367,1.6404528084,1.64042,0,0,0,0,0,24.3, 0.5, 0.1,0,0,1024,1024,1024,1024,0,0,0,0,21,0,0,94,4.185,4.176,0,0,0,0,4.123,78.62,1.3123688084,1.312336,6,P-GPS,
66700,2022-08-15 23:28:58,0,0,1.312336,,,1.3123688084,1.64042,0,0,0,0,0,8.367,1.6404528084,1.64042,0,0,0,0,0,24.3, 0.6, 0.3,0,0,1024,1024,1024,1548,0,0,0,79,21,0,0,94,4.185,4.176,0,0,0,0,4.123,78.62,1.3123688084,1.312336,6,P-GPS,
66800,2022-08-15 23:28:59,0,0,1.312336,,,1.3123688084,1.64042,0,0,0,0,0,8.367,1.6404528084,1.64042,0,0,0,0,0,24.2, 0.8, 0.4,0,0,1024,1024,1024,1684,0,0,0,100,21,0,0,94,4.185,4.176,0,0,0,0,4.123,78.62,1.3123688084,1.312336,6,P-GPS,
66900,2022-08-15 23:28:59,0,0,1.312336,,,1.3123688084,1.64042,0,0,0,0,0,8.367,1.6404528084,1.64042,0,0,0,0,0,24.6, 0.6, 0.3,0,0,1024,1024,1024,1684,0,0,0,100,22.6,0,0,94,4.185,4.176,0,0,0,0,4.123,78.62,1.3123688084,1.312336,6,P-GPS,
67000,2022-08-15 23:28:59,0,0,1.312336,,,1.3123688084,1.64042,0,0,0,0,0,8.367,1.6404528084,1.64042,0,0,0,0,0,27.3, 0.5, 0.6,0,0,1024,1024,1024,1684,0,0,0,100,26.5,0,0,94,4.185,4.176,0,0,0,0,4.123,78.62,1.3123688084,1.312336,6,P-GPS,
67100,2022-08-15 23:28:59,0,0,1.312336,,,1.3123688084,1.64042,0,0,0,0,0,8.367,1.6404528084,1.64042,0,0,0,0,0,31.6, 0.3, 1,0,0,1024,1024,1024,1684,0,0,0,100,31.2,0,0,94,4.185,4.176,0,0,0,0,4.123,78.62,1.3123688084,1.312336,6,P-GPS,
67200,2022-08-15 23:28:59,0,0,1.312336,,,1.3123688084,1.64042,0,0,0,0,0,8.367,1.6404528084,1.64042,0,0,0,0,0,36.2, 0.4, 1.1,0,0,1024,1024,1024,1684,0,0,0,100,35.9,0,0,94,4.185,4.176,0,0,0,0,4.123,78.62,1.3123688084,1.312336,6,P-GPS,
67300,2022-08-15 23:28:59,0,0,1.312336,,,1.3123688084,1.64042,0,0,0,0,0,8.367,1.6404528084,1.64042,0,0,0,0,0,40.9, 0.4, 0.9,0,0,1024,1024,1024,1684,0,0,0,100,40.7,0,0,94,4.185,4.176,0,0,0,0,4.123,78.62,1.3123688084,1.312336,6,P-GPS,
67400,2022-08-15 23:28:59,0,0,1.312336,,,1.3123688084,1.64042,0,0,0,0,0,8.367,1.6404528084,1.64042,0,0,0,0,0,45.7, 0.3, 1.1,0,0,1024,1024,1024,1684,0,0,0,100,45.6,0,0,94,4.185,4.176,0,0,0,0,4.123,78.62,1.3123688084,1.312336,6,P-GPS,
67500,2022-08-15 23:28:59,0,0,1.312336,,,1.3123688084,1.64042,0,0,0,0,0,8.357,1.6404528084,1.64042,0,0,0,0,0,50.4, 0.2, 1.1,0,0,1024,1024,1024,1684,0,0,0,100,50.4,0,0,94,4.182,4.173,0,0,0,0,4.162,78.62,1.3123688084,1.312336,6,P-GPS,
67600,2022-08-15 23:28:59,0,0,1.312336,,,1.3123688084,1.64042,0,0,0,0,0,8.357,1.6404528084,1.64042,0,0,0,0,0,55.1, 0.3, 0.9,0,0,1024,1024,1024,1684,0,0,0,100,55.2,0,0,94,4.182,4.173,0,0,0,0,4.162,78.62,1.3123688084,1.312336,6,P-GPS,
67700,2022-08-15 23:28:59,0,0,1.312336,,,1.3123688084,1.64042,0,0,0,0,0,8.357,1.6404528084,1.64042,0,0,0,0,0,59.9, 0.1, 0.7,0,0,1024,1024,1024,1684,0,0,0,100,60,0,0,94,4.182,4.173,0,0,0,0,4.162,78.62,1.3123688084,1.312336,6,P-GPS,
67800,2022-08-15 23:29:00,0,0,1.312336,,,1.3123688084,1.64042,0,0,0,0,0,8.357,1.6404528084,1.64042,0,0,0,0,0,64.8, 0.1, 0.6,0,0,1024,1024,1024,1684,0,0,0,100,64.8,0,0,94,4.182,4.173,0,0,0,0,4.162,78.62,1.3123688084,1.312336,6,P-GPS,
67900,2022-08-15 23:29:00,0,0,1.312336,,,1.3123688084,1.64042,0,0,0,0,0,8.357,1.6404528084,1.64042,0,0,0,0,0,69.5, 0.1, 0.3,0,0,1024,1024,1024,1684,0,0,0,100,69.6,0,0,94,4.182,4.173,0,0,0,0,4.162,78.62,1.3123688084,1.312336,6,P-GPS,
68000,2022-08-15 23:29:00,0,0,1.312336,,,1.3123688084,1.64042,0,0,0,0,0,8.357,1.6404528084,1.64042,0,0,0,0,0,74.4, 0.4, 0.3,0,0,1024,1024,1024,1684,0,0,0,100,74.4,0,0,94,4.182,4.173,0,0,0,0,4.162,78.62,1.3123688084,1.312336,6,P-GPS,
68100,2022-08-15 23:29:00,0,0,1.312336,,,1.3123688084,1.64042,0,0,0,0,0,8.357,1.6404528084,1.64042,0,0,0,0,0,79.1, 0.4, 0.3,0,0,1024,1024,1024,1684,0,0,0,100,79.2,0,0,94,4.182,4.173,0,0,0,0,4.162,78.62,1.3123688084,1.312336,6,P-GPS,
68200,2022-08-15 23:29:00,0,0,1.312336,,,1.3123688084,1.64042,0,0,0,0,0,8.357,1.6404528084,1.64042,0,0,0,0,0,83.9, 0.2, 0.4,0,0,1024,1024,1024,1684,0,0,0,100,84,0,0,94,4.182,4.173,0,0,0,0,4.162,78.62,1.3123688084,1.312336,6,P-GPS,
68300,2022-08-15 23:29:00,0,0,1.312336,,,1.3123688084,1.64042,0,0,0,0,0,8.357,1.6404528084,1.64042,0,0,0,0,0,88.6, 0.1, 0.5,0,0,1024,1024,1024,1684,0,0,0,100,88.8,0,0,94,4.182,4.173,0,0,0,0,4.162,78.62,1.3123688084,1.312336,6,P-GPS,
68400,2022-08-15 23:29:00,0,0,1.312336,,,1.3123688084,1.64042,0,0,0,0,0,8.357,1.6404528084,1.64042,0,0,0,0,0,93.4, 0.2, 0.5,0,0,1024,1024,1024,1684,0,0,0,100,93.6,0,0,94,4.182,4.173,0,0,0,0,4.162,78.62,1.3123688084,1.312336,6,P-GPS,
68500,2022-08-15 23:29:00,0,0,1.312336,,,1.3123688084,1.64042,0,0,0,0,0,8.355,1.6404528084,1.64042,0,0,0,0,0,98.2, 0.2, 0.5,0,0,1024,1024,1024,1684,0,0,0,100,98.4,0,0,93,4.182,4.173,0,0,0,0,4.165,78.62,1.3123688084,1.312336,6,P-GPS,
68600,2022-08-15 23:29:00,0,0,1.312336,,,1.3123688084,1.64042,0,0,0,0,0,8.355,1.6404528084,1.64042,0,0,0,0,0,102.9, 0.2, 0.3,0,0,1024,1024,1024,1684,0,0,0,100,103.2,0,0,93,4.182,4.173,0,0,0,0,4.165,78.62,1.3123688084,1.312336,6,P-GPS,
68700,2022-08-15 23:29:00,0,0,1.312336,,,1.3123688084,1.64042,0,0,0,0,0,8.355,1.6404528084,1.64042,0,0,0,0,0,107.8, 0.1, 0.7,0,0,1024,1024,1024,1684,0,0,0,100,108,0,0,93,4.182,4.173,0,0,0,0,4.165,78.62,1.3123688084,1.312336,6,P-GPS,
68800,2022-08-15 23:29:01,0,0,1.312336,,,1.3123688084,1.64042,0,0,0,0,0,8.355,1.6404528084,1.64042,0,0,0,0,0,112.7, 0.2, 0.9,0,0,1024,1024,1024,1684,0,0,0,100,112.8,0,0,93,4.182,4.173,0,0,0,0,4.165,78.62,1.3123688084,1.312336,6,P-GPS,
68900,2022-08-15 23:29:01,0,0,1.312336,,,1.3123688084,1.64042,0,0,0,0,0,8.355,1.6404528084,1.64042,0,0,0,0,0,117.5, 0.2, 0.8,0,0,1024,1024,1024,1684,0,0,0,100,117.6,0,0,93,4.182,4.173,0,0,0,0,4.165,78.62,1.3123688084,1.312336,6,P-GPS,
69000,2022-08-15 23:29:01,0,0,1.312336,,,1.3123688084,1.64042,0,0,0,0,0,8.355,1.6404528084,1.64042,0,0,0,0,0,122.2, 0.1, 0.6,0,0,1024,1024,1024,1684,0,0,0,100,122.4,0,0,93,4.182,4.173,0,0,0,0,4.165,78.62,1.3123688084,1.312336,6,P-GPS,
69100,2022-08-15 23:29:01,0,0,1.312336,,,1.3123688084,1.64042,0,0,0,0,0,8.355,1.6404528084,1.64042,0,0,0,0,0,127, 0.1, 0.1,0,0,1024,1024,1024,1684,0,0,0,100,127.2,0,0,93,4.182,4.173,0,0,0,0,4.165,78.62,1.3123688084,1.312336,6,P-GPS,
69200,2022-08-15 23:29:01,0,0,1.312336,,,1.3123688084,1.64042,0,0,0,0,0,8.355,1.6404528084,1.64042,0,0,0,0,0,131.8, 0, -0.3,0,0,1024,1024,1024,1684,0,0,0,100,132,0,0,93,4.182,4.173,0,0,0,0,4.165,78.62,1.3123688084,1.312336,6,P-GPS,
69300,2022-08-15 23:29:01,0,0,1.312336,,,1.3123688084,1.64042,0,0,0,0,0,8.355,1.6404528084,1.64042,0,0,0,0,0,136.6, 0.2, 0,0,0,1024,1024,1024,1684,0,0,0,100,136.8,0,0,93,4.182,4.173,0,0,0,0,4.165,78.62,1.3123688084,1.312336,6,P-GPS,
69400,2022-08-15 23:29:01,0,0,1.312336,,,1.3123688084,1.64042,0,0,0,0,0,8.355,1.6404528084,1.64042,0,0,0,0,0,141.4, 0.4, 0,0,0,1024,1024,1024,1684,0,0,0,100,141.6,0,0,93,4.182,4.173,0,0,0,0,4.165,78.62,1.3123688084,1.312336,6,P-GPS,
69500,2022-08-15 23:29:01,0,0,1.312336,,,1.3123688084,1.64042,0,0,0,0,0,8.355,1.6404528084,1.64042,0,0,0,0,0,146.2, 0.5, 0.2,0,0,1024,1024,1024,1684,0,0,0,100,146.4,0,0,93,4.18,4.17,0,0,0,0,4.165,78.62,1.3123688084,1.312336,6,P-GPS,
69600,2022-08-15 23:29:01,0,0,1.312336,,,1.3123688084,1.64042,0,0,0,0,0,8.355,1.6404528084,1.64042,0,0,0,0,0,150.9, 0.4, 0.4,0,0,1024,1024,1024,1684,0,0,0,100,151.2,0,0,93,4.18,4.17,0,0,0,0,4.165,78.62,1.3123688084,1.312336,6,P-GPS,
69700,2022-08-15 23:29:01,0,0,1.312336,,,1.3123688084,1.64042,0,0,0,0,0,8.355,1.6404528084,1.64042,0,0,0,0,0,155.7, 0.3, 0.2,0,0,1024,1024,1024,1684,0,0,0,100,156,0,0,93,4.18,4.17,0,0,0,0,4.165,78.62,1.3123688084,1.312336,6,P-GPS,
69800,2022-08-15 23:29:02,0,0,1.312336,,,1.3123688084,1.64042,0,0,0,0,0,8.355,1.6404528084,1.64042,0,0,0,0,0,160.4, 0.2, 0.1,0,0,1024,1024,1024,1684,0,0,0,100,160.8,0,0,93,4.18,4.17,0,0,0,0,4.165,78.62,1.3123688084,1.312336,6,P-GPS,
69900,2022-08-15 23:29:02,0,0,1.312336,,,1.3123688084,1.64042,0,0,0,0,0,8.355,1.6404528084,1.64042,0,0,0,0,0,165.2, 0, 0.1,0,0,1024,1024,1024,1684,0,0,0,100,165.6,0,0,93,4.18,4.17,0,0,0,0,4.165,78.62,1.3123688084,1.312336,6,P-GPS,
70000,2022-08-15 23:29:02,0,0,1.312336,,,1.3123688084,1.64042,0,0,0,0,0,8.355,1.6404528084,1.64042,0,0,0,0,0,170.1, 0, 0.4,0,0,1024,1024,1024,1684,0,0,0,100,170.4,0,0,93,4.18,4.17,0,0,0,0,4.165,78.62,1.3123688084,1.312336,6,P-GPS,
70100,2022-08-15 23:29:02,0,0,1.312336,,,1.3123688084,1.64042,0,0,0,0,0,8.355,1.6404528084,1.64042,0,0,0,0,0,174.9, 0, 0.3,0,0,1024,1024,1024,1024,0,0,0,0,175.2,0,0,93,4.18,4.17,0,0,0,0,4.165,78.62,1.3123688084,1.312336,6,P-GPS,
70200,2022-08-15 23:29:02,0,0,1.312336,,,1.3123688084,1.64042,0,0,0,0,0,8.355,1.6404528084,1.64042,0,0,0,0,0,179.8, 0, 0,0,0,1024,1024,1024,1024,0,0,0,0,179.9,0,0,93,4.18,4.17,0,0,0,0,4.165,78.62,1.3123688084,1.312336,6,P-GPS,
70300,2022-08-15 23:29:02,0,0,1.312336,,,1.3123688084,1.64042,0,0,0,0,0,8.355,1.6404528084,1.64042,0,0,0,0,0,183.7, 0.3, 0,0,0,1024,1024,1024,1024,0,0,0,0,182.6,0,0,93,4.18,4.17,0,0,0,0,4.165,78.62,1.3123688084,1.312336,6,P-GPS,
70400,2022-08-15 23:29:02,0,0,1.312336,,,1.3123688084,1.64042,0,0,0,0,0,8.355,1.6404528084,1.64042,0,0,0,0,0,185.7, 0.1, -0.1,0,0,1024,1024,1024,1024,0,0,0,0,183.7,0,0,93,4.18,4.17,0,0,0,0,4.165,78.62,1.3123688084,1.312336,6,P-GPS,
70500,2022-08-15 23:29:02,0,0,1.312336,,,1.3123688084,1.64042,0,0,0,0,0,8.353,1.6404528084,1.64042,0,0,0,0,0,186.5, 0.2, -0.2,0,0,1024,1024,1024,1024,0,0,0,0,183.8,0,0,93,4.178,4.169,0,0,0,0,4.114,78.8,1.3123688084,1.312336,6,P-GPS,
70600,2022-08-15 23:29:02,0,0,1.312336,,,1.3123688084,1.64042,0,0,0,0,0,8.353,1.6404528084,1.64042,0,0,0,0,0,186.6, 0.4, -0.2,0,0,1024,1024,1024,1024,0,0,0,0,183.8,0,0,93,4.178,4.169,0,0,0,0,4.114,78.8,1.3123688084,1.312336,6,P-GPS,
70700,2022-08-15 23:29:02,0,0,1.312336,,,1.3123688084,1.64042,0,0,0,0,0,8.353,1.6404528084,1.64042,0,0,0,0,0,186.7, 0.5, -0.7,0,0,1024,1024,1024,1024,0,0,0,0,183.8,0,0,93,4.178,4.169,0,0,0,0,4.114,78.8,1.3123688084,1.312336,6,P-GPS,
70800,2022-08-15 23:29:03,0,0,1.312336,,,1.3123688084,1.64042,0,0,0,0,0,8.353,1.6404528084,1.64042,0,0,0,0,0,186.8, 0.1, -0.6,0,0,1024,1024,1024,1024,0,0,0,0,183.8,0,0,93,4.178,4.169,0,0,0,0,4.114,78.8,1.3123688084,1.312336,6,P-GPS,
70900,2022-08-15 23:29:03,0,0,1.312336,,,1.3123688084,1.64042,0,0,0,0,0,8.353,1.6404528084,1.64042,0,0,0,0,0,186.9, 0.2, -0.1,0,0,1024,1024,1024,1024,0,0,0,0,183.8,0,0,93,4.178,4.169,0,0,0,0,4.114,78.8,1.3123688084,1.312336,6,P-GPS,
71000,2022-08-15 23:29:03,0,0,1.312336,,,1.3123688084,1.64042,0,0,0,0,0,8.353,1.6404528084,1.64042,0,0,0,0,0,186.9, 0.4, -0.2,0,0,1024,1024,1024,1024,0,0,0,0,183.8,0,0,93,4.178,4.169,0,0,0,0,4.114,78.8,1.3123688084,1.312336,6,P-GPS,
71100,2022-08-15 23:29:03,0,0,1.312336,,,1.3123688084,1.64042,0,0,0,0,0,8.353,1.6404528084,1.64042,0,0,0,0,0,187, 0.4, -0.1,0,0,1024,1024,1024,1024,0,0,0,0,183.8,0,0,93,4.178,4.169,0,0,0,0,4.114,78.8,1.3123688084,1.312336,6,P-GPS,
71200,2022-08-15 23:29:03,0,0,1.312336,,,1.3123688084,1.64042,0,0,0,0,0,8.353,1.6404528084,1.64042,0,0,0,0,0,187.1, 0.5, 0.1,0,0,1024,1024,1024,1024,0,0,0,0,183.8,0,0,93,4.178,4.169,0,0,0,0,4.114,78.8,1.3123688084,1.312336,6,P-GPS,
71300,2022-08-15 23:29:03,0,0,1.312336,,,1.3123688084,1.64042,0,0,0,0,0,8.353,1.6404528084,1.64042,0,0,0,0,0,187.1, 0.6, 0.4,0,0,1024,1024,1024,1024,0,0,0,0,183.8,0,0,93,4.178,4.169,0,0,0,0,4.114,78.8,1.3123688084,1.312336,6,P-GPS,
71400,2022-08-15 23:29:03,0,0,1.312336,,,1.3123688084,1.64042,0,0,0,0,0,8.353,1.6404528084,1.64042,0,0,0,0,0,187.1, 0.5, 0.5,0,0,1024,1024,870,1024,0,0,-23,0,183.8,0,0,93,4.178,4.169,0,0,0,0,4.114,78.8,1.3123688084,1.312336,6,P-GPS,
71500,2022-08-15 23:29:03,0,0,1.312336,,,1.3123688084,1.64042,0,0,0,0,0,8.349,1.6404528084,1.64042,0,0,0,0,0,187.2, 0.4, 0.4,0,0,1024,1024,778,1024,0,0,-37,0,183.8,0,0,93,4.176,4.167,0,0,0,0,4.139,78.8,1.3123688084,1.312336,6,P-GPS,
71600,2022-08-15 23:29:03,0,0,1.312336,,,1.3123688084,1.64042,0,0,0,0,0,8.349,1.6404528084,1.64042,0,0,0,0,0,187.2, 0.4, 0.3,0,0,1024,1024,777,1024,0,0,-37,0,183.8,0,0,93,4.176,4.167,0,0,0,0,4.139,78.8,1.3123688084,1.312336,6,P-GPS,
71700,2022-08-15 23:29:03,0,0,1.312336,,,1.3123688084,1.64042,0,0,0,0,0,8.349,1.6404528084,1.64042,0,0,0,0,0,187.2, 0.3, 0.2,0,0,1024,1024,773,1024,0,0,-38,0,183.8,0,0,93,4.176,4.167,0,0,0,0,4.139,78.8,1.3123688084,1.312336,6,P-GPS,
71800,2022-08-15 23:29:04,0,0,1.312336,,,1.3123688084,1.64042,0,0,0,0,0,8.349,1.6404528084,1.64042,0,0,0,0,0,187.1, 0.2, 0.2,0,0,1024,1024,770,1024,0,0,-38,0,183.8,0,0,93,4.176,4.167,0,0,0,0,4.139,78.8,1.3123688084,1.312336,6,P-GPS,
71900,2022-08-15 23:29:04,0,0,1.312336,,,1.3123688084,1.64042,0,0,0,0,0,8.349,1.6404528084,1.64042,0,0,0,0,0,187.1, 0.4, 0,0,0,1024,1024,756,1024,0,0,-41,0,183.8,0,0,93,4.176,4.167,0,0,0,0,4.139,78.8,1.3123688084,1.312336,6,P-GPS,
72000,2022-08-15 23:29:04,0,0,0.984252,,,0.9842848084,1.64042,0,0,0,0,0,8.349,1.6404528084,1.64042,0,0,0,0,0,187.1, 0.4, -0.2,0,0,1024,1024,752,1024,0,0,-41,0,183.8,0,0,93,4.176,4.167,0,0,0,0,4.139,78.8,0.9842848084,0.984252,6,P-GPS,
72100,2022-08-15 23:29:04,0,0,0.984252,,,0.9842848084,1.64042,0,0,0,0,0,8.349,1.6404528084,1.64042,0,0,0,0,0,187.1, 0.3, -0.5,0,0,1024,1024,738,1024,0,0,-43,0,183.8,0,0,93,4.176,4.167,0,0,0,0,4.139,78.8,0.9842848084,0.984252,6,P-GPS,
72200,2022-08-15 23:29:04,0,0,0.984252,,,0.9842848084,1.64042,0,0,0,0,0,8.349,1.6404528084,1.64042,0,0,0,0,0,187, 0.2, -0.3,0,0,1024,1024,738,1024,0,0,-43,0,183.8,0,0,93,4.176,4.167,0,0,0,0,4.139,78.8,0.9842848084,0.984252,6,P-GPS,
72300,2022-08-15 23:29:04,0,0,0.984252,,,0.9842848084,1.64042,0,0,0,0,0,8.349,1.6404528084,1.64042,0,0,0,0,0,187.1, 0.2, -0.3,0,0,1024,1024,711,1024,0,0,-47,0,183.8,0,0,93,4.176,4.167,0,0,0,0,4.139,78.8,0.9842848084,0.984252,6,P-GPS,
72400,2022-08-15 23:29:04,0,0,0.984252,,,0.9842848084,1.64042,0,0,0,0,0,8.349,1.6404528084,1.64042,0,0,0,0,0,187, 0.1, -0.5,0,0,1024,1024,726,1024,0,0,-45,0,183.8,0,0,93,4.176,4.167,0,0,0,0,4.139,78.8,0.9842848084,0.984252,6,P-GPS,
72500,2022-08-15 23:29:04,0,0,0.984252,,,0.9842848084,1.64042,0,0,0,0,0,8.347,1.6404528084,1.64042,0,0,0,0,0,187, 0.4, -0.6,0,0,1024,1024,720,1024,0,0,-46,0,183.8,0,0,93,4.174,4.165,0,0,0,0,4.12,78.8,0.9842848084,0.984252,6,P-GPS,
72600,2022-08-15 23:29:04,0,0,1.312336,,,1.3123688084,1.64042,0,0,0,0,0,8.347,1.6404528084,1.64042,0,0,0,0,0,187, 0.6, -0.4,0,0,1024,1024,650,1024,0,0,-57,0,183.8,0,0,93,4.174,4.165,0,0,0,0,4.12,78.8,1.3123688084,1.312336,6,P-GPS,
72700,2022-08-15 23:29:04,0,0,1.312336,,,1.3123688084,1.64042,0,0,0,0,0,8.347,1.6404528084,1.64042,0,0,0,0,0,187, 0.8, -0.6,0,0,1024,1024,536,1024,0,0,-74,0,183.8,0,0,93,4.174,4.165,0,0,0,0,4.12,78.8,1.3123688084,1.312336,6,P-GPS,
72800,2022-08-15 23:29:05,0,0,1.312336,,,1.3123688084,1.64042,0,0,0,0,0,8.347,1.6404528084,1.64042,0,0,0,0,0,187, 0.6, -0.7,0,0,1024,1024,476,1024,0,0,-83,0,183.8,0,0,93,4.174,4.165,0,0,0,0,4.12,78.8,1.3123688084,1.312336,6,P-GPS,
72900,2022-08-15 23:29:05,0,0,1.312336,,,1.3123688084,1.64042,0,0,0,0,0,8.347,1.6404528084,1.64042,0,0,0,0,0,186.9, 0.5, -0.7,0,0,1024,1024,364,1024,0,0,-100,0,183.8,0,0,93,4.174,4.165,0,0,0,0,4.12,78.8,1.3123688084,1.312336,6,P-GPS,
73000,2022-08-15 23:29:05,0,0,1.312336,,,1.3123688084,1.64042,0,0,0,0,0,8.347,1.6404528084,1.64042,0,0,0,0,0,187, 0.4, -0.4,0,0,1024,1024,364,1024,0,0,-100,0,183.8,0,0,93,4.174,4.165,0,0,0,0,4.12,78.8,1.3123688084,1.312336,6,P-GPS,
73100,2022-08-15 23:29:05,0,0,1.312336,,,1.3123688084,1.64042,0,0,0,0,0,8.347,1.6404528084,1.64042,0,0,0,0,0,187, 0.1, -0.1,0,0,1024,1024,364,1024,0,0,-100,0,183.8,0,0,93,4.174,4.165,0,0,0,0,4.12,78.8,1.3123688084,1.312336,6,P-GPS,
73200,2022-08-15 23:29:05,0,0,1.312336,,,1.3123688084,1.64042,0,0,0,0,0,8.347,1.6404528084,1.64042,0,0,0,0,0,187.1, 0.2, 0,0,0,1024,1024,364,1024,0,0,-100,0,183.8,0,0,93,4.174,4.165,0,0,0,0,4.12,78.8,1.3123688084,1.312336,6,P-GPS,
73300,2022-08-15 23:29:05,0,0,1.312336,,,1.3123688084,1.64042,0,0,0,0,0,8.347,1.6404528084,1.64042,0,0,0,0,0,187, 0, -0.5,0,0,1024,1024,364,1024,0,0,-100,0,183.8,0,0,93,4.174,4.165,0,0,0,0,4.12,78.8,1.3123688084,1.312336,6,P-GPS,
73400,2022-08-15 23:29:05,0,0,1.312336,,,1.3123688084,1.64042,0,0,0,0,0,8.347,1.6404528084,1.64042,0,0,0,0,0,187, 0, -0.4,0,0,1024,1024,364,1024,0,0,-100,0,183.8,0,0,93,4.174,4.165,0,0,0,0,4.12,78.8,1.3123688084,1.312336,6,P-GPS,
73500,2022-08-15 23:29:05,0,0,1.312336,,,1.3123688084,1.64042,0,0,0,0,0,8.343,1.6404528084,1.64042,0,0,0,0,0,187, 0.1, -0.4,0,0,1024,1024,364,1024,0,0,-100,0,183.8,0,0,93,4.174,4.163,0,0,0,0,4.09,78.8,1.3123688084,1.312336,6,P-GPS,
73600,2022-08-15 23:29:05,0,0,1.312336,,,1.3123688084,1.64042,0,0,0,0,0,8.343,1.6404528084,1.64042,0,0,0,0,0,187.1, 0.2, -0.1,0,0,1024,1024,364,1024,0,0,-100,0,183.8,0,0,93,4.174,4.163,0,0,0,0,4.09,78.8,1.3123688084,1.312336,6,P-GPS,
73700,2022-08-15 23:29:06,0,0,1.312336,,,1.3123688084,1.64042,0,0,0,0,0,8.343,1.6404528084,1.64042,0,0,0,0,0,187.1, 0.4, -0.4,0,0,1024,1024,364,1024,0,0,-100,0,183.8,0,0,93,4.174,4.163,0,0,0,0,4.09,78.8,1.3123688084,1.312336,6,P-GPS,
73800,2022-08-15 23:29:06,0,0,1.312336,,,1.3123688084,1.64042,0,0,0,0,0,8.343,1.6404528084,1.64042,0,0,0,0,0,187.2, 0.4, -0.4,0,0,1024,1024,364,1024,0,0,-100,0,183.8,0,0,93,4.174,4.163,0,0,0,0,4.09,78.8,1.3123688084,1.312336,6,P-GPS,
73900,2022-08-15 23:29:06,0,0,1.312336,,,1.3123688084,1.64042,0,0,0,0,0,8.343,1.6404528084,1.64042,0,0,0,0,0,187.1, 0.2, 0.1,0,0,1024,1024,364,1024,0,0,-100,0,183.8,0,0,93,4.174,4.163,0,0,0,0,4.09,78.8,1.3123688084,1.312336,6,P-GPS,
74000,2022-08-15 23:29:06,0,0,1.312336,,,1.3123688084,1.64042,0,0,0,0,0,8.343,1.6404528084,1.64042,0,0,0,0,0,187.1, 0.2, -0.3,0,0,1024,1024,364,1024,0,0,-100,0,183.8,0,0,93,4.174,4.163,0,0,0,0,4.09,78.8,1.3123688084,1.312336,33,Confirm_Landing,
74100,2022-08-15 23:29:06,0,0,1.312336,,,1.3123688084,1.64042,0,0,0,0,0,8.343,1.6404528084,1.64042,0,0,0,0,0.223694,187.2, 0.3, -0.3,0,0,1024,1024,364,1024,0,0,-100,0,183.8,0,0,93,4.174,4.163,0,0,0,0,4.09,78.8,1.3123688084,1.312336,33,Confirm_Landing,
74200,2022-08-15 23:29:06,0,0,1.312336,,,1.3123688084,1.64042,0,0,0,0,0,8.343,1.6404528084,1.64042,0,0,0,0,0.447388,187.2, 0, -0.3,0,0,1024,1024,488,1024,0,0,-81,0,183.8,0,0,93,4.174,4.163,0,0,0,0,4.09,78.8,1.3123688084,1.312336,33,Confirm_Landing,
74300,2022-08-15 23:29:06,0,0,0.984252,,,0.9842848084,1.312336,0,0,0,0,0,8.343,1.6404528084,1.64042,0,0,0,0,0.447388,187.2, 0, -0.2,0,0,1024,1024,602,1024,0,0,-64,0,183.8,0,0,93,4.174,4.163,0,0,0,0,4.09,78.8,0.9842848084,0.984252,33,Confirm_Landing,
74400,2022-08-15 23:29:06,0,0,0.984252,,,0.9842848084,1.312336,0,0,0,0,0,8.343,1.6404528084,1.64042,0,0,0,0,0.671082,187.2, 0.1, -0.4,0,0,1024,1024,814,1024,0,0,-32,0,183.8,0,0,93,4.174,4.163,0,0,0,0,4.09,78.8,0.9842848084,0.984252,33,Confirm_Landing,
74500,2022-08-15 23:29:06,0,0,0.984252,,,0.9842848084,1.312336,0,0,0,0,0,8.338,1.6404528084,1.64042,0,0,0,0,0.671082,187.1, 0, -0.4,0,0,1024,1024,966,1024,0,0,-9,0,183.8,0,0,93,4.178,4.17,0,0,0,0,4.137,78.98,0.9842848084,0.984252,33,Confirm_Landing,
74600,2022-08-15 23:29:06,0,0,0.656168,,,0.6562008084,0.984252,0,0,0,0,0,8.338,1.6404528084,1.64042,0,0,0,0,0.671082,187, 0, -0.6,0,0,1024,1024,1024,1024,0,0,0,0,183.8,0,0,93,4.178,4.17,0,0,0,0,4.137,78.98,0.6562008084,0.656168,33,Confirm_Landing,
74700,2022-08-15 23:29:06,0,0,0.656168,,,0.6562008084,0.984252,0,0,0,0,0,8.338,1.6404528084,1.64042,0,0,0,0,0.671082,187.1, 0, -0.8,0,0,1024,1024,1024,1024,0,0,0,0,183.8,0,0,93,4.178,4.17,0,0,0,0,4.137,78.98,0.6562008084,0.656168,33,Confirm_Landing,
74800,2022-08-15 23:29:07,0,0,0.656168,,,0.6562008084,0.984252,0,0,0,0,0,8.338,1.6404528084,1.64042,0,0,0,0,0.671082,187, 0, -0.7,0,0,1024,1024,1024,1024,0,0,0,0,183.8,0,0,93,4.178,4.17,0,0,0,0,4.137,78.98,0.6562008084,0.656168,33,Confirm_Landing,
74900,2022-08-15 23:29:07,0,0,0.328084,,,0.3281168084,0.656168,0,0,0,0,0,8.338,1.6404528084,1.64042,0,0,0,0,0.671082,187.1, 0, -0.6,0,0,1024,1024,1024,1024,0,0,0,0,183.8,0,0,93,4.178,4.17,0,0,0,0,4.137,78.98,0.3281168084,0.328084,33,Confirm_Landing,
75000,2022-08-15 23:29:07,0,0,0.328084,,,0.3281168084,0.656168,0,0,0,0,0,8.338,1.6404528084,1.64042,0,0,0,0,0.447388,187, -0.1, -0.3,0,0,1024,1024,1024,1024,0,0,0,0,183.8,0,0,93,4.178,4.17,0,0,0,0,4.137,78.98,0.3281168084,0.328084,33,Confirm_Landing,
75100,2022-08-15 23:29:07,0,0,0.328084,,,0.3281168084,0.656168,0,0,0,0,0,8.338,1.6404528084,1.64042,0,0,0,0,0.447388,187, 0.2, -0.2,0,0,1024,1024,1024,1024,0,0,0,0,183.8,0,0,93,4.178,4.17,0,0,0,0,4.137,78.98,0.3281168084,0.328084,33,Confirm_Landing,
75200,2022-08-15 23:29:07,0,0,0,,,3.28084E-5,0.656168,0,0,0,0,0,8.338,1.6404528084,1.64042,0,0,0,0,0.447388,186.9, 0.1, 0.2,0,0,1024,1024,1024,1024,0,0,0,0,183.8,0,0,93,4.178,4.17,0,0,0,0,4.137,78.98,3.28084E-5,0,33,Confirm_Landing,
75300,2022-08-15 23:29:07,0,0,0,,,3.28084E-5,0.328084,0,0,0,0,0,8.338,1.6404528084,1.64042,0,0,0,0,0.447388,187, 0.3, 0,0,0,1024,1024,1024,1024,0,0,0,0,183.8,0,0,93,4.178,4.17,0,0,0,0,4.137,78.98,3.28084E-5,0,33,Confirm_Landing,
75400,2022-08-15 23:29:07,0,0,0,,,3.28084E-5,0.328084,0,0,0,0,0,8.338,1.6404528084,1.64042,0,0,0,0,0.447388,186.9, 0.3, 0.1,0,0,1024,1024,1024,1024,0,0,0,0,183.8,0,0,93,4.178,4.17,0,0,0,0,4.137,78.98,3.28084E-5,0,33,Confirm_Landing,
75500,2022-08-15 23:29:07,0,0,0,,,3.28084E-5,0.328084,0,0,0,0,0,8.334,1.6404528084,1.64042,0,0,0,0,0.447388,186.9, 0.3, -0.2,0,0,1024,1024,1024,1024,0,0,0,0,183.8,0,0,93,4.175,4.165,0,0,0,0,4.014,78.8,3.28084E-5,0,33,Confirm_Landing,
75600,2022-08-15 23:29:07,0,0,-0.328084,,,-0.3280511916,0.328084,0,0,0,0,0,8.334,1.6404528084,1.64042,0,0,0,0,0.223694,186.9, 0.1, 0,0,0,1024,1024,1024,1024,0,0,0,0,183.8,0,0,93,4.175,4.165,0,0,0,0,4.014,78.8,-0.3280511916,-0.328084,33,Confirm_Landing,
75700,2022-08-15 23:29:07,0,0,-0.656168,,,-0.6561351916,0.328084,0,0,0,0,0,8.334,1.6404528084,1.64042,0,0,0,0,0.223694,187, 0, 0.3,0,0,1024,1024,1024,1024,0,0,0,0,183.8,0,0,93,4.175,4.165,0,0,0,0,4.014,78.8,-0.6561351916,-0.656168,33,Confirm_Landing,
75800,2022-08-15 23:29:08,0,0,-0.984252,,,-0.9842191916,0.328084,0,0,0,0,0,8.334,1.6404528084,1.64042,0,0,0,0,0.223694,187.1, 0, 0.3,0,0,1024,1024,1024,1024,0,0,0,0,183.8,0,0,93,4.175,4.165,0,0,0,0,4.014,78.8,-0.9842191916,-0.984252,33,Confirm_Landing,
75900,2022-08-15 23:29:08,0,0,-1.312336,,,-1.3123031916,0.328084,0,0,0,0,0,8.334,1.6404528084,1.64042,0,0,0,0,0,187.2, 2.9, 0.1,0,0,1024,1024,1024,1024,0,0,0,0,183.8,0,0,93,4.175,4.165,0,0,0,0,4.014,78.8,-1.3123031916,-1.312336,33,Confirm_Landing,
76000,2022-08-15 23:29:08,0,0,-1.968504,,,-1.9684711916,0.328084,0,0,0,0,0,8.334,1.6404528084,1.64042,0,0,0,0,0,187.1, 2.7, 0.3,0,0,1024,1024,1024,1024,0,0,0,0,183.8,0,0,93,4.175,4.165,0,0,0,0,4.014,78.8,-1.9684711916,-1.968504,33,Confirm_Landing,
76100,2022-08-15 23:29:08,0,0,-2.296588,,,-2.2965551916,0.328084,0,0,0,0,0,8.334,1.6404528084,1.64042,0,0,0,0,0,187, 2.8, 0.3,0,0,1024,1024,1024,1024,0,0,0,0,183.8,0,0,93,4.175,4.165,0,0,0,0,4.014,78.8,-2.2965551916,-2.296588,33,Confirm_Landing,
76200,2022-08-15 23:29:08,0,0,-2.296588,,,-2.2965551916,0.328084,0,0,0,0,0,8.334,1.6404528084,1.64042,0,0,0,0,0,187, 2.9, 0.3,0,0,1024,1024,1024,1024,0,0,0,0,183.8,0,0,93,4.175,4.165,0,0,0,0,4.014,78.8,-2.2965551916,-2.296588,33,Confirm_Landing,
76300,2022-08-15 23:29:08,0,0,-2.296588,,,-2.2965551916,0.328084,0,0,0,0,0,8.334,1.6404528084,1.64042,0,0,0,0,0,187, 2.9, 0.3,0,0,1024,1024,1024,1024,0,0,0,0,183.8,0,0,93,4.175,4.165,0,0,0,0,4.014,78.8,-2.2965551916,-2.296588,33,Confirm_Landing,
76400,2022-08-15 23:29:08,0,0,-2.624672,,,-2.6246391916,0.328084,0,0,0,0,0,8.334,1.6404528084,1.64042,0,0,0,0,0,187, 2.8, 0.3,0,0,1024,1024,1024,1024,0,0,0,0,183.8,0,0,93,4.175,4.165,0,0,0,0,4.014,78.8,-2.6246391916,-2.624672,33,Confirm_Landing,
76500,2022-08-15 23:29:08,0,0,-2.296588,,,-2.2965551916,0.328084,0,0,0,0,0,8.334,1.6404528084,1.64042,0,0,0,0,0,187, 2.9, 0.2,0,0,1024,1024,1024,1024,0,0,0,0,183.8,0,0,93,4.175,4.165,0,0,0,0,4.014,78.8,-2.2965551916,-2.296588,33,Confirm_Landing,
76600,2022-08-15 23:29:08,0,0,-2.296588,,,-2.2965551916,0.328084,0,0,0,0,0,8.37,1.6404528084,1.64042,0,0,0,0,0,187, 2.8, 0.3,0,0,1024,1024,1024,1024,0,0,0,0,183.8,0,0,93,4.227,4.215,0,0,0,0,3.198,78.98,-2.2965551916,-2.296588,33,Confirm_Landing,
76700,2022-08-15 23:29:08,0,0,0,,,3.28084E-5,0.328084,0,0,0,0,0,8.37,1.6404528084,1.64042,0,0,0,0,0,187.1, 2.9, 0.3,0,0,1024,1024,1024,1024,0,0,0,0,183.8,0,0,93,4.227,4.215,0,0,0,0,3.198,78.98,3.28084E-5,0,6,P-GPS,
