time(millisecond),datetime(utc),latitude,longitude,height_above_takeoff(feet),height_above_ground_at_drone_location(feet),ground_elevation_at_drone_location(feet),altitude_above_seaLevel(feet),height_sonar(feet),speed(mph),distance(feet),mileage(feet),satellites,gpslevel,voltage(v),max_altitude(feet),max_ascent(feet),max_speed(mph),max_distance(feet), xSpeed(mph), ySpeed(mph), zSpeed(mph), compass_heading(degrees), pitch(degrees), roll(degrees),isPhoto,isVideo,rc_elevator,rc_aileron,rc_throttle,rc_rudder,rc_elevator(percent),rc_aileron(percent),rc_throttle(percent),rc_rudder(percent),gimbal_heading(degrees),gimbal_pitch(degrees),gimbal_roll(degrees),battery_percent,voltageCell1,voltageCell2,voltageCell3,voltageCell4,voltageCell5,voltageCell6,current(A),battery_temperature(f),altitude(feet),ascent(feet),flycStateRaw,flycState,message
0,2023-10-20 20:36:11,-34.9105557544052,-56.1387334263298,0,0,42.96359881578,42.96359881578,0.328084,0,0,0,22,5,0,42.96359881578,0,0,0,0,0,0.223694,242.2, -7.2, -1,0,0,364,364,364,1684,-100,-100,-100,100,253.7,17.9,0,95,4.292,4.288,0,0,0,0,0,83.66,42.96359881578,0,41,Motors_Started,"Aeronave en Zona de altitud restringida (150). Vuela con precaución (Code: 190001). Error de calibración del estabilizador. Reinicia la aeronave o contacta con la Asistencia DJI (Code: 40011)"
100,2023-10-20 20:36:11,-34.910555741552,-56.1387334576922,0,0,42.96359881578,42.96359881578,0.328084,0,0.0104899609656,0.0104899609656,22,5,0,42.96359881578,0,0,0.0104899609656,0,0,0.223694,241.6, -6.1, -0.1,0,0,364,364,364,1684,-100,-100,-100,100,252.6,17.9,0,95,4.292,4.288,0,0,0,0,0,83.66,42.96359881578,0,41,Motors_Started,
200,2023-10-20 20:36:11,-34.9105557478248,-56.1387334439296,0,0,42.96359881578,42.96359881578,0.328084,0,0.005787237718,0.0152009191216,22,5,0,42.96359881578,0,0,0.0104899609656,0,0,0,241.3, -6.6, -0.6,0,0,364,364,364,1684,-100,-100,-100,100,252.2,17.9,0,95,4.292,4.288,0,0,0,0,0,83.66,42.96359881578,0,41,Motors_Started,
300,2023-10-20 20:36:11,-34.9105557630858,-56.1387334056377,0,0,42.96359881578,42.96359881578,0.328084,0,0.0069540356556,0.027938977272,22,5,0,42.96359881578,0,0,0.0104899609656,0,0,0,241.2, -6.2, -1.1,0,0,364,364,364,1684,-100,-100,-100,100,251.8,18,0,95,4.292,4.288,0,0,0,0,0,83.66,42.96359881578,0,41,Motors_Started,
400,2023-10-20 20:36:11,-34.9105556717669,-56.1387333699189,0,0,42.96359881578,42.96359881578,0.328084,0,0.034553150712,0.062928479704,22,5,0,42.96359881578,0,0,0.034553150712,0,0,0,241.4, -6.6, -1,0,0,505,838,364,1684,-79,-28,-100,100,251.7,18,0,95,4.292,4.288,0,0,0,0,0,83.66,42.96359881578,0,41,Motors_Started,
500,2023-10-20 20:36:11,-34.9105556118729,-56.1387333601386,0,0,42.96359881578,42.96359881578,0.328084,0,0.055645999156,0.084976052588,22,5,0,42.96359881578,0,0,0.055645999156,0,0,0,240.9, -6.7, -0.7,0,0,1024,1024,948,1172,0,0,-12,22,251.6,18,0,95,4.292,4.288,0,0,0,0,0,83.66,42.96359881578,0,41,Motors_Started,
600,2023-10-20 20:36:12,-34.9105555483034,-56.1387333306168,0,0,42.96359881578,42.96359881578,0.328084,0,0.08046424142,0.109794294852,22,5,0,42.96359881578,0,0,0.08046424142,0,0,0,240.3, -7.4, -1.2,0,0,1024,1024,1289,1026,0,0,40,0,251.1,18,0,95,4.292,4.288,0,0,0,0,0,83.66,42.96359881578,0,41,Motors_Started,
700,2023-10-20 20:36:12,-34.9105554925444,-56.1387332814568,0,-0.065616799999999,43.02921561578,42.96359881578,0.328084,0,0.104912404932,0.134897970196,22,5,0,42.96359881578,0,0,0.104912404932,0,0,0,239.6, -7.6, -1.5,0,0,1024,1024,1452,1052,0,0,65,4,250.4,17.9,0,95,4.292,4.288,0,0,0,0,0,83.66,42.96359881578,0,41,Motors_Started,"Setting new Return-To-Home altitude to 100m (328 ft). Data Recorder File Index is 19. Setting new Maximum Flight Altitude to 120m (394 ft)"
800,2023-10-20 20:36:12,-34.9105555099435,-56.1387332814992,0,0,42.96359881578,42.96359881578,0.328084,0,0.099160764328,0.141246067512,22,5,0,42.96359881578,0,0,0.104912404932,0,0,0,239, -7.8, -0.8,0,0,1024,1024,1452,1052,0,0,65,4,249.8,17.9,0,95,4.292,4.288,0,0,0,0,0,83.66,42.96359881578,0,41,Motors_Started,
900,2023-10-20 20:36:12,-34.9105555873476,-56.1387333893705,0,0,42.96359881578,42.96359881578,0.328084,0,0.061945868124,0.184131567572,22,5,0,42.96359881578,0,0,0.104912404932,0,0,0,238.1, -8.1, -1.1,0,0,1024,1024,1555,1024,0,0,80,0,249,18,0,95,4.292,4.288,0,0,0,0,0,83.66,42.96359881578,0,41,Motors_Started,
1000,2023-10-20 20:36:12,-34.9105555974427,-56.1387334268691,0,0,42.96359881578,42.96359881578,0.328084,0,0.057268046452,0.1959399669,22,5,0,42.96359881578,0,0,0.104912404932,0,0,0,238.2, -8.9, -0.4,0,0,1024,1024,1684,1024,0,0,100,0,248.5,14.5,0,95,4.292,4.288,0,0,0,0,0,83.66,42.96359881578,0,41,Motors_Started,
1100,2023-10-20 20:36:12,-34.9105555949007,-56.1387334785351,0,0,42.96359881578,42.96359881578,0.328084,0,0.060254923188,0.211426187868,22,5,0,42.96359881578,0,0,0.104912404932,0,0,0,237.7, -10.2, -0.2,0,0,1024,1024,1684,1024,0,0,100,0,248.4,12.1,0,95,4.292,4.288,0,0,0,0,0,83.66,42.96359881578,0,10,Assisted_Takeoff,
1200,2023-10-20 20:36:12,-34.9105555741327,-56.1387335005906,0,0.032808399999999,42.93079041578,42.96359881578,0.328084,0,0.069423558652,0.221473760368,22,5,8.603,42.96359881578,0,0,0.104912404932,0,0,0,236.9, -7.7, 0.8,0,0,1024,1024,1684,1024,0,0,100,0,247.7,11.9,0,95,4.292,4.288,0,0,0,0,0.735,83.66,42.96359881578,0,10,Assisted_Takeoff,
1300,2023-10-20 20:36:12,-34.9105555178956,-56.1387335400095,0,0.032808399999999,42.93079041578,42.96359881578,0.328084,0,0.092751643388,0.245140099708,22,5,8.603,42.96359881578,0,0,0.104912404932,0,0,0,237.8, -5.6, 2.2,0,0,1024,1024,1684,1024,0,0,100,0,247.8,11.9,0,95,4.292,4.288,0,0,0,0,0.735,83.66,42.96359881578,0,10,Assisted_Takeoff,
1400,2023-10-20 20:36:12,-34.9105555095609,-56.1387335604007,0.328084,0.3608924,42.93079041578,43.29168281578,0.328084,0,0.097924215732,0.251956700976,22,5,8.603,43.29168281578,0.328084,0,0.104912404932,0,0,0,238.5, -5.4, 2.8,0,0,1024,1024,1684,1024,0,0,100,0,248.6,11.9,0,95,4.292,4.288,0,0,0,0,0.735,83.66,43.29168281578,0.328084,10,Assisted_Takeoff,
1500,2023-10-20 20:36:12,-34.9105555013032,-56.138733585899,0.328084,0.3608924,42.93079041578,43.29168281578,0.328084,0,0.103955383904,0.26015912906,22,5,8.603,43.29168281578,0.328084,0,0.104912404932,0,0,0,238, -8.6, 7.7,0,0,1024,1024,1684,1024,0,0,100,0,249,11.9,0,95,4.292,4.288,0,0,0,0,0.735,83.66,43.29168281578,0.328084,10,Assisted_Takeoff,
1600,2023-10-20 20:36:13,-34.9105554654213,-56.13873380013,0.656168,0.6233596,42.99640721578,43.61976681578,0.328084,0.7158208,0.153702760824,0.325578750576,22,5,8.603,43.61976681578,0.656168,0.7158208,0.153702760824,0.223694,-0.671082,0,237.9, -10.4, 11.1,0,0,1024,1024,1684,1024,0,0,100,0,249.8,11.9,0,95,4.292,4.288,0,0,0,0,0.735,83.66,43.61976681578,0.656168,10,Assisted_Takeoff,
1700,2023-10-20 20:36:13,-34.9105554098873,-56.1387344138126,0.984252,0.9514436,42.99640721578,43.94785081578,0.328084,1.4092722,0.321075469592,0.5103018536,22,5,8.603,43.94785081578,0.984252,1.4092722,0.321075469592,0.447388,-1.342164,0,238.1, -5.8, 4.9,0,0,1024,1024,1684,1024,0,0,100,0,250,11.9,0,95,4.292,4.288,0,0,0,0,0.735,83.66,43.94785081578,0.984252,6,P-GPS,
1800,2023-10-20 20:36:13,-34.9105551627345,-56.1387352279969,0.984252,0.984252,42.96359881578,43.94785081578,0.328084,1.901399,0.58066602908,0.77005579892,22,5,8.603,43.94785081578,0.984252,1.901399,0.58066602908,0.671082,-1.789552,-0.447388,238.1, 2.2, -3.9,0,0,1024,1024,1674,1024,0,0,98,0,250,11.9,0,95,4.292,4.288,0,0,0,0,0.735,83.66,43.94785081578,0.984252,6,P-GPS,
1900,2023-10-20 20:36:13,-34.9105548746574,-56.1387361501161,1.312336,1.3779528,42.89798201578,44.27593481578,0.656168,1.901399,0.87587273144,1.06529202884,22,5,8.603,44.27593481578,1.312336,1.901399,0.87587273144,0.671082,-1.789552,-1.11847,238.3, 6, -8.7,0,0,1024,1024,1674,1024,0,0,98,0,250,11.9,0,95,4.292,4.288,0,0,0,0,0.735,83.66,44.27593481578,1.312336,6,P-GPS,
2000,2023-10-20 20:36:13,-34.9105546237175,-56.1387369261282,1.64042,1.7388452,42.86517361578,44.60401881578,0.656168,1.6329662,1.12544951108,1.31486880848,22,5,8.603,44.60401881578,1.64042,1.901399,1.12544951108,0.447388,-1.565858,-1.565858,238.6, 6.4, -9.7,0,0,1024,1024,1674,1024,0,0,98,0,250,11.9,0,95,4.292,4.288,0,0,0,0,0.735,83.66,44.60401881578,1.64042,6,P-GPS,
2100,2023-10-20 20:36:13,-34.9105544650378,-56.1387377226296,1.64042,1.6732284,42.93079041578,44.60401881578,2.952756,1.1408394,1.36880253724,1.56010831764,22,5,8.603,44.60401881578,1.64042,1.901399,1.36880253724,0.223694,-1.11847,-2.013246,239.4, 4.7, -7.4,0,0,1024,1024,996,1024,0,0,-4,0,250,11.9,0,95,4.292,4.288,0,0,0,0,0.735,83.66,44.60401881578,1.64042,6,P-GPS,
2200,2023-10-20 20:36:13,-34.9105543504059,-56.1387384907971,1.968504,2.0013124,42.93079041578,44.93210281578,3.28084,0.9171454,1.59949808268,1.79371396816,22,5,8.603,44.93210281578,1.968504,1.901399,1.59949808268,0.223694,-0.894776,-2.908022,239.7, 5.3, -5.6,0,0,1024,1024,1024,1024,0,0,0,0,250,11.9,0,95,4.292,4.288,0,0,0,0,0.735,83.66,44.93210281578,1.968504,6,P-GPS,
2300,2023-10-20 20:36:13,-34.9105542487165,-56.138739319002,2.624672,2.7230972,42.86517361578,45.58827081578,3.937008,0.894776,1.8466536024,2.04426843812,22,5,8.557,45.58827081578,2.624672,1.901399,1.8466536024,0,-0.894776,-3.35541,239.3, 6.1, -6.9,0,0,1024,1024,1024,1024,0,0,0,0,250,11.9,0,95,4.268,4.264,0,0,0,0,1.526,83.66,45.58827081578,2.624672,6,P-GPS,
2400,2023-10-20 20:36:13,-34.9105541674099,-56.1387399751652,2.952756,3.0839896,42.83236521578,45.91635481578,4.265092,0.671082,2.04312998664,2.2428150324,22,5,8.557,45.91635481578,2.952756,1.901399,2.04312998664,0,-0.671082,-3.131716,238.7, 9.5, -8.7,0,0,1024,1024,1024,1024,0,0,0,0,250,11.9,0,95,4.268,4.264,0,0,0,0,1.526,83.66,45.91635481578,2.952756,6,P-GPS,
2500,2023-10-20 20:36:13,-34.910554090926,-56.1387405565709,3.28084,3.444882,42.79955681578,46.24443881578,4.593176,0.671082,2.21797579276,2.41899285956,22,5,8.557,46.24443881578,3.28084,1.901399,2.21797579276,0,-0.671082,-2.460634,238.9, 7, -5,0,0,1024,1024,1024,1024,0,0,0,0,250,11.9,0,95,4.268,4.264,0,0,0,0,1.526,83.66,46.24443881578,3.28084,6,P-GPS,
2600,2023-10-20 20:36:14,-34.9105541039287,-56.1387414990576,3.608924,3.772966,42.79955681578,46.57252281578,4.92126,0.7158208,2.48924220564,2.70102042764,22,5,8.557,46.57252281578,3.608924,1.901399,2.48924220564,0.223694,-0.671082,-2.013246,239.3, 4.9, -6.5,0,0,1024,1024,1024,1024,0,0,0,0,250,11.9,0,95,4.268,4.264,0,0,0,0,1.526,83.66,46.57252281578,3.608924,6,P-GPS,
2700,2023-10-20 20:36:14,-34.9105540632555,-56.1387418830832,3.608924,3.8385828,42.73394001578,46.57252281578,5.249344,0.7158208,2.60435047704,2.81687016888,23,5,8.557,46.57252281578,3.608924,1.901399,2.60435047704,0.223694,-0.671082,-1.342164,239.8, 1.8, -5.5,0,0,1024,1024,1024,1024,0,0,0,0,250,11.9,0,95,4.268,4.264,0,0,0,0,1.526,83.66,46.57252281578,3.608924,6,P-GPS,
2800,2023-10-20 20:36:14,-34.9105540057905,-56.1387422428668,3.937008,4.1666668,42.73394001578,46.90060681578,5.249344,0.894776,2.71390428632,2.92653880756,23,5,8.557,46.90060681578,3.937008,1.901399,2.71390428632,0,-0.894776,-0.894776,239.9, 3.3, -6,0,0,1024,1024,1024,1024,0,0,0,0,250,11.9,0,95,4.268,4.264,0,0,0,0,1.526,83.66,46.90060681578,3.937008,6,P-GPS,
2900,2023-10-20 20:36:14,-34.9105539596042,-56.1387426600088,4.265092,4.5275592,42.70113161578,47.22869081578,5.577428,0.894776,2.83920284676,3.0524771318,23,5,8.557,47.22869081578,4.265092,1.901399,2.83920284676,0,-0.894776,-0.671082,239.6, 5, -6.7,0,0,1024,1024,1024,1024,0,0,0,0,250,11.9,0,95,4.268,4.264,0,0,0,0,1.526,83.66,47.22869081578,4.265092,6,P-GPS,
3000,2023-10-20 20:36:14,-34.9105540842526,-56.1387429781503,4.265092,4.5275592,42.70113161578,47.22869081578,5.577428,0.894776,2.92208342684,3.15796926116,23,5,8.557,47.22869081578,4.265092,1.901399,2.92208342684,0,-0.894776,-0.447388,239.4, 6.2, -6.8,0,0,1040,1024,1024,1024,2,0,0,0,250,11.9,0,95,4.268,4.264,0,0,0,0,1.526,83.66,47.22869081578,4.265092,6,P-GPS,
3100,2023-10-20 20:36:14,-34.9105541001845,-56.1387434580868,4.265092,4.5275592,42.70113161578,47.22869081578,5.905512,0.894776,3.061515846,3.301673334,23,5,8.557,47.22869081578,4.265092,1.901399,3.061515846,0,-0.894776,-0.223694,239.4, 6.9, -6.3,0,0,1140,1024,1024,1024,18,0,0,0,250,11.9,0,95,4.268,4.264,0,0,0,0,1.526,83.66,47.22869081578,4.265092,6,P-GPS,
3200,2023-10-20 20:36:14,-34.9105540779005,-56.1387438495273,3.937008,4.265092,42.63551481578,46.90060681578,5.905512,0.894776,3.17797254264,3.4190945976,23,5,8.338,47.22869081578,4.265092,1.901399,3.17797254264,0,-0.894776,0,239.4, 7.4, -6.7,0,0,1024,1024,1024,1024,0,0,0,0,250,11.9,0,95,4.198,4.205,0,0,0,0,4.852,83.66,46.90060681578,3.937008,6,P-GPS,
3300,2023-10-20 20:36:14,-34.9105540767028,-56.1387442373587,3.937008,4.265092,42.63551481578,46.90060681578,5.905512,0.894776,3.291994856,3.5351051,23,5,8.338,47.22869081578,4.265092,1.901399,3.291994856,0,-0.894776,0,239, 8.5, -4.4,0,0,1024,1024,1024,1024,0,0,0,0,250,11.9,0,95,4.198,4.205,0,0,0,0,4.852,83.66,46.90060681578,3.937008,6,P-GPS,
3400,2023-10-20 20:36:14,-34.9105540450755,-56.1387445962887,3.608924,3.9698164,42.60270641578,46.57252281578,5.905512,0.671082,3.3996720248,3.6431103528,23,5,8.338,47.22869081578,4.265092,1.901399,3.3996720248,0,-0.671082,0.223694,238.9, 9.2, -5.2,0,0,1024,1024,1024,1024,0,0,0,0,250,11.9,0,95,4.198,4.205,0,0,0,0,4.852,83.66,46.57252281578,3.608924,6,P-GPS,
3500,2023-10-20 20:36:14,-34.9105541432129,-56.1387449784409,3.608924,3.9698164,42.60270641578,46.57252281578,5.577428,0.7158208,3.5059384324,3.7629266296,23,5,8.338,47.22869081578,4.265092,1.901399,3.5059384324,-0.223694,-0.671082,0.447388,238.9, 8.6, -3.7,0,0,1024,1024,1024,1024,0,0,0,0,250,11.9,0,95,4.198,4.205,0,0,0,0,4.852,83.66,46.57252281578,3.608924,6,P-GPS,
3600,2023-10-20 20:36:15,-34.9105542399469,-56.1387453166712,3.28084,3.6417324,42.60270641578,46.24443881578,5.577428,0.4921268,3.6001641572,3.8701116724,23,5,8.338,47.22869081578,4.265092,1.901399,3.6001641572,-0.223694,-0.447388,0.447388,238.8, 7.9, -3.2,0,0,1024,1024,1024,1024,0,0,0,0,250,11.9,0,95,4.198,4.205,0,0,0,0,4.852,83.66,46.24443881578,3.28084,6,P-GPS,
3700,2023-10-20 20:36:15,-34.9105543503135,-56.1387456383163,3.28084,3.7073492,42.53708961578,46.24443881578,5.577428,0.4921268,3.689468622,3.9744423844,23,5,8.338,47.22869081578,4.265092,1.901399,3.689468622,-0.223694,-0.447388,0.223694,238.8, 8.2, -2.5,0,0,1024,1024,1024,1024,0,0,0,0,250,11.9,0,95,4.198,4.205,0,0,0,0,4.852,83.66,46.24443881578,3.28084,6,P-GPS,
3800,2023-10-20 20:36:15,-34.9105543740566,-56.1387460089791,3.28084,3.7073492,42.53708961578,46.24443881578,5.577428,0.4921268,3.7981956596,4.0856628604,23,5,8.338,47.22869081578,4.265092,1.901399,3.7981956596,-0.223694,-0.447388,0.223694,238.9, 7.2, -1.2,0,0,1024,1024,1024,1024,0,0,0,0,250,11.9,0,95,4.198,4.205,0,0,0,0,4.852,83.66,46.24443881578,3.28084,6,P-GPS,
3900,2023-10-20 20:36:15,-34.9105544607949,-56.1387462729036,3.28084,3.7073492,42.53708961578,46.24443881578,5.577428,0.4921268,3.8724738772,4.1707350416,23,5,8.338,47.22869081578,4.265092,1.901399,3.8724738772,-0.223694,-0.447388,0,238.7, 7.2, -1.6,0,0,1024,1024,1024,1024,0,0,0,0,250,11.9,0,95,4.198,4.205,0,0,0,0,4.852,83.66,46.24443881578,3.28084,6,P-GPS,
4000,2023-10-20 20:36:15,-34.9105545631748,-56.138746468392,2.952756,3.4776904,42.43866441578,45.91635481578,5.577428,0.223694,3.9262140364,4.2401248076,23,5,8.338,47.22869081578,4.265092,1.901399,3.9262140364,0,-0.223694,0,238.7, 7.5, -1.8,0,0,1024,1024,1024,1024,0,0,0,0,250,11.9,0,95,4.198,4.205,0,0,0,0,4.852,83.66,45.91635481578,2.952756,6,P-GPS,
4100,2023-10-20 20:36:15,-34.9105546637674,-56.1387466249441,2.952756,3.5433072,42.37304761578,45.91635481578,5.577428,0.223694,3.9689305732,4.2996392452,23,5,8.338,47.22869081578,4.265092,1.901399,3.9689305732,0,-0.223694,0,238.8, 6.3, -1.9,0,0,1024,1024,1024,1024,0,0,0,0,250,11.9,0,95,4.198,4.205,0,0,0,0,4.852,83.66,45.91635481578,2.952756,6,P-GPS,
4200,2023-10-20 20:36:15,-34.9105547295179,-56.1387467226785,2.952756,3.5433072,42.37304761578,45.91635481578,5.577428,0.223694,3.9957022276,4.3374673304,23,5,8.459,47.22869081578,4.265092,1.901399,3.9957022276,0,-0.223694,0,238.6, 6.6, -0.5,0,0,1024,1024,1024,1024,0,0,0,0,250,11.9,0,95,4.226,4.217,0,0,0,0,3.429,83.84,45.91635481578,2.952756,6,P-GPS,
4300,2023-10-20 20:36:15,-34.910554805083,-56.138746680578,2.952756,3.5433072,42.37304761578,45.91635481578,5.577428,0.223694,3.9806759804,4.367782292,23,5,8.459,47.22869081578,4.265092,1.901399,3.9957022276,0,-0.223694,0,238.6, 5.1, -1.5,0,0,1024,1024,1024,1024,0,0,0,0,250,11.9,0,95,4.226,4.217,0,0,0,0,3.429,83.84,45.91635481578,2.952756,6,P-GPS,
4400,2023-10-20 20:36:15,-34.9105548004382,-56.138746768156,2.952756,3.5433072,42.37304761578,45.91635481578,5.577428,0,4.0069227004,4.394029012,23,5,8.459,47.22869081578,4.265092,1.901399,4.0069227004,0,0,-0.223694,238.9, 3.8, -3,0,0,1024,1024,1024,1024,0,0,0,0,250,11.9,0,95,4.226,4.217,0,0,0,0,3.429,83.84,45.91635481578,2.952756,6,P-GPS,
4500,2023-10-20 20:36:15,-34.9105547988713,-56.1387468653753,2.952756,3.5433072,42.37304761578,45.91635481578,5.577428,0.223694,4.0359581344,4.4231300628,23,5,8.459,47.22869081578,4.265092,1.901399,4.0359581344,0,-0.223694,-0.223694,238.9, 1.9, -3.1,0,0,1024,1024,1024,1024,0,0,0,0,250,11.9,0,95,4.226,4.217,0,0,0,0,3.429,83.84,45.91635481578,2.952756,6,P-GPS,
4600,2023-10-20 20:36:16,-34.9105548017776,-56.1387469959738,2.624672,3.2152232,42.37304761578,45.58827081578,5.577428,0.223694,4.07480328,4.4622048672,23,5,8.459,47.22869081578,4.265092,1.901399,4.07480328,0,-0.223694,-0.223694,238.5, 5.1, -3.4,0,0,1024,1024,1024,1024,0,0,0,0,250,11.9,0,95,4.226,4.217,0,0,0,0,3.429,83.84,45.58827081578,2.624672,6,P-GPS,
4700,2023-10-20 20:36:16,-34.910554728908,-56.1387472151325,2.624672,3.2152232,42.37304761578,45.58827081578,5.577428,0.223694,4.1424542008,4.532972586,23,5,8.459,47.22869081578,4.265092,1.901399,4.1424542008,0,-0.223694,0,238.4, 5.7, -3.3,0,0,1024,1024,1024,1024,0,0,0,0,250,11.9,0,95,4.226,4.217,0,0,0,0,3.429,83.84,45.58827081578,2.624672,6,P-GPS,
4800,2023-10-20 20:36:16,-34.9105547471482,-56.1387474152071,2.624672,3.2152232,42.37304761578,45.58827081578,5.577428,0.447388,4.2014765124,4.5932088084,23,5,8.459,47.22869081578,4.265092,1.901399,4.2014765124,0,-0.447388,0,238.3, 7.4, -4.3,0,0,1024,1024,1024,1024,0,0,0,0,250,11.9,0,95,4.226,4.217,0,0,0,0,3.429,83.84,45.58827081578,2.624672,6,P-GPS,
4900,2023-10-20 20:36:16,-34.9105547810842,-56.1387476418601,2.624672,3.2480316,42.34023921578,45.58827081578,5.577428,0.447388,4.2679791392,4.6621392568,23,5,8.459,47.22869081578,4.265092,1.901399,4.2679791392,0,-0.447388,0,238.2, 7.7, -4.3,0,0,1024,1024,1024,1024,0,0,0,0,250,11.9,0,95,4.226,4.217,0,0,0,0,3.429,83.84,45.58827081578,2.624672,6,P-GPS,
5000,2023-10-20 20:36:16,-34.9105548568858,-56.138747881071,2.952756,3.5761156,42.34023921578,45.91635481578,5.577428,0.4921268,4.3371392464,4.7388781044,23,5,8.459,47.22869081578,4.265092,1.901399,4.3371392464,-0.223694,-0.447388,0,238, 9, -3.4,0,0,1024,1024,1024,1024,0,0,0,0,250,11.9,0,95,4.226,4.217,0,0,0,0,3.429,83.84,45.91635481578,2.952756,6,P-GPS,
5100,2023-10-20 20:36:16,-34.9105549114122,-56.1387482652091,2.952756,3.5761156,42.34023921578,45.91635481578,5.577428,0.4921268,4.4503282264,4.8555119664,23,5,8.459,47.22869081578,4.265092,1.901399,4.4503282264,-0.223694,-0.447388,0,238, 10.4, -3.5,0,0,1024,1024,1024,1024,0,0,0,0,250,11.9,0,95,4.226,4.217,0,0,0,0,3.429,83.84,45.91635481578,2.952756,6,P-GPS,"Punto de origen actualizado. Altitud de RPO establecida en 100m (Code: 3000001)"
5200,2023-10-20 20:36:16,-34.9105549752529,-56.1387485288776,2.952756,3.6417324,42.27462241578,45.91635481578,5.577428,0.447388,4.5275263916,4.9377626252,23,5,8.459,47.22869081578,4.265092,1.901399,4.5275263916,0,-0.447388,0,238.3, 9.6, -4.1,0,0,1024,1024,1024,1024,0,0,0,0,250,11.9,0,95,4.226,4.217,0,0,0,0,3.429,83.84,45.91635481578,2.952756,6,P-GPS,
5300,2023-10-20 20:36:16,-34.9105550365264,-56.1387487775005,2.952756,3.6417324,42.27462241578,45.91635481578,5.577428,0.447388,4.6004266564,5.015420108,23,5,8.381,47.22869081578,4.265092,1.901399,4.6004266564,0,-0.447388,0,238.2, 10.5, -4.4,0,0,1024,1024,1024,1024,0,0,0,0,250,11.9,0,95,4.198,4.198,0,0,0,0,4.714,83.84,45.91635481578,2.952756,6,P-GPS,
5400,2023-10-20 20:36:16,-34.9105551150418,-56.1387490027654,2.952756,3.6417324,42.27462241578,45.91635481578,5.577428,0.4921268,4.6662074984,5.0886484568,23,5,8.381,47.22869081578,4.265092,1.901399,4.6662074984,-0.223694,-0.447388,0,238.1, 11.1, -3.2,0,0,1024,1024,1024,1024,0,0,0,0,250,11.9,0,95,4.198,4.198,0,0,0,0,4.714,83.84,45.91635481578,2.952756,6,P-GPS,
5500,2023-10-20 20:36:16,-34.9105551592378,-56.1387493465149,2.952756,3.6417324,42.27462241578,45.91635481578,5.905512,0.223694,4.7681760056,5.1927823184,23,5,8.381,47.22869081578,4.265092,1.901399,4.7681760056,0,-0.223694,0,238.1, 11.5, -3.7,0,0,1024,1024,1024,1024,0,0,0,0,250,11.9,0,95,4.198,4.198,0,0,0,0,4.714,83.84,45.91635481578,2.952756,6,P-GPS,
5600,2023-10-20 20:36:17,-34.9105552457939,-56.1387494742739,2.952756,3.6417324,42.27462241578,45.91635481578,5.905512,0.223694,4.8050198388,5.2423558108,23,5,8.381,47.22869081578,4.265092,1.901399,4.8050198388,0,-0.223694,0,238.2, 11.2, -3.3,0,0,1024,1024,1137,1024,0,0,17,0,250,11.9,0,95,4.198,4.198,0,0,0,0,4.714,83.84,45.91635481578,2.952756,6,P-GPS,
5700,2023-10-20 20:36:17,-34.9105553274699,-56.1387495310883,2.624672,3.3464568,42.24181401578,45.58827081578,5.905512,0,4.8209647212,5.2766733972,23,5,8.381,47.22869081578,4.265092,1.901399,4.8209647212,0,0,0,238.1, 10.8, -3.2,0,0,1024,1024,1630,1024,0,0,92,0,250,11.9,0,95,4.198,4.198,0,0,0,0,4.714,83.84,45.58827081578,2.624672,6,P-GPS,
5800,2023-10-20 20:36:17,-34.9105553625761,-56.1387494919194,2.624672,3.3136484,42.27462241578,45.58827081578,5.905512,0,4.8088584216,5.2940290408,23,5,8.381,47.22869081578,4.265092,1.901399,4.8209647212,0,0,-0.223694,238.1, 9.4, -3,0,0,1024,1024,1675,1024,0,0,99,0,250,11.9,0,95,4.198,4.198,0,0,0,0,4.714,83.84,45.58827081578,2.624672,6,P-GPS,
5900,2023-10-20 20:36:17,-34.9105553767224,-56.1387493718638,2.624672,3.3136484,42.27462241578,45.58827081578,5.905512,0,4.77280199,5.3303151312,23,5,8.381,47.22869081578,4.265092,1.901399,4.8209647212,0,0,-0.671082,238, 7.8, -2.2,0,0,1024,1024,1386,1024,0,0,55,0,250,11.9,0,95,4.198,4.198,0,0,0,0,4.714,83.84,45.58827081578,2.624672,6,P-GPS,
6000,2023-10-20 20:36:17,-34.9105553725332,-56.1387491864599,2.624672,3.3136484,42.27462241578,45.58827081578,5.905512,0.223694,4.7173886024,5.3857941356,23,5,8.381,47.22869081578,4.265092,1.901399,4.8209647212,0,0.223694,-1.342164,238.3, 6.7, -1.9,0,0,1024,1024,1024,1024,0,0,0,0,250,11.9,0,95,4.198,4.198,0,0,0,0,4.714,83.84,45.58827081578,2.624672,6,P-GPS,
6100,2023-10-20 20:36:17,-34.9105553752228,-56.138749014479,2.624672,3.3136484,42.27462241578,45.58827081578,6.233596,0.223694,4.6659122228,5.4372705152,23,5,8.381,47.22869081578,4.265092,1.901399,4.8209647212,0,0.223694,-2.013246,238.1, 6.8, -1.2,0,0,1024,1024,1024,1024,0,0,0,0,250,11.9,0,95,4.198,4.198,0,0,0,0,4.714,83.84,45.58827081578,2.624672,6,P-GPS,
6200,2023-10-20 20:36:17,-34.9105553915139,-56.1387488280357,2.952756,3.6417324,42.27462241578,45.91635481578,6.56168,0.223694,4.6100067092,5.4933728792,23,5,8.408,47.22869081578,4.265092,1.901399,4.8209647212,0,0.223694,-1.565858,238, 8, -1.4,0,0,1614,1024,1024,1024,89,0,0,0,250,11.9,0,95,4.211,4.215,0,0,0,0,4.048,83.84,45.91635481578,2.952756,6,P-GPS,
6300,2023-10-20 20:36:17,-34.9105554193705,-56.138748642447,2.952756,3.6417324,42.27462241578,45.91635481578,6.889764,0.223694,4.5541996208,5.5498033272,23,5,8.408,47.22869081578,4.265092,1.901399,4.8209647212,0,0.223694,-0.894776,238.2, 3.7, -1.4,0,0,1684,1024,1024,1024,100,0,0,0,250,11.9,0,95,4.211,4.215,0,0,0,0,4.048,83.84,45.91635481578,2.952756,6,P-GPS,
6400,2023-10-20 20:36:17,-34.9105552416041,-56.1387485389739,2.952756,3.6417324,42.27462241578,45.91635481578,6.889764,0.223694,4.5254594624,5.6216865316,23,5,8.408,47.22869081578,4.265092,1.901399,4.8209647212,-0.223694,0,-0.671082,238.6, -6.9, -0.1,0,0,1684,1024,1098,1024,100,0,11,0,250,11.9,0,95,4.211,4.215,0,0,0,0,4.048,83.84,45.91635481578,2.952756,6,P-GPS,
6500,2023-10-20 20:36:17,-34.9105553294285,-56.1387486689437,2.952756,3.6417324,42.27462241578,45.91635481578,6.889764,0.6263432,4.5631235056,5.672080234,23,5,8.408,47.22869081578,4.265092,1.901399,4.8209647212,-0.447388,-0.447388,-0.447388,238.7, -8.8, -0.4,0,0,1684,1024,1126,1024,100,0,15,0,250,11.9,0,95,4.211,4.215,0,0,0,0,4.048,83.84,45.91635481578,2.952756,6,P-GPS,
6600,2023-10-20 20:36:17,-34.9105554909579,-56.1387490646759,2.624672,3.3136484,42.27462241578,45.58827081578,6.889764,1.11847,4.6798886012,5.8043308944,23,5,8.408,47.22869081578,4.265092,1.901399,4.8209647212,-0.671082,-0.894776,0,238.1, -12.2, -1.8,0,0,1684,1024,1024,1024,100,0,0,0,250,11.9,0,95,4.211,4.215,0,0,0,0,4.048,83.84,45.58827081578,2.624672,6,P-GPS,
6700,2023-10-20 20:36:18,-34.9105558047037,-56.1387497619351,2.624672,3.4120736,42.17619721578,45.58827081578,6.889764,1.9237684,4.8875329648,6.0422902196,23,5,8.408,47.22869081578,4.265092,1.9237684,4.8875329648,-1.11847,-1.565858,0,238.1, -12.1, -2.7,0,0,1684,1024,1024,1024,100,0,0,0,250,11.9,0,95,4.211,4.215,0,0,0,0,4.048,83.84,45.58827081578,2.624672,6,P-GPS,
6800,2023-10-20 20:36:18,-34.9105563170136,-56.1387508485467,2.624672,3.4776904,42.11058041578,45.58827081578,6.889764,2.7290668,5.2166668336,6.4172902316,23,5,8.408,47.22869081578,4.265092,2.7290668,5.2166668336,-1.565858,-2.23694,-0.223694,238.5, -11, -0.9,0,0,1684,1024,1129,1024,100,0,16,0,250,11.9,0,95,4.211,4.215,0,0,0,0,4.048,83.84,45.58827081578,2.624672,6,P-GPS,
6900,2023-10-20 20:36:18,-34.9105570427334,-56.138752115099,2.624672,3.5433072,42.04496361578,45.58827081578,6.889764,3.4225182,5.6112862688,6.8795605876,23,5,8.408,47.22869081578,4.265092,3.4225182,5.6112862688,-1.789552,-2.908022,0,238.1, -9, -1.5,0,0,1684,1024,1365,1024,100,0,52,0,250,11.9,0,95,4.211,4.215,0,0,0,0,4.048,83.84,45.58827081578,2.624672,6,P-GPS,
7000,2023-10-20 20:36:18,-34.9105579144743,-56.1387536613161,2.624672,3.6745408,41.91373001578,45.58827081578,6.889764,4.026492,6.1052495392,7.4409779284,23,5,8.408,47.22869081578,4.265092,4.026492,6.1052495392,-2.23694,-3.35541,0,238.1, -8.4, -1.3,0,0,1684,1024,1365,1024,100,0,52,0,250,11.9,0,95,4.211,4.215,0,0,0,0,4.048,83.84,45.58827081578,2.624672,6,P-GPS,
7100,2023-10-20 20:36:18,-34.910558980434,-56.1387555372101,2.624672,3.8057744,41.78249641578,45.58827081578,7.217848,4.8317904,6.719324362,8.1238191576,23,5,8.408,47.22869081578,4.265092,4.8317904,6.719324362,-2.684328,-4.026492,-0.447388,238.1, -7.4, -0.1,0,0,1684,1024,1593,1024,100,0,86,0,250,11.9,0,95,4.211,4.215,0,0,0,0,4.048,83.84,45.58827081578,2.624672,6,P-GPS,
7200,2023-10-20 20:36:18,-34.9105605573892,-56.1387579118503,2.952756,4.265092,41.65126281578,45.91635481578,7.217848,5.3462866,7.5325789812,9.0380252236,23,5,8.408,47.22869081578,4.265092,5.3462866,7.5325789812,-2.908022,-4.47388,-1.11847,238.1, -5.1, -1.5,0,0,1684,1024,1662,1024,100,0,97,0,250,11.9,0,95,4.211,4.215,0,0,0,0,4.048,83.84,45.91635481578,2.952756,6,P-GPS,
7300,2023-10-20 20:36:18,-34.9105619717689,-56.138760212679,2.952756,4.3963256,41.52002921578,45.91635481578,7.545932,5.7713052,8.3291341248,9.8983598968,23,5,8.304,47.22869081578,4.265092,5.7713052,8.3291341248,-3.35541,-4.697574,-1.789552,238, -5.7, -0.6,0,0,1684,1024,1678,1024,100,0,99,0,250,11.9,0,95,4.218,4.195,0,0,0,0,4.47,83.84,45.91635481578,2.952756,6,P-GPS,
7400,2023-10-20 20:36:18,-34.9105634434792,-56.1387626048439,3.608924,5.2165356,41.35598721578,46.57252281578,8.2021,6.263432,9.1696853328,10.7931105816,23,5,8.304,47.22869081578,4.265092,6.263432,9.1696853328,-3.579104,-5.144962,-2.684328,238.1, -5.5, 0,0,0,1684,1024,1684,1024,100,0,100,0,250,11.9,0,95,4.218,4.195,0,0,0,0,4.47,83.84,46.57252281578,3.608924,6,P-GPS,
7500,2023-10-20 20:36:18,-34.9105650948778,-56.138765328992,3.937008,5.7086616,41.19194521578,46.90060681578,8.530184,6.7555588,10.135170928,11.8066932912,23,5,8.304,47.22869081578,4.265092,6.7555588,10.135170928,-3.802798,-5.59235,-3.35541,237.9, -4.2, -0.5,0,0,1684,1024,1684,1024,100,0,100,0,250,11.9,0,95,4.218,4.195,0,0,0,0,4.47,83.84,46.90060681578,3.937008,6,P-GPS,
7600,2023-10-20 20:36:19,-34.9105668035739,-56.1387680200023,4.593176,6.56168,40.99509481578,47.55677481578,9.186352,7.2476856,11.1075462872,12.824967602,23,5,8.304,47.55677481578,4.593176,7.2476856,11.1075462872,-4.026492,-6.039738,-4.026492,238.1, -3.7, -0.2,0,0,1684,1024,1684,1024,100,0,100,0,250,11.9,0,95,4.218,4.195,0,0,0,0,4.47,83.84,47.55677481578,4.593176,6,P-GPS,
7700,2023-10-20 20:36:19,-34.9105690458729,-56.1387709526556,5.577428,7.7427824,40.79824441578,48.54102681578,9.84252,7.5608572,12.23015131,14.024606748,23,5,8.304,48.54102681578,5.577428,7.5608572,12.23015131,-4.250186,-6.263432,-4.921268,237.9, -4.6, 0.2,0,0,1684,1024,1684,1024,100,0,100,0,250,11.9,0,95,4.218,4.195,0,0,0,0,4.47,83.84,48.54102681578,5.577428,6,P-GPS,
7800,2023-10-20 20:36:19,-34.9105709233199,-56.1387738776853,6.233596,8.5958008,40.60139401578,49.19719481578,10.826772,7.8740288,13.3081369088,15.1359584896,23,5,8.304,49.19719481578,6.233596,7.8740288,13.3081369088,-4.47388,-6.487126,-5.59235,237.9, -4.4, -0.2,0,0,1684,1024,1684,1024,100,0,100,0,250,11.9,0,95,4.218,4.195,0,0,0,0,4.47,83.84,49.19719481578,6.233596,6,P-GPS,
7900,2023-10-20 20:36:19,-34.9105729635062,-56.1387770876241,7.545932,10.1049872,40.40454361578,50.50953081578,11.811024,8.1872004,14.493766868,16.351050392,23,5,8.304,50.50953081578,7.545932,8.1872004,14.493766868,-4.697574,-6.71082,-5.816044,238, -4.5, 0.3,0,0,1684,1024,1684,1024,100,0,100,0,250,11.9,0,95,4.218,4.195,0,0,0,0,4.47,83.84,50.50953081578,7.545932,6,P-GPS,
8000,2023-10-20 20:36:19,-34.9105750070959,-56.1387801711314,8.530184,11.2860896,40.20769321578,51.49378281578,12.795276,8.3661556,15.6506238604,17.537238094,23,5,8.304,51.49378281578,8.530184,8.3661556,15.6506238604,-4.697574,-6.934514,-6.263432,238.1, -6.1, 0.5,0,0,1684,1024,1684,1024,100,0,100,0,250,11.9,0,95,4.218,4.195,0,0,0,0,4.47,83.84,51.49378281578,8.530184,6,P-GPS,
8100,2023-10-20 20:36:19,-34.9105775243544,-56.1387832278657,9.514436,12.5000004,39.97803441578,52.47803481578,13.779528,8.8806518,16.8850727188,18.8333667444,23,5,8.304,52.47803481578,9.514436,8.8806518,16.8850727188,-4.921268,-7.381902,-6.263432,238.1, -7, 0.5,0,0,1684,1023,1024,1024,100,-0,0,0,250,11.9,0,95,4.218,4.195,0,0,0,0,4.47,83.84,52.47803481578,9.514436,6,P-GPS,
8200,2023-10-20 20:36:19,-34.9105796987489,-56.1387865716247,10.498688,13.7139112,39.74837561578,53.46228681578,14.76378,9.059607,18.142553074,20.1101712472,23,5,8.321,53.46228681578,10.498688,9.059607,18.142553074,-4.921268,-7.605596,-6.039738,238.1, -7.5, 0,0,0,1684,1020,1024,1024,100,-1,0,0,250,11.9,0,95,4.12,4.113,0,0,0,0,4.663,83.84,53.46228681578,10.498688,6,P-GPS,
8300,2023-10-20 20:36:19,-34.9105820224098,-56.1387902029723,11.48294,14.8950136,39.55152521578,54.44653881578,15.748032,9.2609316,19.5042329076,21.4882552808,23,5,8.321,54.44653881578,11.48294,9.2609316,19.5042329076,-5.59235,-7.381902,-5.368656,233.6, -7.8, 0.4,0,0,1684,992,1024,1024,100,-5,0,0,250,11.9,0,95,4.12,4.113,0,0,0,0,4.663,83.84,54.44653881578,11.48294,6,P-GPS,
8400,2023-10-20 20:36:19,-34.9105841526507,-56.1387935694847,12.467192,16.1089244,39.32186641578,55.43079081578,16.4042,9.5741032,20.7642067012,22.760499416,23,5,8.321,55.43079081578,12.467192,9.5741032,20.7642067012,-5.816044,-7.605596,-4.921268,233.6, -9.3, 0.6,0,0,1684,989,1024,1024,100,-5,0,0,250,11.9,0,95,4.12,4.113,0,0,0,0,4.663,83.84,55.43079081578,12.467192,6,P-GPS,
8500,2023-10-20 20:36:19,-34.9105865301252,-56.1387966006345,13.12336,16.9947512,39.09220761578,56.08695881578,17.060368,9.5741032,21.9849744568,24.0154535244,23,5,8.321,56.08695881578,13.12336,9.5741032,21.9849744568,-5.816044,-7.605596,-4.026492,233.7, -9.5, 0,0,0,1684,990,1024,1024,100,-5,0,0,250,11.9,0,95,4.12,4.113,0,0,0,0,4.663,83.84,56.08695881578,13.12336,6,P-GPS,
8600,2023-10-20 20:36:20,-34.9105888476811,-56.1388001941955,13.779528,17.8477696,38.89535721578,56.74312681578,17.716536,10.06623,23.3418970724,25.3832685288,23,5,8.321,56.74312681578,13.779528,10.06623,23.3418970724,-6.039738,-8.052984,-3.131716,233.8, -10.8, -1,0,0,1684,989,1024,1024,100,-5,0,0,250,11.9,0,95,4.12,4.113,0,0,0,0,4.663,83.84,56.74312681578,13.779528,6,P-GPS,
8700,2023-10-20 20:36:20,-34.9105913832303,-56.1388041463271,14.107612,18.4055124,38.66569841578,57.07121081578,18.04462,10.06623,24.8330388524,26.8846137212,23,5,8.321,57.07121081578,14.107612,10.06623,24.8330388524,-6.039738,-8.052984,-2.23694,233.6, -9.2, -0.3,0,0,1684,987,1024,1024,100,-6,0,0,250,11.9,0,95,4.12,4.113,0,0,0,0,4.663,83.84,57.07121081578,14.107612,6,P-GPS,
8800,2023-10-20 20:36:20,-34.910593785905,-56.138808022828,14.76378,19.3241476,38.40323121578,57.72737881578,18.372704,10.3794016,26.280512652,28.3384523504,23,5,8.321,57.72737881578,14.76378,10.3794016,26.280512652,-6.263432,-8.276678,-1.342164,233.6, -10.4, -1.6,0,0,1684,977,1024,1024,100,-7,0,0,250,11.9,0,95,4.12,4.113,0,0,0,0,4.663,83.84,57.72737881578,14.76378,6,P-GPS,
8900,2023-10-20 20:36:20,-34.9105963602534,-56.1388120041536,14.76378,19.5538064,38.17357241578,57.72737881578,18.700788,10.737312,27.788550758,29.8553815328,23,5,8.321,57.72737881578,14.76378,10.737312,27.788550758,-6.263432,-8.724066,-0.671082,233.7, -11, -2.2,0,0,1684,977,1024,1024,100,-7,0,0,250,11.9,0,95,4.12,4.113,0,0,0,0,4.663,83.84,57.72737881578,14.76378,6,P-GPS,
9000,2023-10-20 20:36:20,-34.9105988599638,-56.1388161984923,15.091864,20.1443576,37.91110521578,58.05546281578,19.028872,11.0504836,29.3366479204,31.4066939184,23,5,8.321,58.05546281578,15.091864,11.0504836,29.3366479204,-6.487126,-8.94776,-0.223694,233.7, -10.6, -2.5,0,0,1684,977,1024,1024,100,-7,0,0,250,11.9,0,95,4.12,4.113,0,0,0,0,4.663,83.84,58.05546281578,15.091864,6,P-GPS,
9100,2023-10-20 20:36:20,-34.9106015824128,-56.1388207685555,15.419948,20.8005256,37.58302121578,58.38354681578,19.028872,11.3636552,31.0235574232,33.096785836,23,5,8.321,58.38354681578,15.419948,11.3636552,31.0235574232,-6.71082,-9.171454,0,233.5, -9, -1.5,0,0,1684,977,1024,1024,100,-7,0,0,250,11.9,0,95,4.12,4.113,0,0,0,0,4.663,83.84,58.38354681578,15.419948,6,P-GPS,
9200,2023-10-20 20:36:20,-34.9106042452868,-56.1388253087456,15.419948,21.0301844,37.35336241578,58.38354681578,19.356956,11.855782,32.6915364792,34.766733396,23,5,8.321,58.38354681578,15.419948,11.855782,32.6915364792,-6.934514,-9.618842,0,233.4, -8.1, -2.7,0,0,1684,960,1024,1024,100,-10,0,0,250,11.9,0,95,4.12,4.113,0,0,0,0,4.663,83.84,58.38354681578,15.419948,6,P-GPS,
9300,2023-10-20 20:36:20,-34.9106071148656,-56.1388301998068,15.419948,21.32546,37.05808681578,58.38354681578,19.356956,11.9899984,34.488846248,36.566274136,23,5,8.224,58.38354681578,15.419948,11.9899984,34.488846248,-7.158208,-9.618842,0,233.5, -7.7, -3,0,0,1684,956,1024,1024,100,-10,0,0,250,11.9,0,95,4.191,4.188,0,0,0,0,7.105,83.84,58.38354681578,15.419948,6,P-GPS,
9400,2023-10-20 20:36:20,-34.9106098493814,-56.1388351603506,15.419948,21.6207356,36.76281121578,58.38354681578,19.68504,12.30317,36.276904048,38.354331936,23,5,8.224,58.38354681578,15.419948,12.30317,36.276904048,-7.381902,-9.842536,0,233.5, -6.9, -2.9,0,0,1684,955,1024,1024,100,-10,0,0,250,11.9,0,95,4.191,4.188,0,0,0,0,7.105,83.84,58.38354681578,15.419948,6,P-GPS,
9500,2023-10-20 20:36:20,-34.9106129436953,-56.1388401090476,15.748032,22.2769036,36.43472721578,58.71163081578,19.68504,12.4821252,38.133531404,40.21653672,23,5,8.224,58.71163081578,15.748032,12.4821252,38.133531404,-7.381902,-10.06623,0,233.6, -7.5, -3,0,0,1684,956,1024,1024,100,-10,0,0,250,11.9,0,95,4.191,4.188,0,0,0,0,7.105,83.84,58.71163081578,15.748032,6,P-GPS,
9600,2023-10-20 20:36:21,-34.9106159368372,-56.1388448733351,15.748032,22.5721792,36.13945161578,58.71163081578,20.013124,12.6163416,39.92454196,42.012140452,23,5,8.224,58.71163081578,15.748032,12.6163416,39.92454196,-7.605596,-10.06623,0,233.6, -8.6, -2.5,0,0,1684,949,1024,1024,100,-11,0,0,250,11.9,0,95,4.191,4.188,0,0,0,0,7.105,83.84,58.71163081578,15.748032,6,P-GPS,
9700,2023-10-20 20:36:21,-34.9106191450608,-56.1388499476671,15.748032,22.8674548,35.84417601578,58.71163081578,20.013124,12.9295132,41.836615512,43.929135264,23,5,8.224,58.71163081578,15.748032,12.9295132,41.836615512,-7.82929,-10.289924,0,233.6, -8.9, -2,0,0,1684,948,1024,1024,100,-12,0,0,250,11.9,0,95,4.191,4.188,0,0,0,0,7.105,83.84,58.71163081578,15.748032,6,P-GPS,
9800,2023-10-20 20:36:21,-34.910622316234,-56.1388548426458,15.748032,23.1627304,35.54890041578,58.71163081578,20.341208,13.1084684,43.696851792,45.79560514,23,5,8.224,58.71163081578,15.748032,13.1084684,43.696851792,-7.82929,-10.513618,0,233.7, -7.8, -2.2,0,0,1684,948,1024,1024,100,-12,0,0,250,11.9,0,95,4.191,4.188,0,0,0,0,7.105,83.84,58.71163081578,15.748032,6,P-GPS,
9900,2023-10-20 20:36:21,-34.9106256159957,-56.1388600687615,16.076116,23.8188984,35.22081641578,59.03971481578,20.341208,13.2426848,45.66601196,47.7690304,23,5,8.224,59.03971481578,16.076116,13.2426848,45.66601196,-8.052984,-10.513618,0,233.8, -7.5, -2.1,0,0,1684,944,1024,1024,100,-12,0,0,250,11.9,0,95,4.191,4.188,0,0,0,0,7.105,83.84,59.03971481578,16.076116,6,P-GPS,
10000,2023-10-20 20:36:21,-34.9106288628785,-56.138865054963,16.076116,24.114174,34.92554081578,59.03971481578,20.669292,13.5558564,47.565290236,49.673886104,23,5,8.224,59.03971481578,16.076116,13.5558564,47.565290236,-8.276678,-10.737312,0,233.7, -7.3, -2.4,0,0,1684,920,1024,1024,100,-16,0,0,250,11.9,0,95,4.191,4.188,0,0,0,0,7.105,83.84,59.03971481578,16.076116,6,P-GPS,
10100,2023-10-20 20:36:21,-34.9106323501913,-56.1388703347446,16.076116,24.4094496,34.63026521578,59.03971481578,20.997376,13.5558564,49.586943844,51.702429476,23,5,8.224,59.03971481578,16.076116,13.5558564,49.586943844,-8.276678,-10.737312,0,233.8, -7.1, -2.2,0,0,1684,911,1024,1024,100,-17,0,0,250,11.9,0,95,4.191,4.188,0,0,0,0,7.105,83.84,59.03971481578,16.076116,6,P-GPS,
10200,2023-10-20 20:36:21,-34.9106356012234,-56.1388753948478,16.4042,25.0328092,34.33498961578,59.36779881578,20.997376,13.6900728,51.506235244,53.625657884,23,5,8.224,59.36779881578,16.4042,13.6900728,51.506235244,-8.500372,-10.737312,0,233.8, -7.1, -1.9,0,0,1684,896,1024,1024,100,-19,0,0,250,11.9,0,95,4.191,4.188,0,0,0,0,7.105,83.84,59.36779881578,16.4042,6,P-GPS,
10300,2023-10-20 20:36:21,-34.9106390670669,-56.1388808383852,16.4042,25.3937016,33.97409721578,59.36779881578,21.32546,13.869028,53.56463426,55.68733774,23,5,8.354,59.36779881578,16.4042,13.869028,53.56463426,-8.500372,-10.961006,0,234.1, -7.8, -1.8,0,0,1684,880,1024,1024,100,-22,0,0,250,11.9,0,95,4.165,4.161,0,0,0,0,4.159,83.84,59.36779881578,16.4042,6,P-GPS,
10400,2023-10-20 20:36:21,-34.9106423965053,-56.1388860327317,16.4042,25.6561688,33.71163001578,59.36779881578,21.653544,13.869028,55.533794428,57.660106832,23,5,8.354,59.36779881578,16.4042,13.869028,55.533794428,-8.500372,-10.961006,0,234, -8.5, -2.4,0,0,1684,868,1024,1024,100,-24,0,0,250,11.9,0,95,4.165,4.161,0,0,0,0,4.159,83.84,59.36779881578,16.4042,6,P-GPS,
10500,2023-10-20 20:36:21,-34.9106459239234,-56.1388915493873,16.732284,26.3123368,33.38354601578,59.69588281578,21.653544,14.0479832,57.623689508,59.752954668,23,5,8.354,59.69588281578,16.732284,14.0479832,57.623689508,-8.500372,-11.1847,0,234.1, -8.6, -3.3,0,0,1684,857,1024,1024,100,-25,0,0,250,11.9,0,95,4.165,4.161,0,0,0,0,4.159,83.84,59.69588281578,16.732284,6,P-GPS,
10600,2023-10-20 20:36:22,-34.9106494331225,-56.1388972385324,16.732284,26.5419956,33.15388721578,59.69588281578,21.981628,14.0479832,59.751970416,61.882875996,23,5,8.354,59.69588281578,16.732284,14.0479832,59.751970416,-8.500372,-11.1847,0,234, -8.2, -5.2,0,0,1684,857,1024,1024,100,-25,0,0,250,11.9,0,95,4.165,4.161,0,0,0,0,4.159,83.84,59.69588281578,16.732284,6,P-GPS,
10700,2023-10-20 20:36:22,-34.9106531373701,-56.1389030614716,17.060368,27.1325468,32.89142001578,60.02396681578,22.309712,14.3611548,61.954070224,64.08792856,23,5,8.354,60.02396681578,17.060368,14.3611548,61.954070224,-8.724066,-11.408394,0,234, -8.1, -5.9,0,0,1684,844,1024,1024,100,-27,0,0,250,11.9,0,95,4.165,4.161,0,0,0,0,4.159,83.84,60.02396681578,17.060368,6,P-GPS,
10800,2023-10-20 20:36:22,-34.9106566849158,-56.1389085882712,17.060368,27.395014,32.62895281578,60.02396681578,22.309712,14.4953712,64.051183152,66.18766616,23,5,8.354,60.02396681578,17.060368,14.4953712,64.051183152,-8.94776,-11.408394,0,234.1, -7, -6.2,0,0,1684,833,1024,1024,100,-29,0,0,250,11.9,0,95,4.165,4.161,0,0,0,0,4.159,83.84,60.02396681578,17.060368,6,P-GPS,
10900,2023-10-20 20:36:22,-34.9106604559688,-56.1389144037616,17.388452,27.9527568,32.39929401578,60.35205081578,22.637796,14.4953712,66.266078236,68.405842084,23,5,8.354,60.35205081578,17.388452,14.4953712,66.266078236,-8.94776,-11.408394,-0.223694,234.3, -8, -6.1,0,0,1684,825,1024,1024,100,-30,0,0,250,11.9,0,95,4.165,4.161,0,0,0,0,4.159,83.84,60.35205081578,17.388452,6,P-GPS,
11000,2023-10-20 20:36:22,-34.9106639799867,-56.1389197505395,17.388452,28.1824156,32.16963521578,60.35205081578,22.96588,14.6295876,68.314634732,70.458335588,23,5,8.354,60.35205081578,17.388452,14.6295876,68.314634732,-9.171454,-11.408394,-0.223694,234.2, -8, -6.9,0,0,1684,815,1024,1024,100,-32,0,0,250,11.9,0,95,4.165,4.161,0,0,0,0,4.159,83.84,60.35205081578,17.388452,6,P-GPS,
11100,2023-10-20 20:36:22,-34.9106674468658,-56.1389249434443,17.388452,28.379266,31.97278481578,60.35205081578,23.293964,14.4730018,70.313650544,72.461944576,23,5,8.354,60.35205081578,17.388452,14.6295876,70.313650544,-9.171454,-11.1847,0,234.2, -8.3, -6.8,0,0,1684,813,1024,1024,100,-32,0,0,250,11.9,0,95,4.165,4.161,0,0,0,0,4.159,83.84,60.35205081578,17.388452,6,P-GPS,
11200,2023-10-20 20:36:22,-34.9106711125258,-56.1389302319595,17.388452,28.6089248,31.74312601578,60.35205081578,23.622048,14.6072182,72.378283156,74.533466952,23,5,8.354,60.35205081578,17.388452,14.6295876,72.378283156,-9.395148,-11.1847,0,234.2, -8.8, -6.5,0,0,1684,799,1024,1024,100,-34,0,0,250,11.9,0,95,4.165,4.161,0,0,0,0,4.159,83.84,60.35205081578,17.388452,6,P-GPS,
11300,2023-10-20 20:36:22,-34.9106750534645,-56.1389358072015,17.388452,28.8385836,31.51346721578,60.35205081578,23.622048,14.7414346,74.57185278,76.735894844,23,5,8.312,60.35205081578,17.388452,14.7414346,74.57185278,-9.618842,-11.1847,0,234.1, -8.7, -7.2,0,0,1684,789,1024,1024,100,-36,0,0,250,11.9,0,95,4.167,4.162,0,0,0,0,5.197,83.84,60.35205081578,17.388452,6,P-GPS,
11400,2023-10-20 20:36:22,-34.9106788806206,-56.138941181131,17.388452,29.035434,31.31661681578,60.35205081578,23.622048,14.7414346,76.692587756,78.865488088,23,5,8.312,60.35205081578,17.388452,14.7414346,76.692587756,-9.618842,-11.1847,0,234.6, -9.6, -6.1,0,0,1684,789,1024,1024,100,-36,0,0,250,11.9,0,95,4.167,4.162,0,0,0,0,5.197,83.84,60.35205081578,17.388452,6,P-GPS,
11500,2023-10-20 20:36:22,-34.9106829102248,-56.1389467261814,17.388452,29.2322844,31.11976641578,60.35205081578,23.622048,15.0769756,78.898624572,81.082023592,23,5,8.312,60.35205081578,17.388452,15.0769756,78.898624572,-9.842536,-11.408394,0,234.4, -9.4, -6.5,0,0,1684,788,1024,1024,100,-36,0,0,250,11.9,0,95,4.167,4.162,0,0,0,0,5.197,83.84,60.35205081578,17.388452,6,P-GPS,
11600,2023-10-20 20:36:23,-34.9106868889955,-56.1389521983957,17.388452,29.4291348,30.92291601578,60.35205081578,23.622048,15.211192,81.076774248,83.270343872,23,5,8.312,60.35205081578,17.388452,15.211192,81.076774248,-10.06623,-11.408394,0,234.2, -9.5, -6.7,0,0,1684,788,1024,1024,100,-36,0,0,250,11.9,0,95,4.167,4.162,0,0,0,0,5.197,83.84,60.35205081578,17.388452,6,P-GPS,
11700,2023-10-20 20:36:23,-34.9106911511285,-56.1389579540356,17.388452,29.6259852,30.72606561578,60.35205081578,23.622048,15.211192,83.385173272,85.59055392,23,5,8.312,60.35205081578,17.388452,15.211192,83.385173272,-10.06623,-11.1847,0,234.3, -10.7, -6.8,0,0,1684,785,1024,1024,100,-36,0,0,250,11.9,0,95,4.167,4.162,0,0,0,0,5.197,83.84,60.35205081578,17.388452,6,P-GPS,
11800,2023-10-20 20:36:23,-34.9106952733455,-56.1389633901244,17.388452,29.7900272,30.56202361578,60.35205081578,26.24672,15.1888226,85.586616912,87.805777088,23,5,8.312,60.35205081578,17.388452,15.211192,85.586616912,-10.289924,-11.1847,0,234.1, -9.9, -5.9,0,0,1684,773,1024,1024,100,-38,0,0,250,11.9,0,95,4.167,4.162,0,0,0,0,5.197,83.84,60.35205081578,17.388452,6,P-GPS,
11900,2023-10-20 20:36:23,-34.9106997707561,-56.1389691334787,17.060368,29.6259852,30.39798161578,60.02396681578,26.24672,15.3454084,87.94455662,90.181761416,23,5,8.312,60.35205081578,17.388452,15.3454084,87.94455662,-10.513618,-11.1847,0,234.1, -10, -4.9,0,0,1684,771,1024,1024,100,-38,0,0,250,11.9,0,95,4.167,4.162,0,0,0,0,5.197,83.84,60.02396681578,17.060368,6,P-GPS,
12000,2023-10-20 20:36:23,-34.9107041217891,-56.1389746237036,17.060368,29.8228356,30.20113121578,60.02396681578,26.574804,15.5019942,90.210632808,92.466210308,23,5,8.312,60.35205081578,17.388452,15.5019942,90.210632808,-10.737312,-11.1847,0,234, -9, -4.7,0,0,1684,765,1024,1024,100,-39,0,0,250,11.9,0,95,4.167,4.162,0,0,0,0,5.197,83.84,60.02396681578,17.060368,6,P-GPS,
12100,2023-10-20 20:36:23,-34.910708754126,-56.1389803978346,17.060368,29.9540692,30.06989761578,60.02396681578,26.574804,15.5019942,92.607286428,94.882877052,23,5,8.312,60.35205081578,17.388452,15.5019942,92.607286428,-10.737312,-11.1847,-0.223694,233.8, -8, -5,0,0,1684,758,1024,1024,100,-40,0,0,250,11.9,0,95,4.167,4.162,0,0,0,0,5.197,83.84,60.02396681578,17.060368,6,P-GPS,
12200,2023-10-20 20:36:23,-34.9107130470562,-56.1389857127388,17.060368,30.1181112,29.90585561578,60.02396681578,26.574804,15.65858,94.820869176,97.114832504,23,5,8.362,60.35205081578,17.388452,15.65858,94.820869176,-10.961006,-11.1847,-0.223694,234, -9.6, -5.9,0,0,1684,749,1024,1024,100,-42,0,0,250,11.9,0,95,4.174,4.175,0,0,0,0,4.365,83.84,60.02396681578,17.060368,6,P-GPS,
12300,2023-10-20 20:36:23,-34.9107176137082,-56.1389911221878,17.060368,30.2493448,29.77462201578,60.02396681578,26.574804,15.65858,97.118113344,99.437667224,23,5,8.362,60.35205081578,17.388452,15.65858,97.118113344,-10.961006,-11.1847,0,234.1, -9.8, -5.4,0,0,1684,749,1024,1024,100,-42,0,0,250,11.9,0,95,4.174,4.175,0,0,0,0,4.365,83.84,60.02396681578,17.060368,6,P-GPS,
12400,2023-10-20 20:36:23,-34.9107219700434,-56.1389964448019,17.060368,30.3805784,29.64338841578,60.02396681578,28.871392,15.8151658,99.349412628,101.687667296,23,5,8.362,60.35205081578,17.388452,15.8151658,99.349412628,-11.1847,-11.1847,0,234.3, -10.5, -5.1,0,0,1684,745,1024,1024,100,-42,0,0,250,11.9,0,95,4.174,4.175,0,0,0,0,4.365,83.84,60.02396681578,17.060368,6,P-GPS,
12500,2023-10-20 20:36:23,-34.91072660126,-56.1390020607035,17.060368,30.511812,29.51215481578,60.02396681578,29.199476,15.8151658,101.712273596,104.070541388,24,5,8.362,60.35205081578,17.388452,15.8151658,101.712273596,-11.1847,-11.1847,0,234.1, -10.6, -5.8,0,0,1684,741,1024,1024,100,-43,0,0,250,11.9,0,95,4.174,4.175,0,0,0,0,4.365,83.84,60.02396681578,17.060368,6,P-GPS,
12600,2023-10-20 20:36:24,-34.9107310557057,-56.139007378888,17.060368,30.6102372,29.41372961578,60.02396681578,29.52756,15.9717516,103.965882592,106.344819676,24,5,8.362,60.35205081578,17.388452,15.9717516,103.965882592,-11.408394,-11.1847,0,234, -10.1, -6,0,0,1684,720,1024,1024,100,-46,0,0,250,11.9,0,95,4.174,4.175,0,0,0,0,4.365,83.84,60.02396681578,17.060368,6,P-GPS,
12700,2023-10-20 20:36:24,-34.9107358020728,-56.1390129409252,16.732284,30.4133868,29.28249601578,59.69588281578,29.855644,15.8151658,106.343835424,108.74672264,24,5,8.362,60.35205081578,17.388452,15.9717516,106.343835424,-11.408394,-10.961006,0,234.1, -10.3, -4.9,0,0,1684,719,1024,1024,100,-46,0,0,250,11.9,0,95,4.174,4.175,0,0,0,0,4.365,83.84,59.69588281578,16.732284,6,P-GPS,
12800,2023-10-20 20:36:24,-34.9107402935167,-56.1390181942133,16.732284,30.4790036,29.21687921578,59.69588281578,29.855644,15.9717516,108.59252316,111.017392004,24,5,8.362,60.35205081578,17.388452,15.9717516,108.59252316,-11.632088,-10.961006,0,234, -10.4, -5.5,0,0,1684,716,1024,1024,100,-47,0,0,250,11.9,0,95,4.174,4.175,0,0,0,0,4.365,83.84,59.69588281578,16.732284,6,P-GPS,
12900,2023-10-20 20:36:24,-34.9107451807247,-56.1390236463277,16.732284,30.5774288,29.11845401578,59.69588281578,29.855644,16.1507068,110.978678092,113.434058748,24,5,8.362,60.35205081578,17.388452,16.1507068,110.978678092,-11.855782,-10.961006,0,234, -9.8, -5.4,0,0,1684,711,1024,1024,100,-47,0,0,250,11.9,0,95,4.174,4.175,0,0,0,0,4.365,83.84,59.69588281578,16.732284,6,P-GPS,
13000,2023-10-20 20:36:24,-34.910749908306,-56.1390288315435,16.732284,30.675854,29.02002881578,59.69588281578,29.855644,16.3072926,113.267063992,115.753940712,24,5,8.362,60.35205081578,17.388452,16.3072926,113.267063992,-12.079476,-10.961006,0,234.2, -9.9, -5.6,0,0,1684,709,1024,1024,100,-48,0,0,250,11.9,0,95,4.174,4.175,0,0,0,0,4.365,83.84,59.69588281578,16.732284,6,P-GPS,
13100,2023-10-20 20:36:24,-34.910754939729,-56.1390342630983,16.732284,30.7414708,28.95441201578,59.69588281578,30.183728,16.3072926,115.68405882,118.20538436,24,5,8.362,60.35205081578,17.388452,16.3072926,115.68405882,-12.079476,-10.961006,0,234.2, -10.6, -4.5,0,0,1684,710,1024,1024,100,-48,0,0,250,11.9,0,95,4.174,4.175,0,0,0,0,4.365,83.84,59.69588281578,16.732284,6,P-GPS,
13200,2023-10-20 20:36:24,-34.9107598991356,-56.1390394160122,16.732284,30.7742792,28.92160361578,59.69588281578,30.183728,16.4862478,118.021001152,120.582681024,24,5,8.362,60.35205081578,17.388452,16.4862478,118.021001152,-12.30317,-10.961006,0,233.9, -9.2, -4.2,0,0,1684,710,1024,1024,100,-48,0,0,250,11.9,0,95,4.174,4.175,0,0,0,0,4.365,83.84,59.69588281578,16.732284,6,P-GPS,
13300,2023-10-20 20:36:24,-34.9107650414361,-56.1390449177496,16.4042,30.511812,28.85598681578,59.36779881578,30.511812,16.4862478,120.482615404,123.078744096,24,5,8.311,60.35205081578,17.388452,16.4862478,120.482615404,-12.30317,-10.961006,0,233.9, -8.5, -4.6,0,0,1684,709,1024,1024,100,-48,0,0,250,11.9,0,95,4.167,4.164,0,0,0,0,4.46,84.02,59.36779881578,16.4042,6,P-GPS,
13400,2023-10-20 20:36:24,-34.9107699973644,-56.1390501496841,16.4042,30.5446204,28.82317841578,59.36779881578,30.511812,16.6428336,122.840227028,125.470148372,24,5,8.311,60.35205081578,17.388452,16.6428336,122.840227028,-12.526864,-10.961006,0,234, -8.4, -5,0,0,1684,709,1024,1024,100,-48,0,0,250,11.9,0,95,4.167,4.164,0,0,0,0,4.46,84.02,59.36779881578,16.4042,6,P-GPS,
13500,2023-10-20 20:36:24,-34.9107752550759,-56.1390556290023,16.4042,30.6102372,28.75756161578,59.36779881578,30.511812,16.6428336,125.326119496,127.993442416,24,5,8.311,60.35205081578,17.388452,16.6428336,125.326119496,-12.526864,-10.961006,0,234.1, -8.3, -4.4,0,0,1684,707,1024,1024,100,-48,0,0,250,11.9,0,95,4.167,4.164,0,0,0,0,4.46,84.02,59.36779881578,16.4042,6,P-GPS,
13600,2023-10-20 20:36:25,-34.9107800191866,-56.1390605742936,16.4042,30.6102372,28.75756161578,59.36779881578,30.511812,16.8217888,127.575791484,130.276250888,24,5,8.311,60.35205081578,17.388452,16.8217888,127.575791484,-12.750558,-10.961006,0,234, -7.8, -4.4,0,0,1684,704,1024,1024,100,-48,0,0,250,11.9,0,95,4.167,4.164,0,0,0,0,4.46,84.02,59.36779881578,16.4042,6,P-GPS,
13700,2023-10-20 20:36:25,-34.9107851672843,-56.1390658746766,16.4042,30.6430456,28.72475321578,59.36779881578,30.839896,16.665203,129.997707572,132.7345843,24,5,8.311,60.35205081578,17.388452,16.8217888,129.997707572,-12.750558,-10.737312,0,233.8, -7.6, -4.9,0,0,1684,692,1024,1024,100,-50,0,0,250,11.9,0,95,4.167,4.164,0,0,0,0,4.46,84.02,59.36779881578,16.4042,6,P-GPS,
13800,2023-10-20 20:36:25,-34.9107901577486,-56.1390709336933,16.4042,30.6430456,28.72475321578,59.36779881578,30.839896,16.665203,132.328744392,135.102366528,24,5,8.311,60.35205081578,17.388452,16.8217888,132.328744392,-12.750558,-10.737312,0,233.7, -7.7, -5.3,0,0,1684,668,1024,1024,100,-54,0,0,250,11.9,0,95,4.167,4.164,0,0,0,0,4.46,84.02,59.36779881578,16.4042,6,P-GPS,
13900,2023-10-20 20:36:25,-34.9107954636621,-56.1390762443561,16.4042,30.6430456,28.72475321578,59.36779881578,30.839896,16.665203,134.7933114,137.6066317,24,5,8.311,60.35205081578,17.388452,16.8217888,134.7933114,-12.750558,-10.737312,0,233.8, -7.2, -7,0,0,1684,667,1024,1024,100,-54,0,0,250,11.9,0,95,4.167,4.164,0,0,0,0,4.46,84.02,59.36779881578,16.4042,6,P-GPS,
14000,2023-10-20 20:36:25,-34.9108008921127,-56.1390816912679,16.4042,30.6102372,28.75756161578,59.36779881578,30.839896,16.8441582,137.319230116,140.171592412,24,5,8.311,60.35205081578,17.388452,16.8441582,137.319230116,-12.974252,-10.737312,0,234, -8.2, -6.1,0,0,1684,665,1024,1024,100,-54,0,0,250,11.9,0,95,4.167,4.164,0,0,0,0,4.46,84.02,59.36779881578,16.4042,6,P-GPS,
14100,2023-10-20 20:36:25,-34.9108064005525,-56.1390871538501,16.4042,30.5774288,28.79037001578,59.36779881578,30.839896,16.7099418,139.869098964,142.761815592,24,5,8.311,60.35205081578,17.388452,16.8441582,139.869098964,-12.974252,-10.513618,0,234.1, -8.7, -5.9,0,0,1684,665,1024,1024,100,-54,0,0,250,11.9,0,95,4.167,4.164,0,0,0,0,4.46,84.02,59.36779881578,16.4042,6,P-GPS,
14200,2023-10-20 20:36:25,-34.9108115911722,-56.1390922995556,16.4042,30.5446204,28.82317841578,59.36779881578,30.839896,16.7099418,142.272642348,145.202432468,24,5,8.356,60.35205081578,17.388452,16.8441582,142.272642348,-12.974252,-10.513618,0,234.2, -9.4, -6.2,0,0,1684,655,1024,1024,100,-56,0,0,250,11.9,0,95,4.18,4.177,0,0,0,0,4.252,84.02,59.36779881578,16.4042,6,P-GPS,
14300,2023-10-20 20:36:25,-34.9108170493777,-56.1390976716673,16.4042,30.511812,28.85598681578,59.36779881578,30.839896,16.7099418,144.792983636,147.761815752,24,5,8.356,60.35205081578,17.388452,16.8441582,144.792983636,-12.974252,-10.513618,0,234.3, -9.7, -6.6,0,0,1684,662,1024,1024,100,-55,0,0,250,11.9,0,95,4.18,4.177,0,0,0,0,4.252,84.02,59.36779881578,16.4042,6,P-GPS,
14400,2023-10-20 20:36:25,-34.9108222308781,-56.1391027137808,16.4042,30.4461952,28.92160361578,59.36779881578,30.839896,16.7323112,147.173889224,150.180122916,24,5,8.356,60.35205081578,17.388452,16.8441582,147.173889224,-13.197946,-10.289924,0,234.3, -9.3, -6.4,0,0,1684,659,1024,1024,100,-55,0,0,250,11.9,0,95,4.18,4.177,0,0,0,0,4.252,84.02,59.36779881578,16.4042,6,P-GPS,
14500,2023-10-20 20:36:25,-34.9108275645402,-56.1391080845553,16.4042,30.3805784,28.98722041578,59.36779881578,30.839896,16.7323112,149.666015288,152.704073128,24,5,8.356,60.35205081578,17.388452,16.8441582,149.666015288,-13.197946,-10.289924,0,234.3, -9.3, -6.7,0,0,1684,659,1024,1024,100,-55,0,0,250,11.9,0,95,4.18,4.177,0,0,0,0,4.252,84.02,59.36779881578,16.4042,6,P-GPS,
14600,2023-10-20 20:36:26,-34.9108327784271,-56.1391129646576,16.4042,30.3149616,29.05283721578,59.36779881578,30.839896,16.7323112,152.02100224,155.102039084,24,5,8.356,60.35205081578,17.388452,16.8441582,152.02100224,-13.197946,-10.289924,0,234.4, -9.7, -6.9,0,0,1684,654,1024,1024,100,-56,0,0,250,11.9,0,95,4.18,4.177,0,0,0,0,4.252,84.02,59.36779881578,16.4042,6,P-GPS,
14700,2023-10-20 20:36:26,-34.9108382942405,-56.139118058212,16.732284,30.4790036,29.21687921578,59.69588281578,30.839896,16.9112664,154.49803644,157.62631738,24,5,8.356,60.35205081578,17.388452,16.9112664,154.49803644,-13.42164,-10.289924,0,234.4, -9.2, -6.9,0,0,1684,648,1024,1024,100,-57,0,0,250,11.9,0,95,4.18,4.177,0,0,0,0,4.252,84.02,59.69588281578,16.732284,6,P-GPS,
14800,2023-10-20 20:36:26,-34.9108436476785,-56.1391229208053,16.732284,30.2821532,29.41372961578,59.69588281578,30.839896,16.9112664,156.885503708,160.061684912,24,5,8.356,60.35205081578,17.388452,16.9112664,156.885503708,-13.42164,-10.289924,0,234.4, -9.1, -7.2,0,0,1684,642,1024,1024,100,-58,0,0,250,11.9,0,95,4.18,4.177,0,0,0,0,4.252,84.02,59.69588281578,16.732284,6,P-GPS,
14900,2023-10-20 20:36:26,-34.9108493788373,-56.1391278840235,16.732284,30.1181112,29.57777161578,59.69588281578,30.839896,17.0902216,159.389440796,162.62631754,24,5,8.356,60.35205081578,17.388452,17.0902216,159.389440796,-13.645334,-10.289924,0,234.3, -8.5, -7.3,0,0,1684,642,1024,1024,100,-58,0,0,250,11.9,0,95,4.18,4.177,0,0,0,0,4.252,84.02,59.69588281578,16.732284,6,P-GPS,
15000,2023-10-20 20:36:26,-34.9108548096329,-56.139132746575,16.732284,29.9212608,29.77462201578,59.69588281578,30.839896,16.9560052,161.799217776,165.084650952,24,5,8.356,60.35205081578,17.388452,17.0902216,161.799217776,-13.645334,-10.06623,0,234.3, -8.3, -7.7,0,0,1684,642,1024,1024,100,-58,0,0,250,11.9,0,95,4.18,4.177,0,0,0,0,4.252,84.02,59.69588281578,16.732284,6,P-GPS,
15100,2023-10-20 20:36:26,-34.910860541886,-56.1391378234978,16.732284,29.691602,30.00428081578,59.69588281578,30.839896,16.9560052,164.332026256,167.669296704,23,5,8.356,60.35205081578,17.388452,17.0902216,164.332026256,-13.645334,-10.06623,0,234.3, -8.2, -7.4,0,0,1684,641,1024,1024,100,-58,0,0,250,11.9,0,95,4.18,4.177,0,0,0,0,4.252,84.02,59.69588281578,16.732284,6,P-GPS,
15200,2023-10-20 20:36:26,-34.910865992249,-56.1391425674138,17.060368,29.855644,30.16832281578,60.02396681578,30.839896,17.000744,166.723430532,170.112538252,23,5,8.362,60.35205081578,17.388452,17.0902216,166.723430532,-13.869028,-9.842536,0,234.2, -8.4, -7.5,0,0,1684,641,1024,1024,100,-58,0,0,250,11.9,0,95,4.175,4.172,0,0,0,0,3.748,84.02,60.02396681578,17.060368,6,P-GPS,
15300,2023-10-20 20:36:26,-34.9108717123865,-56.1391474223181,17.060368,29.6259852,30.39798161578,60.02396681578,30.839896,17.000744,169.20768258,172.655189252,24,5,8.362,60.35205081578,17.388452,17.0902216,169.20768258,-13.869028,-9.842536,0,234.2, -8.2, -7.3,0,0,1684,640,1024,1024,100,-58,0,0,250,11.9,0,95,4.175,4.172,0,0,0,0,3.748,84.02,60.02396681578,17.060368,6,P-GPS,
15400,2023-10-20 20:36:26,-34.9108772304667,-56.1391521039703,17.060368,29.4619432,30.56202361578,60.02396681578,30.839896,17.0678522,171.605320452,175.107945236,24,5,8.362,60.35205081578,17.388452,17.0902216,171.605320452,-14.092722,-9.618842,0,234.2, -8.5, -7,0,0,1684,639,1024,1024,100,-58,0,0,250,11.9,0,95,4.175,4.172,0,0,0,0,3.748,84.02,60.02396681578,17.060368,6,P-GPS,
15500,2023-10-20 20:36:26,-34.9108830678262,-56.1391569911348,17.060368,29.2322844,30.79168241578,60.02396681578,30.839896,17.0678522,174.129270664,177.691278652,24,5,8.362,60.35205081578,17.388452,17.0902216,174.129270664,-14.092722,-9.618842,0,234, -9.7, -6.9,0,0,1684,638,1024,1024,100,-58,0,0,250,11.9,0,95,4.175,4.172,0,0,0,0,3.748,84.02,60.02396681578,17.060368,6,P-GPS,
15600,2023-10-20 20:36:27,-34.9108886401531,-56.1391615436209,17.060368,29.0026256,31.02134121578,60.02396681578,30.839896,17.0678522,176.51575368,180.138457208,24,5,8.362,60.35205081578,17.388452,17.0902216,176.51575368,-14.092722,-9.618842,0,234, -9.5, -6.1,0,0,1684,633,1024,1024,100,-59,0,0,250,11.9,0,95,4.175,4.172,0,0,0,0,3.748,84.02,60.02396681578,17.060368,6,P-GPS,
15700,2023-10-20 20:36:27,-34.9108945053654,-56.1391662245627,17.060368,28.7729668,31.25100001578,60.02396681578,30.839896,16.9336358,179.005583156,182.695871988,24,5,8.362,60.35205081578,17.388452,17.0902216,179.005583156,-14.092722,-9.395148,0,234, -9.6, -6.4,0,0,1684,633,1024,1024,100,-59,0,0,250,11.9,0,95,4.175,4.172,0,0,0,0,3.748,84.02,60.02396681578,17.060368,6,P-GPS,
15800,2023-10-20 20:36:27,-34.9109001658107,-56.1391707519344,17.060368,28.6089248,31.41504201578,60.02396681578,30.839896,17.1349604,181.412079296,185.16568834,24,5,8.362,60.35205081578,17.388452,17.1349604,181.412079296,-14.316416,-9.395148,0,234, -9.6, -5.9,0,0,1684,633,1024,1024,100,-59,0,0,250,11.9,0,95,4.175,4.172,0,0,0,0,3.748,84.02,60.02396681578,17.060368,6,P-GPS,
15900,2023-10-20 20:36:27,-34.9109061530912,-56.1391755073002,17.060368,28.4120744,31.61189241578,60.02396681578,30.839896,17.1349604,183.952433708,187.772643804,24,5,8.362,60.35205081578,17.388452,17.1349604,183.952433708,-14.316416,-9.395148,0,233.9, -9.6, -6.1,0,0,1684,633,1024,1024,100,-59,0,0,250,11.9,0,95,4.175,4.172,0,0,0,0,3.748,84.02,60.02396681578,17.060368,6,P-GPS,
16000,2023-10-20 20:36:27,-34.9109119883923,-56.1391800497573,17.060368,28.1824156,31.84155121578,60.02396681578,30.839896,17.1349604,186.410110952,190.29856252,24,5,8.362,60.35205081578,17.388452,17.1349604,186.410110952,-14.316416,-9.395148,0,233.9, -9.2, -6,0,0,1684,633,1024,1024,100,-59,0,0,250,11.9,0,95,4.175,4.172,0,0,0,0,3.748,84.02,60.02396681578,17.060368,6,P-GPS,
