time(millisecond),datetime(utc),latitude,longitude,height_above_takeoff(feet),height_above_ground_at_drone_location(feet),ground_elevation_at_drone_location(feet),altitude_above_seaLevel(feet),height_sonar(feet),speed(mph),distance(feet),mileage(feet),satellites,gpslevel,voltage(v),max_altitude(feet),max_ascent(feet),max_speed(mph),max_distance(feet), xSpeed(mph), ySpeed(mph), zSpeed(mph), compass_heading(degrees), pitch(degrees), roll(degrees),isPhoto,isVideo,rc_elevator,rc_aileron,rc_throttle,rc_rudder,rc_elevator(percent),rc_aileron(percent),rc_throttle(percent),rc_rudder(percent),gimbal_heading(degrees),gimbal_pitch(degrees),gimbal_roll(degrees),battery_percent,voltageCell1,voltageCell2,voltageCell3,voltageCell4,voltageCell5,voltageCell6,current(A),battery_temperature(f),altitude(feet),ascent(feet),flycStateRaw,flycState,message
12200,2022-08-11 19:57:26,-34.928763479893,-56.1628206989086,0,0,6.107061875216,6.107061875216,0.328084,0,0,0,22,5,0,6.107061875216,0,0,0,0,0,0,208.5, -1.6, -1.2,0,0,364,364,364,1684,-100,-100,-100,100,219.1,0,0,27,3.768,3.765,0,0,0,0,0,98.96,6.107061875216,0,41,Motors_Started,"Se detectó tarjeta SD de baja velocidad"
12300,2022-08-11 19:57:26,-34.9287634833575,-56.1628207485738,0,0,6.107061875216,6.107061875216,0.328084,0,0.0149099086136,0.0149099086136,22,5,0,6.107061875216,0,0,0.0149099086136,0,0,0,208.5, -1.6, -1.2,0,0,364,364,364,1684,-100,-100,-100,100,219.1,0,0,27,3.768,3.765,0,0,0,0,0,98.96,6.107061875216,0,41,Motors_Started,"Se detectó tarjeta SD de baja velocidad"
12400,2022-08-11 19:57:26,-34.9287634720703,-56.1628207881671,0,0,6.107061875216,6.107061875216,0.328084,0,0.0268517725128,0.0274488525844,22,5,0,6.107061875216,0,0,0.0268517725128,0,0,0,208.5, -1.6, -1.2,0,0,364,364,364,1684,-100,-100,-100,100,219.1,0,0,27,3.768,3.765,0,0,0,0,0,98.96,6.107061875216,0,41,Motors_Started,"Setting new Return-To-Home altitude to 40m (131 ft). Data Recorder File Index is 10. Setting new Maximum Flight Altitude to 120m (394 ft)"
12500,2022-08-11 19:57:26,-34.9287634220234,-56.1628208028456,0,0,6.107061875216,6.107061875216,0.328084,0,0.0375820222,0.046229004104,22,5,0,6.107061875216,0,0,0.0375820222,0,0,0,208.6, -1.5, -1.2,0,0,364,364,364,1684,-100,-100,-100,100,219.1,0,0,27,3.768,3.765,0,0,0,0,0,98.96,6.107061875216,0,41,Motors_Started,
12600,2022-08-11 19:57:26,-34.9287633861964,-56.1628208398399,0,0,6.107061875216,6.107061875216,0.328084,0,0.05427493612,0.063355645072,22,5,0,6.107061875216,0,0,0.05427493612,0,0,0,208.6, -1.6, -1.2,0,0,364,364,364,1684,-100,-100,-100,100,219.2,0,0,27,3.768,3.765,0,0,0,0,0,98.96,6.107061875216,0,41,Motors_Started,
12700,2022-08-11 19:57:26,-34.9287633668533,-56.162820832712,0,0,6.107061875216,6.107061875216,0.328084,0,0.057470802364,0.070728020636,22,5,0,6.107061875216,0,0,0.057470802364,0,0,0,208.6, -1.6, -1.2,0,0,364,364,364,1684,-100,-100,-100,100,219.2,0,0,27,3.768,3.765,0,0,0,0,0,98.96,6.107061875216,0,41,Motors_Started,
12800,2022-08-11 19:57:26,-34.9287633520418,-56.1628208247347,0,0,6.107061875216,6.107061875216,0.328084,0,0.05993766596,0.076635173056,22,5,0,6.107061875216,0,0,0.05993766596,0,0,0,208.6, -1.6, -1.2,0,0,364,364,1024,1024,-100,-100,0,0,219.2,0,0,27,3.768,3.765,0,0,0,0,0,98.96,6.107061875216,0,41,Motors_Started,
12900,2022-08-11 19:57:26,-34.9287633474284,-56.1628208141672,0,0,6.107061875216,6.107061875216,0.328084,0,0.0593667998,0.080216538,22,5,0,6.107061875216,0,0,0.05993766596,0,0,0,208.6, -1.6, -1.2,0,0,912,731,1024,1024,-17,-44,0,0,219.2,0,0,27,3.768,3.765,0,0,0,0,0,98.96,6.107061875216,0,41,Motors_Started,
13000,2022-08-11 19:57:26,-34.9287633440592,-56.1628208040813,0,0,6.107061875216,6.107061875216,0.328084,0,0.058701117364,0.08347441212,22,5,0,6.107061875216,0,0,0.05993766596,0,0,0,208.7, -1.6, -1.1,0,0,1024,1024,1024,1024,0,0,0,0,219.2,0,0,27,3.768,3.765,0,0,0,0,0,98.96,6.107061875216,0,41,Motors_Started,
13100,2022-08-11 19:57:26,-34.9287634268448,-56.1628207882347,0,0,6.107061875216,6.107061875216,0.328084,0,0.032993111292,0.114048231996,22,5,0,6.107061875216,0,0,0.05993766596,0,0,0,208.7, -1.6, -1.1,0,0,1024,1024,1024,1024,0,0,0,0,219.2,0,0,27,3.768,3.765,0,0,0,0,0,98.96,6.107061875216,0,41,Motors_Started,
13200,2022-08-11 19:57:27,-34.9287634264466,-56.1628207963631,0,0,6.107061875216,6.107061875216,0.328084,0,0.035071851516,0.116483927612,22,5,7.514,6.107061875216,0,0,0.05993766596,0,0,0,208.7, -1.6, -1.2,0,0,1024,1024,1024,1024,0,0,0,0,219.2,0,0,27,3.756,3.753,0,0,0,0,1.041,98.96,6.107061875216,0,41,Motors_Started,
13300,2022-08-11 19:57:27,-34.9287634239221,-56.1628208453191,0,0,6.107061875216,6.107061875216,0.328084,0,0.048322180024,0.131156828344,22,5,7.514,6.107061875216,0,0,0.05993766596,0,0,0,208.7, -1.6, -1.2,0,0,1024,1024,1024,1024,0,0,0,0,219.2,0,0,27,3.756,3.753,0,0,0,0,1.041,98.96,6.107061875216,0,10,Assisted_Takeoff,
13400,2022-08-11 19:57:27,-34.9287634205944,-56.1628208846031,0,0,6.107061875216,6.107061875216,0.328084,0,0.059610894296,0.142970477016,22,5,7.514,6.107061875216,0,0,0.05993766596,0,0,0,208.7, -1.6, -1.2,0,0,1024,1024,1024,1024,0,0,0,0,219.2,0,0,27,3.756,3.753,0,0,0,0,1.041,98.96,6.107061875216,0,10,Assisted_Takeoff,
13500,2022-08-11 19:57:27,-34.9287634647277,-56.1628209655738,0,0,6.107061875216,6.107061875216,0.328084,0,0.079958335892,0.172054795532,22,5,7.514,6.107061875216,0,0,0.079958335892,0,0,0,208.7, -1.6, -1.2,0,0,1024,1024,1024,1024,0,0,0,0,219.2,0,0,27,3.756,3.753,0,0,0,0,1.041,98.96,6.107061875216,0,10,Assisted_Takeoff,
13600,2022-08-11 19:57:27,-34.9287634610295,-56.162820976329,0,0,6.107061875216,6.107061875216,0.328084,0,0.083269031536,0.175543640788,22,5,7.514,6.107061875216,0,0,0.083269031536,0,0,0,208.7, -1.6, -1.2,0,0,1024,1024,1024,1024,0,0,0,0,219.2,0,0,27,3.756,3.753,0,0,0,0,1.041,98.96,6.107061875216,0,10,Assisted_Takeoff,
13700,2022-08-11 19:57:27,-34.928763456145,-56.1628209767674,0,0,6.107061875216,6.107061875216,0.328084,0,0.083565619472,0.177330714336,22,5,7.514,6.107061875216,0,0,0.083565619472,0,0,0,208.7, -1.6, -1.2,0,0,1024,1024,1024,1024,0,0,0,0,219.2,0,0,27,3.756,3.753,0,0,0,0,1.041,98.96,6.107061875216,0,10,Assisted_Takeoff,
13800,2022-08-11 19:57:27,-34.9287634513467,-56.1628209757621,0,0,6.107061875216,6.107061875216,0.328084,0,0.083466866188,0.179106961112,22,5,7.514,6.107061875216,0,0,0.083565619472,0,0,0,208.7, -1.6, -1.1,0,0,1024,1024,1024,1024,0,0,0,0,219.2,0,0,27,3.756,3.753,0,0,0,0,1.041,98.96,6.107061875216,0,10,Assisted_Takeoff,
13900,2022-08-11 19:57:27,-34.9287634772085,-56.1628209216062,0,0,6.107061875216,6.107061875216,0.328084,0,0.066622049376,0.197854008956,22,5,7.514,6.107061875216,0,0,0.083565619472,0,0,0,208.7, -1.7, -1.2,0,0,1024,1024,1024,1024,0,0,0,0,219.2,0,0,27,3.756,3.753,0,0,0,0,1.041,98.96,6.107061875216,0,10,Assisted_Takeoff,
14000,2022-08-11 19:57:27,-34.9287634750463,-56.1628209278878,0,0,6.107061875216,6.107061875216,0.328084,0,0.068516734476,0.19989173868,22,5,7.514,6.107061875216,0,0,0.083565619472,0,0,0,208.8, -1.7, -1.2,0,0,1024,1024,1024,1024,0,0,0,0,219.2,0,0,27,3.756,3.753,0,0,0,0,1.041,98.96,6.107061875216,0,10,Assisted_Takeoff,"Baja velocidad de la tarjeta SD. Puede afectar a su uso normal. Sustituye la tarjeta SD (Code: 10028)"
14100,2022-08-11 19:57:27,-34.9287634727791,-56.1628209729835,0,0,6.107061875216,6.107061875216,0.328084,0,0.08202428084,0.213406502892,22,5,7.514,6.107061875216,0,0,0.083565619472,0,0,0,208.7, -1.5, -1.1,0,0,1024,1024,1024,1024,0,0,0,0,219.2,0,0,27,3.756,3.753,0,0,0,0,1.041,98.96,6.107061875216,0,10,Assisted_Takeoff,
14200,2022-08-11 19:57:28,-34.9287634692197,-56.1628210089904,0,0,6.107061875216,6.107061875216,0.328084,0,0.092835632892,0.22425525652,22,5,7.515,6.107061875216,0,0,0.092835632892,0,0,0,208.7, -1.6, -1.1,0,0,1024,1024,1024,1024,0,0,0,0,219.2,0,0,27,3.76,3.758,0,0,0,0,1.462,98.96,6.107061875216,0,10,Assisted_Takeoff,
14300,2022-08-11 19:57:28,-34.9287634646137,-56.1628210786131,0,0,6.107061875216,6.107061875216,0.328084,0,0.113716539072,0.245148957976,22,5,7.515,6.107061875216,0,0,0.113716539072,0,0,0,208.7, -1.6, -1.2,0,0,1024,1024,1024,1024,0,0,0,0,219.2,0,0,27,3.76,3.758,0,0,0,0,1.462,98.96,6.107061875216,0,10,Assisted_Takeoff,
14400,2022-08-11 19:57:28,-34.9287634583108,-56.1628210881531,0,0,6.107061875216,6.107061875216,0.328084,0,0.1166994788,0.24881398434,21,5,7.515,6.107061875216,0,0,0.1166994788,0,0,0,208.8, -1.6, -1.2,0,0,1024,1024,1024,1024,0,0,0,0,219.2,0,0,27,3.76,3.758,0,0,0,0,1.462,98.96,6.107061875216,0,10,Assisted_Takeoff,
14500,2022-08-11 19:57:28,-34.9287634529504,-56.1628210873176,0,0,6.107061875216,6.107061875216,0.328084,0,0.116598757012,0.250785441096,21,5,7.515,6.107061875216,0,0,0.1166994788,0,0,0,208.7, -1.7, -1.2,0,0,1024,1024,1024,1024,0,0,0,0,219.2,0,0,27,3.76,3.758,0,0,0,0,1.462,98.96,6.107061875216,0,10,Assisted_Takeoff,
14600,2022-08-11 19:57:28,-34.9287634474405,-56.1628210848986,0,0,6.107061875216,6.107061875216,0.328084,0,0.116065620512,0.252921924104,22,5,7.515,6.107061875216,0,0,0.1166994788,0,0,0,208.8, -1.7, -1.2,0,0,1024,1024,1024,1024,0,0,0,0,219.2,0,0,27,3.76,3.758,0,0,0,0,1.462,98.96,6.107061875216,0,10,Assisted_Takeoff,
14700,2022-08-11 19:57:28,-34.9287634415199,-56.1628210801163,0,0,6.107061875216,6.107061875216,0.328084,0,0.114885830448,0.255512803452,22,5,7.515,6.107061875216,0,0,0.1166994788,0,0,0,208.8, -1.6, -1.2,0,0,1024,1024,1024,1024,0,0,0,0,219.2,0,0,27,3.76,3.758,0,0,0,0,1.462,98.96,6.107061875216,0,10,Assisted_Takeoff,
14800,2022-08-11 19:57:28,-34.928763461481,-56.1628210258784,0,0,6.107061875216,6.107061875216,0.328084,0,0.098036092376,0.273296596672,22,5,7.515,6.107061875216,0,0,0.1166994788,0,0,0,208.8, -1.6, -1.2,0,0,1024,1024,1024,1024,0,0,0,0,219.2,0,0,27,3.76,3.758,0,0,0,0,1.462,98.96,6.107061875216,0,10,Assisted_Takeoff,
14900,2022-08-11 19:57:28,-34.9287634559609,-56.1628210717845,0,0,6.107061875216,6.107061875216,0.328084,0,0.111878612504,0.28717520604,22,5,7.515,6.107061875216,0,0,0.1166994788,0,0,0,208.8, -1.6, -1.2,0,0,1024,1024,1024,1024,0,0,0,0,219.2,0,0,27,3.76,3.758,0,0,0,0,1.462,98.96,6.107061875216,0,10,Assisted_Takeoff,
15000,2022-08-11 19:57:28,-34.9287634501836,-56.1628211086028,0,0,6.107061875216,6.107061875216,0.328084,0,0.123029203412,0.298388460992,22,5,7.515,6.107061875216,0,0,0.123029203412,0,0,0,208.8, -1.7, -1.2,0,0,1024,1024,1024,1024,0,0,0,0,219.2,0,0,27,3.76,3.758,0,0,0,0,1.462,98.96,6.107061875216,0,10,Assisted_Takeoff,
15100,2022-08-11 19:57:28,-34.9287634442805,-56.1628211224062,0,0,6.107061875216,6.107061875216,0.328084,0,0.12734416418,0.303045285288,22,5,7.515,6.107061875216,0,0,0.12734416418,0,0,0,208.8, -1.6, -1.2,0,0,1024,1024,1024,1024,0,0,0,0,219.2,0,0,27,3.76,3.758,0,0,0,0,1.462,98.96,6.107061875216,0,10,Assisted_Takeoff,
15200,2022-08-11 19:57:29,-34.928763460966,-56.162821187417,0,0,6.107061875216,6.107061875216,0.328084,0,0.146289046676,0.323422582528,22,5,7.519,6.107061875216,0,0,0.146289046676,0,0,0,208.8, -1.7, -1.2,0,0,1024,1024,1024,1024,0,0,0,0,219.2,0,0,27,3.76,3.757,0,0,0,0,1.103,98.96,6.107061875216,0,10,Assisted_Takeoff,
15300,2022-08-11 19:57:29,-34.9287634557126,-56.162821185758,0,0,6.107061875216,6.107061875216,0.328084,0,0.145896986296,0.325402241384,22,5,7.519,6.107061875216,0,0,0.146289046676,0,0,0,208.8, -1.7, -1.2,0,0,1024,1024,1024,1024,0,0,0,0,219.2,0,0,27,3.76,3.757,0,0,0,0,1.103,98.96,6.107061875216,0,10,Assisted_Takeoff,
15400,2022-08-11 19:57:29,-34.9287634639554,-56.1628211828977,0,0,6.107061875216,6.107061875216,0.328084,0,0.144891080752,0.32853019424,22,5,7.519,6.107061875216,0,0,0.146289046676,0,0,0,208.8, -1.7, -1.2,0,0,1024,1024,1024,1024,0,0,0,0,219.2,0,0,27,3.76,3.757,0,0,0,0,1.103,98.96,6.107061875216,0,10,Assisted_Takeoff,
15500,2022-08-11 19:57:29,-34.9287635106213,-56.1628211779996,0,0.032808399999999,6.074253475216,6.107061875216,0.328084,0,0.143747051844,0.34561680896,22,5,7.519,6.107061875216,0,0,0.146289046676,0,0,0,208.8, -1.6, -1.1,0,0,1024,1024,1024,1024,0,0,0,0,219.2,0,0,27,3.76,3.757,0,0,0,0,1.103,98.96,6.107061875216,0,10,Assisted_Takeoff,
15600,2022-08-11 19:57:29,-34.92876363176,-56.1628211239567,0,0.032808399999999,6.074253475216,6.107061875216,0.328084,0,0.138692261656,0.39268045876,22,5,7.519,6.107061875216,0,0,0.146289046676,0,0,0,208.8, -1.6, -1.1,0,0,1024,1024,1024,1024,0,0,0,0,219.2,0,0,27,3.76,3.757,0,0,0,0,1.103,98.96,6.107061875216,0,10,Assisted_Takeoff,
15700,2022-08-11 19:57:29,-34.9287635864905,-56.1628211192062,0,0.032808399999999,6.074253475216,6.107061875216,0.328084,0,0.131600725996,0.40925526244,22,5,7.519,6.107061875216,0,0,0.146289046676,0,0,0,208.8, -1.6, -1.2,0,0,1024,1024,1025,1024,0,0,0,0,219.2,0,0,27,3.76,3.757,0,0,0,0,1.103,98.96,6.107061875216,0,10,Assisted_Takeoff,
15800,2022-08-11 19:57:29,-34.9287635548327,-56.1628211146069,0,0.032808399999999,6.074253475216,6.107061875216,0.328084,0,0.127317261292,0.42088912108,22,5,7.519,6.107061875216,0,0,0.146289046676,0,0,0,208.8, -1.6, -1.2,0,0,1024,1024,1097,1024,0,0,11,0,219.2,0,0,27,3.76,3.757,0,0,0,0,1.103,98.96,6.107061875216,0,10,Assisted_Takeoff,
15900,2022-08-11 19:57:29,-34.9287635793921,-56.162821111157,0,0.032808399999999,6.074253475216,6.107061875216,0.328084,0,0.128547248208,0.42990815024,22,5,7.519,6.107061875216,0,0,0.146289046676,0,0,0,208.8, -1.6, -1.2,0,0,1024,1024,1236,1024,0,0,32,0,219.2,0,0,27,3.76,3.757,0,0,0,0,1.103,98.96,6.107061875216,0,10,Assisted_Takeoff,
16000,2022-08-11 19:57:29,-34.9287636180909,-56.1628210798529,0,0.032808399999999,6.074253475216,6.107061875216,0.328084,0,0.12460794362,0.446850408,22,5,7.519,6.107061875216,0,0,0.146289046676,0,0,0,208.8, -1.6, -1.2,0,0,1024,1024,1644,1024,0,0,94,0,219.2,0,0,27,3.76,3.757,0,0,0,0,1.103,98.96,6.107061875216,0,10,Assisted_Takeoff,
16100,2022-08-11 19:57:29,-34.9287636235348,-56.1628210776379,0,0.032808399999999,6.074253475216,6.107061875216,0.328084,0,0.12482283864,0.44894358392,22,5,7.519,6.107061875216,0,0,0.146289046676,0,0,0,208.9, -1.6, -1.1,0,0,1024,1024,1684,1024,0,0,100,0,219.3,0,0,27,3.76,3.757,0,0,0,0,1.103,98.96,6.107061875216,0,10,Assisted_Takeoff,
16200,2022-08-11 19:57:30,-34.9287636253611,-56.1628210744539,0,0.032808399999999,6.074253475216,6.107061875216,0.328084,0,0.124242458044,0.45010500128,22,5,7.519,6.107061875216,0,0,0.146289046676,0,0,0,209, -1.8, -1.1,0,0,1024,1024,1603,1024,0,0,88,0,219.3,0,0,27,3.761,3.757,0,0,0,0,1.102,98.96,6.107061875216,0,10,Assisted_Takeoff,
16300,2022-08-11 19:57:30,-34.9287636198744,-56.1628210717348,0,0.032808399999999,6.074253475216,6.107061875216,0.328084,0,0.122660436996,0.45226707484,22,5,7.519,6.107061875216,0,0,0.146289046676,0,0,0,209.1, -2, -1.2,0,0,1024,1024,1603,1024,0,0,88,0,219.3,0,0,27,3.761,3.757,0,0,0,0,1.102,98.96,6.107061875216,0,10,Assisted_Takeoff,
16400,2022-08-11 19:57:30,-34.9287636142172,-56.1628210810246,0,0.032808399999999,6.074253475216,6.107061875216,0.328084,0,0.124364833376,0.45572836104,22,5,7.519,6.107061875216,0,0,0.146289046676,0,0,0,209.3, -2.2, -1.3,0,0,1024,1024,1079,1024,0,0,8,0,219.4,0,0,27,3.761,3.757,0,0,0,0,1.102,98.96,6.107061875216,0,10,Assisted_Takeoff,
16500,2022-08-11 19:57:30,-34.9287636060713,-56.1628212196296,0,0.032808399999999,6.074253475216,6.107061875216,0.328084,0,0.162422577376,0.49729660384,22,5,7.519,6.107061875216,0,0,0.162422577376,0,0,0,209.8, -2.6, -1.1,0,0,1024,1024,1024,1024,0,0,0,0,219.5,0,0,27,3.761,3.757,0,0,0,0,1.102,98.96,6.107061875216,0,10,Assisted_Takeoff,
16600,2022-08-11 19:57:30,-34.9287636156478,-56.162821265678,0,0.032808399999999,6.074253475216,6.107061875216,0.328084,0,0.176623037148,0.51150592188,22,5,7.519,6.107061875216,0,0,0.176623037148,0,0,0,210.8, -2.3, -1.1,0,0,1024,1024,1024,1024,0,0,0,0,219.9,0,0,27,3.761,3.757,0,0,0,0,1.102,98.96,6.107061875216,0,10,Assisted_Takeoff,
16700,2022-08-11 19:57:30,-34.9287636539101,-56.1628212846406,0,0.032808399999999,6.074253475216,6.107061875216,0.328084,0,0.186356961344,0.52657482,22,5,7.519,6.107061875216,0,0,0.186356961344,0,0,0,211.3, -2.4, -1.1,0,0,1024,1024,1024,1024,0,0,0,0,220.5,0,0,27,3.761,3.757,0,0,0,0,1.102,98.96,6.107061875216,0,6,P-GPS,
16800,2022-08-11 19:57:30,-34.9287636892013,-56.1628212955972,0,0.032808399999999,6.074253475216,6.107061875216,0.328084,0,0.194136489152,0.539862222,22,5,7.519,6.107061875216,0,0,0.194136489152,0,0,0,211.4, -2.1, -0.6,0,0,1024,1024,1024,1024,0,0,0,0,220.9,0,0,27,3.761,3.757,0,0,0,0,1.102,98.96,6.107061875216,0,6,P-GPS,
16900,2022-08-11 19:57:30,-34.9287636720652,-56.1628212681628,0,0.032808399999999,6.074253475216,6.107061875216,0.328084,0,0.184149612192,0.55017718296,22,5,7.519,6.107061875216,0,0,0.194136489152,0,0,0,211.1, -1.8, -0.8,0,0,1024,1024,1348,1024,0,0,49,0,220.9,0,0,27,3.761,3.757,0,0,0,0,1.102,98.96,6.107061875216,0,6,P-GPS,
17000,2022-08-11 19:57:30,-34.9287636828333,-56.1628212791073,0,0.032808399999999,6.074253475216,6.107061875216,0.328084,0,0.18868767008,0.55529201252,22,5,7.519,6.107061875216,0,0,0.194136489152,0,0,0,210.7, -0.5, -0.8,0,0,1024,1024,1684,1024,0,0,100,0,220.9,0,0,27,3.761,3.757,0,0,0,0,1.102,98.96,6.107061875216,0,6,P-GPS,
17100,2022-08-11 19:57:30,-34.9287637460385,-56.1628212795621,0,0.032808399999999,6.074253475216,6.107061875216,0.328084,0,0.198989835764,0.57835303688,22,5,7.519,6.107061875216,0,0,0.198989835764,0,0,-0.223694,210.6, -0.4, -0.9,0,0,1024,1024,1590,1024,0,0,86,0,220.9,0,0,27,3.761,3.757,0,0,0,0,1.102,98.96,6.107061875216,0,6,P-GPS,
17200,2022-08-11 19:57:31,-34.9287638176901,-56.1628212682444,0,0.032808399999999,6.074253475216,6.107061875216,0.328084,0,0.210220807252,0.60471130544,22,5,7.519,6.107061875216,0,0,0.210220807252,0,0,-0.671082,210.5, 0.5, 0,0,0,1024,1024,1590,1024,0,0,86,0,220.9,0,0,27,3.761,3.757,0,0,0,0,1.102,98.96,6.107061875216,0,6,P-GPS,
17300,2022-08-11 19:57:31,-34.9287639628699,-56.1628211893514,0,0.032808399999999,6.074253475216,6.107061875216,0.656168,0,0.229289377416,0.66270015244,22,5,7.458,6.107061875216,0,0,0.229289377416,0,0,-0.894776,210.5, 0.7, 0.8,0,0,1024,1024,1024,1024,0,0,0,0,220.9,0,0,26,3.742,3.722,0,0,0,0,2.316,98.96,6.107061875216,0,6,P-GPS,
17400,2022-08-11 19:57:31,-34.9287639875221,-56.1628211632878,0.328084,0.3608924,6.074253475216,6.435145875216,0.656168,0,0.231511490348,0.67460303996,22,5,7.458,6.435145875216,0.328084,0,0.231511490348,0,0,-0.894776,210.3, 0, 0.8,0,0,1024,1024,1024,1024,0,0,0,0,220.9,0,0,26,3.742,3.722,0,0,0,0,2.316,98.96,6.435145875216,0.328084,6,P-GPS,
17500,2022-08-11 19:57:31,-34.9287639866257,-56.1628211836931,0.328084,0.3608924,6.074253475216,6.435145875216,0.656168,0,0.23496719912,0.68071524488,22,5,7.458,6.435145875216,0.328084,0,0.23496719912,0,0,-0.894776,210, -0.7, -0.9,0,0,1024,1024,1024,1024,0,0,0,0,220.9,0,0,26,3.742,3.722,0,0,0,0,2.316,98.96,6.435145875216,0.328084,6,P-GPS,
17600,2022-08-11 19:57:31,-34.9287640140747,-56.1628212146555,0.328084,0.3608924,6.074253475216,6.435145875216,0.656168,0,0.248565624752,0.6943569776,22,5,7.458,6.435145875216,0.328084,0,0.248565624752,0,0,-0.894776,209.7, -0.3, -0.9,0,0,1024,1024,1024,1024,0,0,0,0,220.9,0,0,26,3.742,3.722,0,0,0,0,2.316,98.96,6.435145875216,0.328084,6,P-GPS,
17700,2022-08-11 19:57:31,-34.9287641258918,-56.1628213715234,0.656168,0.6889764,6.074253475216,6.763229875216,0.984252,0,0.309889117528,0.75653545728,22,5,7.458,6.763229875216,0.656168,0,0.309889117528,0,0,-0.894776,209.9, 0.4, 0.7,0,0,1024,1024,1024,1024,0,0,0,0,220.9,0,0,26,3.742,3.722,0,0,0,0,2.316,98.96,6.763229875216,0.656168,6,P-GPS,
17800,2022-08-11 19:57:31,-34.9287642513993,-56.1628214017898,0.984252,1.0170604,6.074253475216,7.091313875216,0.984252,0.223694,0.35133859392,0.80321196796,22,5,7.458,7.091313875216,0.984252,0.223694,0.35133859392,-0.223694,0,-0.894776,210.4, 1.3, 1.5,0,0,1024,1024,1027,1024,0,0,0,0,220.9,0,0,26,3.742,3.722,0,0,0,0,2.316,98.96,7.091313875216,0.984252,6,P-GPS,
17900,2022-08-11 19:57:31,-34.9287644083747,-56.1628213841385,0.984252,1.0170604,6.074253475216,7.091313875216,0.984252,0.223694,0.39594161372,0.860728374,22,5,7.458,7.091313875216,0.984252,0.223694,0.39594161372,-0.223694,0,-0.894776,210.1, 2.3, 0.8,0,0,1024,1024,1024,1024,0,0,0,0,220.9,0,0,26,3.742,3.722,0,0,0,0,2.316,98.96,7.091313875216,0.984252,6,P-GPS,
18000,2022-08-11 19:57:31,-34.9287645526402,-56.1628213748554,1.312336,1.3779528,6.041445075216,7.419397875216,1.312336,0.223694,0.440534791,0.91343834944,22,5,7.458,7.419397875216,1.312336,0.223694,0.440534791,-0.223694,0,-0.894776,210.1, 2.6, 0.6,0,0,1024,1024,1024,1024,0,0,0,0,220.9,0,0,26,3.742,3.722,0,0,0,0,2.316,98.96,7.419397875216,1.312336,6,P-GPS,
18100,2022-08-11 19:57:31,-34.92876464503,-56.1628214377627,1.312336,1.3779528,6.041445075216,7.419397875216,1.312336,0.223694,0.47912075024,0.95204071288,22,5,7.458,7.419397875216,1.312336,0.223694,0.47912075024,-0.223694,0,-0.894776,210.1, 2.7, 3.1,0,0,1024,1024,1024,1024,0,0,0,0,220.9,0,0,26,3.742,3.722,0,0,0,0,2.316,98.96,7.419397875216,1.312336,6,P-GPS,
18200,2022-08-11 19:57:32,-34.928764689918,-56.1628215489623,1.64042,1.7060368,6.041445075216,7.747481875216,1.312336,0.223694,0.50946852024,0.98911748572,22,5,7.458,7.747481875216,1.64042,0.223694,0.50946852024,-0.223694,0,-0.671082,210.7, 4, 6,0,0,1024,1024,1024,1024,0,0,0,0,220.9,0,0,26,3.742,3.722,0,0,0,0,2.316,98.96,7.747481875216,1.64042,6,P-GPS,
18300,2022-08-11 19:57:32,-34.928764993846,-56.1628215127253,1.64042,1.7060368,6.041445075216,7.747481875216,1.64042,0.223694,0.60362862824,1.10053481212,22,5,7.409,7.747481875216,1.64042,0.223694,0.60362862824,-0.223694,0,-0.447388,210.6, 3.4, 6.3,0,0,1024,1024,1024,1024,0,0,0,0,220.9,0,0,26,3.711,3.705,0,0,0,0,4.418,98.96,7.747481875216,1.64042,6,P-GPS,
18400,2022-08-11 19:57:32,-34.9287652133985,-56.1628215297715,1.64042,1.7060368,6.041445075216,7.747481875216,1.64042,0,0.67954726584,1.18080056272,22,5,7.409,7.747481875216,1.64042,0.223694,0.67954726584,0,0,-0.223694,210.9, 3.6, 4.6,0,0,1024,1024,1024,1024,0,0,0,0,220.9,0,0,26,3.711,3.705,0,0,0,0,4.418,98.96,7.747481875216,1.64042,6,P-GPS,
18500,2022-08-11 19:57:32,-34.9287652932338,-56.162821557965,1.968504,2.0341208,6.041445075216,8.075565875216,1.64042,0,0.70974739804,1.21112536684,22,5,7.409,8.075565875216,1.968504,0.223694,0.70974739804,0,0,0,210.7, 5.1, 0.1,0,0,1027,1024,1024,1024,0,0,0,0,220.9,0,0,26,3.711,3.705,0,0,0,0,4.418,98.96,8.075565875216,1.968504,6,P-GPS,
18600,2022-08-11 19:57:32,-34.9287657194138,-56.1628213721862,1.968504,2.0669292,6.008636675216,8.075565875216,1.64042,0,0.84154202168,1.3762467632,22,5,7.409,8.075565875216,1.968504,0.223694,0.84154202168,0,0,0,210.4, 4.7, -1.6,0,0,1398,1024,1024,1024,57,0,0,0,220.9,0,0,26,3.711,3.705,0,0,0,0,4.418,98.96,8.075565875216,1.968504,6,P-GPS,
18700,2022-08-11 19:57:32,-34.928765778414,-56.162821440153,1.968504,2.0669292,6.008636675216,8.075565875216,1.64042,0,0.86743113012,1.4058563442,22,5,7.409,8.075565875216,1.968504,0.223694,0.86743113012,0,0,0,210.5, 3, -0.9,0,0,1684,1024,1024,1024,100,0,0,0,220.9,0,0,26,3.711,3.705,0,0,0,0,4.418,98.96,8.075565875216,1.968504,6,P-GPS,
18800,2022-08-11 19:57:32,-34.9287658287264,-56.1628214484853,1.968504,2.0669292,6.008636675216,8.075565875216,1.64042,0,0.88581695748,1.42438324768,23,5,7.409,8.075565875216,1.968504,0.223694,0.88581695748,0,0,0,210.7, -7.3, 0.4,0,0,1684,1024,1024,1024,100,0,0,0,220.9,0,0,26,3.711,3.705,0,0,0,0,4.418,98.96,8.075565875216,1.968504,6,P-GPS,
18900,2022-08-11 19:57:32,-34.9287659219963,-56.1628214685301,1.968504,2.0669292,6.008636675216,8.075565875216,1.64042,0.447388,0.9202592158,1.45893705456,23,5,7.409,8.075565875216,1.968504,0.447388,0.9202592158,-0.447388,0,0,210.4, -16.9, 2.4,0,0,1289,1024,1024,1024,40,0,0,0,220.9,0,0,26,3.711,3.705,0,0,0,0,4.418,98.96,8.075565875216,1.968504,6,P-GPS,
19000,2022-08-11 19:57:32,-34.9287661565289,-56.1628217435007,1.968504,2.0669292,6.008636675216,8.075565875216,1.64042,1.2079476,1.02534124016,1.5776247224,23,5,7.409,8.075565875216,1.968504,1.2079476,1.02534124016,-1.11847,-0.447388,0,210.4, -17.8, 3,0,0,1392,1024,1024,1024,56,0,0,0,220.9,0,0,26,3.711,3.705,0,0,0,0,4.418,98.96,8.075565875216,1.968504,6,P-GPS,"Punto de origen actualizado. Altitud de RPO establecida en 40m (Code: 3000001)"
19100,2022-08-11 19:57:32,-34.9287666718891,-56.1628220522274,1.968504,2.0997376,5.975828275216,8.075565875216,1.64042,1.7000744,1.23294951452,1.78710963724,23,5,7.409,8.075565875216,1.968504,1.7000744,1.23294951452,-1.565858,-0.671082,0,210.9, -8.4, 3.1,0,0,1684,1024,1024,1024,100,0,0,0,220.9,0,0,26,3.711,3.705,0,0,0,0,4.418,98.96,8.075565875216,1.968504,6,P-GPS,
19200,2022-08-11 19:57:33,-34.9287672903013,-56.1628224699058,1.968504,2.0997376,5.975828275216,8.075565875216,1.64042,1.9908766,1.48773954892,2.04501975048,23,5,7.409,8.075565875216,1.968504,1.9908766,1.48773954892,-1.789552,-0.894776,0,210.9, -4.9, 3,0,0,1684,1024,1024,1024,100,0,0,0,220.9,0,0,26,3.711,3.705,0,0,0,0,4.418,98.96,8.075565875216,1.968504,6,P-GPS,
19300,2022-08-11 19:57:33,-34.9287680214222,-56.16282300578,1.968504,2.132546,5.943019875216,8.075565875216,1.64042,2.5053728,1.79491803644,2.35622382868,23,5,7.416,8.075565875216,1.968504,2.5053728,1.79491803644,-2.23694,-1.11847,0,210.7, -14.2, 1.9,0,0,1684,1024,1210,1024,100,0,28,0,220.9,0,0,26,3.703,3.697,0,0,0,0,4.482,98.96,8.075565875216,1.968504,6,P-GPS,
19400,2022-08-11 19:57:33,-34.9287690380394,-56.1628235435246,1.968504,2.1981628,5.877403075216,8.075565875216,1.64042,3.3106712,2.19917329872,2.7605151802,23,5,7.416,8.075565875216,1.968504,3.3106712,2.19917329872,-2.908022,-1.565858,0,211.1, -17.4, 1.3,0,0,1684,1024,1555,1024,100,0,80,0,220.9,0,0,26,3.703,3.697,0,0,0,0,4.482,98.96,8.075565875216,1.968504,6,P-GPS,
19500,2022-08-11 19:57:33,-34.9287704074061,-56.1628244251699,1.968504,2.2309712,5.844594675216,8.075565875216,1.64042,4.1159696,2.76236229312,3.325459424,23,5,7.416,8.075565875216,1.968504,4.1159696,2.76236229312,-3.579104,-2.013246,-0.223694,211.2, -17.5, 0.8,0,0,1684,1024,1603,1024,100,0,88,0,220.9,0,0,26,3.703,3.697,0,0,0,0,4.482,98.96,8.075565875216,1.968504,6,P-GPS,
19600,2022-08-11 19:57:33,-34.9287720242482,-56.162825470191,2.296588,2.624672,5.778977875216,8.403649875216,1.968504,4.921268,3.4285762252,3.9930775556,22,5,7.416,8.403649875216,2.296588,4.921268,3.4285762252,-4.250186,-2.460634,-1.11847,210.9, -15.7, 2.2,0,0,1370,1024,1224,1024,52,0,30,0,220.9,0,0,26,3.703,3.697,0,0,0,0,4.482,98.96,8.403649875216,2.296588,6,P-GPS,
19700,2022-08-11 19:57:33,-34.9287740549065,-56.1628268192696,2.296588,2.6902888,5.713361075216,8.403649875216,2.296588,5.6147194,4.2706038112,4.8367127532,22,5,7.416,8.403649875216,2.296588,5.6147194,4.2706038112,-4.921268,-2.684328,-1.565858,210.7, -14.2, 2.6,0,0,1162,1024,1110,1024,21,0,13,0,220.9,0,0,26,3.703,3.697,0,0,0,0,4.482,98.96,8.403649875216,2.296588,6,P-GPS,
19800,2022-08-11 19:57:33,-34.9287761841345,-56.1628282092487,2.624672,3.0839896,5.647744275216,8.731733875216,2.624672,5.9055216,5.1508531832,5.717847952,22,5,7.416,8.731733875216,2.624672,5.9055216,5.1508531832,-5.144962,-2.908022,-1.565858,211, -4.8, 2.6,0,0,1076,1024,1070,1024,8,0,7,0,220.9,0,0,26,3.703,3.697,0,0,0,0,4.482,98.96,8.731733875216,2.624672,6,P-GPS,
19900,2022-08-11 19:57:33,-34.9287790797538,-56.1628297225979,2.952756,3.5104988,5.549319075216,9.059817875216,2.624672,6.1068462,6.2992128,6.8671918208,22,5,7.416,9.059817875216,2.952756,6.1068462,6.2992128,-5.368656,-2.908022,-1.11847,211.2, 1.4, 3.7,0,0,1024,1024,1024,1024,0,0,0,0,220.9,0,0,26,3.703,3.697,0,0,0,0,4.482,98.96,9.059817875216,2.952756,6,P-GPS,
20000,2022-08-11 19:57:33,-34.9287813415274,-56.1628310497644,2.952756,3.5761156,5.483702275216,9.059817875216,2.952756,5.9055216,7.2149280524,7.7829398816,22,5,7.416,9.059817875216,2.952756,6.1068462,7.2149280524,-5.144962,-2.908022,-0.894776,211.3, 4.9, 3.3,0,0,1024,1024,1024,1024,0,0,0,0,220.9,0,0,26,3.703,3.697,0,0,0,0,4.482,98.96,9.059817875216,2.952756,6,P-GPS,
20100,2022-08-11 19:57:33,-34.9287837429758,-56.1628324159185,3.28084,4.0354332,5.352468675216,9.387901875216,2.952756,5.7265664,8.1816931752,8.7497378128,22,5,7.416,9.387901875216,3.28084,6.1068462,8.1816931752,-4.921268,-2.908022,-0.447388,211.5, 16, 2.7,0,0,1024,1024,1024,1024,0,0,0,0,220.9,0,0,26,3.703,3.697,0,0,0,0,4.482,98.96,9.387901875216,3.28084,6,P-GPS,
20200,2022-08-11 19:57:34,-34.9287859608253,-56.162833612985,3.28084,4.10105,5.286851875216,9.387901875216,2.952756,5.1002232,9.0663060644,9.6345803608,22,5,7.416,9.387901875216,3.28084,6.1068462,9.0663060644,-4.47388,-2.460634,0,211.7, 18.3, 2.1,0,0,1024,1024,1024,1024,0,0,0,0,220.9,0,0,26,3.703,3.697,0,0,0,0,4.482,98.96,9.387901875216,3.28084,6,P-GPS,
20300,2022-08-11 19:57:34,-34.928789143313,-56.1628345332737,3.28084,4.1994752,5.188426675216,9.387901875216,2.952756,4.4067718,10.2370082016,10.827920294,22,5,7.356,9.387901875216,3.28084,6.1068462,10.2370082016,-3.802798,-2.23694,0,211.7, 19.5, 2.1,0,0,1024,1024,1024,1024,0,0,0,0,220.9,0,0,26,3.712,3.707,0,0,0,0,5.392,98.96,9.387901875216,3.28084,6,P-GPS,
20400,2022-08-11 19:57:34,-34.9287909861807,-56.162835333909,3.28084,4.265092,5.122809875216,9.387901875216,2.952756,3.6014734,10.9489176732,11.541667036,22,5,7.356,9.387901875216,3.28084,6.1068462,10.9489176732,-3.131716,-1.789552,0,212, 19.1, 1.7,0,0,1024,1024,1024,1024,0,0,0,0,220.9,0,0,26,3.712,3.707,0,0,0,0,5.392,98.96,9.387901875216,3.28084,6,P-GPS,
20500,2022-08-11 19:57:34,-34.9287924139809,-56.1628358485659,3.28084,4.2979004,5.090001475216,9.387901875216,2.952756,2.796175,11.4881565356,12.0848429064,22,5,7.356,9.387901875216,3.28084,6.1068462,11.4881565356,-2.460634,-1.342164,0,212.2, 18.7, 2.5,0,0,1024,1024,1024,1024,0,0,0,0,220.9,0,0,26,3.712,3.707,0,0,0,0,5.392,98.96,9.387901875216,3.28084,6,P-GPS,
20600,2022-08-11 19:57:34,-34.9287934494889,-56.1628361504573,3.28084,4.3307088,5.057193075216,9.387901875216,2.952756,2.125093,11.8711289888,12.4732943624,22,5,7.356,9.387901875216,3.28084,6.1068462,11.8711289888,-2.013246,-0.671082,0,206.5, 17.2, 4.1,0,0,1024,1024,1024,1024,0,0,0,0,220.9,0,0,26,3.712,3.707,0,0,0,0,5.392,98.96,9.387901875216,3.28084,6,P-GPS,
20700,2022-08-11 19:57:34,-34.9287931350005,-56.1628360886668,3.28084,4.3307088,5.057193075216,9.387901875216,2.952756,1.4092722,11.7582680928,12.5895345236,22,5,7.356,9.387901875216,3.28084,6.1068462,11.8711289888,-1.342164,-0.447388,0,205.5, 14.3, 0.1,0,0,1024,1024,1024,1024,0,0,0,0,220.9,0,0,26,3.712,3.707,0,0,0,0,5.392,98.96,9.387901875216,3.28084,6,P-GPS,
20800,2022-08-11 19:57:34,-34.9287934152329,-56.1628362003278,3.28084,4.3307088,5.057193075216,9.387901875216,2.952756,0.9171454,11.8654203272,12.6970804588,22,5,7.356,9.387901875216,3.28084,6.1068462,11.8711289888,-0.894776,-0.223694,0,205.3, 10.5, 1.1,0,0,1024,1024,1024,1024,0,0,0,0,220.9,0,0,26,3.712,3.707,0,0,0,0,5.392,98.96,9.387901875216,3.28084,6,P-GPS,
20900,2022-08-11 19:57:34,-34.9287934804163,-56.1628361826985,3.608924,4.6587928,5.057193075216,9.715985875216,2.952756,0.671082,11.8852694092,12.7214571,22,5,7.356,9.715985875216,3.608924,6.1068462,11.8852694092,-0.671082,0,0,205.3, 7.7, 1.3,0,0,1024,1024,1024,1024,0,0,0,0,220.9,0,0,26,3.712,3.707,0,0,0,0,5.392,98.96,9.715985875216,3.608924,6,P-GPS,
21000,2022-08-11 19:57:34,-34.9287934442681,-56.1628361091983,3.608924,4.6587928,5.057193075216,9.715985875216,2.952756,0.447388,11.8645673088,12.7470804604,22,5,7.356,9.715985875216,3.608924,6.1068462,11.8852694092,-0.447388,0,0,205.1, 5.8, 1.5,0,0,1024,1024,1024,1024,0,0,0,0,220.9,0,0,26,3.712,3.707,0,0,0,0,5.392,98.96,9.715985875216,3.608924,6,P-GPS,
21100,2022-08-11 19:57:34,-34.9287923883166,-56.1628355928173,3.608924,4.6259844,5.090001475216,9.715985875216,2.952756,0.223694,11.4495738572,13.1621723372,22,5,7.356,9.715985875216,3.608924,6.1068462,11.8852694092,-0.223694,0,0,205.3, 4.8, 2.3,0,0,1024,1024,1024,1024,0,0,0,0,220.9,0,0,26,3.712,3.707,0,0,0,0,5.392,98.96,9.715985875216,3.608924,6,P-GPS,
21200,2022-08-11 19:57:35,-34.9287922995957,-56.1628355046032,3.608924,4.6259844,5.090001475216,9.715985875216,2.952756,0.223694,11.4094819924,13.203904622,22,5,7.356,9.715985875216,3.608924,6.1068462,11.8852694092,-0.223694,0,0,205.5, 5, 2,0,0,1024,1024,1024,1024,0,0,0,0,220.9,0,0,26,3.712,3.707,0,0,0,0,5.392,98.96,9.715985875216,3.608924,6,P-GPS,
21300,2022-08-11 19:57:35,-34.9287922763676,-56.1628354151561,3.608924,4.6259844,5.090001475216,9.715985875216,2.952756,0.223694,11.3913061388,13.2319886124,22,5,7.382,9.715985875216,3.608924,6.1068462,11.8852694092,-0.223694,0,0,205.6, 4.2, 2.6,0,0,1024,1024,1024,1024,0,0,0,0,220.9,0,0,26,3.694,3.689,0,0,0,0,4.717,98.96,9.715985875216,3.608924,6,P-GPS,
21400,2022-08-11 19:57:35,-34.9287922695965,-56.1628353415122,3.608924,4.6259844,5.090001475216,9.715985875216,2.952756,0.223694,11.3805449836,13.2541670908,22,5,7.382,9.715985875216,3.608924,6.1068462,11.8852694092,-0.223694,0,0,205.5, 3.8, 3.1,0,0,1024,1024,1024,1024,0,0,0,0,220.9,0,0,26,3.694,3.689,0,0,0,0,4.717,98.96,9.715985875216,3.608924,6,P-GPS,
21500,2022-08-11 19:57:35,-34.9287923780183,-56.1628353537287,3.608924,4.6259844,5.090001475216,9.715985875216,2.952756,0.223694,11.4184386856,13.2938652548,22,5,7.382,9.715985875216,3.608924,6.1068462,11.8852694092,-0.223694,0,0,205.5, 4.1, 1.9,0,0,1024,1024,1024,1024,0,0,0,0,220.9,0,0,26,3.694,3.689,0,0,0,0,4.717,98.96,9.715985875216,3.608924,6,P-GPS,
21600,2022-08-11 19:57:35,-34.9287927692259,-56.1628353986567,3.608924,4.6587928,5.057193075216,9.715985875216,2.952756,0.223694,11.5554793724,13.4372379628,22,5,7.382,9.715985875216,3.608924,6.1068462,11.8852694092,-0.447388,0,0,205.6, 5.6, 2.3,0,0,1024,1024,1024,1024,0,0,0,0,220.9,0,0,26,3.694,3.689,0,0,0,0,4.717,98.96,9.715985875216,3.608924,31,Sport,
21700,2022-08-11 19:57:35,-34.9287931054898,-56.1628353757127,3.608924,4.6587928,5.057193075216,9.715985875216,2.952756,0.223694,11.6664373812,13.5601054208,22,5,7.382,9.715985875216,3.608924,6.1068462,11.8852694092,-0.223694,0,0,205.7, 5.8, 2.5,0,0,1024,1024,1024,1024,0,0,0,0,220.9,0,0,26,3.694,3.689,0,0,0,0,4.717,98.96,9.715985875216,3.608924,31,Sport,
21800,2022-08-11 19:57:35,-34.9287934140474,-56.1628353361504,3.608924,4.6587928,5.057193075216,9.715985875216,2.952756,0.223694,11.766404576,13.6733272092,22,5,7.382,9.715985875216,3.608924,6.1068462,11.8852694092,-0.223694,0,0,205.9, 6.7, 3.3,0,0,1024,1024,1024,1024,0,0,0,0,220.9,0,0,26,3.694,3.689,0,0,0,0,4.717,98.96,9.715985875216,3.608924,31,Sport,
21900,2022-08-11 19:57:35,-34.9287936858575,-56.1628352604376,3.28084,4.3963256,4.991576275216,9.387901875216,2.952756,0,11.8501644212,13.7750332492,22,5,7.382,9.715985875216,3.608924,6.1068462,11.8852694092,0,0,0,205.7, 5.9, 3.2,0,0,1121,1024,1024,1024,15,0,0,0,220.9,0,0,26,3.694,3.689,0,0,0,0,4.717,98.96,9.387901875216,3.28084,31,Sport,
22000,2022-08-11 19:57:35,-34.9287947297911,-56.1628352788453,3.28084,4.429134,4.958767875216,9.387901875216,2.952756,0,12.2071526216,14.1559715816,22,5,7.382,9.715985875216,3.608924,6.1068462,12.2071526216,0,0,0,205.6, 4.8, 2.1,0,0,1684,1024,1024,1024,100,0,0,0,220.9,0,0,26,3.694,3.689,0,0,0,0,4.717,98.96,9.387901875216,3.28084,31,Sport,
22100,2022-08-11 19:57:35,-34.9287948881801,-56.1628352589433,3.28084,4.429134,4.958767875216,9.387901875216,2.952756,0,12.2590555104,14.2140424496,22,5,7.382,9.715985875216,3.608924,6.1068462,12.2590555104,0,0,0,205.5, 2.5, 2.1,0,0,1684,1024,1024,1024,100,0,0,0,220.9,0,0,26,3.694,3.689,0,0,0,0,4.717,98.96,9.387901875216,3.28084,31,Sport,
22200,2022-08-11 19:57:36,-34.9287950445009,-56.1628352690582,3.28084,4.429134,4.958767875216,9.387901875216,2.952756,0.223694,12.3134518376,14.271161874,22,5,7.382,9.715985875216,3.608924,6.1068462,12.3134518376,-0.223694,0,0,205.3, -12.3, 1.7,0,0,1684,1024,1024,1024,100,0,0,0,220.9,0,0,26,3.694,3.689,0,0,0,0,4.717,98.96,9.387901875216,3.28084,31,Sport,
22300,2022-08-11 19:57:36,-34.9287953195777,-56.1628353998165,3.28084,4.429134,4.958767875216,9.387901875216,2.952756,0.9171454,12.4211618148,14.3788718512,22,5,7.382,9.715985875216,3.608924,6.1068462,12.4211618148,-0.894776,-0.223694,0,205.1, -21.2, 2.2,0,0,1684,1024,1024,1024,100,0,0,0,220.9,0,0,26,3.694,3.689,0,0,0,0,4.717,98.96,9.387901875216,3.28084,31,Sport,
22400,2022-08-11 19:57:36,-34.9287960175744,-56.1628358533791,3.28084,4.4619424,4.925959475216,9.387901875216,3.28084,1.9908766,12.7074151048,14.6674217292,22,5,7.392,9.715985875216,3.608924,6.1068462,12.7074151048,-1.789552,-0.894776,0,205.2, -23, 2.3,0,0,1684,1024,1024,1024,100,0,0,0,220.9,0,0,26,3.694,3.69,0,0,0,0,4.812,98.96,9.387901875216,3.28084,31,Sport,
22500,2022-08-11 19:57:36,-34.9287969745914,-56.162836416219,3.28084,4.4947508,4.893151075216,9.387901875216,3.28084,3.1093466,13.0937012064,15.0550529752,22,5,7.392,9.715985875216,3.608924,6.1068462,13.0937012064,-2.908022,-1.11847,0,205.1, -21.9, 1.4,0,0,1684,1024,1024,1024,100,0,0,0,220.9,0,0,26,3.694,3.69,0,0,0,0,4.812,98.96,9.387901875216,3.28084,31,Sport,
22600,2022-08-11 19:57:36,-34.9287982569682,-56.1628371331282,3.28084,4.5275592,4.860342675216,9.387901875216,3.28084,4.1159696,13.6074151336,15.5697511544,22,5,7.392,9.715985875216,3.608924,6.1068462,13.6074151336,-3.802798,-1.565858,0,205.3, -20.8, 2.4,0,0,1684,1024,1024,1024,100,0,0,0,220.9,0,0,26,3.694,3.69,0,0,0,0,4.812,98.96,9.387901875216,3.28084,31,Sport,
22700,2022-08-11 19:57:36,-34.9288000274614,-56.1628380433999,3.28084,4.593176,4.794725875216,9.387901875216,3.28084,5.1002232,14.3081369408,16.2707354288,22,5,7.392,9.715985875216,3.608924,6.1068462,14.3081369408,-4.697574,-2.013246,0,205.6, -20.6, 2,0,0,1684,1024,1024,1024,100,0,0,0,220.9,0,0,26,3.694,3.69,0,0,0,0,4.812,98.96,9.387901875216,3.28084,31,Sport,
22800,2022-08-11 19:57:36,-34.9288025394405,-56.1628392268027,3.28084,4.6916012,4.696300675216,9.387901875216,3.28084,6.1068462,15.2906172872,17.2532157752,22,5,7.392,9.715985875216,3.608924,6.1068462,15.2906172872,-5.59235,-2.460634,0,205.5, -19.1, 1.7,0,0,1684,1024,1024,1024,100,0,0,0,220.9,0,0,26,3.694,3.69,0,0,0,0,4.812,98.96,9.387901875216,3.28084,31,Sport,
22900,2022-08-11 19:57:36,-34.9288051576918,-56.1628405791233,3.28084,4.757218,4.630683875216,9.387901875216,3.28084,6.822667,16.3275595776,18.2906173832,22,5,7.392,9.715985875216,3.608924,6.822667,16.3275595776,-6.263432,-2.684328,0,205.2, -19.4, 2.7,0,0,1684,1024,1024,1024,100,0,0,0,220.9,0,0,26,3.694,3.69,0,0,0,0,4.812,98.96,9.387901875216,3.28084,31,Sport,
23000,2022-08-11 19:57:36,-34.9288079743397,-56.1628420521865,3.28084,4.8884516,4.499450275216,9.387901875216,3.28084,7.605596,17.4451449152,19.4087604636,22,5,7.392,9.715985875216,3.608924,7.605596,17.4451449152,-6.934514,-3.131716,0,205.2, -18.9, 2.9,0,0,1684,1024,1024,1024,100,0,0,0,220.9,0,0,26,3.694,3.69,0,0,0,0,4.812,98.96,9.387901875216,3.28084,31,Sport,
23100,2022-08-11 19:57:36,-34.9288113427957,-56.1628438556324,3.608924,5.3149608,4.401025075216,9.715985875216,3.28084,8.3214168,18.7863851156,20.7509192992,22,5,7.392,9.715985875216,3.608924,8.3214168,18.7863851156,-7.605596,-3.35541,0,205.5, -17.3, 3,0,0,1684,1024,1024,1024,100,0,0,0,220.9,0,0,26,3.694,3.69,0,0,0,0,4.812,98.96,9.715985875216,3.608924,31,Sport,
23200,2022-08-11 19:57:37,-34.9288147582192,-56.162845711868,3.608924,5.4461944,4.269791475216,9.715985875216,3.28084,9.1043458,20.1495085188,22.1151253796,23,5,7.392,9.715985875216,3.608924,9.1043458,20.1495085188,-8.276678,-3.802798,0,205.3, -17.8, 3.7,0,0,1684,1024,1024,1024,100,0,0,0,220.9,0,0,26,3.694,3.69,0,0,0,0,4.812,98.96,9.715985875216,3.608924,31,Sport,
23300,2022-08-11 19:57:37,-34.9288189901608,-56.1628480552097,3.608924,5.6102364,4.105749475216,9.715985875216,3.28084,9.618842,21.8435702528,23.8108275336,23,5,7.392,9.715985875216,3.608924,9.618842,21.8435702528,-8.724066,-4.026492,0,205.5, -17.7, 2.8,0,0,1684,1024,1024,1024,100,0,0,0,220.9,0,0,26,3.694,3.69,0,0,0,0,4.812,98.96,9.715985875216,3.608924,31,Sport,
23400,2022-08-11 19:57:37,-34.9288227514366,-56.1628501756057,3.608924,5.74147,3.974515875216,9.715985875216,3.28084,10.1109688,23.3536424796,25.3226057972,23,5,7.367,9.715985875216,3.608924,10.1109688,23.3536424796,-9.171454,-4.250186,0,205.6, -17.3, 2.5,0,0,1684,1024,1024,1024,100,0,0,0,220.9,0,0,26,3.682,3.676,0,0,0,0,5.114,98.96,9.715985875216,3.608924,31,Sport,
23500,2022-08-11 19:57:37,-34.9288269026074,-56.1628525188194,3.608924,5.8727036,3.843282275216,9.715985875216,3.28084,10.9162672,25.0208669424,26.9915034884,23,5,7.367,9.715985875216,3.608924,10.9162672,25.0208669424,-9.842536,-4.697574,0,205.6, -16.7, 2.3,0,0,1684,1024,1126,1024,100,0,15,0,220.9,0,0,26,3.682,3.676,0,0,0,0,5.114,98.96,9.715985875216,3.608924,31,Sport,
23600,2022-08-11 19:57:37,-34.9288310739188,-56.1628549007137,3.28084,5.6758532,3.712048675216,9.387901875216,3.28084,11.408394,26.6995087284,28.671916928,23,5,7.367,9.715985875216,3.608924,11.408394,26.6995087284,-10.289924,-4.921268,0,205.3, -17.1, 1.1,0,0,1684,1024,1519,1024,100,0,75,0,220.9,0,0,26,3.682,3.676,0,0,0,0,5.114,98.96,9.387901875216,3.28084,31,Sport,
23700,2022-08-11 19:57:37,-34.9288358886219,-56.1628575432521,3.608924,6.2007876,3.515198275216,9.715985875216,3.28084,12.1018454,28.625000916,30.5981965172,23,5,7.367,9.715985875216,3.608924,12.1018454,28.625000916,-10.961006,-5.144962,-0.447388,205.1, -16.1, 0.9,0,0,1684,1024,1684,1024,100,0,100,0,220.9,0,0,26,3.682,3.676,0,0,0,0,5.114,98.96,9.715985875216,3.608924,31,Sport,
23800,2022-08-11 19:57:37,-34.9288405712322,-56.1628602003725,3.608924,6.3648296,3.351156275216,9.715985875216,3.608924,12.9071438,30.507874992,32.4824813544,23,5,7.367,9.715985875216,3.608924,12.9071438,30.507874992,-11.632088,-5.59235,-1.342164,205.5, -15.7, 2.5,0,0,1684,1024,1640,1024,100,0,93,0,220.9,0,0,26,3.682,3.676,0,0,0,0,5.114,98.96,9.715985875216,3.608924,31,Sport,
23900,2022-08-11 19:57:37,-34.9288457217269,-56.1628631242212,3.937008,6.889764,3.154305875216,10.044069875216,3.937008,13.6005952,32.5791677092,34.555119216,23,5,7.367,10.044069875216,3.937008,13.6005952,32.5791677092,-12.30317,-5.816044,-2.23694,205.8, -14.9, 1.3,0,0,1684,1024,1024,1024,100,0,0,0,220.9,0,0,26,3.682,3.676,0,0,0,0,5.114,98.96,10.044069875216,3.937008,31,Sport,
24000,2022-08-11 19:57:37,-34.9288508064782,-56.1628660100423,4.265092,7.38189,2.990263875216,10.372153875216,4.265092,14.1150914,34.624016856,36.601379124,22,5,7.367,10.372153875216,4.265092,14.1150914,34.624016856,-12.750558,-6.039738,-3.131716,206, -13, 2.2,0,0,1684,1024,1024,1024,100,0,0,0,220.9,0,0,26,3.682,3.676,0,0,0,0,5.114,98.96,10.372153875216,4.265092,31,Sport,
24100,2022-08-11 19:57:37,-34.9288559533904,-56.1628688020054,4.92126,8.2021,2.826221875216,11.028321875216,4.92126,14.4058936,36.679135032,38.6564973,22,5,7.367,11.028321875216,4.92126,14.4058936,36.679135032,-12.974252,-6.263432,-3.131716,205.8, -14.3, 2.3,0,0,1684,1024,1024,1024,100,0,0,0,220.9,0,0,26,3.682,3.676,0,0,0,0,5.114,98.96,11.028321875216,4.92126,31,Sport,
24200,2022-08-11 19:57:38,-34.9288611432219,-56.1628717777348,5.249344,8.7270344,2.629371475216,11.356405875216,5.249344,14.6072182,38.770014364,40.748688968,22,5,7.367,11.356405875216,5.249344,14.6072182,38.770014364,-13.197946,-6.263432,-2.460634,205.5, -17.6, 1.5,0,0,1684,1024,1024,1024,100,0,0,0,220.9,0,0,26,3.682,3.676,0,0,0,0,5.114,98.96,11.356405875216,5.249344,31,Sport,
24300,2022-08-11 19:57:38,-34.9288666848363,-56.1628750345392,5.249344,8.9238848,2.432521075216,11.356405875216,5.577428,14.8085428,41.012468504,42.993111612,22,5,7.367,11.356405875216,5.249344,14.8085428,41.012468504,-13.42164,-6.263432,-1.789552,205.3, -19.8, 1.2,0,0,1684,1024,1024,1024,100,0,0,0,220.9,0,0,26,3.682,3.676,0,0,0,0,5.114,98.96,11.356405875216,5.249344,31,Sport,
24400,2022-08-11 19:57:38,-34.9288720694362,-56.162878173878,5.249344,9.1207352,2.235670675216,11.356405875216,9.186352,15.0098674,43.188321592,45.17060512,23,5,7.361,11.356405875216,5.249344,15.0098674,43.188321592,-13.645334,-6.263432,-1.11847,205, -21.5, 1.6,0,0,1684,1024,1024,1024,100,0,0,0,220.9,0,0,26,3.676,3.701,0,0,0,0,5.799,98.96,11.356405875216,5.249344,31,Sport,
24500,2022-08-11 19:57:38,-34.9288778547376,-56.162881581105,5.249344,9.3175856,2.038820275216,11.356405875216,9.84252,15.3006696,45.530513268,47.514437216,23,5,7.361,11.356405875216,5.249344,15.3006696,45.530513268,-13.869028,-6.487126,-0.447388,205.3, -22.2, 2.5,0,0,1684,1024,1098,1024,100,0,11,0,220.9,0,0,26,3.676,3.701,0,0,0,0,5.799,98.96,11.356405875216,5.249344,31,Sport,
24600,2022-08-11 19:57:38,-34.9288835071058,-56.1628847934634,5.249344,9.5472444,1.809161475216,11.356405875216,10.170604,15.7256882,47.804791556,49.789699756,23,5,7.361,11.356405875216,5.249344,15.7256882,47.804791556,-14.316416,-6.487126,0,205.4, -22, 3.4,0,0,1684,1024,1595,1024,100,0,87,0,220.9,0,0,26,3.676,3.701,0,0,0,0,5.799,98.96,11.356405875216,5.249344,31,Sport,
24700,2022-08-11 19:57:38,-34.9288894016692,-56.162888141119,5.249344,9.7112864,1.645119475216,11.356405875216,10.170604,16.217815,50.176510792,52.16207516,23,5,7.361,11.356405875216,5.249344,16.217815,50.176510792,-14.763804,-6.71082,-0.223694,205.5, -21.4, 3.1,0,0,1684,1024,1684,1024,100,0,100,0,220.9,0,0,26,3.676,3.701,0,0,0,0,5.799,98.96,11.356405875216,5.249344,31,Sport,
24800,2022-08-11 19:57:38,-34.9288951854463,-56.1628914726671,5.249344,9.7440948,1.612311075216,11.356405875216,10.170604,16.5980948,52.509516116,54.495736652,23,5,7.361,11.356405875216,5.249344,16.5980948,52.509516116,-14.987498,-7.158208,-0.894776,205.7, -19.6, 3,0,0,1684,1024,1684,1024,100,0,100,0,220.9,0,0,26,3.676,3.701,0,0,0,0,5.799,98.96,11.356405875216,5.249344,31,Sport,
24900,2022-08-11 19:57:38,-34.9289014974385,-56.1628951778761,5.249344,9.7769032,1.579502675216,11.356405875216,10.498688,17.112591,55.06397814,57.051511012,23,5,7.361,11.356405875216,5.249344,17.112591,55.06397814,-15.434886,-7.381902,-1.789552,205.6, -20.1, 2.1,0,0,1684,1024,1399,1024,100,0,57,0,220.9,0,0,26,3.676,3.701,0,0,0,0,5.799,98.96,11.356405875216,5.249344,31,Sport,
25000,2022-08-11 19:57:38,-34.9289072126907,-56.1628985071881,5.577428,10.1377956,1.546694275216,11.684489875216,13.451444,17.7165648,57.3736895,59.362206624,23,5,7.361,11.684489875216,5.577428,17.7165648,57.3736895,-15.882274,-7.82929,-2.684328,205.4, -21.4, 1.2,0,0,1684,1024,1024,1024,100,0,0,0,220.9,0,0,26,3.676,3.701,0,0,0,0,5.799,98.96,11.684489875216,5.577428,31,Sport,
25100,2022-08-11 19:57:38,-34.9289140071323,-56.162902520426,6.233596,10.826772,1.513885875216,12.340657875216,14.107612,18.4100162,60.126642344,62.116471804,23,5,7.361,12.340657875216,6.233596,18.4100162,60.126642344,-16.553356,-8.052984,-3.131716,205.3, -22.1, 0.2,0,0,1684,1024,1024,1024,100,0,0,0,220.9,0,0,26,3.676,3.701,0,0,0,0,5.799,98.96,12.340657875216,6.233596,31,Sport,
25200,2022-08-11 19:57:39,-34.9289206233048,-56.1629063914441,6.889764,11.5157484,1.481077475216,12.996825875216,14.76378,18.6113408,62.802823532,64.793965328,23,5,7.361,12.996825875216,6.889764,18.6113408,62.802823532,-16.77705,-8.052984,-2.684328,205.5, -21.5, 1,0,0,1684,1024,1024,1024,100,0,0,0,220.9,0,0,26,3.676,3.701,0,0,0,0,5.799,98.96,12.996825875216,6.889764,31,Sport,
25300,2022-08-11 19:57:39,-34.9289277265124,-56.1629105493837,7.217848,11.9094492,1.415460675216,13.324909875216,15.419948,18.8126654,65.676511288,67.668637336,23,5,7.361,13.324909875216,7.217848,18.8126654,65.676511288,-17.000744,-8.052984,-2.013246,205.6, -21.6, 1.4,0,0,1684,1024,1024,1024,100,0,0,0,220.9,0,0,26,3.676,3.701,0,0,0,0,5.799,98.96,13.324909875216,7.217848,31,Sport,
25400,2022-08-11 19:57:39,-34.9289348944018,-56.1629146882168,7.545932,12.2703416,1.382652275216,13.652993875216,15.748032,18.8126654,68.569227916,70.562010132,23,5,7.397,13.652993875216,7.545932,18.8126654,68.569227916,-17.000744,-8.052984,-1.342164,205.4, -22.3, 2.4,0,0,1684,1024,1024,1024,100,0,0,0,220.9,0,0,26,3.64,3.633,0,0,0,0,5.054,98.96,13.652993875216,7.545932,31,Sport,
25500,2022-08-11 19:57:39,-34.9289422543433,-56.1629189832038,7.545932,12.3359584,1.317035475216,13.652993875216,16.076116,19.01399,71.54527788,73.538716264,23,5,7.397,13.652993875216,7.545932,19.01399,71.54527788,-17.224438,-8.052984,-0.671082,205.3, -23, 2.9,0,0,1684,1024,1024,1024,100,0,0,0,220.9,0,0,26,3.64,3.633,0,0,0,0,5.054,98.96,13.652993875216,7.545932,31,Sport,
25600,2022-08-11 19:57:39,-34.9289492720902,-56.1629230697696,7.874016,12.6968508,1.284227075216,13.981077875216,16.4042,19.01399,74.381892144,76.375986696,23,5,7.397,13.981077875216,7.874016,19.01399,74.381892144,-17.224438,-8.052984,-0.223694,205.4, -24, 2.8,0,0,1684,1024,1024,1024,100,0,0,0,220.9,0,0,26,3.64,3.633,0,0,0,0,5.054,98.96,13.981077875216,7.874016,31,Sport,
25700,2022-08-11 19:57:39,-34.9289565946296,-56.1629272614238,7.874016,12.7624676,1.218610275216,13.981077875216,16.4042,19.5061168,77.33267964,79.327102276,23,5,7.397,13.981077875216,7.874016,19.5061168,77.33267964,-17.671826,-8.276678,0,205.2, -24, 2.5,0,0,1684,1024,1024,1024,100,0,0,0,220.9,0,0,26,3.64,3.633,0,0,0,0,5.054,98.96,13.981077875216,7.874016,31,Sport,
25800,2022-08-11 19:57:39,-34.9289638951264,-56.1629313998911,7.874016,12.8280844,1.152993475216,13.981077875216,16.4042,19.7074414,80.269687608,82.264438328,23,5,7.397,13.981077875216,7.874016,19.7074414,80.269687608,-17.89552,-8.276678,0,205.2, -23.6, 2.9,0,0,1644,1024,1024,1024,94,0,0,0,220.9,0,0,26,3.64,3.633,0,0,0,0,5.054,98.96,13.981077875216,7.874016,31,Sport,
25900,2022-08-11 19:57:39,-34.9289714236966,-56.1629356755993,7.874016,12.8937012,1.087376675216,13.981077875216,16.732284,20.2219376,83.299543348,85.294294068,23,5,7.397,13.981077875216,7.874016,20.2219376,83.299543348,-18.342908,-8.500372,0,205.1, -23, 3,0,0,1059,1024,1024,1024,5,0,0,0,220.9,0,0,26,3.64,3.633,0,0,0,0,5.054,98.96,13.981077875216,7.874016,31,Sport,
26000,2022-08-11 19:57:39,-34.9289787425492,-56.1629398321648,7.874016,12.959318,1.021759875216,13.981077875216,16.732284,20.5127398,86.2450815,88.23983222,23,5,7.397,13.981077875216,7.874016,20.5127398,86.2450815,-18.566602,-8.724066,0,205.1, -17.7, 2.3,0,0,1024,1024,1024,1024,0,0,0,0,220.9,0,0,26,3.64,3.633,0,0,0,0,5.054,98.96,13.981077875216,7.874016,31,Sport,
26100,2022-08-11 19:57:39,-34.9289865903726,-56.1629442912368,7.874016,13.0249348,0.956143075216,13.981077875216,16.732284,20.5127398,89.403546168,91.398624972,23,5,7.397,13.981077875216,7.874016,20.5127398,89.403546168,-18.566602,-8.724066,-0.223694,205.7, 5.5, 2.1,0,0,1035,1024,1024,1024,2,0,0,0,220.9,0,0,26,3.64,3.633,0,0,0,0,5.054,98.96,13.981077875216,7.874016,31,Sport,
26200,2022-08-11 19:57:40,-34.9289934612598,-56.1629479517647,7.874016,13.0905516,0.890526275216,13.981077875216,17.060368,19.2153146,92.138782476,94.134189364,23,5,7.397,13.981077875216,7.874016,20.5127398,92.138782476,-17.448132,-8.052984,-0.894776,205.8, 26.3, 0.9,0,0,1629,1024,1157,1024,92,0,20,0,220.9,0,0,26,3.64,3.633,0,0,0,0,5.054,98.96,13.981077875216,7.874016,31,Sport,
26300,2022-08-11 19:57:40,-34.9290003620062,-56.1629517849042,7.874016,13.1561684,0.824909475216,13.981077875216,17.060368,18.007367,94.905514848,96.900593652,23,5,7.397,13.981077875216,7.874016,20.5127398,94.905514848,-16.329662,-7.605596,-0.894776,205.7, 28.2, 0.6,0,0,1629,1024,1157,1024,92,0,20,0,220.9,0,0,26,3.64,3.633,0,0,0,0,5.054,98.96,13.981077875216,7.874016,31,Sport,
26400,2022-08-11 19:57:40,-34.9290065288585,-56.1629551989023,7.874016,13.2217852,0.759292675216,13.981077875216,17.388452,16.8217888,97.376315452,99.371394256,23,5,7.363,13.981077875216,7.874016,20.5127398,97.376315452,-15.211192,-7.158208,-0.671082,205.7, 23.9, 0.4,0,0,1684,1024,1308,1024,100,0,43,0,220.9,0,0,26,3.66,3.657,0,0,0,0,5.753,98.96,13.981077875216,7.874016,31,Sport,
26500,2022-08-11 19:57:40,-34.9290126444083,-56.1629585761503,7.545932,12.959318,0.693675875216,13.652993875216,17.388452,15.5243636,99.825462512,101.8208694,23,5,7.363,13.981077875216,7.874016,20.5127398,99.825462512,-14.092722,-6.487126,-1.11847,206.1, 17.2, 1.4,0,0,1684,1024,1287,1024,100,0,40,0,220.9,0,0,26,3.66,3.657,0,0,0,0,5.753,98.96,13.652993875216,7.545932,31,Sport,
26600,2022-08-11 19:57:40,-34.9290180364339,-56.1629615890947,7.545932,13.0249348,0.628059075216,13.652993875216,17.388452,14.316416,101.989504576,103.98458338,23,5,7.363,13.981077875216,7.874016,20.5127398,101.989504576,-12.974252,-6.039738,-1.342164,206.1, 11.5, 2.7,0,0,1684,1024,1024,1024,100,0,0,0,220.9,0,0,26,3.66,3.657,0,0,0,0,5.753,98.96,13.652993875216,7.545932,31,Sport,
26700,2022-08-11 19:57:40,-34.9290229553509,-56.1629647254659,7.545932,13.0905516,0.562442275216,13.652993875216,20.669292,13.6005952,104.011486268,106.009845912,23,5,7.363,13.981077875216,7.874016,20.5127398,104.011486268,-12.30317,-5.816044,-1.342164,205.7, 1.5, 0.7,0,0,1684,1024,1024,1024,100,0,0,0,220.9,0,0,26,3.66,3.657,0,0,0,0,5.753,98.96,13.652993875216,7.545932,31,Sport,
26800,2022-08-11 19:57:40,-34.9290277260926,-56.1629675117969,7.545932,13.12336,0.529633875216,13.652993875216,20.669292,13.6005952,105.940948272,107.939636,23,5,7.363,13.981077875216,7.874016,20.5127398,105.940948272,-12.30317,-5.816044,-0.671082,205.6, -5, 1.3,0,0,1684,1024,1024,1024,100,0,0,0,220.9,0,0,26,3.66,3.657,0,0,0,0,5.753,98.96,13.652993875216,7.545932,31,Sport,
26900,2022-08-11 19:57:40,-34.9290325689547,-56.1629701655265,7.545932,13.1889768,0.464017075216,13.652993875216,20.669292,13.5111176,107.877956208,109.876643936,23,5,7.363,13.981077875216,7.874016,20.5127398,107.877956208,-12.30317,-5.59235,-0.447388,205.5, -9.3, 1.8,0,0,1684,1024,1024,1024,100,0,0,0,220.9,0,0,26,3.66,3.657,0,0,0,0,5.753,98.96,13.652993875216,7.545932,31,Sport,
27000,2022-08-11 19:57:40,-34.929037136675,-56.1629726626215,7.545932,13.2217852,0.431208675216,13.652993875216,20.669292,13.5111176,109.704071752,111.703087564,23,5,7.363,13.981077875216,7.874016,20.5127398,109.704071752,-12.30317,-5.59235,-0.223694,205.5, -12.8, 2,0,0,1684,1024,1024,1024,100,0,0,0,220.9,0,0,26,3.66,3.657,0,0,0,0,5.753,98.96,13.652993875216,7.545932,31,Sport,
27100,2022-08-11 19:57:40,-34.9290411801666,-56.1629744184761,7.545932,13.287402,0.365591875216,13.652993875216,20.669292,13.8019198,111.264439256,113.269032496,23,5,7.363,13.981077875216,7.874016,20.5127398,111.264439256,-12.526864,-5.816044,0,205.5, -16.2, 2,0,0,1684,1024,1024,1024,100,0,0,0,220.9,0,0,26,3.66,3.657,0,0,0,0,5.753,98.96,13.652993875216,7.545932,31,Sport,
27200,2022-08-11 19:57:41,-34.9290458068756,-56.1629769655187,7.545932,13.3530188,0.299975075216,13.652993875216,20.997376,14.1150914,113.116473436,115.121066676,23,5,7.363,13.981077875216,7.874016,20.5127398,113.116473436,-12.750558,-6.039738,0,205.5, -18.4, 0.5,0,0,1684,1024,1024,1024,100,0,0,0,220.9,0,0,26,3.66,3.657,0,0,0,0,5.753,98.96,13.652993875216,7.545932,31,Sport,
27300,2022-08-11 19:57:41,-34.9290509757913,-56.162979846938,7.545932,13.3858272,0.267166675216,13.652993875216,20.997376,14.5177406,115.189964316,117.194557556,23,5,7.363,13.981077875216,7.874016,20.5127398,115.189964316,-13.197946,-6.039738,0,205.4, -19.3, 0.6,0,0,1684,1024,1024,1024,100,0,0,0,220.9,0,0,26,3.66,3.657,0,0,0,0,5.753,98.96,13.652993875216,7.545932,31,Sport,
27400,2022-08-11 19:57:41,-34.9290561141445,-56.1629826799459,7.545932,13.451444,0.201549875216,13.652993875216,20.669292,15.0098674,117.24737908,119.25197232,23,5,7.363,13.981077875216,7.874016,20.5127398,117.24737908,-13.645334,-6.263432,0,205.4, -18.2, 1.8,0,0,1684,1024,1024,1024,100,0,0,0,220.9,0,0,26,3.66,3.657,0,0,0,0,5.753,98.96,13.652993875216,7.545932,31,Sport,
27500,2022-08-11 19:57:41,-34.9290624019706,-56.1629861895235,7.545932,13.5498692,0.103124675216,13.652993875216,20.997376,15.5243636,119.77034504,121.774610196,23,5,7.341,13.981077875216,7.874016,20.5127398,119.77034504,-14.092722,-6.487126,0,205.3, -18.1, 2.1,0,0,1684,1024,1024,1024,100,0,0,0,220.9,0,0,26,3.687,3.678,0,0,0,0,5.213,98.96,13.652993875216,7.545932,31,Sport,
27600,2022-08-11 19:57:41,-34.9290681311492,-56.1629893693951,7.545932,13.615486,0.037507875216,13.652993875216,20.997376,16.0164904,122.06693304,124.071198196,23,5,7.341,13.981077875216,7.874016,20.5127398,122.06693304,-14.54011,-6.71082,0,205.3, -17.5, 2.9,0,0,1684,1024,1024,1024,100,0,0,0,220.9,0,0,26,3.687,3.678,0,0,0,0,5.213,98.96,13.652993875216,7.545932,31,Sport,
27700,2022-08-11 19:57:41,-34.9290744304657,-56.162992940101,7.545932,13.7139112,-0.060917324784,13.652993875216,20.997376,16.5086172,124.601053856,126.605647096,23,5,7.341,13.981077875216,7.874016,20.5127398,124.601053856,-14.987498,-6.934514,0,205.2, -16.2, 2.6,0,0,1684,1024,1024,1024,100,0,0,0,220.9,0,0,26,3.687,3.678,0,0,0,0,5.213,98.96,13.652993875216,7.545932,31,Sport,
27800,2022-08-11 19:57:41,-34.9290805763175,-56.162996410891,7.545932,13.779528,-0.126534124784,13.652993875216,20.997376,16.9112664,127.072182544,129.076775784,23,5,7.341,13.981077875216,7.874016,20.5127398,127.072182544,-15.434886,-6.934514,0,205.3, -16, 3,0,0,1684,1024,1024,1024,100,0,0,0,220.9,0,0,26,3.687,3.678,0,0,0,0,5.213,98.96,13.652993875216,7.545932,31,Sport,
27900,2022-08-11 19:57:41,-34.9290881831051,-56.1630007784378,7.874016,14.2388456,-0.257767724784,13.981077875216,21.32546,17.224438,130.139111776,132.1440331,23,5,7.341,13.981077875216,7.874016,20.5127398,130.139111776,-15.65858,-7.158208,0,205.3, -16.3, 3.3,0,0,1684,1024,1024,1024,100,0,0,0,220.9,0,0,26,3.687,3.678,0,0,0,0,5.213,98.96,13.981077875216,7.874016,31,Sport,
28000,2022-08-11 19:57:41,-34.9290946335151,-56.1630043696034,7.874016,14.3044624,-0.323384524784,13.981077875216,21.32546,17.5152402,132.7263822,134.73097544,23,5,7.341,13.981077875216,7.874016,20.5127398,132.7263822,-15.882274,-7.381902,0,205.2, -17.2, 3.3,0,0,1684,1024,1024,1024,100,0,0,0,220.9,0,0,26,3.687,3.678,0,0,0,0,5.213,98.96,13.981077875216,7.874016,31,Sport,
28100,2022-08-11 19:57:41,-34.929101578946,-56.1630082288765,7.874016,14.435696,-0.454618124784,13.981077875216,21.32546,17.7165648,135.510831108,137.515752432,23,5,7.341,13.981077875216,7.874016,20.5127398,135.510831108,-16.105968,-7.381902,0,205.4, -18.2, 3.3,0,0,1684,1024,1024,1024,100,0,0,0,220.9,0,0,26,3.687,3.678,0,0,0,0,5.213,98.96,13.981077875216,7.874016,31,Sport,
28200,2022-08-11 19:57:42,-34.9291081991831,-56.1630119148588,7.874016,14.5341212,-0.553043324784,13.981077875216,21.32546,18.007367,138.16601492,140.170936244,23,5,7.341,13.981077875216,7.874016,20.5127398,138.16601492,-16.329662,-7.605596,0,205.2, -19.2, 3,0,0,1684,1024,1024,1024,100,0,0,0,220.9,0,0,26,3.687,3.678,0,0,0,0,5.213,98.96,13.981077875216,7.874016,31,Sport,
28300,2022-08-11 19:57:42,-34.9291150172827,-56.1630156965565,7.874016,14.6325464,-0.651468524784,13.981077875216,21.32546,18.007367,140.898626556,142.90354788,23,5,7.341,13.981077875216,7.874016,20.5127398,140.898626556,-16.553356,-7.605596,0,205.2, -19.2, 3,0,0,1684,1024,1024,1024,100,0,0,0,220.9,0,0,26,3.687,3.678,0,0,0,0,5.213,98.96,13.981077875216,7.874016,31,Sport,
28400,2022-08-11 19:57:42,-34.9291219629221,-56.1630193757677,7.874016,14.7309716,-0.749893724784,13.981077875216,21.32546,18.4100162,143.661093836,145.666343244,23,5,7.341,13.981077875216,7.874016,20.5127398,143.661093836,-16.77705,-7.605596,0,205.2, -19.6, 3.1,0,0,1684,1024,1024,1024,100,0,0,0,220.9,0,0,26,3.687,3.678,0,0,0,0,5.213,98.96,13.981077875216,7.874016,31,Sport,
28500,2022-08-11 19:57:42,-34.9291290487639,-56.1630232572769,7.874016,14.8293968,-0.848318924784,13.981077875216,21.32546,18.7231878,146.495083428,148.500332836,23,5,7.341,13.981077875216,7.874016,20.5127398,146.495083428,-17.000744,-7.82929,0,205.4, -19.1, 3.8,0,0,1684,1024,1024,1024,100,0,0,0,220.9,0,0,26,3.687,3.678,0,0,0,0,5.213,98.96,13.981077875216,7.874016,31,Sport,
28600,2022-08-11 19:57:42,-34.9291359330435,-56.1630270579505,7.874016,14.9606304,-0.979552524784,13.981077875216,21.653544,19.2153146,149.25197328,151.257222688,23,5,7.341,13.981077875216,7.874016,20.5127398,149.25197328,-17.448132,-8.052984,0,205.3, -19.8, 3.6,0,0,1684,1024,1024,1024,100,0,0,0,220.9,0,0,26,3.687,3.678,0,0,0,0,5.213,98.96,13.981077875216,7.874016,31,Sport,
28700,2022-08-11 19:57:42,-34.9291433909783,-56.1630312439725,7.874016,15.0590556,-1.077977724784,13.981077875216,21.653544,19.5061168,152.2473802,154.252629608,23,5,7.351,13.981077875216,7.874016,20.5127398,152.2473802,-17.671826,-8.276678,0,205.1, -20.1, 2.9,0,0,1684,1024,1024,1024,100,0,0,0,220.9,0,0,26,3.676,3.668,0,0,0,0,5.094,99.14,13.981077875216,7.874016,31,Sport,
