time(millisecond),datetime(utc),latitude,longitude,height_above_takeoff(feet),height_above_ground_at_drone_location(feet),ground_elevation_at_drone_location(feet),altitude_above_seaLevel(feet),height_sonar(feet),speed(mph),distance(feet),mileage(feet),satellites,gpslevel,voltage(v),max_altitude(feet),max_ascent(feet),max_speed(mph),max_distance(feet), xSpeed(mph), ySpeed(mph), zSpeed(mph), compass_heading(degrees), pitch(degrees), roll(degrees),isPhoto,isVideo,rc_elevator,rc_aileron,rc_throttle,rc_rudder,rc_elevator(percent),rc_aileron(percent),rc_throttle(percent),rc_rudder(percent),gimbal_heading(degrees),gimbal_pitch(degrees),gimbal_roll(degrees),battery_percent,voltageCell1,voltageCell2,voltageCell3,voltageCell4,voltageCell5,voltageCell6,current(A),battery_temperature(f),altitude(feet),ascent(feet),flycStateRaw,flycState,message
0,2022-08-11 21:07:47,0,0,0,,,79.813387724632,0.328084,0,0,0,15,2,0,79.813387724632,0,0,0,0,0,0,253.1, 1.1, -2.6,0,0,364,364,364,1684,-100,-100,-100,100,263.6,0,0,98,4.297,4.29,0,0,0,0,0,67.1,79.813387724632,0,41,Motors_Started,"Baja velocidad de la tarjeta SD. Puede afectar a su uso normal. Sustituye la tarjeta SD (Code: 10028). Sin señal GPS. La aeronave no puede hacer vuelo estacionario. Vuela con cuidado (Code: 30008). Baja velocidad de la tarjeta SD. Puede afectar a su "
100,2022-08-11 21:07:47,0,0,0,,,79.813387724632,0.328084,0,0,0,15,2,0,79.813387724632,0,0,0,0,0,0,253.1, 1, -2.6,0,0,364,364,364,1684,-100,-100,-100,100,263.6,0,0,98,4.297,4.29,0,0,0,0,0,67.1,79.813387724632,0,41,Motors_Started,"Setting new Return-To-Home altitude to 40m (131 ft). Data Recorder File Index is 25. Setting new Maximum Flight Altitude to 120m (394 ft)"
200,2022-08-11 21:07:47,0,0,0,,,79.813387724632,0.328084,0,0,0,15,2,0,79.813387724632,0,0,0,0,0,0,253.1, 1.1, -2.5,0,0,364,364,364,1684,-100,-100,-100,100,263.6,0,0,98,4.297,4.29,0,0,0,0,0,67.1,79.813387724632,0,41,Motors_Started,"Vuela con cuidado (sin GPS)"
300,2022-08-11 21:07:48,0,0,0,,,79.813387724632,0.328084,0,0,0,15,2,0,79.813387724632,0,0,0,0,0,0,253, 1.1, -2.5,0,0,364,364,364,1684,-100,-100,-100,100,263.6,0,0,98,4.297,4.29,0,0,0,0,0,67.1,79.813387724632,0,41,Motors_Started,
400,2022-08-11 21:07:48,0,0,0,,,79.813387724632,0.328084,0,0,0,15,2,0,79.813387724632,0,0,0,0,0,0,253, 1.1, -2.5,0,0,364,364,364,1684,-100,-100,-100,100,263.6,0,0,98,4.297,4.29,0,0,0,0,0,67.1,79.813387724632,0,41,Motors_Started,
500,2022-08-11 21:07:48,0,0,0,,,79.813387724632,0.328084,0,0,0,15,2,0,79.813387724632,0,0,0,0,0,0,253, 1.1, -2.6,0,0,364,364,364,1684,-100,-100,-100,100,263.5,0,0,98,4.297,4.29,0,0,0,0,0,67.1,79.813387724632,0,41,Motors_Started,
600,2022-08-11 21:07:48,0,0,0,,,79.813387724632,0.328084,0,0,0,15,2,0,79.813387724632,0,0,0,0,0,0,253, 1.1, -2.6,0,0,364,364,364,1684,-100,-100,-100,100,263.5,0,0,98,4.297,4.29,0,0,0,0,0,67.1,79.813387724632,0,41,Motors_Started,
700,2022-08-11 21:07:48,0,0,0,,,79.813387724632,0.328084,0,0,0,15,2,0,79.813387724632,0,0,0,0,0,0,253, 1.1, -2.6,0,0,364,364,364,1684,-100,-100,-100,100,263.5,0,0,98,4.297,4.29,0,0,0,0,0,67.1,79.813387724632,0,41,Motors_Started,
800,2022-08-11 21:07:48,-34.9223017282174,-56.1538064549481,0,0,79.813387724632,79.813387724632,0.328084,0,0,0,15,2,0,79.813387724632,0,0,0,0,0,0,253, 1.1, -2.6,0,0,364,364,364,1684,-100,-100,-100,100,263.5,0,0,98,4.297,4.29,0,0,0,0,0,67.1,79.813387724632,0,41,Motors_Started,
900,2022-08-11 21:07:48,-34.9223019177537,-56.1538064219703,0,0,79.813387724632,79.813387724632,0.328084,0,0.06985236444,0.06985236444,15,2,0,79.813387724632,0,0,0.06985236444,0,0,0,253, 1.1, -2.6,0,0,364,364,364,1684,-100,-100,-100,100,263.5,0,0,98,4.297,4.29,0,0,0,0,0,67.1,79.813387724632,0,41,Motors_Started,
1000,2022-08-11 21:07:48,-34.9223014111659,-56.1538063092701,0,0.032808400000005,79.780579324632,79.813387724632,0.328084,0,0.123612864848,0.257730323208,15,2,8.609,79.813387724632,0,0,0.123612864848,0,0,0,253, 1.1, -2.6,0,0,364,364,364,1684,-100,-100,-100,100,263.5,0,0,98,4.297,4.29,0,0,0,0,0.788,67.1,79.813387724632,0,41,Motors_Started,
1100,2022-08-11 21:07:48,-34.9222881013248,-56.1538045771392,0,0.4593176,79.354070124632,79.813387724632,0.328084,0,5.0034122336,5.1413715556,15,2,8.609,79.813387724632,0,0,5.0034122336,0,0,0,253, 1.1, -2.6,0,0,364,364,364,1684,-100,-100,-100,100,263.5,0,0,98,4.297,4.29,0,0,0,0,0.788,67.1,79.813387724632,0,10,Assisted_Takeoff,
1200,2022-08-11 21:07:49,-34.9222754411924,-56.1538029581182,0,0.9186352,78.894752524632,79.813387724632,0.328084,0,9.6476709124,9.785761468,15,2,8.609,79.813387724632,0,0,9.6476709124,0,0,0,253, 1, -2.6,0,0,364,364,364,1684,-100,-100,-100,100,263.5,0,0,98,4.297,4.29,0,0,0,0,0.788,67.1,79.813387724632,0,10,Assisted_Takeoff,"Aeronave en Zona de altitud restringida (150). Vuela con precaución (Code: 190001)"
1300,2022-08-11 21:07:49,-34.9222741540863,-56.1538036232689,0,0.9186352,78.894752524632,79.813387724632,0.328084,0,10.0959976984,10.295768046,15,2,8.609,79.813387724632,0,0,10.0959976984,0,0,0,253, 1.1, -2.6,0,0,1024,680,1024,1024,0,-52,0,0,263.5,0,0,98,4.297,4.29,0,0,0,0,0.788,67.1,79.813387724632,0,10,Assisted_Takeoff,
1400,2022-08-11 21:07:49,-34.9222739984641,-56.1538038094814,0,0.9186352,78.894752524632,79.813387724632,0.328084,0,10.1480974376,10.3752956076,15,2,8.609,79.813387724632,0,0,10.1480974376,0,0,0,252.9, 1.1, -2.6,0,0,1024,680,1024,1024,0,-52,0,0,263.5,0,0,98,4.297,4.29,0,0,0,0,0.788,67.1,79.813387724632,0,10,Assisted_Takeoff,
1500,2022-08-11 21:07:49,-34.9222738840164,-56.1538037988676,0,0.9186352,78.894752524632,79.813387724632,0.328084,0,10.189960956,10.4171919344,15,2,8.609,79.813387724632,0,0,10.189960956,0,0,0,253, 1.1, -2.5,0,0,1024,1024,1024,1024,0,0,0,0,263.5,0,0,98,4.297,4.29,0,0,0,0,0.788,67.1,79.813387724632,0,10,Assisted_Takeoff,
1600,2022-08-11 21:07:49,-34.9222737806611,-56.1538037908731,0,0.9186352,78.894752524632,79.813387724632,0.328084,0,10.2277562328,10.4549544028,16,2,8.609,79.813387724632,0,0,10.2277562328,0,0,0,253, 1.1, -2.5,0,0,1024,1024,1024,1024,0,0,0,0,263.5,0,0,98,4.297,4.29,0,0,0,0,0.788,67.1,79.813387724632,0,10,Assisted_Takeoff,
1700,2022-08-11 21:07:49,-34.9222737425646,-56.1538036759409,0,0.9186352,78.894752524632,79.813387724632,0.328084,0,10.2443244748,10.4920607032,16,2,8.609,79.813387724632,0,0,10.2443244748,0,0,0,253, 1.1, -2.5,0,0,1024,1024,1557,1024,0,0,81,0,263.5,0,0,98,4.297,4.29,0,0,0,0,0.788,67.1,79.813387724632,0,10,Assisted_Takeoff,
1800,2022-08-11 21:07:49,-34.9222736878735,-56.1538037066781,0,0.9186352,78.894752524632,79.813387724632,0.328084,0,10.2634845804,10.5140423312,16,2,8.609,79.813387724632,0,0,10.2634845804,0,0,0,253, 1.1, -2.5,0,0,1024,1024,1684,1035,0,0,100,2,263.5,0,0,98,4.297,4.29,0,0,0,0,0.788,67.1,79.813387724632,0,10,Assisted_Takeoff,
1900,2022-08-11 21:07:49,-34.9222735935655,-56.1538036986316,0,0.9186352,78.894752524632,79.813387724632,0.328084,0,10.2979662088,10.5485239596,16,2,8.609,79.813387724632,0,0,10.2979662088,0,0,0,252.9, 1.1, -2.5,0,0,1024,1024,1684,1099,0,0,100,11,263.5,0,0,98,4.297,4.29,0,0,0,0,0.788,67.1,79.813387724632,0,10,Assisted_Takeoff,
2000,2022-08-11 21:07:49,-34.9222735006799,-56.1538036918506,0,0.9186352,78.894752524632,79.813387724632,0.328084,0,10.3319229028,10.5824806536,15,2,8.58,79.813387724632,0,0,10.3319229028,0,0,0,253, 1.1, -2.5,0,0,1024,1024,1684,1121,0,0,100,15,263.5,0,0,98,4.298,4.294,0,0,0,0,1.478,67.1,79.813387724632,0,10,Assisted_Takeoff,
2100,2022-08-11 21:07:49,-34.9222733896784,-56.1538037255743,0,0.9514436,78.861944124632,79.813387724632,0.328084,0,10.3714898332,10.6242129384,15,5,8.58,79.813387724632,0,0,10.3714898332,0,0,0,253.3, 0.8, -2.3,0,0,1024,1024,1684,1135,0,0,100,17,263.5,0,0,98,4.298,4.294,0,0,0,0,1.478,67.1,79.813387724632,0,10,Assisted_Takeoff,
2200,2022-08-11 21:07:50,-34.9222732802547,-56.1538037342942,0,0.9514436,78.861944124632,79.813387724632,0.328084,0,10.411089572,10.664206378,16,5,8.58,79.813387724632,0,0,10.411089572,0,0,0,253.8, -0.4, -1.6,0,0,1024,1024,1684,1135,0,0,100,17,263.8,0,0,98,4.298,4.294,0,0,0,0,1.478,67.1,79.813387724632,0,10,Assisted_Takeoff,"Baja velocidad de la tarjeta SD. Puede afectar a su uso normal. Sustituye la tarjeta SD (Code: 10028)"
2300,2022-08-11 21:07:50,-34.922273257059,-56.1538037961126,0,0.9514436,78.861944124632,79.813387724632,0.328084,0,10.4180777612,10.684547586,16,5,8.58,79.813387724632,0,0,10.4180777612,0,0,0,253.6, -1.3, -0.9,0,0,1024,1024,1684,1134,0,0,100,17,264,0,0,98,4.298,4.294,0,0,0,0,1.478,67.1,79.813387724632,0,10,Assisted_Takeoff,
2400,2022-08-11 21:07:50,-34.9222732728118,-56.1538038560603,0,0.9514436,78.861944124632,79.813387724632,0.328084,0.223694,10.4109911468,10.7033796076,16,5,8.58,79.813387724632,0,0.223694,10.4180777612,-0.223694,0,-0.447388,253.7, -0.7, -0.6,0,0,1024,1024,1684,1134,0,0,100,17,264,0,0,98,4.298,4.294,0,0,0,0,1.478,67.1,79.813387724632,0,6,P-GPS,"Baja velocidad de la tarjeta SD. Puede afectar a su uso normal. Sustituye la tarjeta SD (Code: 10028)"
2500,2022-08-11 21:07:50,-34.9222732930269,-56.1538038794615,0,0.9514436,78.861944124632,79.813387724632,0.328084,0.223694,10.4031171308,10.7135502116,16,5,8.58,79.813387724632,0,0.223694,10.4180777612,-0.223694,0,-0.894776,253.9, 0.5, 1.1,0,0,1024,1024,1684,1024,0,0,100,0,264.2,0,0,98,4.298,4.294,0,0,0,0,1.478,67.1,79.813387724632,0,6,P-GPS,
2600,2022-08-11 21:07:50,-34.9222733419897,-56.1538038822449,0,0.9514436,78.861944124632,79.813387724632,0.656168,0,10.3852693612,10.7314307896,16,5,8.58,79.813387724632,0,0.223694,10.4180777612,0,0,-1.342164,254.1, 1, 1.2,0,0,1024,1024,1350,1024,0,0,49,0,264.3,0,0,98,4.298,4.294,0,0,0,0,1.478,67.1,79.813387724632,0,6,P-GPS,
2700,2022-08-11 21:07:50,-34.9222733112743,-56.1538038690224,0.328084,1.2795276,78.861944124632,80.141471724632,0.656168,0,10.3967194928,10.7433074304,16,5,8.58,80.141471724632,0.328084,0.223694,10.4180777612,0,0,-1.565858,254.3, 1.2, 1.4,0,0,1024,1024,1072,1024,0,0,7,0,264.4,0,0,98,4.298,4.294,0,0,0,0,1.478,67.1,80.141471724632,0.328084,6,P-GPS,
2800,2022-08-11 21:07:50,-34.9222732628176,-56.1538038314647,0.656168,1.6076116,78.861944124632,80.469555724632,0.984252,0,10.415190622,10.764271998,16,5,8.58,80.469555724632,0.656168,0.223694,10.4180777612,0,0,-1.789552,254.1, 0.3, 0.8,0,0,1024,1024,1175,1024,0,0,23,0,264.4,0,0,98,4.298,4.294,0,0,0,0,1.478,67.1,80.469555724632,0.656168,6,P-GPS,
2900,2022-08-11 21:07:50,-34.9222732526044,-56.1538038512299,0.984252,1.9356956,78.861944124632,80.797639724632,1.312336,0,10.418471462,10.7712601872,16,5,8.58,80.797639724632,0.984252,0.223694,10.418471462,0,0,-1.789552,254, -0.4, 0.6,0,0,1024,1024,1579,1024,0,0,84,0,264.4,0,0,98,4.298,4.294,0,0,0,0,1.478,67.1,80.797639724632,0.984252,6,P-GPS,
3000,2022-08-11 21:07:50,-34.9222732692075,-56.1538039035601,0.984252,1.9356956,78.861944124632,80.797639724632,1.64042,0,10.411253614,10.7880252796,16,5,8.488,80.797639724632,0.984252,0.223694,10.418471462,0,0,-1.565858,254.1, -0.5, 1.5,0,0,1024,1024,1411,1024,0,0,59,0,264.4,0,0,98,4.202,4.185,0,0,0,0,2.003,67.1,80.797639724632,0.984252,6,P-GPS,
3100,2022-08-11 21:07:50,-34.9222729512392,-56.1538038162421,1.312336,2.2637796,78.861944124632,81.125723724632,1.64042,0,10.5289045364,10.9069557296,16,5,8.488,81.125723724632,1.312336,0.223694,10.5289045364,0,0,-1.565858,254, -2.3, 1.2,0,0,1024,1024,1411,1024,0,0,59,0,264.4,0,0,98,4.202,4.185,0,0,0,0,2.003,67.1,81.125723724632,1.312336,6,P-GPS,
3200,2022-08-11 21:07:51,-34.9222726334614,-56.1538037414913,1.64042,2.5918636,78.861944124632,81.453807724632,1.968504,0,10.6461945664,11.0250331612,16,5,8.488,81.453807724632,1.64042,0.223694,10.6461945664,0,0,-1.789552,254, -0.9, 0.9,0,0,1024,1024,1024,1024,0,0,0,0,264.4,0,0,98,4.202,4.185,0,0,0,0,2.003,67.1,81.453807724632,1.64042,6,P-GPS,"Se detectó tarjeta SD de baja velocidad Baja velocidad de la tarjeta SD. Puede afectar a su uso normal. Sustituye la tarjeta SD (Code: 10028)"
3300,2022-08-11 21:07:51,-34.9222723348395,-56.1538036618732,1.968504,2.952756,78.829135724632,81.781891724632,2.296588,0,10.7566604492,11.1365489128,16,5,8.488,81.781891724632,1.968504,0.223694,10.7566604492,0,0,-1.789552,254.2, -1.4, 1.8,0,0,1024,1024,1024,1024,0,0,0,0,264.4,0,0,98,4.202,4.185,0,0,0,0,2.003,67.1,81.781891724632,1.968504,6,P-GPS,
3400,2022-08-11 21:07:51,-34.9222722606057,-56.1538031752987,2.296588,3.3136484,78.796327324632,82.109975724632,2.624672,0,10.7958992956,11.284613222,16,5,8.488,82.109975724632,2.296588,0.223694,10.7958992956,0,0,-1.342164,254, -1, 1.5,0,0,1024,1024,1024,1024,0,0,0,0,264.4,0,0,98,4.202,4.185,0,0,0,0,2.003,67.1,82.109975724632,2.296588,6,P-GPS,
3500,2022-08-11 21:07:51,-34.9222725660472,-56.1538029167966,2.296588,3.28084,78.829135724632,82.109975724632,2.624672,0,10.6923231768,11.420275956,16,5,8.488,82.109975724632,2.296588,0.223694,10.7958992956,0,0,-0.894776,254, -0.9, 0.5,0,0,1024,1024,1024,1024,0,0,0,0,264.4,0,0,98,4.202,4.185,0,0,0,0,2.003,67.1,82.109975724632,2.296588,6,P-GPS,
3600,2022-08-11 21:07:51,-34.9222728474548,-56.1538026866616,2.624672,3.608924,78.829135724632,82.438059724632,2.952756,0,10.5972444336,11.5438651988,15,5,8.488,82.438059724632,2.624672,0.223694,10.7958992956,0,0,-0.671082,254.1, -1.1, -0.6,0,0,1024,1024,1024,1024,0,0,0,0,264.4,0,0,98,4.202,4.185,0,0,0,0,2.003,67.1,82.438059724632,2.624672,6,P-GPS,
3700,2022-08-11 21:07:51,-34.9222727766219,-56.1538027624282,2.624672,3.608924,78.829135724632,82.438059724632,2.952756,0,10.620571206,11.578248402,15,5,8.488,82.438059724632,2.624672,0.223694,10.7958992956,0,0,-0.447388,253.9, -1.6, -0.3,0,0,1024,1024,1024,1024,0,0,0,0,264.4,0,0,98,4.202,4.185,0,0,0,0,2.003,67.1,82.438059724632,2.624672,6,P-GPS,
3800,2022-08-11 21:07:51,-34.9222727518881,-56.1538028502634,2.624672,3.608924,78.829135724632,82.438059724632,2.952756,0,10.6268376104,11.6060371168,16,5,8.488,82.438059724632,2.624672,0.223694,10.7958992956,0,0,0,253.6, -1.3, 0.2,0,0,1024,1024,1024,1024,0,0,0,0,264.4,0,0,98,4.202,4.185,0,0,0,0,2.003,67.1,82.438059724632,2.624672,6,P-GPS,
3900,2022-08-11 21:07:51,-34.9222732529644,-56.1538034222501,2.624672,3.608924,78.829135724632,82.438059724632,2.952756,0,10.4287076828,11.8564308256,16,5,8.303,82.438059724632,2.624672,0.223694,10.7958992956,0,0,0,253.5, -0.3, 0.1,0,0,1024,1024,1024,1024,0,0,0,0,264.4,0,0,98,4.202,4.191,0,0,0,0,4.642,67.1,82.438059724632,2.624672,6,P-GPS,
4000,2022-08-11 21:07:51,-34.9222734496151,-56.1538034945863,2.952756,3.937008,78.829135724632,82.766143724632,2.952756,0,10.3553809088,11.9313652112,16,5,8.303,82.766143724632,2.952756,0.223694,10.7958992956,0,0,0,253.7, -0.7, 0.1,0,0,1171,1024,1024,1024,22,0,0,0,264.4,0,0,98,4.202,4.191,0,0,0,0,4.642,67.1,82.766143724632,2.952756,6,P-GPS,
4100,2022-08-11 21:07:51,-34.922273160862,-56.1538031374681,2.952756,3.937008,78.829135724632,82.766143724632,2.952756,0.223694,10.4699150332,12.0814308328,16,5,8.303,82.766143724632,2.952756,0.223694,10.7958992956,-0.223694,0,0,254, -0.9, 0.6,0,0,1584,1024,1024,1024,85,0,0,0,264.4,0,0,98,4.202,4.191,0,0,0,0,4.642,67.1,82.766143724632,2.952756,6,P-GPS,
4200,2022-08-11 21:07:52,-34.9222729072443,-56.1538028028582,2.952756,3.937008,78.829135724632,82.766143724632,2.952756,0.223694,10.5719163488,12.2177169264,17,5,8.303,82.766143724632,2.952756,0.223694,10.7958992956,-0.223694,0,0,253.8, -0.8, 2.7,0,0,1584,1024,1024,1024,85,0,0,0,264.4,0,0,98,4.202,4.191,0,0,0,0,4.642,67.1,82.766143724632,2.952756,6,P-GPS,
4300,2022-08-11 21:07:52,-34.9222721437785,-56.1538026395802,2.952756,3.9698164,78.796327324632,82.766143724632,2.952756,0.223694,10.8540357804,12.5005253344,17,5,8.303,82.766143724632,2.952756,0.223694,10.8540357804,-0.223694,0,0,253.3, -7.2, 3,0,0,1684,1024,1100,1024,100,0,12,0,264.4,0,0,98,4.202,4.191,0,0,0,0,4.642,67.1,82.766143724632,2.952756,6,P-GPS,
4400,2022-08-11 21:07:52,-34.9222721197093,-56.1538027868955,2.952756,3.9698164,78.796327324632,82.766143724632,2.952756,0.3131716,10.8582352556,12.5454728424,17,5,8.303,82.766143724632,2.952756,0.3131716,10.8582352556,-0.223694,-0.223694,0,252.9, -14.1, 3.6,0,0,1653,1024,1415,1024,95,0,59,0,264.4,0,0,98,4.202,4.191,0,0,0,0,4.642,67.1,82.766143724632,2.952756,6,P-GPS,
4500,2022-08-11 21:07:52,-34.9222722063083,-56.1538030987346,2.952756,3.9698164,78.796327324632,82.766143724632,2.952756,0.8052984,10.81774969,12.6439636592,17,5,8.303,82.766143724632,2.952756,0.8052984,10.8582352556,-0.447388,-0.671082,0,252.8, -17.3, 3.3,0,0,1109,1024,1684,1024,13,0,100,0,264.4,0,0,98,4.202,4.191,0,0,0,0,4.642,67.1,82.766143724632,2.952756,6,P-GPS,
4600,2022-08-11 21:07:52,-34.9222723483705,-56.153803704663,3.28084,4.265092,78.829135724632,83.094227724632,2.952756,1.7000744,10.7507549372,12.8324807256,17,5,8.303,83.094227724632,3.28084,1.7000744,10.8582352556,-0.671082,-1.565858,-0.671082,253.1, -12, 3.8,0,0,1024,1024,1684,1024,0,0,100,0,264.4,0,0,98,4.202,4.191,0,0,0,0,4.642,67.1,83.094227724632,3.28084,6,P-GPS,
4700,2022-08-11 21:07:52,-34.9222725230189,-56.153804327186,3.28084,4.2322836,78.861944124632,83.094227724632,3.28084,2.0579848,10.6745082156,13.0293311256,17,5,8.303,83.094227724632,3.28084,2.0579848,10.8582352556,-0.447388,-2.013246,-1.342164,254.3, 1.2, 5.6,0,0,1024,1024,1684,1024,0,0,100,0,264.4,0,0,98,4.202,4.191,0,0,0,0,4.642,67.1,83.094227724632,3.28084,6,P-GPS,
4800,2022-08-11 21:07:52,-34.9222725754411,-56.1538050883734,3.608924,4.5603676,78.861944124632,83.422311724632,3.608924,1.8119214,10.6442260624,13.2578416316,17,5,8.303,83.422311724632,3.608924,2.0579848,10.8582352556,-0.223694,-1.789552,-2.23694,253, 7.6, 2.1,0,0,1024,1024,1684,1024,0,0,100,0,264.4,0,0,98,4.202,4.191,0,0,0,0,4.642,67.1,83.422311724632,3.608924,6,P-GPS,
4900,2022-08-11 21:07:52,-34.9222725540118,-56.153805725156,4.265092,5.1837272,78.894752524632,84.078479724632,3.937008,1.8119214,10.6464242252,13.448491244,17,5,8.357,84.078479724632,4.265092,2.0579848,10.8582352556,0,-1.565858,-3.131716,253.1, 5.9, -2.7,0,0,1024,1024,1684,1024,0,0,100,0,264.4,0,0,98,4.178,4.164,0,0,0,0,3.828,67.28,84.078479724632,4.265092,6,P-GPS,
5000,2022-08-11 21:07:52,-34.9222725444386,-56.1538061425207,4.593176,5.5118112,78.894752524632,84.406563724632,4.593176,1.1408394,10.6480974536,13.5733928228,16,5,8.357,84.406563724632,4.593176,2.0579848,10.8582352556,-0.223694,-1.11847,-3.802798,253.3, 5.4, -1,0,0,1457,1024,1590,1024,66,0,86,0,264.4,0,0,98,4.178,4.164,0,0,0,0,3.828,67.28,84.406563724632,4.593176,6,P-GPS,
5100,2022-08-11 21:07:52,-34.9222731431472,-56.1538068010525,5.249344,6.1679792,78.894752524632,85.062731724632,5.249344,0.7158208,10.4297575516,13.8675201288,16,5,8.357,85.062731724632,5.249344,2.0579848,10.8582352556,-0.223694,-0.671082,-4.47388,253.1, 4, 0.1,0,0,1457,1024,1590,1024,66,0,86,0,264.4,0,0,98,4.178,4.164,0,0,0,0,3.828,67.28,85.062731724632,5.249344,6,P-GPS,
5200,2022-08-11 21:07:52,-34.9222733217973,-56.1538071073774,6.233596,7.1522312,78.894752524632,86.046983724632,5.905512,0.447388,10.3659124052,13.979987324,15,5,8.357,86.046983724632,6.233596,2.0579848,10.8582352556,0,-0.447388,-5.368656,252.8, -1.9, -0.7,0,0,1561,1024,1024,1024,81,0,0,0,264.4,0,0,98,4.178,4.164,0,0,0,0,3.828,67.28,86.046983724632,6.233596,6,P-GPS,
5300,2022-08-11 21:07:53,-34.9222731985718,-56.1538071197735,6.889764,7.8083992,78.894752524632,86.703151724632,6.56168,0.4921268,10.41092553,14.025098874,15,5,8.357,86.703151724632,6.889764,2.0579848,10.8582352556,-0.223694,-0.447388,-5.368656,252.6, -9.7, 1.4,0,0,1254,1024,1024,1024,35,0,0,0,264.4,0,0,98,4.178,4.164,0,0,0,0,3.828,67.28,86.703151724632,6.889764,6,P-GPS,
5400,2022-08-11 21:07:53,-34.922273125142,-56.1538072090663,7.545932,8.4645672,78.894752524632,87.359319724632,7.545932,0.7158208,10.4382549272,14.0629269592,16,5,8.357,87.359319724632,7.545932,2.0579848,10.8582352556,-0.223694,-0.671082,-4.697574,252.3, -12.4, 2.2,0,0,1024,1024,1024,1024,0,0,0,0,264.4,0,0,98,4.178,4.164,0,0,0,0,3.828,67.28,87.359319724632,7.545932,6,P-GPS,
5500,2022-08-11 21:07:53,-34.9222733924467,-56.1538074761088,8.2021,9.1207352,78.894752524632,88.015487724632,8.2021,0.9171454,10.3428152916,14.1890096404,16,5,8.357,88.015487724632,8.2021,2.0579848,10.8582352556,-0.223694,-0.894776,-4.026492,252.5, -4.3, 1.7,0,0,1024,1024,1024,1024,0,0,0,0,264.4,0,0,98,4.178,4.164,0,0,0,0,3.828,67.28,88.015487724632,8.2021,6,P-GPS,
5600,2022-08-11 21:07:53,-34.9222736861981,-56.1538073868637,8.858268,9.7440948,78.927560924632,88.671655724632,8.530184,0.9171454,10.234908464,14.2994427148,15,5,8.357,88.671655724632,8.858268,2.0579848,10.8582352556,-0.223694,-0.894776,-3.131716,252.6, 3, 1.8,0,0,1024,1024,1024,1024,0,0,0,0,264.4,0,0,98,4.178,4.164,0,0,0,0,3.828,67.28,88.671655724632,8.858268,6,P-GPS,
5700,2022-08-11 21:07:53,-34.9222739302777,-56.1538081966382,9.186352,10.0721788,78.927560924632,88.999739724632,8.858268,0.9171454,10.1554465192,14.5575463976,15,5,8.357,88.999739724632,9.186352,2.0579848,10.8582352556,-0.223694,-0.894776,-2.460634,252.5, 5, 1.2,0,0,1024,1024,1024,1024,0,0,0,0,264.4,0,0,98,4.178,4.164,0,0,0,0,3.828,67.28,88.999739724632,9.186352,6,P-GPS,
5800,2022-08-11 21:07:53,-34.9222741931154,-56.1538089011326,9.514436,10.3674544,78.960369324632,89.327823724632,9.186352,0.7158208,10.0727693512,14.7890752764,18,5,8.357,89.327823724632,9.514436,2.0579848,10.8582352556,-0.223694,-0.671082,-1.565858,252.4, 5.4, 0.4,0,0,1024,1024,1024,1024,0,0,0,0,264.4,0,0,98,4.178,4.164,0,0,0,0,3.828,67.28,89.327823724632,9.514436,6,P-GPS,
5900,2022-08-11 21:07:53,-34.9222748945366,-56.1538094458783,9.514436,10.334646,78.993177724632,89.327823724632,9.186352,0.671082,9.83103706,15.0924873596,18,5,8.149,89.327823724632,9.514436,2.0579848,10.8582352556,0,-0.671082,-0.894776,252.4, 4.7, 0,0,0,1024,1024,1024,1024,0,0,0,0,264.4,0,0,98,4.18,4.17,0,0,0,0,6.026,67.1,89.327823724632,9.514436,6,P-GPS,
6000,2022-08-11 21:07:53,-34.9222765759839,-56.1538108404032,9.514436,10.2362208,79.091602924632,89.327823724632,9.514436,0.447388,9.2700790368,15.8343509004,18,5,8.149,89.327823724632,9.514436,2.0579848,10.8582352556,0,-0.447388,-0.447388,252.5, 3.5, -0.1,0,0,1024,1024,1024,1024,0,0,0,0,264.4,0,0,98,4.18,4.17,0,0,0,0,6.026,67.1,89.327823724632,9.514436,6,P-GPS,
6100,2022-08-11 21:07:53,-34.9222770400599,-56.153811192027,9.84252,10.5643048,79.091602924632,89.655907724632,9.514436,0.447388,9.1182417616,16.0336947388,18,5,8.149,89.655907724632,9.84252,2.0579848,10.8582352556,0,-0.447388,-0.223694,252.6, 2.9, -0.3,0,0,1155,1024,1024,1024,20,0,0,0,264.4,0,0,98,4.18,4.17,0,0,0,0,6.026,67.1,89.655907724632,9.84252,6,P-GPS,
6200,2022-08-11 21:07:54,-34.9222774611096,-56.1538114540464,9.84252,10.5643048,79.091602924632,89.655907724632,9.514436,0.223694,8.9792653792,16.2061684976,17,5,8.149,89.655907724632,9.84252,2.0579848,10.8582352556,0,-0.223694,0,252.5, 2.3, 0.3,0,0,1278,1024,1024,1024,38,0,0,0,264.4,0,0,98,4.18,4.17,0,0,0,0,6.026,67.1,89.655907724632,9.84252,6,P-GPS,"Punto de origen actualizado. Altitud de RPO establecida en 40m (Code: 3000001)"
6300,2022-08-11 21:07:54,-34.9222773929838,-56.1538112908833,9.84252,10.5643048,79.091602924632,89.655907724632,9.514436,0.223694,8.9957680044,16.2609257172,17,5,8.149,89.655907724632,9.84252,2.0579848,10.8582352556,0,-0.223694,0,252.6, -1.2, 1.1,0,0,1113,1024,1024,1024,13,0,0,0,264.4,0,0,98,4.18,4.17,0,0,0,0,6.026,67.1,89.655907724632,9.84252,6,P-GPS,
6400,2022-08-11 21:07:54,-34.922276881949,-56.1538106686137,9.84252,10.5643048,79.091602924632,89.655907724632,9.514436,0.223694,9.1523624976,16.5244099776,19,5,8.149,89.655907724632,9.84252,2.0579848,10.8582352556,0,-0.223694,0,252.5, -2.3, 1,0,0,1024,1024,1024,1024,0,0,0,0,264.4,0,0,98,4.18,4.17,0,0,0,0,6.026,67.1,89.655907724632,9.84252,6,P-GPS,
6500,2022-08-11 21:07:54,-34.9222767339831,-56.1538106228542,9.84252,10.5643048,79.091602924632,89.655907724632,9.514436,0.223694,9.2039701108,16.5800858324,19,5,8.149,89.655907724632,9.84252,2.0579848,10.8582352556,0,-0.223694,0,252.7, 0.3, 0.8,0,0,1024,1024,1024,1024,0,0,0,0,264.4,0,0,98,4.18,4.17,0,0,0,0,6.026,67.1,89.655907724632,9.84252,6,P-GPS,
6600,2022-08-11 21:07:54,-34.9222766103763,-56.1538105893396,9.84252,10.5643048,79.091602924632,89.655907724632,9.514436,0.3131716,9.2473100072,16.6262800596,16,5,8.149,89.655907724632,9.84252,2.0579848,10.8582352556,-0.223694,-0.223694,0,252.7, 2.1, 0.5,0,0,1024,1024,1024,1024,0,0,0,0,264.4,0,0,98,4.18,4.17,0,0,0,0,6.026,67.1,89.655907724632,9.84252,6,P-GPS,
6700,2022-08-11 21:07:54,-34.9222766639816,-56.1538105236335,9.84252,10.5643048,79.091602924632,89.655907724632,9.514436,0.3131716,9.2253283792,16.654035966,16,5,8.149,89.655907724632,9.84252,2.0579848,10.8582352556,-0.223694,-0.223694,0,252.8, 2.4, 1,0,0,1024,1024,1024,1024,0,0,0,0,264.4,0,0,98,4.18,4.17,0,0,0,0,6.026,67.1,89.655907724632,9.84252,6,P-GPS,
6800,2022-08-11 21:07:54,-34.922276068254,-56.1538101318362,9.84252,10.6299216,79.025986124632,89.655907724632,9.514436,0.223694,9.4264110628,16.9009519844,15,5,8.149,89.655907724632,9.84252,2.0579848,10.8582352556,-0.223694,0,0,252.9, 2.3, 1.5,0,0,1024,1024,1024,1024,0,0,0,0,264.4,0,0,98,4.18,4.17,0,0,0,0,6.026,67.1,89.655907724632,9.84252,6,P-GPS,
6900,2022-08-11 21:07:54,-34.9222761258303,-56.1538101303976,9.84252,10.6299216,79.025986124632,89.655907724632,9.514436,0.223694,9.405512112,16.9219821688,15,5,8.361,89.655907724632,9.84252,2.0579848,10.8582352556,-0.223694,0,0,252.9, 1.6, 1.5,0,0,1024,1024,1024,1024,0,0,0,0,264.4,0,0,98,4.175,4.163,0,0,0,0,3.415,67.28,89.655907724632,9.84252,6,P-GPS,
7000,2022-08-11 21:07:54,-34.9222761731162,-56.1538100922864,9.84252,10.6299216,79.025986124632,89.655907724632,9.514436,0.223694,9.3870409828,16.9426514608,15,5,8.361,89.655907724632,9.84252,2.0579848,10.8582352556,-0.223694,0,0,252.8, 1, 2,0,0,1024,1024,1024,1024,0,0,0,0,264.4,0,0,98,4.175,4.163,0,0,0,0,3.415,67.28,89.655907724632,9.84252,6,P-GPS,
7100,2022-08-11 21:07:54,-34.9222761189629,-56.153809989427,9.84252,10.6299216,79.025986124632,89.655907724632,9.514436,0,9.4031499072,16.9792328268,15,5,8.361,89.655907724632,9.84252,2.0579848,10.8582352556,0,0,0,252.9, 1, 2.4,0,0,1024,1024,1024,1024,0,0,0,0,264.4,0,0,98,4.175,4.163,0,0,0,0,3.415,67.28,89.655907724632,9.84252,6,P-GPS,
7200,2022-08-11 21:07:55,-34.9222760593566,-56.1538098660965,9.84252,10.6299216,79.025986124632,89.655907724632,9.514436,0,9.4207024012,17.0220477888,14,5,8.361,89.655907724632,9.84252,2.0579848,10.8582352556,0,0,0,253.2, 0.2, 3.6,0,0,1275,1024,1024,1024,38,0,0,0,264.4,0,0,98,4.175,4.163,0,0,0,0,3.415,67.28,89.655907724632,9.84252,6,P-GPS,
7300,2022-08-11 21:07:55,-34.9222761950343,-56.153809681347,9.84252,10.6299216,79.025986124632,89.655907724632,9.514436,0,9.3656170976,17.0962275812,14,5,8.361,89.655907724632,9.84252,2.0579848,10.8582352556,0,0,0,252.9, -0.9, 3.2,0,0,1563,1024,1024,1024,82,0,0,0,264.4,0,0,98,4.175,4.163,0,0,0,0,3.415,67.28,89.655907724632,9.84252,6,P-GPS,
7400,2022-08-11 21:07:55,-34.9222762775278,-56.1538095100714,9.84252,10.6299216,79.025986124632,89.655907724632,9.514436,0,9.330544918,17.155676402,16,5,8.361,89.655907724632,9.84252,2.0579848,10.8582352556,0,0,0,252.6, -7.7, 3.2,0,0,1684,1024,1024,1024,100,0,0,0,264.4,0,0,98,4.175,4.163,0,0,0,0,3.415,67.28,89.655907724632,9.84252,6,P-GPS,
7500,2022-08-11 21:07:55,-34.922276333364,-56.1538094549312,9.84252,10.6299216,79.025986124632,89.655907724632,9.514436,0,9.3086617152,17.1818903136,16,5,8.361,89.655907724632,9.84252,2.0579848,10.8582352556,0,0,0,252.4, -13.6, 1.9,0,0,1684,1024,1024,1024,100,0,0,0,264.4,0,0,98,4.175,4.163,0,0,0,0,3.415,67.28,89.655907724632,9.84252,6,P-GPS,
7600,2022-08-11 21:07:55,-34.9222764293089,-56.1538095795984,9.84252,10.6299216,79.025986124632,89.655907724632,9.514436,0.447388,9.2774937352,17.2330386092,15,5,8.361,89.655907724632,9.84252,2.0579848,10.8582352556,0,-0.447388,0,252.2, -17, 0.6,0,0,1684,1024,1024,1024,100,0,0,0,264.4,0,0,98,4.175,4.163,0,0,0,0,3.415,67.28,89.655907724632,9.84252,6,P-GPS,
7700,2022-08-11 21:07:55,-34.9222772583229,-56.1538098332376,9.84252,10.5971132,79.058794524632,89.655907724632,9.186352,1.2079476,8.9848428072,17.5448496428,15,5,8.361,89.655907724632,9.84252,2.0579848,10.8582352556,-0.447388,-1.11847,0,252.2, -18.1, 0.7,0,0,1684,1024,1024,1024,100,0,0,0,264.4,0,0,98,4.175,4.163,0,0,0,0,3.415,67.28,89.655907724632,9.84252,6,P-GPS,
7800,2022-08-11 21:07:55,-34.9222776984199,-56.1538104337151,10.170604,10.8923888,79.091602924632,89.983991724632,9.514436,1.901399,8.8476708868,17.7857945324,14,5,8.361,89.983991724632,10.170604,2.0579848,10.8582352556,-0.671082,-1.789552,0,252.2, -17.8, 1.8,0,0,1684,1024,1024,1024,100,0,0,0,264.4,0,0,98,4.175,4.163,0,0,0,0,3.415,67.28,89.983991724632,10.170604,6,P-GPS,
7900,2022-08-11 21:07:55,-34.9222780889193,-56.1538114394976,10.170604,10.8595804,79.124411324632,89.983991724632,9.514436,2.5501116,8.7527233772,18.1187013672,14,5,8.361,89.983991724632,10.170604,2.5501116,10.8582352556,-0.671082,-2.460634,0,252.1, -17.3, 1.7,0,0,1684,1024,1024,1024,100,0,0,0,264.4,0,0,98,4.175,4.163,0,0,0,0,3.415,67.28,89.983991724632,10.170604,6,P-GPS,
8000,2022-08-11 21:07:55,-34.9222785202728,-56.153812660304,9.84252,10.498688,79.157219724632,89.655907724632,9.514436,3.0422384,8.6685042144,18.5163719836,15,5,8.33,89.983991724632,10.170604,3.0422384,10.8582352556,-0.894776,-2.908022,0,252.1, -16.9, 1.7,0,0,1684,1024,1024,1024,100,0,0,0,264.4,0,0,98,4.152,4.138,0,0,0,0,4.164,67.28,89.655907724632,9.84252,6,P-GPS,
8100,2022-08-11 21:07:55,-34.9222790433636,-56.1538143002001,9.84252,10.4658796,79.190028124632,89.655907724632,9.514436,3.5343652,8.602854606,19.0427827616,15,5,8.33,89.983991724632,10.170604,3.5343652,10.8582352556,-1.11847,-3.35541,0,252.2, -17.4, 2.1,0,0,1684,1024,1024,1024,100,0,0,0,264.4,0,0,98,4.152,4.138,0,0,0,0,4.164,67.28,89.655907724632,9.84252,6,P-GPS,
8200,2022-08-11 21:07:56,-34.9222796032707,-56.1538160180172,9.84252,10.4002628,79.255644924632,89.655907724632,9.514436,4.1830778,8.5642063108,19.5957683436,14,5,8.33,89.983991724632,10.170604,4.1830778,10.8582352556,-1.11847,-4.026492,0,252.2, -17.5, 1.6,0,0,1684,1024,1024,1024,100,0,0,0,264.4,0,0,98,4.152,4.138,0,0,0,0,4.164,67.28,89.655907724632,9.84252,6,P-GPS,
8300,2022-08-11 21:07:56,-34.9222803834904,-56.1538181747056,9.84252,10.3674544,79.288453324632,89.655907724632,9.514436,4.6752046,8.5404202208,20.3009520932,14,5,8.33,89.983991724632,10.170604,4.6752046,10.8582352556,-1.342164,-4.47388,0,251.9, -17.7, 1.1,0,0,1684,1024,1024,1024,100,0,0,0,264.4,0,0,98,4.152,4.138,0,0,0,0,4.164,67.28,89.655907724632,9.84252,6,P-GPS,
8400,2022-08-11 21:07:56,-34.9222812101284,-56.1538204420753,9.84252,10.334646,79.321261724632,89.655907724632,9.514436,5.1673314,8.5760501432,21.0432749516,17,5,8.33,89.983991724632,10.170604,5.1673314,10.8582352556,-1.565858,-4.921268,0,252.2, -17.2, 1.8,0,0,1684,1024,1024,1024,100,0,0,0,264.4,0,0,98,4.152,4.138,0,0,0,0,4.164,67.28,89.655907724632,9.84252,6,P-GPS,
8500,2022-08-11 21:07:56,-34.9222823078039,-56.1538230540454,9.84252,10.2362208,79.419686924632,89.655907724632,9.514436,5.6594582,8.6522968648,21.9212933524,17,5,8.33,89.983991724632,10.170604,5.6594582,10.8582352556,-1.789552,-5.368656,0,252.2, -17.1, 2.6,0,0,1684,1024,1024,1024,100,0,0,0,264.4,0,0,98,4.152,4.138,0,0,0,0,4.164,67.28,89.655907724632,9.84252,6,P-GPS,
8600,2022-08-11 21:07:56,-34.9222831920962,-56.1538256113573,9.514436,9.84252,79.485303724632,89.327823724632,9.514436,6.151585,8.8643703624,22.7515755312,17,5,8.33,89.983991724632,10.170604,6.151585,10.8582352556,-2.013246,-5.816044,0,252.1, -16.9, 2.7,0,0,1684,1024,1024,1024,100,0,0,0,264.4,0,0,98,4.152,4.138,0,0,0,0,4.164,67.28,89.327823724632,9.514436,6,P-GPS,
8700,2022-08-11 21:07:56,-34.9222839418473,-56.1538284257733,9.514436,9.7769032,79.550920524632,89.327823724632,9.514436,6.5766036,9.23638481,23.63681178,17,5,8.33,89.983991724632,10.170604,6.5766036,10.8582352556,-2.013246,-6.263432,0,252.1, -17.3, 2.8,0,0,1684,1024,1024,1024,100,0,0,0,264.4,0,0,98,4.152,4.138,0,0,0,0,4.164,67.28,89.327823724632,9.514436,6,P-GPS,
8800,2022-08-11 21:07:56,-34.9222846521339,-56.1538312843208,9.514436,9.7112864,79.616537324632,89.327823724632,9.514436,6.8674058,9.6946525412,24.5303813624,14,5,8.33,89.983991724632,10.170604,6.8674058,10.8582352556,-2.23694,-6.487126,0,252.2, -17.1, 3.2,0,0,1684,1024,1024,1024,100,0,0,0,264.4,0,0,98,4.152,4.138,0,0,0,0,4.164,67.28,89.327823724632,9.514436,6,P-GPS,
8900,2022-08-11 21:07:56,-34.9222851135616,-56.153834489638,9.514436,9.6456696,79.682154124632,89.327823724632,9.514436,7.3595326,10.3479990188,25.5039050156,14,5,8.33,89.983991724632,10.170604,7.3595326,10.8582352556,-2.460634,-6.934514,0,252.1, -17.2, 3.2,0,0,1684,1024,1024,1024,100,0,0,0,264.4,0,0,98,4.152,4.138,0,0,0,0,4.164,67.28,89.327823724632,9.514436,6,P-GPS,
9000,2022-08-11 21:07:56,-34.9222844338287,-56.1538373663344,9.514436,9.6456696,79.682154124632,89.327823724632,9.514436,7.7845512,11.1948166312,26.3995087188,14,5,8.323,89.983991724632,10.170604,7.7845512,11.1948166312,-2.460634,-7.381902,0,252, -17, 3,0,0,1684,1024,1024,1024,100,0,0,0,264.4,0,0,98,4.171,4.162,0,0,0,0,4.372,67.28,89.327823724632,9.514436,6,P-GPS,
9100,2022-08-11 21:07:56,-34.9222851961457,-56.1538409480244,9.514436,9.5472444,79.780579324632,89.327823724632,9.514436,8.276678,11.9522313536,27.5064641348,14,5,8.323,89.983991724632,10.170604,8.276678,11.9522313536,-2.684328,-7.82929,0,251.9, -16.9, 3,0,0,1684,1024,1024,1024,100,0,0,0,264.4,0,0,98,4.171,4.162,0,0,0,0,4.372,67.28,89.327823724632,9.514436,6,P-GPS,
9200,2022-08-11 21:07:57,-34.9222859773486,-56.1538445182212,9.514436,9.4816276,79.846196124632,89.327823724632,9.514436,8.4780026,12.7546263924,28.611877556,15,5,8.323,89.983991724632,10.170604,8.4780026,12.7546263924,-2.684328,-8.052984,0,251.9, -16.6, 3.1,0,0,1684,1024,1024,1024,100,0,0,0,264.4,0,0,98,4.171,4.162,0,0,0,0,4.372,67.28,89.327823724632,9.514436,6,P-GPS,
9300,2022-08-11 21:07:57,-34.9222869664524,-56.1538484694794,9.514436,9.3832024,79.944621324632,89.327823724632,9.514436,8.9924988,13.6740161856,29.847769984,15,5,8.323,89.983991724632,10.170604,8.9924988,13.6740161856,-2.908022,-8.500372,0,251.8, -16.4, 3,0,0,1684,1024,1024,1024,100,0,0,0,264.4,0,0,98,4.171,4.162,0,0,0,0,4.372,67.28,89.327823724632,9.514436,6,P-GPS,
9400,2022-08-11 21:07:57,-34.922287751246,-56.1538522062918,9.514436,9.2847772,80.043046524632,89.327823724632,9.514436,9.3504092,14.6057091288,31.0017070288,15,5,8.323,89.983991724632,10.170604,9.3504092,14.6057091288,-2.684328,-8.94776,0,253.6, -16.5, 2.8,0,0,1684,1024,1024,1024,100,0,0,0,264.4,0,0,98,4.171,4.162,0,0,0,0,4.372,67.28,89.327823724632,9.514436,6,P-GPS,
9500,2022-08-11 21:07:57,-34.9222890370955,-56.1538564246454,9.514436,9.2191604,80.108663324632,89.327823724632,9.514436,9.5517338,15.6491802908,32.3480325312,15,5,8.323,89.983991724632,10.170604,9.5517338,15.6491802908,-2.684328,-9.171454,0,253.7, -16.5, 3.2,0,0,1552,1024,1024,1024,80,0,0,0,264.4,0,0,98,4.171,4.162,0,0,0,0,4.372,67.28,89.327823724632,9.514436,6,P-GPS,
9600,2022-08-11 21:07:57,-34.9222903386619,-56.1538605862433,9.514436,9.0879268,80.239896924632,89.327823724632,9.514436,9.842536,16.7180779628,33.680447272,16,5,8.323,89.983991724632,10.170604,9.842536,16.7180779628,-2.908022,-9.395148,0,253.6, -15.8, 3.4,0,0,1024,1024,1024,1024,0,0,0,0,264.4,0,0,98,4.171,4.162,0,0,0,0,4.372,67.28,89.327823724632,9.514436,6,P-GPS,
9700,2022-08-11 21:07:57,-34.9222920663498,-56.1538651655269,9.514436,8.9566932,80.371130524632,89.327823724632,9.514436,10.0438606,17.9135832504,35.188321336,16,5,8.323,89.983991724632,10.170604,10.0438606,17.9135832504,-2.908022,-9.618842,0,254.1, -7.3, 3.4,0,0,1024,1024,1408,1024,0,0,58,0,264.4,0,0,98,4.171,4.162,0,0,0,0,4.372,67.28,89.327823724632,9.514436,6,P-GPS,
9800,2022-08-11 21:07:57,-34.9222949614138,-56.1538692884395,9.514436,8.7926512,80.535172524632,89.327823724632,9.514436,9.618842,18.9581370896,36.812337136,16,5,8.323,89.983991724632,10.170604,10.0438606,18.9581370896,-2.908022,-9.171454,0,254.9, 18, 2.3,0,0,1024,1024,1684,1024,0,0,100,0,264.4,0,0,98,4.171,4.162,0,0,0,0,4.372,67.28,89.327823724632,9.514436,6,P-GPS,
9900,2022-08-11 21:07:57,-34.9222964032577,-56.1538733835123,9.514436,8.7270344,80.600789324632,89.327823724632,9.514436,8.4108944,20.1157486752,38.145342428,16,5,8.323,89.983991724632,10.170604,10.0438606,20.1157486752,-2.460634,-8.052984,-0.447388,256.1, 22.7, 3,0,0,1024,1024,1684,1024,0,0,100,0,264.4,0,0,98,4.171,4.162,0,0,0,0,4.372,67.28,89.327823724632,9.514436,6,P-GPS,
10000,2022-08-11 21:07:57,-34.9222976298375,-56.1538766496132,9.514436,8.5958008,80.732022924632,89.327823724632,9.514436,6.5766036,21.0519363692,39.220145612,16,5,8.323,89.983991724632,10.170604,10.0438606,21.0519363692,-2.013246,-6.263432,-1.11847,255.7, 22.2, 2.5,0,0,1024,1024,1139,1024,0,0,17,0,264.4,0,0,98,4.158,4.147,0,0,0,0,4.372,67.28,89.327823724632,9.514436,6,P-GPS,
10100,2022-08-11 21:07:57,-34.9222985098194,-56.1538793224427,9.84252,8.858268,80.797639724632,89.655907724632,9.84252,5.2344396,21.8299547668,40.081694196,16,5,8.323,89.983991724632,10.170604,10.0438606,21.8299547668,-1.789552,-4.921268,-2.013246,255, 18.5, 1.9,0,0,1024,1024,1139,1024,0,0,17,0,264.4,0,0,98,4.158,4.147,0,0,0,0,4.372,67.28,89.655907724632,9.84252,6,P-GPS,
10200,2022-08-11 21:07:58,-34.9222984778921,-56.1538806655758,10.170604,9.186352,80.797639724632,89.983991724632,10.170604,4.250186,22.2318248584,40.483597096,16,5,8.323,89.983991724632,10.170604,10.0438606,22.2318248584,-1.342164,-4.026492,-2.23694,254.8, 16.3, 2.9,0,0,1491,1024,1024,1024,71,0,0,0,264.4,0,0,98,4.158,4.147,0,0,0,0,4.372,67.28,89.983991724632,10.170604,6,P-GPS,
10300,2022-08-11 21:07:58,-34.9222989047577,-56.1538821199636,10.498688,9.4488192,80.863256524632,90.312075724632,10.498688,3.5343652,22.6586621424,40.945867452,16,5,8.323,90.312075724632,10.498688,10.0438606,22.6586621424,-1.11847,-3.35541,-1.565858,254.8, 13.1, 4.7,0,0,1684,1024,1024,1024,100,0,0,0,264.4,0,0,98,4.158,4.147,0,0,0,0,4.372,67.28,90.312075724632,10.498688,6,P-GPS,
10400,2022-08-11 21:07:58,-34.9222992521749,-56.1538832539822,10.826772,9.7769032,80.863256524632,90.640159724632,10.826772,3.1093466,22.9922251452,41.308072188,16,5,8.323,90.640159724632,10.826772,10.0438606,22.9922251452,-1.11847,-2.908022,-1.11847,254.2, 1.6, 4.7,0,0,1684,1024,1024,1024,100,0,0,0,264.4,0,0,98,4.158,4.147,0,0,0,0,4.372,67.28,90.640159724632,10.826772,6,P-GPS,
10500,2022-08-11 21:07:58,-34.922299836555,-56.1538838772666,10.826772,9.7112864,80.928873324632,90.640159724632,10.826772,3.1093466,23.1712277756,41.59120868,16,5,8.323,90.640159724632,10.826772,10.0438606,23.1712277756,-1.11847,-2.908022,-0.671082,254.1, -7.3, 4.6,0,0,1216,1024,1024,1024,29,0,0,0,264.4,0,0,98,4.158,4.147,0,0,0,0,4.372,67.28,90.640159724632,10.826772,6,P-GPS,
10600,2022-08-11 21:07:58,-34.922300388464,-56.1538844677117,10.826772,9.7112864,80.928873324632,90.640159724632,10.826772,3.6238428,23.342684474,41.859253308,16,5,8.323,90.640159724632,10.826772,10.0438606,23.342684474,-1.342164,-3.35541,-0.223694,253.9, -8.6, 3.5,0,0,1119,1024,1024,1024,14,0,0,0,264.4,0,0,98,4.158,4.147,0,0,0,0,4.372,67.28,90.640159724632,10.826772,6,P-GPS,
10700,2022-08-11 21:07:58,-34.922302052027,-56.1538834826771,11.154856,10.006562,80.961681724632,90.968243724632,10.826772,3.8251674,23.0432093988,42.533794012,16,5,8.323,90.968243724632,11.154856,10.0438606,23.342684474,-1.342164,-3.579104,0,254.1, -1.7, 3.9,0,0,1684,1024,1024,1024,100,0,0,0,264.4,0,0,98,4.158,4.147,0,0,0,0,4.372,67.28,90.968243724632,11.154856,6,P-GPS,
10800,2022-08-11 21:07:58,-34.922302882667,-56.1538841790534,11.154856,9.9409452,81.027298524632,90.968243724632,11.154856,3.8251674,23.2550204292,42.901576176,17,5,8.323,90.968243724632,11.154856,10.0438606,23.342684474,-1.342164,-3.579104,0,254.3, 1.1, 3.8,0,0,1684,1024,1024,1024,100,0,0,0,264.4,0,0,98,4.158,4.147,0,0,0,0,4.372,67.28,90.968243724632,11.154856,6,P-GPS,
10900,2022-08-11 21:07:58,-34.9223035980587,-56.153885282829,11.154856,9.8753284,81.092915324632,90.968243724632,11.154856,3.8251674,23.5912737208,43.322507948,17,5,8.323,90.968243724632,11.154856,10.0438606,23.5912737208,-1.342164,-3.579104,0,253.9, -6.6, 4,0,0,1684,1024,1062,1024,100,0,6,0,264.4,0,0,98,4.158,4.147,0,0,0,0,4.372,67.28,90.968243724632,11.154856,6,P-GPS,
11000,2022-08-11 21:07:58,-34.9223042600505,-56.1538863991375,11.154856,9.8753284,81.092915324632,90.968243724632,10.826772,4.250186,23.9332028656,43.734581452,17,5,8.32,90.968243724632,11.154856,10.0438606,23.9332028656,-1.342164,-4.026492,0,253.7, -12.9, 3.5,0,0,1684,1024,1062,1024,100,0,6,0,264.4,0,0,98,4.171,4.164,0,0,0,0,4.073,67.28,90.968243724632,11.154856,6,P-GPS,
11100,2022-08-11 21:07:58,-34.9223046439236,-56.1538892766462,11.154856,9.8097116,81.158532124632,90.968243724632,10.826772,4.4515106,24.7989837332,44.606628724,17,5,8.32,90.968243724632,11.154856,10.0438606,24.7989837332,-1.342164,-4.250186,0,253.7, -14.4, 3.1,0,0,1684,1024,1684,1024,100,0,100,0,264.4,0,0,98,4.171,4.164,0,0,0,0,4.073,67.28,90.968243724632,11.154856,6,P-GPS,
11200,2022-08-11 21:07:58,-34.9223051760828,-56.1538912116245,11.154856,9.8097116,81.158532124632,90.968243724632,11.154856,5.1002232,25.3861884764,45.217193048,16,5,8.32,90.968243724632,11.154856,10.0438606,25.3861884764,-1.342164,-4.921268,-0.223694,253.9, -14.3, 2.6,0,0,1399,1024,1684,1024,57,0,100,0,264.4,0,0,98,4.171,4.164,0,0,0,0,4.073,67.28,90.968243724632,11.154856,6,P-GPS,
11300,2022-08-11 21:07:59,-34.9223056668307,-56.1538937159211,11.48294,10.1377956,81.158532124632,91.296327724632,11.154856,5.59235,26.143701624,45.98753428,16,5,8.32,91.296327724632,11.48294,10.0438606,26.143701624,-1.565858,-5.368656,-0.894776,254.1, -10.6, 2.6,0,0,1112,1024,1665,1024,13,0,97,0,264.4,0,0,98,4.171,4.164,0,0,0,0,4.073,67.28,91.296327724632,11.48294,6,P-GPS,
11400,2022-08-11 21:07:59,-34.9223061698473,-56.1538962871503,11.48294,10.170604,81.125723724632,91.296327724632,11.48294,5.816044,26.9221793392,46.77821672,16,5,8.32,91.296327724632,11.48294,10.0438606,26.9221793392,-1.565858,-5.59235,-1.789552,254.3, -2.5, 2.6,0,0,1024,1024,1181,1024,0,0,24,0,264.4,0,0,98,4.171,4.164,0,0,0,0,4.073,67.28,91.296327724632,11.48294,6,P-GPS,
11500,2022-08-11 21:07:59,-34.9223064311377,-56.1539001125234,12.139108,10.8923888,81.060106924632,91.952495724632,11.811024,5.59235,28.070210872,47.92651072,16,5,8.32,91.952495724632,12.139108,10.0438606,28.070210872,-1.565858,-5.368656,-2.460634,254.5, 10.1, 2.5,0,0,1024,1024,1024,1024,0,0,0,0,264.4,0,0,98,4.171,4.164,0,0,0,0,4.073,67.28,91.952495724632,12.139108,6,P-GPS,
11600,2022-08-11 21:07:59,-34.9223070295778,-56.1539024155,12.139108,10.8595804,81.092915324632,91.952495724632,12.139108,5.1673314,28.7717528892,48.649279772,17,5,8.32,91.952495724632,12.139108,10.0438606,28.7717528892,-1.565858,-4.921268,-2.013246,255, 18.6, 3.6,0,0,1024,1024,1024,1024,0,0,0,0,264.4,0,0,98,4.171,4.164,0,0,0,0,4.073,67.28,91.952495724632,12.139108,6,P-GPS,
11700,2022-08-11 21:07:59,-34.9223076864726,-56.1539046409285,12.467192,11.1876644,81.092915324632,92.280579724632,12.467192,4.4515106,29.4527240396,49.35695696,17,5,8.32,92.280579724632,12.467192,10.0438606,29.4527240396,-1.342164,-4.250186,-1.342164,255, 19.8, 3.2,0,0,1024,1024,1354,1024,0,0,50,0,264.4,0,0,98,4.171,4.164,0,0,0,0,4.073,67.28,92.280579724632,12.467192,6,P-GPS,
11800,2022-08-11 21:07:59,-34.9223082499012,-56.1539064211187,12.795276,11.5485568,81.060106924632,92.608663724632,12.795276,3.7580592,29.9994432172,49.92782312,17,5,8.32,92.608663724632,12.795276,10.0438606,29.9994432172,-1.11847,-3.579104,-0.894776,255.1, 20.2, 3.5,0,0,1574,1024,1526,1024,83,0,76,0,264.4,0,0,98,4.171,4.164,0,0,0,0,4.073,67.28,92.608663724632,12.795276,6,P-GPS,
11900,2022-08-11 21:07:59,-34.9223092377739,-56.1539072828934,12.795276,11.5157484,81.092915324632,92.608663724632,12.795276,2.8185444,30.286910418,50.37073652,17,5,8.32,92.608663724632,12.795276,10.0438606,30.286910418,-0.894776,-2.684328,-0.671082,255.2, 20, 3.4,0,0,1574,1024,1526,1024,83,0,76,0,264.4,0,0,98,4.171,4.164,0,0,0,0,4.073,67.28,92.608663724632,12.795276,6,P-GPS,
12000,2022-08-11 21:07:59,-34.9223096818343,-56.1539077361351,13.12336,11.811024,81.125723724632,92.936747724632,13.12336,1.901399,30.4369760396,50.582022616,17,5,8.359,92.936747724632,13.12336,10.0438606,30.4369760396,-0.671082,-1.789552,-1.342164,254.6, 5.6, 3.1,0,0,1684,1024,1453,1024,100,0,65,0,264.4,0,0,98,4.176,4.166,0,0,0,0,4.736,67.28,92.936747724632,13.12336,6,P-GPS,
12100,2022-08-11 21:07:59,-34.9223096220378,-56.1539078918896,13.451444,12.139108,81.125723724632,93.264831724632,13.451444,1.6329662,30.481300188,50.633531804,17,5,8.359,93.264831724632,13.451444,10.0438606,30.481300188,-0.447388,-1.565858,-2.013246,253.9, -9, 3.2,0,0,1598,1024,1113,1024,87,0,13,0,264.4,0,0,98,4.176,4.166,0,0,0,0,4.736,67.28,93.264831724632,13.451444,6,P-GPS,
12200,2022-08-11 21:08:00,-34.9223095190322,-56.1539080776729,13.779528,12.467192,81.125723724632,93.592915724632,13.779528,2.0579848,30.5331046516,50.700789024,17,5,8.359,93.592915724632,13.779528,10.0438606,30.5331046516,-0.447388,-2.013246,-2.23694,253.7, -14.4, 3.1,0,0,1058,1024,1024,1024,5,0,0,0,264.4,0,0,98,4.176,4.166,0,0,0,0,4.736,67.28,93.592915724632,13.779528,6,P-GPS,"Señal del GPS débil Señal del GPS débil. La precisión del posicionamiento se verá afectada. Vuela con cuidado (Code: 30049). Baja velocidad de la tarjeta SD. Puede afectar a su uso normal. Sustituye la tarjeta SD (Code: 10028)"
12300,2022-08-11 21:08:00,-34.9223089984024,-56.1539080865749,13.779528,12.5000004,81.092915324632,93.592915724632,13.779528,2.3264176,30.5186689556,50.89074966,17,5,8.359,93.592915724632,13.779528,10.0438606,30.5331046516,-0.671082,-2.23694,-1.789552,253.9, -9.7, 2.7,0,0,1024,1024,1024,1024,0,0,0,0,264.4,0,0,98,4.176,4.166,0,0,0,0,4.736,67.28,93.592915724632,13.779528,6,P-GPS,
12400,2022-08-11 21:08:00,-34.9223068918407,-56.1539067858415,14.107612,12.8937012,81.027298524632,93.920999724632,14.107612,2.5501116,30.0731308836,51.75197016,17,5,8.359,93.920999724632,14.107612,10.0438606,30.5331046516,-0.671082,-2.460634,-1.11847,254.4, 4, 2.4,0,0,1024,1024,1024,1024,0,0,0,0,264.4,0,0,98,4.176,4.166,0,0,0,0,4.736,67.28,93.920999724632,14.107612,6,P-GPS,
12500,2022-08-11 21:08:00,-34.9223061762243,-56.1539066308393,14.107612,12.9265096,80.994490124632,93.920999724632,14.107612,2.2816788,30.0115823252,52.017390116,17,5,8.359,93.920999724632,14.107612,10.0438606,30.5331046516,-0.447388,-2.23694,-0.671082,254.5, 10.5, 1.9,0,0,1024,1024,1024,1024,0,0,0,0,264.4,0,0,98,4.176,4.166,0,0,0,0,4.736,67.28,93.920999724632,14.107612,6,P-GPS,
12600,2022-08-11 21:08:00,-34.9223054561589,-56.1539063387434,14.435696,13.287402,80.961681724632,94.249083724632,14.107612,1.8119214,29.911254238,52.294293012,18,5,8.359,94.249083724632,14.435696,10.0438606,30.5331046516,-0.223694,-1.789552,-0.223694,254.5, 11.4, 1.4,0,0,1024,1024,1024,1024,0,0,0,0,264.4,0,0,98,4.176,4.166,0,0,0,0,4.736,67.28,94.249083724632,14.435696,6,P-GPS,
12700,2022-08-11 21:08:00,-34.9223050633847,-56.1539066212372,14.435696,13.287402,80.961681724632,94.249083724632,14.435696,1.3645334,29.989502272,52.4606316,18,5,8.359,94.249083724632,14.435696,10.0438606,30.5331046516,-0.223694,-1.342164,0,254.5, 10.1, 1.3,0,0,1024,1024,1024,1024,0,0,0,0,264.4,0,0,98,4.176,4.166,0,0,0,0,4.736,67.28,94.249083724632,14.435696,6,P-GPS,
12800,2022-08-11 21:08:00,-34.9223037398474,-56.1539065665606,14.435696,13.3202104,80.928873324632,94.249083724632,14.435696,0.894776,29.9574484652,52.943571248,18,5,8.359,94.249083724632,14.435696,10.0438606,30.5331046516,0,-0.894776,0,254.5, 8, 1.6,0,0,1024,1024,1024,1024,0,0,0,0,264.4,0,0,98,4.176,4.166,0,0,0,0,4.736,67.28,94.249083724632,14.435696,6,P-GPS,
12900,2022-08-11 21:08:00,-34.9223034300619,-56.1539066107052,14.435696,13.3530188,80.896064924632,94.249083724632,14.435696,0.671082,29.9680783868,53.057416396,18,5,8.359,94.249083724632,14.435696,10.0438606,30.5331046516,0,-0.671082,0,254.5, 6.1, 1.7,0,0,1024,1024,1024,1024,0,0,0,0,264.4,0,0,98,4.176,4.166,0,0,0,0,4.736,67.28,94.249083724632,14.435696,6,P-GPS,
13000,2022-08-11 21:08:00,-34.9223030775038,-56.1539065372424,14.435696,13.3530188,80.896064924632,94.249083724632,14.435696,0.447388,29.943734554,53.187993828,18,5,8.184,94.249083724632,14.435696,10.0438606,30.5331046516,0,-0.447388,0,254.3, 4.4, 1.5,0,0,1024,1024,1024,1024,0,0,0,0,264.4,0,0,98,4.16,4.149,0,0,0,0,4.754,67.46,94.249083724632,14.435696,6,P-GPS,
13100,2022-08-11 21:08:00,-34.9223020527354,-56.1539061847129,14.435696,13.3858272,80.863256524632,94.249083724632,14.435696,0.223694,29.8344497736,53.576445284,18,5,8.184,94.249083724632,14.435696,10.0438606,30.5331046516,0,-0.223694,0,254.3, 3.2, 1.4,0,0,1024,1024,1024,1024,0,0,0,0,264.4,0,0,98,4.16,4.149,0,0,0,0,4.754,67.46,94.249083724632,14.435696,6,P-GPS,
13200,2022-08-11 21:08:01,-34.9223004352052,-56.1539065251744,14.76378,13.8123364,80.764831324632,94.577167724632,14.435696,0,29.939797546,54.175198584,17,5,8.184,94.577167724632,14.76378,10.0438606,30.5331046516,0,0,0,254.3, 2.3, 1.4,0,0,1024,1024,1024,1024,0,0,0,0,264.4,0,0,98,4.16,4.149,0,0,0,0,4.754,67.46,94.577167724632,14.76378,6,P-GPS,
13300,2022-08-11 21:08:01,-34.9222999741227,-56.1539059471682,14.76378,13.779528,80.797639724632,94.577167724632,14.435696,0,29.7700468844,54.416668408,17,5,8.184,94.577167724632,14.76378,10.0438606,30.5331046516,0,0,0,254.3, 1.5, 1.8,0,0,1024,1024,1024,1024,0,0,0,0,264.4,0,0,98,4.16,4.149,0,0,0,0,4.754,67.46,94.577167724632,14.76378,6,P-GPS,
13400,2022-08-11 21:08:01,-34.9222995542268,-56.1539053682843,14.76378,13.779528,80.797639724632,94.577167724632,14.435696,0,29.6006243068,54.647967628,17,5,8.184,94.577167724632,14.76378,10.0438606,30.5331046516,0,0,0,254.2, 0.8, 1.2,0,0,1024,1024,1024,1024,0,0,0,0,264.4,0,0,98,4.16,4.149,0,0,0,0,4.754,67.46,94.577167724632,14.76378,6,P-GPS,
13500,2022-08-11 21:08:01,-34.9222993772671,-56.1539049008014,14.76378,13.8123364,80.764831324632,94.577167724632,14.435696,0.223694,29.4626321764,54.801839024,17,5,8.184,94.577167724632,14.76378,10.0438606,30.5331046516,0,0.223694,0,254.2, 0.6, 1,0,0,1024,1024,1024,1024,0,0,0,0,264.4,0,0,98,4.16,4.149,0,0,0,0,4.754,67.46,94.577167724632,14.76378,6,P-GPS,"Baja velocidad de la tarjeta SD. Puede afectar a su uso normal. Sustituye la tarjeta SD (Code: 10028)"
13600,2022-08-11 21:08:01,-34.9223006353117,-56.1539051162372,14.76378,13.7467196,80.830448124632,94.577167724632,14.435696,0.223694,29.5172909708,55.265421716,17,5,8.184,94.577167724632,14.76378,10.0438606,30.5331046516,0,0.223694,0,254.2, -0.4, 1.1,0,0,1024,1024,1024,1024,0,0,0,0,264.4,0,0,98,4.16,4.149,0,0,0,0,4.754,67.46,94.577167724632,14.76378,6,P-GPS,
13700,2022-08-11 21:08:01,-34.9223004571501,-56.1539048240996,14.76378,13.779528,80.797639724632,94.577167724632,14.435696,0.223694,29.4308408368,55.374345604,17,5,8.184,94.577167724632,14.76378,10.0438606,30.5331046516,0,0.223694,0,254.2, -2, 1.5,0,0,1024,1024,1024,1024,0,0,0,0,264.4,0,0,98,4.16,4.149,0,0,0,0,4.754,67.46,94.577167724632,14.76378,6,P-GPS,
13800,2022-08-11 21:08:01,-34.9223003100593,-56.1539045869624,14.76378,13.779528,80.797639724632,94.577167724632,14.107612,0.223694,29.3608277112,55.463256368,17,5,8.184,94.577167724632,14.76378,10.0438606,30.5331046516,0,0.223694,0,254.3, -1.7, 1.4,0,0,1024,1024,1024,1024,0,0,0,0,264.4,0,0,98,4.16,4.149,0,0,0,0,4.754,67.46,94.577167724632,14.76378,6,P-GPS,
13900,2022-08-11 21:08:01,-34.9223002685926,-56.1539044726777,14.76378,13.7467196,80.830448124632,94.577167724632,14.107612,0.223694,29.3269038256,55.500657944,17,5,8.184,94.577167724632,14.76378,10.0438606,30.5331046516,0,0.223694,0,254.4, -1.7, 1.8,0,0,1024,1024,1024,717,0,0,0,-47,264.4,0,0,98,4.16,4.149,0,0,0,0,4.754,67.46,94.577167724632,14.76378,6,P-GPS,
14000,2022-08-11 21:08:01,-34.9223002413667,-56.153904400009,14.76378,13.7467196,80.830448124632,94.577167724632,14.107612,0,29.3053487068,55.524608076,17,5,8.334,94.577167724632,14.76378,10.0438606,30.5331046516,0,0,0,254.3, -1.3, 2,0,0,1024,1024,1024,717,0,0,0,-47,264.4,0,0,98,4.153,4.139,0,0,0,0,4.222,67.64,94.577167724632,14.76378,6,P-GPS,
14100,2022-08-11 21:08:01,-34.9223009890407,-56.1539050138428,14.435696,13.4186356,80.830448124632,94.249083724632,14.107612,0,29.4852043556,55.853348244,17,5,8.334,94.577167724632,14.76378,10.0438606,30.5331046516,0,0,0,254.2, -1.8, 1.7,0,0,1024,1024,1024,364,0,0,0,-100,264,0,0,98,4.153,4.139,0,0,0,0,4.222,67.64,94.249083724632,14.435696,6,P-GPS,
14200,2022-08-11 21:08:02,-34.9223009701817,-56.1539049635546,14.435696,13.4186356,80.830448124632,94.249083724632,14.107612,0,29.4702109168,55.869752444,16,5,8.334,94.577167724632,14.76378,10.0438606,30.5331046516,0,0,0,252.9, -1.5, 2,0,0,1024,1024,1024,484,0,0,0,-82,261.2,0,0,98,4.153,4.139,0,0,0,0,4.222,67.64,94.249083724632,14.435696,6,P-GPS,
14300,2022-08-11 21:08:02,-34.922300835327,-56.1539049271628,14.435696,13.4186356,80.830448124632,94.249083724632,14.107612,0,29.4598434624,55.92027738,16,5,8.334,94.577167724632,14.76378,10.0438606,30.5331046516,0,0,0,249.1, -1.2, 1.6,0,0,1024,1024,1024,1024,0,0,0,0,256.9,0,0,98,4.153,4.139,0,0,0,0,4.222,67.64,94.249083724632,14.435696,6,P-GPS,
14400,2022-08-11 21:08:02,-34.9223006997688,-56.153904920831,14.435696,13.4186356,80.830448124632,94.249083724632,14.107612,0,29.4585311264,55.969818064,16,5,8.334,94.577167724632,14.76378,10.0438606,30.5331046516,0,0,0,245.8, -1, 0.9,0,0,1024,1024,1024,1024,0,0,0,0,254.5,0,0,98,4.153,4.139,0,0,0,0,4.222,67.64,94.249083724632,14.435696,6,P-GPS,
14500,2022-08-11 21:08:02,-34.9223004540528,-56.1539053406587,14.435696,13.451444,80.797639724632,94.249083724632,14.107612,0,29.5853684008,56.124017544,16,5,8.334,94.577167724632,14.76378,10.0438606,30.5331046516,0,0,0,244.5, -1, 1,0,0,1024,1024,1024,1024,0,0,0,0,253.5,0,0,98,4.153,4.139,0,0,0,0,4.222,67.64,94.249083724632,14.435696,6,P-GPS,
14600,2022-08-11 21:08:02,-34.922300268876,-56.1539054197741,14.435696,13.451444,80.797639724632,94.249083724632,14.107612,0,29.6101715512,56.195539856,17,5,8.334,94.577167724632,14.76378,10.0438606,30.5331046516,0,0,0,243.6, -0.8, 1.2,0,0,1024,1024,1024,1024,0,0,0,0,253.4,0,0,98,4.153,4.139,0,0,0,0,4.222,67.64,94.249083724632,14.435696,6,P-GPS,
14700,2022-08-11 21:08:02,-34.9222999604063,-56.1539054019805,14.435696,13.451444,80.797639724632,94.249083724632,14.107612,0,29.6070875616,56.308400752,17,5,8.334,94.577167724632,14.76378,10.0438606,30.5331046516,0,0,0,243.5, -0.2, 2.2,0,0,1024,1024,1024,1024,0,0,0,0,253.4,0,0,98,4.153,4.139,0,0,0,0,4.222,67.64,94.249083724632,14.435696,6,P-GPS,
14800,2022-08-11 21:08:02,-34.9222996610609,-56.1539053781685,14.435696,13.451444,80.797639724632,94.249083724632,14.107612,0,29.6025600024,56.417652724,18,5,8.334,94.577167724632,14.76378,10.0438606,30.5331046516,0,0,0,243.3, -0.3, 2.8,0,0,1032,1024,1024,1024,1,0,0,0,253.4,0,0,98,4.153,4.139,0,0,0,0,4.222,67.64,94.249083724632,14.435696,6,P-GPS,
14900,2022-08-11 21:08:02,-34.922299109248,-56.153905237606,14.435696,13.4842524,80.764831324632,94.249083724632,14.107612,0,29.5663395288,56.623361392,18,5,8.334,94.577167724632,14.76378,10.0438606,30.5331046516,0,0,0,243.2, -0.5, 2.3,0,0,1680,1024,1024,1024,99,0,0,0,253.4,0,0,98,4.153,4.139,0,0,0,0,4.222,67.64,94.249083724632,14.435696,6,P-GPS,
15000,2022-08-11 21:08:02,-34.9222988491969,-56.15390517665,14.435696,13.4842524,80.764831324632,94.249083724632,14.107612,0,29.55134609,56.720146172,18,5,8.302,94.577167724632,14.76378,10.0438606,30.5331046516,0,0,0,243.3, -0.4, 1.9,0,0,1680,1024,1024,1024,99,0,0,0,253.4,0,0,98,4.151,4.14,0,0,0,0,4.038,67.64,94.249083724632,14.435696,6,P-GPS,
15100,2022-08-11 21:08:02,-34.9222986043228,-56.1539051808189,14.435696,13.4842524,80.764831324632,94.249083724632,14.107612,0,29.5559064576,56.80938502,18,5,8.302,94.577167724632,14.76378,10.0438606,30.5331046516,0,0,0,243.3, -7.1, 1.1,0,0,1684,1024,1024,1024,100,0,0,0,253.4,0,0,98,4.151,4.14,0,0,0,0,4.038,67.64,94.249083724632,14.435696,6,P-GPS,
15200,2022-08-11 21:08:03,-34.9222984009139,-56.153905268084,14.435696,13.5170608,80.732022924632,94.249083724632,14.107612,0.447388,29.5849418916,56.88812518,17,5,8.302,94.577167724632,14.76378,10.0438606,30.5331046516,0,-0.447388,0,243.1, -15, 1.2,0,0,1684,1024,1024,1024,100,0,0,0,253.4,0,0,98,4.151,4.14,0,0,0,0,4.038,67.64,94.249083724632,14.435696,6,P-GPS,"Se detectó tarjeta SD de baja velocidad"
15300,2022-08-11 21:08:03,-34.9222980582812,-56.1539055474328,14.435696,13.5170608,80.732022924632,94.249083724632,13.779528,1.006623,29.6738198472,57.038387652,17,5,8.302,94.577167724632,14.76378,10.0438606,30.5331046516,-0.447388,-0.894776,0,243, -17.2, 1.8,0,0,1684,1024,1024,1024,100,0,0,0,253.4,0,0,98,4.151,4.14,0,0,0,0,4.038,67.64,94.249083724632,14.435696,6,P-GPS,
15400,2022-08-11 21:08:03,-34.9222979471447,-56.1539060554556,14.435696,13.5170608,80.732022924632,94.249083724632,13.779528,1.7000744,29.8274615844,57.195867972,17,5,8.302,94.577167724632,14.76378,10.0438606,30.5331046516,-0.671082,-1.565858,0,243.2, -16.9, 2.2,0,0,1684,1024,1024,1024,100,0,0,0,253.4,0,0,98,4.151,4.14,0,0,0,0,4.038,67.64,94.249083724632,14.435696,6,P-GPS,
15500,2022-08-11 21:08:03,-34.9222977883617,-56.1539068682063,14.435696,13.5498692,80.699214524632,94.249083724632,13.779528,2.1922012,30.0730652668,57.445539896,17,5,8.302,94.577167724632,14.76378,10.0438606,30.5331046516,-0.894776,-2.013246,0,243.2, -16.6, 2.2,0,0,1684,1024,1024,1024,100,0,0,0,253.4,0,0,98,4.151,4.14,0,0,0,0,4.038,67.64,94.249083724632,14.435696,6,P-GPS,
15600,2022-08-11 21:08:03,-34.9222977217404,-56.1539078676911,14.435696,13.5498692,80.699214524632,94.249083724632,13.779528,2.7066974,30.3729012344,57.745736756,16,5,8.302,94.577167724632,14.76378,10.0438606,30.5331046516,-1.11847,-2.460634,0,243.2, -16.6, 2.2,0,0,1672,1024,1024,1024,98,0,0,0,253.4,0,0,98,4.151,4.14,0,0,0,0,4.038,67.64,94.249083724632,14.435696,6,P-GPS,
15700,2022-08-11 21:08:03,-34.9222978169099,-56.1539090368581,14.435696,13.5498692,80.699214524632,94.249083724632,13.779528,3.4001488,30.7206046576,58.09711472,16,5,8.302,94.577167724632,14.76378,10.0438606,30.7206046576,-1.342164,-3.131716,0,243.2, -16.6, 2,0,0,1628,1024,1024,1024,92,0,0,0,253.4,0,0,98,4.151,4.14,0,0,0,0,4.038,67.64,94.249083724632,14.435696,6,P-GPS,
15800,2022-08-11 21:08:03,-34.922297547207,-56.1539101100565,14.435696,13.5826776,80.666406124632,94.249083724632,13.779528,3.914645,31.0459983688,58.433072736,15,5,8.302,94.577167724632,14.76378,10.0438606,31.0459983688,-1.565858,-3.579104,0,243.2, -16.1, 1.4,0,0,1647,1024,1024,1024,94,0,0,0,253.4,0,0,98,4.151,4.14,0,0,0,0,4.038,67.64,94.249083724632,14.435696,6,P-GPS,
15900,2022-08-11 21:08:03,-34.9222980403324,-56.1539120376947,14.435696,13.5826776,80.666406124632,94.249083724632,13.779528,4.4067718,31.6137805392,59.03707538,15,5,8.302,94.577167724632,14.76378,10.0438606,31.6137805392,-1.789552,-4.026492,0,243.2, -15.2, 1.1,0,0,1665,1024,1024,1024,97,0,0,0,253.4,0,0,98,4.151,4.14,0,0,0,0,4.038,67.64,94.249083724632,14.435696,6,P-GPS,
16000,2022-08-11 21:08:03,-34.9222986184691,-56.1539140625972,14.435696,13.5826776,80.666406124632,94.249083724632,13.779528,4.697574,32.2108934192,59.6784796,15,5,8.287,94.577167724632,14.76378,10.0438606,32.2108934192,-2.013246,-4.250186,0,243.4, -15, 1.5,0,0,1665,1024,1024,1024,97,0,0,0,253.4,0,0,98,4.146,4.135,0,0,0,0,4.253,67.64,94.249083724632,14.435696,6,P-GPS,
16100,2022-08-11 21:08:03,-34.9222996164887,-56.1539163686457,14.435696,13.5826776,80.666406124632,94.249083724632,14.107612,5.2120702,32.889764832,60.458335268,15,5,8.287,94.577167724632,14.76378,10.0438606,32.889764832,-2.23694,-4.697574,0,243.3, -15.5, 2.2,0,0,1665,1024,1024,1024,97,0,0,0,253.4,0,0,98,4.146,4.135,0,0,0,0,4.253,67.64,94.249083724632,14.435696,6,P-GPS,
16200,2022-08-11 21:08:03,-34.9223016188837,-56.1539191208309,14.107612,13.2217852,80.699214524632,93.920999724632,14.107612,5.2120702,33.70406932,61.559057088,16,5,8.287,94.577167724632,14.76378,10.0438606,33.70406932,-2.460634,-5.144962,0,243.1, -15.7, 2,0,0,1664,1024,1024,1024,97,0,0,0,253.4,0,0,98,4.146,4.135,0,0,0,0,4.253,67.64,93.920999724632,14.107612,6,P-GPS,
