time(millisecond),datetime(utc),latitude,longitude,height_above_takeoff(feet),height_above_ground_at_drone_location(feet),ground_elevation_at_drone_location(feet),altitude_above_seaLevel(feet),height_sonar(feet),speed(mph),distance(feet),mileage(feet),satellites,gpslevel,voltage(v),max_altitude(feet),max_ascent(feet),max_speed(mph),max_distance(feet), xSpeed(mph), ySpeed(mph), zSpeed(mph), compass_heading(degrees), pitch(degrees), roll(degrees),isPhoto,isVideo,rc_elevator,rc_aileron,rc_throttle,rc_rudder,rc_elevator(percent),rc_aileron(percent),rc_throttle(percent),rc_rudder(percent),gimbal_heading(degrees),gimbal_pitch(degrees),gimbal_roll(degrees),battery_percent,voltageCell1,voltageCell2,voltageCell3,voltageCell4,voltageCell5,voltageCell6,current(A),battery_temperature(f),altitude(feet),ascent(feet),flycStateRaw,flycState,message
0,2022-08-29 21:42:50,-34.9185024796746,-56.1684010044186,0,0,32.21840162154,32.21840162154,0,0,0,0,24,5,0,32.21840162154,0,0,0,0,0,0,292.2, -7.1, 5.6,0,0,364,364,364,1684,-100,-100,-100,100,302.5,12.9,0,100,4.311,4.305,0,0,0,0,0,64.58,32.21840162154,0,41,Motors_Started,"En vuelo Aeronave en Zona de altitud restringida (150). Vuela con precaución (Code: 190001)"
100,2022-08-29 21:42:50,-34.9185024738507,-56.1684010147491,0,0,32.21840162154,32.21840162154,0,0,0.003750492246,0.003750492246,24,5,0,32.21840162154,0,0,0.003750492246,0,0,0,291.9, -6.8, 5,0,0,364,364,364,1684,-100,-100,-100,100,302.7,12.9,0,100,4.311,4.305,0,0,0,0,0,64.58,32.21840162154,0,41,Motors_Started,
200,2022-08-29 21:42:50,-34.9185024742604,-56.168401016392,0,0,32.21840162154,32.21840162154,0,0,0.0040905841204,0.0042642389816,24,5,0,32.21840162154,0,0,0.0040905841204,0,0,0,291.5, -6.9, 5,0,0,364,364,364,1684,-100,-100,-100,100,302.6,12.9,0,100,4.311,4.305,0,0,0,0,0,64.58,32.21840162154,0,41,Motors_Started,
300,2022-08-29 21:42:50,-34.9185024178593,-56.1684011165738,0,0,32.21840162154,32.21840162154,0.328084,0,0.0404281509,0.040619423872,24,5,0,32.21840162154,0,0,0.0404281509,0,0,0,291.8, -6.7, 5,0,0,364,364,364,1684,-100,-100,-100,100,302.5,12.9,0,100,4.311,4.305,0,0,0,0,0,64.58,32.21840162154,0,41,Motors_Started,
400,2022-08-29 21:42:50,-34.9185024306603,-56.1684011512141,0,0,32.21840162154,32.21840162154,0.328084,0,0.047417324352,0.05198655022,24,5,0,32.21840162154,0,0,0.047417324352,0,0,0,292, -6.2, 5.2,0,0,829,583,364,1525,-30,-67,-100,76,302.5,12.9,0,100,4.311,4.305,0,0,0,0,0,64.58,32.21840162154,0,41,Motors_Started,
500,2022-08-29 21:42:50,-34.9185024448296,-56.1684011802399,0,0,32.21840162154,32.21840162154,0.328084,0,0.05411417496,0.062092193588,24,5,0,32.21840162154,0,0,0.05411417496,0,0,0,292.2, -5.8, 5.5,0,0,1024,935,552,1140,0,-13,-72,18,302.6,12.9,0,100,4.311,4.305,0,0,0,0,0,64.58,32.21840162154,0,41,Motors_Started,
600,2022-08-29 21:42:50,-34.9185024942592,-56.16840117103,0,0,32.21840162154,32.21840162154,0.328084,0,0.050127298192,0.080335960576,24,5,0,32.21840162154,0,0,0.05411417496,0,0,0,292.2, -5.8, 5.8,0,0,1024,1024,1024,1024,0,0,0,0,302.8,12.9,0,100,4.311,4.305,0,0,0,0,0,64.58,32.21840162154,0,41,Motors_Started,
700,2022-08-29 21:42:50,-34.9185025381927,-56.1684011580667,0,0,32.21840162154,32.21840162154,0.328084,0,0.05068241632,0.09682743092,24,5,0,32.21840162154,0,0,0.05411417496,0,0,0,292.1, -5.7, 6.1,0,0,1024,1024,1024,1024,0,0,0,0,302.9,12.9,0,100,4.311,4.305,0,0,0,0,0,64.58,32.21840162154,0,41,Motors_Started,
800,2022-08-29 21:42:51,-34.9185025773751,-56.1684012154535,0,0,32.21840162154,32.21840162154,0.328084,0,0.072501970824,0.1191683109,24,5,0,32.21840162154,0,0,0.072501970824,0,0,0,291.9, -5.9, 6.4,0,0,1024,1024,1024,1024,0,0,0,0,302.9,12.9,0,100,4.311,4.305,0,0,0,0,0,64.58,32.21840162154,0,41,Motors_Started,"Setting new Return-To-Home altitude to 60m (197 ft). Data Recorder File Index is 28. Setting new Maximum Flight Altitude to 120m (394 ft)"
900,2022-08-29 21:42:51,-34.918502577376,-56.1684011982679,-0.328084,-0.328084,32.21840162154,31.89031762154,0.328084,0,0.068072180656,0.124309715264,25,5,0,32.21840162154,0,0,0.072501970824,0,0,0,291.9, -5.8, 6.3,0,0,1024,1024,1024,1024,0,0,0,0,302.8,12.9,0,100,4.311,4.305,0,0,0,0,0,64.58,31.89031762154,-0.328084,41,Motors_Started,
1000,2022-08-29 21:42:51,-34.9185025742675,-56.1684011908093,-0.328084,-0.328084,32.21840162154,31.89031762154,0.328084,0,0.065577758004,0.1268126681,25,5,0,32.21840162154,0,0,0.072501970824,0,0,0,291.9, -5.7, 6.3,0,0,1024,1024,1024,1024,0,0,0,0,302.8,12.9,0,100,4.311,4.305,0,0,0,0,0,64.58,31.89031762154,-0.328084,41,Motors_Started,
1100,2022-08-29 21:42:51,-34.9185025643787,-56.1684011885251,-0.328084,-0.328084,32.21840162154,31.89031762154,0.328084,0,0.063155841916,0.130484584228,25,5,0,32.21840162154,0,0,0.072501970824,0,0,0,291.9, -5.8, 6.2,0,0,1024,1024,1024,1024,0,0,0,0,302.8,12.9,0,100,4.311,4.305,0,0,0,0,0,64.58,31.89031762154,-0.328084,10,Assisted_Takeoff,
1200,2022-08-29 21:42:51,-34.9185025204431,-56.1684013197858,-0.328084,-0.328084,32.21840162154,31.89031762154,0.328084,0,0.09551181408,0.172898955664,25,5,0,32.21840162154,0,0,0.09551181408,0,0,0,292.1, -5.7, 5.9,0,0,1024,1024,1024,1024,0,0,0,0,302.8,12.9,0,100,4.311,4.305,0,0,0,0,0,64.58,31.89031762154,-0.328084,10,Assisted_Takeoff,
1300,2022-08-29 21:42:51,-34.9185025247843,-56.1684013599034,-0.328084,-0.328084,32.21840162154,31.89031762154,0.328084,0,0.107614504756,0.18500492718,25,5,8.632,32.21840162154,0,0,0.107614504756,0,0,0,292, -5.7, 5.8,0,0,1024,1024,1024,1024,0,0,0,0,302.8,12.9,0,100,4.311,4.305,0,0,0,0,1.015,64.58,31.89031762154,-0.328084,10,Assisted_Takeoff,
1400,2022-08-29 21:42:51,-34.9185025269571,-56.1684013793471,-0.328084,-0.328084,32.21840162154,31.89031762154,0.328084,0,0.1134842556,0.190875334192,25,5,8.632,32.21840162154,0,0,0.1134842556,0,0,0,291.4, -6.3, 5.7,0,0,1024,1024,1024,1024,0,0,0,0,302.7,12.9,0,100,4.311,4.305,0,0,0,0,1.015,64.58,31.89031762154,-0.328084,10,Assisted_Takeoff,
1500,2022-08-29 21:42:51,-34.9185025322269,-56.1684014077565,-0.328084,-0.328084,32.21840162154,31.89031762154,0.328084,0,0.122178153516,0.199589245232,25,5,8.632,32.21840162154,0,0,0.122178153516,0,0,0,290.5, -6.8, 5.4,0,0,1024,1024,1134,1024,0,0,17,0,302.1,12.9,0,100,4.311,4.305,0,0,0,0,1.015,64.58,31.89031762154,-0.328084,10,Assisted_Takeoff,
1600,2022-08-29 21:42:51,-34.9185025217184,-56.168401570156,-0.328084,-0.2952756,32.18559322154,31.89031762154,0.328084,0,0.169942262656,0.248324483012,25,5,8.632,32.21840162154,0,0,0.169942262656,0,0,0,289.5, -7.9, 4.4,0,0,1024,1024,1391,1024,0,0,56,0,301.2,12.9,0,100,4.311,4.305,0,0,0,0,1.015,64.58,31.89031762154,-0.328084,10,Assisted_Takeoff,
1700,2022-08-29 21:42:52,-34.918502511757,-56.1684016638326,-0.328084,-0.2952756,32.18559322154,31.89031762154,0.328084,0,0.197620085064,0.276583998352,25,5,8.632,32.21840162154,0,0,0.197620085064,0,0,0,288.7, -8, 3.8,0,0,1024,1024,1515,1024,0,0,74,0,300.1,12.9,0,100,4.311,4.305,0,0,0,0,1.015,64.58,31.89031762154,-0.328084,10,Assisted_Takeoff,
1800,2022-08-29 21:42:52,-34.9185025222629,-56.1684017745002,-0.328084,-0.2952756,32.18559322154,31.89031762154,0.328084,0,0.230904534948,0.309912739576,25,5,8.632,32.21840162154,0,0,0.230904534948,0,0,0,289.2, -7.2, 2.7,0,0,1024,1024,1090,1024,0,0,10,0,299.9,12.9,0,100,4.311,4.305,0,0,0,0,1.015,64.58,31.89031762154,-0.328084,10,Assisted_Takeoff,
1900,2022-08-29 21:42:52,-34.9185025470108,-56.168401851592,-0.328084,-0.2952756,32.18559322154,31.89031762154,0.328084,0,0.254632225996,0.33468176924,25,5,8.632,32.21840162154,0,0,0.254632225996,0,0,0,289, -6.5, 2.2,0,0,1024,1024,1024,1024,0,0,0,0,299.8,12.9,0,100,4.311,4.305,0,0,0,0,1.015,64.58,31.89031762154,-0.328084,10,Assisted_Takeoff,
2000,2022-08-29 21:42:52,-34.9185025527138,-56.1684018997115,-0.328084,-0.2952756,32.18559322154,31.89031762154,0.328084,0,0.269162082104,0.34922573296,25,5,8.632,32.21840162154,0,0,0.269162082104,0,0,0,288.6, -6, 1.6,0,0,1024,1024,1045,1024,0,0,3,0,299.5,12.9,0,100,4.311,4.305,0,0,0,0,1.015,64.58,31.89031762154,-0.328084,10,Assisted_Takeoff,
2100,2022-08-29 21:42:52,-34.9185025689034,-56.1684019510424,-0.328084,-0.2952756,32.18559322154,31.89031762154,0.328084,0,0.285061360828,0.36567914556,25,5,8.632,32.21840162154,0,0,0.285061360828,0,0,0,288, -6.5, 1.2,0,0,1024,1024,1374,1024,0,0,53,0,299,12.9,0,100,4.311,4.305,0,0,0,0,1.015,64.58,31.89031762154,-0.328084,10,Assisted_Takeoff,
2200,2022-08-29 21:42:52,-34.9185025659378,-56.1684020705556,-0.328084,-0.2952756,32.18559322154,31.89031762154,0.328084,0,0.320499354088,0.40145014408,25,5,8.632,32.21840162154,0,0,0.320499354088,0,0,0,287.9, -6.5, 1.5,0,0,1024,1024,1561,1024,0,0,81,0,298.6,12.9,0,100,4.311,4.305,0,0,0,0,1.015,64.58,31.89031762154,-0.328084,10,Assisted_Takeoff,
2300,2022-08-29 21:42:52,-34.9185025574507,-56.168402187829,-0.328084,-0.2952756,32.18559322154,31.89031762154,0.328084,0,0.35517061504,0.43666996148,25,5,8.64,32.21840162154,0,0,0.35517061504,0,0,0,287.8, -6.5, 1.5,0,0,1024,1024,1561,1024,0,0,81,0,298.4,12.9,0,100,4.276,4.263,0,0,0,0,1.3,64.58,31.89031762154,-0.328084,10,Assisted_Takeoff,
2400,2022-08-29 21:42:52,-34.9185025411174,-56.1684022090554,-0.328084,-0.2952756,32.18559322154,31.89031762154,0.328084,0,0.36108268872,0.44537731084,25,5,8.64,32.21840162154,0,0,0.36108268872,0,0,0,286.9, -5.6, 1.6,0,0,1024,1024,1588,1024,0,0,85,0,298,12.9,0,100,4.276,4.263,0,0,0,0,1.3,64.58,31.89031762154,-0.328084,10,Assisted_Takeoff,
2500,2022-08-29 21:42:52,-34.9185024996298,-56.1684021489102,-0.328084,-0.2952756,32.18559322154,31.89031762154,0.328084,0,0.34246720256,0.46889109112,25,5,8.64,32.21840162154,0,0,0.36108268872,0,0,0,286.3, -4.7, 1.1,0,0,1024,1024,1617,1024,0,0,90,0,297.2,12.9,0,100,4.276,4.263,0,0,0,0,1.3,64.58,31.89031762154,-0.328084,10,Assisted_Takeoff,
2600,2022-08-29 21:42:52,-34.918502489258,-56.1684022034526,-0.328084,-0.2952756,32.18559322154,31.89031762154,0.328084,0,0.3587270456,0.48564306016,25,5,8.64,32.21840162154,0,0,0.36108268872,0,0,0,286.2, -3.8, 0.5,0,0,1024,1024,1596,1024,0,0,87,0,296.9,12.9,0,100,4.276,4.263,0,0,0,0,1.3,64.58,31.89031762154,-0.328084,10,Assisted_Takeoff,
2700,2022-08-29 21:42:53,-34.9185025042499,-56.1684022294524,-0.328084,-0.2952756,32.18559322154,31.89031762154,0.328084,0,0.36659778076,0.49515093448,25,5,8.64,32.21840162154,0,0,0.36659778076,0,0,0,286.4, -1.8, -0.1,0,0,1024,1024,1590,1024,0,0,86,0,296.7,12.9,0,100,4.276,4.263,0,0,0,0,1.3,64.58,31.89031762154,-0.328084,10,Assisted_Takeoff,
2800,2022-08-29 21:42:53,-34.9185025417269,-56.1684022812862,-0.328084,-0.2952756,32.18559322154,31.89031762154,0.328084,0,0.38266405424,0.51582350732,25,5,8.64,32.21840162154,0,0,0.38266405424,0,0,-0.447388,286.9, -1.4, 0,0,0,1024,1024,1567,1024,0,0,82,0,296.8,12.9,0,100,4.276,4.263,0,0,0,0,1.3,64.58,31.89031762154,-0.328084,10,Assisted_Takeoff,
2900,2022-08-29 21:42:53,-34.9185025468953,-56.1684024449473,0,0.032808399999999,32.18559322154,32.21840162154,0.328084,0,0.43165355712,0.56482285272,25,5,8.64,32.21840162154,0,0,0.43165355712,0,0,-1.11847,286.9, -0.3, 0.4,0,0,1024,1024,1466,1024,0,0,67,0,296.8,12.9,0,100,4.276,4.263,0,0,0,0,1.3,64.58,32.21840162154,0,6,P-GPS,
3000,2022-08-29 21:42:53,-34.9185025784369,-56.1684025176992,0,0.065616799999999,32.15278482154,32.21840162154,0.656168,0,0.454150277,0.58944227608,25,5,8.64,32.21840162154,0,0,0.454150277,0,0,-1.789552,286.7, 0.3, 0.5,0,0,1024,1024,1051,1024,0,0,4,0,296.8,12.9,0,100,4.276,4.263,0,0,0,0,1.3,64.58,32.21840162154,0,6,P-GPS,
3100,2022-08-29 21:42:53,-34.9185026010635,-56.168402592209,0.328084,0.3937008,32.15278482154,32.54648562154,0.984252,0,0.47707022524,0.61321196188,25,5,8.64,32.54648562154,0.328084,0,0.47707022524,0,0,-2.460634,286.6, 0.6, 0.4,0,0,1024,1024,1051,1024,0,0,4,0,296.8,12.9,0,100,4.276,4.263,0,0,0,0,1.3,64.58,32.54648562154,0.328084,6,P-GPS,
3200,2022-08-29 21:42:53,-34.9185026377802,-56.1684026926441,0.656168,0.7217848,32.15278482154,32.87456962154,1.64042,0,0.50833991128,0.6461122254,25,5,8.64,32.87456962154,0.656168,0,0.50833991128,0,0,-2.684328,286.6, 0.8, 0.2,0,0,1024,1024,1024,1024,0,0,0,0,296.8,12.9,0,100,4.276,4.263,0,0,0,0,1.3,64.58,32.87456962154,0.656168,6,P-GPS,
3300,2022-08-29 21:42:53,-34.9185027350026,-56.1684027878671,0.984252,1.0498688,32.15278482154,33.20265362154,2.296588,0,0.5416174714,0.69160435284,25,5,8.64,33.20265362154,0.984252,0,0.5416174714,0,0,-2.684328,286.5, 0.8, 0.2,0,0,1024,1024,1024,1024,0,0,0,0,296.8,12.9,0,100,4.276,4.263,0,0,0,0,1.3,64.58,33.20265362154,0.984252,6,P-GPS,
3400,2022-08-29 21:42:53,-34.9185027551479,-56.1684028855701,1.312336,1.3779528,32.15278482154,33.53073762154,2.624672,0,0.57167652748,0.72174542992,25,5,8.495,33.53073762154,1.312336,0,0.57167652748,0,0,-2.460634,286.5, 0.9, 0.3,0,0,1024,1024,1024,1024,0,0,0,0,296.8,12.9,0,100,4.164,4.146,0,0,0,0,2.748,64.58,33.53073762154,1.312336,6,P-GPS,
3500,2022-08-29 21:42:53,-34.9185027765786,-56.1684029882293,1.64042,1.7060368,32.15278482154,33.85882162154,3.28084,0,0.60329070172,0.75343506348,25,5,8.495,33.85882162154,1.64042,0,0.60329070172,0,0,-1.789552,286.5, 1.3, 0.4,0,0,1024,1024,1024,1024,0,0,0,0,296.8,12.9,0,100,4.164,4.146,0,0,0,0,2.748,64.58,33.85882162154,1.64042,6,P-GPS,
3600,2022-08-29 21:42:53,-34.9185028511956,-56.1684032149714,1.968504,2.0341208,32.15278482154,34.18690562154,3.608924,0,0.67506891924,0.82652889784,25,5,8.495,34.18690562154,1.968504,0,0.67506891924,0,0,-1.342164,286.5, 1.4, 0.4,0,0,1024,1024,1024,1024,0,0,0,0,296.8,12.9,0,100,4.164,4.146,0,0,0,0,2.748,64.58,34.18690562154,1.968504,6,P-GPS,
3700,2022-08-29 21:42:53,-34.9185029220288,-56.1684034312382,2.296588,2.3622048,32.15278482154,34.51498962154,3.608924,0,0.74374018128,0.89619753524,25,5,8.495,34.51498962154,2.296588,0,0.74374018128,0,0,-0.671082,286.4, 1.5, -0.2,0,0,1024,1024,1024,1024,0,0,0,0,296.8,12.9,0,100,4.164,4.146,0,0,0,0,2.748,64.58,34.51498962154,2.296588,6,P-GPS,
3800,2022-08-29 21:42:54,-34.9185029791735,-56.1684036632604,2.296588,2.3950132,32.11997642154,34.51498962154,3.937008,0,0.81604005236,0.96867457168,25,5,8.495,34.51498962154,2.296588,0,0.81604005236,0,0,-0.223694,286.4, 1.8, -0.4,0,0,1024,1024,1024,1024,0,0,0,0,296.8,12.9,0,100,4.164,4.146,0,0,0,0,2.748,64.58,34.51498962154,2.296588,6,P-GPS,
3900,2022-08-29 21:42:54,-34.9185030360858,-56.1684038394983,2.296588,2.3950132,32.11997642154,34.51498962154,3.937008,0,0.8721128888,1.02534124016,25,5,8.495,34.51498962154,2.296588,0,0.8721128888,0,0,0,286.4, 1.5, -0.4,0,0,1024,1024,1024,1024,0,0,0,0,296.8,12.9,0,100,4.164,4.146,0,0,0,0,2.748,64.58,34.51498962154,2.296588,6,P-GPS,
4000,2022-08-29 21:42:54,-34.9185030445941,-56.1684037879218,2.296588,2.3950132,32.11997642154,34.51498962154,3.937008,0,0.85785435816,1.04107942964,25,5,8.495,34.51498962154,2.296588,0,0.8721128888,0,0,0,286.2, 1.4, -0.1,0,0,1024,1024,1024,1024,0,0,0,0,296.8,12.9,0,100,4.164,4.146,0,0,0,0,2.748,64.58,34.51498962154,2.296588,6,P-GPS,
4100,2022-08-29 21:42:54,-34.9185030631219,-56.1684037246515,2.296588,2.3950132,32.11997642154,34.51498962154,3.937008,0,0.84117784844,1.06117785548,25,5,8.495,34.51498962154,2.296588,0,0.8721128888,0,0,0,286, 1.3, 0,0,0,1024,1024,1024,1024,0,0,0,0,296.8,12.9,0,100,4.164,4.146,0,0,0,0,2.748,64.58,34.51498962154,2.296588,6,P-GPS,
4200,2022-08-29 21:42:54,-34.918503102181,-56.1684035156343,2.296588,2.3950132,32.11997642154,34.51498962154,3.937008,0,0.78484582564,1.1253117158,25,5,8.495,34.51498962154,2.296588,0,0.8721128888,0,0,0,285.7, 1.2, -0.1,0,0,1024,1024,1024,1024,0,0,0,0,296.8,12.9,0,100,4.164,4.146,0,0,0,0,2.748,64.58,34.51498962154,2.296588,6,P-GPS,
4300,2022-08-29 21:42:54,-34.9185031670569,-56.1684034636661,2.296588,2.3622048,32.15278482154,34.51498962154,3.937008,0,0.77729005112,1.15363192668,25,5,8.495,34.51498962154,2.296588,0,0.8721128888,0,0,0,285.4, 1, 0,0,0,1024,1024,1024,1024,0,0,0,0,296.8,12.9,0,100,4.164,4.146,0,0,0,0,2.748,64.58,34.51498962154,2.296588,6,P-GPS,
4400,2022-08-29 21:42:54,-34.9185032010452,-56.1684034055139,2.296588,2.3622048,32.15278482154,34.51498962154,3.937008,0,0.76501970952,1.17499675676,25,5,8.461,34.51498962154,2.296588,0,0.8721128888,0,0,0,285.1, 0.5, 0,0,0,1024,1024,1024,1024,0,0,0,0,296.8,12.9,0,100,4.227,4.214,0,0,0,0,4.424,64.58,34.51498962154,2.296588,6,P-GPS,
4500,2022-08-29 21:42:54,-34.9185032374351,-56.168403340325,2.296588,2.3622048,32.15278482154,34.51498962154,3.937008,0,0.75152233376,1.1985892772,25,5,8.461,34.51498962154,2.296588,0,0.8721128888,0,0,0,284.7, 0.1, -0.1,0,0,1024,1024,1024,1024,0,0,0,0,296.8,12.9,0,100,4.227,4.214,0,0,0,0,4.424,64.58,34.51498962154,2.296588,6,P-GPS,
4600,2022-08-29 21:42:54,-34.9185032735668,-56.1684032634736,2.296588,2.3622048,32.15278482154,34.51498962154,3.937008,0,0.7352854566,1.22509190272,25,5,8.461,34.51498962154,2.296588,0,0.8721128888,0,0,0,284.4, -0.1, 0,0,0,1024,1024,1024,1024,0,0,0,0,296.8,12.9,0,100,4.227,4.214,0,0,0,0,4.424,64.58,34.51498962154,2.296588,6,P-GPS,
4700,2022-08-29 21:42:54,-34.9185033299826,-56.1684031932057,2.296588,2.3622048,32.15278482154,34.51498962154,3.937008,0,0.72458007568,1.254511195,25,5,8.461,34.51498962154,2.296588,0,0.8721128888,0,0,0,283.9, -0.1, -0.2,0,0,1024,1024,1024,1024,0,0,0,0,296.8,12.9,0,100,4.227,4.214,0,0,0,0,4.424,64.58,34.51498962154,2.296588,6,P-GPS,
4800,2022-08-29 21:42:55,-34.9185033939375,-56.1684031075348,2.296588,2.3622048,32.15278482154,34.51498962154,3.937008,0,0.71213256872,1.2891732696,25,5,8.461,34.51498962154,2.296588,0,0.8721128888,0,0,0,283.6, 0, -0.2,0,0,1024,1024,1024,1024,0,0,0,0,296.8,12.9,0,100,4.227,4.214,0,0,0,0,4.424,64.58,34.51498962154,2.296588,6,P-GPS,
4900,2022-08-29 21:42:55,-34.9185034510652,-56.1684030352204,2.624672,2.6902888,32.15278482154,34.84307362154,3.937008,0,0.70335960256,1.31921264064,25,5,8.461,34.84307362154,2.624672,0,0.8721128888,0,0,0,283.3, 0.3, 0,0,0,1024,1024,1024,1024,0,0,0,0,296.8,12.9,0,100,4.227,4.214,0,0,0,0,4.424,64.58,34.84307362154,2.624672,6,P-GPS,
5000,2022-08-29 21:42:55,-34.9185033980912,-56.1684031027013,2.624672,2.6902888,32.15278482154,34.84307362154,3.937008,0,0.71156826424,1.3471621166,25,5,8.461,34.84307362154,2.624672,0,0.8721128888,0,0,0,283.1, 0.5, 0.5,0,0,1024,1024,1024,1024,0,0,0,0,296.8,12.9,0,100,4.227,4.214,0,0,0,0,4.424,64.58,34.84307362154,2.624672,6,P-GPS,
5100,2022-08-29 21:42:55,-34.918503394017,-56.1684030904863,2.624672,2.6902888,32.15278482154,34.84307362154,3.937008,0,0.7076443796,1.35110568628,25,5,8.461,34.84307362154,2.624672,0,0.8721128888,0,0,0,283, 0.2, 0.3,0,0,1024,1024,1024,1024,0,0,0,0,296.8,12.9,0,100,4.227,4.214,0,0,0,0,4.424,64.58,34.84307362154,2.624672,6,P-GPS,
5200,2022-08-29 21:42:55,-34.9185033611055,-56.1684031012621,2.624672,2.6902888,32.15278482154,34.84307362154,3.937008,0,0.70493112492,1.36354006988,25,5,8.461,34.84307362154,2.624672,0,0.8721128888,0,0,0,282.9, 0, 0,0,0,1024,1024,1024,1024,0,0,0,0,296.8,12.9,0,100,4.227,4.214,0,0,0,0,4.424,64.58,34.84307362154,2.624672,6,P-GPS,
5300,2022-08-29 21:42:55,-34.9185033287378,-56.1684031136822,2.624672,2.6902888,32.15278482154,34.84307362154,3.937008,0,0.70295605924,1.3759186792,25,5,8.461,34.84307362154,2.624672,0,0.8721128888,0,0,0,282.8, 0, 0,0,0,1024,1024,1024,1024,0,0,0,0,296.8,12.9,0,100,4.227,4.214,0,0,0,0,4.424,64.58,34.84307362154,2.624672,6,P-GPS,
5400,2022-08-29 21:42:55,-34.9185032724043,-56.1684033085553,2.624672,2.6902888,32.15278482154,34.84307362154,3.937008,0,0.74753611316,1.43773626648,25,5,8.404,34.84307362154,2.624672,0,0.8721128888,0,0,0,282.5, 0.2, -0.1,0,0,1024,1024,1024,1024,0,0,0,0,296.8,12.9,0,100,4.21,4.196,0,0,0,0,4.061,64.58,34.84307362154,2.624672,6,P-GPS,
5500,2022-08-29 21:42:55,-34.9185032723997,-56.1684033169451,2.624672,2.6902888,32.15278482154,34.84307362154,3.937008,0,0.74984910536,1.44024610908,25,5,8.404,34.84307362154,2.624672,0,0.8721128888,0,0,0,282.4, 0.3, -0.3,0,0,1024,1024,1024,1024,0,0,0,0,296.8,12.9,0,100,4.21,4.196,0,0,0,0,4.061,64.58,34.84307362154,2.624672,6,P-GPS,
5600,2022-08-29 21:42:55,-34.9185032508798,-56.1684033118046,2.624672,2.6902888,32.15278482154,34.84307362154,3.937008,0,0.74543309472,1.448244797,25,5,8.404,34.84307362154,2.624672,0,0.8721128888,0,0,0,282.3, 0.2, -0.3,0,0,1024,1024,1024,1024,0,0,0,0,296.8,12.9,0,100,4.21,4.196,0,0,0,0,4.061,64.58,34.84307362154,2.624672,6,P-GPS,"Punto de origen actualizado. Altitud de RPO establecida en 60m (Code: 3000001)"
5700,2022-08-29 21:42:56,-34.9185032389952,-56.1684033034763,2.624672,2.6902888,32.15278482154,34.84307362154,3.937008,0,0.74149280588,1.453248078,25,5,8.404,34.84307362154,2.624672,0,0.8721128888,0,0,0,282.1, 0, -0.3,0,0,1024,1024,1024,1024,0,0,0,0,296.8,12.9,0,100,4.21,4.196,0,0,0,0,4.061,64.58,34.84307362154,2.624672,6,P-GPS,
5800,2022-08-29 21:42:56,-34.9185032815857,-56.1684032962711,2.624672,2.6902888,32.15278482154,34.84307362154,3.937008,0,0.7454560606,1.46893377404,25,5,8.404,34.84307362154,2.624672,0,0.8721128888,0,0,0,281.8, 0, -0.2,0,0,1024,1024,1024,1019,0,0,0,-1,296.8,12.9,0,100,4.21,4.196,0,0,0,0,4.061,64.58,34.84307362154,2.624672,6,P-GPS,
5900,2022-08-29 21:42:56,-34.9185033681271,-56.1684033624734,2.624672,2.6902888,32.15278482154,34.84307362154,3.937008,0,0.77635501172,1.50620739728,25,5,8.404,34.84307362154,2.624672,0,0.8721128888,0,0,0,281.7, 0, 0,0,0,1024,1024,1024,781,0,0,0,-37,296.8,12.9,0,100,4.21,4.196,0,0,0,0,4.061,64.58,34.84307362154,2.624672,6,P-GPS,
6000,2022-08-29 21:42:56,-34.9185033883314,-56.1684033600848,2.624672,2.6902888,32.15278482154,34.84307362154,3.937008,0,0.77881564172,1.51361225316,25,5,8.404,34.84307362154,2.624672,0,0.8721128888,0,0,0,281.5, -0.1, 0.1,0,0,1024,1024,1024,657,0,0,0,-56,296.7,12.9,0,100,4.21,4.196,0,0,0,0,4.061,64.58,34.84307362154,2.624672,6,P-GPS,
6100,2022-08-29 21:42:56,-34.9185034025488,-56.1684033603146,2.624672,2.6902888,32.15278482154,34.84307362154,3.937008,0,0.78109910636,1.5187992612,24,5,8.404,34.84307362154,2.624672,0,0.8721128888,0,0,0,281.2, -0.1, 0,0,0,1024,1024,1024,712,0,0,0,-47,296,12.9,0,100,4.21,4.196,0,0,0,0,4.061,64.58,34.84307362154,2.624672,6,P-GPS,"Entorno demasiado oscuro. El posicionamiento visual no será preciso. Vuela con precaución (Code: 180032)"
6200,2022-08-29 21:42:56,-34.9185033977774,-56.1684033667584,2.624672,2.6902888,32.15278482154,34.84307362154,3.937008,0,0.78209320088,1.52139768648,24,5,8.404,34.84307362154,2.624672,0,0.8721128888,0,0,0,280, 0, 0.1,0,0,1024,1024,1024,849,0,0,0,-27,294.6,12.9,0,100,4.21,4.196,0,0,0,0,4.061,64.58,34.84307362154,2.624672,6,P-GPS,
6300,2022-08-29 21:42:56,-34.9185033887151,-56.1684034135001,2.624672,2.6902888,32.15278482154,34.84307362154,3.937008,0,0.79336288628,1.53576776568,24,5,8.404,34.84307362154,2.624672,0,0.8721128888,0,0,0,278.4, 0.2, 0.1,0,0,1024,1024,1024,1024,0,0,0,0,293.2,12.9,0,100,4.21,4.196,0,0,0,0,4.061,64.58,34.84307362154,2.624672,6,P-GPS,
6400,2022-08-29 21:42:56,-34.9185034098141,-56.1684034219238,2.624672,2.6902888,32.15278482154,34.84307362154,3.937008,0,0.79889438252,1.54386815964,24,5,8.397,34.84307362154,2.624672,0,0.8721128888,0,0,0,277.3, 0.3, 0,0,0,1024,1024,1024,1024,0,0,0,0,292.4,12.9,0,99,4.206,4.194,0,0,0,0,4.07,64.58,34.84307362154,2.624672,6,P-GPS,
6500,2022-08-29 21:42:56,-34.9185034219719,-56.1684034264791,2.624672,2.6902888,32.15278482154,34.84307362154,3.937008,0,0.8020177422,1.5485072674,24,5,8.397,34.84307362154,2.624672,0,0.8721128888,0,0,0,276.7, 0.4, -0.1,0,0,1024,1024,1024,1024,0,0,0,0,292.1,12.9,0,99,4.206,4.194,0,0,0,0,4.07,64.58,34.84307362154,2.624672,6,P-GPS,
6600,2022-08-29 21:42:56,-34.918503401729,-56.1684034223626,2.624672,2.6902888,32.15278482154,34.84307362154,3.937008,0,0.79776249272,1.55599414428,24,5,8.397,34.84307362154,2.624672,0,0.8721128888,0,0,0,276.4, 0.3, -0.3,0,0,1024,1024,1024,1024,0,0,0,0,292,12.9,0,99,4.206,4.194,0,0,0,0,4.07,64.58,34.84307362154,2.624672,6,P-GPS,
6700,2022-08-29 21:42:57,-34.9185034263491,-56.1684034392622,2.624672,2.6902888,32.15278482154,34.84307362154,3.937008,0,0.80615816228,1.56630254356,24,5,8.397,34.84307362154,2.624672,0,0.8721128888,0,0,0,276.2, 0.3, -0.2,0,0,1024,1024,1024,1024,0,0,0,0,292,12.9,0,99,4.206,4.194,0,0,0,0,4.07,64.58,34.84307362154,2.624672,6,P-GPS,
6800,2022-08-29 21:42:57,-34.91850344878,-56.1684034263903,2.624672,2.6902888,32.15278482154,34.84307362154,3.937008,0,0.80623690244,1.57534781944,24,5,8.397,34.84307362154,2.624672,0,0.8721128888,0,0,0,276.1, 0, -0.3,0,0,1024,1024,1024,1024,0,0,0,0,292,12.9,0,99,4.206,4.194,0,0,0,0,4.07,64.58,34.84307362154,2.624672,6,P-GPS,
6900,2022-08-29 21:42:57,-34.9185034671678,-56.1684034173058,2.624672,2.6902888,32.15278482154,34.84307362154,3.937008,0,0.80676839852,1.58258535248,24,5,8.397,34.84307362154,2.624672,0,0.8721128888,0,0,0,276.1, 0, -0.3,0,0,1024,1024,1024,1024,0,0,0,0,292,12.9,0,99,4.206,4.194,0,0,0,0,4.07,64.58,34.84307362154,2.624672,6,P-GPS,
7000,2022-08-29 21:42:57,-34.9185034621044,-56.1684034150229,2.624672,2.6902888,32.15278482154,34.84307362154,3.937008,0,0.8053313906,1.58455385648,24,5,8.397,34.84307362154,2.624672,0,0.8721128888,0,0,0,275.9, 0, -0.4,0,0,1067,1024,1024,1024,7,0,0,0,292,12.9,0,99,4.206,4.194,0,0,0,0,4.07,64.58,34.84307362154,2.624672,6,P-GPS,
7100,2022-08-29 21:42:57,-34.918503513736,-56.1684034150007,2.624672,2.7230972,32.11997642154,34.84307362154,3.937008,0,0.81388454048,1.60339243976,24,5,8.397,34.84307362154,2.624672,0,0.8721128888,0,0,0,275.9, 0.2, -0.5,0,0,1229,1024,1024,1024,31,0,0,0,292,12.9,0,99,4.206,4.194,0,0,0,0,4.07,64.58,34.84307362154,2.624672,6,P-GPS,
7200,2022-08-29 21:42:57,-34.9185035048636,-56.1684034330457,2.624672,2.7230972,32.11997642154,34.84307362154,3.937008,0,0.81718506552,1.60968837172,24,5,8.397,34.84307362154,2.624672,0,0.8721128888,0,0,0,275.9, 0.1, -0.2,0,0,1550,1024,1024,1024,80,0,0,0,292,12.9,0,99,4.206,4.194,0,0,0,0,4.07,64.58,34.84307362154,2.624672,6,P-GPS,
7300,2022-08-29 21:42:57,-34.91850349419,-56.1684034656773,2.624672,2.6902888,32.15278482154,34.84307362154,3.937008,0,0.82412076128,1.62019690224,24,5,8.397,34.84307362154,2.624672,0,0.8721128888,0,0,0,275.7, -1.6, -0.2,0,0,1611,1024,1024,1024,89,0,0,0,292,12.9,0,99,4.206,4.194,0,0,0,0,4.07,64.58,34.84307362154,2.624672,6,P-GPS,
7400,2022-08-29 21:42:57,-34.9185034794856,-56.1684035878808,2.624672,2.7230972,32.11997642154,34.84307362154,3.937008,0,0.85463913496,1.65714900316,24,5,8.4,34.84307362154,2.624672,0,0.8721128888,0,0,0,275.7, -7.5, 0,0,0,1611,1024,1024,1024,89,0,0,0,292,12.9,0,99,4.205,4.193,0,0,0,0,3.97,64.76,34.84307362154,2.624672,6,P-GPS,
7500,2022-08-29 21:42:57,-34.918503454388,-56.1684038183398,2.624672,2.7230972,32.11997642154,34.84307362154,3.937008,0.447388,0.91385829696,1.72669953032,24,5,8.4,34.84307362154,2.624672,0.447388,0.91385829696,0,-0.447388,0,275.6, -12.5, 0,0,0,1623,1024,1024,1024,91,0,0,0,292,12.9,0,99,4.205,4.193,0,0,0,0,3.97,64.76,34.84307362154,2.624672,6,P-GPS,
7600,2022-08-29 21:42:57,-34.9185034149316,-56.1684043359094,2.624672,2.7230972,32.11997642154,34.84307362154,3.937008,0.894776,1.05345803896,1.88220478464,24,5,8.4,34.84307362154,2.624672,0.894776,1.05345803896,0,-0.894776,0,275.6, -14.4, 0.2,0,0,1622,1024,1024,1024,91,0,0,0,292,9.2,0,99,4.205,4.193,0,0,0,0,3.97,64.76,34.84307362154,2.624672,6,P-GPS,
7700,2022-08-29 21:42:57,-34.9185033546303,-56.1684049877146,2.624672,2.7559056,32.08716802154,34.84307362154,3.937008,1.565858,1.233677861,2.07843838672,24,5,8.4,34.84307362154,2.624672,1.565858,1.233677861,0,-1.565858,0,275.6, -14.5, -0.3,0,0,1627,1024,1024,1024,91,0,0,0,292,8.5,0,99,4.205,4.193,0,0,0,0,3.97,64.76,34.84307362154,2.624672,6,P-GPS,
7800,2022-08-29 21:42:58,-34.9185033120204,-56.168405975318,2.624672,2.788714,32.05435962154,34.84307362154,3.937008,2.0356154,1.51780844752,2.37430453792,24,5,8.4,34.84307362154,2.624672,2.0356154,1.51780844752,0.223694,-2.013246,0,275.6, -14.4, -0.6,0,0,1626,1024,1024,1020,91,0,0,-1,292,8.5,0,99,4.205,4.193,0,0,0,0,3.97,64.76,34.84307362154,2.624672,6,P-GPS,
7900,2022-08-29 21:42:58,-34.9185032526598,-56.1684071622245,2.624672,2.8215224,32.02155122154,34.84307362154,3.937008,2.684328,1.86365819612,2.73004273828,24,5,8.4,34.84307362154,2.624672,2.684328,1.86365819612,0.223694,-2.684328,0,275.5, -14.2, -1,0,0,1625,1024,1024,588,91,0,0,-66,292,8.5,0,99,4.205,4.193,0,0,0,0,3.97,64.76,34.84307362154,2.624672,6,P-GPS,
8000,2022-08-29 21:42:58,-34.9185032671466,-56.168408752128,2.624672,2.8543308,31.98874282154,34.84307362154,3.937008,3.131716,2.33557750256,3.20571532568,24,5,8.4,34.84307362154,2.624672,3.131716,2.33557750256,0.223694,-3.131716,0,275.5, -13.8, -0.6,0,0,1622,1024,1024,561,91,0,0,-70,291.8,8.5,0,99,4.205,4.193,0,0,0,0,3.97,64.76,34.84307362154,2.624672,6,P-GPS,
8100,2022-08-29 21:42:58,-34.9185031628615,-56.1684104458295,2.624672,2.8871392,31.95593442154,34.84307362154,3.937008,3.579104,2.83551190176,3.7138452632,24,5,8.4,34.84307362154,2.624672,3.579104,2.83551190176,0.223694,-3.579104,0,274.7, -13.5, -0.1,0,0,1577,1024,1024,653,84,0,0,-56,290.3,8.5,0,99,4.205,4.193,0,0,0,0,3.97,64.76,34.84307362154,2.624672,6,P-GPS,
8200,2022-08-29 21:42:58,-34.9185030498957,-56.168412530189,2.624672,2.9855644,31.85750922154,34.84307362154,3.937008,4.026492,3.4543636276,4.3387796664,24,5,8.4,34.84307362154,2.624672,4.026492,3.4543636276,0.223694,-4.026492,0,272.7, -13.4, -0.2,0,0,1577,1024,1024,653,84,0,0,-56,288,8.5,0,99,4.205,4.193,0,0,0,0,3.97,64.76,34.84307362154,2.624672,6,P-GPS,
8300,2022-08-29 21:42:58,-34.9185029327674,-56.1684147356067,2.624672,3.0183728,31.82470082154,34.84307362154,3.937008,4.47388,4.111220604,4.9999345432,24,5,8.4,34.84307362154,2.624672,4.47388,4.111220604,0.223694,-4.47388,0,270.5, -12.4, -0.5,0,0,1537,1024,1024,594,78,0,0,-65,285.9,8.5,0,99,4.205,4.193,0,0,0,0,3.97,64.76,34.84307362154,2.624672,6,P-GPS,
8400,2022-08-29 21:42:58,-34.9185028965717,-56.1684177632727,2.624672,3.116798,31.72627562154,34.84307362154,3.937008,4.921268,5.0159450424,5.9058072756,24,5,8.4,34.84307362154,2.624672,4.921268,5.0159450424,0.223694,-4.921268,0,268.6, -11, 0,0,0,1365,1024,1024,535,52,0,0,-74,283.9,8.5,0,99,4.205,4.193,0,0,0,0,3.97,64.76,34.84307362154,2.624672,6,P-GPS,
8500,2022-08-29 21:42:58,-34.9185027978367,-56.1684204145084,2.624672,3.1824148,31.66065882154,34.84307362154,4.265092,5.368656,5.8079726268,6.6997705556,24,5,8.383,34.84307362154,2.624672,5.368656,5.8079726268,0.223694,-5.368656,0,266.5, -9.3, 0.1,0,0,1024,1024,1024,694,0,0,0,-50,281.6,8.5,0,99,4.194,4.181,0,0,0,0,4.018,64.76,34.84307362154,2.624672,6,P-GPS,
8600,2022-08-29 21:42:58,-34.9185027655563,-56.1684233382666,2.624672,3.2480316,31.59504202154,34.84307362154,4.265092,5.368656,6.6823164868,7.5745409248,24,5,8.383,34.84307362154,2.624672,5.368656,6.6823164868,0.223694,-5.368656,0,263.9, -4.5, -0.3,0,0,1024,1024,1024,950,0,0,0,-11,279,8.5,0,99,4.194,4.181,0,0,0,0,4.018,64.76,34.84307362154,2.624672,6,P-GPS,
8700,2022-08-29 21:42:58,-34.9185027381333,-56.168426159854,2.624672,3.3464568,31.49661682154,34.84307362154,4.265092,5.368656,7.5262141516,8.4187010568,24,5,8.383,34.84307362154,2.624672,5.368656,7.5262141516,0.223694,-5.368656,0,261.3, 12.2, -2.8,0,0,1024,1024,1024,1015,0,0,0,-1,277.6,8.5,0,99,4.194,4.181,0,0,0,0,4.018,64.76,34.84307362154,2.624672,6,P-GPS,
8800,2022-08-29 21:42:59,-34.9185029527765,-56.168429202539,2.624672,3.4120736,31.43100002154,34.84307362154,4.265092,4.697574,8.4376315036,9.33234938,24,5,8.383,34.84307362154,2.624672,5.368656,8.4376315036,0.223694,-4.697574,0,259.7, 18.6, -5.3,0,0,1024,1024,1024,898,0,0,0,-19,277.2,8.5,0,99,4.194,4.181,0,0,0,0,4.018,64.76,34.84307362154,2.624672,6,P-GPS,
8900,2022-08-29 21:42:59,-34.9185029451704,-56.1684314722222,2.624672,3.4776904,31.36538322154,34.84307362154,4.265092,3.802798,9.116470108,10.0113520264,24,5,8.383,34.84307362154,2.624672,5.368656,9.116470108,0.223694,-3.802798,0,259.5, 18.7, -5.6,0,0,1024,1024,1024,874,0,0,0,-23,277,8.5,0,99,4.194,4.181,0,0,0,0,4.018,64.76,34.84307362154,2.624672,6,P-GPS,
9000,2022-08-29 21:42:59,-34.9185029584125,-56.1684334004705,2.624672,3.5433072,31.29976642154,34.84307362154,4.265092,2.908022,9.6933073968,10.5882221236,24,5,8.383,34.84307362154,2.624672,5.368656,9.6933073968,0,-2.908022,0,259.5, 17.1, -5.3,0,0,1024,1024,1024,804,0,0,0,-33,276.8,8.5,0,99,4.194,4.181,0,0,0,0,4.018,64.76,34.84307362154,2.624672,6,P-GPS,
9100,2022-08-29 21:42:59,-34.91850299262,-56.1684348747749,2.624672,3.608924,31.23414962154,34.84307362154,4.265092,2.23694,10.1345475684,11.0294622952,24,5,8.383,34.84307362154,2.624672,5.368656,10.1345475684,0,-2.23694,0,259.5, 14.2, -4.5,0,0,1024,1024,1024,804,0,0,0,-33,276.5,8.5,0,99,4.194,4.181,0,0,0,0,4.018,64.76,34.84307362154,2.624672,6,P-GPS,
9200,2022-08-29 21:42:59,-34.918502996078,-56.1684360578052,2.624672,3.608924,31.23414962154,34.84307362154,4.265092,1.565858,10.4884189708,11.3833993144,24,5,8.383,34.84307362154,2.624672,5.368656,10.4884189708,0,-1.565858,0,259.4, 10.9, -3.4,0,0,1024,611,1024,640,0,-63,0,-58,276.1,8.5,0,99,4.194,4.181,0,0,0,0,4.018,64.76,34.84307362154,2.624672,6,P-GPS,
9300,2022-08-29 21:42:59,-34.9185030168706,-56.1684368959998,2.624672,3.6417324,31.20134122154,34.84307362154,4.593176,1.342164,10.7392719972,11.6342523408,24,5,8.383,34.84307362154,2.624672,5.368656,10.7392719972,0,-1.342164,0,256.3, 7, -4.8,0,0,1024,389,1024,668,0,-96,0,-54,274.9,8.5,0,99,4.194,4.181,0,0,0,0,4.018,64.76,34.84307362154,2.624672,6,P-GPS,
9400,2022-08-29 21:42:59,-34.9185031575083,-56.1684373828131,2.624672,3.6417324,31.20134122154,34.84307362154,4.593176,0.9171454,10.8859255452,11.7886814796,24,5,8.383,34.84307362154,2.624672,5.368656,10.8859255452,-0.223694,-0.894776,0,254.8, 4.4, -11.3,0,0,1024,364,1024,853,0,-100,0,-26,273.2,8.5,0,99,4.194,4.181,0,0,0,0,4.018,64.76,34.84307362154,2.624672,6,P-GPS,
9500,2022-08-29 21:42:59,-34.9185034093879,-56.1684376851307,2.624672,3.6745408,31.16853282154,34.84307362154,4.593176,1.11847,10.9788061256,11.9176184916,23,5,8.364,34.84307362154,2.624672,5.368656,10.9788061256,-0.671082,-0.894776,0,253, 2.9, -16.8,0,0,1024,364,1024,963,0,-100,0,-9,271.8,8.5,0,99,4.186,4.174,0,0,0,0,4.131,64.76,34.84307362154,2.624672,6,P-GPS,
9600,2022-08-29 21:42:59,-34.9185038960431,-56.1684377357408,2.624672,3.7073492,31.13572442154,34.84307362154,4.593176,1.2079476,11.0008533704,12.0958337204,23,5,8.364,34.84307362154,2.624672,5.368656,11.0008533704,-1.11847,-0.447388,0,252, 2.3, -18.3,0,0,1024,364,1024,1024,0,-100,0,0,271.2,8.5,0,99,4.186,4.174,0,0,0,0,4.131,64.76,34.84307362154,2.624672,6,P-GPS,
9700,2022-08-29 21:43:00,-34.918504477607,-56.1684367695113,2.624672,3.6745408,31.16853282154,34.84307362154,4.593176,1.8119214,10.7244426004,12.454396724,24,5,8.364,34.84307362154,2.624672,5.368656,11.0008533704,-1.789552,-0.223694,0,251.7, 2.1, -17.9,0,0,1024,364,1041,1125,0,-100,3,15,271,8.5,0,99,4.186,4.174,0,0,0,0,4.131,64.76,34.84307362154,2.624672,6,P-GPS,
9800,2022-08-29 21:43:00,-34.9185054342313,-56.1684366449035,2.624672,3.6745408,31.16853282154,34.84307362154,4.593176,2.460634,10.7167326264,12.8054137956,24,5,8.364,34.84307362154,2.624672,5.368656,11.0008533704,-2.460634,0,0,251.5, 1.9, -17.4,0,0,1024,797,1059,1355,0,-34,5,50,270.9,8.5,0,99,4.186,4.174,0,0,0,0,4.131,64.76,34.84307362154,2.624672,6,P-GPS,
9900,2022-08-29 21:43:00,-34.9185065515349,-56.1684364030065,2.624672,3.7073492,31.13572442154,34.84307362154,4.593176,2.908022,10.6937011296,13.2194229952,24,5,8.364,34.84307362154,2.624672,5.368656,11.0008533704,-2.908022,0.223694,0,251.5, 1.6, -16.8,0,0,1024,797,1059,1355,0,-34,5,50,271,8.5,0,99,4.186,4.174,0,0,0,0,4.131,64.76,34.84307362154,2.624672,6,P-GPS,
10000,2022-08-29 21:43:00,-34.9185079101559,-56.1684360970844,2.624672,3.7073492,31.13572442154,34.84307362154,4.593176,3.6014734,10.6837929928,13.7234912528,24,5,8.364,34.84307362154,2.624672,5.368656,11.0008533704,-3.579104,0.447388,0,251.9, 1.6, -11.1,0,0,1024,1024,1096,1373,0,0,11,53,271.7,8.5,0,99,4.186,4.174,0,0,0,0,4.131,64.76,34.84307362154,2.624672,6,P-GPS,
10100,2022-08-29 21:43:00,-34.9185093621326,-56.1684356247729,2.624672,3.7401576,31.10291602154,34.84307362154,4.593176,3.6014734,10.6572181888,14.2717852336,24,5,8.364,34.84307362154,2.624672,5.368656,11.0008533704,-3.579104,0.447388,0,253.5, 1.8, 7.4,0,0,1265,1024,1024,1024,37,0,0,0,273.1,8.5,0,99,4.186,4.174,0,0,0,0,4.131,64.76,34.84307362154,2.624672,6,P-GPS,
10200,2022-08-29 21:43:00,-34.9185109096115,-56.1684352624107,2.624672,3.7401576,31.10291602154,34.84307362154,4.593176,3.1540854,10.7003284264,14.8466868268,24,5,8.364,34.84307362154,2.624672,5.368656,11.0008533704,-3.131716,0.447388,0,254.2, 1.3, 9.1,0,0,1535,1024,1024,1024,77,0,0,0,274,8.5,0,99,4.186,4.174,0,0,0,0,4.131,64.76,34.84307362154,2.624672,6,P-GPS,
10300,2022-08-29 21:43:00,-34.9185122105759,-56.1684349503922,2.952756,4.10105,31.07010762154,35.17115762154,4.265092,2.5053728,10.7581368272,15.3304138764,24,5,8.364,35.17115762154,2.952756,5.368656,11.0008533704,-2.460634,0.447388,0,254.3, -3.8, 5.5,0,0,1574,1024,1024,1024,83,0,0,0,274.4,8.5,0,99,4.186,4.174,0,0,0,0,4.131,64.76,35.17115762154,2.952756,6,P-GPS,
10400,2022-08-29 21:43:00,-34.9185133262872,-56.1684347246374,2.952756,4.10105,31.07010762154,35.17115762154,4.265092,2.460634,10.8363520528,15.7430451232,24,5,8.364,35.17115762154,2.952756,5.368656,11.0008533704,-2.460634,0,0,254.6, -10.1, 2.9,0,0,1571,1024,1024,1024,83,0,0,0,274.5,8.5,0,99,4.186,4.174,0,0,0,0,4.131,64.76,35.17115762154,2.952756,6,P-GPS,
10500,2022-08-29 21:43:00,-34.9185143223339,-56.1684347975539,2.952756,4.1338584,31.03729922154,35.17115762154,4.265092,2.23694,10.9943244988,16.107119938,24,5,8.356,35.17115762154,2.952756,5.368656,11.0008533704,-2.23694,-0.223694,0,254.7, -12.6, 1.6,0,0,1543,1024,1024,1111,79,0,0,13,274.5,8.5,0,99,4.188,4.175,0,0,0,0,4.247,64.94,35.17115762154,2.952756,6,P-GPS,
10600,2022-08-29 21:43:00,-34.918515332347,-56.1684350948042,2.952756,4.1666668,31.00449082154,35.17115762154,4.265092,2.23694,11.2250331676,16.4861881916,24,5,8.356,35.17115762154,2.952756,5.368656,11.2250331676,-2.23694,-0.671082,0,254.9, -12.8, 0.2,0,0,1408,1024,1024,1519,58,0,0,75,274.5,8.5,0,99,4.188,4.175,0,0,0,0,4.247,64.94,35.17115762154,2.952756,6,P-GPS,
10700,2022-08-29 21:43:00,-34.9185162829088,-56.1684355999015,2.952756,4.1994752,30.97168242154,35.17115762154,4.265092,2.5053728,11.5099741216,16.864501852,24,5,8.356,35.17115762154,2.952756,5.368656,11.5099741216,-2.23694,-1.11847,0,255, -12.4, -0.4,0,0,1408,1024,1024,1519,58,0,0,75,274.6,8.5,0,99,4.188,4.175,0,0,0,0,4.247,64.94,35.17115762154,2.952756,6,P-GPS,
10800,2022-08-29 21:43:01,-34.9185172530682,-56.1684363541779,2.952756,4.2322836,30.93887402154,35.17115762154,4.265092,2.908022,11.8697838444,17.28428533,24,5,8.356,35.17115762154,2.952756,5.368656,11.8697838444,-2.460634,-1.565858,0,255.6, -10.3, -0.8,0,0,1024,1024,1024,1593,0,0,0,86,276.2,8.5,0,99,4.188,4.175,0,0,0,0,4.247,64.94,35.17115762154,2.952756,6,P-GPS,
10900,2022-08-29 21:43:01,-34.91851817214,-56.1684372410863,2.952756,4.265092,30.90606562154,35.17115762154,4.265092,3.0422384,12.2597444868,17.7118772072,23,5,8.356,35.17115762154,2.952756,5.368656,12.2597444868,-2.460634,-1.789552,0,257.9, -2.5, -0.7,0,0,1024,1024,1024,1542,0,0,0,78,279.3,8.5,0,99,4.188,4.175,0,0,0,0,4.247,64.94,35.17115762154,2.952756,6,P-GPS,
11000,2022-08-29 21:43:01,-34.9185191739489,-56.1684387785382,3.28084,4.6587928,30.84044882154,35.49924162154,4.265092,2.8632832,12.837598836,18.299377226,23,5,8.356,35.49924162154,3.28084,5.368656,12.837598836,-2.23694,-1.789552,0,261.9, 7.6, 5.5,0,0,1024,1024,1024,1454,0,0,0,65,282.8,8.5,0,99,4.188,4.175,0,0,0,0,4.247,64.94,35.49924162154,3.28084,6,P-GPS,
11100,2022-08-29 21:43:01,-34.9185199962692,-56.1684396919113,3.28084,4.7244096,30.77483202154,35.49924162154,4.265092,2.23694,13.2211618404,18.7051843256,24,5,8.356,35.49924162154,3.28084,5.368656,13.2211618404,-1.789552,-1.342164,0,265.1, 9, 7.4,0,0,1024,1024,1024,1053,0,0,0,4,285.8,8.5,0,99,4.188,4.175,0,0,0,0,4.247,64.94,35.49924162154,3.28084,6,P-GPS,
11200,2022-08-29 21:43:01,-34.9185206775157,-56.1684405338098,3.28084,4.757218,30.74202362154,35.49924162154,4.265092,1.9237684,13.5621395416,19.0590229196,24,5,8.356,35.49924162154,3.28084,5.368656,13.5621395416,-1.565858,-1.11847,0,267.7, 7.5, 7.1,0,0,1024,1024,1024,1024,0,0,0,0,287.8,8.5,0,99,4.188,4.175,0,0,0,0,4.247,64.94,35.49924162154,3.28084,6,P-GPS,
11300,2022-08-29 21:43:01,-34.918521175064,-56.1684412145846,3.28084,4.757218,30.74202362154,35.49924162154,4.265092,1.4316416,13.8287406,19.331857574,24,5,8.356,35.49924162154,3.28084,5.368656,13.8287406,-1.11847,-0.894776,0,269, 6.3, 5.7,0,0,1024,1193,1024,1024,0,26,0,0,288.7,8.5,0,99,4.188,4.175,0,0,0,0,4.247,64.94,35.49924162154,3.28084,6,P-GPS,
11400,2022-08-29 21:43:01,-34.9185215023747,-56.1684423185446,3.28084,4.8228348,30.67640682154,35.49924162154,4.265092,0.9395148,14.1750660704,19.6830386876,24,5,8.356,35.49924162154,3.28084,5.368656,14.1750660704,-0.671082,-0.671082,0,269.6, 5.3, 4.4,0,0,1024,1536,1024,1024,0,78,0,0,289,8.5,0,99,4.188,4.175,0,0,0,0,4.247,64.94,35.49924162154,3.28084,6,P-GPS,
11500,2022-08-29 21:43:01,-34.9185217698157,-56.1684428442087,3.28084,4.8228348,30.67640682154,35.49924162154,4.265092,0.8052984,14.3599414044,19.868110872,25,5,8.365,35.49924162154,3.28084,5.368656,14.3599414044,-0.447388,-0.671082,0,269.7, 4.4, 4.2,0,0,1024,1337,1024,1053,0,47,0,4,289,8.5,0,99,4.186,4.18,0,0,0,0,4.145,64.94,35.49924162154,3.28084,6,P-GPS,
11600,2022-08-29 21:43:01,-34.9185219110246,-56.1684431907161,3.28084,4.8228348,30.67640682154,35.49924162154,4.265092,0.4921268,14.475558206,19.9838917156,25,5,8.365,35.49924162154,3.28084,5.368656,14.475558206,-0.223694,-0.447388,0,270, 3.4, 10,0,0,1024,1337,1024,1053,0,47,0,4,289,8.5,0,99,4.186,4.18,0,0,0,0,4.145,64.94,35.49924162154,3.28084,6,P-GPS,"Punto de origen actualizado. Altitud de RPO establecida en 60m (Code: 3000001)"
11700,2022-08-29 21:43:01,-34.9185218888387,-56.1684434524851,3.28084,4.8228348,30.67640682154,35.49924162154,4.265092,0.447388,14.5399282868,20.0625990672,25,5,8.365,35.49924162154,3.28084,5.368656,14.5399282868,0,-0.447388,0,270, 2.8, 10.6,0,0,1024,1024,1024,1658,0,0,0,96,289,8.5,0,99,4.186,4.18,0,0,0,0,4.145,64.94,35.49924162154,3.28084,6,P-GPS,
11800,2022-08-29 21:43:02,-34.9185213557838,-56.1684432492666,3.28084,4.8228348,30.67640682154,35.49924162154,4.265092,0.6263432,14.3928154212,20.2663720396,25,5,8.365,35.49924162154,3.28084,5.368656,14.5399282868,0.447388,-0.447388,0,269.9, 2.6, 1.6,0,0,1024,1024,1024,1684,0,0,0,100,290.2,8.5,0,99,4.186,4.18,0,0,0,0,4.145,64.94,35.49924162154,3.28084,6,P-GPS,
11900,2022-08-29 21:43:02,-34.918521010767,-56.1684433204487,3.28084,4.8228348,30.67640682154,35.49924162154,4.265092,0.4921268,14.3517721128,20.394029524,25,5,8.365,35.49924162154,3.28084,5.368656,14.5399282868,0.447388,-0.223694,0,272.2, 3, -2.4,0,0,1093,1024,1024,1147,10,0,0,19,294.1,8.5,0,99,4.186,4.18,0,0,0,0,4.145,64.94,35.49924162154,3.28084,6,P-GPS,
12000,2022-08-29 21:43:02,-34.918520685329,-56.1684433898128,2.952756,4.4947508,30.67640682154,35.17115762154,4.265092,0.4921268,14.3146001956,20.5145675856,25,5,8.365,35.49924162154,3.28084,5.368656,14.5399282868,0.447388,-0.223694,0,276.5, 3, -2.3,0,0,1071,950,1024,1024,7,-11,0,0,298.1,8.5,0,99,4.186,4.18,0,0,0,0,4.145,64.94,35.17115762154,2.952756,6,P-GPS,
12100,2022-08-29 21:43:02,-34.9185204101138,-56.1684434252002,2.952756,4.4619424,30.70921522154,35.17115762154,4.265092,0.4921268,14.2776907456,20.6155518408,25,5,8.365,35.49924162154,3.28084,5.368656,14.5399282868,0.447388,-0.223694,0,279.4, 2, -1.2,0,0,1048,938,1024,1305,4,-13,0,43,299.5,8.5,0,99,4.186,4.18,0,0,0,0,4.145,64.94,35.17115762154,2.952756,6,P-GPS,
12200,2022-08-29 21:43:02,-34.9185201291242,-56.168443481311,2.952756,4.4619424,30.70921522154,35.17115762154,4.265092,0.223694,14.2459978312,20.7194232352,25,5,8.365,35.49924162154,3.28084,5.368656,14.5399282868,0.223694,0,0,280.4, 1.6, -1.7,0,0,1046,963,1024,1684,3,-9,0,100,300.2,8.5,0,99,4.186,4.18,0,0,0,0,4.145,64.94,35.17115762154,2.952756,6,P-GPS,
12300,2022-08-29 21:43:02,-34.9185199187259,-56.1684435505133,2.952756,4.4947508,30.67640682154,35.17115762154,4.265092,0.223694,14.229987332,20.7989507968,25,5,8.365,35.49924162154,3.28084,5.368656,14.5399282868,0.223694,0,0,281.1, 1.6, -1.8,0,0,1024,975,1024,1684,0,-7,0,100,301.5,8.5,0,99,4.186,4.18,0,0,0,0,4.145,64.94,35.17115762154,2.952756,6,P-GPS,
12400,2022-08-29 21:43:02,-34.9185196828442,-56.1684436376233,2.952756,4.4947508,30.67640682154,35.17115762154,4.265092,0.223694,14.2150923184,20.8888458128,25,5,8.365,35.49924162154,3.28084,5.368656,14.5399282868,0.223694,0,0,283.5, 1.3, -1.8,0,0,1024,973,1024,1353,0,-8,0,50,305.4,8.5,0,99,4.186,4.18,0,0,0,0,4.145,64.94,35.17115762154,2.952756,6,P-GPS,
12500,2022-08-29 21:43:02,-34.9185194953093,-56.1684437151839,2.624672,4.1666668,30.67640682154,34.84307362154,4.265092,0.223694,14.205873158,20.961122718,25,5,8.369,35.49924162154,3.28084,5.368656,14.5399282868,0.223694,0,0,287.8, 1.3, -1.4,0,0,1024,973,1024,1353,0,-8,0,50,310.1,8.5,0,99,4.191,4.177,0,0,0,0,4.072,64.94,34.84307362154,2.624672,6,P-GPS,
12600,2022-08-29 21:43:02,-34.918519470785,-56.1684437845742,2.624672,4.1666668,30.67640682154,34.84307362154,4.265092,0.223694,14.220636938,20.9837277056,25,5,8.369,35.49924162154,3.28084,5.368656,14.5399282868,0.223694,0,0,292.2, 1.2, -1,0,0,1024,951,1024,1056,0,-11,0,5,313.7,8.5,0,99,4.191,4.177,0,0,0,0,4.072,64.94,34.84307362154,2.624672,6,P-GPS,
12700,2022-08-29 21:43:03,-34.9185196308138,-56.1684440160127,2.624672,4.1666668,30.67640682154,34.84307362154,4.265092,0.223694,14.3084322164,21.0742788896,25,5,8.369,35.49924162154,3.28084,5.368656,14.5399282868,0.223694,0,0,294.7, 1.3, -0.9,0,0,1024,952,1024,1024,0,-11,0,0,314.9,8.5,0,99,4.191,4.177,0,0,0,0,4.072,64.94,34.84307362154,2.624672,6,P-GPS,
12800,2022-08-29 21:43:03,-34.9185195738378,-56.1684440853194,2.624672,4.1666668,30.67640682154,34.84307362154,4.265092,0.223694,14.3180122692,21.1036424076,25,5,8.369,35.49924162154,3.28084,5.368656,14.5399282868,0.223694,0,0,295.3, 1.1, -1.3,0,0,1024,910,1024,1024,0,-17,0,0,315.3,8.5,0,99,4.191,4.177,0,0,0,0,4.072,64.94,34.84307362154,2.624672,6,P-GPS,
12900,2022-08-29 21:43:03,-34.918519531153,-56.1684441517581,2.624672,4.1666668,30.67640682154,34.84307362154,4.265092,0,14.3291343168,21.1289048756,25,5,8.369,35.49924162154,3.28084,5.368656,14.5399282868,0,0,0,295.8, 1.3, -1.1,0,0,1237,774,1024,1024,32,-38,0,0,315.4,8.5,0,99,4.191,4.177,0,0,0,0,4.072,64.94,34.84307362154,2.624672,6,P-GPS,
13000,2022-08-29 21:43:03,-34.918519485511,-56.1684442036323,2.624672,4.1666668,30.67640682154,34.84307362154,4.265092,0,14.3358928472,21.1516410968,25,5,8.369,35.49924162154,3.28084,5.368656,14.5399282868,0,0,0,295.9, 1.2, -2.2,0,0,1304,738,1024,1024,42,-43,0,0,315.4,8.5,0,99,4.191,4.177,0,0,0,0,4.072,64.94,34.84307362154,2.624672,6,P-GPS,
13100,2022-08-29 21:43:03,-34.918519574538,-56.1684443235334,2.624672,4.1666668,30.67640682154,34.84307362154,4.265092,0,14.3822839248,21.2000334868,25,5,8.369,35.49924162154,3.28084,5.368656,14.5399282868,0,0,0,296, -1.5, -4.3,0,0,1305,738,1024,1024,43,-43,0,0,315.4,8.5,0,99,4.191,4.177,0,0,0,0,4.072,64.94,34.84307362154,2.624672,6,P-GPS,
13200,2022-08-29 21:43:03,-34.918519595203,-56.1684445083477,2.624672,4.1994752,30.64359842154,34.84307362154,4.265092,0.223694,14.4354007244,21.2558405752,25,5,8.369,35.49924162154,3.28084,5.368656,14.5399282868,0,-0.223694,0,296.2, -3.4, -5.4,0,0,1293,743,1024,1024,41,-43,0,0,315.4,8.5,0,99,4.191,4.177,0,0,0,0,4.072,64.94,34.84307362154,2.624672,6,P-GPS,
13300,2022-08-29 21:43:03,-34.9185196465902,-56.1684447767094,2.624672,4.1994752,30.64359842154,34.84307362154,4.265092,0.447388,14.515912538,21.3382880844,25,5,8.369,35.49924162154,3.28084,5.368656,14.5399282868,0,-0.447388,0,296.3, -3.8, -5.6,0,0,1293,743,1024,1024,41,-43,0,0,315.4,8.5,0,99,4.191,4.177,0,0,0,0,4.072,64.94,34.84307362154,2.624672,6,P-GPS,
13400,2022-08-29 21:43:03,-34.9185197098764,-56.168445150021,2.624672,4.1994752,30.64359842154,34.84307362154,4.265092,0.671082,14.626640888,21.4523300828,25,5,8.369,35.49924162154,3.28084,5.368656,14.626640888,0,-0.671082,0,296.3, -3.7, -5.4,0,0,1267,776,1024,1024,37,-38,0,0,315.4,8.5,0,99,4.191,4.177,0,0,0,0,4.072,64.94,34.84307362154,2.624672,6,P-GPS,
13500,2022-08-29 21:43:03,-34.9185197937803,-56.1684456621864,2.624672,4.2322836,30.61079002154,34.84307362154,4.265092,0.9171454,14.7781828876,21.608596492,25,5,8.369,35.49924162154,3.28084,5.368656,14.7781828876,-0.223694,-0.894776,0,296.3, -3.2, -4.6,0,0,1246,826,1024,1024,34,-30,0,0,315.4,8.5,0,99,4.191,4.177,0,0,0,0,4.072,64.94,34.84307362154,2.624672,6,P-GPS,
13600,2022-08-29 21:43:03,-34.9185199245118,-56.1684462261267,2.624672,4.2322836,30.61079002154,34.84307362154,4.265092,1.1408394,14.9511487724,21.7839245816,25,5,8.373,35.49924162154,3.28084,5.368656,14.9511487724,-0.223694,-1.11847,0,296.2, -2.5, -3.9,0,0,1208,892,1024,1024,28,-20,0,0,315.4,8.5,0,99,4.192,4.177,0,0,0,0,3.963,64.94,34.84307362154,2.624672,6,P-GPS,
13700,2022-08-29 21:43:04,-34.9185200675462,-56.168446847416,2.624672,4.265092,30.57798162154,34.84307362154,4.265092,1.3645334,15.141568726,21.9769692072,25,5,8.373,35.49924162154,3.28084,5.368656,15.141568726,-0.223694,-1.342164,0,296.2, -1.6, -2.8,0,0,1146,985,1024,1132,18,-6,0,16,315.4,8.5,0,99,4.192,4.177,0,0,0,0,3.963,64.94,34.84307362154,2.624672,6,P-GPS,
13800,2022-08-29 21:43:04,-34.9185202310859,-56.1684476158808,2.296588,3.937008,30.57798162154,34.51498962154,4.265092,1.3645334,15.3751317256,22.2144692148,25,5,8.373,35.49924162154,3.28084,5.368656,15.3751317256,-0.223694,-1.342164,0,296.2, -0.8, -1.4,0,0,1076,1020,1024,1501,8,-1,0,72,315.4,8.5,0,99,4.192,4.177,0,0,0,0,3.963,64.94,34.51498962154,2.296588,6,P-GPS,
13900,2022-08-29 21:43:04,-34.9185203776084,-56.1684484003937,2.296588,3.937008,30.57798162154,34.51498962154,4.265092,1.3645334,15.6105976124,22.4551844456,25,5,8.373,35.49924162154,3.28084,5.368656,15.6105976124,-0.223694,-1.342164,0,296.2, 0.3, -0.4,0,0,1035,1024,1024,1630,2,0,0,92,315.7,8.5,0,99,4.192,4.177,0,0,0,0,3.963,64.94,34.51498962154,2.296588,6,P-GPS,
14000,2022-08-29 21:43:04,-34.9185204757075,-56.1684493431621,2.296588,3.9698164,30.54517322154,34.51498962154,4.265092,1.3645334,15.8819886972,22.73950204,25,5,8.373,35.49924162154,3.28084,5.368656,15.8819886972,-0.223694,-1.342164,0,297, 1.1, 0,0,0,1024,1024,1024,1321,0,0,0,45,317.6,8.5,0,99,4.192,4.177,0,0,0,0,3.963,64.94,34.51498962154,2.296588,6,P-GPS,
14100,2022-08-29 21:43:04,-34.9185205599453,-56.1684502139127,2.296588,4.0354332,30.47955642154,34.51498962154,4.265092,1.3645334,16.1320871304,23.001805198,25,5,8.373,35.49924162154,3.28084,5.368656,16.1320871304,-0.223694,-1.342164,0,299.7, 3.2, 1.3,0,0,1024,1024,1024,1321,0,0,0,45,321,8.5,0,99,4.192,4.177,0,0,0,0,3.963,64.94,34.51498962154,2.296588,6,P-GPS,
14200,2022-08-29 21:43:04,-34.9185206539212,-56.1684509643756,2.296588,4.0682416,30.44674802154,34.51498962154,4.265092,1.1408394,16.3511160088,23.2289049428,25,5,8.373,35.49924162154,3.28084,5.368656,16.3511160088,-0.223694,-1.11847,0,303.3, 4.9, 3.9,0,0,1024,1024,1024,1046,0,0,0,3,324,8.5,0,99,4.192,4.177,0,0,0,0,3.963,64.94,34.51498962154,2.296588,6,P-GPS,
14300,2022-08-29 21:43:04,-34.9185207224526,-56.1684515809999,2.296588,4.0682416,30.44674802154,34.51498962154,4.265092,0.894776,16.5299545972,23.4150598044,25,5,8.373,35.49924162154,3.28084,5.368656,16.5299545972,0,-0.894776,0,305.2, 4.7, 4.5,0,0,1024,1024,1024,1024,0,0,0,0,324.9,8.5,0,99,4.192,4.177,0,0,0,0,3.963,64.94,34.51498962154,2.296588,6,P-GPS,
14400,2022-08-29 21:43:04,-34.9185207489963,-56.1684520533218,2.296588,4.0682416,30.44674802154,34.51498962154,4.265092,0.671082,16.6632551264,23.5566936672,25,5,8.373,35.49924162154,3.28084,5.368656,16.6632551264,0,-0.671082,0,305.6, 4.2, 3.5,0,0,1024,1137,1024,1024,0,17,0,0,325.2,8.5,0,99,4.192,4.177,0,0,0,0,3.963,64.94,34.51498962154,2.296588,6,P-GPS,
14500,2022-08-29 21:43:04,-34.9185207704445,-56.1684524182124,2.296588,4.0682416,30.44674802154,34.51498962154,4.265092,0.447388,16.7664703528,23.6661424896,25,5,8.373,35.49924162154,3.28084,5.368656,16.7664703528,0,-0.447388,0,305.9, 3.6, 2.7,0,0,1024,1287,1024,1024,0,40,0,0,325.3,8.5,0,99,4.192,4.177,0,0,0,0,3.963,64.94,34.51498962154,2.296588,6,P-GPS,
14600,2022-08-29 21:43:04,-34.9185207478156,-56.1684526700715,2.296588,4.10105,30.41393962154,34.51498962154,4.265092,0.223694,16.83234962,23.741962702,25,5,8.365,35.49924162154,3.28084,5.368656,16.83234962,0,-0.223694,0,305.9, 2.8, 3.7,0,0,1024,1266,1024,1024,0,37,0,0,325.3,8.5,0,99,4.187,4.175,0,0,0,0,3.952,64.94,34.51498962154,2.296588,6,P-GPS,
14700,2022-08-29 21:43:04,-34.9185206934614,-56.1684528312211,2.296588,4.10105,30.41393962154,34.51498962154,4.265092,0.223694,16.8687997524,23.7940624412,25,5,8.365,35.49924162154,3.28084,5.368656,16.8687997524,0,-0.223694,0,306, 2.5, 5,0,0,1024,1024,1024,1024,0,0,0,0,325.3,8.5,0,99,4.187,4.175,0,0,0,0,3.952,64.94,34.51498962154,2.296588,6,P-GPS,
14800,2022-08-29 21:43:05,-34.9185205759692,-56.1684526338744,2.296588,4.10105,30.41393962154,34.51498962154,4.265092,0,16.7976711412,23.8670283228,25,5,8.365,35.49924162154,3.28084,5.368656,16.8687997524,0,0,0,305.8, 2, 4.3,0,0,1024,1024,1024,1024,0,0,0,0,325.3,8.5,0,99,4.187,4.175,0,0,0,0,3.952,64.94,34.51498962154,2.296588,6,P-GPS,
14900,2022-08-29 21:43:05,-34.9185204402775,-56.1684526196286,2.296588,4.10105,30.41393962154,34.51498962154,4.265092,0.223694,16.7743443688,23.9167330488,25,5,8.365,35.49924162154,3.28084,5.368656,16.8687997524,0.223694,0,0,305.7, 2, 0.1,0,0,1186,1024,1024,1024,25,0,0,0,325.3,8.5,0,99,4.187,4.175,0,0,0,0,3.952,64.94,34.51498962154,2.296588,6,P-GPS,
15000,2022-08-29 21:43:05,-34.9185202864351,-56.1684525546996,2.296588,4.10105,30.41393962154,34.51498962154,4.265092,0.223694,16.734580588,23.9761162528,25,5,8.365,35.49924162154,3.28084,5.368656,16.8687997524,0.223694,0,0,305.8, 2.1, -0.9,0,0,1186,1024,1024,1024,25,0,0,0,325.3,8.5,0,99,4.187,4.175,0,0,0,0,3.952,64.94,34.51498962154,2.296588,6,P-GPS,
15100,2022-08-29 21:43:05,-34.9185201603007,-56.1684524849175,2.296588,4.0682416,30.44674802154,34.51498962154,4.265092,0.223694,16.6975399044,24.0266411888,25,5,8.365,35.49924162154,3.28084,5.368656,16.8687997524,0.223694,0,0,305.8, 1.2, -0.7,0,0,1230,1024,1024,1024,31,0,0,0,325.3,8.5,0,99,4.187,4.175,0,0,0,0,3.952,64.94,34.51498962154,2.296588,6,P-GPS,
15200,2022-08-29 21:43:05,-34.9185201778733,-56.1684523542916,2.296588,4.0682416,30.44674802154,34.51498962154,4.265092,0.223694,16.6639769112,24.0662409276,25,5,8.365,35.49924162154,3.28084,5.368656,16.8687997524,0.223694,0,0,305.9, -0.5, -0.3,0,0,1246,1024,1024,1024,34,0,0,0,325.3,8.5,0,99,4.187,4.175,0,0,0,0,3.952,64.94,34.51498962154,2.296588,6,P-GPS,
15300,2022-08-29 21:43:05,-34.9185200927398,-56.1684523606806,2.296588,4.0682416,30.44674802154,34.51498962154,4.265092,0.223694,16.6537406904,24.0973760992,25,5,8.365,35.49924162154,3.28084,5.368656,16.8687997524,0.223694,0,0,305.9, -1.5, -0.1,0,0,1246,1024,1024,1024,34,0,0,0,325.3,8.5,0,99,4.187,4.175,0,0,0,0,3.952,64.94,34.51498962154,2.296588,6,P-GPS,
15400,2022-08-29 21:43:05,-34.9185199399576,-56.1684524191997,2.296588,4.0682416,30.44674802154,34.51498962154,4.265092,0.223694,16.648458538,24.1558078596,25,5,8.365,35.49924162154,3.28084,5.368656,16.8687997524,0.223694,0,0,305.9, -2, -0.2,0,0,1236,1024,1024,1024,32,0,0,0,325.3,8.5,0,99,4.187,4.175,0,0,0,0,3.952,64.94,34.51498962154,2.296588,6,P-GPS,
15500,2022-08-29 21:43:05,-34.9185197720455,-56.1684525145532,2.296588,4.10105,30.41393962154,34.51498962154,4.265092,0.3131716,16.6515097192,24.2233931636,25,5,8.365,35.49924162154,3.28084,5.368656,16.8687997524,0.223694,-0.223694,0,305.9, -2.1, 0,0,0,1154,1024,1024,1024,20,0,0,0,325.3,8.5,0,99,4.187,4.175,0,0,0,0,3.952,64.94,34.51498962154,2.296588,6,P-GPS,
15600,2022-08-29 21:43:05,-34.918519633035,-56.1684527188688,2.296588,4.10105,30.41393962154,34.51498962154,4.265092,0.4921268,16.6890097204,24.3028223,25,5,8.359,35.49924162154,3.28084,5.368656,16.8687997524,0.447388,-0.223694,0,305.9, -1.6, -0.1,0,0,1042,1024,1024,1024,3,0,0,0,325.3,8.5,0,99,4.188,4.177,0,0,0,0,3.942,65.12,34.51498962154,2.296588,6,P-GPS,
15700,2022-08-29 21:43:05,-34.9185194390026,-56.1684529010189,2.296588,4.0682416,30.44674802154,34.51498962154,4.265092,0.4921268,16.7131895112,24.3921595732,25,5,8.359,35.49924162154,3.28084,5.368656,16.8687997524,0.447388,-0.223694,0,305.9, -0.2, -0.3,0,0,1091,1024,1024,1024,10,0,0,0,325.3,8.5,0,99,4.188,4.177,0,0,0,0,3.942,65.12,34.51498962154,2.296588,6,P-GPS,
15800,2022-08-29 21:43:06,-34.9185192199118,-56.1684531642819,2.296588,4.0682416,30.44674802154,34.51498962154,4.265092,0.4921268,16.7570871504,24.5043643012,25,5,8.359,35.49924162154,3.28084,5.368656,16.8687997524,0.447388,-0.223694,0,305.9, 1.5, -0.3,0,0,1091,1024,1024,1024,10,0,0,0,325.3,8.5,0,99,4.188,4.177,0,0,0,0,3.942,65.12,34.51498962154,2.296588,6,P-GPS,
15900,2022-08-29 21:43:06,-34.9185190160485,-56.1684534196202,2.296588,4.0682416,30.44674802154,34.51498962154,4.265092,0.4921268,16.8014112988,24.6109916012,25,5,8.359,35.49924162154,3.28084,5.368656,16.8687997524,0.447388,-0.223694,0,305.9, 1.8, -0.2,0,0,1209,1024,1024,1024,28,0,0,0,325.3,8.5,0,99,4.188,4.177,0,0,0,0,3.942,65.12,34.51498962154,2.296588,6,P-GPS,
16000,2022-08-29 21:43:06,-34.9185188339624,-56.1684537308186,2.296588,4.10105,30.41393962154,34.51498962154,4.265092,0.4921268,16.8646987024,24.7253616836,25,5,8.359,35.49924162154,3.28084,5.368656,16.8687997524,0.447388,-0.223694,0,306, 0.3, -0.4,0,0,1231,1024,1024,1024,31,0,0,0,325.3,8.5,0,99,4.188,4.177,0,0,0,0,3.942,65.12,34.51498962154,2.296588,6,P-GPS,
16100,2022-08-29 21:43:06,-34.9185187541182,-56.1684542871841,2.296588,4.10105,30.41393962154,34.51498962154,4.265092,0.6263432,17.0103023816,24.8943249436,25,5,8.359,35.49924162154,3.28084,5.368656,17.0103023816,0.447388,-0.447388,0,306, -0.6, -0.2,0,0,1231,1024,1024,1024,31,0,0,0,325.3,8.5,0,99,4.188,4.177,0,0,0,0,3.942,65.12,34.51498962154,2.296588,6,P-GPS,
16200,2022-08-29 21:43:06,-34.9185185124913,-56.1684546107111,2.296588,4.1338584,30.38113122154,34.51498962154,4.265092,0.6263432,17.0706042208,25.0252304596,25,5,8.359,35.49924162154,3.28084,5.368656,17.0706042208,0.447388,-0.447388,0,306, -1.1, 0,0,0,1231,1024,1024,1024,31,0,0,0,325.3,8.5,0,99,4.188,4.177,0,0,0,0,3.942,65.12,34.51498962154,2.296588,6,P-GPS,
16300,2022-08-29 21:43:06,-34.9185182714213,-56.168454943098,2.296588,4.10105,30.41393962154,34.51498962154,4.265092,0.6263432,17.1342853252,25.1580060544,25,5,8.359,35.49924162154,3.28084,5.368656,17.1342853252,0.447388,-0.447388,0,306, -1.5, -0.1,0,0,1227,1024,1024,1024,31,0,0,0,325.3,8.5,0,99,4.188,4.177,0,0,0,0,3.942,65.12,34.51498962154,2.296588,6,P-GPS,
16400,2022-08-29 21:43:06,-34.9185180639307,-56.1684552998757,2.296588,4.10105,30.41393962154,34.51498962154,4.265092,0.6263432,17.2096790284,25.2888459536,25,5,8.359,35.49924162154,3.28084,5.368656,17.2096790284,0.447388,-0.447388,0,305.9, -1.5, -0.4,0,0,1198,1024,1024,1024,26,0,0,0,325.3,8.5,0,99,4.188,4.177,0,0,0,0,3.942,65.12,34.51498962154,2.296588,6,P-GPS,
16500,2022-08-29 21:43:06,-34.9185179399418,-56.1684557346894,2.296588,4.1338584,30.38113122154,34.51498962154,4.265092,0.8052984,17.3177170896,25.4265756168,25,5,8.359,35.49924162154,3.28084,5.368656,17.3177170896,0.447388,-0.671082,0,305.9, -1.1, -0.2,0,0,1174,1024,1024,1024,23,0,0,0,325.3,8.5,0,99,4.188,4.177,0,0,0,0,3.942,65.12,34.51498962154,2.296588,6,P-GPS,
16600,2022-08-29 21:43:06,-34.9185176614209,-56.1684561665777,2.296588,4.1338584,30.38113122154,34.51498962154,4.265092,0.9395148,17.4073496384,25.5909457008,25,5,8.362,35.49924162154,3.28084,5.368656,17.4073496384,0.671082,-0.671082,0,305.9, -0.5, 0,0,0,1197,1024,1024,1024,26,0,0,0,325.3,8.5,0,99,4.185,4.173,0,0,0,0,3.904,65.12,34.51498962154,2.296588,6,P-GPS,
16700,2022-08-29 21:43:07,-34.9185173807251,-56.1684565916799,2.296588,4.1338584,30.38113122154,34.51498962154,4.265092,0.9395148,17.4958667016,25.7542331076,25,5,8.362,35.49924162154,3.28084,5.368656,17.4958667016,0.671082,-0.671082,0,305.9, 0, 0,0,0,1198,1024,1024,1024,26,0,0,0,325.3,8.5,0,99,4.185,4.173,0,0,0,0,3.904,65.12,34.51498962154,2.296588,6,P-GPS,
