time(millisecond),datetime(utc),latitude,longitude,height_above_takeoff(feet),height_above_ground_at_drone_location(feet),ground_elevation_at_drone_location(feet),altitude_above_seaLevel(feet),height_sonar(feet),speed(mph),distance(feet),mileage(feet),satellites,gpslevel,voltage(v),max_altitude(feet),max_ascent(feet),max_speed(mph),max_distance(feet), xSpeed(mph), ySpeed(mph), zSpeed(mph), compass_heading(degrees), pitch(degrees), roll(degrees),isPhoto,isVideo,rc_elevator,rc_aileron,rc_throttle,rc_rudder,rc_elevator(percent),rc_aileron(percent),rc_throttle(percent),rc_rudder(percent),gimbal_heading(degrees),gimbal_pitch(degrees),gimbal_roll(degrees),battery_percent,voltageCell1,voltageCell2,voltageCell3,voltageCell4,voltageCell5,voltageCell6,current(A),battery_temperature(f),altitude(feet),ascent(feet),flycStateRaw,flycState,message
0,2022-10-24 22:29:43,-34.9205102419104,-56.1473992088642,0,0,0,0,0.328084,0,0,0,22,5,0,0,0,0,0,0,0,0,209, -5, 2.7,0,0,364,364,364,1684,-100,-100,-100,100,219.1,0,0,96,4.278,4.276,0,0,0,0,0,71.96,0,0,41,Motors_Started,"Aeronave en Zona de altitud restringida (150). Vuela con precaución (Code: 190001). Error de calibración del estabilizador. Reinicia la aeronave o contacta con la Asistencia DJI (Code: 40011)"
100,2022-10-24 22:29:43,-34.9205102698879,-56.1473991393919,0,0,0,0,0.328084,0,0.0231545283,0.0231545283,22,5,0,0,0,0,0.0231545283,0,0,0,209.4, -4.9, 2.2,0,0,364,364,364,1684,-100,-100,-100,100,219,0,0,96,4.278,4.276,0,0,0,0,0,71.96,0,0,41,Motors_Started,
200,2022-10-24 22:29:43,-34.920510241487,-56.1473991577743,0,0,0,0,0.328084,0,0.0152846789668,0.034885499804,22,5,0,0,0,0,0.0231545283,0,0,0,209.1, -4.6, 2.6,0,0,364,364,364,1684,-100,-100,-100,100,219,0,0,96,4.278,4.276,0,0,0,0,0,71.96,0,0,41,Motors_Started,"Setting new Return-To-Home altitude to 100m (328 ft). Data Recorder File Index is 28. Setting new Maximum Flight Altitude to 120m (394 ft)"
300,2022-10-24 22:29:43,-34.9205101961275,-56.1473991859466,0,0,0,0,0.328084,0,0.01805610294,0.053457350792,22,5,0,0,0,0,0.0231545283,0,0,0,209.3, -4, 2.6,0,0,1024,1024,425,1351,0,0,-91,50,219,0,0,96,4.278,4.276,0,0,0,0,0,71.96,0,0,41,Motors_Started,
400,2022-10-24 22:29:43,-34.9205101326206,-56.1473995014139,0,0,0,0,0.328084,0,0.096173887592,0.150634191172,22,5,0,0,0,0,0.096173887592,0,0,0,208.9, -3.9, 1.9,0,0,1024,1024,1034,1024,0,0,2,0,219,0,0,96,4.278,4.276,0,0,0,0,0,71.96,0,0,41,Motors_Started,
500,2022-10-24 22:29:43,-34.9205101799733,-56.147399543995,0,0,0,0,0.328084,0,0.102771984916,0.172099414956,22,5,0,0,0,0,0.102771984916,0,0,0,208.2, -3.9, 2.2,0,0,1024,1024,1684,1024,0,0,100,0,218.8,0,0,96,4.278,4.276,0,0,0,0,0,71.96,0,0,41,Motors_Started,
600,2022-10-24 22:29:43,-34.9205102440233,-56.1473995639074,0,0,0,0,0.328084,0,0.106216538832,0.196215229376,22,5,0,0,0,0,0.106216538832,0,0,0,207.7, -4.8, 1.7,0,0,1024,1024,1684,1013,0,0,100,-2,218.2,0,0,96,4.278,4.276,0,0,0,0,0,71.96,0,0,41,Motors_Started,
700,2022-10-24 22:29:43,-34.9205103179286,-56.1473995822949,0,0,0,0,0.328084,0,0.115105974812,0.223734915296,22,5,0,0,0,0,0.115105974812,0,0,0,207.6, -5, 2,0,0,1024,1024,1684,1013,0,0,100,-2,217.8,0,0,96,4.278,4.276,0,0,0,0,0,71.96,0,0,41,Motors_Started,
800,2022-10-24 22:29:44,-34.920510349956,-56.1473996060764,0,0,0,0,0.328084,0,0.1251968544,0.237415361928,22,5,0,0,0,0,0.1251968544,0,0,0,207.3, -4.9, 1.8,0,0,1024,1024,1684,1024,0,0,100,0,217.7,0,0,96,4.278,4.276,0,0,0,0,0,71.96,0,0,41,Motors_Started,
900,2022-10-24 22:29:44,-34.920510396878,-56.147399599927,0,0,0,0,0.328084,0,0.129935371612,0.254633538332,22,5,8.564,0,0,0,0.129935371612,0,0,0,206.6, -5.4, 0.9,0,0,1024,1024,1601,1024,0,0,87,0,217.2,0,0,96,4.278,4.276,0,0,0,0,0.8,71.96,0,0,41,Motors_Started,
1000,2022-10-24 22:29:44,-34.9205105145388,-56.147399599112,-0.328084,-0.328084,0,-0.328084,0.328084,0,0.153373692572,0.297562673564,22,5,8.564,0,0,0,0.153373692572,0,0,0,205.7, -6.3, 0,0,0,1024,1024,1536,1024,0,0,78,0,216.4,0,0,96,4.278,4.276,0,0,0,0,0.8,71.96,-0.328084,-0.328084,41,Motors_Started,
1100,2022-10-24 22:29:44,-34.9205106388933,-56.1473995952619,-0.328084,-0.328084,0,-0.328084,0.328084,0,0.185311029552,0.34294948604,22,5,8.564,0,0,0,0.185311029552,0,0,0,204.9, -6.1, -0.9,0,0,1024,1024,1684,1024,0,0,100,0,215.4,0,0,96,4.278,4.276,0,0,0,0,0.8,71.96,-0.328084,-0.328084,10,Assisted_Takeoff,
1200,2022-10-24 22:29:44,-34.9205107244077,-56.1473995918688,-0.328084,-0.328084,0,-0.328084,0.328084,0,0.21004265764,0.3741633978,22,5,8.564,0,0,0,0.21004265764,0,0,0,204.7, -5.6, -1,0,0,1024,1024,1684,1024,0,0,100,0,214.9,0,0,96,4.278,4.276,0,0,0,0,0.8,71.96,-0.328084,-0.328084,10,Assisted_Takeoff,
1300,2022-10-24 22:29:44,-34.9205108865055,-56.1473995686809,-0.328084,-0.328084,0,-0.328084,0.328084,0,0.25864338098,0.4337106438,22,5,8.564,0,0,0,0.25864338098,0,0,0,204.7, -4.5, -1.3,0,0,1024,1024,1684,1024,0,0,100,0,214.8,0,0,96,4.278,4.276,0,0,0,0,0.8,71.96,-0.328084,-0.328084,10,Assisted_Takeoff,
1400,2022-10-24 22:29:44,-34.920510936445,-56.1473995483075,-0.328084,-0.328084,0,-0.328084,0.328084,0,0.272990166216,0.45292324284,22,5,8.564,0,0,0,0.272990166216,0,0,0,204.2, -3.8, -0.8,0,0,1024,1024,1684,1024,0,0,100,0,214.6,0,0,96,4.278,4.276,0,0,0,0,0.8,71.96,-0.328084,-0.328084,10,Assisted_Takeoff,
1500,2022-10-24 22:29:44,-34.9205109846746,-56.1473995406033,-0.328084,-0.328084,0,-0.328084,0.328084,0,0.28859745018,0.4706693064,22,5,8.564,0,0,0,0.28859745018,0,0,0,203.2, -4, 0,0,0,1024,1024,1575,1024,0,0,83,0,214,0,0,96,4.278,4.276,0,0,0,0,0.8,71.96,-0.328084,-0.328084,10,Assisted_Takeoff,
1600,2022-10-24 22:29:44,-34.920511059603,-56.147399505347,-0.328084,-0.328084,0,-0.328084,0.328084,0,0.31124016744,0.49997376928,22,5,8.564,0,0,0,0.31124016744,0,0,0,202, -4.7, 0.8,0,0,1024,1024,1575,1024,0,0,83,0,212.9,0,0,96,4.278,4.276,0,0,0,0,0.8,71.96,-0.328084,-0.328084,10,Assisted_Takeoff,
1700,2022-10-24 22:29:44,-34.9205111382027,-56.147399413718,-0.328084,-0.328084,0,-0.328084,0.328084,0,0.33270342272,0.53964240572,22,5,8.564,0,0,0,0.33270342272,0,0,0,201.7, -4.6, 0.2,0,0,1024,1024,1389,1024,0,0,55,0,212.1,0,0,96,4.278,4.276,0,0,0,0,0.8,71.96,-0.328084,-0.328084,10,Assisted_Takeoff,
1800,2022-10-24 22:29:45,-34.9205112196786,-56.1473993805155,-0.328084,-0.328084,0,-0.328084,0.328084,0,0.3604166782,0.57098427024,22,5,8.564,0,0,0,0.3604166782,0,0,0,202.3, -4.5, 0.8,0,0,1024,1024,1598,1024,0,0,87,0,212.2,0,0,96,4.278,4.276,0,0,0,0,0.8,71.96,-0.328084,-0.328084,10,Assisted_Takeoff,
1900,2022-10-24 22:29:45,-34.9205113534915,-56.1473993940492,0,0,0,0,0.328084,0.3131716,0.40932744092,0.61997377312,22,5,8.555,0,0,0.3131716,0.40932744092,-0.223694,-0.223694,-0.447388,202.2, -2.7, 0.6,0,0,1024,1024,1476,1024,0,0,68,0,212.2,0,0,96,4.247,4.243,0,0,0,0,1.589,71.96,0,0,6,P-GPS,"Error de calibración del estabilizador. Reinicia la aeronave o contacta con la Asistencia DJI (Code: 40011)"
2000,2022-10-24 22:29:45,-34.9205115300368,-56.1473995015256,0,0,0,0,0.328084,0.3131716,0.47805775808,0.69196524524,22,5,8.555,0,0,0.3131716,0.47805775808,-0.223694,-0.223694,-1.11847,201.8, 0.4, -0.6,0,0,1024,1024,1024,1024,0,0,0,0,212.3,0,0,96,4.247,4.243,0,0,0,0,1.589,71.96,0,0,6,P-GPS,
2100,2022-10-24 22:29:45,-34.9205116779492,-56.1473996029511,0,0,0,0,0.656168,0.3131716,0.53703741876,0.75387469604,22,5,8.555,0,0,0.3131716,0.53703741876,-0.223694,-0.223694,-1.789552,201.8, 1.6, -0.5,0,0,1024,1024,1024,1024,0,0,0,0,212.2,0,0,96,4.247,4.243,0,0,0,0,1.589,71.96,0,0,6,P-GPS,
2200,2022-10-24 22:29:45,-34.9205118920566,-56.1473996768762,0.328084,0.328084,0,0.328084,0.984252,0.3131716,0.61812009852,0.83506236268,22,5,8.555,0.328084,0.328084,0.3131716,0.61812009852,-0.223694,-0.223694,-2.013246,201.9, 2.6, -0.3,0,0,1024,1024,1024,1024,0,0,0,0,212.2,0,0,96,4.247,4.243,0,0,0,0,1.589,71.96,0.328084,0.328084,6,P-GPS,
2300,2022-10-24 22:29:45,-34.9205121033538,-56.1473997341867,0.656168,0.656168,0,0.656168,1.312336,0.3131716,0.69709319816,0.91403874316,22,5,8.555,0.656168,0.656168,0.3131716,0.69709319816,-0.223694,0,-1.789552,201.9, 3, -0.7,0,0,1024,1024,1024,1024,0,0,0,0,212.3,0,0,96,4.247,4.243,0,0,0,0,1.589,71.96,0.656168,0.656168,6,P-GPS,"Error de calibración del estabilizador. Reinicia la aeronave o contacta con la Asistencia DJI (Code: 40011)"
2400,2022-10-24 22:29:45,-34.9205123052002,-56.1473998543067,0.984252,0.984252,0,0.984252,1.64042,0.223694,0.77715881752,0.995981003,22,5,8.555,0.984252,0.984252,0.3131716,0.77715881752,-0.223694,0,-1.565858,201.8, 3.5, -0.8,0,0,1024,1024,1024,1024,0,0,0,0,212.2,0,0,96,4.247,4.243,0,0,0,0,1.589,71.96,0.984252,0.984252,6,P-GPS,
2500,2022-10-24 22:29:45,-34.9205126063431,-56.1474000658279,0.984252,0.984252,0,0.984252,4.593176,0.223694,0.8999508162,1.12277234564,22,5,8.555,0.984252,0.984252,0.3131716,0.8999508162,-0.223694,0,-1.11847,201.9, 3.2, -0.6,0,0,1024,1024,1024,1024,0,0,0,0,212.2,0,0,96,4.247,4.243,0,0,0,0,1.589,71.96,0.984252,0.984252,6,P-GPS,
2600,2022-10-24 22:29:45,-34.9205127082922,-56.1474001053006,0.984252,0.984252,0,0.984252,4.92126,0.223694,0.93896984632,1.16179793744,22,5,8.555,0.984252,0.984252,0.3131716,0.93896984632,-0.223694,0,-0.671082,201.9, 3, -0.1,0,0,1024,1024,1024,1024,0,0,0,0,212.2,0,0,96,4.247,4.243,0,0,0,0,1.589,71.96,0.984252,0.984252,6,P-GPS,
2700,2022-10-24 22:29:45,-34.9205127838703,-56.1474001284232,1.312336,1.312336,0,1.312336,4.92126,0,0.9673720782,1.19022641604,22,5,8.555,1.312336,1.312336,0.3131716,0.9673720782,0,0,-0.223694,201.8, 2.7, -0.4,0,0,1024,1024,1024,1024,0,0,0,0,212.2,0,0,96,4.247,4.243,0,0,0,0,1.589,71.96,1.312336,1.312336,6,P-GPS,
2800,2022-10-24 22:29:46,-34.9205128579417,-56.1474002083528,1.312336,1.312336,0,1.312336,4.92126,0,1.0001968824,1.2263123752,22,5,8.555,1.312336,1.312336,0.3131716,1.0001968824,0,0,0,201.8, 2.7, -0.3,0,0,1024,1024,1024,1024,0,0,0,0,212.2,0,0,96,4.247,4.243,0,0,0,0,1.589,71.96,1.312336,1.312336,6,P-GPS,
2900,2022-10-24 22:29:46,-34.9205129274877,-56.1474003064408,1.312336,1.312336,0,1.312336,4.92126,0,1.033382579,1.26510502736,21,5,8.555,1.312336,1.312336,0.3131716,1.033382579,0,0,0,201.8, 2.8, -0.1,0,0,1024,1024,1024,1024,0,0,0,0,212.3,0,0,96,4.247,4.243,0,0,0,0,1.589,71.96,1.312336,1.312336,6,P-GPS,
3000,2022-10-24 22:29:46,-34.9205128324863,-56.1474004205001,1.312336,1.312336,0,1.312336,4.92126,0,1.01229005864,1.31374348036,21,5,8.555,1.312336,1.312336,0.3131716,1.033382579,0,0,0,201.8, 3, -0.4,0,0,1024,1024,1024,1024,0,0,0,0,212.3,0,0,96,4.247,4.243,0,0,0,0,1.589,71.96,1.312336,1.312336,6,P-GPS,
3100,2022-10-24 22:29:46,-34.9205128151039,-56.1474005277101,1.312336,1.312336,0,1.312336,4.92126,0,1.01836289348,1.34643705096,21,5,8.343,1.312336,1.312336,0.3131716,1.033382579,0,0,0,201.8, 2.9, -0.7,0,0,1024,1024,1024,1024,0,0,0,0,212.3,0,0,96,4.203,4.201,0,0,0,0,4.468,71.96,1.312336,1.312336,6,P-GPS,
3200,2022-10-24 22:29:46,-34.9205128388344,-56.1474005514119,0.984252,0.984252,0,0.984252,4.92126,0,1.02909780196,1.3576279962,21,5,8.343,1.312336,1.312336,0.3131716,1.033382579,0,0,0,201.9, 2.7, -0.8,0,0,1024,1024,1024,1024,0,0,0,0,212.3,0,0,96,4.203,4.201,0,0,0,0,4.468,71.96,0.984252,0.984252,6,P-GPS,
3300,2022-10-24 22:29:46,-34.9205128627847,-56.147400556,0.984252,0.984252,0,0.984252,4.92126,0,1.0376804794,1.36647314084,21,5,8.343,1.312336,1.312336,0.3131716,1.0376804794,0,0,0,202.1, 2.5, -1,0,0,1024,1024,1024,1024,0,0,0,0,212.3,0,0,96,4.203,4.201,0,0,0,0,4.468,71.96,0.984252,0.984252,6,P-GPS,
3400,2022-10-24 22:29:46,-34.9205127855696,-56.1474004503664,0.984252,0.984252,0,0.984252,4.92126,0,0.99961289288,1.4088091002,21,5,8.343,1.312336,1.312336,0.3131716,1.0376804794,0,0,0,202.1, 2.2, -1.3,0,0,1024,1024,1024,1024,0,0,0,0,212.3,0,0,96,4.203,4.201,0,0,0,0,4.468,71.96,0.984252,0.984252,6,P-GPS,
3500,2022-10-24 22:29:46,-34.920512750052,-56.147400455328,0.984252,0.984252,0,0.984252,4.92126,0,0.98814963792,1.4218504392,21,5,8.343,1.312336,1.312336,0.3131716,1.0376804794,0,0,0,202.3, 2.1, -1.2,0,0,1024,1024,1024,1024,0,0,0,0,212.2,0,0,96,4.203,4.201,0,0,0,0,4.468,71.96,0.984252,0.984252,6,P-GPS,
3600,2022-10-24 22:29:46,-34.9205127276691,-56.1474005005923,1.312336,1.312336,0,1.312336,4.92126,0,0.98582352236,1.437664088,21,5,8.343,1.312336,1.312336,0.3131716,1.0376804794,0,0,0,202.4, 2, -1.1,0,0,1024,1024,1024,1024,0,0,0,0,212.3,0,0,96,4.203,4.201,0,0,0,0,4.468,71.96,1.312336,1.312336,6,P-GPS,
3700,2022-10-24 22:29:46,-34.9205127064716,-56.1474005542695,1.312336,1.312336,0,1.312336,4.92126,0,0.98516407352,1.45548889172,22,5,8.343,1.312336,1.312336,0.3131716,1.0376804794,0,0,0,202.5, 1.9, -1.1,0,0,1024,1024,1024,1024,0,0,0,0,212.3,0,0,96,4.203,4.201,0,0,0,0,4.468,71.96,1.312336,1.312336,6,P-GPS,
3800,2022-10-24 22:29:47,-34.9205126924458,-56.1474006553397,1.312336,1.312336,0,1.312336,4.92126,0,0.99328743336,1.4861549032,22,5,8.343,1.312336,1.312336,0.3131716,1.0376804794,0,0,0,202.6, 1.8, -1.2,0,0,1024,1024,1024,1024,0,0,0,0,212.3,0,0,96,4.203,4.201,0,0,0,0,4.468,71.96,1.312336,1.312336,6,P-GPS,
3900,2022-10-24 22:29:47,-34.9205126653261,-56.1474006812429,1.312336,1.312336,0,1.312336,4.92126,0,0.98782155392,1.4987205204,22,5,8.343,1.312336,1.312336,0.3131716,1.0376804794,0,0,0,202.7, 1.8, -1.1,0,0,1024,1024,1024,1024,0,0,0,0,212.3,0,0,96,4.203,4.201,0,0,0,0,4.468,71.96,1.312336,1.312336,6,P-GPS,
4000,2022-10-24 22:29:47,-34.9205126552399,-56.1474007096705,1.312336,1.312336,0,1.312336,4.92126,0,0.98836289252,1.5079888934,22,5,8.343,1.312336,1.312336,0.3131716,1.0376804794,0,0,0,202.8, 1.8, -1.1,0,0,1024,1024,1024,621,0,0,0,-61,212.3,0,0,96,4.203,4.201,0,0,0,0,4.468,71.96,1.312336,1.312336,6,P-GPS,
4100,2022-10-24 22:29:47,-34.9205126460804,-56.1474007396073,1.312336,1.312336,0,1.312336,4.92126,0,0.989501344,1.51754598032,22,5,8.362,1.312336,1.312336,0.3131716,1.0376804794,0,0,0,202.9, 1.8, -1.1,0,0,1024,1024,1024,364,0,0,0,-100,211.9,0,0,96,4.183,4.182,0,0,0,0,4.042,71.96,1.312336,1.312336,6,P-GPS,
4200,2022-10-24 22:29:47,-34.9205127171151,-56.1474007075966,1.312336,1.312336,0,1.312336,4.92126,0,1.0082513446,1.5451772148,22,5,8.362,1.312336,1.312336,0.3131716,1.0376804794,0,0,0,201.9, 1.7, -1.2,0,0,1024,1024,1024,364,0,0,0,-100,209.5,0,0,96,4.183,4.182,0,0,0,0,4.042,71.96,1.312336,1.312336,6,P-GPS,
4300,2022-10-24 22:29:47,-34.9205127163522,-56.1474006991844,1.312336,1.312336,0,1.312336,4.92126,0,1.00688651516,1.54770674244,22,5,8.362,1.312336,1.312336,0.3131716,1.0376804794,0,0,0,198.8, 1.6, -1.4,0,0,1024,1024,1024,364,0,0,0,-100,205.2,0,0,96,4.183,4.182,0,0,0,0,4.042,71.96,1.312336,1.312336,6,P-GPS,
4400,2022-10-24 22:29:47,-34.9205127168529,-56.1474006838601,1.312336,1.312336,0,1.312336,4.92126,0,1.00502955972,1.5522966376,22,5,8.362,1.312336,1.312336,0.3131716,1.0376804794,0,0,0,194.4, 1.3, -1.5,0,0,1024,1024,1024,642,0,0,0,-58,200.5,0,0,96,4.183,4.182,0,0,0,0,4.042,71.96,1.312336,1.312336,6,P-GPS,
4500,2022-10-24 22:29:47,-34.920512722136,-56.1474006632288,1.312336,1.312336,0,1.312336,4.92126,0,1.00407155444,1.55876317324,22,5,8.362,1.312336,1.312336,0.3131716,1.0376804794,0,0,0,189.9, 1.4, -1.3,0,0,1024,1024,1024,1024,0,0,0,0,195.7,0,0,96,4.183,4.182,0,0,0,0,4.042,71.96,1.312336,1.312336,6,P-GPS,
4600,2022-10-24 22:29:47,-34.9205127279333,-56.1474006465887,1.312336,1.312336,0,1.312336,4.92126,0,1.00383533396,1.56416999756,22,5,8.362,1.312336,1.312336,0.3131716,1.0376804794,0,0,0,185.8, 1.3, -1.2,0,0,1024,1024,1024,1024,0,0,0,0,192.8,0,0,96,4.183,4.182,0,0,0,0,4.042,71.96,1.312336,1.312336,6,P-GPS,
4700,2022-10-24 22:29:47,-34.9205127783947,-56.1474005776572,1.312336,1.312336,0,1.312336,4.92126,0,1.01198165968,1.5918143554,22,5,8.362,1.312336,1.312336,0.3131716,1.0376804794,0,0,0,184, 1.4, -1.2,0,0,1024,1024,1024,1024,0,0,0,0,191.7,0,0,96,4.183,4.182,0,0,0,0,4.042,71.96,1.312336,1.312336,6,P-GPS,
4800,2022-10-24 22:29:48,-34.9205127444783,-56.1474006199131,1.312336,1.312336,0,1.312336,4.92126,0,1.00591866736,1.60950464468,22,5,8.362,1.312336,1.312336,0.3131716,1.0376804794,0,0,0,183.2, 1.4, -1,0,0,1024,1024,1024,1024,0,0,0,0,191.4,0,0,96,4.183,4.182,0,0,0,0,4.042,71.96,1.312336,1.312336,6,P-GPS,
4900,2022-10-24 22:29:48,-34.9205126952459,-56.147400682654,1.312336,1.312336,0,1.312336,4.92126,0,0.99779202668,1.63548561664,22,5,8.362,1.312336,1.312336,0.3131716,1.0376804794,0,0,0,183.1, 1.2, -1.3,0,0,1024,1024,1024,623,0,0,0,-61,191.4,0,0,96,4.183,4.182,0,0,0,0,4.042,71.96,1.312336,1.312336,6,P-GPS,
5000,2022-10-24 22:29:48,-34.9205126708636,-56.1474006985327,1.312336,1.312336,0,1.312336,4.92126,0,0.9919455698,1.64556763796,22,5,8.362,1.312336,1.312336,0.3131716,1.0376804794,0,0,0,183, 0.7, -1.9,0,0,1024,1024,1024,899,0,0,0,-19,190.7,0,0,96,4.183,4.182,0,0,0,0,4.042,71.96,1.312336,1.312336,6,P-GPS,
5100,2022-10-24 22:29:48,-34.920512595128,-56.1474007408115,1.312336,1.312336,0,1.312336,4.92126,0,0.9732283776,1.67595805888,22,5,8.361,1.312336,1.312336,0.3131716,1.0376804794,0,0,0,181.9, 0.6, -1.5,0,0,1024,1024,1024,1024,0,0,0,0,189.4,0,0,95,4.18,4.178,0,0,0,0,4.06,71.96,1.312336,1.312336,6,P-GPS,
5200,2022-10-24 22:29:48,-34.9205125633387,-56.1474007671214,1.312336,1.312336,0,1.312336,4.92126,0,0.96678480784,1.68997380736,22,5,8.361,1.312336,1.312336,0.3131716,1.0376804794,0,0,0,180.9, 0.8, -1.7,0,0,1024,1024,1024,1024,0,0,0,0,188.7,0,0,95,4.18,4.178,0,0,0,0,4.06,71.96,1.312336,1.312336,6,P-GPS,
5300,2022-10-24 22:29:48,-34.9205125348165,-56.1474008018696,1.312336,1.312336,0,1.312336,4.92126,0,0.96278218304,1.70468509392,22,5,8.361,1.312336,1.312336,0.3131716,1.0376804794,0,0,0,180.4, 1.2, -1.4,0,0,1024,1024,1024,1024,0,0,0,0,188.4,0,0,95,4.18,4.178,0,0,0,0,4.06,71.96,1.312336,1.312336,6,P-GPS,
5400,2022-10-24 22:29:48,-34.9205125484075,-56.1474008324581,1.312336,1.312336,0,1.312336,4.92126,0,0.9716371702,1.7150919184,22,5,8.361,1.312336,1.312336,0.3131716,1.0376804794,0,0,0,180.3, 1.3, -1.5,0,0,1024,1024,991,985,0,0,-5,-6,188.4,0,0,95,4.18,4.178,0,0,0,0,4.06,71.96,1.312336,1.312336,6,P-GPS,
5500,2022-10-24 22:29:48,-34.9205125497241,-56.1474008640457,1.312336,1.312336,0,1.312336,4.92126,0,0.97680777404,1.72455386096,22,5,8.361,1.312336,1.312336,0.3131716,1.0376804794,0,0,0,180.3, 1.5, -1.6,0,0,1024,1024,964,515,0,0,-9,-77,188.4,0,0,95,4.18,4.178,0,0,0,0,4.06,71.96,1.312336,1.312336,6,P-GPS,"Error de calibración del estabilizador. Reinicia la aeronave o contacta con la Asistencia DJI (Code: 40011). Entorno demasiado oscuro. El posicionamiento visual no será preciso. Vuela con precaución (Code: 180032)"
5600,2022-10-24 22:29:48,-34.9205126004493,-56.1474008905633,1.312336,1.312336,0,1.312336,4.92126,0,0.9967848088,1.74468837604,22,5,8.361,1.312336,1.312336,0.3131716,1.0376804794,0,0,0,180.3, 1.7, -2,0,0,1024,1024,1024,635,0,0,0,-59,188.3,0,0,95,4.18,4.178,0,0,0,0,4.06,71.96,1.312336,1.312336,6,P-GPS,
5700,2022-10-24 22:29:48,-34.9205126578642,-56.1474009184705,1.312336,1.312336,0,1.312336,4.92126,0,1.01908795912,1.7672408702,22,5,8.361,1.312336,1.312336,0.3131716,1.0376804794,0,0,0,179.5, 1.8, -1.8,0,0,1024,1024,1024,635,0,0,0,-59,186.6,0,0,95,4.18,4.178,0,0,0,0,4.06,71.96,1.312336,1.312336,6,P-GPS,
5800,2022-10-24 22:29:49,-34.9205126988513,-56.1474009419777,1.312336,1.312336,0,1.312336,4.92126,0,1.03555449508,1.78376318044,22,5,8.361,1.312336,1.312336,0.3131716,1.0376804794,0,0,0,177.2, 1.8, -2.1,0,0,1024,1024,1024,857,0,0,0,-25,184,0,0,95,4.18,4.178,0,0,0,0,4.06,71.96,1.312336,1.312336,6,P-GPS,
5900,2022-10-24 22:29:49,-34.9205127742312,-56.1474008942071,1.312336,1.312336,0,1.312336,4.92126,0,1.05252956124,1.81475727592,22,5,8.361,1.312336,1.312336,0.3131716,1.05252956124,0,0,0,175.1, 1.7, -2.5,0,0,1024,1024,1024,611,0,0,0,-63,182.6,0,0,95,4.18,4.178,0,0,0,0,4.06,71.96,1.312336,1.312336,6,P-GPS,
6000,2022-10-24 22:29:49,-34.9205128203768,-56.1474009403171,1.312336,1.312336,0,1.312336,4.92126,0,1.07392391888,1.83652236848,22,5,8.361,1.312336,1.312336,0.3131716,1.07392391888,0,0,0,174.2, 1.7, -2.5,0,0,1024,1024,1024,364,0,0,0,-100,181.9,0,0,95,4.18,4.178,0,0,0,0,4.06,71.96,1.312336,1.312336,6,P-GPS,
6100,2022-10-24 22:29:49,-34.9205128667919,-56.1474009875079,1.312336,1.312336,0,1.312336,4.92126,0,1.09557746288,1.85856961328,22,5,8.354,1.312336,1.312336,0.3131716,1.09557746288,0,0,0,173, 1.5, -2.4,0,0,1024,1024,1024,364,0,0,0,-100,179.3,0,0,95,4.185,4.18,0,0,0,0,4.066,72.14,1.312336,1.312336,6,P-GPS,
6200,2022-10-24 22:29:49,-34.9205129051247,-56.1474009929298,1.312336,1.312336,0,1.312336,4.92126,0,1.10860239768,1.87265097856,22,5,8.354,1.312336,1.312336,0.3131716,1.10860239768,0,0,0,169.5, 1.2, -2.2,0,0,1024,1024,1024,788,0,0,0,-36,174.9,0,0,95,4.185,4.18,0,0,0,0,4.066,72.14,1.312336,1.312336,6,P-GPS,
6300,2022-10-24 22:29:49,-34.9205129411365,-56.1474009936188,1.312336,1.312336,0,1.312336,4.92126,0,1.12023625632,1.88579074276,22,5,8.354,1.312336,1.312336,0.3131716,1.12023625632,0,0,0,165, 0.9, -2.5,0,0,1024,1024,1024,1024,0,0,0,0,170.3,0,0,95,4.185,4.18,0,0,0,0,4.066,72.14,1.312336,1.312336,6,P-GPS,
6400,2022-10-24 22:29:49,-34.920512989509,-56.1474010057753,1.312336,1.312336,0,1.312336,4.92126,0,1.13749347472,1.90380911604,22,5,8.354,1.312336,1.312336,0.3131716,1.13749347472,0,0,0,161.2, 0.7, -2.6,0,0,1024,1024,1024,1024,0,0,0,0,167.6,0,0,95,4.185,4.18,0,0,0,0,4.066,72.14,1.312336,1.312336,6,P-GPS,
6500,2022-10-24 22:29:49,-34.9205129609082,-56.1474010322485,1.312336,1.312336,0,1.312336,4.92126,0,1.1321030546,1.91690951016,22,5,8.354,1.312336,1.312336,0.3131716,1.13749347472,0,0,0,159.4, 0.4, -2.6,0,0,1024,1024,1024,1159,0,0,0,20,166.5,0,0,95,4.185,4.18,0,0,0,0,4.066,72.14,1.312336,1.312336,6,P-GPS,
6600,2022-10-24 22:29:49,-34.920512963541,-56.1474010209637,1.312336,1.312336,0,1.312336,4.92126,0,1.13132549552,1.92042000896,22,5,8.354,1.312336,1.312336,0.3131716,1.13749347472,0,0,0,158.7, 0.3, -2.4,0,0,1024,1024,1024,1159,0,0,0,20,166.4,0,0,95,4.185,4.18,0,0,0,0,4.066,72.14,1.312336,1.312336,6,P-GPS,
6700,2022-10-24 22:29:49,-34.9205129733259,-56.1474009928756,1.312336,1.312336,0,1.312336,4.92126,0,1.13046919628,1.92955058668,22,5,8.354,1.312336,1.312336,0.3131716,1.13749347472,0,0,0,158.6, 0.3, -2.1,0,0,1024,1024,1024,1684,0,0,0,100,166.5,0,0,95,4.185,4.18,0,0,0,0,4.066,72.14,1.312336,1.312336,6,P-GPS,
6800,2022-10-24 22:29:50,-34.9205129144394,-56.1474008324281,1.312336,1.312336,0,1.312336,4.92126,0,1.08934386688,1.98213917104,22,5,8.354,1.312336,1.312336,0.3131716,1.13749347472,0,0,0,159.3, 0.4, -1.6,0,0,1024,1024,1024,1684,0,0,0,100,168.7,0,0,95,4.185,4.18,0,0,0,0,4.066,72.14,1.312336,1.312336,6,P-GPS,
6900,2022-10-24 22:29:50,-34.9205129028078,-56.1474007564557,1.312336,1.312336,0,1.312336,4.92126,0,1.07556761972,2.00525925052,22,5,8.354,1.312336,1.312336,0.3131716,1.13749347472,0,0,0,162.6, 0.2, -1.7,0,0,1024,1024,1024,1543,0,0,0,79,173,0,0,95,4.185,4.18,0,0,0,0,4.066,72.14,1.312336,1.312336,6,P-GPS,
7000,2022-10-24 22:29:50,-34.9205128521945,-56.1474007161439,1.312336,1.312336,0,1.312336,4.92126,0,1.05371394448,2.027313057,22,5,8.354,1.312336,1.312336,0.3131716,1.13749347472,0,0,0,167.1, 0.2, -1.6,0,0,1024,1024,1024,1024,0,0,0,0,177.6,0,0,95,4.185,4.18,0,0,0,0,4.066,72.14,1.312336,1.312336,6,P-GPS,
7100,2022-10-24 22:29:50,-34.9205127958325,-56.147400680042,1.312336,1.312336,0,1.312336,4.92126,0,1.03050856316,2.0505414042,22,5,8.339,1.312336,1.312336,0.3131716,1.13749347472,0,0,0,171.1, 0.3, -1.5,0,0,1024,1024,1024,1024,0,0,0,0,180.6,0,0,95,4.171,4.171,0,0,0,0,4.163,72.14,1.312336,1.312336,6,P-GPS,
7200,2022-10-24 22:29:50,-34.9205127104092,-56.1474006180343,1.312336,1.312336,0,1.312336,4.92126,0,0.99440948064,2.0868110904,22,5,8.339,1.312336,1.312336,0.3131716,1.13749347472,0,0,0,173, 0.3, -1.6,0,0,1024,1024,1024,1526,0,0,0,76,181.9,0,0,95,4.171,4.171,0,0,0,0,4.163,72.14,1.312336,1.312336,6,P-GPS,
7300,2022-10-24 22:29:50,-34.9205127164629,-56.1474005734825,1.312336,1.312336,0,1.312336,4.92126,0,0.9908464884,2.10032158952,22,5,8.339,1.312336,1.312336,0.3131716,1.13749347472,0,0,0,174, 0.6, -1.7,0,0,1024,1024,1024,1392,0,0,0,56,182.4,0,0,95,4.171,4.171,0,0,0,0,4.163,72.14,1.312336,1.312336,6,P-GPS,
7400,2022-10-24 22:29:50,-34.9205127444135,-56.1474005270688,0.984252,0.984252,0,0.984252,4.92126,0,0.99456039928,2.11754928036,22,5,8.339,1.312336,1.312336,0.3131716,1.13749347472,0,0,0,174.8, 1, -1.7,0,0,1024,1024,1024,1024,0,0,0,0,183.9,0,0,95,4.171,4.171,0,0,0,0,4.163,72.14,0.984252,0.984252,6,P-GPS,
7500,2022-10-24 22:29:50,-34.9205127782868,-56.1474004765484,0.984252,0.984252,0,0.984252,4.92126,0,1.00008861468,2.13707027836,22,5,8.339,1.312336,1.312336,0.3131716,1.13749347472,0,0,0,177.2, 1.2, -1.7,0,0,1024,1024,1024,1024,0,0,0,0,186.4,0,0,95,4.171,4.171,0,0,0,0,4.163,72.14,0.984252,0.984252,6,P-GPS,
7600,2022-10-24 22:29:50,-34.9205128638815,-56.147400348427,0.984252,0.984252,0,0.984252,4.92126,0,1.01555449444,2.18651253716,22,5,8.339,1.312336,1.312336,0.3131716,1.13749347472,0,0,0,179, 1.3, -1.8,0,0,1024,1024,1024,1024,0,0,0,0,187.5,0,0,95,4.171,4.171,0,0,0,0,4.163,72.14,0.984252,0.984252,6,P-GPS,
7700,2022-10-24 22:29:50,-34.9205128973277,-56.1474002782887,0.984252,0.984252,0,0.984252,4.92126,0,1.02028546572,2.21078419148,22,5,8.339,1.312336,1.312336,0.3131716,1.13749347472,0,0,0,179.8, 1.6, -2,0,0,1024,1024,1024,1024,0,0,0,0,187.9,0,0,95,4.171,4.171,0,0,0,0,4.163,72.14,0.984252,0.984252,6,P-GPS,
7800,2022-10-24 22:29:51,-34.9205129181465,-56.1474002091482,0.984252,0.984252,0,0.984252,4.92126,0,1.02124675184,2.23281831292,22,5,8.339,1.312336,1.312336,0.3131716,1.13749347472,0,0,0,180.1, 1.6, -1.9,0,0,1024,1024,1024,1024,0,0,0,0,187.9,0,0,95,4.171,4.171,0,0,0,0,4.163,72.14,0.984252,0.984252,6,P-GPS,
7900,2022-10-24 22:29:51,-34.9205129366766,-56.1474001329525,0.984252,0.984252,0,0.984252,4.92126,0,1.0213090878,2.2565945604,22,5,8.339,1.312336,1.312336,0.3131716,1.13749347472,0,0,0,180.2, 1.9, -2.1,0,0,1024,1024,1024,1024,0,0,0,0,187.9,0,0,95,4.171,4.171,0,0,0,0,4.163,72.14,0.984252,0.984252,6,P-GPS,
8000,2022-10-24 22:29:51,-34.9205129359878,-56.1474000531966,0.984252,0.984252,0,0.984252,4.92126,0,1.01486879888,2.28045610972,22,5,8.339,1.312336,1.312336,0.3131716,1.13749347472,0,0,0,180.2, 2, -1.8,0,0,1024,1024,1024,1024,0,0,0,0,187.9,0,0,95,4.171,4.171,0,0,0,0,4.163,72.14,0.984252,0.984252,6,P-GPS,
8100,2022-10-24 22:29:51,-34.9205128726148,-56.1473999196036,0.984252,0.984252,0,0.984252,4.92126,0,0.98308074012,2.32662737104,22,5,8.339,1.312336,1.312336,0.3131716,1.13749347472,0,0,0,180.2, 1.9, -1.7,0,0,1024,1024,1024,1024,0,0,0,0,187.9,0,0,95,4.169,4.168,0,0,0,0,4.163,72.14,0.984252,0.984252,6,P-GPS,
8200,2022-10-24 22:29:51,-34.9205128910989,-56.1473998033605,0.984252,0.984252,0,0.984252,4.92126,0,0.98278218368,2.36205060052,22,5,8.339,1.312336,1.312336,0.3131716,1.13749347472,0,0,0,180.2, 1.9, -1.7,0,0,1024,1024,1024,1024,0,0,0,0,187.9,0,0,95,4.169,4.168,0,0,0,0,4.163,72.14,0.984252,0.984252,6,P-GPS,
8300,2022-10-24 22:29:51,-34.9205129112529,-56.147399675501,0.984252,0.984252,0,0.984252,4.92126,0,0.98386158004,2.401000733,22,5,8.339,1.312336,1.312336,0.3131716,1.13749347472,0,0,0,180.2, 1.8, -1.7,0,0,1024,1024,1024,1024,0,0,0,0,187.9,0,0,95,4.169,4.168,0,0,0,0,4.163,72.14,0.984252,0.984252,6,P-GPS,
8400,2022-10-24 22:29:51,-34.9205129390855,-56.147399593786,0.984252,0.984252,0,0.984252,4.92126,0,0.99077759076,2.42747055012,22,5,8.339,1.312336,1.312336,0.3131716,1.13749347472,0,0,0,180.2, 1.7, -1.7,0,0,1024,1024,1024,1024,0,0,0,0,187.9,0,0,95,4.169,4.168,0,0,0,0,4.163,72.14,0.984252,0.984252,6,P-GPS,
8500,2022-10-24 22:29:51,-34.9205130678901,-56.1473994676811,1.312336,1.312336,0,1.312336,4.92126,0,1.03396000684,2.48773301924,22,5,8.339,1.312336,1.312336,0.3131716,1.13749347472,0,0,0,180.2, 1.7, -1.1,0,0,1024,1024,1024,1024,0,0,0,0,187.9,0,0,95,4.169,4.168,0,0,0,0,4.163,72.14,1.312336,1.312336,6,P-GPS,
8600,2022-10-24 22:29:51,-34.9205130568985,-56.1473993443823,1.312336,1.312336,0,1.312336,4.92126,0,1.02784780192,2.5248360388,22,5,8.339,1.312336,1.312336,0.3131716,1.13749347472,0,0,0,180.2, 1.6, -1.1,0,0,1024,1024,1024,1024,0,0,0,0,187.9,0,0,95,4.169,4.168,0,0,0,0,4.163,72.14,1.312336,1.312336,6,P-GPS,
8700,2022-10-24 22:29:51,-34.9205130359702,-56.14739921423,1.312336,1.312336,0,1.312336,4.92126,0,1.01941276228,2.56451451776,22,5,8.339,1.312336,1.312336,0.3131716,1.13749347472,0,0,0,180.2, 1.5, -1,0,0,1024,1024,1024,1024,0,0,0,0,187.9,0,0,95,4.169,4.168,0,0,0,0,4.163,72.14,1.312336,1.312336,6,P-GPS,
8800,2022-10-24 22:29:52,-34.920513012008,-56.1473991235152,1.312336,1.312336,0,1.312336,4.92126,0,1.010990846,2.59302501736,22,5,8.339,1.312336,1.312336,0.3131716,1.13749347472,0,0,0,180.3, 1.2, -1.2,0,0,1024,1024,1024,1024,0,0,0,0,187.9,0,0,95,4.169,4.168,0,0,0,0,4.163,72.14,1.312336,1.312336,6,P-GPS,
8900,2022-10-24 22:29:52,-34.9205129464456,-56.1473989376216,1.312336,1.312336,0,1.312336,4.92126,0,0.99007877184,2.65356307704,22,5,8.339,1.312336,1.312336,0.3131716,1.13749347472,0,0,0,180.3, 1.5, -1.4,0,0,1024,1024,1024,1024,0,0,0,0,187.9,0,0,95,4.169,4.168,0,0,0,0,4.163,72.14,1.312336,1.312336,6,P-GPS,
9000,2022-10-24 22:29:52,-34.9205129452862,-56.1473988825889,1.312336,1.312336,0,1.312336,4.92126,0,0.991141764,2.67003289384,22,5,8.339,1.312336,1.312336,0.3131716,1.13749347472,0,0,0,180.3, 1.6, -1.5,0,0,1024,1024,1024,1024,0,0,0,0,187.9,0,0,95,4.169,4.168,0,0,0,0,4.163,72.14,1.312336,1.312336,6,P-GPS,
9100,2022-10-24 22:29:52,-34.9205129510696,-56.1473988303693,1.312336,1.312336,0,1.312336,4.92126,0,0.9948983258,2.68579733004,22,5,8.339,1.312336,1.312336,0.3131716,1.13749347472,0,0,0,180.2, 1.8, -1.7,0,0,1024,1024,1024,1024,0,0,0,0,187.9,0,0,95,4.168,4.165,0,0,0,0,4.119,72.14,1.312336,1.312336,6,P-GPS,
9200,2022-10-24 22:29:52,-34.9205130052406,-56.1473988164849,1.312336,1.312336,0,1.312336,4.92126,0,1.015009875,2.70599418108,22,5,8.339,1.312336,1.312336,0.3131716,1.13749347472,0,0,0,180.2, 1.9, -1.3,0,0,1024,1024,1024,1024,0,0,0,0,187.9,0,0,95,4.168,4.165,0,0,0,0,4.119,72.14,1.312336,1.312336,6,P-GPS,
9300,2022-10-24 22:29:52,-34.9205131655406,-56.1473988889551,1.312336,1.312336,0,1.312336,4.92126,0,1.07096788204,2.76836623032,22,5,8.339,1.312336,1.312336,0.3131716,1.13749347472,0,0,0,180.3, 1.6, -1.1,0,0,1024,1024,1024,1024,0,0,0,0,187.9,0,0,95,4.168,4.165,0,0,0,0,4.119,72.14,1.312336,1.312336,6,P-GPS,
9400,2022-10-24 22:29:52,-34.9205131976197,-56.1473988396989,1.312336,1.312336,0,1.312336,4.92126,0,1.08402890608,2.78718512856,22,5,8.339,1.312336,1.312336,0.3131716,1.13749347472,0,0,0,180.3, 1.6, -1.2,0,0,1024,1024,1024,1024,0,0,0,0,187.9,0,0,95,4.168,4.165,0,0,0,0,4.119,72.14,1.312336,1.312336,6,P-GPS,
9500,2022-10-24 22:29:52,-34.9205132258431,-56.147398785404,1.312336,1.312336,0,1.312336,4.92126,0,1.0960302188,2.80641741264,22,5,8.339,1.312336,1.312336,0.3131716,1.13749347472,0,0,0,180.2, 1.6, -1.3,0,0,1024,1024,1024,1024,0,0,0,0,187.9,0,0,95,4.168,4.165,0,0,0,0,4.119,72.14,1.312336,1.312336,6,P-GPS,
9600,2022-10-24 22:29:52,-34.9205132309002,-56.1473987512239,1.312336,1.312336,0,1.312336,4.92126,0,1.09909124252,2.81680783292,22,5,8.339,1.312336,1.312336,0.3131716,1.13749347472,0,0,0,180.3, 1.8, -1.3,0,0,1024,1024,1024,1024,0,0,0,0,187.9,0,0,95,4.168,4.165,0,0,0,0,4.119,72.14,1.312336,1.312336,6,P-GPS,
9700,2022-10-24 22:29:52,-34.9205132312499,-56.1473987229667,1.312336,1.312336,0,1.312336,4.92126,0,1.10030187248,2.8252625576,22,5,8.339,1.312336,1.312336,0.3131716,1.13749347472,0,0,0,180.3, 1.8, -1.4,0,0,1024,1024,1024,1024,0,0,0,0,187.9,0,0,95,4.168,4.165,0,0,0,0,4.119,72.14,1.312336,1.312336,6,P-GPS,
9800,2022-10-24 22:29:53,-34.9205131943445,-56.1473986091633,1.312336,1.312336,0,1.312336,4.92126,0,1.09203087484,2.86187345116,22,5,8.339,1.312336,1.312336,0.3131716,1.13749347472,0,0,0,180.3, 1.7, -1.4,0,0,1024,1024,1024,1024,0,0,0,0,187.9,0,0,95,4.168,4.165,0,0,0,0,4.119,72.14,1.312336,1.312336,6,P-GPS,
9900,2022-10-24 22:29:53,-34.920513184722,-56.147398544733,1.312336,1.312336,0,1.312336,4.92126,0,1.09190948376,2.8814633468,22,5,8.339,1.312336,1.312336,0.3131716,1.13749347472,0,0,0,180.3, 1.8, -1.4,0,0,1024,1024,1024,1024,0,0,0,0,187.9,0,0,95,4.168,4.165,0,0,0,0,4.119,72.14,1.312336,1.312336,6,P-GPS,
10000,2022-10-24 22:29:53,-34.9205132178071,-56.1473985027154,1.312336,1.312336,0,1.312336,4.92126,0,1.10611552096,2.89889116888,22,5,8.339,1.312336,1.312336,0.3131716,1.13749347472,0,0,0,180.3, 1.9, -1.4,0,0,1024,1024,1024,1024,0,0,0,0,187.9,0,0,95,4.168,4.165,0,0,0,0,4.119,72.14,1.312336,1.312336,6,P-GPS,
10100,2022-10-24 22:29:53,-34.9205132609499,-56.1473984708829,1.312336,1.312336,0,1.312336,4.92126,0,1.12340226692,2.9172901196,22,5,8.336,1.312336,1.312336,0.3131716,1.13749347472,0,0,0,180.3, 1.7, -1.4,0,0,1024,1024,1024,1024,0,0,0,0,187.9,0,0,95,4.165,4.164,0,0,0,0,4.096,72.14,1.312336,1.312336,6,P-GPS,
10200,2022-10-24 22:29:53,-34.9205132812537,-56.147398343521,1.312336,1.312336,0,1.312336,4.92126,0,1.13871722804,2.9561024568,22,5,8.336,1.312336,1.312336,0.3131716,1.13871722804,0,0,0,180.2, 1.5, -1.6,0,0,1024,1024,1024,1024,0,0,0,0,187.9,0,0,95,4.165,4.164,0,0,0,0,4.096,72.14,1.312336,1.312336,6,P-GPS,
10300,2022-10-24 22:29:53,-34.920513287314,-56.1473983160167,1.312336,1.312336,0,1.312336,4.92126,0,1.1427657846,2.96462279828,22,5,8.336,1.312336,1.312336,0.3131716,1.1427657846,0,0,0,180.2, 1.6, -1.6,0,0,1024,1024,1024,1024,0,0,0,0,187.9,0,0,95,4.165,4.164,0,0,0,0,4.096,72.14,1.312336,1.312336,6,P-GPS,
10400,2022-10-24 22:29:53,-34.9205132843233,-56.1473983218462,1.312336,1.312336,0,1.312336,4.92126,0,1.14129924912,2.96667988496,22,5,8.336,1.312336,1.312336,0.3131716,1.1427657846,0,0,0,180.2, 1.6, -1.6,0,0,1024,1024,1024,1024,0,0,0,0,187.9,0,0,95,4.165,4.164,0,0,0,0,4.096,72.14,1.312336,1.312336,6,P-GPS,"Error de calibración del estabilizador. Reinicia la aeronave o contacta con la Asistencia DJI (Code: 40011)"
10500,2022-10-24 22:29:53,-34.9205132785489,-56.1473983369752,1.312336,1.312336,0,1.312336,4.92126,0,1.138205417,2.97167332344,22,5,8.336,1.312336,1.312336,0.3131716,1.1427657846,0,0,0,180.2, 1.7, -1.6,0,0,1024,1024,1024,1024,0,0,0,0,187.9,0,0,95,4.165,4.164,0,0,0,0,4.096,72.14,1.312336,1.312336,6,P-GPS,"Punto de origen actualizado. Altitud de RPO establecida en 100m (Code: 3000001)"
10600,2022-10-24 22:29:53,-34.9205132181023,-56.1473983377288,1.312336,1.312336,0,1.312336,4.92126,0,1.11669622996,2.99372712992,22,5,8.336,1.312336,1.312336,0.3131716,1.1427657846,0,0,0,180.2, 1.7, -1.6,0,0,1024,1024,1024,1024,0,0,0,0,187.9,0,0,95,4.165,4.164,0,0,0,0,4.096,72.14,1.312336,1.312336,6,P-GPS,
10700,2022-10-24 22:29:53,-34.920513208976,-56.1473983040887,1.312336,1.312336,0,1.312336,4.92126,0,1.11585633492,3.00432752396,22,5,8.336,1.312336,1.312336,0.3131716,1.1427657846,0,0,0,180.2, 1.6, -1.5,0,0,1024,1024,1024,1024,0,0,0,0,187.9,0,0,95,4.165,4.164,0,0,0,0,4.096,72.14,1.312336,1.312336,6,P-GPS,
10800,2022-10-24 22:29:54,-34.9205132022555,-56.1473982944574,1.312336,1.312336,0,1.312336,4.92126,0,1.11418310652,3.00811033248,22,5,8.336,1.312336,1.312336,0.3131716,1.1427657846,0,0,0,180.2, 1.7, -1.5,0,0,1024,1024,1024,1024,0,0,0,0,187.9,0,0,95,4.165,4.164,0,0,0,0,4.096,72.14,1.312336,1.312336,6,P-GPS,
10900,2022-10-24 22:29:54,-34.9205131946779,-56.1473982908874,1.312336,1.312336,0,1.312336,4.92126,0,1.11176512744,3.01107621184,22,5,8.336,1.312336,1.312336,0.3131716,1.1427657846,0,0,0,180.2, 1.4, -1.7,0,0,1024,1024,1024,1024,0,0,0,0,187.9,0,0,95,4.165,4.164,0,0,0,0,4.096,72.14,1.312336,1.312336,6,P-GPS,
11000,2022-10-24 22:29:54,-34.9205132951769,-56.1473982241702,1.312336,1.312336,0,1.312336,4.92126,0,1.15227365892,3.05282162,22,5,8.336,1.312336,1.312336,0.3131716,1.15227365892,0,0,0,180.2, 1.5, -1.7,0,0,1024,1024,1024,1024,0,0,0,0,187.9,0,0,95,4.165,4.164,0,0,0,0,4.096,72.14,1.312336,1.312336,6,P-GPS,
11100,2022-10-24 22:29:54,-34.9205133413303,-56.1473981742506,1.312336,1.312336,0,1.312336,4.92126,0,1.17241473568,3.07533146324,22,5,8.336,1.312336,1.312336,0.3131716,1.17241473568,0,0,0,180.3, 1.7, -1.5,0,0,1177,1024,1024,1024,23,0,0,0,187.9,0,0,95,4.165,4.164,0,0,0,0,4.096,72.14,1.312336,1.312336,6,P-GPS,
11200,2022-10-24 22:29:54,-34.9205133610764,-56.1473981530609,1.312336,1.312336,0,1.312336,4.92126,0,1.18104334488,3.0849246394,22,5,8.328,1.312336,1.312336,0.3131716,1.18104334488,0,0,0,180.3, 1.4, -1.4,0,0,1609,1024,1024,1024,89,0,0,0,187.9,0,0,95,4.163,4.161,0,0,0,0,4.109,72.14,1.312336,1.312336,6,P-GPS,
11300,2022-10-24 22:29:54,-34.9205133820422,-56.147398137414,1.312336,1.312336,0,1.312336,4.92126,0,1.18966867324,3.09389445596,22,5,8.328,1.312336,1.312336,0.3131716,1.18966867324,0,0,0,180.4, -3.3, -1.3,0,0,1684,1024,1024,1024,100,0,0,0,187.9,0,0,95,4.163,4.161,0,0,0,0,4.109,72.14,1.312336,1.312336,6,P-GPS,
11400,2022-10-24 22:29:54,-34.9205134589231,-56.1473980943549,1.312336,1.312336,0,1.312336,4.92126,0.223694,1.2201608002,3.12476059868,22,5,8.328,1.312336,1.312336,0.3131716,1.2201608002,-0.223694,0,0,180.6, -11, -1.5,0,0,1684,1024,1024,1024,100,0,0,0,187.9,0,0,95,4.163,4.161,0,0,0,0,4.109,72.14,1.312336,1.312336,6,P-GPS,
11500,2022-10-24 22:29:54,-34.9205136834195,-56.1473980307239,1.312336,1.312336,0,1.312336,4.92126,0.671082,1.30416014672,3.20885180872,22,5,8.328,1.312336,1.312336,0.671082,1.30416014672,-0.671082,0,0,180.6, -15.2, -1.5,0,0,1684,1024,1024,1024,100,0,0,0,187.9,0,0,95,4.163,4.161,0,0,0,0,4.109,72.14,1.312336,1.312336,6,P-GPS,
11600,2022-10-24 22:29:54,-34.9205141500941,-56.1473980186314,1.312336,1.312336,0,1.312336,4.593176,1.342164,1.4696850864,3.3791667748,22,5,8.328,1.312336,1.312336,1.342164,1.4696850864,-1.342164,0,0,180.5, -15.7, -1.4,0,0,1684,1024,1024,1024,100,0,0,0,187.9,0,0,95,4.163,4.161,0,0,0,0,4.109,72.14,1.312336,1.312336,6,P-GPS,
11700,2022-10-24 22:29:54,-34.9205148939026,-56.1473980123807,1.312336,1.312336,0,1.312336,4.593176,2.013246,1.73460963556,3.6505250512,22,5,8.328,1.312336,1.312336,2.013246,1.73460963556,-2.013246,0,0,180.4, -15.3, -1.3,0,0,1684,1024,1024,1024,100,0,0,0,187.9,0,0,95,4.163,4.161,0,0,0,0,4.109,72.14,1.312336,1.312336,6,P-GPS,
11800,2022-10-24 22:29:55,-34.9205158800395,-56.1473979838231,0.984252,0.984252,0,0.984252,4.593176,2.684328,2.08945872828,4.0104331992,22,5,8.328,1.312336,1.312336,2.684328,2.08945872828,-2.684328,0,0,180.3, -15, -1.2,0,0,1684,1024,1024,1024,100,0,0,0,187.9,0,0,95,4.163,4.161,0,0,0,0,4.109,72.14,0.984252,0.984252,6,P-GPS,
11900,2022-10-24 22:29:55,-34.9205171817506,-56.1473979630455,0.984252,0.984252,0,0.984252,4.593176,3.131716,2.55927829712,4.485400406,22,5,8.328,1.312336,1.312336,3.131716,2.55927829712,-3.131716,0,0,180.3, -14.9, -1.3,0,0,1684,1024,1024,1024,100,0,0,0,187.9,0,0,95,4.163,4.161,0,0,0,0,4.109,72.14,0.984252,0.984252,6,P-GPS,
12000,2022-10-24 22:29:55,-34.9205186809325,-56.1473979162734,0.984252,0.984252,0,0.984252,4.92126,3.802798,3.10315954812,5.0325460928,22,5,8.328,1.312336,1.312336,3.802798,3.10315954812,-3.802798,0,0,180.3, -14.6, -1.5,0,0,1684,1024,1024,1024,100,0,0,0,187.9,0,0,95,4.163,4.161,0,0,0,0,4.109,72.14,0.984252,0.984252,6,P-GPS,
12100,2022-10-24 22:29:55,-34.9205204834499,-56.1473978661095,0.984252,0.984252,0,0.984252,4.92126,4.250186,3.7581366032,5.6903873212,21,5,8.327,1.312336,1.312336,4.250186,3.7581366032,-4.250186,0,0,180.2, -14.2, -1.5,0,0,1684,1024,1024,1024,100,0,0,0,187.9,0,0,95,4.151,4.15,0,0,0,0,4.046,72.14,0.984252,0.984252,6,P-GPS,
12200,2022-10-24 22:29:55,-34.920522436788,-56.1473977704546,0.984252,0.984252,0,0.984252,4.92126,4.921268,4.4700460748,6.4036091288,21,5,8.327,1.312336,1.312336,4.921268,4.4700460748,-4.921268,0,0,180.2, -13.9, -1.6,0,0,1684,1024,1024,1024,100,0,0,0,187.9,0,0,95,4.151,4.15,0,0,0,0,4.046,72.14,0.984252,0.984252,6,P-GPS,
12300,2022-10-24 22:29:55,-34.9205250045825,-56.1473975018026,0.984252,0.984252,0,0.984252,4.92126,5.368656,5.4103020104,7.3439306812,21,5,8.327,1.312336,1.312336,5.368656,5.4103020104,-5.368656,0,0,180.3, -14, -1.7,0,0,1684,1024,1024,1024,100,0,0,0,187.9,0,0,95,4.151,4.15,0,0,0,0,4.046,72.14,0.984252,0.984252,6,P-GPS,
12400,2022-10-24 22:29:55,-34.9205273835014,-56.1473974237648,0.984252,0.984252,0,0.984252,4.92126,5.816044,6.2768702796,8.2121721788,21,5,8.327,1.312336,1.312336,5.816044,6.2768702796,-5.816044,0,0,180.4, -14.1, -1.8,0,0,1684,1024,1024,1024,100,0,0,0,187.9,0,0,95,4.151,4.15,0,0,0,0,4.046,72.14,0.984252,0.984252,6,P-GPS,
12500,2022-10-24 22:29:55,-34.9205300715372,-56.1473973468861,0.984252,0.984252,0,0.984252,4.92126,6.263432,7.256233828,9.1931761472,21,5,8.327,1.312336,1.312336,6.263432,7.256233828,-6.263432,0,0,180.4, -14.2, -1.6,0,0,1684,1024,1024,1024,100,0,0,0,187.9,0,0,95,4.151,4.15,0,0,0,0,4.046,72.14,0.984252,0.984252,6,P-GPS,
12600,2022-10-24 22:29:55,-34.9205328074828,-56.1473972039452,0.984252,0.984252,0,0.984252,4.92126,6.71082,8.2548559072,10.1922903524,21,5,8.327,1.312336,1.312336,6.71082,8.2548559072,-6.71082,0,0,180.4, -14.1, -1.6,0,0,1684,1024,1024,1024,100,0,0,0,187.9,0,0,95,4.151,4.15,0,0,0,0,4.046,72.14,0.984252,0.984252,6,P-GPS,
12700,2022-10-24 22:29:55,-34.9205361620383,-56.1473968804994,0.984252,0.984252,0,0.984252,4.92126,7.158208,9.4825462352,11.4200462972,21,5,8.327,1.312336,1.312336,7.158208,9.4825462352,-7.158208,0,0,180.4, -14, -1.5,0,0,1684,958,1024,1024,100,-10,0,0,187.9,0,0,95,4.151,4.15,0,0,0,0,4.046,72.14,0.984252,0.984252,6,P-GPS,
12800,2022-10-24 22:29:56,-34.9205391981614,-56.1473966590609,0.984252,0.984252,0,0.984252,4.92126,7.381902,10.5921591316,12.5297248104,21,5,8.327,1.312336,1.312336,7.381902,10.5921591316,-7.381902,0,0,180.4, -14, -1.6,0,0,1684,982,1024,1024,100,-6,0,0,187.9,0,0,95,4.151,4.15,0,0,0,0,4.046,72.14,0.984252,0.984252,6,P-GPS,
12900,2022-10-24 22:29:56,-34.9205425427948,-56.1473964182021,0.984252,0.984252,0,0.984252,4.92126,7.82929,11.8145016904,13.7521657944,21,5,8.327,1.312336,1.312336,7.82929,11.8145016904,-7.82929,0,0,180.4, -14.2, -1.7,0,0,1684,982,1024,1024,100,-6,0,0,187.9,0,0,95,4.151,4.15,0,0,0,0,4.046,72.14,0.984252,0.984252,31,Sport,"Error de calibración del estabilizador. Reinicia la aeronave o contacta con la Asistencia DJI (Code: 40011)"
13000,2022-10-24 22:29:56,-34.9205458112008,-56.1473961315766,0.984252,0.984252,0,0.984252,4.92126,8.276678,13.0100397864,14.9477038904,21,5,8.327,1.312336,1.312336,8.276678,13.0100397864,-8.276678,0,0,180.7, -20.6, -2.3,0,0,1684,1024,1024,1024,100,0,0,0,187.9,0,0,95,4.151,4.15,0,0,0,0,4.046,72.14,0.984252,0.984252,31,Sport,
13100,2022-10-24 22:29:56,-34.9205494582542,-56.1473958155513,0.984252,0.984252,0,0.984252,4.92126,8.94776,14.3440293304,16.2816934344,21,5,8.327,1.312336,1.312336,8.94776,14.3440293304,-8.94776,0,0,180.8, -24.3, -1.8,0,0,1684,1024,1024,1024,100,0,0,0,187.9,0,0,95,4.151,4.15,0,0,0,0,4.046,72.14,0.984252,0.984252,31,Sport,
13200,2022-10-24 22:29:56,-34.9205531764087,-56.1473951149914,0.984252,0.984252,0,0.984252,4.92126,9.842536,15.712434886,17.6543312736,21,5,8.327,1.312336,1.312336,9.842536,15.712434886,-9.842536,0,0,180.7, -24.4, -1.4,0,0,1684,1024,1024,1024,100,0,0,0,187.9,0,0,95,4.151,4.15,0,0,0,0,4.046,72.14,0.984252,0.984252,31,Sport,
13300,2022-10-24 22:29:56,-34.9205574987127,-56.1473948477365,0.984252,0.984252,0,0.984252,4.92126,10.513618,17.2909126268,19.2333667572,21,5,8.305,1.312336,1.312336,10.513618,17.2909126268,-10.513618,0.447388,0,177.1, -23.6, -1.4,0,0,1684,1024,1024,1024,100,0,0,0,187.9,0,0,95,4.151,4.15,0,0,0,0,4.327,72.32,0.984252,0.984252,31,Sport,
13400,2022-10-24 22:29:56,-34.920561939815,-56.1473945685236,0.984252,0.984252,0,0.984252,4.92126,11.2070694,18.9129599228,20.8558405624,21,5,8.305,1.312336,1.312336,11.2070694,18.9129599228,-11.1847,0.671082,0,177, -22.8, -1.5,0,0,1684,1024,1024,1024,100,0,0,0,187.9,0,0,95,4.151,4.15,0,0,0,0,4.327,72.32,0.984252,0.984252,31,Sport,"Error de calibración del estabilizador. Reinicia la aeronave o contacta con la Asistencia DJI (Code: 40011)"
13500,2022-10-24 22:29:56,-34.9205668780323,-56.1473942581501,0.984252,0.984252,0,0.984252,4.92126,11.6544574,20.7166673296,22.65994167,21,5,8.305,1.312336,1.312336,11.6544574,20.7166673296,-11.632088,0.671082,0,177.2, -22.6, -1.4,0,0,1684,1024,1024,1024,100,0,0,0,187.9,0,0,95,4.151,4.15,0,0,0,0,4.327,72.32,0.984252,0.984252,31,Sport,
13600,2022-10-24 22:29:56,-34.9205717970503,-56.1473930480099,0.984252,0.984252,0,0.984252,4.92126,12.3255394,22.5338589888,24.4907816236,21,5,8.305,1.312336,1.312336,12.3255394,22.5338589888,-12.30317,0.671082,0,177.5, -22, -1.1,0,0,1684,1024,1024,1024,100,0,0,0,187.9,0,0,95,4.151,4.15,0,0,0,0,4.327,72.32,0.984252,0.984252,31,Sport,
13700,2022-10-24 22:29:56,-34.9205771654081,-56.1473925433466,0.984252,0.984252,0,0.984252,4.92126,12.7729274,24.4982947472,26.4552501904,21,5,8.305,1.312336,1.312336,12.7729274,24.4982947472,-12.750558,0.671082,0,177.1, -22.2, -1.3,0,0,1684,1024,1024,1024,100,0,0,0,187.9,0,0,95,4.151,4.15,0,0,0,0,4.327,72.32,0.984252,0.984252,31,Sport,
13800,2022-10-24 22:29:57,-34.9205823899319,-56.1473921394049,1.312336,1.312336,0,1.312336,4.92126,13.2203154,26.407973286,28.3652240048,21,5,8.305,1.312336,1.312336,13.2203154,26.407973286,-13.197946,0.671082,0,177, -22.6, -1.6,0,0,1684,1024,1024,1024,100,0,0,0,187.9,0,0,95,4.151,4.15,0,0,0,0,4.327,72.32,1.312336,1.312336,31,Sport,
13900,2022-10-24 22:29:57,-34.9205880748755,-56.1473917185577,1.312336,1.312336,0,1.312336,4.92126,13.8913974,28.4855980244,30.4432096356,21,5,8.305,1.312336,1.312336,13.8913974,28.4855980244,-13.869028,0.671082,0,177.1, -22.7, -1.6,0,0,1684,1024,1101,1024,100,0,12,0,187.9,0,0,95,4.151,4.15,0,0,0,0,4.327,72.32,1.312336,1.312336,31,Sport,
14000,2022-10-24 22:29:57,-34.9205939227091,-56.1473916106103,1.312336,1.312336,0,1.312336,4.92126,13.8913974,30.6153881188,32.5770351632,21,5,8.305,1.312336,1.312336,13.8913974,30.6153881188,-14.316416,0.671082,0,177.1, -22.3, -1.4,0,0,1684,1024,1101,1024,100,0,12,0,187.9,0,0,95,4.151,4.15,0,0,0,0,4.327,72.32,1.312336,1.312336,31,Sport,
14100,2022-10-24 22:29:57,-34.9206002747546,-56.1473911809086,1.312336,1.312336,0,1.312336,4.92126,15.0098674,32.936024676,34.897966996,21,5,8.305,1.312336,1.312336,15.0098674,32.936024676,-14.987498,0.671082,0,177.1, -21.8, -1.4,0,0,1684,1024,1675,1024,100,0,99,0,187.9,0,0,95,4.151,4.15,0,0,0,0,4.327,72.32,1.312336,1.312336,31,Sport,
14200,2022-10-24 22:29:57,-34.9206065264227,-56.1473906874431,1.312336,1.312336,0,1.312336,5.249344,15.4572554,35.221785904,37.183728224,21,5,8.305,1.312336,1.312336,15.4572554,35.221785904,-15.434886,0.671082,-0.671082,177.1, -20.3, -1.2,0,0,1684,1024,1684,1024,100,0,100,0,187.9,0,0,95,4.151,4.15,0,0,0,0,4.327,72.32,1.312336,1.312336,31,Sport,
14300,2022-10-24 22:29:57,-34.9206133378066,-56.1473901339728,1.64042,1.64042,0,1.64042,5.249344,16.3520314,37.712271548,39.674541952,21,5,8.279,1.64042,1.64042,16.3520314,37.712271548,-16.329662,0.671082,-1.565858,177.1, -19, -1,0,0,1684,1024,1684,1024,100,0,100,0,187.9,0,0,95,4.138,4.135,0,0,0,0,4.557,72.32,1.64042,1.64042,31,Sport,
14400,2022-10-24 22:29:57,-34.9206203570842,-56.1473896448226,1.968504,1.968504,0,1.968504,5.577428,16.7994194,40.27723226,42.239502664,21,5,8.279,1.968504,1.968504,16.7994194,40.27723226,-16.77705,0.894776,-2.460634,177, -18.2, -1.4,0,0,1684,1024,1684,1024,100,0,100,0,187.9,0,0,95,4.138,4.135,0,0,0,0,4.557,72.32,1.968504,1.968504,31,Sport,
14500,2022-10-24 22:29:57,-34.9206276349,-56.1473891459344,2.296588,2.296588,0,2.296588,6.233596,17.2468074,42.93635308,44.898951568,21,5,8.279,2.296588,2.296588,17.2468074,42.93635308,-17.224438,0.894776,-3.579104,177.1, -18.1, -1.4,0,0,1684,1024,1684,1024,100,0,100,0,187.9,0,0,95,4.138,4.135,0,0,0,0,4.557,72.32,2.296588,2.296588,31,Sport,
14600,2022-10-24 22:29:57,-34.9206348186309,-56.1473886032549,3.28084,3.28084,0,3.28084,6.889764,17.6941954,45.562337416,47.525263988,21,5,8.279,3.28084,3.28084,17.6941954,45.562337416,-17.671826,0.894776,-4.47388,177.1, -17.7, -1,0,0,1684,1024,1684,1024,100,0,100,0,187.9,0,0,95,4.138,4.135,0,0,0,0,4.557,72.32,3.28084,3.28084,31,Sport,
14700,2022-10-24 22:29:57,-34.9206425291309,-56.1473880041741,3.937008,3.937008,0,3.937008,7.545932,18.1415834,48.381235144,50.343833632,21,5,8.279,3.937008,3.937008,18.1415834,48.381235144,-18.119214,0.894776,-5.368656,177.2, -18.1, -0.4,0,0,1684,1024,1684,1024,100,0,100,0,187.9,0,0,95,4.138,4.135,0,0,0,0,4.557,72.32,3.937008,3.937008,31,Sport,
14800,2022-10-24 22:29:58,-34.9206498986998,-56.1473874240969,4.92126,4.92126,0,4.92126,8.530184,18.5889714,51.075460952,53.038387524,21,5,8.279,4.92126,4.92126,18.5889714,51.075460952,-18.566602,0.894776,-6.263432,177.2, -17.2, -0.8,0,0,1684,1024,1684,1024,100,0,100,0,187.9,0,0,95,4.138,4.135,0,0,0,0,4.557,72.32,4.92126,4.92126,31,Sport,
14900,2022-10-24 22:29:58,-34.9206579018376,-56.1473867360174,6.233596,6.233596,0,6.233596,9.186352,19.0363594,54.0026264,55.965552972,21,5,8.279,6.233596,6.233596,19.0363594,54.0026264,-19.01399,1.11847,-7.158208,177.2, -17.2, -0.7,0,0,1684,1024,1684,1024,100,0,100,0,187.9,0,0,95,4.138,4.135,0,0,0,0,4.557,72.32,6.233596,6.233596,31,Sport,
15000,2022-10-24 22:29:58,-34.9206655246882,-56.1473861061525,7.545932,7.545932,0,7.545932,10.498688,19.2600534,56.790356148,58.752954636,21,5,8.279,7.545932,7.545932,19.2600534,56.790356148,-19.237684,1.11847,-8.052984,177.2, -16.7, -1.3,0,0,1684,1024,1684,1024,100,0,100,0,187.9,0,0,95,4.138,4.135,0,0,0,0,4.557,72.32,7.545932,7.545932,31,Sport,
15100,2022-10-24 22:29:58,-34.9206736824631,-56.1473854396933,9.186352,9.186352,0,9.186352,11.811024,19.7074414,59.773295876,61.736222448,21,5,8.279,9.186352,9.186352,19.7074414,59.773295876,-19.685072,0.894776,-8.94776,176.9, -16.2, -1.4,0,0,1684,1024,1684,1024,100,0,100,0,187.9,0,0,95,4.138,4.135,0,0,0,0,4.557,72.32,9.186352,9.186352,31,Sport,
15200,2022-10-24 22:29:58,-34.9206816834904,-56.1473849368998,10.826772,10.826772,0,10.826772,13.12336,20.1548294,62.695868148,64.659122804,21,5,8.279,10.826772,10.826772,20.1548294,62.695868148,-20.13246,0.894776,-9.618842,176.9, -15.8, -2,0,0,1684,1024,1684,1024,100,0,100,0,187.9,0,0,95,4.138,4.135,0,0,0,0,4.557,72.32,10.826772,10.826772,31,Sport,
15300,2022-10-24 22:29:58,-34.9206902102447,-56.147384440176,12.467192,12.467192,0,12.467192,14.435696,20.3785234,65.809713392,67.773624216,21,5,8.102,12.467192,12.467192,20.3785234,65.809713392,-20.356154,1.11847,-10.289924,176.9, -14.7, -2.4,0,0,1684,1024,1684,1024,100,0,100,0,187.9,0,0,95,3.993,3.986,0,0,0,0,6.61,72.32,12.467192,12.467192,31,Sport,
15400,2022-10-24 22:29:58,-34.920698407949,-56.1473838571446,14.435696,14.435696,0,14.435696,14.76378,20.6022174,68.80577648,70.769687304,21,5,8.102,14.435696,14.435696,20.6022174,68.80577648,-20.579848,1.11847,-10.737312,176.9, -15.3, -2.3,0,0,1684,1024,1684,1024,100,0,100,0,187.9,0,0,95,3.993,3.986,0,0,0,0,6.61,72.32,14.435696,14.435696,31,Sport,
15500,2022-10-24 22:29:58,-34.9207070783841,-56.1473832241132,16.4042,16.4042,0,16.4042,23.950132,20.8259114,71.974739836,73.93865066,21,5,8.102,16.4042,16.4042,20.8259114,71.974739836,-20.803542,1.11847,-10.961006,177, -16.7, -2.5,0,0,1684,1024,1684,1024,100,0,100,0,187.9,0,0,95,3.993,3.986,0,0,0,0,6.61,72.32,16.4042,16.4042,31,Sport,
15600,2022-10-24 22:29:58,-34.9207155005792,-56.1473827220556,18.04462,18.04462,0,18.04462,25.262468,21.0496054,75.05085542,77.015422412,21,5,8.102,18.04462,18.04462,21.0496054,75.05085542,-21.027236,1.11847,-10.961006,176.8, -16.4, -2.5,0,0,1684,1024,1606,1024,100,0,88,0,187.9,0,0,95,3.993,3.986,0,0,0,0,6.61,72.32,18.04462,18.04462,31,Sport,
15700,2022-10-24 22:29:58,-34.9207247105764,-56.1473822378161,20.013124,20.013124,0,20.013124,26.902888,21.2732994,78.413388336,80.378611496,21,5,8.102,20.013124,20.013124,21.2732994,78.413388336,-21.25093,0.894776,-11.1847,176.9, -16.8, -2.9,0,0,1684,1024,1326,1024,100,0,46,0,187.9,0,0,95,3.993,3.986,0,0,0,0,6.61,72.32,20.013124,20.013124,31,Sport,
15800,2022-10-24 22:29:59,-34.9207332499283,-56.147381844029,21.981628,21.981628,0,21.981628,28.543308,21.2732994,81.529858252,83.496393748,21,5,8.102,21.981628,21.981628,21.2732994,81.529858252,-21.25093,0.894776,-10.513618,177, -17.7, -3.3,0,0,1684,1024,1332,1024,100,0,47,0,187.9,0,0,95,3.993,3.986,0,0,0,0,6.61,72.32,21.981628,21.981628,31,Sport,
15900,2022-10-24 22:29:59,-34.9207422127277,-56.147381450136,23.622048,23.622048,0,23.622048,30.183728,21.2732994,84.800855732,86.768703564,21,5,8.102,23.622048,23.622048,21.2732994,84.800855732,-21.25093,0.894776,-9.842536,177.3, -19.6, -3.5,0,0,1684,1024,1336,1024,100,0,47,0,187.9,0,0,95,3.993,3.986,0,0,0,0,6.61,72.32,23.622048,23.622048,31,Sport,"Error de calibración del estabilizador. Reinicia la aeronave o contacta con la Asistencia DJI (Code: 40011)"
16000,2022-10-24 22:29:59,-34.9207506394434,-56.1473810531719,25.262468,25.262468,0,25.262468,31.496064,21.2732994,87.876971316,89.845475316,21,5,8.102,25.262468,25.262468,21.2732994,87.876971316,-21.25093,0.894776,-8.94776,177.4, -21.1, -3.1,0,0,1684,1024,1329,1024,100,0,46,0,187.9,0,0,95,3.993,3.986,0,0,0,0,6.61,72.32,25.262468,25.262468,31,Sport,
16100,2022-10-24 22:29:59,-34.920759421681,-56.1473808647139,26.574804,26.574804,0,26.574804,32.480316,21.2732994,91.078414988,93.050199828,21,5,8.102,26.574804,26.574804,21.2732994,91.078414988,-21.25093,0.894776,-7.82929,177.5, -22.3, -3.1,0,0,1684,1024,1329,1024,100,0,46,0,187.9,0,0,95,3.993,3.986,0,0,0,0,6.61,72.32,26.574804,26.574804,31,Sport,
16200,2022-10-24 22:29:59,-34.9207678629875,-56.1473805034063,27.88714,27.88714,0,27.88714,33.792652,21.2732994,94.159451832,96.13189284,21,5,8.102,27.88714,27.88714,21.2732994,94.159451832,-21.25093,0.894776,-6.934514,177.6, -23.5, -3.8,0,0,1684,1024,1257,1024,100,0,35,0,187.9,0,0,95,3.993,3.986,0,0,0,0,6.61,72.32,27.88714,27.88714,31,Sport,
16300,2022-10-24 22:29:59,-34.9207767607794,-56.1473801400183,28.871392,28.871392,0,28.871392,34.44882,21.25093,97.40649918,99.37992444,21,5,8.102,28.871392,28.871392,21.2732994,97.40649918,-21.25093,0.671082,-5.816044,177.7, -24.4, -3.9,0,0,1684,1024,1131,1024,100,0,16,0,187.9,0,0,95,3.993,3.986,0,0,0,0,6.61,72.32,28.871392,28.871392,31,Sport,
16400,2022-10-24 22:29:59,-34.9207851879901,-56.1473797935537,29.52756,29.52756,0,29.52756,35.433072,21.474624,100.481958596,102.456368108,21,5,8.011,29.52756,29.52756,21.474624,100.481958596,-21.474624,0.671082,-4.921268,177.7, -25.3, -4.6,0,0,1684,1024,1103,1024,100,0,12,0,187.9,0,0,95,4.089,4.097,0,0,0,0,9.671,72.5,29.52756,29.52756,31,Sport,
16500,2022-10-24 22:29:59,-34.9207940688202,-56.1473794349405,30.183728,30.183728,0,30.183728,36.08924,21.474624,103.722772348,105.698494196,21,5,8.011,30.183728,30.183728,21.474624,103.722772348,-21.474624,0.671082,-3.802798,177.9, -26.1, -4.8,0,0,1684,1024,1083,1024,100,0,9,0,187.9,0,0,95,4.089,4.097,0,0,0,0,9.671,72.5,30.183728,30.183728,31,Sport,
16600,2022-10-24 22:29:59,-34.9208023787308,-56.1473791723399,30.839896,30.839896,0,30.839896,36.08924,21.474624,106.754268508,108.731302692,21,5,8.011,30.839896,30.839896,21.474624,106.754268508,-21.474624,0.671082,-2.908022,177.9, -26.6, -5,0,0,1684,1024,1024,1024,100,0,0,0,187.9,-2.1,0,95,4.089,4.097,0,0,0,0,9.671,72.5,30.839896,30.839896,31,Sport,"El ángulo de posición de vuelo es mayor en el modo Sport. El estabilizador rotará cuando la aeronave comience a moverse o se detenga. Si es necesario, usa el modo Normal para una captura estable (Code: 40022). Error de calibración del estabilizador. "
16700,2022-10-24 22:29:59,-34.9208113793102,-56.1473788307142,31.16798,31.16798,0,31.16798,36.08924,21.698318,110.038717432,112.016735868,21,5,8.011,31.16798,31.16798,21.698318,110.038717432,-21.698318,0.671082,-1.789552,178.1, -27.5, -5.3,0,0,1684,1024,1024,1024,100,0,0,0,187.9,-4.2,0,95,4.089,4.097,0,0,0,0,9.671,72.5,31.16798,31.16798,31,Sport,
16800,2022-10-24 22:30:00,-34.9208199404441,-56.147378521687,31.16798,31.16798,0,31.16798,36.08924,21.698318,113.16273328,115.141735968,21,5,8.011,31.16798,31.16798,21.698318,113.16273328,-21.698318,0.671082,-1.11847,178, -27.9, -5.1,0,0,1684,1024,1024,1024,100,0,0,0,187.9,-4.7,0,95,4.089,4.097,0,0,0,0,9.671,72.5,31.16798,31.16798,31,Sport,
16900,2022-10-24 22:30:00,-34.92082902354,-56.1473781877916,31.16798,31.16798,0,31.16798,36.08924,22.145706,116.477037848,118.457024788,21,5,8.011,31.16798,31.16798,22.145706,116.477037848,-22.145706,0.671082,-0.447388,178, -27.5, -5.2,0,0,1684,1024,1024,1024,100,0,0,0,187.9,-4.7,0,95,4.089,4.097,0,0,0,0,9.671,72.5,31.16798,31.16798,31,Sport,
17000,2022-10-24 22:30:00,-34.9208378188311,-56.1473780233744,31.16798,31.16798,0,31.16798,36.08924,22.3694,119.684058948,121.666342476,21,5,8.011,31.16798,31.16798,22.3694,119.684058948,-22.3694,0.671082,-0.223694,177.9, -27.3, -5.1,0,0,1684,1024,1024,1024,100,0,0,0,187.9,-4.7,0,95,4.089,4.097,0,0,0,0,9.671,72.5,31.16798,31.16798,31,Sport,
17100,2022-10-24 22:30:00,-34.9208472586995,-56.1473776667424,31.16798,31.16798,0,31.16798,36.08924,22.816788,123.129269032,125.112208728,21,5,8.011,31.16798,31.16798,22.816788,123.129269032,-22.816788,0.671082,0,178, -26.4, -5,0,0,1684,1024,1024,1024,100,0,0,0,187.9,-4.7,0,95,4.089,4.097,0,0,0,0,9.671,72.5,31.16798,31.16798,31,Sport,
17200,2022-10-24 22:30:00,-34.92085676764,-56.1473771093373,31.16798,31.16798,0,31.16798,36.08924,23.2865454,126.602366256,128.585634036,21,5,8.011,31.16798,31.16798,23.2865454,126.602366256,-23.264176,0.894776,0,178, -26, -4.8,0,0,1684,1024,1024,1024,100,0,0,0,187.9,-4.7,0,95,4.089,4.097,0,0,0,0,9.671,72.5,31.16798,31.16798,31,Sport,
17300,2022-10-24 22:30:00,-34.9208669223562,-56.1473764670808,30.839896,30.839896,0,30.839896,36.08924,23.5102394,130.312340128,132.295279824,21,5,8.011,31.16798,31.16798,23.5102394,130.312340128,-23.48787,0.894776,0,178, -25.9, -4.6,0,0,1684,1024,1024,1024,100,0,0,0,187.9,-4.7,0,95,4.089,4.097,0,0,0,0,9.671,72.5,30.839896,30.839896,31,Sport,
17400,2022-10-24 22:30:00,-34.9208766605816,-56.1473756177874,30.839896,30.839896,0,30.839896,36.08924,23.9576274,133.873691948,135.857615896,21,5,8.287,31.16798,31.16798,23.9576274,133.873691948,-23.935258,0.894776,0,178, -26.2, -4.3,0,0,1684,1024,1024,1024,100,0,0,0,187.9,-4.7,0,95,4.118,4.108,0,0,0,0,4.487,72.5,30.839896,30.839896,31,Sport,
17500,2022-10-24 22:30:00,-34.9208865452106,-56.1473750316796,30.839896,30.839896,0,30.839896,36.08924,24.1813214,137.484584452,139.468180316,21,5,8.287,31.16798,31.16798,24.1813214,137.484584452,-24.158952,0.894776,0,177.9, -26, -4.2,0,0,1684,1024,1024,1024,100,0,0,0,187.9,-4.7,0,95,4.118,4.108,0,0,0,0,4.487,72.5,30.839896,30.839896,31,Sport,
17600,2022-10-24 22:30:00,-34.9208961323424,-56.1473744507203,30.511812,30.511812,0,30.511812,36.08924,24.6287094,140.986553068,142.970477016,21,5,8.287,31.16798,31.16798,24.6287094,140.986553068,-24.60634,0.894776,0,177.9, -25.9, -4.3,0,0,1684,1024,1664,1024,100,0,97,0,187.9,-4.7,0,95,4.118,4.108,0,0,0,0,4.487,72.5,30.511812,30.511812,31,Sport,
17700,2022-10-24 22:30:00,-34.9209063606122,-56.1473738276859,30.511812,30.511812,0,30.511812,36.08924,24.8524034,144.723101744,146.706697608,21,5,8.287,31.16798,31.16798,24.8524034,144.723101744,-24.830034,0.894776,0,177.7, -25.1, -4.3,0,0,1684,1024,1684,1024,100,0,100,0,187.9,-4.7,0,95,4.118,4.108,0,0,0,0,4.487,72.5,30.511812,30.511812,31,Sport,
17800,2022-10-24 22:30:01,-34.9209157211688,-56.147373210479,30.511812,30.511812,0,30.511812,36.08924,25.2997914,148.14304936,150.126973308,21,5,8.287,31.16798,31.16798,25.2997914,148.14304936,-25.277422,1.11847,-0.671082,177.8, -23.7, -4,0,0,1684,1024,1684,1024,100,0,100,0,187.9,-4.7,0,95,4.118,4.108,0,0,0,0,4.487,72.5,30.511812,30.511812,31,Sport,
17900,2022-10-24 22:30:01,-34.9209261238254,-56.1473725625922,30.511812,30.511812,0,30.511812,36.08924,25.2997914,151.943574416,153.92717028,21,5,8.287,31.16798,31.16798,25.2997914,151.943574416,-25.72481,1.11847,-1.789552,177.8, -23.2, -3.8,0,0,1684,1024,1684,1024,100,0,100,0,187.9,-4.7,0,95,4.118,4.108,0,0,0,0,4.487,72.5,30.511812,30.511812,31,Sport,
18000,2022-10-24 22:30:01,-34.9209364487075,-56.1473719586115,30.839896,30.839896,0,30.839896,36.08924,25.9708734,155.714899996,157.69849586,21,5,8.287,31.16798,31.16798,25.9708734,155.714899996,-25.948504,1.11847,-2.460634,177.6, -23.3, -3.6,0,0,1684,1024,1684,1024,100,0,100,0,187.9,-4.7,0,95,4.118,4.108,0,0,0,0,4.487,72.5,30.839896,30.839896,31,Sport,
18100,2022-10-24 22:30:01,-34.920947511418,-56.1473713191734,31.16798,31.16798,0,31.16798,36.08924,26.4182614,159.75558254,161.739506488,21,5,8.287,31.16798,31.16798,26.4182614,159.75558254,-26.395892,1.11847,-3.35541,177.6, -24, -4,0,0,1684,1024,1684,1024,100,0,100,0,187.9,-4.7,0,95,4.118,4.108,0,0,0,0,4.487,72.5,31.16798,31.16798,31,Sport,
