time(millisecond),datetime(utc),latitude,longitude,height_above_takeoff(feet),height_above_ground_at_drone_location(feet),ground_elevation_at_drone_location(feet),altitude_above_seaLevel(feet),height_sonar(feet),speed(mph),distance(feet),mileage(feet),satellites,gpslevel,voltage(v),max_altitude(feet),max_ascent(feet),max_speed(mph),max_distance(feet), xSpeed(mph), ySpeed(mph), zSpeed(mph), compass_heading(degrees), pitch(degrees), roll(degrees),isPhoto,isVideo,rc_elevator,rc_aileron,rc_throttle,rc_rudder,rc_elevator(percent),rc_aileron(percent),rc_throttle(percent),rc_rudder(percent),gimbal_heading(degrees),gimbal_pitch(degrees),gimbal_roll(degrees),battery_percent,voltageCell1,voltageCell2,voltageCell3,voltageCell4,voltageCell5,voltageCell6,current(A),battery_temperature(f),altitude(feet),ascent(feet),flycStateRaw,flycState,message
0,2022-08-24 00:23:42,-34.9065208280011,-56.1631560118054,0,0,119.25981812078,119.25981812078,0.328084,0,0,0,11,4,0,119.25981812078,0,0,0,0,0,0,292.3, -10.1, -1,0,0,364,364,364,1684,-100,-100,-100,100,301.9,0,0,100,4.341,4.34,0,0,0,0,0,76.46,119.25981812078,0,6,P-GPS,"En vuelo Aeronave en Zona de altitud restringida (150). Vuela con precaución (Code: 190001)"
100,2022-08-24 00:23:42,-34.9065208559794,-56.1631556684878,0,0,119.25981812078,119.25981812078,0.328084,0,0.103229334012,0.103229334012,11,4,0,119.25981812078,0,0,0.103229334012,0,0,0,292.5, -10.3, -1,0,0,364,364,364,1684,-100,-100,-100,100,302,0,0,100,4.341,4.34,0,0,0,0,0,76.46,119.25981812078,0,41,Motors_Started,
200,2022-08-24 00:23:42,-34.906520878999,-56.1631553577015,0,-0.032808399999993,119.29262652078,119.25981812078,0.328084,0,0.196595806816,0.19659777532,11,4,0,119.25981812078,0,0,0.196595806816,0,0,0,291.9, -10.5, -0.2,0,0,364,364,364,1684,-100,-100,-100,100,302.1,0,0,100,4.341,4.34,0,0,0,0,0,76.46,119.25981812078,0,41,Motors_Started,
300,2022-08-24 00:23:43,-34.9065209146783,-56.1631550913019,0,-0.032808399999993,119.29262652078,119.25981812078,0.328084,0,0.277231636168,0.277362541684,11,4,0,119.25981812078,0,0,0.277231636168,0,0,0,292.2, -9.8, -0.5,0,0,364,364,364,1684,-100,-100,-100,100,302.1,0,0,100,4.341,4.34,0,0,0,0,0,76.46,119.25981812078,0,41,Motors_Started,
400,2022-08-24 00:23:43,-34.9065208441748,-56.163154023515,0,-0.06561680000001,119.32543492078,119.25981812078,0.328084,0,0.59494096392,0.59788715824,11,4,0,119.25981812078,0,0,0.59494096392,0,0,0,292.1, -9.6, -0.2,0,0,364,364,364,1684,-100,-100,-100,100,302.2,0,0,100,4.341,4.34,0,0,0,0,0,76.46,119.25981812078,0,41,Motors_Started,
500,2022-08-24 00:23:43,-34.9065209048017,-56.1631539022574,0,-0.06561680000001,119.32543492078,119.25981812078,0.328084,0,0.63181432468,0.64038059792,11,4,0,119.25981812078,0,0,0.63181432468,0,0,0,292.4, -9.5, -0.4,0,0,1024,1024,1024,1024,0,0,0,0,302.3,0,0,100,4.341,4.34,0,0,0,0,0,76.46,119.25981812078,0,41,Motors_Started,"Setting new Return-To-Home altitude to 100m (328 ft). Data Recorder File Index is 4. Setting new Maximum Flight Altitude to 120m (394 ft)"
600,2022-08-24 00:23:43,-34.9065209367811,-56.1631537968848,0,-0.06561680000001,119.32543492078,119.25981812078,0.328084,0,0.6639107824,0.67399608456,11,4,0,119.25981812078,0,0,0.6639107824,0,0,0,292.2, -9.1, -0.3,0,0,1024,1024,1024,1024,0,0,0,0,302.3,0,0,100,4.341,4.34,0,0,0,0,0,76.46,119.25981812078,0,41,Motors_Started,
700,2022-08-24 00:23:43,-34.9065209301289,-56.1631536998079,0,-0.06561680000001,119.32543492078,119.25981812078,0.328084,0,0.69277233188,0.70314634796,11,4,0,119.25981812078,0,0,0.69277233188,0,0,0,292.3, -9.3, -0.4,0,0,1024,1024,1024,1024,0,0,0,0,302.3,0,0,100,4.341,4.34,0,0,0,0,0,76.46,119.25981812078,0,41,Motors_Started,
800,2022-08-24 00:23:43,-34.9065208189257,-56.1631536963293,0,-0.06561680000001,119.32543492078,119.25981812078,0.328084,0,0.69281826364,0.74373033876,11,4,0,119.25981812078,0,0,0.69281826364,0,0,0,291.7, -8.5, -0.7,0,0,1024,1024,1024,1024,0,0,0,0,302.2,0,0,100,4.341,4.34,0,0,0,0,0,76.46,119.25981812078,0,41,Motors_Started,
900,2022-08-24 00:23:43,-34.9065208361954,-56.1631535354172,0,-0.06561680000001,119.32543492078,119.25981812078,0.328084,0,0.7409613098,0.79228677076,11,4,0,119.25981812078,0,0,0.7409613098,0,0,0,291.1, -7.8, -0.6,0,0,1024,1024,1024,1024,0,0,0,0,301.8,0,0,100,4.341,4.34,0,0,0,0,0,76.46,119.25981812078,0,41,Motors_Started,
1000,2022-08-24 00:23:43,-34.9065208437172,-56.1631533728598,0,-0.098425200000004,119.35824332078,119.25981812078,0.328084,0,0.789616167,0.84100396392,11,4,8.696,119.25981812078,0,0,0.789616167,0,0,0,290.7, -7.3, -0.8,0,0,1024,1024,1024,1024,0,0,0,0,301.2,0,0,100,4.341,4.34,0,0,0,0,0.775,76.46,119.25981812078,0,41,Motors_Started,
1100,2022-08-24 00:23:43,-34.9065208364348,-56.1631531890506,0,-0.098425200000004,119.35824332078,119.25981812078,0.328084,0,0.84459648372,0.8960630208,11,4,8.696,119.25981812078,0,0,0.84459648372,0,0,0,291, -7.2, -0.7,0,0,1024,1024,1024,1024,0,0,0,0,301,0,0,100,4.341,4.34,0,0,0,0,0.775,76.46,119.25981812078,0,41,Motors_Started,
1200,2022-08-24 00:23:43,-34.9065206907297,-56.163152978778,-0.328084,-0.4265092,119.35824332078,118.93173412078,0.328084,0,0.90888782436,0.97843178984,11,4,8.696,119.25981812078,0,0,0.90888782436,0,0,0,291.1, -7.8, -0.4,0,0,1024,1024,1024,1024,0,0,0,0,301.1,0,0,100,4.341,4.34,0,0,0,0,0.775,76.46,118.93173412078,-0.328084,10,Assisted_Takeoff,
1300,2022-08-24 00:23:44,-34.9065206606475,-56.1631528428785,-0.328084,-0.4265092,119.35824332078,118.93173412078,0.328084,0,0.950131264,1.02054793292,11,4,8.696,119.25981812078,0,0,0.950131264,0,0,0,291.3, -7.7, -0.5,0,0,1024,1024,1024,1024,0,0,0,0,301.3,0,0,100,4.341,4.34,0,0,0,0,0.775,76.46,118.93173412078,-0.328084,10,Assisted_Takeoff,
1400,2022-08-24 00:23:44,-34.9065206350125,-56.1631527525983,-0.328084,-0.4265092,119.35824332078,118.93173412078,0.328084,0,0.97771984756,1.04913389184,11,4,8.696,119.25981812078,0,0,0.97771984756,0,0,0,291.2, -9.1, -0.1,0,0,1024,1024,1024,1024,0,0,0,0,301.6,0,0,100,4.341,4.34,0,0,0,0,0.775,76.46,118.93173412078,-0.328084,10,Assisted_Takeoff,
1500,2022-08-24 00:23:44,-34.9065206374633,-56.1631527148529,-0.328084,-0.4265092,119.35824332078,118.93173412078,0.328084,0,0.98892063532,1.0604659132,11,4,8.696,119.25981812078,0,0,0.98892063532,0,0,0,291.2, -9, -0.1,0,0,1024,1024,1024,1024,0,0,0,0,301.5,0,0,100,4.341,4.34,0,0,0,0,0.775,76.46,118.93173412078,-0.328084,10,Assisted_Takeoff,
1600,2022-08-24 00:23:44,-34.9065205515418,-56.1631531669121,-0.328084,-0.4265092,119.35824332078,118.93173412078,0.328084,0,0.85717194344,1.19930778116,11,4,8.696,119.25981812078,0,0,0.98892063532,0,0,-0.223694,290.5, -8.2, -0.4,0,0,1024,1024,1024,1024,0,0,0,0,301.4,0,0,100,4.341,4.34,0,0,0,0,0.775,76.46,118.93173412078,-0.328084,10,Assisted_Takeoff,
1700,2022-08-24 00:23:44,-34.9065205390011,-56.1631532365215,0,-0.098425200000004,119.35824332078,119.25981812078,0.328084,0,0.83705383256,1.22063324116,11,4,8.696,119.25981812078,0,0,0.98892063532,0,0,-0.447388,290.6, -5.1, -1.9,0,0,1024,1024,1024,1024,0,0,0,0,301.2,0,0,100,4.341,4.34,0,0,0,0,0.775,76.46,119.25981812078,0,6,P-GPS,
1800,2022-08-24 00:23:44,-34.9065204719858,-56.1631532126581,0,-0.16404199999999,119.42386012078,119.25981812078,0.328084,0.223694,0.8475393972,1.24610568292,11,4,8.696,119.25981812078,0,0.223694,0.98892063532,0,0.223694,-0.223694,290.8, -2.5, -2,0,0,1024,1024,1024,1024,0,0,0,0,301.2,0,0,100,4.341,4.34,0,0,0,0,0.775,76.46,119.25981812078,0,6,P-GPS,
1900,2022-08-24 00:23:44,-34.9065203949571,-56.1631531634034,0,-0.16404199999999,119.42386012078,119.25981812078,0.328084,0,0.86678480464,1.2778379674,11,4,8.696,119.25981812078,0,0.223694,0.98892063532,0,0,0.223694,290.7, -2.9, -2,0,0,1024,1024,1024,1024,0,0,0,0,301.2,0,0,100,4.341,4.34,0,0,0,0,0.775,76.46,119.25981812078,0,6,P-GPS,
2000,2022-08-24 00:23:44,-34.9065203502661,-56.1631531775556,0,-0.16404199999999,119.42386012078,119.25981812078,0.328084,0,0.86575790172,1.2946850808,11,4,8.687,119.25981812078,0,0.223694,0.98892063532,0,0,0,290.4, -2.8, -1.9,0,0,1024,1024,1024,1024,0,0,0,0,301.2,0,0,100,4.347,4.316,0,0,0,0,1.406,76.46,119.25981812078,0,6,P-GPS,
2100,2022-08-24 00:23:44,-34.9065203531924,-56.1631535056424,0,-0.1312336,119.39105172078,119.25981812078,0.328084,0,0.76961616636,1.39285765612,11,4,8.687,119.25981812078,0,0.223694,0.98892063532,0,0,0,290, -2.7, -1.4,0,0,1024,1024,1024,1024,0,0,0,0,301.2,0,0,100,4.347,4.316,0,0,0,0,1.406,76.46,119.25981812078,0,6,P-GPS,
2200,2022-08-24 00:23:44,-34.9065203860642,-56.1631535954146,0,-0.1312336,119.39105172078,119.25981812078,0.328084,0,0.7407644594,1.42227366756,11,4,8.687,119.25981812078,0,0.223694,0.98892063532,0,0,0,290, -2.9, -0.8,0,0,1024,1024,1024,1024,0,0,0,0,301.2,0,0,100,4.347,4.316,0,0,0,0,1.406,76.46,119.25981812078,0,6,P-GPS,
2300,2022-08-24 00:23:45,-34.9065203952828,-56.1631537510252,0,-0.1312336,119.39105172078,119.25981812078,0.328084,0,0.69462272564,1.46895673992,11,4,8.687,119.25981812078,0,0.223694,0.98892063532,0,0,0,290.1, -2.9, -0.5,0,0,1024,1024,1024,1024,0,0,0,0,301.2,0,0,100,4.347,4.316,0,0,0,0,1.406,76.46,119.25981812078,0,6,P-GPS,
2400,2022-08-24 00:23:45,-34.9065204147264,-56.1631539188854,0,-0.1312336,119.39105172078,119.25981812078,0.328084,0,0.64411747468,1.51967852632,11,4,8.687,119.25981812078,0,0.223694,0.98892063532,0,0,0,290.4, -3.2, -0.1,0,0,1024,1024,1024,1024,0,0,0,0,301.2,0,0,100,4.347,4.316,0,0,0,0,1.406,76.46,119.25981812078,0,6,P-GPS,
2500,2022-08-24 00:23:45,-34.9065204844613,-56.1631546769176,0,-0.098425200000004,119.35824332078,119.25981812078,0.328084,0,0.41861549896,1.74791016092,11,4,8.687,119.25981812078,0,0.223694,0.98892063532,0,0,0,290.8, -3.7, -0.3,0,0,1024,1024,1024,1024,0,0,0,0,301.2,0,0,100,4.347,4.316,0,0,0,0,1.406,76.46,119.25981812078,0,6,P-GPS,
2600,2022-08-24 00:23:45,-34.9065204982118,-56.1631549143782,0,-0.098425200000004,119.35824332078,119.25981812078,0.328084,0,0.34971129728,1.81913719732,11,4,8.687,119.25981812078,0,0.223694,0.98892063532,0,0,-0.223694,291.3, -4.2, -0.3,0,0,1024,1024,1024,1024,0,0,0,0,301.2,0,0,100,4.347,4.316,0,0,0,0,1.406,76.46,119.25981812078,0,6,P-GPS,
2700,2022-08-24 00:23:45,-34.906520493872,-56.1631551292967,0,-0.098425200000004,119.35824332078,119.25981812078,0.328084,0,0.290836295396,1.88346134636,11,4,8.687,119.25981812078,0,0.223694,0.98892063532,0,0,-0.223694,292.1, -4.1, -0.2,0,0,1024,1024,1024,1024,0,0,0,0,301.2,0,0,100,4.347,4.316,0,0,0,0,1.406,76.46,119.25981812078,0,6,P-GPS,
2800,2022-08-24 00:23:45,-34.9065204965313,-56.1631553329332,0,-0.098425200000004,119.35824332078,119.25981812078,0.328084,0,0.236400270032,1.94439966852,11,4,8.687,119.25981812078,0,0.223694,0.98892063532,0,0,-0.447388,292.5, -3.4, 0,0,0,1024,1024,1024,1024,0,0,0,0,301.2,0,0,100,4.347,4.316,0,0,0,0,1.406,76.46,119.25981812078,0,6,P-GPS,
2900,2022-08-24 00:23:45,-34.906520689826,-56.163155766117,0,0,119.25981812078,119.25981812078,0.656168,0,0.089137470044,2.09195544752,11,4,8.687,119.25981812078,0,0.223694,0.98892063532,0,0,-0.671082,291.6, -1.9, -0.6,0,0,1024,1024,1280,864,0,0,39,-24,301.2,0,0,100,4.347,4.316,0,0,0,0,1.406,76.46,119.25981812078,0,6,P-GPS,
3000,2022-08-24 00:23:45,-34.9065207409119,-56.1631560414391,0.328084,0.328084,119.25981812078,119.58790212078,0.656168,0,0.032988518116,2.17641739248,11,4,8.585,119.58790212078,0.328084,0.223694,0.98892063532,0,0,-1.565858,292.5, 6.6, 3.7,0,0,1024,1024,1280,864,0,0,39,-24,301.2,0,0,100,4.22,4.215,0,0,0,0,2.491,76.46,119.58790212078,0.328084,6,P-GPS,
3100,2022-08-24 00:23:45,-34.9065208067694,-56.1631562579181,0.656168,0.656168,119.25981812078,119.91598612078,0.984252,0,0.07404527796,2.24550204036,11,4,8.585,119.91598612078,0.656168,0.223694,0.98892063532,0,0,-2.013246,290.7, 4.7, 1.3,0,0,1024,1024,1684,519,0,0,100,-77,301.1,0,0,100,4.22,4.215,0,0,0,0,2.491,76.46,119.91598612078,0.656168,6,P-GPS,
3200,2022-08-24 00:23:45,-34.906520840729,-56.1631563270992,0.984252,0.984252,119.25981812078,120.24407012078,0.984252,0.223694,0.094452758928,2.26962605688,11,4,8.585,120.24407012078,0.984252,0.223694,0.98892063532,0,0.223694,-2.460634,289.8, 2.2, 0.4,0,0,1024,1024,1684,897,0,0,100,-19,299.4,0,0,100,4.22,4.215,0,0,0,0,2.491,76.46,120.24407012078,0.984252,6,P-GPS,
3300,2022-08-24 00:23:46,-34.9065208327024,-56.1631563960283,1.312336,1.312336,119.25981812078,120.57215412078,1.312336,0.223694,0.11497539738,2.29045939088,11,4,8.585,120.57215412078,1.312336,0.223694,0.98892063532,0,0.223694,-3.131716,287.7, 0, 0.4,0,0,1024,1024,1176,1024,0,0,23,0,297.5,0,0,100,4.22,4.215,0,0,0,0,2.491,76.46,120.57215412078,1.312336,6,P-GPS,
3400,2022-08-24 00:23:46,-34.9065207526823,-56.1631563096825,1.968504,1.968504,119.25981812078,121.22832212078,1.968504,0.223694,0.093267391436,2.32944233176,11,4,8.585,121.22832212078,1.968504,0.223694,0.98892063532,0,0.223694,-3.802798,286.7, -0.3, -0.2,0,0,1024,1024,1024,1024,0,0,0,0,296.8,0,0,100,4.22,4.215,0,0,0,0,2.491,76.46,121.22832212078,1.968504,6,P-GPS,
3500,2022-08-24 00:23:46,-34.9065205982797,-56.1631561493306,2.624672,2.624672,119.25981812078,121.88449012078,2.296588,0,0.093370081728,2.40343839712,11,4,8.585,121.88449012078,2.624672,0.223694,0.98892063532,0,0,-4.026492,285.6, -0.2, -0.4,0,0,1024,1024,1024,1024,0,0,0,0,296.5,0,0,100,4.22,4.215,0,0,0,0,2.491,76.46,121.88449012078,2.624672,6,P-GPS,
3600,2022-08-24 00:23:46,-34.9065204960786,-56.1631560015875,2.952756,2.8871392,119.32543492078,122.21257412078,4.593176,0,0.121140423824,2.46127304464,11,4,8.585,122.21257412078,2.952756,0.223694,0.98892063532,0,0,-3.579104,285.3, 0.1, -0.3,0,0,1024,1024,1024,1024,0,0,0,0,296.5,0,0,100,4.22,4.215,0,0,0,0,2.491,76.46,122.21257412078,2.952756,6,P-GPS,
3700,2022-08-24 00:23:46,-34.9065205148676,-56.1631558245018,3.608924,3.608924,119.25981812078,122.86874212078,5.249344,0,0.127251972576,2.5146982432,11,4,8.585,122.86874212078,3.608924,0.223694,0.98892063532,0,0,-3.131716,285.3, 0.1, 0,0,0,1024,1024,1024,1024,0,0,0,0,296.5,0,0,100,4.22,4.215,0,0,0,0,2.491,76.46,122.86874212078,3.608924,6,P-GPS,
3800,2022-08-24 00:23:46,-34.9065203925877,-56.1631551561008,3.937008,3.8385828,119.35824332078,123.19682612078,5.577428,0,0.301313657936,2.71960638624,11,4,8.585,123.19682612078,3.937008,0.223694,0.98892063532,0,0,-2.23694,285.3, 1, -0.5,0,0,1024,1024,1024,1024,0,0,0,0,296.5,0,0,100,4.22,4.215,0,0,0,0,2.491,76.46,123.19682612078,3.937008,6,P-GPS,
3900,2022-08-24 00:23:46,-34.9065201577807,-56.1631549142868,4.265092,4.1666668,119.35824332078,123.52491012078,5.905512,0,0.40942914696,2.83173893576,11,4,8.585,123.52491012078,4.265092,0.223694,0.98892063532,0,0,-1.565858,285.4, 0.6, -0.3,0,0,1024,1024,1024,1024,0,0,0,0,296.5,0,0,100,4.22,4.215,0,0,0,0,2.491,76.46,123.52491012078,4.265092,6,P-GPS,
4000,2022-08-24 00:23:46,-34.9065199635253,-56.1631547543932,4.265092,4.1666668,119.35824332078,123.52491012078,5.905512,0,0.4909448976,2.91725074952,12,4,8.411,123.52491012078,4.265092,0.223694,0.98892063532,0,0,-0.894776,285.5, 0.4, -0.5,0,0,1544,1024,1024,1024,79,0,0,0,296.5,0,0,100,4.271,4.275,0,0,0,0,6.485,76.46,123.52491012078,4.265092,6,P-GPS,
4100,2022-08-24 00:23:46,-34.9065198653741,-56.163154808952,4.593176,4.4947508,119.35824332078,123.85299412078,6.233596,0,0.50287403184,2.95660442532,12,4,8.411,123.85299412078,4.593176,0.223694,0.98892063532,0,0,-0.447388,285.5, -3.2, -0.5,0,0,1684,1024,1024,1024,100,0,0,0,296.5,0,0,100,4.271,4.275,0,0,0,0,6.485,76.46,123.85299412078,4.593176,6,P-GPS,
4200,2022-08-24 00:23:47,-34.9065194328349,-56.1631549578664,4.593176,4.4619424,119.39105172078,123.85299412078,6.233596,0.223694,0.59879267008,3.1205873702,12,4,8.411,123.85299412078,4.593176,0.223694,0.98892063532,0.223694,0,-0.223694,285.6, -12.7, -0.5,0,0,1684,1024,1024,1024,100,0,0,0,296.5,0,0,100,4.271,4.275,0,0,0,0,6.485,76.46,123.85299412078,4.593176,6,P-GPS,
4300,2022-08-24 00:23:47,-34.9065193120044,-56.1631554428042,4.593176,4.4619424,119.39105172078,123.85299412078,6.233596,0.223694,0.57872049096,3.27223435668,12,4,8.411,123.85299412078,4.593176,0.223694,0.98892063532,0.223694,-0.447388,0,285.5, -17.1, -0.6,0,0,1376,1024,1024,1024,53,0,0,0,296.5,0,0,100,4.271,4.275,0,0,0,0,6.485,76.46,123.85299412078,4.593176,6,P-GPS,
4400,2022-08-24 00:23:47,-34.9065191965314,-56.1631561250846,4.593176,4.4947508,119.35824332078,123.85299412078,5.905512,1.2079476,0.59620408732,3.4806759644,12,4,8.411,123.85299412078,4.593176,1.2079476,0.98892063532,0.447388,-1.11847,0,285.2, -15.9, -0.5,0,0,1104,1024,1024,1024,12,0,0,0,296.5,0,0,100,4.271,4.275,0,0,0,0,6.485,76.46,123.85299412078,4.593176,6,P-GPS,
4500,2022-08-24 00:23:47,-34.9065191468883,-56.1631569619008,4.593176,4.5275592,119.32543492078,123.85299412078,5.905512,1.8342908,0.67603020536,3.7317258412,12,4,8.411,123.85299412078,4.593176,1.8342908,0.98892063532,0.447388,-1.789552,0,285, -7.6, -0.5,0,0,1486,1024,1024,1024,70,0,0,0,296.5,0,0,100,4.271,4.275,0,0,0,0,6.485,76.46,123.85299412078,4.593176,6,P-GPS,
4600,2022-08-24 00:23:47,-34.9065193627418,-56.163158320174,4.593176,4.5603676,119.29262652078,123.85299412078,6.233596,1.8342908,0.87340553976,4.145669424,12,4,8.411,123.85299412078,4.593176,1.8342908,0.98892063532,0.447388,-1.789552,0,284.8, 1.5, -0.4,0,0,1529,1024,1024,1024,77,0,0,0,296.5,0,0,100,4.271,4.275,0,0,0,0,6.485,76.46,123.85299412078,4.593176,6,P-GPS,
4700,2022-08-24 00:23:47,-34.9065192977327,-56.1631595583061,4.593176,4.6259844,119.22700972078,123.85299412078,6.233596,1.8342908,1.19905843732,4.51689647,12,4,8.411,123.85299412078,4.593176,1.8342908,1.19905843732,0.447388,-1.789552,0,284.7, -4.6, -0.3,0,0,1024,1024,1024,1024,0,0,0,0,296.5,0,0,100,4.271,4.275,0,0,0,0,6.485,76.46,123.85299412078,4.593176,6,P-GPS,
4800,2022-08-24 00:23:47,-34.906519237065,-56.1631608321439,4.92126,4.9540684,119.22700972078,124.18107812078,6.233596,2.0579848,1.55470477416,4.8986878208,12,4,8.411,124.18107812078,4.92126,2.0579848,1.55470477416,0.447388,-2.013246,0,284.5, -10.1, -0.2,0,0,1024,1024,1024,1024,0,0,0,0,296.5,0,0,100,4.271,4.275,0,0,0,0,6.485,76.46,124.18107812078,4.92126,6,P-GPS,
4900,2022-08-24 00:23:47,-34.906519153648,-56.1631624113097,4.92126,4.9868768,119.19420132078,124.18107812078,6.233596,2.2816788,2.00987211156,5.3721786496,12,4,8.411,124.18107812078,4.92126,2.2816788,2.00987211156,0.447388,-2.23694,0,284.3, -3.1, -0.2,0,0,1024,1024,1024,1024,0,0,0,0,296.5,0,0,100,4.271,4.275,0,0,0,0,6.485,76.46,124.18107812078,4.92126,6,P-GPS,
5000,2022-08-24 00:23:47,-34.9065191666332,-56.1631650108659,4.92126,5.085302,119.09577612078,124.18107812078,6.233596,2.2816788,2.75997712244,6.1500001968,12,4,8.551,124.18107812078,4.92126,2.2816788,2.75997712244,0.447388,-2.23694,0,284.2, 8.5, -0.3,0,0,1024,1024,1024,1024,0,0,0,0,296.5,0,0,100,4.262,4.26,0,0,0,0,3.451,76.46,124.18107812078,4.92126,6,P-GPS,
5100,2022-08-24 00:23:47,-34.9065190111314,-56.1631665838736,4.92126,5.1509188,119.03015932078,124.18107812078,6.233596,2.0579848,3.23195876484,6.6240487684,12,4,8.551,124.18107812078,4.92126,2.2816788,3.23195876484,0.447388,-2.013246,0,284, 10.7, -0.3,0,0,1024,1024,1024,1024,0,0,0,0,296.5,0,0,100,4.262,4.26,0,0,0,0,3.451,76.46,124.18107812078,4.92126,6,P-GPS,
5200,2022-08-24 00:23:47,-34.9065189077953,-56.1631678311194,4.92126,5.1837272,118.99735092078,124.18107812078,6.233596,1.5882274,3.605151034,6.9991472056,12,4,8.551,124.18107812078,4.92126,2.2816788,3.605151034,0.223694,-1.565858,0,283.9, 9.7, -0.3,0,0,1024,1024,1024,1024,0,0,0,0,296.5,0,0,100,4.262,4.26,0,0,0,0,3.451,76.46,124.18107812078,4.92126,6,P-GPS,
5300,2022-08-24 00:23:48,-34.9065188639706,-56.1631687300309,4.92126,5.2165356,118.96454252078,124.18107812078,6.56168,1.1408394,3.8722770268,7.2685697864,12,4,8.551,124.18107812078,4.92126,2.2816788,3.8722770268,0.223694,-1.11847,0,283.8, 8.4, -0.4,0,0,1024,1024,1024,1024,0,0,0,0,296.5,0,0,100,4.262,4.26,0,0,0,0,3.451,76.46,124.18107812078,4.92126,6,P-GPS,
5400,2022-08-24 00:23:48,-34.9065188626483,-56.1631694116812,4.92126,5.2165356,118.96454252078,124.18107812078,6.56168,0.9171454,4.0729660096,7.4725396092,11,4,8.551,124.18107812078,4.92126,2.2816788,4.0729660096,0.223694,-0.894776,0,283.7, 7.1, -0.4,0,0,1024,1024,1024,1024,0,0,0,0,296.5,0,0,100,4.262,4.26,0,0,0,0,3.451,76.46,124.18107812078,4.92126,6,P-GPS,
5500,2022-08-24 00:23:48,-34.906518966302,-56.1631694205397,4.92126,5.2165356,118.96454252078,124.18107812078,6.56168,0.671082,4.0690946184,7.5104333112,11,4,8.551,124.18107812078,4.92126,2.2816788,4.0729660096,0,-0.671082,0,283.6, 5.8, -0.2,0,0,1024,1024,1024,1024,0,0,0,0,296.5,0,0,100,4.262,4.26,0,0,0,0,3.451,76.46,124.18107812078,4.92126,6,P-GPS,
5600,2022-08-24 00:23:48,-34.9065190545311,-56.1631697918108,4.92126,5.249344,118.93173412078,124.18107812078,6.56168,0.447388,4.173556564,7.6260829212,13,4,8.551,124.18107812078,4.92126,2.2816788,4.173556564,0,-0.447388,0,283.6, 4.3, -0.2,0,0,1024,1024,1035,1024,0,0,2,0,296.5,0,0,100,4.262,4.26,0,0,0,0,3.451,76.46,124.18107812078,4.92126,6,P-GPS,
5700,2022-08-24 00:23:48,-34.9065192003925,-56.1631700607632,4.92126,5.249344,118.93173412078,124.18107812078,6.56168,0.223694,4.2453085348,7.7225724256,13,4,8.551,124.18107812078,4.92126,2.2816788,4.2453085348,0,-0.223694,0,283.5, 3.1, -0.2,0,0,1128,1024,1296,1024,16,0,41,0,296.5,0,0,100,4.262,4.26,0,0,0,0,3.451,76.46,124.18107812078,4.92126,6,P-GPS,
5800,2022-08-24 00:23:48,-34.9065193251671,-56.1631702714147,4.92126,5.249344,118.93173412078,124.18107812078,6.56168,0.223694,4.301673366,7.8003283336,13,4,8.551,124.18107812078,4.92126,2.2816788,4.301673366,0,-0.223694,0,283.4, 2.4, -0.1,0,0,1128,1024,1296,1024,16,0,41,0,296.5,0,0,100,4.262,4.26,0,0,0,0,3.451,76.46,124.18107812078,4.92126,6,P-GPS,"Punto de origen actualizado. Altitud de RPO establecida en 100m (Code: 3000001)"
5900,2022-08-24 00:23:48,-34.9065193839849,-56.1631701288037,4.92126,5.249344,118.93173412078,124.18107812078,6.56168,0,4.2566602412,7.848097364,13,4,8.551,124.18107812078,4.92126,2.2816788,4.301673366,0,0,-0.223694,283.3, 1.1, 0,0,0,1561,1024,1540,1024,81,0,78,0,296.5,0,0,100,4.262,4.26,0,0,0,0,3.451,76.46,124.18107812078,4.92126,6,P-GPS,
6000,2022-08-24 00:23:48,-34.9065194598606,-56.1631703307113,5.249344,5.577428,118.93173412078,124.50916212078,6.56168,0.223694,4.313320348,7.914534374,13,4,8.551,124.50916212078,5.249344,2.2816788,4.313320348,0,-0.223694,-1.11847,283.2, -4.9, -0.1,0,0,1684,1024,1684,1024,100,0,100,0,296.5,0,0,100,4.262,4.26,0,0,0,0,3.451,76.46,124.50916212078,5.249344,6,P-GPS,
6100,2022-08-24 00:23:48,-34.9065195612898,-56.16317064491,5.577428,5.9711288,118.86611732078,124.83724612078,6.889764,0.671082,4.4026576212,8.015584246,13,4,8.516,124.83724612078,5.577428,2.2816788,4.4026576212,0,-0.671082,-1.789552,283.1, -11.4, 0,0,0,1656,1024,1684,1024,96,0,100,0,296.5,0,0,100,4.262,4.26,0,0,0,0,4.187,76.46,124.83724612078,5.577428,6,P-GPS,
6200,2022-08-24 00:23:48,-34.9065196271865,-56.1631711885127,5.905512,6.2992128,118.86611732078,125.16533012078,7.217848,1.3645334,4.5620736368,8.1799871384,13,4,8.516,125.16533012078,5.905512,2.2816788,4.5620736368,0.223694,-1.342164,-2.684328,283, -13.6, 0.5,0,0,1622,1024,1684,1024,91,0,100,0,296.5,0,0,100,4.262,4.26,0,0,0,0,4.187,76.46,125.16533012078,5.905512,6,P-GPS,
6300,2022-08-24 00:23:49,-34.9065196846412,-56.1631720673448,6.233596,6.6601052,118.83330892078,125.49341412078,7.874016,2.0356154,4.82201459,8.4437666744,13,4,8.516,125.49341412078,6.233596,2.2816788,4.82201459,0.223694,-2.013246,-3.35541,283, -12.1, 0.8,0,0,1573,1024,1567,1024,83,0,82,0,296.5,0,0,100,4.262,4.26,0,0,0,0,4.187,76.46,125.49341412078,6.233596,6,P-GPS,
6400,2022-08-24 00:23:49,-34.9065196280186,-56.1631732224189,6.889764,7.3490816,118.80050052078,126.14958212078,8.2021,2.7290668,5.16814321,8.7899937196,13,4,8.516,126.14958212078,6.889764,2.7290668,5.16814321,0.447388,-2.684328,-4.250186,283, -10.2, 0.7,0,0,1625,1024,1150,1024,91,0,19,0,296.5,0,0,100,4.262,4.26,0,0,0,0,4.187,76.46,126.14958212078,6.889764,6,P-GPS,
6500,2022-08-24 00:23:49,-34.9065194589617,-56.1631745814121,7.545932,8.0052496,118.80050052078,126.80575012078,8.858268,3.1988242,5.578576294,9.201279822,13,4,8.516,126.80575012078,7.545932,3.1988242,5.578576294,0.671082,-3.131716,-4.47388,282.9, -8.9, -0.1,0,0,1684,1024,1024,1024,100,0,0,0,296.5,0,0,100,4.262,4.26,0,0,0,0,4.187,76.46,126.80575012078,7.545932,6,P-GPS,
6600,2022-08-24 00:23:49,-34.9065192735324,-56.1631760760823,8.2021,8.694226,118.76769212078,127.46191812078,9.514436,3.4225182,6.0301183032,9.6535764244,13,4,8.516,127.46191812078,8.2021,3.4225182,6.0301183032,0.671082,-3.35541,-4.026492,282.9, -11, -0.1,0,0,1684,1024,1024,1024,100,0,0,0,296.5,0,0,100,4.262,4.26,0,0,0,0,4.187,76.46,127.46191812078,8.2021,6,P-GPS,
6700,2022-08-24 00:23:49,-34.9065188623601,-56.1631781991278,8.858268,9.4160108,118.70207532078,128.11808612078,10.170604,3.6462122,6.6772639932,10.3062995424,13,4,8.516,128.11808612078,8.858268,3.6462122,6.6772639932,0.671082,-3.579104,-3.131716,282.8, -14.5, 0,0,0,1684,1024,1027,1024,100,0,0,0,296.5,0,0,100,4.262,4.26,0,0,0,0,4.187,76.46,128.11808612078,8.858268,6,P-GPS,
6800,2022-08-24 00:23:49,-34.9065186268512,-56.1631803117773,9.186352,9.8097116,118.63645852078,128.44617012078,10.498688,4.0712308,7.314960864,10.944226072,14,4,8.516,128.44617012078,9.186352,4.0712308,7.314960864,0.671082,-4.026492,-2.460634,282.7, -16.2, 0.1,0,0,1684,1024,1027,1024,100,0,0,0,296.5,0,0,100,4.262,4.26,0,0,0,0,4.187,76.46,128.44617012078,9.186352,6,P-GPS,
6900,2022-08-24 00:23:49,-34.9065183585472,-56.1631830011802,9.514436,10.170604,118.60365012078,128.77425412078,10.498688,4.3396636,8.1255580028,11.7548560192,14,4,8.516,128.77425412078,9.514436,4.3396636,8.1255580028,0.894776,-4.250186,-1.565858,282.7, -17.5, 0.1,0,0,1684,1024,1440,1024,100,0,63,0,296.5,0,0,100,4.262,4.26,0,0,0,0,4.187,76.46,128.77425412078,9.514436,6,P-GPS,
7000,2022-08-24 00:23:49,-34.9065181100352,-56.1631856402126,9.514436,10.2690292,118.50522492078,128.77425412078,10.826772,4.7870516,8.9203414928,12.5496395092,13,4,8.516,128.77425412078,9.514436,4.7870516,8.9203414928,0.894776,-4.697574,-1.11847,282.7, -17.3, 0.4,0,0,1197,1024,1649,1024,26,0,95,0,296.5,0,0,100,4.262,4.26,0,0,0,0,4.187,76.46,128.77425412078,9.514436,6,P-GPS,
7100,2022-08-24 00:23:49,-34.9065178944455,-56.1631883573964,9.84252,10.66273,118.43960812078,129.10233812078,11.154856,5.480503,9.7370738024,13.366470244,13,4,8.41,129.10233812078,9.84252,5.480503,9.7370738024,1.11847,-5.368656,-1.565858,282.6, -12.3, 0.7,0,0,1024,1024,1590,1024,0,0,86,0,296.5,0,0,100,4.263,4.27,0,0,0,0,5.327,76.46,129.10233812078,9.84252,6,P-GPS,
7200,2022-08-24 00:23:49,-34.9065177382924,-56.1631918122615,10.170604,11.0892392,118.34118292078,129.43042212078,11.48294,5.927891,10.7709321032,14.401739306,13,4,8.41,129.43042212078,10.170604,5.927891,10.7709321032,1.11847,-5.816044,-2.460634,282.7, 7.5, 0.5,0,0,1024,1024,1568,1024,0,0,82,0,296.5,0,0,100,4.263,4.27,0,0,0,0,5.327,76.46,129.43042212078,10.170604,6,P-GPS,
7300,2022-08-24 00:23:50,-34.9065174824524,-56.1631946449168,10.498688,11.48294,118.27556612078,129.75850612078,11.811024,5.0107456,11.6236224192,15.254429622,13,4,8.41,129.75850612078,10.498688,5.927891,11.6236224192,0.894776,-4.921268,-3.131716,282.7, 19.7, 0.3,0,0,1024,1024,1613,1024,0,0,89,0,296.5,0,0,100,4.263,4.27,0,0,0,0,5.327,76.46,129.75850612078,10.498688,6,P-GPS,
7400,2022-08-24 00:23:50,-34.9065173221435,-56.163196890457,11.154856,12.2047248,118.20994932078,130.41467412078,12.795276,3.8699062,12.2979334644,15.9288390924,13,4,8.41,130.41467412078,11.154856,5.927891,12.2979334644,0.671082,-3.802798,-3.802798,282.7, 19.8, 0.4,0,0,1024,1024,1611,1024,0,0,89,0,296.5,0,0,100,4.263,4.27,0,0,0,0,5.327,76.46,130.41467412078,11.154856,6,P-GPS,
7500,2022-08-24 00:23:50,-34.9065172400765,-56.1631987442346,11.811024,12.9265096,118.14433252078,131.07084212078,13.451444,2.7290668,12.8527235084,16.4843181128,13,4,8.41,131.07084212078,11.811024,5.927891,12.8527235084,0.447388,-2.684328,-4.697574,282.6, 14.8, 0.4,0,0,1024,1024,1611,1024,0,0,89,0,296.5,0,0,100,4.263,4.27,0,0,0,0,5.327,76.46,131.07084212078,11.811024,6,P-GPS,
7600,2022-08-24 00:23:50,-34.9065172600102,-56.1632001314143,12.467192,13.5826776,118.14433252078,131.72701012078,14.107612,1.8119214,13.2649938628,16.899442798,13,4,8.41,131.72701012078,12.467192,5.927891,13.2649938628,0.223694,-1.789552,-4.921268,282.5, 11.2, 0.4,0,0,1024,1024,1611,1024,0,0,89,0,296.5,0,0,100,4.263,4.27,0,0,0,0,5.327,76.46,131.72701012078,12.467192,6,P-GPS,
7700,2022-08-24 00:23:50,-34.9065171079315,-56.1632013821408,13.451444,14.599738,118.11152412078,132.71126212078,14.107612,1.3645334,13.6428482056,17.2777564584,13,4,8.41,132.71126212078,13.451444,5.927891,13.6428482056,0.223694,-1.342164,-5.144962,282.5, 9, 0.4,0,0,1024,1024,1606,1024,0,0,88,0,296.5,0,0,100,4.263,4.27,0,0,0,0,5.327,76.46,132.71126212078,13.451444,6,P-GPS,
7800,2022-08-24 00:23:50,-34.9065170298215,-56.1632022727963,14.107612,15.2887144,118.07871572078,133.36743012078,16.4042,0.894776,13.9108600252,17.545768278,13,4,8.41,133.36743012078,14.107612,5.927891,13.9108600252,0,-0.894776,-5.368656,282.5, 7, 0.4,0,0,1024,1024,1472,1024,0,0,68,0,296.5,0,0,100,4.263,4.27,0,0,0,0,5.327,76.46,133.36743012078,14.107612,6,P-GPS,
7900,2022-08-24 00:23:50,-34.9065171020153,-56.1632026542954,15.091864,16.3057748,118.04590732078,134.35168212078,17.060368,0.671082,14.0218836508,17.6629270744,13,4,8.41,134.35168212078,15.091864,5.927891,14.0218836508,0,-0.671082,-5.368656,282.5, 5.6, 0.2,0,0,1098,1024,1097,1024,11,0,11,0,296.5,0,0,100,4.263,4.27,0,0,0,0,5.327,76.46,134.35168212078,15.091864,6,P-GPS,
8000,2022-08-24 00:23:50,-34.9065169728341,-56.1632024481361,15.748032,16.9291344,118.07871572078,135.00785012078,17.716536,0.447388,13.9651579272,17.7405517488,13,4,8.41,135.00785012078,15.748032,5.927891,14.0218836508,0,-0.447388,-4.697574,282.5, 5, 0.1,0,0,1381,1024,1039,1024,54,0,2,0,296.5,0,0,100,4.263,4.27,0,0,0,0,5.327,76.46,135.00785012078,15.748032,6,P-GPS,
8100,2022-08-24 00:23:50,-34.9065171671303,-56.1632026909883,16.4042,17.6181108,118.04590732078,135.66401812078,18.372704,0.447388,14.03051226,17.8420609384,13,4,8.433,135.66401812078,16.4042,5.927891,14.03051226,0,-0.447388,-4.026492,282.4, 2.6, 0,0,0,1465,1024,1154,1024,67,0,20,0,296.5,0,0,100,4.215,4.213,0,0,0,0,4.622,76.46,135.66401812078,16.4042,6,P-GPS,
8200,2022-08-24 00:23:50,-34.9065173653136,-56.1632028900283,17.060368,18.2742788,118.04590732078,136.32018612078,19.028872,0.447388,14.0831369336,17.9357289204,13,4,8.433,136.32018612078,17.060368,5.927891,14.0831369336,0,-0.447388,-3.131716,282.4, -3.3, 0,0,0,1467,1024,1202,1024,67,0,27,0,296.5,0,0,100,4.215,4.213,0,0,0,0,4.622,76.46,136.32018612078,17.060368,6,P-GPS,
8300,2022-08-24 00:23:51,-34.9065175692615,-56.1632031607227,17.388452,18.6351712,118.01309892078,136.64827012078,19.028872,0.447388,14.1573495344,18.0457354856,13,4,8.433,136.64827012078,17.388452,5.927891,14.1573495344,0,-0.447388,-2.460634,282.4, -7.5, 0,0,0,1464,1024,1253,1024,67,0,35,0,296.5,0,0,100,4.215,4.213,0,0,0,0,4.622,76.46,136.64827012078,17.388452,6,P-GPS,
8400,2022-08-24 00:23:51,-34.9065177399681,-56.1632030690557,17.716536,18.9632552,118.01309892078,136.97635412078,19.028872,0.7158208,14.1249348352,18.1137801072,13,4,8.433,136.97635412078,17.716536,5.927891,14.1573495344,0.223694,-0.671082,-1.789552,282.4, -9.3, -0.1,0,0,1454,1024,1257,1024,65,0,35,0,296.5,0,0,100,4.215,4.213,0,0,0,0,4.622,76.46,136.97635412078,17.716536,6,P-GPS,
8500,2022-08-24 00:23:51,-34.9065177381719,-56.1632035883765,18.04462,19.3241476,117.98029052078,137.30443812078,19.356956,1.1408394,14.2798561,18.2691606896,13,4,8.433,137.30443812078,18.04462,5.927891,14.2798561,0.223694,-1.11847,-1.565858,282.4, -9.8, 0.1,0,0,1454,1024,1257,1024,65,0,35,0,296.5,0,0,100,4.215,4.213,0,0,0,0,4.622,76.46,137.30443812078,18.04462,6,P-GPS,
8600,2022-08-24 00:23:51,-34.9065177303358,-56.1632042419384,18.372704,19.6522316,117.98029052078,137.63252212078,19.356956,1.5882274,14.4750332716,18.464731562,13,4,8.433,137.63252212078,18.372704,5.927891,14.4750332716,0.223694,-1.565858,-1.565858,282.4, -9.4, 0.1,0,0,1454,1024,1257,1024,65,0,35,0,296.5,0,0,100,4.215,4.213,0,0,0,0,4.622,76.46,137.63252212078,18.372704,6,P-GPS,
8700,2022-08-24 00:23:51,-34.9065177292757,-56.1632051446935,18.372704,19.68504,117.94748212078,137.63252212078,19.356956,1.8119214,14.7443574272,18.7348431192,13,4,8.433,137.63252212078,18.372704,5.927891,14.7443574272,0.223694,-1.789552,-1.342164,282.3, -9, 0.2,0,0,1455,1024,1259,1024,65,0,36,0,296.5,0,0,100,4.215,4.213,0,0,0,0,4.622,76.46,137.63252212078,18.372704,6,P-GPS,
8800,2022-08-24 00:23:51,-34.9065176887681,-56.1632061597575,18.700788,20.0459324,117.91467372078,137.96060612078,19.68504,2.2816788,15.0483272532,19.0389113704,13,4,8.433,137.96060612078,18.700788,5.927891,15.0483272532,0.447388,-2.23694,-1.342164,282.3, -8.8, 0.2,0,0,1454,1024,1259,1024,65,0,36,0,296.5,0,0,100,4.215,4.213,0,0,0,0,4.622,76.46,137.96060612078,18.700788,6,P-GPS,
8900,2022-08-24 00:23:51,-34.9065173495291,-56.1632076293304,19.028872,20.4068248,117.88186532078,138.28869012078,19.68504,2.5053728,15.4964571888,19.495735532,13,4,8.433,138.28869012078,19.028872,5.927891,15.4964571888,0.447388,-2.460634,-1.342164,282.3, -8.7, 0.1,0,0,1456,1024,1263,1024,65,0,36,0,296.5,0,0,100,4.215,4.213,0,0,0,0,4.622,76.46,138.28869012078,19.028872,6,P-GPS,
9000,2022-08-24 00:23:51,-34.9065172217255,-56.1632089785114,19.028872,20.4396332,117.84905692078,138.28869012078,20.013124,2.7290668,15.9025923724,19.9021003744,13,4,8.433,138.28869012078,19.028872,5.927891,15.9025923724,0.447388,-2.684328,-1.342164,282.3, -8.7, 0.2,0,0,1439,1024,1268,1024,63,0,37,0,296.5,0,0,100,4.215,4.213,0,0,0,0,4.622,76.46,138.28869012078,19.028872,6,P-GPS,
9100,2022-08-24 00:23:51,-34.9065170725959,-56.1632106134843,19.356956,20.833334,117.78344012078,138.61677412078,20.341208,3.1540854,16.3946199472,20.3942919912,13,4,8.509,138.61677412078,19.356956,5.927891,16.3946199472,0.447388,-3.131716,-1.342164,282.3, -8.4, 0.4,0,0,1289,1024,1345,1024,40,0,49,0,296.5,0,0,100,4.25,4.246,0,0,0,0,3.676,76.46,138.61677412078,19.356956,6,P-GPS,
9200,2022-08-24 00:23:51,-34.9065169025472,-56.1632123374996,19.68504,21.161418,117.78344012078,138.94485812078,20.669292,3.3777794,16.9138456856,20.9138458136,13,4,8.509,138.94485812078,19.68504,5.927891,16.9138456856,0.447388,-3.35541,-1.342164,282.4, -7.8, 0.7,0,0,1289,1024,1345,1024,40,0,49,0,296.5,0,0,100,4.25,4.246,0,0,0,0,3.676,76.46,138.94485812078,19.68504,6,P-GPS,
9300,2022-08-24 00:23:52,-34.906516427548,-56.1632150797755,20.013124,21.5551188,117.71782332078,139.27294212078,20.997376,3.6014734,17.746391644,21.752461326,13,4,8.509,139.27294212078,20.013124,5.927891,17.746391644,0.447388,-3.579104,-1.565858,282.4, -5.7, 0.9,0,0,1286,1024,1367,1024,40,0,52,0,296.5,0,0,100,4.25,4.246,0,0,0,0,3.676,76.46,139.27294212078,20.013124,6,P-GPS,
9400,2022-08-24 00:23:52,-34.9065162100433,-56.1632170866996,20.013124,21.6207356,117.65220652078,139.27294212078,21.32546,3.8699062,18.3516081988,22.3581700068,13,4,8.509,139.27294212078,20.013124,5.927891,18.3516081988,0.671082,-3.802798,-2.013246,282.4, -3.1, 1,0,0,1286,1024,1367,1024,40,0,52,0,296.5,0,0,100,4.25,4.246,0,0,0,0,3.676,76.46,139.27294212078,20.013124,6,P-GPS,
9500,2022-08-24 00:23:52,-34.9065160352966,-56.1632191037488,20.341208,22.0144364,117.58658972078,139.60102612078,21.653544,3.8699062,18.9584323652,22.96505979,13,4,8.509,139.60102612078,20.341208,5.927891,18.9584323652,0.671082,-3.802798,-2.23694,282.3, -2.4, 1,0,0,1287,1024,1367,1024,40,0,52,0,296.5,0,0,100,4.25,4.246,0,0,0,0,3.676,76.46,139.60102612078,20.341208,6,P-GPS,
9600,2022-08-24 00:23:52,-34.9065158448208,-56.1632210022787,20.997376,22.7034128,117.55378132078,140.25719412078,21.981628,3.8699062,19.5304796276,23.5373367112,13,4,8.509,140.25719412078,20.997376,5.927891,19.5304796276,0.671082,-3.802798,-2.23694,282.3, -2.2, 0.9,0,0,1287,1024,1363,1024,40,0,51,0,296.5,0,0,100,4.25,4.246,0,0,0,0,3.676,76.46,140.25719412078,20.997376,6,P-GPS,
9700,2022-08-24 00:23:52,-34.9065155217033,-56.1632228109645,21.32546,23.0971136,117.48816452078,140.58527812078,22.309712,3.8699062,20.0804140284,24.09120812,13,4,8.509,140.58527812078,21.32546,5.927891,20.0804140284,0.671082,-3.802798,-2.460634,282.3, -2.2, 0.9,0,0,1288,1024,1362,1024,40,0,51,0,296.5,0,0,100,4.25,4.246,0,0,0,0,3.676,76.46,140.58527812078,21.32546,6,P-GPS,
9800,2022-08-24 00:23:52,-34.9065152970195,-56.1632245761933,21.653544,23.458006,117.45535612078,140.91336212078,22.637796,3.8699062,20.6140426544,24.6257225728,13,4,8.509,140.91336212078,21.653544,5.927891,20.6140426544,0.671082,-3.802798,-2.460634,282.2, -2.3, 0.9,0,0,1290,1024,1362,1024,40,0,51,0,296.5,0,0,100,4.25,4.246,0,0,0,0,3.676,76.46,140.91336212078,21.653544,6,P-GPS,
9900,2022-08-24 00:23:52,-34.9065151503879,-56.1632262114953,21.981628,23.8188984,117.42254772078,141.24144612078,25.262468,3.8251674,21.1062342712,25.1179141896,13,4,8.509,141.24144612078,21.981628,5.927891,21.1062342712,0.447388,-3.802798,-2.460634,282.2, -2.4, 1,0,0,1290,1024,1349,1024,40,0,49,0,296.5,0,0,100,4.25,4.246,0,0,0,0,3.676,76.46,141.24144612078,21.981628,6,P-GPS,
10000,2022-08-24 00:23:52,-34.9065150150903,-56.1632278028442,22.309712,24.2125992,117.35693092078,141.56953012078,25.918636,3.8251674,21.5849088272,25.596621554,14,4,8.509,141.56953012078,22.309712,5.927891,21.5849088272,0.447388,-3.802798,-2.460634,282.3, -2.4, 1.1,0,0,1290,1024,1339,1024,40,0,48,0,296.5,0,0,100,4.25,4.246,0,0,0,0,3.676,76.46,141.56953012078,22.309712,6,P-GPS,
10100,2022-08-24 00:23:52,-34.9065150503461,-56.163229107414,22.637796,24.5734916,117.32412252078,141.89761412078,26.574804,3.8251674,21.9721463724,25.9871727476,14,4,8.473,141.89761412078,22.637796,5.927891,21.9721463724,0.447388,-3.802798,-2.460634,282.3, -2.3, 1.2,0,0,1290,1024,1339,1024,40,0,48,0,296.5,0,0,100,4.237,4.237,0,0,0,0,4.478,76.46,141.89761412078,22.637796,6,P-GPS,
10200,2022-08-24 00:23:52,-34.9065149251204,-56.1632308554428,22.96588,24.934384,117.29131412078,142.22569812078,26.902888,4.026492,22.4971463892,26.5121727644,13,4,8.473,142.22569812078,22.96588,5.927891,22.4971463892,0.223694,-4.026492,-2.23694,278.1, -2, 1.4,0,0,1290,1024,1341,1024,40,0,48,0,296.5,0,0,100,4.237,4.237,0,0,0,0,4.478,76.46,142.22569812078,22.96588,6,P-GPS,
10300,2022-08-24 00:23:53,-34.9065148296911,-56.1632326485896,23.293964,25.3280848,117.22569732078,142.55378212078,27.230972,4.026492,23.0345479812,27.0498368236,13,4,8.473,142.55378212078,23.293964,5.927891,23.0345479812,0.223694,-4.026492,-2.23694,278, -2.1, 1.2,0,0,1290,1024,1358,1024,40,0,51,0,296.5,0,0,100,4.237,4.237,0,0,0,0,4.478,76.46,142.55378212078,23.293964,6,P-GPS,
10400,2022-08-24 00:23:53,-34.9065147540312,-56.1632343724038,23.950132,26.0170612,117.19288892078,143.20995012078,27.230972,3.802798,23.5506241132,27.5663394648,14,4,8.473,143.20995012078,23.950132,5.927891,23.5506241132,0.223694,-3.802798,-2.23694,278, -2.3, 1.2,0,0,1290,1024,1343,1024,40,0,48,0,296.5,0,0,100,4.237,4.237,0,0,0,0,4.478,76.46,143.20995012078,23.950132,6,P-GPS,
10500,2022-08-24 00:23:53,-34.9065147141115,-56.1632362527518,24.278216,26.410762,117.12727212078,143.53803412078,27.559056,3.802798,24.1121398792,28.1291675668,14,4,8.473,143.53803412078,24.278216,5.927891,24.1121398792,0.223694,-3.802798,-2.23694,278.1, -2.1, 1.4,0,0,1290,1024,1342,1024,40,0,48,0,296.5,0,0,100,4.237,4.237,0,0,0,0,4.478,76.46,143.53803412078,24.278216,6,P-GPS,
10600,2022-08-24 00:23:53,-34.9065149997112,-56.1632380297067,24.6063,26.8044628,117.06165532078,143.86611812078,27.88714,3.802798,24.632382678,28.6709654844,14,5,8.473,143.86611812078,24.6063,5.927891,24.632382678,0.223694,-3.802798,-2.23694,278.1, -1.9, 1.4,0,0,1302,1024,1347,1024,42,0,49,0,296.5,0,0,100,4.237,4.237,0,0,0,0,4.478,76.46,143.86611812078,24.6063,6,P-GPS,
10700,2022-08-24 00:23:53,-34.9065149569972,-56.1632399326083,24.934384,27.1981636,116.99603852078,144.19420212078,28.215224,3.802798,25.2009850584,29.2405193084,14,5,8.473,144.19420212078,24.934384,5.927891,25.2009850584,0.223694,-3.802798,-2.23694,278, -2.2, 1.3,0,0,1304,1024,1339,1024,42,0,48,0,296.5,0,0,100,4.237,4.237,0,0,0,0,4.478,76.46,144.19420212078,24.934384,6,P-GPS,
10800,2022-08-24 00:23:53,-34.9065149002597,-56.1632417030813,25.262468,27.559056,116.96323012078,144.52228612078,28.543308,3.802798,25.7305782512,29.770670244,14,5,8.473,144.52228612078,25.262468,5.927891,25.7305782512,0.223694,-3.802798,-2.23694,278, -2.8, 1.1,0,0,1313,1024,1327,1024,44,0,46,0,296.5,0,0,100,4.237,4.237,0,0,0,0,4.478,76.46,144.52228612078,25.262468,6,P-GPS,
10900,2022-08-24 00:23:53,-34.9065147961785,-56.1632434598015,25.590552,27.9199484,116.93042172078,144.85037012078,28.543308,3.802798,26.257546772,30.2976715732,14,5,8.473,144.85037012078,25.590552,5.927891,26.257546772,0.223694,-3.802798,-2.23694,277.9, -2.9, 1.1,0,0,1325,1024,1325,1024,46,0,46,0,296.5,0,0,100,4.237,4.237,0,0,0,0,4.478,76.46,144.85037012078,25.590552,6,P-GPS,
11000,2022-08-24 00:23:53,-34.9065148537921,-56.1632448726584,25.918636,28.3136492,116.86480492078,145.17845412078,28.871392,3.802798,26.6771005912,30.7209327416,14,5,8.473,145.17845412078,25.918636,5.927891,26.6771005912,0.223694,-3.802798,-2.23694,278, -3.1, 1,0,0,1325,1024,1325,1024,46,0,46,0,296.5,0,0,100,4.237,4.237,0,0,0,0,4.478,76.46,145.17845412078,25.918636,6,P-GPS,
11100,2022-08-24 00:23:53,-34.9065147738119,-56.1632464864879,26.24672,28.6745416,116.83199652078,145.50653812078,29.199476,4.0488614,27.1607292156,31.2046925996,14,5,8.473,145.50653812078,26.24672,5.927891,27.1607292156,0.447388,-4.026492,-2.23694,278, -3.1, 1,0,0,1329,1024,1325,1024,46,0,46,0,296.5,0,0,100,4.237,4.237,0,0,0,0,4.478,76.46,145.50653812078,26.24672,6,P-GPS,
11200,2022-08-24 00:23:53,-34.9065146628008,-56.1632480512299,26.574804,29.0682424,116.76637972078,145.83462212078,29.52756,4.0488614,27.6306439288,31.6746073128,14,5,8.475,145.83462212078,26.574804,5.927891,27.6306439288,0.447388,-4.026492,-2.013246,278.1, -3.3, 1,0,0,1334,1024,1323,1024,47,0,45,0,296.5,0,0,99,4.238,4.233,0,0,0,0,4.288,76.64,145.83462212078,26.574804,6,P-GPS,
11300,2022-08-24 00:23:54,-34.9065144472926,-56.1632497584343,26.902888,29.4291348,116.73357132078,146.16270612078,29.855644,4.0488614,28.1461951264,32.191438038,14,5,8.475,146.16270612078,26.902888,5.927891,28.1461951264,0.447388,-4.026492,-2.013246,278.1, -3.3, 1.1,0,0,1337,1024,1323,1024,47,0,45,0,296.5,0,0,99,4.238,4.233,0,0,0,0,4.288,76.64,146.16270612078,26.902888,6,P-GPS,
11400,2022-08-24 00:23:54,-34.906514107223,-56.1632510106259,27.230972,29.7900272,116.70076292078,146.49079012078,30.183728,4.2725554,28.5299877896,32.58612309,13,5,8.475,146.49079012078,27.230972,5.927891,28.5299877896,0.447388,-4.250186,-2.013246,278, -3.2, 1.2,0,0,1337,1024,1324,1024,47,0,45,0,296.5,0,0,99,4.238,4.233,0,0,0,0,4.288,76.64,146.49079012078,27.230972,6,P-GPS,
11500,2022-08-24 00:23:54,-34.9065140037207,-56.1632528884458,27.559056,30.1509196,116.66795452078,146.81887412078,30.511812,4.2725554,29.093012742,33.149279276,13,5,8.475,146.81887412078,27.559056,5.927891,29.093012742,0.447388,-4.250186,-2.013246,278.1, -3.1, 1.2,0,0,1337,1024,1322,1024,47,0,45,0,296.5,0,0,99,4.238,4.233,0,0,0,0,4.288,76.64,146.81887412078,27.559056,6,P-GPS,
11600,2022-08-24 00:23:54,-34.9065139166665,-56.1632546619534,27.88714,30.5446204,116.60233772078,147.14695812078,30.839896,4.2725554,29.6244432052,33.680775356,14,5,8.475,147.14695812078,27.88714,5.927891,29.6244432052,0.447388,-4.250186,-2.013246,278.1, -3, 1.1,0,0,1337,1024,1321,1024,47,0,45,0,296.5,0,0,99,4.238,4.233,0,0,0,0,4.288,76.64,147.14695812078,27.88714,6,P-GPS,
11700,2022-08-24 00:23:54,-34.9065138618319,-56.1632564392113,28.215224,30.9055128,116.56952932078,147.47504212078,31.16798,4.2725554,30.156004902,34.212927604,14,5,8.475,147.47504212078,28.215224,5.927891,30.156004902,0.447388,-4.250186,-2.013246,278.1, -2.8, 1.1,0,0,1340,1024,1322,1024,48,0,45,0,296.5,0,0,99,4.238,4.233,0,0,0,0,4.288,76.64,147.47504212078,28.215224,6,P-GPS,
11800,2022-08-24 00:23:54,-34.9065143689693,-56.1632581402001,28.543308,31.2992136,116.50391252078,147.80312612078,31.496064,4.4962494,30.6483933692,34.754594288,14,5,8.475,147.80312612078,28.543308,5.927891,30.6483933692,0.447388,-4.47388,-2.013246,278, -2.6, 1.2,0,0,1337,1024,1367,1024,47,0,52,0,296.5,0,0,99,4.238,4.233,0,0,0,0,4.288,76.64,147.80312612078,28.543308,6,P-GPS,
11900,2022-08-24 00:23:54,-34.9065144279988,-56.1632601573852,28.871392,31.6929144,116.43829572078,148.13121012078,32.152232,4.4962494,31.2485574304,35.358596932,14,5,8.475,148.13121012078,28.871392,5.927891,31.2485574304,0.447388,-4.47388,-2.013246,278, -2.6, 1.1,0,0,1337,1024,1367,1024,47,0,52,0,296.5,0,0,99,4.238,4.233,0,0,0,0,4.288,76.64,148.13121012078,28.871392,6,P-GPS,
12000,2022-08-24 00:23:54,-34.9065144772926,-56.1632620321913,29.199476,32.0866152,116.37267892078,148.45929412078,32.480316,4.4962494,31.8066611228,35.919620572,14,5,8.475,148.45929412078,29.199476,5.927891,31.8066611228,0.447388,-4.47388,-2.23694,278.1, -2.6, 1.1,0,0,1303,1024,1457,1024,42,0,66,0,296.5,0,0,99,4.238,4.233,0,0,0,0,4.288,76.64,148.45929412078,29.199476,6,P-GPS,
12100,2022-08-24 00:23:54,-34.9065144977198,-56.1632638399891,29.52756,32.4475076,116.33987052078,148.78737812078,32.8084,4.4962494,32.345637518,36.460631088,14,5,8.475,148.78737812078,29.52756,5.927891,32.345637518,0.447388,-4.47388,-2.460634,278.1, -2.3, 1.2,0,0,1291,1024,1555,1024,40,0,80,0,296.5,0,0,99,4.238,4.233,0,0,0,0,4.288,76.64,148.78737812078,29.52756,6,P-GPS,
12200,2022-08-24 00:23:54,-34.9065144943465,-56.1632656364735,29.855644,32.8412084,116.27425372078,149.11546212078,33.136484,4.4962494,32.881890816,36.998360764,14,5,8.478,149.11546212078,29.855644,5.927891,32.881890816,0.447388,-4.47388,-2.908022,278.1, -1.8, 1.2,0,0,1247,1024,1645,1024,34,0,94,0,296.5,0,0,99,4.241,4.239,0,0,0,0,4.162,76.64,149.11546212078,29.855644,6,P-GPS,
12300,2022-08-24 00:23:55,-34.9065145280129,-56.1632675928398,30.511812,33.5958016,116.17582852078,149.77163012078,33.792652,4.4962494,33.464896084,37.58366262,14,5,8.478,149.77163012078,30.511812,5.927891,33.464896084,0.447388,-4.47388,-3.802798,278.1, -1.5, 1.4,0,0,1024,1024,1684,1024,0,0,100,0,296.5,0,0,99,4.241,4.239,0,0,0,0,4.162,76.64,149.77163012078,30.511812,6,P-GPS,
12400,2022-08-24 00:23:55,-34.9065144536484,-56.1632695803257,31.16798,34.284778,116.14302012078,150.42779812078,34.44882,4.4962494,34.06004046,38.17913508,14,5,8.478,150.42779812078,31.16798,5.927891,34.06004046,0.447388,-4.47388,-4.47388,278.1, -0.2, 1.1,0,0,1024,1024,1684,1024,0,0,100,0,296.5,0,0,99,4.241,4.239,0,0,0,0,4.162,76.64,150.42779812078,31.16798,6,P-GPS,
12500,2022-08-24 00:23:55,-34.906514355616,-56.1632716506306,31.824148,35.0065628,116.07740332078,151.08396612078,35.104988,4.2725554,34.680447304,38.799541924,14,5,8.478,151.08396612078,31.824148,5.927891,34.680447304,0.447388,-4.250186,-5.144962,278.2, 11.7, 0.9,0,0,1024,1024,1684,1024,0,0,100,0,296.5,0,0,99,4.241,4.239,0,0,0,0,4.162,76.64,151.08396612078,31.824148,6,P-GPS,
12600,2022-08-24 00:23:55,-34.9065142628298,-56.1632733883332,32.8084,36.0236232,116.04459492078,152.06821812078,36.08924,3.6014734,35.201444696,39.320539316,14,5,8.478,152.06821812078,32.8084,5.927891,35.201444696,0.447388,-3.579104,-5.59235,278.3, 17.3, 0.7,0,0,1024,1024,1684,1024,0,0,100,0,296.5,0,0,99,4.241,4.239,0,0,0,0,4.162,76.64,152.06821812078,32.8084,6,P-GPS,
12700,2022-08-24 00:23:55,-34.9065139331895,-56.1632750055996,33.464568,36.745408,115.97897812078,152.72438612078,36.745408,2.684328,35.692586444,39.819226996,14,5,8.478,152.72438612078,33.464568,5.927891,35.692586444,0.223694,-2.684328,-6.039738,278.1, 15.9, 0.8,0,0,1024,1024,1684,1024,0,0,100,0,296.5,0,0,99,4.241,4.239,0,0,0,0,4.162,76.64,152.72438612078,33.464568,6,P-GPS,
12800,2022-08-24 00:23:55,-34.906513832423,-56.1632760242885,34.44882,37.72966,115.97897812078,153.70863812078,37.72966,2.0356154,35.999344984,40.125985536,14,5,8.478,153.70863812078,34.44882,5.927891,35.999344984,0.223694,-2.013246,-6.263432,278.1, 13.1, 1.1,0,0,1024,1024,1684,1024,0,0,100,0,296.5,0,0,99,4.241,4.239,0,0,0,0,4.162,76.64,153.70863812078,34.44882,6,P-GPS,
12900,2022-08-24 00:23:55,-34.9065136785921,-56.1632770346204,35.433072,38.7467204,115.94616972078,154.69289012078,38.713912,1.342164,36.304791188,40.433728328,14,5,8.478,154.69289012078,35.433072,5.927891,36.304791188,0,-1.342164,-6.487126,278.1, 10.4, 0.8,0,0,1024,1024,1684,1024,0,0,100,0,296.5,0,0,99,4.241,4.239,0,0,0,0,4.162,76.64,154.69289012078,35.433072,6,P-GPS,
13000,2022-08-24 00:23:55,-34.9065135560924,-56.1632777844509,36.745408,40.0918648,115.91336132078,156.00522612078,39.698164,0.894776,36.531825316,40.662402876,14,5,8.478,156.00522612078,36.745408,5.927891,36.531825316,0,-0.894776,-6.487126,278.1, 8.6, 1.1,0,0,1024,1024,1684,1024,0,0,100,0,296.5,0,0,99,4.241,4.239,0,0,0,0,4.162,76.64,156.00522612078,36.745408,6,P-GPS,
13100,2022-08-24 00:23:55,-34.9065130932455,-56.1632791314486,37.72966,41.0761168,115.91336132078,156.98947812078,40.682416,0.671082,36.946195408,41.099410764,14,5,8.478,156.98947812078,37.72966,5.927891,36.946195408,0,-0.671082,-6.487126,278, 7.1, 0.7,0,0,1024,1024,1670,1024,0,0,98,0,296.5,0,0,99,4.241,4.239,0,0,0,0,4.162,76.64,156.98947812078,37.72966,6,P-GPS,
13200,2022-08-24 00:23:55,-34.9065130622032,-56.1632793749954,38.713912,42.0603688,115.91336132078,157.97373012078,41.0105,0.447388,37.020014308,41.173229664,14,5,8.354,157.97373012078,38.713912,5.927891,37.020014308,0,-0.447388,-6.487126,278, 5.8, 0.2,0,0,1024,1024,1668,1024,0,0,98,0,296.5,0,0,99,4.189,4.189,0,0,0,0,5.686,76.64,157.97373012078,38.713912,6,P-GPS,
13300,2022-08-24 00:23:56,-34.9065131659229,-56.163279080324,39.698164,43.0446208,115.91336132078,158.95798212078,41.0105,0.447388,36.92913504,41.269030192,14,5,8.354,158.95798212078,39.698164,5.927891,37.020014308,0,-0.447388,-6.487126,278, 5.2, 0,0,0,1024,1024,1668,1024,0,0,98,0,296.5,0,0,99,4.189,4.189,0,0,0,0,5.686,76.64,158.95798212078,39.698164,6,P-GPS,
13400,2022-08-24 00:23:56,-34.9065132883371,-56.1632786607975,40.682416,44.0288728,115.91336132078,159.94223412078,41.0105,0.223694,36.800526112,41.402232296,14,5,8.354,159.94223412078,40.682416,5.927891,37.020014308,0,-0.223694,-6.263432,278, 4.2, 0.1,0,0,1090,1024,1654,1024,10,0,95,0,296.5,0,0,99,4.189,4.189,0,0,0,0,5.686,76.64,159.94223412078,40.682416,6,P-GPS,
13500,2022-08-24 00:23:56,-34.9065137793366,-56.163276624715,41.666668,44.9803164,115.94616972078,160.92648612078,41.0105,0,36.179791184,42.03740292,14,5,8.354,160.92648612078,41.666668,5.927891,37.020014308,0,0,-6.487126,278, 3.3, 0.3,0,0,1387,1024,1589,1024,55,0,86,0,296.5,0,0,99,4.189,4.189,0,0,0,0,5.686,76.64,160.92648612078,41.666668,6,P-GPS,
13600,2022-08-24 00:23:56,-34.9065139446741,-56.163276054395,42.65092,45.93176,115.97897812078,161.91073812078,41.0105,0,36.00557858,42.218177204,14,5,8.354,161.91073812078,42.65092,5.927891,37.020014308,0,0,-6.263432,277.9, 2, 0.2,0,0,1551,1024,1565,1024,80,0,82,0,296.5,0,0,99,4.189,4.189,0,0,0,0,5.686,76.64,161.91073812078,42.65092,6,P-GPS,
13700,2022-08-24 00:23:56,-34.9065141280736,-56.1632756871839,43.635172,46.916012,115.97897812078,162.89499012078,41.0105,0,35.891077264,42.346786132,14,5,8.354,162.89499012078,43.635172,5.927891,37.020014308,0,0,-6.039738,278, -2.7, 0,0,0,1625,1024,1559,1024,91,0,81,0,296.5,0,0,99,4.189,4.189,0,0,0,0,5.686,76.64,162.89499012078,43.635172,6,P-GPS,
13800,2022-08-24 00:23:56,-34.9065142961591,-56.1632753547384,44.619424,47.900264,115.97897812078,163.87924212078,41.0105,0,35.787730804,42.46391212,14,5,8.354,163.87924212078,44.619424,5.927891,37.020014308,0,0,-5.59235,277.9, -9.1, 0.2,0,0,1625,1024,1559,1024,91,0,81,0,296.5,0,0,99,4.189,4.189,0,0,0,0,5.686,76.64,163.87924212078,44.619424,6,P-GPS,
13900,2022-08-24 00:23:56,-34.9065144361068,-56.1632750753709,45.275592,48.556432,115.97897812078,164.53541012078,41.0105,0.447388,35.701116628,42.561681152,14,5,8.354,164.53541012078,45.275592,5.927891,37.020014308,0,-0.447388,-5.368656,278, -13.1, 0.1,0,0,1684,1024,1429,1024,100,0,61,0,296.5,0,0,99,4.189,4.189,0,0,0,0,5.686,76.64,164.53541012078,45.275592,6,P-GPS,
14000,2022-08-24 00:23:56,-34.9065147134161,-56.1632749205347,46.259844,49.5734924,115.94616972078,165.51966212078,41.0105,0.894776,35.648295104,42.672901628,14,5,8.354,165.51966212078,46.259844,5.927891,37.020014308,0,-0.894776,-4.921268,277.9, -16.4, 0.2,0,0,1684,1024,1243,1024,100,0,33,0,296.5,0,0,99,4.189,4.189,0,0,0,0,5.686,76.64,165.51966212078,46.259844,6,P-GPS,
14100,2022-08-24 00:23:56,-34.9065148166636,-56.1632751396162,46.916012,50.2296604,115.94616972078,166.17583012078,41.0105,1.3645334,35.711287232,42.748689032,14,5,8.354,166.17583012078,46.916012,5.927891,37.020014308,0.223694,-1.342164,-4.250186,277.9, -17.9, 0.5,0,0,1684,1024,1222,1024,100,0,30,0,296.5,0,0,99,4.189,4.189,0,0,0,0,5.686,76.64,166.17583012078,46.916012,6,P-GPS,
14200,2022-08-24 00:23:56,-34.9065148631393,-56.1632756589369,47.244096,50.5905528,115.91336132078,166.50391412078,41.0105,1.8119214,35.865486712,42.904857016,14,5,8.412,166.50391412078,47.244096,5.927891,37.020014308,0.223694,-1.789552,-3.35541,277.9, -18.7, 0.3,0,0,1684,1024,1298,1024,100,0,42,0,296.5,0,0,99,4.237,4.228,0,0,0,0,5.194,76.64,166.50391412078,47.244096,6,P-GPS,
14300,2022-08-24 00:23:57,-34.9065148018235,-56.1632767014645,47.900264,51.2795292,115.88055292078,167.16008212078,41.0105,2.460634,36.178150764,43.217521068,14,5,8.412,167.16008212078,47.900264,5.927891,37.020014308,0.223694,-2.460634,-2.684328,278, -19.3, 0.1,0,0,1684,1024,1387,1024,100,0,55,0,296.5,0,0,99,4.237,4.228,0,0,0,0,5.194,76.64,167.16008212078,47.900264,6,P-GPS,
14400,2022-08-24 00:23:57,-34.9065146043869,-56.1632784366078,48.228348,51.6076132,115.88055292078,167.48816612078,41.0105,2.9527608,36.700788576,43.7417993,14,5,8.412,167.48816612078,48.228348,5.927891,37.020014308,0.447388,-2.908022,-2.23694,278.1, -19, 0.1,0,0,1684,1024,1419,1024,100,0,60,0,296.5,0,0,99,4.237,4.228,0,0,0,0,5.194,76.64,167.48816612078,48.228348,6,P-GPS,
14500,2022-08-24 00:23:57,-34.9065144070537,-56.1632802979537,48.556432,51.9685056,115.84774452078,167.81625012078,41.0105,3.8251674,37.261156048,44.303479108,14,5,8.412,167.81625012078,48.556432,5.927891,37.261156048,0.447388,-3.802798,-2.460634,278.2, -17.1, 0.1,0,0,1684,1024,1459,1024,100,0,66,0,296.5,0,0,99,4.237,4.228,0,0,0,0,5.194,76.64,167.81625012078,48.556432,6,P-GPS,
14600,2022-08-24 00:23:57,-34.9065141759156,-56.1632824121229,48.884516,52.3622064,115.78212772078,168.14433412078,41.0105,4.5186188,37.897639008,44.941602488,14,5,8.412,168.14433412078,48.884516,5.927891,37.897639008,0.671082,-4.47388,-2.684328,278.2, -15.3, 0.2,0,0,1684,1024,1459,1024,100,0,66,0,296.5,0,0,99,4.237,4.228,0,0,0,0,5.194,76.64,168.14433412078,48.884516,6,P-GPS,
14700,2022-08-24 00:23:57,-34.9065138538933,-56.1632850088625,49.540684,53.1167996,115.68370252078,168.80050212078,41.0105,4.9660068,38.680775516,45.727363668,14,5,8.412,168.80050212078,49.540684,5.927891,38.680775516,0.671082,-4.921268,-2.908022,278.1, -14.3, 0.3,0,0,1684,1024,1480,1024,100,0,69,0,296.5,0,0,99,4.237,4.228,0,0,0,0,5.194,76.64,168.80050212078,49.540684,6,P-GPS,
14800,2022-08-24 00:23:57,-34.9065130982619,-56.1632887824283,49.868768,53.5105004,115.61808572078,169.12858612078,41.0105,5.6370888,39.82611676,46.889437196,14,5,8.412,169.12858612078,49.868768,5.927891,39.82611676,0.671082,-5.59235,-3.35541,278.1, -13.4, 0.5,0,0,1684,1024,1486,1024,100,0,70,0,296.5,0,0,99,4.237,4.228,0,0,0,0,5.194,76.64,169.12858612078,49.868768,6,P-GPS,
14900,2022-08-24 00:23:57,-34.9065127311951,-56.1632919503341,50.524936,54.2650936,115.51966052078,169.78475412078,41.0105,6.1068462,40.781169284,47.846786308,14,5,8.412,169.78475412078,50.524936,6.1068462,40.781169284,0.894776,-6.039738,-3.579104,278.2, -13.2, 0.4,0,0,1684,1024,1503,1024,100,0,73,0,296.5,0,0,99,4.237,4.228,0,0,0,0,5.194,76.64,169.78475412078,50.524936,6,P-GPS,
15000,2022-08-24 00:23:57,-34.9065123553258,-56.1632952102619,51.181104,54.9868784,115.45404372078,170.44092212078,41.0105,6.5542342,41.763780864,48.831694476,15,5,8.412,170.44092212078,51.181104,6.5542342,41.763780864,0.894776,-6.487126,-3.802798,278.1, -12.9, 0.7,0,0,1684,1024,1500,1024,100,0,72,0,296.5,0,0,99,4.237,4.228,0,0,0,0,5.194,76.64,170.44092212078,51.181104,6,P-GPS,
15100,2022-08-24 00:23:57,-34.906511894017,-56.163298977142,51.837272,55.7414716,115.35561852078,171.09709012078,41.0105,7.0016222,42.90026384,49.971458292,15,5,8.412,171.09709012078,51.837272,7.0016222,42.90026384,0.894776,-6.934514,-4.026492,278.1, -12.9, 0.9,0,0,1684,1024,1551,1024,100,0,80,0,296.5,0,0,99,4.237,4.228,0,0,0,0,5.194,76.64,171.09709012078,51.837272,6,P-GPS,
15200,2022-08-24 00:23:58,-34.9065114258621,-56.1633028445894,52.165356,56.1679808,115.25719332078,171.42517412078,41.0105,7.6503348,44.067258628,51.141077752,15,5,8.418,171.42517412078,52.165356,7.6503348,44.067258628,0.894776,-7.605596,-4.026492,278, -12.5, 1.3,0,0,1684,1024,1611,1024,100,0,89,0,296.5,0,0,99,4.197,4.192,0,0,0,0,4.417,76.64,171.42517412078,52.165356,6,P-GPS,
15300,2022-08-24 00:23:58,-34.9065108692127,-56.1633074099802,52.821524,56.9553824,115.12595972078,172.08134212078,41.0105,7.8740288,45.445211428,52.521983308,15,5,8.418,172.08134212078,52.821524,7.8740288,45.445211428,0.894776,-7.82929,-4.250186,278, -11.9, 1.2,0,0,1684,1024,1674,1024,100,0,98,0,296.5,0,0,99,4.197,4.192,0,0,0,0,4.417,76.64,172.08134212078,52.821524,6,P-GPS,
15400,2022-08-24 00:23:58,-34.9065103409569,-56.1633118449688,53.805776,58.0380596,115.02753452078,173.06559412078,41.0105,7.8740288,46.78313798,53.8631907,15,5,8.418,173.06559412078,53.805776,7.8740288,46.78313798,1.11847,-8.276678,-4.697574,278, -11.4, 1.2,0,0,1684,1024,1674,1024,100,0,98,0,296.5,0,0,99,4.197,4.192,0,0,0,0,4.417,76.64,173.06559412078,53.805776,6,P-GPS,
15500,2022-08-24 00:23:58,-34.9065098810981,-56.1633161949344,54.461944,58.8254612,114.89630092078,173.72176212078,41.0105,8.7911742,48.094161644,55.1755267,15,5,8.418,173.72176212078,54.461944,8.7911742,48.094161644,1.11847,-8.724066,-5.144962,277.9, -10.7, 1.5,0,0,1684,1024,1684,1024,100,0,100,0,296.5,0,0,99,4.197,4.192,0,0,0,0,4.417,76.64,173.72176212078,54.461944,6,P-GPS,
15600,2022-08-24 00:23:58,-34.9065094244108,-56.1633204781998,55.446196,59.87533,114.83068412078,174.70601412078,41.0105,9.2385622,49.385172184,56.467849576,14,5,8.418,174.70601412078,55.446196,9.2385622,49.385172184,1.11847,-9.171454,-5.816044,278, -10.2, 1.3,0,0,1684,1024,1684,1024,100,0,100,0,296.5,0,0,99,4.197,4.192,0,0,0,0,4.417,76.64,174.70601412078,55.446196,6,P-GPS,
15700,2022-08-24 00:23:58,-34.9065089556669,-56.1633243964061,56.430448,60.9908156,114.69945052078,175.69026612078,41.0105,9.4622562,50.567915004,57.6525609,14,5,8.418,175.69026612078,56.430448,9.4622562,50.567915004,1.11847,-9.395148,-6.263432,278, -10.5, 1.2,0,0,1684,1024,1684,1024,100,0,100,0,296.5,0,0,99,4.197,4.192,0,0,0,0,4.417,76.64,175.69026612078,56.430448,6,P-GPS,
15800,2022-08-24 00:23:58,-34.906508487056,-56.1633288156103,57.4147,62.1063012,114.56821692078,176.67451812078,41.0105,9.9096442,51.899936044,58.985894276,14,5,8.418,176.67451812078,57.4147,9.9096442,51.899936044,1.11847,-9.842536,-6.263432,278, -10.7, 1.7,0,0,1684,1024,1684,1024,100,0,100,0,296.5,0,0,99,4.197,4.192,0,0,0,0,4.417,76.64,176.67451812078,57.4147,6,P-GPS,
15900,2022-08-24 00:23:58,-34.9065079675572,-56.163333528577,58.398952,63.2217868,114.43698332078,177.65877012078,41.0105,10.1333382,53.321195932,60.4084665,14,5,8.418,177.65877012078,58.398952,10.1333382,53.321195932,1.11847,-10.06623,-6.487126,277.9, -10.7, 1.8,0,0,1684,1024,1684,1024,100,0,100,0,296.5,0,0,99,4.197,4.192,0,0,0,0,4.417,76.64,177.65877012078,58.398952,6,P-GPS,
16000,2022-08-24 00:23:58,-34.9065074411614,-56.1633381758883,59.383204,64.2060388,114.43698332078,178.64302212078,41.0105,10.3794016,54.723426948,61.812337936,15,5,8.418,178.64302212078,59.383204,10.3794016,54.723426948,1.342164,-10.289924,-6.487126,277.8, -10.8, 1.5,0,0,1684,1024,1684,1024,100,0,100,0,296.5,0,0,99,4.197,4.192,0,0,0,0,4.417,76.64,178.64302212078,59.383204,6,P-GPS,
