time(millisecond),datetime(utc),latitude,longitude,height_above_takeoff(feet),height_above_ground_at_drone_location(feet),ground_elevation_at_drone_location(feet),altitude_above_seaLevel(feet),height_sonar(feet),speed(mph),distance(feet),mileage(feet),satellites,gpslevel,voltage(v),max_altitude(feet),max_ascent(feet),max_speed(mph),max_distance(feet), xSpeed(mph), ySpeed(mph), zSpeed(mph), compass_heading(degrees), pitch(degrees), roll(degrees),isPhoto,isVideo,rc_elevator,rc_aileron,rc_throttle,rc_rudder,rc_elevator(percent),rc_aileron(percent),rc_throttle(percent),rc_rudder(percent),gimbal_heading(degrees),gimbal_pitch(degrees),gimbal_roll(degrees),battery_percent,voltageCell1,voltageCell2,voltageCell3,voltageCell4,voltageCell5,voltageCell6,current(A),battery_temperature(f),altitude(feet),ascent(feet),flycStateRaw,flycState,message
0,2025-05-23 15:45:18,0,0,0,,,3.28084E-5,0,0,0,0,3,0,0,3.28084E-5,0,0,0,0,0,0,73.7, 3, 5,0,0,926,1114,1024,193,-15,14,0,-100,75.2,0,5.4,70,3.997,3.998,0,0,0,0,0,96.08,3.28084E-5,0,6,P-GPS,"Conexión por cable OTG Gafas en modo de conexión por cable OTG. Sal de este modo antes de conectarlas al ordenador. Arranque de motores..."
100,2025-05-23 15:45:18,0,0,0,,,3.28084E-5,0,0,0,0,3,0,0,3.28084E-5,0,0,0,0,0,0,73.7, 3, 5,0,0,926,1114,1024,193,-15,14,0,-100,75.2,0,5.4,70,3.997,3.998,0,0,0,0,0,96.08,3.28084E-5,0,41,Motors_Started,"Conexión por cable OTG Gafas en modo de conexión por cable OTG. Sal de este modo antes de conectarlas al ordenador. Arranque de motores..."
200,2025-05-23 15:45:18,0,0,0,,,3.28084E-5,0,0,0,0,3,0,0,3.28084E-5,0,0,0,0,0,0,73.7, 3, 5,0,0,926,1114,1024,193,-15,14,0,-100,75.2,0,5.4,70,3.997,3.998,0,0,0,0,0,96.08,3.28084E-5,0,41,Motors_Started,"Setting new Return-To-Home altitude to 30m (98 ft). Data Recorder File Index is 17. Setting new Maximum Flight Altitude to 30m (98 ft). Conexión por cable OTG Gafas en modo de conexión por cable OTG. Sal de este modo antes de conectarlas al ordenador. Arranque de motores..."
300,2025-05-23 15:45:18,0,0,0,,,3.28084E-5,0.328084,0,0,0,3,0,0,3.28084E-5,0,0,0,0,0,0,73.7, 3, 5,0,0,926,1114,1024,193,-15,14,0,-100,75.2,0,5.4,70,3.997,3.998,0,0,0,0,0,96.08,3.28084E-5,0,41,Motors_Started,"Conexión por cable OTG Gafas en modo de conexión por cable OTG. Sal de este modo antes de conectarlas al ordenador. Arranque de motores..."
400,2025-05-23 15:45:18,0,0,0,,,3.28084E-5,0.328084,0,0,0,3,0,0,3.28084E-5,0,0,0,0,0,0,73.7, 3, 5,0,0,926,1114,1024,193,-15,14,0,-100,75.2,0,5.4,70,3.997,3.998,0,0,0,0,0,96.08,3.28084E-5,0,41,Motors_Started,"Conexión por cable OTG Gafas en modo de conexión por cable OTG. Sal de este modo antes de conectarlas al ordenador. Arranque de motores..."
500,2025-05-23 15:45:18,0,0,0,,,3.28084E-5,0.328084,0,0,0,3,0,0,3.28084E-5,0,0,0,0,0,0,73.7, 3, 5,0,0,926,1114,1024,193,-15,14,0,-100,75.2,0,5.4,70,3.997,3.998,0,0,0,0,0,96.08,3.28084E-5,0,41,Motors_Started,"Conexión por cable OTG Gafas en modo de conexión por cable OTG. Sal de este modo antes de conectarlas al ordenador. Arranque de motores..."
600,2025-05-23 15:45:19,0,0,0,,,3.28084E-5,0.328084,0,0,0,3,0,0,3.28084E-5,0,0,0,0,0,0,73.6, 3, 5,0,0,926,1114,1024,193,-15,14,0,-100,75.2,0,5.4,70,3.997,3.998,0,0,0,0,0,96.08,3.28084E-5,0,41,Motors_Started,"Conexión por cable OTG Gafas en modo de conexión por cable OTG. Sal de este modo antes de conectarlas al ordenador. Arranque de motores..."
700,2025-05-23 15:45:19,0,0,0,,,3.28084E-5,0.328084,0,0,0,3,0,0,3.28084E-5,0,0,0,0,0,0,73.5, 3, 5,0,0,926,1114,1024,193,-15,14,0,-100,75.2,0,5.4,70,3.997,3.998,0,0,0,0,0,96.08,3.28084E-5,0,41,Motors_Started,"Conexión por cable OTG Gafas en modo de conexión por cable OTG. Sal de este modo antes de conectarlas al ordenador. Arranque de motores..."
800,2025-05-23 15:45:19,0,0,0,,,3.28084E-5,0.328084,0,0,0,3,0,0,3.28084E-5,0,0,0,0,0,0,73.5, 3, 5,0,0,926,1114,1024,193,-15,14,0,-100,75.2,0,5.4,70,3.997,3.998,0,0,0,0,0,96.08,3.28084E-5,0,41,Motors_Started,"Conexión por cable OTG Gafas en modo de conexión por cable OTG. Sal de este modo antes de conectarlas al ordenador. Arranque de motores..."
900,2025-05-23 15:45:19,0,0,0,,,3.28084E-5,0.328084,0,0,0,3,0,0,3.28084E-5,0,0,0,0,0,0,73.3, 3, 5,0,0,926,1114,1024,193,-15,14,0,-100,75.2,0,5.4,70,3.997,3.998,0,0,0,0,0,96.08,3.28084E-5,0,41,Motors_Started,"Conexión por cable OTG Gafas en modo de conexión por cable OTG. Sal de este modo antes de conectarlas al ordenador. Arranque de motores..."
1000,2025-05-23 15:45:19,0,0,0,,,3.28084E-5,0.328084,0,0,0,3,0,0,3.28084E-5,0,0,0,0,0,0,73.3, 3, 5,0,0,926,1114,1024,193,-15,14,0,-100,75.2,0,5.4,70,3.997,3.998,0,0,0,0,0,96.08,3.28084E-5,0,41,Motors_Started,"Conexión por cable OTG Gafas en modo de conexión por cable OTG. Sal de este modo antes de conectarlas al ordenador. Arranque de motores..."
1100,2025-05-23 15:45:19,0,0,0,,,3.28084E-5,0.328084,0,0,0,3,0,0,3.28084E-5,0,0,0,0,0,0,73.4, 3, 5,0,0,926,1114,1024,193,-15,14,0,-100,75.2,0,5.4,70,3.997,3.998,0,0,0,0,0,96.08,3.28084E-5,0,41,Motors_Started,"Conexión por cable OTG Gafas en modo de conexión por cable OTG. Sal de este modo antes de conectarlas al ordenador. Arranque de motores..."
1200,2025-05-23 15:45:19,0,0,0,,,3.28084E-5,0.328084,0,0,0,3,0,0,3.28084E-5,0,0,0,0,0,0,73.5, 3, 5,0,0,926,1114,1024,193,-15,14,0,-100,75.2,0,5.4,70,3.997,3.998,0,0,0,0,0,96.08,3.28084E-5,0,41,Motors_Started,"Conexión por cable OTG Gafas en modo de conexión por cable OTG. Sal de este modo antes de conectarlas al ordenador. Arranque de motores..."
1300,2025-05-23 15:45:19,0,0,0,,,3.28084E-5,0.328084,0,0,0,3,0,0,3.28084E-5,0,0,0,0,0,0,73.7, 3, 5,0,0,926,1114,1024,193,-15,14,0,-100,75.2,0,5.4,70,3.997,3.998,0,0,0,0,0,96.08,3.28084E-5,0,41,Motors_Started,"Conexión por cable OTG Gafas en modo de conexión por cable OTG. Sal de este modo antes de conectarlas al ordenador. Arranque de motores..."
1400,2025-05-23 15:45:19,0,0,0,,,3.28084E-5,0.328084,0,0,0,3,0,0,3.28084E-5,0,0,0,0,0,0,73.7, 3, 5,0,0,926,1114,1024,193,-15,14,0,-100,75.2,0,5.4,70,3.997,3.998,0,0,0,0,0,96.08,3.28084E-5,0,41,Motors_Started,"Conexión por cable OTG Gafas en modo de conexión por cable OTG. Sal de este modo antes de conectarlas al ordenador. Arranque de motores..."
1500,2025-05-23 15:45:19,0,0,0,,,3.28084E-5,0.328084,0,0,0,3,0,0,3.28084E-5,0,0,0,0,0,0,73.7, 3, 5,0,0,926,1114,1024,193,-15,14,0,-100,75.2,0,5.4,70,3.997,3.998,0,0,0,0,0,96.08,3.28084E-5,0,41,Motors_Started,"Conexión por cable OTG Gafas en modo de conexión por cable OTG. Sal de este modo antes de conectarlas al ordenador. Arranque de motores..."
1600,2025-05-23 15:45:20,0,0,0,,,3.28084E-5,0.328084,0,0,0,3,0,0,3.28084E-5,0,0,0,0,0,0,73.8, 3, 5,0,0,926,1114,1024,193,-15,14,0,-100,75.2,0,5.4,70,3.997,3.998,0,0,0,0,0,96.08,3.28084E-5,0,41,Motors_Started,"Conexión por cable OTG Gafas en modo de conexión por cable OTG. Sal de este modo antes de conectarlas al ordenador. Arranque de motores..."
1700,2025-05-23 15:45:20,0,0,0,,,3.28084E-5,0.328084,0,0,0,3,0,0,3.28084E-5,0,0,0,0,0,0,73.8, 3, 5,0,0,926,1114,1024,193,-15,14,0,-100,75.2,0,5.4,70,3.997,3.998,0,0,0,0,0,96.08,3.28084E-5,0,41,Motors_Started,"Conexión por cable OTG Gafas en modo de conexión por cable OTG. Sal de este modo antes de conectarlas al ordenador. Arranque de motores..."
1800,2025-05-23 15:45:20,0,0,0,,,3.28084E-5,0.328084,0,0,0,3,0,0,3.28084E-5,0,0,0,0,0,0,73.8, 3, 5,0,0,926,1114,1024,193,-15,14,0,-100,75.2,0,5.4,70,3.997,3.998,0,0,0,0,0,96.08,3.28084E-5,0,41,Motors_Started,"Conexión por cable OTG Gafas en modo de conexión por cable OTG. Sal de este modo antes de conectarlas al ordenador. Arranque de motores..."
1900,2025-05-23 15:45:20,0,0,0,,,3.28084E-5,0.328084,0,0,0,3,0,0,3.28084E-5,0,0,0,0,0,0,73.8, 2.9, 5,0,0,926,1114,1024,193,-15,14,0,-100,75.2,0,5.4,70,3.997,3.998,0,0,0,0,0,96.08,3.28084E-5,0,41,Motors_Started,"Conexión por cable OTG Gafas en modo de conexión por cable OTG. Sal de este modo antes de conectarlas al ordenador. Arranque de motores..."
2000,2025-05-23 15:45:20,0,0,0,,,3.28084E-5,0.328084,0,0,0,3,0,0,3.28084E-5,0,0,0,0,0,0,73.8, 3, 5,0,0,926,1114,1024,193,-15,14,0,-100,75.2,0,5.4,70,3.997,3.998,0,0,0,0,0,96.08,3.28084E-5,0,41,Motors_Started,"Conexión por cable OTG Gafas en modo de conexión por cable OTG. Sal de este modo antes de conectarlas al ordenador. Arranque de motores..."
2100,2025-05-23 15:45:20,0,0,0,,,3.28084E-5,0.328084,0,0,0,3,0,0,3.28084E-5,0,0,0,0,0,0,73.8, 2.9, 4.8,0,0,926,1114,1024,193,-15,14,0,-100,75.2,0,5.2,70,3.997,3.998,0,0,0,0,0,96.08,3.28084E-5,0,41,Motors_Started,"Conexión por cable OTG Gafas en modo de conexión por cable OTG. Sal de este modo antes de conectarlas al ordenador. Arranque de motores..."
2200,2025-05-23 15:45:20,0,0,0,,,3.28084E-5,0.328084,0,0,0,3,0,0,3.28084E-5,0,0,0,0,0,0,73.8, 2.9, 4.8,0,0,926,1114,1024,193,-15,14,0,-100,75.2,0,5.2,70,3.997,3.998,0,0,0,0,0,96.08,3.28084E-5,0,10,Assisted_Takeoff,"Conexión por cable OTG Gafas en modo de conexión por cable OTG. Sal de este modo antes de conectarlas al ordenador. Arranque de motores..."
2300,2025-05-23 15:45:20,0,0,0,,,3.28084E-5,0.328084,0,0,0,3,0,0,3.28084E-5,0,0,0,0,0,0,73.8, 2.9, 4.8,0,0,926,1114,1024,193,-15,14,0,-100,75.2,0,5.2,70,3.997,3.998,0,0,0,0,0,96.08,3.28084E-5,0,10,Assisted_Takeoff,"Conexión por cable OTG Gafas en modo de conexión por cable OTG. Sal de este modo antes de conectarlas al ordenador. Arranque de motores..."
2400,2025-05-23 15:45:20,0,0,0,,,3.28084E-5,0.328084,0,0,0,3,0,0,3.28084E-5,0,0,0,0,0,0,73.8, 2.9, 4.8,0,0,926,1114,1024,193,-15,14,0,-100,75.2,0,5.2,70,3.997,3.998,0,0,0,0,0,96.08,3.28084E-5,0,10,Assisted_Takeoff,"Conexión por cable OTG Gafas en modo de conexión por cable OTG. Sal de este modo antes de conectarlas al ordenador. Arranque de motores..."
2500,2025-05-23 15:45:20,0,0,0,,,3.28084E-5,0.328084,0,0,0,3,0,0,3.28084E-5,0,0,0,0,0,0,73.8, 2.9, 4.7,0,0,926,1114,1024,193,-15,14,0,-100,75.2,0,5.2,70,3.997,3.998,0,0,0,0,0,96.08,3.28084E-5,0,10,Assisted_Takeoff,"Conexión por cable OTG Gafas en modo de conexión por cable OTG. Sal de este modo antes de conectarlas al ordenador. Arranque de motores..."
2600,2025-05-23 15:45:21,0,0,0,,,3.28084E-5,0.328084,0,0,0,3,0,0,3.28084E-5,0,0,0,0,0,0,73.8, 2.9, 4.7,0,0,926,1114,1024,193,-15,14,0,-100,75.3,0,5.2,70,3.997,3.998,0,0,0,0,0,96.08,3.28084E-5,0,10,Assisted_Takeoff,"Conexión por cable OTG Gafas en modo de conexión por cable OTG. Sal de este modo antes de conectarlas al ordenador. Arranque de motores..."
2700,2025-05-23 15:45:21,0,0,0,,,3.28084E-5,0.328084,0,0,0,3,0,0,3.28084E-5,0,0,0,0,0,0,73.8, 2.9, 4.7,0,0,926,1114,1024,193,-15,14,0,-100,75.3,0,5.3,70,3.997,3.998,0,0,0,0,0,96.08,3.28084E-5,0,10,Assisted_Takeoff,"Conexión por cable OTG Gafas en modo de conexión por cable OTG. Sal de este modo antes de conectarlas al ordenador. Arranque de motores..."
2800,2025-05-23 15:45:21,0,0,0,,,3.28084E-5,0.328084,0,0,0,3,0,0,3.28084E-5,0,0,0,0,0,0,73.8, 2.9, 4.8,0,0,926,1114,1024,193,-15,14,0,-100,75.3,0,5.4,70,3.997,3.998,0,0,0,0,0,96.08,3.28084E-5,0,10,Assisted_Takeoff,"Conexión por cable OTG Gafas en modo de conexión por cable OTG. Sal de este modo antes de conectarlas al ordenador. Arranque de motores..."
2900,2025-05-23 15:45:21,0,0,0,,,3.28084E-5,0.328084,0,0,0,3,0,0,3.28084E-5,0,0,0,0,0,0,73.8, 2.9, 4.8,0,0,926,1114,1024,193,-15,14,0,-100,75.3,0,5.4,70,3.997,3.998,0,0,0,0,0,96.08,3.28084E-5,0,41,Motors_Started,"Conexión por cable OTG Gafas en modo de conexión por cable OTG. Sal de este modo antes de conectarlas al ordenador. Arranque de motores..."
3000,2025-05-23 15:45:21,0,0,0,,,3.28084E-5,0.328084,0,0,0,2,0,0,3.28084E-5,0,0,0,0,0,0,73.8, 2.9, 4.8,0,0,926,1114,1024,193,-15,14,0,-100,75.3,0,5.4,70,3.997,3.998,0,0,0,0,0,96.08,3.28084E-5,0,41,Motors_Started,"Conexión por cable OTG Gafas en modo de conexión por cable OTG. Sal de este modo antes de conectarlas al ordenador. Motores iniciándose. Mantén presionado el botón Bloqueo para despegar"
3100,2025-05-23 15:45:21,0,0,0,,,3.28084E-5,0.328084,0,0,0,2,0,7.995,3.28084E-5,0,0,0,0,0,0,73.8, 2.9, 4.9,0,0,926,1114,1024,193,-15,14,0,-100,75.3,0,5.4,70,3.997,3.998,0,0,0,0,0.964,96.08,3.28084E-5,0,41,Motors_Started,"Conexión por cable OTG Gafas en modo de conexión por cable OTG. Sal de este modo antes de conectarlas al ordenador. Motores iniciándose. Mantén presionado el botón Bloqueo para despegar"
3200,2025-05-23 15:45:21,0,0,0,,,3.28084E-5,0.328084,0,0,0,2,0,7.995,3.28084E-5,0,0,0,0,0,0,73.8, 2.8, 4.8,0,0,926,1114,1024,193,-15,14,0,-100,75.3,0,5.4,70,3.997,3.998,0,0,0,0,0.964,96.08,3.28084E-5,0,41,Motors_Started,"Conexión por cable OTG Gafas en modo de conexión por cable OTG. Sal de este modo antes de conectarlas al ordenador. Motores iniciándose. Mantén presionado el botón Bloqueo para despegar"
3300,2025-05-23 15:45:21,0,0,0,,,3.28084E-5,0.328084,0,0,0,2,0,7.995,3.28084E-5,0,0,0,0,0,0,73.8, 2.8, 4.8,0,0,926,1114,1024,193,-15,14,0,-100,75.3,0,5.3,70,3.997,3.998,0,0,0,0,0.964,96.08,3.28084E-5,0,41,Motors_Started,"Conexión por cable OTG Gafas en modo de conexión por cable OTG. Sal de este modo antes de conectarlas al ordenador. Motores iniciándose. Mantén presionado el botón Bloqueo para despegar"
3400,2025-05-23 15:45:21,0,0,0,,,3.28084E-5,0.328084,0,0,0,2,0,7.995,3.28084E-5,0,0,0,0,0,0,73.8, 2.8, 4.8,0,0,926,1114,1024,193,-15,14,0,-100,75.3,0,5.3,70,3.997,3.998,0,0,0,0,0.964,96.08,3.28084E-5,0,41,Motors_Started,"Conexión por cable OTG Gafas en modo de conexión por cable OTG. Sal de este modo antes de conectarlas al ordenador. Motores iniciándose. Mantén presionado el botón Bloqueo para despegar"
3500,2025-05-23 15:45:21,0,0,0,,,3.28084E-5,0.328084,0,0,0,2,0,7.995,3.28084E-5,0,0,0,0,0,0,73.8, 2.8, 4.8,0,0,926,1114,1024,193,-15,14,0,-100,75.3,0,5.3,70,3.997,3.998,0,0,0,0,0.964,96.08,3.28084E-5,0,41,Motors_Started,"Conexión por cable OTG Gafas en modo de conexión por cable OTG. Sal de este modo antes de conectarlas al ordenador. Motores iniciándose. Mantén presionado el botón Bloqueo para despegar"
3600,2025-05-23 15:45:22,0,0,0,,,3.28084E-5,0.328084,0,0,0,2,0,7.995,3.28084E-5,0,0,0,0,0,0,73.9, 2.9, 4.8,0,0,926,1114,1024,193,-15,14,0,-100,75.3,0,5.3,70,3.997,3.998,0,0,0,0,0.964,96.08,3.28084E-5,0,41,Motors_Started,"Conexión por cable OTG Gafas en modo de conexión por cable OTG. Sal de este modo antes de conectarlas al ordenador. Motores iniciándose. Mantén presionado el botón Bloqueo para despegar"
3700,2025-05-23 15:45:22,0,0,0,,,3.28084E-5,0.328084,0,0,0,2,0,7.995,3.28084E-5,0,0,0,0,0,0,73.9, 2.9, 4.9,0,0,926,1114,1024,193,-15,14,0,-100,75.3,0,5.3,70,3.997,3.998,0,0,0,0,0.964,96.08,3.28084E-5,0,41,Motors_Started,"Conexión por cable OTG Gafas en modo de conexión por cable OTG. Sal de este modo antes de conectarlas al ordenador. Motores iniciándose. Mantén presionado el botón Bloqueo para despegar"
3800,2025-05-23 15:45:22,0,0,0,,,3.28084E-5,0.328084,0,0,0,2,0,7.995,3.28084E-5,0,0,0,0,0,0,73.9, 2.9, 4.9,0,0,926,1114,1024,193,-15,14,0,-100,75.3,0,5.3,70,3.997,3.998,0,0,0,0,0.964,96.08,3.28084E-5,0,41,Motors_Started,"Conexión por cable OTG Gafas en modo de conexión por cable OTG. Sal de este modo antes de conectarlas al ordenador. Motores iniciándose. Mantén presionado el botón Bloqueo para despegar"
3900,2025-05-23 15:45:22,0,0,0,,,3.28084E-5,0.328084,0,0,0,2,0,7.995,3.28084E-5,0,0,0,0,0,0,73.9, 2.9, 4.9,0,0,926,1114,1024,193,-15,14,0,-100,75.4,0,5.3,70,3.997,3.998,0,0,0,0,0.964,96.08,3.28084E-5,0,41,Motors_Started,"Conexión por cable OTG Gafas en modo de conexión por cable OTG. Sal de este modo antes de conectarlas al ordenador. Motores iniciándose. Mantén presionado el botón Bloqueo para despegar"
4000,2025-05-23 15:45:22,0,0,0,,,3.28084E-5,0.328084,0,0,0,2,0,7.993,3.28084E-5,0,0,0,0,0,0,73.9, 2.9, 4.9,0,0,926,1114,1024,193,-15,14,0,-100,75.4,0,5.3,70,3.996,3.997,0,0,0,0,0.989,96.08,3.28084E-5,0,41,Motors_Started,"Conexión por cable OTG Gafas en modo de conexión por cable OTG. Sal de este modo antes de conectarlas al ordenador. Motores iniciándose. Mantén presionado el botón Bloqueo para despegar"
4100,2025-05-23 15:45:22,0,0,0,,,3.28084E-5,0.328084,0,0,0,2,0,7.993,3.28084E-5,0,0,0,0,0,0,73.9, 2.9, 4.9,0,0,926,1114,1024,193,-15,14,0,-100,75.4,0,5.3,70,3.996,3.997,0,0,0,0,0.989,96.08,3.28084E-5,0,41,Motors_Started,"Conexión por cable OTG Gafas en modo de conexión por cable OTG. Sal de este modo antes de conectarlas al ordenador. Motores iniciándose. Mantén presionado el botón Bloqueo para despegar"
4200,2025-05-23 15:45:22,0,0,0,,,3.28084E-5,0.328084,0,0,0,2,0,7.993,3.28084E-5,0,0,0,0,0,0,73.9, 2.9, 4.9,0,0,926,1114,1024,193,-15,14,0,-100,75.4,0,5.3,70,3.996,3.997,0,0,0,0,0.989,96.08,3.28084E-5,0,41,Motors_Started,"Conexión por cable OTG Gafas en modo de conexión por cable OTG. Sal de este modo antes de conectarlas al ordenador. Motores iniciándose. Mantén presionado el botón Bloqueo para despegar"
4300,2025-05-23 15:45:22,0,0,0,,,3.28084E-5,0.328084,0,0,0,2,0,7.993,3.28084E-5,0,0,0,0,0,0,73.9, 2.9, 4.9,0,0,926,1114,1024,193,-15,14,0,-100,75.4,0,5.3,70,3.996,3.997,0,0,0,0,0.989,96.08,3.28084E-5,0,41,Motors_Started,"Conexión por cable OTG Gafas en modo de conexión por cable OTG. Sal de este modo antes de conectarlas al ordenador. Motores iniciándose. Mantén presionado el botón Bloqueo para despegar"
4400,2025-05-23 15:45:22,0,0,0,,,3.28084E-5,0.328084,0,0,0,2,0,7.993,3.28084E-5,0,0,0,0,0,0,73.9, 2.9, 4.9,0,0,926,1114,1024,193,-15,14,0,-100,75.4,0,5.3,70,3.996,3.997,0,0,0,0,0.989,96.08,3.28084E-5,0,41,Motors_Started,"Conexión por cable OTG Gafas en modo de conexión por cable OTG. Sal de este modo antes de conectarlas al ordenador. Motores iniciándose. Mantén presionado el botón Bloqueo para despegar"
4500,2025-05-23 15:45:22,0,0,0,,,3.28084E-5,0.328084,0,0,0,2,0,7.993,3.28084E-5,0,0,0,0,0,0,73.9, 2.9, 4.9,0,0,926,1114,1024,193,-15,14,0,-100,75.4,0,5.3,70,3.996,3.997,0,0,0,0,0.989,96.08,3.28084E-5,0,41,Motors_Started,"Conexión por cable OTG Gafas en modo de conexión por cable OTG. Sal de este modo antes de conectarlas al ordenador. Motores iniciándose. Mantén presionado el botón Bloqueo para despegar"
4600,2025-05-23 15:45:23,0,0,0,,,3.28084E-5,0.328084,0,0,0,2,0,7.993,3.28084E-5,0,0,0,0,0,0,73.9, 2.9, 4.9,0,0,926,1114,1024,193,-15,14,0,-100,75.4,0,5.3,70,3.996,3.997,0,0,0,0,0.989,96.08,3.28084E-5,0,41,Motors_Started,"Conexión por cable OTG Gafas en modo de conexión por cable OTG. Sal de este modo antes de conectarlas al ordenador. Motores iniciándose. Mantén presionado el botón Bloqueo para despegar"
4700,2025-05-23 15:45:23,0,0,0,,,3.28084E-5,0.328084,0,0,0,2,0,7.993,3.28084E-5,0,0,0,0,0,0,73.9, 2.9, 4.9,0,0,926,1114,1024,193,-15,14,0,-100,75.4,0,5.3,70,3.996,3.997,0,0,0,0,0.989,96.08,3.28084E-5,0,41,Motors_Started,"Conexión por cable OTG Gafas en modo de conexión por cable OTG. Sal de este modo antes de conectarlas al ordenador. Motores iniciándose. Mantén presionado el botón Bloqueo para despegar"
4800,2025-05-23 15:45:23,0,0,0,,,3.28084E-5,0.328084,0,0,0,2,0,7.993,3.28084E-5,0,0,0,0,0,0,73.9, 2.8, 4.6,0,0,926,1114,1024,193,-15,14,0,-100,75.4,0,4.4,70,3.996,3.997,0,0,0,0,0.989,96.08,3.28084E-5,0,41,Motors_Started,"Conexión por cable OTG Gafas en modo de conexión por cable OTG. Sal de este modo antes de conectarlas al ordenador. Motores iniciándose. Mantén presionado el botón Bloqueo para despegar"
4900,2025-05-23 15:45:23,0,0,0,,,3.28084E-5,0.328084,0,0,0,2,0,7.993,3.28084E-5,0,0,0,0,0,0,73.9, 2.7, 3.9,0,0,926,1114,1024,193,-15,14,0,-100,75.5,0,3.8,70,3.996,3.997,0,0,0,0,0.989,96.08,3.28084E-5,0,11,AutoTakeoff,"Conexión por cable OTG Gafas en modo de conexión por cable OTG. Sal de este modo antes de conectarlas al ordenador. Motores iniciándose. Mantén presionado el botón Bloqueo para despegar. Gafas en modo de conexión por cable OTG. Sal de este modo antes de conectarlas al orde"
5000,2025-05-23 15:45:23,0,0,0,,,3.28084E-5,0.328084,0,0,0,3,0,7.967,3.28084E-5,0,0,0,0,0,0,73.8, 1.9, 2.6,0,0,926,1114,1024,193,-15,14,0,-100,75.5,0,1.5,70,3.986,3.981,0,0,0,0,1.832,96.08,3.28084E-5,0,11,AutoTakeoff,"Conexión por cable OTG Gafas en modo de conexión por cable OTG. Sal de este modo antes de conectarlas al ordenador. Despegando..."
5100,2025-05-23 15:45:23,0,0,0,,,3.28084E-5,0.328084,0,0,0,3,0,7.967,3.28084E-5,0,0,0,0,0,-0.223694,73.8, 0.5, 0.6,0,0,926,1114,1024,193,-15,14,0,-100,75.5,0,0.2,70,3.986,3.981,0,0,0,0,1.832,96.08,3.28084E-5,0,11,AutoTakeoff,"Conexión por cable OTG Gafas en modo de conexión por cable OTG. Sal de este modo antes de conectarlas al ordenador. Despegando..."
5200,2025-05-23 15:45:23,0,0,0,,,3.28084E-5,0.328084,0,0,0,3,0,7.967,3.28084E-5,0,0,0,0,0,-0.447388,73.7, 0, -0.8,0,0,926,1114,1024,193,-15,14,0,-100,75.5,0,-1.5,70,3.986,3.981,0,0,0,0,1.832,96.08,3.28084E-5,0,11,AutoTakeoff,"Conexión por cable OTG Gafas en modo de conexión por cable OTG. Sal de este modo antes de conectarlas al ordenador. Despegando..."
5300,2025-05-23 15:45:23,0,0,0.328084,,,0.3281168084,0,0,0,0,3,0,7.967,0.3281168084,0.328084,0,0,0,0,-0.671082,73.8, -1.3, -1.7,0,0,926,1114,1024,193,-15,14,0,-100,75.6,0,-0.6,70,3.986,3.981,0,0,0,0,1.832,96.08,0.3281168084,0.328084,11,AutoTakeoff,"Conexión por cable OTG Gafas en modo de conexión por cable OTG. Sal de este modo antes de conectarlas al ordenador. Despegando..."
5400,2025-05-23 15:45:23,0,0,0.328084,,,0.3281168084,0.328084,0,0,0,3,0,7.967,0.3281168084,0.328084,0,0,0,0,-0.671082,73.8, -0.7, -0.3,0,0,926,1114,1024,193,-15,14,0,-100,75.6,0,0.5,70,3.986,3.981,0,0,0,0,1.832,96.08,0.3281168084,0.328084,11,AutoTakeoff,"Conexión por cable OTG Gafas en modo de conexión por cable OTG. Sal de este modo antes de conectarlas al ordenador. Despegando..."
5500,2025-05-23 15:45:23,0,0,0.328084,,,0.3281168084,0.328084,0,0,0,3,0,7.967,0.3281168084,0.328084,0,0,0,0,-0.671082,73.8, 0.4, 0.3,0,0,926,1114,1024,193,-15,14,0,-100,75.6,0,0.7,70,3.986,3.981,0,0,0,0,1.832,96.08,0.3281168084,0.328084,11,AutoTakeoff,"Conexión por cable OTG Gafas en modo de conexión por cable OTG. Sal de este modo antes de conectarlas al ordenador. Despegando..."
5600,2025-05-23 15:45:24,0,0,0.656168,,,0.6562008084,0.656168,0,0,0,3,0,7.967,0.6562008084,0.656168,0,0,0,0,-0.671082,73.8, 1.2, 0.4,0,0,926,1114,1024,193,-15,14,0,-100,75.6,0,0.7,70,3.986,3.981,0,0,0,0,1.832,96.08,0.6562008084,0.656168,11,AutoTakeoff,"Conexión por cable OTG Gafas en modo de conexión por cable OTG. Sal de este modo antes de conectarlas al ordenador. Despegando..."
5700,2025-05-23 15:45:24,0,0,0.656168,,,0.6562008084,0.656168,0,0,0,3,0,7.967,0.6562008084,0.656168,0,0,0,0,-0.894776,73.8, 1.6, 0.3,0,0,926,1114,1024,193,-15,14,0,-100,75.6,0,0.6,70,3.986,3.981,0,0,0,0,1.832,96.08,0.6562008084,0.656168,11,AutoTakeoff,"Conexión por cable OTG Gafas en modo de conexión por cable OTG. Sal de este modo antes de conectarlas al ordenador. Despegando..."
5800,2025-05-23 15:45:24,0,0,0.656168,,,0.6562008084,0.984252,0,0,0,3,0,7.967,0.6562008084,0.656168,0,0,0,0,-0.894776,73.8, 1.5, 0.2,0,0,926,1114,1024,193,-15,14,0,-100,75.5,0,0.5,70,3.986,3.981,0,0,0,0,1.832,96.08,0.6562008084,0.656168,11,AutoTakeoff,"Conexión por cable OTG Gafas en modo de conexión por cable OTG. Sal de este modo antes de conectarlas al ordenador. Despegando..."
5900,2025-05-23 15:45:24,0,0,0.984252,,,0.9842848084,0.984252,0,0,0,3,0,7.967,0.9842848084,0.984252,0,0,0,0,-0.894776,73.8, 1.2, 0.1,0,0,926,1114,1024,193,-15,14,0,-100,75.6,0,0.4,70,3.986,3.981,0,0,0,0,1.832,96.08,0.9842848084,0.984252,11,AutoTakeoff,"Conexión por cable OTG Gafas en modo de conexión por cable OTG. Sal de este modo antes de conectarlas al ordenador. Despegando..."
6000,2025-05-23 15:45:24,0,0,0.984252,,,0.9842848084,1.312336,0,0,0,2,0,7.84,0.9842848084,0.984252,0,0,0,0,-0.894776,73.8, 0.2, 0.1,0,0,926,1114,1024,193,-15,14,0,-100,75.6,0,0.3,70,3.919,3.921,0,0,0,0,5.246,96.08,0.9842848084,0.984252,11,AutoTakeoff,"Conexión por cable OTG Gafas en modo de conexión por cable OTG. Sal de este modo antes de conectarlas al ordenador. Despegando..."
6100,2025-05-23 15:45:24,0,0,1.312336,,,1.3123688084,1.312336,0,0,0,2,0,7.84,1.3123688084,1.312336,0,0,0,0,-1.11847,73.8, -0.5, 0,0,0,926,1114,1024,193,-15,14,0,-100,75.6,0,0.2,70,3.919,3.921,0,0,0,0,5.246,96.08,1.3123688084,1.312336,11,AutoTakeoff,"Conexión por cable OTG Gafas en modo de conexión por cable OTG. Sal de este modo antes de conectarlas al ordenador. Despegando..."
6200,2025-05-23 15:45:24,0,0,1.312336,,,1.3123688084,1.312336,0,0,0,2,0,7.84,1.3123688084,1.312336,0,0,0,0,-1.11847,73.8, -0.6, -0.1,0,0,926,1114,1024,193,-15,14,0,-100,75.6,0,0.1,70,3.919,3.921,0,0,0,0,5.246,96.08,1.3123688084,1.312336,11,AutoTakeoff,"Conexión por cable OTG Gafas en modo de conexión por cable OTG. Sal de este modo antes de conectarlas al ordenador. Despegando..."
6300,2025-05-23 15:45:24,0,0,1.64042,,,1.6404528084,1.64042,0,0,0,2,0,7.84,1.6404528084,1.64042,0,0,0,0,-1.11847,73.8, -0.1, -0.1,0,0,926,1114,1024,193,-15,14,0,-100,75.6,0,0.1,70,3.919,3.921,0,0,0,0,5.246,96.08,1.6404528084,1.64042,11,AutoTakeoff,"Conexión por cable OTG Gafas en modo de conexión por cable OTG. Sal de este modo antes de conectarlas al ordenador. Despegando..."
6400,2025-05-23 15:45:24,0,0,1.64042,,,1.6404528084,1.64042,0,0,0,2,0,7.84,1.6404528084,1.64042,0,0,0,0,-1.11847,73.8, 0.4, 0,0,0,926,1114,1024,193,-15,14,0,-100,75.5,0,0.2,70,3.919,3.921,0,0,0,0,5.246,96.08,1.6404528084,1.64042,11,AutoTakeoff,"Conexión por cable OTG Gafas en modo de conexión por cable OTG. Sal de este modo antes de conectarlas al ordenador. Despegando..."
6500,2025-05-23 15:45:25,0,0,1.968504,,,1.9685368084,1.968504,0,0,0,2,0,7.84,1.9685368084,1.968504,0,0,0,0,-1.11847,73.8, 0.9, 0,0,0,926,1114,1024,193,-15,14,0,-100,75.5,0,0.1,70,3.919,3.921,0,0,0,0,5.246,96.08,1.9685368084,1.968504,11,AutoTakeoff,"Conexión por cable OTG Gafas en modo de conexión por cable OTG. Sal de este modo antes de conectarlas al ordenador. Despegando..."
6600,2025-05-23 15:45:25,0,0,1.968504,,,1.9685368084,1.968504,0,0,0,1,0,7.84,1.9685368084,1.968504,0,0,0,0,-1.11847,73.8, 1, -0.1,0,0,926,1114,1024,193,-15,14,0,-100,75.5,0,0,70,3.919,3.921,0,0,0,0,5.246,96.08,1.9685368084,1.968504,11,AutoTakeoff,"Conexión por cable OTG Gafas en modo de conexión por cable OTG. Sal de este modo antes de conectarlas al ordenador. Despegando..."
6700,2025-05-23 15:45:25,0,0,2.296588,,,2.2966208084,2.296588,0,0,0,1,0,7.84,2.2966208084,2.296588,0,0,0,0,-1.11847,73.8, 0.7, -0.2,0,0,926,1114,1024,193,-15,14,0,-100,75.5,0,0,70,3.919,3.921,0,0,0,0,5.246,96.08,2.2966208084,2.296588,11,AutoTakeoff,"Conexión por cable OTG Gafas en modo de conexión por cable OTG. Sal de este modo antes de conectarlas al ordenador. Despegando..."
6800,2025-05-23 15:45:25,0,0,2.296588,,,2.2966208084,2.296588,0,0,0,1,0,7.84,2.2966208084,2.296588,0,0,0,0,-1.11847,73.7, 0.5, -0.4,0,0,926,1114,1024,193,-15,14,0,-100,75.5,0,0,70,3.919,3.921,0,0,0,0,5.246,96.08,2.2966208084,2.296588,11,AutoTakeoff,"Conexión por cable OTG Gafas en modo de conexión por cable OTG. Sal de este modo antes de conectarlas al ordenador. Despegando..."
6900,2025-05-23 15:45:25,0,0,2.624672,,,2.6247048084,2.624672,0,0,0,1,0,7.84,2.6247048084,2.624672,0,0,0,0,-0.894776,73.8, 0.5, -0.2,0,0,926,1114,1024,193,-15,14,0,-100,75.5,0,0.1,70,3.919,3.921,0,0,0,0,5.246,96.08,2.6247048084,2.624672,11,AutoTakeoff,"Conexión por cable OTG Gafas en modo de conexión por cable OTG. Sal de este modo antes de conectarlas al ordenador. Despegando..."
7000,2025-05-23 15:45:25,0,0,2.624672,,,2.6247048084,2.952756,0,0,0,1,0,7.829,2.6247048084,2.624672,0,0,0,0,-0.894776,73.8, 0.7, 0,0,0,926,1114,1024,193,-15,14,0,-100,75.5,0,0.2,70,3.914,3.915,0,0,0,0,4.992,96.08,2.6247048084,2.624672,11,AutoTakeoff,"Conexión por cable OTG Gafas en modo de conexión por cable OTG. Sal de este modo antes de conectarlas al ordenador. Despegando..."
7100,2025-05-23 15:45:25,0,0,2.952756,,,2.9527888084,2.952756,0,0,0,1,0,7.829,2.9527888084,2.952756,0,0,0,0,-0.894776,73.8, 1, 0,0,0,926,1114,1024,193,-15,14,0,-100,75.6,0,0.3,70,3.914,3.915,0,0,0,0,4.992,96.08,2.9527888084,2.952756,11,AutoTakeoff,"Conexión por cable OTG Gafas en modo de conexión por cable OTG. Sal de este modo antes de conectarlas al ordenador. Despegando..."
7200,2025-05-23 15:45:25,0,0,2.952756,,,2.9527888084,3.28084,0,0,0,0,0,7.829,2.9527888084,2.952756,0,0,0,0,-0.894776,73.8, 1.2, 0,0,0,926,1114,1024,193,-15,14,0,-100,75.6,0,0.3,70,3.914,3.915,0,0,0,0,4.992,96.08,2.9527888084,2.952756,11,AutoTakeoff,"Conexión por cable OTG Gafas en modo de conexión por cable OTG. Sal de este modo antes de conectarlas al ordenador. Despegando..."
7300,2025-05-23 15:45:25,0,0,3.28084,,,3.2808728084,3.28084,0,0,0,0,0,7.829,3.2808728084,3.28084,0,0,0,0,-0.894776,73.8, 1.6, 0.1,0,0,926,1114,1024,193,-15,14,0,-100,75.6,0,0.4,70,3.914,3.915,0,0,0,0,4.992,96.08,3.2808728084,3.28084,11,AutoTakeoff,"Conexión por cable OTG Gafas en modo de conexión por cable OTG. Sal de este modo antes de conectarlas al ordenador. Despegando..."
7400,2025-05-23 15:45:25,0,0,3.28084,,,3.2808728084,3.608924,0,0,0,0,0,7.829,3.2808728084,3.28084,0,0,0,0,-0.894776,73.8, 1.7, 0,0,0,924,1045,1024,1021,-15,3,0,-0,75.6,-4,0.1,70,3.914,3.915,0,0,0,0,4.992,96.08,3.2808728084,3.28084,11,AutoTakeoff,"Conexión por cable OTG Gafas en modo de conexión por cable OTG. Sal de este modo antes de conectarlas al ordenador. Despegando..."
7500,2025-05-23 15:45:25,0,0,3.608924,,,3.6089568084,3.608924,0,0,0,0,0,7.829,3.6089568084,3.608924,0,0,0,0,-0.894776,73.8, 0.5, -0.1,0,0,926,1040,1024,1023,-15,2,0,-0,75.7,-12.6,0.1,70,3.914,3.915,0,0,0,0,4.992,96.08,3.6089568084,3.608924,11,AutoTakeoff,"Conexión por cable OTG Gafas en modo de conexión por cable OTG. Sal de este modo antes de conectarlas al ordenador. Despegando..."
7600,2025-05-23 15:45:26,0,0,3.608924,,,3.6089568084,3.937008,0,0,0,0,0,7.829,3.6089568084,3.608924,0,0,0,0,-0.447388,73.9, 0.3, 0,0,0,928,1045,1024,1028,-15,3,0,1,75.7,-15.4,0.1,70,3.914,3.915,0,0,0,0,4.992,96.08,3.6089568084,3.608924,6,P-GPS,"Conexión por cable OTG Gafas en modo de conexión por cable OTG. Sal de este modo antes de conectarlas al ordenador. Despegando.... Gafas en modo de conexión por cable OTG. Sal de este modo antes de conectarlas al ordenador. Presiona ligeramente el acelerador para controlar"
7700,2025-05-23 15:45:26,0,0,3.608924,,,3.6089568084,3.937008,0,0,0,0,0,7.829,3.6089568084,3.608924,0,0,0,0,-0.223694,73.9, 0.3, 0,0,0,931,1050,1024,1030,-14,4,0,1,75.7,-16.1,0,70,3.914,3.915,0,0,0,0,4.992,96.08,3.6089568084,3.608924,6,P-GPS,"Conexión por cable OTG Gafas en modo de conexión por cable OTG. Sal de este modo antes de conectarlas al ordenador. Presiona ligeramente el acelerador para controlar la orientación de la aeronave. Mantén pulsado el botón de bloqueo para que la aeronave aterrice"
7800,2025-05-23 15:45:26,0,0,3.608924,,,3.6089568084,3.937008,0,0,0,0,0,7.829,3.6089568084,3.608924,0,0,0,0,0,73.9, 0.3, 0,0,0,930,1047,1024,1030,-14,3,0,1,75.7,-16.2,0.1,70,3.914,3.915,0,0,0,0,4.992,96.08,3.6089568084,3.608924,6,P-GPS,"Conexión por cable OTG Gafas en modo de conexión por cable OTG. Sal de este modo antes de conectarlas al ordenador. Presiona ligeramente el acelerador para controlar la orientación de la aeronave. Mantén pulsado el botón de bloqueo para que la aeronave aterrice"
7900,2025-05-23 15:45:26,0,0,3.608924,,,3.6089568084,3.937008,0,0,0,0,0,7.829,3.6089568084,3.608924,0,0,0,0,0,73.9, 0.2, 0,0,0,930,1048,1024,1028,-14,4,0,1,75.7,-16.1,0.1,70,3.914,3.915,0,0,0,0,4.992,96.08,3.6089568084,3.608924,6,P-GPS,"Conexión por cable OTG Gafas en modo de conexión por cable OTG. Sal de este modo antes de conectarlas al ordenador. Presiona ligeramente el acelerador para controlar la orientación de la aeronave. Mantén pulsado el botón de bloqueo para que la aeronave aterrice"
8000,2025-05-23 15:45:26,0,0,3.608924,,,3.6089568084,3.937008,0,0,0,0,0,7.827,3.6089568084,3.608924,0,0,0,0,0,73.9, 0.2, 0,0,0,931,1053,1024,1026,-14,4,0,0,75.7,-16.2,0,70,3.913,3.914,0,0,0,0,4.385,96.26,3.6089568084,3.608924,6,P-GPS,"Conexión por cable OTG Gafas en modo de conexión por cable OTG. Sal de este modo antes de conectarlas al ordenador. Presiona ligeramente el acelerador para controlar la orientación de la aeronave. Mantén pulsado el botón de bloqueo para que la aeronave aterrice"
8100,2025-05-23 15:45:26,0,0,3.608924,,,3.6089568084,3.937008,0,0,0,0,0,7.827,3.6089568084,3.608924,0,0,0,0,0,73.9, 0.1, -0.1,0,0,932,1054,1024,1023,-14,5,0,-0,75.7,-16.1,0,70,3.913,3.914,0,0,0,0,4.385,96.26,3.6089568084,3.608924,6,P-GPS,"Conexión por cable OTG Gafas en modo de conexión por cable OTG. Sal de este modo antes de conectarlas al ordenador. Presiona ligeramente el acelerador para controlar la orientación de la aeronave. Mantén pulsado el botón de bloqueo para que la aeronave aterrice"
8200,2025-05-23 15:45:26,0,0,3.608924,,,3.6089568084,3.937008,0,0,0,0,0,7.827,3.6089568084,3.608924,0,0,0,0,0,73.9, 0.1, -0.1,0,0,938,1049,1024,1020,-13,4,0,-1,75.6,-15.9,0,70,3.913,3.914,0,0,0,0,4.385,96.26,3.6089568084,3.608924,6,P-GPS,"Conexión por cable OTG Gafas en modo de conexión por cable OTG. Sal de este modo antes de conectarlas al ordenador. Presiona ligeramente el acelerador para controlar la orientación de la aeronave. Mantén pulsado el botón de bloqueo para que la aeronave aterrice"
8300,2025-05-23 15:45:26,0,0,3.608924,,,3.6089568084,3.937008,0,0,0,0,0,7.827,3.6089568084,3.608924,0,0,0,0,0,73.9, 0.3, -0.2,0,0,942,1049,1024,1019,-12,4,0,-1,75.6,-15.3,-0.1,70,3.913,3.914,0,0,0,0,4.385,96.26,3.6089568084,3.608924,6,P-GPS,"Conexión por cable OTG Gafas en modo de conexión por cable OTG. Sal de este modo antes de conectarlas al ordenador. Presiona ligeramente el acelerador para controlar la orientación de la aeronave. Mantén pulsado el botón de bloqueo para que la aeronave aterrice"
8400,2025-05-23 15:45:26,0,0,3.608924,,,3.6089568084,3.937008,0,0,0,1,0,7.827,3.6089568084,3.608924,0,0,0,0,0,73.8, 0.5, -0.2,0,0,945,1045,1024,1020,-12,3,0,-1,75.6,-14.6,-0.1,70,3.913,3.914,0,0,0,0,4.385,96.26,3.6089568084,3.608924,6,P-GPS,"Conexión por cable OTG Gafas en modo de conexión por cable OTG. Sal de este modo antes de conectarlas al ordenador. Presiona ligeramente el acelerador para controlar la orientación de la aeronave. Mantén pulsado el botón de bloqueo para que la aeronave aterrice"
8500,2025-05-23 15:45:26,0,0,3.608924,,,3.6089568084,3.937008,0,0,0,1,0,7.827,3.6089568084,3.608924,0,0,0,0,0,73.9, 0.7, -0.3,0,0,946,1042,1024,1021,-12,3,0,-0,75.6,-14,-0.3,70,3.913,3.914,0,0,0,0,4.385,96.26,3.6089568084,3.608924,6,P-GPS,"Conexión por cable OTG Gafas en modo de conexión por cable OTG. Sal de este modo antes de conectarlas al ordenador. Presiona ligeramente el acelerador para controlar la orientación de la aeronave. Mantén pulsado el botón de bloqueo para que la aeronave aterrice"
8600,2025-05-23 15:45:27,0,0,3.608924,,,3.6089568084,3.937008,0,0,0,1,0,7.827,3.6089568084,3.608924,0,0,0,0,0,73.9, 0.7, -0.4,0,0,945,1041,1024,1020,-12,3,0,-1,75.7,-13.7,-0.3,70,3.913,3.914,0,0,0,0,4.385,96.26,3.6089568084,3.608924,6,P-GPS,"Conexión por cable OTG Gafas en modo de conexión por cable OTG. Sal de este modo antes de conectarlas al ordenador. Presiona ligeramente el acelerador para controlar la orientación de la aeronave. Mantén pulsado el botón de bloqueo para que la aeronave aterrice"
8700,2025-05-23 15:45:27,0,0,3.608924,,,3.6089568084,3.937008,0,0,0,1,0,7.827,3.6089568084,3.608924,0,0,0,0,0,74.1, 0.7, -0.4,0,0,946,1039,1024,1021,-12,2,0,-0,76,-13.6,-0.4,70,3.913,3.914,0,0,0,0,4.385,96.26,3.6089568084,3.608924,6,P-GPS,"Conexión por cable OTG Gafas en modo de conexión por cable OTG. Sal de este modo antes de conectarlas al ordenador. Presiona ligeramente el acelerador para controlar la orientación de la aeronave. Mantén pulsado el botón de bloqueo para que la aeronave aterrice"
8800,2025-05-23 15:45:27,0,0,3.608924,,,3.6089568084,3.937008,0,0,0,1,0,7.827,3.6089568084,3.608924,0,0,0,0,0,74.3, 0.7, -0.5,0,0,946,1038,1024,1022,-12,2,0,-0,76.2,-13.5,-0.4,70,3.913,3.914,0,0,0,0,4.385,96.26,3.6089568084,3.608924,6,P-GPS,"Conexión por cable OTG Gafas en modo de conexión por cable OTG. Sal de este modo antes de conectarlas al ordenador. Presiona ligeramente el acelerador para controlar la orientación de la aeronave. Mantén pulsado el botón de bloqueo para que la aeronave aterrice"
8900,2025-05-23 15:45:27,0,0,3.608924,,,3.6089568084,3.937008,0,0,0,1,0,7.827,3.6089568084,3.608924,0,0,0,0,0,74.6, 0.6, -0.5,0,0,946,1037,1024,1022,-12,2,0,-0,76.4,-13.4,-0.4,70,3.913,3.914,0,0,0,0,4.385,96.26,3.6089568084,3.608924,6,P-GPS,"Conexión por cable OTG Gafas en modo de conexión por cable OTG. Sal de este modo antes de conectarlas al ordenador. Presiona ligeramente el acelerador para controlar la orientación de la aeronave. Mantén pulsado el botón de bloqueo para que la aeronave aterrice"
9000,2025-05-23 15:45:27,0,0,3.608924,,,3.6089568084,3.937008,0,0,0,1,0,7.814,3.6089568084,3.608924,0,0,0,0,0,74.7, 0.5, -0.6,0,0,946,1035,1024,1023,-12,2,0,-0,76.6,-13.5,-0.4,70,3.906,3.908,0,0,0,0,4.786,96.26,3.6089568084,3.608924,6,P-GPS,"Conexión por cable OTG Gafas en modo de conexión por cable OTG. Sal de este modo antes de conectarlas al ordenador. Presiona ligeramente el acelerador para controlar la orientación de la aeronave. Mantén pulsado el botón de bloqueo para que la aeronave aterrice"
9100,2025-05-23 15:45:27,0,0,3.608924,,,3.6089568084,3.937008,0,0,0,1,0,7.814,3.6089568084,3.608924,0,0,0,0,0,74.9, 0.5, -0.5,0,0,946,1033,1024,1024,-12,1,0,0,76.7,-13.5,-0.3,70,3.906,3.908,0,0,0,0,4.786,96.26,3.6089568084,3.608924,6,P-GPS,"Conexión por cable OTG Gafas en modo de conexión por cable OTG. Sal de este modo antes de conectarlas al ordenador. Presiona ligeramente el acelerador para controlar la orientación de la aeronave. Mantén pulsado el botón de bloqueo para que la aeronave aterrice"
9200,2025-05-23 15:45:27,0,0,3.608924,,,3.6089568084,3.937008,0,0,0,1,0,7.814,3.6089568084,3.608924,0,0,0,0,0,75, 0.4, -0.4,0,0,946,1032,1024,1023,-12,1,0,-0,76.8,-13.5,-0.1,70,3.906,3.908,0,0,0,0,4.786,96.26,3.6089568084,3.608924,6,P-GPS,"Conexión por cable OTG Gafas en modo de conexión por cable OTG. Sal de este modo antes de conectarlas al ordenador. Presiona ligeramente el acelerador para controlar la orientación de la aeronave. Mantén pulsado el botón de bloqueo para que la aeronave aterrice"
9300,2025-05-23 15:45:27,0,0,3.608924,,,3.6089568084,3.937008,0,0,0,1,0,7.814,3.6089568084,3.608924,0,0,0,0,0,75, 0.3, -0.2,0,0,946,1032,1024,1024,-12,1,0,0,76.8,-13.4,0,70,3.906,3.908,0,0,0,0,4.786,96.26,3.6089568084,3.608924,6,P-GPS,"Conexión por cable OTG Gafas en modo de conexión por cable OTG. Sal de este modo antes de conectarlas al ordenador. Presiona ligeramente el acelerador para controlar la orientación de la aeronave. Mantén pulsado el botón de bloqueo para que la aeronave aterrice"
9400,2025-05-23 15:45:27,0,0,3.608924,,,3.6089568084,3.937008,0,0,0,1,0,7.814,3.6089568084,3.608924,0,0,0,0,0,75, 0.2, -0.1,0,0,946,1030,1024,1024,-12,1,0,0,76.8,-13.4,0,70,3.906,3.908,0,0,0,0,4.786,96.26,3.6089568084,3.608924,6,P-GPS,"Conexión por cable OTG Gafas en modo de conexión por cable OTG. Sal de este modo antes de conectarlas al ordenador. Presiona ligeramente el acelerador para controlar la orientación de la aeronave. Mantén pulsado el botón de bloqueo para que la aeronave aterrice"
9500,2025-05-23 15:45:28,0,0,3.608924,,,3.6089568084,3.608924,0,0,0,1,0,7.814,3.6089568084,3.608924,0,0,0,0,0.223694,75.1, 0.2, -0.2,0,0,948,1028,1024,1025,-12,1,0,0,76.8,-13.4,0,70,3.906,3.908,0,0,0,0,4.786,96.26,3.6089568084,3.608924,6,P-GPS,"Conexión por cable OTG Gafas en modo de conexión por cable OTG. Sal de este modo antes de conectarlas al ordenador. Presiona ligeramente el acelerador para controlar la orientación de la aeronave. Mantén pulsado el botón de bloqueo para que la aeronave aterrice"
9600,2025-05-23 15:45:28,0,0,3.608924,,,3.6089568084,3.608924,0,0,0,1,0,7.814,3.6089568084,3.608924,0,0,0,0,0.223694,75.1, 0.3, -0.3,0,0,949,1024,1024,1025,-11,0,0,0,76.8,-13.3,-0.2,70,3.906,3.908,0,0,0,0,4.786,96.26,3.6089568084,3.608924,6,P-GPS,"Conexión por cable OTG Gafas en modo de conexión por cable OTG. Sal de este modo antes de conectarlas al ordenador. Presiona ligeramente el acelerador para controlar la orientación de la aeronave. Mantén pulsado el botón de bloqueo para que la aeronave aterrice"
9700,2025-05-23 15:45:28,0,0,3.608924,,,3.6089568084,3.608924,0,0,0,1,0,7.814,3.6089568084,3.608924,0,0,0,0,0.223694,75, 0.3, -0.3,0,0,950,1025,1024,1024,-11,0,0,0,76.7,-13,-0.1,70,3.906,3.908,0,0,0,0,4.786,96.26,3.6089568084,3.608924,6,P-GPS,"Conexión por cable OTG Gafas en modo de conexión por cable OTG. Sal de este modo antes de conectarlas al ordenador. Presiona ligeramente el acelerador para controlar la orientación de la aeronave. Mantén pulsado el botón de bloqueo para que la aeronave aterrice"
9800,2025-05-23 15:45:28,0,0,3.28084,,,3.2808728084,3.608924,0,0,0,1,0,7.814,3.6089568084,3.608924,0,0,0,0,0.447388,75, 0.3, -0.2,0,0,950,1025,1024,1023,-11,0,0,-0,76.7,-12.8,0,70,3.906,3.908,0,0,0,0,4.786,96.26,3.2808728084,3.28084,6,P-GPS,"Conexión por cable OTG Gafas en modo de conexión por cable OTG. Sal de este modo antes de conectarlas al ordenador. Presiona ligeramente el acelerador para controlar la orientación de la aeronave. Mantén pulsado el botón de bloqueo para que la aeronave aterrice"
9900,2025-05-23 15:45:28,0,0,3.28084,,,3.2808728084,3.608924,0,0,0,1,0,7.814,3.6089568084,3.608924,0,0,0,0,0.447388,75, 0.4, -0.1,0,0,952,1024,1024,1023,-11,0,0,-0,76.7,-12.7,0,70,3.906,3.908,0,0,0,0,4.786,96.26,3.2808728084,3.28084,6,P-GPS,"Conexión por cable OTG Gafas en modo de conexión por cable OTG. Sal de este modo antes de conectarlas al ordenador. Presiona ligeramente el acelerador para controlar la orientación de la aeronave. Mantén pulsado el botón de bloqueo para que la aeronave aterrice"
10000,2025-05-23 15:45:28,0,0,3.28084,,,3.2808728084,3.28084,0,0,0,1,0,7.812,3.6089568084,3.608924,0,0,0,0,0.447388,75, 0.6, -0.2,0,0,952,1023,1024,1023,-11,-0,0,-0,76.7,-12.6,0,70,3.905,3.907,0,0,0,0,4.529,96.44,3.2808728084,3.28084,6,P-GPS,"Conexión por cable OTG Gafas en modo de conexión por cable OTG. Sal de este modo antes de conectarlas al ordenador. Presiona ligeramente el acelerador para controlar la orientación de la aeronave. Mantén pulsado el botón de bloqueo para que la aeronave aterrice"
10100,2025-05-23 15:45:28,0,0,3.28084,,,3.2808728084,3.28084,0,0,0,1,0,7.812,3.6089568084,3.608924,0,0,0,0,0.447388,75, 0.8, -0.2,0,0,953,1022,1024,1022,-11,-0,0,-0,76.7,-12.5,-0.1,70,3.905,3.907,0,0,0,0,4.529,96.44,3.2808728084,3.28084,6,P-GPS,"Conexión por cable OTG Gafas en modo de conexión por cable OTG. Sal de este modo antes de conectarlas al ordenador. Presiona ligeramente el acelerador para controlar la orientación de la aeronave. Mantén pulsado el botón de bloqueo para que la aeronave aterrice"
10200,2025-05-23 15:45:28,0,0,2.952756,,,2.9527888084,3.28084,0,0,0,1,0,7.812,3.6089568084,3.608924,0,0,0,0,0.447388,75, 1, -0.3,0,0,954,1021,1024,1021,-11,-0,0,-0,76.7,-12.4,-0.1,70,3.905,3.907,0,0,0,0,4.529,96.44,2.9527888084,2.952756,6,P-GPS,"Conexión por cable OTG Gafas en modo de conexión por cable OTG. Sal de este modo antes de conectarlas al ordenador. Presiona ligeramente el acelerador para controlar la orientación de la aeronave. Mantén pulsado el botón de bloqueo para que la aeronave aterrice"
10300,2025-05-23 15:45:28,0,0,2.952756,,,2.9527888084,2.952756,0,0,0,1,0,7.812,3.6089568084,3.608924,0,0,0,0,0.447388,75, 1.1, -0.3,0,0,956,1022,1024,1020,-10,-0,0,-1,76.7,-12.1,-0.1,70,3.905,3.907,0,0,0,0,4.529,96.44,2.9527888084,2.952756,6,P-GPS,"Conexión por cable OTG Gafas en modo de conexión por cable OTG. Sal de este modo antes de conectarlas al ordenador. Presiona ligeramente el acelerador para controlar la orientación de la aeronave. Mantén pulsado el botón de bloqueo para que la aeronave aterrice"
10400,2025-05-23 15:45:28,0,0,2.952756,,,2.9527888084,2.952756,0,0,0,0,0,7.812,3.6089568084,3.608924,0,0,0,0,0.447388,75, 1.2, -0.3,0,0,960,1021,1024,1016,-10,-0,0,-1,76.7,-11.9,0,70,3.905,3.907,0,0,0,0,4.529,96.44,2.9527888084,2.952756,6,P-GPS,"Conexión por cable OTG Gafas en modo de conexión por cable OTG. Sal de este modo antes de conectarlas al ordenador. Presiona ligeramente el acelerador para controlar la orientación de la aeronave. Mantén pulsado el botón de bloqueo para que la aeronave aterrice"
10500,2025-05-23 15:45:28,0,0,2.952756,,,2.9527888084,2.952756,0,0,0,0,0,7.812,3.6089568084,3.608924,0,0,0,0,0.447388,75, 1.2, -0.2,0,0,964,1020,1024,1012,-9,-1,0,-2,76.7,-11.4,0,70,3.905,3.907,0,0,0,0,4.529,96.44,2.9527888084,2.952756,6,P-GPS,"Conexión por cable OTG Gafas en modo de conexión por cable OTG. Sal de este modo antes de conectarlas al ordenador. Presiona ligeramente el acelerador para controlar la orientación de la aeronave. Mantén pulsado el botón de bloqueo para que la aeronave aterrice"
10600,2025-05-23 15:45:29,0,0,2.624672,,,2.6247048084,2.952756,0,0,0,1,0,7.812,3.6089568084,3.608924,0,0,0,0,0.447388,75, 1.2, -0.2,0,0,972,1020,1024,1004,-8,-1,0,-3,76.7,-10.7,0,70,3.905,3.907,0,0,0,0,4.529,96.44,2.6247048084,2.624672,6,P-GPS,"Conexión por cable OTG Gafas en modo de conexión por cable OTG. Sal de este modo antes de conectarlas al ordenador. Presiona ligeramente el acelerador para controlar la orientación de la aeronave. Mantén pulsado el botón de bloqueo para que la aeronave aterrice"
10700,2025-05-23 15:45:29,0,0,2.624672,,,2.6247048084,2.624672,0,0,0,1,0,7.812,3.6089568084,3.608924,0,0,0,0,0.447388,75, 1.2, -0.2,0,0,975,1019,1024,999,-7,-1,0,-4,76.7,-9.6,0,70,3.905,3.907,0,0,0,0,4.529,96.44,2.6247048084,2.624672,6,P-GPS,"Conexión por cable OTG Gafas en modo de conexión por cable OTG. Sal de este modo antes de conectarlas al ordenador. Presiona ligeramente el acelerador para controlar la orientación de la aeronave. Mantén pulsado el botón de bloqueo para que la aeronave aterrice"
10800,2025-05-23 15:45:29,0,0,2.624672,,,2.6247048084,2.624672,0,0,0,1,0,7.812,3.6089568084,3.608924,0,0,0,0,0.447388,74.9, 1.2, -0.2,0,0,974,1018,1024,998,-8,-1,0,-4,76.8,-8.8,0,70,3.905,3.907,0,0,0,0,4.529,96.44,2.6247048084,2.624672,6,P-GPS,"Conexión por cable OTG Gafas en modo de conexión por cable OTG. Sal de este modo antes de conectarlas al ordenador. Presiona ligeramente el acelerador para controlar la orientación de la aeronave. Mantén pulsado el botón de bloqueo para que la aeronave aterrice"
10900,2025-05-23 15:45:29,0,0,2.624672,,,2.6247048084,2.624672,0,0,0,1,0,7.812,3.6089568084,3.608924,0,0,0,0,0.447388,75, 1.2, -0.2,0,0,973,1023,1024,996,-8,-0,0,-4,76.9,-8.5,0,70,3.905,3.907,0,0,0,0,4.529,96.44,2.6247048084,2.624672,6,P-GPS,"Conexión por cable OTG Gafas en modo de conexión por cable OTG. Sal de este modo antes de conectarlas al ordenador. Presiona ligeramente el acelerador para controlar la orientación de la aeronave. Mantén pulsado el botón de bloqueo para que la aeronave aterrice"
11000,2025-05-23 15:45:29,0,0,2.624672,,,2.6247048084,2.624672,0,0,0,1,0,7.8,3.6089568084,3.608924,0,0,0,0,0.447388,75, 1.1, -0.2,0,0,966,1028,1024,993,-9,1,0,-5,76.9,-8.7,0,70,3.899,3.901,0,0,0,0,4.724,96.44,2.6247048084,2.624672,6,P-GPS,"Conexión por cable OTG Gafas en modo de conexión por cable OTG. Sal de este modo antes de conectarlas al ordenador. Presiona ligeramente el acelerador para controlar la orientación de la aeronave. Mantén pulsado el botón de bloqueo para que la aeronave aterrice"
11100,2025-05-23 15:45:29,0,0,2.296588,,,2.2966208084,2.296588,0,0,0,1,0,7.8,3.6089568084,3.608924,0,0,0,0,0.447388,75, 1, -0.2,0,0,968,1022,1024,991,-8,-0,0,-5,76.9,-9.4,0,70,3.899,3.901,0,0,0,0,4.724,96.44,2.2966208084,2.296588,6,P-GPS,"Conexión por cable OTG Gafas en modo de conexión por cable OTG. Sal de este modo antes de conectarlas al ordenador. Presiona ligeramente el acelerador para controlar la orientación de la aeronave. Mantén pulsado el botón de bloqueo para que la aeronave aterrice"
11200,2025-05-23 15:45:29,0,0,2.296588,,,2.2966208084,2.296588,0,0,0,1,0,7.8,3.6089568084,3.608924,0,0,0,0,0.223694,74.9, 0.9, -0.2,0,0,976,1010,1024,991,-7,-2,0,-5,76.8,-9.4,-0.1,70,3.899,3.901,0,0,0,0,4.724,96.44,2.2966208084,2.296588,6,P-GPS,"Conexión por cable OTG Gafas en modo de conexión por cable OTG. Sal de este modo antes de conectarlas al ordenador. Presiona ligeramente el acelerador para controlar la orientación de la aeronave. Mantén pulsado el botón de bloqueo para que la aeronave aterrice"
11300,2025-05-23 15:45:29,0,0,2.296588,,,2.2966208084,2.296588,0,0,0,1,0,7.8,3.6089568084,3.608924,0,0,0,0,0,74.9, 0.9, -0.3,0,0,981,998,1024,993,-7,-4,0,-5,76.8,-8.7,-0.1,70,3.899,3.901,0,0,0,0,4.724,96.44,2.2966208084,2.296588,6,P-GPS,"Conexión por cable OTG Gafas en modo de conexión por cable OTG. Sal de este modo antes de conectarlas al ordenador. Presiona ligeramente el acelerador para controlar la orientación de la aeronave. Mantén pulsado el botón de bloqueo para que la aeronave aterrice"
11400,2025-05-23 15:45:29,0,0,2.296588,,,2.2966208084,2.296588,0,0,0,1,0,7.8,3.6089568084,3.608924,0,0,0,0,0,74.8, 0.8, -0.4,0,0,988,1000,1024,991,-5,-4,0,-5,76.8,-7.8,-0.1,70,3.899,3.901,0,0,0,0,4.724,96.44,2.2966208084,2.296588,6,P-GPS,"Conexión por cable OTG Gafas en modo de conexión por cable OTG. Sal de este modo antes de conectarlas al ordenador. Presiona ligeramente el acelerador para controlar la orientación de la aeronave. Mantén pulsado el botón de bloqueo para que la aeronave aterrice"
11500,2025-05-23 15:45:29,0,0,2.296588,,,2.2966208084,2.296588,0,0,0,1,0,7.8,3.6089568084,3.608924,0,0,0,0,0,74.8, 0.8, -0.3,0,0,989,1007,1024,988,-5,-3,0,-5,76.6,-6.8,-0.2,70,3.899,3.901,0,0,0,0,4.724,96.44,2.2966208084,2.296588,6,P-GPS,"Conexión por cable OTG Gafas en modo de conexión por cable OTG. Sal de este modo antes de conectarlas al ordenador. Presiona ligeramente el acelerador para controlar la orientación de la aeronave. Mantén pulsado el botón de bloqueo para que la aeronave aterrice"
11600,2025-05-23 15:45:30,0,0,2.296588,,,2.2966208084,2.296588,0,0,0,0,0,7.8,3.6089568084,3.608924,0,0,0,0,0,74.5, 0.9, -0.4,0,0,986,1007,1024,974,-6,-3,0,-8,76.3,-6.2,-0.2,70,3.899,3.901,0,0,0,0,4.724,96.44,2.2966208084,2.296588,6,P-GPS,"Conexión por cable OTG Gafas en modo de conexión por cable OTG. Sal de este modo antes de conectarlas al ordenador. Presiona ligeramente el acelerador para controlar la orientación de la aeronave. Mantén pulsado el botón de bloqueo para que la aeronave aterrice"
11700,2025-05-23 15:45:30,0,0,2.296588,,,2.2966208084,2.296588,0,0,0,0,0,7.8,3.6089568084,3.608924,0,0,0,0,0,74.2, 0.8, -0.4,0,0,981,1006,1024,969,-7,-3,0,-8,76,-6.3,-0.3,70,3.899,3.901,0,0,0,0,4.724,96.44,2.2966208084,2.296588,6,P-GPS,"Conexión por cable OTG Gafas en modo de conexión por cable OTG. Sal de este modo antes de conectarlas al ordenador. Presiona ligeramente el acelerador para controlar la orientación de la aeronave. Mantén pulsado el botón de bloqueo para que la aeronave aterrice"
11800,2025-05-23 15:45:30,0,0,2.296588,,,2.2966208084,2.296588,0,0,0,0,0,7.8,3.6089568084,3.608924,0,0,0,0,0,73.9, 0.7, -0.5,0,0,974,1012,1024,971,-8,-2,0,-8,75.8,-7,-0.3,70,3.899,3.901,0,0,0,0,4.724,96.44,2.2966208084,2.296588,6,P-GPS,"Conexión por cable OTG Gafas en modo de conexión por cable OTG. Sal de este modo antes de conectarlas al ordenador. Presiona ligeramente el acelerador para controlar la orientación de la aeronave. Mantén pulsado el botón de bloqueo para que la aeronave aterrice"
11900,2025-05-23 15:45:30,0,0,2.296588,,,2.2966208084,2.296588,0,0,0,0,0,7.8,3.6089568084,3.608924,0,0,0,0,0,73.7, 0.7, -0.5,0,0,972,1011,1024,968,-8,-2,0,-8,75.6,-7.9,-0.3,70,3.899,3.901,0,0,0,0,4.724,96.44,2.2966208084,2.296588,6,P-GPS,"Conexión por cable OTG Gafas en modo de conexión por cable OTG. Sal de este modo antes de conectarlas al ordenador. Presiona ligeramente el acelerador para controlar la orientación de la aeronave. Mantén pulsado el botón de bloqueo para que la aeronave aterrice"
12000,2025-05-23 15:45:30,0,0,2.296588,,,2.2966208084,2.296588,0,0,0,0,0,7.784,3.6089568084,3.608924,0,0,0,0,0,73.6, 0.6, -0.5,0,0,970,1009,1024,964,-8,-2,0,-9,75.5,-8.5,-0.4,70,3.89,3.894,0,0,0,0,4.893,96.44,2.2966208084,2.296588,6,P-GPS,"Conexión por cable OTG Gafas en modo de conexión por cable OTG. Sal de este modo antes de conectarlas al ordenador. Presiona ligeramente el acelerador para controlar la orientación de la aeronave. Mantén pulsado el botón de bloqueo para que la aeronave aterrice"
12100,2025-05-23 15:45:30,0,0,2.296588,,,2.2966208084,2.296588,0,0,0,0,0,7.784,3.6089568084,3.608924,0,0,0,0,0,73.5, 0.5, -0.6,0,0,970,1009,1024,963,-8,-2,0,-9,75.4,-9,-0.6,70,3.89,3.894,0,0,0,0,4.893,96.44,2.2966208084,2.296588,6,P-GPS,"Conexión por cable OTG Gafas en modo de conexión por cable OTG. Sal de este modo antes de conectarlas al ordenador. Presiona ligeramente el acelerador para controlar la orientación de la aeronave. Mantén pulsado el botón de bloqueo para que la aeronave aterrice"
12200,2025-05-23 15:45:30,0,0,2.296588,,,2.2966208084,2.296588,0,0,0,0,0,7.784,3.6089568084,3.608924,0,0,0,0,0,73.3, 0.7, -0.9,0,0,974,1011,1024,962,-8,-2,0,-9,75.3,-9.2,-0.8,70,3.89,3.894,0,0,0,0,4.893,96.44,2.2966208084,2.296588,6,P-GPS,"Conexión por cable OTG Gafas en modo de conexión por cable OTG. Sal de este modo antes de conectarlas al ordenador. Presiona ligeramente el acelerador para controlar la orientación de la aeronave. Mantén pulsado el botón de bloqueo para que la aeronave aterrice"
12300,2025-05-23 15:45:30,0,0,2.296588,,,2.2966208084,2.296588,0,0,0,0,0,7.784,3.6089568084,3.608924,0,0,0,0,0,73.2, 0.9, -0.9,0,0,975,1010,1029,959,-7,-2,1,-10,75.3,-8.9,-0.5,70,3.89,3.894,0,0,0,0,4.893,96.44,2.2966208084,2.296588,6,P-GPS,"Conexión por cable OTG Gafas en modo de conexión por cable OTG. Sal de este modo antes de conectarlas al ordenador. Presiona ligeramente el acelerador para controlar la orientación de la aeronave. Mantén pulsado el botón de bloqueo para que la aeronave aterrice"
12400,2025-05-23 15:45:30,0,0,2.296588,,,2.2966208084,2.296588,0,0,0,0,0,7.784,3.6089568084,3.608924,0,0,0,0,0,73.1, 1.1, -0.5,0,0,975,1011,1045,960,-7,-2,3,-10,75.2,-8.5,-0.2,70,3.89,3.894,0,0,0,0,4.893,96.44,2.2966208084,2.296588,6,P-GPS,"Conexión por cable OTG Gafas en modo de conexión por cable OTG. Sal de este modo antes de conectarlas al ordenador. Presiona ligeramente el acelerador para controlar la orientación de la aeronave. Mantén pulsado el botón de bloqueo para que la aeronave aterrice"
12500,2025-05-23 15:45:30,0,0,2.296588,,,2.2966208084,2.296588,0,0,0,0,0,7.784,3.6089568084,3.608924,0,0,0,0,0,73, 1.1, -0.4,0,0,976,1013,1061,960,-7,-2,6,-10,75,-8.3,-0.2,70,3.89,3.894,0,0,0,0,4.893,96.44,2.2966208084,2.296588,6,P-GPS,"Conexión por cable OTG Gafas en modo de conexión por cable OTG. Sal de este modo antes de conectarlas al ordenador. Presiona ligeramente el acelerador para controlar la orientación de la aeronave. Mantén pulsado el botón de bloqueo para que la aeronave aterrice"
12600,2025-05-23 15:45:31,0,0,2.296588,,,2.2966208084,2.296588,0,0,0,0,0,7.784,3.6089568084,3.608924,0,0,0,0,0,72.9, 0.7, -0.4,0,0,976,1014,1088,960,-7,-2,10,-10,74.9,-8.3,-0.1,70,3.89,3.894,0,0,0,0,4.893,96.44,2.2966208084,2.296588,6,P-GPS,"Conexión por cable OTG Gafas en modo de conexión por cable OTG. Sal de este modo antes de conectarlas al ordenador"
12700,2025-05-23 15:45:31,0,0,2.296588,,,2.2966208084,2.296588,0,0,0,0,0,7.784,3.6089568084,3.608924,0,0,0,0,0,72.8, 0.2, -0.3,0,0,975,1014,1111,959,-7,-2,13,-10,74.9,-8.2,-0.1,70,3.89,3.894,0,0,0,0,4.893,96.44,2.2966208084,2.296588,6,P-GPS,"Conexión por cable OTG Gafas en modo de conexión por cable OTG. Sal de este modo antes de conectarlas al ordenador"
12800,2025-05-23 15:45:31,0,0,2.296588,,,2.2966208084,2.296588,0,0,0,0,0,7.784,3.6089568084,3.608924,0,0,0,0,0,72.8, -0.6, -0.4,0,0,975,1016,1148,960,-7,-1,19,-10,74.8,-8.2,-0.2,70,3.89,3.894,0,0,0,0,4.893,96.44,2.2966208084,2.296588,6,P-GPS,"Conexión por cable OTG Gafas en modo de conexión por cable OTG. Sal de este modo antes de conectarlas al ordenador"
12900,2025-05-23 15:45:31,0,0,2.296588,,,2.2966208084,2.296588,0,0,0,0,0,7.784,3.6089568084,3.608924,0,0,0,0,0,72.7, -2.1, -0.5,0,0,975,1016,1171,958,-7,-1,22,-10,74.8,-8.3,-0.4,70,3.89,3.894,0,0,0,0,4.893,96.44,2.2966208084,2.296588,6,P-GPS,"Conexión por cable OTG Gafas en modo de conexión por cable OTG. Sal de este modo antes de conectarlas al ordenador"
13000,2025-05-23 15:45:31,0,0,2.296588,,,2.2966208084,2.296588,0,0,0,0,0,7.781,3.6089568084,3.608924,0,0,0,0,0,72.7, -3.7, -0.5,0,0,976,1019,1213,957,-7,-1,29,-10,74.9,-8.3,-0.4,69,3.889,3.892,0,0,0,0,4.845,96.62,2.2966208084,2.296588,6,P-GPS,"Conexión por cable OTG Gafas en modo de conexión por cable OTG. Sal de este modo antes de conectarlas al ordenador"
13100,2025-05-23 15:45:31,0,0,2.296588,,,2.2966208084,2.296588,0.223694,0,0,0,0,7.781,3.6089568084,3.608924,0,0,0,0.223694,0,72.8, -5.7, -0.5,0,0,975,1019,1244,956,-7,-1,33,-10,74.9,-8.3,-0.6,70,3.889,3.892,0,0,0,0,4.845,96.62,2.2966208084,2.296588,6,P-GPS,"Conexión por cable OTG Gafas en modo de conexión por cable OTG. Sal de este modo antes de conectarlas al ordenador"
13200,2025-05-23 15:45:31,0,0,1.968504,,,1.9685368084,2.296588,0.447388,0,0,0,0,7.781,3.6089568084,3.608924,0,0,0,0.447388,0,72.8, -8.4, -0.7,0,0,975,1020,1289,956,-7,-1,40,-10,74.9,-8.3,-0.7,70,3.889,3.892,0,0,0,0,4.845,96.62,1.9685368084,1.968504,6,P-GPS,"Conexión por cable OTG Gafas en modo de conexión por cable OTG. Sal de este modo antes de conectarlas al ordenador"
13300,2025-05-23 15:45:31,0,0,1.968504,,,1.9685368084,2.296588,0.9171454,0,0,0,0,7.781,3.6089568084,3.608924,0,0,0.223694,0.894776,0,72.8, -11.3, -0.7,0,0,975,1020,1325,956,-7,-1,46,-10,74.9,-8.3,-0.8,70,3.889,3.892,0,0,0,0,4.845,96.62,1.9685368084,1.968504,6,P-GPS,"Conexión por cable OTG Gafas en modo de conexión por cable OTG. Sal de este modo antes de conectarlas al ordenador"
13400,2025-05-23 15:45:31,0,0,1.968504,,,1.9685368084,1.968504,1.3645334,0,0,0,0,7.781,3.6089568084,3.608924,0,0,0.223694,1.342164,0.223694,72.8, -15, -0.7,0,0,975,1020,1380,955,-7,-1,54,-10,74.9,-8.3,-0.9,70,3.889,3.892,0,0,0,0,4.845,96.62,1.9685368084,1.968504,6,P-GPS,"Conexión por cable OTG Gafas en modo de conexión por cable OTG. Sal de este modo antes de conectarlas al ordenador"
13500,2025-05-23 15:45:31,0,0,1.968504,,,1.9685368084,1.968504,1.8342908,0,0,0,0,7.781,3.6089568084,3.608924,0,0,0.447388,1.789552,0.223694,72.9, -19.8, -0.5,0,0,977,1021,1410,954,-7,-0,58,-11,75,-8.3,-0.7,70,3.889,3.892,0,0,0,0,4.845,96.62,1.9685368084,1.968504,6,P-GPS,"Conexión por cable OTG Gafas en modo de conexión por cable OTG. Sal de este modo antes de conectarlas al ordenador"
13600,2025-05-23 15:45:32,0,0,1.968504,,,1.9685368084,1.968504,2.5501116,0,0,1,0,7.781,3.6089568084,3.608924,0,0,0.671082,2.460634,0.223694,72.9, -23.6, -0.4,0,0,989,1030,1448,951,-5,1,64,-11,74.9,-8.1,-0.8,70,3.889,3.892,0,0,0,0,4.845,96.62,1.9685368084,1.968504,6,P-GPS,"Conexión por cable OTG Gafas en modo de conexión por cable OTG. Sal de este modo antes de conectarlas al ordenador"
13700,2025-05-23 15:45:32,0,0,1.968504,,,1.9685368084,1.968504,3.467257,0,0,1,0,7.781,3.6089568084,3.608924,0,0,0.894776,3.35541,0.223694,72.8, -26, -0.4,0,0,1003,1031,1466,952,-3,1,67,-11,75,-6.9,-0.6,70,3.889,3.892,0,0,0,0,4.845,96.62,1.9685368084,1.968504,6,P-GPS,"Conexión por cable OTG Gafas en modo de conexión por cable OTG. Sal de este modo antes de conectarlas al ordenador"
13800,2025-05-23 15:45:32,0,0,1.968504,,,1.9685368084,1.968504,4.4515106,0,0,1,0,7.781,3.6089568084,3.608924,0,0,1.342164,4.250186,0.223694,72.8, -27, -0.1,0,0,1015,1034,1486,956,-1,2,70,-10,75.1,-4.6,-0.4,70,3.889,3.892,0,0,0,0,4.845,96.62,1.9685368084,1.968504,6,P-GPS,"Conexión por cable OTG Gafas en modo de conexión por cable OTG. Sal de este modo antes de conectarlas al ordenador"
