time(millisecond),datetime(utc),latitude,longitude,height_above_takeoff(feet),height_above_ground_at_drone_location(feet),ground_elevation_at_drone_location(feet),altitude_above_seaLevel(feet),height_sonar(feet),speed(mph),distance(feet),mileage(feet),satellites,gpslevel,voltage(v),max_altitude(feet),max_ascent(feet),max_speed(mph),max_distance(feet), xSpeed(mph), ySpeed(mph), zSpeed(mph), compass_heading(degrees), pitch(degrees), roll(degrees),isPhoto,isVideo,rc_elevator,rc_aileron,rc_throttle,rc_rudder,rc_elevator(percent),rc_aileron(percent),rc_throttle(percent),rc_rudder(percent),gimbal_heading(degrees),gimbal_pitch(degrees),gimbal_roll(degrees),battery_percent,voltageCell1,voltageCell2,voltageCell3,voltageCell4,voltageCell5,voltageCell6,current(A),battery_temperature(f),altitude(feet),ascent(feet),flycStateRaw,flycState,message
0,2023-12-29 04:25:47,-34.9578240341063,-54.9434401663164,0,0,21.527671620644,21.527671620644,0.328084,0,0,0,16,4,0,21.527671620644,0,0,0,0,0,0,56.4, 2.2, -0.5,0,0,364,364,364,1684,-100,-100,-100,100,63.2,0,0,98,4.308,4.306,0,0,0,0,0,80.06,21.527671620644,0,41,Motors_Started,"Error de calibración del estabilizador. Reinicia la aeronave o contacta con la Asistencia DJI (Code: 40011). Tarjeta SD llena. Cámbiala o elimina archivos (Code: 10027)"
100,2023-12-29 04:25:47,-34.9578239744743,-54.9434401658769,0,0,21.527671620644,21.527671620644,0.328084,0,0.0217570873104,0.0217570873104,16,4,0,21.527671620644,0,0,0.0217570873104,0,0,0,56.4, 2.2, -0.5,0,0,364,364,364,1684,-100,-100,-100,100,63.2,0,0,98,4.308,4.306,0,0,0,0,0,80.06,21.527671620644,0,41,Motors_Started,
200,2023-12-29 04:25:47,-34.957823880785,-54.9434402629389,0,0,21.527671620644,21.527671620644,0.328084,0,0.062959975768,0.066599083496,16,4,0,21.527671620644,0,0,0.062959975768,0,0,0,56.5, 2.2, -0.6,0,0,364,364,364,1684,-100,-100,-100,100,63.2,0,0,98,4.308,4.306,0,0,0,0,0,80.06,21.527671620644,0,41,Motors_Started,
300,2023-12-29 04:25:47,-34.9578238343239,-54.943440301505,0,0,21.527671620644,21.527671620644,0.328084,0,0.083349412116,0.08710138074,16,4,0,21.527671620644,0,0,0.083349412116,0,0,0,56.5, 2.2, -0.6,0,0,364,364,364,1684,-100,-100,-100,100,63.3,0,0,98,4.308,4.306,0,0,0,0,0,80.06,21.527671620644,0,41,Motors_Started,
400,2023-12-29 04:25:47,-34.9578238253626,-54.9434403155001,0,0,21.527671620644,21.527671620644,0.328084,0,0.0882627981,0.092411748364,16,4,0,21.527671620644,0,0,0.0882627981,0,0,0,56.4, 2.2, -0.6,0,0,364,364,364,1684,-100,-100,-100,100,63.3,0,0,98,4.308,4.306,0,0,0,0,0,80.06,21.527671620644,0,41,Motors_Started,
500,2023-12-29 04:25:47,-34.957823837172,-54.9434403156121,0,0,21.527671620644,21.527671620644,0.328084,0,0.084590553888,0.09672080362,16,4,0,21.527671620644,0,0,0.0882627981,0,0,0,56.4, 2.2, -0.6,0,0,455,364,364,1669,-86,-100,-100,98,63.3,0,0,98,4.308,4.306,0,0,0,0,0,80.06,21.527671620644,0,41,Motors_Started,"Setting new Return-To-Home altitude to 100m (328 ft). Data Recorder File Index is 31. Setting new Maximum Flight Altitude to 120m (394 ft)"
600,2023-12-29 04:25:47,-34.9578239454163,-54.9434402426888,0,0,21.527671620644,21.527671620644,0.328084,0,0.039605644312,0.141833665956,16,4,0,21.527671620644,0,0,0.0882627981,0,0,0,56.5, 2.2, -0.6,0,0,1024,1024,1024,1024,0,0,0,0,63.3,0,0,98,4.308,4.306,0,0,0,0,0,80.06,21.527671620644,0,41,Motors_Started,
700,2023-12-29 04:25:48,-34.9578239143261,-54.9434401791169,0,0,21.527671620644,21.527671620644,0.328084,0,0.043869095892,0.163970149604,16,4,0,21.527671620644,0,0,0.0882627981,0,0,0,56.5, 2.2, -0.6,0,0,1024,1024,1024,1024,0,0,0,0,63.3,0,0,98,4.308,4.306,0,0,0,0,0,80.06,21.527671620644,0,41,Motors_Started,
800,2023-12-29 04:25:48,-34.957823904132,-54.9434401361825,0,0,21.527671620644,21.527671620644,0.328084,0,0.0482693585,0.177336291764,16,4,0,21.527671620644,0,0,0.0882627981,0,0,0,56.4, 2.2, -0.6,0,0,1024,1024,1024,1024,0,0,0,0,63.3,0,0,98,4.308,4.306,0,0,0,0,0,80.06,21.527671620644,0,41,Motors_Started,
900,2023-12-29 04:25:48,-34.9578239047248,-54.9434401047681,0,0,21.527671620644,21.527671620644,0.328084,0,0.050665684036,0.18673228944,16,4,0,21.527671620644,0,0,0.0882627981,0,0,0,56.5, 2.2, -0.6,0,0,1024,1024,1024,1024,0,0,0,0,63.3,0,0,98,4.308,4.306,0,0,0,0,0,80.06,21.527671620644,0,41,Motors_Started,
1000,2023-12-29 04:25:48,-34.9578239054055,-54.943440098324,0,0,21.527671620644,21.527671620644,0.328084,0,0.051168964892,0.188675202888,16,4,0,21.527671620644,0,0,0.0882627981,0,0,0,56.4, 2.2, -0.6,0,0,1024,1024,1592,1024,0,0,86,0,63.3,0,0,98,4.308,4.306,0,0,0,0,0,80.06,21.527671620644,0,41,Motors_Started,
1100,2023-12-29 04:25:48,-34.9578238632499,-54.9434400861035,0,0,21.527671620644,21.527671620644,0.328084,0,0.066791996888,0.204483602344,16,4,0,21.527671620644,0,0,0.0882627981,0,0,0,56.5, 2.2, -0.6,0,0,1024,1024,1684,1024,0,0,100,0,63.3,0,0,98,4.308,4.306,0,0,0,0,0,80.06,21.527671620644,0,10,Assisted_Takeoff,
1200,2023-12-29 04:25:48,-34.9578238120728,-54.9434401104469,0,0,21.527671620644,21.527671620644,0.328084,0,0.082713585324,0.2245242854,16,4,0,21.527671620644,0,0,0.0882627981,0,0,0,56.5, 2.1, -0.6,0,0,1024,1024,1024,1024,0,0,0,0,63.3,0,0,98,4.308,4.306,0,0,0,0,0,80.06,21.527671620644,0,10,Assisted_Takeoff,
1300,2023-12-29 04:25:48,-34.9578237527877,-54.9434401571867,0.328084,0.328084,21.527671620644,21.855755620644,0.328084,0,0.102675200136,0.250276910896,16,4,8.626,21.855755620644,0.328084,0,0.102675200136,0,0,0,56.5, 2.1, -0.6,0,0,1024,1024,1024,1024,0,0,0,0,63.3,0,0,98,4.308,4.306,0,0,0,0,1.131,80.06,21.855755620644,0.328084,10,Assisted_Takeoff,
1400,2023-12-29 04:25:48,-34.9578236627787,-54.9434401845551,0.328084,0.328084,21.527671620644,21.855755620644,0.328084,0,0.135588258932,0.284121072084,16,4,8.626,21.855755620644,0.328084,0,0.135588258932,0,0,0,56.5, 2.1, -0.6,0,0,1024,1024,1024,1024,0,0,0,0,63.3,0,0,98,4.308,4.306,0,0,0,0,1.131,80.06,21.855755620644,0.328084,10,Assisted_Takeoff,
1500,2023-12-29 04:25:48,-34.957823411075,-54.9434403293512,0.328084,0.3608924,21.494863220644,21.855755620644,0.328084,0,0.232481634736,0.38564961864,16,4,8.626,21.855755620644,0.328084,0,0.232481634736,0,0,0,56.5, 2.1, -0.6,0,0,1024,1024,1472,1024,0,0,68,0,63.3,0,0,98,4.308,4.306,0,0,0,0,1.131,80.06,21.855755620644,0.328084,10,Assisted_Takeoff,
1600,2023-12-29 04:25:48,-34.957823355887,-54.9434403624872,0.328084,0.3608924,21.494863220644,21.855755620644,0.328084,0,0.254305782416,0.40809056424,16,4,8.626,21.855755620644,0.328084,0,0.254305782416,0,0,0,56.5, 2.2, -0.6,0,0,1024,1024,1684,1024,0,0,100,0,63.3,0,0,98,4.308,4.306,0,0,0,0,1.131,80.06,21.855755620644,0.328084,10,Assisted_Takeoff,
1700,2023-12-29 04:25:49,-34.9578233331817,-54.9434404093231,0.328084,0.3608924,21.494863220644,21.855755620644,0.328084,0,0.265854995384,0.42436353064,16,4,8.626,21.855755620644,0.328084,0,0.265854995384,0,0,0,56.5, 2.2, -0.6,0,0,1024,1024,1684,1024,0,0,100,0,63.3,0,0,98,4.308,4.306,0,0,0,0,1.131,80.06,21.855755620644,0.328084,10,Assisted_Takeoff,
1800,2023-12-29 04:25:49,-34.957823273123,-54.9434404315796,0.328084,0.3608924,21.494863220644,21.855755620644,0.328084,0,0.288752305828,0.44726379384,16,4,8.626,21.855755620644,0.328084,0,0.288752305828,0,0,0,56.6, 2.2, -0.6,0,0,1024,1024,1684,1024,0,0,100,0,63.3,0,0,98,4.308,4.306,0,0,0,0,1.131,80.06,21.855755620644,0.328084,10,Assisted_Takeoff,
1900,2023-12-29 04:25:49,-34.9578231994929,-54.9434404970477,0.328084,0.3608924,21.494863220644,21.855755620644,0.328084,0,0.320165036492,0.48050198388,16,4,8.626,21.855755620644,0.328084,0,0.320165036492,0,0,0,57, 2, -0.7,0,0,1024,1024,1684,1024,0,0,100,0,63.5,0,0,98,4.308,4.306,0,0,0,0,1.131,80.06,21.855755620644,0.328084,10,Assisted_Takeoff,
2000,2023-12-29 04:25:49,-34.9578231601611,-54.9434404876025,0.328084,0.3608924,21.494863220644,21.855755620644,0.328084,0,0.33301838336,0.4951279686,16,4,8.626,21.855755620644,0.328084,0,0.33301838336,0,0,0,57.6, 0, -0.8,0,0,1024,1024,1684,1024,0,0,100,0,63.9,0,0,98,4.308,4.306,0,0,0,0,1.131,80.06,21.855755620644,0.328084,10,Assisted_Takeoff,
2100,2023-12-29 04:25:49,-34.9578231297206,-54.9434404516669,0.328084,0.3608924,21.494863220644,21.855755620644,0.328084,0,0.34081694004,0.51058400584,16,4,8.626,21.855755620644,0.328084,0,0.34081694004,0,0,-0.223694,57.9, -4.1, 0,0,0,1024,1024,1490,1024,0,0,71,0,64.2,0,0,98,4.308,4.306,0,0,0,0,1.131,80.06,21.855755620644,0.328084,10,Assisted_Takeoff,
2200,2023-12-29 04:25:49,-34.957823105035,-54.94344037068,0.328084,0.3608924,21.494863220644,21.855755620644,0.328084,0,0.34443570656,0.53642062084,16,4,8.626,21.855755620644,0.328084,0,0.34443570656,0,0,-0.447388,57.9, -2.6, 0.3,0,0,1024,1024,1192,1024,0,0,25,0,64.4,0,0,98,4.308,4.306,0,0,0,0,1.131,80.06,21.855755620644,0.328084,6,P-GPS,
2300,2023-12-29 04:25:49,-34.9578232241199,-54.9434401790178,0.328084,0.3608924,21.494863220644,21.855755620644,0.656168,0.223694,0.295547581636,0.60833991448,16,4,8.614,21.855755620644,0.328084,0.223694,0.34443570656,0,0.223694,-0.894776,57.8, -0.1, 0.5,0,0,1024,1024,1024,1024,0,0,0,0,64.4,0,0,98,4.273,4.266,0,0,0,0,1.605,80.06,21.855755620644,0.328084,6,P-GPS,
2400,2023-12-29 04:25:49,-34.9578231607034,-54.9434400483013,0.656168,0.6889764,21.494863220644,22.183839620644,0.656168,0.223694,0.32060860606,0.65375986344,16,4,8.614,22.183839620644,0.656168,0.223694,0.34443570656,0,0.223694,-0.894776,57.6, 1.6, 0.4,0,0,1024,1024,1024,1024,0,0,0,0,64.4,0,0,98,4.273,4.266,0,0,0,0,1.605,80.06,22.183839620644,0.656168,6,P-GPS,
2500,2023-12-29 04:25:49,-34.9578230988534,-54.9434399309477,0.656168,0.6889764,21.494863220644,22.183839620644,0.656168,0.223694,0.3484088038,0.69548230572,16,4,8.614,22.183839620644,0.656168,0.223694,0.3484088038,0,0.223694,-0.894776,57.6, 2.6, -0.1,0,0,1024,1024,1024,1024,0,0,0,0,64.4,0,0,98,4.273,4.266,0,0,0,0,1.605,80.06,22.183839620644,0.656168,6,P-GPS,
2600,2023-12-29 04:25:49,-34.9578230706276,-54.9434398274485,0.984252,1.0170604,21.494863220644,22.511923620644,0.656168,0.223694,0.36583662588,0.72809713616,16,4,8.614,22.511923620644,0.984252,0.223694,0.36583662588,0,0.223694,-1.11847,57.3, 0.4, -1.7,0,0,1024,1024,1024,1024,0,0,0,0,64.4,0,0,98,4.273,4.266,0,0,0,0,1.605,80.06,22.511923620644,0.984252,6,P-GPS,
2700,2023-12-29 04:25:50,-34.9578230018715,-54.9434398388487,1.312336,1.3451444,21.494863220644,22.840007620644,0.984252,0.223694,0.38913058988,0.75341537844,17,4,8.614,22.840007620644,1.312336,0.223694,0.38913058988,0,0.223694,-1.11847,57.3, 1.2, -0.5,0,0,1024,1024,1255,1024,0,0,35,0,64.4,0,0,98,4.273,4.266,0,0,0,0,1.605,80.06,22.840007620644,1.312336,6,P-GPS,
2800,2023-12-29 04:25:50,-34.9578229214052,-54.9434396979545,1.312336,1.3451444,21.494863220644,22.840007620644,0.984252,0.223694,0.4294455518,0.80476380528,17,4,8.614,22.840007620644,1.312336,0.223694,0.4294455518,0,0.223694,-1.11847,57.5, 2.9, 0,0,0,1024,1024,1255,1024,0,0,35,0,64.4,0,0,98,4.273,4.266,0,0,0,0,1.605,80.06,22.840007620644,1.312336,6,P-GPS,
2900,2023-12-29 04:25:50,-34.957822819774,-54.9434395328288,1.64042,1.6732284,21.494863220644,23.168091620644,1.312336,0,0.48184384744,0.86651249492,17,4,8.614,23.168091620644,1.64042,0.223694,0.48184384744,0,0,-0.894776,57, 3.3, -1.1,0,0,1024,1024,1118,1024,0,0,14,0,64.4,0,0,98,4.273,4.266,0,0,0,0,1.605,80.06,23.168091620644,1.64042,6,P-GPS,
3000,2023-12-29 04:25:50,-34.9578225766505,-54.9434394922399,1.968504,1.968504,21.527671620644,23.496175620644,1.312336,0,0.56867127804,0.95604333768,17,4,8.614,23.496175620644,1.968504,0.223694,0.56867127804,0,0,-0.894776,57, 1, -1.3,0,0,1024,1024,1024,1024,0,0,0,0,64.4,0,0,98,4.273,4.266,0,0,0,0,1.605,80.06,23.496175620644,1.968504,6,P-GPS,
3100,2023-12-29 04:25:50,-34.9578222109965,-54.9434395186444,1.968504,2.0341208,21.462054820644,23.496175620644,1.312336,0,0.6927821744,1.08968507424,17,4,8.614,23.496175620644,1.968504,0.223694,0.6927821744,0,0,-0.671082,56.8, 1.9, -2.1,0,0,1024,904,1024,1024,0,-18,0,0,64.4,0,0,98,4.273,4.266,0,0,0,0,1.605,80.06,23.496175620644,1.968504,6,P-GPS,
3200,2023-12-29 04:25:50,-34.9578213533618,-54.9434395868815,2.296588,2.4278216,21.396438020644,23.824259620644,1.64042,0.223694,0.99329727588,1.40325791892,17,4,8.614,23.824259620644,2.296588,0.223694,0.99329727588,0.223694,0,-0.447388,56.7, 2.5, -0.5,0,0,1024,364,1024,1024,0,-100,0,0,64.4,0,0,98,4.273,4.266,0,0,0,0,1.605,80.06,23.824259620644,2.296588,6,P-GPS,
3300,2023-12-29 04:25:50,-34.9578210569426,-54.9434396116119,2.296588,2.4278216,21.396438020644,23.824259620644,1.64042,0.223694,1.09880909028,1.51165687252,17,4,8.614,23.824259620644,2.296588,0.223694,1.09880909028,0.223694,0,-0.223694,56.8, 3.5, -3,0,0,1024,364,1024,1024,0,-100,0,0,64.4,0,0,98,4.273,4.266,0,0,0,0,1.605,80.06,23.824259620644,2.296588,6,P-GPS,
3400,2023-12-29 04:25:50,-34.9578206848578,-54.9434397444725,2.624672,2.7559056,21.396438020644,24.152343620644,1.64042,0.447388,1.22846460624,1.65310700828,17,4,8.45,24.152343620644,2.624672,0.447388,1.22846460624,0.447388,0,0,56.4, 2.9, -11.7,0,0,1024,1024,1024,1024,0,0,0,0,64.4,0,0,98,4.216,4.219,0,0,0,0,3.83,80.06,24.152343620644,2.624672,6,P-GPS,
3500,2023-12-29 04:25:50,-34.9578201400293,-54.9434400267558,2.624672,2.788714,21.363629620644,24.152343620644,1.64042,0.9171454,1.42136487488,1.86906502044,17,4,8.45,24.152343620644,2.624672,0.9171454,1.42136487488,0.894776,-0.223694,0,56.4, 3.3, -14.6,0,0,1024,1024,1074,1024,0,0,8,0,64.4,0,0,98,4.216,4.219,0,0,0,0,3.83,80.06,24.152343620644,2.624672,6,P-GPS,"Punto de origen actualizado. Altitud de RPO establecida en 100m (Code: 3000001)"
3600,2023-12-29 04:25:50,-34.9578192959124,-54.9434406570451,2.624672,2.8543308,21.298012820644,24.152343620644,1.64042,1.2079476,1.73494428124,2.2301345858,17,4,8.45,24.152343620644,2.624672,1.2079476,1.73494428124,1.11847,-0.447388,0,58.5, 3.6, 1.1,0,0,1024,1024,1684,1024,0,0,100,0,64.4,0,0,98,4.216,4.219,0,0,0,0,3.83,80.06,24.152343620644,2.624672,6,P-GPS,
3700,2023-12-29 04:25:51,-34.9578186242899,-54.9434410082386,2.624672,2.8543308,21.298012820644,24.152343620644,1.64042,1.1408394,1.98976056236,2.49672908252,18,4,8.45,24.152343620644,2.624672,1.2079476,1.98976056236,1.11847,-0.223694,0,58.5, 3.3, 7.1,0,0,1024,1024,1684,1024,0,0,100,0,64.4,0,0,98,4.216,4.219,0,0,0,0,3.83,80.06,24.152343620644,2.624672,6,P-GPS,
3800,2023-12-29 04:25:51,-34.9578181504404,-54.9434413043875,2.624672,2.8871392,21.265204420644,24.152343620644,1.64042,0.9171454,2.1734580748,2.69097449556,18,4,8.45,24.152343620644,2.624672,1.2079476,2.1734580748,0.894776,-0.223694,-0.223694,58.4, 3.1, 5.5,0,0,1024,1024,1684,1024,0,0,100,0,64.4,0,0,98,4.216,4.219,0,0,0,0,3.83,80.06,24.152343620644,2.624672,6,P-GPS,
3900,2023-12-29 04:25:51,-34.9578178181304,-54.9434415351844,2.624672,2.9199476,21.232396020644,24.152343620644,1.968504,0.447388,2.30453747532,2.83048237404,18,4,8.45,24.152343620644,2.624672,1.2079476,2.30453747532,0.447388,0,-0.894776,57.8, 3.6, 2.7,0,0,1024,1024,1465,1024,0,0,67,0,64.4,0,0,98,4.216,4.219,0,0,0,0,3.83,80.06,24.152343620644,2.624672,6,P-GPS,
4000,2023-12-29 04:25:51,-34.957817851691,-54.9434419880979,2.952756,3.2480316,21.232396020644,24.480427620644,1.968504,0.447388,2.32049876192,2.96646663036,18,4,8.45,24.480427620644,2.952756,1.2079476,2.32049876192,0.447388,0,-1.565858,57.4, 1.7, 2.9,0,0,1684,1024,1024,1024,100,0,0,0,64.4,0,0,98,4.216,4.219,0,0,0,0,3.83,80.06,24.480427620644,2.952756,6,P-GPS,
4100,2023-12-29 04:25:51,-34.9578175957989,-54.9434420864801,3.28084,3.5761156,21.232396020644,24.808511620644,2.296588,0.223694,2.41816608788,3.0643537726,18,4,8.45,24.808511620644,3.28084,1.2079476,2.41816608788,0.223694,0,-2.013246,57.5, 1, 0.3,0,0,1684,1024,1024,1024,100,0,0,0,64.4,0,0,98,4.216,4.219,0,0,0,0,3.83,80.06,24.808511620644,3.28084,6,P-GPS,
4200,2023-12-29 04:25:51,-34.9578173382442,-54.9434421540231,3.608924,3.937008,21.199587620644,25.136595620644,2.624672,0.3131716,2.51424548728,3.1604659804,18,4,8.45,25.136595620644,3.608924,1.2079476,2.51424548728,0.223694,0.223694,-1.789552,57.9, -8.3, 0.5,0,0,1684,1024,1024,1024,100,0,0,0,64.4,0,0,98,4.216,4.219,0,0,0,0,3.83,80.06,25.136595620644,3.608924,6,P-GPS,
4300,2023-12-29 04:25:51,-34.9578170062924,-54.943442079107,3.608924,3.937008,21.199587620644,25.136595620644,2.952756,0.8052984,2.62711294496,3.283628714,18,4,8.45,25.136595620644,3.608924,1.2079476,2.62711294496,0.447388,0.671082,-1.342164,58, -13.7, -0.9,0,0,1684,1024,1024,1024,100,0,0,0,64.4,0,0,98,4.216,4.219,0,0,0,0,3.83,80.06,25.136595620644,3.608924,6,P-GPS,
4400,2023-12-29 04:25:51,-34.9578171481657,-54.9434410469429,3.937008,4.2322836,21.232396020644,25.464679620644,2.952756,1.2974252,2.52609260052,3.5965880416,18,4,8.45,25.464679620644,3.937008,1.2974252,2.62711294496,0.671082,1.11847,-0.671082,58, -15.5, -0.8,0,0,1684,1024,1024,1024,100,0,0,0,64.4,0,0,98,4.183,4.17,0,0,0,0,4.224,80.06,25.464679620644,3.937008,6,P-GPS,
4500,2023-12-29 04:25:51,-34.9578169117906,-54.9434400200449,3.937008,4.1994752,21.265204420644,25.464679620644,2.952756,1.9908766,2.59894037188,3.915518498,19,4,8.45,25.464679620644,3.937008,1.9908766,2.62711294496,0.894776,1.789552,-0.223694,58, -16.5, -1.7,0,0,1684,1024,1024,1024,100,0,0,0,64.4,0,0,98,4.183,4.17,0,0,0,0,4.224,80.06,25.464679620644,3.937008,6,P-GPS,
4600,2023-12-29 04:25:51,-34.9578165720613,-54.9434388807337,3.937008,4.1666668,21.298012820644,25.464679620644,2.952756,2.6172198,2.74952764704,4.278051318,19,4,8.45,25.464679620644,3.937008,2.6172198,2.74952764704,1.342164,2.23694,0,58.3, -16.2, -1.7,0,0,1684,1024,1684,1024,100,0,100,0,64.4,0,0,98,4.183,4.17,0,0,0,0,4.224,80.06,25.464679620644,3.937008,6,P-GPS,
4700,2023-12-29 04:25:52,-34.9578160689079,-54.9434374620964,4.265092,4.4947508,21.298012820644,25.792763620644,3.28084,3.3106712,3.01649944036,4.7402888656,19,4,8.45,25.792763620644,4.265092,3.3106712,3.01649944036,1.565858,2.908022,0,58.1, -14.9, -2.7,0,0,1684,1024,1684,1024,100,0,100,0,64.4,0,0,98,4.183,4.17,0,0,0,0,4.224,80.06,25.792763620644,4.265092,6,P-GPS,
4800,2023-12-29 04:25:52,-34.9578154986985,-54.9434357086342,4.265092,4.4947508,21.298012820644,25.792763620644,3.28084,4.1159696,3.3874016832,5.3043636868,19,4,8.45,25.792763620644,4.265092,4.1159696,3.3874016832,2.013246,3.579104,0,58.3, -13.3, -3,0,0,1684,1024,1684,1024,100,0,100,0,64.4,0,0,98,4.183,4.17,0,0,0,0,4.224,80.06,25.792763620644,4.265092,6,P-GPS,
4900,2023-12-29 04:25:52,-34.9578151509085,-54.9434331208742,4.265092,4.3963256,21.396438020644,25.792763620644,3.28084,4.7199434,3.8655513048,6.0884844468,19,4,8.45,25.792763620644,4.265092,4.7199434,3.8655513048,2.460634,4.026492,-0.671082,58.5, -10.1, -2.3,0,0,1684,1024,1684,1024,100,0,100,0,64.4,0,0,98,4.183,4.17,0,0,0,0,4.224,80.06,25.792763620644,4.265092,6,P-GPS,
5000,2023-12-29 04:25:52,-34.9578140437913,-54.9434308547649,4.593176,4.6916012,21.429246420644,26.120847620644,3.28084,5.5252418,4.5867455536,6.8773624248,19,4,8.45,26.120847620644,4.593176,5.5252418,4.5867455536,2.908022,4.697574,-1.342164,58.4, -7.9, -2.5,0,0,1583,1024,1684,1024,85,0,100,0,64.4,0,0,98,4.183,4.17,0,0,0,0,4.224,80.06,26.120847620644,4.593176,6,P-GPS,
5100,2023-12-29 04:25:52,-34.957812601498,-54.9434283125244,4.593176,4.6259844,21.494863220644,26.120847620644,3.608924,6.151585,5.4737862644,7.8019031368,20,4,8.45,26.120847620644,4.593176,6.151585,5.4737862644,3.35541,5.144962,-2.013246,58.2, -5.6, -2,0,0,1024,1024,1684,1024,0,0,100,0,64.4,0,0,98,4.183,4.17,0,0,0,0,4.224,80.06,26.120847620644,4.593176,6,P-GPS,
5200,2023-12-29 04:25:52,-34.9578109798967,-54.9434257502809,4.92126,4.9540684,21.494863220644,26.448931620644,3.937008,6.3305402,6.4239175284,8.7699149788,20,4,8.45,26.448931620644,4.92126,6.3305402,6.4239175284,3.35541,5.368656,-2.908022,57.9, 0.9, -2.3,0,0,1024,1024,1684,1024,0,0,100,0,64.4,0,0,98,4.183,4.17,0,0,0,0,4.224,80.06,26.448931620644,4.92126,6,P-GPS,
5300,2023-12-29 04:25:52,-34.9578079670147,-54.9434233360829,5.577428,5.6430448,21.462054820644,27.105099620644,4.593176,6.151585,7.7259844992,10.0850068844,20,4,8.45,27.105099620644,5.577428,6.3305402,7.7259844992,3.35541,5.144962,-3.579104,57, 19, -3,0,0,1024,1024,1684,1024,0,0,100,0,64.4,0,0,98,4.183,4.17,0,0,0,0,4.224,80.06,27.105099620644,5.577428,6,P-GPS,
5400,2023-12-29 04:25:52,-34.9578063060865,-54.9434210120431,5.905512,5.9711288,21.462054820644,27.433183620644,5.249344,5.2791784,8.6394687804,11.007054158,20,4,8.465,27.433183620644,5.905512,6.3305402,8.6394687804,3.131716,4.250186,-4.250186,57.3, 19.9, -2.1,0,0,1024,1024,1684,1024,0,0,100,0,64.4,0,0,98,4.19,4.179,0,0,0,0,4.169,80.06,27.433183620644,5.905512,6,P-GPS,
5500,2023-12-29 04:25:52,-34.957804720513,-54.9434189898828,6.56168,6.5944884,21.494863220644,28.089351620644,5.905512,4.1607084,9.4736879672,11.8438980168,20,4,8.465,28.089351620644,6.56168,6.3305402,9.4736879672,2.460634,3.35541,-4.921268,57.5, 20.5, -0.8,0,0,1024,1024,1684,1024,0,0,100,0,64.4,0,0,98,4.19,4.179,0,0,0,0,4.169,80.06,28.089351620644,6.56168,6,P-GPS,
5600,2023-12-29 04:25:52,-34.9578034172725,-54.9434175447139,7.545932,7.6115488,21.462054820644,29.073603620644,6.889764,3.1764548,10.1162076728,12.4864177224,20,4,8.465,29.073603620644,7.545932,6.3305402,10.1162076728,2.013246,2.460634,-5.59235,58.2, 19.7, -0.3,0,0,1024,1024,1684,1024,0,0,100,0,64.4,0,0,98,4.19,4.179,0,0,0,0,4.169,80.06,29.073603620644,7.545932,6,P-GPS,
5700,2023-12-29 04:25:53,-34.95780135704,-54.9434167604007,8.530184,8.6614176,21.396438020644,30.057855620644,7.545932,2.5501116,10.8369097956,13.2738193224,20,4,8.465,30.057855620644,8.530184,6.3305402,10.8369097956,1.565858,2.013246,-6.039738,58.3, 18.5, 0.1,0,0,1024,1024,1684,1024,0,0,100,0,64.3,0,0,98,4.19,4.179,0,0,0,0,4.169,80.06,30.057855620644,8.530184,6,P-GPS,
5800,2023-12-29 04:25:53,-34.9578005779957,-54.943415862508,9.514436,9.6128612,21.429246420644,31.042107620644,8.530184,1.9237684,11.2273297556,13.6647970252,20,4,8.465,31.042107620644,9.514436,6.3305402,11.2273297556,1.11847,1.565858,-6.039738,57.9, 16.4, -1,0,0,1098,1024,1684,1024,11,0,100,0,64.4,0,0,98,4.19,4.179,0,0,0,0,4.169,80.06,31.042107620644,9.514436,6,P-GPS,
5900,2023-12-29 04:25:53,-34.957800021944,-54.9434150845999,10.498688,10.5971132,21.429246420644,32.026359620644,9.514436,1.6105968,11.5326119176,13.9734584524,20,4,8.465,32.026359620644,10.498688,6.3305402,11.5326119176,0.894776,1.342164,-6.263432,57.9, 13.8, -0.4,0,0,1684,1024,1684,1024,100,0,100,0,64.4,0,0,98,4.19,4.179,0,0,0,0,4.169,80.06,32.026359620644,10.498688,6,P-GPS,
6000,2023-12-29 04:25:53,-34.9577997240397,-54.9434147262299,11.811024,11.9094492,21.429246420644,33.338695620644,10.498688,1.2974252,11.684875702,14.1260831292,20,4,8.465,33.338695620644,11.811024,6.3305402,11.684875702,0.671082,1.11847,-6.487126,58.1, 4.6, -0.6,0,0,1684,1001,1684,1024,100,-3,100,0,64.4,0,0,98,4.19,4.179,0,0,0,0,4.169,80.06,33.338695620644,11.811024,6,P-GPS,
6100,2023-12-29 04:25:53,-34.9578003935028,-54.9434153305872,12.795276,12.8937012,21.429246420644,34.322947620644,11.48294,1.7000744,11.3818573196,14.4299217216,20,4,8.465,34.322947620644,12.795276,6.3305402,11.684875702,0.671082,1.565858,-6.71082,58.3, -6.1, -0.5,0,0,1684,993,1684,1024,100,-5,100,0,64.4,0,0,98,4.19,4.179,0,0,0,0,4.169,80.06,34.322947620644,12.795276,6,P-GPS,
6200,2023-12-29 04:25:53,-34.9578001876642,-54.943414869049,13.779528,13.8779532,21.429246420644,35.307199620644,12.467192,1.7000744,11.5289373768,14.5870739576,20,4,8.465,35.307199620644,13.779528,6.3305402,11.684875702,1.11847,2.013246,-6.934514,58.5, -7.8, -1.1,0,0,1684,969,1684,1024,100,-8,100,0,64.4,0,0,98,4.19,4.179,0,0,0,0,4.169,80.06,35.307199620644,13.779528,6,P-GPS,
6300,2023-12-29 04:25:53,-34.9577998772306,-54.943414023625,14.76378,14.8293968,21.462054820644,36.291451620644,13.451444,2.908022,11.7808730804,14.8640752788,20,4,8.465,36.291451620644,14.76378,6.3305402,11.7808730804,1.11847,2.684328,-6.934514,58.6, -7.7, -0.5,0,0,1684,949,1684,1024,100,-11,100,0,64.4,0,0,98,4.19,4.179,0,0,0,0,4.169,80.06,36.291451620644,14.76378,6,P-GPS,
6400,2023-12-29 04:25:53,-34.9577995483696,-54.9434127339677,15.748032,15.7808404,21.494863220644,37.275703620644,14.435696,3.5119958,12.1283140364,15.2679466828,20,4,8.261,37.275703620644,15.748032,6.3305402,12.1283140364,1.565858,3.131716,-6.934514,58.4, -7.2, -1.3,0,0,1684,854,1684,1024,100,-26,100,0,64.4,0,0,98,4.148,4.14,0,0,0,0,7.372,80.06,37.275703620644,15.748032,6,P-GPS,
6500,2023-12-29 04:25:53,-34.9577991224175,-54.9434109483976,16.732284,16.732284,21.527671620644,38.259955620644,15.419948,4.2054472,12.6071854428,15.8240162544,20,4,8.261,38.259955620644,16.732284,6.3305402,12.6071854428,1.789552,3.802798,-6.934514,57.8, -6.4, -2.7,0,0,1684,854,1684,1024,100,-26,100,0,64.4,0,0,98,4.148,4.14,0,0,0,0,7.372,80.06,38.259955620644,16.732284,6,P-GPS,
6600,2023-12-29 04:25:53,-34.9577995898591,-54.9434086226461,17.716536,17.6181108,21.626096820644,39.244207620644,16.4042,4.4962494,12.980971544,16.5400595844,20,4,8.261,39.244207620644,17.716536,6.3305402,12.980971544,2.013246,4.026492,-6.71082,58.5, -5.8, -2.5,0,0,1684,815,1684,1024,100,-32,100,0,64.4,0,0,98,4.148,4.14,0,0,0,0,7.372,80.06,39.244207620644,17.716536,6,P-GPS,
6700,2023-12-29 04:25:53,-34.9577989178101,-54.9434063647946,18.700788,18.536746,21.691713620644,40.228459620644,17.388452,4.4962494,13.6430122476,17.258366694,20,4,8.261,40.228459620644,18.700788,6.3305402,13.6430122476,2.23694,4.47388,-6.71082,58.4, -5.9, -4.6,0,0,1684,823,1684,1024,100,-30,100,0,64.4,0,0,98,4.148,4.14,0,0,0,0,7.372,80.06,40.228459620644,18.700788,6,P-GPS,
6800,2023-12-29 04:25:54,-34.9577980106235,-54.9434040301634,19.68504,19.4881896,21.724522020644,41.212711620644,18.372704,5.3015478,14.3842524288,18.0309717056,20,4,8.261,41.212711620644,19.68504,6.3305402,14.3842524288,2.460634,4.697574,-6.487126,58.4, -6.4, -6.1,0,0,1684,833,1684,1024,100,-29,100,0,64.4,0,0,98,4.148,4.14,0,0,0,0,7.372,80.06,41.212711620644,19.68504,6,P-GPS,
6900,2023-12-29 04:25:54,-34.9577967944331,-54.9434014364916,20.669292,20.4068248,21.790138820644,42.196963620644,19.356956,5.3015478,15.2607944516,18.9244756712,20,4,8.261,42.196963620644,20.669292,6.3305402,15.2607944516,2.908022,4.921268,-6.487126,58.3, -6.6, -7.9,0,0,1684,838,1684,1024,100,-28,100,0,64.4,0,0,98,4.148,4.14,0,0,0,0,7.372,80.06,42.196963620644,20.669292,6,P-GPS,
7000,2023-12-29 04:25:54,-34.9577954873755,-54.9433979294045,21.653544,21.3582684,21.822947220644,43.181215620644,20.013124,5.9502604,16.3703417312,20.0765098288,20,4,8.261,43.181215620644,21.653544,6.3305402,16.3703417312,3.35541,4.921268,-6.487126,58.7, -9.6, -7.8,0,0,1684,976,1684,1024,100,-7,100,0,64.4,0,0,98,4.148,4.14,0,0,0,0,7.372,80.06,43.181215620644,21.653544,6,P-GPS,
7100,2023-12-29 04:25:54,-34.9577940962479,-54.9433950292201,22.96588,22.6049876,21.888564020644,44.493551620644,20.997376,6.3976484,17.3630582984,21.0813326956,21,4,8.261,44.493551620644,22.96588,6.3976484,17.3630582984,3.802798,5.144962,-6.487126,58.4, -9.4, -5.4,0,0,1684,1024,1684,1024,100,0,100,0,64.4,0,0,98,4.148,4.14,0,0,0,0,7.372,80.06,44.493551620644,22.96588,6,P-GPS,
7200,2023-12-29 04:25:54,-34.9577924695431,-54.943392252872,23.950132,23.5564312,21.921372420644,45.477803620644,21.981628,6.9792528,18.3818575436,22.101870786,21,4,8.261,45.477803620644,23.950132,6.9792528,18.3818575436,4.47388,5.368656,-6.71082,58.3, -9.3, -1,0,0,1684,1024,1684,1024,100,0,100,0,64.4,0,0,98,4.148,4.14,0,0,0,0,7.372,80.06,45.477803620644,23.950132,6,P-GPS,
7300,2023-12-29 04:25:54,-34.9577905284509,-54.9433892459678,24.934384,24.4750664,21.986989220644,46.462055620644,22.637796,7.4713796,19.5263457692,23.24639182,21,4,8.261,46.462055620644,24.934384,7.4713796,19.5263457692,4.697574,5.816044,-6.71082,58.4, -8.5, 1.7,0,0,1684,1024,1684,1024,100,0,100,0,64.4,0,0,98,4.148,4.14,0,0,0,0,7.372,80.06,46.462055620644,24.934384,6,P-GPS,
7400,2023-12-29 04:25:54,-34.9577880383679,-54.9433862834104,25.590552,25.1312344,21.986989220644,47.118223620644,23.622048,7.7845512,20.7864507964,24.5153223068,21,4,8.374,47.118223620644,25.590552,7.7845512,20.7864507964,4.921268,6.039738,-6.71082,57.8, -7.1, -0.2,0,0,1684,1024,1684,1024,100,0,100,0,64.4,0,0,98,4.159,4.151,0,0,0,0,5.544,80.06,47.118223620644,25.590552,6,P-GPS,
7500,2023-12-29 04:25:54,-34.9577858071521,-54.943383107999,26.574804,26.082678,22.019797620644,48.102475620644,24.6063,8.2543086,22.0368117288,25.7660441316,21,4,8.374,48.102475620644,26.574804,8.2543086,22.0368117288,5.368656,6.263432,-6.71082,57.9, -7.1, 1.1,0,0,1684,1024,1684,1024,100,0,100,0,64.4,0,0,98,4.159,4.151,0,0,0,0,5.544,80.06,48.102475620644,26.574804,6,P-GPS,
7600,2023-12-29 04:25:54,-34.9577835954385,-54.9433799412322,27.559056,27.0341216,22.052606020644,49.086727620644,25.262468,8.7464354,23.280676598,27.0101386596,21,4,8.374,49.086727620644,27.559056,8.7464354,23.280676598,5.59235,6.71082,-6.487126,57.9, -7.2, 3.4,0,0,1684,1024,1684,1024,100,0,100,0,64.4,0,0,98,4.159,4.151,0,0,0,0,5.544,80.06,49.086727620644,27.559056,6,P-GPS,
7700,2023-12-29 04:25:55,-34.957781210439,-54.9433764178515,28.543308,27.9855652,22.085414420644,50.070979620644,26.24672,9.1938234,24.6471136496,28.3766085196,21,5,8.374,50.070979620644,28.543308,9.1938234,24.6471136496,6.039738,6.934514,-6.487126,57.9, -5.2, 4.2,0,0,1684,1024,1684,1024,100,0,100,0,64.4,0,0,98,4.159,4.151,0,0,0,0,5.544,80.06,50.070979620644,28.543308,6,P-GPS,
7800,2023-12-29 04:25:55,-34.9577783093465,-54.9433734991809,29.52756,29.0026256,22.052606020644,51.055231620644,27.230972,9.3727786,25.994423404,29.7484589572,21,5,8.374,51.055231620644,29.52756,9.3727786,25.994423404,6.039738,7.158208,-6.487126,58.4, -5.1, 5.1,0,0,1684,1024,1684,1024,100,0,100,0,64.4,0,0,98,4.159,4.151,0,0,0,0,5.544,80.06,51.055231620644,29.52756,6,P-GPS,
7900,2023-12-29 04:25:55,-34.9577756816502,-54.9433697365785,30.183728,29.6259852,22.085414420644,51.711399620644,28.215224,9.5293644,27.4725402492,31.2266414192,21,5,8.374,51.711399620644,30.183728,9.5293644,27.4725402492,6.039738,7.381902,-6.487126,58.6, -4.6, 3,0,0,1684,1024,1684,1024,100,0,100,0,64.4,0,0,98,4.159,4.151,0,0,0,0,5.544,80.06,51.711399620644,30.183728,6,P-GPS,
8000,2023-12-29 04:25:55,-34.9577731231432,-54.9433661933163,31.16798,30.6102372,22.085414420644,52.695651620644,28.871392,9.7083196,28.884187276,32.6387149552,21,5,8.374,52.695651620644,31.16798,9.7083196,28.884187276,6.039738,7.605596,-6.71082,58, -7.2, 0.9,0,0,1684,1024,1684,1024,100,0,100,0,64.4,0,0,98,4.159,4.151,0,0,0,0,5.544,80.06,52.695651620644,31.16798,6,P-GPS,
8100,2023-12-29 04:25:55,-34.9577703376506,-54.9433624927576,32.152232,31.5944892,22.085414420644,53.679903620644,29.855644,10.0214912,30.3852043844,34.141077208,21,5,8.374,53.679903620644,32.152232,10.0214912,30.3852043844,6.263432,7.82929,-6.71082,58.1, -8.3, 3,0,0,1684,1024,1684,1024,100,0,100,0,64.4,0,0,98,4.159,4.151,0,0,0,0,5.544,80.06,53.679903620644,32.152232,6,P-GPS,
8200,2023-12-29 04:25:55,-34.9577676534734,-54.943358720805,33.136484,32.5459328,22.118222820644,54.664155620644,30.839896,10.3794016,31.878773986,35.63484366,21,5,8.374,54.664155620644,33.136484,10.3794016,31.878773986,6.263432,8.276678,-6.71082,58, -8.4, 2.7,0,0,1684,1024,1684,1024,100,0,100,0,64.4,0,0,98,4.159,4.151,0,0,0,0,5.544,80.06,54.664155620644,33.136484,6,P-GPS,
8300,2023-12-29 04:25:55,-34.9577641715995,-54.9433553636058,33.792652,33.2349092,22.085414420644,55.320323620644,31.824148,10.6925732,33.466864588,37.2539382,21,5,8.374,55.320323620644,33.792652,10.6925732,33.466864588,6.487126,8.500372,-6.71082,57.9, -8, 2.3,0,0,1684,1024,1684,1024,100,0,100,0,64.4,0,0,98,4.159,4.151,0,0,0,0,5.544,80.06,55.320323620644,33.792652,6,P-GPS,
8400,2023-12-29 04:25:55,-34.9577615622395,-54.9433511048057,34.776904,34.1863528,22.118222820644,56.304575620644,32.8084,11.0057448,35.053478812,38.843833264,21,5,8.374,56.304575620644,34.776904,11.0057448,35.053478812,6.71082,8.724066,-6.487126,57.7, -7.3, 1.7,0,0,1684,1024,1684,1024,100,0,100,0,64.4,0,0,98,4.159,4.151,0,0,0,0,5.544,80.06,56.304575620644,34.776904,6,P-GPS,
8500,2023-12-29 04:25:55,-34.95775887816,-54.9433464355642,35.761156,35.1377964,22.151031220644,57.288827620644,33.792652,11.3189164,36.751313512,40.549213896,22,5,8.327,57.288827620644,35.761156,11.3189164,36.751313512,6.934514,8.94776,-6.487126,57.6, -6.7, 1.4,0,0,1684,1024,1684,1024,100,0,100,0,64.4,0,0,98,4.174,4.178,0,0,0,0,5.615,80.06,57.288827620644,35.761156,6,P-GPS,
8600,2023-12-29 04:25:55,-34.9577562366284,-54.9433419119744,36.745408,36.1220484,22.151031220644,58.273079620644,34.776904,11.4978716,38.406497292,42.210303188,22,5,8.327,58.273079620644,36.745408,11.4978716,38.406497292,6.934514,9.171454,-6.487126,57.3, -6.3, 0.2,0,0,1684,1024,1684,1024,100,0,100,0,64.4,0,0,98,4.174,4.178,0,0,0,0,5.615,80.06,58.273079620644,36.745408,6,P-GPS,
8700,2023-12-29 04:25:56,-34.9577535224291,-54.9433371493459,37.72966,37.0406836,22.216648020644,59.257331620644,35.761156,11.632088,40.133859552,43.944883296,22,5,8.327,59.257331620644,37.72966,11.632088,40.133859552,7.158208,9.171454,-6.487126,57.4, -5.9, 1.5,0,0,1684,1024,1684,1024,100,0,100,0,64.4,0,0,98,4.174,4.178,0,0,0,0,5.615,80.06,59.257331620644,37.72966,6,P-GPS,
8800,2023-12-29 04:25:56,-34.957750695281,-54.943332570439,38.385828,37.6968516,22.216648020644,59.913499620644,36.745408,11.8110432,41.846129948,45.659122196,22,5,8.327,59.913499620644,38.385828,11.8110432,41.846129948,7.158208,9.395148,-6.487126,57.6, -6.9, 2.5,0,0,1684,1024,1684,1024,100,0,100,0,64.4,0,0,98,4.174,4.178,0,0,0,0,5.615,80.06,59.913499620644,38.385828,6,P-GPS,
8900,2023-12-29 04:25:56,-34.9577476911796,-54.943327714549,39.37008,38.6482952,22.249456420644,60.897751620644,37.401576,11.8110432,43.663387224,47.478347976,22,5,8.327,60.897751620644,39.37008,11.8110432,43.663387224,7.158208,9.395148,-6.487126,57.6, -9.2, 3,0,0,1684,1024,1684,1024,100,0,100,0,64.4,0,0,98,4.174,4.178,0,0,0,0,5.615,80.06,60.897751620644,39.37008,6,P-GPS,
9000,2023-12-29 04:25:56,-34.9577448982223,-54.9433230581751,40.354332,39.5997388,22.282264820644,61.882003620644,38.385828,11.9899984,45.385828224,49.203741732,22,5,8.327,61.882003620644,40.354332,11.9899984,45.385828224,7.158208,9.618842,-6.487126,57.7, -10.3, 2.6,0,0,1684,1024,1684,1024,100,0,100,0,64.4,0,0,98,4.174,4.178,0,0,0,0,5.615,80.06,61.882003620644,40.354332,6,P-GPS,
9100,2023-12-29 04:25:56,-34.9577418171867,-54.9433185231498,41.0105,40.2230984,22.315073220644,62.538171620644,39.37008,12.1689536,47.14731122,50.965224728,22,5,8.327,62.538171620644,41.0105,12.1689536,47.14731122,7.158208,9.842536,-6.263432,57.9, -11.6, 3.5,0,0,1684,1024,1684,1024,100,0,100,0,64.4,0,0,98,4.174,4.178,0,0,0,0,5.615,80.06,62.538171620644,41.0105,6,P-GPS,
9200,2023-12-29 04:25:56,-34.9577389454974,-54.9433136531065,41.994752,41.174542,22.347881620644,63.522423620644,39.698164,12.6610804,48.937665608,52.75918804,22,5,8.327,63.522423620644,41.994752,12.6610804,48.937665608,7.381902,10.289924,-6.487126,57.4, -10, 2.5,0,0,1684,1024,1684,1024,100,0,100,0,64.4,0,0,98,4.174,4.178,0,0,0,0,5.615,80.06,63.522423620644,41.994752,6,P-GPS,
9300,2023-12-29 04:25:56,-34.9577358233142,-54.9433083633865,42.979004,42.0603688,22.446306820644,64.506675620644,39.698164,12.974252,50.883203728,54.708335084,22,5,8.327,64.506675620644,42.979004,12.974252,50.883203728,7.605596,10.513618,-6.487126,57.9, -8.5, 1.4,0,0,1684,1024,1684,1024,100,0,100,0,64.4,0,0,98,4.174,4.178,0,0,0,0,5.615,80.06,64.506675620644,42.979004,6,P-GPS,
9400,2023-12-29 04:25:56,-34.9577328696165,-54.943303193144,43.635172,42.6837284,22.479115220644,65.162843620644,39.698164,13.1532072,52.76246888,56.59284958,22,5,8.327,65.162843620644,43.635172,13.1532072,52.76246888,7.605596,10.737312,-6.487126,57.9, -8.8, 0,0,0,1684,1024,1684,1024,100,0,100,0,64.4,0,0,98,4.174,4.178,0,0,0,0,5.615,80.06,65.162843620644,43.635172,6,P-GPS,
9500,2023-12-29 04:25:56,-34.9577293205335,-54.9432979362359,44.619424,43.6679804,22.479115220644,66.147095620644,39.698164,13.4663788,54.798886268,58.629595052,22,5,8.368,66.147095620644,44.619424,13.4663788,54.798886268,7.82929,10.961006,-6.487126,57.8, -9.6, 0.8,0,0,1684,1024,1684,1024,100,0,100,0,64.4,0,0,98,4.177,4.17,0,0,0,0,5.015,80.24,66.147095620644,44.619424,6,P-GPS,
9600,2023-12-29 04:25:56,-34.9577262331209,-54.9432923993134,45.603676,44.5538072,22.577540420644,67.131347620644,39.698164,13.8466586,56.794293156,60.631891704,22,5,8.368,67.131347620644,45.603676,13.8466586,56.794293156,7.82929,11.408394,-6.487126,58.1, -7.1, 1.3,0,0,1684,1024,1684,1024,100,0,100,0,64.4,0,0,98,4.177,4.17,0,0,0,0,5.015,80.24,67.131347620644,45.603676,6,P-GPS,
9700,2023-12-29 04:25:57,-34.9577229008164,-54.9432863520973,46.587928,45.439634,22.675965620644,68.115599620644,39.698164,14.3387854,58.965224984,62.811025632,22,5,8.368,68.115599620644,46.587928,14.3387854,58.965224984,8.052984,11.855782,-6.487126,58.2, -6.2, 1.3,0,0,1684,1024,1684,1024,100,0,100,0,64.4,0,0,98,4.177,4.17,0,0,0,0,5.015,80.24,68.115599620644,46.587928,6,P-GPS,
9800,2023-12-29 04:25:57,-34.957719674452,-54.943280315261,47.57218,46.3582692,22.741582420644,69.099851620644,39.698164,14.5177406,61.110238176,64.965881344,22,5,8.368,69.099851620644,47.57218,14.5177406,61.110238176,8.052984,12.079476,-6.487126,58, -3.8, 0.7,0,0,1684,1024,1684,1024,100,0,100,0,64.4,0,0,98,4.177,4.17,0,0,0,0,5.015,80.24,69.099851620644,47.57218,6,P-GPS,
9900,2023-12-29 04:25:57,-34.9577162663402,-54.943273770389,48.556432,47.2769044,22.807199220644,70.084103620644,39.698164,14.6966958,63.416340612,67.284779056,22,5,8.368,70.084103620644,48.556432,14.6966958,63.416340612,8.052984,12.30317,-6.487126,57.9, -2.3, -0.1,0,0,1684,1024,1684,1024,100,0,100,0,64.4,0,0,98,4.177,4.17,0,0,0,0,5.015,80.24,70.084103620644,48.556432,6,P-GPS,
10000,2023-12-29 04:25:57,-34.9577127326558,-54.9432671600814,49.540684,48.1299228,22.938432820644,71.068355620644,39.698164,14.8980204,65.767062472,69.644687268,22,5,8.368,71.068355620644,49.540684,14.8980204,65.767062472,8.052984,12.526864,-6.71082,57.8, -1.6, -0.1,0,0,1684,1024,1684,1024,100,0,100,0,64.4,0,0,98,4.177,4.17,0,0,0,0,5.015,80.24,71.068355620644,49.540684,6,P-GPS,
10100,2023-12-29 04:25:57,-34.9577094598742,-54.9432607700389,50.524936,49.048558,23.004049620644,72.052607620644,39.698164,15.0098674,68.007548108,71.897640096,22,5,8.368,72.052607620644,50.524936,15.0098674,68.007548108,8.276678,12.526864,-6.71082,57.9, -2, -0.5,0,0,1684,1024,1525,1024,100,0,76,0,64.4,0,0,98,4.177,4.17,0,0,0,0,5.015,80.24,72.052607620644,50.524936,6,P-GPS,
10200,2023-12-29 04:25:57,-34.9577062182415,-54.9432546527252,51.509188,49.9343848,23.102474820644,73.036859620644,39.698164,15.0098674,70.177823768,74.076117856,22,5,8.368,73.036859620644,51.509188,15.0098674,70.177823768,8.276678,12.526864,-6.71082,57.9, -2, 0,0,0,1613,1024,1024,1024,89,0,0,0,64.4,0,0,98,4.177,4.17,0,0,0,0,5.015,80.24,73.036859620644,51.509188,6,P-GPS,
10300,2023-12-29 04:25:57,-34.957702681209,-54.9432481726303,52.49344,50.7874032,23.233708420644,74.021111620644,39.698164,15.211192,72.50000232,76.40420192,22,5,8.368,74.021111620644,52.49344,15.211192,72.50000232,8.276678,12.750558,-6.263432,58, -1.5, -0.4,0,0,1024,1024,1024,1024,0,0,0,0,64.4,0,0,98,4.177,4.17,0,0,0,0,5.015,80.24,74.021111620644,52.49344,6,P-GPS,
10400,2023-12-29 04:25:57,-34.9576991352266,-54.9432422666967,53.149608,51.3779544,23.299325220644,74.677279620644,39.698164,15.211192,74.688650684,78.593178368,22,5,8.368,74.677279620644,53.149608,15.211192,74.688650684,8.276678,12.750558,-5.59235,57.9, 2.9, -0.1,0,0,1024,1024,1024,1024,0,0,0,0,64.4,0,0,98,4.177,4.17,0,0,0,0,5.015,80.24,74.677279620644,53.149608,6,P-GPS,
10500,2023-12-29 04:25:57,-34.9576955573137,-54.9432356692148,53.805776,51.9356972,23.397750420644,75.333447620644,39.698164,15.0098674,77.048230812,80.958992092,22,5,8.316,75.333447620644,53.805776,15.211192,77.048230812,8.276678,12.526864,-4.697574,57.8, 19.3, -0.1,0,0,1024,1024,1024,1024,0,0,0,0,64.4,0,0,97,4.174,4.185,0,0,0,0,5.578,80.24,75.333447620644,53.805776,6,P-GPS,
10600,2023-12-29 04:25:57,-34.9576923234063,-54.9432296553437,54.461944,52.5262484,23.463367220644,75.989615620644,39.698164,14.5177406,79.193572088,83.109582712,22,5,8.316,75.989615620644,54.461944,15.211192,79.193572088,8.052984,12.079476,-4.026492,57.7, 19.1, 0,0,0,1024,1024,1024,1024,0,0,0,0,64.4,0,0,97,4.174,4.185,0,0,0,0,5.578,80.24,75.989615620644,54.461944,6,P-GPS,
10700,2023-12-29 04:25:58,-34.9576891060439,-54.9432236210684,54.790028,52.7559072,23.561792420644,76.317699620644,39.698164,14.0256138,81.3402257,85.262141836,22,5,8.316,76.317699620644,54.790028,15.211192,81.3402257,7.82929,11.632088,-3.131716,57.8, 19.6, 0.4,0,0,1024,1024,1024,1024,0,0,0,0,64.3,0,0,97,4.174,4.185,0,0,0,0,5.578,80.24,76.317699620644,54.790028,6,P-GPS,
10800,2023-12-29 04:25:58,-34.9576859186839,-54.9432182784041,55.446196,53.31365,23.660217620644,76.973867620644,39.698164,13.5782258,83.315619464,87.238191768,22,5,8.316,76.973867620644,55.446196,15.211192,83.315619464,7.381902,11.408394,-2.23694,57.9, 19.6, 0.7,0,0,1024,1024,1024,1024,0,0,0,0,64.4,0,0,97,4.174,4.185,0,0,0,0,5.578,80.24,76.973867620644,55.446196,6,P-GPS,
10900,2023-12-29 04:25:58,-34.957682859945,-54.943212525084,55.446196,53.2480332,23.725834420644,76.973867620644,39.698164,13.086099,85.36089512,89.289044852,22,5,8.316,76.973867620644,55.446196,15.211192,85.36089512,7.158208,10.961006,-1.565858,57.9, 19.2, 0.2,0,0,1024,1024,1024,1024,0,0,0,0,64.4,0,0,97,4.174,4.185,0,0,0,0,5.578,80.24,76.973867620644,55.446196,6,P-GPS,
11000,2023-12-29 04:25:58,-34.957680101426,-54.94320725858,55.77428,53.4448836,23.857068020644,77.301951620644,39.698164,12.5939722,87.224084156,91.157811316,22,5,8.316,77.301951620644,55.77428,15.211192,87.224084156,6.934514,10.513618,-0.894776,57.8, 19.2, 0.2,0,0,1024,1024,1024,1024,0,0,0,0,64.4,0,0,97,4.174,4.185,0,0,0,0,5.578,80.24,77.301951620644,55.77428,6,P-GPS,
11100,2023-12-29 04:25:58,-34.9576773591915,-54.9432019543618,55.77428,53.3792668,23.922684820644,77.301951620644,39.698164,12.1018454,89.09285062,93.03313946,22,5,8.316,77.301951620644,55.77428,15.211192,89.09285062,6.71082,10.06623,-0.447388,57.8, 18.9, 0,0,0,1024,1024,1024,1024,0,0,0,0,64.3,0,0,97,4.174,4.185,0,0,0,0,5.578,80.24,77.301951620644,55.77428,6,P-GPS,
11200,2023-12-29 04:25:58,-34.9576756711855,-54.9431977613371,55.77428,53.2808416,24.021110020644,77.301951620644,39.698164,11.4755022,90.465554076,94.430121132,22,5,8.316,77.301951620644,55.77428,15.211192,90.465554076,6.263432,9.618842,-0.223694,57.6, 18.7, 0.3,0,0,1024,1024,1024,1024,0,0,0,0,64.3,0,0,97,4.174,4.185,0,0,0,0,5.578,80.24,77.301951620644,55.77428,6,P-GPS,
11300,2023-12-29 04:25:58,-34.957673509172,-54.9431931555242,55.77428,53.149608,24.152343620644,77.301951620644,39.698164,10.9833754,92.041341528,96.01706344,22,5,8.316,77.301951620644,55.77428,15.211192,92.041341528,6.039738,9.171454,0,57.6, 18.9, -0.3,0,0,1024,1024,1024,1024,0,0,0,0,64.4,0,0,97,4.174,4.185,0,0,0,0,5.578,80.24,77.301951620644,55.77428,6,P-GPS,
11400,2023-12-29 04:25:58,-34.9576716051432,-54.9431888663111,55.77428,53.0839912,24.217960420644,77.301951620644,39.698164,10.178077,93.485239212,97.475724904,22,5,8.316,77.301951620644,55.77428,15.211192,93.485239212,5.59235,8.500372,0,57.8, 18.6, -0.5,0,0,1024,1024,1024,1024,0,0,0,0,64.3,0,0,97,4.174,4.185,0,0,0,0,5.578,80.24,77.301951620644,55.77428,6,P-GPS,
11500,2023-12-29 04:25:58,-34.9576697058043,-54.943184477314,55.77428,52.9527576,24.349194020644,77.301951620644,39.698164,9.6859502,94.952758944,98.95997692,22,5,8.316,77.301951620644,55.77428,15.211192,94.952758944,5.368656,8.052984,0,57.8, 18.9, 0,0,0,1024,1024,1024,1024,0,0,0,0,64.4,0,0,97,4.193,4.186,0,0,0,0,5.578,80.24,77.301951620644,55.77428,6,P-GPS,
11600,2023-12-29 04:25:58,-34.957668000615,-54.9431805837253,55.77428,52.9199492,24.382002420644,77.301951620644,39.698164,9.171454,96.259189432,100.279858852,22,5,8.316,77.301951620644,55.77428,15.211192,96.259189432,5.144962,7.605596,0,57.7, 19, -0.2,0,0,1024,1024,1024,1024,0,0,0,0,64.4,0,0,97,4.193,4.186,0,0,0,0,5.578,80.24,77.301951620644,55.77428,6,P-GPS,
11700,2023-12-29 04:25:59,-34.9576669160192,-54.9431765150492,55.77428,52.7887156,24.513236020644,77.301951620644,39.698164,8.5674802,97.47539682,101.559386452,22,5,8.316,77.301951620644,55.77428,15.211192,97.47539682,4.697574,7.158208,0,58, 19.3, 0.5,0,0,1024,1024,1024,1024,0,0,0,0,64.3,0,0,97,4.193,4.186,0,0,0,0,5.578,80.24,77.301951620644,55.77428,6,P-GPS,
11800,2023-12-29 04:25:59,-34.9576655529594,-54.9431730494265,55.77428,52.6902904,24.611661220644,77.301951620644,39.698164,7.941137,98.605974284,102.708664704,22,5,8.316,77.301951620644,55.77428,15.211192,98.605974284,4.250186,6.71082,0,58, 18.9, 0.6,0,0,1024,1024,1024,1024,0,0,0,0,64.4,0,0,97,4.193,4.186,0,0,0,0,5.578,80.24,77.301951620644,55.77428,6,P-GPS,
11900,2023-12-29 04:25:59,-34.9576643321085,-54.9431695942358,55.77428,52.6246736,24.677278020644,77.301951620644,39.698164,7.5161184,99.704399516,103.833992824,22,5,8.316,77.301951620644,55.77428,15.211192,99.704399516,3.802798,6.487126,0,58, 18.9, 0.6,0,0,1024,1024,1024,1024,0,0,0,0,64.3,0,0,97,4.193,4.186,0,0,0,0,5.578,80.24,77.301951620644,55.77428,6,P-GPS,
12000,2023-12-29 04:25:59,-34.9576632809283,-54.9431665170667,55.77428,52.5590568,24.742894820644,77.301951620644,39.698164,7.0239916,100.675528156,104.830712016,22,5,8.316,77.301951620644,55.77428,15.211192,100.675528156,3.579104,6.039738,0,58, 19.1, 0,0,0,1024,1024,1024,1024,0,0,0,0,64.4,0,0,97,4.193,4.186,0,0,0,0,5.578,80.24,77.301951620644,55.77428,6,P-GPS,
12100,2023-12-29 04:25:59,-34.9576630290406,-54.9431633458835,56.102364,52.7230988,24.906936820644,77.630035620644,39.698164,6.5318648,101.5009875,105.783467952,22,5,8.316,77.630035620644,56.102364,15.211192,101.5009875,3.35541,5.59235,0,58.1, 19.2, 0.1,0,0,1024,1024,1024,1024,0,0,0,0,64.3,0,0,97,4.193,4.186,0,0,0,0,5.578,80.24,77.630035620644,56.102364,6,P-GPS,
12200,2023-12-29 04:25:59,-34.9576622279243,-54.9431606334188,56.102364,52.6902904,24.939745220644,77.630035620644,39.698164,5.9055216,102.331696188,106.645672704,22,5,8.316,77.630035620644,56.102364,15.211192,102.331696188,2.908022,5.144962,0,58.1, 19.7, 0,0,0,1024,1024,1024,1024,0,0,0,0,64.4,0,0,97,4.193,4.186,0,0,0,0,5.578,80.24,77.630035620644,56.102364,6,P-GPS,
12300,2023-12-29 04:25:59,-34.9576615157081,-54.9431579631006,56.102364,52.5590568,25.070978820644,77.630035620644,39.698164,5.5028724,103.134189652,107.48523966,22,5,8.316,77.630035620644,56.102364,15.211192,103.134189652,2.460634,4.921268,0,58.1, 19.6, -0.5,0,0,1024,1024,1024,1024,0,0,0,0,64.3,0,0,97,4.193,4.186,0,0,0,0,5.578,80.24,77.630035620644,56.102364,6,P-GPS,
12400,2023-12-29 04:25:59,-34.9576609088977,-54.9431555933474,56.102364,52.5262484,25.103787220644,77.630035620644,39.698164,5.0107456,103.841538756,108.227693752,22,5,8.316,77.630035620644,56.102364,15.211192,103.841538756,2.23694,4.47388,0.223694,58.1, 19.5, -0.2,0,0,1024,1024,1024,1024,0,0,0,0,64.4,0,0,97,4.193,4.186,0,0,0,0,5.578,80.24,77.630035620644,56.102364,6,P-GPS,
12500,2023-12-29 04:25:59,-34.9576607881193,-54.9431529935868,56.102364,52.3950148,25.235020820644,77.630035620644,39.698164,4.4067718,104.50459652,109.006237084,22,5,8.445,77.630035620644,56.102364,15.211192,104.50459652,1.789552,4.026492,0,58.1, 19.6, -0.5,0,0,1024,1024,1024,1024,0,0,0,0,64.4,0,0,97,4.182,4.175,0,0,0,0,3.803,80.24,77.630035620644,56.102364,6,P-GPS,
12600,2023-12-29 04:25:59,-34.9576603443878,-54.9431510055136,56.102364,52.3622064,25.267829220644,77.630035620644,39.698164,4.1159696,105.085633284,109.622378836,22,5,8.445,77.630035620644,56.102364,15.211192,105.085633284,1.565858,3.802798,0,58.2, 18.8, -0.4,0,0,1024,1024,1024,1024,0,0,0,0,64.3,0,0,97,4.182,4.175,0,0,0,0,3.803,80.24,77.630035620644,56.102364,6,P-GPS,
12700,2023-12-29 04:26:00,-34.9576599584987,-54.9431491194197,56.102364,52.2637812,25.366254420644,77.630035620644,39.698164,3.7580592,105.62992464,110.203743684,22,5,8.445,77.630035620644,56.102364,15.211192,105.62992464,1.11847,3.579104,0,58, 19.4, -1.2,0,0,1024,1024,1024,1024,0,0,0,0,64.4,0,0,97,4.182,4.175,0,0,0,0,3.803,80.24,77.630035620644,56.102364,6,P-GPS,
12800,2023-12-29 04:26:00,-34.957659705217,-54.9431474410057,56.102364,52.1981644,25.431871220644,77.630035620644,39.698164,3.2659324,106.09580392,110.713914304,22,5,8.445,77.630035620644,56.102364,15.211192,106.09580392,0.894776,3.131716,0.223694,57.8, 19.7, -1.9,0,0,1024,1024,1024,1024,0,0,0,0,64.3,0,0,97,4.182,4.175,0,0,0,0,3.803,80.24,77.630035620644,56.102364,6,P-GPS,
12900,2023-12-29 04:26:00,-34.9576597877205,-54.9431456091419,56.102364,52.165356,25.464679620644,77.630035620644,39.698164,2.9751302,106.531171388,111.262798836,22,5,8.445,77.630035620644,56.102364,15.211192,106.531171388,0.671082,2.908022,0.223694,57.7, 19.3, -2.1,0,0,1066,1024,1024,1024,6,0,0,0,64.3,0,0,97,4.182,4.175,0,0,0,0,3.803,80.24,77.630035620644,56.102364,6,P-GPS,
13000,2023-12-29 04:26:00,-34.9576597813501,-54.943144170101,56.102364,52.0669308,25.563104820644,77.630035620644,39.698164,2.7290668,106.888782948,111.69291696,22,5,8.445,77.630035620644,56.102364,15.211192,106.888782948,0.447388,2.684328,0.223694,57.8, 19.1, -2.2,0,0,1066,1024,1024,1024,6,0,0,0,64.4,0,0,97,4.182,4.175,0,0,0,0,3.803,80.24,77.630035620644,56.102364,6,P-GPS,
13100,2023-12-29 04:26:00,-34.9576598929571,-54.943142778224,56.430448,52.3622064,25.595913220644,77.958119620644,39.698164,2.2816788,107.210961436,112.11122406,22,5,8.445,77.958119620644,56.430448,15.211192,107.210961436,0.447388,2.23694,0.223694,55.7, 18.7, -2.7,0,0,1487,1024,1024,1024,70,0,0,0,64.4,0,0,97,4.182,4.175,0,0,0,0,3.803,80.24,77.958119620644,56.430448,6,P-GPS,
13200,2023-12-29 04:26:00,-34.9576600434253,-54.9431415917063,56.430448,52.329398,25.628721620644,77.958119620644,39.698164,2.2816788,107.474740972,112.470147956,22,5,8.445,77.958119620644,56.430448,15.211192,107.474740972,0.223694,2.013246,0.223694,55.4, 15.7, -2.5,0,0,1684,1024,1024,1024,100,0,0,0,64.4,0,0,97,4.182,4.175,0,0,0,0,3.803,80.24,77.958119620644,56.430448,6,P-GPS,
13300,2023-12-29 04:26:00,-34.9576601952875,-54.9431404398506,56.430448,52.2309728,25.727146820644,77.958119620644,39.698164,2.0356154,107.730318408,112.818901248,22,5,8.445,77.958119620644,56.430448,15.211192,107.730318408,0.223694,2.013246,0,56.2, 3.8, -3.2,0,0,1684,1024,1024,1024,100,0,0,0,64.4,0,0,97,4.182,4.175,0,0,0,0,3.803,80.24,77.958119620644,56.430448,6,P-GPS,
13400,2023-12-29 04:26:00,-34.957661205965,-54.9431388900919,56.102364,51.837272,25.792763620644,77.630035620644,39.698164,2.2816788,107.912733112,113.411092868,22,5,8.445,77.958119620644,56.430448,15.211192,107.912733112,0.447388,2.23694,0,56.3, -3.3, -2.7,0,0,1684,1024,1024,1024,100,0,0,0,64.4,0,0,97,4.182,4.175,0,0,0,0,3.803,80.24,77.630035620644,56.102364,6,P-GPS,
13500,2023-12-29 04:26:00,-34.957661251353,-54.9431376499503,56.102364,51.8044636,25.825572020644,77.630035620644,39.698164,2.7738056,108.213258056,113.782483956,22,5,8.359,77.958119620644,56.430448,15.211192,108.213258056,0.671082,2.684328,0,56.3, -3.7, -1.8,0,0,1684,1024,1033,1071,100,0,1,7,64.4,0,0,97,4.178,4.177,0,0,0,0,4.681,80.24,77.630035620644,56.102364,6,P-GPS,
13600,2023-12-29 04:26:00,-34.9576611029692,-54.9431362386308,55.77428,51.3779544,25.923997220644,77.301951620644,39.698164,3.0422384,108.595804,114.208008904,22,5,8.359,77.958119620644,56.430448,15.211192,108.595804,0.894776,2.908022,0,56.3, -5.9, -2.4,0,0,1684,1024,1684,1098,100,0,100,11,64.4,0,0,97,4.178,4.177,0,0,0,0,4.681,80.24,77.301951620644,55.77428,6,P-GPS,
13700,2023-12-29 04:26:01,-34.957660747343,-54.9431345242585,55.446196,51.017062,25.956805620644,76.973867620644,39.698164,3.6238428,109.0961321,114.736552228,22,5,8.359,77.958119620644,56.430448,15.211192,109.0961321,1.342164,3.35541,0,56.2, -5.8, -2.2,0,0,1684,1024,1684,1414,100,0,100,59,64.4,0,0,97,4.178,4.177,0,0,0,0,4.681,80.24,76.973867620644,55.446196,6,P-GPS,
13800,2023-12-29 04:26:01,-34.9576604467453,-54.9431322565681,55.118112,50.5905528,26.055230820644,76.645783620644,39.698164,4.4067718,109.72441296,115.423560124,22,5,8.359,77.958119620644,56.430448,15.211192,109.72441296,1.789552,4.026492,0,56.3, -7.6, -2.5,0,0,1684,1024,1684,1535,100,0,100,77,64.6,0,0,97,4.178,4.177,0,0,0,0,4.681,80.24,76.645783620644,55.118112,6,P-GPS,
13900,2023-12-29 04:26:01,-34.9576596603632,-54.9431300612333,55.118112,50.524936,26.120847620644,76.645783620644,39.698164,5.0107456,110.43143398,116.14009558,22,5,8.359,77.958119620644,56.430448,15.211192,110.43143398,2.23694,4.47388,-0.447388,56.8, -5, -1.7,0,0,1684,1024,1684,1535,100,0,100,77,65.6,0,0,97,4.178,4.177,0,0,0,0,4.681,80.24,76.645783620644,55.118112,6,P-GPS,
14000,2023-12-29 04:26:01,-34.9576587502714,-54.9431276624417,55.118112,50.4921276,26.153656020644,76.645783620644,39.698164,5.6147194,111.21391432,116.930449936,22,5,8.359,77.958119620644,56.430448,15.211192,111.21391432,2.684328,4.921268,-1.11847,58, -2.9, -1.9,0,0,1684,1024,1684,1476,100,0,100,68,67.9,0,0,97,4.178,4.177,0,0,0,0,4.681,80.24,76.645783620644,55.118112,6,P-GPS,
14100,2023-12-29 04:26:01,-34.9576576592009,-54.9431248653079,55.446196,50.7217864,26.252081220644,76.973867620644,39.698164,6.1068462,112.132877604,117.856631068,22,5,8.359,77.958119620644,56.430448,15.211192,112.132877604,2.908022,5.368656,-1.789552,60.6, -1.7, -0.6,0,0,1684,1024,1684,1074,100,0,100,8,70.7,0,0,97,4.178,4.177,0,0,0,0,4.681,80.24,76.973867620644,55.446196,6,P-GPS,
14200,2023-12-29 04:26:01,-34.9576562080359,-54.943121486633,55.77428,50.9842536,26.317698020644,77.301951620644,39.698164,6.598973,113.269032496,118.997379136,22,5,8.359,77.958119620644,56.430448,15.211192,113.269032496,3.131716,5.816044,-2.460634,63.2, -2.6, -0.5,0,0,1684,1024,1684,1048,100,0,100,4,72.1,0,0,97,4.178,4.177,0,0,0,0,4.681,80.24,77.301951620644,55.77428,6,P-GPS,
14300,2023-12-29 04:26:01,-34.9576548207709,-54.943118270941,56.102364,51.2139124,26.416123220644,77.630035620644,39.698164,7.1134692,114.351381612,120.083993344,22,5,8.359,77.958119620644,56.430448,15.211192,114.351381612,3.35541,6.263432,-3.35541,63.9, -1.8, -1.4,0,0,1684,1024,1684,1172,100,0,100,22,72.6,0,0,97,4.178,4.177,0,0,0,0,4.681,80.24,77.630035620644,56.102364,6,P-GPS,
14400,2023-12-29 04:26:01,-34.9576533686158,-54.9431149998482,56.758532,51.837272,26.448931620644,78.286203620644,39.698164,7.605596,115.4609617,121.196526188,22,5,8.359,78.286203620644,56.758532,15.211192,115.4609617,3.579104,6.71082,-4.250186,64.1, -0.2, -1.3,0,0,1684,1024,1684,1238,100,0,100,32,72.8,0,0,97,4.178,4.177,0,0,0,0,4.681,80.24,78.286203620644,56.758532,6,P-GPS,
14500,2023-12-29 04:26:01,-34.9576517172172,-54.9431113660998,57.742784,52.6902904,26.580165220644,79.270455620644,39.698164,7.9187676,116.700791136,122.438980296,22,5,8.357,79.270455620644,57.742784,15.211192,116.700791136,3.802798,6.934514,-5.144962,64.4, 0.5, -1.2,0,0,1684,1024,1684,1236,100,0,100,32,73.1,0,0,97,4.142,4.132,0,0,0,0,4.969,80.42,79.270455620644,57.742784,6,P-GPS,
14600,2023-12-29 04:26:01,-34.957649590769,-54.9431080272716,58.398952,53.2808416,26.645782020644,79.926623620644,39.698164,8.4108944,117.959977528,123.703087948,22,5,8.357,79.926623620644,58.398952,15.211192,117.959977528,4.026492,7.381902,-5.59235,64.7, 1.6, -0.9,0,0,1684,1024,1684,1205,100,0,100,27,73.7,0,0,97,4.142,4.132,0,0,0,0,4.969,80.42,79.926623620644,58.398952,6,P-GPS,
14700,2023-12-29 04:26:02,-34.9576477761483,-54.9431042916066,59.383204,54.1994768,26.711398820644,80.910875620644,39.698164,8.612219,119.257877832,125.00164442,22,5,8.357,80.910875620644,59.383204,15.211192,119.257877832,4.026492,7.605596,-5.816044,65.4, 0.7, -0.7,0,0,1684,1024,1684,1205,100,0,100,27,74.3,0,0,97,4.142,4.132,0,0,0,0,4.969,80.42,80.910875620644,59.383204,6,P-GPS,
14800,2023-12-29 04:26:02,-34.9576459802221,-54.9431006173424,60.367456,55.118112,26.777015620644,81.895127620644,39.698164,9.1043458,120.53642118,126.280843936,22,5,8.357,81.895127620644,60.367456,15.211192,120.53642118,4.250186,8.052984,-6.039738,65.8, -0.8, -0.4,0,0,1684,1024,1684,1183,100,0,100,24,74.8,0,0,97,4.142,4.132,0,0,0,0,4.969,80.42,81.895127620644,60.367456,6,P-GPS,
14900,2023-12-29 04:26:02,-34.9576440336062,-54.9430965722273,61.679792,56.3320228,26.875440820644,83.207463620644,39.698164,9.3056704,121.937996028,127.68373112,22,5,8.357,83.207463620644,61.679792,15.211192,121.937996028,4.250186,8.276678,-6.487126,66.5, 0.2, -1,0,0,1684,1024,1684,1183,100,0,100,24,75.2,0,0,97,4.142,4.132,0,0,0,0,4.969,80.42,83.207463620644,61.679792,6,P-GPS,
15000,2023-12-29 04:26:02,-34.9576420472041,-54.9430925233074,62.664044,57.250658,26.941057620644,84.191715620644,39.698164,9.7977972,123.348429144,129.094820404,22,5,8.357,84.191715620644,62.664044,15.211192,123.348429144,4.47388,8.724066,-6.487126,67, 0.7, -1,0,0,1684,1024,1684,1183,100,0,100,24,75.6,0,0,97,4.142,4.132,0,0,0,0,4.969,80.42,84.191715620644,62.664044,6,P-GPS,
15100,2023-12-29 04:26:02,-34.9576392869655,-54.9430884149309,63.648296,58.1364848,27.039482820644,85.175967620644,39.698164,9.9991218,124.925857016,130.683075048,22,5,8.357,85.175967620644,63.648296,15.211192,124.925857016,4.47388,8.94776,-6.487126,67.3, -0.6, -2.3,0,0,1684,1024,1684,1183,100,0,100,24,76,0,0,97,4.142,4.132,0,0,0,0,4.969,80.42,85.175967620644,63.648296,6,P-GPS,
15200,2023-12-29 04:26:02,-34.9576372488441,-54.9430842088191,64.632548,59.0223116,27.137908020644,86.160219620644,39.698164,10.3122934,126.3861589,132.144361184,22,5,8.357,86.160219620644,64.632548,15.211192,126.3861589,4.697574,9.171454,-6.71082,67.7, -1.5, -1.1,0,0,1684,1024,1684,1178,100,0,100,23,76.3,0,0,97,4.142,4.132,0,0,0,0,4.969,80.42,86.160219620644,64.632548,6,P-GPS,
15300,2023-12-29 04:26:02,-34.9576351277632,-54.9430797396267,65.6168,59.9081384,27.236333220644,87.144471620644,39.698164,10.513618,127.928809868,133.688652572,22,5,8.357,87.144471620644,65.6168,15.211192,127.928809868,4.697574,9.395148,-6.934514,68.1, 0, -0.3,0,0,1684,1024,1684,1172,100,0,100,22,76.7,0,0,97,4.142,4.132,0,0,0,0,4.969,80.42,87.144471620644,65.6168,6,P-GPS,
15400,2023-12-29 04:26:02,-34.9576330594699,-54.9430753065179,66.601052,60.7611568,27.367566820644,88.128723620644,39.698164,11.0057448,129.452431964,135.213915088,22,5,8.357,88.128723620644,66.601052,15.211192,129.452431964,4.921268,9.842536,-6.934514,68.5, -0.1, 0,0,0,1684,1024,1684,1160,100,0,100,21,77,0,0,97,4.142,4.132,0,0,0,0,4.969,80.42,88.128723620644,66.601052,6,P-GPS,
15500,2023-12-29 04:26:02,-34.9576308384417,-54.9430710832632,67.585304,61.6469836,27.465992020644,89.112975620644,39.698164,11.296547,130.952760096,136.714571304,22,5,8.408,89.112975620644,67.585304,15.211192,130.952760096,5.144962,10.06623,-6.934514,68.9, 0.2, 0.2,0,0,1684,1024,1684,1104,100,0,100,12,77.4,0,0,97,4.153,4.151,0,0,0,0,4.275,80.42,89.112975620644,67.585304,6,P-GPS,
15600,2023-12-29 04:26:02,-34.9576286690937,-54.9430663596034,68.569556,62.500002,27.597225620644,90.097227620644,39.698164,11.4978716,132.569229964,138.333665844,22,5,8.408,90.097227620644,68.569556,15.211192,132.569229964,5.144962,10.289924,-6.71082,69.1, 0.3, 0.4,0,0,1684,1024,1684,1104,100,0,100,12,77.6,0,0,97,4.153,4.151,0,0,0,0,4.275,80.42,90.097227620644,68.569556,6,P-GPS,
15700,2023-12-29 04:26:03,-34.9576263448482,-54.9430612866468,69.553808,63.3858288,27.695650820644,91.081479620644,39.698164,11.8110432,134.304138156,140.071526792,22,5,8.408,91.081479620644,69.553808,15.211192,134.304138156,5.368656,10.513618,-6.487126,69.4, -0.1, 0.4,0,0,1684,1024,1684,1097,100,0,100,11,77.8,0,0,97,4.153,4.151,0,0,0,0,4.275,80.42,91.081479620644,69.553808,6,P-GPS,
15800,2023-12-29 04:26:03,-34.957624052937,-54.9430563478229,70.53806,64.2388472,27.826884420644,92.065731620644,39.698164,12.0123678,135.9990201,141.76837724,22,5,8.408,92.065731620644,70.53806,15.211192,135.9990201,5.368656,10.737312,-6.487126,69.4, -0.5, 0.7,0,0,1684,364,1684,1091,100,-100,100,10,77.9,0,0,97,4.153,4.151,0,0,0,0,4.275,80.42,92.065731620644,70.53806,6,P-GPS,
15900,2023-12-29 04:26:03,-34.9576212781206,-54.9430513192288,71.522312,65.2559076,27.794076020644,93.049983620644,39.698164,12.1018454,137.811028032,143.581369424,22,5,8.408,93.049983620644,71.522312,15.211192,137.811028032,5.59235,10.737312,-6.487126,69.3, 1.1, -3,0,0,1684,364,1684,1088,100,-100,100,10,78.1,0,0,97,4.153,4.151,0,0,0,0,4.275,80.42,93.049983620644,71.522312,6,P-GPS,
