time(millisecond),datetime(utc),latitude,longitude,height_above_takeoff(feet),height_above_ground_at_drone_location(feet),ground_elevation_at_drone_location(feet),altitude_above_seaLevel(feet),height_sonar(feet),speed(mph),distance(feet),mileage(feet),satellites,gpslevel,voltage(v),max_altitude(feet),max_ascent(feet),max_speed(mph),max_distance(feet), xSpeed(mph), ySpeed(mph), zSpeed(mph), compass_heading(degrees), pitch(degrees), roll(degrees),isPhoto,isVideo,rc_elevator,rc_aileron,rc_throttle,rc_rudder,rc_elevator(percent),rc_aileron(percent),rc_throttle(percent),rc_rudder(percent),gimbal_heading(degrees),gimbal_pitch(degrees),gimbal_roll(degrees),battery_percent,voltageCell1,voltageCell2,voltageCell3,voltageCell4,voltageCell5,voltageCell6,current(A),battery_temperature(f),altitude(feet),ascent(feet),flycStateRaw,flycState,message
0,2022-08-25 16:56:46,-34.9217172019378,-56.1530000395702,0,0,79.681162654784,79.681162654784,0.328084,0,0,0,15,4,0,79.681162654784,0,0,0,0,0,0,189.1, -7.9, 5.5,0,0,364,364,364,1684,-100,-100,-100,100,200,0,0,99,4.339,4.338,0,0,0,0,0,77.36,79.681162654784,0,6,P-GPS,"En vuelo Aeronave en Zona de altitud restringida (150). Vuela con precaución (Code: 190001)"
100,2022-08-25 16:56:46,-34.9217176812825,-56.1530000160823,0,0,79.681162654784,79.681162654784,0.328084,0,0.175029861244,0.175029861244,15,4,0,79.681162654784,0,0,0.175029861244,0,0,0,187, -7.8, 6.6,0,0,364,364,364,1684,-100,-100,-100,100,199.8,0,0,99,4.339,4.338,0,0,0,0,0,77.36,79.681162654784,0,41,Motors_Started,
200,2022-08-25 16:56:46,-34.9217181965181,-56.1530000107223,0,0,79.681162654784,79.681162654784,0.328084,0,0.3629757334,0.36301838432,15,4,0,79.681162654784,0,0,0.3629757334,0,0,0,184.4, -8.1, 7.1,0,0,364,364,364,1684,-100,-100,-100,100,197.9,0,0,99,4.339,4.338,0,0,0,0,0,77.36,79.681162654784,0,41,Motors_Started,
300,2022-08-25 16:56:46,-34.9217194432253,-56.1530000599667,0,0,79.681162654784,79.681162654784,0.328084,0,0.81775593168,0.81812010492,15,4,0,79.681162654784,0,0,0.81775593168,0,0,0,186.7, -8.9, 5.1,0,0,364,364,364,1684,-100,-100,-100,100,197.1,0,0,99,4.339,4.338,0,0,0,0,0,77.36,79.681162654784,0,41,Motors_Started,
400,2022-08-25 16:56:47,-34.9217200119728,-56.153000129579,0,0,79.681162654784,79.681162654784,0.328084,0,1.02559386484,1.02666669952,15,4,0,79.681162654784,0,0,1.02559386484,0,0,0,187.7, -7.8, 3.6,0,0,364,364,364,1684,-100,-100,-100,100,198.4,0,0,99,4.339,4.338,0,0,0,0,0,77.36,79.681162654784,0,41,Motors_Started,
500,2022-08-25 16:56:47,-34.921720626273,-56.1530002542919,0,0,79.681162654784,79.681162654784,0.328084,0,1.2510171004,1.25387799288,15,4,0,79.681162654784,0,0,1.2510171004,0,0,0,188.8, -6.9, 3.7,0,0,559,569,364,1653,-70,-69,-100,95,198.9,0,0,99,4.339,4.338,0,0,0,0,0,77.36,79.681162654784,0,41,Motors_Started,
600,2022-08-25 16:56:47,-34.9217212430613,-56.1530003989195,0,0,79.681162654784,79.681162654784,0.328084,0,1.4783136956,1.48303482436,14,4,0,79.681162654784,0,0,1.4783136956,0,0,0,190.6, -5.6, 4,0,0,1024,1018,379,1180,0,-1,-98,24,200.5,0,0,99,4.339,4.338,0,0,0,0,0,77.36,79.681162654784,0,41,Motors_Started,
700,2022-08-25 16:56:47,-34.9217226274892,-56.1530009809313,0,0,79.681162654784,79.681162654784,0.328084,0,1.99943904036,2.01730977584,14,4,0,79.681162654784,0,0,1.99943904036,0,0,0,190.5, -5.7, 4.1,0,0,1024,1018,379,1180,0,-1,-98,24,201.2,0,0,99,4.339,4.338,0,0,0,0,0,77.36,79.681162654784,0,41,Motors_Started,"Setting new Return-To-Home altitude to 100m (328 ft). Data Recorder File Index is 20. Setting new Maximum Flight Altitude to 120m (394 ft)"
800,2022-08-25 16:56:47,-34.921723259427,-56.1530011268897,0,0,79.681162654784,79.681162654784,0.328084,0,2.23388130508,2.251968576,14,4,0,79.681162654784,0,0,2.23388130508,0,0,0,191, -5.5, 4.2,0,0,1024,1024,770,1024,0,0,-38,0,201.6,0,0,99,4.339,4.338,0,0,0,0,0,77.36,79.681162654784,0,41,Motors_Started,
900,2022-08-25 16:56:47,-34.9217237400244,-56.1530012001601,0,0,79.681162654784,79.681162654784,0.328084,0,2.41055125824,2.42868118008,14,4,8.712,79.681162654784,0,0,2.41055125824,0,0,0,191, -5.4, 4.3,0,0,1024,1024,1024,1024,0,0,0,0,201.9,0,0,99,4.339,4.338,0,0,0,0,0.644,77.36,79.681162654784,0,41,Motors_Started,
1000,2022-08-25 16:56:47,-34.9217241677833,-56.1530012341447,0,0,79.681162654784,79.681162654784,0.328084,0,2.5664863026,2.58507882288,14,4,8.712,79.681162654784,0,0,2.5664863026,0,0,0,190.5, -5.4, 4.4,0,0,1024,1024,1024,1024,0,0,0,0,201.9,0,0,99,4.339,4.338,0,0,0,0,0.644,77.36,79.681162654784,0,41,Motors_Started,
1100,2022-08-25 16:56:47,-34.9217245658145,-56.1530011839717,0,0,79.681162654784,79.681162654784,0.328084,0,2.70842856436,2.73107292204,14,4,8.712,79.681162654784,0,0,2.70842856436,0,0,0,190.9, -6.4, 3.8,0,0,1024,1024,1024,1024,0,0,0,0,201.6,0,0,99,4.339,4.338,0,0,0,0,0.644,77.36,79.681162654784,0,41,Motors_Started,
1200,2022-08-25 16:56:47,-34.9217246122793,-56.1530009367033,0,0,79.681162654784,79.681162654784,0.328084,0,2.716945625,2.80696203208,14,4,8.712,79.681162654784,0,0,2.716945625,0,0,0,190.8, -5.9, 4.2,0,0,364,364,536,1215,-100,-100,-74,29,201.9,0,0,99,4.339,4.338,0,0,0,0,0.644,77.36,79.681162654784,0,10,Assisted_Takeoff,
1300,2022-08-25 16:56:47,-34.9217250642474,-56.1530008112224,0,0,79.681162654784,79.681162654784,0.328084,0,2.87783145692,2.97607949156,14,4,8.712,79.681162654784,0,0,2.87783145692,0,0,0,191, -5.6, 4.1,0,0,364,364,364,1684,-100,-100,-100,100,201.9,0,0,99,4.339,4.338,0,0,0,0,0.644,77.36,79.681162654784,0,10,Assisted_Takeoff,
1400,2022-08-25 16:56:48,-34.9217255048653,-56.1530007145646,0,0,79.681162654784,79.681162654784,0.328084,0,3.0360401234,3.1394193918,14,4,8.712,79.681162654784,0,0,3.0360401234,0,0,0,191.3, -5.7, 3.6,0,0,486,613,364,1684,-82,-62,-100,100,201.9,0,0,99,4.339,4.338,0,0,0,0,0.644,77.36,79.681162654784,0,10,Assisted_Takeoff,
1500,2022-08-25 16:56:48,-34.9217259910543,-56.1530006724185,0,0,79.681162654784,79.681162654784,0.328084,0,3.2122868482,3.317257324,14,4,8.712,79.681162654784,0,0,3.2122868482,0,0,0,190.8, -6.1, 3.7,0,0,1024,1024,809,1304,0,0,-33,42,202,0,0,99,4.339,4.338,0,0,0,0,0.644,77.36,79.681162654784,0,10,Assisted_Takeoff,
1600,2022-08-25 16:56:48,-34.9217264955292,-56.1530004279294,0,0,79.681162654784,79.681162654784,0.328084,0,3.3927494524,3.5153216348,14,4,8.712,79.681162654784,0,0,3.3927494524,0,0,0,190.9, -6.3, 3.7,0,0,1024,1024,809,1304,0,0,-33,42,201.8,0,0,99,4.339,4.338,0,0,0,0,0.644,77.36,79.681162654784,0,10,Assisted_Takeoff,
1700,2022-08-25 16:56:48,-34.9217271076063,-56.153000396135,-0.328084,-0.328084,79.681162654784,79.353078654784,0.328084,0,3.615649722,3.7388124556,14,4,8.712,79.681162654784,0,0,3.615649722,0,0,0,191.1, -6.7, 3.5,0,0,1024,1024,1024,1024,0,0,0,0,201.9,0,0,99,4.339,4.338,0,0,0,0,0.644,77.36,79.353078654784,-0.328084,10,Assisted_Takeoff,
1800,2022-08-25 16:56:48,-34.9217276792235,-56.1530003720581,-0.328084,-0.328084,79.681162654784,79.353078654784,0.328084,0,3.8239174452,3.947506688,15,4,8.663,79.681162654784,0,0,3.8239174452,0,0,0,191, -6.3, 3.7,0,0,1024,1024,1024,1024,0,0,0,0,201.9,0,0,99,4.34,4.34,0,0,0,0,1.381,77.36,79.353078654784,-0.328084,10,Assisted_Takeoff,
1900,2022-08-25 16:56:48,-34.9217282694441,-56.1530003613158,-0.328084,-0.328084,79.681162654784,79.353078654784,0.328084,0,4.0391077408,4.1628610256,15,4,8.663,79.681162654784,0,0,4.0391077408,0,0,0,191.1, -6.2, 3.9,0,0,1024,1024,1024,1024,0,0,0,0,202,0,0,99,4.34,4.34,0,0,0,0,1.381,77.36,79.353078654784,-0.328084,10,Assisted_Takeoff,
2000,2022-08-25 16:56:48,-34.9217293883187,-56.1530004949021,-0.328084,-0.328084,79.681162654784,79.353078654784,0.328084,0,4.4482941056,4.5730316424,15,4,8.663,79.681162654784,0,0,4.4482941056,0,0,0,191.2, -6.2, 4,0,0,1024,1024,1024,1024,0,0,0,0,202.1,0,0,99,4.34,4.34,0,0,0,0,1.381,77.36,79.353078654784,-0.328084,10,Assisted_Takeoff,
2100,2022-08-25 16:56:48,-34.9217300543417,-56.1530004912608,-0.328084,-0.29527559999999,79.648354254784,79.353078654784,0.328084,0,4.6911418824,4.8160434612,15,4,8.663,79.681162654784,0,0,4.6911418824,0,0,0,190.9, -6.2, 3.9,0,0,1024,1024,1024,1024,0,0,0,0,202,0,0,99,4.34,4.34,0,0,0,0,1.381,77.36,79.353078654784,-0.328084,10,Assisted_Takeoff,
2200,2022-08-25 16:56:48,-34.9217307266472,-56.1530004814106,-0.328084,-0.29527559999999,79.648354254784,79.353078654784,0.328084,0,4.9362534388,5.061351868,15,4,8.663,79.681162654784,0,0,4.9362534388,0,0,0,191.1, -6.2, 3.7,0,0,1024,1024,1024,1024,0,0,0,0,202,0,0,99,4.34,4.34,0,0,0,0,1.381,77.36,79.353078654784,-0.328084,10,Assisted_Takeoff,
2300,2022-08-25 16:56:48,-34.9217314683277,-56.1530004685422,-0.328084,-0.29527559999999,79.648354254784,79.353078654784,0.328084,0,5.2066602716,5.3319883596,15,4,8.663,79.681162654784,0,0,5.2066602716,0,0,0,191, -6.1, 3.6,0,0,1024,1024,1024,1024,0,0,0,0,202,0,0,99,4.34,4.34,0,0,0,0,1.381,77.36,79.353078654784,-0.328084,10,Assisted_Takeoff,
2400,2022-08-25 16:56:49,-34.9217325179356,-56.1530005416611,-0.328084,-0.328084,79.681162654784,79.353078654784,0.328084,0,5.590059234,5.715551364,15,4,8.663,79.681162654784,0,0,5.590059234,0,0,0,191.1, -6.4, 3.2,0,0,1024,1024,1024,1024,0,0,0,0,202,0,0,99,4.34,4.34,0,0,0,0,1.381,77.36,79.353078654784,-0.328084,10,Assisted_Takeoff,
2500,2022-08-25 16:56:49,-34.9217332306429,-56.1530005392972,-0.328084,-0.328084,79.681162654784,79.353078654784,0.328084,0,5.8499673788,5.9755907424,15,4,8.663,79.681162654784,0,0,5.8499673788,0,0,0,191.3, -6.6, 3.1,0,0,1024,1024,1024,1024,0,0,0,0,202,0,0,99,4.34,4.34,0,0,0,0,1.381,77.36,79.353078654784,-0.328084,10,Assisted_Takeoff,
2600,2022-08-25 16:56:49,-34.9217338904371,-56.1530005391339,-0.328084,-0.328084,79.681162654784,79.353078654784,0.328084,0,6.0906169928,6.2163059732,15,4,8.663,79.681162654784,0,0,6.0906169928,0,0,0,191.5, -6.9, 3,0,0,1024,1024,1255,1024,0,0,35,0,202.2,0,0,99,4.34,4.34,0,0,0,0,1.381,77.36,79.353078654784,-0.328084,10,Assisted_Takeoff,
2700,2022-08-25 16:56:49,-34.9217345946186,-56.1530005849004,-0.328084,-0.328084,79.681162654784,79.353078654784,0.328084,0.223694,6.3478020404,6.473589446,15,4,8.663,79.681162654784,0,0.223694,6.3478020404,-0.223694,0,0,190.4, -7.8, 4.2,0,0,1024,1024,1255,1024,0,0,35,0,202,0,0,99,4.34,4.34,0,0,0,0,1.381,77.36,79.353078654784,-0.328084,10,Assisted_Takeoff,
2800,2022-08-25 16:56:49,-34.9217354048362,-56.1530006438514,0,0,79.681162654784,79.681162654784,0.328084,0.223694,6.6437666168,6.7697180644,15,4,8.663,79.681162654784,0,0.223694,6.6437666168,-0.223694,0,-0.223694,189.6, -7.5, 3.1,0,0,1024,1024,1076,1024,0,0,8,0,201.3,0,0,99,4.34,4.34,0,0,0,0,1.381,77.36,79.681162654784,0,6,P-GPS,
2900,2022-08-25 16:56:49,-34.9217362756011,-56.153000645015,0,0.032808400000005,79.648354254784,79.681162654784,0.328084,0,6.9613847372,7.08743461,15,4,8.683,79.681162654784,0,0.223694,6.9613847372,0,0,0,189.7, -4.7, 2.1,0,0,1024,1024,1024,1024,0,0,0,0,200.8,0,0,99,4.342,4.341,0,0,0,0,1.086,77.36,79.681162654784,0,6,P-GPS,
3000,2022-08-25 16:56:49,-34.9217369440871,-56.1530006726601,0,0.032808400000005,79.648354254784,79.681162654784,0.328084,0,7.2054136164,7.3314634892,15,4,8.683,79.681162654784,0,0.223694,7.2054136164,0,0,0,189.9, -5.1, 1.7,0,0,1024,1024,1024,1024,0,0,0,0,200.8,0,0,99,4.342,4.341,0,0,0,0,1.086,77.36,79.681162654784,0,6,P-GPS,
3100,2022-08-25 16:56:49,-34.9217376277584,-56.1530006870553,0,0.032808400000005,79.648354254784,79.681162654784,0.328084,0,7.4548558816,7.5809385628,15,4,8.683,79.681162654784,0,0.223694,7.4548558816,0,0,0,190.8, -3.7, 2.1,0,0,1024,1024,1090,1024,0,0,10,0,200.8,0,0,99,4.342,4.341,0,0,0,0,1.086,77.36,79.681162654784,0,6,P-GPS,
3200,2022-08-25 16:56:49,-34.9217382868711,-56.1530007215101,0,0.032808400000005,79.648354254784,79.681162654784,0.328084,0,7.695538304,7.8216537936,15,4,8.683,79.681162654784,0,0.223694,7.695538304,0,0,-0.223694,190.9, -2.1, 1.1,0,0,1024,1024,1237,1024,0,0,32,0,200.8,0,0,99,4.342,4.341,0,0,0,0,1.086,77.36,79.681162654784,0,6,P-GPS,
3300,2022-08-25 16:56:49,-34.9217391472709,-56.153000844409,0,0.032808400000005,79.648354254784,79.681162654784,0.328084,0.223694,8.0103677104,8.1376971108,15,4,8.683,79.681162654784,0,0.223694,8.0103677104,-0.223694,0,-0.447388,191.4, 1.4, 0,0,0,1024,1024,1273,1024,0,0,38,0,200.8,0,0,99,4.342,4.341,0,0,0,0,1.086,77.36,79.681162654784,0,6,P-GPS,
3400,2022-08-25 16:56:50,-34.9217398610342,-56.1530009245532,0,0.032808400000005,79.648354254784,79.681162654784,0.328084,0.447388,8.2713913408,8.3992128672,15,4,8.683,79.681162654784,0,0.447388,8.2713913408,-0.447388,0,-0.223694,190.8, 5.4, -1.9,0,0,1024,1024,1348,1024,0,0,49,0,200.8,0,0,99,4.342,4.341,0,0,0,0,1.086,77.36,79.681162654784,0,6,P-GPS,
3500,2022-08-25 16:56:50,-34.9217404895517,-56.1530010131762,0,0.032808400000005,79.648354254784,79.681162654784,0.328084,0.223694,8.50147665,8.6300527696,15,4,8.683,79.681162654784,0,0.447388,8.50147665,-0.223694,0,0,190.5, 5.5, -1.7,0,0,1024,1024,1348,1024,0,0,49,0,200.8,0,0,99,4.342,4.341,0,0,0,0,1.086,77.36,79.681162654784,0,6,P-GPS,
3600,2022-08-25 16:56:50,-34.9217410255556,-56.1530010566767,0,0.032808400000005,79.648354254784,79.681162654784,0.328084,0,8.697342798,8.8260501512,15,5,8.683,79.681162654784,0,0.447388,8.697342798,0,0,-0.223694,190.4, 4.5, -0.6,0,0,1024,1024,1354,1024,0,0,50,0,200.8,0,0,99,4.342,4.341,0,0,0,0,1.086,77.36,79.681162654784,0,6,P-GPS,
3700,2022-08-25 16:56:50,-34.9217413557731,-56.1530011586697,0,0.032808400000005,79.648354254784,79.681162654784,0.328084,0,8.8188651116,8.9503283704,15,5,8.683,79.681162654784,0,0.447388,8.8188651116,0,0,-0.447388,190.5, 3.5, -0.1,0,0,1024,1024,1327,1024,0,0,46,0,200.8,0,0,99,4.342,4.341,0,0,0,0,1.086,77.36,79.681162654784,0,6,P-GPS,
3800,2022-08-25 16:56:50,-34.9217417471159,-56.1530011862233,0,0.032808400000005,79.648354254784,79.681162654784,0.656168,0,8.9618769272,9.093340186,15,5,8.683,79.681162654784,0,0.447388,8.9618769272,0,0,-0.894776,190.6, 3.1, -0.1,0,0,1024,1024,1256,1024,0,0,35,0,200.8,0,0,99,4.342,4.341,0,0,0,0,1.086,77.36,79.681162654784,0,6,P-GPS,
3900,2022-08-25 16:56:50,-34.9217420564144,-56.1530012457254,0.328084,0.36089240000001,79.648354254784,80.009246654784,0.984252,0.223694,9.0753283744,9.2076118432,15,5,8.683,80.009246654784,0.328084,0.447388,9.0753283744,0.223694,0,-1.11847,190.6, 2.6, 0,0,0,1024,1024,1471,1024,0,0,68,0,200.8,0,0,99,4.268,4.262,0,0,0,0,1.086,77.36,80.009246654784,0.328084,6,P-GPS,
4000,2022-08-25 16:56:50,-34.9217422274466,-56.153001279727,0.656168,0.68897640000001,79.648354254784,80.337330654784,0.984252,0.223694,9.1380908436,9.27083363,15,5,8.683,80.337330654784,0.656168,0.447388,9.1380908436,0.223694,0,-1.342164,190.6, 1.8, 0,0,0,1024,1024,1125,917,0,0,15,-16,200.8,0,0,99,4.268,4.262,0,0,0,0,1.086,77.36,80.337330654784,0.656168,6,P-GPS,
4100,2022-08-25 16:56:50,-34.9217416360642,-56.1530013292627,0.656168,0.68897640000001,79.648354254784,80.337330654784,1.312336,0.223694,8.9231302068,9.4871066028,15,5,8.683,80.337330654784,0.656168,0.447388,9.1380908436,0.223694,0,-1.789552,190.5, 2.3, 0.2,0,0,1024,1024,1024,1024,0,0,0,0,200.8,0,0,99,4.268,4.262,0,0,0,0,1.086,77.36,80.337330654784,0.656168,6,P-GPS,
4200,2022-08-25 16:56:50,-34.9217414896882,-56.1530012947923,0.984252,1.0170604,79.648354254784,80.665414654784,1.968504,0.223694,8.8693244308,9.54150293,15,5,8.683,80.665414654784,0.984252,0.447388,9.1380908436,0.223694,0,-2.013246,190.3, 2, 0.3,0,0,1024,1024,1024,1024,0,0,0,0,200.8,0,0,99,4.268,4.262,0,0,0,0,1.086,77.36,80.665414654784,0.984252,6,P-GPS,
4300,2022-08-25 16:56:50,-34.9217411653462,-56.1530012175697,1.312336,1.3451444,79.648354254784,80.993498654784,2.296588,0.447388,8.7501315136,9.6620409916,15,5,8.683,80.993498654784,1.312336,0.447388,9.1380908436,0.447388,0,-1.789552,190.3, 2.8, 0.6,0,0,1024,1024,1024,1024,0,0,0,0,200.8,0,0,99,4.268,4.262,0,0,0,0,1.086,77.36,80.993498654784,1.312336,6,P-GPS,
4400,2022-08-25 16:56:51,-34.9217407846876,-56.1530011649426,1.64042,1.6732284,79.648354254784,81.321582654784,2.624672,0.894776,8.610728622,9.801837584,15,5,8.683,81.321582654784,1.64042,0.894776,9.1380908436,0.894776,0,-1.342164,190.3, 0.6, -0.2,0,0,1024,1024,1024,1024,0,0,0,0,200.8,0,0,99,4.268,4.262,0,0,0,0,1.086,77.36,81.321582654784,1.64042,6,P-GPS,
4500,2022-08-25 16:56:51,-34.9217403731896,-56.1530011528904,1.64042,1.6732284,79.648354254784,81.321582654784,2.624672,0.894776,8.4605645752,9.9520016308,15,5,8.683,81.321582654784,1.64042,0.894776,9.1380908436,0.894776,0,-0.894776,190.4, -0.7, -0.6,0,0,1024,1024,1024,1024,0,0,0,0,200.8,0,0,99,4.268,4.262,0,0,0,0,1.086,77.36,81.321582654784,1.64042,6,P-GPS,
4600,2022-08-25 16:56:51,-34.9217391324504,-56.1530010550128,1.968504,2.0013124,79.648354254784,81.649666654784,2.952756,0.894776,8.0070868704,10.4056433776,15,5,8.683,81.649666654784,1.968504,0.894776,9.1380908436,0.894776,0,-0.447388,190.4, -2.8, -1.5,0,0,1024,1024,1024,1024,0,0,0,0,200.8,0,0,99,4.268,4.262,0,0,0,0,1.086,77.36,81.649666654784,1.968504,6,P-GPS,
4700,2022-08-25 16:56:51,-34.9217392552807,-56.1530011158027,1.968504,2.0013124,79.648354254784,81.649666654784,2.952756,0.671082,8.0525921212,10.4540029592,15,5,8.683,81.649666654784,1.968504,0.894776,9.1380908436,0.671082,0,0,190.4, -2.8, -1.4,0,0,1024,1024,1024,1024,0,0,0,0,200.8,0,0,99,4.268,4.262,0,0,0,0,1.086,77.36,81.649666654784,1.968504,6,P-GPS,
4800,2022-08-25 16:56:51,-34.9217394127626,-56.1530011354208,1.968504,2.0013124,79.648354254784,81.649666654784,2.952756,0.671082,8.11023648,10.5117457432,15,5,8.683,81.649666654784,1.968504,0.894776,9.1380908436,0.671082,0,0,190.4, -2.7, -1,0,0,1024,1024,1024,1024,0,0,0,0,200.8,0,0,99,4.268,4.262,0,0,0,0,1.086,77.36,81.649666654784,1.968504,6,P-GPS,
4900,2022-08-25 16:56:51,-34.9217395977848,-56.1530010929377,1.968504,2.0013124,79.648354254784,81.649666654784,2.952756,0.671082,8.1771984244,10.5804465328,15,5,8.634,81.649666654784,1.968504,0.894776,9.1380908436,0.671082,0,0,190.4, -2.5, -1,0,0,1024,1024,1024,1024,0,0,0,0,200.8,0,0,99,4.283,4.278,0,0,0,0,1.76,77.36,81.649666654784,1.968504,6,P-GPS,
5000,2022-08-25 16:56:51,-34.9217404032392,-56.1530011411517,1.968504,2.0013124,79.648354254784,81.649666654784,2.624672,0.447388,8.4713913472,10.874672264,15,5,8.634,81.649666654784,1.968504,0.894776,9.1380908436,0.447388,0,0,190.3, -2.4, -1,0,0,1024,1024,1024,1024,0,0,0,0,200.8,0,0,99,4.283,4.278,0,0,0,0,1.76,77.36,81.649666654784,1.968504,6,P-GPS,"Punto de origen actualizado. Altitud de RPO establecida en 100m (Code: 3000001)"
5100,2022-08-25 16:56:51,-34.9217403664266,-56.1530011458587,1.968504,2.0013124,79.648354254784,81.649666654784,2.624672,0.223694,8.4580383284,10.8881893248,15,5,8.634,81.649666654784,1.968504,0.894776,9.1380908436,0.223694,0,0,190.3, -1.8, -0.7,0,0,1024,1024,1024,1024,0,0,0,0,200.8,0,0,99,4.283,4.278,0,0,0,0,1.76,77.36,81.649666654784,1.968504,6,P-GPS,
5200,2022-08-25 16:56:51,-34.9217403927504,-56.1530011607385,1.968504,2.0013124,79.648354254784,81.649666654784,2.624672,0.223694,8.4678152316,10.8987536296,15,5,8.634,81.649666654784,1.968504,0.894776,9.1380908436,0.223694,0,0,190.3, -1.4, -0.5,0,0,1024,1024,1024,1024,0,0,0,0,200.8,0,0,99,4.283,4.278,0,0,0,0,1.76,77.36,81.649666654784,1.968504,6,P-GPS,
5300,2022-08-25 16:56:51,-34.9217405177156,-56.1530011947466,1.968504,2.0013124,79.648354254784,81.649666654784,2.624672,0,8.5137798,10.9454727912,15,5,8.634,81.649666654784,1.968504,0.894776,9.1380908436,0,0,0,190.3, -1.2, -0.5,0,0,1024,1024,1024,1024,0,0,0,0,200.8,0,0,99,4.283,4.278,0,0,0,0,1.76,77.36,81.649666654784,1.968504,6,P-GPS,
5400,2022-08-25 16:56:52,-34.9217407998777,-56.1530014520558,1.968504,2.0013124,79.648354254784,81.649666654784,2.624672,0,8.6200462076,11.0740161024,15,5,8.634,81.649666654784,1.968504,0.894776,9.1380908436,0,0,0,190.3, -1, -0.5,0,0,1024,1024,1024,1024,0,0,0,0,200.8,0,0,99,4.283,4.278,0,0,0,0,1.76,77.36,81.649666654784,1.968504,6,P-GPS,
5500,2022-08-25 16:56:52,-34.92174123917,-56.15300151245,1.968504,1.968504,79.681162654784,81.649666654784,2.624672,0,8.7810370264,11.2353021968,15,5,8.634,81.649666654784,1.968504,0.894776,9.1380908436,0,0,0,190.3, -0.5, -0.4,0,0,1024,1024,1024,1024,0,0,0,0,200.8,0,0,99,4.283,4.278,0,0,0,0,1.76,77.36,81.649666654784,1.968504,6,P-GPS,
5600,2022-08-25 16:56:52,-34.9217416744694,-56.153001559576,1.968504,2.0013124,79.648354254784,81.649666654784,2.624672,0,8.9403546168,11.3947510208,15,5,8.634,81.649666654784,1.968504,0.894776,9.1380908436,0,0,0,190.3, -0.6, -0.5,0,0,1226,1024,1024,1024,31,0,0,0,200.8,0,0,99,4.283,4.278,0,0,0,0,1.76,77.36,81.649666654784,1.968504,6,P-GPS,
5700,2022-08-25 16:56:52,-34.9217421336629,-56.1530015821027,1.968504,2.0013124,79.648354254784,81.649666654784,2.624672,0,9.1080383492,11.5624347532,15,5,8.634,81.649666654784,1.968504,0.894776,9.1380908436,0,0,0,190.4, -2.1, -0.2,0,0,1554,1024,1024,1024,80,0,0,0,200.8,0,0,99,4.283,4.278,0,0,0,0,1.76,77.36,81.649666654784,1.968504,6,P-GPS,
5800,2022-08-25 16:56:52,-34.9217425583399,-56.1530014740392,2.296588,2.3293964,79.648354254784,81.977750654784,2.952756,0,9.2612207688,11.7207024748,15,5,8.634,81.977750654784,2.296588,0.894776,9.2612207688,0,0,-0.223694,190.4, -7.1, -0.2,0,0,1684,1024,1024,1024,100,0,0,0,200.8,0,0,99,4.283,4.278,0,0,0,0,1.76,77.36,81.977750654784,2.296588,6,P-GPS,
5900,2022-08-25 16:56:52,-34.9217428919039,-56.1530014576326,2.296588,2.3293964,79.648354254784,81.977750654784,2.952756,0.223694,9.3825790404,11.8424872556,15,5,8.546,81.977750654784,2.296588,0.894776,9.3825790404,-0.223694,0,0,190.5, -16.4, -0.4,0,0,1684,1024,1024,1024,100,0,0,0,200.8,0,0,99,4.265,4.262,0,0,0,0,4.37,77.36,81.977750654784,2.296588,6,P-GPS,
6000,2022-08-25 16:56:52,-34.9217433861008,-56.1530014935071,2.296588,2.3293964,79.648354254784,81.977750654784,3.28084,0.894776,9.5631892824,12.023130306,15,5,8.546,81.977750654784,2.296588,0.894776,9.5631892824,-0.894776,0,0,190.6, -21, -0.5,0,0,1684,1024,1024,1024,100,0,0,0,200.8,0,0,99,4.265,4.262,0,0,0,0,4.37,77.36,81.977750654784,2.296588,6,P-GPS,
6100,2022-08-25 16:56:52,-34.9217441803939,-56.1530016136855,2.296588,2.3293964,79.648354254784,81.977750654784,3.28084,1.5882274,9.854331024,12.3151578744,15,5,8.546,81.977750654784,2.296588,1.5882274,9.854331024,-1.565858,-0.223694,0,190.7, -21.3, -0.6,0,0,1684,1024,1024,1024,100,0,0,0,200.8,0,0,99,4.265,4.262,0,0,0,0,4.37,77.36,81.977750654784,2.296588,6,P-GPS,
6200,2022-08-25 16:56:52,-34.9217452213849,-56.1530017939015,2.296588,2.3293964,79.648354254784,81.977750654784,3.28084,2.5053728,10.2363520336,12.6987536872,14,5,8.546,81.977750654784,2.296588,2.5053728,10.2363520336,-2.460634,-0.447388,0,190.7, -21.3, -0.7,0,0,1329,1024,1024,1024,46,0,0,0,200.8,0,0,99,4.265,4.262,0,0,0,0,4.37,77.36,81.977750654784,2.296588,6,P-GPS,
6300,2022-08-25 16:56:52,-34.9217462998675,-56.1530020295238,2.296588,2.3293964,79.648354254784,81.977750654784,3.28084,3.1540854,10.633038398,13.0984912328,14,5,8.546,81.977750654784,2.296588,3.1540854,10.633038398,-3.131716,-0.447388,0,190.6, -20.3, -0.6,0,0,1150,1024,1024,1024,19,0,0,0,200.8,0,0,99,4.265,4.262,0,0,0,0,4.37,77.36,81.977750654784,2.296588,6,P-GPS,
6400,2022-08-25 16:56:53,-34.9217478408022,-56.1530023021595,2.296588,2.3293964,79.648354254784,81.977750654784,3.28084,3.8699062,11.1990489148,13.6666014872,14,5,8.546,81.977750654784,2.296588,3.8699062,11.1990489148,-3.802798,-0.671082,0,190.5, -12, -0.3,0,0,1150,1024,1024,1024,19,0,0,0,200.8,0,0,99,4.265,4.262,0,0,0,0,4.37,77.36,81.977750654784,2.296588,6,P-GPS,
6500,2022-08-25 16:56:53,-34.9217495624942,-56.1530025682611,2.296588,2.3293964,79.648354254784,81.977750654784,3.28084,4.2949248,11.8309386988,14.2997707988,14,5,8.546,81.977750654784,2.296588,4.2949248,11.8309386988,-4.250186,-0.671082,0,190.5, -4.6, 0,0,0,1176,1024,1024,1024,23,0,0,0,200.8,0,0,99,4.265,4.262,0,0,0,0,4.37,77.36,81.977750654784,2.296588,6,P-GPS,
6600,2022-08-25 16:56:53,-34.9217512509984,-56.1530028503774,1.968504,2.0013124,79.648354254784,81.649666654784,3.608924,4.2949248,12.4512143092,14.921588404,14,5,8.546,81.977750654784,2.296588,4.2949248,12.4512143092,-4.250186,-0.671082,0,190.5, -0.9, 0.5,0,0,1024,1024,1024,1024,0,0,0,0,200.8,0,0,99,4.265,4.262,0,0,0,0,4.37,77.36,81.649666654784,1.968504,6,P-GPS,
6700,2022-08-25 16:56:53,-34.921752687159,-56.1530031398806,1.968504,2.0013124,79.648354254784,81.649666654784,3.608924,4.0712308,12.9799544836,15.4526907832,14,5,8.546,81.977750654784,2.296588,4.2949248,12.9799544836,-4.026492,-0.671082,0,190.3, 0.6, 0.2,0,0,1024,1024,1024,1024,0,0,0,0,200.8,0,0,99,4.265,4.262,0,0,0,0,4.37,77.36,81.649666654784,1.968504,6,P-GPS,
6800,2022-08-25 16:56:53,-34.9217542950879,-56.1530034508004,1.968504,2.0013124,79.648354254784,81.649666654784,3.608924,4.0712308,13.5718180196,16.0466540568,14,5,8.546,81.977750654784,2.296588,4.2949248,13.5718180196,-3.802798,-0.671082,0,190.5, 11.8, 0.5,0,0,1024,1024,1024,1024,0,0,0,0,200.8,0,0,99,4.265,4.262,0,0,0,0,4.37,77.36,81.649666654784,1.968504,6,P-GPS,
6900,2022-08-25 16:56:53,-34.9217557569583,-56.1530037180187,1.968504,2.0013124,79.648354254784,81.649666654784,3.937008,3.1540854,14.109744546,16.5859913444,14,5,8.524,81.977750654784,2.296588,4.2949248,14.109744546,-3.131716,-0.447388,0,190.5, 15.7, 0.1,0,0,1024,1024,1024,1024,0,0,0,0,200.8,0,0,99,4.267,4.262,0,0,0,0,3.848,77.36,81.649666654784,1.968504,6,P-GPS,
7000,2022-08-25 16:56:53,-34.9217569980053,-56.1530039035307,1.968504,2.0013124,79.648354254784,81.649666654784,3.937008,2.460634,14.5655188388,17.042159338,14,5,8.524,81.977750654784,2.296588,4.2949248,14.5655188388,-2.460634,-0.223694,0,190.4, 13.9, 0,0,0,1024,1024,1024,1024,0,0,0,0,200.8,0,0,99,4.267,4.262,0,0,0,0,3.848,77.36,81.649666654784,1.968504,6,P-GPS,
7100,2022-08-25 16:56:53,-34.9217583451291,-56.1530038400242,2.296588,2.3293964,79.648354254784,81.977750654784,3.937008,1.8119214,15.0540687232,17.5340228708,14,5,8.524,81.977750654784,2.296588,4.2949248,15.0540687232,-1.789552,-0.223694,0,190.6, 11.3, 0,0,0,1024,1024,1303,1024,0,0,42,0,200.8,0,0,99,4.267,4.262,0,0,0,0,3.848,77.36,81.977750654784,2.296588,6,P-GPS,
7200,2022-08-25 16:56:53,-34.9217592940299,-56.1530038792056,2.296588,2.3293964,79.648354254784,81.977750654784,3.937008,1.342164,15.4001645348,17.880413958,14,5,8.524,81.977750654784,2.296588,4.2949248,15.4001645348,-1.342164,0,0,190.6, 9, 0,0,0,1024,1024,1575,1024,0,0,83,0,200.8,0,0,99,4.267,4.262,0,0,0,0,3.848,77.36,81.977750654784,2.296588,6,P-GPS,
7300,2022-08-25 16:56:53,-34.921760000032,-56.1530038851481,2.296588,2.3293964,79.648354254784,81.977750654784,3.937008,0.671082,15.6571855404,18.1380255148,14,5,8.524,81.977750654784,2.296588,4.2949248,15.6571855404,-0.671082,0,-0.223694,190.6, 6.9, 0.1,0,0,1024,1024,1465,1024,0,0,67,0,200.8,0,0,99,4.267,4.262,0,0,0,0,3.848,77.36,81.977750654784,2.296588,6,P-GPS,
7400,2022-08-25 16:56:54,-34.9217604490722,-56.1530038417939,2.296588,2.3293964,79.648354254784,81.977750654784,4.265092,0.223694,15.8196527372,18.3023627904,15,5,8.524,81.977750654784,2.296588,4.2949248,15.8196527372,-0.223694,0,-0.894776,190.6, 4.1, 0.1,0,0,1024,1024,1465,1024,0,0,67,0,200.8,0,0,99,4.267,4.262,0,0,0,0,3.848,77.36,81.977750654784,2.296588,6,P-GPS,
7500,2022-08-25 16:56:54,-34.9217601177946,-56.1530034728151,2.624672,2.6574804,79.648354254784,82.305834654784,4.593176,0.223694,15.6914703184,18.466043898,15,5,8.524,82.305834654784,2.624672,4.2949248,15.8196527372,-0.223694,0,-1.789552,190.6, 2.1, 0,0,0,1024,1024,1407,1024,0,0,58,0,200.8,0,0,99,4.267,4.262,0,0,0,0,3.848,77.36,82.305834654784,2.624672,6,P-GPS,
7600,2022-08-25 16:56:54,-34.9217602123746,-56.1530033619358,2.952756,2.9855644,79.648354254784,82.633918654784,4.92126,0,15.7237865924,18.5139113536,15,5,8.524,82.633918654784,2.952756,4.2949248,15.8196527372,0,0,-2.23694,190.5, 1.2, 0.1,0,0,1024,1024,1168,1024,0,0,22,0,200.8,0,0,99,4.267,4.262,0,0,0,0,3.848,77.36,82.633918654784,2.952756,6,P-GPS,
7700,2022-08-25 16:56:54,-34.921760279828,-56.1530032792997,3.28084,3.3136484,79.648354254784,82.962002654784,5.249344,0,15.7467852808,18.5487866828,15,5,8.524,82.962002654784,3.28084,4.2949248,15.8196527372,0,0,-2.23694,190.5, 0.6, -0.1,0,0,1024,1024,1079,1024,0,0,8,0,200.8,0,0,99,4.267,4.262,0,0,0,0,3.848,77.36,82.962002654784,3.28084,6,P-GPS,
7800,2022-08-25 16:56:54,-34.9217603258902,-56.1530032185529,3.608924,3.6417324,79.648354254784,83.290086654784,5.577428,0,15.762467696,18.5735570248,15,5,8.524,83.290086654784,3.608924,4.2949248,15.8196527372,0,0,-1.789552,190.4, 1, 0,0,0,1024,1024,1024,1024,0,0,0,0,200.8,0,0,99,4.267,4.262,0,0,0,0,3.848,77.36,83.290086654784,3.608924,6,P-GPS,
7900,2022-08-25 16:56:54,-34.9217603760267,-56.1530031978847,3.608924,3.6417324,79.648354254784,83.290086654784,5.577428,0,15.780348274,18.592848364,15,5,8.515,83.290086654784,3.608924,4.2949248,15.8196527372,0,0,-1.11847,190.4, 1.2, 0,0,0,1024,1024,1092,1024,0,0,10,0,200.8,0,0,99,4.275,4.267,0,0,0,0,4.025,77.36,83.290086654784,3.608924,6,P-GPS,
8000,2022-08-25 16:56:54,-34.9217600695145,-56.1530032385289,3.608924,3.6417324,79.648354254784,83.290086654784,5.577428,0,15.669455882,18.7053483676,15,5,8.515,83.290086654784,3.608924,4.2949248,15.8196527372,0,0,-0.447388,190.4, 2.3, 0,0,0,1024,1024,1275,1024,0,0,38,0,200.8,0,0,99,4.275,4.267,0,0,0,0,4.025,77.36,83.290086654784,3.608924,6,P-GPS,
8100,2022-08-25 16:56:54,-34.9217602693962,-56.1530032469594,3.937008,3.9698164,79.648354254784,83.618170654784,5.905512,0,15.7424217636,18.7783142492,15,5,8.515,83.618170654784,3.937008,4.2949248,15.8196527372,0,0,-0.223694,190.5, 2.1, 0,0,0,1024,1024,1279,1024,0,0,39,0,200.8,0,0,99,4.275,4.267,0,0,0,0,4.025,77.36,83.618170654784,3.937008,6,P-GPS,
8200,2022-08-25 16:56:54,-34.9217604561038,-56.1530032457683,3.937008,3.9698164,79.648354254784,83.618170654784,5.905512,0,15.81036796,18.8464244876,15,5,8.515,83.618170654784,3.937008,4.2949248,15.8196527372,0,0,-0.447388,190.6, 1.6, -0.2,0,0,1024,1024,1279,1024,0,0,39,0,200.8,0,0,99,4.275,4.267,0,0,0,0,4.025,77.36,83.618170654784,3.937008,6,P-GPS,
8300,2022-08-25 16:56:54,-34.9217606698078,-56.1530032165429,3.937008,3.9698164,79.648354254784,83.618170654784,5.905512,0,15.8876645504,18.9249021804,15,5,8.515,83.618170654784,3.937008,4.2949248,15.8876645504,0,0,-0.894776,190.6, 1.5, -0.4,0,0,1024,1024,1257,1024,0,0,35,0,200.8,0,0,99,4.275,4.267,0,0,0,0,4.025,77.36,83.618170654784,3.937008,6,P-GPS,
8400,2022-08-25 16:56:55,-34.9217612538492,-56.1530032938934,4.265092,4.2979004,79.648354254784,83.946254654784,6.233596,0,16.1017721688,19.1392394576,16,5,8.515,83.946254654784,4.265092,4.2949248,16.1017721688,0,0,-1.11847,190.6, 2, -0.6,0,0,1024,1024,1255,1024,0,0,35,0,200.8,0,0,99,4.275,4.267,0,0,0,0,4.025,77.36,83.946254654784,4.265092,6,P-GPS,
8500,2022-08-25 16:56:55,-34.9217613687034,-56.153003334484,4.265092,4.2979004,79.648354254784,83.946254654784,6.233596,0,16.1443246636,19.1828746296,16,5,8.515,83.946254654784,4.265092,4.2949248,16.1443246636,0,0,-1.11847,190.6, 2, -0.7,0,0,1024,1024,1263,1024,0,0,36,0,200.8,0,0,99,4.275,4.267,0,0,0,0,4.025,77.36,83.946254654784,4.265092,6,P-GPS,
8600,2022-08-25 16:56:55,-34.9217614184426,-56.1530033534622,4.593176,4.6259844,79.648354254784,84.274338654784,6.56168,0,16.1627957928,19.2018706932,16,5,8.515,84.274338654784,4.593176,4.2949248,16.1627957928,0,0,-1.342164,190.5, 1.8, -0.6,0,0,1024,1024,1275,1024,0,0,38,0,200.8,0,0,99,4.275,4.267,0,0,0,0,4.025,77.36,84.274338654784,4.593176,6,P-GPS,
8700,2022-08-25 16:56:55,-34.9217613376913,-56.1530033399172,4.593176,4.6259844,79.648354254784,84.274338654784,6.56168,0,16.1331369992,19.231627912,16,5,8.515,84.274338654784,4.593176,4.2949248,16.1627957928,0,0,-1.342164,190.6, 1.4, -0.3,0,0,1024,1024,1269,1024,0,0,37,0,200.8,0,0,99,4.275,4.267,0,0,0,0,4.025,77.36,84.274338654784,4.593176,6,P-GPS,
8800,2022-08-25 16:56:55,-34.9217610819409,-56.15300355982,4.92126,4.9540684,79.648354254784,84.602422654784,6.889764,0,16.0441934268,19.345801144,16,5,8.515,84.602422654784,4.92126,4.2949248,16.1627957928,0,0,-1.342164,190.5, 1.2, -0.2,0,0,1024,1024,1256,1024,0,0,35,0,200.8,0,0,99,4.275,4.267,0,0,0,0,4.025,77.36,84.602422654784,4.92126,6,P-GPS,
8900,2022-08-25 16:56:55,-34.9217610389337,-56.1530035704643,5.249344,5.2821524,79.648354254784,84.930506654784,7.217848,0,16.0287406704,19.3618116432,16,5,8.445,84.930506654784,5.249344,4.2949248,16.1627957928,0,0,-1.342164,190.6, 1.3, 0.3,0,0,1024,1024,1252,1024,0,0,35,0,200.8,0,0,99,4.253,4.246,0,0,0,0,4.527,77.36,84.930506654784,5.249344,6,P-GPS,
9000,2022-08-25 16:56:55,-34.9217610581265,-56.153003581499,5.249344,5.2821524,79.648354254784,84.930506654784,7.217848,0,16.0359585184,19.3695544256,16,5,8.445,84.930506654784,5.249344,4.2949248,16.1627957928,0,0,-1.342164,190.6, 1.2, 0.7,0,0,1024,1024,1236,1024,0,0,32,0,200.8,0,0,99,4.253,4.246,0,0,0,0,4.527,77.36,84.930506654784,5.249344,6,P-GPS,
9100,2022-08-25 16:56:55,-34.921761223736,-56.1530035919422,5.577428,5.6102364,79.648354254784,85.258590654784,7.545932,0,16.096457208,19.4300531152,16,5,8.445,85.258590654784,5.577428,4.2949248,16.1627957928,0,0,-1.342164,190.5, 1.1, 0.3,0,0,1024,1024,1236,1024,0,0,32,0,200.8,0,0,99,4.253,4.246,0,0,0,0,4.527,77.36,85.258590654784,5.577428,6,P-GPS,
9200,2022-08-25 16:56:55,-34.9217616518377,-56.1530034595,5.905512,5.9383204,79.648354254784,85.586674654784,7.545932,0,16.2497708612,19.5911751676,16,5,8.445,85.586674654784,5.905512,4.2949248,16.2497708612,0,0,-1.342164,190.5, 1.3, -0.4,0,0,1024,1024,1191,1024,0,0,25,0,200.8,0,0,99,4.253,4.246,0,0,0,0,4.527,77.36,85.586674654784,5.905512,6,P-GPS,
9300,2022-08-25 16:56:55,-34.921761649535,-56.1530033999783,5.905512,5.9383204,79.648354254784,85.586674654784,7.874016,0,16.2478023572,19.6090229372,16,5,8.445,85.586674654784,5.905512,4.2949248,16.2497708612,0,0,-1.11847,190.5, 1.2, -1,0,0,1024,1024,1119,1024,0,0,14,0,200.8,0,0,99,4.253,4.246,0,0,0,0,4.527,77.36,85.586674654784,5.905512,6,P-GPS,
9400,2022-08-25 16:56:56,-34.9217616534824,-56.1530033614003,6.233596,6.2664044,79.648354254784,85.914758654784,7.874016,0,16.248524142,19.6206371108,16,5,8.445,85.914758654784,6.233596,4.2949248,16.2497708612,0,0,-0.894776,190.5, 0.7, -1.2,0,0,1024,1024,1024,1024,0,0,0,0,200.8,0,0,99,4.253,4.246,0,0,0,0,4.527,77.36,85.914758654784,6.233596,6,P-GPS,
9500,2022-08-25 16:56:56,-34.9217616908519,-56.1530033730293,6.233596,6.2664044,79.648354254784,85.914758654784,8.2021,0,16.2623692868,19.6347119144,16,5,8.445,85.914758654784,6.233596,4.2949248,16.2623692868,0,0,-0.447388,190.5, 0.4, -1.2,0,0,1024,1024,1024,1024,0,0,0,0,200.8,0,0,99,4.253,4.246,0,0,0,0,4.527,77.36,85.914758654784,6.233596,6,P-GPS,
9600,2022-08-25 16:56:56,-34.9217618628026,-56.1530033806514,6.233596,6.2664044,79.648354254784,85.914758654784,8.2021,0,16.3250989476,19.6974743836,16,5,8.445,85.914758654784,6.233596,4.2949248,16.3250989476,0,0,-0.223694,190.5, 0.3, -1.3,0,0,1024,1024,1024,1024,0,0,0,0,200.8,0,0,99,4.253,4.246,0,0,0,0,4.527,77.36,85.914758654784,6.233596,6,P-GPS,
9700,2022-08-25 16:56:56,-34.9217631575133,-56.153003462466,6.233596,6.2664044,79.648354254784,85.914758654784,8.2021,0,16.7980976504,20.1705058948,16,5,8.445,85.914758654784,6.233596,4.2949248,16.7980976504,0,0,0,190.5, 0.6, -1.2,0,0,1024,1024,1024,1024,0,0,0,0,200.8,0,0,99,4.253,4.246,0,0,0,0,4.527,77.36,85.914758654784,6.233596,6,P-GPS,
9800,2022-08-25 16:56:56,-34.9217635495937,-56.1530034672083,6.233596,6.2992128,79.615545854784,85.914758654784,8.2021,0,16.9409782324,20.3135505188,16,5,8.445,85.914758654784,6.233596,4.2949248,16.9409782324,0,0,0,190.4, 0.6, -0.9,0,0,1024,1024,1024,1024,0,0,0,0,200.8,0,0,99,4.253,4.246,0,0,0,0,4.527,77.36,85.914758654784,6.233596,6,P-GPS,
9900,2022-08-25 16:56:56,-34.921763740962,-56.1530034832936,6.233596,6.2992128,79.615545854784,85.914758654784,8.2021,0,17.0109585496,20.383530836,16,5,8.497,85.914758654784,6.233596,4.2949248,17.0109585496,0,0,0,190.4, 0.4, -0.8,0,0,1024,1024,1024,1024,0,0,0,0,200.8,0,0,99,4.26,4.253,0,0,0,0,4.004,77.54,85.914758654784,6.233596,6,P-GPS,
10000,2022-08-25 16:56:56,-34.9217639154693,-56.1530034995969,6.233596,6.2992128,79.615545854784,85.914758654784,8.2021,0,17.074803696,20.4474087908,15,5,8.497,85.914758654784,6.233596,4.2949248,17.074803696,0,0,0,190.4, 0.4, -0.4,0,0,1024,1024,1024,1024,0,0,0,0,200.8,0,0,99,4.26,4.253,0,0,0,0,4.004,77.54,85.914758654784,6.233596,6,P-GPS,
10100,2022-08-25 16:56:56,-34.9217640624526,-56.1530036471317,6.233596,6.2664044,79.648354254784,85.914758654784,8.2021,0,17.131070102,20.5168641736,15,5,8.497,85.914758654784,6.233596,4.2949248,17.131070102,0,0,0,190.4, 0.6, -0.3,0,0,1024,1024,1024,1024,0,0,0,0,200.8,0,0,99,4.26,4.253,0,0,0,0,4.004,77.54,85.914758654784,6.233596,6,P-GPS,
10200,2022-08-25 16:56:56,-34.9217642075926,-56.1530036667015,6.233596,6.2664044,79.648354254784,85.914758654784,8.2021,0,17.1842853268,20.5701122068,15,5,8.497,85.914758654784,6.233596,4.2949248,17.1842853268,0,0,0,190.4, 0.7, -0.4,0,0,1024,1024,1024,1024,0,0,0,0,200.8,0,0,99,4.26,4.253,0,0,0,0,4.004,77.54,85.914758654784,6.233596,6,P-GPS,
10300,2022-08-25 16:56:56,-34.9217643470981,-56.1530036664077,6.233596,6.2664044,79.648354254784,85.914758654784,8.2021,0,17.23507273,20.6210308436,15,5,8.497,85.914758654784,6.233596,4.2949248,17.23507273,0,0,0,190.5, 0.4, -0.5,0,0,1024,1024,1024,1024,0,0,0,0,200.8,0,0,99,4.26,4.253,0,0,0,0,4.004,77.54,85.914758654784,6.233596,6,P-GPS,
10400,2022-08-25 16:56:57,-34.9217644596757,-56.1530036509676,6.233596,6.2664044,79.648354254784,85.914758654784,8.2021,0,17.2757879544,20.6623694276,15,5,8.497,85.914758654784,6.233596,4.2949248,17.2757879544,0,0,0,190.5, 0.4, -0.5,0,0,1024,1024,1024,1024,0,0,0,0,200.8,0,0,99,4.26,4.253,0,0,0,0,4.004,77.54,85.914758654784,6.233596,6,P-GPS,
10500,2022-08-25 16:56:57,-34.9217643944989,-56.1530035153426,6.233596,6.2664044,79.648354254784,85.914758654784,8.2021,0,17.2495412344,20.7093838648,15,5,8.497,85.914758654784,6.233596,4.2949248,17.2757879544,0,0,0,190.5, 0.4, -0.5,0,0,1024,1024,1024,1024,0,0,0,0,200.8,0,0,99,4.26,4.253,0,0,0,0,4.004,77.54,85.914758654784,6.233596,6,P-GPS,
10600,2022-08-25 16:56:57,-34.9217644456385,-56.1530034784899,6.233596,6.2992128,79.615545854784,85.914758654784,8.2021,0,17.2675202376,20.7310702172,15,5,8.497,85.914758654784,6.233596,4.2949248,17.2757879544,0,0,0,190.5, 0.3, -0.9,0,0,1024,1024,1024,1024,0,0,0,0,200.8,0,0,99,4.26,4.253,0,0,0,0,4.004,77.54,85.914758654784,6.233596,6,P-GPS,
10700,2022-08-25 16:56:57,-34.9217644544452,-56.1530034640542,6.233596,6.2992128,79.615545854784,85.914758654784,8.2021,0,17.2704729936,20.7364507948,15,5,8.497,85.914758654784,6.233596,4.2949248,17.2757879544,0,0,0,190.5, 0.2, -0.8,0,0,1024,1024,1024,1024,0,0,0,0,200.8,0,0,99,4.26,4.253,0,0,0,0,4.004,77.54,85.914758654784,6.233596,6,P-GPS,
10800,2022-08-25 16:56:57,-34.9217644612227,-56.1530034629728,6.56168,6.6272968,79.615545854784,86.242842654784,8.2021,0,17.2729008152,20.7389442332,15,5,8.497,86.242842654784,6.56168,4.2949248,17.2757879544,0,0,0,190.5, 0.2, -0.6,0,0,1024,1024,1024,1024,0,0,0,0,200.8,0,0,99,4.26,4.253,0,0,0,0,4.004,77.54,86.242842654784,6.56168,6,P-GPS,
10900,2022-08-25 16:56:57,-34.9217641965094,-56.1530036037632,6.56168,6.5944884,79.648354254784,86.242842654784,8.2021,0,17.1790687912,20.8442920056,15,5,8.497,86.242842654784,6.56168,4.2949248,17.2757879544,0,0,0,190.4, 0.3, -0.3,0,0,1024,1024,1024,1024,0,0,0,0,200.8,0,0,99,4.26,4.253,0,0,0,0,4.004,77.54,86.242842654784,6.56168,6,P-GPS,
11000,2022-08-25 16:56:57,-34.9217642181905,-56.1530036288105,6.56168,6.5944884,79.648354254784,86.242842654784,8.2021,0,17.1874349332,20.8551843944,15,5,8.497,86.242842654784,6.56168,4.2949248,17.2757879544,0,0,0,190.5, 0.4, 0.2,0,0,1024,1024,1024,1024,0,0,0,0,200.8,0,0,99,4.26,4.253,0,0,0,0,4.004,77.54,86.242842654784,6.56168,6,P-GPS,
11100,2022-08-25 16:56:57,-34.9217642559541,-56.1530036387482,6.56168,6.5944884,79.648354254784,86.242842654784,8.2021,0,17.2013456948,20.8692920064,15,5,8.499,86.242842654784,6.56168,4.2949248,17.2757879544,0,0,0,190.5, 0.4, 0,0,0,1024,1024,1024,1024,0,0,0,0,200.8,0,0,99,4.253,4.248,0,0,0,0,3.866,77.54,86.242842654784,6.56168,6,P-GPS,
11200,2022-08-25 16:56:57,-34.921764313562,-56.1530036689989,6.233596,6.2664044,79.648354254784,85.914758654784,8.2021,0,17.2229008136,20.8921594612,15,5,8.499,86.242842654784,6.56168,4.2949248,17.2757879544,0,0,0,190.5, 0.4, -0.2,0,0,1024,1024,1024,1024,0,0,0,0,200.8,0,0,99,4.253,4.248,0,0,0,0,3.866,77.54,85.914758654784,6.233596,6,P-GPS,
11300,2022-08-25 16:56:57,-34.9217644198114,-56.1530037253508,6.233596,6.2664044,79.648354254784,85.914758654784,8.2021,0,17.2626645944,20.9344494888,15,5,8.499,86.242842654784,6.56168,4.2949248,17.2757879544,0,0,0,190.6, 0.3, -0.1,0,0,1024,1024,1024,1024,0,0,0,0,200.8,0,0,99,4.253,4.248,0,0,0,0,3.866,77.54,85.914758654784,6.233596,6,P-GPS,
11400,2022-08-25 16:56:58,-34.9217645545977,-56.1530038793649,6.233596,6.2664044,79.648354254784,85.914758654784,8.2021,0,17.3147315252,21.0018379424,15,5,8.499,86.242842654784,6.56168,4.2949248,17.3147315252,0,0,0,190.6, 0.2, -0.2,0,0,1024,1024,1024,1024,0,0,0,0,200.8,0,0,99,4.253,4.248,0,0,0,0,3.866,77.54,85.914758654784,6.233596,6,P-GPS,
11500,2022-08-25 16:56:58,-34.9217646837724,-56.1530039638216,6.56168,6.5944884,79.648354254784,86.242842654784,8.2021,0,17.3634519992,21.0553156344,15,5,8.499,86.242842654784,6.56168,4.2949248,17.3634519992,0,0,0,190.6, 0.3, 0,0,0,1024,1024,1024,1024,0,0,0,0,200.8,0,0,99,4.253,4.248,0,0,0,0,3.866,77.54,86.242842654784,6.56168,6,P-GPS,
11600,2022-08-25 16:56:58,-34.9217648273686,-56.1530040327691,6.56168,6.5944884,79.648354254784,86.242842654784,8.2021,0,17.4171265416,21.1116148488,15,5,8.499,86.242842654784,6.56168,4.2949248,17.4171265416,0,0,0,190.5, 0.5, 0,0,0,1024,1024,1024,1024,0,0,0,0,200.8,0,0,99,4.253,4.248,0,0,0,0,3.866,77.54,86.242842654784,6.56168,6,P-GPS,
11700,2022-08-25 16:56:58,-34.9217650065854,-56.1530040769774,6.56168,6.5944884,79.648354254784,86.242842654784,8.2021,0,17.483268276,21.178314326,15,5,8.499,86.242842654784,6.56168,4.2949248,17.483268276,0,0,0,190.5, 0.6, 0,0,0,1024,1024,1024,1024,0,0,0,0,200.8,0,0,99,4.253,4.248,0,0,0,0,3.866,77.54,86.242842654784,6.56168,6,P-GPS,
11800,2022-08-25 16:56:58,-34.9217654058896,-56.1530041695055,6.56168,6.5944884,79.648354254784,86.242842654784,8.2021,0,17.6305123752,21.326608294,15,5,8.499,86.242842654784,6.56168,4.2949248,17.6305123752,0,0,0,190.5, 0.9, -0.2,0,0,1024,1024,1024,1024,0,0,0,0,200.8,0,0,99,4.253,4.248,0,0,0,0,3.866,77.54,86.242842654784,6.56168,6,P-GPS,
11900,2022-08-25 16:56:58,-34.9217656943554,-56.1530042387573,6.56168,6.5944884,79.648354254784,86.242842654784,8.2021,0,17.7369756332,21.433891762,15,5,8.499,86.242842654784,6.56168,4.2949248,17.7369756332,0,0,0,190.5, 0.9, 0,0,0,1024,1024,1024,1024,0,0,0,0,200.8,0,0,99,4.253,4.248,0,0,0,0,3.866,77.54,86.242842654784,6.56168,6,P-GPS,
12000,2022-08-25 16:56:58,-34.921765958603,-56.1530043110208,6.56168,6.5944884,79.648354254784,86.242842654784,8.2021,0,17.8346790484,21.5326778544,14,4,8.499,86.242842654784,6.56168,4.2949248,17.8346790484,0,0,0,190.5, 0.9, -0.1,0,0,1024,1024,1035,1024,0,0,2,0,200.8,0,0,99,4.253,4.248,0,0,0,0,3.866,77.54,86.242842654784,6.56168,6,P-GPS,
12100,2022-08-25 16:56:58,-34.9217662061721,-56.1530043922438,6.56168,6.5944884,79.648354254784,86.242842654784,8.2021,0,17.92650976,21.6262146028,14,4,8.499,86.242842654784,6.56168,4.2949248,17.92650976,0,0,0,190.5, 0.9, -0.2,0,0,1024,1024,1148,1024,0,0,19,0,200.8,0,0,99,4.253,4.248,0,0,0,0,3.866,77.54,86.242842654784,6.56168,6,P-GPS,
12200,2022-08-25 16:56:58,-34.9217664203614,-56.1530043754676,6.56168,6.5944884,79.648354254784,86.242842654784,8.2021,0,18.004101626,21.7045282536,14,4,8.499,86.242842654784,6.56168,4.2949248,18.004101626,0,0,0,190.5, 0.8, -0.2,0,0,1024,1024,1109,1024,0,0,13,0,200.8,0,0,99,4.253,4.248,0,0,0,0,3.866,77.54,86.242842654784,6.56168,6,P-GPS,
12300,2022-08-25 16:56:58,-34.921766417479,-56.1530043922816,6.56168,6.5944884,79.648354254784,86.242842654784,8.2021,0,18.0034126496,21.7096791724,14,4,8.497,86.242842654784,6.56168,4.2949248,18.004101626,0,0,0,190.5, 0.8, 0,0,0,1024,1024,1109,1024,0,0,13,0,200.8,0,0,99,4.248,4.243,0,0,0,0,3.912,77.54,86.242842654784,6.56168,6,P-GPS,
12400,2022-08-25 16:56:59,-34.9217663848743,-56.1530044154156,6.56168,6.5944884,79.648354254784,86.242842654784,8.2021,0,17.9920609432,21.723425892,14,4,8.497,86.242842654784,6.56168,4.2949248,18.004101626,0,0,0,190.6, 0.9, 0,0,0,1024,1024,1093,1024,0,0,10,0,200.8,0,0,99,4.248,4.243,0,0,0,0,3.912,77.54,86.242842654784,6.56168,6,P-GPS,
12500,2022-08-25 16:56:59,-34.9217662857802,-56.1530044554642,6.56168,6.5944884,79.648354254784,86.242842654784,8.2021,0,17.95685753,21.7615164444,14,4,8.497,86.242842654784,6.56168,4.2949248,18.004101626,0,0,-0.223694,190.6, 0.8, 0,0,0,1024,1024,1024,1024,0,0,0,0,200.8,0,0,99,4.248,4.243,0,0,0,0,3.912,77.54,86.242842654784,6.56168,6,P-GPS,
12600,2022-08-25 16:56:59,-34.9217657918895,-56.1530043784415,6.56168,6.5944884,79.648354254784,86.242842654784,8.2021,0,17.7754598864,21.9431765552,14,4,8.497,86.242842654784,6.56168,4.2949248,18.004101626,0,0,0,190.6, 0.9, 0.2,0,0,1024,1024,1024,1024,0,0,0,0,200.8,0,0,99,4.248,4.243,0,0,0,0,3.912,77.54,86.242842654784,6.56168,6,P-GPS,
12700,2022-08-25 16:56:59,-34.9217657544222,-56.1530043866761,6.56168,6.5944884,79.648354254784,86.242842654784,8.2021,0,17.7620084424,21.9570873168,14,4,8.497,86.242842654784,6.56168,4.2949248,18.004101626,0,0,0,190.6, 0.8, 0.6,0,0,1024,1024,1024,1024,0,0,0,0,200.8,0,0,99,4.248,4.243,0,0,0,0,3.912,77.54,86.242842654784,6.56168,6,P-GPS,
12800,2022-08-25 16:56:59,-34.9217657309401,-56.153004400737,6.56168,6.5944884,79.648354254784,86.242842654784,8.2021,0,17.753773534,21.9666017528,14,4,8.497,86.242842654784,6.56168,4.2949248,18.004101626,0,0,0,190.5, 0.7, 0,0,0,1024,1024,1024,1024,0,0,0,0,200.8,0,0,99,4.248,4.243,0,0,0,0,3.912,77.54,86.242842654784,6.56168,6,P-GPS,
12900,2022-08-25 16:56:59,-34.921765738711,-56.1530044159824,6.56168,6.5944884,79.648354254784,86.242842654784,8.2021,0,17.7569559488,21.9719823304,14,4,8.497,86.242842654784,6.56168,4.2949248,18.004101626,0,0,0,190.5, 0.8, -0.2,0,0,1024,1024,1024,1024,0,0,0,0,200.8,0,0,99,4.248,4.243,0,0,0,0,3.912,77.54,86.242842654784,6.56168,6,P-GPS,
13000,2022-08-25 16:56:59,-34.9217657680588,-56.1530044181178,6.56168,6.5944884,79.648354254784,86.242842654784,8.2021,0,17.7676842956,21.9827106772,14,4,8.497,86.242842654784,6.56168,4.2949248,18.004101626,0,0,0,190.5, 0.8, -0.3,0,0,1024,1024,1024,1024,0,0,0,0,200.8,0,0,99,4.248,4.243,0,0,0,0,3.912,77.54,86.242842654784,6.56168,6,P-GPS,
13100,2022-08-25 16:56:59,-34.9217659977541,-56.1530041950152,6.56168,6.5944884,79.648354254784,86.242842654784,8.2021,0,17.846457264,22.0898629116,14,4,8.497,86.242842654784,6.56168,4.2949248,18.004101626,0,0,0,190.5, 1, -0.1,0,0,1024,1024,1024,758,0,0,0,-40,200.8,0,0,99,4.248,4.243,0,0,0,0,3.912,77.54,86.242842654784,6.56168,6,P-GPS,
13200,2022-08-25 16:56:59,-34.9217660686533,-56.153004172068,6.56168,6.5944884,79.648354254784,86.242842654784,8.2021,0,17.8717853488,22.1166017576,15,4,8.497,86.242842654784,6.56168,4.2949248,18.004101626,0,0,0,190.6, 0.9, -0.1,0,0,1024,1024,1024,439,0,0,0,-89,200.8,0,0,99,4.248,4.243,0,0,0,0,3.912,77.54,86.242842654784,6.56168,6,P-GPS,
13300,2022-08-25 16:56:59,-34.9217661181938,-56.1530041741028,6.56168,6.5944884,79.648354254784,86.242842654784,8.2021,0,17.8898627772,22.134679186,15,4,8.497,86.242842654784,6.56168,4.2949248,18.004101626,0,0,0,190.5, 0.7, -0.2,0,0,1024,1024,1024,439,0,0,0,-89,200.5,0,0,99,4.248,4.243,0,0,0,0,3.912,77.54,86.242842654784,6.56168,6,P-GPS,
13400,2022-08-25 16:57:00,-34.9217661736847,-56.1530041774306,6.56168,6.5944884,79.648354254784,86.242842654784,8.2021,0,17.9101383684,22.1549547772,16,4,8.495,86.242842654784,6.56168,4.2949248,18.004101626,0,0,0,189.5, 0.6, -0.3,0,0,1024,1024,1024,377,0,0,0,-98,198.2,0,0,99,4.245,4.241,0,0,0,0,4.023,77.54,86.242842654784,6.56168,6,P-GPS,
13500,2022-08-25 16:57:00,-34.9217664122029,-56.1530041216155,6.56168,6.5944884,79.648354254784,86.242842654784,8.2021,0,17.9958011008,22.2435702656,16,4,8.495,86.242842654784,6.56168,4.2949248,18.004101626,0,0,0,186.3, 0.5, -0.3,0,0,1024,1024,1024,376,0,0,0,-98,194.1,0,0,99,4.245,4.241,0,0,0,0,4.023,77.54,86.242842654784,6.56168,6,P-GPS,
13600,2022-08-25 16:57:00,-34.9217664967582,-56.153004125322,6.56168,6.5944884,79.648354254784,86.242842654784,8.2021,0,18.0266738052,22.27444297,16,4,8.495,86.242842654784,6.56168,4.2949248,18.0266738052,0,0,0,181.9, 0.3, -0.6,0,0,1024,1024,1024,364,0,0,0,-100,189.5,0,0,99,4.245,4.241,0,0,0,0,4.023,77.54,86.242842654784,6.56168,6,P-GPS,
13700,2022-08-25 16:57:00,-34.9217665962691,-56.1530041261553,6.56168,6.5944884,79.648354254784,86.242842654784,8.2021,0,18.0629270872,22.3107618688,16,4,8.495,86.242842654784,6.56168,4.2949248,18.0629270872,0,0,0,177.3, 0.4, -0.3,0,0,1024,1024,1024,364,0,0,0,-100,184.7,0,0,99,4.245,4.241,0,0,0,0,4.023,77.54,86.242842654784,6.56168,6,P-GPS,
13800,2022-08-25 16:57:00,-34.9217666799386,-56.1530041254761,6.56168,6.5944884,79.648354254784,86.242842654784,8.2021,0,18.093340474,22.3412736808,16,4,8.495,86.242842654784,6.56168,4.2949248,18.093340474,0,0,0,172.7, 0.4, -0.2,0,0,1024,1024,1024,372,0,0,0,-99,179.8,0,0,99,4.245,4.241,0,0,0,0,4.023,77.54,86.242842654784,6.56168,6,P-GPS,
13900,2022-08-25 16:57:00,-34.9217668335432,-56.1530040940514,6.56168,6.5944884,79.648354254784,86.242842654784,8.2021,0,18.148622628,22.3980978296,16,4,8.495,86.242842654784,6.56168,4.2949248,18.148622628,0,0,0,168, 0.3, -0.2,0,0,976,1024,1024,375,-7,0,0,-98,175.1,0,0,99,4.245,4.241,0,0,0,0,4.023,77.54,86.242842654784,6.56168,6,P-GPS,
14000,2022-08-25 16:57:00,-34.9217668845037,-56.1530041031036,6.56168,6.5944884,79.648354254784,86.242842654784,8.2021,0,18.1673562244,22.4168970428,16,4,8.495,86.242842654784,6.56168,4.2949248,18.1673562244,0,0,0,163.2, 0.4, -0.3,0,0,364,1024,1024,376,-100,0,0,-98,170.3,0,0,99,4.245,4.241,0,0,0,0,4.023,77.54,86.242842654784,6.56168,6,P-GPS,
14100,2022-08-25 16:57:00,-34.9217669282079,-56.1530041231958,6.56168,6.5944884,79.648354254784,86.242842654784,8.2021,0,18.1836948076,22.4339246024,16,4,8.495,86.242842654784,6.56168,4.2949248,18.1836948076,0,0,0,158.5, 1.1, -0.2,0,0,553,1024,1024,364,-71,0,0,-100,165.7,0,0,99,4.245,4.241,0,0,0,0,4.023,77.54,86.242842654784,6.56168,6,P-GPS,
14200,2022-08-25 16:57:00,-34.9217669450721,-56.1530041447037,6.56168,6.5944884,79.648354254784,86.242842654784,8.2021,0,18.1902564876,22.4428484872,16,4,8.495,86.242842654784,6.56168,4.2949248,18.1902564876,0,0,0,153.7, 12.7, -0.9,0,0,553,1024,1024,364,-71,0,0,-100,161,0,0,99,4.245,4.241,0,0,0,0,4.023,77.54,86.242842654784,6.56168,6,P-GPS,
14300,2022-08-25 16:57:00,-34.9217667837942,-56.1530041694363,6.56168,6.5944884,79.648354254784,86.242842654784,8.2021,0.7158208,18.132054386,22.502133266,16,4,8.495,86.242842654784,6.56168,4.2949248,18.1902564876,0.671082,-0.223694,0,148.7, 17.7, -1.7,0,0,564,1024,1024,364,-70,0,0,-100,156.3,0,0,99,4.245,4.241,0,0,0,0,4.023,77.54,86.242842654784,6.56168,6,P-GPS,
14400,2022-08-25 16:57:01,-34.9217664549691,-56.1530043814088,6.56168,6.5944884,79.648354254784,86.242842654784,8.2021,1.2079476,18.0168312852,22.6378288084,17,4,8.485,86.242842654784,6.56168,4.2949248,18.1902564876,1.11847,-0.447388,0,144, 15.5, -1.6,0,0,1024,1024,1024,856,0,0,0,-25,151.5,0,0,99,4.244,4.24,0,0,0,0,3.977,77.72,86.242842654784,6.56168,6,P-GPS,
14500,2022-08-25 16:57:01,-34.9217658974843,-56.1530047862698,6.56168,6.5944884,79.648354254784,86.242842654784,8.2021,1.7000744,17.8231961084,22.8745742228,17,4,8.485,86.242842654784,6.56168,4.2949248,18.1902564876,1.565858,-0.671082,0,139.8, 9.3, -1.4,0,0,1118,1024,1024,1024,14,0,0,0,148,0,0,99,4.244,4.24,0,0,0,0,3.977,77.72,86.242842654784,6.56168,6,P-GPS,
14600,2022-08-25 16:57:01,-34.9217653000831,-56.1530052726196,6.56168,6.5944884,79.648354254784,86.242842654784,8.2021,1.7000744,17.618274842,23.1366149136,17,4,8.485,86.242842654784,6.56168,4.2949248,18.1902564876,1.789552,-0.894776,0,137.7, -4.8, 0.4,0,0,1218,1024,1024,1024,29,0,0,0,146.8,0,0,99,4.244,4.24,0,0,0,0,3.977,77.72,86.242842654784,6.56168,6,P-GPS,
14700,2022-08-25 16:57:01,-34.9217648166013,-56.1530058119453,6.56168,6.56168,79.681162654784,86.242842654784,8.2021,1.9908766,17.4578089576,23.3756897244,17,4,8.485,86.242842654784,6.56168,4.2949248,18.1902564876,1.789552,-0.894776,0,136.9, -4.4, 0.5,0,0,1259,1024,1024,1024,36,0,0,0,146.4,0,0,99,4.244,4.24,0,0,0,0,3.977,77.72,86.242842654784,6.56168,6,P-GPS,
14800,2022-08-25 16:57:01,-34.9217646657455,-56.1530064327035,6.56168,6.56168,79.681162654784,86.242842654784,8.2021,1.7000744,17.4224415024,23.5693577096,17,4,8.485,86.242842654784,6.56168,4.2949248,18.1902564876,1.565858,-0.671082,0,136.5, -5.7, 0.3,0,0,1024,1024,1024,1024,0,0,0,0,146.3,0,0,99,4.244,4.24,0,0,0,0,3.977,77.72,86.242842654784,6.56168,6,P-GPS,
14900,2022-08-25 16:57:01,-34.9217643624088,-56.1530069167723,6.56168,6.56168,79.681162654784,86.242842654784,8.2021,1.4092722,17.3290359876,23.75164118,17,4,8.485,86.242842654784,6.56168,4.2949248,18.1902564876,1.342164,-0.447388,0,136.3, -6.8, 0,0,0,1024,1024,1024,842,0,0,0,-28,146.3,0,0,99,4.244,4.24,0,0,0,0,3.977,77.72,86.242842654784,6.56168,6,P-GPS,
15000,2022-08-25 16:57:01,-34.9217641087688,-56.1530072985803,6.56168,6.56168,79.681162654784,86.242842654784,8.2021,1.2079476,17.251148846,23.898622812,17,4,8.485,86.242842654784,6.56168,4.2949248,18.1902564876,1.11847,-0.447388,0,136.3, -3.5, 0.9,0,0,1024,1024,1024,842,0,0,0,-28,146.3,0,0,99,4.244,4.24,0,0,0,0,3.977,77.72,86.242842654784,6.56168,6,P-GPS,
15100,2022-08-25 16:57:01,-34.9217638140596,-56.1530076152356,6.56168,6.5288716,79.713971054784,86.242842654784,8.2021,0.9171454,17.1567590792,24.0419299032,17,4,8.485,86.242842654784,6.56168,4.2949248,18.1902564876,0.894776,-0.223694,0,136.3, -4.4, 1.4,0,0,1024,1024,1024,613,0,0,0,-62,146.2,0,0,99,4.244,4.24,0,0,0,0,3.977,77.72,86.242842654784,6.56168,6,P-GPS,
15200,2022-08-25 16:57:01,-34.9217637983581,-56.1530080318935,6.56168,6.5288716,79.713971054784,86.242842654784,8.2021,0.7158208,17.167979552,24.1667002484,17,4,8.485,86.242842654784,6.56168,4.2949248,18.1902564876,0.671082,-0.223694,0,135.6, -4.3, 1.5,0,0,1024,1024,1024,647,0,0,0,-57,145,0,0,99,4.244,4.24,0,0,0,0,3.977,77.72,86.242842654784,6.56168,6,P-GPS,
15300,2022-08-25 16:57:01,-34.9217637135096,-56.1530081918044,6.56168,6.5288716,79.713971054784,86.242842654784,8.2021,0.447388,17.1440622284,24.2236884392,17,4,8.485,86.242842654784,6.56168,4.2949248,18.1902564876,0.447388,0,0,134, -3.6, 1.1,0,0,1024,1024,1024,759,0,0,0,-40,142.8,0,0,99,4.244,4.24,0,0,0,0,3.977,77.72,86.242842654784,6.56168,6,P-GPS,
15400,2022-08-25 16:57:02,-34.9217637225768,-56.1530083044084,6.56168,6.5288716,79.713971054784,86.242842654784,8.2021,0.223694,17.1521659032,24.257546708,17,4,8.478,86.242842654784,6.56168,4.2949248,18.1902564876,0.223694,0,0,132, -2.8, 0.9,0,0,1024,1024,1024,418,0,0,0,-92,141.4,0,0,99,4.238,4.239,0,0,0,0,4.105,77.72,86.242842654784,6.56168,6,P-GPS,
15500,2022-08-25 16:57:02,-34.9217638440881,-56.1530083811471,6.56168,6.5288716,79.713971054784,86.242842654784,7.874016,0.223694,17.1993443824,24.3074482844,17,4,8.478,86.242842654784,6.56168,4.2949248,18.1902564876,0.223694,0,0,130.9, -2.1, 0.7,0,0,1024,1024,1024,364,0,0,0,-100,139.9,0,0,99,4.238,4.239,0,0,0,0,4.105,77.72,86.242842654784,6.56168,6,P-GPS,
15600,2022-08-25 16:57:02,-34.921764363376,-56.1530081146126,6.56168,6.5288716,79.713971054784,86.242842654784,7.874016,0,17.3755582988,24.5130257188,17,4,8.478,86.242842654784,6.56168,4.2949248,18.1902564876,0,0,0,128.6, -1.5, 0.6,0,0,1024,1024,1024,364,0,0,0,-100,136.6,0,0,99,4.238,4.239,0,0,0,0,4.105,77.72,86.242842654784,6.56168,6,P-GPS,
15700,2022-08-25 16:57:02,-34.9217645830662,-56.1530081292638,6.56168,6.5288716,79.713971054784,86.242842654784,7.874016,0,17.455545178,24.5933078736,17,4,8.478,86.242842654784,6.56168,4.2949248,18.1902564876,0,0,0,124.7, -1, 0.3,0,0,1024,1024,1024,364,0,0,0,-100,132.2,0,0,99,4.238,4.239,0,0,0,0,4.105,77.72,86.242842654784,6.56168,6,P-GPS,
15800,2022-08-25 16:57:02,-34.921764788807,-56.1530081391427,6.56168,6.5288716,79.713971054784,86.242842654784,7.874016,0,17.5303155216,24.6684063012,17,4,8.478,86.242842654784,6.56168,4.2949248,18.1902564876,0,0,0,120.2, -0.7, 0.1,0,0,1024,1024,1024,623,0,0,0,-61,127.4,0,0,99,4.238,4.239,0,0,0,0,4.105,77.72,86.242842654784,6.56168,6,P-GPS,
15900,2022-08-25 16:57:02,-34.9217649511955,-56.1530081610653,6.56168,6.5288716,79.713971054784,86.242842654784,7.874016,0,17.589895576,24.728019164,17,4,8.478,86.242842654784,6.56168,4.2949248,18.1902564876,0,0,0,115.5, -0.7, 0,0,0,1024,1024,1024,623,0,0,0,-61,122.7,0,0,99,4.238,4.239,0,0,0,0,4.105,77.72,86.242842654784,6.56168,6,P-GPS,
16000,2022-08-25 16:57:02,-34.9217651058293,-56.1530079833818,6.56168,6.5288716,79.713971054784,86.242842654784,7.874016,0,17.6385176248,24.8055454132,17,4,8.478,86.242842654784,6.56168,4.2949248,18.1902564876,0,0,0,111, -0.4, -0.1,0,0,897,1024,1024,1024,-19,0,0,0,119,0,0,99,4.238,4.239,0,0,0,0,4.105,77.72,86.242842654784,6.56168,6,P-GPS,
16100,2022-08-25 16:57:02,-34.921765329584,-56.1530079043353,6.56168,6.5288716,79.713971054784,86.242842654784,7.874016,0,17.7162735328,24.8905191692,17,4,8.478,86.242842654784,6.56168,4.2949248,18.1902564876,0,0,0,108.5, 0, 0,0,0,943,1024,1024,1024,-12,0,0,0,117.4,0,0,99,4.238,4.239,0,0,0,0,4.105,77.72,86.242842654784,6.56168,6,P-GPS,
16200,2022-08-25 16:57:02,-34.9217654995707,-56.1530078335757,6.56168,6.5288716,79.713971054784,86.242842654784,7.874016,0,17.774934952,24.9560703524,17,4,8.478,86.242842654784,6.56168,4.2949248,18.1902564876,0,0,0,107.3, 2.2, 0.3,0,0,1024,1024,1024,1024,0,0,0,0,116.9,0,0,99,4.238,4.239,0,0,0,0,4.105,77.72,86.242842654784,6.56168,6,P-GPS,
16300,2022-08-25 16:57:02,-34.9217655746192,-56.1530078032631,6.56168,6.5288716,79.713971054784,86.242842654784,7.874016,0,17.8009192048,24.984908936,17,4,8.478,86.242842654784,6.56168,4.2949248,18.1902564876,0,0,0,107, -0.2, 0.2,0,0,1024,1024,1024,1024,0,0,0,0,116.9,0,0,99,4.238,4.239,0,0,0,0,4.105,77.72,86.242842654784,6.56168,6,P-GPS,
16400,2022-08-25 16:57:03,-34.9217656362493,-56.1530077957331,6.56168,6.5288716,79.713971054784,86.242842654784,7.874016,0,17.8229008328,25.0075139236,17,4,8.478,86.242842654784,6.56168,4.2949248,18.1902564876,0,0,0,106.9, -0.6, 0.1,0,0,1024,1024,1024,1024,0,0,0,0,116.9,0,0,99,4.239,4.235,0,0,0,0,3.974,77.72,86.242842654784,6.56168,6,P-GPS,
16500,2022-08-25 16:57:03,-34.9217652960576,-56.1530077669537,6.56168,6.5288716,79.713971054784,86.242842654784,7.874016,0,17.6987210388,25.1319233764,17,4,8.478,86.242842654784,6.56168,4.2949248,18.1902564876,0,0,0,106.8, -0.6, 0.1,0,0,1024,1024,1024,1024,0,0,0,0,116.9,0,0,99,4.239,4.235,0,0,0,0,3.974,77.72,86.242842654784,6.56168,6,P-GPS,
16600,2022-08-25 16:57:03,-34.9217653575574,-56.1530077834197,6.56168,6.5288716,79.713971054784,86.242842654784,7.874016,0,17.721621302,25.1548892564,17,4,8.478,86.242842654784,6.56168,4.2949248,18.1902564876,0,0,0,106.8, -0.5, 0,0,0,1024,1024,607,1024,0,0,-63,0,116.9,0,0,99,4.239,4.235,0,0,0,0,3.974,77.72,86.242842654784,6.56168,6,P-GPS,
16700,2022-08-25 16:57:03,-34.921765457635,-56.15300781343,6.56168,6.5288716,79.713971054784,86.242842654784,7.874016,0,17.7589900696,25.1924876828,17,4,8.478,86.242842654784,6.56168,4.2949248,18.1902564876,0,0,0,106.8, -0.6, 0,0,0,1024,1024,391,1024,0,0,-96,0,116.9,0,0,99,4.239,4.235,0,0,0,0,3.974,77.72,86.242842654784,6.56168,6,P-GPS,
16800,2022-08-25 16:57:03,-34.9217655915453,-56.1530078149176,6.56168,6.5288716,79.713971054784,86.242842654784,7.874016,0,17.8074808848,25.2413393904,17,4,8.478,86.242842654784,6.56168,4.2949248,18.1902564876,0,0,0.223694,106.7, -0.7, 0,0,0,1024,1024,391,1024,0,0,-96,0,116.9,0,0,99,4.239,4.235,0,0,0,0,3.974,77.72,86.242842654784,6.56168,6,P-GPS,
16900,2022-08-25 16:57:03,-34.9217658864076,-56.1530077406088,6.233596,6.2007876,79.713971054784,85.914758654784,7.874016,0,17.9112866624,25.351214722,17,4,8.478,86.242842654784,6.56168,4.2949248,18.1902564876,0,0,0.894776,106.8, -0.4, 0.4,0,0,1024,1024,364,1024,0,0,-100,0,116.9,0,0,99,4.239,4.235,0,0,0,0,3.974,77.72,85.914758654784,6.233596,6,P-GPS,
