time(millisecond),datetime(utc),latitude,longitude,height_above_takeoff(feet),height_above_ground_at_drone_location(feet),ground_elevation_at_drone_location(feet),altitude_above_seaLevel(feet),height_sonar(feet),speed(mph),distance(feet),mileage(feet),satellites,gpslevel,voltage(v),max_altitude(feet),max_ascent(feet),max_speed(mph),max_distance(feet), xSpeed(mph), ySpeed(mph), zSpeed(mph), compass_heading(degrees), pitch(degrees), roll(degrees),isPhoto,isVideo,rc_elevator,rc_aileron,rc_throttle,rc_rudder,rc_elevator(percent),rc_aileron(percent),rc_throttle(percent),rc_rudder(percent),gimbal_heading(degrees),gimbal_pitch(degrees),gimbal_roll(degrees),battery_percent,voltageCell1,voltageCell2,voltageCell3,voltageCell4,voltageCell5,voltageCell6,current(A),battery_temperature(f),altitude(feet),ascent(feet),flycStateRaw,flycState,message
164200,2023-12-29 05:01:34,-34.9553136801687,-54.9406459209061,0,0,16.745789249776,17.008256449776,0.656168,0,0,0,21,5,0,17.008256449776,0,0,0,0,0,-0.223694,204.1, -12.5, 6,0,0,364,364,364,1684,-100,-100,-100,100,215.2,0,0,85,4.211,4.208,0,0,0,0,0,89.78,17.008256449776,0,41,Motors_Started,"Error de calibración del estabilizador. Reinicia la aeronave o contacta con la Asistencia DJI (Code: 40011)"
164300,2023-12-29 05:01:34,-34.9553135497209,-54.9406458442332,0,0,16.745789249776,17.008256449776,0.656168,0,0.052828413764,0.052828413764,21,5,8.419,17.008256449776,0,0,0.052828413764,0,0,-0.223694,204.4, -12.5, 5.9,0,0,364,364,364,1684,-100,-100,-100,100,215.3,0,0,85,4.211,4.208,0,0,0,0,0.559,89.78,17.008256449776,0,41,Motors_Started,
164400,2023-12-29 05:01:34,-34.9553133904897,-54.9406457880488,0,0.032808400000002,16.712980849776,17.008256449776,0.328084,0,0.112909452432,0.113304465568,21,5,8.419,17.008256449776,0,0,0.112909452432,0,0,-0.223694,204.4, -12, 6,0,0,364,364,364,1684,-100,-100,-100,100,215.5,0,0,85,4.211,4.208,0,0,0,0,0.559,89.78,17.008256449776,0,41,Motors_Started,
164500,2023-12-29 05:01:34,-34.9553133093838,-54.9406457412771,0,0.032808400000002,16.712980849776,17.008256449776,0.328084,0,0.1455544666,0.146034453492,21,5,8.419,17.008256449776,0,0,0.1455544666,0,0,-0.223694,204.5, -11.9, 5.7,0,0,364,364,364,1684,-100,-100,-100,100,215.5,0,0,85,4.211,4.208,0,0,0,0,0.559,89.78,17.008256449776,0,41,Motors_Started,
164600,2023-12-29 05:01:35,-34.9553132545573,-54.940645909548,0,0.032808400000002,16.712980849776,17.008256449776,0.328084,0,0.155321199196,0.200183077272,21,5,8.419,17.008256449776,0,0,0.155321199196,0,0,-0.223694,203.9, -12, 5.4,0,0,453,549,364,1552,-87,-72,-100,80,215.4,0,0,85,4.211,4.208,0,0,0,0,0.559,89.78,17.008256449776,0,41,Motors_Started,
164700,2023-12-29 05:01:35,-34.955313165626,-54.940645850672,0,0.032808400000002,16.712980849776,17.008256449776,0.328084,0,0.188901580848,0.237098432784,21,5,8.419,17.008256449776,0,0,0.188901580848,0,0,-0.223694,203.2, -11.8, 5.5,0,0,453,549,364,1552,-87,-72,-100,80,214.8,0,0,85,4.211,4.208,0,0,0,0,0.559,89.78,17.008256449776,0,41,Motors_Started,
164800,2023-12-29 05:01:35,-34.9553130437097,-54.9406457797363,0,0.032808400000002,16.712980849776,17.008256449776,0.328084,0,0.236017724088,0.286378290004,21,5,8.419,17.008256449776,0,0,0.236017724088,0,0,-0.223694,202.6, -12.3, 5.2,0,0,1024,1024,1024,1024,0,0,0,0,214.1,0,0,85,4.211,4.208,0,0,0,0,0.559,89.78,17.008256449776,0,41,Motors_Started,"Setting new Return-To-Home altitude to 100m (328 ft). Data Recorder File Index is 32. Setting new Maximum Flight Altitude to 120m (394 ft)"
164900,2023-12-29 05:01:35,-34.9553129838847,-54.9406457713507,0,0.032808400000002,16.712980849776,17.008256449776,0.328084,0,3.03318251176,0.308348763148,21,5,8.419,17.008256449776,0,0,3.03318251176,0,0,-0.223694,202.6, -13.2, 5.5,0,0,1024,1024,1210,1024,0,0,28,0,213.8,0,0,85,4.211,4.208,0,0,0,0,0.559,89.78,17.008256449776,0,41,Motors_Started,
165000,2023-12-29 05:01:35,-34.9553129402933,-54.9406459471318,0,0.032808400000002,16.712980849776,17.008256449776,0.328084,0,3.05189314228,0.36326772816,21,5,8.419,17.008256449776,0,0,3.05189314228,0,0,-0.223694,202.6, -13, 5.7,0,0,1024,1024,1460,1024,0,0,66,0,213.8,0,0,85,4.211,4.208,0,0,0,0,0.559,89.78,17.008256449776,0,41,Motors_Started,
165100,2023-12-29 05:01:35,-34.9553129500175,-54.9406460280433,0,0.032808400000002,16.712980849776,17.008256449776,0.328084,0,3.0694062662,0.38771982868,21,5,8.419,17.008256449776,0,0,3.0694062662,0,0,0,202.4, -13.1, 5.9,0,0,1024,1024,1617,1024,0,0,90,0,213.8,0,0,85,4.211,4.208,0,0,0,0,0.559,89.78,17.008256449776,0,41,Motors_Started,
165200,2023-12-29 05:01:35,-34.9553129801678,-54.9406461228228,0,0.032808400000002,16.712980849776,17.008256449776,0.328084,0,3.09544629328,0.41812337296,21,5,8.419,17.008256449776,0,0,3.09544629328,0,0,0,202.3, -13, 6,0,0,1024,1024,1684,1024,0,0,100,0,213.7,0,0,85,4.211,4.208,0,0,0,0,0.559,89.78,17.008256449776,0,41,Motors_Started,
165300,2023-12-29 05:01:35,-34.955313020385,-54.9406462312653,0,0.032808400000002,16.712980849776,17.008256449776,0.328084,0,3.12697188484,0.45371392528,21,5,8.388,17.008256449776,0,0,3.12697188484,0,0,0,201.9, -12.8, 6.3,0,0,1024,1024,1684,1024,0,0,100,0,213.6,0,0,85,4.191,4.188,0,0,0,0,1.002,89.78,17.008256449776,0,10,Assisted_Takeoff,
165400,2023-12-29 05:01:35,-34.9553130596761,-54.9406463353033,0,0.032808400000002,16.712980849776,17.008256449776,0.328084,0,3.15750338188,0.48796917572,21,5,8.388,17.008256449776,0,0,3.15750338188,0,0,-0.223694,201.9, -11.1, 5.7,0,0,1024,1024,1684,1024,0,0,100,0,213.2,0,0,85,4.191,4.188,0,0,0,0,1.002,89.78,17.008256449776,0,10,Assisted_Takeoff,
165500,2023-12-29 05:01:35,-34.9553132815187,-54.9406466107506,0,0.098425200000001,16.647364049776,17.008256449776,0.328084,0,3.27213921232,0.60344818204,21,5,8.388,17.008256449776,0,0,3.27213921232,0,0,-0.223694,204, -5.5, 3.4,0,0,1024,1024,1684,1024,0,0,100,0,213.5,0,0,85,4.191,4.188,0,0,0,0,1.002,89.78,17.008256449776,0,10,Assisted_Takeoff,
165600,2023-12-29 05:01:36,-34.9553132295452,-54.9406464852468,0,0.032808400000002,16.712980849776,17.008256449776,0.328084,0,3.233923988,0.64549542748,21,5,8.388,17.008256449776,0,0,3.27213921232,0,0,-0.223694,206.7, 0.1, 1.8,0,0,1024,1024,1684,1024,0,0,100,0,215.5,0,0,85,4.191,4.188,0,0,0,0,1.002,89.78,17.008256449776,0,10,Assisted_Takeoff,
165700,2023-12-29 05:01:36,-34.9553131261,-54.9406463385084,0,0.032808400000002,16.712980849776,17.008256449776,0.328084,0,3.1771162434,0.70337272592,21,5,8.388,17.008256449776,0,0,3.27213921232,0,0,-0.223694,208.3, 4.9, 0.9,0,0,1024,1024,1684,1024,0,0,100,0,217.5,0,0,85,4.191,4.188,0,0,0,0,1.002,89.78,17.008256449776,0,10,Assisted_Takeoff,
165800,2023-12-29 05:01:36,-34.9553129506518,-54.9406461579529,0,0.032808400000002,16.712980849776,17.008256449776,0.328084,0.223694,3.09342529584,0.78711616692,21,5,8.388,17.008256449776,0,0.223694,3.27213921232,0.223694,0,-0.223694,208.7, 7.5, 1,0,0,1024,1024,1684,1024,0,0,100,0,218.3,0,0,85,4.191,4.188,0,0,0,0,1.002,89.78,17.008256449776,0,10,Assisted_Takeoff,
165900,2023-12-29 05:01:36,-34.9553125596718,-54.9406454546349,0,-0.065616799999999,16.811406049776,17.008256449776,0.328084,0.7158208,2.85240822776,1.04124347164,21,5,8.388,17.008256449776,0,0.7158208,3.27213921232,0.671082,0.223694,-0.223694,208.5, 6.7, -0.2,0,0,1024,1024,1684,1024,0,0,100,0,218.4,0,0,85,4.191,4.188,0,0,0,0,1.002,89.78,17.008256449776,0,10,Assisted_Takeoff,
166000,2023-12-29 05:01:36,-34.9553121025684,-54.9406450796051,0,-0.032808399999999,16.778597649776,17.008256449776,0.328084,1.006623,2.65166675152,1.24221460668,21,5,8.388,17.008256449776,0,1.006623,3.27213921232,0.894776,0.447388,-0.447388,208.5, 7.5, 0,0,0,1024,1024,1684,1024,0,0,100,0,218.5,0,0,85,4.191,4.188,0,0,0,0,1.002,89.78,17.008256449776,0,10,Assisted_Takeoff,
166100,2023-12-29 05:01:36,-34.9553115131262,-54.9406446674957,0,-0.032808399999999,16.778597649776,17.008256449776,0.656168,1.4987498,2.40582028696,1.49007878784,21,5,8.388,17.008256449776,0,1.4987498,3.27213921232,1.342164,0.671082,-1.11847,208.1, 0, 0.1,0,0,1024,1024,1684,1025,0,0,100,0,218.5,0,0,85,4.191,4.188,0,0,0,0,1.002,89.78,17.008256449776,0,6,P-GPS,
166200,2023-12-29 05:01:36,-34.9553108125785,-54.9406442252931,0,-0.098425199999998,16.844214449776,17.008256449776,0.984252,1.4987498,2.12313983172,1.77785110676,21,5,8.388,17.008256449776,0,1.4987498,3.27213921232,1.342164,0.671082,-1.789552,207.9, -7.3, -0.7,0,0,1024,1024,1591,1024,0,0,86,0,218.5,0,0,85,4.191,4.188,0,0,0,0,1.002,89.78,17.008256449776,0,6,P-GPS,
166300,2023-12-29 05:01:36,-34.9553103036059,-54.9406439777975,0.328084,0.2624672,16.811406049776,17.336340449776,1.312336,1.2079476,1.93300203036,1.9777559688,21,5,8.388,17.336340449776,0.328084,1.4987498,3.27213921232,1.11847,0.447388,-2.460634,208.2, -8.9, -0.9,0,0,1024,1024,1024,1024,0,0,0,0,218.5,0,0,85,4.191,4.188,0,0,0,0,1.002,89.78,17.336340449776,0.328084,6,P-GPS,
166400,2023-12-29 05:01:36,-34.9553098086664,-54.9406436421624,0.656168,0.5905512,16.811406049776,17.664424449776,1.968504,1.006623,1.73107289004,2.1843504636,21,5,8.344,17.664424449776,0.656168,1.4987498,3.27213921232,0.894776,0.447388,-3.131716,208.4, -8.7, -0.2,0,0,1024,1024,1024,1024,0,0,0,0,218.5,0,0,85,4.114,4.104,0,0,0,0,2.039,89.6,17.664424449776,0.656168,6,P-GPS,
166500,2023-12-29 05:01:36,-34.9553093924288,-54.9406433664969,1.312336,1.2139108,16.844214449776,18.320592449776,2.624672,0.9171454,1.56355648048,2.35714574472,21,5,8.344,18.320592449776,1.312336,1.4987498,3.27213921232,0.894776,0.223694,-3.35541,208.4, -8, -0.2,0,0,1024,1024,1024,1024,0,0,0,0,218.5,0,0,85,4.114,4.104,0,0,0,0,2.039,89.6,18.320592449776,1.312336,6,P-GPS,
166600,2023-12-29 05:01:37,-34.9553089784621,-54.9406431072277,1.64042,1.5419948,16.844214449776,18.648676449776,3.28084,0.7158208,1.4013944018,2.52691609136,21,5,8.344,18.648676449776,1.64042,1.4987498,3.27213921232,0.671082,0.223694,-3.131716,208.4, -8, -0.9,0,0,1024,1024,1024,1024,0,0,0,0,218.5,0,0,85,4.114,4.104,0,0,0,0,2.039,89.6,18.648676449776,1.64042,6,P-GPS,
166700,2023-12-29 05:01:37,-34.9553087336858,-54.9406428773304,1.968504,1.8700788,16.844214449776,18.976760449776,3.937008,0.7158208,1.28982615676,2.63961950704,21,5,8.344,18.976760449776,1.968504,1.4987498,3.27213921232,0.671082,0.223694,-2.684328,208.3, -7.4, -1,0,0,1024,1024,1024,1024,0,0,0,0,218.5,0,0,85,4.114,4.104,0,0,0,0,2.039,89.6,18.976760449776,1.968504,6,P-GPS,
166800,2023-12-29 05:01:37,-34.9553083999003,-54.9406426486353,2.296588,2.2309712,16.811406049776,19.304844449776,4.265092,0.7158208,1.15678809476,2.77928814668,21,5,8.344,19.304844449776,2.296588,1.4987498,3.27213921232,0.671082,0.223694,-2.23694,208.4, -7.1, -1.1,0,0,1024,1024,1024,1024,0,0,0,0,218.5,0,0,85,4.114,4.104,0,0,0,0,2.039,89.6,19.304844449776,2.296588,6,P-GPS,
166900,2023-12-29 05:01:37,-34.9553081353197,-54.9406424130649,2.296588,2.132546,16.909831249776,19.304844449776,4.593176,0.7158208,1.04017063696,2.89878946284,21,5,8.344,19.304844449776,2.296588,1.4987498,3.27213921232,0.671082,0.223694,-1.789552,208.5, -7.2, -1.1,0,0,1024,1024,1024,1024,0,0,0,0,218.5,0,0,85,4.114,4.104,0,0,0,0,2.039,89.6,19.304844449776,2.296588,6,P-GPS,
167000,2023-12-29 05:01:37,-34.9553078853926,-54.9406421467623,2.624672,2.46063,16.909831249776,19.632928449776,4.593176,0.8052984,0.92054136804,3.01985245884,21,5,8.344,19.632928449776,2.624672,1.4987498,3.27213921232,0.671082,0.447388,-1.11847,208.5, -7.2, -0.4,0,0,1024,1024,1024,1024,0,0,0,0,218.5,0,0,85,4.114,4.104,0,0,0,0,2.039,89.6,19.632928449776,2.624672,6,P-GPS,
167100,2023-12-29 05:01:37,-34.9553076035945,-54.9406418474215,2.624672,2.46063,16.909831249776,19.632928449776,4.593176,0.8052984,0.7864009438,3.15617136084,21,5,8.344,19.632928449776,2.624672,1.4987498,3.27213921232,0.671082,0.447388,-0.447388,208.4, -7.3, -0.6,0,0,1024,1024,1024,1024,0,0,0,0,218.5,0,0,85,4.114,4.104,0,0,0,0,2.039,89.6,19.632928449776,2.624672,6,P-GPS,
167200,2023-12-29 05:01:37,-34.9553074319915,-54.9406413737054,2.624672,2.3950132,16.975448049776,19.632928449776,4.593176,0.7158208,0.63723099152,3.3110565364,21,5,8.344,19.632928449776,2.624672,1.4987498,3.27213921232,0.671082,0.223694,0,208.5, -8.1, -0.1,0,0,1024,1024,1024,1024,0,0,0,0,218.5,0,0,85,4.114,4.104,0,0,0,0,2.039,89.6,19.632928449776,2.624672,6,P-GPS,
167300,2023-12-29 05:01:37,-34.955307104684,-54.9406411965615,2.296588,2.0669292,16.975448049776,19.304844449776,4.265092,0.7158208,0.52159778572,3.4416995852,21,5,8.344,19.632928449776,2.624672,1.4987498,3.27213921232,0.671082,0.223694,0,208.5, -8.1, -0.3,0,0,1024,1024,1024,1024,0,0,0,0,218.5,0,0,85,4.114,4.104,0,0,0,0,2.039,89.6,19.304844449776,2.296588,6,P-GPS,
167400,2023-12-29 05:01:37,-34.9553067630698,-54.9406410937451,2.296588,2.0669292,16.975448049776,19.304844449776,3.937008,0.7158208,0.4329232422,3.570046046,21,5,8.258,19.632928449776,2.624672,1.4987498,3.27213921232,0.671082,0.223694,0,208.1, -8.4, -0.8,0,0,1024,1024,1024,1024,0,0,0,0,218.5,0,0,85,4.153,4.15,0,0,0,0,4.752,89.78,19.304844449776,2.296588,6,P-GPS,
167500,2023-12-29 05:01:37,-34.9553064107137,-54.9406409000886,2.296588,2.0997376,16.942639649776,19.304844449776,3.608924,0.7158208,0.34098754372,3.7110565492,21,5,8.258,19.632928449776,2.624672,1.4987498,3.27213921232,0.671082,0.223694,0.223694,208.2, -7.9, -0.7,0,0,1024,1024,1024,1024,0,0,0,0,218.5,0,0,85,4.153,4.15,0,0,0,0,4.752,89.78,19.304844449776,2.296588,6,P-GPS,
167600,2023-12-29 05:01:38,-34.9553058684622,-54.9406407293705,1.968504,1.7716536,16.942639649776,18.976760449776,3.608924,0.671082,0.323773960492,3.9153872644,21,5,8.258,19.632928449776,2.624672,1.4987498,3.27213921232,0.671082,0,0,208.5, -6.9, -1,0,0,1521,1024,1024,1024,75,0,0,0,218.5,0,0,85,4.153,4.15,0,0,0,0,4.752,89.78,18.976760449776,1.968504,6,P-GPS,
167700,2023-12-29 05:01:38,-34.9553055777352,-54.9406405324906,1.968504,1.7716536,16.942639649776,18.976760449776,3.28084,0.671082,0.34312337056,4.0366799192,21,5,8.258,19.632928449776,2.624672,1.4987498,3.27213921232,0.671082,0,0,208.4, -8.1, -1.1,0,0,1684,1024,1024,1024,100,0,0,0,218.5,0,0,85,4.153,4.15,0,0,0,0,4.752,89.78,18.976760449776,1.968504,6,P-GPS,
167800,2023-12-29 05:01:38,-34.9553053267562,-54.9406403492057,1.968504,1.7388452,16.975448049776,18.976760449776,3.28084,0.447388,0.38878282084,4.1434056444,21,5,8.258,19.632928449776,2.624672,1.4987498,3.27213921232,0.447388,0,0,208.6, -17.2, -1.3,0,0,1684,1024,1024,1024,100,0,0,0,218.5,0,0,85,4.153,4.15,0,0,0,0,4.752,89.78,18.976760449776,1.968504,6,P-GPS,"Punto de origen actualizado. Altitud de RPO establecida en 100m (Code: 3000001)"
167900,2023-12-29 05:01:38,-34.9553051575576,-54.9406401737774,1.968504,1.7388452,16.975448049776,18.976760449776,3.28084,0,0.42726707404,4.224409584,21,5,8.258,19.632928449776,2.624672,1.4987498,3.27213921232,0,0,0,208.7, -24.8, -1.4,0,0,1684,1024,1024,1024,100,0,0,0,218.5,0,0,85,4.153,4.15,0,0,0,0,4.752,89.78,18.976760449776,1.968504,6,P-GPS,
168000,2023-12-29 05:01:38,-34.9553051365621,-54.9406398688235,1.968504,1.7388452,16.975448049776,18.976760449776,3.28084,0.4921268,0.41861221812,4.31594502,21,5,8.258,19.632928449776,2.624672,1.4987498,3.27213921232,-0.447388,-0.223694,0,208.6, -25.1, -0.9,0,0,1684,1024,1024,1024,100,0,0,0,218.5,0,0,85,4.153,4.15,0,0,0,0,4.752,89.78,18.976760449776,1.968504,6,P-GPS,
168100,2023-12-29 05:01:38,-34.9553053931739,-54.9406400284905,1.968504,1.7388452,16.975448049776,18.976760449776,3.28084,1.11847,0.33299869832,4.4210303252,21,5,8.258,19.632928449776,2.624672,1.4987498,3.27213921232,-0.894776,-0.671082,0,208.5, -24.9, -1.1,0,0,1684,1024,1024,1024,100,0,0,0,218.5,0,0,85,4.153,4.15,0,0,0,0,4.752,89.78,18.976760449776,1.968504,6,P-GPS,
168200,2023-12-29 05:01:38,-34.9553059114865,-54.9406403919153,1.64042,1.3779528,17.008256449776,18.648676449776,5.249344,1.8119214,0.229526254064,4.6391405684,21,5,8.258,19.632928449776,2.624672,1.8119214,3.27213921232,-1.565858,-0.894776,0,208.6, -24.9, -1.1,0,0,1684,1055,1024,1024,100,5,0,0,218.5,0,0,85,4.153,4.15,0,0,0,0,4.752,89.78,18.648676449776,1.64042,6,P-GPS,
168300,2023-12-29 05:01:38,-34.9553066432131,-54.9406408477652,1.64042,1.4107612,16.975448049776,18.648676449776,5.249344,2.5053728,0.34809384316,4.9389109192,21,5,8.258,19.632928449776,2.624672,2.5053728,3.27213921232,-2.23694,-1.11847,0,208.6, -25.2, -0.6,0,0,1684,1068,1024,1024,100,7,0,0,218.5,0,0,85,4.153,4.15,0,0,0,0,4.752,89.78,18.648676449776,1.64042,6,P-GPS,
168400,2023-12-29 05:01:38,-34.9553075829596,-54.9406415345131,1.64042,1.476378,16.909831249776,18.648676449776,5.249344,2.9974996,0.70976380224,5.3385500396,21,5,8.26,19.632928449776,2.624672,2.9974996,3.27213921232,-2.684328,-1.342164,0,208.5, -24.9, 0,0,0,1684,1028,1024,1024,100,1,0,0,218.5,0,0,85,4.12,4.115,0,0,0,0,3.453,89.6,18.648676449776,1.64042,6,P-GPS,
168500,2023-12-29 05:01:38,-34.9553087710154,-54.9406422913331,1.64042,1.4435696,16.942639649776,18.648676449776,5.249344,3.5119958,1.18040686192,5.8275264332,21,5,8.26,19.632928449776,2.624672,3.5119958,3.27213921232,-3.131716,-1.565858,0,208.5, -24.3, -0.2,0,0,1684,1210,1024,1024,100,28,0,0,218.5,0,0,85,4.12,4.115,0,0,0,0,3.453,89.6,18.648676449776,1.64042,6,P-GPS,
168600,2023-12-29 05:01:39,-34.9553102342985,-54.9406432482093,1.64042,1.5091864,16.877022849776,18.648676449776,5.249344,4.1159696,1.7780840464,6.4332679224,21,5,8.26,19.632928449776,2.624672,4.1159696,3.27213921232,-3.579104,-2.013246,0,208.4, -24.4, 0,0,0,1684,1223,1024,1024,100,30,0,0,218.5,0,0,85,4.12,4.115,0,0,0,0,3.453,89.6,18.648676449776,1.64042,6,P-GPS,
168700,2023-12-29 05:01:39,-34.9553118270226,-54.9406443434239,1.64042,1.5091864,16.877022849776,18.648676449776,4.92126,4.6080964,2.44211293904,7.1002955028,21,5,8.26,19.632928449776,2.624672,4.6080964,3.27213921232,-4.026492,-2.23694,0,208.1, -25.3, 1.2,0,0,1684,1154,1024,1024,100,20,0,0,218.5,0,0,85,4.12,4.115,0,0,0,0,3.453,89.6,18.648676449776,1.64042,6,P-GPS,
168800,2023-12-29 05:01:39,-34.9553136718897,-54.9406456543292,1.64042,1.64042,16.745789249776,18.648676449776,4.593176,4.921268,3.2197179508,7.8792325356,21,5,8.26,19.632928449776,2.624672,4.921268,3.27213921232,-4.250186,-2.460634,0,208.2, -25.3, 2.4,0,0,1684,1154,1024,1024,100,20,0,0,218.5,0,0,85,4.12,4.115,0,0,0,0,3.453,89.6,18.648676449776,1.64042,6,P-GPS,
168900,2023-12-29 05:01:39,-34.9553157271509,-54.9406473116841,1.64042,1.6732284,16.712980849776,18.648676449776,4.593176,5.4133948,4.1185368772,8.778051462,21,5,8.26,19.632928449776,2.624672,5.4133948,4.1185368772,-4.697574,-2.684328,0,208.3, -25.2, 1.8,0,0,1684,1150,1024,1024,100,19,0,0,218.5,0,0,85,4.12,4.115,0,0,0,0,3.453,89.6,18.648676449776,1.64042,6,P-GPS,
169000,2023-12-29 05:01:39,-34.9553178851412,-54.9406488862397,1.968504,2.0997376,16.614555649776,18.976760449776,4.92126,5.8384134,5.0353019984,9.6954399428,21,5,8.26,19.632928449776,2.624672,5.8384134,5.0353019984,-4.921268,-3.131716,0,208.1, -24.7, 1.6,0,0,1617,1136,1024,1024,90,17,0,0,218.5,0,0,85,4.12,4.115,0,0,0,0,3.453,89.6,18.976760449776,1.968504,6,P-GPS,
169100,2023-12-29 05:01:39,-34.9553200845063,-54.940650551161,1.968504,2.2309712,16.483322049776,18.976760449776,4.92126,6.3305402,5.9795277504,10.6397969284,21,5,8.26,19.632928449776,2.624672,6.3305402,5.9795277504,-5.368656,-3.35541,0,208, -24.4, 1.1,0,0,1545,1081,1024,1024,79,9,0,0,218.5,0,0,85,4.12,4.115,0,0,0,0,3.453,89.6,18.976760449776,1.968504,6,P-GPS,
169200,2023-12-29 05:01:39,-34.9553225307207,-54.9406524375901,1.968504,2.2309712,16.483322049776,18.976760449776,4.92126,6.9568834,7.0353348708,11.6956040488,21,5,8.26,19.632928449776,2.624672,6.9568834,7.0353348708,-5.816044,-3.802798,0,208.1, -24.6, 0.4,0,0,1614,1024,1024,1024,89,0,0,0,218.5,0,0,85,4.12,4.115,0,0,0,0,3.453,89.6,18.976760449776,1.968504,6,P-GPS,
169300,2023-12-29 05:01:39,-34.9553249896162,-54.9406543233946,1.968504,2.3293964,16.384896849776,18.976760449776,5.249344,7.2476856,8.0949477656,12.755249752,21,5,8.26,19.632928449776,2.624672,7.2476856,8.0949477656,-6.039738,-4.026492,0,208.1, -24.4, -0.3,0,0,1684,1024,1024,1024,100,0,0,0,218.5,0,0,85,4.12,4.115,0,0,0,0,3.453,89.6,18.976760449776,1.968504,6,P-GPS,
169400,2023-12-29 05:01:39,-34.9553276766672,-54.9406563054943,1.968504,2.4278216,16.286471649776,18.976760449776,5.249344,7.4490102,9.2402890096,13.9008534632,21,5,8.222,19.632928449776,2.624672,7.4490102,9.2402890096,-6.263432,-4.026492,0,208.3, -25, -0.6,0,0,1684,1024,1024,1024,100,0,0,0,218.5,0,0,85,4.106,4.104,0,0,0,0,4.599,89.6,18.976760449776,1.968504,6,P-GPS,
169500,2023-12-29 05:01:40,-34.955330374762,-54.9406582854172,1.968504,2.5590552,16.155238049776,18.976760449776,5.249344,7.941137,10.3887470516,15.0495739724,21,5,8.222,19.632928449776,2.624672,7.941137,10.3887470516,-6.71082,-4.250186,0,208.3, -24.6, -0.8,0,0,1684,1024,1024,1024,100,0,0,0,218.5,0,0,85,4.106,4.104,0,0,0,0,4.599,89.6,18.976760449776,1.968504,6,P-GPS,
169600,2023-12-29 05:01:40,-34.9553333550474,-54.940660460379,1.968504,2.6574804,16.056812849776,18.976760449776,5.249344,8.2543086,11.6554465672,16.316601572,21,5,8.222,19.632928449776,2.624672,8.2543086,11.6554465672,-6.934514,-4.47388,0,208.6, -24.5, -0.4,0,0,1261,1024,1024,1024,36,0,0,0,218.5,0,0,85,4.106,4.104,0,0,0,0,4.599,89.6,18.976760449776,1.968504,6,P-GPS,
169700,2023-12-29 05:01:40,-34.9553363085644,-54.9406624824183,1.968504,2.7559056,15.958387649776,18.976760449776,5.249344,8.6345884,12.8897970004,17.5522315328,21,5,8.222,19.632928449776,2.624672,8.6345884,12.8897970004,-7.381902,-4.47388,0,208.6, -24, -0.4,0,0,1261,1024,1024,1024,36,0,0,0,218.5,0,0,85,4.106,4.104,0,0,0,0,4.599,89.6,18.976760449776,1.968504,6,P-GPS,
169800,2023-12-29 05:01:40,-34.9553394798728,-54.9406648059988,1.968504,2.9199476,15.794345649776,18.976760449776,5.249344,8.8135436,14.239337726,18.901903492,21,5,8.222,19.632928449776,2.624672,8.8135436,14.239337726,-7.605596,-4.47388,0,208.7, -25.4, -0.8,0,0,1024,1024,1024,1024,0,0,0,0,218.5,0,0,85,4.106,4.104,0,0,0,0,4.599,89.6,18.976760449776,1.968504,6,P-GPS,
169900,2023-12-29 05:01:40,-34.955342588092,-54.9406669922102,1.968504,3.0183728,15.695920449776,18.976760449776,5.249344,8.8135436,15.547736718,20.2108602268,21,5,8.222,19.632928449776,2.624672,8.8135436,15.547736718,-7.605596,-4.47388,0,208.4, -7.4, -1.1,0,0,1024,1024,1024,1024,0,0,0,0,218.5,0,0,85,4.106,4.104,0,0,0,0,4.599,89.6,18.976760449776,1.968504,6,P-GPS,
170000,2023-12-29 05:01:40,-34.9553458005967,-54.940669198355,1.968504,3.116798,15.597495249776,18.976760449776,5.249344,8.3214168,16.8917984408,21.5558405848,21,5,8.222,19.632928449776,2.624672,8.8135436,16.8917984408,-7.158208,-4.250186,-0.447388,207.5, 20.6, -2.2,0,0,1024,1024,1119,1024,0,0,14,0,218.5,0,0,85,4.106,4.104,0,0,0,0,4.599,89.6,18.976760449776,1.968504,6,P-GPS,
170100,2023-12-29 05:01:40,-34.9553483926773,-54.940670919969,1.64042,2.9199476,15.466261649776,18.648676449776,5.577428,6.822667,17.9673234096,22.6326122728,21,5,8.222,19.632928449776,2.624672,8.8135436,17.9673234096,-5.816044,-3.579104,-0.894776,207.9, 19.7, -1.5,0,0,1024,1024,1410,1008,0,0,58,-2,218.5,0,0,85,4.106,4.104,0,0,0,0,4.599,89.6,18.648676449776,1.64042,6,P-GPS,
170200,2023-12-29 05:01:40,-34.9553507523318,-54.9406726019178,1.64042,3.0183728,15.367836449776,18.648676449776,5.577428,6.822667,18.9642722604,23.6296595488,21,5,8.222,19.632928449776,2.624672,8.8135436,18.9642722604,-4.921268,-2.908022,-0.671082,208, 21.6, -1.5,0,0,1024,1024,1684,1024,0,0,100,0,218.4,0,0,85,4.106,4.104,0,0,0,0,4.599,89.6,18.648676449776,1.64042,6,P-GPS,
170300,2023-12-29 05:01:40,-34.9553526030649,-54.9406738775192,1.64042,3.0511812,15.335028049776,18.648676449776,5.905512,4.4067718,19.7394691356,24.4052173164,21,5,8.222,19.632928449776,2.624672,8.8135436,19.7394691356,-3.802798,-2.23694,-1.11847,207.7, 23.8, -3,0,0,1024,1024,1684,1024,0,0,100,0,218.5,0,0,85,4.106,4.104,0,0,0,0,4.599,89.6,18.648676449776,1.64042,6,P-GPS,
170400,2023-12-29 05:01:40,-34.955354038294,-54.9406747992614,1.64042,3.116798,15.269411249776,18.648676449776,6.233596,2.796175,20.3302499944,24.9969496188,21,5,8.196,19.632928449776,2.624672,8.8135436,20.3302499944,-2.460634,-1.342164,-1.789552,208.3, 16.3, -0.2,0,0,1024,1024,1684,1024,0,0,100,0,218.5,0,0,85,4.08,4.132,0,0,0,0,5.061,89.6,18.648676449776,1.64042,6,P-GPS,
170500,2023-12-29 05:01:40,-34.9553549322642,-54.9406755337179,1.64042,3.2152232,15.170986049776,18.648676449776,6.56168,1.6105968,20.7229665424,25.3901582928,21,5,8.196,19.632928449776,2.624672,8.8135436,20.7229665424,-1.342164,-0.894776,-2.23694,208.6, 5.1, -1.2,0,0,1024,1024,1684,1024,0,0,100,0,218.5,0,0,85,4.08,4.132,0,0,0,0,5.061,89.6,18.648676449776,1.64042,6,P-GPS,
170600,2023-12-29 05:01:41,-34.955355558479,-54.9406763195231,1.968504,3.5104988,15.203794449776,18.976760449776,7.217848,1.2079476,21.0400925368,25.7179142088,21,5,8.196,19.632928449776,2.624672,8.8135436,21.0400925368,-1.11847,-0.447388,-2.908022,208.1, -1.9, -1,0,0,1024,1024,1684,1024,0,0,100,0,218.5,0,0,85,4.08,4.132,0,0,0,0,5.061,89.6,18.976760449776,1.968504,6,P-GPS,
170700,2023-12-29 05:01:41,-34.9553558484235,-54.9406765195715,2.624672,4.265092,15.105369249776,19.632928449776,7.545932,0.9171454,21.1615492336,25.8394365224,21,5,8.196,19.632928449776,2.624672,8.8135436,21.1615492336,-0.894776,-0.223694,-3.35541,207.8, -3.8, 0,0,0,1048,1024,1684,1024,4,0,100,0,218.5,0,0,85,4.08,4.132,0,0,0,0,5.061,89.6,19.632928449776,2.624672,6,P-GPS,
170800,2023-12-29 05:01:41,-34.9553559911599,-54.9406765616591,3.28084,4.92126,15.105369249776,20.289096449776,8.2021,0.9171454,21.212599104,25.8930126396,21,5,8.196,20.289096449776,3.28084,8.8135436,21.212599104,-0.894776,-0.223694,-3.802798,207.5, -4, -0.8,0,0,1069,1024,1163,1024,7,0,21,0,218.5,0,0,85,4.08,4.132,0,0,0,0,5.061,89.6,20.289096449776,3.28084,6,P-GPS,
170900,2023-12-29 05:01:41,-34.9553560682309,-54.9406765057112,4.265092,5.905512,15.105369249776,21.273348449776,8.858268,0.7158208,21.2279862436,25.9257554228,21,5,8.196,21.273348449776,4.265092,8.8135436,21.2279862436,-0.671082,-0.223694,-4.47388,208.1, -4.7, 0.3,0,0,1024,1024,1024,1024,0,0,0,0,218.5,0,0,85,4.08,4.132,0,0,0,0,5.061,89.6,21.273348449776,4.265092,6,P-GPS,
171000,2023-12-29 05:01:41,-34.9553552772402,-54.9406758295074,4.92126,6.4960632,15.170986049776,21.929516449776,9.514436,0.4921268,20.8764114292,26.2781176388,21,5,8.196,21.929516449776,4.92126,8.8135436,21.2279862436,-0.447388,-0.223694,-4.026492,208.2, -4.9, -0.2,0,0,1024,1024,1024,1024,0,0,0,0,218.5,0,0,85,4.08,4.132,0,0,0,0,5.061,89.6,21.929516449776,4.92126,6,P-GPS,
171100,2023-12-29 05:01:41,-34.9553552876623,-54.9406757812684,5.577428,7.1522312,15.170986049776,22.585684449776,10.170604,0.447388,20.872211954,26.2930454608,21,5,8.196,22.585684449776,5.577428,8.8135436,21.2279862436,-0.447388,0,-3.35541,208.2, -5.9, 0.3,0,0,1024,1024,1024,1024,0,0,0,0,218.5,0,0,85,4.08,4.132,0,0,0,0,5.061,89.6,22.585684449776,5.577428,6,P-GPS,
171200,2023-12-29 05:01:41,-34.9553552906065,-54.9406757582882,6.233596,7.8083992,15.170986049776,23.241852449776,10.826772,0.447388,20.869587282,26.3000008416,21,5,8.196,23.241852449776,6.233596,8.8135436,21.2279862436,-0.447388,0,-2.684328,208.2, -5.1, -0.1,0,0,1024,1024,1024,1024,0,0,0,0,218.5,0,0,85,4.08,4.132,0,0,0,0,5.061,89.6,23.241852449776,6.233596,6,P-GPS,
171300,2023-12-29 05:01:41,-34.9553553733152,-54.9406757923064,6.889764,8.4645672,15.170986049776,23.898020449776,11.154856,0.223694,20.9006896452,26.3318249896,21,5,8.196,23.898020449776,6.889764,8.8135436,21.2279862436,-0.223694,0,-2.013246,208.1, -5.5, 0.2,0,0,1024,1024,1024,1024,0,0,0,0,218.5,0,0,85,4.08,4.132,0,0,0,0,5.061,89.6,23.898020449776,6.889764,6,P-GPS,
171400,2023-12-29 05:01:41,-34.9553557193074,-54.940676055447,7.217848,8.7598428,15.203794449776,24.226104449776,11.48294,0.223694,21.0494429308,26.4805782752,21,5,8.196,24.226104449776,7.217848,8.8135436,21.2279862436,-0.223694,0,-1.342164,208.1, -3.4, 0.2,0,0,1024,1024,1024,1024,0,0,0,0,218.5,0,0,85,4.08,4.132,0,0,0,0,5.061,89.6,24.226104449776,7.217848,6,P-GPS,
171500,2023-12-29 05:01:41,-34.9553557746713,-54.9406760692811,7.545932,9.0879268,15.203794449776,24.554188449776,11.48294,0,21.0688655036,26.5012147588,21,5,8.143,24.554188449776,7.545932,8.8135436,21.2279862436,0,0,-0.894776,208, -4.1, 0,0,0,1024,1024,1024,1024,0,0,0,0,218.5,0,0,85,4.103,4.101,0,0,0,0,5.927,89.6,24.554188449776,7.545932,6,P-GPS,
171600,2023-12-29 05:01:42,-34.9553557728344,-54.9406760346671,7.545932,9.0879268,15.203794449776,24.554188449776,11.811024,0,21.0629599916,26.5115822132,21,5,8.143,24.554188449776,7.545932,8.8135436,21.2279862436,0,0,-0.671082,208.1, -5.4, -0.1,0,0,1024,1024,1024,1024,0,0,0,0,218.5,0,0,85,4.103,4.101,0,0,0,0,5.927,89.6,24.554188449776,7.545932,6,P-GPS,
171700,2023-12-29 05:01:42,-34.9553557418711,-54.9406761011461,7.874016,9.4160108,15.203794449776,24.882272449776,11.811024,0,21.0635177344,26.534449668,21,5,8.143,24.882272449776,7.874016,8.8135436,21.2279862436,0,0,-0.223694,208.2, -6.5, 0.6,0,0,1024,1024,1024,1024,0,0,0,0,218.5,0,0,85,4.103,4.101,0,0,0,0,5.927,89.6,24.882272449776,7.874016,6,P-GPS,
171800,2023-12-29 05:01:42,-34.9553559454364,-54.9406767114615,7.874016,9.514436,15.105369249776,24.882272449776,11.811024,0,21.221621414,26.7314969184,21,5,8.143,24.882272449776,7.874016,8.8135436,21.2279862436,0,0,-0.223694,208.1, -6.4, 0.5,0,0,1024,1024,1024,1024,0,0,0,0,218.5,0,0,85,4.103,4.101,0,0,0,0,5.927,89.6,24.882272449776,7.874016,6,P-GPS,
171900,2023-12-29 05:01:42,-34.9553559300281,-54.9406768336166,7.874016,9.514436,15.105369249776,24.882272449776,11.811024,0,21.2358602596,26.7684391768,21,5,8.143,24.882272449776,7.874016,8.8135436,21.2358602596,0,0,0,208.1, -6.9, -0.3,0,0,1024,1024,1024,1024,0,0,0,0,218.5,0,0,85,4.103,4.101,0,0,0,0,5.927,89.6,24.882272449776,7.874016,6,P-GPS,
172000,2023-12-29 05:01:42,-34.9553559276766,-54.9406769434793,7.874016,9.514436,15.105369249776,24.882272449776,11.811024,0,21.252297268,26.8013131936,21,5,8.143,24.882272449776,7.874016,8.8135436,21.252297268,0,0,0,208.1, -7.3, -0.1,0,0,1024,1024,1024,1024,0,0,0,0,218.5,0,0,85,4.103,4.101,0,0,0,0,5.927,89.6,24.882272449776,7.874016,6,P-GPS,
172100,2023-12-29 05:01:42,-34.9553558961499,-54.9406769590485,7.874016,9.514436,15.105369249776,24.882272449776,11.811024,0,21.244915378,26.8137147688,21,5,8.143,24.882272449776,7.874016,8.8135436,21.252297268,0,0,0,208.2, -7.6, 0,0,0,1024,1024,1024,1024,0,0,0,0,218.5,0,0,85,4.103,4.101,0,0,0,0,5.927,89.6,24.882272449776,7.874016,6,P-GPS,
172200,2023-12-29 05:01:42,-34.9553558442938,-54.9406769262847,8.2021,9.84252,15.105369249776,25.210356449776,11.811024,0,21.2236883432,26.8350074204,21,5,8.143,25.210356449776,8.2021,8.8135436,21.252297268,0,0,0,208.2, -8.1, -0.4,0,0,1024,1024,1024,1024,0,0,0,0,218.5,0,0,85,4.103,4.101,0,0,0,0,5.927,89.6,25.210356449776,8.2021,6,P-GPS,
172300,2023-12-29 05:01:42,-34.955355955067,-54.9406771003215,8.2021,9.84252,15.105369249776,25.210356449776,11.811024,0,21.2853681352,26.900919496,21,5,8.143,25.210356449776,8.2021,8.8135436,21.2853681352,0,0,0,208.1, -8.2, -1.3,0,0,1024,1024,1024,1024,0,0,0,0,218.5,0,0,85,4.103,4.101,0,0,0,0,5.927,89.6,25.210356449776,8.2021,6,P-GPS,
172400,2023-12-29 05:01:42,-34.9553558633987,-54.9406771044921,8.2021,9.84252,15.105369249776,25.210356449776,11.811024,0,21.257546612,26.934384064,21,5,8.143,25.210356449776,8.2021,8.8135436,21.2853681352,0,0,0,208.1, -7.6, -0.4,0,0,1024,1024,1024,1024,0,0,0,0,218.5,0,0,85,4.103,4.101,0,0,0,0,5.927,89.6,25.210356449776,8.2021,6,P-GPS,
172500,2023-12-29 05:01:42,-34.9553558220688,-54.9406771206363,8.2021,9.84252,15.105369249776,25.210356449776,11.811024,0,21.2472447744,26.9502305212,21,5,8.238,25.210356449776,8.2021,8.8135436,21.2853681352,0,0,0,208.1, -7, -0.3,0,0,1024,1024,1024,1024,0,0,0,0,218.5,0,0,85,4.113,4.109,0,0,0,0,3.942,89.6,25.210356449776,8.2021,6,P-GPS,
172600,2023-12-29 05:01:43,-34.9553558046542,-54.9406771457436,8.2021,9.84252,15.105369249776,25.210356449776,11.811024,0,21.2458012048,26.9600402328,21,5,8.238,25.210356449776,8.2021,8.8135436,21.2853681352,0,0,0,208.3, -7, -0.2,0,0,1024,1024,1024,1024,0,0,0,0,218.5,0,0,85,4.113,4.109,0,0,0,0,3.942,89.6,25.210356449776,8.2021,6,P-GPS,
172700,2023-12-29 05:01:43,-34.9553558085136,-54.9406772725971,8.2021,9.84252,15.105369249776,25.210356449776,11.811024,0,21.2669626228,26.9979995516,21,5,8.238,25.210356449776,8.2021,8.8135436,21.2853681352,0,0,0,208.4, -7.4, -0.4,0,0,1024,1024,1024,1024,0,0,0,0,218.5,0,0,85,4.113,4.109,0,0,0,0,3.942,89.6,25.210356449776,8.2021,6,P-GPS,
172800,2023-12-29 05:01:43,-34.9553558239577,-54.9406772853546,8.2021,9.84252,15.105369249776,25.210356449776,12.139108,0,21.27378677,27.0048236988,21,5,8.238,25.210356449776,8.2021,8.8135436,21.2853681352,0,0,0,208.2, -7, -1,0,0,1024,1024,1024,1024,0,0,0,0,218.5,0,0,85,4.113,4.109,0,0,0,0,3.942,89.6,25.210356449776,8.2021,6,P-GPS,
172900,2023-12-29 05:01:43,-34.9553558821453,-54.9406773339072,8.530184,10.170604,15.105369249776,25.538440449776,12.139108,0,21.2994757472,27.0305454844,21,5,8.238,25.538440449776,8.530184,8.8135436,21.2994757472,0,0,0,208.4, -6.7, -1.6,0,0,1024,1024,1024,1024,0,0,0,0,218.5,0,0,85,4.113,4.109,0,0,0,0,3.942,89.6,25.538440449776,8.530184,6,P-GPS,
173000,2023-12-29 05:01:43,-34.9553559891601,-54.9406774032973,8.530184,10.170604,15.105369249776,25.538440449776,12.139108,0,21.3435702368,27.0747383992,21,5,8.238,25.538440449776,8.530184,8.8135436,21.3435702368,0,0,0,208.5, -5.6, -0.6,0,0,1024,1024,1024,1024,0,0,0,0,218.5,0,0,85,4.113,4.109,0,0,0,0,3.942,89.6,25.538440449776,8.530184,6,P-GPS,
173100,2023-12-29 05:01:43,-34.9553562023365,-54.9406776405257,8.530184,10.2690292,15.006944049776,25.538440449776,12.139108,0,21.4470807388,27.1800205548,21,5,8.238,25.538440449776,8.530184,8.8135436,21.4470807388,0,0,0,208.4, -5.3, -1,0,0,1024,1024,1024,1024,0,0,0,0,218.5,0,0,85,4.113,4.109,0,0,0,0,3.942,89.6,25.538440449776,8.530184,6,P-GPS,
173200,2023-12-29 05:01:43,-34.9553562979685,-54.9406777119488,8.530184,10.2690292,15.006944049776,25.538440449776,12.139108,0.223694,21.4879928136,27.2209326296,21,5,8.238,25.538440449776,8.530184,8.8135436,21.4879928136,-0.223694,0,0,208.4, -5.3, -0.9,0,0,1024,1024,1024,1024,0,0,0,0,218.5,0,0,85,4.113,4.109,0,0,0,0,3.942,89.6,25.538440449776,8.530184,6,P-GPS,
173300,2023-12-29 05:01:43,-34.9553564140081,-54.9406777896539,8.530184,10.2690292,15.006944049776,25.538440449776,12.139108,0.223694,21.5362211616,27.2692265944,21,5,8.238,25.538440449776,8.530184,8.8135436,21.5362211616,-0.223694,0,0,208.5, -4.8, -0.1,0,0,1024,1024,1024,1024,0,0,0,0,218.5,0,0,85,4.113,4.109,0,0,0,0,3.942,89.6,25.538440449776,8.530184,6,P-GPS,
173400,2023-12-29 05:01:43,-34.9553565484069,-54.9406778794266,8.530184,10.2362208,15.039752449776,25.538440449776,12.139108,0.223694,21.59202825,27.325132108,21,5,8.238,25.538440449776,8.530184,8.8135436,21.59202825,-0.223694,0,0,208.4, -4.6, 0,0,0,1024,1024,1024,1024,0,0,0,0,218.5,0,0,85,4.113,4.109,0,0,0,0,3.942,89.6,25.538440449776,8.530184,6,P-GPS,
173500,2023-12-29 05:01:43,-34.9553568056815,-54.9406781626572,8.858268,10.5643048,15.039752449776,25.866524449776,12.139108,0.223694,21.7164705112,27.4515428732,21,5,8.219,25.866524449776,8.858268,8.8135436,21.7164705112,-0.223694,0,0,208.4, -4.2, -0.4,0,0,1024,1024,1024,1024,0,0,0,0,218.5,0,0,85,4.11,4.103,0,0,0,0,4.047,89.6,25.866524449776,8.858268,6,P-GPS,
173600,2023-12-29 05:01:44,-34.9553569508117,-54.9406782435922,8.858268,10.5643048,15.039752449776,25.866524449776,12.139108,0,21.7742132952,27.5097777832,21,5,8.219,25.866524449776,8.858268,8.8135436,21.7742132952,0,0,0,208.3, -3.8, -0.3,0,0,1024,1024,1024,1024,0,0,0,0,218.5,0,0,85,4.11,4.103,0,0,0,0,4.047,89.6,25.866524449776,8.858268,6,P-GPS,
173700,2023-12-29 05:01:44,-34.9553570246518,-54.9406782916327,8.858268,10.5643048,15.039752449776,25.866524449776,12.139108,0,21.8046922988,27.5402895952,21,5,8.219,25.866524449776,8.858268,8.8135436,21.8046922988,0,0,0,208.3, -3.7, -0.7,0,0,1024,1024,1024,1024,0,0,0,0,218.5,0,0,85,4.11,4.103,0,0,0,0,4.047,89.6,25.866524449776,8.858268,6,P-GPS,
173800,2023-12-29 05:01:44,-34.9553570618748,-54.9406783171685,8.858268,10.5643048,15.039752449776,25.866524449776,12.139108,0,21.8202434804,27.5558735852,21,5,8.219,25.866524449776,8.858268,8.8135436,21.8202434804,0,0,0,208.5, -3.6, -0.9,0,0,1024,1024,1024,1024,0,0,0,0,218.5,0,0,85,4.11,4.103,0,0,0,0,4.047,89.6,25.866524449776,8.858268,6,P-GPS,
173900,2023-12-29 05:01:44,-34.9553571133402,-54.9406783363962,8.858268,10.5643048,15.039752449776,25.866524449776,12.139108,0,21.839239544,27.5755258168,21,5,8.219,25.866524449776,8.858268,8.8135436,21.839239544,0,0,0,208.7, -4, -0.4,0,0,1024,1024,1024,1024,0,0,0,0,218.5,0,0,85,4.11,4.103,0,0,0,0,4.047,89.6,25.866524449776,8.858268,6,P-GPS,
174000,2023-12-29 05:01:44,-34.9553571563767,-54.9406783493209,9.186352,10.8923888,15.039752449776,26.194608449776,12.139108,0,21.8545938752,27.591700358,21,5,8.219,26.194608449776,9.186352,8.8135436,21.8545938752,0,0,0,208.4, -3, -1.3,0,0,1024,1024,1024,1024,0,0,0,0,218.5,0,0,85,4.11,4.103,0,0,0,0,4.047,89.6,26.194608449776,9.186352,6,P-GPS,
174100,2023-12-29 05:01:44,-34.9553571582201,-54.9406783622822,9.186352,10.8923888,15.039752449776,26.194608449776,12.139108,0,21.8572185472,27.595637366,21,5,8.219,26.194608449776,9.186352,8.8135436,21.8572185472,0,0,0,208.4, -3.5, -1.5,0,0,1024,1024,1024,1024,0,0,0,0,218.5,0,0,85,4.11,4.103,0,0,0,0,4.047,89.6,26.194608449776,9.186352,6,P-GPS,
174200,2023-12-29 05:01:44,-34.9553571116303,-54.9406783446852,9.186352,10.8923888,15.039752449776,26.194608449776,12.139108,0,21.8399941372,27.6134195188,21,5,8.219,26.194608449776,9.186352,8.8135436,21.8572185472,0,0,0,208.5, -4.7, -1.4,0,0,1024,1024,1024,1024,0,0,0,0,218.5,0,0,85,4.11,4.103,0,0,0,0,4.047,89.6,26.194608449776,9.186352,6,P-GPS,
174300,2023-12-29 05:01:44,-34.9553570160765,-54.9406783066375,9.186352,10.8923888,15.039752449776,26.194608449776,12.139108,0,21.8043970232,27.65009931,21,5,8.219,26.194608449776,9.186352,8.8135436,21.8572185472,0,0,0,208.5, -6, -1.8,0,0,1024,1024,1024,1024,0,0,0,0,218.5,0,0,85,4.11,4.103,0,0,0,0,4.047,89.6,26.194608449776,9.186352,6,P-GPS,
174400,2023-12-29 05:01:44,-34.9553568496202,-54.9406782504962,9.186352,10.8923888,15.039752449776,26.194608449776,12.139108,0,21.7439639504,27.713091438,21,5,8.219,26.194608449776,9.186352,8.8135436,21.8572185472,0,0,0,208.5, -6.1, -1.2,0,0,1024,1024,1024,1024,0,0,0,0,218.5,0,0,85,4.11,4.103,0,0,0,0,4.047,89.6,26.194608449776,9.186352,6,P-GPS,
174500,2023-12-29 05:01:44,-34.9553567645014,-54.9406781720281,9.186352,10.8923888,15.039752449776,26.194608449776,12.139108,0,21.70521723,27.7520350088,21,5,8.21,26.194608449776,9.186352,8.8135436,21.8572185472,0,0,0,208.4, -6.3, -1.6,0,0,1024,1024,1024,1024,0,0,0,0,218.5,0,0,85,4.109,4.106,0,0,0,0,4.069,89.78,26.194608449776,9.186352,6,P-GPS,
174600,2023-12-29 05:01:45,-34.9553566856717,-54.9406780649719,9.186352,10.8923888,15.039752449776,26.194608449776,11.811024,0,21.663878646,27.7950468212,21,5,8.21,26.194608449776,9.186352,8.8135436,21.8572185472,0,0,0,208.6, -6.6, -1.8,0,0,1024,1024,1024,1024,0,0,0,0,218.5,0,0,85,4.109,4.106,0,0,0,0,4.069,89.78,26.194608449776,9.186352,6,P-GPS,
174700,2023-12-29 05:01:45,-34.9553566430911,-54.9406779256953,8.858268,10.5643048,15.039752449776,25.866524449776,11.811024,0,21.6286752328,27.8395022032,21,5,8.21,26.194608449776,9.186352,8.8135436,21.8572185472,0,0,0,208.6, -6.4, -0.4,0,0,1024,1024,1064,1024,0,0,6,0,218.5,0,0,85,4.109,4.106,0,0,0,0,4.069,89.78,25.866524449776,8.858268,6,P-GPS,
174800,2023-12-29 05:01:45,-34.9553566980055,-54.940677643949,8.858268,10.5643048,15.039752449776,25.866524449776,11.811024,0,21.6014114524,27.9261163792,21,5,8.21,26.194608449776,9.186352,8.8135436,21.8572185472,0,0,0,208.6, -6.8, -0.3,0,0,1024,1024,1451,1024,0,0,65,0,218.5,0,0,85,4.109,4.106,0,0,0,0,4.069,89.78,25.866524449776,8.858268,6,P-GPS,
174900,2023-12-29 05:01:45,-34.9553567077925,-54.9406775346768,8.858268,10.5643048,15.039752449776,25.866524449776,11.811024,0.223694,21.5873366488,27.958990396,21,5,8.21,26.194608449776,9.186352,8.8135436,21.8572185472,0,0.223694,0,208.3, -6.5, -0.5,0,0,1024,1024,1684,1024,0,0,100,0,218.5,0,0,85,4.109,4.106,0,0,0,0,4.069,89.78,25.866524449776,8.858268,6,P-GPS,
175000,2023-12-29 05:01:45,-34.9553567589061,-54.9406774321153,8.858268,10.4658796,15.138177649776,25.866524449776,11.811024,0.223694,21.5872382236,27.9948827856,21,5,8.21,26.194608449776,9.186352,8.8135436,21.8572185472,0,0.223694,-0.223694,208.6, -6.4, 1.1,0,0,1024,1024,1684,1024,0,0,100,0,218.5,0,0,85,4.109,4.106,0,0,0,0,4.069,89.78,25.866524449776,8.858268,6,P-GPS,
175100,2023-12-29 05:01:45,-34.9553568108925,-54.94067727047,9.186352,10.7939636,15.138177649776,26.194608449776,11.811024,0.223694,21.578248722,28.0467856744,21,5,8.21,26.194608449776,9.186352,8.8135436,21.8572185472,0,0.223694,-0.894776,208.4, -6.7, 1.4,0,0,1024,1024,1684,1024,0,0,100,0,218.5,0,0,85,4.109,4.106,0,0,0,0,4.069,89.78,26.194608449776,9.186352,6,P-GPS,
175200,2023-12-29 05:01:45,-34.9553570035114,-54.940677068373,9.186352,10.7939636,15.138177649776,26.194608449776,12.139108,0,21.6070544972,28.1394694044,21,5,8.21,26.194608449776,9.186352,8.8135436,21.8572185472,0,0,-1.565858,208.4, -6.5, 1.9,0,0,1024,1024,1684,1024,0,0,100,0,218.5,0,0,85,4.109,4.106,0,0,0,0,4.069,89.78,26.194608449776,9.186352,6,P-GPS,
175300,2023-12-29 05:01:45,-34.955357074238,-54.9406769667051,9.84252,11.4501316,15.138177649776,26.850776449776,12.467192,0,21.613517752,28.1793644188,21,5,8.21,26.850776449776,9.84252,8.8135436,21.8572185472,0,0,-2.460634,208.5, -6.1, 2,0,0,1024,1024,1684,1024,0,0,100,0,218.5,0,0,85,4.109,4.106,0,0,0,0,4.069,89.78,26.850776449776,9.84252,6,P-GPS,
175400,2023-12-29 05:01:45,-34.9553571548915,-54.9406769408348,10.170604,11.7782156,15.138177649776,27.178860449776,12.795276,0,21.6347775952,28.2097778056,21,5,8.21,27.178860449776,10.170604,8.8135436,21.8572185472,0,0,-3.35541,208.3, -5.7, 0.7,0,0,1024,1024,1684,1024,0,0,100,0,218.5,0,0,85,4.109,4.106,0,0,0,0,4.069,89.78,27.178860449776,10.170604,6,P-GPS,
175500,2023-12-29 05:01:45,-34.9553572281227,-54.9406769318925,10.826772,12.4343836,15.138177649776,27.835028449776,13.451444,0,21.656332714,28.2366478852,21,5,8.203,27.835028449776,10.826772,8.8135436,21.8572185472,0,0,-4.250186,208.1, -5.1, 0,0,0,1024,1024,1684,1024,0,0,100,0,218.5,0,0,85,4.073,4.066,0,0,0,0,4.207,89.78,27.835028449776,10.826772,6,P-GPS,
175600,2023-12-29 05:01:46,-34.9553573051318,-54.9406769122467,11.48294,13.0905516,15.138177649776,28.491196449776,14.107612,0,21.6774285152,28.2653552352,21,5,8.203,28.491196449776,11.48294,8.8135436,21.8572185472,0,0,-4.921268,208.3, -5.4, -0.5,0,0,1024,1024,1657,1024,0,0,96,0,218.5,0,0,85,4.073,4.066,0,0,0,0,4.207,89.78,28.491196449776,11.48294,6,P-GPS,
175700,2023-12-29 05:01:46,-34.9553574123388,-54.940676883758,12.467192,14.0748036,15.138177649776,29.475448449776,15.091864,0,21.706693608,28.3053814832,21,5,8.203,29.475448449776,12.467192,8.8135436,21.8572185472,0,0,-5.59235,208.5, -4.3, 0.3,0,0,1024,1024,1411,1024,0,0,59,0,218.5,0,0,85,4.073,4.066,0,0,0,0,4.207,89.78,29.475448449776,12.467192,6,P-GPS,
175800,2023-12-29 05:01:46,-34.9553574431945,-54.9406769088757,13.451444,15.0590556,15.138177649776,30.459700449776,15.748032,0,21.7201778604,28.318898544,21,5,8.203,30.459700449776,13.451444,8.8135436,21.8572185472,0,0,-6.039738,208.5, -4.1, 0,0,0,1024,1024,1187,1024,0,0,25,0,218.5,0,0,85,4.073,4.066,0,0,0,0,4.207,89.78,30.459700449776,13.451444,6,P-GPS,
175900,2023-12-29 05:01:46,-34.9553575221936,-54.9406768974196,14.107612,15.6824152,15.170986049776,31.115868449776,16.732284,0,21.7432093572,28.347933978,21,5,8.203,31.115868449776,14.107612,8.8135436,21.8572185472,0,0,-5.59235,208.6, -5.2, 1.8,0,0,1024,1024,1024,1024,0,0,0,0,218.5,0,0,85,4.073,4.066,0,0,0,0,4.207,89.78,31.115868449776,14.107612,6,P-GPS,
176000,2023-12-29 05:01:46,-34.9553576114095,-54.9406768849339,14.76378,16.3385832,15.170986049776,31.772036449776,17.388452,0,21.7693248436,28.3807095696,21,5,8.203,31.772036449776,14.76378,8.8135436,21.8572185472,0,0,-4.921268,208.5, -5.7, 1.8,0,0,1024,1024,1024,1024,0,0,0,0,218.5,0,0,85,4.073,4.066,0,0,0,0,4.207,89.78,31.772036449776,14.76378,6,P-GPS,
176100,2023-12-29 05:01:46,-34.9553578011298,-54.9406769208284,15.419948,16.9947512,15.170986049776,32.428204449776,18.04462,0,21.8343510924,28.4507555036,21,5,8.203,32.428204449776,15.419948,8.8135436,21.8572185472,0,0,-4.026492,208.5, -5.2, 1.2,0,0,1024,1024,1024,1024,0,0,0,0,218.5,0,0,85,4.073,4.066,0,0,0,0,4.207,89.78,32.428204449776,15.419948,6,P-GPS,
176200,2023-12-29 05:01:46,-34.9553578223712,-54.9406769143373,16.076116,17.6509192,15.170986049776,33.084372449776,18.700788,0,21.8400269456,28.4587279448,21,5,8.203,33.084372449776,16.076116,8.8135436,21.8572185472,0,0,-3.35541,208.5, -5.4, 0.5,0,0,1024,1024,1271,1024,0,0,37,0,218.5,0,0,85,4.073,4.066,0,0,0,0,4.207,89.78,33.084372449776,16.076116,6,P-GPS,
176300,2023-12-29 05:01:46,-34.9553577081293,-54.9406769345318,16.4042,17.9790032,15.170986049776,33.412456449776,19.028872,0,21.8072185456,28.5008539304,21,5,8.203,33.412456449776,16.4042,8.8135436,21.8572185472,0,0,-2.460634,208.4, -5, 0,0,0,1024,1024,1684,1024,0,0,100,0,218.5,0,0,85,4.073,4.066,0,0,0,0,4.207,89.78,33.412456449776,16.4042,6,P-GPS,
176400,2023-12-29 05:01:46,-34.9553575121135,-54.9406769801159,16.732284,18.3070872,15.170986049776,33.740540449776,19.356956,0.223694,21.7526909848,28.57365577,21,5,8.203,33.740540449776,16.732284,8.8135436,21.8572185472,0.223694,0,-2.23694,208.1, -4.5, 0.1,0,0,1024,1024,1684,1024,0,0,100,0,218.5,0,0,85,4.073,4.066,0,0,0,0,4.207,89.78,33.740540449776,16.732284,6,P-GPS,
176500,2023-12-29 05:01:47,-34.9553570227335,-54.9406771460885,17.388452,18.9960636,15.138177649776,34.396708449776,19.68504,0,21.6250663088,28.7589904216,21,5,8.216,34.396708449776,17.388452,8.8135436,21.8572185472,0,0,-2.684328,208.2, -6.3, -1.6,0,0,1024,1024,1684,1024,0,0,100,0,218.5,0,0,85,4.124,4.121,0,0,0,0,5.332,89.96,34.396708449776,17.388452,6,P-GPS,
176600,2023-12-29 05:01:47,-34.9553568777922,-54.9406773047704,17.716536,19.3241476,15.138177649776,34.724792449776,20.341208,0.223694,21.6044298252,28.8300206076,21,5,8.216,34.724792449776,17.716536,8.8135436,21.8572185472,0,-0.223694,-3.35541,208.4, -5.7, -2.3,0,0,1024,1024,1684,1024,0,0,100,0,218.5,0,0,85,4.124,4.121,0,0,0,0,5.332,89.96,34.724792449776,17.716536,6,P-GPS,
176700,2023-12-29 05:01:47,-34.9553568210052,-54.9406774354078,18.372704,19.9803156,15.138177649776,35.380960449776,20.997376,0,21.6070544972,28.8742463308,21,5,8.216,35.380960449776,18.372704,8.8135436,21.8572185472,0,0,-4.026492,208.6, -5.9, -2,0,0,1024,1024,1684,1024,0,0,100,0,218.5,0,0,85,4.124,4.121,0,0,0,0,5.332,89.96,35.380960449776,18.372704,6,P-GPS,
176800,2023-12-29 05:01:47,-34.9553568138433,-54.9406775544271,19.028872,20.7349088,15.039752449776,36.037128449776,21.653544,0.223694,21.6234258888,28.90994187,21,5,8.216,36.037128449776,19.028872,8.8135436,21.8572185472,0,-0.223694,-4.697574,208.3, -4.8, -1.8,0,0,1024,1024,1684,1024,0,0,100,0,218.5,0,0,85,4.124,4.121,0,0,0,0,5.332,89.96,36.037128449776,19.028872,6,P-GPS,
176900,2023-12-29 05:01:47,-34.9553569025446,-54.9406778603505,20.013124,21.7191608,15.039752449776,37.021380449776,22.309712,0.223694,21.6988852088,29.0069563088,21,5,8.216,37.021380449776,20.013124,8.8135436,21.8572185472,0,0,-5.59235,208.4, -4.8, -2.1,0,0,1024,1024,1684,1024,0,0,100,0,218.5,0,0,85,4.124,4.121,0,0,0,0,5.332,89.96,37.021380449776,20.013124,6,P-GPS,
177000,2023-12-29 05:01:47,-34.9553568839543,-54.9406780276454,20.997376,22.7034128,15.039752449776,38.005632449776,23.293964,0,21.7194232672,29.0574484364,21,5,8.216,38.005632449776,20.997376,8.8135436,21.8572185472,0,0,-6.039738,208.5, -4.8, -2.2,0,0,1024,1024,1684,1024,0,0,100,0,218.5,0,0,85,4.124,4.121,0,0,0,0,5.332,89.96,38.005632449776,20.997376,6,P-GPS,
177100,2023-12-29 05:01:47,-34.9553568833974,-54.940678136003,21.981628,23.6876648,15.039752449776,38.989884449776,23.950132,0,21.7363524016,29.0898631356,21,5,8.216,38.989884449776,21.981628,8.8135436,21.8572185472,0,0,-6.263432,208.5, -4.9, -1.6,0,0,1024,1024,1641,1024,0,0,93,0,218.5,0,0,85,4.124,4.121,0,0,0,0,5.332,89.96,38.989884449776,21.981628,6,P-GPS,
177200,2023-12-29 05:01:47,-34.9553569035347,-54.9406782184431,22.96588,24.6719168,15.039752449776,39.974136449776,24.934384,0,21.7556109324,29.1155849212,22,5,8.216,39.974136449776,22.96588,8.8135436,21.8572185472,0,0,-6.71082,208.5, -5.1, -1.9,0,0,1024,1024,1024,1024,0,0,0,0,218.5,0,0,85,4.124,4.121,0,0,0,0,5.332,89.96,39.974136449776,22.96588,6,P-GPS,
177300,2023-12-29 05:01:47,-34.9553569257402,-54.9406782818333,23.950132,25.6561688,15.039752449776,40.958388449776,25.918636,0,21.7725072584,29.1361885964,22,5,8.216,40.958388449776,23.950132,8.8135436,21.8572185472,0,0,-6.263432,208.6, -5, -1.9,0,0,1024,1024,1024,1024,0,0,0,0,218.5,0,0,85,4.124,4.121,0,0,0,0,5.332,89.96,40.958388449776,23.950132,6,P-GPS,
177400,2023-12-29 05:01:47,-34.9553570604385,-54.9406783482652,24.6063,26.3123368,15.039752449776,41.614556449776,26.574804,0,21.8247054228,29.1892069708,22,5,8.216,41.614556449776,24.6063,8.8135436,21.8572185472,0,0,-5.59235,208.6, -5.2, -1.9,0,0,1024,1024,1024,1024,0,0,0,0,218.5,0,0,85,4.124,4.121,0,0,0,0,5.332,89.96,41.614556449776,24.6063,6,P-GPS,
177500,2023-12-29 05:01:47,-34.9553570008603,-54.9406783241039,25.262468,26.9685048,15.039752449776,42.270724449776,27.230972,0,21.8024285192,29.212107234,22,5,8.216,42.270724449776,25.262468,8.8135436,21.8572185472,0,0,-4.697574,208.7, -5.6, -1.4,0,0,1024,1024,1024,1024,0,0,0,0,218.5,0,0,85,4.124,4.121,0,0,0,0,5.332,89.96,42.270724449776,25.262468,6,P-GPS,
177600,2023-12-29 05:01:48,-34.9553568951612,-54.9406782611004,25.918636,27.6246728,15.039752449776,42.926892449776,27.88714,0,21.7597447908,29.2550206212,21,5,8.081,42.926892449776,25.918636,8.8135436,21.8572185472,0,0,-4.026492,208.6, -6, -1.5,0,0,1024,1024,1024,1024,0,0,0,0,218.5,0,0,85,4.06,4.053,0,0,0,0,5.473,89.96,42.926892449776,25.918636,6,P-GPS,
177700,2023-12-29 05:01:48,-34.9553567982428,-54.9406781997172,26.574804,28.2808408,15.039752449776,43.583060449776,28.215224,0.223694,21.7200466268,29.2948500188,21,5,8.081,43.583060449776,26.574804,8.8135436,21.8572185472,0.223694,0,-3.131716,208.6, -6.7, -1.5,0,0,1024,1024,1024,1024,0,0,0,0,218.5,0,0,85,4.06,4.053,0,0,0,0,5.473,89.96,43.583060449776,26.574804,6,P-GPS,
177800,2023-12-29 05:01:48,-34.9553566318581,-54.9406779850038,26.902888,28.6089248,15.039752449776,43.911144449776,28.543308,0.223694,21.6345479364,29.3832358484,21,5,8.081,43.911144449776,26.902888,8.8135436,21.8572185472,0.223694,0,-2.460634,208.7, -6.7, -1.5,0,0,1024,1024,1024,1024,0,0,0,0,218.5,0,0,85,4.06,4.053,0,0,0,0,5.473,89.96,43.911144449776,26.902888,6,P-GPS,
177900,2023-12-29 05:01:48,-34.955356548459,-54.9406779080721,26.902888,28.6089248,15.039752449776,43.911144449776,28.543308,0.223694,21.5965558092,29.4213592092,21,5,8.081,43.911144449776,26.902888,8.8135436,21.8572185472,0.223694,0,-1.565858,208.7, -7.3, -1.1,0,0,1024,1024,1024,1024,0,0,0,0,218.5,0,0,85,4.06,4.053,0,0,0,0,5.473,89.96,43.911144449776,26.902888,6,P-GPS,
178000,2023-12-29 05:01:48,-34.9553564637929,-54.9406778325778,27.230972,28.9698172,15.006944049776,44.239228449776,28.543308,0.223694,21.5584324484,29.459646612,21,5,8.081,44.239228449776,27.230972,8.8135436,21.8572185472,0.223694,0,-0.894776,208.4, -6.8, -1.8,0,0,1024,1024,1024,1024,0,0,0,0,218.5,0,0,85,4.06,4.053,0,0,0,0,5.473,89.96,44.239228449776,27.230972,6,P-GPS,
178100,2023-12-29 05:01:48,-34.9553563819343,-54.9406777887759,27.230972,28.9698172,15.006944049776,44.239228449776,28.543308,0.223694,21.5261489828,29.4922581616,21,5,8.081,44.239228449776,27.230972,8.8135436,21.8572185472,0.223694,0,-0.447388,208.1, -5.3, -2,0,0,1024,1024,1024,1024,0,0,0,0,218.5,0,0,85,4.06,4.053,0,0,0,0,5.473,89.96,44.239228449776,27.230972,6,P-GPS,
178200,2023-12-29 05:01:48,-34.9553563637837,-54.9406777480418,27.230972,28.9698172,15.006944049776,44.239228449776,28.543308,0.223694,21.5140754916,29.5061033064,21,5,8.081,44.239228449776,27.230972,8.8135436,21.8572185472,0.223694,0,-0.223694,208.3, -6.3, -1.6,0,0,1024,1024,1024,1024,0,0,0,0,218.5,0,0,85,4.06,4.053,0,0,0,0,5.473,89.96,44.239228449776,27.230972,6,P-GPS,
178300,2023-12-29 05:01:48,-34.9553562678683,-54.9406776871812,27.230972,28.9698172,15.006944049776,44.239228449776,28.871392,0.223694,21.4747710284,29.5455390032,21,5,8.081,44.239228449776,27.230972,8.8135436,21.8572185472,0.223694,0,0,208.3, -6.3, -1.4,0,0,1024,1024,1024,1024,0,0,0,0,218.5,0,0,85,4.06,4.053,0,0,0,0,5.473,89.96,44.239228449776,27.230972,6,P-GPS,
178400,2023-12-29 05:01:48,-34.9553561658952,-54.9406776222283,26.902888,28.6417332,15.006944049776,43.911144449776,28.871392,0,21.43290751,29.5875337552,21,5,8.081,44.239228449776,27.230972,8.8135436,21.8572185472,0,0,0,208.3, -6.7, -1.5,0,0,1024,1024,1024,1024,0,0,0,0,218.5,0,0,85,4.06,4.053,0,0,0,0,5.473,89.96,43.911144449776,26.902888,6,P-GPS,
178500,2023-12-29 05:01:48,-34.9553560877526,-54.9406775818758,26.902888,28.6417332,15.006944049776,43.911144449776,28.871392,0,21.4023300812,29.6184720764,21,5,8.081,44.239228449776,27.230972,8.8135436,21.8572185472,0,0,0,208.1, -7.2, -2.1,0,0,1024,1024,1024,1024,0,0,0,0,218.5,0,0,85,4.06,4.053,0,0,0,0,5.473,89.96,43.911144449776,26.902888,6,P-GPS,
178600,2023-12-29 05:01:49,-34.9553560066268,-54.9406775899766,26.902888,28.6417332,15.006944049776,43.911144449776,28.543308,0,21.3784783744,29.6481636784,21,5,8.252,44.239228449776,27.230972,8.8135436,21.8572185472,0,0,0,208.1, -7.1, -3.2,0,0,1024,1024,1024,1024,0,0,0,0,218.5,0,0,84,4.113,4.107,0,0,0,0,3.053,89.96,43.911144449776,26.902888,6,P-GPS,
178700,2023-12-29 05:01:49,-34.9553560158992,-54.9406775940375,26.902888,28.6417332,15.006944049776,43.911144449776,28.543308,0,21.3819888732,29.6517726024,21,5,8.252,44.239228449776,27.230972,8.8135436,21.8572185472,0,0,0,208.3, -6.5, -2.7,0,0,1024,1024,1024,1024,0,0,0,0,218.5,0,0,84,4.113,4.107,0,0,0,0,3.053,89.96,43.911144449776,26.902888,6,P-GPS,
178800,2023-12-29 05:01:49,-34.955356070185,-54.9406776083472,26.902888,28.6417332,15.006944049776,43.911144449776,28.871392,0,21.4010505536,29.6720481936,21,5,8.252,44.239228449776,27.230972,8.8135436,21.8572185472,0,0,0,208.1, -5.1, -2.8,0,0,1024,1024,1024,1024,0,0,0,0,218.5,0,0,84,4.113,4.107,0,0,0,0,3.053,89.96,43.911144449776,26.902888,6,P-GPS,
178900,2023-12-29 05:01:49,-34.9553561443932,-54.9406776676243,26.902888,28.6417332,15.006944049776,43.911144449776,28.871392,0,21.4334324444,29.704397276,21,5,8.252,44.239228449776,27.230972,8.8135436,21.8572185472,0,0,0,208, -4.5, -3.1,0,0,1024,1024,1024,1024,0,0,0,0,218.5,0,0,84,4.113,4.107,0,0,0,0,3.053,89.96,43.911144449776,26.902888,6,P-GPS,
179000,2023-12-29 05:01:49,-34.9553562406114,-54.9406777599056,26.902888,28.6417332,15.006944049776,43.911144449776,28.871392,0,21.4777894012,29.7490495084,21,5,8.252,44.239228449776,27.230972,8.8135436,21.8572185472,0,0,0,208.1, -3.8, -3.1,0,0,1024,1024,1024,1024,0,0,0,0,218.5,0,0,84,4.113,4.107,0,0,0,0,3.053,89.96,43.911144449776,26.902888,6,P-GPS,
179100,2023-12-29 05:01:49,-34.9553564760519,-54.9406779655148,26.902888,28.6417332,15.006944049776,43.911144449776,28.871392,0,21.5832355988,29.8546925564,21,5,8.252,44.239228449776,27.230972,8.8135436,21.8572185472,0,0,0,208.2, -3.5, -2.8,0,0,1024,1024,1024,1024,0,0,0,0,218.5,0,0,84,4.113,4.107,0,0,0,0,3.053,89.96,43.911144449776,26.902888,6,P-GPS,
179200,2023-12-29 05:01:49,-34.9553565934431,-54.9406780755029,26.902888,28.6089248,15.039752449776,43.911144449776,28.871392,0,21.636975758,29.9086951828,21,5,8.252,44.239228449776,27.230972,8.8135436,21.8572185472,0,0,0,208.2, -3.3, -2.9,0,0,1024,1024,1024,1024,0,0,0,0,218.5,0,0,84,4.113,4.107,0,0,0,0,3.053,89.96,43.911144449776,26.902888,6,P-GPS,
179300,2023-12-29 05:01:49,-34.9553567364498,-54.9406781561296,26.902888,28.6089248,15.039752449776,43.911144449776,28.871392,0,21.6939967572,29.9661754996,21,5,8.252,44.239228449776,27.230972,8.8135436,21.8572185472,0,0,0,208.2, -3.3, -3.2,0,0,1024,1024,1024,1024,0,0,0,0,218.5,0,0,84,4.113,4.107,0,0,0,0,3.053,89.96,43.911144449776,26.902888,6,P-GPS,
179400,2023-12-29 05:01:49,-34.9553568998186,-54.9406782062814,26.902888,28.6089248,15.039752449776,43.911144449776,28.871392,0,21.7525269428,30.0276256328,21,5,8.252,44.239228449776,27.230972,8.8135436,21.8572185472,0,0,0,208.2, -2.8, -3.1,0,0,1024,1024,1024,1024,0,0,0,0,218.5,0,0,84,4.113,4.107,0,0,0,0,3.053,89.96,43.911144449776,26.902888,6,P-GPS,
179500,2023-12-29 05:01:49,-34.9553572398898,-54.9406784113157,27.230972,28.9370088,15.039752449776,44.239228449776,28.871392,0,21.890256606,30.166011464,21,5,8.252,44.239228449776,27.230972,8.8135436,21.890256606,0,0,0,208.4, -3.4, -2.6,0,0,1024,1024,1024,1024,0,0,0,0,218.5,0,0,84,4.113,4.107,0,0,0,0,3.053,89.96,44.239228449776,27.230972,6,P-GPS,
179600,2023-12-29 05:01:50,-34.9553573631337,-54.9406784149532,27.230972,28.9370088,15.039752449776,44.239228449776,28.871392,0,21.9290361348,30.2109917804,21,5,8.189,44.239228449776,27.230972,8.8135436,21.9290361348,0,0,0,208.6, -5.1, -1.4,0,0,1024,1024,1024,1024,0,0,0,0,218.5,0,0,84,4.097,4.093,0,0,0,0,3.839,89.96,44.239228449776,27.230972,6,P-GPS,
179700,2023-12-29 05:01:50,-34.9553574659113,-54.940678414624,26.902888,28.6089248,15.039752449776,43.911144449776,28.871392,0.223694,21.9608602828,30.2484917816,21,5,8.189,44.239228449776,27.230972,8.8135436,21.9608602828,-0.223694,0,0,208.8, -4.9, -1,0,0,1024,1024,1024,1024,0,0,0,0,218.5,0,0,84,4.097,4.093,0,0,0,0,3.839,89.96,43.911144449776,26.902888,6,P-GPS,
179800,2023-12-29 05:01:50,-34.9553575745253,-54.9406784040459,26.902888,28.5761164,15.072560849776,43.911144449776,28.871392,0.223694,21.9929140896,30.2882555624,21,5,8.189,44.239228449776,27.230972,8.8135436,21.9929140896,-0.223694,0,0,208.9, -4.6, 0.2,0,0,1024,1024,1024,1024,0,0,0,0,218.5,0,0,84,4.097,4.093,0,0,0,0,3.839,89.96,43.911144449776,26.902888,6,P-GPS,
179900,2023-12-29 05:01:50,-34.9553577806081,-54.940678268872,26.902888,28.5761164,15.072560849776,43.911144449776,28.871392,0.223694,22.0357946684,30.3736230192,21,5,8.189,44.239228449776,27.230972,8.8135436,22.0357946684,-0.223694,0,0,208.7, -3.3, 0.8,0,0,1024,1024,1024,1024,0,0,0,0,218.5,0,0,84,4.097,4.093,0,0,0,0,3.839,89.96,43.911144449776,26.902888,6,P-GPS,
180000,2023-12-29 05:01:50,-34.955357925341,-54.940678198212,26.902888,28.5761164,15.072560849776,43.911144449776,28.543308,0.223694,22.0698169792,30.4305127848,21,5,8.189,44.239228449776,27.230972,8.8135436,22.0698169792,-0.223694,0,0,208.5, -2.3, 0.3,0,0,1024,1024,1024,1024,0,0,0,0,218.5,0,0,84,4.097,4.093,0,0,0,0,3.839,89.96,43.911144449776,26.902888,6,P-GPS,
180100,2023-12-29 05:01:50,-34.9553580148728,-54.9406781561818,26.902888,28.5761164,15.072560849776,43.911144449776,28.543308,0,22.0911752476,30.4654865392,21,5,8.189,44.239228449776,27.230972,8.8135436,22.0911752476,0,0,0,208.3, -2.3, -0.6,0,0,1024,1024,1024,1024,0,0,0,0,218.5,0,0,84,4.097,4.093,0,0,0,0,3.839,89.96,43.911144449776,26.902888,6,P-GPS,
180200,2023-12-29 05:01:50,-34.9553580659082,-54.9406781219755,26.902888,28.5761164,15.072560849776,43.911144449776,28.543308,0,22.1017723608,30.4867463824,21,5,8.189,44.239228449776,27.230972,8.8135436,22.1017723608,0,0,0,208.4, -2.9, 0,0,0,1024,1024,1024,1024,0,0,0,0,218.5,0,0,84,4.097,4.093,0,0,0,0,3.839,89.96,43.911144449776,26.902888,6,P-GPS,
180300,2023-12-29 05:01:50,-34.9553582629988,-54.9406781261095,26.902888,28.5761164,15.072560849776,43.911144449776,28.871392,0,22.1639442788,30.5586623952,21,5,8.189,44.239228449776,27.230972,8.8135436,22.1639442788,0,0,0,208.4, -3.7, 0.4,0,0,1024,1024,1024,1024,0,0,0,0,218.5,0,0,84,4.097,4.093,0,0,0,0,3.839,89.96,43.911144449776,26.902888,6,P-GPS,
180400,2023-12-29 05:01:50,-34.9553583664734,-54.9406780958438,26.902888,28.5761164,15.072560849776,43.911144449776,28.543308,0,22.1915689516,30.5974747324,21,5,8.189,44.239228449776,27.230972,8.8135436,22.1915689516,0,0,0,208.4, -3.3, -0.1,0,0,1024,1024,1024,1024,0,0,0,0,218.5,0,0,84,4.097,4.093,0,0,0,0,3.839,89.96,43.911144449776,26.902888,6,P-GPS,
