time(millisecond),datetime(utc),latitude,longitude,height_above_takeoff(feet),height_above_ground_at_drone_location(feet),ground_elevation_at_drone_location(feet),altitude_above_seaLevel(feet),height_sonar(feet),speed(mph),distance(feet),mileage(feet),satellites,gpslevel,voltage(v),max_altitude(feet),max_ascent(feet),max_speed(mph),max_distance(feet), xSpeed(mph), ySpeed(mph), zSpeed(mph), compass_heading(degrees), pitch(degrees), roll(degrees),isPhoto,isVideo,rc_elevator,rc_aileron,rc_throttle,rc_rudder,rc_elevator(percent),rc_aileron(percent),rc_throttle(percent),rc_rudder(percent),gimbal_heading(degrees),gimbal_pitch(degrees),gimbal_roll(degrees),battery_percent,voltageCell1,voltageCell2,voltageCell3,voltageCell4,voltageCell5,voltageCell6,current(A),battery_temperature(f),altitude(feet),ascent(feet),flycStateRaw,flycState,message
222400,2022-08-23 22:11:57,-34.9051392610768,-56.1629084152053,0,0,132.84954591785,133.11201311785,0,0,0,0,14,4,0,133.11201311785,0,0,0,0,0,0,113.8, 4.4, 2.2,0,0,364,364,364,1684,-100,-100,-100,100,123.6,-1.3,0,25,3.742,3.737,0,0,0,0,0,94.82,133.11201311785,0,41,Motors_Started,"Aeronave en Zona de altitud restringida (150). Vuela con precaución (Code: 190001). El motor no puede girar. Comprueba su estado (Code: 30142)"
222500,2022-08-23 22:11:57,-34.9051394443883,-56.1629079867432,0,0,132.84954591785,133.11201311785,0,0,0.144598429824,0.144598429824,13,4,0,133.11201311785,0,0,0.144598429824,0,0,0,113.8, 4.4, 2.3,0,0,364,364,364,1684,-100,-100,-100,100,123.5,-1.3,0,25,3.742,3.737,0,0,0,0,0,94.82,133.11201311785,0,41,Motors_Started,"Setting new Return-To-Home altitude to 100m (328 ft). Data Recorder File Index is 99. Setting new Maximum Flight Altitude to 120m (394 ft)"
222600,2022-08-23 22:11:57,-34.9051394192435,-56.1629076565305,0,0,132.84954591785,133.11201311785,0.328084,0,10.523950468,0.243827435624,13,4,0,133.11201311785,0,0,10.523950468,0,0,0,113.9, 4.4, 2.2,0,0,364,364,364,1684,-100,-100,-100,100,123.5,-1.3,0,25,3.742,3.737,0,0,0,0,0,94.82,133.11201311785,0,41,Motors_Started,
222700,2022-08-23 22:11:58,-34.9051386834441,-56.1629063262151,0,0,132.84954591785,133.11201311785,0.328084,0,10.0684714508,0.72394359272,14,4,0,133.11201311785,0,0,10.523950468,0,0,0,113.9, 4.4, 2.2,0,0,364,364,364,1684,-100,-100,-100,100,123.5,-1.3,0,25,3.742,3.737,0,0,0,0,0,94.82,133.11201311785,0,41,Motors_Started,
222800,2022-08-23 22:11:58,-34.9051387100383,-56.1629066188333,0,0,132.84954591785,133.11201311785,0.328084,0,10.155512136,0.81203414672,14,4,0,133.11201311785,0,0,10.523950468,0,0,0,113.9, 4.5, 2.3,0,0,364,364,364,1684,-100,-100,-100,100,123.5,-1.3,0,25,3.742,3.737,0,0,0,0,0,94.82,133.11201311785,0,41,Motors_Started,
222900,2022-08-23 22:11:58,-34.9051387590389,-56.1629070085503,0,0,132.84954591785,133.11201311785,0.328084,0,10.2727693576,0.93000659144,14,4,0,133.11201311785,0,0,10.523950468,0,0,0,113.9, 4.5, 2.3,0,0,364,364,364,1684,-100,-100,-100,100,123.5,-1.3,0,25,3.742,3.737,0,0,0,0,0,94.82,133.11201311785,0,41,Motors_Started,
223000,2022-08-23 22:11:58,-34.9051389051771,-56.1629070880264,0,0,132.84954591785,133.11201311785,0.328084,0,10.3096459992,0.9883858584,14,4,0,133.11201311785,0,0,10.523950468,0,0,0,113.9, 4.5, 2.3,0,0,1024,1024,1024,1079,0,0,0,8,123.5,-1.3,0,25,3.742,3.737,0,0,0,0,0,94.82,133.11201311785,0,41,Motors_Started,
223100,2022-08-23 22:11:58,-34.9051390755279,-56.1629071126455,0,0,132.84954591785,133.11201311785,0.328084,0,10.3332680472,1.05097444308,13,4,0,133.11201311785,0,0,10.523950468,0,0,0,113.9, 4.5, 2.2,0,0,1024,1024,1024,1024,0,0,0,0,123.5,-1.3,0,25,3.742,3.737,0,0,0,0,0,94.82,133.11201311785,0,41,Motors_Started,
223200,2022-08-23 22:11:58,-34.9051392117203,-56.162907413891,0,0,132.84954591785,133.11201311785,0.328084,0,10.4334320924,1.15389767472,13,4,0,133.11201311785,0,0,10.523950468,0,0,0,113.9, 4.4, 2.3,0,0,1024,1024,1024,1024,0,0,0,0,123.5,-1.3,0,25,3.742,3.737,0,0,0,0,0,94.82,133.11201311785,0,41,Motors_Started,
223300,2022-08-23 22:11:58,-34.9051393834227,-56.1629071523647,0,0,132.84954591785,133.11201311785,0.328084,0,10.3753940328,1.25413717924,14,4,7.481,133.11201311785,0,0,10.523950468,0,0,0,114, 4.4, 2.2,0,0,1024,1024,1024,1024,0,0,0,0,123.5,-1.3,0,25,3.734,3.729,0,0,0,0,0.64,94.82,133.11201311785,0,41,Motors_Started,
223400,2022-08-23 22:11:58,-34.9051394540173,-56.1629072105462,0,0,132.84954591785,133.11201311785,0.328084,0,10.399278548,1.28522641908,14,4,7.481,133.11201311785,0,0,10.523950468,0,0,0,114.1, 4.5, 2.3,0,0,1024,1024,1024,1024,0,0,0,0,123.6,-1.3,0,25,3.734,3.729,0,0,0,0,0.64,94.82,133.11201311785,0,41,Motors_Started,
223500,2022-08-23 22:11:58,-34.9051395145319,-56.1629073185026,0,0,132.84954591785,133.11201311785,0.328084,0,10.4364832736,1.32435371692,14,4,7.481,133.11201311785,0,0,10.523950468,0,0,0,114, 4.4, 2.3,0,0,1024,1024,1112,1024,0,0,13,0,123.6,-1.3,0,25,3.734,3.729,0,0,0,0,0.64,94.82,133.11201311785,0,10,Assisted_Takeoff,"En vuelo"
223600,2022-08-23 22:11:58,-34.9051393854126,-56.1629078940056,0,0,132.84954591785,133.11201311785,0.328084,0,10.5889111,1.50287734468,14,4,7.481,133.11201311785,0,0,10.5889111,0,0,0,114.1, 4.4, 2.3,0,0,1024,1024,1684,1024,0,0,100,0,123.7,-1.3,0,25,3.734,3.729,0,0,0,0,0.64,94.82,133.11201311785,0,10,Assisted_Takeoff,
223700,2022-08-23 22:11:59,-34.9051394584841,-56.1629079984391,0,0,132.84954591785,133.11201311785,0.328084,0,10.6262470592,1.54395346148,14,4,7.481,133.11201311785,0,0,10.6262470592,0,0,0,114.2, 4.4, 2.3,0,0,1024,1024,1684,1024,0,0,100,0,123.7,-1.3,0,25,3.734,3.729,0,0,0,0,0.64,94.82,133.11201311785,0,10,Assisted_Takeoff,
223800,2022-08-23 22:11:59,-34.9051396261642,-56.1629080854704,0,0.032808400000017,132.81673751785,133.11201311785,0.328084,0,10.6682090028,1.61044296492,14,4,7.481,133.11201311785,0,0,10.6682090028,0,0,0,114.2, 4.4, 2.3,0,0,1024,1024,1679,1024,0,0,99,0,123.7,-1.3,0,25,3.734,3.729,0,0,0,0,0.64,94.82,133.11201311785,0,10,Assisted_Takeoff,
223900,2022-08-23 22:11:59,-34.9051398174388,-56.1629081709336,0,0.032808400000017,132.81673751785,133.11201311785,0.328084,0,10.7123691092,1.68476711428,14,4,7.481,133.11201311785,0,0,10.7123691092,0,0,0,114.2, 4.4, 2.3,0,0,1024,1024,1386,1024,0,0,55,0,123.8,-1.3,0,25,3.734,3.729,0,0,0,0,0.64,94.82,133.11201311785,0,10,Assisted_Takeoff,
224000,2022-08-23 22:11:59,-34.9051398385068,-56.1629089788231,0,0.032808400000017,132.81673751785,133.11201311785,0.328084,0,10.9464898516,1.92662079656,14,4,7.481,133.11201311785,0,0,10.9464898516,0,0,0,114.2, 4.5, 2.3,0,0,1024,1024,1417,1024,0,0,60,0,123.8,-1.3,0,25,3.734,3.729,0,0,0,0,0.64,94.82,133.11201311785,0,10,Assisted_Takeoff,
224100,2022-08-23 22:11:59,-34.90513987483,-56.162909339168,0,0.032808400000017,132.81673751785,133.11201311785,0.328084,0,11.0537405112,2.0352526898,14,4,7.481,133.11201311785,0,0,11.0537405112,0,0,0,114.9, 4.4, 2.3,0,0,1024,1024,1684,1024,0,0,100,0,124,-1.3,0,25,3.734,3.729,0,0,0,0,0.64,94.82,133.11201311785,0,10,Assisted_Takeoff,
224200,2022-08-23 22:11:59,-34.9051399078875,-56.1629097143818,0,0.032808400000017,132.81673751785,133.11201311785,0.328084,0.223694,11.1649937956,2.14816607924,14,4,7.481,133.11201311785,0,0.223694,11.1649937956,0,-0.223694,0,115.6, 3.1, 2.3,0,0,1024,1024,1684,1024,0,0,100,0,124.7,-1.3,0,25,3.734,3.729,0,0,0,0,0.64,94.82,133.11201311785,0,10,Assisted_Takeoff,
224300,2022-08-23 22:11:59,-34.9051399577919,-56.1629101523316,0,0.032808400000017,132.81673751785,133.11201311785,0.328084,0.223694,11.2959977368,2.28046595224,14,4,7.454,133.11201311785,0,0.223694,11.2959977368,0,-0.223694,0,116.2, 1.4, 1.2,0,0,1024,1024,1684,1024,0,0,100,0,125.4,-1.3,0,25,3.733,3.729,0,0,0,0,1.492,94.82,133.11201311785,0,10,Assisted_Takeoff,
224400,2022-08-23 22:11:59,-34.9051400874332,-56.1629106396921,0,0.032808400000017,132.81673751785,133.11201311785,0.328084,0.447388,11.4491801564,2.43376976292,14,4,7.454,133.11201311785,0,0.447388,11.4491801564,0,-0.447388,-0.223694,116.1, 0.8, -0.2,0,0,1024,1024,1684,1024,0,0,100,0,125.8,-1.3,0,25,3.733,3.729,0,0,0,0,1.492,94.82,133.11201311785,0,6,P-GPS,
224500,2022-08-23 22:11:59,-34.905140262267,-56.1629110170786,0,0.032808400000017,132.81673751785,133.11201311785,0.328084,0.447388,11.5753284544,2.56346136812,14,4,7.454,133.11201311785,0,0.447388,11.5753284544,0,-0.447388,-0.671082,116, 0, -1.1,0,0,1024,1024,1646,1024,0,0,94,0,125.8,-1.3,0,25,3.733,3.729,0,0,0,0,1.492,94.82,133.11201311785,0,6,P-GPS,
224600,2022-08-23 22:12:00,-34.9051403676233,-56.1629112171381,0,0.032808400000017,132.81673751785,133.11201311785,0.656168,0.447388,11.6435043096,2.63459982184,14,4,7.454,133.11201311785,0,0.447388,11.6435043096,0,-0.447388,-0.894776,116.1, -2, -1,0,0,1024,1024,1239,1024,0,0,33,0,125.8,-1.3,0,25,3.733,3.729,0,0,0,0,1.492,94.82,133.11201311785,0,6,P-GPS,
224700,2022-08-23 22:12:00,-34.9051404706321,-56.1629113467639,0.328084,0.36089240000002,132.81673751785,133.44009711785,0.656168,0.223694,11.6912405316,2.68860900992,14,4,7.454,133.44009711785,0.328084,0.447388,11.6912405316,0,-0.223694,-1.342164,116.1, -1.5, -0.5,0,0,1024,1024,1024,1024,0,0,0,0,125.8,-1.3,0,25,3.733,3.729,0,0,0,0,1.492,94.82,133.44009711785,0.328084,6,P-GPS,
224800,2022-08-23 22:12:00,-34.9051405852444,-56.1629115478261,0.656168,0.72178480000001,132.78392911785,133.76818111785,0.656168,0.223694,11.7607615312,2.76187344796,14,4,7.454,133.76818111785,0.656168,0.447388,11.7607615312,0,-0.223694,-1.565858,116, -0.5, -0.5,0,0,1024,1024,1024,1024,0,0,0,0,125.8,-1.3,0,25,3.733,3.729,0,0,0,0,1.492,94.82,133.76818111785,0.656168,6,P-GPS,
224900,2022-08-23 22:12:00,-34.9051406623895,-56.162911487669,0.656168,0.68897640000002,132.81673751785,133.76818111785,0.984252,0,11.751476754,2.79528224168,15,4,7.454,133.76818111785,0.656168,0.447388,11.7607615312,0,0,-1.342164,116.1, 0.2, -0.8,0,0,1024,1024,1024,1024,0,0,0,0,125.8,-1.3,0,25,3.733,3.729,0,0,0,0,1.492,94.82,133.76818111785,0.656168,6,P-GPS,
225000,2022-08-23 22:12:00,-34.9051406161816,-56.1629117371064,0.984252,1.0498688,132.78392911785,134.09626511785,1.312336,0.223694,11.8182746564,2.87179799216,15,4,7.454,134.09626511785,0.984252,0.447388,11.8182746564,-0.223694,0,-1.342164,116.1, -0.7, -1.9,0,0,1024,1024,1024,1024,0,0,0,0,125.8,-1.3,0,25,3.733,3.729,0,0,0,0,1.492,94.82,134.09626511785,0.984252,6,P-GPS,
225100,2022-08-23 22:12:00,-34.9051405280087,-56.1629119912707,0.984252,1.0498688,132.78392911785,134.09626511785,1.312336,0.223694,11.8822510364,2.95437345412,16,4,7.454,134.09626511785,0.984252,0.447388,11.8822510364,-0.223694,0,-1.11847,116.2, -0.2, -2.1,0,0,1024,1024,1024,1024,0,0,0,0,125.8,-1.3,0,25,3.733,3.729,0,0,0,0,1.492,94.82,134.09626511785,0.984252,6,P-GPS,
225200,2022-08-23 22:12:00,-34.9051402560862,-56.1629119529422,1.312336,1.3451444,132.81673751785,134.42434911785,1.64042,0.223694,11.8440292504,3.05424222372,16,4,7.454,134.42434911785,1.312336,0.447388,11.8822510364,-0.223694,0,-0.894776,116, 0.4, -3.4,0,0,1024,1024,1024,1024,0,0,0,0,125.8,-1.3,0,25,3.733,3.729,0,0,0,0,1.492,94.82,134.42434911785,1.312336,6,P-GPS,
225300,2022-08-23 22:12:00,-34.9051390417018,-56.1629115658028,1.312336,1.3451444,132.81673751785,134.42434911785,1.64042,0,11.6193901356,3.5122048368,15,4,7.417,134.42434911785,1.312336,0.447388,11.8822510364,0,0,-0.671082,115.9, 0.8, -4,0,0,1024,1024,1024,1024,0,0,0,0,125.8,-1.3,0,25,3.679,3.667,0,0,0,0,2.364,94.82,134.42434911785,1.312336,6,P-GPS,
225400,2022-08-23 22:12:00,-34.9051387049404,-56.1629113410929,1.312336,1.3451444,132.81673751785,134.42434911785,1.64042,0,11.5253612612,3.6522638964,15,4,7.417,134.42434911785,1.312336,0.447388,11.8822510364,0,0,-0.223694,116, 0, -4.2,0,0,1024,1024,1024,1024,0,0,0,0,125.8,-1.3,0,25,3.679,3.667,0,0,0,0,2.364,94.82,134.42434911785,1.312336,6,P-GPS,
225500,2022-08-23 22:12:00,-34.9051383456128,-56.1629110918331,1.312336,1.3451444,132.81673751785,134.42434911785,1.64042,0,11.4232943288,3.8030841112,16,5,7.417,134.42434911785,1.312336,0.447388,11.8822510364,0,0,0,116.1, -0.2, -3.5,0,0,1024,1024,1024,1024,0,0,0,0,125.8,-1.3,0,25,3.679,3.667,0,0,0,0,2.364,94.82,134.42434911785,1.312336,6,P-GPS,
225600,2022-08-23 22:12:01,-34.9051377400295,-56.1629108946725,1.64042,1.6732284,132.81673751785,134.75243311785,1.64042,0,11.319062042,4.0317914676,16,5,7.417,134.75243311785,1.64042,0.447388,11.8822510364,0,0,0,116.1, -0.2, -3.5,0,0,1024,1024,1024,1024,0,0,0,0,125.8,-1.3,0,25,3.679,3.667,0,0,0,0,2.364,94.82,134.75243311785,1.64042,6,P-GPS,
225700,2022-08-23 22:12:01,-34.9051361808563,-56.162910106457,1.64042,1.64042,132.84954591785,134.75243311785,1.64042,0,10.9850069132,4.6476051356,16,5,7.417,134.75243311785,1.64042,0.447388,11.8822510364,0,0,0,116, 0.2, -3.5,0,0,1024,1024,1024,1024,0,0,0,0,125.8,-1.3,0,25,3.679,3.667,0,0,0,0,2.364,94.82,134.75243311785,1.64042,6,P-GPS,
225800,2022-08-23 22:12:01,-34.9051356816283,-56.1629099224639,1.64042,1.64042,132.84954591785,134.75243311785,1.64042,0,10.9035108476,4.8378610472,16,5,7.417,134.75243311785,1.64042,0.447388,11.8822510364,0,0,0,115.9, 0.1, -3.8,0,0,1024,1024,1024,1024,0,0,0,0,125.8,-1.3,0,25,3.679,3.667,0,0,0,0,2.364,94.82,134.75243311785,1.64042,6,P-GPS,
225900,2022-08-23 22:12:01,-34.9051351631871,-56.1629097189272,1.64042,1.64042,132.84954591785,134.75243311785,1.64042,0,10.818077774,5.036581526,15,5,7.417,134.75243311785,1.64042,0.447388,11.8822510364,0,0,0,116.1, 0, -2.9,0,0,1024,1024,1024,1024,0,0,0,0,125.8,-1.3,0,25,3.679,3.667,0,0,0,0,2.364,94.82,134.75243311785,1.64042,6,P-GPS,
226000,2022-08-23 22:12:01,-34.9051349208437,-56.1629094284884,1.64042,1.64042,132.84954591785,134.75243311785,1.64042,0.223694,10.721128952,5.1605644696,15,5,7.417,134.75243311785,1.64042,0.447388,11.8822510364,0.223694,0,0,116, 0, -2.8,0,0,1024,1024,1024,1024,0,0,0,0,125.8,-1.3,0,25,3.679,3.667,0,0,0,0,2.364,94.82,134.75243311785,1.64042,6,P-GPS,
226100,2022-08-23 22:12:01,-34.9051351125392,-56.162908914259,1.64042,1.64042,132.84954591785,134.75243311785,1.64042,0.223694,10.5769032256,5.3295933464,14,5,7.417,134.75243311785,1.64042,0.447388,11.8822510364,0.223694,0,0,116, 0.4, -2,0,0,1024,1024,1024,1024,0,0,0,0,125.8,-1.3,0,25,3.679,3.667,0,0,0,0,2.364,94.82,134.75243311785,1.64042,6,P-GPS,
226200,2022-08-23 22:12:01,-34.9051350338504,-56.1629084275449,1.64042,1.64042,132.84954591785,134.75243311785,1.64042,0.223694,10.428806108,5.478018548,14,5,7.417,134.75243311785,1.64042,0.447388,11.8822510364,0.223694,0,0,115.9, -0.1, -1.9,0,0,1024,1024,1024,1024,0,0,0,0,125.8,-1.3,0,25,3.679,3.667,0,0,0,0,2.364,94.82,134.75243311785,1.64042,6,P-GPS,
226300,2022-08-23 22:12:01,-34.905134959555,-56.1629078804582,1.64042,1.64042,132.84954591785,134.75243311785,1.64042,0.223694,10.2630252628,5.6439306268,16,5,7.377,134.75243311785,1.64042,0.447388,11.8822510364,0.223694,0,0,115.9, 0.1, -1.1,0,0,1024,1024,1024,1024,0,0,0,0,125.8,-1.3,0,25,3.691,3.68,0,0,0,0,4.488,94.82,134.75243311785,1.64042,6,P-GPS,
226400,2022-08-23 22:12:01,-34.9051348306409,-56.1629072425273,1.64042,1.64042,132.84954591785,134.75243311785,1.64042,0.223694,10.0678152828,5.8405185596,16,5,7.377,134.75243311785,1.64042,0.447388,11.8822510364,0.223694,0,0,116, 0, -1,0,0,1024,1024,1024,1024,0,0,0,0,125.8,-1.3,0,25,3.691,3.68,0,0,0,0,4.488,94.82,134.75243311785,1.64042,6,P-GPS,
226500,2022-08-23 22:12:01,-34.9051346633053,-56.1629065794589,1.64042,1.64042,132.84954591785,134.75243311785,1.64042,0.223694,9.863517376,6.0480973064,16,5,7.377,134.75243311785,1.64042,0.447388,11.8822510364,0.223694,0,0,116, -0.1, -0.5,0,0,1024,1024,1024,1024,0,0,0,0,125.8,-1.3,0,25,3.691,3.68,0,0,0,0,4.488,94.82,134.75243311785,1.64042,6,P-GPS,
226600,2022-08-23 22:12:02,-34.9051348603568,-56.1629057891359,1.64042,1.6076116,132.88235431785,134.75243311785,1.64042,0.223694,9.6376971588,6.295275792,16,5,7.377,134.75243311785,1.64042,0.447388,11.8822510364,0.223694,0,0,115.9, 0, -0.5,0,0,1024,1024,1024,1024,0,0,0,0,125.8,-1.3,0,25,3.691,3.68,0,0,0,0,4.488,94.82,134.75243311785,1.64042,6,P-GPS,
226700,2022-08-23 22:12:02,-34.9051351450047,-56.1629049277343,1.64042,1.6076116,132.88235431785,134.75243311785,1.64042,0.223694,9.3963585684,6.57316294,16,5,7.377,134.75243311785,1.64042,0.447388,11.8822510364,0.223694,0,0,115.9, -0.6, -0.2,0,0,1024,1025,1024,1024,0,0,0,0,125.8,-1.3,0,25,3.691,3.68,0,0,0,0,4.488,94.82,134.75243311785,1.64042,6,P-GPS,
226800,2022-08-23 22:12:02,-34.9051350953249,-56.1629046219879,1.64042,1.6076116,132.88235431785,134.75243311785,1.64042,0.223694,9.3032483292,6.6664044128,16,5,7.377,134.75243311785,1.64042,0.447388,11.8822510364,0.223694,0,0,115.9, -0.6, -0.8,0,0,1024,1684,1024,1024,0,100,0,0,125.8,-1.3,0,25,3.691,3.68,0,0,0,0,4.488,94.82,134.75243311785,1.64042,6,P-GPS,
226900,2022-08-23 22:12:02,-34.9051349561736,-56.1629044213539,1.64042,1.6076116,132.88235431785,134.75243311785,1.64042,0.3131716,9.236712894,6.7450461476,16,5,7.377,134.75243311785,1.64042,0.447388,11.8822510364,0.223694,0.223694,0,115.9, 0.1, 4.5,0,0,1024,1573,1024,1024,0,83,0,0,125.8,-1.3,0,25,3.691,3.68,0,0,0,0,4.488,94.82,134.75243311785,1.64042,6,P-GPS,
227000,2022-08-23 22:12:02,-34.9051348191148,-56.1629046341512,1.64042,1.6076116,132.88235431785,134.75243311785,1.64042,0,9.2930777252,6.8259844704,16,5,7.377,134.75243311785,1.64042,0.447388,11.8822510364,0,0,0,116.2, 0, 15.3,0,0,1024,1024,1024,1024,0,0,0,0,125.8,-1.3,0,25,3.691,3.68,0,0,0,0,4.488,94.82,134.75243311785,1.64042,6,P-GPS,
227100,2022-08-23 22:12:02,-34.9051348639703,-56.1629044659201,1.64042,1.6076116,132.88235431785,134.75243311785,1.64042,0.4921268,9.2453415032,6.878937228,15,5,7.377,134.75243311785,1.64042,0.4921268,11.8822510364,-0.447388,-0.223694,0,116.3, 0.2, 14.9,0,0,1024,1024,1024,1024,0,0,0,0,125.8,-1.3,0,25,3.691,3.68,0,0,0,0,4.488,94.82,134.75243311785,1.64042,6,P-GPS,
227200,2022-08-23 22:12:02,-34.9051351415662,-56.1629044716172,1.64042,1.6076116,132.88235431785,134.75243311785,1.64042,0.9171454,9.2611223436,6.9802167588,15,5,7.377,134.75243311785,1.64042,0.9171454,11.8822510364,-0.894776,-0.223694,0,115.8, 0.2, 1.3,0,0,1024,1024,1024,1024,0,0,0,0,125.8,-1.3,0,25,3.691,3.68,0,0,0,0,4.488,94.82,134.75243311785,1.64042,6,P-GPS,
227300,2022-08-23 22:12:02,-34.905135517854,-56.1629045286862,1.64042,1.6076116,132.88235431785,134.75243311785,1.64042,0.9171454,9.2988191952,7.1185697816,16,5,7.353,134.75243311785,1.64042,0.9171454,11.8822510364,-0.894776,-0.223694,0,115.6, 0, -6,0,0,1024,1024,1024,1024,0,0,0,0,125.8,-1.3,0,25,3.68,3.67,0,0,0,0,4.651,94.82,134.75243311785,1.64042,6,P-GPS,"Punto de origen actualizado. Altitud de RPO establecida en 100m (Code: 3000001)"
227400,2022-08-23 22:12:02,-34.9051360984277,-56.1629049189529,1.64042,1.6076116,132.88235431785,134.75243311785,1.64042,0.9171454,9.4496066016,7.3604333064,16,5,7.353,134.75243311785,1.64042,0.9171454,11.8822510364,-0.894776,-0.223694,0,116, 0.3, -6.7,0,0,1024,1024,1024,1024,0,0,0,0,125.8,-1.3,0,25,3.68,3.67,0,0,0,0,4.651,94.82,134.75243311785,1.64042,6,P-GPS,
227500,2022-08-23 22:12:02,-34.9051364350092,-56.1629049724545,1.64042,1.6076116,132.88235431785,134.75243311785,1.64042,0.671082,9.488025238,7.4842850164,16,5,7.353,134.75243311785,1.64042,0.9171454,11.8822510364,-0.671082,0,0,116.4, 0.5, -5.9,0,0,1024,1024,1024,1024,0,0,0,0,125.8,-1.3,0,25,3.68,3.67,0,0,0,0,4.651,94.82,134.75243311785,1.64042,6,P-GPS,
227600,2022-08-23 22:12:02,-34.9051368325685,-56.1629048464692,1.64042,1.64042,132.84954591785,134.75243311785,1.64042,0.447388,9.4798559464,7.6341537876,16,5,7.353,134.75243311785,1.64042,0.9171454,11.8822510364,-0.447388,0,0,116.4, 1, -4.6,0,0,1024,1024,1024,1024,0,0,0,0,125.8,-1.3,0,25,3.68,3.67,0,0,0,0,4.651,94.82,134.75243311785,1.64042,6,P-GPS,
227700,2022-08-23 22:12:03,-34.9051372324989,-56.1629046578785,1.64042,1.64042,132.84954591785,134.75243311785,1.64042,0.223694,9.4560042396,7.7905842388,16,5,7.353,134.75243311785,1.64042,0.9171454,11.8822510364,-0.223694,0,0,116.2, 0.8, -2.8,0,0,1024,1024,1024,1024,0,0,0,0,125.8,-1.3,0,25,3.68,3.67,0,0,0,0,4.651,94.82,134.75243311785,1.64042,6,P-GPS,
227800,2022-08-23 22:12:03,-34.9051378247681,-56.1629046477678,1.64042,1.64042,132.84954591785,134.75243311785,1.64042,0.223694,9.5034123776,8.0066931696,16,5,7.353,134.75243311785,1.64042,0.9171454,11.8822510364,-0.223694,0,0,116.2, 0.8, -2.7,0,0,1024,1024,1024,1024,0,0,0,0,125.8,-1.3,0,25,3.68,3.67,0,0,0,0,4.651,94.82,134.75243311785,1.64042,6,P-GPS,
227900,2022-08-23 22:12:03,-34.9051380219034,-56.1629045800946,1.64042,1.64042,132.84954591785,134.75243311785,1.64042,0,9.5015751072,8.0814307048,15,5,7.353,134.75243311785,1.64042,0.9171454,11.8822510364,0,0,0,116.1, 1.1, -2.2,0,0,1024,1024,1024,1024,0,0,0,0,125.8,-1.3,0,25,3.68,3.67,0,0,0,0,4.651,94.82,134.75243311785,1.64042,6,P-GPS,
228000,2022-08-23 22:12:03,-34.9051380042853,-56.1629044010922,1.64042,1.64042,132.84954591785,134.75243311785,1.64042,0,9.4481302236,8.1353677144,15,5,7.353,134.75243311785,1.64042,0.9171454,11.8822510364,0,0,0,116, 1.2, -1.6,0,0,1024,1024,1024,1024,0,0,0,0,125.8,-1.3,0,25,3.68,3.67,0,0,0,0,4.651,94.82,134.75243311785,1.64042,6,P-GPS,
228100,2022-08-23 22:12:03,-34.9051379348745,-56.1629041880402,1.64042,1.64042,132.84954591785,134.75243311785,1.64042,0.223694,9.3800527936,8.2039700788,13,5,7.353,134.75243311785,1.64042,0.9171454,11.8822510364,-0.223694,0,0,115.9, 1.3, -1.7,0,0,1024,1024,1024,1024,0,0,0,0,125.8,-1.3,0,25,3.68,3.67,0,0,0,0,4.651,94.82,134.75243311785,1.64042,6,P-GPS,
228200,2022-08-23 22:12:03,-34.9051379495899,-56.1629039734266,1.64042,1.64042,132.84954591785,134.75243311785,1.64042,0.223694,9.3192916368,8.2684057764,13,5,7.353,134.75243311785,1.64042,0.9171454,11.8822510364,-0.223694,0,0,115.9, 1.5, -2.5,0,0,1024,1024,1024,1024,0,0,0,0,125.8,-1.3,0,25,3.68,3.67,0,0,0,0,4.651,94.82,134.75243311785,1.64042,6,P-GPS,
228300,2022-08-23 22:12:03,-34.9051377114275,-56.1629035540776,1.64042,1.64042,132.84954591785,134.75243311785,1.64042,0,9.176017354,8.4210304532,15,5,7.35,134.75243311785,1.64042,0.9171454,11.8822510364,0,0,0,115.9, 0.7, -3.2,0,0,1024,1024,1024,1024,0,0,0,0,125.8,-1.3,0,25,3.679,3.669,0,0,0,0,4.726,94.82,134.75243311785,1.64042,6,P-GPS,
228400,2022-08-23 22:12:03,-34.905137718508,-56.1629033191043,1.64042,1.6076116,132.88235431785,134.75243311785,1.64042,0,9.1085632836,8.4913716628,15,5,7.35,134.75243311785,1.64042,0.9171454,11.8822510364,0,0,0,116.1, 1.3, -2,0,0,1024,1024,1024,1024,0,0,0,0,125.8,-1.3,0,25,3.679,3.669,0,0,0,0,4.726,94.82,134.75243311785,1.64042,6,P-GPS,
228500,2022-08-23 22:12:03,-34.9051377114927,-56.1629030718045,1.64042,1.6076116,132.88235431785,134.75243311785,1.64042,0,9.0363191868,8.5654202216,15,5,7.35,134.75243311785,1.64042,0.9171454,11.8822510364,0,0,0,115.8, 1.7, -2.9,0,0,1024,1024,1024,1024,0,0,0,0,125.8,-1.3,0,25,3.679,3.669,0,0,0,0,4.726,94.82,134.75243311785,1.64042,6,P-GPS,
228600,2022-08-23 22:12:03,-34.9051376121609,-56.1629027991595,1.64042,1.6076116,132.88235431785,134.75243311785,1.64042,0,8.9482614412,8.654691878,15,5,7.35,134.75243311785,1.64042,0.9171454,11.8822510364,0,0,0,116, 1.6, -2.1,0,0,1024,1024,1024,1024,0,0,0,0,125.8,-1.3,0,25,3.679,3.669,0,0,0,0,4.726,94.82,134.75243311785,1.64042,6,P-GPS,
228700,2022-08-23 22:12:04,-34.9051373617811,-56.1629023424861,1.64042,1.6076116,132.88235431785,134.75243311785,1.64042,0,8.7932745596,8.819061962,15,5,7.35,134.75243311785,1.64042,0.9171454,11.8822510364,0,0,0,116.1, 1.4, -1.9,0,0,1024,1024,1024,1024,0,0,0,0,125.8,-1.3,0,25,3.679,3.669,0,0,0,0,4.726,94.82,134.75243311785,1.64042,6,P-GPS,
228800,2022-08-23 22:12:04,-34.9051372337642,-56.1629021781762,1.64042,1.6076116,132.88235431785,134.75243311785,1.64042,0,8.734252248,8.8868769248,15,5,7.35,134.75243311785,1.64042,0.9171454,11.8822510364,0,0,0,116.2, 1.2, -1.5,0,0,1024,1024,1024,1024,0,0,0,0,125.8,-1.3,0,25,3.679,3.669,0,0,0,0,4.726,94.82,134.75243311785,1.64042,6,P-GPS,
228900,2022-08-23 22:12:04,-34.905137093714,-56.1629020246952,1.64042,1.6076116,132.88235431785,134.75243311785,1.64042,0,8.6774609076,8.9555777144,15,5,7.35,134.75243311785,1.64042,0.9171454,11.8822510364,0,0,0,116.1, 1.3, -1.8,0,0,1024,1024,1024,1024,0,0,0,0,125.8,-1.3,0,25,3.679,3.669,0,0,0,0,4.726,94.82,134.75243311785,1.64042,6,P-GPS,
229000,2022-08-23 22:12:04,-34.9051369022138,-56.1629019259079,1.64042,1.6076116,132.88235431785,134.75243311785,1.64042,0,8.6324477828,9.0314307352,15,5,7.35,134.75243311785,1.64042,0.9171454,11.8822510364,0,0,0,115.9, 1.7, -1.4,0,0,1024,1024,1024,1024,0,0,0,0,125.8,-1.3,0,25,3.679,3.669,0,0,0,0,4.726,94.82,134.75243311785,1.64042,6,P-GPS,
229100,2022-08-23 22:12:04,-34.9051365124971,-56.162902013395,1.64042,1.6076116,132.88235431785,134.75243311785,1.64042,0,8.6265094624,9.176017354,16,5,7.35,134.75243311785,1.64042,0.9171454,11.8822510364,0,0,0,116, 0.8, -0.7,0,0,1024,1024,1024,1024,0,0,0,0,125.8,-1.3,0,25,3.679,3.669,0,0,0,0,4.726,94.82,134.75243311785,1.64042,6,P-GPS,
229200,2022-08-23 22:12:04,-34.9051362447507,-56.1629019469323,1.64042,1.6076116,132.88235431785,134.75243311785,1.64042,0,8.58677849,9.2756892732,16,5,7.35,134.75243311785,1.64042,0.9171454,11.8822510364,0,0,0,115.9, 1.3, -0.8,0,0,1024,1024,1024,1024,0,0,0,0,125.8,-1.3,0,25,3.679,3.669,0,0,0,0,4.726,94.82,134.75243311785,1.64042,6,P-GPS,
229300,2022-08-23 22:12:04,-34.9051359596387,-56.162901890302,1.64042,1.6076116,132.88235431785,134.75243311785,1.64042,0,8.5496721896,9.3811026624,16,5,7.348,134.75243311785,1.64042,0.9171454,11.8822510364,0,0,0,115.9, 1.4, -1.5,0,0,1024,1024,1024,1024,0,0,0,0,125.8,-1.3,0,25,3.679,3.668,0,0,0,0,4.569,94.82,134.75243311785,1.64042,6,P-GPS,
229400,2022-08-23 22:12:04,-34.9051357762914,-56.162901830991,1.64042,1.6076116,132.88235431785,134.75243311785,1.64042,0,8.5196525036,9.450295578,16,5,7.348,134.75243311785,1.64042,0.9171454,11.8822510364,0,0,0,115.9, 0.9, -1.6,0,0,1024,1024,1024,1024,0,0,0,0,125.8,-1.3,0,25,3.679,3.668,0,0,0,0,4.569,94.82,134.75243311785,1.64042,6,P-GPS,
229500,2022-08-23 22:12:04,-34.9051354581235,-56.1629018380095,1.64042,1.6076116,132.88235431785,134.75243311785,1.64042,0,8.5011157576,9.5664045056,16,5,7.348,134.75243311785,1.64042,0.9171454,11.8822510364,0,0,0,115.9, 0.4, -1.4,0,0,1024,1024,1024,1024,0,0,0,0,125.8,-1.3,0,25,3.679,3.668,0,0,0,0,4.569,94.82,134.75243311785,1.64042,6,P-GPS,
229600,2022-08-23 22:12:05,-34.9051352555256,-56.1629017955522,1.64042,1.6076116,132.88235431785,134.75243311785,1.64042,0,8.4762469904,9.641404508,16,5,7.348,134.75243311785,1.64042,0.9171454,11.8822510364,0,0,0,115.9, 0.8, -1.2,0,0,1024,1024,1024,1024,0,0,0,0,125.8,-1.3,0,25,3.679,3.668,0,0,0,0,4.569,94.82,134.75243311785,1.64042,6,P-GPS,
229700,2022-08-23 22:12:05,-34.9051350372473,-56.1629017592751,1.64042,1.6076116,132.88235431785,134.75243311785,1.64042,0,8.4529530264,9.721785088,16,5,7.348,134.75243311785,1.64042,0.9171454,11.8822510364,0,0,0,115.8, 1.3, -1.3,0,0,1024,1024,1024,1024,0,0,0,0,125.8,-1.3,0,25,3.679,3.668,0,0,0,0,4.569,94.82,134.75243311785,1.64042,6,P-GPS,
229800,2022-08-23 22:12:05,-34.9051348594416,-56.1629017237932,1.64042,1.6076116,132.88235431785,134.75243311785,1.64042,0,8.4327102436,9.7875331216,16,5,7.348,134.75243311785,1.64042,0.9171454,11.8822510364,0,0,0,115.8, 1.1, -0.8,0,0,1024,1024,1024,1024,0,0,0,0,125.8,-1.3,0,25,3.679,3.668,0,0,0,0,4.569,94.82,134.75243311785,1.64042,6,P-GPS,
229900,2022-08-23 22:12:05,-34.9051346755446,-56.1629016990265,1.64042,1.6076116,132.88235431785,134.75243311785,1.64042,0,8.4158139176,9.8550200004,16,5,7.348,134.75243311785,1.64042,0.9171454,11.8822510364,0,0,0,115.9, 0.8, -1.6,0,0,1024,1024,1024,1024,0,0,0,0,125.8,-1.3,0,25,3.679,3.668,0,0,0,0,4.569,94.82,134.75243311785,1.64042,6,P-GPS,
230000,2022-08-23 22:12:05,-34.9051344216881,-56.1629017159612,1.64042,1.5748032,132.91516271785,134.75243311785,1.64042,0,8.4084976444,9.9477693472,16,5,7.348,134.75243311785,1.64042,0.9171454,11.8822510364,0,0,0,116, 1.1, -0.8,0,0,1024,1024,1024,1024,0,0,0,0,125.8,-1.3,0,25,3.679,3.668,0,0,0,0,4.569,94.82,134.75243311785,1.64042,6,P-GPS,
230100,2022-08-23 22:12:05,-34.9051341371648,-56.1629017531654,1.64042,1.5748032,132.91516271785,134.75243311785,1.64042,0,8.4068900328,10.0521984844,17,5,7.348,134.75243311785,1.64042,0.9171454,11.8822510364,0,0,0,116.1, 0.6, -1.3,0,0,1024,1024,1024,1024,0,0,0,0,125.8,-1.3,0,25,3.679,3.668,0,0,0,0,4.569,94.82,134.75243311785,1.64042,6,P-GPS,
230200,2022-08-23 22:12:05,-34.9051339366561,-56.1629017777192,1.64042,1.5748032,132.91516271785,134.75243311785,1.64042,0.223694,8.4060698228,10.1257221088,17,5,7.348,134.75243311785,1.64042,0.9171454,11.8822510364,0,-0.223694,0,116.2, 0.6, -1.4,0,0,1024,1024,1024,1024,0,0,0,0,125.8,-1.3,0,25,3.679,3.668,0,0,0,0,4.569,94.82,134.75243311785,1.64042,6,P-GPS,
230300,2022-08-23 22:12:05,-34.9051337402706,-56.1629017992658,1.64042,1.5748032,132.91516271785,134.75243311785,1.64042,0,8.4051183792,10.1976381216,18,5,7.347,134.75243311785,1.64042,0.9171454,11.8822510364,0,0,0,116.1, -0.2, -1.3,0,0,1024,1024,1024,1024,0,0,0,0,125.8,-1.3,0,25,3.676,3.666,0,0,0,0,4.489,94.82,134.75243311785,1.64042,6,P-GPS,
230400,2022-08-23 22:12:05,-34.9051334158097,-56.1629018780616,1.64042,1.5748032,132.91516271785,134.75243311785,1.64042,0,8.41781523,10.3183402252,18,5,7.347,134.75243311785,1.64042,0.9171454,11.8822510364,0,0,0,115.9, -0.5, -0.7,0,0,1024,1024,1024,1024,0,0,0,0,125.8,-1.3,0,25,3.676,3.666,0,0,0,0,4.489,94.82,134.75243311785,1.64042,6,P-GPS,
230500,2022-08-23 22:12:05,-34.9051331303288,-56.162901899415,1.312336,1.2467192,132.91516271785,134.42434911785,1.64042,0,8.4160763848,10.4227037456,17,5,7.347,134.75243311785,1.64042,0.9171454,11.8822510364,0,0,0,116, 0, -0.4,0,0,1024,1024,1024,1024,0,0,0,0,125.8,-1.3,0,25,3.676,3.666,0,0,0,0,4.489,94.82,134.42434911785,1.312336,6,P-GPS,
230600,2022-08-23 22:12:06,-34.9051328856958,-56.1629019436991,1.312336,1.2467192,132.91516271785,134.42434911785,1.64042,0,8.4233598496,10.5129268456,17,5,7.347,134.75243311785,1.64042,0.9171454,11.8822510364,0,0,0,116, 0.3, -1.2,0,0,1024,1024,1024,1024,0,0,0,0,125.8,-1.3,0,25,3.676,3.666,0,0,0,0,4.489,94.82,134.42434911785,1.312336,6,P-GPS,
230700,2022-08-23 22:12:06,-34.9051326291247,-56.1629019953635,1.312336,1.2467192,132.91516271785,134.42434911785,1.64042,0,8.4335960704,10.6078087384,16,5,7.347,134.75243311785,1.64042,0.9171454,11.8822510364,0,0,0,116, 0.1, -1.9,0,0,1024,1024,1024,1024,0,0,0,0,125.8,-1.3,0,25,3.676,3.666,0,0,0,0,4.489,94.82,134.42434911785,1.312336,6,P-GPS,
230800,2022-08-23 22:12:06,-34.9051323725991,-56.1629020100979,1.312336,1.2467192,132.91516271785,134.42434911785,1.64042,0,8.4338585376,10.7015095288,16,5,7.347,134.75243311785,1.64042,0.9171454,11.8822510364,0,0,0,116.1, 1.1, -1.1,0,0,1024,1024,1024,1024,0,0,0,0,125.8,-1.3,0,25,3.676,3.666,0,0,0,0,4.489,94.82,134.42434911785,1.312336,6,P-GPS,
230900,2022-08-23 22:12:06,-34.9051321347177,-56.1629019970362,1.312336,1.2467192,132.91516271785,134.42434911785,1.64042,0,8.4270343904,10.788386172,17,5,7.347,134.75243311785,1.64042,0.9171454,11.8822510364,0,0,0,116, 0.8, -1.1,0,0,1024,1024,1024,1024,0,0,0,0,125.8,-1.3,0,25,3.676,3.666,0,0,0,0,4.489,94.82,134.42434911785,1.312336,6,P-GPS,
231000,2022-08-23 22:12:06,-34.9051319419164,-56.1629019437422,1.312336,1.2467192,132.91516271785,134.42434911785,1.64042,0,8.4093506628,10.8605318436,17,5,7.347,134.75243311785,1.64042,0.9171454,11.8822510364,0,0,0,116, 0.8, -0.4,0,0,1024,1024,1024,1024,0,0,0,0,125.8,-1.3,0,25,3.676,3.666,0,0,0,0,4.489,94.82,134.42434911785,1.312336,6,P-GPS,
231100,2022-08-23 22:12:06,-34.9051317513461,-56.1629018900134,1.312336,1.2467192,132.91516271785,134.42434911785,1.64042,0,8.3921590612,10.9318901136,17,5,7.347,134.75243311785,1.64042,0.9171454,11.8822510364,0,0,0,116.3, 0.8, -0.5,0,0,1024,1024,1024,1024,0,0,0,0,125.8,-1.3,0,25,3.676,3.666,0,0,0,0,4.489,94.82,134.42434911785,1.312336,6,P-GPS,
231200,2022-08-23 22:12:06,-34.9051316476973,-56.1629017978007,1.312336,1.2467192,132.91516271785,134.42434911785,1.64042,0,8.3642063044,10.9787077004,17,5,7.347,134.75243311785,1.64042,0.9171454,11.8822510364,0,0,0,116.3, 1, -0.9,0,0,1024,1024,1024,1024,0,0,0,0,125.8,-1.3,0,25,3.676,3.666,0,0,0,0,4.489,94.82,134.42434911785,1.312336,6,P-GPS,
231300,2022-08-23 22:12:06,-34.9051314593954,-56.162901817313,1.312336,1.2467192,132.91516271785,134.42434911785,1.64042,0,8.3698165408,11.0476381488,16,5,7.341,134.75243311785,1.64042,0.9171454,11.8822510364,0,0,0,116.3, 0.9, -0.8,0,0,1024,1024,1024,1024,0,0,0,0,125.8,-1.3,0,25,3.672,3.663,0,0,0,0,4.497,94.82,134.42434911785,1.312336,6,P-GPS,
231400,2022-08-23 22:12:06,-34.9051313303478,-56.1629019019312,1.312336,1.2467192,132.91516271785,134.42434911785,1.64042,0,8.3953086676,11.1011158408,16,5,7.341,134.75243311785,1.64042,0.9171454,11.8822510364,0,0,0,116.2, 0.4, -1.3,0,0,1024,1024,1024,1024,0,0,0,0,125.8,-1.3,0,25,3.672,3.663,0,0,0,0,4.497,94.82,134.42434911785,1.312336,6,P-GPS,
231500,2022-08-23 22:12:06,-34.9051312096084,-56.162901999004,1.312336,1.2467192,132.91516271785,134.42434911785,1.64042,0,8.4247378024,11.153871748,15,5,7.341,134.75243311785,1.64042,0.9171454,11.8822510364,0,0,0,116.1, 0.7, -1.2,0,0,1024,1024,1024,1024,0,0,0,0,125.8,-1.3,0,25,3.672,3.663,0,0,0,0,4.497,94.82,134.42434911785,1.312336,6,P-GPS,
231600,2022-08-23 22:12:07,-34.9051311185149,-56.1629020923279,1.312336,1.2467192,132.91516271785,134.42434911785,1.64042,0,8.4531170684,11.1972772612,15,5,7.341,134.75243311785,1.64042,0.9171454,11.8822510364,0,0,0,116.1, 0.7, -1.4,0,0,1024,1024,1024,1024,0,0,0,0,125.8,-1.3,0,25,3.672,3.663,0,0,0,0,4.497,94.82,134.42434911785,1.312336,6,P-GPS,
231700,2022-08-23 22:12:07,-34.9051312114437,-56.162902368744,1.312336,1.2467192,132.91516271785,134.42434911785,1.64042,0,8.5353349188,11.2866801512,15,5,7.341,134.75243311785,1.64042,0.9171454,11.8822510364,0,0,0,116.1, 0.9, -1.8,0,0,1024,1024,1024,1024,0,0,0,0,125.8,-1.3,0,25,3.672,3.663,0,0,0,0,4.497,94.82,134.42434911785,1.312336,6,P-GPS,
231800,2022-08-23 22:12:07,-34.9051312043094,-56.1629024749415,1.64042,1.5748032,132.91516271785,134.75243311785,1.64042,0,8.5671590668,11.3185371076,15,5,7.341,134.75243311785,1.64042,0.9171454,11.8822510364,0,0,0,116.1, 1.4, -1.5,0,0,1024,1024,1024,1024,0,0,0,0,125.8,-1.3,0,25,3.672,3.663,0,0,0,0,4.497,94.82,134.75243311785,1.64042,6,P-GPS,
231900,2022-08-23 22:12:07,-34.9051312032982,-56.1629025855369,1.64042,1.5748032,132.91516271785,134.75243311785,1.64042,0,8.6002627424,11.3516407832,15,5,7.341,134.75243311785,1.64042,0.9171454,11.8822510364,0,0,0,116.1, 1.6, -1.6,0,0,1024,1024,1024,1024,0,0,0,0,125.8,-1.3,0,25,3.672,3.663,0,0,0,0,4.497,94.82,134.75243311785,1.64042,6,P-GPS,
232000,2022-08-23 22:12:07,-34.9051311646292,-56.1629026452541,1.64042,1.5748032,132.91516271785,134.75243311785,1.64042,0,8.618274554,11.3744098128,15,5,7.341,134.75243311785,1.64042,0.9171454,11.8822510364,0,0,0,116, 1.7, -1.8,0,0,1024,1024,1024,1024,0,0,0,0,125.8,-1.3,0,25,3.672,3.663,0,0,0,0,4.497,94.82,134.75243311785,1.64042,6,P-GPS,
232100,2022-08-23 22:12:07,-34.905131348531,-56.1629027521737,1.64042,1.5748032,132.91516271785,134.75243311785,1.64042,0,8.6496721928,11.4487536472,14,4,7.341,134.75243311785,1.64042,0.9171454,11.8822510364,0,0,0,116, 2, -0.9,0,0,1024,1024,1024,1024,0,0,0,0,125.8,-1.3,0,25,3.672,3.663,0,0,0,0,4.497,94.82,134.75243311785,1.64042,6,P-GPS,
232200,2022-08-23 22:12:07,-34.9051312597596,-56.1629025967066,1.64042,1.5748032,132.91516271785,134.75243311785,1.64042,0,8.6033795404,11.505413754,14,4,7.339,134.75243311785,1.64042,0.9171454,11.8822510364,0,0,0,116, 2, -0.6,0,0,1024,1024,1024,1024,0,0,0,0,125.8,-1.3,0,25,3.672,3.664,0,0,0,0,4.51,94.82,134.75243311785,1.64042,6,P-GPS,
232300,2022-08-23 22:12:07,-34.9051311619699,-56.162902407758,1.64042,1.5748032,132.91516271785,134.75243311785,1.64042,0,8.547244368,11.5722772732,13,4,7.339,134.75243311785,1.64042,0.9171454,11.8822510364,0,0,0,116.1, 1.2, -0.6,0,0,1024,1024,1024,1024,0,0,0,0,125.8,-1.3,0,25,3.672,3.664,0,0,0,0,4.51,94.82,134.75243311785,1.64042,6,P-GPS,
232400,2022-08-23 22:12:07,-34.9051310984476,-56.1629020420059,1.64042,1.5748032,132.91516271785,134.75243311785,1.64042,0,8.438156438,11.6841539172,13,4,7.339,134.75243311785,1.64042,0.9171454,11.8822510364,0,0,0,116.1, 1.2, -1.1,0,0,1024,1024,1024,1024,0,0,0,0,125.8,-1.3,0,25,3.672,3.664,0,0,0,0,4.51,94.82,134.75243311785,1.64042,6,P-GPS,
232500,2022-08-23 22:12:07,-34.9051310443881,-56.1629005857855,1.64042,1.5748032,132.91516271785,134.75243311785,1.64042,0,8.0028545868,12.1203087868,13,4,7.339,134.75243311785,1.64042,0.9171454,11.8822510364,0,0,0,116.1, 1.2, -1.4,0,0,1024,1024,1024,1024,0,0,0,0,125.8,-1.3,0,25,3.672,3.664,0,0,0,0,4.51,94.82,134.75243311785,1.64042,6,P-GPS,
232600,2022-08-23 22:12:08,-34.9051310073361,-56.162900163255,1.64042,1.5419948,132.94797111785,134.75243311785,1.64042,0,7.8767390972,12.2474413368,13,4,7.339,134.75243311785,1.64042,0.9171454,11.8822510364,0,0,0,116.1, 1.5, -1.4,0,0,1024,1024,1024,1024,0,0,0,0,125.8,-1.3,0,25,3.672,3.664,0,0,0,0,4.51,94.82,134.75243311785,1.64042,6,P-GPS,
232700,2022-08-23 22:12:08,-34.9051309671217,-56.1628997387116,1.64042,1.5419948,132.94797111785,134.75243311785,1.64042,0,7.7500986732,12.37532848,15,4,7.339,134.75243311785,1.64042,0.9171454,11.8822510364,0,0,0,116.2, 1.6, -1.4,0,0,1024,1024,1024,1024,0,0,0,0,125.8,-1.3,0,25,3.672,3.664,0,0,0,0,4.51,94.82,134.75243311785,1.64042,6,P-GPS,
232800,2022-08-23 22:12:08,-34.9051308888147,-56.1628993469432,1.64042,1.5419948,132.94797111785,134.75243311785,1.64042,0,7.6336288532,12.4959977752,15,4,7.339,134.75243311785,1.64042,0.9171454,11.8822510364,0,0,0,116.2, 1.6, -1.2,0,0,1024,1024,1024,1024,0,0,0,0,125.8,-1.3,0,25,3.672,3.664,0,0,0,0,4.51,94.82,134.75243311785,1.64042,6,P-GPS,
232900,2022-08-23 22:12:08,-34.9051308058585,-56.1628983369839,1.64042,1.5419948,132.94797111785,134.75243311785,1.64042,0,7.332513358,12.7996723256,15,4,7.339,134.75243311785,1.64042,0.9171454,11.8822510364,0,0,0,116.3, 1.3, -1.3,0,0,1024,1024,1024,1024,0,0,0,0,125.8,-1.3,0,25,3.672,3.664,0,0,0,0,4.51,94.82,134.75243311785,1.64042,6,P-GPS,
233000,2022-08-23 22:12:08,-34.9051307798751,-56.1628979216044,1.64042,1.5419948,132.94797111785,134.75243311785,1.64042,0,7.2086288396,12.9243442456,15,4,7.339,134.75243311785,1.64042,0.9171454,11.8822510364,0,0,0,116.1, 1.6, -0.6,0,0,1024,1024,1031,1024,0,0,1,0,125.8,-1.3,0,25,3.672,3.664,0,0,0,0,4.51,94.82,134.75243311785,1.64042,6,P-GPS,
233100,2022-08-23 22:12:08,-34.9051307689824,-56.1628974853704,1.64042,1.5419948,132.94797111785,134.75243311785,1.64042,0,7.0783138748,13.0549216776,15,4,7.339,134.75243311785,1.64042,0.9171454,11.8822510364,0,0,0,116.1, 2, -0.9,0,0,1024,1024,1031,1024,0,0,1,0,125.8,-1.3,0,25,3.672,3.664,0,0,0,0,4.51,94.82,134.75243311785,1.64042,6,P-GPS,
233200,2022-08-23 22:12:08,-34.9051307335035,-56.1628971384744,1.968504,1.8700788,132.94797111785,135.08051711785,1.64042,0,6.9750986484,13.1595148568,15,4,7.334,135.08051711785,1.968504,0.9171454,11.8822510364,0,0,0,115.7, 1.7, -2.5,0,0,1024,1024,1115,1024,0,0,14,0,125.8,-1.3,0,25,3.672,3.661,0,0,0,0,4.452,94.82,135.08051711785,1.968504,6,P-GPS,
233300,2022-08-23 22:12:08,-34.9051306662797,-56.1628967841641,1.968504,1.8700788,132.94797111785,135.08051711785,1.64042,0,6.8701773852,13.2683403196,15,4,7.334,135.08051711785,1.968504,0.9171454,11.8822510364,0,0,0,115.1, 1.6, -1,0,0,1024,1024,1250,1024,0,0,34,0,125.8,-1.3,0,25,3.672,3.661,0,0,0,0,4.452,94.82,135.08051711785,1.968504,6,P-GPS,
233400,2022-08-23 22:12:08,-34.9051305759808,-56.1628963850364,1.968504,1.8700788,132.94797111785,135.08051711785,1.64042,0,6.7523952292,13.392224838,15,4,7.334,135.08051711785,1.968504,0.9171454,11.8822510364,0,0,-0.223694,115.2, 1.2, 0.1,0,0,1024,1024,1273,1024,0,0,38,0,125.8,-1.3,0,25,3.672,3.661,0,0,0,0,4.452,94.82,135.08051711785,1.968504,6,P-GPS,
233500,2022-08-23 22:12:08,-34.90513044494,-56.1628960973815,1.968504,1.8372704,132.98077951785,135.08051711785,1.968504,0,6.6689306596,13.4906828464,14,4,7.334,135.08051711785,1.968504,0.9171454,11.8822510364,0,0,-0.671082,115.4, 1.4, 0.3,0,0,1024,1024,1205,1024,0,0,27,0,125.8,-1.3,0,25,3.672,3.661,0,0,0,0,4.452,94.82,135.08051711785,1.968504,6,P-GPS,
233600,2022-08-23 22:12:08,-34.9051303288466,-56.1628959054251,2.296588,2.1653544,132.98077951785,135.40860111785,1.968504,0,6.6141406316,13.5620411164,14,4,7.334,135.40860111785,2.296588,0.9171454,11.8822510364,0,0,-1.11847,115.6, 1.6, -0.6,0,0,1024,1024,1092,1024,0,0,10,0,125.8,-1.3,0,25,3.672,3.661,0,0,0,0,4.452,94.82,135.40860111785,2.296588,6,P-GPS,
233700,2022-08-23 22:12:09,-34.9051302243021,-56.1628957209422,2.296588,2.1653544,132.98077951785,135.40860111785,1.968504,0,6.5615815748,13.6291342944,14,4,7.334,135.40860111785,2.296588,0.9171454,11.8822510364,0,0,-1.11847,115.8, 0.9, -2.1,0,0,1024,1024,1024,1024,0,0,0,0,125.8,-1.3,0,25,3.672,3.661,0,0,0,0,4.452,94.82,135.40860111785,2.296588,6,P-GPS,
233800,2022-08-23 22:12:09,-34.9051300336634,-56.1628956973475,2.624672,2.4934384,132.98077951785,135.73668511785,2.296588,0,6.5597443044,13.6990489948,14,4,7.334,135.73668511785,2.624672,0.9171454,11.8822510364,0,0,-0.671082,116.1, 1.4, -2.5,0,0,1024,1024,1024,1024,0,0,0,0,125.8,-1.3,0,25,3.672,3.661,0,0,0,0,4.452,94.82,135.73668511785,2.624672,6,P-GPS,
233900,2022-08-23 22:12:09,-34.9051299367547,-56.16289545916,2.624672,2.4934384,132.98077951785,135.73668511785,2.296588,0,6.4916668744,13.7786093648,14,4,7.334,135.73668511785,2.624672,0.9171454,11.8822510364,0,0,-0.223694,116.3, 1.3, -2.6,0,0,1024,1024,1024,1024,0,0,0,0,125.8,-1.3,0,25,3.672,3.661,0,0,0,0,4.452,94.82,135.73668511785,2.624672,6,P-GPS,
234000,2022-08-23 22:12:09,-34.9051299854159,-56.1628953288575,2.624672,2.4934384,132.98077951785,135.73668511785,2.296588,0,6.4513125424,13.8214571352,14,4,7.334,135.73668511785,2.624672,0.9171454,11.8822510364,0,0,0,116.2, 0.7, -1.9,0,0,1024,1024,1024,1024,0,0,0,0,125.8,-1.3,0,25,3.672,3.661,0,0,0,0,4.452,94.82,135.73668511785,2.624672,6,P-GPS,
234100,2022-08-23 22:12:09,-34.90513006697,-56.1628951957688,2.624672,2.4934384,132.98077951785,135.73668511785,2.296588,0,6.4091865568,13.8711618612,14,4,7.334,135.73668511785,2.624672,0.9171454,11.8822510364,0,0,0,116.2, 1.2, -2.1,0,0,1024,1024,1024,1024,0,0,0,0,125.8,-1.3,0,25,3.672,3.661,0,0,0,0,4.452,94.82,135.73668511785,2.624672,6,P-GPS,
234200,2022-08-23 22:12:09,-34.9051308760835,-56.1628957539183,2.624672,2.5262468,132.94797111785,135.73668511785,2.296588,0,6.55921937,14.2103351004,14,4,7.315,135.73668511785,2.624672,0.9171454,11.8822510364,0,0,0,116.2, 1.3, -2.5,0,0,1024,1024,1024,1024,0,0,0,0,125.8,-1.3,0,25,3.678,3.663,0,0,0,0,4.727,94.82,135.73668511785,2.624672,6,P-GPS,
234300,2022-08-23 22:12:09,-34.9051310748547,-56.1628957454412,2.624672,2.5262468,132.94797111785,135.73668511785,2.296588,0,6.5546590024,14.2829072812,14,4,7.315,135.73668511785,2.624672,0.9171454,11.8822510364,0,0,0,116.2, 1.9, -2.8,0,0,1024,1024,1024,1024,0,0,0,0,125.8,-1.3,0,25,3.678,3.663,0,0,0,0,4.727,94.82,135.73668511785,2.624672,6,P-GPS,
234400,2022-08-23 22:12:09,-34.9051313245114,-56.1628956408495,2.624672,2.5262468,132.94797111785,135.73668511785,2.296588,0,6.5219490276,14.3791999352,14,4,7.315,135.73668511785,2.624672,0.9171454,11.8822510364,0,0,0,116.1, 2.3, -2.5,0,0,1024,1024,1024,1024,0,0,0,0,125.8,-1.3,0,25,3.678,3.663,0,0,0,0,4.727,94.82,135.73668511785,2.624672,6,P-GPS,
234500,2022-08-23 22:12:09,-34.9051315478737,-56.1628955034566,2.624672,2.5262468,132.94797111785,135.73668511785,2.296588,0,6.4806760604,14.470472904,14,4,7.315,135.73668511785,2.624672,0.9171454,11.8822510364,0,0,0,116.1, 2.6, -2.1,0,0,1024,1024,1024,1024,0,0,0,0,125.8,-1.3,0,25,3.678,3.663,0,0,0,0,4.727,94.82,135.73668511785,2.624672,6,P-GPS,
234600,2022-08-23 22:12:09,-34.9051321411289,-56.1628957369547,2.624672,2.5262468,132.94797111785,135.73668511785,2.296588,0,6.5549870864,14.6979335412,14,4,7.315,135.73668511785,2.624672,0.9171454,11.8822510364,0,0,0,115.9, 2.7, -2.1,0,0,1024,1024,1024,1024,0,0,0,0,125.8,-1.3,0,25,3.678,3.663,0,0,0,0,4.727,94.82,135.73668511785,2.624672,6,P-GPS,
234700,2022-08-23 22:12:10,-34.9051322857884,-56.1628957481586,2.624672,2.5262468,132.94797111785,135.73668511785,2.296588,0,6.5604988976,14.750820682,14,4,7.315,135.73668511785,2.624672,0.9171454,11.8822510364,0,0,0,116, 2.8, -1.9,0,0,1024,1024,1024,1024,0,0,0,0,125.8,-1.3,0,25,3.678,3.663,0,0,0,0,4.727,94.82,135.73668511785,2.624672,6,P-GPS,
234800,2022-08-23 22:12:10,-34.9051323902222,-56.1628957877621,2.624672,2.5262468,132.94797111785,135.73668511785,2.296588,0,6.5741800004,14.7907156964,14,4,7.315,135.73668511785,2.624672,0.9171454,11.8822510364,0,0,0,116, 2.4, -2.1,0,0,1024,1024,1024,1024,0,0,0,0,125.8,-1.3,0,25,3.678,3.663,0,0,0,0,4.727,94.82,135.73668511785,2.624672,6,P-GPS,
234900,2022-08-23 22:12:10,-34.9051324747775,-56.1628958330419,2.296588,2.1981628,132.94797111785,135.40860111785,2.296588,0,6.5893374812,14.8244099232,14,4,7.315,135.73668511785,2.624672,0.9171454,11.8822510364,0,0,0,116.1, 2.1, -2.3,0,0,1024,1024,1024,1024,0,0,0,0,125.8,-1.3,0,25,3.678,3.663,0,0,0,0,4.727,94.82,135.40860111785,2.296588,6,P-GPS,
235000,2022-08-23 22:12:10,-34.9051324171241,-56.162895754344,2.296588,2.1981628,132.94797111785,135.40860111785,2.296588,0,6.5646983728,14.8560044124,14,4,7.315,135.73668511785,2.624672,0.9171454,11.8822510364,0,0,0,116, 1.6, -1.7,0,0,1024,1024,1024,1024,0,0,0,0,125.8,-1.3,0,25,3.678,3.663,0,0,0,0,4.727,94.82,135.40860111785,2.296588,6,P-GPS,
235100,2022-08-23 22:12:10,-34.9051321727679,-56.1628956294216,2.296588,2.1981628,132.94797111785,135.40860111785,2.296588,0,6.5232613636,14.9526579588,14,4,7.315,135.73668511785,2.624672,0.9171454,11.8822510364,0,0,0,116.1, 1.2, -1.4,0,0,1024,1024,1024,1024,0,0,0,0,125.8,-1.3,0,25,3.678,3.663,0,0,0,0,4.727,94.82,135.40860111785,2.296588,6,P-GPS,
235200,2022-08-23 22:12:10,-34.9051321122533,-56.1628955822694,2.296588,2.1981628,132.94797111785,135.40860111785,2.296588,0,6.50836635,14.9788718704,14,4,7.326,135.73668511785,2.624672,0.9171454,11.8822510364,0,0,0,116.1, 1.6, -1.1,0,0,1024,1024,1024,1024,0,0,0,0,125.8,-1.3,0,24,3.668,3.656,0,0,0,0,4.219,94.82,135.40860111785,2.296588,6,P-GPS,
235300,2022-08-23 22:12:10,-34.9051320625369,-56.1628955509376,2.296588,2.1981628,132.94797111785,135.40860111785,2.296588,0,6.498359788,14.9992786952,14,4,7.326,135.73668511785,2.624672,0.9171454,11.8822510364,0,0,0,116.1, 1, -1.3,0,0,1024,1024,1024,1024,0,0,0,0,125.8,-1.3,0,24,3.668,3.656,0,0,0,0,4.219,94.82,135.40860111785,2.296588,6,P-GPS,
235400,2022-08-23 22:12:10,-34.9051319387328,-56.1628955577469,2.296588,2.1981628,132.94797111785,135.40860111785,2.296588,0,6.4990815728,15.0444886704,14,4,7.326,135.73668511785,2.624672,0.9171454,11.8822510364,0,0,0,116, 0.9, -1.9,0,0,1024,1024,1024,1024,0,0,0,0,125.8,-1.3,0,24,3.668,3.656,0,0,0,0,4.219,94.82,135.40860111785,2.296588,6,P-GPS,
235500,2022-08-23 22:12:10,-34.9051315252481,-56.1628956363729,2.296588,2.1981628,132.94797111785,135.40860111785,2.296588,0,6.5204070328,15.197178964,15,4,7.326,135.73668511785,2.624672,0.9171454,11.8822510364,0,0,0,116, 0.9, -1.7,0,0,1024,1024,1024,1024,0,0,0,0,125.8,-1.3,0,24,3.668,3.656,0,0,0,0,4.219,94.82,135.40860111785,2.296588,6,P-GPS,
235600,2022-08-23 22:12:11,-34.9051313832005,-56.1628956690324,2.296588,2.1981628,132.94797111785,135.40860111785,2.296588,0,6.5302495528,15.2499020628,15,4,7.326,135.73668511785,2.624672,0.9171454,11.8822510364,0,0,0,116.1, 0.9, -1.1,0,0,1024,1024,1024,1024,0,0,0,0,125.8,-1.3,0,24,3.668,3.656,0,0,0,0,4.219,94.82,135.40860111785,2.296588,6,P-GPS,
235700,2022-08-23 22:12:11,-34.9051312410748,-56.1628956963326,2.296588,2.1981628,132.94797111785,135.40860111785,2.296588,0,6.538878162,15.3024283112,15,4,7.326,135.73668511785,2.624672,0.9171454,11.8822510364,0,0,0,116.1, 0.6, -1.2,0,0,1024,1024,1024,1024,0,0,0,0,125.8,-1.3,0,24,3.668,3.656,0,0,0,0,4.219,94.82,135.40860111785,2.296588,6,P-GPS,
235800,2022-08-23 22:12:11,-34.9051311658358,-56.1628956300484,2.296588,2.1981628,132.94797111785,135.40860111785,2.296588,0,6.5194883976,15.33628658,15,4,7.326,135.73668511785,2.624672,0.9171454,11.8822510364,0,0,0,116.1, 0.4, -0.7,0,0,1024,1024,1024,1024,0,0,0,0,125.8,-1.3,0,24,3.668,3.656,0,0,0,0,4.219,94.82,135.40860111785,2.296588,6,P-GPS,
235900,2022-08-23 22:12:11,-34.9051310224513,-56.162895614857,2.624672,2.5262468,132.94797111785,135.73668511785,2.624672,0,6.5160435156,15.38878002,16,4,7.326,135.73668511785,2.624672,0.9171454,11.8822510364,0,0,0,116, 0.3, -0.8,0,0,1024,1024,1024,1024,0,0,0,0,125.8,-1.3,0,24,3.668,3.656,0,0,0,0,4.219,94.82,135.73668511785,2.624672,6,P-GPS,
236000,2022-08-23 22:12:11,-34.9051310482198,-56.1628955095937,2.624672,2.5262468,132.94797111785,135.73668511785,2.624672,0,6.4843177928,15.4216540368,16,4,7.326,135.73668511785,2.624672,0.9171454,11.8822510364,0,0,0,116, 0.6, -0.7,0,0,1024,1024,1024,1024,0,0,0,0,125.8,-1.3,0,24,3.668,3.656,0,0,0,0,4.219,94.82,135.73668511785,2.624672,6,P-GPS,
236100,2022-08-23 22:12:11,-34.9051310997747,-56.1628953898262,2.296588,2.1653544,132.98077951785,135.40860111785,2.624672,0,6.4480645108,15.4621396024,16,4,7.326,135.73668511785,2.624672,0.9171454,11.8822510364,0,0,0,116, 1.1, -0.9,0,0,1024,1024,1024,1024,0,0,0,0,125.8,-1.3,0,24,3.668,3.656,0,0,0,0,4.219,94.82,135.40860111785,2.296588,6,P-GPS,
236200,2022-08-23 22:12:11,-34.9051310932186,-56.1628952599693,2.296588,2.1653544,132.98077951785,135.40860111785,2.624672,0,6.409284982,15.5010503648,16,4,7.323,135.73668511785,2.624672,0.9171454,11.8822510364,0,0,0,116, 1, -0.7,0,0,1024,1024,1024,1024,0,0,0,0,125.8,-1.3,0,24,3.664,3.654,0,0,0,0,4.582,94.82,135.40860111785,2.296588,6,P-GPS,
236300,2022-08-23 22:12:11,-34.905131177103,-56.162895110115,2.296588,2.1653544,132.98077951785,135.40860111785,2.624672,0,6.363845348,15.5553482668,16,4,7.323,135.73668511785,2.624672,0.9171454,11.8822510364,0,0,0,116, 0.7, -1.1,0,0,1024,1024,1024,1024,0,0,0,0,125.8,-1.3,0,24,3.664,3.654,0,0,0,0,4.582,94.82,135.40860111785,2.296588,6,P-GPS,
236400,2022-08-23 22:12:11,-34.9051311269714,-56.1628949160328,2.296588,2.1653544,132.98077951785,135.40860111785,2.624672,0,6.3061353724,15.6162406572,16,4,7.323,135.73668511785,2.624672,0.9171454,11.8822510364,0,0,0,115.9, 1.2, -1.1,0,0,1024,1024,1024,1024,0,0,0,0,125.8,-1.3,0,24,3.664,3.654,0,0,0,0,4.582,94.82,135.40860111785,2.296588,6,P-GPS,
236500,2022-08-23 22:12:11,-34.9051310713144,-56.1628946955304,2.296588,2.1653544,132.98077951785,135.40860111785,2.624672,0,6.2406169976,15.6852695308,16,4,7.323,135.73668511785,2.624672,0.9171454,11.8822510364,0,0,0,115.9, 1.2, -0.8,0,0,1024,1024,1024,1024,0,0,0,0,125.8,-1.3,0,24,3.664,3.654,0,0,0,0,4.582,94.82,135.40860111785,2.296588,6,P-GPS,
236600,2022-08-23 22:12:12,-34.9051310357802,-56.1628944906612,2.296588,2.1653544,132.98077951785,135.40860111785,2.624672,0,6.1796589904,15.7479335748,16,4,7.323,135.73668511785,2.624672,0.9171454,11.8822510364,0,0,0,116, 0.9, -0.4,0,0,1024,1024,1024,1024,0,0,0,0,125.8,-1.3,0,24,3.664,3.654,0,0,0,0,4.582,94.82,135.40860111785,2.296588,6,P-GPS,
236700,2022-08-23 22:12:12,-34.9051310170807,-56.1628942802489,2.296588,2.1653544,132.98077951785,135.40860111785,2.624672,0,6.1168965212,15.8112537868,15,4,7.323,135.73668511785,2.624672,0.9171454,11.8822510364,0,0,0,116, 1.2, -0.6,0,0,1024,1024,1024,1024,0,0,0,0,125.8,-1.3,0,24,3.664,3.654,0,0,0,0,4.582,94.82,135.40860111785,2.296588,6,P-GPS,
236800,2022-08-23 22:12:12,-34.9051310019851,-56.1628939011912,2.296588,2.1653544,132.98077951785,135.40860111785,2.624672,0,6.0036747328,15.9248036592,15,4,7.323,135.73668511785,2.624672,0.9171454,11.8822510364,0,0,0,116, 1.5, -1.5,0,0,1024,1024,1024,1024,0,0,0,0,125.8,-1.3,0,24,3.664,3.654,0,0,0,0,4.582,94.82,135.40860111785,2.296588,6,P-GPS,
236900,2022-08-23 22:12:12,-34.9051309875652,-56.1628934700951,2.296588,2.1653544,132.98077951785,135.40860111785,2.624672,0,5.8749017628,16.0539047132,14,4,7.323,135.73668511785,2.624672,0.9171454,11.8822510364,0,0,0,116, 1.3, -1.8,0,0,1024,1024,1024,1024,0,0,0,0,125.8,-1.3,0,24,3.664,3.654,0,0,0,0,4.582,94.82,135.40860111785,2.296588,6,P-GPS,
237000,2022-08-23 22:12:12,-34.905130979778,-56.1628932340805,2.296588,2.1653544,132.98077951785,135.40860111785,2.624672,0,5.8043965112,16.1245740068,14,4,7.323,135.73668511785,2.624672,0.9171454,11.8822510364,0,0,0,116, 2.2, -1.8,0,0,1024,1024,1024,1024,0,0,0,0,125.8,-1.3,0,24,3.664,3.654,0,0,0,0,4.582,94.82,135.40860111785,2.296588,6,P-GPS,
237100,2022-08-23 22:12:12,-34.9051309682453,-56.1628930321198,2.296588,2.1653544,132.98077951785,135.40860111785,2.296588,0,5.7441602888,16.1851383132,14,4,7.323,135.73668511785,2.624672,0.9171454,11.8822510364,0,0,0,116.1, 2.1, -1.6,0,0,1024,1024,1024,1024,0,0,0,0,125.8,-1.3,0,24,3.664,3.654,0,0,0,0,4.582,94.82,135.40860111785,2.296588,6,P-GPS,
237200,2022-08-23 22:12:12,-34.905130953534,-56.162893050116,2.296588,2.1653544,132.98077951785,135.40860111785,2.296588,0,5.7497049084,16.192749862,14,4,7.323,135.73668511785,2.624672,0.9171454,11.8822510364,0,0,0,116.2, 2, -1.1,0,0,1024,1024,1024,1024,0,0,0,0,125.8,-1.3,0,24,3.664,3.654,0,0,0,0,4.582,94.82,135.40860111785,2.296588,6,P-GPS,
237300,2022-08-23 22:12:12,-34.9051309596227,-56.1628929185378,2.296588,2.1653544,132.98077951785,135.40860111785,2.296588,0,5.7102692116,16.2321855588,15,4,7.323,135.73668511785,2.624672,0.9171454,11.8822510364,0,0,0,116.1, 2.2, -1.8,0,0,1024,1024,1024,1024,0,0,0,0,125.8,-1.3,0,24,3.666,3.656,0,0,0,0,4.533,94.82,135.40860111785,2.296588,6,P-GPS,
237400,2022-08-23 22:12:12,-34.90513094944,-56.1628926773744,2.296588,2.1653544,132.98077951785,135.40860111785,2.296588,0,5.638287582,16.3044296556,15,4,7.323,135.73668511785,2.624672,0.9171454,11.8822510364,0,0,0,116, 2.3, -1.5,0,0,1024,1024,1024,1024,0,0,0,0,125.8,-1.3,0,24,3.666,3.656,0,0,0,0,4.533,94.82,135.40860111785,2.296588,6,P-GPS,
237500,2022-08-23 22:12:12,-34.9051309292066,-56.1628924020193,2.296588,2.1653544,132.98077951785,135.40860111785,2.296588,0,5.5562009652,16.3871724404,15,4,7.323,135.73668511785,2.624672,0.9171454,11.8822510364,0,0,0,116, 2.4, -2,0,0,1024,1024,1024,1024,0,0,0,0,125.8,-1.3,0,24,3.666,3.656,0,0,0,0,4.533,94.82,135.40860111785,2.296588,6,P-GPS,
237600,2022-08-23 22:12:13,-34.9051309654884,-56.1628912594664,2.296588,2.1653544,132.98077951785,135.40860111785,1.968504,0,5.21407497,16.7292656272,15,4,7.323,135.73668511785,2.624672,0.9171454,11.8822510364,0,0,0,116, 2.4, -1.5,0,0,1024,1024,1024,1024,0,0,0,0,125.8,-1.3,0,24,3.666,3.656,0,0,0,0,4.533,94.82,135.40860111785,2.296588,6,P-GPS,
237700,2022-08-23 22:12:13,-34.9051309670191,-56.1628907377053,2.296588,2.1653544,132.98077951785,135.40860111785,1.968504,0,5.0580382196,16.8854008028,15,5,7.323,135.73668511785,2.624672,0.9171454,11.8822510364,0,0,0,115.9, 1.8, -1,0,0,1024,1024,1024,1024,0,0,0,0,125.8,-1.3,0,24,3.666,3.656,0,0,0,0,4.533,94.82,135.40860111785,2.296588,6,P-GPS,
237800,2022-08-23 22:12:13,-34.9051310313247,-56.1628903025013,2.296588,2.1653544,132.98077951785,135.40860111785,1.968504,0,4.9270998952,17.01771708,15,5,7.323,135.73668511785,2.624672,0.9171454,11.8822510364,0,0,0,115.8, 2.3, -0.5,0,0,1024,1024,1024,1024,0,0,0,0,125.8,-1.3,0,24,3.666,3.656,0,0,0,0,4.533,94.82,135.40860111785,2.296588,6,P-GPS,
237900,2022-08-23 22:12:13,-34.9051311146457,-56.1628898781616,2.296588,2.1653544,132.98077951785,135.40860111785,1.968504,0,4.7992783688,17.1482617036,16,5,7.323,135.73668511785,2.624672,0.9171454,11.8822510364,0,0,0,115.8, 2.2, -0.4,0,0,1024,1024,1024,1024,0,0,0,0,125.8,-1.3,0,24,3.666,3.656,0,0,0,0,4.533,94.82,135.40860111785,2.296588,6,P-GPS,
238000,2022-08-23 22:12:13,-34.9051315473314,-56.1628891826553,2.296588,2.1653544,132.98077951785,135.40860111785,1.968504,0,4.5894358424,17.4094821844,16,5,7.323,135.73668511785,2.624672,0.9171454,11.8822510364,0,0,0,115.9, 2, -0.6,0,0,1024,1024,1024,1024,0,0,0,0,125.8,-1.3,0,24,3.666,3.656,0,0,0,0,4.533,94.82,135.40860111785,2.296588,6,P-GPS,
238100,2022-08-23 22:12:13,-34.9051316762244,-56.1628887870145,2.296588,2.1653544,132.98077951785,135.40860111785,1.968504,0,4.4715880696,17.5368443932,16,5,7.323,135.73668511785,2.624672,0.9171454,11.8822510364,0,0,0,115.7, 1.7, -1.4,0,0,1024,1024,1024,1024,0,0,0,0,125.8,-1.3,0,24,3.666,3.656,0,0,0,0,4.533,94.82,135.40860111785,2.296588,6,P-GPS,
238200,2022-08-23 22:12:13,-34.9051317258235,-56.1628885428064,2.296588,2.1653544,132.98077951785,135.40860111785,2.296588,0,4.3988518468,17.6121396712,16,5,7.323,135.73668511785,2.624672,0.9171454,11.8822510364,0,0,0,115.7, 2.1, -1.3,0,0,1024,1024,1024,1024,0,0,0,0,125.8,-1.3,0,24,3.666,3.656,0,0,0,0,4.533,94.82,135.40860111785,2.296588,6,P-GPS,
238300,2022-08-23 22:12:13,-34.9051317488872,-56.1628883202315,2.296588,2.132546,133.01358791785,135.40860111785,2.296588,0,4.3324476452,17.6792656576,16,5,7.316,135.73668511785,2.624672,0.9171454,11.8822510364,0,0,0,115.8, 1.8, -1.3,0,0,1024,1024,1024,1024,0,0,0,0,125.8,-1.3,0,24,3.662,3.65,0,0,0,0,4.549,94.64,135.40860111785,2.296588,6,P-GPS,
238400,2022-08-23 22:12:13,-34.9051317717831,-56.1628881963309,2.296588,2.132546,133.01358791785,135.40860111785,2.296588,0,4.295603812,17.7172577848,16,5,7.316,135.73668511785,2.624672,0.9171454,11.8822510364,0,0,0,115.8, 2, -1,0,0,1024,1024,1024,1024,0,0,0,0,125.8,-1.3,0,24,3.662,3.65,0,0,0,0,4.549,94.64,135.40860111785,2.296588,6,P-GPS,
238500,2022-08-23 22:12:13,-34.9051317556729,-56.1628884768931,2.296588,2.132546,133.01358791785,135.40860111785,2.296588,0,4.3793636572,17.8014113308,16,5,7.316,135.73668511785,2.624672,0.9171454,11.8822510364,0,0,0,115.8, 2.3, -1.3,0,0,1024,1024,1024,1024,0,0,0,0,125.8,-1.3,0,24,3.662,3.65,0,0,0,0,4.549,94.64,135.40860111785,2.296588,6,P-GPS,
238600,2022-08-23 22:12:14,-34.9051317192088,-56.1628884185129,2.296588,2.132546,133.01358791785,135.40860111785,2.296588,0,4.3616143128,17.8233601504,16,5,7.316,135.73668511785,2.624672,0.9171454,11.8822510364,0,0,0,115.9, 2.3, -0.9,0,0,1024,1024,1024,1024,0,0,0,0,125.8,-1.3,0,24,3.662,3.65,0,0,0,0,4.549,94.64,135.40860111785,2.296588,6,P-GPS,
238700,2022-08-23 22:12:14,-34.9051316664944,-56.1628883584803,2.296588,2.132546,133.01358791785,135.40860111785,2.624672,0,4.3433072256,17.8497052956,16,5,7.316,135.73668511785,2.624672,0.9171454,11.8822510364,0,0,0,115.9, 1.8, -0.5,0,0,1024,1024,1024,1024,0,0,0,0,125.8,-1.3,0,24,3.662,3.65,0,0,0,0,4.549,94.64,135.40860111785,2.296588,6,P-GPS,
238800,2022-08-23 22:12:14,-34.9051316051786,-56.1628883474132,2.296588,2.132546,133.01358791785,135.40860111785,2.624672,0,4.3396983016,17.8723102832,16,5,7.316,135.73668511785,2.624672,0.9171454,11.8822510364,0,0,0,116, 2.3, -0.2,0,0,1024,1024,1024,1024,0,0,0,0,125.8,-1.3,0,24,3.662,3.65,0,0,0,0,4.549,94.64,135.40860111785,2.296588,6,P-GPS,
238900,2022-08-23 22:12:14,-34.9051314220503,-56.1628887305145,2.296588,2.132546,133.01358791785,135.40860111785,2.624672,0,4.4541011924,18.0049874528,15,5,7.316,135.73668511785,2.624672,0.9171454,11.8822510364,0,0,0,115.9, 2.4, -0.4,0,0,1024,1024,1024,1024,0,0,0,0,125.8,-1.3,0,24,3.662,3.65,0,0,0,0,4.549,94.64,135.40860111785,2.296588,6,P-GPS,
239000,2022-08-23 22:12:14,-34.9051313918736,-56.1628887412495,2.296588,2.132546,133.01358791785,135.40860111785,2.952756,0,4.4573820324,18.0164703928,15,5,7.316,135.73668511785,2.624672,0.9171454,11.8822510364,0,0,0,116, 2.7, -0.5,0,0,1024,1024,1024,1024,0,0,0,0,125.8,-1.3,0,24,3.662,3.65,0,0,0,0,4.549,94.64,135.40860111785,2.296588,6,P-GPS,
239100,2022-08-23 22:12:14,-34.9051313661002,-56.162888771434,2.296588,2.132546,133.01358791785,135.40860111785,2.952756,0,4.4665027676,18.0294953276,14,5,7.316,135.73668511785,2.624672,0.9171454,11.8822510364,0,0,0,116.1, 2.3, -0.9,0,0,1024,1024,1024,1024,0,0,0,0,125.8,-1.3,0,24,3.662,3.65,0,0,0,0,4.549,94.64,135.40860111785,2.296588,6,P-GPS,
239200,2022-08-23 22:12:14,-34.905131326376,-56.1628887600107,2.296588,2.132546,133.01358791785,135.40860111785,3.28084,0,4.4632219276,18.0443903412,14,5,7.316,135.73668511785,2.624672,0.9171454,11.8822510364,0,0,0,116.1, 2.4, -1.3,0,0,1024,1024,1024,1024,0,0,0,0,125.8,-1.3,0,24,3.662,3.65,0,0,0,0,4.549,94.64,135.40860111785,2.296588,6,P-GPS,
