time(millisecond),datetime(utc),latitude,longitude,height_above_takeoff(feet),height_above_ground_at_drone_location(feet),ground_elevation_at_drone_location(feet),altitude_above_seaLevel(feet),height_sonar(feet),speed(mph),distance(feet),mileage(feet),satellites,gpslevel,voltage(v),max_altitude(feet),max_ascent(feet),max_speed(mph),max_distance(feet), xSpeed(mph), ySpeed(mph), zSpeed(mph), compass_heading(degrees), pitch(degrees), roll(degrees),isPhoto,isVideo,rc_elevator,rc_aileron,rc_throttle,rc_rudder,rc_elevator(percent),rc_aileron(percent),rc_throttle(percent),rc_rudder(percent),gimbal_heading(degrees),gimbal_pitch(degrees),gimbal_roll(degrees),battery_percent,voltageCell1,voltageCell2,voltageCell3,voltageCell4,voltageCell5,voltageCell6,current(A),battery_temperature(f),altitude(feet),ascent(feet),flycStateRaw,flycState,message
0,2022-08-12 02:17:56,-34.9064515334252,-56.1630436669769,0,0,122.12213022024,122.12213022024,0.656168,0,0,0,18,5,0,122.12213022024,0,0,0,0,0,0,315.9, 2.2, 0,0,0,364,364,364,1684,-100,-100,-100,100,326.4,0,0,75,4.093,4.086,0,0,0,0,0,84.38,122.12213022024,0,41,Motors_Started,"No se puede despegar (Code: 30064). Baja velocidad de la tarjeta SD. Puede afectar a su uso normal. Sustituye la tarjeta SD (Code: 10028)"
100,2022-08-12 02:17:56,-34.906451595935,-56.1630436389577,0,0,122.12213022024,122.12213022024,0.656168,0,0.0242987540584,0.0242987540584,18,5,0,122.12213022024,0,0,0.0242987540584,0,0,0,315.9, 2.2, 0,0,0,364,364,364,1684,-100,-100,-100,100,326.4,0,0,75,4.093,4.086,0,0,0,0,0,84.38,122.12213022024,0,41,Motors_Started,
200,2022-08-12 02:17:57,-34.9064515952149,-56.1630436743488,0,0,122.12213022024,122.12213022024,0.328084,0,0.022651575528,0.034891405316,18,5,0,122.12213022024,0,0,0.0242987540584,0,0,0,316, 2.2, 0,0,0,364,364,364,1684,-100,-100,-100,100,326.4,0,0,75,4.093,4.086,0,0,0,0,0,84.38,122.12213022024,0,41,Motors_Started,
300,2022-08-12 02:17:57,-34.906451637085,-56.1630436853014,0,0,122.12213022024,122.12213022024,0.328084,0,0.038215552404,0.05051509348,18,5,0,122.12213022024,0,0,0.038215552404,0,0,0,315.9, 2.1, 0,0,0,364,364,364,1684,-100,-100,-100,100,326.4,0,0,75,4.093,4.086,0,0,0,0,0,84.38,122.12213022024,0,41,Motors_Started,
400,2022-08-12 02:17:57,-34.9064516780563,-56.163043706062,0,0,122.12213022024,122.12213022024,0.328084,0,0.054048886244,0.06670275804,18,5,0,122.12213022024,0,0,0.054048886244,0,0,0,316, 2.1, 0.1,0,0,364,364,364,1684,-100,-100,-100,100,326.4,0,0,75,4.093,4.086,0,0,0,0,0,84.38,122.12213022024,0,41,Motors_Started,
500,2022-08-12 02:17:57,-34.9064517161439,-56.1630436987701,0,0,122.12213022024,122.12213022024,0.328084,0,0.067340225252,0.08076935954,18,5,0,122.12213022024,0,0,0.067340225252,0,0,0,316, 2.2, 0.1,0,0,364,364,364,1684,-100,-100,-100,100,326.4,0,0,75,4.093,4.086,0,0,0,0,0,84.38,122.12213022024,0,41,Motors_Started,
600,2022-08-12 02:17:57,-34.9064516782525,-56.1630437187109,0,0,122.12213022024,122.12213022024,0.328084,0,0.0550606973,0.095826446636,18,5,0,122.12213022024,0,0,0.067340225252,0,0,0,315.9, 2.1, 0.1,0,0,434,364,1024,1186,-89,-100,0,25,326.4,0,0,75,4.093,4.086,0,0,0,0,0,84.38,122.12213022024,0,41,Motors_Started,"Setting new Return-To-Home altitude to 40m (131 ft). Data Recorder File Index is 36. Setting new Maximum Flight Altitude to 120m (394 ft)"
700,2022-08-12 02:17:57,-34.9064517204862,-56.1630437034969,0,0,122.12213022024,122.12213022024,0.328084,0,0.069118440532,0.111893704368,18,5,0,122.12213022024,0,0,0.069118440532,0,0,0,315.9, 2.2, 0.1,0,0,1024,1024,1024,1024,0,0,0,0,326.4,0,0,75,4.093,4.086,0,0,0,0,0,84.38,122.12213022024,0,41,Motors_Started,
800,2022-08-12 02:17:57,-34.9064517681654,-56.1630437000987,0,0,122.12213022024,122.12213022024,0.328084,0,0.086216210108,0.12931922986,18,5,0,122.12213022024,0,0,0.086216210108,0,0,0,316, 2.1, 0,0,0,1024,1024,1024,1024,0,0,0,0,326.4,0,0,75,4.093,4.086,0,0,0,0,0,84.38,122.12213022024,0,41,Motors_Started,
900,2022-08-12 02:17:57,-34.9064518447365,-56.163043674885,0,0,122.12213022024,122.12213022024,0.328084,0,0.113606302848,0.158256894828,18,5,0,122.12213022024,0,0,0.113606302848,0,0,0,315.9, 2.1, 0,0,0,1024,1024,1024,1024,0,0,0,0,326.4,0,0,75,4.093,4.086,0,0,0,0,0,84.38,122.12213022024,0,41,Motors_Started,
1000,2022-08-12 02:17:57,-34.9064520036999,-56.1630436267072,0,0,122.12213022024,122.12213022024,0.328084,0,0.172001974008,0.218019035848,18,5,0,122.12213022024,0,0,0.172001974008,0,0,0,315.9, 2.1, 0,0,0,1024,1024,1024,1024,0,0,0,0,326.4,0,0,75,4.093,4.086,0,0,0,0,0,84.38,122.12213022024,0,41,Motors_Started,
1100,2022-08-12 02:17:57,-34.9064520850561,-56.1630436099797,0,0,122.12213022024,122.12213022024,0.328084,0,0.201983602264,0.248121070932,18,5,8.195,122.12213022024,0,0,0.201983602264,0,0,0,315.9, 2.2, 0,0,0,1024,1024,1024,1024,0,0,0,0,326.4,0,0,75,4.093,4.086,0,0,0,0,0.576,84.38,122.12213022024,0,10,Assisted_Takeoff,
1200,2022-08-12 02:17:58,-34.9064521556007,-56.1630436092782,0,0,122.12213022024,122.12213022024,0.328084,0,0.22765584718,0.2738599169,18,5,8.195,122.12213022024,0,0,0.22765584718,0,0,0,315.9, 2.2, 0,0,0,1024,1024,1024,1024,0,0,0,0,326.4,0,0,75,4.093,4.086,0,0,0,0,0.576,84.38,122.12213022024,0,10,Assisted_Takeoff,
1300,2022-08-12 02:17:58,-34.9064522138298,-56.1630436152444,0,0,122.12213022024,122.12213022024,0.328084,0,0.248727370164,0.295179799472,18,5,8.195,122.12213022024,0,0,0.248727370164,0,0,0,315.9, 2.2, 0,0,0,1024,1024,1024,1024,0,0,0,0,326.4,0,0,75,4.093,4.086,0,0,0,0,0.576,84.38,122.12213022024,0,10,Assisted_Takeoff,
1400,2022-08-12 02:17:58,-34.9064522411054,-56.1630436553106,0,0,122.12213022024,122.12213022024,0.328084,0,0.25822015262,0.310759852464,18,5,8.195,122.12213022024,0,0,0.25822015262,0,0,0,315.9, 2.2, 0.1,0,0,1024,1024,1240,1024,0,0,33,0,326.4,0,0,75,4.093,4.086,0,0,0,0,0.576,84.38,122.12213022024,0,10,Assisted_Takeoff,
1500,2022-08-12 02:17:58,-34.9064523176504,-56.1630436616969,0,0,122.12213022024,122.12213022024,0.328084,0,0.28612861808,0.33875329168,18,5,8.195,122.12213022024,0,0,0.28612861808,0,0,0,315.9, 2.2, 0.1,0,0,1024,1024,1684,1024,0,0,100,0,326.4,0,0,75,4.093,4.086,0,0,0,0,0.576,84.38,122.12213022024,0,10,Assisted_Takeoff,
1600,2022-08-12 02:17:58,-34.9064524176324,-56.1630436680725,0,0,122.12213022024,122.12213022024,0.328084,0,0.322602700612,0.37528216424,19,5,8.195,122.12213022024,0,0,0.322602700612,0,0,0,315.8, 2.2, 0,0,0,1024,1024,1684,1024,0,0,100,0,326.4,0,0,75,4.093,4.086,0,0,0,0,0.576,84.38,122.12213022024,0,10,Assisted_Takeoff,"Aeronave en Zona de altitud restringida (150). Vuela con precaución (Code: 190001)"
1700,2022-08-12 02:17:58,-34.9064524956068,-56.1630437001836,0,0,122.12213022024,122.12213022024,0.328084,0,0.35119095612,0.40530841192,19,5,8.195,122.12213022024,0,0,0.35119095612,0,0,0,316.3, 2.1, 0.2,0,0,1024,1024,1684,1024,0,0,100,0,326.5,0,0,75,4.093,4.086,0,0,0,0,0.576,84.38,122.12213022024,0,10,Assisted_Takeoff,
1800,2022-08-12 02:17:58,-34.9064525603411,-56.1630437516088,0,0.06561680000001,122.05651342024,122.12213022024,0.328084,0,0.3755249464,0.4334973892,19,5,8.195,122.12213022024,0,0,0.3755249464,0,0,0,316.6, 2, 0.2,0,0,1024,1024,1172,1024,0,0,22,0,326.7,0,0,75,4.093,4.086,0,0,0,0,0.576,84.38,122.12213022024,0,10,Assisted_Takeoff,
1900,2022-08-12 02:17:58,-34.9064526293326,-56.1630439018091,0,0.06561680000001,122.05651342024,122.12213022024,0.328084,0,0.40596786076,0.4850065772,19,5,8.195,122.12213022024,0,0,0.40596786076,0,0,0,316.7, 1.2, 0.2,0,0,1024,1024,1024,1024,0,0,0,0,326.9,0,0,75,4.093,4.086,0,0,0,0,0.576,84.38,122.12213022024,0,10,Assisted_Takeoff,
2000,2022-08-12 02:17:58,-34.9064526729431,-56.1630439256167,0,0.06561680000001,122.05651342024,122.12213022024,0.328084,0,0.42289371432,0.50244096096,19,5,8.195,122.12213022024,0,0,0.42289371432,0,0,0,316.9, -1.3, 0,0,0,1024,1024,1024,1024,0,0,0,0,327.1,0,0,75,4.093,4.086,0,0,0,0,0.576,84.38,122.12213022024,0,10,Assisted_Takeoff,
2100,2022-08-12 02:17:58,-34.9064527349412,-56.1630439494477,0,0.06561680000001,122.05651342024,122.12213022024,0.328084,0,0.44644686468,0.52615815332,19,5,8.157,122.12213022024,0,0,0.44644686468,0,0,0,317, -2.1, -0.5,0,0,1024,1024,1236,1024,0,0,32,0,327.2,0,0,75,4.081,4.078,0,0,0,0,1.517,84.38,122.12213022024,0,10,Assisted_Takeoff,
2200,2022-08-12 02:17:59,-34.9064528158171,-56.1630439911716,0,0.06561680000001,122.05651342024,122.12213022024,0.328084,0,0.47782809928,0.55819555592,19,5,8.157,122.12213022024,0,0,0.47782809928,0,0,0,317.1, -1.2, 0,0,0,1024,1024,1684,1024,0,0,100,0,327.3,0,0,75,4.081,4.078,0,0,0,0,1.517,84.38,122.12213022024,0,6,P-GPS,"Baja velocidad de la tarjeta SD. Puede afectar a su uso normal. Sustituye la tarjeta SD (Code: 10028)"
2300,2022-08-12 02:17:59,-34.9064528868519,-56.1630440645281,0,0.06561680000001,122.05651342024,122.12213022024,0.328084,0,0.5079232446,0.5921588116,19,5,8.157,122.12213022024,0,0,0.5079232446,0,0,0,317.5, 0.8, -0.1,0,0,1024,1024,1684,1024,0,0,100,0,327.3,0,0,75,4.081,4.078,0,0,0,0,1.517,84.38,122.12213022024,0,6,P-GPS,
2400,2022-08-12 02:17:59,-34.9064529720854,-56.1630441811352,0,0.06561680000001,122.05651342024,122.12213022024,0.328084,0,0.54697508312,0.63889765824,19,5,8.157,122.12213022024,0,0,0.54697508312,0,0,-0.223694,317.1, -1.8, 0.5,0,0,1024,1024,1684,1032,0,0,100,1,327.3,0,0,75,4.081,4.078,0,0,0,0,1.517,84.38,122.12213022024,0,6,P-GPS,
2500,2022-08-12 02:17:59,-34.9064530595956,-56.1630442597066,0,0.06561680000001,122.05651342024,122.12213022024,0.328084,0,0.5843832208,0.67854660964,19,5,8.157,122.12213022024,0,0,0.5843832208,0,0,-0.223694,316.8, -1, 0.4,0,0,1024,1024,1639,1024,0,0,93,0,327.3,0,0,75,4.081,4.078,0,0,0,0,1.517,84.38,122.12213022024,0,6,P-GPS,
2600,2022-08-12 02:17:59,-34.9064531559913,-56.1630443092361,0,0.06561680000001,122.05651342024,122.12213022024,0.328084,0,0.62240159472,0.71670934052,19,5,8.157,122.12213022024,0,0,0.62240159472,0,0,-0.447388,316.9, 0.4, 0,0,0,1024,1024,1189,1024,0,0,25,0,327.3,0,0,75,4.081,4.078,0,0,0,0,1.517,84.38,122.12213022024,0,6,P-GPS,"Baja velocidad de la tarjeta SD. Puede afectar a su uso normal. Sustituye la tarjeta SD (Code: 10028)"
2700,2022-08-12 02:17:59,-34.9064532462047,-56.1630443001651,0,0.06561680000001,122.05651342024,122.12213022024,0.656168,0,0.65299542772,0.7497375568,19,5,8.157,122.12213022024,0,0,0.65299542772,0,0,-0.894776,317, 0.1, 0,0,0,1024,1024,1024,1024,0,0,0,0,327.3,0,0,75,4.081,4.078,0,0,0,0,1.517,84.38,122.12213022024,0,6,P-GPS,
2800,2022-08-12 02:17:59,-34.9064533192489,-56.1630442676404,0,0.06561680000001,122.05651342024,122.12213022024,0.656168,0,0.67588912924,0.77810698028,19,5,8.157,122.12213022024,0,0,0.67588912924,0,0,-0.894776,316.8, 0.1, 0,0,0,1024,1024,1024,1024,0,0,0,0,327.3,0,0,75,4.081,4.078,0,0,0,0,1.517,84.38,122.12213022024,0,6,P-GPS,"Se detectó tarjeta SD de baja velocidad"
2900,2022-08-12 02:17:59,-34.9064534059306,-56.1630442530544,0.328084,0.39370080000001,122.05651342024,122.45021422024,0.656168,0,0.70532810656,0.81003283432,19,5,8.157,122.45021422024,0.328084,0,0.70532810656,0,0,-0.894776,316.8, -0.3, 0.5,0,0,1024,1024,1309,1051,0,0,43,4,327.3,0,0,75,4.081,4.078,0,0,0,0,1.517,84.38,122.45021422024,0.328084,6,P-GPS,
3000,2022-08-12 02:17:59,-34.9064535031707,-56.1630442591664,0.328084,0.4265092,122.02370502024,122.45021422024,0.984252,0,0.74018046988,0.84555776984,20,5,8.157,122.45021422024,0.328084,0,0.74018046988,0,0,-0.894776,316.8, -0.2, 0.8,0,0,1024,1024,1684,1050,0,0,100,4,327.3,0,0,75,4.081,4.078,0,0,0,0,1.517,84.38,122.45021422024,0.328084,6,P-GPS,
3100,2022-08-12 02:17:59,-34.9064536447761,-56.1630441874236,0.328084,0.4265092,122.02370502024,122.45021422024,0.984252,0,0.7859088178,0.90150593436,20,5,8.132,122.45021422024,0.328084,0,0.7859088178,0,0,-1.11847,316.8, -0.4, 0.4,0,0,1024,1024,1684,1051,0,0,100,4,327.3,0,0,75,4.05,4.046,0,0,0,0,1.801,84.38,122.45021422024,0.328084,6,P-GPS,
3200,2022-08-12 02:18:00,-34.9064537423728,-56.1630441566601,0.656168,0.7545932,122.02370502024,122.77829822024,1.312336,0,0.819143727,0.93828415076,20,5,8.132,122.77829822024,0.656168,0,0.819143727,0,0,-1.565858,316.9, -0.5, 0.2,0,0,1024,1024,1024,1024,0,0,0,0,327.3,0,0,75,4.05,4.046,0,0,0,0,1.801,84.38,122.77829822024,0.656168,6,P-GPS,
3300,2022-08-12 02:18:00,-34.9064539636352,-56.163044079693,0.984252,1.0826772,122.02370502024,123.10638222024,1.312336,0,0.89521984492,1.02223100384,20,5,8.132,123.10638222024,0.984252,0,0.89521984492,0,0,-2.013246,316.8, -1.5, 0.4,0,0,1024,1024,1024,1024,0,0,0,0,327.4,0,0,75,4.05,4.046,0,0,0,0,1.801,84.38,123.10638222024,0.984252,6,P-GPS,
3400,2022-08-12 02:18:00,-34.9064543081846,-56.1630439646128,1.312336,1.4107612,122.02370502024,123.43446622024,1.64042,0,1.01627956008,1.15257221536,21,5,8.132,123.43446622024,1.312336,0,1.01627956008,0,0,-2.23694,316.8, -1.1, 0.3,0,0,1096,1024,1024,1024,11,0,0,0,327.4,0,0,75,4.05,4.046,0,0,0,0,1.801,84.38,123.43446622024,1.312336,6,P-GPS,
3500,2022-08-12 02:18:00,-34.9064546205963,-56.1630441106783,1.64042,1.804462,121.95808822024,123.76255022024,1.968504,0,1.13415029876,1.27464571008,21,5,8.132,123.76255022024,1.64042,0,1.13415029876,0,0,-2.013246,316.8, -0.1, 0.1,0,0,1684,1024,1024,1024,100,0,0,0,327.4,0,0,75,4.05,4.046,0,0,0,0,1.801,84.38,123.76255022024,1.64042,6,P-GPS,
3600,2022-08-12 02:18:00,-34.9064555602973,-56.1630449416287,1.968504,2.1981628,121.89247142024,124.09063422024,2.296588,0,1.5178970302,1.69815622232,21,5,8.132,124.09063422024,1.968504,0,1.5178970302,0,0,-1.342164,316.8, -1.4, 0,0,0,1684,1024,1024,1024,100,0,0,0,327.4,0,0,75,4.05,4.046,0,0,0,0,1.801,84.38,124.09063422024,1.968504,6,P-GPS,
3700,2022-08-12 02:18:00,-34.9064556868249,-56.1630453432669,1.968504,2.1981628,121.89247142024,124.09063422024,2.296588,0.223694,1.59621396184,1.82688982224,21,5,8.132,124.09063422024,1.968504,0.223694,1.59621396184,0.223694,0,-0.894776,316.8, -14.5, -0.1,0,0,1684,1024,1024,1024,100,0,0,0,327.4,0,0,75,4.05,4.046,0,0,0,0,1.801,84.38,124.09063422024,1.968504,6,P-GPS,
3800,2022-08-12 02:18:00,-34.9064555760386,-56.1630458590171,2.296588,2.5590552,121.85966302024,124.41871822024,2.624672,0.8052984,1.61419952672,1.98641410556,21,5,8.132,124.41871822024,2.296588,0.8052984,1.61419952672,0.671082,-0.447388,-0.447388,316.8, -21.3, -0.2,0,0,1684,1024,1024,1024,100,0,0,0,327.4,0,0,75,4.05,4.046,0,0,0,0,1.801,84.38,124.41871822024,2.296588,6,P-GPS,
3900,2022-08-12 02:18:00,-34.9064553012794,-56.1630466094963,2.296588,2.5590552,121.85966302024,124.41871822024,2.624672,1.5882274,1.63246724384,2.23232290608,21,5,8.132,124.41871822024,2.296588,1.5882274,1.63246724384,1.11847,-1.11847,0,316.5, -22.8, -0.2,0,0,1684,1024,1024,1024,100,0,0,0,327.4,0,0,75,4.05,4.046,0,0,0,0,1.801,84.38,124.41871822024,2.296588,6,P-GPS,
4000,2022-08-12 02:18:00,-34.9064544140091,-56.1630485083621,2.296588,2.5590552,121.85966302024,124.41871822024,2.624672,2.3711564,1.78967853496,2.88623368816,21,5,8.132,124.41871822024,2.296588,2.3711564,1.78967853496,1.565858,-1.789552,0,316.2, -22.3, -0.4,0,0,1684,1024,1024,1024,100,0,0,0,327.4,0,0,75,4.05,4.046,0,0,0,0,1.801,84.38,124.41871822024,2.296588,6,P-GPS,
4100,2022-08-12 02:18:00,-34.9064537084637,-56.1630498834593,2.296588,2.5918636,121.82685462024,124.41871822024,2.624672,3.019869,2.02223431668,3.371555226,21,5,8.132,124.41871822024,2.296588,3.019869,2.02223431668,2.013246,-2.23694,0,315.9, -21.4, -0.2,0,0,1549,1024,1024,1024,80,0,0,0,327.4,0,0,75,4.05,4.046,0,0,0,0,1.801,84.38,124.41871822024,2.296588,6,P-GPS,
4200,2022-08-12 02:18:01,-34.9064527345134,-56.1630515968151,2.296588,2.624672,121.79404622024,124.41871822024,2.624672,3.802798,2.41280191448,3.9953413352,21,5,8.06,124.41871822024,2.296588,3.802798,2.41280191448,2.460634,-2.908022,0,315.6, -20.4, -0.2,0,0,1024,1024,1416,1024,0,0,59,0,327.4,0,0,75,4.004,4.005,0,0,0,0,4.004,84.38,124.41871822024,2.296588,6,P-GPS,
4300,2022-08-12 02:18:01,-34.906451572919,-56.1630534863893,2.296588,2.5918636,121.82685462024,124.41871822024,2.624672,4.4291412,2.93808736436,4.7019030376,21,5,8.06,124.41871822024,2.296588,4.4291412,2.93808736436,2.908022,-3.35541,0,315.3, -7.3, -0.2,0,0,1024,1024,1684,1024,0,0,100,0,327.4,0,0,75,4.004,4.005,0,0,0,0,4.004,84.38,124.41871822024,2.296588,6,P-GPS,
4400,2022-08-12 02:18:01,-34.9064496704818,-56.1630561261992,2.296588,2.5918636,121.82685462024,124.41871822024,2.624672,4.2949248,3.7893702,5.7534122576,21,5,8.06,124.41871822024,2.296588,4.4291412,3.7893702,2.684328,-3.35541,-0.447388,315, 15.4, 0.3,0,0,1024,1024,1554,1024,0,0,80,0,327.4,0,0,75,4.004,4.005,0,0,0,0,4.004,84.38,124.41871822024,2.296588,6,P-GPS,
4500,2022-08-12 02:18:01,-34.9064485892182,-56.1630578595801,2.296588,2.624672,121.79404622024,124.41871822024,2.624672,3.3330406,4.3803151008,6.4050526984,21,5,8.06,124.41871822024,2.296588,4.4291412,4.3803151008,2.23694,-2.460634,-1.11847,314.7, 16.6, 0.5,0,0,1024,1024,1024,1024,0,0,0,0,327.4,0,0,75,4.004,4.005,0,0,0,0,4.004,84.38,124.41871822024,2.296588,6,P-GPS,
4600,2022-08-12 02:18:01,-34.9064477262941,-56.1630592555639,2.624672,2.952756,121.79404622024,124.74680222024,2.952756,3.3330406,4.8666668224,6.9280842112,20,5,8.06,124.74680222024,2.624672,4.4291412,4.8666668224,1.565858,-1.789552,-1.789552,314.4, 12.8, -0.3,0,0,1024,1024,1024,1024,0,0,0,0,327.4,0,0,75,4.004,4.005,0,0,0,0,4.004,84.38,124.74680222024,2.624672,6,P-GPS,
4700,2022-08-12 02:18:01,-34.906447027197,-56.1630602462312,2.952756,3.2480316,121.82685462024,125.07488622024,3.28084,1.9237684,5.2260172276,7.3191603392,20,5,8.06,125.07488622024,2.952756,4.4291412,5.2260172276,1.11847,-1.565858,-1.565858,314.1, 10.4, -0.2,0,0,1024,1024,1024,1024,0,0,0,0,327.4,0,0,75,4.004,4.005,0,0,0,0,4.004,84.38,125.07488622024,2.952756,6,P-GPS,
4800,2022-08-12 02:18:01,-34.9064458888629,-56.1630607147066,3.28084,3.5761156,121.82685462024,125.40297022024,3.28084,1.4316416,5.5008860028,7.7574805632,20,5,8.06,125.40297022024,3.28084,4.4291412,5.5008860028,0.894776,-1.11847,-1.11847,313.9, 9.5, 0,0,0,1024,1024,1026,1024,0,0,0,0,327.4,0,0,75,4.004,4.005,0,0,0,0,4.004,84.38,125.40297022024,3.28084,6,P-GPS,
4900,2022-08-12 02:18:01,-34.9064453667732,-56.1630613296796,3.28084,3.5104988,121.89247142024,125.40297022024,3.28084,1.11847,5.7438322048,8.022309968,20,5,8.06,125.40297022024,3.28084,4.4291412,5.7438322048,0.671082,-0.894776,-0.671082,313.6, 8.4, 0.1,0,0,1024,1024,1467,1024,0,0,67,0,327.4,0,0,75,4.004,4.005,0,0,0,0,4.004,84.38,125.40297022024,3.28084,6,P-GPS,
5000,2022-08-12 02:18:01,-34.9064449422055,-56.1630618278449,3.28084,3.5433072,121.85966302024,125.40297022024,3.608924,0.8052984,5.9422245996,8.2373034132,20,5,8.06,125.40297022024,3.28084,4.4291412,5.9422245996,0.447388,-0.671082,-0.447388,313.4, 7.1, 0.1,0,0,1024,1024,1684,1024,0,0,100,0,327.4,0,0,75,4.004,4.005,0,0,0,0,4.004,84.38,125.40297022024,3.28084,6,P-GPS,
5100,2022-08-12 02:18:01,-34.9064447485399,-56.163062137219,3.608924,3.8713912,121.85966302024,125.73105422024,3.608924,0.4921268,6.0555448132,8.3537404248,20,5,8.06,125.73105422024,3.608924,4.4291412,6.0555448132,0.223694,-0.447388,-0.894776,313.2, 4.8, 0.3,0,0,1024,1024,1499,1024,0,0,72,0,327.4,0,0,75,4.004,4.005,0,0,0,0,4.004,84.38,125.73105422024,3.608924,6,P-GPS,
5200,2022-08-12 02:18:01,-34.9064447417025,-56.1630623243401,3.608924,3.8713912,121.85966302024,125.73105422024,3.937008,0.3131716,6.1076773608,8.4098099804,20,5,8.051,125.73105422024,3.608924,4.4291412,6.1076773608,0.223694,-0.223694,-1.565858,313, 2.9, 0,0,0,1024,1024,1526,1024,0,0,76,0,327.4,0,0,75,4.016,3.983,0,0,0,0,4.399,84.38,125.73105422024,3.608924,6,P-GPS,
5300,2022-08-12 02:18:02,-34.9064450505422,-56.1630619940589,3.937008,4.1994752,121.85966302024,126.05913822024,4.265092,0.3131716,5.9719818184,8.5596787516,20,5,8.051,126.05913822024,3.937008,4.4291412,6.1076773608,0.223694,-0.223694,-2.23694,312.8, 1.8, 0,0,0,1024,1024,1684,1024,0,0,100,0,327.4,0,0,75,4.016,3.983,0,0,0,0,4.399,84.38,126.05913822024,3.937008,6,P-GPS,
5400,2022-08-12 02:18:02,-34.9064451204307,-56.163062414328,4.265092,4.5275592,121.85966302024,126.38722222024,4.593176,0.3131716,6.0777889084,8.687992404,20,5,8.051,126.38722222024,4.265092,4.4291412,6.1076773608,0.223694,-0.223694,-2.460634,312.7, 1.7, 0.2,0,0,1024,1024,1684,1024,0,0,100,0,327.4,0,0,75,4.016,3.983,0,0,0,0,4.399,84.38,126.38722222024,4.265092,6,P-GPS,
5500,2022-08-12 02:18:02,-34.9064452868893,-56.1630626761722,4.92126,5.2165356,121.82685462024,127.04339022024,4.92126,0.223694,6.1273295924,8.7871065804,20,5,8.051,127.04339022024,4.92126,4.4291412,6.1273295924,0,-0.223694,-3.131716,312.5, 1.4, 0.2,0,0,1024,1024,1684,1026,0,0,100,0,327.4,0,0,75,4.016,3.983,0,0,0,0,4.399,84.38,127.04339022024,4.92126,6,P-GPS,
5600,2022-08-12 02:18:02,-34.9064455472217,-56.1630628054099,5.249344,5.6102364,121.76123782024,127.37147422024,5.577428,0,6.1287403536,8.8896656388,21,5,8.051,127.37147422024,5.249344,4.4291412,6.1287403536,0,0,-4.026492,312.3, 1.1, 0.3,0,0,1024,1024,1165,1024,0,0,21,0,327.4,0,0,75,4.016,3.983,0,0,0,0,4.399,84.38,127.37147422024,5.249344,6,P-GPS,
5700,2022-08-12 02:18:02,-34.9064462754446,-56.163063243857,6.233596,6.5944884,121.76123782024,128.35572622024,6.233596,0,6.163714108,9.1859582992,21,5,8.051,128.35572622024,6.233596,4.4291412,6.163714108,0,0,-4.697574,312.1, 1.9, 0.4,0,0,1024,1024,1165,1024,0,0,21,0,327.4,0,0,75,4.016,3.983,0,0,0,0,4.399,84.38,128.35572622024,6.233596,6,P-GPS,
5800,2022-08-12 02:18:02,-34.9064464392698,-56.1630635507331,6.889764,7.2834648,121.72842942024,129.01189422024,6.889764,0,6.232939832,9.2955383552,21,5,8.051,129.01189422024,6.889764,4.4291412,6.232939832,0,0,-4.921268,312, 1.4, 0.1,0,0,1024,1024,1024,1024,0,0,0,0,327.4,0,0,75,4.016,3.983,0,0,0,0,4.399,84.38,129.01189422024,6.889764,6,P-GPS,
5900,2022-08-12 02:18:02,-34.9064465796825,-56.1630637305718,7.545932,7.9724412,121.69562102024,129.66806222024,7.545932,0,6.269357156,9.3698165728,21,5,8.051,129.66806222024,7.545932,4.4291412,6.269357156,0,0,-4.250186,311.9, 1.3, 0,0,0,1024,1024,1324,1024,0,0,45,0,327.4,0,0,75,4.016,3.983,0,0,0,0,4.399,84.38,129.66806222024,7.545932,6,P-GPS,
6000,2022-08-12 02:18:02,-34.9064467101935,-56.1630638037044,7.874016,8.3005252,121.69562102024,129.99614622024,8.2021,0,6.2768046628,9.422244396,21,5,8.051,129.99614622024,7.874016,4.4291412,6.2768046628,0,0,-3.802798,311.7, 1.1, 0.1,0,0,1024,1024,1684,1024,0,0,100,0,327.4,0,0,75,4.016,3.983,0,0,0,0,4.399,84.38,129.99614622024,7.874016,6,P-GPS,
6100,2022-08-12 02:18:02,-34.9064465442924,-56.1630642079383,8.530184,8.9566932,121.69562102024,130.65231422024,8.530184,0,6.4099083416,9.5574806208,21,5,8.036,130.65231422024,8.530184,4.4291412,6.4099083416,0,0,-3.579104,311.7, 0.9, 0.3,0,0,1024,1024,1684,1024,0,0,100,0,327.4,0,0,75,4.016,3.996,0,0,0,0,4.768,84.38,130.65231422024,8.530184,6,P-GPS,
6200,2022-08-12 02:18:02,-34.906446618488,-56.1630643334048,9.186352,9.6128612,121.69562102024,131.30848222024,9.186352,0,6.438320416,9.6037732732,20,5,8.036,131.30848222024,9.186352,4.4291412,6.438320416,0,0,-4.026492,311.5, 0.5, 0.4,0,0,1024,1024,1684,1024,0,0,100,0,327.4,0,0,75,4.016,3.996,0,0,0,0,4.768,84.38,131.30848222024,9.186352,6,P-GPS,
6300,2022-08-12 02:18:03,-34.9064467143112,-56.163064407334,9.84252,10.2690292,121.69562102024,131.96465022024,9.84252,0,6.449967398,9.6451446656,20,5,8.036,131.96465022024,9.84252,4.4291412,6.449967398,0,0,-4.697574,311.4, 0.1, 0.1,0,0,1024,1024,1246,1024,0,0,34,0,327.4,0,0,75,4.016,3.996,0,0,0,0,4.768,84.38,131.96465022024,9.84252,6,P-GPS,
6400,2022-08-12 02:18:03,-34.9064468443142,-56.1630644432918,10.498688,10.9251972,121.69562102024,132.62081822024,10.498688,0,6.4475723848,9.6937667144,20,5,8.036,132.62081822024,10.498688,4.4291412,6.449967398,0,0,-5.368656,311.4, -0.5, -0.3,0,0,1024,1024,1024,1024,0,0,0,0,327.4,0,0,75,4.016,3.996,0,0,0,0,4.768,84.38,132.62081822024,10.498688,6,P-GPS,
6500,2022-08-12 02:18:03,-34.9064465792227,-56.1630649193564,11.48294,11.9422576,121.66281262024,133.60507022024,11.48294,0,6.6107941748,9.8659451976,20,5,8.036,133.60507022024,11.48294,4.4291412,6.6107941748,0,0,-5.59235,311.2, 0, -0.6,0,0,1024,1024,1024,1024,0,0,0,0,327.4,0,0,75,4.016,3.996,0,0,0,0,4.768,84.38,133.60507022024,11.48294,6,P-GPS,
6600,2022-08-12 02:18:03,-34.9064465467861,-56.163065216644,12.139108,12.5984256,121.66281262024,134.26123822024,12.139108,0,6.6996065136,9.9556761716,21,5,8.036,134.26123822024,12.139108,4.4291412,6.6996065136,0,0,-5.144962,311.2, 0.7, -0.4,0,0,1024,1024,1024,1024,0,0,0,0,327.4,0,0,75,4.016,3.996,0,0,0,0,4.768,84.38,134.26123822024,12.139108,6,P-GPS,
6700,2022-08-12 02:18:03,-34.9064465328716,-56.1630654941983,12.795276,13.2545936,121.66281262024,134.91740622024,12.795276,0,6.7809385372,10.038878274,21,5,8.036,134.91740622024,12.795276,4.4291412,6.7809385372,0,0,-4.47388,311.1, 0.8, -0.2,0,0,1024,1024,1024,1024,0,0,0,0,327.4,0,0,75,4.016,3.996,0,0,0,0,4.768,84.38,134.91740622024,12.795276,6,P-GPS,
6800,2022-08-12 02:18:03,-34.9064465451984,-56.1630657628627,13.451444,13.94357,121.63000422024,135.57357422024,13.12336,0,6.8571852588,10.1193900876,21,5,8.036,135.57357422024,13.451444,4.4291412,6.8571852588,0,0,-3.579104,311.1, 0.7, -0.2,0,0,1024,1024,1313,1024,0,0,44,0,327.4,0,0,75,4.016,3.996,0,0,0,0,4.768,84.38,135.57357422024,13.451444,6,P-GPS,
6900,2022-08-12 02:18:03,-34.9064465707423,-56.1630659962405,14.107612,14.599738,121.63000422024,136.22974222024,13.451444,0,6.9221130824,10.1898625308,21,5,8.036,136.22974222024,14.107612,4.4291412,6.9221130824,0,0,-2.684328,311, 0.6, -0.1,0,0,1024,1024,1684,1024,0,0,100,0,327.4,0,0,75,4.016,3.996,0,0,0,0,4.768,84.38,136.22974222024,14.107612,6,P-GPS,
7000,2022-08-12 02:18:03,-34.90644645045,-56.163066407847,14.435696,14.8950136,121.66281262024,136.55782622024,13.779528,0,7.0524608556,10.3206040048,21,5,8.036,136.55782622024,14.435696,4.4291412,7.0524608556,0,0,-2.684328,310.9, 0.4, 0.1,0,0,1024,1024,1684,1024,0,0,100,0,327.4,0,0,75,4.016,3.996,0,0,0,0,4.768,84.38,136.55782622024,14.435696,6,P-GPS,
7100,2022-08-12 02:18:03,-34.9064465282976,-56.1630665428497,14.76378,15.2887144,121.59719582024,136.88591022024,14.435696,0,7.0840553448,10.3699806468,21,5,8.036,136.88591022024,14.76378,4.4291412,7.0840553448,0,0,-3.131716,311, 0.4, 0.2,0,0,1024,1024,1684,1024,0,0,100,0,327.4,0,0,75,4.016,3.996,0,0,0,0,4.768,84.38,136.88591022024,14.76378,6,P-GPS,
7200,2022-08-12 02:18:04,-34.9064466430779,-56.163066614179,15.419948,15.9448824,121.59719582024,137.54207822024,14.76378,0,7.0940290984,10.4169622756,21,5,8.035,137.54207822024,15.419948,4.4291412,7.0940290984,0,0,-3.802798,310.8, 0.9, 0,0,0,1024,1024,1024,1024,0,0,0,0,327.4,0,0,75,3.968,3.96,0,0,0,0,5.315,84.38,137.54207822024,15.419948,6,P-GPS,
7300,2022-08-12 02:18:04,-34.906446872856,-56.1630665674066,16.076116,16.6010504,121.59719582024,138.19824622024,15.419948,0,7.0598427456,10.50196884,21,5,8.035,138.19824622024,16.076116,4.4291412,7.0940290984,0,0,-4.47388,310.8, 0.4, 0,0,0,1024,1024,1024,1024,0,0,0,0,327.4,0,0,75,3.968,3.96,0,0,0,0,5.315,84.38,138.19824622024,16.076116,6,P-GPS,
7400,2022-08-12 02:18:04,-34.9064476787769,-56.1630657682296,16.732284,17.2900268,121.56438742024,138.85441422024,16.076116,0,6.7607613712,10.8809714768,21,5,8.035,138.85441422024,16.732284,4.4291412,7.0940290984,0,0,-4.250186,310.7, 0.9, 0,0,0,1024,1024,1024,1024,0,0,0,0,327.4,0,0,75,3.968,3.96,0,0,0,0,5.315,84.38,138.85441422024,16.732284,6,P-GPS,
7500,2022-08-12 02:18:04,-34.9064479508085,-56.1630657187267,17.388452,17.9461948,121.56438742024,139.51058222024,16.4042,0,6.7263125512,10.981299564,21,5,8.035,139.51058222024,17.388452,4.4291412,7.0940290984,0,0,-3.579104,310.7, 1.1, 0,0,0,1024,1024,1024,1024,0,0,0,0,327.4,0,0,75,3.968,3.96,0,0,0,0,5.315,84.38,139.51058222024,17.388452,6,P-GPS,
7600,2022-08-12 02:18:04,-34.9064481677444,-56.163065769094,17.716536,18.2742788,121.56438742024,139.83866622024,16.732284,0,6.7261813176,11.0618769944,21,5,8.035,139.83866622024,17.716536,4.4291412,7.0940290984,0,0,-2.908022,310.7, 0.5, 0.5,0,0,1024,1024,1024,1024,0,0,0,0,327.4,0,0,75,3.968,3.96,0,0,0,0,5.315,84.38,139.83866622024,17.716536,6,P-GPS,
7700,2022-08-12 02:18:04,-34.9064483896312,-56.1630657832907,18.04462,18.6023628,121.56438742024,140.16675022024,17.060368,0,6.716043522,11.1429465508,21,5,8.035,140.16675022024,18.04462,4.4291412,7.0940290984,0,0,-2.013246,310.6, 0, 0.9,0,0,1024,1024,1024,1024,0,0,0,0,327.4,0,0,75,3.968,3.96,0,0,0,0,5.315,84.38,140.16675022024,18.04462,6,P-GPS,
7800,2022-08-12 02:18:04,-34.9064486937553,-56.1630657103095,18.372704,18.9632552,121.53157902024,140.49483422024,17.388452,0,6.6764437832,11.2560371056,22,5,8.035,140.49483422024,18.372704,4.4291412,7.0940290984,0,0,-1.11847,310.5, -0.2, 1.1,0,0,1024,1024,1024,1024,0,0,0,0,327.4,0,0,75,3.968,3.96,0,0,0,0,5.315,84.38,140.49483422024,18.372704,6,P-GPS,
7900,2022-08-12 02:18:04,-34.906448854535,-56.1630657429937,18.372704,18.9632552,121.53157902024,140.49483422024,17.388452,0,6.6772639932,11.3155187348,22,5,8.035,140.49483422024,18.372704,4.4291412,7.0940290984,0,0,-0.671082,310.5, -0.2, 1,0,0,1024,1024,1024,1024,0,0,0,0,327.4,0,0,75,3.968,3.96,0,0,0,0,5.315,84.38,140.49483422024,18.372704,6,P-GPS,
8000,2022-08-12 02:18:04,-34.9064489602497,-56.1630658210309,18.372704,18.9632552,121.53157902024,140.49483422024,17.388452,0,6.6948164872,11.3605974764,22,5,8.035,140.49483422024,18.372704,4.4291412,7.0940290984,0,0,-0.223694,310.5, -0.2, 1.2,0,0,1024,1024,1024,1024,0,0,0,0,327.4,0,0,75,3.968,3.96,0,0,0,0,5.315,84.38,140.49483422024,18.372704,6,P-GPS,
8100,2022-08-12 02:18:04,-34.9064490982014,-56.1630658885421,18.372704,18.9632552,121.53157902024,140.49483422024,17.388452,0,6.7079726556,11.4148297616,22,5,8.035,140.49483422024,18.372704,4.4291412,7.0940290984,0,0,0,310.4, 0, 1.3,0,0,1024,1024,1024,1024,0,0,0,0,327.4,0,0,75,3.968,3.96,0,0,0,0,5.315,84.38,140.49483422024,18.372704,6,P-GPS,
8200,2022-08-12 02:18:05,-34.9064492155235,-56.1630660559038,18.372704,18.9632552,121.53157902024,140.49483422024,17.388452,0,6.752132762,11.4807090288,21,5,8.051,140.49483422024,18.372704,4.4291412,7.0940290984,0,0,0,310.4, 0.1, 1.1,0,0,1024,1024,1024,1024,0,0,0,0,327.4,0,0,75,4.028,4.015,0,0,0,0,4.962,84.38,140.49483422024,18.372704,6,P-GPS,
8300,2022-08-12 02:18:05,-34.9064493716566,-56.1630660799854,18.372704,18.9632552,121.53157902024,140.49483422024,17.388452,0,6.7523952292,11.5381237288,21,5,8.051,140.49483422024,18.372704,4.4291412,7.0940290984,0,0,0,310.4, 0.1, 0.9,0,0,1024,1024,1024,1024,0,0,0,0,327.4,0,0,75,4.028,4.015,0,0,0,0,4.962,84.38,140.49483422024,18.372704,6,P-GPS,
8400,2022-08-12 02:18:05,-34.9064495188958,-56.1630660732906,18.372704,18.9960636,121.49877062024,140.49483422024,17.060368,0,6.7443243628,11.5918966964,22,5,8.051,140.49483422024,18.372704,4.4291412,7.0940290984,0,0,0,310.4, 0.2, 0.5,0,0,1024,1024,1024,1024,0,0,0,0,327.4,0,0,75,4.028,4.015,0,0,0,0,4.962,84.38,140.49483422024,18.372704,6,P-GPS,
8500,2022-08-12 02:18:05,-34.9064496168148,-56.1630660289508,18.372704,18.9960636,121.49877062024,140.49483422024,17.060368,0,6.7273296116,11.6299872488,22,5,8.051,140.49483422024,18.372704,4.4291412,7.0940290984,0,0,0,310.4, 0.2, 1,0,0,1024,1024,1024,1024,0,0,0,0,327.4,0,0,75,4.028,4.015,0,0,0,0,4.962,84.38,140.49483422024,18.372704,6,P-GPS,
8600,2022-08-12 02:18:05,-34.906449675922,-56.1630659470746,18.372704,18.9960636,121.49877062024,140.49483422024,17.060368,0,6.7007548076,11.6626316068,22,5,8.051,140.49483422024,18.372704,4.4291412,7.0940290984,0,0,0,310.4, 0.1, 1.2,0,0,1024,1024,1024,1024,0,0,0,0,327.4,0,0,75,4.028,4.015,0,0,0,0,4.962,84.38,140.49483422024,18.372704,6,P-GPS,
8700,2022-08-12 02:18:05,-34.9064496249405,-56.1630656445729,18.372704,18.9960636,121.49877062024,140.49483422024,17.060368,0,6.6126314452,11.7550200612,22,5,8.051,140.49483422024,18.372704,4.4291412,7.0940290984,0,0,0,310.3, 0, 1.4,0,0,1024,1024,1024,1024,0,0,0,0,327.4,0,0,75,4.028,4.015,0,0,0,0,4.962,84.38,140.49483422024,18.372704,6,P-GPS,
8800,2022-08-12 02:18:05,-34.9064496504971,-56.163065533405,18.372704,18.9960636,121.49877062024,140.49483422024,17.060368,0,6.578576326,11.7895673064,22,5,8.051,140.49483422024,18.372704,4.4291412,7.0940290984,0,0,0,310.3, 0, 1.4,0,0,1024,1024,1024,1024,0,0,0,0,327.4,0,0,75,4.028,4.015,0,0,0,0,4.962,84.38,140.49483422024,18.372704,6,P-GPS,
8900,2022-08-12 02:18:05,-34.9064496995868,-56.1630654243406,18.372704,18.9632552,121.53157902024,140.49483422024,17.060368,0,6.544291548,11.8268048404,22,5,8.051,140.49483422024,18.372704,4.4291412,7.0940290984,0,0,0,310.2, 0, 1.3,0,0,1024,1024,1024,1024,0,0,0,0,327.4,0,0,75,4.028,4.015,0,0,0,0,4.962,84.38,140.49483422024,18.372704,6,P-GPS,
9000,2022-08-12 02:18:05,-34.9064497848934,-56.163065318153,18.372704,18.9632552,121.53157902024,140.49483422024,17.060368,0,6.5095474524,11.8712930308,22,5,8.051,140.49483422024,18.372704,4.4291412,7.0940290984,0,0,0,310.2, -0.1, 1.3,0,0,1024,1024,1024,1024,0,0,0,0,327.4,0,0,75,4.028,4.015,0,0,0,0,4.962,84.38,140.49483422024,18.372704,6,P-GPS,
9100,2022-08-12 02:18:05,-34.9064498562484,-56.1630650312361,18.372704,18.9632552,121.53157902024,140.49483422024,17.060368,0,6.421588132,11.9609911964,22,5,8.038,140.49483422024,18.372704,4.4291412,7.0940290984,0,0,0,310.2, -0.3, 1.3,0,0,1024,1024,1024,1024,0,0,0,0,327.4,0,0,75,4.008,3.999,0,0,0,0,3.961,84.38,140.49483422024,18.372704,6,P-GPS,
9200,2022-08-12 02:18:06,-34.9064499567885,-56.163064894067,18.372704,18.9632552,121.53157902024,140.49483422024,17.060368,0,6.3773296004,12.0160436916,22,5,8.038,140.49483422024,18.372704,4.4291412,7.0940290984,0,0,0,310.2, -0.1, 1,0,0,1065,1024,1024,1024,6,0,0,0,327.4,0,0,75,4.008,3.999,0,0,0,0,3.961,84.38,140.49483422024,18.372704,6,P-GPS,
9300,2022-08-12 02:18:06,-34.9064500048182,-56.1630648194679,18.372704,18.9632552,121.53157902024,140.49483422024,17.060368,0,6.3535435104,12.0444229576,22,5,8.038,140.49483422024,18.372704,4.4291412,7.0940290984,0,0,0,310.3, 0.1, 0.8,0,0,1554,1024,1024,1024,80,0,0,0,327.4,0,0,75,4.008,3.999,0,0,0,0,3.961,84.38,140.49483422024,18.372704,6,P-GPS,
9400,2022-08-12 02:18:06,-34.906450016404,-56.1630647963814,18.372704,18.9632552,121.53157902024,140.49483422024,17.060368,0,6.346292854,12.052493824,21,5,8.038,140.49483422024,18.372704,4.4291412,7.0940290984,0,0,0,310.3, -1.3, 1,0,0,1684,1024,1024,1024,100,0,0,0,327.4,0,0,75,4.008,3.999,0,0,0,0,3.961,84.38,140.49483422024,18.372704,6,P-GPS,
9500,2022-08-12 02:18:06,-34.9064500126366,-56.1630651086308,18.372704,18.9632552,121.53157902024,140.49483422024,17.060368,0,6.43946871,12.1459321472,21,5,8.038,140.49483422024,18.372704,4.4291412,7.0940290984,0,0,0,310.2, -11.5, 1.2,0,0,1684,1024,1024,1024,100,0,0,0,327.4,0,0,75,4.008,3.999,0,0,0,0,3.961,84.38,140.49483422024,18.372704,6,P-GPS,
9600,2022-08-12 02:18:06,-34.906449902211,-56.1630653544033,18.372704,18.9632552,121.53157902024,140.49483422024,16.732284,0.6263432,6.5163059828,12.2297904176,21,5,8.038,140.49483422024,18.372704,4.4291412,7.0940290984,0.447388,-0.447388,0,310, -19.4, 1.2,0,0,1684,1024,1024,1024,100,0,0,0,327.4,0,0,75,4.008,3.999,0,0,0,0,3.961,84.38,140.49483422024,18.372704,6,P-GPS,
9700,2022-08-12 02:18:06,-34.9064496107747,-56.1630658243098,18.372704,18.9960636,121.49877062024,140.49483422024,16.732284,1.4316416,6.66666688,12.4060699508,21,5,8.038,140.49483422024,18.372704,4.4291412,7.0940290984,0.894776,-1.11847,0,310, -21, 1.2,0,0,1684,1024,1024,1024,100,0,0,0,327.4,0,0,75,4.008,3.999,0,0,0,0,3.961,84.38,140.49483422024,18.372704,6,P-GPS,
9800,2022-08-12 02:18:06,-34.9064490789196,-56.1630666052735,18.372704,18.9960636,121.49877062024,140.49483422024,16.732284,2.0579848,6.9215225312,12.709810118,21,5,8.038,140.49483422024,18.372704,4.4291412,7.0940290984,1.342164,-1.565858,0,310.1, -20.5, 1.4,0,0,1684,1024,1024,1024,100,0,0,0,327.4,0,0,75,4.008,3.999,0,0,0,0,3.961,84.38,140.49483422024,18.372704,6,P-GPS,
9900,2022-08-12 02:18:06,-34.9064483738512,-56.1630677377547,18.372704,18.9960636,121.49877062024,140.49483422024,16.732284,3.019869,7.2938650628,13.1352366408,21,5,8.038,140.49483422024,18.372704,4.4291412,7.2938650628,2.013246,-2.23694,0,310.2, -20.2, 0.9,0,0,1684,1024,1024,1024,100,0,0,0,327.4,0,0,75,4.008,3.999,0,0,0,0,3.961,84.38,140.49483422024,18.372704,6,P-GPS,
10000,2022-08-12 02:18:06,-34.9064474974759,-56.1630690628805,18.372704,18.9632552,121.53157902024,140.49483422024,16.732284,3.6462122,7.7400264944,13.6445870508,21,5,8.038,140.49483422024,18.372704,4.4291412,7.7400264944,2.460634,-2.684328,0,310.1, -20.2, 1.5,0,0,1684,1024,1024,1024,100,0,0,0,327.4,0,0,75,4.008,3.999,0,0,0,0,3.961,84.38,140.49483422024,18.372704,6,P-GPS,
10100,2022-08-12 02:18:06,-34.9064464398812,-56.1630706444785,18.372704,18.9960636,121.49877062024,140.49483422024,16.732284,4.4291412,8.2830711312,14.2551841832,21,5,7.999,140.49483422024,18.372704,4.4291412,8.2830711312,2.908022,-3.35541,0,310.1, -20.3, 1.6,0,0,1684,1024,1024,1024,100,0,0,0,327.4,0,0,75,4.002,3.992,0,0,0,0,4.269,84.38,140.49483422024,18.372704,6,P-GPS,
10200,2022-08-12 02:18:07,-34.9064450912741,-56.1630726295896,18.372704,18.9960636,121.49877062024,140.49483422024,16.732284,5.0778538,8.9789372952,15.0264768588,21,5,7.999,140.49483422024,18.372704,5.0778538,8.9789372952,3.35541,-3.802798,0,310.1, -20, 0.9,0,0,1684,1024,1024,1024,100,0,0,0,327.4,0,0,75,4.002,3.992,0,0,0,0,4.269,84.38,140.49483422024,18.372704,6,P-GPS,
10300,2022-08-12 02:18:07,-34.9064435373666,-56.1630747847576,18.372704,19.028872,121.46596222024,140.49483422024,16.732284,5.0778538,9.757054118,15.8851383036,21,5,7.999,140.49483422024,18.372704,5.0778538,9.757054118,3.802798,-4.250186,0,310.1, -19.8, 0.5,0,0,1684,1024,1024,1024,100,0,0,0,327.4,0,0,75,4.002,3.992,0,0,0,0,4.269,84.38,140.49483422024,18.372704,6,P-GPS,
10400,2022-08-12 02:18:07,-34.9064412106177,-56.1630777718744,18.372704,18.9960636,121.49877062024,140.49483422024,16.732284,6.3305402,10.8773297444,17.1177827,21,5,7.999,140.49483422024,18.372704,6.3305402,10.8773297444,4.250186,-4.697574,0,310.1, -19.7, 0.3,0,0,1684,1024,1024,1024,100,0,0,0,327.4,0,0,75,4.002,3.992,0,0,0,0,4.269,84.38,140.49483422024,18.372704,6,P-GPS,
10500,2022-08-12 02:18:07,-34.9064392933004,-56.1630803851144,18.372704,18.9632552,121.53157902024,140.49483422024,16.732284,6.822667,11.8593507732,18.1669297152,21,5,7.999,140.49483422024,18.372704,6.822667,11.8593507732,4.47388,-5.144962,0,310.1, -19.7, 0.2,0,0,1684,1024,1072,1024,100,0,7,0,327.4,0,0,75,4.002,3.992,0,0,0,0,4.269,84.38,140.49483422024,18.372704,6,P-GPS,
10600,2022-08-12 02:18:07,-34.9064371629968,-56.1630833392258,18.372704,18.9632552,121.53157902024,140.49483422024,16.732284,6.822667,12.9766408352,19.3439638736,22,5,7.999,140.49483422024,18.372704,6.822667,12.9766408352,4.921268,-5.59235,0,310.2, -19.3, 0.9,0,0,1684,1024,1684,1024,100,0,100,0,327.4,0,0,75,4.002,3.992,0,0,0,0,4.269,84.38,140.49483422024,18.372704,6,P-GPS,
10700,2022-08-12 02:18:07,-34.9064349685342,-56.163086301057,18.372704,18.9632552,121.53157902024,140.49483422024,16.732284,8.0753534,14.1157156748,20.5382880588,22,5,7.999,140.49483422024,18.372704,8.0753534,14.1157156748,5.368656,-6.039738,0,310.1, -19.2, 0.4,0,0,1684,1024,1684,1024,100,0,100,0,327.4,0,0,75,4.002,3.992,0,0,0,0,4.269,84.38,140.49483422024,18.372704,6,P-GPS,
10800,2022-08-12 02:18:07,-34.9064321860046,-56.1630896830424,18.372704,18.9632552,121.53157902024,140.49483422024,16.732284,8.7016966,15.47244144,21.9716870548,22,5,7.999,140.49483422024,18.372704,8.7016966,15.47244144,5.816044,-6.487126,-0.447388,310, -18.2, -0.3,0,0,1684,1024,1684,1024,100,0,100,0,327.4,0,0,75,4.002,3.992,0,0,0,0,4.269,84.38,140.49483422024,18.372704,6,P-GPS,
10900,2022-08-12 02:18:07,-34.9064296406799,-56.1630929815297,18.700788,19.3241476,121.49877062024,140.82291822024,17.060368,9.1938234,16.7785766524,23.3268380168,22,5,7.999,140.82291822024,18.700788,9.1938234,16.7785766524,6.039738,-6.934514,-1.342164,310, -17.3, -0.2,0,0,1684,1024,1684,1024,100,0,100,0,327.4,0,0,75,4.002,3.992,0,0,0,0,4.269,84.38,140.82291822024,18.700788,6,P-GPS,
11000,2022-08-12 02:18:07,-34.9064268082165,-56.1630966173104,19.028872,19.6522316,121.49877062024,141.15100222024,17.388452,9.8201666,18.2314310296,24.8272973824,21,5,7.999,141.15100222024,19.028872,9.8201666,18.2314310296,6.487126,-7.381902,-2.013246,310.1, -16.8, 0.2,0,0,1684,1024,1684,1024,100,0,100,0,327.4,0,0,75,4.002,3.992,0,0,0,0,4.269,84.38,141.15100222024,19.028872,6,P-GPS,
11100,2022-08-12 02:18:07,-34.9064240117499,-56.163100213844,19.356956,19.9475072,121.53157902024,141.47908622024,17.716536,10.3122934,19.6746069288,26.310204254,21,5,7.976,141.47908622024,19.356956,10.3122934,19.6746069288,6.71082,-7.82929,-2.684328,310.1, -17.1, 0,0,0,1596,1024,1684,1024,87,0,100,0,327.4,0,0,75,3.987,3.978,0,0,0,0,4.618,84.38,141.47908622024,19.356956,6,P-GPS,
11200,2022-08-12 02:18:07,-34.9064207568193,-56.1631036968513,19.68504,20.2755912,121.53157902024,141.80717022024,18.04462,10.9162672,21.1825466096,27.8901911812,21,5,7.976,141.80717022024,19.68504,10.9162672,21.1825466096,7.605596,-7.82929,-3.579104,313.6, -16.2, 0.4,0,0,1024,1024,1684,1024,0,0,100,0,327.4,0,0,75,3.987,3.978,0,0,0,0,4.618,84.38,141.80717022024,19.68504,6,P-GPS,
11300,2022-08-12 02:18:08,-34.9064177198233,-56.1631076466874,20.341208,20.9317592,121.53157902024,142.46333822024,18.372704,11.2294388,22.7741805188,29.5102043564,21,5,7.976,142.46333822024,20.341208,11.2294388,22.7741805188,7.82929,-8.052984,-4.47388,313.5, -7.1, 0,0,0,1024,1024,1684,1024,0,0,100,0,327.4,0,0,75,3.987,3.978,0,0,0,0,4.618,84.38,142.46333822024,20.341208,6,P-GPS,
11400,2022-08-12 02:18:08,-34.906414512173,-56.1631118610628,20.997376,21.5879272,121.53157902024,143.11950622024,19.356956,10.4465098,24.4699154812,31.2305784272,21,5,7.976,143.11950622024,20.997376,11.2294388,24.4699154812,7.158208,-7.605596,-5.368656,313.4, 18.6, 0.2,0,0,1024,1024,1684,1024,0,0,100,0,327.4,0,0,75,3.987,3.978,0,0,0,0,4.618,84.38,143.11950622024,20.997376,6,P-GPS,
11500,2022-08-12 02:18:08,-34.9064118169092,-56.1631154302478,21.653544,22.2112868,121.56438742024,143.77567422024,20.013124,9.0148682,25.9042659208,32.6823173188,21,5,7.976,143.77567422024,21.653544,11.2294388,25.9042659208,6.263432,-6.487126,-6.039738,313.7, 22.1, 0.9,0,0,1024,1024,1684,1024,0,0,100,0,327.4,0,0,75,3.987,3.978,0,0,0,0,4.618,84.38,143.77567422024,21.653544,6,P-GPS,
11600,2022-08-12 02:18:08,-34.906409129664,-56.1631181768413,22.637796,23.1627304,121.59719582024,144.75992622024,20.341208,7.270055,27.1361885324,33.96161526,21,5,7.976,144.75992622024,22.637796,11.2294388,27.1361885324,5.144962,-5.144962,-6.487126,313.4, 20.6, -1.4,0,0,1024,1024,1684,1024,0,0,100,0,327.4,0,0,75,3.987,3.978,0,0,0,0,4.618,84.38,144.75992622024,22.637796,6,P-GPS,
11700,2022-08-12 02:18:08,-34.9064071840024,-56.1631206316565,23.293964,23.8188984,121.59719582024,145.41609422024,20.341208,6.0173686,28.1448171736,34.982940752,21,5,7.976,145.41609422024,23.293964,11.2294388,28.1448171736,4.250186,-4.250186,-6.487126,313.4, 19.3, -1.5,0,0,1024,1024,1684,1024,0,0,100,0,327.4,0,0,75,3.987,3.978,0,0,0,0,4.618,84.38,145.41609422024,23.293964,6,P-GPS,
11800,2022-08-12 02:18:08,-34.9064054827669,-56.1631227827583,24.278216,24.8031504,121.59719582024,146.40034622024,20.341208,4.7423128,29.0286426612,35.877297736,22,5,7.976,146.40034622024,24.278216,11.2294388,29.0286426612,3.35541,-3.35541,-6.71082,313.7, 18.2, -0.4,0,0,1024,1024,1684,1024,0,0,100,0,327.4,0,0,75,3.987,3.978,0,0,0,0,4.618,84.38,146.40034622024,24.278216,6,P-GPS,
11900,2022-08-12 02:18:08,-34.9064041702671,-56.1631245185165,25.262468,25.7874024,121.59719582024,147.38459822024,20.341208,3.6462122,29.7294628936,36.583662588,22,5,7.976,147.38459822024,25.262468,11.2294388,29.7294628936,2.460634,-2.684328,-6.487126,313.9, 18, -0.2,0,0,1024,1024,1684,1024,0,0,100,0,327.4,0,0,75,3.987,3.978,0,0,0,0,4.618,84.38,147.38459822024,25.262468,6,P-GPS,
12000,2022-08-12 02:18:08,-34.9064031135177,-56.1631260093744,26.24672,26.7716544,121.59719582024,148.36885022024,25.590552,2.684328,30.3165692116,37.173229536,22,5,7.976,148.36885022024,26.24672,11.2294388,30.3165692116,1.789552,-2.013246,-6.487126,313.9, 18.4, 0.4,0,0,1024,1024,1684,1024,0,0,100,0,327.4,0,0,75,3.987,3.978,0,0,0,0,4.618,84.38,148.36885022024,26.24672,6,P-GPS,
12100,2022-08-12 02:18:08,-34.9064027194863,-56.1631265527387,27.230972,27.7887148,121.56438742024,149.35310222024,26.24672,1.7448132,30.532481292,37.390421144,22,5,7.976,149.35310222024,27.230972,11.2294388,30.532481292,1.11847,-1.342164,-6.487126,314.1, 12.4, 0.9,0,0,1024,1024,1204,1024,0,0,27,0,327.4,0,0,75,3.987,3.978,0,0,0,0,4.618,84.38,149.35310222024,27.230972,6,P-GPS,
12200,2022-08-12 02:18:09,-34.9064027071037,-56.163126961287,28.215224,28.7729668,121.56438742024,150.33735422024,26.902888,1.2974252,30.6344826076,37.512796476,23,5,7.904,150.33735422024,28.215224,11.2294388,30.6344826076,0.671082,-1.11847,-6.039738,313.9, 7.1, 1.2,0,0,1024,1024,1024,1024,0,0,0,0,327.4,0,0,75,3.938,3.936,0,0,0,0,5.918,84.38,150.33735422024,28.215224,6,P-GPS,
12300,2022-08-12 02:18:09,-34.9064027948996,-56.1631272332172,29.199476,29.7572188,121.56438742024,151.32160622024,27.88714,1.006623,30.6821532128,37.60006682,23,5,7.904,151.32160622024,29.199476,11.2294388,30.6821532128,0.447388,-0.894776,-5.368656,313.8, 5.5, 1.5,0,0,1165,1024,1024,1024,21,0,0,0,327.4,0,0,75,3.938,3.936,0,0,0,0,5.918,84.38,151.32160622024,29.199476,6,P-GPS,
12400,2022-08-12 02:18:09,-34.9064029060376,-56.1631274895405,30.183728,30.7414708,121.56438742024,152.30585822024,28.543308,1.006623,30.7212280172,37.686680996,23,5,7.904,152.30585822024,30.183728,11.2294388,30.7212280172,0.447388,-0.894776,-4.47388,313.8, 5, 1.7,0,0,1678,1024,1024,1024,99,0,0,0,327.4,0,0,75,3.938,3.936,0,0,0,0,5.918,84.38,152.30585822024,30.183728,6,P-GPS,
12500,2022-08-12 02:18:09,-34.9064040967038,-56.1631268412108,30.839896,31.4632556,121.49877062024,152.96202622024,29.199476,1.006623,30.3129602876,38.16273088,23,5,7.904,152.96202622024,30.839896,11.2294388,30.7212280172,0.447388,-0.894776,-3.802798,313.7, 0.2, 2.4,0,0,1684,1024,1024,1024,100,0,0,0,327.4,0,0,75,3.938,3.936,0,0,0,0,5.918,84.38,152.96202622024,30.839896,6,P-GPS,
12600,2022-08-12 02:18:09,-34.9064040695804,-56.1631274070192,31.496064,32.1194236,121.49877062024,153.61819422024,29.855644,1.2079476,30.4577437568,38.332022224,23,5,7.904,153.61819422024,31.496064,11.2294388,30.7212280172,0.447388,-1.11847,-2.684328,313.4, -12.1, 2.8,0,0,1684,1024,1024,1024,100,0,0,0,327.4,0,0,75,3.938,3.936,0,0,0,0,5.918,84.38,153.61819422024,31.496064,6,P-GPS,
12700,2022-08-12 02:18:09,-34.9064039363704,-56.1631280518807,31.824148,32.480316,121.46596222024,153.94627822024,30.183728,1.6105968,30.6441610856,38.531169212,23,5,7.904,153.94627822024,31.824148,11.2294388,30.7212280172,0.894776,-1.342164,-1.789552,313, -18.6, 2.3,0,0,1684,1024,1024,1024,100,0,0,0,327.4,0,0,75,3.938,3.936,0,0,0,0,5.918,84.38,153.94627822024,31.824148,6,P-GPS,
12800,2022-08-12 02:18:09,-34.9064036331574,-56.1631288962632,32.152232,32.8412084,121.43315382024,154.27436222024,30.511812,2.1027236,30.9150600444,38.807087856,23,5,7.904,154.27436222024,32.152232,11.2294388,30.9150600444,1.11847,-1.789552,-1.11847,313.2, -21.2, 1.8,0,0,1513,1024,1024,1024,74,0,0,0,327.4,0,0,75,3.938,3.936,0,0,0,0,5.918,84.38,154.27436222024,32.152232,6,P-GPS,
12900,2022-08-12 02:18:09,-34.9064024452889,-56.1631313608875,32.480316,33.136484,121.46596222024,154.60244622024,30.511812,2.7290668,31.7684393368,39.662402844,23,5,7.904,154.60244622024,32.480316,11.2294388,31.7684393368,1.565858,-2.23694,-0.671082,313.2, -21.8, 1.3,0,0,1513,1024,1024,1024,74,0,0,0,327.4,0,0,75,3.938,3.936,0,0,0,0,5.918,84.38,154.60244622024,32.480316,6,P-GPS,
13000,2022-08-12 02:18:09,-34.906401588633,-56.1631328887258,32.480316,33.2021008,121.40034542024,154.60244622024,30.839896,3.6685816,32.3222123204,40.216208636,23,5,7.904,154.60244622024,32.480316,11.2294388,32.3222123204,2.23694,-2.908022,-0.223694,313.2, -20.2, 1.6,0,0,1191,1024,1024,1024,25,0,0,0,327.4,0,0,75,3.938,3.936,0,0,0,0,5.918,84.38,154.60244622024,32.480316,6,P-GPS,
13100,2022-08-12 02:18:09,-34.9064006193831,-56.1631345861143,32.8084,33.5629932,121.36753702024,154.93053022024,30.839896,4.1607084,32.940945936,40.83497506,23,5,7.904,154.93053022024,32.8084,11.2294388,32.940945936,2.460634,-3.35541,-0.223694,313.4, -10, 2.8,0,0,1024,1024,1024,1024,0,0,0,0,327.4,0,0,75,3.938,3.936,0,0,0,0,5.918,84.38,154.93053022024,32.8084,6,P-GPS,
13200,2022-08-12 02:18:10,-34.9063995265636,-56.1631364837759,32.8084,33.5629932,121.36753702024,154.93053022024,30.839896,4.2949248,33.634843596,41.52887272,23,5,7.94,154.93053022024,32.8084,11.2294388,33.634843596,2.684328,-3.35541,0,314, 11, 2.6,0,0,1024,1024,1024,1024,0,0,0,0,327.4,0,0,74,4.002,3.999,0,0,0,0,6.078,84.38,154.93053022024,32.8084,6,P-GPS,
13300,2022-08-12 02:18:10,-34.9063979728327,-56.1631389676582,32.8084,33.5629932,121.36753702024,154.93053022024,30.839896,3.6685816,34.568242576,42.463584036,23,5,7.94,154.93053022024,32.8084,11.2294388,34.568242576,2.23694,-2.908022,0,314.3, 18.3, 3,0,0,1024,1024,1024,1024,0,0,0,0,327.4,0,0,74,4.002,3.999,0,0,0,0,6.078,84.38,154.93053022024,32.8084,6,P-GPS,
13400,2022-08-12 02:18:10,-34.9063970548983,-56.1631404816236,32.8084,33.5629932,121.36753702024,154.93053022024,30.839896,2.8632832,35.13123472,43.026904264,23,5,7.94,154.93053022024,32.8084,11.2294388,35.13123472,1.789552,-2.23694,0,314.2, 16.8, 2.9,0,0,1024,1024,1024,1024,0,0,0,0,327.4,0,0,74,4.002,3.999,0,0,0,0,6.078,84.38,154.93053022024,32.8084,6,P-GPS,
13500,2022-08-12 02:18:10,-34.9063963551006,-56.1631416442244,32.8084,33.5958016,121.33472862024,154.93053022024,30.839896,2.1027236,35.56266518,43.458334724,23,5,7.94,154.93053022024,32.8084,11.2294388,35.56266518,1.11847,-1.789552,0,314.4, 14, 3.1,0,0,1024,1024,1024,1024,0,0,0,0,327.4,0,0,74,4.002,3.999,0,0,0,0,6.078,84.38,154.93053022024,32.8084,6,P-GPS,
13600,2022-08-12 02:18:10,-34.9063957811066,-56.163142602316,32.8084,33.62861,121.30192022024,154.93053022024,30.839896,1.6105968,35.917323984,43.813321612,23,5,7.94,154.93053022024,32.8084,11.2294388,35.917323984,0.894776,-1.342164,0,314.1, 10.8, 2.7,0,0,1024,1024,1024,1024,0,0,0,0,327.4,0,0,74,4.002,3.999,0,0,0,0,6.078,84.38,154.93053022024,32.8084,6,P-GPS,
13700,2022-08-12 02:18:10,-34.9063953308777,-56.1631432668846,32.8084,33.5958016,121.33472862024,154.93053022024,30.839896,1.006623,36.174213756,44.071195636,23,5,7.94,154.93053022024,32.8084,11.2294388,36.174213756,0.447388,-0.894776,0,314, 7.8, 2.7,0,0,1024,1024,1024,1024,0,0,0,0,327.4,0,0,74,4.002,3.999,0,0,0,0,6.078,84.38,154.93053022024,32.8084,6,P-GPS,
13800,2022-08-12 02:18:10,-34.9063943865202,-56.1631438189768,32.8084,33.5629932,121.36753702024,154.93053022024,30.839896,0.7158208,36.506234764,44.453413496,23,5,7.94,154.93053022024,32.8084,11.2294388,36.506234764,0.223694,-0.671082,0,314, 5.8, 2.7,0,0,1024,1024,1024,1024,0,0,0,0,327.4,0,0,74,4.002,3.999,0,0,0,0,6.078,84.38,154.93053022024,32.8084,6,P-GPS,
13900,2022-08-12 02:18:10,-34.9063943047365,-56.163143983048,32.8084,33.5629932,121.36753702024,154.93053022024,30.839896,0.4921268,36.563649464,44.510828196,23,5,7.94,154.93053022024,32.8084,11.2294388,36.563649464,0.223694,-0.447388,0,313.8, 3.8, 2.4,0,0,1024,1024,1024,1024,0,0,0,0,327.4,0,0,74,4.002,3.999,0,0,0,0,6.078,84.38,154.93053022024,32.8084,6,P-GPS,
14000,2022-08-12 02:18:10,-34.9063945255307,-56.1631438798898,32.8084,33.62861,121.30192022024,154.93053022024,30.839896,0.223694,36.492127152,44.597114288,23,5,7.94,154.93053022024,32.8084,11.2294388,36.563649464,0,-0.223694,0,313.7, 1.9, 2.2,0,0,1024,1024,1024,1024,0,0,0,0,327.4,0,0,74,4.002,3.999,0,0,0,0,6.078,84.38,154.93053022024,32.8084,6,P-GPS,
14100,2022-08-12 02:18:10,-34.906394790117,-56.1631436669295,32.8084,33.62861,121.30192022024,154.93053022024,30.839896,0,36.384843684,44.712599856,23,5,7.974,154.93053022024,32.8084,11.2294388,36.563649464,0,0,0,313.6, 0.7, 1.6,0,0,1024,1024,1024,1024,0,0,0,0,327.4,0,0,74,3.991,3.984,0,0,0,0,3.666,84.38,154.93053022024,32.8084,6,P-GPS,
14200,2022-08-12 02:18:11,-34.9063958895024,-56.1631423707193,32.8084,33.5958016,121.33472862024,154.93053022024,30.839896,0,35.837927656,45.27067074,23,5,7.974,154.93053022024,32.8084,11.2294388,36.563649464,0,0,0,313.5, 0, 1.9,0,0,1024,1024,1024,1024,0,0,0,0,327.4,0,0,74,3.991,3.984,0,0,0,0,3.666,84.38,154.93053022024,32.8084,6,P-GPS,
14300,2022-08-12 02:18:11,-34.9063962141294,-56.1631421491093,32.8084,33.5958016,121.33472862024,154.93053022024,30.839896,0,35.716208492,45.406497516,23,5,7.974,154.93053022024,32.8084,11.2294388,36.563649464,0,0,0,313.4, -1.1, 2.4,0,0,1024,1024,1024,1024,0,0,0,0,327.4,0,0,74,3.991,3.984,0,0,0,0,3.666,84.38,154.93053022024,32.8084,6,P-GPS,
14400,2022-08-12 02:18:11,-34.9063965583988,-56.1631420165968,33.136484,33.956694,121.30192022024,155.25861422024,30.839896,0.223694,35.612533948,45.5380592,23,5,7.974,155.25861422024,33.136484,11.2294388,36.563649464,-0.223694,0,0,313.5, -0.9, 2.5,0,0,1024,1024,1024,1024,0,0,0,0,327.4,0,0,74,3.991,3.984,0,0,0,0,3.666,84.38,155.25861422024,33.136484,6,P-GPS,
14500,2022-08-12 02:18:11,-34.9063967745486,-56.1631419821654,33.136484,33.956694,121.30192022024,155.25861422024,30.839896,0.223694,35.559712424,45.617783612,23,5,7.974,155.25861422024,33.136484,11.2294388,36.563649464,-0.223694,0,0,313.3, -1.3, 1.9,0,0,1024,1024,1024,1024,0,0,0,0,327.4,0,0,74,3.991,3.984,0,0,0,0,3.666,84.38,155.25861422024,33.136484,6,P-GPS,
14600,2022-08-12 02:18:11,-34.906396768937,-56.1631423637829,33.136484,33.956694,121.30192022024,155.25861422024,30.839896,0.223694,35.655512952,45.731956844,23,5,7.974,155.25861422024,33.136484,11.2294388,36.563649464,-0.223694,0,0,312.8, -1.9, 1.4,0,0,1024,1024,1024,1024,0,0,0,0,327.4,0,0,74,3.991,3.984,0,0,0,0,3.666,84.38,155.25861422024,33.136484,6,P-GPS,
14700,2022-08-12 02:18:11,-34.9063968293881,-56.1631425199879,33.136484,33.9895024,121.26911182024,155.25861422024,31.824148,0,35.681759672,45.783466032,23,5,7.974,155.25861422024,33.136484,11.2294388,36.563649464,0,0,0,313, -2.4, 2.8,0,0,1024,1024,1024,1024,0,0,0,0,327.4,0,0,74,3.991,3.984,0,0,0,0,3.666,84.38,155.25861422024,33.136484,6,P-GPS,
14800,2022-08-12 02:18:11,-34.9063968319415,-56.1631428206248,33.136484,33.9895024,121.26911182024,155.25861422024,31.824148,0,35.755906656,45.873361048,23,5,7.974,155.25861422024,33.136484,11.2294388,36.563649464,0,0,0,313.3, -1.7, 3.9,0,0,1024,1024,1024,1024,0,0,0,0,327.4,0,0,74,3.991,3.984,0,0,0,0,3.666,84.38,155.25861422024,33.136484,6,P-GPS,"Baja velocidad de la tarjeta SD. Puede afectar a su uso normal. Sustituye la tarjeta SD (Code: 10028)"
14900,2022-08-12 02:18:11,-34.9063968083942,-56.1631431072845,33.136484,33.9895024,121.26911182024,155.25861422024,31.496064,0,35.83169406,45.95964714,23,5,7.974,155.25861422024,33.136484,11.2294388,36.563649464,0,0,0,313.4, 0.7, 3.5,0,0,1024,1024,1024,1024,0,0,0,0,327.4,0,0,74,3.991,3.984,0,0,0,0,3.666,84.38,155.25861422024,33.136484,31,Sport,"Baja velocidad de la tarjeta SD. Puede afectar a su uso normal. Sustituye la tarjeta SD (Code: 10028)"
15000,2022-08-12 02:18:11,-34.9063965241298,-56.1631439292595,33.136484,34.0223108,121.23630342024,155.25861422024,31.496064,0,36.093833176,46.226707516,23,5,7.974,155.25861422024,33.136484,11.2294388,36.563649464,0,0,0,313.4, 0.9, 3.1,0,0,1024,1024,1024,1024,0,0,0,0,327.4,0,0,74,3.991,3.984,0,0,0,0,3.666,84.38,155.25861422024,33.136484,31,Sport,
15100,2022-08-12 02:18:11,-34.9063965335682,-56.1631441259547,33.136484,34.0223108,121.23630342024,155.25861422024,31.16798,0,36.140749188,46.285434552,23,5,7.969,155.25861422024,33.136484,11.2294388,36.563649464,0,0,0,313.6, 0.8, 3.1,0,0,1024,1024,1024,1024,0,0,0,0,327.4,0,0,74,3.99,3.978,0,0,0,0,4.15,84.56,155.25861422024,33.136484,31,Sport,
15200,2022-08-12 02:18:12,-34.9063965732437,-56.1631442902139,33.136484,34.0223108,121.23630342024,155.25861422024,31.16798,0,36.173885672,46.33694374,23,5,7.969,155.25861422024,33.136484,11.2294388,36.563649464,0,0,0,313.6, 1.1, 2.6,0,0,1024,1024,1024,1024,0,0,0,0,327.4,0,0,74,3.99,3.978,0,0,0,0,4.15,84.56,155.25861422024,33.136484,31,Sport,
15300,2022-08-12 02:18:12,-34.9063965688078,-56.1631444352831,33.136484,34.0223108,121.23630342024,155.25861422024,31.16798,0,36.210959164,46.380250828,23,5,7.969,155.25861422024,33.136484,11.2294388,36.563649464,0,0,0,313.6, 0.7, 2.6,0,0,1024,1024,1024,1024,0,0,0,0,327.4,0,0,74,3.99,3.978,0,0,0,0,4.15,84.56,155.25861422024,33.136484,31,Sport,
15400,2022-08-12 02:18:12,-34.9063965144243,-56.1631445805194,33.136484,34.0551192,121.20349502024,155.25861422024,31.16798,0,36.257875176,46.428151092,23,5,7.969,155.25861422024,33.136484,11.2294388,36.563649464,0,0,0,313.6, 0.3, 2.6,0,0,1024,1024,1366,1024,0,0,52,0,327.4,0,0,74,3.99,3.978,0,0,0,0,4.15,84.56,155.25861422024,33.136484,31,Sport,
15500,2022-08-12 02:18:12,-34.9063964658869,-56.1631448526377,33.136484,34.0223108,121.23630342024,155.25861422024,31.16798,0,36.335631084,46.511484428,23,5,7.969,155.25861422024,33.136484,11.2294388,36.563649464,0,0,0,313.8, 0.7, 3.4,0,0,1024,1024,1684,1024,0,0,100,0,327.4,0,0,74,3.99,3.978,0,0,0,0,4.15,84.56,155.25861422024,33.136484,31,Sport,
15600,2022-08-12 02:18:12,-34.9063964335362,-56.1631449947818,33.136484,34.0223108,121.23630342024,155.25861422024,31.16798,0,36.377625836,46.555447684,23,5,7.969,155.25861422024,33.136484,11.2294388,36.563649464,0,0,-0.447388,314.1, 0.5, 3.4,0,0,1024,1024,1684,1024,0,0,100,0,327.4,0,0,74,3.99,3.978,0,0,0,0,4.15,84.56,155.25861422024,33.136484,31,Sport,
15700,2022-08-12 02:18:12,-34.9063963869106,-56.1631450787813,33.136484,34.0223108,121.23630342024,155.25861422024,31.16798,0,36.407809564,46.585959496,23,5,7.969,155.25861422024,33.136484,11.2294388,36.563649464,0,0,-1.11847,314.1, 0.8, 2.4,0,0,1024,1024,1684,1024,0,0,100,0,327.4,0,0,74,3.99,3.978,0,0,0,0,4.15,84.56,155.25861422024,33.136484,31,Sport,
15800,2022-08-12 02:18:12,-34.9063963430566,-56.1631451023379,33.464568,34.3503948,121.23630342024,155.58669822024,31.496064,0,36.422573344,46.603347948,23,5,7.969,155.58669822024,33.464568,11.2294388,36.563649464,0,0,-2.23694,314.2, 0.1, 2.9,0,0,1024,1024,1684,1024,0,0,100,0,327.4,0,0,74,3.99,3.978,0,0,0,0,4.15,84.56,155.58669822024,33.464568,31,Sport,
15900,2022-08-12 02:18:12,-34.9063963250525,-56.163145073976,33.792652,34.6784788,121.23630342024,155.91478222024,31.824148,0.223694,36.419292504,46.61417472,23,5,7.969,155.91478222024,33.792652,11.2294388,36.563649464,0,0.223694,-3.131716,313.8, -1.1, 1,0,0,1024,1024,1684,1024,0,0,100,0,327.4,0,0,74,3.99,3.978,0,0,0,0,4.15,84.56,155.91478222024,33.792652,31,Sport,
16000,2022-08-12 02:18:12,-34.9063963056121,-56.1631450449245,34.44882,35.3346468,121.23630342024,156.57095022024,32.480316,0.223694,36.416011664,46.625329576,23,5,7.969,156.57095022024,34.44882,11.2294388,36.563649464,0,0.223694,-4.026492,313.7, -1.8, 0.8,0,0,1024,1024,1684,1024,0,0,100,0,327.4,0,0,74,3.99,3.978,0,0,0,0,4.15,84.56,156.57095022024,34.44882,31,Sport,
16100,2022-08-12 02:18:12,-34.9063962500366,-56.1631450877966,35.104988,35.9908148,121.23630342024,157.22711822024,33.136484,0.223694,36.437665208,46.649279708,23,5,7.969,157.22711822024,35.104988,11.2294388,36.563649464,0,0,-5.144962,313.8, -2, 0.4,0,0,1024,1024,1684,1024,0,0,100,0,327.4,0,0,74,3.99,3.978,0,0,0,0,4.15,84.56,157.22711822024,35.104988,31,Sport,
16200,2022-08-12 02:18:12,-34.9063961514669,-56.1631452240907,36.08924,36.9750668,121.23630342024,158.21137022024,33.792652,0,36.491799068,46.703741652,23,5,7.966,158.21137022024,36.08924,11.2294388,36.563649464,0,0,-6.039738,313.9, -1.3, 1.2,0,0,1024,1024,1684,1024,0,0,100,0,327.4,0,0,74,3.986,3.977,0,0,0,0,4.275,84.38,158.21137022024,36.08924,31,Sport,
16300,2022-08-12 02:18:13,-34.9063960972006,-56.163145292828,37.073492,37.9593188,121.23630342024,159.19562222024,35.104988,0,36.519686208,46.73228496,23,5,7.966,159.19562222024,37.073492,11.2294388,36.563649464,0,0,-7.158208,313.8, -0.8, 1.1,0,0,1024,1024,1684,1024,0,0,100,0,327.4,0,0,74,3.986,3.977,0,0,0,0,4.275,84.38,159.19562222024,37.073492,31,Sport,
16400,2022-08-12 02:18:13,-34.9063960841861,-56.1631452970171,38.385828,39.2716548,121.23630342024,160.50795822024,36.08924,0,36.523295132,46.73720622,23,5,7.966,160.50795822024,38.385828,11.2294388,36.563649464,0,0,-8.052984,313.9, -0.7, 1.1,0,0,1024,1024,1684,1024,0,0,100,0,327.4,0,0,74,3.986,3.977,0,0,0,0,4.275,84.38,160.50795822024,38.385828,31,Sport,
