time(millisecond),datetime(utc),latitude,longitude,height_above_takeoff(feet),height_above_ground_at_drone_location(feet),ground_elevation_at_drone_location(feet),altitude_above_seaLevel(feet),height_sonar(feet),speed(mph),distance(feet),mileage(feet),satellites,gpslevel,voltage(v),max_altitude(feet),max_ascent(feet),max_speed(mph),max_distance(feet), xSpeed(mph), ySpeed(mph), zSpeed(mph), compass_heading(degrees), pitch(degrees), roll(degrees),isPhoto,isVideo,rc_elevator,rc_aileron,rc_throttle,rc_rudder,rc_elevator(percent),rc_aileron(percent),rc_throttle(percent),rc_rudder(percent),gimbal_heading(degrees),gimbal_pitch(degrees),gimbal_roll(degrees),battery_percent,voltageCell1,voltageCell2,voltageCell3,voltageCell4,voltageCell5,voltageCell6,current(A),battery_temperature(f),altitude(feet),ascent(feet),flycStateRaw,flycState,message
533200,2022-08-12 04:54:12,0,0,0,,,3.28084E-5,0.328084,0,0,0,0,0,0,3.28084E-5,0,0,0,0,0,0,205.6, 3, 0.2,0,0,364,364,364,1684,-100,-100,-100,100,208.2,0,0,65,3.982,3.976,0,0,0,0,0,104.9,3.28084E-5,0,38,Tripod,"Baja velocidad de la tarjeta SD. Puede afectar a su uso normal. Sustituye la tarjeta SD (Code: 10028)"
533300,2022-08-12 04:54:12,0,0,0,,,3.28084E-5,0.328084,0,0,0,0,0,0,3.28084E-5,0,0,0,0,0,0,205.6, 3, 0.2,0,0,364,364,364,1684,-100,-100,-100,100,208.2,0,0,65,3.982,3.976,0,0,0,0,0,104.9,3.28084E-5,0,41,Motors_Started,
533400,2022-08-12 04:54:12,0,0,0,,,3.28084E-5,0.328084,0,0,0,0,0,0,3.28084E-5,0,0,0,0,0,0,205.6, 3, 0.2,0,0,364,364,364,1684,-100,-100,-100,100,208.2,0,0,65,3.982,3.976,0,0,0,0,0,104.9,3.28084E-5,0,41,Motors_Started,
533500,2022-08-12 04:54:12,0,0,0,,,3.28084E-5,0.328084,0,0,0,0,0,0,3.28084E-5,0,0,0,0,0,0,205.6, 3, 0.2,0,0,364,364,364,1684,-100,-100,-100,100,208.2,0,0,65,3.982,3.976,0,0,0,0,0,104.9,3.28084E-5,0,41,Motors_Started,
533600,2022-08-12 04:54:12,0,0,0,,,3.28084E-5,0.328084,0,0,0,0,0,7.957,3.28084E-5,0,0,0,0,0,0,205.6, 3, 0.2,0,0,1024,1024,1024,1024,0,0,0,0,208.2,0,0,65,3.982,3.976,0,0,0,0,0.588,104.9,3.28084E-5,0,41,Motors_Started,
533700,2022-08-12 04:54:12,0,0,0,,,3.28084E-5,0.328084,0,0,0,0,0,7.957,3.28084E-5,0,0,0,0,0,0,205.6, 3, 0.2,0,0,1024,1024,1024,1024,0,0,0,0,208.2,0,0,65,3.982,3.976,0,0,0,0,0.588,104.9,3.28084E-5,0,41,Motors_Started,"Setting new Return-To-Home altitude to 40m (131 ft). Data Recorder File Index is 39. Setting new Maximum Flight Altitude to 30m (98 ft)"
533800,2022-08-12 04:54:12,0,0,0,,,3.28084E-5,0.328084,0,0,0,0,0,7.957,3.28084E-5,0,0,0,0,0,0,205.6, 3, 0.2,0,0,1024,1024,1024,1024,0,0,0,0,208.2,0,0,65,3.982,3.976,0,0,0,0,0.588,104.9,3.28084E-5,0,41,Motors_Started,
533900,2022-08-12 04:54:13,0,0,0,,,3.28084E-5,0.328084,0,0,0,0,0,7.957,3.28084E-5,0,0,0,0,0,0,205.6, 3, 0.2,0,0,1024,1024,1024,1024,0,0,0,0,208.2,0,0,65,3.982,3.976,0,0,0,0,0.588,104.9,3.28084E-5,0,41,Motors_Started,
534000,2022-08-12 04:54:13,0,0,0,,,3.28084E-5,0.328084,0,0,0,0,0,7.957,3.28084E-5,0,0,0,0,0,0,205.6, 3, 0.2,0,0,1024,1024,1024,1024,0,0,0,0,208.2,0,0,65,3.982,3.976,0,0,0,0,0.588,104.9,3.28084E-5,0,41,Motors_Started,
534100,2022-08-12 04:54:13,0,0,0,,,3.28084E-5,0.328084,0,0,0,0,0,7.957,3.28084E-5,0,0,0,0,0,0,205.7, 3, 0.1,0,0,1024,1024,1574,1024,0,0,83,0,208.2,0,0,65,3.982,3.976,0,0,0,0,0.588,104.9,3.28084E-5,0,41,Motors_Started,
534200,2022-08-12 04:54:13,0,0,0,,,3.28084E-5,0.328084,0,0,0,0,0,7.957,3.28084E-5,0,0,0,0,0,0,205.6, 3, 0.2,0,0,1024,1024,1684,1024,0,0,100,0,208.2,0,0,65,3.982,3.976,0,0,0,0,0.588,104.9,3.28084E-5,0,41,Motors_Started,
534300,2022-08-12 04:54:13,0,0,0,,,3.28084E-5,0.328084,0,0,0,0,0,7.957,3.28084E-5,0,0,0,0,0,0,205.6, 3, 0.1,0,0,1024,1024,1024,1024,0,0,0,0,208.2,0,0,65,3.982,3.976,0,0,0,0,0.588,104.9,3.28084E-5,0,41,Motors_Started,
534400,2022-08-12 04:54:13,0,0,0,,,3.28084E-5,0.328084,0,0,0,0,0,7.957,3.28084E-5,0,0,0,0,0,0,205.6, 3, 0.1,0,0,1024,1024,1024,1024,0,0,0,0,208.2,0,0,65,3.982,3.976,0,0,0,0,0.588,104.9,3.28084E-5,0,10,Assisted_Takeoff,
534500,2022-08-12 04:54:13,0,0,0,,,3.28084E-5,0.328084,0,0,0,0,0,7.957,3.28084E-5,0,0,0,0,0,0,205.7, 2.9, 0.2,0,0,1024,1024,1245,1056,0,0,33,5,208.2,0,0,65,3.982,3.976,0,0,0,0,0.588,104.9,3.28084E-5,0,10,Assisted_Takeoff,
534600,2022-08-12 04:54:13,0,0,0,,,3.28084E-5,0.328084,0,0,0,0,0,7.935,3.28084E-5,0,0,0,0,0,0,205.6, 3, 0.1,0,0,1024,1024,1684,1024,0,0,100,0,208.2,0,0,65,3.97,3.963,0,0,0,0,1.365,104.72,3.28084E-5,0,10,Assisted_Takeoff,
534700,2022-08-12 04:54:13,0,0,0,,,3.28084E-5,0.328084,0,0,0,0,0,7.935,3.28084E-5,0,0,0,0,0,0,205.7, 3, 0.2,0,0,1024,1024,1684,1024,0,0,100,0,208.2,0,0,65,3.97,3.963,0,0,0,0,1.365,104.72,3.28084E-5,0,10,Assisted_Takeoff,
534800,2022-08-12 04:54:14,0,0,0,,,3.28084E-5,0.328084,0,0,0,0,0,7.935,3.28084E-5,0,0,0,0,0,0,205.9, 3, 0.1,0,0,1024,1024,1606,1024,0,0,88,0,208.3,0,0,65,3.97,3.963,0,0,0,0,1.365,104.72,3.28084E-5,0,10,Assisted_Takeoff,
534900,2022-08-12 04:54:14,0,0,0,,,3.28084E-5,0.328084,0,0,0,0,0,7.935,3.28084E-5,0,0,0,0,0,0,205.9, 3, 0.1,0,0,1024,1024,1606,1024,0,0,88,0,208.4,0,0,65,3.97,3.963,0,0,0,0,1.365,104.72,3.28084E-5,0,10,Assisted_Takeoff,
535000,2022-08-12 04:54:14,0,0,0,,,3.28084E-5,0.328084,0,0,0,0,0,7.935,3.28084E-5,0,0,0,0,0,0,206.2, 2.9, 0.2,0,0,1024,1024,1024,1024,0,0,0,0,208.5,0,0,65,3.97,3.963,0,0,0,0,1.365,104.72,3.28084E-5,0,10,Assisted_Takeoff,
535100,2022-08-12 04:54:14,0,0,0,,,3.28084E-5,0.328084,0,0,0,0,0,7.935,3.28084E-5,0,0,0,0,0,0,207.4, 1.7, 0.2,0,0,1024,1024,1024,1024,0,0,0,0,209.2,0,0,65,3.97,3.963,0,0,0,0,1.365,104.72,3.28084E-5,0,10,Assisted_Takeoff,
535200,2022-08-12 04:54:14,0,0,0,,,3.28084E-5,0.328084,0,0,0,0,0,7.935,3.28084E-5,0,0,0,0,0,0,208.5, 0.7, 0.2,0,0,1024,1024,1024,1024,0,0,0,0,210.4,0,0,65,3.97,3.963,0,0,0,0,1.365,104.72,3.28084E-5,0,10,Assisted_Takeoff,
535300,2022-08-12 04:54:14,0,0,0,,,3.28084E-5,0.328084,0,0,0,0,0,7.935,3.28084E-5,0,0,0,0,0,0,208.7, 2.4, 0.1,0,0,1024,1024,1024,1024,0,0,0,0,210.9,0,0,65,3.97,3.963,0,0,0,0,1.365,104.72,3.28084E-5,0,10,Assisted_Takeoff,
535400,2022-08-12 04:54:14,0,0,0,,,3.28084E-5,0.328084,0,0,0,0,0,7.935,3.28084E-5,0,0,0,0,0,0,208.7, 3.1, 0.1,0,0,1024,1024,1088,1024,0,0,10,0,211,0,0,65,3.97,3.963,0,0,0,0,1.365,104.72,3.28084E-5,0,38,Tripod,"Baja velocidad de la tarjeta SD. Puede afectar a su uso normal. Sustituye la tarjeta SD (Code: 10028)"
535500,2022-08-12 04:54:14,0,0,0,,,3.28084E-5,0.328084,0,0,0,0,0,7.935,3.28084E-5,0,0,0,0,0,0,208.6, 3, 0.1,0,0,1024,1024,1564,1024,0,0,82,0,211,0,0,65,3.97,3.963,0,0,0,0,1.365,104.72,3.28084E-5,0,38,Tripod,
535600,2022-08-12 04:54:14,0,0,0,,,3.28084E-5,0.328084,0,0,0,0,0,7.944,3.28084E-5,0,0,0,0,0,0,208.7, 2, 0.1,0,0,1024,1024,1679,1024,0,0,99,0,211,0,0,65,3.955,3.952,0,0,0,0,1.51,104.9,3.28084E-5,0,38,Tripod,
535700,2022-08-12 04:54:14,0,0,0,,,3.28084E-5,0.328084,0,0,0,0,0,7.944,3.28084E-5,0,0,0,0,0,0,208.6, -1.1, 0.1,0,0,1024,1024,1071,1024,0,0,7,0,211.1,0,0,65,3.955,3.952,0,0,0,0,1.51,104.9,3.28084E-5,0,38,Tripod,
535800,2022-08-12 04:54:15,0,0,0,,,3.28084E-5,0.328084,0,0,0,0,0,7.944,3.28084E-5,0,0,0,0,0,-0.223694,208.6, -1.2, 0.2,0,0,1024,1024,1071,1024,0,0,7,0,211,0,0,65,3.955,3.952,0,0,0,0,1.51,104.9,3.28084E-5,0,38,Tripod,
535900,2022-08-12 04:54:15,0,0,0,,,3.28084E-5,0.328084,0,0,0,0,0,7.944,3.28084E-5,0,0,0,0,0,-0.223694,208.6, -0.2, -0.1,0,0,1024,1024,1024,1024,0,0,0,0,211,0,0,65,3.955,3.952,0,0,0,0,1.51,104.9,3.28084E-5,0,38,Tripod,
536000,2022-08-12 04:54:15,0,0,0,,,3.28084E-5,0.328084,0,0,0,0,0,7.944,3.28084E-5,0,0,0,0,0,-0.223694,208.5, 0.1, 0.2,0,0,1024,1024,1024,1024,0,0,0,0,211,0,0,65,3.955,3.952,0,0,0,0,1.51,104.9,3.28084E-5,0,38,Tripod,
536100,2022-08-12 04:54:15,0,0,0,,,3.28084E-5,0.328084,0,0,0,0,0,7.944,3.28084E-5,0,0,0,0,0,-0.447388,208.4, -0.3, 0.3,0,0,1024,1024,1024,1024,0,0,0,0,211,0,0,65,3.955,3.952,0,0,0,0,1.51,104.9,3.28084E-5,0,38,Tripod,
536200,2022-08-12 04:54:15,0,0,0,,,3.28084E-5,0.656168,0,0,0,0,0,7.944,3.28084E-5,0,0,0,0,0,-0.447388,208.5, 0.3, 0.4,0,0,1024,1024,1024,1024,0,0,0,0,211,0,0,65,3.955,3.952,0,0,0,0,1.51,104.9,3.28084E-5,0,38,Tripod,
536300,2022-08-12 04:54:15,0,0,0.328084,,,0.3281168084,0.656168,0,0,0,0,0,7.944,0.3281168084,0.328084,0,0,0,0,-0.671082,208.4, 0.4, 0.2,0,0,1024,1024,1024,1024,0,0,0,0,211.1,0,0,65,3.955,3.952,0,0,0,0,1.51,104.9,0.3281168084,0.328084,38,Tripod,
536400,2022-08-12 04:54:15,0,0,0.328084,,,0.3281168084,0.656168,0,0,0,0,0,7.944,0.3281168084,0.328084,0,0,0,0,-0.894776,208.5, 0.5, 0,0,0,1024,1024,1024,1024,0,0,0,0,211.1,0,0,65,3.955,3.952,0,0,0,0,1.51,104.9,0.3281168084,0.328084,38,Tripod,
536500,2022-08-12 04:54:15,0,0,0.328084,,,0.3281168084,0.984252,0,0,0,0,0,7.944,0.3281168084,0.328084,0,0,0,0,-0.894776,208.6, 0.2, 0,0,0,1024,1024,1024,1024,0,0,0,0,211,0,0,65,3.955,3.952,0,0,0,0,1.51,104.9,0.3281168084,0.328084,38,Tripod,
536600,2022-08-12 04:54:15,0,0,0.656168,,,0.6562008084,0.984252,0,0,0,0,0,7.892,0.6562008084,0.656168,0,0,0,0,-0.894776,208.5, 0.2, 0.1,0,0,1024,1024,1024,1024,0,0,0,0,211,0,0,65,3.941,3.929,0,0,0,0,3.153,104.9,0.6562008084,0.656168,38,Tripod,
536700,2022-08-12 04:54:15,0,0,0.656168,,,0.6562008084,0.984252,0,0,0,0,0,7.892,0.6562008084,0.656168,0,0,0,0,-0.894776,208.5, 0.2, 0.2,0,0,1024,1024,1024,1024,0,0,0,0,211,0,0,65,3.941,3.929,0,0,0,0,3.153,104.9,0.6562008084,0.656168,38,Tripod,"Vuela con cuidado (sin GPS) Baja velocidad de la tarjeta SD. Puede afectar a su uso normal. Sustituye la tarjeta SD (Code: 10028). Señal débil del GPS. Vuelo estacionario inestable. Vuela con cuidado (Code: 30002)"
536800,2022-08-12 04:54:16,0,0,0.984252,,,0.9842848084,1.312336,0,0,0,0,0,7.892,0.9842848084,0.984252,0,0,0,0,-0.894776,208.5, 0, 0,0,0,1024,1024,1024,1024,0,0,0,0,211.1,0,0,65,3.941,3.929,0,0,0,0,3.153,104.9,0.9842848084,0.984252,1,Atti,"Vuela con cuidado (modo Atti) Señal del GPS demasiado débil. Se ha pasado al modo Atti. La aeronave no puede hacer vuelo estacionario. Vuela con precaución (Code: 30022). Baja velocidad de la tarjeta SD. Puede afectar a su uso normal. Sustituye la tarjeta SD (Code: 10028). Señal "
536900,2022-08-12 04:54:16,0,0,0.984252,,,0.9842848084,1.312336,0,0,0,0,0,7.892,0.9842848084,0.984252,0,0,0,0,-0.671082,208.5, 0, 0,0,0,1024,1024,1024,1024,0,0,0,0,211.1,0,0,65,3.941,3.929,0,0,0,0,3.153,104.9,0.9842848084,0.984252,38,Tripod,"La brújula no funciona bien el GPS no tiene buena señal. Cambia a modo Atti (Code: 30020). Aeronave en modo Atti. No se puede hacer vuelo estacionario. Vuela con cuidado (Code: 30004). Baja velocidad de la tarjeta SD. Puede afectar a su uso normal. S"
537000,2022-08-12 04:54:16,0,0,0.984252,,,0.9842848084,1.312336,0,0,0,0,0,7.892,0.9842848084,0.984252,0,0,0,0,-0.447388,208.5, -0.1, 0,0,0,1024,1024,1024,1024,0,0,0,0,211.1,0,0,65,3.941,3.929,0,0,0,0,3.153,104.9,0.9842848084,0.984252,38,Tripod,
537100,2022-08-12 04:54:16,0,0,1.312336,,,1.3123688084,1.64042,0,0,0,0,0,7.892,1.3123688084,1.312336,0,0,0,0,-0.447388,208.5, -0.1, 0.1,0,0,1024,1024,1024,1024,0,0,0,0,211.1,0,0,65,3.941,3.929,0,0,0,0,3.153,104.9,1.3123688084,1.312336,38,Tripod,
537200,2022-08-12 04:54:16,0,0,1.312336,,,1.3123688084,1.64042,0,0,0,0,0,7.892,1.3123688084,1.312336,0,0,0,0,-0.223694,208.5, -0.1, 0.1,0,0,1024,1024,1024,1024,0,0,0,0,211.1,0,0,65,3.941,3.929,0,0,0,0,3.153,104.9,1.3123688084,1.312336,38,Tripod,
537300,2022-08-12 04:54:16,0,0,1.312336,,,1.3123688084,1.64042,0,0,0,0,0,7.892,1.3123688084,1.312336,0,0,0,0,0,208.5, -0.1, 0.1,0,0,1024,1024,1024,1024,0,0,0,0,211.1,0,0,65,3.941,3.929,0,0,0,0,3.153,104.9,1.3123688084,1.312336,38,Tripod,
537400,2022-08-12 04:54:16,0,0,1.312336,,,1.3123688084,1.64042,0,0,0,0,0,7.892,1.3123688084,1.312336,0,0,0,0,0,208.5, 0, 0.1,0,0,1024,1024,1024,1024,0,0,0,0,211.1,0,0,65,3.941,3.929,0,0,0,0,3.153,104.9,1.3123688084,1.312336,38,Tripod,
537500,2022-08-12 04:54:16,0,0,1.312336,,,1.3123688084,1.64042,0,0,0,0,0,7.892,1.3123688084,1.312336,0,0,0,0,0,208.5, 0, 0.2,0,0,1024,1024,1024,1024,0,0,0,0,211.1,0,0,65,3.941,3.929,0,0,0,0,3.153,104.9,1.3123688084,1.312336,38,Tripod,
537600,2022-08-12 04:54:16,0,0,1.312336,,,1.3123688084,1.64042,0,0,0,0,0,7.866,1.3123688084,1.312336,0,0,0,0,0,208.5, 0, 0.2,0,0,1024,1024,1024,1024,0,0,0,0,211.1,0,0,65,3.937,3.927,0,0,0,0,4.395,104.9,1.3123688084,1.312336,38,Tripod,
537700,2022-08-12 04:54:16,0,0,1.312336,,,1.3123688084,1.64042,0,0,0,0,0,7.866,1.3123688084,1.312336,0,0,0,0,0,208.5, 0, 0.2,0,0,1024,1024,1024,1024,0,0,0,0,211.1,0,0,65,3.937,3.927,0,0,0,0,4.395,104.9,1.3123688084,1.312336,38,Tripod,
537800,2022-08-12 04:54:17,0,0,1.312336,,,1.3123688084,1.64042,0,0,0,0,0,7.866,1.3123688084,1.312336,0,0,0,0,0,208.5, 0, 0.3,0,0,1024,1024,1134,1024,0,0,17,0,211.1,0,0,65,3.937,3.927,0,0,0,0,4.395,104.9,1.3123688084,1.312336,38,Tripod,
537900,2022-08-12 04:54:17,0,0,1.312336,,,1.3123688084,1.64042,0,0,0,0,0,7.866,1.3123688084,1.312336,0,0,0,0,0,208.5, 0, 0.3,0,0,1024,1024,1419,1024,0,0,60,0,211.1,0,0,65,3.937,3.927,0,0,0,0,4.395,104.9,1.3123688084,1.312336,38,Tripod,
538000,2022-08-12 04:54:17,0,0,1.312336,,,1.3123688084,1.64042,0,0,0,0,0,7.866,1.3123688084,1.312336,0,0,0,0,0,208.5, 0.1, 0.5,0,0,1024,1024,1419,1024,0,0,60,0,211.1,0,0,65,3.937,3.927,0,0,0,0,4.395,104.9,1.3123688084,1.312336,38,Tripod,
538100,2022-08-12 04:54:17,0,0,1.312336,,,1.3123688084,1.64042,0,0,0,0,0,7.866,1.3123688084,1.312336,0,0,0,0,-0.223694,208.5, 0.1, 0.5,0,0,1024,1024,1539,1024,0,0,78,0,211.1,0,0,65,3.937,3.927,0,0,0,0,4.395,104.9,1.3123688084,1.312336,38,Tripod,
538200,2022-08-12 04:54:17,0,0,1.64042,,,1.6404528084,1.968504,0,0,0,0,0,7.866,1.6404528084,1.64042,0,0,0,0,-0.894776,208.5, 0, 0.3,0,0,1024,1024,1259,1024,0,0,36,0,211.1,0,0,65,3.937,3.927,0,0,0,0,4.395,104.9,1.6404528084,1.64042,38,Tripod,
538300,2022-08-12 04:54:17,0,0,1.64042,,,1.6404528084,1.968504,0,0,0,0,0,7.866,1.6404528084,1.64042,0,0,0,0,-1.565858,208.4, -0.1, 0.1,0,0,1024,1024,1086,1024,0,0,9,0,211.1,0,0,65,3.937,3.927,0,0,0,0,4.395,104.9,1.6404528084,1.64042,38,Tripod,
538400,2022-08-12 04:54:17,0,0,1.968504,,,1.9685368084,2.296588,0,0,0,0,0,7.866,1.9685368084,1.968504,0,0,0,0,-1.342164,208.4, 0.1, 0,0,0,1024,1024,1024,1024,0,0,0,0,211.1,0,0,65,3.937,3.927,0,0,0,0,4.395,104.9,1.9685368084,1.968504,38,Tripod,
538500,2022-08-12 04:54:17,0,0,2.296588,,,2.2966208084,2.296588,0,0,0,0,0,7.866,2.2966208084,2.296588,0,0,0,0,-0.894776,208.4, 0.2, 0,0,0,1024,1024,1024,1024,0,0,0,0,211.1,0,0,65,3.937,3.927,0,0,0,0,4.395,104.9,2.2966208084,2.296588,38,Tripod,
538600,2022-08-12 04:54:17,0,0,2.296588,,,2.2966208084,2.624672,0,0,0,0,0,7.856,2.2966208084,2.296588,0,0,0,0,-0.671082,208.4, 0.2, 0,0,0,1024,1024,1060,1024,0,0,5,0,211.1,0,0,65,3.915,3.904,0,0,0,0,4.51,104.9,2.2966208084,2.296588,38,Tripod,
538700,2022-08-12 04:54:17,0,0,2.296588,,,2.2966208084,2.624672,0,0,0,0,0,7.856,2.2966208084,2.296588,0,0,0,0,-0.223694,208.4, 0.2, 0,0,0,1024,1024,1332,1024,0,0,47,0,211.1,0,0,65,3.915,3.904,0,0,0,0,4.51,104.9,2.2966208084,2.296588,38,Tripod,
538800,2022-08-12 04:54:17,0,0,2.296588,,,2.2966208084,2.624672,0,0,0,0,0,7.856,2.2966208084,2.296588,0,0,0,0,0,208.4, 0.3, 0,0,0,1024,1024,1332,1024,0,0,47,0,211.1,0,0,65,3.915,3.904,0,0,0,0,4.51,104.9,2.2966208084,2.296588,38,Tripod,
538900,2022-08-12 04:54:18,0,0,2.296588,,,2.2966208084,2.624672,0,0,0,0,0,7.856,2.2966208084,2.296588,0,0,0,0,-0.223694,208.4, 0.2, 0,0,0,1024,1024,1302,1024,0,0,42,0,211.1,0,0,65,3.915,3.904,0,0,0,0,4.51,104.9,2.2966208084,2.296588,38,Tripod,
539000,2022-08-12 04:54:18,0,0,2.624672,,,2.6247048084,2.624672,0,0,0,0,0,7.856,2.6247048084,2.624672,0,0,0,0,-0.671082,208.4, 0, 0,0,0,1024,1024,1024,1024,0,0,0,0,211.1,0,0,65,3.915,3.904,0,0,0,0,4.51,104.9,2.6247048084,2.624672,38,Tripod,
539100,2022-08-12 04:54:18,0,0,2.624672,,,2.6247048084,2.952756,0,0,0,0,0,7.856,2.6247048084,2.624672,0,0,0,0,-0.671082,208.4, 0.1, 0,0,0,1024,1024,1024,1024,0,0,0,0,211.1,0,0,65,3.915,3.904,0,0,0,0,4.51,104.9,2.6247048084,2.624672,38,Tripod,
539200,2022-08-12 04:54:18,0,0,2.624672,,,2.6247048084,2.952756,0,0,0,0,0,7.856,2.6247048084,2.624672,0,0,0,0,-0.223694,208.4, 0.4, 0,0,0,1024,1024,1055,1024,0,0,5,0,211.1,0,0,65,3.915,3.904,0,0,0,0,4.51,104.9,2.6247048084,2.624672,38,Tripod,
539300,2022-08-12 04:54:18,0,0,2.624672,,,2.6247048084,2.952756,0,0,0,0,0,7.856,2.6247048084,2.624672,0,0,0,0,-0.223694,208.4, 0.4, 0,0,0,1024,1024,1349,1024,0,0,49,0,211.1,0,0,65,3.915,3.904,0,0,0,0,4.51,104.9,2.6247048084,2.624672,38,Tripod,
539400,2022-08-12 04:54:18,0,0,2.624672,,,2.6247048084,2.952756,0,0,0,0,0,7.856,2.6247048084,2.624672,0,0,0,0,0,208.4, 0.4, 0.1,0,0,1024,1024,1380,1024,0,0,54,0,211.1,0,0,65,3.915,3.904,0,0,0,0,4.51,104.9,2.6247048084,2.624672,38,Tripod,
539500,2022-08-12 04:54:18,0,0,2.952756,,,2.9527888084,2.952756,0,0,0,0,0,7.856,2.9527888084,2.952756,0,0,0,0,-0.447388,208.4, 0.2, 0.1,0,0,1024,1024,1202,1024,0,0,27,0,211.1,0,0,65,3.915,3.904,0,0,0,0,4.51,104.9,2.9527888084,2.952756,38,Tripod,
539600,2022-08-12 04:54:18,0,0,2.952756,,,2.9527888084,3.28084,0,0,0,0,0,7.815,2.9527888084,2.952756,0,0,0,0,-0.894776,208.4, 0.1, 0,0,0,1024,1024,1143,1024,0,0,18,0,211.1,0,0,65,3.926,3.915,0,0,0,0,4.446,104.9,2.9527888084,2.952756,38,Tripod,
539700,2022-08-12 04:54:18,0,0,3.28084,,,3.2808728084,3.28084,0,0,0,0,0,7.815,3.2808728084,3.28084,0,0,0,0,-0.894776,208.4, 0.1, 0,0,0,1024,1024,1143,1024,0,0,18,0,211.1,0,0,65,3.926,3.915,0,0,0,0,4.446,104.9,3.2808728084,3.28084,38,Tripod,
539800,2022-08-12 04:54:19,0,0,3.28084,,,3.2808728084,3.608924,0,0,0,0,0,7.815,3.2808728084,3.28084,0,0,0,0,-0.671082,208.4, 0.2, 0,0,0,1024,1024,1115,1024,0,0,14,0,211.1,0,0,65,3.926,3.915,0,0,0,0,4.446,104.9,3.2808728084,3.28084,38,Tripod,"Se detectó tarjeta SD de baja velocidad"
539900,2022-08-12 04:54:19,0,0,3.28084,,,3.2808728084,3.608924,0,0,0,0,0,7.815,3.2808728084,3.28084,0,0,0,0,-0.671082,208.4, 0.2, 0,0,0,1024,1024,1118,1024,0,0,14,0,211.1,0,0,65,3.926,3.915,0,0,0,0,4.446,104.9,3.2808728084,3.28084,38,Tripod,
540000,2022-08-12 04:54:19,0,0,3.28084,,,3.2808728084,3.608924,0,0,0,0,0,7.815,3.2808728084,3.28084,0,0,0,0,-0.447388,208.4, 0.2, 0,0,0,1024,1024,1119,1024,0,0,14,0,211.1,0,0,65,3.926,3.915,0,0,0,0,4.446,104.9,3.2808728084,3.28084,38,Tripod,
540100,2022-08-12 04:54:19,0,0,3.608924,,,3.6089568084,3.608924,0,0,0,0,0,7.815,3.6089568084,3.608924,0,0,0,0,-0.223694,208.4, 0.2, 0,0,0,1024,1024,1130,1024,0,0,16,0,211.1,0,0,65,3.926,3.915,0,0,0,0,4.446,104.9,3.6089568084,3.608924,38,Tripod,
540200,2022-08-12 04:54:19,0,0,3.608924,,,3.6089568084,3.937008,0,0,0,0,0,7.815,3.6089568084,3.608924,0,0,0,0,0,208.5, 0.2, 0.1,0,0,1024,1024,1132,1024,0,0,16,0,211.1,0,0,65,3.926,3.915,0,0,0,0,4.446,104.9,3.6089568084,3.608924,38,Tripod,
540300,2022-08-12 04:54:19,0,0,3.608924,,,3.6089568084,3.937008,0,0,0,0,0,7.815,3.6089568084,3.608924,0,0,0,0,0,208.5, 0.3, 0,0,0,1024,1024,1138,1024,0,0,17,0,211.1,0,0,65,3.926,3.915,0,0,0,0,4.446,104.9,3.6089568084,3.608924,38,Tripod,
540400,2022-08-12 04:54:19,0,0,3.608924,,,3.6089568084,3.937008,0,0,0,0,0,7.815,3.6089568084,3.608924,0,0,0,0,-0.223694,208.5, 0.3, 0,0,0,1024,1024,1157,1024,0,0,20,0,211.1,0,0,65,3.926,3.915,0,0,0,0,4.446,104.9,3.6089568084,3.608924,38,Tripod,
540500,2022-08-12 04:54:19,0,0,3.608924,,,3.6089568084,3.937008,0,0,0,0,0,7.815,3.6089568084,3.608924,0,0,0,0,-0.223694,208.5, 0.4, -0.2,0,0,1024,1024,1157,1024,0,0,20,0,211.1,0,0,65,3.926,3.915,0,0,0,0,4.446,104.9,3.6089568084,3.608924,38,Tripod,
540600,2022-08-12 04:54:19,0,0,3.608924,,,3.6089568084,3.937008,0,0,0,0,0,7.815,3.6089568084,3.608924,0,0,0,0,-0.223694,208.4, 0.3, -0.2,0,0,1024,1024,1163,1024,0,0,21,0,211.1,0,0,65,3.926,3.915,0,0,0,0,4.446,104.9,3.6089568084,3.608924,38,Tripod,
540700,2022-08-12 04:54:19,0,0,3.608924,,,3.6089568084,3.937008,0,0,0,0,0,7.853,3.6089568084,3.608924,0,0,0,0,-0.223694,208.5, 0.2, -0.3,0,0,1024,1024,1162,1024,0,0,21,0,211.1,0,0,65,3.928,3.917,0,0,0,0,4.437,104.9,3.6089568084,3.608924,38,Tripod,
540800,2022-08-12 04:54:20,0,0,3.608924,,,3.6089568084,3.937008,0,0,0,0,0,7.853,3.6089568084,3.608924,0,0,0,0,-0.223694,208.5, 0.2, -0.3,0,0,1024,1024,1152,1024,0,0,19,0,211.1,0,0,65,3.928,3.917,0,0,0,0,4.437,104.9,3.6089568084,3.608924,38,Tripod,
540900,2022-08-12 04:54:20,0,0,3.608924,,,3.6089568084,3.937008,0,0,0,0,0,7.853,3.6089568084,3.608924,0,0,0,0,-0.223694,208.5, 0, -0.4,0,0,1024,1024,1149,1024,0,0,19,0,211.1,0,0,65,3.928,3.917,0,0,0,0,4.437,104.9,3.6089568084,3.608924,38,Tripod,
541000,2022-08-12 04:54:20,0,0,3.937008,,,3.9370408084,4.265092,0,0,0,0,0,7.853,3.9370408084,3.937008,0,0,0,0,-0.223694,208.5, 0, -0.3,0,0,1024,1024,1143,1024,0,0,18,0,211.1,0,0,65,3.928,3.917,0,0,0,0,4.437,104.9,3.9370408084,3.937008,38,Tripod,
541100,2022-08-12 04:54:20,0,0,3.937008,,,3.9370408084,4.265092,0,0,0,0,0,7.853,3.9370408084,3.937008,0,0,0,0,-0.223694,208.5, 0, -0.1,0,0,1024,1024,1143,1024,0,0,18,0,211.1,0,0,65,3.928,3.917,0,0,0,0,4.437,104.9,3.9370408084,3.937008,38,Tripod,
541200,2022-08-12 04:54:20,0,0,3.937008,,,3.9370408084,4.265092,0,0,0,0,0,7.853,3.9370408084,3.937008,0,0,0,0,-0.223694,208.5, 0.1, 0,0,0,1024,1024,1128,1024,0,0,16,0,211.1,0,0,65,3.928,3.917,0,0,0,0,4.437,104.9,3.9370408084,3.937008,38,Tripod,
541300,2022-08-12 04:54:20,0,0,3.937008,,,3.9370408084,4.265092,0,0,0,0,0,7.853,3.9370408084,3.937008,0,0,0,0,-0.223694,208.4, 0, 0,0,0,1024,1024,1073,1024,0,0,7,0,211.1,0,0,65,3.928,3.917,0,0,0,0,4.437,104.9,3.9370408084,3.937008,38,Tripod,
541400,2022-08-12 04:54:20,0,0,3.937008,,,3.9370408084,4.265092,0,0,0,0,0,7.853,3.9370408084,3.937008,0,0,0,0,-0.223694,208.4, 0, -0.2,0,0,1024,1024,1073,1024,0,0,7,0,211.1,0,0,65,3.928,3.917,0,0,0,0,4.437,104.9,3.9370408084,3.937008,38,Tripod,
541500,2022-08-12 04:54:20,0,0,3.937008,,,3.9370408084,4.265092,0,0,0,0,0,7.853,3.9370408084,3.937008,0,0,0,0,-0.223694,208.4, 0, -0.2,0,0,1024,1024,1024,1024,0,0,0,0,211.1,0,0,65,3.928,3.917,0,0,0,0,4.437,104.9,3.9370408084,3.937008,38,Tripod,
541600,2022-08-12 04:54:20,0,0,3.937008,,,3.9370408084,4.265092,0,0,0,0,0,7.853,3.9370408084,3.937008,0,0,0,0,0,208.5, 0, -0.1,0,0,1024,1024,1024,1024,0,0,0,0,211.1,0,0,65,3.928,3.917,0,0,0,0,4.437,104.9,3.9370408084,3.937008,38,Tripod,
541700,2022-08-12 04:54:20,0,0,3.937008,,,3.9370408084,4.265092,0,0,0,0,0,7.84,3.9370408084,3.937008,0,0,0,0,0,208.4, 0, 0,0,0,1024,1024,1024,1024,0,0,0,0,211.1,0,0,65,3.925,3.914,0,0,0,0,4.424,104.9,3.9370408084,3.937008,38,Tripod,
541800,2022-08-12 04:54:21,0,0,4.265092,,,4.2651248084,4.265092,0,0,0,0,0,7.84,4.2651248084,4.265092,0,0,0,0,0,208.4, 0.1, -0.4,0,0,1024,1024,1024,1024,0,0,0,0,211.1,0,0,65,3.925,3.914,0,0,0,0,4.424,104.9,4.2651248084,4.265092,38,Tripod,
541900,2022-08-12 04:54:21,0,0,4.265092,,,4.2651248084,4.265092,0,0,0,0,0,7.84,4.2651248084,4.265092,0,0,0,0,0,208.4, 0.1, -0.3,0,0,1024,1024,1024,1024,0,0,0,0,211.1,0,0,65,3.925,3.914,0,0,0,0,4.424,104.9,4.2651248084,4.265092,38,Tripod,
542000,2022-08-12 04:54:21,0,0,4.265092,,,4.2651248084,4.265092,0,0,0,0,0,7.84,4.2651248084,4.265092,0,0,0,0,0,208.5, 0.1, -0.1,0,0,1024,1024,1024,1024,0,0,0,0,211.1,0,0,65,3.925,3.914,0,0,0,0,4.424,104.9,4.2651248084,4.265092,38,Tripod,
542100,2022-08-12 04:54:21,0,0,4.265092,,,4.2651248084,4.265092,0,0,0,0,0,7.84,4.2651248084,4.265092,0,0,0,0,0,208.5, 0, 0,0,0,1024,1024,1024,1024,0,0,0,0,211.1,0,0,65,3.925,3.914,0,0,0,0,4.424,104.9,4.2651248084,4.265092,38,Tripod,
542200,2022-08-12 04:54:21,0,0,4.265092,,,4.2651248084,4.265092,0,0,0,0,0,7.84,4.2651248084,4.265092,0,0,0,0,0,208.5, 0, -0.2,0,0,1024,1024,1024,1024,0,0,0,0,211.1,0,0,65,3.925,3.914,0,0,0,0,4.424,104.9,4.2651248084,4.265092,38,Tripod,
542300,2022-08-12 04:54:21,0,0,3.937008,,,3.9370408084,4.265092,0,0,0,0,0,7.84,4.2651248084,4.265092,0,0,0,0,0,208.5, 0, 0,0,0,1024,1024,1024,1024,0,0,0,0,211.1,0,0,65,3.925,3.914,0,0,0,0,4.424,104.9,3.9370408084,3.937008,38,Tripod,
542400,2022-08-12 04:54:21,0,0,3.937008,,,3.9370408084,4.265092,0,0,0,0,0,7.84,4.2651248084,4.265092,0,0,0,0,0,208.5, 0.1, 0.1,0,0,1024,1024,1024,1024,0,0,0,0,211.1,0,0,65,3.925,3.914,0,0,0,0,4.424,104.9,3.9370408084,3.937008,38,Tripod,
542500,2022-08-12 04:54:21,0,0,4.265092,,,4.2651248084,4.265092,0,0,0,0,0,7.84,4.2651248084,4.265092,0,0,0,0,0,208.5, 0.1, 0.1,0,0,1024,1024,1024,1024,0,0,0,0,211.1,0,0,65,3.925,3.914,0,0,0,0,4.424,104.9,4.2651248084,4.265092,38,Tripod,
542600,2022-08-12 04:54:21,0,0,4.265092,,,4.2651248084,4.265092,0,0,0,0,0,7.84,4.2651248084,4.265092,0,0,0,0,0,208.5, 0.1, 0,0,0,1024,1024,1024,1024,0,0,0,0,211.1,0,0,65,3.925,3.914,0,0,0,0,4.424,104.9,4.2651248084,4.265092,38,Tripod,
542700,2022-08-12 04:54:21,0,0,4.265092,,,4.2651248084,4.265092,0,0,0,0,0,7.837,4.2651248084,4.265092,0,0,0,0,0,208.5, 0.1, 0,0,0,1024,1024,1024,1024,0,0,0,0,211.1,0,0,65,3.922,3.912,0,0,0,0,4.312,104.9,4.2651248084,4.265092,38,Tripod,
542800,2022-08-12 04:54:22,0,0,4.265092,,,4.2651248084,4.265092,0,0,0,0,0,7.837,4.2651248084,4.265092,0,0,0,0,0,208.4, 0.1, 0,0,0,1024,1024,1024,1024,0,0,0,0,211.1,0,0,65,3.922,3.912,0,0,0,0,4.312,104.9,4.2651248084,4.265092,38,Tripod,
542900,2022-08-12 04:54:22,0,0,4.265092,,,4.2651248084,4.265092,0,0,0,0,0,7.837,4.2651248084,4.265092,0,0,0,0,0,208.5, 0.2, 0,0,0,1024,1024,1024,1024,0,0,0,0,211.1,0,0,65,3.922,3.912,0,0,0,0,4.312,104.9,4.2651248084,4.265092,38,Tripod,
543000,2022-08-12 04:54:22,0,0,4.265092,,,4.2651248084,4.265092,0,0,0,0,0,7.837,4.2651248084,4.265092,0,0,0,0,0,208.5, 0.2, 0.1,0,0,1024,1024,1024,1024,0,0,0,0,211.1,0,0,65,3.922,3.912,0,0,0,0,4.312,104.9,4.2651248084,4.265092,38,Tripod,
543100,2022-08-12 04:54:22,0,0,4.265092,,,4.2651248084,4.265092,0,0,0,0,0,7.837,4.2651248084,4.265092,0,0,0,0,0,208.4, 0.2, 0,0,0,1024,1024,1024,1024,0,0,0,0,211.1,0,0,65,3.922,3.912,0,0,0,0,4.312,104.9,4.2651248084,4.265092,38,Tripod,
543200,2022-08-12 04:54:22,0,0,4.265092,,,4.2651248084,4.265092,0,0,0,0,0,7.837,4.2651248084,4.265092,0,0,0,0,0,208.4, 0.2, -0.3,0,0,1024,1024,1024,1024,0,0,0,0,211.1,0,0,65,3.922,3.912,0,0,0,0,4.312,104.9,4.2651248084,4.265092,6,P-GPS,"Baja velocidad de la tarjeta SD. Puede afectar a su uso normal. Sustituye la tarjeta SD (Code: 10028)"
543300,2022-08-12 04:54:22,0,0,4.265092,,,4.2651248084,4.265092,0,0,0,0,0,7.837,4.2651248084,4.265092,0,0,0,0,0,208.4, 0.2, -0.3,0,0,1024,1024,1024,1024,0,0,0,0,211.1,0,0,65,3.922,3.912,0,0,0,0,4.312,104.9,4.2651248084,4.265092,6,P-GPS,
543400,2022-08-12 04:54:22,0,0,4.265092,,,4.2651248084,4.265092,0,0,0,0,0,7.837,4.2651248084,4.265092,0,0,0,0,0,208.5, 0.2, -0.1,0,0,1024,1024,1024,1024,0,0,0,0,211.1,0,0,65,3.922,3.912,0,0,0,0,4.312,104.9,4.2651248084,4.265092,6,P-GPS,
543500,2022-08-12 04:54:22,0,0,4.265092,,,4.2651248084,4.265092,0,0,0,0,0,7.837,4.2651248084,4.265092,0,0,0,0,0,208.5, 0.1, -0.1,0,0,1024,1024,1024,1024,0,0,0,0,211.1,0,0,65,3.922,3.912,0,0,0,0,4.312,104.9,4.2651248084,4.265092,6,P-GPS,
543600,2022-08-12 04:54:22,0,0,4.265092,,,4.2651248084,4.265092,0,0,0,0,0,7.837,4.2651248084,4.265092,0,0,0,0,0,208.4, 0.2, 0,0,0,1024,1024,1024,1024,0,0,0,0,211.1,0,0,65,3.922,3.912,0,0,0,0,4.312,104.9,4.2651248084,4.265092,6,P-GPS,
543700,2022-08-12 04:54:22,0,0,4.265092,,,4.2651248084,4.265092,0,0,0,0,0,7.833,4.2651248084,4.265092,0,0,0,0,0,208.4, 0.1, 0,0,0,1024,1024,1024,1024,0,0,0,0,211.1,0,0,65,3.92,3.91,0,0,0,0,4.39,104.9,4.2651248084,4.265092,6,P-GPS,
543800,2022-08-12 04:54:23,0,0,4.265092,,,4.2651248084,4.265092,0,0,0,0,0,7.833,4.2651248084,4.265092,0,0,0,0,0,208.5, 0.1, 0,0,0,1024,1024,1024,1024,0,0,0,0,211.1,0,0,65,3.92,3.91,0,0,0,0,4.39,104.9,4.2651248084,4.265092,6,P-GPS,
543900,2022-08-12 04:54:23,0,0,4.265092,,,4.2651248084,4.265092,0,0,0,0,0,7.833,4.2651248084,4.265092,0,0,0,0,0,208.5, 0, 0,0,0,1024,1024,1024,1024,0,0,0,0,211.1,0,0,65,3.92,3.91,0,0,0,0,4.39,104.9,4.2651248084,4.265092,6,P-GPS,
544000,2022-08-12 04:54:23,0,0,4.265092,,,4.2651248084,4.265092,0,0,0,0,0,7.833,4.2651248084,4.265092,0,0,0,0,0,208.4, 0, 0,0,0,1024,1024,1024,1024,0,0,0,0,211.1,0,0,65,3.92,3.91,0,0,0,0,4.39,104.9,4.2651248084,4.265092,6,P-GPS,
544100,2022-08-12 04:54:23,0,0,4.265092,,,4.2651248084,4.265092,0,0,0,0,0,7.833,4.2651248084,4.265092,0,0,0,0,0,208.4, 0, 0.1,0,0,1024,1024,429,1024,0,0,-90,0,211.1,0,0,65,3.92,3.91,0,0,0,0,4.39,104.9,4.2651248084,4.265092,6,P-GPS,
544200,2022-08-12 04:54:23,0,0,4.265092,,,4.2651248084,4.265092,0,0,0,0,0,7.833,4.2651248084,4.265092,0,0,0,0,0,208.4, 0, 0.1,0,0,1024,1024,364,1024,0,0,-100,0,211.1,0,0,65,3.92,3.91,0,0,0,0,4.39,104.9,4.2651248084,4.265092,6,P-GPS,
544300,2022-08-12 04:54:23,0,0,4.265092,,,4.2651248084,4.265092,0,0,0,0,0,7.833,4.2651248084,4.265092,0,0,0,0,0.223694,208.5, 0.1, 0.3,0,0,1024,1024,1024,1024,0,0,0,0,211.1,0,0,65,3.92,3.91,0,0,0,0,4.39,104.9,4.2651248084,4.265092,6,P-GPS,
544400,2022-08-12 04:54:23,0,0,3.937008,,,3.9370408084,4.265092,0,0,0,0,0,7.833,4.2651248084,4.265092,0,0,0,0,0.447388,208.4, 0.1, 0.3,0,0,1024,1024,1137,1024,0,0,17,0,211.1,0,0,65,3.92,3.91,0,0,0,0,4.39,104.9,3.9370408084,3.937008,6,P-GPS,
544500,2022-08-12 04:54:23,0,0,3.937008,,,3.9370408084,3.937008,0,0,0,0,0,7.833,4.2651248084,4.265092,0,0,0,0,0.447388,208.4, 0, 0.5,0,0,1024,1024,1137,1024,0,0,17,0,211.1,0,0,65,3.92,3.91,0,0,0,0,4.39,104.9,3.9370408084,3.937008,6,P-GPS,
544600,2022-08-12 04:54:23,0,0,3.937008,,,3.9370408084,3.937008,0,0,0,0,0,7.833,4.2651248084,4.265092,0,0,0,0,0.223694,208.4, 0, 0.3,0,0,1024,1024,1160,1024,0,0,21,0,211.1,0,0,65,3.92,3.91,0,0,0,0,4.39,104.9,3.9370408084,3.937008,6,P-GPS,
544700,2022-08-12 04:54:23,0,0,3.937008,,,3.9370408084,3.937008,0,0,0,0,0,7.829,4.2651248084,4.265092,0,0,0,0,0,208.4, 0, 0.1,0,0,1024,1024,1024,1024,0,0,0,0,211.1,0,0,65,3.922,3.912,0,0,0,0,4.405,104.9,3.9370408084,3.937008,6,P-GPS,
544800,2022-08-12 04:54:23,0,0,3.937008,,,3.9370408084,3.937008,0,0,0,0,0,7.829,4.2651248084,4.265092,0,0,0,0,0,208.4, 0.2, -0.2,0,0,1024,1024,1024,1024,0,0,0,0,211.1,0,0,65,3.922,3.912,0,0,0,0,4.405,104.9,3.9370408084,3.937008,6,P-GPS,
544900,2022-08-12 04:54:24,0,0,3.937008,,,3.9370408084,3.937008,0,0,0,0,0,7.829,4.2651248084,4.265092,0,0,0,0,0,208.4, 0.3, 0,0,0,1024,1024,1024,1024,0,0,0,0,211.1,0,0,65,3.922,3.912,0,0,0,0,4.405,104.9,3.9370408084,3.937008,6,P-GPS,
545000,2022-08-12 04:54:24,0,0,3.937008,,,3.9370408084,3.937008,0,0,0,0,0,7.829,4.2651248084,4.265092,0,0,0,0,0,208.4, 0.3, 0,0,0,1024,1024,1419,1024,0,0,60,0,211.1,0,0,65,3.922,3.912,0,0,0,0,4.405,104.9,3.9370408084,3.937008,6,P-GPS,
545100,2022-08-12 04:54:24,0,0,3.937008,,,3.9370408084,3.937008,0,0,0,0,0,7.829,4.2651248084,4.265092,0,0,0,0,0,208.4, 0.3, 0,0,0,1024,1024,1670,1024,0,0,98,0,211.1,0,0,65,3.922,3.912,0,0,0,0,4.405,104.9,3.9370408084,3.937008,6,P-GPS,
545200,2022-08-12 04:54:24,0,0,3.937008,,,3.9370408084,4.265092,0,0,0,0,0,7.829,4.2651248084,4.265092,0,0,0,0,-0.223694,208.4, 0.2, 0.4,0,0,1024,1024,1024,1024,0,0,0,0,211.1,0,0,65,3.922,3.912,0,0,0,0,4.405,104.9,3.9370408084,3.937008,6,P-GPS,
545300,2022-08-12 04:54:24,0,0,3.937008,,,3.9370408084,4.265092,0,0,0,0,0,7.829,4.2651248084,4.265092,0,0,0,0,-0.894776,208.4, -0.1, 0.3,0,0,1024,1024,1024,1024,0,0,0,0,211.1,0,0,65,3.922,3.912,0,0,0,0,4.405,104.9,3.9370408084,3.937008,6,P-GPS,
545400,2022-08-12 04:54:24,0,0,4.265092,,,4.2651248084,4.265092,0,0,0,0,0,7.829,4.2651248084,4.265092,0,0,0,0,-0.894776,208.5, 0.1, 0.1,0,0,1024,1024,1024,1024,0,0,0,0,211.1,0,0,65,3.922,3.912,0,0,0,0,4.405,104.9,4.2651248084,4.265092,6,P-GPS,
545500,2022-08-12 04:54:24,0,0,4.265092,,,4.2651248084,4.593176,0,0,0,0,0,7.829,4.2651248084,4.265092,0,0,0,0,-0.447388,208.5, 0.2, 0,0,0,1024,1024,1024,1024,0,0,0,0,211.1,0,0,65,3.922,3.912,0,0,0,0,4.405,104.9,4.2651248084,4.265092,6,P-GPS,
545600,2022-08-12 04:54:24,0,0,4.265092,,,4.2651248084,4.593176,0,0,0,0,0,7.829,4.2651248084,4.265092,0,0,0,0,-0.223694,208.5, 0.3, 0,0,0,1024,1024,521,1024,0,0,-76,0,211.1,0,0,65,3.922,3.912,0,0,0,0,4.405,104.9,4.2651248084,4.265092,6,P-GPS,
545700,2022-08-12 04:54:24,0,0,4.265092,,,4.2651248084,4.593176,0,0,0,0,0,7.829,4.2651248084,4.265092,0,0,0,0,-0.223694,208.5, 0.2, 0.1,0,0,1024,1024,364,1024,0,0,-100,0,211.1,0,0,65,3.922,3.912,0,0,0,0,4.405,104.9,4.2651248084,4.265092,6,P-GPS,
545800,2022-08-12 04:54:25,0,0,4.265092,,,4.2651248084,4.593176,0,0,0,0,0,7.824,4.2651248084,4.265092,0,0,0,0,0.223694,208.5, 0.3, 0.2,0,0,1024,1024,1024,1024,0,0,0,0,211.1,0,0,65,3.916,3.904,0,0,0,0,4.472,104.9,4.2651248084,4.265092,6,P-GPS,
545900,2022-08-12 04:54:25,0,0,4.265092,,,4.2651248084,4.593176,0,0,0,0,0,7.824,4.2651248084,4.265092,0,0,0,0,0.447388,208.5, 0.4, 0.4,0,0,1024,1024,1024,1024,0,0,0,0,211.1,0,0,65,3.916,3.904,0,0,0,0,4.472,104.9,4.2651248084,4.265092,6,P-GPS,
546000,2022-08-12 04:54:25,0,0,4.265092,,,4.2651248084,4.593176,0,0,0,0,0,7.824,4.2651248084,4.265092,0,0,0,0,0.447388,208.5, 0.2, 0.4,0,0,1024,1024,1024,1024,0,0,0,0,211.1,0,0,65,3.916,3.904,0,0,0,0,4.472,104.9,4.2651248084,4.265092,6,P-GPS,
546100,2022-08-12 04:54:25,0,0,4.265092,,,4.2651248084,4.265092,0,0,0,0,0,7.824,4.2651248084,4.265092,0,0,0,0,0.223694,208.5, 0, 0.3,0,0,1024,1024,1024,1024,0,0,0,0,211.1,0,0,65,3.916,3.904,0,0,0,0,4.472,104.9,4.2651248084,4.265092,6,P-GPS,
546200,2022-08-12 04:54:25,0,0,4.265092,,,4.2651248084,4.265092,0,0,0,0,0,7.824,4.2651248084,4.265092,0,0,0,0,0,208.5, 0, 0,0,0,1024,1024,1024,1024,0,0,0,0,211.1,0,0,65,3.916,3.904,0,0,0,0,4.472,104.9,4.2651248084,4.265092,6,P-GPS,"Baja velocidad de la tarjeta SD. Puede afectar a su uso normal. Sustituye la tarjeta SD (Code: 10028)"
546300,2022-08-12 04:54:25,0,0,4.265092,,,4.2651248084,4.265092,0,0,0,0,0,7.824,4.2651248084,4.265092,0,0,0,0,0,208.5, 0, 0,0,0,1024,1024,1024,1024,0,0,0,0,211.1,0,0,65,3.916,3.904,0,0,0,0,4.472,104.9,4.2651248084,4.265092,6,P-GPS,
546400,2022-08-12 04:54:25,0,0,4.265092,,,4.2651248084,4.265092,0,0,0,0,0,7.824,4.2651248084,4.265092,0,0,0,0,0,208.5, 0.2, 0,0,0,1024,1024,1024,1024,0,0,0,0,211.1,0,0,65,3.916,3.904,0,0,0,0,4.472,104.9,4.2651248084,4.265092,6,P-GPS,
546500,2022-08-12 04:54:25,0,0,4.265092,,,4.2651248084,4.265092,0,0,0,0,0,7.824,4.2651248084,4.265092,0,0,0,0,0,208.4, 0.2, -0.1,0,0,1024,1024,1024,1024,0,0,0,0,211.1,0,0,65,3.916,3.904,0,0,0,0,4.472,104.9,4.2651248084,4.265092,6,P-GPS,
546600,2022-08-12 04:54:25,0,0,4.265092,,,4.2651248084,4.265092,0,0,0,0,0,7.824,4.2651248084,4.265092,0,0,0,0,0,208.4, 0.2, 0.1,0,0,1024,1024,1024,1024,0,0,0,0,211.1,0,0,65,3.916,3.904,0,0,0,0,4.472,104.9,4.2651248084,4.265092,6,P-GPS,
546700,2022-08-12 04:54:25,0,0,4.265092,,,4.2651248084,4.265092,0,0,0,0,0,7.824,4.2651248084,4.265092,0,0,0,0,0,208.4, 0, 0.2,0,0,1024,1024,1024,1024,0,0,0,0,211.1,0,0,65,3.916,3.904,0,0,0,0,4.472,104.9,4.2651248084,4.265092,6,P-GPS,
546800,2022-08-12 04:54:26,0,0,4.265092,,,4.2651248084,4.265092,0,0,0,0,0,7.803,4.2651248084,4.265092,0,0,0,0,0,208.4, 0.1, 0.3,0,0,1024,1024,1024,1024,0,0,0,0,211.1,0,0,65,3.914,3.903,0,0,0,0,4.42,104.9,4.2651248084,4.265092,6,P-GPS,
546900,2022-08-12 04:54:26,0,0,4.265092,,,4.2651248084,4.265092,0,0,0,0,0,7.803,4.2651248084,4.265092,0,0,0,0,0,208.4, 0.1, 0.3,0,0,1024,1024,1024,1024,0,0,0,0,211.1,0,0,65,3.914,3.903,0,0,0,0,4.42,104.9,4.2651248084,4.265092,6,P-GPS,
547000,2022-08-12 04:54:26,0,0,4.265092,,,4.2651248084,4.265092,0,0,0,0,0,7.803,4.2651248084,4.265092,0,0,0,0,0,208.4, 0, 0.4,0,0,1024,1024,1024,1024,0,0,0,0,211.1,0,0,65,3.914,3.903,0,0,0,0,4.42,104.9,4.2651248084,4.265092,6,P-GPS,
547100,2022-08-12 04:54:26,0,0,4.265092,,,4.2651248084,4.265092,0,0,0,0,0,7.803,4.2651248084,4.265092,0,0,0,0,0,208.4, 0, 0.4,0,0,1024,1024,1024,1024,0,0,0,0,211.1,0,0,65,3.914,3.903,0,0,0,0,4.42,104.9,4.2651248084,4.265092,6,P-GPS,
547200,2022-08-12 04:54:26,0,0,4.265092,,,4.2651248084,4.265092,0,0,0,0,0,7.803,4.2651248084,4.265092,0,0,0,0,0,208.4, 0, 0.4,0,0,1024,1024,1024,1024,0,0,0,0,211.1,0,0,65,3.914,3.903,0,0,0,0,4.42,104.9,4.2651248084,4.265092,6,P-GPS,
547300,2022-08-12 04:54:26,0,0,4.265092,,,4.2651248084,4.265092,0,0,0,0,0,7.803,4.2651248084,4.265092,0,0,0,0,0,208.4, -0.1, 0.3,0,0,1024,1024,1024,1024,0,0,0,0,211.1,0,0,65,3.914,3.903,0,0,0,0,4.42,104.9,4.2651248084,4.265092,6,P-GPS,
547400,2022-08-12 04:54:26,0,0,4.265092,,,4.2651248084,4.265092,0,0,0,0,0,7.803,4.2651248084,4.265092,0,0,0,0,0,208.4, 0, 0.2,0,0,1024,1024,1024,1024,0,0,0,0,211.1,0,0,65,3.914,3.903,0,0,0,0,4.42,104.9,4.2651248084,4.265092,38,Tripod,"Baja velocidad de la tarjeta SD. Puede afectar a su uso normal. Sustituye la tarjeta SD (Code: 10028)"
547500,2022-08-12 04:54:26,0,0,4.265092,,,4.2651248084,4.265092,0,0,0,0,0,7.803,4.2651248084,4.265092,0,0,0,0,0,208.4, 0, 0.1,0,0,1024,1024,1024,1024,0,0,0,0,211.1,0,0,65,3.914,3.903,0,0,0,0,4.42,104.9,4.2651248084,4.265092,38,Tripod,
547600,2022-08-12 04:54:26,0,0,4.265092,,,4.2651248084,4.265092,0,0,0,0,0,7.803,4.2651248084,4.265092,0,0,0,0,0,208.4, 0.2, 0,0,0,1024,1024,1024,1024,0,0,0,0,211.1,0,0,65,3.914,3.903,0,0,0,0,4.42,104.9,4.2651248084,4.265092,38,Tripod,
547700,2022-08-12 04:54:26,0,0,4.265092,,,4.2651248084,4.265092,0,0,0,0,0,7.803,4.2651248084,4.265092,0,0,0,0,0,208.4, 0, 0.1,0,0,1024,1024,736,1024,0,0,-44,0,211.1,0,0,65,3.914,3.903,0,0,0,0,4.42,104.9,4.2651248084,4.265092,38,Tripod,
547800,2022-08-12 04:54:27,0,0,4.265092,,,4.2651248084,4.265092,0,0,0,0,0,7.819,4.2651248084,4.265092,0,0,0,0,0,208.4, 0, 0,0,0,1024,1024,364,1024,0,0,-100,0,211.1,0,0,65,3.915,3.904,0,0,0,0,4.489,104.9,4.2651248084,4.265092,38,Tripod,
547900,2022-08-12 04:54:27,0,0,4.265092,,,4.2651248084,4.265092,0,0,0,0,0,7.819,4.2651248084,4.265092,0,0,0,0,0.223694,208.4, 0.1, 0.2,0,0,1024,1024,589,1024,0,0,-66,0,211.1,0,0,65,3.915,3.904,0,0,0,0,4.489,104.9,4.2651248084,4.265092,38,Tripod,
548000,2022-08-12 04:54:27,0,0,3.937008,,,3.9370408084,4.265092,0,0,0,0,0,7.819,4.2651248084,4.265092,0,0,0,0,0.447388,208.4, 0, 0.1,0,0,1024,1024,1096,1024,0,0,11,0,211.1,0,0,65,3.915,3.904,0,0,0,0,4.489,104.9,3.9370408084,3.937008,38,Tripod,
548100,2022-08-12 04:54:27,0,0,3.937008,,,3.9370408084,3.937008,0,0,0,0,0,7.819,4.2651248084,4.265092,0,0,0,0,0.447388,208.5, -0.1, 0.3,0,0,1024,1024,1684,1024,0,0,100,0,211.1,0,0,65,3.915,3.904,0,0,0,0,4.489,104.9,3.9370408084,3.937008,38,Tripod,
548200,2022-08-12 04:54:27,0,0,3.937008,,,3.9370408084,3.937008,0,0,0,0,0,7.819,4.2651248084,4.265092,0,0,0,0,0.223694,208.5, 0, 0.2,0,0,1024,1024,1684,1024,0,0,100,0,211.1,0,0,65,3.915,3.904,0,0,0,0,4.489,104.9,3.9370408084,3.937008,38,Tripod,
548300,2022-08-12 04:54:27,0,0,3.937008,,,3.9370408084,3.937008,0,0,0,0,0,7.819,4.2651248084,4.265092,0,0,0,0,0,208.6, 0, 0.3,0,0,1024,1024,1684,1024,0,0,100,0,211.1,0,0,65,3.915,3.904,0,0,0,0,4.489,104.9,3.9370408084,3.937008,38,Tripod,
548400,2022-08-12 04:54:27,0,0,3.937008,,,3.9370408084,4.265092,0,0,0,0,0,7.819,4.2651248084,4.265092,0,0,0,0,-0.894776,208.6, 0, 0.3,0,0,1024,1024,1024,1024,0,0,0,0,211.1,0,0,65,3.915,3.904,0,0,0,0,4.489,104.9,3.9370408084,3.937008,38,Tripod,
548500,2022-08-12 04:54:27,0,0,4.265092,,,4.2651248084,4.265092,0,0,0,0,0,7.819,4.2651248084,4.265092,0,0,0,0,-1.565858,208.5, 0, 0.3,0,0,1024,1024,1024,1024,0,0,0,0,211.1,0,0,65,3.915,3.904,0,0,0,0,4.489,104.9,4.2651248084,4.265092,38,Tripod,
548600,2022-08-12 04:54:27,0,0,4.593176,,,4.5932088084,4.593176,0,0,0,0,0,7.819,4.5932088084,4.593176,0,0,0,0,-1.789552,208.5, 0, 0.2,0,0,1024,1024,1024,1024,0,0,0,0,211.1,0,0,65,3.915,3.904,0,0,0,0,4.489,104.9,4.5932088084,4.593176,38,Tripod,
548700,2022-08-12 04:54:27,0,0,4.593176,,,4.5932088084,4.92126,0,0,0,0,0,7.819,4.5932088084,4.593176,0,0,0,0,-1.342164,208.5, 0.5, 0.3,0,0,1024,1024,1024,1024,0,0,0,0,211.1,0,0,65,3.915,3.904,0,0,0,0,4.489,104.9,4.5932088084,4.593176,38,Tripod,
548800,2022-08-12 04:54:28,0,0,4.92126,,,4.9212928084,4.92126,0,0,0,0,0,7.822,4.9212928084,4.92126,0,0,0,0,-0.894776,208.5, 0.6, 0.2,0,0,1024,1024,1024,1024,0,0,0,0,211.1,0,0,65,3.892,3.876,0,0,0,0,4.34,104.9,4.9212928084,4.92126,38,Tripod,
548900,2022-08-12 04:54:28,0,0,4.92126,,,4.9212928084,5.249344,0,0,0,0,0,7.822,4.9212928084,4.92126,0,0,0,0,-0.447388,208.6, 0.5, 0.2,0,0,1024,1024,1024,1024,0,0,0,0,211.1,0,0,65,3.892,3.876,0,0,0,0,4.34,104.9,4.9212928084,4.92126,38,Tripod,
549000,2022-08-12 04:54:28,0,0,4.92126,,,4.9212928084,5.249344,0,0,0,0,0,7.822,4.9212928084,4.92126,0,0,0,0,-0.223694,208.6, 0.3, 0.2,0,0,1024,1024,364,1024,0,0,-100,0,211.1,0,0,65,3.892,3.876,0,0,0,0,4.34,104.9,4.9212928084,4.92126,38,Tripod,
549100,2022-08-12 04:54:28,0,0,4.92126,,,4.9212928084,5.249344,0,0,0,0,0,7.822,4.9212928084,4.92126,0,0,0,0,0,208.5, 0, 0.1,0,0,1024,1024,364,1024,0,0,-100,0,211.1,0,0,65,3.892,3.876,0,0,0,0,4.34,104.9,4.9212928084,4.92126,38,Tripod,
549200,2022-08-12 04:54:28,0,0,4.92126,,,4.9212928084,5.249344,0,0,0,0,0,7.822,4.9212928084,4.92126,0,0,0,0,0.447388,208.5, 0.1, 0.1,0,0,1024,1024,1024,1024,0,0,0,0,211.1,0,0,65,3.892,3.876,0,0,0,0,4.34,104.9,4.9212928084,4.92126,38,Tripod,
549300,2022-08-12 04:54:28,0,0,4.92126,,,4.9212928084,4.92126,0,0,0,0,0,7.822,4.9212928084,4.92126,0,0,0,0,0.671082,208.5, 0, 0.1,0,0,1024,1024,1024,1024,0,0,0,0,211.1,0,0,65,3.892,3.876,0,0,0,0,4.34,104.9,4.9212928084,4.92126,38,Tripod,
549400,2022-08-12 04:54:28,0,0,4.92126,,,4.9212928084,4.92126,0,0,0,0,0,7.822,4.9212928084,4.92126,0,0,0,0,0.671082,208.6, 0, 0.1,0,0,1024,1024,1024,1024,0,0,0,0,211.1,0,0,65,3.892,3.876,0,0,0,0,4.34,104.9,4.9212928084,4.92126,38,Tripod,
549500,2022-08-12 04:54:28,0,0,4.593176,,,4.5932088084,4.92126,0,0,0,0,0,7.822,4.9212928084,4.92126,0,0,0,0,0.223694,208.6, -0.1, 0,0,0,1024,1024,1024,1024,0,0,0,0,211.1,0,0,65,3.892,3.876,0,0,0,0,4.34,104.9,4.5932088084,4.593176,38,Tripod,
549600,2022-08-12 04:54:28,0,0,4.593176,,,4.5932088084,4.92126,0,0,0,0,0,7.822,4.9212928084,4.92126,0,0,0,0,0.223694,208.6, 0, 0,0,0,1024,1024,1024,1024,0,0,0,0,211.1,0,0,65,3.892,3.876,0,0,0,0,4.34,104.9,4.5932088084,4.593176,38,Tripod,
549700,2022-08-12 04:54:28,0,0,4.593176,,,4.5932088084,4.92126,0,0,0,0,0,7.822,4.9212928084,4.92126,0,0,0,0,0,208.6, 0, 0.3,0,0,1024,1024,1024,1024,0,0,0,0,211.1,0,0,65,3.892,3.876,0,0,0,0,4.34,104.9,4.5932088084,4.593176,38,Tripod,
549800,2022-08-12 04:54:28,0,0,4.593176,,,4.5932088084,4.92126,0,0,0,0,0,7.823,4.9212928084,4.92126,0,0,0,0,0,208.5, 0, 0.6,0,0,1024,1024,1024,1024,0,0,0,0,211.1,0,0,65,3.911,3.902,0,0,0,0,4.547,104.9,4.5932088084,4.593176,38,Tripod,
549900,2022-08-12 04:54:29,0,0,4.593176,,,4.5932088084,4.92126,0,0,0,0,0,7.823,4.9212928084,4.92126,0,0,0,0,0,208.4, -0.1, 0.5,0,0,1024,1024,1024,1024,0,0,0,0,211.1,0,0,65,3.911,3.902,0,0,0,0,4.547,104.9,4.5932088084,4.593176,38,Tripod,
550000,2022-08-12 04:54:29,0,0,4.593176,,,4.5932088084,4.92126,0,0,0,0,0,7.823,4.9212928084,4.92126,0,0,0,0,0,208.4, -0.1, 0.6,0,0,1024,1024,1024,1024,0,0,0,0,211.1,0,0,65,3.911,3.902,0,0,0,0,4.547,104.9,4.5932088084,4.593176,38,Tripod,
550100,2022-08-12 04:54:29,0,0,4.593176,,,4.5932088084,4.92126,0,0,0,0,0,7.823,4.9212928084,4.92126,0,0,0,0,0,208.4, 0, 0.8,0,0,1024,1024,1024,1024,0,0,0,0,211.1,0,0,65,3.911,3.902,0,0,0,0,4.547,104.9,4.5932088084,4.593176,38,Tripod,"Baja velocidad de la tarjeta SD. Puede afectar a su uso normal. Sustituye la tarjeta SD (Code: 10028)"
550200,2022-08-12 04:54:29,0,0,4.593176,,,4.5932088084,4.92126,0,0,0,0,0,7.823,4.9212928084,4.92126,0,0,0,0,0,208.4, 0, 0.8,0,0,1024,1024,1024,1024,0,0,0,0,211.1,0,0,65,3.911,3.902,0,0,0,0,4.547,104.9,4.5932088084,4.593176,6,P-GPS,
550300,2022-08-12 04:54:29,0,0,4.593176,,,4.5932088084,4.92126,0,0,0,0,0,7.823,4.9212928084,4.92126,0,0,0,0,0,208.5, -0.1, 0.8,0,0,1024,1024,1024,1024,0,0,0,0,211.1,0,0,65,3.911,3.902,0,0,0,0,4.547,104.9,4.5932088084,4.593176,6,P-GPS,
550400,2022-08-12 04:54:29,0,0,4.593176,,,4.5932088084,4.92126,0,0,0,0,0,7.823,4.9212928084,4.92126,0,0,0,0,0,208.5, -0.2, 0.8,0,0,1024,1024,1024,1024,0,0,0,0,211.1,0,0,65,3.911,3.902,0,0,0,0,4.547,104.9,4.5932088084,4.593176,6,P-GPS,"Baja velocidad de la tarjeta SD. Puede afectar a su uso normal. Sustituye la tarjeta SD (Code: 10028)"
550500,2022-08-12 04:54:29,0,0,4.593176,,,4.5932088084,4.92126,0,0,0,0,0,7.823,4.9212928084,4.92126,0,0,0,0,0,208.4, -0.1, 0.6,0,0,1024,1024,1024,1024,0,0,0,0,211.1,0,0,65,3.911,3.902,0,0,0,0,4.547,104.9,4.5932088084,4.593176,6,P-GPS,
550600,2022-08-12 04:54:29,0,0,4.593176,,,4.5932088084,4.92126,0,0,0,0,0,7.823,4.9212928084,4.92126,0,0,0,0,0,208.4, -0.1, 0.4,0,0,1024,1024,1024,1024,0,0,0,0,211.1,0,0,65,3.911,3.902,0,0,0,0,4.547,104.9,4.5932088084,4.593176,6,P-GPS,
550700,2022-08-12 04:54:29,0,0,4.593176,,,4.5932088084,4.92126,0,0,0,0,0,7.823,4.9212928084,4.92126,0,0,0,0,0,208.4, -0.3, 0.2,0,0,1024,1024,1024,1024,0,0,0,0,211.1,0,0,65,3.911,3.902,0,0,0,0,4.547,104.9,4.5932088084,4.593176,6,P-GPS,
550800,2022-08-12 04:54:29,0,0,4.593176,,,4.5932088084,4.92126,0,0,0,0,0,7.823,4.9212928084,4.92126,0,0,0,0,0,208.4, -0.2, 0.3,0,0,1024,1024,1024,1024,0,0,0,0,211.1,0,0,65,3.911,3.901,0,0,0,0,4.547,104.9,4.5932088084,4.593176,6,P-GPS,
550900,2022-08-12 04:54:30,0,0,4.593176,,,4.5932088084,4.92126,0,0,0,0,0,7.823,4.9212928084,4.92126,0,0,0,0,0,208.5, 0, 0.2,0,0,1024,1024,1024,1024,0,0,0,0,211.1,0,0,65,3.911,3.901,0,0,0,0,4.547,104.9,4.5932088084,4.593176,6,P-GPS,
551000,2022-08-12 04:54:30,0,0,4.593176,,,4.5932088084,4.92126,0,0,0,0,0,7.823,4.9212928084,4.92126,0,0,0,0,0,208.5, 0, 0.2,0,0,1024,1024,1024,1024,0,0,0,0,211.1,0,0,65,3.911,3.901,0,0,0,0,4.547,104.9,4.5932088084,4.593176,31,Sport,"Baja velocidad de la tarjeta SD. Puede afectar a su uso normal. Sustituye la tarjeta SD (Code: 10028)"
551100,2022-08-12 04:54:30,0,0,4.593176,,,4.5932088084,4.92126,0,0,0,0,0,7.823,4.9212928084,4.92126,0,0,0,0,0,208.5, 0, 0,0,0,1024,1024,1024,1024,0,0,0,0,211.1,0,0,65,3.911,3.901,0,0,0,0,4.547,104.9,4.5932088084,4.593176,31,Sport,
551200,2022-08-12 04:54:30,0,0,4.593176,,,4.5932088084,4.92126,0,0,0,0,0,7.823,4.9212928084,4.92126,0,0,0,0,0,208.5, 0, 0.1,0,0,1024,1024,1024,1024,0,0,0,0,211.1,0,0,65,3.911,3.901,0,0,0,0,4.547,104.9,4.5932088084,4.593176,31,Sport,
551300,2022-08-12 04:54:30,0,0,4.593176,,,4.5932088084,4.92126,0,0,0,0,0,7.823,4.9212928084,4.92126,0,0,0,0,0,208.4, 0.1, 0.2,0,0,1024,1024,942,1024,0,0,-12,0,211.1,0,0,65,3.911,3.901,0,0,0,0,4.547,104.9,4.5932088084,4.593176,31,Sport,
551400,2022-08-12 04:54:30,0,0,4.593176,,,4.5932088084,4.92126,0,0,0,0,0,7.823,4.9212928084,4.92126,0,0,0,0,0,208.4, 0, 0.3,0,0,1024,1024,364,1024,0,0,-100,0,211.1,0,0,65,3.911,3.901,0,0,0,0,4.547,104.9,4.5932088084,4.593176,31,Sport,
551500,2022-08-12 04:54:30,0,0,4.593176,,,4.5932088084,4.92126,0,0,0,0,0,7.823,4.9212928084,4.92126,0,0,0,0,0,208.3, -0.1, 0.6,0,0,1024,1024,758,1024,0,0,-40,0,211.1,0,0,65,3.911,3.901,0,0,0,0,4.547,104.9,4.5932088084,4.593176,31,Sport,
551600,2022-08-12 04:54:30,0,0,4.593176,,,4.5932088084,4.92126,0,0,0,0,0,7.823,4.9212928084,4.92126,0,0,0,0,0.223694,208.4, 0.1, 0.7,0,0,1024,1024,758,1024,0,0,-40,0,211.1,0,0,65,3.911,3.901,0,0,0,0,4.547,104.9,4.5932088084,4.593176,31,Sport,
551700,2022-08-12 04:54:30,0,0,4.593176,,,4.5932088084,4.593176,0,0,0,0,0,7.823,4.9212928084,4.92126,0,0,0,0,0.447388,208.4, 0, 0.5,0,0,1024,1024,1024,1024,0,0,0,0,211.1,0,0,65,3.911,3.901,0,0,0,0,4.547,104.9,4.5932088084,4.593176,31,Sport,
551800,2022-08-12 04:54:31,0,0,4.593176,,,4.5932088084,4.593176,0,0,0,0,0,7.811,4.9212928084,4.92126,0,0,0,0,0.447388,208.4, -0.1, 0.3,0,0,1024,1024,1024,1024,0,0,0,0,211.1,0,0,65,3.909,3.899,0,0,0,0,4.561,104.9,4.5932088084,4.593176,31,Sport,
551900,2022-08-12 04:54:31,0,0,4.593176,,,4.5932088084,4.593176,0,0,0,0,0,7.811,4.9212928084,4.92126,0,0,0,0,0.223694,208.4, -0.1, 0.3,0,0,1024,1024,1024,1024,0,0,0,0,211.1,0,0,65,3.909,3.899,0,0,0,0,4.561,104.9,4.5932088084,4.593176,31,Sport,
552000,2022-08-12 04:54:31,0,0,4.265092,,,4.2651248084,4.593176,0,0,0,0,0,7.811,4.9212928084,4.92126,0,0,0,0,0.223694,208.3, -0.1, 0.2,0,0,1024,1024,364,1006,0,0,-100,-3,211.1,0,0,65,3.909,3.899,0,0,0,0,4.561,104.9,4.2651248084,4.265092,31,Sport,
552100,2022-08-12 04:54:31,0,0,4.265092,,,4.2651248084,4.593176,0,0,0,0,0,7.811,4.9212928084,4.92126,0,0,0,0,0.223694,208.3, -0.1, 0.3,0,0,1024,1024,364,1024,0,0,-100,0,211.1,0,0,65,3.909,3.899,0,0,0,0,4.561,104.9,4.2651248084,4.265092,31,Sport,
552200,2022-08-12 04:54:31,0,0,4.265092,,,4.2651248084,4.265092,0,0,0,0,0,7.811,4.9212928084,4.92126,0,0,0,0,0.447388,208.3, 0, 0.5,0,0,1024,1024,1007,1024,0,0,-3,0,210.9,0,0,65,3.909,3.899,0,0,0,0,4.561,104.9,4.2651248084,4.265092,31,Sport,
552300,2022-08-12 04:54:31,0,0,4.265092,,,4.2651248084,4.265092,0,0,0,0,0,7.811,4.9212928084,4.92126,0,0,0,0,0.447388,208.2, -0.1, 0.7,0,0,1024,1024,1024,1024,0,0,0,0,210.8,0,0,65,3.909,3.899,0,0,0,0,4.561,104.9,4.2651248084,4.265092,31,Sport,
552400,2022-08-12 04:54:31,0,0,3.937008,,,3.9370408084,4.265092,0,0,0,0,0,7.811,4.9212928084,4.92126,0,0,0,0,0.671082,208.1, -0.1, 0.6,0,0,1024,1024,1057,1024,0,0,5,0,210.8,0,0,65,3.909,3.899,0,0,0,0,4.561,104.9,3.9370408084,3.937008,31,Sport,
552500,2022-08-12 04:54:31,0,0,3.937008,,,3.9370408084,3.937008,0,0,0,0,0,7.811,4.9212928084,4.92126,0,0,0,0,0.447388,208.1, -0.1, 0.1,0,0,1024,1024,1057,1024,0,0,5,0,210.8,0,0,65,3.909,3.899,0,0,0,0,4.561,104.9,3.9370408084,3.937008,31,Sport,
552600,2022-08-12 04:54:31,0,0,3.937008,,,3.9370408084,3.937008,0,0,0,0,0,7.811,4.9212928084,4.92126,0,0,0,0,0.223694,208.1, 0.1, -0.2,0,0,1024,1024,1384,1024,0,0,55,0,210.8,0,0,65,3.909,3.899,0,0,0,0,4.561,104.9,3.9370408084,3.937008,31,Sport,
552700,2022-08-12 04:54:31,0,0,3.937008,,,3.9370408084,3.937008,0,0,0,0,0,7.811,4.9212928084,4.92126,0,0,0,0,0,208.2, 0.4, -0.1,0,0,1024,1024,1598,1024,0,0,87,0,210.8,0,0,64,3.909,3.899,0,0,0,0,4.561,104.9,3.9370408084,3.937008,31,Sport,
552800,2022-08-12 04:54:32,0,0,4.265092,,,4.2651248084,4.265092,0,0,0,0,0,7.809,4.9212928084,4.92126,0,0,0,0,-0.894776,208.3, 0.4, -0.1,0,0,1024,1024,1024,1024,0,0,0,0,210.8,0,0,64,3.903,3.897,0,0,0,0,4.389,104.9,4.2651248084,4.265092,31,Sport,
552900,2022-08-12 04:54:32,0,0,4.265092,,,4.2651248084,4.265092,0,0,0,0,0,7.809,4.9212928084,4.92126,0,0,0,0,-1.789552,208.2, -0.1, -0.8,0,0,1024,1024,841,1024,0,0,-28,0,210.8,0,0,64,3.903,3.897,0,0,0,0,4.389,104.9,4.2651248084,4.265092,31,Sport,
553000,2022-08-12 04:54:32,0,0,4.593176,,,4.5932088084,4.593176,0,0,0,0,0,7.809,4.9212928084,4.92126,0,0,0,0,-1.565858,208.2, 0.6, -0.9,0,0,1024,1024,364,1024,0,0,-100,0,210.8,0,0,64,3.903,3.897,0,0,0,0,4.389,104.9,4.5932088084,4.593176,31,Sport,
553100,2022-08-12 04:54:32,0,0,4.593176,,,4.5932088084,4.92126,0,0,0,0,0,7.809,4.9212928084,4.92126,0,0,0,0,-0.894776,208.1, 0.4, -0.9,0,0,1024,1024,371,1024,0,0,-99,0,210.8,0,0,64,3.903,3.897,0,0,0,0,4.389,104.9,4.5932088084,4.593176,31,Sport,"Baja velocidad de la tarjeta SD. Puede afectar a su uso normal. Sustituye la tarjeta SD (Code: 10028)"
553200,2022-08-12 04:54:32,0,0,4.593176,,,4.5932088084,4.92126,0,0,0,0,0,7.809,4.9212928084,4.92126,0,0,0,0,0,208.2, 0.5, -0.5,0,0,1024,1024,1024,1024,0,0,0,0,210.8,0,0,64,3.903,3.897,0,0,0,0,4.389,104.9,4.5932088084,4.593176,31,Sport,
553300,2022-08-12 04:54:32,0,0,4.593176,,,4.5932088084,4.92126,0,0,0,0,0,7.809,4.9212928084,4.92126,0,0,0,0,0.223694,208.2, 0.5, -0.2,0,0,1024,1024,790,1024,0,0,-35,0,210.8,0,0,64,3.903,3.897,0,0,0,0,4.389,104.9,4.5932088084,4.593176,31,Sport,
553400,2022-08-12 04:54:32,0,0,4.593176,,,4.5932088084,4.593176,0,0,0,0,0,7.809,4.9212928084,4.92126,0,0,0,0,0.447388,208.2, 0.4, 0,0,0,1024,1024,790,1024,0,0,-35,0,210.8,0,0,64,3.903,3.897,0,0,0,0,4.389,104.9,4.5932088084,4.593176,31,Sport,
553500,2022-08-12 04:54:32,0,0,4.593176,,,4.5932088084,4.593176,0,0,0,0,0,7.809,4.9212928084,4.92126,0,0,0,0,0.223694,208.2, 0.2, 0.2,0,0,1024,1024,364,1024,0,0,-100,0,210.8,0,0,64,3.903,3.897,0,0,0,0,4.389,104.9,4.5932088084,4.593176,31,Sport,
553600,2022-08-12 04:54:32,0,0,4.593176,,,4.5932088084,4.593176,0,0,0,0,0,7.809,4.9212928084,4.92126,0,0,0,0,0.671082,208.2, 0.3, 0.4,0,0,1024,1024,613,1024,0,0,-62,0,210.8,0,0,64,3.903,3.897,0,0,0,0,4.389,104.9,4.5932088084,4.593176,31,Sport,
553700,2022-08-12 04:54:32,0,0,4.265092,,,4.2651248084,4.593176,0,0,0,0,0,7.809,4.9212928084,4.92126,0,0,0,0,0.671082,208.2, 0.1, 0.2,0,0,1024,1024,965,1024,0,0,-9,0,210.8,0,0,64,3.903,3.897,0,0,0,0,4.389,104.9,4.2651248084,4.265092,31,Sport,
553800,2022-08-12 04:54:33,0,0,4.265092,,,4.2651248084,4.265092,0,0,0,0,0,7.81,4.9212928084,4.92126,0,0,0,0,0.671082,208.2, 0.2, 0.1,0,0,1024,1024,1022,1024,0,0,-0,0,210.8,0,0,64,3.909,3.897,0,0,0,0,4.352,105.08,4.2651248084,4.265092,31,Sport,
553900,2022-08-12 04:54:33,0,0,4.265092,,,4.2651248084,4.265092,0,0,0,0,0,7.81,4.9212928084,4.92126,0,0,0,0,0.447388,208.2, 0.2, 0,0,0,1024,1024,1024,1024,0,0,0,0,210.8,0,0,64,3.909,3.897,0,0,0,0,4.352,105.08,4.2651248084,4.265092,31,Sport,
554000,2022-08-12 04:54:33,0,0,3.937008,,,3.9370408084,4.265092,0,0,0,0,0,7.81,4.9212928084,4.92126,0,0,0,0,0.223694,208.1, 0.3, 0,0,0,1024,1024,1024,1024,0,0,0,0,210.8,0,0,64,3.909,3.897,0,0,0,0,4.352,105.08,3.9370408084,3.937008,31,Sport,"Baja velocidad de la tarjeta SD. Puede afectar a su uso normal. Sustituye la tarjeta SD (Code: 10028)"
554100,2022-08-12 04:54:33,0,0,3.937008,,,3.9370408084,4.265092,0,0,0,0,0,7.81,4.9212928084,4.92126,0,0,0,0,0,208.1, 0.4, 0.2,0,0,1024,1024,1024,1024,0,0,0,0,210.8,0,0,64,3.909,3.897,0,0,0,0,4.352,105.08,3.9370408084,3.937008,31,Sport,
554200,2022-08-12 04:54:33,0,0,3.937008,,,3.9370408084,4.265092,0,0,0,0,0,7.81,4.9212928084,4.92126,0,0,0,0,0,208.1, 0.4, 0.3,0,0,1024,1024,1024,1024,0,0,0,0,210.8,0,0,64,3.909,3.897,0,0,0,0,4.352,105.08,3.9370408084,3.937008,31,Sport,
554300,2022-08-12 04:54:33,0,0,3.937008,,,3.9370408084,4.265092,0,0,0,0,0,7.81,4.9212928084,4.92126,0,0,0,0,0,208.1, 0.4, 0.1,0,0,1024,1024,1024,1024,0,0,0,0,210.8,0,0,64,3.909,3.897,0,0,0,0,4.352,105.08,3.9370408084,3.937008,31,Sport,
554400,2022-08-12 04:54:33,0,0,3.937008,,,3.9370408084,4.265092,0,0,0,0,0,7.81,4.9212928084,4.92126,0,0,0,0,0,208, 0.4, 0,0,0,1024,1024,1024,1024,0,0,0,0,210.8,0,0,64,3.909,3.897,0,0,0,0,4.352,105.08,3.9370408084,3.937008,31,Sport,
554500,2022-08-12 04:54:33,0,0,3.937008,,,3.9370408084,4.265092,0,0,0,0,0,7.81,4.9212928084,4.92126,0,0,0,0,0,208.1, 0.3, 0.5,0,0,1024,1024,1024,1024,0,0,0,0,210.8,0,0,64,3.909,3.897,0,0,0,0,4.352,105.08,3.9370408084,3.937008,31,Sport,
554600,2022-08-12 04:54:33,0,0,3.937008,,,3.9370408084,4.265092,0,0,0,0,0,7.81,4.9212928084,4.92126,0,0,0,0,0,208.1, 0.2, 0.5,0,0,1024,1024,1024,1024,0,0,0,0,210.8,0,0,64,3.909,3.897,0,0,0,0,4.352,105.08,3.9370408084,3.937008,31,Sport,
554700,2022-08-12 04:54:33,0,0,3.937008,,,3.9370408084,4.265092,0,0,0,0,0,7.81,4.9212928084,4.92126,0,0,0,0,0,208.1, 0.2, 0.2,0,0,1095,1024,1024,1024,11,0,0,0,210.8,0,0,64,3.909,3.897,0,0,0,0,4.352,105.08,3.9370408084,3.937008,31,Sport,
554800,2022-08-12 04:54:34,0,0,3.937008,,,3.9370408084,4.265092,0,0,0,0,0,7.826,4.9212928084,4.92126,0,0,0,0,0,208.1, 0.1, 0.2,0,0,1024,1024,1024,1024,0,0,0,0,210.8,0,0,64,3.905,3.895,0,0,0,0,4.648,105.08,3.9370408084,3.937008,31,Sport,
554900,2022-08-12 04:54:34,0,0,3.937008,,,3.9370408084,4.265092,0,0,0,0,0,7.826,4.9212928084,4.92126,0,0,0,0,0,208.2, 0, 0.2,0,0,1024,1024,1024,1024,0,0,0,0,210.8,0,0,64,3.905,3.895,0,0,0,0,4.648,105.08,3.9370408084,3.937008,31,Sport,
555000,2022-08-12 04:54:34,0,0,3.937008,,,3.9370408084,4.265092,0,0,0,0,0,7.826,4.9212928084,4.92126,0,0,0,0,0,208.2, 0.2, 0.2,0,0,1024,1024,1024,1024,0,0,0,0,210.8,0,0,64,3.905,3.895,0,0,0,0,4.648,105.08,3.9370408084,3.937008,31,Sport,
555100,2022-08-12 04:54:34,0,0,3.937008,,,3.9370408084,4.265092,0,0,0,0,0,7.826,4.9212928084,4.92126,0,0,0,0,0,208.3, 0.3, 0,0,0,1024,1024,1024,1024,0,0,0,0,210.8,0,0,64,3.905,3.895,0,0,0,0,4.648,105.08,3.9370408084,3.937008,31,Sport,
555200,2022-08-12 04:54:34,0,0,3.937008,,,3.9370408084,4.265092,0,0,0,0,0,7.826,4.9212928084,4.92126,0,0,0,0,0,208.2, 0.2, 0,0,0,1024,1024,1024,1024,0,0,0,0,210.8,0,0,64,3.905,3.895,0,0,0,0,4.648,105.08,3.9370408084,3.937008,31,Sport,
555300,2022-08-12 04:54:34,0,0,3.937008,,,3.9370408084,4.265092,0,0,0,0,0,7.826,4.9212928084,4.92126,0,0,0,0,0,208.2, 0.2, 0,0,0,1024,1024,1024,1024,0,0,0,0,210.8,0,0,64,3.905,3.895,0,0,0,0,4.648,105.08,3.9370408084,3.937008,31,Sport,
555400,2022-08-12 04:54:34,0,0,3.937008,,,3.9370408084,4.265092,0,0,0,0,0,7.826,4.9212928084,4.92126,0,0,0,0,0,208.3, 0.4, -0.1,0,0,1024,1024,1024,1024,0,0,0,0,210.8,0,0,64,3.905,3.895,0,0,0,0,4.648,105.08,3.9370408084,3.937008,31,Sport,
555500,2022-08-12 04:54:34,0,0,3.937008,,,3.9370408084,4.265092,0,0,0,0,0,7.826,4.9212928084,4.92126,0,0,0,0,0,208.2, 0.3, -0.5,0,0,1024,1024,1024,1024,0,0,0,0,210.8,0,0,64,3.905,3.895,0,0,0,0,4.648,105.08,3.9370408084,3.937008,31,Sport,
555600,2022-08-12 04:54:34,0,0,3.937008,,,3.9370408084,4.265092,0,0,0,0,0,7.826,4.9212928084,4.92126,0,0,0,0,0,208.2, 0.3, -0.4,0,0,1024,1024,1024,1024,0,0,0,0,210.8,0,0,64,3.905,3.895,0,0,0,0,4.648,105.08,3.9370408084,3.937008,31,Sport,
555700,2022-08-12 04:54:34,0,0,3.937008,,,3.9370408084,4.265092,0,0,0,0,0,7.826,4.9212928084,4.92126,0,0,0,0,0,208.3, 0.3, -0.3,0,0,1024,1413,1024,1024,0,59,0,0,210.8,0,0,64,3.905,3.895,0,0,0,0,4.648,105.08,3.9370408084,3.937008,31,Sport,
555800,2022-08-12 04:54:34,0,0,3.937008,,,3.9370408084,4.265092,0,0,0,0,0,7.799,4.9212928084,4.92126,0,0,0,0,0,208.3, 0.2, 4.3,0,0,1024,1024,1024,1024,0,0,0,0,210.8,0,0,64,3.906,3.895,0,0,0,0,4.474,105.26,3.9370408084,3.937008,31,Sport,
555900,2022-08-12 04:54:35,0,0,3.937008,,,3.9370408084,4.265092,0,0,0,0,0,7.799,4.9212928084,4.92126,0,0,0,0,0,208.6, 0.1, 9.3,0,0,1024,1024,1024,1024,0,0,0,0,210.8,0,0,64,3.906,3.895,0,0,0,0,4.474,105.26,3.9370408084,3.937008,31,Sport,
556000,2022-08-12 04:54:35,0,0,3.937008,,,3.9370408084,4.265092,0.223694,0,0,0,0,7.799,4.9212928084,4.92126,0,0,0,-0.223694,0,208, 0, -0.4,0,0,1024,1024,1024,1024,0,0,0,0,210.8,0,0,64,3.906,3.895,0,0,0,0,4.474,105.26,3.9370408084,3.937008,31,Sport,
556100,2022-08-12 04:54:35,0,0,3.937008,,,3.9370408084,4.265092,0.223694,0,0,0,0,7.799,4.9212928084,4.92126,0,0,0,-0.223694,0,208.1, 0.1, -1.7,0,0,1024,1024,1024,1024,0,0,0,0,210.8,0,0,64,3.906,3.895,0,0,0,0,4.474,105.26,3.9370408084,3.937008,31,Sport,
556200,2022-08-12 04:54:35,0,0,3.937008,,,3.9370408084,4.265092,0.223694,0,0,0,0,7.799,4.9212928084,4.92126,0,0,0,-0.223694,0,208.2, 0, -1.6,0,0,1024,1024,1024,1024,0,0,0,0,210.8,0,0,64,3.906,3.895,0,0,0,0,4.474,105.26,3.9370408084,3.937008,31,Sport,
556300,2022-08-12 04:54:35,0,0,3.937008,,,3.9370408084,4.265092,0.223694,0,0,0,0,7.799,4.9212928084,4.92126,0,0,0,-0.223694,0,208.1, 0, -1.5,0,0,1024,571,1024,1024,0,-69,0,0,210.8,0,0,64,3.906,3.895,0,0,0,0,4.474,105.26,3.9370408084,3.937008,31,Sport,
556400,2022-08-12 04:54:35,0,0,3.937008,,,3.9370408084,4.265092,0,0,0,0,0,7.799,4.9212928084,4.92126,0,0,0,0,0,208.2, 0.1, -1.4,0,0,1024,571,1024,1024,0,-69,0,0,210.8,0,0,64,3.906,3.895,0,0,0,0,4.474,105.26,3.9370408084,3.937008,31,Sport,
556500,2022-08-12 04:54:35,0,0,3.937008,,,3.9370408084,4.265092,0,0,0,0,0,7.799,4.9212928084,4.92126,0,0,0,0,0,208.1, 0.1, -5.7,0,0,1024,364,1024,1024,0,-100,0,0,210.8,0,0,64,3.906,3.895,0,0,0,0,4.474,105.26,3.9370408084,3.937008,31,Sport,
556600,2022-08-12 04:54:35,0,0,3.937008,,,3.9370408084,4.265092,0.223694,0,0,0,0,7.799,4.9212928084,4.92126,0,0,0,0.223694,0,207.7, -0.1, -20.6,0,0,1024,1024,1024,1024,0,0,0,0,210.8,0,0,64,3.906,3.895,0,0,0,0,4.474,105.26,3.9370408084,3.937008,31,Sport,
556700,2022-08-12 04:54:35,0,0,3.937008,,,3.9370408084,4.265092,0.8052984,0,0,0,0,7.799,4.9212928084,4.92126,0,0,-0.447388,0.671082,0,208.2, 0, -5.4,0,0,1024,1024,1024,1024,0,0,0,0,210.8,0,0,64,3.906,3.895,0,0,0,0,4.474,105.26,3.9370408084,3.937008,31,Sport,
556800,2022-08-12 04:54:35,0,0,3.937008,,,3.9370408084,4.265092,1.006623,0,0,0,0,7.8,4.9212928084,4.92126,0,0,-0.447388,0.894776,0,208.7, -0.1, 3.9,0,0,1024,1024,1024,1024,0,0,0,0,210.8,0,0,64,3.903,3.893,0,0,0,0,4.385,105.26,3.9370408084,3.937008,31,Sport,
556900,2022-08-12 04:54:36,0,0,3.937008,,,3.9370408084,4.265092,0.7158208,0,0,0,0,7.8,4.9212928084,4.92126,0,0,-0.223694,0.671082,0,208.4, 0, 4.8,0,0,1058,1090,1024,1024,5,10,0,0,210.8,0,0,64,3.903,3.893,0,0,0,0,4.385,105.26,3.9370408084,3.937008,31,Sport,
557000,2022-08-12 04:54:36,0,0,3.937008,,,3.9370408084,4.265092,0.4921268,0,0,0,0,7.8,4.9212928084,4.92126,0,0,-0.223694,0.447388,0,208.3, 0.3, 4.1,0,0,1024,1438,1024,1024,0,63,0,0,210.8,0,0,64,3.903,3.893,0,0,0,0,4.385,105.26,3.9370408084,3.937008,31,Sport,
557100,2022-08-12 04:54:36,0,0,4.265092,,,4.2651248084,4.265092,0.223694,0,0,0,0,7.8,4.9212928084,4.92126,0,0,0,0.223694,0,208.2, -0.1, 9.2,0,0,1024,1024,1024,1024,0,0,0,0,210.8,0,0,64,3.903,3.893,0,0,0,0,4.385,105.26,4.2651248084,4.265092,31,Sport,
557200,2022-08-12 04:54:36,0,0,4.265092,,,4.2651248084,4.265092,0,0,0,0,0,7.8,4.9212928084,4.92126,0,0,0,0,0,208.7, -0.5, 13.1,0,0,1024,1024,1024,1024,0,0,0,0,210.8,0,0,64,3.903,3.893,0,0,0,0,4.385,105.26,4.2651248084,4.265092,31,Sport,
