time(millisecond),datetime(utc),latitude,longitude,height_above_takeoff(feet),height_above_ground_at_drone_location(feet),ground_elevation_at_drone_location(feet),altitude_above_seaLevel(feet),height_sonar(feet),speed(mph),distance(feet),mileage(feet),satellites,gpslevel,voltage(v),max_altitude(feet),max_ascent(feet),max_speed(mph),max_distance(feet), xSpeed(mph), ySpeed(mph), zSpeed(mph), compass_heading(degrees), pitch(degrees), roll(degrees),isPhoto,isVideo,rc_elevator,rc_aileron,rc_throttle,rc_rudder,rc_elevator(percent),rc_aileron(percent),rc_throttle(percent),rc_rudder(percent),gimbal_heading(degrees),gimbal_pitch(degrees),gimbal_roll(degrees),battery_percent,voltageCell1,voltageCell2,voltageCell3,voltageCell4,voltageCell5,voltageCell6,current(A),battery_temperature(f),altitude(feet),ascent(feet),flycStateRaw,flycState,message
0,2022-10-29 00:13:26,-34.9065153291587,-56.1631027682165,0,0,120.19131519783,120.19131519783,0,0,0,0,17,5,0,120.19131519783,0,0,0,0,0,0,295.1, -8.1, 4.6,0,0,364,364,364,1684,-100,-100,-100,100,305.8,0,0,98,4.316,4.313,0,0,0,0,0,82.94,120.19131519783,0,41,Motors_Started,"Error de calibraci贸n del estabilizador. Reinicia la aeronave o contacta con la Asistencia DJI (Code: 40011)"
100,2022-10-29 00:13:26,-34.9065153691142,-56.1631027971113,0,0,120.19131519783,120.19131519783,0,0,0.0169486225896,0.0169486225896,17,5,0,120.19131519783,0,0,0.0169486225896,0,0,0,294.4, -7.9, 5,0,0,364,364,364,1684,-100,-100,-100,100,305.7,0,0,98,4.316,4.313,0,0,0,0,0,82.94,120.19131519783,0,41,Motors_Started,
200,2022-10-29 00:13:26,-34.9065153962637,-56.1631028248465,0,0,120.19131519783,120.19131519783,0,0,0.0297746728688,0.029870899906,17,5,0,120.19131519783,0,0,0.0297746728688,0,0,0,294.7, -8.2, 4.5,0,0,364,364,364,1684,-100,-100,-100,100,305.5,0,0,98,4.316,4.313,0,0,0,0,0,82.94,120.19131519783,0,41,Motors_Started,
300,2022-10-29 00:13:26,-34.9065153919124,-56.1631028445067,0,0,120.19131519783,120.19131519783,0.328084,0,0.0323306112708,0.035963911912,17,5,0,120.19131519783,0,0,0.0323306112708,0,0,0,295, -8.5, 3.7,0,0,364,364,364,1684,-100,-100,-100,100,305.4,0,0,98,4.316,4.313,0,0,0,0,0,82.94,120.19131519783,0,41,Motors_Started,"Setting new Return-To-Home altitude to 100m (328 ft). Data Recorder File Index is 67. Setting new Maximum Flight Altitude to 120m (394 ft)"
400,2022-10-29 00:13:26,-34.9065153762142,-56.163102810958,0,0,120.19131519783,120.19131519783,0.328084,0,0.0214078418924,0.047520998896,17,5,0,120.19131519783,0,0,0.0323306112708,0,0,0,296.5, -6.9, 4.1,0,0,364,420,364,1611,-100,-92,-100,89,305.9,0,0,98,4.316,4.313,0,0,0,0,0,82.94,120.19131519783,0,41,Motors_Started,
500,2022-10-29 00:13:26,-34.9065152852754,-56.1631027402148,0,0,120.19131519783,120.19131519783,0.328084,0,0.0180704730192,0.0868766432,17,5,0,120.19131519783,0,0,0.0323306112708,0,0,0,297.4, -5.6, 4.3,0,0,1024,1024,816,1024,0,0,-32,0,307,0,0,98,4.316,4.313,0,0,0,0,0,82.94,120.19131519783,0,41,Motors_Started,
600,2022-10-29 00:13:26,-34.9065152242739,-56.1631027051775,0,0,120.19131519783,120.19131519783,0.328084,0,0.042663059108,0.111478678108,17,5,0,120.19131519783,0,0,0.042663059108,0,0,0,297.4, -6.2, 2.9,0,0,1024,1024,1024,890,0,0,0,-20,307.6,0,0,98,4.316,4.313,0,0,0,0,0,82.94,120.19131519783,0,41,Motors_Started,
700,2022-10-29 00:13:26,-34.9065151537948,-56.1631026785548,0,0,120.19131519783,120.19131519783,0.328084,0,0.06937828306,0.138398298392,17,5,0,120.19131519783,0,0,0.06937828306,0,0,0,297.3, -7.5, 1.5,0,0,1024,1024,1149,707,0,0,19,-48,307.6,0,0,98,4.316,4.313,0,0,0,0,0,82.94,120.19131519783,0,41,Motors_Started,
800,2022-10-29 00:13:26,-34.9065150920508,-56.1631026600072,0,0,120.19131519783,120.19131519783,0.328084,0,0.092369097444,0.161599086536,17,5,0,120.19131519783,0,0,0.092369097444,0,0,0,296.8, -7.3, 1.2,0,0,1024,1024,1348,704,0,0,49,-48,307.5,0,0,98,4.316,4.313,0,0,0,0,0,82.94,120.19131519783,0,41,Motors_Started,"Aeronave en Zona de altitud restringida (150). Vuela con precauci贸n (Code: 190001)"
900,2022-10-29 00:13:27,-34.9065149054962,-56.1631026745068,-0.328084,-0.328084,120.19131519783,119.86323119783,0.328084,0,0.157095477468,0.22980151654,17,5,0,120.19131519783,0,0,0.157095477468,0,0,0,297.2, -7.3, -0.3,0,0,1024,1024,1336,733,0,0,47,-44,307.2,0,0,98,4.316,4.313,0,0,0,0,0,82.94,119.86323119783,-0.328084,41,Motors_Started,
1000,2022-10-29 00:13:27,-34.9065148253116,-56.1631027339365,-0.328084,-0.328084,120.19131519783,119.86323119783,0.328084,0,0.18411417912,0.26403708194,17,5,0,120.19131519783,0,0,0.18411417912,0,0,0,299.2, -4.5, -0.6,0,0,1024,1024,1268,738,0,0,37,-43,308.1,0,0,98,4.316,4.313,0,0,0,0,0,82.94,119.86323119783,-0.328084,41,Motors_Started,
1100,2022-10-29 00:13:27,-34.9065147396555,-56.1631027744687,-0.328084,-0.328084,120.19131519783,119.86323119783,0.328084,0,0.215087933392,0.297559392724,17,5,0,120.19131519783,0,0,0.215087933392,0,0,0,301.1, -2.2, -0.4,0,0,1024,1024,1233,753,0,0,32,-41,310.2,0,0,98,4.316,4.313,0,0,0,0,0,82.94,119.86323119783,-0.328084,10,Assisted_Takeoff,
1200,2022-10-29 00:13:27,-34.9065146553347,-56.1631027825438,-0.328084,-0.328084,120.19131519783,119.86323119783,0.328084,0,0.245881569548,0.32841864568,17,5,8.675,120.19131519783,0,0,0.245881569548,0,0,0,300.2, -2.4, -1,0,0,1024,1024,1233,753,0,0,32,-41,310.8,0,0,98,4.316,4.313,0,0,0,0,0.574,82.94,119.86323119783,-0.328084,10,Assisted_Takeoff,
1300,2022-10-29 00:13:27,-34.9065146184406,-56.1631028153455,-0.328084,-0.328084,120.19131519783,119.86323119783,0.328084,0,0.25968832852,0.3450787512,17,5,8.675,120.19131519783,0,0,0.25968832852,0,0,0,299.1, -2.6, -0.8,0,0,1024,1024,1237,753,0,0,32,-41,309.9,0,0,98,4.316,4.313,0,0,0,0,0.574,82.94,119.86323119783,-0.328084,10,Assisted_Takeoff,
1400,2022-10-29 00:13:27,-34.9065145765505,-56.1631028068944,-0.328084,-0.328084,120.19131519783,119.86323119783,0.328084,0,0.274832357876,0.36056759684,17,5,8.675,120.19131519783,0,0,0.274832357876,0,0,0,298.5, -1.6, -0.4,0,0,1024,1024,1203,761,0,0,27,-40,309.2,0,0,98,4.316,4.313,0,0,0,0,0.574,82.94,119.86323119783,-0.328084,10,Assisted_Takeoff,
1500,2022-10-29 00:13:27,-34.9065145653859,-56.1631028234781,-0.328084,-0.328084,120.19131519783,119.86323119783,0.328084,0,0.279152239904,0.36698820072,17,5,8.675,120.19131519783,0,0,0.279152239904,0,0,0.223694,297.6, -2.6, 1,0,0,1024,1024,1167,764,0,0,22,-39,308.3,0,0,98,4.316,4.313,0,0,0,0,0.574,82.94,119.86323119783,-0.328084,10,Assisted_Takeoff,
1600,2022-10-29 00:13:27,-34.9065145255672,-56.1631027967195,-0.328084,-0.328084,120.19131519783,119.86323119783,0.328084,0,0.293313985764,0.38357612776,17,5,8.675,120.19131519783,0,0,0.293313985764,0,0,0,297.5, -2.5, 1.4,0,0,1024,1024,1137,762,0,0,17,-40,307.9,0,0,98,4.316,4.313,0,0,0,0,0.574,82.94,119.86323119783,-0.328084,10,Assisted_Takeoff,
1700,2022-10-29 00:13:27,-34.9065144617843,-56.1631026405821,-0.328084,-0.36089239999999,120.22412359783,119.86323119783,0.328084,0,0.318756899964,0.43576773048,17,5,8.675,120.19131519783,0,0,0.318756899964,0,0,0,297, -2, 1.1,0,0,1024,1024,1134,761,0,0,17,-40,307.7,0,0,98,4.316,4.313,0,0,0,0,0.574,82.94,119.86323119783,-0.328084,10,Assisted_Takeoff,
1800,2022-10-29 00:13:28,-34.9065143797563,-56.1631025481887,-0.328084,-0.36089239999999,120.22412359783,119.86323119783,0.328084,0,0.35258859396,0.47651248244,16,5,8.675,120.19131519783,0,0,0.35258859396,0,0,0,294.4, -2.2, 0.2,0,0,1024,1024,1134,761,0,0,17,-40,305.9,0,0,98,4.316,4.313,0,0,0,0,0.574,82.94,119.86323119783,-0.328084,10,Assisted_Takeoff,
1900,2022-10-29 00:13:28,-34.9065142981127,-56.1631025085132,-0.328084,-0.36089239999999,120.22412359783,119.86323119783,0.328084,0.223694,0.38411746636,0.50857613176,16,5,8.675,120.19131519783,0,0.223694,0.38411746636,0.223694,0,0,291.5, -2.7, 0.2,0,0,1024,1024,1126,759,0,0,15,-40,303,0,0,98,4.316,4.313,0,0,0,0,0.574,82.94,119.86323119783,-0.328084,10,Assisted_Takeoff,
2000,2022-10-29 00:13:28,-34.9065141842844,-56.1631025240627,-0.328084,-0.36089239999999,120.22412359783,119.86323119783,0.328084,0.223694,0.42404528916,0.55036747168,16,5,8.675,120.19131519783,0,0.223694,0.42404528916,0.223694,0,-0.447388,289.3, -2.3, 0,0,0,1024,1024,1126,759,0,0,15,-40,300.5,0,0,98,4.316,4.313,0,0,0,0,0.574,82.94,119.86323119783,-0.328084,6,P-GPS,"Error de calibraci贸n del estabilizador. Reinicia la aeronave o contacta con la Asistencia DJI (Code: 40011)"
2100,2022-10-29 00:13:28,-34.9065140234333,-56.1631025939022,-0.328084,-0.36089239999999,120.22412359783,119.86323119783,0.328084,0.223694,0.47923886048,0.6126640616,16,5,8.642,120.19131519783,0,0.223694,0.47923886048,0.223694,0,-0.894776,287.6, 0, -0.6,0,0,1024,1024,1057,870,0,0,5,-23,298.9,0,0,98,4.251,4.239,0,0,0,0,1.096,82.94,119.86323119783,-0.328084,6,P-GPS,
2200,2022-10-29 00:13:28,-34.9065138356867,-56.1631027231715,0,-0.032808399999993,120.22412359783,120.19131519783,0.656168,0.3131716,0.54505907256,0.69132876228,17,5,8.642,120.19131519783,0,0.3131716,0.54505907256,0.223694,-0.223694,-1.342164,286.1, 0.8, -0.9,0,0,1024,1024,1024,1024,0,0,0,0,297.3,0,0,98,4.251,4.239,0,0,0,0,1.096,82.94,120.19131519783,0,6,P-GPS,
2300,2022-10-29 00:13:28,-34.9065136873485,-56.1631027635417,0,-0.032808399999993,120.22412359783,120.19131519783,1.312336,0.223694,0.5990157672,0.74678151996,17,5,8.642,120.19131519783,0,0.3131716,0.5990157672,0,-0.223694,-1.565858,286, 1.2, -0.7,0,0,1024,1024,1024,1024,0,0,0,0,297,0,0,98,4.251,4.239,0,0,0,0,1.096,82.94,120.19131519783,0,6,P-GPS,
2400,2022-10-29 00:13:28,-34.9065135672475,-56.1631028454312,0,-0.032808399999993,120.22412359783,120.19131519783,1.64042,0,0.64324805208,0.79698493364,18,5,8.642,120.19131519783,0,0.3131716,0.64324805208,0,0,-1.342164,286.4, 1.4, -0.5,0,0,1024,1024,1024,1024,0,0,0,0,296.9,0,0,98,4.251,4.239,0,0,0,0,1.096,82.94,120.19131519783,0,6,P-GPS,"Error de calibraci贸n del estabilizador. Reinicia la aeronave o contacta con la Asistencia DJI (Code: 40011)"
2500,2022-10-29 00:13:28,-34.9065134626297,-56.1631030206021,0.328084,0.2296588,120.28974039783,120.51939919783,1.968504,0,0.68517718728,0.86182417456,18,5,8.642,120.51939919783,0.328084,0.3131716,0.68517718728,0,0,-1.11847,286.5, 1.5, -0.5,0,0,1024,1024,1024,1024,0,0,0,0,296.9,0,0,98,4.251,4.239,0,0,0,0,1.096,82.94,120.51939919783,0.328084,6,P-GPS,
2600,2022-10-29 00:13:28,-34.9065133390243,-56.1631033474445,0.328084,0.2296588,120.28974039783,120.51939919783,2.296588,0,0.74649608688,0.96951446672,18,5,8.642,120.51939919783,0.328084,0.3131716,0.74649608688,0,0,-0.671082,286.5, 1.9, 0,0,0,1024,1024,1024,1024,0,0,0,0,296.9,0,0,98,4.251,4.239,0,0,0,0,1.096,82.94,120.51939919783,0.328084,6,P-GPS,
2700,2022-10-29 00:13:28,-34.9065133559666,-56.1631035524451,0.656168,0.59055119999999,120.25693199783,120.84748319783,2.296588,0,0.75719162528,1.03116145032,18,5,8.642,120.84748319783,0.656168,0.3131716,0.75719162528,0,0,-0.447388,286.5, 1.6, -0.1,0,0,1024,1024,1024,1024,0,0,0,0,296.9,0,0,98,4.251,4.239,0,0,0,0,1.096,82.94,120.84748319783,0.656168,6,P-GPS,
2800,2022-10-29 00:13:29,-34.90651335355,-56.163103682665,0.656168,0.59055119999999,120.25693199783,120.84748319783,2.296588,0,0.77098427664,1.07013454868,18,5,8.642,120.84748319783,0.656168,0.3131716,0.77098427664,0,0,-0.223694,286.5, 1.6, 0,0,0,1024,1024,1024,1024,0,0,0,0,296.9,0,0,98,4.251,4.239,0,0,0,0,1.096,82.94,120.84748319783,0.656168,6,P-GPS,
2900,2022-10-29 00:13:29,-34.9065132905944,-56.1631036772747,0.656168,0.59055119999999,120.25693199783,120.84748319783,2.296588,0,0.79194228256,1.09316276464,18,5,8.642,120.84748319783,0.656168,0.3131716,0.79194228256,0,0,0,286.5, 1.6, 0,0,0,1024,1024,1024,1024,0,0,0,0,296.9,0,0,98,4.251,4.239,0,0,0,0,1.096,82.94,120.84748319783,0.656168,6,P-GPS,
3000,2022-10-29 00:13:29,-34.9065133366272,-56.1631037883045,0.656168,0.59055119999999,120.25693199783,120.84748319783,2.296588,0,0.78844818796,1.13038717528,19,5,8.642,120.84748319783,0.656168,0.3131716,0.79194228256,0,0,0,286.5, 1.6, -0.1,0,0,1024,1024,1024,1024,0,0,0,0,297,0,0,98,4.251,4.239,0,0,0,0,1.096,82.94,120.84748319783,0.656168,6,P-GPS,
3100,2022-10-29 00:13:29,-34.9065133688118,-56.1631038530253,0.656168,0.59055119999999,120.25693199783,120.84748319783,2.296588,0,0.78543637684,1.1530348138,19,5,8.642,120.84748319783,0.656168,0.3131716,0.79194228256,0,0,0,286.5, 1.5, -0.3,0,0,1024,1024,1024,1024,0,0,0,0,297,0,0,98,4.251,4.239,0,0,0,0,1.096,82.94,120.84748319783,0.656168,6,P-GPS,
3200,2022-10-29 00:13:29,-34.9065133973877,-56.1631038957668,0.656168,0.59055119999999,120.25693199783,120.84748319783,2.296588,0,0.78139110112,1.16953415816,18,5,8.59,120.84748319783,0.656168,0.3131716,0.79194228256,0,0,0,286.5, 1.1, -0.2,0,0,1024,1024,1024,1024,0,0,0,0,296.9,0,0,98,4.265,4.257,0,0,0,0,2.085,82.94,120.84748319783,0.656168,6,P-GPS,
3300,2022-10-29 00:13:29,-34.9065134043314,-56.1631039133795,0.656168,0.59055119999999,120.25693199783,120.84748319783,2.296588,0,0.78140094364,1.17538061504,18,5,8.59,120.84748319783,0.656168,0.3131716,0.79194228256,0,0,0,286.5, 0.8, -0.1,0,0,1024,1024,1555,1024,0,0,80,0,296.9,0,0,98,4.265,4.257,0,0,0,0,2.085,82.94,120.84748319783,0.656168,6,P-GPS,
3400,2022-10-29 00:13:29,-34.9065134621412,-56.1631038328062,0.656168,0.59055119999999,120.25693199783,120.84748319783,2.296588,0,0.75197837052,1.20741145596,19,5,8.59,120.84748319783,0.656168,0.3131716,0.79194228256,0,0,0,286.5, 0.5, 0.1,0,0,1024,1024,1684,1024,0,0,100,0,296.9,0,0,98,4.265,4.257,0,0,0,0,2.085,82.94,120.84748319783,0.656168,6,P-GPS,
3500,2022-10-29 00:13:29,-34.9065134393886,-56.1631037090474,0.656168,0.59055119999999,120.25693199783,120.84748319783,2.296588,0,0.7447342758,1.24536093224,19,5,8.59,120.84748319783,0.656168,0.3131716,0.79194228256,0,0,-0.223694,286.5, 0, 0.2,0,0,1024,1024,1684,1024,0,0,100,0,296.9,0,0,98,4.265,4.257,0,0,0,0,2.085,82.94,120.84748319783,0.656168,6,P-GPS,
3600,2022-10-29 00:13:29,-34.9065134035107,-56.1631036077903,0.656168,0.59055119999999,120.25693199783,120.84748319783,2.624672,0,0.74613191364,1.27836618264,19,5,8.59,120.84748319783,0.656168,0.3131716,0.79194228256,0,0,-0.894776,286.5, 0, 0.1,0,0,1024,1024,1275,1024,0,0,38,0,296.9,0,0,98,4.265,4.257,0,0,0,0,2.085,82.94,120.84748319783,0.656168,6,P-GPS,
3700,2022-10-29 00:13:29,-34.9065133454794,-56.1631035486061,0.984252,0.91863519999999,120.25693199783,121.17556719783,2.624672,0,0.76047902696,1.30596788956,19,5,8.59,121.17556719783,0.984252,0.3131716,0.79194228256,0,0,-1.565858,286.4, 0.1, 0,0,0,1024,1024,1024,1024,0,0,0,0,296.9,0,0,98,4.265,4.257,0,0,0,0,2.085,82.94,121.17556719783,0.984252,6,P-GPS,
3800,2022-10-29 00:13:29,-34.9065132960269,-56.1631035166243,1.312336,1.2467192,120.25693199783,121.50365119783,2.952756,0,0.77484910616,1.32639111856,18,5,8.59,121.50365119783,1.312336,0.3131716,0.79194228256,0,0,-1.789552,286.5, 0.6, 0,0,0,1672,1024,1024,1024,98,0,0,0,296.9,0,0,98,4.265,4.257,0,0,0,0,2.085,82.94,121.50365119783,1.312336,6,P-GPS,
3900,2022-10-29 00:13:30,-34.9065132163829,-56.1631035487314,1.64042,1.5748032,120.25693199783,121.83173519783,3.28084,0,0.80544622,1.35699479408,18,5,8.59,121.83173519783,1.64042,0.3131716,0.80544622,0,0,-1.565858,286.5, 0.3, 0,0,0,1684,1024,1024,1024,100,0,0,0,296.9,0,0,98,4.265,4.257,0,0,0,0,2.085,82.94,121.83173519783,1.64042,6,P-GPS,
4000,2022-10-29 00:13:30,-34.9065132094653,-56.1631035478069,1.64042,1.5748032,120.25693199783,121.83173519783,3.608924,0,0.80778217808,1.35953416424,18,5,8.59,121.83173519783,1.64042,0.3131716,0.80778217808,0,0,-1.11847,286.6, -8.7, 0,0,0,1684,1024,1024,1024,100,0,0,0,296.9,0,0,98,4.265,4.257,0,0,0,0,2.085,82.94,121.83173519783,1.64042,6,P-GPS,
4100,2022-10-29 00:13:30,-34.9065132170408,-56.1631036037109,1.968504,1.9028872,120.25693199783,122.15981919783,3.608924,0.223694,0.8101378212,1.37648954536,18,5,8.59,122.15981919783,1.968504,0.3131716,0.8101378212,0,-0.223694,-0.671082,286.6, -16, 0,0,0,1684,1024,1024,1024,100,0,0,0,297,0,0,98,4.265,4.257,0,0,0,0,2.085,82.94,122.15981919783,1.968504,6,P-GPS,
4200,2022-10-29 00:13:30,-34.9065131721674,-56.1631038454673,1.968504,1.9028872,120.25693199783,122.15981919783,3.608924,0.9171454,0.8504265364,1.45065293356,18,5,8.529,122.15981919783,1.968504,0.9171454,0.8504265364,0.223694,-0.894776,-0.223694,286.4, -18.4, 0,0,0,1684,1024,1024,1024,100,0,0,0,296.9,0,0,98,4.262,4.252,0,0,0,0,4.357,82.94,122.15981919783,1.968504,6,P-GPS,
4300,2022-10-29 00:13:30,-34.9065132273651,-56.1631042102198,1.968504,1.9028872,120.25693199783,122.15981919783,3.608924,1.5882274,0.87988519876,1.56163390824,18,5,8.529,122.15981919783,1.968504,1.5882274,0.87988519876,0.223694,-1.565858,0,286.1, -18.4, 0,0,0,1684,1024,1024,1024,100,0,0,0,296.9,0,0,98,4.262,4.252,0,0,0,0,4.357,82.94,122.15981919783,1.968504,6,P-GPS,
4400,2022-10-29 00:13:30,-34.9065131056357,-56.1631050305408,1.968504,1.9356956,120.22412359783,122.15981919783,3.608924,2.2816788,1.05656499444,1.81106633092,18,5,8.529,122.15981919783,1.968504,2.2816788,1.05656499444,0.447388,-2.23694,0,285.8, -17.5, 0,0,0,1684,1024,1590,1024,100,0,86,0,296.9,0,0,98,4.262,4.252,0,0,0,0,4.357,82.94,122.15981919783,1.968504,6,P-GPS,
4500,2022-10-29 00:13:30,-34.9065129851178,-56.1631062377817,1.968504,1.968504,120.19131519783,122.15981919783,3.608924,2.9527608,1.3450295706,2.17494757616,18,5,8.529,122.15981919783,1.968504,2.9527608,1.3450295706,0.447388,-2.908022,0,285.4, -16.7, 0,0,0,1684,1024,1684,1024,100,0,100,0,296.9,0,0,98,4.262,4.252,0,0,0,0,4.357,82.94,122.15981919783,1.968504,6,P-GPS,
4600,2022-10-29 00:13:30,-34.9065128244881,-56.163107725718,1.968504,2.0341208,120.12569839783,122.15981919783,3.608924,3.6014734,1.74222118436,2.62399286612,18,5,8.529,122.15981919783,1.968504,3.6014734,1.74222118436,0.447388,-3.579104,-0.223694,285.1, -15.5, 0,0,0,1684,1024,1684,1024,100,0,100,0,296.9,0,0,98,4.262,4.252,0,0,0,0,4.357,82.94,122.15981919783,1.968504,6,P-GPS,
4700,2022-10-29 00:13:30,-34.9065130668787,-56.163109887015,2.296588,2.4278216,120.06008159783,122.48790319783,3.937008,4.2949248,2.2843340626,3.2766897374,18,5,8.529,122.48790319783,2.296588,4.2949248,2.2843340626,0.671082,-4.250186,-1.11847,284.8, -14, 0.2,0,0,1684,1024,1684,1024,100,0,100,0,296.9,0,0,98,4.262,4.252,0,0,0,0,4.357,82.94,122.48790319783,2.296588,6,P-GPS,
4800,2022-10-29 00:13:30,-34.9065128307153,-56.1631121621153,2.296588,2.4934384,119.99446479783,122.48790319783,4.265092,4.9660068,2.95485245676,3.9628610192,18,5,8.529,122.48790319783,2.296588,4.9660068,2.95485245676,0.671082,-4.921268,-1.789552,284.4, -13.2, 0,0,0,1684,1024,1684,1024,100,0,100,0,296.9,0,0,98,4.262,4.252,0,0,0,0,4.357,82.94,122.48790319783,2.296588,6,P-GPS,
4900,2022-10-29 00:13:31,-34.9065125078925,-56.1631150552626,2.624672,2.8871392,119.92884799783,122.81598719783,4.593176,5.4357642,3.8177822744,4.8364830944,18,5,8.529,122.81598719783,2.624672,5.4357642,3.8177822744,0.894776,-5.368656,-2.684328,284.2, -12.5, -0.2,0,0,1684,1024,1684,1024,100,0,100,0,296.9,0,0,98,4.262,4.252,0,0,0,0,4.357,82.94,122.81598719783,2.624672,6,P-GPS,
5000,2022-10-29 00:13:31,-34.9065121598159,-56.1631180674416,3.28084,3.608924,119.86323119783,123.47215519783,4.92126,5.8831522,4.721456844,5.7466537272,18,5,8.529,123.47215519783,3.28084,5.8831522,4.721456844,0.894776,-5.816044,-3.35541,283.9, -12.1, -0.3,0,0,1684,1024,1684,1024,100,0,100,0,296.9,0,0,98,4.262,4.252,0,0,0,0,4.357,82.94,123.47215519783,3.28084,6,P-GPS,
5100,2022-10-29 00:13:31,-34.9065117193153,-56.1631223759695,3.937008,4.3635172,119.76480599783,124.12832319783,5.577428,6.5542342,6.0128282764,7.045767942,18,5,8.529,124.12832319783,3.937008,6.5542342,6.0128282764,0.894776,-6.487126,-4.250186,283.6, -11.7, 0,0,0,1684,1024,1684,1024,100,0,100,0,296.9,0,0,98,4.262,4.252,0,0,0,0,4.357,82.94,124.12832319783,3.937008,6,P-GPS,
5200,2022-10-29 00:13:31,-34.9065113644448,-56.1631258848342,4.593176,5.1181104,119.66638079783,124.78449119783,6.233596,7.0016222,7.0663388088,8.1036091832,19,5,8.529,124.78449119783,4.593176,7.0016222,7.0663388088,0.894776,-6.934514,-4.921268,283.4, -11.5, -0.1,0,0,1684,1024,1684,1024,100,0,100,0,296.9,0,0,98,4.262,4.252,0,0,0,0,4.357,82.94,124.78449119783,4.593176,6,P-GPS,
5300,2022-10-29 00:13:31,-34.9065110815515,-56.1631298143241,5.577428,6.2007876,119.56795559783,125.76874319783,7.217848,7.2476856,8.2394687676,9.2838585648,19,5,8.496,125.76874319783,5.577428,7.2476856,8.2394687676,1.11847,-7.158208,-5.59235,283.1, -11.5, 0,0,0,1684,1024,1684,1024,100,0,100,0,296.9,0,0,98,4.202,4.188,0,0,0,0,4.303,82.94,125.76874319783,5.577428,6,P-GPS,
5400,2022-10-29 00:13:31,-34.9065107943135,-56.163133629201,6.233596,6.9881892,119.43672199783,126.42491119783,8.2021,7.6950736,9.380905812,10.430118444,19,5,8.496,126.42491119783,6.233596,7.6950736,9.380905812,1.11847,-7.605596,-6.039738,282.9, -11.8, 0,0,0,1684,1024,1684,1024,100,0,100,0,296.9,0,0,98,4.202,4.188,0,0,0,0,4.303,82.94,126.42491119783,6.233596,6,P-GPS,
5500,2022-10-29 00:13:31,-34.9065104788774,-56.1631375991081,7.217848,8.038058,119.37110519783,127.40916319783,9.186352,8.1200922,10.57086648,11.6234911856,19,5,8.496,127.40916319783,7.217848,8.1200922,10.57086648,1.11847,-8.052984,-6.263432,282.8, -12, 0.1,0,0,1684,1024,1684,1024,100,0,100,0,296.9,0,0,98,4.202,4.188,0,0,0,0,4.303,82.94,127.40916319783,7.217848,6,P-GPS,
5600,2022-10-29 00:13:31,-34.9065105753008,-56.1631416329682,8.2021,9.2191604,119.17425479783,128.39341519783,10.170604,8.3437862,11.7572838408,12.8309715392,19,5,8.496,128.39341519783,8.2021,8.3437862,11.7572838408,1.11847,-8.276678,-6.487126,282.5, -12.3, 0.1,0,0,1684,1024,1684,1024,100,0,100,0,296.9,0,0,98,4.202,4.188,0,0,0,0,4.303,82.94,128.39341519783,8.2021,6,P-GPS,
5700,2022-10-29 00:13:31,-34.9065101962577,-56.1631461509025,9.186352,10.2690292,119.10863799783,129.37766719783,11.154856,8.835913,13.1148626244,14.1898298504,19,5,8.496,129.37766719783,9.186352,8.835913,13.1148626244,1.342164,-8.724066,-6.487126,282.3, -12.3, 0.1,0,0,1684,1024,1684,1024,100,0,100,0,296.9,0,0,98,4.202,4.188,0,0,0,0,4.303,82.94,129.37766719783,9.186352,6,P-GPS,
5800,2022-10-29 00:13:31,-34.9065098127786,-56.1631506543764,10.498688,11.7125988,118.97740439783,130.69000319783,12.139108,9.0372376,14.4686028252,15.5445543032,19,5,8.496,130.69000319783,10.498688,9.0372376,14.4686028252,1.342164,-8.94776,-6.487126,282.1, -12.6, 0.3,0,0,1684,1024,1684,1024,100,0,100,0,296.9,0,0,98,4.202,4.188,0,0,0,0,4.303,82.94,130.69000319783,10.498688,6,P-GPS,"Punto de origen actualizado. Altitud de RPO establecida en 100m (Code: 3000001)"
5900,2022-10-29 00:13:32,-34.9065093737566,-56.1631555982949,11.48294,12.8280844,118.84617079783,131.67425519783,13.12336,9.2609316,15.9558404056,17.03248086,19,5,8.496,131.67425519783,11.48294,9.2609316,15.9558404056,1.342164,-9.171454,-6.487126,282, -12.8, 0.3,0,0,1684,1024,1684,1024,100,0,100,0,296.9,0,0,98,4.202,4.188,0,0,0,0,4.303,82.94,131.67425519783,11.48294,6,P-GPS,
6000,2022-10-29 00:13:32,-34.9065093329609,-56.1631607560125,12.467192,13.94357,118.71493719783,132.65850719783,14.107612,9.618842,17.4877958352,18.5757551876,19,5,8.496,132.65850719783,12.467192,9.618842,17.4877958352,0,-9.618842,-6.487126,270.8, -13.4, 0.4,0,0,1684,1024,1684,1024,100,0,100,0,296.9,0,0,98,4.202,4.188,0,0,0,0,4.303,82.94,132.65850719783,12.467192,6,P-GPS,
6100,2022-10-29 00:13:32,-34.9065090587374,-56.1631656517012,13.451444,15.091864,118.55089519783,133.64275919783,15.091864,10.06623,18.9538391892,20.0440295128,19,5,8.496,133.64275919783,13.451444,10.06623,18.9538391892,0,-10.06623,-6.487126,270.8, -13.2, 0.2,0,0,1684,1024,1684,1024,100,0,100,0,296.9,0,0,98,4.202,4.188,0,0,0,0,4.303,82.94,133.64275919783,13.451444,6,P-GPS,
6200,2022-10-29 00:13:32,-34.9065087738639,-56.1631704738105,14.435696,16.2073496,118.41966159783,134.62701119783,16.4042,10.289924,20.3987539336,21.4905518688,18,5,8.496,134.62701119783,14.435696,10.289924,20.3987539336,0,-10.289924,-6.487126,270.8, -13.4, 0.1,0,0,1684,1024,1684,1024,100,0,100,0,296.9,0,0,98,4.202,4.188,0,0,0,0,4.303,82.94,134.62701119783,14.435696,6,P-GPS,
6300,2022-10-29 00:13:32,-34.9065084255984,-56.1631757648166,15.748032,17.6509192,118.28842799783,135.93934719783,17.388452,10.513618,21.9859259004,23.0787737044,18,5,8.402,135.93934719783,15.748032,10.513618,21.9859259004,0,-10.513618,-6.487126,270.8, -13.2, 0.1,0,0,1684,1024,1684,1024,100,0,100,0,296.9,0,0,98,4.215,4.205,0,0,0,0,6.529,83.12,135.93934719783,15.748032,6,P-GPS,
6400,2022-10-29 00:13:32,-34.9065083018888,-56.1631804560154,16.732284,18.7664048,118.15719439783,136.92359919783,18.700788,10.737312,23.3857947116,24.4831372664,18,5,8.402,136.92359919783,16.732284,10.737312,23.3857947116,0,-10.737312,-6.487126,270.8, -13.1, 0,0,0,1684,1024,1684,1024,100,0,100,0,296.9,0,0,98,4.215,4.205,0,0,0,0,6.529,83.12,136.92359919783,16.732284,6,P-GPS,
6500,2022-10-29 00:13:32,-34.9065080129898,-56.1631858014117,17.716536,19.9146988,117.99315239783,137.90785119783,20.013124,10.961006,24.987205524,26.0859916484,18,5,8.402,137.90785119783,17.716536,10.961006,24.987205524,0,-10.961006,-6.487126,270.8, -13.2, 0,0,0,1684,1024,1684,1024,100,0,100,0,296.9,0,0,98,4.215,4.205,0,0,0,0,6.529,83.12,137.90785119783,17.716536,6,P-GPS,
6600,2022-10-29 00:13:32,-34.9065077158639,-56.1631910768634,18.700788,21.0629928,117.82911039783,138.89210319783,20.997376,11.1847,26.5682751284,27.6681767384,18,5,8.402,138.89210319783,18.700788,11.1847,26.5682751284,0,-11.1847,-6.487126,270.8, -13.4, 0,0,0,1684,1024,1684,1024,100,0,100,0,296.9,0,0,98,4.215,4.205,0,0,0,0,6.529,83.12,138.89210319783,18.700788,6,P-GPS,
6700,2022-10-29 00:13:32,-34.9065073520695,-56.1631969160626,19.68504,22.1784784,117.69787679783,139.87635519783,21.981628,11.408394,28.3197515624,29.4203421488,18,5,8.402,139.87635519783,19.68504,11.408394,28.3197515624,0,-11.408394,-6.487126,270.7, -13.6, -0.2,0,0,1684,1024,1684,1024,100,0,100,0,297,0,0,98,4.215,4.205,0,0,0,0,6.529,83.12,139.87635519783,19.68504,6,P-GPS,
6800,2022-10-29 00:13:33,-34.9065071488136,-56.1632015780883,20.997376,23.6548564,117.53383479783,141.18869119783,22.637796,11.632088,29.7149943892,30.8172253956,18,5,8.402,141.18869119783,20.997376,11.632088,29.7149943892,0.223694,-11.632088,-6.487126,270.7, -13.7, -0.2,0,0,1684,1024,1684,1024,100,0,100,0,296.9,0,0,98,4.215,4.205,0,0,0,0,6.529,83.12,141.18869119783,20.997376,6,P-GPS,
6900,2022-10-29 00:13:33,-34.9065068326805,-56.1632072137598,21.981628,24.770342,117.40260119783,142.17294319783,25.590552,11.855782,31.4043317136,32.5074157384,18,5,8.402,142.17294319783,21.981628,11.855782,31.4043317136,0.223694,-11.855782,-6.487126,270.8, -13.7, -0.3,0,0,1684,1024,1684,1024,100,0,100,0,297,0,0,98,4.215,4.205,0,0,0,0,6.529,83.12,142.17294319783,21.981628,6,P-GPS,
7000,2022-10-29 00:13:33,-34.906506527914,-56.1632127222474,22.96588,25.9514444,117.20575079783,143.15719519783,26.574804,12.079476,33.055447252,34.159449912,18,5,8.402,143.15719519783,22.96588,12.079476,33.055447252,0.223694,-12.079476,-6.487126,270.8, -13.8, -0.5,0,0,1684,1024,1684,1024,100,0,100,0,297,0,0,98,4.215,4.205,0,0,0,0,6.529,83.12,143.15719519783,22.96588,6,P-GPS,
7100,2022-10-29 00:13:33,-34.9065061937508,-56.1632187544377,23.950132,27.06693,117.07451719783,144.14144719783,27.559056,12.30317,34.86384626,35.968177004,18,5,8.402,144.14144719783,23.950132,12.30317,34.86384626,0.223694,-12.30317,-6.487126,270.7, -13.8, -0.4,0,0,1684,1024,1684,1024,100,0,100,0,297,0,0,98,4.215,4.205,0,0,0,0,6.529,83.12,144.14144719783,23.950132,6,P-GPS,
7200,2022-10-29 00:13:33,-34.906505898097,-56.1632246718323,24.934384,28.2480324,116.87766679783,145.12569919783,28.543308,12.526864,36.636484112,37.742127192,18,5,8.402,145.12569919783,24.934384,12.526864,36.636484112,0.223694,-12.526864,-6.487126,270.8, -13.7, -0.3,0,0,1684,1024,1684,1024,100,0,100,0,296.9,0,0,98,4.215,4.205,0,0,0,0,6.529,83.12,145.12569919783,24.934384,6,P-GPS,
7300,2022-10-29 00:13:33,-34.9065055845238,-56.1632316036058,25.918636,29.4291348,116.68081639783,146.10995119783,29.199476,12.750558,38.71227158,39.819226996,18,5,8.402,146.10995119783,25.918636,12.750558,38.71227158,0.223694,-12.750558,-6.487126,270.8, -13.7, -0.5,0,0,1684,1024,1684,1024,100,0,100,0,296.9,0,0,98,4.215,4.205,0,0,0,0,6.529,83.12,146.10995119783,25.918636,6,P-GPS,
7400,2022-10-29 00:13:33,-34.9065053112709,-56.1632378887902,26.902888,30.5774288,116.51677439783,147.09420319783,30.183728,12.974252,40.594161404,41.702429156,18,5,8.41,147.09420319783,26.902888,12.974252,40.594161404,0.223694,-12.974252,-6.487126,270.8, -13.4, -0.4,0,0,1684,1024,1684,1024,100,0,100,0,297,0,0,97,4.206,4.195,0,0,0,0,5.774,83.12,147.09420319783,26.902888,6,P-GPS,
7500,2022-10-29 00:13:33,-34.9065050097156,-56.1632444726796,28.215224,32.0538068,116.35273239783,148.40653919783,30.839896,13.197946,42.565946244,43.675526332,18,5,8.41,148.40653919783,28.215224,13.197946,42.565946244,0.223694,-13.197946,-6.487126,270.8, -13, -0.7,0,0,1684,1024,1684,1024,100,0,100,0,297,0,0,97,4.206,4.195,0,0,0,0,5.774,83.12,148.40653919783,28.215224,6,P-GPS,
7600,2022-10-29 00:13:33,-34.9065047280795,-56.1632507672397,29.199476,33.2677176,116.12307359783,149.39079119783,31.824148,13.197946,44.451116908,45.561681248,18,5,8.41,149.39079119783,29.199476,13.197946,44.451116908,0.223694,-13.197946,-6.71082,270.8, -13.4, -0.5,0,0,1684,1024,1684,1024,100,0,100,0,296.9,0,0,97,4.206,4.195,0,0,0,0,5.774,83.12,149.39079119783,29.199476,6,P-GPS,
7700,2022-10-29 00:13:33,-34.9065042839637,-56.1632567918746,30.183728,34.3832032,115.99183999783,150.37504319783,32.8084,13.42164,46.261156336,47.371720676,18,5,8.41,150.37504319783,30.183728,13.42164,46.261156336,0.223694,-13.42164,-6.71082,270.9, -14, -0.7,0,0,1684,1024,1684,1024,100,0,100,0,296.9,0,0,97,4.206,4.195,0,0,0,0,5.774,83.12,150.37504319783,30.183728,6,P-GPS,
7800,2022-10-29 00:13:34,-34.9065040098315,-56.1632631453786,31.16798,35.5643056,115.79498959783,151.35929519783,33.464568,13.42164,48.163387368,49.275264044,18,5,8.41,151.35929519783,31.16798,13.42164,48.163387368,0.223694,-13.42164,-6.71082,270.9, -13.7, -0.7,0,0,1684,1024,1684,1024,100,0,100,0,296.9,0,0,97,4.206,4.195,0,0,0,0,5.774,83.12,151.35929519783,31.16798,6,P-GPS,
7900,2022-10-29 00:13:34,-34.9065037615784,-56.1632699627507,32.152232,36.745408,115.59813919783,152.34354719783,34.44882,13.645334,50.203741764,51.31725886,18,5,8.41,152.34354719783,32.152232,13.645334,50.203741764,0.223694,-13.645334,-6.71082,270.9, -13.9, -0.7,0,0,1684,1024,1684,1024,100,0,100,0,296.9,0,0,97,4.206,4.195,0,0,0,0,5.774,83.12,152.34354719783,32.152232,6,P-GPS,
8000,2022-10-29 00:13:34,-34.9065035382471,-56.1632765684418,33.136484,37.9593188,115.36848039783,153.32779919783,35.433072,13.869028,52.18011978,53.295277296,18,5,8.41,153.32779919783,33.136484,13.869028,52.18011978,0.223694,-13.869028,-6.71082,270.9, -13.8, -0.8,0,0,1684,1024,1684,1024,100,0,100,0,296.9,0,0,97,4.206,4.195,0,0,0,0,5.774,83.12,153.32779919783,33.136484,6,P-GPS,
8100,2022-10-29 00:13:34,-34.9065033580044,-56.1632837360878,34.120736,39.1076128,115.20443839783,154.31205119783,36.417324,14.092722,54.322836384,55.440946656,18,5,8.41,154.31205119783,34.120736,14.092722,54.322836384,0.223694,-14.092722,-6.71082,270.8, -13.9, -0.4,0,0,1684,1024,1684,1024,100,0,100,0,296.9,0,0,97,4.206,4.195,0,0,0,0,5.774,83.12,154.31205119783,34.120736,6,P-GPS,
8200,2022-10-29 00:13:34,-34.9065031427762,-56.1632905444708,35.104988,40.3215236,114.97477959783,155.29630319783,37.401576,14.092722,56.35990994,57.479660632,18,5,8.41,155.29630319783,35.104988,14.092722,56.35990994,0.223694,-14.092722,-6.487126,270.9, -14.1, -0.5,0,0,1684,1024,1684,1024,100,0,100,0,297,0,0,97,4.206,4.195,0,0,0,0,5.774,83.12,155.29630319783,35.104988,6,P-GPS,
8300,2022-10-29 00:13:34,-34.9065029071339,-56.1632976938146,36.08924,41.502626,114.77792919783,156.28055519783,38.385828,14.316416,58.49901762,59.620408732,18,5,8.41,156.28055519783,36.08924,14.316416,58.49901762,0.223694,-14.316416,-6.487126,270.9, -14.1, -0.5,0,0,1684,1024,1684,1024,100,0,100,0,296.9,0,0,97,4.206,4.195,0,0,0,0,5.774,83.12,156.28055519783,36.08924,6,P-GPS,
8400,2022-10-29 00:13:34,-34.9065026755626,-56.16330462019,37.073492,42.7165368,114.54827039783,157.26480719783,39.37008,14.316416,60.571852332,61.69455578,18,5,8.394,157.26480719783,37.073492,14.316416,60.571852332,0.223694,-14.316416,-6.71082,271, -13.8, -0.6,0,0,1684,1024,1684,1024,100,0,100,0,296.9,0,0,97,4.205,4.192,0,0,0,0,5.871,83.12,157.26480719783,37.073492,6,P-GPS,
8500,2022-10-29 00:13:34,-34.9065023442785,-56.1633121018345,38.057744,43.8648308,114.38422839783,158.24905919783,40.354332,14.316416,62.81332222,63.936353752,18,5,8.394,158.24905919783,38.057744,14.316416,62.81332222,0.223694,-14.54011,-6.487126,271, -13.8, -0.5,0,0,1684,1024,1684,1024,100,0,100,0,296.9,0,0,97,4.205,4.192,0,0,0,0,5.871,83.12,158.24905919783,38.057744,6,P-GPS,
8600,2022-10-29 00:13:34,-34.9065021341832,-56.1633192009729,39.041996,45.0787416,114.15456959783,159.23331119783,41.338584,14.763804,64.937009952,66.062009988,18,5,8.394,159.23331119783,39.041996,14.763804,64.937009952,0.223694,-14.763804,-6.71082,270.9, -14.1, -0.6,0,0,1684,1024,1684,1024,100,0,100,0,296.9,0,0,97,4.205,4.192,0,0,0,0,5.871,83.12,159.23331119783,39.041996,6,P-GPS,
8700,2022-10-29 00:13:34,-34.9065019680102,-56.1633266530227,40.026248,46.2926524,113.92491079783,160.21756319783,42.322836,14.763804,67.16535648,68.29232502,18,5,8.394,160.21756319783,40.026248,14.763804,67.16535648,0.223694,-14.763804,-6.487126,271, -14, -0.5,0,0,1684,1024,1684,1024,100,0,100,0,297,0,0,97,4.205,4.192,0,0,0,0,5.871,83.12,160.21756319783,40.026248,6,P-GPS,
8800,2022-10-29 00:13:34,-34.9065018315857,-56.1633337419966,41.0105,47.4737548,113.72806039783,161.20181519783,43.307088,14.987498,69.284451036,70.414044248,18,5,8.394,161.20181519783,41.0105,14.987498,69.284451036,0.223694,-14.987498,-6.487126,271, -13.7, -0.5,0,0,1684,1024,1684,1024,100,0,100,0,297,0,0,97,4.205,4.192,0,0,0,0,5.871,83.12,161.20181519783,41.0105,6,P-GPS,
8900,2022-10-29 00:13:35,-34.9065017306092,-56.1633411375731,41.994752,48.556432,113.62963519783,162.18606719783,43.635172,14.987498,71.49442486,72.627298912,18,5,8.394,162.18606719783,41.994752,14.987498,71.49442486,0.223694,-14.987498,-6.487126,271, -13.7, -0.5,0,0,1684,1024,1684,1024,100,0,100,0,297,0,0,97,4.205,4.192,0,0,0,0,5.871,83.12,162.18606719783,41.994752,6,P-GPS,
9000,2022-10-29 00:13:35,-34.9065018407376,-56.163347789991,42.979004,49.6391092,113.53120999783,163.17031919783,43.635172,15.211192,73.477364556,74.618112624,18,5,8.394,163.17031919783,42.979004,15.211192,73.477364556,0.223694,-15.211192,-6.71082,271, -13.8, -0.6,0,0,1684,1024,1684,1024,100,0,100,0,297,0,0,97,4.205,4.192,0,0,0,0,5.871,83.12,163.17031919783,42.979004,6,P-GPS,
9100,2022-10-29 00:13:35,-34.9065017323548,-56.1633552782377,44.29134,51.0498704,113.43278479783,164.48265519783,43.635172,15.211192,75.715881688,76.858926344,18,5,8.394,164.48265519783,44.29134,15.211192,75.715881688,0.223694,-15.211192,-6.487126,271, -14.1, -0.7,0,0,1684,1024,1684,1024,100,0,100,0,296.9,0,0,97,4.205,4.192,0,0,0,0,5.871,83.12,164.48265519783,44.29134,6,P-GPS,
9200,2022-10-29 00:13:35,-34.9065016260044,-56.1633624838042,45.275592,52.1325476,113.33435959783,165.46690719783,43.635172,15.434886,77.869753148,79.015422476,18,5,8.394,165.46690719783,45.275592,15.434886,77.869753148,0.223694,-15.434886,-6.487126,270.9, -13.8, -0.6,0,0,1684,1024,1684,1024,100,0,100,0,297,0,0,97,4.205,4.192,0,0,0,0,5.871,83.12,165.46690719783,45.275592,6,P-GPS,
9300,2022-10-29 00:13:35,-34.9065014988555,-56.1633701934105,46.259844,53.2152248,113.23593439783,166.45115919783,43.635172,15.434886,80.174871332,81.322509164,18,5,8.394,166.45115919783,46.259844,15.434886,80.174871332,0.223694,-15.434886,-6.487126,270.9, -13.3, -0.8,0,0,1684,1024,1684,1024,100,0,100,0,297,0,0,97,4.205,4.192,0,0,0,0,5.871,83.12,166.45115919783,46.259844,6,P-GPS,
9400,2022-10-29 00:13:35,-34.9065014455793,-56.1633772213251,47.244096,54.297902,113.13750919783,167.43541119783,43.635172,15.434886,82.274608932,83.425527604,18,5,8.392,167.43541119783,47.244096,15.434886,82.274608932,0.223694,-15.434886,-6.71082,270.9, -13.3, -0.2,0,0,1684,1024,1684,1024,100,0,100,0,296.9,0,0,97,4.202,4.189,0,0,0,0,5.7,83.12,167.43541119783,47.244096,6,P-GPS,
9500,2022-10-29 00:13:35,-34.906501304061,-56.1633850008808,48.228348,55.3805792,113.03908399783,168.41966319783,43.635172,15.65858,84.60138066,85.753611668,18,5,8.392,168.41966319783,48.228348,15.65858,84.60138066,0.223694,-15.65858,-6.71082,271, -13.3, -0.3,0,0,1684,1024,1684,1024,100,0,100,0,296.9,0,0,97,4.202,4.189,0,0,0,0,5.7,83.12,168.41966319783,48.228348,6,P-GPS,
9600,2022-10-29 00:13:35,-34.9065011598916,-56.1633924534007,49.2126,56.4632564,112.94065879783,169.40391519783,43.635172,15.65858,86.830055272,87.984254784,18,5,8.392,169.40391519783,49.2126,15.65858,86.830055272,0.223694,-15.65858,-6.71082,271, -13.4, -0.5,0,0,1684,1024,1684,1024,100,0,100,0,296.9,0,0,97,4.202,4.189,0,0,0,0,5.7,83.12,169.40391519783,49.2126,6,P-GPS,
9700,2022-10-29 00:13:35,-34.9065009977572,-56.1634003587939,50.196852,57.578742,112.80942519783,170.38816719783,43.635172,15.882274,89.194884744,90.350396592,18,5,8.392,170.38816719783,50.196852,15.882274,89.194884744,0.223694,-15.882274,-6.71082,270.9, -13.3, -0.6,0,0,1684,1024,1684,1024,100,0,100,0,296.9,0,0,97,4.202,4.189,0,0,0,0,5.7,83.12,170.38816719783,50.196852,6,P-GPS,
9800,2022-10-29 00:13:35,-34.9065008286857,-56.1634080071007,51.181104,58.6614192,112.71099999783,171.37241919783,43.635172,15.882274,91.48294256,92.63943866,18,5,8.392,171.37241919783,51.181104,15.882274,91.48294256,0.223694,-15.882274,-6.71082,271, -13.5, -0.6,0,0,1615,1024,1684,1024,90,0,100,0,297,0,0,97,4.202,4.189,0,0,0,0,5.7,83.12,171.37241919783,51.181104,6,P-GPS,
9900,2022-10-29 00:13:36,-34.9065007034909,-56.1634162858282,52.165356,59.7769048,112.57976639783,172.35667119783,43.635172,16.105968,93.958664424,95.117129028,18,5,8.392,172.35667119783,52.165356,16.105968,93.958664424,0.223694,-16.105968,-6.71082,271, -13.1, -0.6,0,0,1024,1024,1684,1024,0,0,100,0,296.9,0,0,97,4.202,4.189,0,0,0,0,5.7,83.12,172.35667119783,52.165356,6,P-GPS,
10000,2022-10-29 00:13:36,-34.9065005726812,-56.1634240332924,53.149608,60.859582,112.48134119783,173.34092319783,43.635172,15.882274,96.275921716,97.435698656,18,5,8.392,173.34092319783,53.149608,16.105968,96.275921716,0.223694,-15.882274,-6.71082,270.8, -2.2, -0.5,0,0,1024,1024,1684,1024,0,0,100,0,297,0,0,97,4.202,4.189,0,0,0,0,5.7,83.12,173.34092319783,53.149608,6,P-GPS,
10100,2022-10-29 00:13:36,-34.9065004129113,-56.1634316908129,54.13386,61.9422592,112.38291599783,174.32517519783,43.635172,15.211192,98.566604204,99.72769348,18,5,8.392,174.32517519783,54.13386,16.105968,98.566604204,0,-15.211192,-6.934514,270.4, 20.4, -0.2,0,0,1024,1024,1684,1024,0,0,100,0,297,0,0,97,4.202,4.189,0,0,0,0,5.7,83.12,174.32517519783,54.13386,6,P-GPS,
10200,2022-10-29 00:13:36,-34.906500335684,-56.1634381394943,54.790028,62.664044,112.31729919783,174.98134319783,43.635172,13.645334,100.494753872,101.657155484,18,5,8.392,174.98134319783,54.790028,16.105968,100.494753872,0,-13.645334,-6.934514,270.6, 22.6, -0.3,0,0,1024,1024,1684,1024,0,0,100,0,297,0,0,97,4.202,4.189,0,0,0,0,5.7,83.12,174.98134319783,54.790028,6,P-GPS,
10300,2022-10-29 00:13:36,-34.9065002192633,-56.1634445495029,55.77428,63.7467212,112.21887399783,175.96559519783,43.635172,12.30317,102.412404852,103.575790716,18,5,8.392,175.96559519783,55.77428,16.105968,102.412404852,0.223694,-12.30317,-6.934514,270.7, 21.5, 0,0,0,1024,1024,1684,1024,0,0,100,0,297,0,0,97,4.202,4.189,0,0,0,0,5.7,83.12,175.96559519783,55.77428,6,P-GPS,
10400,2022-10-29 00:13:36,-34.9065001241557,-56.1634500479568,56.430448,64.468506,112.15325719783,176.62176319783,43.635172,10.961006,104.057089944,105.221131976,19,5,8.383,176.62176319783,56.430448,16.105968,104.057089944,0.223694,-10.961006,-6.71082,270.7, 20.3, -0.1,0,0,1024,1024,1684,1024,0,0,100,0,297,0,0,97,4.196,4.185,0,0,0,0,5.814,83.3,176.62176319783,56.430448,6,P-GPS,
10500,2022-10-29 00:13:36,-34.9065000715895,-56.1634552424406,57.4147,65.5511832,112.05483199783,177.60601519783,43.635172,9.842536,105.609911516,106.775593968,19,5,8.383,177.60601519783,57.4147,16.105968,105.609911516,0.223694,-9.842536,-6.71082,270.8, 19.3, -0.2,0,0,1024,1024,1684,1024,0,0,100,0,296.9,0,0,97,4.196,4.185,0,0,0,0,5.814,83.3,177.60601519783,57.4147,6,P-GPS,
10600,2022-10-29 00:13:36,-34.9065000001659,-56.1634595913282,58.070868,66.272968,111.98921519783,178.26218319783,43.635172,8.724066,106.910764576,108.077103196,20,5,8.383,178.26218319783,58.070868,16.105968,106.910764576,0.223694,-8.724066,-6.487126,270.7, 18.8, -0.3,0,0,1024,1024,1684,1024,0,0,100,0,296.9,0,0,97,4.196,4.185,0,0,0,0,5.814,83.3,178.26218319783,58.070868,6,P-GPS,
10700,2022-10-29 00:13:36,-34.9064999868778,-56.1634627854474,59.05512,67.2900284,111.95640679783,179.24643519783,43.635172,7.605596,107.865489016,109.032811888,20,5,8.383,179.24643519783,59.05512,16.105968,107.865489016,0.223694,-7.605596,-6.263432,270.8, 18.1, -0.4,0,0,1024,1024,1684,1024,0,0,100,0,297,0,0,97,4.196,4.185,0,0,0,0,5.814,83.3,179.24643519783,59.05512,6,P-GPS,
10800,2022-10-29 00:13:36,-34.9064998993522,-56.1634658641545,60.039372,68.3070888,111.92359839783,180.23068719783,43.635172,6.71082,108.787076972,109.954399844,20,5,8.383,180.23068719783,60.039372,16.105968,108.787076972,0,-6.71082,-6.263432,270.8, 18.1, -0.4,0,0,1024,1024,1684,1024,0,0,100,0,297,0,0,97,4.196,4.185,0,0,0,0,5.814,83.3,180.23068719783,60.039372,6,P-GPS,
10900,2022-10-29 00:13:37,-34.9064998925062,-56.1634684178035,60.69554,68.9960652,111.89078999783,180.88685519783,43.635172,5.59235,109.550200356,110.71850748,20,5,8.383,180.88685519783,60.69554,16.105968,109.550200356,0,-5.59235,-6.487126,270.7, 17.9, -0.4,0,0,1024,1024,1684,1024,0,0,100,0,297,0,0,97,4.196,4.185,0,0,0,0,5.814,83.3,180.88685519783,60.69554,6,P-GPS,
11000,2022-10-29 00:13:37,-34.9064999289313,-56.1634704300352,61.679792,70.0131256,111.85798159783,181.87110719783,43.635172,4.697574,110.15092216,111.320869704,20,5,8.383,181.87110719783,61.679792,16.105968,110.15092216,0,-4.697574,-6.487126,270.8, 17.2, -0.5,0,0,1024,1024,1684,1011,0,0,100,-2,297,0,0,97,4.196,4.185,0,0,0,0,5.814,83.3,181.87110719783,61.679792,6,P-GPS,
11100,2022-10-29 00:13:37,-34.9065005037329,-56.1634712895251,62.664044,71.030186,111.82517319783,182.85535919783,43.635172,3.802798,110.397313244,111.652562628,20,5,8.383,182.85535919783,62.664044,16.105968,110.397313244,0,-3.802798,-6.487126,270.7, 17.7, -0.5,0,0,1024,1024,1684,1024,0,0,100,0,297,0,0,97,4.196,4.185,0,0,0,0,5.814,83.3,182.85535919783,62.664044,6,P-GPS,
11200,2022-10-29 00:13:37,-34.906500632367,-56.1634725505337,63.97638,72.3753304,111.79236479783,184.16769519783,43.635172,2.908022,110.771657088,112.032811984,20,5,8.383,184.16769519783,63.97638,16.105968,110.771657088,0,-2.908022,-6.71082,270.6, 17.9, -0.6,0,0,1024,1024,1684,1024,0,0,100,0,297,0,0,97,4.196,4.185,0,0,0,0,5.814,83.3,184.16769519783,63.97638,6,P-GPS,
11300,2022-10-29 00:13:37,-34.9065008225888,-56.1634733309024,64.960632,73.3595824,111.79236479783,185.15194719783,43.635172,2.013246,111.001643972,112.276578396,20,5,8.383,185.15194719783,64.960632,16.105968,111.001643972,0,-2.013246,-6.71082,270.6, 18, -0.4,0,0,1024,1024,1013,1024,0,0,-2,0,297,0,0,97,4.196,4.185,0,0,0,0,5.814,83.3,185.15194719783,64.960632,6,P-GPS,
11400,2022-10-29 00:13:37,-34.9065010271213,-56.1634737545884,65.944884,74.3438344,111.79236479783,186.13619919783,43.635172,1.342164,111.124675472,112.423560028,20,5,8.41,186.13619919783,65.944884,16.105968,111.124675472,0,-1.342164,-6.71082,270.8, 13.1, -0.2,0,0,1024,1024,1024,1024,0,0,0,0,297,0,0,97,4.205,4.194,0,0,0,0,5.046,83.3,186.13619919783,65.944884,6,P-GPS,
11500,2022-10-29 00:13:37,-34.9065018432128,-56.1634736126007,66.929136,75.3608948,111.75955639783,187.12045119783,43.635172,0.9171454,111.068573108,112.724413056,20,5,8.41,187.12045119783,66.929136,16.105968,111.124675472,-0.223694,-0.894776,-6.487126,271.2, 8.9, 0.2,0,0,1024,1024,1024,1024,0,0,0,0,297,0,0,97,4.205,4.194,0,0,0,0,5.046,83.3,187.12045119783,66.929136,6,P-GPS,
11600,2022-10-29 00:13:37,-34.9065021484679,-56.1634737561972,67.913388,76.3451468,111.75955639783,188.10470319783,43.635172,0.8052984,111.106630852,112.843835632,20,5,8.41,188.10470319783,67.913388,16.105968,111.124675472,-0.447388,-0.671082,-6.039738,271.1, 7.6, 1,0,0,1024,1024,1024,1024,0,0,0,0,297,0,0,97,4.205,4.194,0,0,0,0,5.046,83.3,188.10470319783,67.913388,6,P-GPS,
11700,2022-10-29 00:13:37,-34.9065025480685,-56.1634738689141,68.89764,77.3622072,111.72674799783,189.08895519783,43.635172,0.6263432,111.134189908,112.993441936,20,5,8.41,189.08895519783,68.89764,16.105968,111.134189908,-0.447388,-0.447388,-5.144962,271, 6.5, 1.7,0,0,1024,1024,1024,1024,0,0,0,0,297,0,0,97,4.205,4.194,0,0,0,0,5.046,83.3,189.08895519783,68.89764,6,P-GPS,
11800,2022-10-29 00:13:38,-34.9065029198227,-56.1634739084643,69.553808,78.0183752,111.72674799783,189.74512319783,43.635172,0.6263432,111.140423504,113.129596796,20,5,8.41,189.74512319783,69.553808,16.105968,111.140423504,-0.447388,-0.447388,-4.47388,271, 5.4, 2,0,0,1024,1024,1024,1024,0,0,0,0,297,0,0,97,4.205,4.194,0,0,0,0,5.046,83.3,189.74512319783,69.553808,6,P-GPS,
11900,2022-10-29 00:13:38,-34.9065038517226,-56.1634741111875,70.209976,78.7073516,111.69393959783,190.40129119783,43.635172,0.4921268,111.1876676,113.474741164,20,5,8.41,190.40129119783,70.209976,16.105968,111.1876676,-0.447388,-0.223694,-3.579104,271.1, 4.5, 2.2,0,0,1024,1024,1024,1024,0,0,0,0,297,0,0,97,4.205,4.194,0,0,0,0,5.046,83.3,190.40129119783,70.209976,6,P-GPS,
12000,2022-10-29 00:13:38,-34.9065041799778,-56.1634740837343,70.866144,79.3635196,111.69393959783,191.05745919783,43.635172,0.4921268,111.175200408,113.594819908,20,5,8.41,191.05745919783,70.866144,16.105968,111.1876676,-0.447388,-0.223694,-2.908022,270.9, 3.9, 2,0,0,1024,1024,1024,1024,0,0,0,0,297,0,0,97,4.205,4.194,0,0,0,0,5.046,83.3,191.05745919783,70.866144,6,P-GPS,
12100,2022-10-29 00:13:38,-34.9065044981758,-56.1634741090983,71.194228,79.6916036,111.69393959783,191.38554319783,43.635172,0.3131716,111.178481248,113.711289728,20,5,8.41,191.38554319783,71.194228,16.105968,111.1876676,-0.223694,-0.223694,-2.013246,270.9, 3.3, 2,0,0,1024,1024,1024,1024,0,0,0,0,297,0,0,97,4.205,4.194,0,0,0,0,5.046,83.3,191.38554319783,71.194228,6,P-GPS,
12200,2022-10-29 00:13:38,-34.9065047666997,-56.1634741315998,71.194228,79.6916036,111.69393959783,191.38554319783,43.635172,0.223694,111.181762088,113.809386844,20,5,8.41,191.38554319783,71.194228,16.105968,111.1876676,-0.223694,0,-1.342164,270.8, 2.7, 1.9,0,0,1024,1024,1024,1024,0,0,0,0,297,0,0,97,4.205,4.194,0,0,0,0,5.046,83.3,191.38554319783,71.194228,6,P-GPS,
12300,2022-10-29 00:13:38,-34.9065049826183,-56.1634741687055,71.522312,80.0196876,111.69393959783,191.71362719783,43.635172,0.223694,111.190292272,113.889111256,20,5,8.41,191.71362719783,71.522312,16.105968,111.190292272,-0.223694,0,-0.671082,270.8, 2.1, 1.7,0,0,1024,1024,1024,1024,0,0,0,0,297,0,0,97,4.205,4.194,0,0,0,0,5.046,83.3,191.71362719783,71.522312,6,P-GPS,
12400,2022-10-29 00:13:38,-34.906505298315,-56.1634747723625,71.522312,80.052496,111.66113119783,191.71362719783,43.635172,0,111.366801464,114.103350108,20,5,8.41,191.71362719783,71.522312,16.105968,111.366801464,0,0,-0.447388,270.7, 1.3, 1.2,0,0,1024,1024,1024,1024,0,0,0,0,297,0,0,97,4.205,4.194,0,0,0,0,5.046,83.3,191.71362719783,71.522312,6,P-GPS,
12500,2022-10-29 00:13:38,-34.9065054756851,-56.1634748115575,71.522312,80.052496,111.66113119783,191.71362719783,43.635172,0,111.3763159,114.168966908,20,5,8.476,191.71362719783,71.522312,16.105968,111.3763159,0,0,-0.223694,270.7, 0.7, 1.2,0,0,1024,1024,1024,1024,0,0,0,0,297,0,0,97,4.251,4.246,0,0,0,0,4.219,83.3,191.71362719783,71.522312,6,P-GPS,
12600,2022-10-29 00:13:38,-34.9065056256453,-56.1634748594648,71.522312,80.052496,111.66113119783,191.71362719783,43.635172,0,111.389111176,114.225397356,20,5,8.476,191.71362719783,71.522312,16.105968,111.389111176,0,0,0,270.7, 0.7, 0.6,0,0,1024,1024,1024,1024,0,0,0,0,297,0,0,97,4.251,4.246,0,0,0,0,4.219,83.3,191.71362719783,71.522312,6,P-GPS,
12700,2022-10-29 00:13:38,-34.9065057653658,-56.1634749252564,71.522312,80.052496,111.66113119783,191.71362719783,43.635172,0,111.407155796,114.280187384,20,5,8.476,191.71362719783,71.522312,16.105968,111.407155796,0,0,0,270.8, 0.6, 0.3,0,0,1024,1024,1024,1024,0,0,0,0,297,0,0,97,4.251,4.246,0,0,0,0,4.219,83.3,191.71362719783,71.522312,6,P-GPS,
12800,2022-10-29 00:13:39,-34.9065058886194,-56.1634754335166,71.522312,80.052496,111.66113119783,191.71362719783,43.635172,0,111.557746352,114.438651956,20,5,8.476,191.71362719783,71.522312,16.105968,111.557746352,0,0,0,270.7, 0.6, -1.7,0,0,1024,1024,1024,1024,0,0,0,0,297,0,0,97,4.251,4.246,0,0,0,0,4.219,83.3,191.71362719783,71.522312,6,P-GPS,
12900,2022-10-29 00:13:39,-34.90650602294,-56.1634755090234,71.522312,80.0853044,111.62832279783,191.71362719783,43.635172,0,111.578743728,114.492785816,20,5,8.476,191.71362719783,71.522312,16.105968,111.578743728,0,0,0,270.8, 0.4, -1.2,0,0,1024,1024,1024,1024,0,0,0,0,296.9,0,0,97,4.251,4.246,0,0,0,0,4.219,83.3,191.71362719783,71.522312,6,P-GPS,
13000,2022-10-29 00:13:39,-34.9065061640023,-56.1634755503703,71.522312,80.0853044,111.62832279783,191.71362719783,43.635172,0,111.5895705,114.54560734,20,5,8.476,191.71362719783,71.522312,16.105968,111.5895705,0,0,0,270.8, 0.3, -1.2,0,0,1024,1024,1024,1024,0,0,0,0,297,0,0,97,4.251,4.246,0,0,0,0,4.219,83.3,191.71362719783,71.522312,6,P-GPS,
13100,2022-10-29 00:13:39,-34.9065063223913,-56.1634755079161,71.522312,80.0853044,111.62832279783,191.71362719783,43.635172,0,111.575134804,114.604990544,20,5,8.476,191.71362719783,71.522312,16.105968,111.5895705,0,0,0,270.9, 0.4, -0.7,0,0,1024,1024,1024,1024,0,0,0,0,297,0,0,97,4.251,4.246,0,0,0,0,4.219,83.3,191.71362719783,71.522312,6,P-GPS,
13200,2022-10-29 00:13:39,-34.9065064408574,-56.1634754551199,71.522312,80.052496,111.66113119783,191.71362719783,43.635172,0,111.558074436,114.650922304,20,5,8.476,191.71362719783,71.522312,16.105968,111.5895705,0,0,0,270.8, 0.2, -0.9,0,0,1024,1024,1024,1024,0,0,0,0,297,0,0,97,4.251,4.246,0,0,0,0,4.219,83.3,191.71362719783,71.522312,6,P-GPS,
13300,2022-10-29 00:13:39,-34.9065066045355,-56.1634754333077,71.522312,80.0853044,111.62832279783,191.71362719783,43.635172,0,111.549872336,114.710961676,20,5,8.476,191.71362719783,71.522312,16.105968,111.5895705,0,0,0,270.9, 0, -0.7,0,0,1024,1024,1024,1024,0,0,0,0,297,0,0,97,4.251,4.246,0,0,0,0,4.219,83.3,191.71362719783,71.522312,6,P-GPS,
13400,2022-10-29 00:13:39,-34.9065067995254,-56.1634754257445,71.522312,80.0853044,111.62832279783,191.71362719783,43.635172,0,111.545607244,114.782155904,20,5,8.476,191.71362719783,71.522312,16.105968,111.5895705,0,0,0,270.8, 0.1, -0.2,0,0,1024,1024,1024,1024,0,0,0,0,297,0,0,97,4.251,4.246,0,0,0,0,4.219,83.3,191.71362719783,71.522312,6,P-GPS,
13500,2022-10-29 00:13:39,-34.906507077377,-56.1634754356686,71.522312,80.0853044,111.62832279783,191.71362719783,43.635172,0,111.545935328,114.88353386,20,5,8.457,191.71362719783,71.522312,16.105968,111.5895705,0,0,0,270.8, 0.2, 0.4,0,0,1024,1024,1024,1024,0,0,0,0,297,0,0,97,4.229,4.221,0,0,0,0,3.455,83.48,191.71362719783,71.522312,6,P-GPS,
13600,2022-10-29 00:13:39,-34.9065075732708,-56.163475138635,71.522312,80.1181128,111.59551439783,191.71362719783,43.635172,0,111.452103304,115.084977436,20,5,8.457,191.71362719783,71.522312,16.105968,111.5895705,0,0,0,270.8, 0.1, 0.8,0,0,1024,1024,1024,1024,0,0,0,0,297,0,0,97,4.229,4.221,0,0,0,0,3.455,83.48,191.71362719783,71.522312,6,P-GPS,
13700,2022-10-29 00:13:39,-34.9065078908499,-56.1634751113698,71.194228,79.7900288,111.59551439783,191.38554319783,43.635172,0,111.441276532,115.201119172,20,5,8.457,191.71362719783,71.522312,16.105968,111.5895705,0,0,0,270.8, -0.1, 1.2,0,0,1024,1024,1024,1024,0,0,0,0,297,0,0,97,4.229,4.221,0,0,0,0,3.455,83.48,191.38554319783,71.194228,6,P-GPS,
13800,2022-10-29 00:13:39,-34.9065081680372,-56.1634750902054,71.194228,79.7900288,111.59551439783,191.38554319783,43.635172,0,111.432418264,115.302497128,20,5,8.457,191.71362719783,71.522312,16.105968,111.5895705,0,0,0,270.8, 0, 1.3,0,0,1024,1024,1024,1024,0,0,0,0,297,0,0,97,4.229,4.221,0,0,0,0,3.455,83.48,191.38554319783,71.194228,6,P-GPS,
13900,2022-10-29 00:13:40,-34.9065084237615,-56.1634750574036,71.194228,79.7900288,111.59551439783,191.38554319783,43.635172,0,111.42060724,115.396329152,20,5,8.457,191.71362719783,71.522312,16.105968,111.5895705,0,0,0,270.8, 0, 1.3,0,0,1024,1024,1024,1024,0,0,0,0,297,0,0,97,4.229,4.221,0,0,0,0,3.455,83.48,191.38554319783,71.194228,6,P-GPS,
14000,2022-10-29 00:13:40,-34.9065086558929,-56.1634750416086,71.194228,79.8228372,111.56270599783,191.38554319783,43.635172,0,111.413717476,115.481302908,20,5,8.457,191.71362719783,71.522312,16.105968,111.5895705,0,0,0,270.8, 0.1, 2.5,0,0,1024,1024,1024,1024,0,0,0,0,296.9,0,0,97,4.229,4.221,0,0,0,0,3.455,83.48,191.38554319783,71.194228,6,P-GPS,
14100,2022-10-29 00:13:40,-34.906509091619,-56.1634748141482,71.194228,79.8228372,111.56270599783,191.38554319783,43.635172,0.223694,111.342523248,115.654203176,20,5,8.457,191.71362719783,71.522312,16.105968,111.5895705,0,-0.223694,0,270.8, 0, 3.7,0,0,1024,1024,1024,1024,0,0,0,0,296.9,0,0,97,4.229,4.221,0,0,0,0,3.455,83.48,191.38554319783,71.194228,6,P-GPS,
14200,2022-10-29 00:13:40,-34.9065092630681,-56.1634748421864,71.194228,79.8228372,111.56270599783,191.38554319783,43.635172,0.223694,111.349741096,115.717195304,20,5,8.457,191.71362719783,71.522312,16.105968,111.5895705,0,-0.223694,0,270.8, 0.1, 3.1,0,0,1024,1024,1024,1024,0,0,0,0,297,0,0,97,4.229,4.221,0,0,0,0,3.455,83.48,191.38554319783,71.194228,6,P-GPS,
14300,2022-10-29 00:13:40,-34.9065093643312,-56.1634749129087,71.194228,79.8228372,111.56270599783,191.38554319783,43.635172,0.223694,111.370082304,115.759846224,20,5,8.457,191.71362719783,71.522312,16.105968,111.5895705,0,-0.223694,0,270.8, 0.3, 2.6,0,0,1024,1024,1024,1255,0,0,0,35,297,0,0,97,4.229,4.221,0,0,0,0,3.455,83.48,191.38554319783,71.194228,6,P-GPS,
14400,2022-10-29 00:13:40,-34.906509413152,-56.1634749868903,71.194228,79.8228372,111.56270599783,191.38554319783,43.635172,0.223694,111.391735848,115.788389532,20,5,8.457,191.71362719783,71.522312,16.105968,111.5895705,0,-0.223694,0,270.8, 0.3, 2.3,0,0,1024,1024,1024,1684,0,0,0,100,297.1,0,0,97,4.229,4.221,0,0,0,0,3.455,83.48,191.38554319783,71.194228,6,P-GPS,
14500,2022-10-29 00:13:40,-34.9065092655824,-56.1634750047119,71.194228,79.8228372,111.56270599783,191.38554319783,43.635172,0.223694,111.398297528,115.842523392,20,5,8.446,191.71362719783,71.522312,16.105968,111.5895705,0,-0.223694,0,271.4, 0, 2.1,0,0,1024,1024,1024,1684,0,0,0,100,298.6,0,0,97,4.226,4.218,0,0,0,0,3.99,83.48,191.38554319783,71.194228,6,P-GPS,
14600,2022-10-29 00:13:40,-34.9065092158171,-56.1634750709213,71.194228,79.8228372,111.56270599783,191.38554319783,43.635172,0.223694,111.418310652,115.869098196,20,5,8.446,191.71362719783,71.522312,16.105968,111.5895705,0,-0.223694,0,273.5, 0.2, 1.8,0,0,1024,1024,1024,1684,0,0,0,100,301.4,0,0,97,4.226,4.218,0,0,0,0,3.99,83.48,191.38554319783,71.194228,6,P-GPS,
14700,2022-10-29 00:13:40,-34.9065091056952,-56.1634751334745,70.866144,79.4947532,111.56270599783,191.05745919783,43.635172,0.3131716,111.437995692,115.91371762,20,5,8.446,191.71362719783,71.522312,16.105968,111.5895705,0.223694,-0.223694,0,276.5, 0.3, 1.7,0,0,1024,1024,1024,1684,0,0,0,100,304.6,0,0,97,4.226,4.218,0,0,0,0,3.99,83.48,191.05745919783,70.866144,6,P-GPS,
14800,2022-10-29 00:13:41,-34.9065089905577,-56.1634752069128,70.866144,79.4947532,111.56270599783,191.05745919783,43.635172,0.3131716,111.460633488,115.960961716,20,5,8.446,191.71362719783,71.522312,16.105968,111.5895705,0.223694,-0.223694,0,279.5, 0.3, 1.5,0,0,1024,1024,1024,1684,0,0,0,100,307.8,0,0,97,4.226,4.218,0,0,0,0,3.99,83.48,191.05745919783,70.866144,6,P-GPS,
14900,2022-10-29 00:13:41,-34.9065086920379,-56.1634752322559,70.866144,79.4947532,111.56270599783,191.05745919783,43.635172,0.3131716,111.470476008,116.070213688,20,5,8.446,191.71362719783,71.522312,16.105968,111.5895705,0.223694,-0.223694,0,282.7, 0.2, 1.4,0,0,1024,1024,1024,1684,0,0,0,100,311,0,0,97,4.226,4.218,0,0,0,0,3.99,83.48,191.05745919783,70.866144,6,P-GPS,
15000,2022-10-29 00:13:41,-34.9065085762751,-56.1634753105831,70.866144,79.4947532,111.56270599783,191.05745919783,43.635172,0.3131716,111.495082308,116.118442036,20,5,8.446,191.71362719783,71.522312,16.105968,111.5895705,0.223694,-0.223694,0,285.8, 0, 1.3,0,0,1024,1024,1024,1684,0,0,0,100,314.2,0,0,97,4.226,4.218,0,0,0,0,3.99,83.48,191.05745919783,70.866144,6,P-GPS,
15100,2022-10-29 00:13:41,-34.9065084314803,-56.1634753590337,70.866144,79.4619448,111.59551439783,191.05745919783,43.635172,0.3131716,111.510502256,116.173232064,20,5,8.446,191.71362719783,71.522312,16.105968,111.5895705,0.223694,-0.223694,0,289, 0, 1.3,0,0,1024,1024,1024,1684,0,0,0,100,317.4,0,0,97,4.226,4.218,0,0,0,0,3.99,83.48,191.05745919783,70.866144,6,P-GPS,
15200,2022-10-29 00:13:41,-34.9065082939419,-56.1634754309677,70.866144,79.4619448,111.59551439783,191.05745919783,43.635172,0.3131716,111.533140052,116.227694008,20,5,8.446,191.71362719783,71.522312,16.105968,111.5895705,0.223694,-0.223694,0,292.2, 0.1, 1.3,0,0,1024,1024,1024,1684,0,0,0,100,320.6,0,0,97,4.226,4.218,0,0,0,0,3.99,83.48,191.05745919783,70.866144,6,P-GPS,
15300,2022-10-29 00:13:41,-34.9065081312213,-56.1634755380435,70.866144,79.4619448,111.59551439783,191.05745919783,43.635172,0.3131716,111.56660462,116.295279312,20,5,8.446,191.71362719783,71.522312,16.105968,111.5895705,0.223694,-0.223694,0,295.4, 0.2, 1.1,0,0,1024,1024,1024,1684,0,0,0,100,323.8,0,0,97,4.226,4.218,0,0,0,0,3.99,83.48,191.05745919783,70.866144,6,P-GPS,
15400,2022-10-29 00:13:41,-34.9065080223501,-56.1634756789658,70.866144,79.4619448,111.59551439783,191.05745919783,43.635172,0.3131716,111.609911708,116.35335018,20,5,8.446,191.71362719783,71.522312,16.105968,111.609911708,0.223694,-0.223694,-0.223694,298.6, 0.3, 0.9,0,0,1024,1024,1024,1684,0,0,0,100,327,0,0,97,4.226,4.218,0,0,0,0,3.99,83.48,191.05745919783,70.866144,6,P-GPS,
15500,2022-10-29 00:13:41,-34.9065079344271,-56.1634758405302,70.866144,79.4619448,111.59551439783,191.05745919783,43.635172,0.3131716,111.658796224,116.411092964,20,5,8.442,191.71362719783,71.522312,16.105968,111.658796224,0.223694,-0.223694,-0.223694,301.8, 0.5, 0.8,0,0,1024,1024,1024,1684,0,0,0,100,330.2,0,0,97,4.222,4.214,0,0,0,0,4.084,83.48,191.05745919783,70.866144,6,P-GPS,
15600,2022-10-29 00:13:41,-34.9065078475333,-56.1634759928181,70.866144,79.4619448,111.59551439783,191.05745919783,43.635172,0.3131716,111.705056068,116.466867244,20,5,8.442,191.71362719783,71.522312,16.105968,111.705056068,0.223694,-0.223694,-0.223694,305.1, 0.7, 0.8,0,0,1024,1024,1024,1684,0,0,0,100,333.4,0,0,97,4.222,4.214,0,0,0,0,4.084,83.48,191.05745919783,70.866144,6,P-GPS,
15700,2022-10-29 00:13:41,-34.9065077461138,-56.1634761420348,71.194228,79.7900288,111.59551439783,191.38554319783,43.635172,0.3131716,111.750659744,116.524610028,20,5,8.442,191.71362719783,71.522312,16.105968,111.750659744,0.223694,-0.223694,-0.223694,308.3, 0.6, 0.8,0,0,1024,1024,1024,1684,0,0,0,100,336.6,0,0,97,4.222,4.214,0,0,0,0,4.084,83.48,191.38554319783,71.194228,6,P-GPS,
15800,2022-10-29 00:13:42,-34.9065077580406,-56.1634763072555,71.194228,79.7900288,111.59551439783,191.38554319783,43.635172,0.3131716,111.800200428,116.574478796,20,5,8.442,191.71362719783,71.522312,16.105968,111.800200428,0.223694,-0.223694,-0.223694,311.5, 0.8, 0.8,0,0,1024,1024,1024,1684,0,0,0,100,339.8,0,0,97,4.222,4.214,0,0,0,0,4.084,83.48,191.38554319783,71.194228,6,P-GPS,
15900,2022-10-29 00:13:42,-34.9065076788656,-56.1634763802968,71.194228,79.7900288,111.59551439783,191.38554319783,43.635172,0.3131716,111.82251014,116.610568036,20,5,8.442,191.71362719783,71.522312,16.105968,111.82251014,0.223694,-0.223694,-0.223694,314.8, 0.7, 1,0,0,1024,1024,1024,1684,0,0,0,100,343,0,0,97,4.222,4.214,0,0,0,0,4.084,83.48,191.38554319783,71.194228,6,P-GPS,
