time(millisecond),datetime(utc),latitude,longitude,height_above_takeoff(feet),height_above_ground_at_drone_location(feet),ground_elevation_at_drone_location(feet),altitude_above_seaLevel(feet),height_sonar(feet),speed(mph),distance(feet),mileage(feet),satellites,gpslevel,voltage(v),max_altitude(feet),max_ascent(feet),max_speed(mph),max_distance(feet), xSpeed(mph), ySpeed(mph), zSpeed(mph), compass_heading(degrees), pitch(degrees), roll(degrees),isPhoto,isVideo,rc_elevator,rc_aileron,rc_throttle,rc_rudder,rc_elevator(percent),rc_aileron(percent),rc_throttle(percent),rc_rudder(percent),gimbal_heading(degrees),gimbal_pitch(degrees),gimbal_roll(degrees),battery_percent,voltageCell1,voltageCell2,voltageCell3,voltageCell4,voltageCell5,voltageCell6,current(A),battery_temperature(f),altitude(feet),ascent(feet),flycStateRaw,flycState,message
0,2022-12-18 05:32:13,-34.9065493062722,-56.1632363138603,0,0,117.49579575462,117.49579575462,0,0,0,0,18,5,0,117.49579575462,0,0,0,0,0,0,141.6, -1.9, 6.3,0,0,364,364,364,1684,-100,-100,-100,100,151.7,0,0,95,4.277,4.274,0,0,0,0,0,71.6,117.49579575462,0,41,Motors_Started,"Aeronave en Zona de altitud restringida (150). Vuela con precauci贸n (Code: 190001). Error de calibraci贸n del estabilizador. Reinicia la aeronave o contacta con la Asistencia DJI (Code: 40011)"
100,2022-12-18 05:32:13,-34.9065493568281,-56.1632365601256,0,0.032808399999993,117.46298735462,117.49579575462,0,0,0.075958335764,0.075958335764,18,5,0,117.49579575462,0,0,0.075958335764,0,0,0,142.4, -3.1, 6,0,0,364,364,364,1684,-100,-100,-100,100,152.6,0,0,95,4.277,4.274,0,0,0,0,0,71.6,117.49579575462,0,41,Motors_Started,
200,2022-12-18 05:32:13,-34.9065494063295,-56.1632366704402,0,0.032808399999993,117.46298735462,117.49579575462,0.328084,0,0.11276411122,0.113583336968,18,5,0,117.49579575462,0,0,0.11276411122,0,0,0,142.6, -1.9, 6.2,0,0,364,640,391,1684,-100,-58,-96,100,153,0,0,95,4.277,4.274,0,0,0,0,0,71.6,117.49579575462,0,41,Motors_Started,"Setting new Return-To-Home altitude to 100m (328 ft). Data Recorder File Index is 83. Setting new Maximum Flight Altitude to 120m (394 ft)"
300,2022-12-18 05:32:13,-34.906549474429,-56.163236789806,0,0.032808399999993,117.46298735462,117.49579575462,0.328084,0,0.155060372416,0.157090884292,18,5,0,117.49579575462,0,0,0.155060372416,0,0,0,141.9, -2.7, 5.8,0,0,1024,1024,816,1559,0,0,-32,81,153.1,0,0,95,4.277,4.274,0,0,0,0,0,71.6,117.49579575462,0,41,Motors_Started,
400,2022-12-18 05:32:13,-34.9065495549551,-56.1632368995565,0,0.065616799999987,117.43017895462,117.49579575462,0.328084,0,0.197339901328,0.201153549744,18,5,0,117.49579575462,0,0,0.197339901328,0,0,0,140.1, -3.6, 5.9,0,0,1024,1024,816,1559,0,0,-32,81,152.3,0,0,95,4.277,4.274,0,0,0,0,0,71.6,117.49579575462,0,41,Motors_Started,
500,2022-12-18 05:32:13,-34.9065496360989,-56.163236687855,0,0.065616799999987,117.43017895462,117.49579575462,0.328084,0,0.164326120744,0.271073499488,18,5,0,117.49579575462,0,0,0.197339901328,0,0,0,138.9, -3.4, 6.6,0,0,1024,1024,1024,1024,0,0,0,0,150.7,0,0,95,4.277,4.274,0,0,0,0,0,71.6,117.49579575462,0,41,Motors_Started,
600,2022-12-18 05:32:13,-34.9065496526891,-56.1632365384728,0,0.065616799999987,117.43017895462,117.49579575462,0.328084,0.223694,0.143146986208,0.31617783164,18,5,0,117.49579575462,0,0.223694,0.197339901328,0,0.223694,0,140.7, -5.1, 4.7,0,0,1024,1024,1024,1024,0,0,0,0,150.7,0,0,95,4.277,4.274,0,0,0,0,0,71.6,117.49579575462,0,41,Motors_Started,
700,2022-12-18 05:32:13,-34.9065496664804,-56.1632364095271,0,0.032808399999993,117.46298735462,117.49579575462,0.328084,0,0.13450295706,0.3550853132,18,5,0,117.49579575462,0,0.223694,0.197339901328,0,0,0,139, -4.9, 5.2,0,0,1024,1024,1024,1024,0,0,0,0,151,0,0,95,4.277,4.274,0,0,0,0,0,71.6,117.49579575462,0,41,Motors_Started,
800,2022-12-18 05:32:14,-34.9065496905756,-56.1632363202887,-0.328084,-0.29527560000001,117.46298735462,117.16771175462,0.328084,0,0.140226054356,0.38319555032,19,5,0,117.49579575462,0,0.223694,0.197339901328,0,0,0,137.3, -6, 4.4,0,0,1024,1024,1024,1024,0,0,0,0,149.3,0,0,95,4.277,4.274,0,0,0,0,0,71.6,117.16771175462,-0.328084,41,Motors_Started,
900,2022-12-18 05:32:14,-34.9065496458993,-56.1632362584917,-0.328084,-0.29527560000001,117.46298735462,117.16771175462,0.328084,0,0.125015423948,0.40784450124,19,5,0,117.49579575462,0,0.223694,0.197339901328,0,0,0,137.6, -6.1, 3.7,0,0,1024,1024,1024,1024,0,0,0,0,148.7,0,0,95,4.277,4.274,0,0,0,0,0,71.6,117.16771175462,-0.328084,41,Motors_Started,
1000,2022-12-18 05:32:14,-34.9065494665726,-56.1632360410584,-0.328084,-0.328084,117.49579575462,117.16771175462,0.328084,0,0.100414701376,0.5001148454,18,5,0,117.49579575462,0,0.223694,0.197339901328,0,0,0,136.8, -6.7, 4.2,0,0,1024,1024,1024,1024,0,0,0,0,148.3,0,0,95,4.277,4.274,0,0,0,0,0,71.6,117.16771175462,-0.328084,41,Motors_Started,
1100,2022-12-18 05:32:14,-34.9065493762407,-56.1632359695737,-0.328084,-0.328084,117.49579575462,117.16771175462,0.328084,0,0.106129268488,0.5394029044,18,5,0,117.49579575462,0,0.223694,0.197339901328,0,0,0,137, -6.1, 4.2,0,0,1024,1024,1024,1024,0,0,0,0,148.1,0,0,95,4.277,4.274,0,0,0,0,0,71.6,117.16771175462,-0.328084,10,Assisted_Takeoff,
1200,2022-12-18 05:32:14,-34.9065492808375,-56.1632359192756,-0.328084,-0.328084,117.49579575462,117.16771175462,0.328084,0,0.118427169144,0.57732613396,18,5,0,117.49579575462,0,0.223694,0.197339901328,0,0,0,136, -6, 3.9,0,0,1024,1024,1024,1024,0,0,0,0,147.8,0,0,95,4.277,4.274,0,0,0,0,0,71.6,117.16771175462,-0.328084,10,Assisted_Takeoff,
1300,2022-12-18 05:32:14,-34.9065492828283,-56.1632360066206,-0.328084,-0.328084,117.49579575462,117.16771175462,0.328084,0,0.092325790356,0.60346786708,18,5,0,117.49579575462,0,0.223694,0.197339901328,0,0,0,135.1, -6.8, 3.8,0,0,1024,1024,1051,1024,0,0,4,0,146.7,0,0,95,4.277,4.274,0,0,0,0,0,71.6,117.16771175462,-0.328084,10,Assisted_Takeoff,
1400,2022-12-18 05:32:14,-34.9065492799036,-56.1632361871618,-0.328084,-0.328084,117.49579575462,117.16771175462,0.328084,0,0.03911089364,0.65750002104,18,5,0,117.49579575462,0,0.223694,0.197339901328,0,0,0,135.7, -5.7, 4.2,0,0,1024,1024,1195,1024,0,0,26,0,146.5,0,0,95,4.277,4.274,0,0,0,0,0,71.6,117.16771175462,-0.328084,10,Assisted_Takeoff,
1500,2022-12-18 05:32:14,-34.9065492998578,-56.1632362264311,-0.328084,-0.328084,117.49579575462,117.16771175462,0.328084,0,0.0262639772184,0.67132219996,18,5,8.538,117.49579575462,0,0.223694,0.197339901328,0,0,0,135.9, -8.1, 3.2,0,0,1024,1024,1195,1024,0,0,26,0,146.7,0,0,95,4.277,4.274,0,0,0,0,1.434,71.6,117.16771175462,-0.328084,10,Assisted_Takeoff,
1600,2022-12-18 05:32:14,-34.9065493122352,-56.1632362498147,-0.328084,-0.328084,117.49579575462,117.16771175462,0.328084,0,0.0192860570476,0.67964897188,17,5,8.538,117.49579575462,0,0.223694,0.197339901328,0,0,0,135.4, -7.4, 3.7,0,0,1024,1024,1286,1024,0,0,40,0,146.7,0,0,95,4.277,4.274,0,0,0,0,1.434,71.6,117.16771175462,-0.328084,10,Assisted_Takeoff,
1700,2022-12-18 05:32:15,-34.906549318567,-56.163236301525,-0.328084,-0.328084,117.49579575462,117.16771175462,0.328084,0,0.0058089568788,0.695292017,17,5,8.538,117.49579575462,0,0.223694,0.197339901328,0,0,0,135.1, -6.1, 3.7,0,0,1024,1024,1290,1024,0,0,40,0,146.5,0,0,95,4.277,4.274,0,0,0,0,1.434,71.6,117.16771175462,-0.328084,10,Assisted_Takeoff,
1800,2022-12-18 05:32:15,-34.9065494199873,-56.1632364017347,-0.328084,-0.328084,117.49579575462,117.16771175462,0.328084,0,0.049118439892,0.74291997128,18,5,8.538,117.49579575462,0,0.223694,0.197339901328,0,0,0,134.7, -6.4, 2.4,0,0,1024,1024,1342,1024,0,0,48,0,146.1,0,0,95,4.277,4.274,0,0,0,0,1.434,71.6,117.16771175462,-0.328084,10,Assisted_Takeoff,
1900,2022-12-18 05:32:15,-34.9065493987947,-56.163236440248,-0.328084,-0.328084,117.49579575462,117.16771175462,0.328084,0,0.050690946504,0.75679464364,18,5,8.538,117.49579575462,0,0.223694,0.197339901328,0,0,0,134.5, -4.7, 2.6,0,0,1024,1024,1320,1024,0,0,45,0,145.8,0,0,95,4.277,4.274,0,0,0,0,1.434,71.6,117.16771175462,-0.328084,10,Assisted_Takeoff,
2000,2022-12-18 05:32:15,-34.9065493757941,-56.1632364577281,-0.328084,-0.328084,117.49579575462,117.16771175462,0.328084,0,0.04996391236,0.7666830954,17,5,8.538,117.49579575462,0,0.223694,0.197339901328,0,0,0,134.1, -4.4, 1.2,0,0,1024,1024,1254,1024,0,0,35,0,145.4,0,0,95,4.277,4.274,0,0,0,0,1.434,71.6,117.16771175462,-0.328084,10,Assisted_Takeoff,
2100,2022-12-18 05:32:15,-34.9065493567414,-56.1632364637367,-0.328084,-0.328084,117.49579575462,117.16771175462,0.328084,0,0.048477363756,0.77386485416,17,5,8.538,117.49579575462,0,0.223694,0.197339901328,0,0,0,132.7, -3.9, -0.2,0,0,1024,1024,1075,1024,0,0,8,0,144.3,0,0,95,4.277,4.274,0,0,0,0,1.434,71.6,117.16771175462,-0.328084,10,Assisted_Takeoff,
2200,2022-12-18 05:32:15,-34.9065493272608,-56.1632363409327,-0.328084,-0.328084,117.49579575462,117.16771175462,0.328084,0,0.011146981984,0.81214897612,17,5,8.538,117.49579575462,0,0.223694,0.197339901328,0,0,0,131.3, -2.7, -0.7,0,0,1024,1024,1024,1024,0,0,0,0,142.8,0,0,95,4.277,4.274,0,0,0,0,1.434,71.6,117.16771175462,-0.328084,10,Assisted_Takeoff,
2300,2022-12-18 05:32:15,-34.9065493255843,-56.1632363439263,-0.328084,-0.328084,117.49579575462,117.16771175462,0.328084,0,0.0114269032528,0.81323493416,17,5,8.538,117.49579575462,0,0.223694,0.197339901328,0,0,0,129.9, -2.7, -1.1,0,0,1024,1024,1024,1024,0,0,0,0,141.4,0,0,95,4.277,4.274,0,0,0,0,1.434,71.6,117.16771175462,-0.328084,10,Assisted_Takeoff,
2400,2022-12-18 05:32:15,-34.9065493345705,-56.1632363037364,-0.328084,-0.328084,117.49579575462,117.16771175462,0.328084,0.223694,0.0107598100556,0.82569884532,17,5,8.538,117.49579575462,0,0.223694,0.197339901328,0,0.223694,0,128.8, -2.2, -1.2,0,0,1024,1024,1024,1024,0,0,0,0,140.1,0,0,95,4.277,4.274,0,0,0,0,1.434,71.6,117.16771175462,-0.328084,10,Assisted_Takeoff,
2500,2022-12-18 05:32:15,-34.906549405284,-56.1632362224732,-0.328084,-0.328084,117.49579575462,117.16771175462,0.328084,0.223694,0.045306103812,0.86115160236,17,5,8.538,117.49579575462,0,0.223694,0.197339901328,0,0.223694,0.223694,128.5, -1.2, -0.8,0,0,1024,1024,1024,1024,0,0,0,0,139.6,0,0,95,4.277,4.274,0,0,0,0,1.434,71.6,117.16771175462,-0.328084,6,P-GPS,"Error de calibraci贸n del estabilizador. Reinicia la aeronave o contacta con la Asistencia DJI (Code: 40011)"
2600,2022-12-18 05:32:15,-34.9065494896488,-56.1632361124981,-0.656168,-0.656168,117.49579575462,116.83962775462,0.328084,0.447388,0.0900344517,0.90620737808,17,5,8.509,117.49579575462,0,0.447388,0.197339901328,0,0.447388,0.671082,128.7, 0.4, 0.4,0,0,1024,1024,1024,1024,0,0,0,0,139.6,0,0,95,4.184,4.177,0,0,0,0,1.677,71.6,116.83962775462,-0.656168,6,P-GPS,
2700,2022-12-18 05:32:15,-34.9065496967983,-56.1632361287905,-0.656168,-0.62335960000001,117.46298735462,116.83962775462,0.656168,0.223694,0.152865162372,0.98194228864,17,5,8.509,117.49579575462,0,0.447388,0.197339901328,0,0.223694,0.447388,128.8, 1.1, 1,0,0,1024,1024,1024,1024,0,0,0,0,139.6,0,0,95,4.184,4.177,0,0,0,0,1.677,71.6,116.83962775462,-0.656168,6,P-GPS,
2800,2022-12-18 05:32:16,-34.9065499218766,-56.1632361766142,-0.656168,-0.62335960000001,117.46298735462,116.83962775462,0.656168,0.223694,0.228326122792,1.06530187136,18,5,8.509,117.49579575462,0,0.447388,0.228326122792,0,0.223694,0.223694,128.8, 1.3, 1.1,0,0,1024,1024,1024,1024,0,0,0,0,139.6,0,0,95,4.184,4.177,0,0,0,0,1.677,71.6,116.83962775462,-0.656168,6,P-GPS,
2900,2022-12-18 05:32:16,-34.9065499742811,-56.1632360677431,-0.656168,-0.62335960000001,117.46298735462,116.83962775462,0.656168,0.223694,0.25460466694,1.10307090144,18,5,8.509,117.49579575462,0,0.447388,0.25460466694,0,0.223694,0,128.8, 1.3, 0.7,0,0,1024,1024,1024,1024,0,0,0,0,139.6,0,0,95,4.184,4.177,0,0,0,0,1.677,71.6,116.83962775462,-0.656168,6,P-GPS,
3000,2022-12-18 05:32:16,-34.9065499923752,-56.1632359474535,-0.656168,-0.62335960000001,117.46298735462,116.83962775462,0.656168,0.223694,0.273278880136,1.1396653908,18,5,8.509,117.49579575462,0,0.447388,0.273278880136,0,0.223694,-0.223694,128.8, 1.2, 0.7,0,0,1024,1024,1024,1024,0,0,0,0,139.6,0,0,95,4.184,4.177,0,0,0,0,1.677,71.6,116.83962775462,-0.656168,6,P-GPS,
3100,2022-12-18 05:32:16,-34.9065499513685,-56.1632358146327,-0.656168,-0.62335960000001,117.46298735462,116.83962775462,0.984252,0,0.27876149186,1.18212930292,18,5,8.509,117.49579575462,0,0.447388,0.27876149186,0,0,-0.671082,128.8, 1.1, 0.8,0,0,1024,1024,1024,1024,0,0,0,0,139.6,0,0,95,4.184,4.177,0,0,0,0,1.677,71.6,116.83962775462,-0.656168,6,P-GPS,
3200,2022-12-18 05:32:16,-34.9065499562221,-56.1632357998615,-0.328084,-0.29527560000001,117.46298735462,117.16771175462,0.984252,0,0.282638788572,1.18688980176,17,5,8.509,117.49579575462,0,0.447388,0.282638788572,0,0,-0.894776,128.8, 1, 0.9,0,0,1024,1024,1024,1024,0,0,0,0,139.6,0,0,95,4.184,4.177,0,0,0,0,1.677,71.6,117.16771175462,-0.328084,6,P-GPS,
3300,2022-12-18 05:32:16,-34.906550050954,-56.1632356991321,-0.328084,-0.29527560000001,117.46298735462,117.16771175462,1.312336,0,0.3281004042,1.23274610244,17,5,8.509,117.49579575462,0,0.447388,0.3281004042,0,0,-0.894776,128.8, 1, 0.9,0,0,1024,1024,1024,1024,0,0,0,0,139.6,0,0,95,4.184,4.177,0,0,0,0,1.677,71.6,117.16771175462,-0.328084,6,P-GPS,"Error de calibraci贸n del estabilizador. Reinicia la aeronave o contacta con la Asistencia DJI (Code: 40011)"
3400,2022-12-18 05:32:16,-34.9065501595113,-56.1632355990295,0,0.032808399999993,117.46298735462,117.49579575462,1.312336,0,0.37769686248,1.28240489668,17,5,8.509,117.49579575462,0,0.447388,0.37769686248,0,0,-0.894776,128.8, 1, 0.9,0,0,1024,1024,1024,1024,0,0,0,0,139.6,0,0,95,4.184,4.177,0,0,0,0,1.677,71.6,117.49579575462,0,6,P-GPS,
3500,2022-12-18 05:32:16,-34.9065502785082,-56.1632350123375,0,0,117.49579575462,117.49579575462,1.64042,0,0.52676182788,1.4632382358,17,5,8.509,117.49579575462,0,0.447388,0.52676182788,0,0,-0.671082,128.9, 0.9, 1,0,0,1024,1024,1024,1024,0,0,0,0,139.6,0,0,95,4.184,4.177,0,0,0,0,1.677,71.6,117.49579575462,0,6,P-GPS,
3600,2022-12-18 05:32:16,-34.9065502695054,-56.1632348601936,0,0,117.49579575462,117.49579575462,1.64042,0,0.55918308876,1.50887800104,16,5,8.336,117.49579575462,0,0.447388,0.55918308876,0,0,-0.447388,128.9, 1, 1,0,0,1024,1024,1024,1024,0,0,0,0,139.6,0,0,95,4.162,4.162,0,0,0,0,4.216,71.6,117.49579575462,0,6,P-GPS,
3700,2022-12-18 05:32:16,-34.9065502751878,-56.1632348395998,0,0,117.49579575462,117.49579575462,1.64042,0,0.56528545116,1.51538062592,16,5,8.336,117.49579575462,0,0.447388,0.56528545116,0,0,-0.223694,128.9, 0.8, 0.9,0,0,1024,1024,1024,1024,0,0,0,0,139.6,0,0,95,4.162,4.162,0,0,0,0,4.216,71.6,117.49579575462,0,6,P-GPS,
3800,2022-12-18 05:32:17,-34.9065502833353,-56.1632348581735,0,0,117.49579575462,117.49579575462,1.64042,0,0.56283794452,1.52168311956,17,5,8.336,117.49579575462,0,0.447388,0.56528545116,0,0,0,128.9, 0.9, 0.8,0,0,1024,1024,1024,1024,0,0,0,0,139.6,0,0,95,4.162,4.162,0,0,0,0,4.216,71.6,117.49579575462,0,6,P-GPS,
3900,2022-12-18 05:32:17,-34.9065503404111,-56.1632350210054,0,0,117.49579575462,117.49579575462,1.64042,0,0.54036747136,1.57466540472,17,5,8.336,117.49579575462,0,0.447388,0.56528545116,0,0,0,128.9, 0.7, 0.6,0,0,1024,1024,1024,1024,0,0,0,0,139.6,0,0,95,4.162,4.162,0,0,0,0,4.216,71.6,117.49579575462,0,6,P-GPS,
4000,2022-12-18 05:32:17,-34.9065503658653,-56.1632350899047,0,0,117.49579575462,117.49579575462,1.64042,0,0.53250985956,1.597276954,17,5,8.336,117.49579575462,0,0.447388,0.56528545116,0,0,0,128.9, 0.9, 0.9,0,0,1024,1024,1024,1024,0,0,0,0,139.6,0,0,95,4.162,4.162,0,0,0,0,4.216,71.6,117.49579575462,0,6,P-GPS,
4100,2022-12-18 05:32:17,-34.9065504019931,-56.1632352319979,0,0,117.49579575462,117.49579575462,1.64042,0,0.51439306108,1.64178811028,17,5,8.336,117.49579575462,0,0.447388,0.56528545116,0,0,0,128.9, 0.7, 0.7,0,0,1024,1024,1024,1024,0,0,0,0,139.6,0,0,95,4.162,4.162,0,0,0,0,4.216,71.6,117.49579575462,0,6,P-GPS,
4200,2022-12-18 05:32:17,-34.9065504383844,-56.1632354019464,0,0,117.49579575462,117.49579575462,1.64042,0,0.49503282424,1.69434388624,18,5,8.336,117.49579575462,0,0.447388,0.56528545116,0,0,0,128.9, 0.4, 0.7,0,0,1024,1024,1024,1024,0,0,0,0,139.6,0,0,95,4.162,4.162,0,0,0,0,4.216,71.6,117.49579575462,0,6,P-GPS,
4300,2022-12-18 05:32:17,-34.9065504811319,-56.163235516708,0,0.032808399999993,117.46298735462,117.49579575462,1.64042,0,0.49053807344,1.73205714204,18,5,8.336,117.49579575462,0,0.447388,0.56528545116,0,0,0,128.9, 0.1, 0.3,0,0,1024,1024,1024,1024,0,0,0,0,139.6,0,0,95,4.162,4.162,0,0,0,0,4.216,71.6,117.49579575462,0,6,P-GPS,
4400,2022-12-18 05:32:17,-34.9065506177897,-56.1632357608756,0,0.065616799999987,117.43017895462,117.49579575462,1.64042,0,0.50630579048,1.8205053076,18,5,8.336,117.49579575462,0,0.447388,0.56528545116,0,0,0,128.9, 0.2, 0.5,0,0,1024,1024,1024,1024,0,0,0,0,139.6,0,0,95,4.162,4.162,0,0,0,0,4.216,71.6,117.49579575462,0,6,P-GPS,
4500,2022-12-18 05:32:17,-34.9065506246776,-56.1632358562133,0,0.065616799999987,117.43017895462,117.49579575462,1.64042,0,0.5001312496,1.84914375996,18,5,8.336,117.49579575462,0,0.447388,0.56528545116,0,0,0,128.9, 0, 0.3,0,0,1024,1024,1024,1024,0,0,0,0,139.6,0,0,95,4.162,4.162,0,0,0,0,4.216,71.6,117.49579575462,0,6,P-GPS,
4600,2022-12-18 05:32:17,-34.9065506242391,-56.1632359521635,0,0.065616799999987,117.43017895462,117.49579575462,1.64042,0,0.49288715488,1.87785110996,18,5,8.336,117.49579575462,0,0.447388,0.56528545116,0,0,0,129, 0, 0.3,0,0,1024,1024,1024,1024,0,0,0,0,139.6,0,0,95,4.162,4.162,0,0,0,0,4.216,71.6,117.49579575462,0,6,P-GPS,
4700,2022-12-18 05:32:18,-34.9065506159951,-56.1632359714136,0,0.065616799999987,117.43017895462,117.49579575462,1.64042,0,0.4887139264,1.884350454,18,5,8.361,117.49579575462,0,0.447388,0.56528545116,0,0,0,129, -0.1, 0,0,0,1024,1024,1024,1024,0,0,0,0,139.6,0,0,95,4.169,4.167,0,0,0,0,4.175,71.78,117.49579575462,0,6,P-GPS,
4800,2022-12-18 05:32:18,-34.9065505324722,-56.1632358007625,0,0.065616799999987,117.43017895462,117.49579575462,1.64042,0,0.47298557944,1.94381239816,17,5,8.361,117.49579575462,0,0.447388,0.56528545116,0,0,0,129, -0.1, 0.1,0,0,1024,1024,1024,1024,0,0,0,0,139.6,0,0,95,4.169,4.167,0,0,0,0,4.175,71.78,117.49579575462,0,6,P-GPS,
4900,2022-12-18 05:32:18,-34.9065504825836,-56.1632357544197,0,0.032808399999993,117.46298735462,117.49579575462,1.64042,0,0.4606627444,1.96669297632,17,5,8.361,117.49579575462,0,0.447388,0.56528545116,0,0,0,129, 0, 0.4,0,0,1024,1024,1024,1024,0,0,0,0,139.6,0,0,95,4.169,4.167,0,0,0,0,4.175,71.78,117.49579575462,0,6,P-GPS,
5000,2022-12-18 05:32:18,-34.906550429283,-56.1632357024031,0,0.032808399999993,117.46298735462,117.49579575462,1.64042,0,0.4487204868,1.9916011136,17,5,8.361,117.49579575462,0,0.447388,0.56528545116,0,0,0,129, -0.1, 0.6,0,0,1024,1024,1024,1024,0,0,0,0,139.6,0,0,95,4.169,4.167,0,0,0,0,4.175,71.78,117.49579575462,0,6,P-GPS,
5100,2022-12-18 05:32:18,-34.9065504596364,-56.1632356888751,0,0.032808399999993,117.46298735462,117.49579575462,1.64042,0,0.4604822982,2.00339245256,17,5,8.361,117.49579575462,0,0.447388,0.56528545116,0,0,0,129, -0.1, 0.5,0,0,1024,1024,1024,1024,0,0,0,0,139.6,0,0,95,4.169,4.167,0,0,0,0,4.175,71.78,117.49579575462,0,6,P-GPS,
5200,2022-12-18 05:32:18,-34.9065504911321,-56.1632354912214,0,0,117.49579575462,117.49579575462,1.64042,0,0.497457365,2.06363851748,17,5,8.361,117.49579575462,0,0.447388,0.56528545116,0,0,0,129, 0.2, 0.6,0,0,1024,1024,1024,1024,0,0,0,0,139.6,0,0,95,4.169,4.167,0,0,0,0,4.175,71.78,117.49579575462,0,6,P-GPS,
5300,2022-12-18 05:32:18,-34.9065504878121,-56.1632354737942,0,0,117.49579575462,117.49579575462,1.64042,0,0.49901248316,2.06899284836,17,5,8.361,117.49579575462,0,0.447388,0.56528545116,0,0,0,128.9, 0.2, 0.4,0,0,1024,1024,1024,1024,0,0,0,0,139.6,0,0,95,4.169,4.167,0,0,0,0,4.175,71.78,117.49579575462,0,6,P-GPS,
5400,2022-12-18 05:32:18,-34.9065504773913,-56.1632354611658,0,0,117.49579575462,117.49579575462,1.64042,0,0.49765749624,2.07435046008,17,5,8.361,117.49579575462,0,0.447388,0.56528545116,0,0,0,128.9, 0.4, 0.3,0,0,1024,1024,1024,1024,0,0,0,0,139.6,0,0,95,4.169,4.167,0,0,0,0,4.175,71.78,117.49579575462,0,6,P-GPS,
5500,2022-12-18 05:32:18,-34.9065505248886,-56.1632354224344,0,0.065616799999987,117.43017895462,117.49579575462,1.64042,0,0.51847770688,2.09520019828,17,5,8.361,117.49579575462,0,0.447388,0.56528545116,0,0,0,128.9, 0.2, 0.2,0,0,1024,1024,1024,1024,0,0,0,0,139.6,0,0,95,4.169,4.167,0,0,0,0,4.175,71.78,117.49579575462,0,6,P-GPS,"Punto de origen actualizado. Altitud de RPO establecida en 100m (Code: 3000001)"
5600,2022-12-18 05:32:18,-34.9065505786602,-56.1632352621083,0,0.065616799999987,117.43017895462,117.49579575462,1.64042,0,0.56083991296,2.14702762776,17,5,8.361,117.49579575462,0,0.447388,0.56528545116,0,0,0,129, 0.2, 0.3,0,0,1024,1024,1024,1024,0,0,0,0,139.6,0,0,95,4.169,4.167,0,0,0,0,4.175,71.78,117.49579575462,0,6,P-GPS,
5700,2022-12-18 05:32:19,-34.9065506053019,-56.1632352202156,0,0.065616799999987,117.43017895462,117.49579575462,1.64042,0,0.57593833864,2.16288720832,17,5,8.334,117.49579575462,0,0.447388,0.57593833864,0,0,0,128.9, -0.1, 0.3,0,0,1024,1024,1024,1024,0,0,0,0,139.6,0,0,95,4.166,4.162,0,0,0,0,4.22,71.78,117.49579575462,0,6,P-GPS,
5800,2022-12-18 05:32:19,-34.9065506319075,-56.1632351745962,0,0.065616799999987,117.43017895462,117.49579575462,1.64042,0,0.59170933652,2.17963917736,17,5,8.334,117.49579575462,0,0.447388,0.59170933652,0,0,0,129, 0, 0.2,0,0,1024,1024,1024,1024,0,0,0,0,139.6,0,0,95,4.166,4.162,0,0,0,0,4.22,71.78,117.49579575462,0,6,P-GPS,
5900,2022-12-18 05:32:19,-34.9065506845717,-56.1632351215651,0,0.065616799999987,117.43017895462,117.49579575462,1.64042,0,0.61656169952,2.20455715716,17,5,8.334,117.49579575462,0,0.447388,0.61656169952,0,0,0,128.9, 0, 0,0,0,1024,1024,1024,1024,0,0,0,0,139.6,0,0,95,4.166,4.162,0,0,0,0,4.22,71.78,117.49579575462,0,6,P-GPS,
6000,2022-12-18 05:32:19,-34.9065507452728,-56.1632350639088,0,0.065616799999987,117.43017895462,117.49579575462,1.64042,0,0.64460631984,2.23263130504,17,5,8.334,117.49579575462,0,0.447388,0.64460631984,0,0,0,129, 0.4, 0.2,0,0,1024,1024,1024,1024,0,0,0,0,139.6,0,0,95,4.166,4.162,0,0,0,0,4.22,71.78,117.49579575462,0,6,P-GPS,
6100,2022-12-18 05:32:19,-34.9065507738121,-56.1632348428787,0,0.065616799999987,117.43017895462,117.49579575462,1.64042,0,0.6931102584,2.29958012608,17,5,8.334,117.49579575462,0,0.447388,0.6931102584,0,0,0,129.1, 0.9, 0.2,0,0,1024,1024,1024,1024,0,0,0,0,139.6,0,0,95,4.166,4.162,0,0,0,0,4.22,71.78,117.49579575462,0,6,P-GPS,
6200,2022-12-18 05:32:19,-34.9065507964788,-56.1632345989461,0,0.065616799999987,117.43017895462,117.49579575462,1.64042,0,0.74759516828,2.373031572,17,5,8.334,117.49579575462,0,0.447388,0.74759516828,0,0,0,129, 0.7, 0.2,0,0,1024,1024,1024,1024,0,0,0,0,139.6,0,0,95,4.166,4.162,0,0,0,0,4.22,71.78,117.49579575462,0,6,P-GPS,
6300,2022-12-18 05:32:19,-34.9065508381902,-56.1632345041751,0,0.065616799999987,117.43017895462,117.49579575462,1.64042,0,0.77819228212,2.40521333156,17,5,8.334,117.49579575462,0,0.447388,0.77819228212,0,0,0,129, 0.6, 0.2,0,0,1024,1024,1024,1024,0,0,0,0,139.6,0,0,95,4.166,4.162,0,0,0,0,4.22,71.78,117.49579575462,0,6,P-GPS,
6400,2022-12-18 05:32:19,-34.9065508829667,-56.1632344380624,0,0.032808399999993,117.46298735462,117.49579575462,1.64042,0,0.80369425144,2.43086950036,17,5,8.334,117.49579575462,0,0.447388,0.80369425144,0,0,0,129, 0.5, 0.2,0,0,1024,1024,1024,1024,0,0,0,0,139.6,0,0,95,4.166,4.162,0,0,0,0,4.22,71.78,117.49579575462,0,6,P-GPS,
6500,2022-12-18 05:32:19,-34.9065509567967,-56.1632342942429,0,0.032808399999993,117.46298735462,117.49579575462,1.64042,0,0.85311026352,2.48163721852,17,5,8.334,117.49579575462,0,0.447388,0.85311026352,0,0,0,129.1, 0.3, 0,0,0,1024,1024,1024,1024,0,0,0,0,139.6,0,0,95,4.166,4.162,0,0,0,0,4.22,71.78,117.49579575462,0,6,P-GPS,
6600,2022-12-18 05:32:19,-34.906551000211,-56.1632342159641,0,0.032808399999993,117.46298735462,117.49579575462,1.64042,0,0.88089897832,2.50991149764,17,5,8.334,117.49579575462,0,0.447388,0.88089897832,0,0,0,129.1, 0.4, 0.2,0,0,1024,1024,1024,1024,0,0,0,0,139.6,0,0,95,4.166,4.162,0,0,0,0,4.22,71.78,117.49579575462,0,6,P-GPS,
6700,2022-12-18 05:32:19,-34.9065510009695,-56.1632341353832,0,0.032808399999993,117.46298735462,117.49579575462,1.64042,0,0.89842850644,2.5340223908,17,5,8.323,117.49579575462,0,0.447388,0.89842850644,0,0,0,129.1, 0.6, 0.1,0,0,1024,1024,1024,1024,0,0,0,0,139.6,0,0,95,4.16,4.158,0,0,0,0,4.268,71.78,117.49579575462,0,6,P-GPS,
6800,2022-12-18 05:32:20,-34.9065509928325,-56.1632340564529,0,0.032808399999993,117.46298735462,117.49579575462,1.64042,0,0.91370409748,2.557824885,17,5,8.323,117.49579575462,0,0.447388,0.91370409748,0,0,0,129.1, 0.5, 0.1,0,0,1024,1024,1024,1024,0,0,0,0,139.6,0,0,95,4.16,4.158,0,0,0,0,4.268,71.78,117.49579575462,0,6,P-GPS,
6900,2022-12-18 05:32:20,-34.9065508498674,-56.1632338705161,0,0.032808399999993,117.46298735462,117.49579575462,1.64042,0,0.92283795604,2.6340880108,17,5,8.323,117.49579575462,0,0.447388,0.92283795604,0,0,0,129.1, 0.4, 0.1,0,0,1024,1024,1024,1024,0,0,0,0,139.6,0,0,95,4.16,4.158,0,0,0,0,4.268,71.78,117.49579575462,0,6,P-GPS,
7000,2022-12-18 05:32:20,-34.9065508231662,-56.1632337885928,0,0.032808399999993,117.46298735462,117.49579575462,1.64042,0,0.93658795648,2.6604659644,17,5,8.323,117.49579575462,0,0.447388,0.93658795648,0,0,0,129.1, 0.4, 0.2,0,0,1024,1024,1024,1024,0,0,0,0,139.6,0,0,95,4.16,4.158,0,0,0,0,4.268,71.78,117.49579575462,0,6,P-GPS,
7100,2022-12-18 05:32:20,-34.9065508027984,-56.1632337072807,0,0.032808399999993,117.46298735462,117.49579575462,1.64042,0,0.95204071288,2.68590231692,17,5,8.323,117.49579575462,0,0.447388,0.95204071288,0,0,0,129.2, 0.3, 0.2,0,0,1024,1024,1024,1024,0,0,0,0,139.6,0,0,95,4.16,4.158,0,0,0,0,4.268,71.78,117.49579575462,0,6,P-GPS,
7200,2022-12-18 05:32:20,-34.9065507860153,-56.1632336270837,0,0.032808399999993,117.46298735462,117.49579575462,1.64042,0,0.96836945356,2.71066937808,17,5,8.323,117.49579575462,0,0.447388,0.96836945356,0,0,0,129.2, 0.1, 0,0,0,1024,1024,1024,1024,0,0,0,0,139.6,0,0,95,4.16,4.158,0,0,0,0,4.268,71.78,117.49579575462,0,6,P-GPS,
7300,2022-12-18 05:32:20,-34.9065507416511,-56.1632335755855,0,0.032808399999993,117.46298735462,117.49579575462,1.64042,0,0.97238520172,2.73301517932,17,5,8.323,117.49579575462,0,0.447388,0.97238520172,0,0,0,129.2, 0, -0.1,0,0,1024,1024,1024,1024,0,0,0,0,139.6,0,0,95,4.16,4.158,0,0,0,0,4.268,71.78,117.49579575462,0,6,P-GPS,
7400,2022-12-18 05:32:20,-34.9065507317999,-56.163233538886,0,0.032808399999993,117.46298735462,117.49579575462,1.64042,0,0.97974412584,2.7445702978,17,5,8.323,117.49579575462,0,0.447388,0.97974412584,0,0,0,129.2, 0.1, -0.2,0,0,1024,1024,1024,1024,0,0,0,0,139.6,0,0,95,4.16,4.158,0,0,0,0,4.268,71.78,117.49579575462,0,6,P-GPS,
7500,2022-12-18 05:32:20,-34.9065507698981,-56.1632334670931,0,0,117.49579575462,117.49579575462,1.64042,0,1.00532483532,2.77015756896,17,5,8.323,117.49579575462,0,0.447388,1.00532483532,0,0,0,129.1, 0.1, -0.1,0,0,1024,1024,1024,1024,0,0,0,0,139.6,0,0,95,4.16,4.158,0,0,0,0,4.268,71.78,117.49579575462,0,6,P-GPS,
7600,2022-12-18 05:32:20,-34.9065508202008,-56.1632333819328,0,0,117.49579575462,117.49579575462,1.64042,0,1.03666669984,2.8015584886,17,5,8.323,117.49579575462,0,0.447388,1.03666669984,0,0,0,129.1, 0.3, -0.1,0,0,1024,1024,1024,1024,0,0,0,0,139.6,0,0,95,4.16,4.158,0,0,0,0,4.268,71.78,117.49579575462,0,6,P-GPS,
7700,2022-12-18 05:32:20,-34.9065508413396,-56.1632333180387,0,0,117.49579575462,117.49579575462,1.64042,0,1.05695869524,2.82217200632,17,5,8.314,117.49579575462,0,0.447388,1.05695869524,0,0,0,129.1, 0.4, 0.1,0,0,1024,1024,1024,1024,0,0,0,0,139.6,0,0,95,4.157,4.154,0,0,0,0,4.288,71.78,117.49579575462,0,6,P-GPS,
7800,2022-12-18 05:32:21,-34.9065509602767,-56.1632332056263,0,0,117.49579575462,117.49579575462,1.64042,0,1.10864176776,2.87707686372,17,5,8.314,117.49579575462,0,0.447388,1.10864176776,0,0,0,129.1, 0.5, 0,0,0,1024,1024,1024,1024,0,0,0,0,139.6,0,0,95,4.157,4.154,0,0,0,0,4.288,71.78,117.49579575462,0,6,P-GPS,
7900,2022-12-18 05:32:21,-34.9065509589983,-56.1632331137372,0,0,117.49579575462,117.49579575462,1.64042,0,1.13155515432,2.90457358376,17,5,8.314,117.49579575462,0,0.447388,1.13155515432,0,0,0,129.1, 0.5, 0,0,0,1024,1024,1024,1024,0,0,0,0,139.6,0,0,95,4.157,4.154,0,0,0,0,4.288,71.78,117.49579575462,0,6,P-GPS,
8000,2022-12-18 05:32:21,-34.9065509520974,-56.1632330177413,0,0,117.49579575462,117.49579575462,1.64042,0,1.15464898708,2.93340560568,17,5,8.314,117.49579575462,0,0.447388,1.15464898708,0,0,0,129, 0.3, 0,0,0,1024,1024,1024,1024,0,0,0,0,139.6,0,0,95,4.157,4.154,0,0,0,0,4.288,71.78,117.49579575462,0,6,P-GPS,
8100,2022-12-18 05:32:21,-34.906550981262,-56.1632329675085,0,0,117.49579575462,117.49579575462,1.64042,0,1.17302169108,2.9518209606,17,5,8.314,117.49579575462,0,0.447388,1.17302169108,0,0,0,129, 0.2, 0,0,0,1024,1024,1024,1024,0,0,0,0,139.6,0,0,95,4.157,4.154,0,0,0,0,4.288,71.78,117.49579575462,0,6,P-GPS,
8200,2022-12-18 05:32:21,-34.9065510472388,-56.1632328905472,0,0,117.49579575462,117.49579575462,1.64042,0,1.2052493824,2.98513460996,17,5,8.314,117.49579575462,0,0.447388,1.2052493824,0,0,0,129, 0.1, 0,0,0,1024,1024,1024,1024,0,0,0,0,139.6,0,0,95,4.157,4.154,0,0,0,0,4.288,71.78,117.49579575462,0,6,P-GPS,
8300,2022-12-18 05:32:21,-34.9065510549577,-56.1632328208476,0,0,117.49579575462,117.49579575462,1.64042,0,1.22448494732,3.00617791772,17,5,8.314,117.49579575462,0,0.447388,1.22448494732,0,0,0,129.1, 0.2, 0,0,0,1024,1024,1102,1028,0,0,12,1,139.6,0,0,95,4.157,4.154,0,0,0,0,4.288,71.78,117.49579575462,0,6,P-GPS,
8400,2022-12-18 05:32:21,-34.9065510586852,-56.1632327441109,0,0,117.49579575462,117.49579575462,1.64042,0,1.24483927868,3.02917988696,17,5,8.314,117.49579575462,0,0.447388,1.24483927868,0,0,0,129, 0.3, 0,0,0,1024,1024,1407,1024,0,0,58,0,139.6,0,0,95,4.157,4.154,0,0,0,0,4.288,71.78,117.49579575462,0,6,P-GPS,
8500,2022-12-18 05:32:21,-34.9065510532494,-56.1632326966895,0,0,117.49579575462,117.49579575462,1.64042,0,1.25602694308,3.04350731524,17,5,8.314,117.49579575462,0,0.447388,1.25602694308,0,0,-0.223694,128.9, 0.2, -0.1,0,0,1024,1024,1397,1024,0,0,57,0,139.6,0,0,95,4.157,4.154,0,0,0,0,4.288,71.78,117.49579575462,0,6,P-GPS,
8600,2022-12-18 05:32:21,-34.9065510004561,-56.1632326505621,0,0,117.49579575462,117.49579575462,1.968504,0,1.258366182,3.06720154172,17,5,8.314,117.49579575462,0,0.447388,1.258366182,0,0,-0.894776,128.9, 0.3, -0.1,0,0,1024,1024,1024,1024,0,0,0,0,139.6,0,0,95,4.157,4.154,0,0,0,0,4.288,71.78,117.49579575462,0,6,P-GPS,
8700,2022-12-18 05:32:22,-34.9065509938821,-56.1632326470887,0.328084,0.328084,117.49579575462,117.82387975462,1.968504,0,1.25809387228,3.0698163712,17,5,8.311,117.82387975462,0.328084,0.447388,1.258366182,0,0,-1.342164,129.2, 0.2, 0.2,0,0,1024,1024,1024,1024,0,0,0,0,139.6,0,0,95,4.157,4.153,0,0,0,0,4.228,71.96,117.82387975462,0.328084,6,P-GPS,
8800,2022-12-18 05:32:22,-34.9065509909224,-56.1632326509539,0.328084,0.328084,117.49579575462,117.82387975462,2.296588,0,1.25655843916,3.07139773608,17,5,8.311,117.82387975462,0.328084,0.447388,1.258366182,0,0,-0.894776,129.2, 0.6, 0.2,0,0,1024,1024,1024,1024,0,0,0,0,139.6,0,0,95,4.157,4.153,0,0,0,0,4.228,71.96,117.82387975462,0.328084,6,P-GPS,
8900,2022-12-18 05:32:22,-34.9065509481533,-56.1632326735729,0.328084,0.328084,117.49579575462,117.82387975462,2.296588,0,1.24306434424,3.08840561064,17,5,8.311,117.82387975462,0.328084,0.447388,1.258366182,0,0,-0.671082,129.2, 0.6, 0.2,0,0,1444,1024,1024,1024,64,0,0,0,139.6,0,0,95,4.157,4.153,0,0,0,0,4.228,71.96,117.82387975462,0.328084,6,P-GPS,
9000,2022-12-18 05:32:22,-34.9065508055191,-56.1632328749416,0.328084,0.328084,117.49579575462,117.82387975462,2.296588,0,1.16531171708,3.16802175492,17,5,8.311,117.82387975462,0.328084,0.447388,1.258366182,0,0,-0.223694,129.2, 0.4, 0.1,0,0,1684,1024,1024,1024,100,0,0,0,139.6,0,0,95,4.157,4.153,0,0,0,0,4.228,71.96,117.82387975462,0.328084,6,P-GPS,
9100,2022-12-18 05:32:22,-34.9065507454043,-56.1632329040988,0.656168,0.656168,117.49579575462,118.15196375462,2.296588,0,1.14741473488,3.19162411788,17,5,8.311,118.15196375462,0.656168,0.447388,1.258366182,0,0,0,129.2, -4.7, -0.3,0,0,1437,1024,1024,1024,63,0,0,0,139.6,0,0,95,4.157,4.153,0,0,0,0,4.228,71.96,118.15196375462,0.656168,6,P-GPS,
9200,2022-12-18 05:32:22,-34.9065507216005,-56.1632328702838,0.656168,0.656168,117.49579575462,118.15196375462,2.296588,0,1.15250331772,3.20495745164,17,5,8.311,118.15196375462,0.656168,0.447388,1.258366182,0,0,0,129.2, -13.7, -0.2,0,0,1437,1024,1024,1024,63,0,0,0,139.6,0,0,95,4.157,4.153,0,0,0,0,4.228,71.96,118.15196375462,0.656168,6,P-GPS,
9300,2022-12-18 05:32:22,-34.9065508950762,-56.1632327139117,0.656168,0.656168,117.49579575462,118.15196375462,2.296588,0.6263432,1.22320870056,3.2836615224,17,5,8.311,118.15196375462,0.656168,0.6263432,1.258366182,-0.447388,0.447388,0,129.1, -14.8, 0,0,0,1024,1024,1024,1024,0,0,0,0,139.6,0,0,95,4.157,4.153,0,0,0,0,4.228,71.96,118.15196375462,0.656168,6,P-GPS,
9400,2022-12-18 05:32:22,-34.9065512233941,-56.1632323595516,0.656168,0.62335959999998,117.52860415462,118.15196375462,2.296588,1.11847,1.37445214372,3.4436352808,19,5,8.311,118.15196375462,0.656168,1.11847,1.37445214372,-0.671082,0.894776,0,129, 0.5, 0,0,0,1024,1024,1024,1024,0,0,0,0,139.6,0,0,95,4.157,4.153,0,0,0,0,4.228,71.96,118.15196375462,0.656168,6,P-GPS,
9500,2022-12-18 05:32:22,-34.9065515964662,-56.1632321282696,0.656168,0.656168,117.49579575462,118.15196375462,2.296588,0.9395148,1.50552170172,3.5963255744,19,5,8.311,118.15196375462,0.656168,1.11847,1.50552170172,-0.671082,0.671082,0,128.9, 5.2, -0.3,0,0,1024,1024,1024,1266,0,0,0,37,139.6,0,0,95,4.157,4.153,0,0,0,0,4.228,71.96,118.15196375462,0.656168,6,P-GPS,
9600,2022-12-18 05:32:22,-34.9065519113148,-56.1632317810888,0.656168,0.656168,117.49579575462,118.15196375462,2.296588,0.8052984,1.65612210024,3.7512140308,19,5,8.311,118.15196375462,0.656168,1.11847,1.65612210024,-0.447388,0.671082,0,129, 5.6, -0.4,0,0,1024,1024,1036,1451,0,0,2,65,139.8,0,0,95,4.157,4.153,0,0,0,0,4.228,71.96,118.15196375462,0.656168,6,P-GPS,
9700,2022-12-18 05:32:22,-34.9065521182546,-56.163231512568,0.656168,0.656168,117.49579575462,118.15196375462,2.296588,0.6263432,1.76531829796,3.8614502548,19,5,8.315,118.15196375462,0.656168,1.11847,1.76531829796,-0.447388,0.447388,0,129.5, 4.8, -0.1,0,0,1024,1024,1024,1295,0,0,0,41,140.8,0,0,95,4.147,4.142,0,0,0,0,4.402,71.96,118.15196375462,0.656168,6,P-GPS,
9800,2022-12-18 05:32:23,-34.9065522770367,-56.1632312924663,0.656168,0.62335959999998,117.52860415462,118.15196375462,2.296588,0.3131716,1.85260176532,3.9491799164,19,5,8.315,118.15196375462,0.656168,1.11847,1.85260176532,-0.223694,0.223694,0,130.7, 4, 0,0,0,1024,1024,1024,1024,0,0,0,0,142.6,0,0,95,4.147,4.142,0,0,0,0,4.402,71.96,118.15196375462,0.656168,6,P-GPS,
9900,2022-12-18 05:32:23,-34.906552743982,-56.1632309011155,0.656168,0.656168,117.49579575462,118.15196375462,2.296588,0.3131716,2.04842198156,4.1559056448,19,5,8.315,118.15196375462,0.656168,1.11847,2.04842198156,-0.223694,0.223694,0,132.3, 3.3, 0.1,0,0,1024,1024,1024,1024,0,0,0,0,144,0,0,95,4.147,4.142,0,0,0,0,4.402,71.96,118.15196375462,0.656168,6,P-GPS,
10000,2022-12-18 05:32:23,-34.9065529859364,-56.1632306520824,0.656168,0.656168,117.49579575462,118.15196375462,2.296588,0,2.16152237888,4.2714240212,19,5,8.315,118.15196375462,0.656168,1.11847,2.16152237888,0,0,0,133.2, 2.5, 0.3,0,0,1024,1024,1024,1024,0,0,0,0,144.6,0,0,95,4.147,4.142,0,0,0,0,4.402,71.96,118.15196375462,0.656168,6,P-GPS,
10100,2022-12-18 05:32:23,-34.9065530829715,-56.1632306013129,0.656168,0.656168,117.49579575462,118.15196375462,2.296588,0,2.19549219624,4.3099410828,19,5,8.315,118.15196375462,0.656168,1.11847,2.19549219624,0,0,0,133.7, 1.7, 0.1,0,0,1024,1024,1024,1024,0,0,0,0,144.8,0,0,95,4.147,4.142,0,0,0,0,4.402,71.96,118.15196375462,0.656168,6,P-GPS,
10200,2022-12-18 05:32:23,-34.9065531417075,-56.1632306112174,0.656168,0.656168,117.49579575462,118.15196375462,2.296588,0,2.20671266904,4.3315618184,17,5,8.315,118.15196375462,0.656168,1.11847,2.20671266904,0,0,0,133.9, 1.3, -0.1,0,0,1024,1024,1024,1024,0,0,0,0,144.8,0,0,95,4.147,4.142,0,0,0,0,4.402,71.96,118.15196375462,0.656168,6,P-GPS,
10300,2022-12-18 05:32:23,-34.9065528897591,-56.1632310829807,0.656168,0.656168,117.49579575462,118.15196375462,2.296588,0,2.03936030148,4.5000329524,17,5,8.315,118.15196375462,0.656168,1.11847,2.20671266904,0,0,0,133.9, 1.1, -0.1,0,0,1024,1024,1024,1024,0,0,0,0,144.8,0,0,95,4.147,4.142,0,0,0,0,4.402,71.96,118.15196375462,0.656168,6,P-GPS,
10400,2022-12-18 05:32:23,-34.9065528582874,-56.1632312109165,0.656168,0.656168,117.49579575462,118.15196375462,2.296588,0,2.00268051028,4.5399935836,18,5,8.315,118.15196375462,0.656168,1.11847,2.20671266904,0,0,0,134, 0.8, 0,0,0,1024,1024,1024,1024,0,0,0,0,144.8,0,0,95,4.147,4.142,0,0,0,0,4.402,71.96,118.15196375462,0.656168,6,P-GPS,
10500,2022-12-18 05:32:23,-34.9065528342334,-56.1632313437228,0.656168,0.656168,117.49579575462,118.15196375462,2.296588,0,1.9667979632,4.5806759996,18,5,8.315,118.15196375462,0.656168,1.11847,2.20671266904,0,0,0,134, 0.6, 0,0,0,1024,1024,1024,1024,0,0,0,0,144.8,0,0,95,4.147,4.142,0,0,0,0,4.402,71.96,118.15196375462,0.656168,6,P-GPS,
10600,2022-12-18 05:32:23,-34.9065528146296,-56.1632314853042,0.656168,0.656168,117.49579575462,118.15196375462,2.296588,0,1.9302165972,4.6236550036,18,5,8.315,118.15196375462,0.656168,1.11847,2.20671266904,0,0,0,134, 0.3, 0,0,0,1024,1024,1024,1024,0,0,0,0,144.8,0,0,95,4.147,4.142,0,0,0,0,4.402,71.96,118.15196375462,0.656168,6,P-GPS,
10700,2022-12-18 05:32:23,-34.9065528822674,-56.1632316702107,0.656168,0.68897639999999,117.46298735462,118.15196375462,2.296588,0,1.9059711896,4.68421931,18,5,8.315,118.15196375462,0.656168,1.11847,2.20671266904,0,0,0,134, 0.3, 0,0,0,1024,1024,1024,1024,0,0,0,0,144.8,0,0,95,4.147,4.142,0,0,0,0,4.402,71.96,118.15196375462,0.656168,6,P-GPS,
10800,2022-12-18 05:32:24,-34.9065529449139,-56.1632317633873,0.656168,0.68897639999999,117.46298735462,118.15196375462,2.296588,0,1.90162735744,4.7202757416,17,5,8.295,118.15196375462,0.656168,1.11847,2.20671266904,0,0,0,134.1, 0.4, 0,0,0,1024,1024,1024,1024,0,0,0,0,144.8,0,0,95,4.151,4.148,0,0,0,0,4.276,71.96,118.15196375462,0.656168,6,P-GPS,
10900,2022-12-18 05:32:24,-34.9065530089526,-56.163231810481,0.656168,0.68897639999999,117.46298735462,118.15196375462,2.296588,0,1.90803483796,4.7475723304,17,5,8.295,118.15196375462,0.656168,1.11847,2.20671266904,0,0,0,134.2, 0.6, -0.1,0,0,1024,1024,1024,1024,0,0,0,0,144.8,0,0,95,4.151,4.148,0,0,0,0,4.276,71.96,118.15196375462,0.656168,6,P-GPS,
11000,2022-12-18 05:32:24,-34.9065530753602,-56.1632318563146,0.656168,0.68897639999999,117.46298735462,118.15196375462,2.296588,0,1.91569231852,4.7753938536,17,5,8.295,118.15196375462,0.656168,1.11847,2.20671266904,0,0,0,134.2, 0.5, -0.4,0,0,1024,1024,1024,1024,0,0,0,0,144.8,0,0,95,4.151,4.148,0,0,0,0,4.276,71.96,118.15196375462,0.656168,6,P-GPS,
11100,2022-12-18 05:32:24,-34.9065531007389,-56.1632319117197,0.656168,0.68897639999999,117.46298735462,118.15196375462,2.296588,0,1.91088588792,4.7943899172,17,5,8.295,118.15196375462,0.656168,1.11847,2.20671266904,0,0,0,134.1, 0.6, -0.8,0,0,1024,1024,1024,1024,0,0,0,0,144.8,0,0,95,4.151,4.148,0,0,0,0,4.276,71.96,118.15196375462,0.656168,6,P-GPS,
11200,2022-12-18 05:32:24,-34.9065530968137,-56.16323189055,0.656168,0.68897639999999,117.46298735462,118.15196375462,2.296588,0,1.9142225022,4.8008859804,17,5,8.295,118.15196375462,0.656168,1.11847,2.20671266904,0,0,0,134.2, 0.4, -0.9,0,0,1024,1024,1024,1024,0,0,0,0,144.8,0,0,95,4.151,4.148,0,0,0,0,4.276,71.96,118.15196375462,0.656168,6,P-GPS,
11300,2022-12-18 05:32:24,-34.906553124793,-56.163231945916,0.656168,0.68897639999999,117.46298735462,118.15196375462,2.296588,0,1.91023956244,4.8203413616,17,5,8.295,118.15196375462,0.656168,1.11847,2.20671266904,0,0,0,134.3, 0.4, -0.8,0,0,1024,1024,1024,1024,0,0,0,0,144.8,0,0,95,4.151,4.148,0,0,0,0,4.276,71.96,118.15196375462,0.656168,6,P-GPS,
11400,2022-12-18 05:32:24,-34.9065531548647,-56.163232001005,0.656168,0.68897639999999,117.46298735462,118.15196375462,2.296588,0,1.90706370932,4.8401576352,16,5,8.295,118.15196375462,0.656168,1.11847,2.20671266904,0,0,0,134.3, 0.2, -0.7,0,0,1024,1024,1024,1024,0,0,0,0,144.8,0,0,95,4.151,4.148,0,0,0,0,4.276,71.96,118.15196375462,0.656168,6,P-GPS,
11500,2022-12-18 05:32:24,-34.9065531852665,-56.1632320375492,0.656168,0.68897639999999,117.46298735462,118.15196375462,2.296588,0,1.90789704268,4.8557088168,16,5,8.295,118.15196375462,0.656168,1.11847,2.20671266904,0,0,0,134.3, 0.4, -0.9,0,0,1024,1024,1024,1024,0,0,0,0,144.8,0,0,95,4.151,4.148,0,0,0,0,4.276,71.96,118.15196375462,0.656168,6,P-GPS,
11600,2022-12-18 05:32:24,-34.9065532251746,-56.1632320358673,0.656168,0.68897639999999,117.46298735462,118.15196375462,2.296588,0,1.91905846036,4.8702757464,16,5,8.295,118.15196375462,0.656168,1.11847,2.20671266904,0,0,0,134.3, 0.2, -1,0,0,1024,1024,1024,1024,0,0,0,0,144.8,0,0,95,4.151,4.148,0,0,0,0,4.276,71.96,118.15196375462,0.656168,6,P-GPS,
11700,2022-12-18 05:32:25,-34.9065532103999,-56.1632321324155,0.656168,0.68897639999999,117.46298735462,118.15196375462,2.296588,0,1.89585635988,4.8996720728,16,5,8.295,118.15196375462,0.656168,1.11847,2.20671266904,0,0,0,134.4, 0.3, -0.7,0,0,1024,1024,1024,1024,0,0,0,0,144.8,0,0,95,4.151,4.148,0,0,0,0,4.276,71.96,118.15196375462,0.656168,6,P-GPS,
11800,2022-12-18 05:32:25,-34.9065531866979,-56.1632322411691,0.656168,0.68897639999999,117.46298735462,118.15196375462,2.296588,0,1.8679790624,4.9333334912,16,5,8.295,118.15196375462,0.656168,1.11847,2.20671266904,0,0,0,134.3, 0.2, -0.6,0,0,1024,1024,1024,1024,0,0,0,0,144.8,0,0,95,4.146,4.143,0,0,0,0,4.276,71.96,118.15196375462,0.656168,6,P-GPS,
11900,2022-12-18 05:32:25,-34.9065531616926,-56.163232332643,0.656168,0.68897639999999,117.46298735462,118.15196375462,2.296588,0,1.84327105636,4.9622048832,16,5,8.295,118.15196375462,0.656168,1.11847,2.20671266904,0,0,0,134.2, 0.3, -0.6,0,0,1024,1024,1024,1024,0,0,0,0,144.8,0,0,95,4.146,4.143,0,0,0,0,4.276,71.96,118.15196375462,0.656168,6,P-GPS,
12000,2022-12-18 05:32:25,-34.9065530583769,-56.1632325919696,0.656168,0.72178479999999,117.43017895462,118.15196375462,2.296588,0,1.76470478088,5.0484581668,16,5,8.295,118.15196375462,0.656168,1.11847,2.20671266904,0,0,0,134.2, 0.3, -0.6,0,0,1024,1024,1024,1024,0,0,0,0,144.8,0,0,95,4.146,4.143,0,0,0,0,4.276,71.96,118.15196375462,0.656168,6,P-GPS,
12100,2022-12-18 05:32:25,-34.9065530514284,-56.1632326598725,0.656168,0.72178479999999,117.43017895462,118.15196375462,2.296588,0,1.74997380928,5.0689306084,16,5,8.295,118.15196375462,0.656168,1.11847,2.20671266904,0,0,0,134.1, 0.4, -0.5,0,0,1024,1024,1024,1024,0,0,0,0,144.8,0,0,95,4.146,4.143,0,0,0,0,4.276,71.96,118.15196375462,0.656168,6,P-GPS,
12200,2022-12-18 05:32:25,-34.9065530485684,-56.1632327242967,0.656168,0.72178479999999,117.43017895462,118.15196375462,2.296588,0,1.73717525244,5.0882219476,16,5,8.295,118.15196375462,0.656168,1.11847,2.20671266904,0,0,0,134.1, 0.5, -0.5,0,0,1024,1024,1091,1024,0,0,10,0,144.8,0,0,95,4.146,4.143,0,0,0,0,4.276,71.96,118.15196375462,0.656168,6,P-GPS,
12300,2022-12-18 05:32:25,-34.9065530553493,-56.1632327949066,0.656168,0.72178479999999,117.43017895462,118.15196375462,2.296588,0,1.72615491088,5.1095145992,16,5,8.295,118.15196375462,0.656168,1.11847,2.20671266904,0,0,0,134.1, 0.7, -0.7,0,0,1024,1024,1091,1024,0,0,10,0,144.8,0,0,95,4.146,4.143,0,0,0,0,4.276,71.96,118.15196375462,0.656168,6,P-GPS,
12400,2022-12-18 05:32:25,-34.9065530633195,-56.163232961033,0.656168,0.72178479999999,117.43017895462,118.15196375462,2.296588,0,1.6986385058,5.159284942,17,5,8.295,118.15196375462,0.656168,1.11847,2.20671266904,0,0,0,134.1, 0.7, -0.9,0,0,1024,1024,1311,1024,0,0,43,0,144.8,0,0,95,4.146,4.143,0,0,0,0,4.276,71.96,118.15196375462,0.656168,6,P-GPS,
12500,2022-12-18 05:32:25,-34.9065530663871,-56.1632330362497,0.656168,0.72178479999999,117.43017895462,118.15196375462,2.296588,0,1.68635504084,5.1818243128,17,5,8.295,118.15196375462,0.656168,1.11847,2.20671266904,0,0,0,134.1, 0.3, -0.9,0,0,1024,1024,1522,1024,0,0,75,0,144.8,0,0,95,4.146,4.143,0,0,0,0,4.276,71.96,118.15196375462,0.656168,6,P-GPS,
12600,2022-12-18 05:32:25,-34.9065530654485,-56.1632331038013,0.656168,0.72178479999999,117.43017895462,118.15196375462,2.296588,0,1.67439965988,5.2020342872,17,5,8.295,118.15196375462,0.656168,1.11847,2.20671266904,0,0,-0.671082,134, 0.4, -0.3,0,0,1024,1024,1460,1024,0,0,66,0,144.8,0,0,95,4.146,4.143,0,0,0,0,4.276,71.96,118.15196375462,0.656168,6,P-GPS,
12700,2022-12-18 05:32:25,-34.9065530595584,-56.1632331759011,0.984252,1.0498688,117.43017895462,118.48004775462,2.624672,0,1.66034782216,5.2237206396,17,5,8.295,118.48004775462,0.984252,1.11847,2.20671266904,0,0,-1.565858,134.1, 0.3, -0.4,0,0,1024,1024,1024,1024,0,0,0,0,144.8,0,0,95,4.146,4.143,0,0,0,0,4.276,71.96,118.48004775462,0.984252,6,P-GPS,
12800,2022-12-18 05:32:26,-34.9065530540196,-56.1632332455015,1.312336,1.3779528,117.43017895462,118.80813175462,2.952756,0,1.64698168,5.2446523988,17,5,8.29,118.80813175462,1.312336,1.11847,2.20671266904,0,0,-2.013246,134.3, 0.6, -0.7,0,0,1024,1024,1024,1024,0,0,0,0,144.8,0,0,95,4.146,4.143,0,0,0,0,4.229,72.14,118.80813175462,1.312336,6,P-GPS,
12900,2022-12-18 05:32:26,-34.9065529927533,-56.1632334172038,1.64042,1.7060368,117.43017895462,119.13621575462,3.28084,0,1.60007222968,5.300689146,17,5,8.29,119.13621575462,1.64042,1.11847,2.20671266904,0,0,-1.789552,134.4, 0.5, -0.8,0,0,1110,1024,1024,1024,13,0,0,0,144.8,0,0,95,4.146,4.143,0,0,0,0,4.229,72.14,119.13621575462,1.64042,6,P-GPS,
13000,2022-12-18 05:32:26,-34.9065529250404,-56.163233482371,1.64042,1.7060368,117.43017895462,119.13621575462,3.608924,0,1.56874676936,5.3321524016,17,5,8.29,119.13621575462,1.64042,1.11847,2.20671266904,0,0,-1.11847,134.3, 0.5, -0.7,0,0,1611,1024,1024,1024,89,0,0,0,144.8,0,0,95,4.146,4.143,0,0,0,0,4.229,72.14,119.13621575462,1.64042,6,P-GPS,
13100,2022-12-18 05:32:26,-34.9065528905442,-56.1632336053134,1.64042,1.7388452,117.39737055462,119.13621575462,3.608924,0,1.53847773952,5.3710303556,17,5,8.29,119.13621575462,1.64042,1.11847,2.20671266904,0,0,-0.671082,134.3, 0, -0.5,0,0,1611,1024,1024,1024,89,0,0,0,144.8,0,0,95,4.146,4.143,0,0,0,0,4.229,72.14,119.13621575462,1.64042,6,P-GPS,
13200,2022-12-18 05:32:26,-34.9065528762495,-56.1632337256324,1.968504,2.0669292,117.39737055462,119.46429975462,3.608924,0,1.51533469416,5.4074148712,17,5,8.29,119.46429975462,1.968504,1.11847,2.20671266904,0,0,-0.447388,134.4, -7.9, -0.1,0,0,1651,1024,1024,1024,95,0,0,0,144.8,0,0,95,4.146,4.143,0,0,0,0,4.229,72.14,119.46429975462,1.968504,6,P-GPS,
13300,2022-12-18 05:32:26,-34.9065530431711,-56.1632338575182,1.968504,2.0669292,117.39737055462,119.46429975462,3.608924,0.3131716,1.54888128316,5.479987052,17,5,8.29,119.46429975462,1.968504,1.11847,2.20671266904,-0.223694,0.223694,0,134.4, -14.2, 0,0,0,1607,1024,1024,1024,88,0,0,0,144.8,0,0,95,4.146,4.143,0,0,0,0,4.229,72.14,119.46429975462,1.968504,6,P-GPS,
13400,2022-12-18 05:32:26,-34.9065533059641,-56.1632336809884,1.968504,2.0669292,117.39737055462,119.46429975462,3.608924,0.9395148,1.65834322892,5.5894358744,18,5,8.29,119.46429975462,1.968504,1.11847,2.20671266904,-0.671082,0.671082,0,134.3, -15.5, 0,0,0,1590,1024,1024,1024,86,0,0,0,144.8,0,0,95,4.146,4.143,0,0,0,0,4.229,72.14,119.46429975462,1.968504,6,P-GPS,
13500,2022-12-18 05:32:26,-34.9065536555738,-56.16323338646,1.968504,2.0669292,117.39737055462,119.46429975462,3.608924,1.5882274,1.81252958556,5.7444883728,18,5,8.29,119.46429975462,1.968504,1.5882274,2.20671266904,-1.11847,1.11847,0,134, -14.9, -0.5,0,0,1555,1024,1024,1024,80,0,0,0,144.8,0,0,95,4.146,4.143,0,0,0,0,4.229,72.14,119.46429975462,1.968504,6,P-GPS,
13600,2022-12-18 05:32:26,-34.9065541660268,-56.1632328926326,1.968504,2.0669292,117.39737055462,119.46429975462,3.608924,2.0579848,2.0473589894,5.9822180392,18,5,8.29,119.46429975462,1.968504,2.0579848,2.20671266904,-1.342164,1.565858,0,133.9, -13.8, -1.1,0,0,1536,1024,1024,1024,78,0,0,0,144.8,0,0,95,4.146,4.143,0,0,0,0,4.229,72.14,119.46429975462,1.968504,6,P-GPS,
13700,2022-12-18 05:32:26,-34.9065546177187,-56.1632323898631,1.968504,2.0997376,117.36456215462,119.46429975462,3.608924,2.5277422,2.26580387828,6.2053479676,18,5,8.29,119.46429975462,1.968504,2.5277422,2.26580387828,-1.789552,1.789552,0,133.8, -12.4, -1.3,0,0,1526,1024,1024,1029,76,0,0,1,144.8,0,0,95,4.148,4.144,0,0,0,0,4.229,72.14,119.46429975462,1.968504,6,P-GPS,
13800,2022-12-18 05:32:27,-34.9065553339966,-56.1632315064516,1.968504,2.0997376,117.36456215462,119.46429975462,3.608924,3.019869,2.62784457228,6.5770343312,19,5,8.29,119.46429975462,1.968504,3.019869,2.62784457228,-2.013246,2.23694,0,133.9, -11.7, -0.5,0,0,1455,1024,1024,1024,65,0,0,0,144.8,0,0,95,4.148,4.144,0,0,0,0,4.229,72.14,119.46429975462,1.968504,6,P-GPS,
13900,2022-12-18 05:32:27,-34.9065562502254,-56.163230370488,1.968504,2.0669292,117.39737055462,119.46429975462,3.608924,3.3330406,3.09531505968,7.0537731916,19,5,8.29,119.46429975462,1.968504,3.3330406,3.09531505968,-2.23694,2.460634,0,133.9, -11.3, 0.2,0,0,1455,1024,1024,1024,65,0,0,0,144.8,0,0,95,4.148,4.144,0,0,0,0,4.229,72.14,119.46429975462,1.968504,6,P-GPS,
14000,2022-12-18 05:32:27,-34.9065573436544,-56.1632290076247,1.968504,2.0997376,117.36456215462,119.46429975462,3.608924,3.6462122,3.6576116656,7.6242456508,18,5,8.29,119.46429975462,1.968504,3.6462122,3.6576116656,-2.460634,2.684328,0,133.8, -10.1, 0.2,0,0,1342,1024,1024,1024,48,0,0,0,144.8,0,0,95,4.148,4.144,0,0,0,0,4.229,72.14,119.46429975462,1.968504,6,P-GPS,
14100,2022-12-18 05:32:27,-34.9065589530541,-56.1632272371076,1.968504,2.0997376,117.36456215462,119.46429975462,3.608924,3.802798,4.4456038168,8.4150921328,18,5,8.29,119.46429975462,1.968504,3.802798,4.4456038168,-2.460634,2.908022,0,133.9, -7.8, 0.2,0,0,1202,1024,1024,1024,27,0,0,0,144.8,0,0,95,4.148,4.144,0,0,0,0,4.229,72.14,119.46429975462,1.968504,6,P-GPS,
14200,2022-12-18 05:32:27,-34.906560262787,-56.1632256544586,1.968504,2.132546,117.33175375462,119.46429975462,3.937008,3.9593838,5.1139109248,9.0878283748,18,5,8.29,119.46429975462,1.968504,3.9593838,5.1139109248,-2.684328,2.908022,0,134.1, -4.2, 0.8,0,0,1121,1024,1024,1024,15,0,0,0,144.8,0,0,95,4.148,4.144,0,0,0,0,4.229,72.14,119.46429975462,1.968504,6,P-GPS,
14300,2022-12-18 05:32:27,-34.9065615246797,-56.163224018166,1.968504,2.132546,117.33175375462,119.46429975462,3.937008,3.9593838,5.7799214448,9.7599084488,18,5,8.29,119.46429975462,1.968504,3.9593838,5.7799214448,-2.684328,2.908022,0,134.2, -1, 0.8,0,0,1024,1024,1024,1024,0,0,0,0,144.8,0,0,95,4.148,4.144,0,0,0,0,4.229,72.14,119.46429975462,1.968504,6,P-GPS,
14400,2022-12-18 05:32:27,-34.9065628390762,-56.163222301841,1.968504,2.132546,117.33175375462,119.46429975462,3.937008,3.9593838,6.4772967952,10.4625331432,18,5,8.29,119.46429975462,1.968504,3.9593838,6.4772967952,-2.684328,2.908022,0,134.3, 0.5, 1,0,0,1024,1024,1024,1024,0,0,0,0,144.8,0,0,95,4.148,4.144,0,0,0,0,4.229,72.14,119.46429975462,1.968504,6,P-GPS,
14500,2022-12-18 05:32:27,-34.9065640023894,-56.163220760198,1.64042,1.804462,117.33175375462,119.13621575462,3.937008,3.6462122,7.0998033768,11.0893704336,18,5,8.29,119.46429975462,1.968504,3.9593838,7.0998033768,-2.460634,2.684328,0,134.3, 11.6, 1.5,0,0,1024,1024,1024,1024,0,0,0,0,144.8,0,0,95,4.148,4.144,0,0,0,0,4.229,72.14,119.13621575462,1.64042,6,P-GPS,
14600,2022-12-18 05:32:27,-34.9065652382351,-56.1632189469564,1.64042,1.804462,117.33175375462,119.13621575462,3.937008,3.019869,7.7967850264,11.7948166504,18,5,8.29,119.46429975462,1.968504,3.9593838,7.7967850264,-2.013246,2.23694,0,133.9, 15, 0.6,0,0,1024,1024,1024,1024,0,0,0,0,144.8,0,0,95,4.148,4.144,0,0,0,0,4.229,72.14,119.13621575462,1.64042,6,P-GPS,
14700,2022-12-18 05:32:27,-34.9065661241591,-56.1632178683527,1.64042,1.804462,117.33175375462,119.13621575462,3.937008,2.3711564,8.2528874032,12.2515751952,18,5,8.29,119.46429975462,1.968504,3.9593838,8.2528874032,-1.565858,1.789552,0,133.9, 14.2, 0.6,0,0,1024,1024,1024,1024,0,0,0,0,144.8,0,0,95,4.148,4.144,0,0,0,0,4.229,72.14,119.13621575462,1.64042,6,P-GPS,
14800,2022-12-18 05:32:28,-34.9065668802049,-56.1632169651701,1.64042,1.8372704,117.29894535462,119.13621575462,3.937008,1.7448132,8.6387141872,12.6377300632,18,5,8.328,119.46429975462,1.968504,3.9593838,8.6387141872,-1.11847,1.342164,0,134, 11.9, 0.9,0,0,1024,1024,1024,1024,0,0,0,0,144.8,0,0,95,4.146,4.144,0,0,0,0,4.416,72.14,119.13621575462,1.64042,6,P-GPS,
14900,2022-12-18 05:32:28,-34.906567372626,-56.1632163445234,1.64042,1.804462,117.33175375462,119.13621575462,3.937008,1.2750558,8.8965225944,12.8960962132,18,5,8.328,119.46429975462,1.968504,3.9593838,8.8965225944,-0.894776,0.894776,0,133.9, 9.4, 0.9,0,0,1024,1024,1024,1024,0,0,0,0,144.8,0,0,95,4.146,4.144,0,0,0,0,4.416,72.14,119.13621575462,1.64042,6,P-GPS,
15000,2022-12-18 05:32:28,-34.9065676251383,-56.163216025365,1.64042,1.8372704,117.29894535462,119.13621575462,3.937008,1.11847,9.0289372968,13.0288061912,18,5,8.328,119.46429975462,1.968504,3.9593838,9.0289372968,-0.671082,0.894776,0,133.8, 7.5, 0.9,0,0,1024,1024,1024,1024,0,0,0,0,144.8,0,0,95,4.146,4.144,0,0,0,0,4.416,72.14,119.13621575462,1.64042,6,P-GPS,
15100,2022-12-18 05:32:28,-34.9065677793812,-56.1632158668253,1.64042,1.8372704,117.29894535462,119.13621575462,3.937008,0.8052984,9.1024937296,13.1023954324,18,5,8.328,119.46429975462,1.968504,3.9593838,9.1024937296,-0.447388,0.671082,0,133.9, 6.1, 1,0,0,1024,1024,1024,1024,0,0,0,0,144.8,0,0,95,4.146,4.144,0,0,0,0,4.416,72.14,119.13621575462,1.64042,6,P-GPS,
15200,2022-12-18 05:32:28,-34.9065678480128,-56.1632158395314,1.64042,1.8372704,117.29894535462,119.13621575462,3.937008,0.4921268,9.1265094784,13.1287405776,18,5,8.328,119.46429975462,1.968504,3.9593838,9.1265094784,-0.223694,0.447388,0,134.3, 4.8, 1.1,0,0,1024,1024,1024,1024,0,0,0,0,144.8,0,0,95,4.146,4.144,0,0,0,0,4.416,72.14,119.13621575462,1.64042,6,P-GPS,
15300,2022-12-18 05:32:28,-34.9065678524088,-56.1632159400075,1.64042,1.8372704,117.29894535462,119.13621575462,3.937008,0.3131716,9.1075462232,13.1588586888,18,5,8.328,119.46429975462,1.968504,3.9593838,9.1265094784,-0.223694,0.223694,0,134.3, 3.6, 0.9,0,0,1024,1024,1024,1024,0,0,0,0,144.8,0,0,95,4.146,4.144,0,0,0,0,4.416,72.14,119.13621575462,1.64042,6,P-GPS,
15400,2022-12-18 05:32:28,-34.9065673045416,-56.1632170433118,1.64042,1.8372704,117.29894535462,119.13621575462,3.937008,0.3131716,8.7388126156,13.5447510896,18,5,8.328,119.46429975462,1.968504,3.9593838,9.1265094784,-0.223694,0.223694,0,134.2, 3, 0.6,0,0,1024,1024,1024,1024,0,0,0,0,144.8,0,0,95,4.146,4.144,0,0,0,0,4.416,72.14,119.13621575462,1.64042,6,P-GPS,
15500,2022-12-18 05:32:28,-34.9065672655298,-56.1632171010229,1.64042,1.8372704,117.29894535462,119.13621575462,3.937008,0.223694,8.716699754,13.5671264184,18,5,8.328,119.46429975462,1.968504,3.9593838,9.1265094784,0,0.223694,0,134.1, 2.4, 0.5,0,0,1024,1024,1024,1024,0,0,0,0,144.8,0,0,95,4.146,4.144,0,0,0,0,4.416,72.14,119.13621575462,1.64042,6,P-GPS,
15600,2022-12-18 05:32:28,-34.9065671995868,-56.163217156966,1.64042,1.8372704,117.29894535462,119.13621575462,3.937008,0,8.6875987032,13.596457128,18,5,8.328,119.46429975462,1.968504,3.9593838,9.1265094784,0,0,0,134, 1.9, 0.7,0,0,1024,1024,1024,1024,0,0,0,0,144.8,0,0,95,4.146,4.144,0,0,0,0,4.416,72.14,119.13621575462,1.64042,6,P-GPS,
15700,2022-12-18 05:32:29,-34.9065671646583,-56.1632171951711,1.64042,1.8372704,117.29894535462,119.13621575462,3.937008,0,8.6704727184,13.6135831128,18,5,8.328,119.46429975462,1.968504,3.9593838,9.1265094784,0,0,0,134, 1.6, 0.7,0,0,1024,1024,1024,1024,0,0,0,0,144.8,0,0,95,4.146,4.144,0,0,0,0,4.416,72.14,119.13621575462,1.64042,6,P-GPS,
15800,2022-12-18 05:32:29,-34.9065670022527,-56.1632171185598,1.64042,1.8372704,117.29894535462,119.13621575462,3.937008,0,8.641240434,13.6771001752,18,5,8.28,119.46429975462,1.968504,3.9593838,9.1265094784,0,0,0,134.1, 1.6, 0.7,0,0,1024,1024,1024,989,0,0,0,-5,144.8,0,0,95,4.139,4.135,0,0,0,0,4.275,72.32,119.13621575462,1.64042,6,P-GPS,
15900,2022-12-18 05:32:29,-34.906567023188,-56.1632171483451,1.64042,1.8372704,117.29894535462,119.13621575462,3.937008,0,8.6410435836,13.6888455824,18,5,8.28,119.46429975462,1.968504,3.9593838,9.1265094784,0,0,0,134, 1, 0.1,0,0,1024,1024,1024,989,0,0,0,-5,144.8,0,0,95,4.139,4.135,0,0,0,0,4.275,72.32,119.13621575462,1.64042,6,P-GPS,
16000,2022-12-18 05:32:29,-34.9065670404218,-56.1632171895091,1.64042,1.8372704,117.29894535462,119.13621575462,3.937008,0,8.6375658932,13.7026579188,17,5,8.28,119.46429975462,1.968504,3.9593838,9.1265094784,0,0,0,134, 0.8, 0,0,0,1024,1024,1024,885,0,0,0,-21,144.8,0,0,95,4.139,4.135,0,0,0,0,4.275,72.32,119.13621575462,1.64042,6,P-GPS,
16100,2022-12-18 05:32:29,-34.9065670809921,-56.1632171753595,1.64042,1.8372704,117.29894535462,119.13621575462,3.937008,0,8.6514766548,13.7180778668,17,5,8.28,119.46429975462,1.968504,3.9593838,9.1265094784,0,0,0,134, 0.6, 0,0,1,1024,1024,1024,886,0,0,0,-21,144.4,0,0,95,4.139,4.135,0,0,0,0,4.275,72.32,119.13621575462,1.64042,6,P-GPS,
16200,2022-12-18 05:32:29,-34.9065671155257,-56.163217157423,1.64042,1.8372704,117.29894535462,119.13621575462,3.608924,0,8.6644687812,13.7317589696,18,5,8.28,119.46429975462,1.968504,3.9593838,9.1265094784,0,0,0,133.6, 0.5, 0.1,0,1,1024,1024,1024,886,0,0,0,-21,143.9,0,0,94,4.139,4.135,0,0,0,0,4.275,72.32,119.13621575462,1.64042,6,P-GPS,
16300,2022-12-18 05:32:29,-34.9065674147555,-56.1632166798215,1.64042,1.8372704,117.29894535462,119.13621575462,3.608924,0,8.8409451648,13.91158181,18,5,8.28,119.46429975462,1.968504,3.9593838,9.1265094784,0,0,0,133, 0.6, 0.5,0,1,1024,1024,1024,884,0,0,0,-21,143.3,0,0,94,4.139,4.135,0,0,0,0,4.275,72.32,119.13621575462,1.64042,6,P-GPS,
16400,2022-12-18 05:32:29,-34.9065674329249,-56.1632166367223,1.64042,1.8372704,117.29894535462,119.13621575462,3.608924,0,8.8544622256,13.9260831228,18,5,8.28,119.46429975462,1.968504,3.9593838,9.1265094784,0,0,0,132.4, 0.5, 0.7,0,1,1024,1024,1024,847,0,0,0,-27,142.7,0,0,94,4.139,4.135,0,0,0,0,4.275,72.32,119.13621575462,1.64042,6,P-GPS,
16500,2022-12-18 05:32:29,-34.9065674188608,-56.1632166205042,1.64042,1.8372704,117.29894535462,119.13621575462,3.608924,0,8.8538716744,13.9331697372,18,5,8.28,119.46429975462,1.968504,3.9593838,9.1265094784,0,0,0,131.9, 0.2, 0.8,0,1,1024,1024,1024,845,0,0,0,-27,142.1,0,0,94,4.139,4.135,0,0,0,0,4.275,72.32,119.13621575462,1.64042,6,P-GPS,
16600,2022-12-18 05:32:29,-34.9065673982879,-56.163216617924,1.64042,1.8372704,117.29894535462,119.13621575462,3.608924,0,8.8487863724,13.9407156692,18,5,8.28,119.46429975462,1.968504,3.9593838,9.1265094784,0,0,0,131.2, 0.1, 0.7,0,1,1024,1024,1024,872,0,0,0,-23,141.3,0,0,94,4.139,4.135,0,0,0,0,4.275,72.32,119.13621575462,1.64042,6,P-GPS,
16700,2022-12-18 05:32:29,-34.9065674656102,-56.1632165025905,1.64042,1.8372704,117.29894535462,119.13621575462,3.608924,0,8.890092148,13.9830713136,18,5,8.279,119.46429975462,1.968504,3.9593838,9.1265094784,0,0,0,130.4, -0.1, 0.4,0,1,1024,1024,1024,890,0,0,0,-20,140.6,0,0,94,4.133,4.129,0,0,0,0,4.155,72.32,119.13621575462,1.64042,6,P-GPS,
16800,2022-12-18 05:32:30,-34.9065674575697,-56.1632165671101,1.64042,1.8372704,117.29894535462,119.13621575462,3.608924,0,8.8750330924,14.0025923116,18,5,8.279,119.46429975462,1.968504,3.9593838,9.1265094784,0,0,0,129.7, 0, 0.4,0,1,1024,1024,1024,890,0,0,0,-20,139.9,0,0,94,4.133,4.129,0,0,0,0,4.155,72.32,119.13621575462,1.64042,6,P-GPS,
16900,2022-12-18 05:32:30,-34.9065674260667,-56.1632166405744,1.64042,1.8372704,117.29894535462,119.13621575462,3.608924,0,8.8518375536,14.027395462,18,5,8.279,119.46429975462,1.968504,3.9593838,9.1265094784,0,0,0,129, 0, 0.4,0,1,1024,1024,1024,943,0,0,0,-12,139.2,0,0,94,4.133,4.129,0,0,0,0,4.155,72.32,119.13621575462,1.64042,6,P-GPS,
17000,2022-12-18 05:32:30,-34.9065673904225,-56.1632167174102,1.64042,1.8372704,117.29894535462,119.13621575462,3.608924,0,8.8268375528,14.053806224,18,5,8.279,119.46429975462,1.968504,3.9593838,9.1265094784,0,0,0,128.5, 0, 0.5,0,1,1024,1024,1024,990,0,0,0,-5,138.8,0,0,94,4.133,4.129,0,0,0,0,4.155,72.32,119.13621575462,1.64042,6,P-GPS,
