time(millisecond),datetime(utc),latitude,longitude,height_above_takeoff(feet),height_above_ground_at_drone_location(feet),ground_elevation_at_drone_location(feet),altitude_above_seaLevel(feet),height_sonar(feet),speed(mph),distance(feet),mileage(feet),satellites,gpslevel,voltage(v),max_altitude(feet),max_ascent(feet),max_speed(mph),max_distance(feet), xSpeed(mph), ySpeed(mph), zSpeed(mph), compass_heading(degrees), pitch(degrees), roll(degrees),isPhoto,isVideo,rc_elevator,rc_aileron,rc_throttle,rc_rudder,rc_elevator(percent),rc_aileron(percent),rc_throttle(percent),rc_rudder(percent),gimbal_heading(degrees),gimbal_pitch(degrees),gimbal_roll(degrees),battery_percent,voltageCell1,voltageCell2,voltageCell3,voltageCell4,voltageCell5,voltageCell6,current(A),battery_temperature(f),altitude(feet),ascent(feet),flycStateRaw,flycState,message
0,2025-05-20 16:10:53,-34.9287342017926,-56.1627754038151,0,0,7.02892739028,7.02892739028,0,0,0,0,22,5,0,7.02892739028,0,0,0,0,0,0,190.6, 12.7, -3.4,0,0,862,1103,1024,232,-25,12,0,-100,196.1,0,-2.5,99,4.12,4.115,0,0,0,0,0,79.52,7.02892739028,0,6,P-GPS,
100,2025-05-20 16:10:53,-34.9287340001429,-56.16277540364,0,0,7.02892739028,7.02892739028,0,0,0.073571852748,0.073571852748,21,5,0,7.02892739028,0,0,0.073571852748,0,0,0,190.6, 12.7, -3.4,0,0,862,1103,1024,232,-25,12,0,-100,196.1,0,-2.5,99,4.12,4.115,0,0,0,0,0,79.52,7.02892739028,0,6,P-GPS,"Setting new Return-To-Home altitude to 30m (98 ft). Data Recorder File Index is 6. Setting new Maximum Flight Altitude to 120m (394 ft). Zona de altitud restringida 150m Arranque de motores..."
200,2025-05-20 16:10:53,-34.9287339996969,-56.1627754078237,0,0,7.02892739028,7.02892739028,0,0,0.073744096848,0.074833663812,21,5,0,7.02892739028,0,0,0.073744096848,0,0,0,190.6, 12.7, -3.5,0,0,862,1103,1024,232,-25,12,0,-100,196.2,0,-2.7,99,4.12,4.115,0,0,0,0,0,79.52,7.02892739028,0,41,Motors_Started,"Zona de altitud restringida 150m Arranque de motores..."
300,2025-05-20 16:10:53,-34.9287338989861,-56.1627752065552,0,0,7.02892739028,7.02892739028,0,0,0.125248691672,0.1453658183,20,5,0,7.02892739028,0,0,0.125248691672,0,0,0,190.7, 12.7, -3.5,0,0,862,1103,1024,232,-25,12,0,-100,196.2,0,-2.6,99,4.12,4.115,0,0,0,0,0,79.52,7.02892739028,0,41,Motors_Started,"Zona de altitud restringida 150m Arranque de motores..."
400,2025-05-20 16:10:53,-34.9287338997947,-56.1627752016976,0,0,7.02892739028,7.02892739028,0,0,0.125681106384,0.146848429896,20,5,0,7.02892739028,0,0,0.125681106384,0,0,0,190.7, 12.7, -3.6,0,0,862,1103,1024,232,-25,12,0,-100,196.1,0,-2.7,99,4.12,4.115,0,0,0,0,0,79.52,7.02892739028,0,41,Motors_Started,"Zona de altitud restringida 150m Arranque de motores..."
500,2025-05-20 16:10:54,-34.9287339025639,-56.1627750903673,0,0,7.02892739028,7.02892739028,0.328084,0,0.143909453424,0.18016568818,20,5,0,7.02892739028,0,0,0.143909453424,0,0,0,190.7, 12.7, -3.5,0,0,862,1103,1024,232,-25,12,0,-100,196.1,0,-2.7,99,4.12,4.115,0,0,0,0,0,79.52,7.02892739028,0,41,Motors_Started,"Zona de altitud restringida 150m Arranque de motores..."
600,2025-05-20 16:10:54,-34.9287339026306,-56.1627751031833,0,0,7.02892739028,7.02892739028,0.328084,0,0.141422904788,0.18399934972,20,5,0,7.02892739028,0,0,0.143909453424,0,0,0,190.6, 12.7, -3.4,0,0,862,1103,1024,232,-25,12,0,-100,196.1,0,-2.6,99,4.12,4.115,0,0,0,0,0,79.52,7.02892739028,0,41,Motors_Started,"Zona de altitud restringida 150m Arranque de motores..."
700,2025-05-20 16:10:54,-34.9287340975832,-56.1627752131239,0,0,7.02892739028,7.02892739028,0.328084,0,0.068550855212,0.26236221312,20,5,0,7.02892739028,0,0,0.143909453424,0,0,0,190.6, 12.7, -3.5,0,0,862,1103,1024,232,-25,12,0,-100,196.1,0,-2.6,99,4.12,4.115,0,0,0,0,0,79.52,7.02892739028,0,41,Motors_Started,"Zona de altitud restringida 150m Arranque de motores..."
800,2025-05-20 16:10:54,-34.9287340931193,-56.162775218005,0,0,7.02892739028,7.02892739028,0.328084,0,0.068273624232,0.264549549148,20,5,0,7.02892739028,0,0,0.143909453424,0,0,0,190.7, 12.7, -3.4,0,0,862,1103,1024,232,-25,12,0,-100,196.1,0,-2.6,99,4.12,4.115,0,0,0,0,0,79.52,7.02892739028,0,41,Motors_Started,"Zona de altitud restringida 150m Arranque de motores..."
900,2025-05-20 16:10:54,-34.9287340925777,-56.1627749141039,0,0,7.02892739028,7.02892739028,0.328084,0,0.151808731892,0.35545604812,20,5,0,7.02892739028,0,0,0.151808731892,0,0,0,190.9, 12.7, -3.4,0,0,862,1103,1024,232,-25,12,0,-100,196.2,0,-2.6,99,4.12,4.115,0,0,0,0,0,79.52,7.02892739028,0,41,Motors_Started,"Zona de altitud restringida 150m Arranque de motores..."
1000,2025-05-20 16:10:54,-34.9287340932256,-56.1627749124438,0,0,7.02892739028,7.02892739028,0.328084,0,0.152226382824,0.3560039484,20,5,0,7.02892739028,0,0,0.152226382824,0,0,0,191, 12.7, -3.5,0,0,862,1103,1024,232,-25,12,0,-100,196.1,0,-2.6,99,4.12,4.115,0,0,0,0,0,79.52,7.02892739028,0,41,Motors_Started,"Zona de altitud restringida 150m Arranque de motores..."
1100,2025-05-20 16:10:54,-34.9287341001362,-56.1627748907394,0,0,7.02892739028,7.02892739028,0.328084,0,0.157892721588,0.36296917172,21,5,0,7.02892739028,0,0,0.157892721588,0,0,0,191.1, 12.7, -3.5,0,0,862,1103,1024,232,-25,12,0,-100,196.1,0,-2.6,99,4.12,4.115,0,0,0,0,0,79.52,7.02892739028,0,41,Motors_Started,"Zona de altitud restringida 150m Arranque de motores..."
1200,2025-05-20 16:10:54,-34.9287341048397,-56.1627748813102,0,0,7.02892739028,7.02892739028,0.328084,0,0.160248364708,0.36626969676,21,5,0,7.02892739028,0,0,0.160248364708,0,0,0,191.1, 12.7, -3.5,0,0,862,1103,1024,232,-25,12,0,-100,196.1,0,-2.6,99,4.12,4.115,0,0,0,0,0,79.52,7.02892739028,0,41,Motors_Started,"Zona de altitud restringida 150m Arranque de motores..."
1300,2025-05-20 16:10:54,-34.9287343082434,-56.1627747918567,0,0,7.02892739028,7.02892739028,0.328084,0,0.187128286828,0.4451607754,21,5,0,7.02892739028,0,0,0.187128286828,0,0,0,191, 12.7, -3.5,0,0,862,1103,1024,232,-25,12,0,-100,196.2,0,-2.7,99,4.12,4.115,0,0,0,0,0,79.52,7.02892739028,0,41,Motors_Started,"Zona de altitud restringida 150m Arranque de motores..."
1400,2025-05-20 16:10:54,-34.9287343087708,-56.1627747974863,0,0,7.02892739028,7.02892739028,0.328084,0,0.18552165948,0.44685368884,21,5,0,7.02892739028,0,0,0.187128286828,0,0,0,191, 12.8, -3.6,0,0,862,1103,1024,232,-25,12,0,-100,196.2,0,-2.9,99,4.12,4.115,0,0,0,0,0,79.52,7.02892739028,0,41,Motors_Started,"Zona de altitud restringida 150m Arranque de motores..."
1500,2025-05-20 16:10:55,-34.9287344000062,-56.1627749138218,0,0,7.02892739028,7.02892739028,0.328084,0,0.163440293944,0.49500985836,21,5,0,7.02892739028,0,0,0.187128286828,0,0,0,191, 12.8, -3.8,0,0,862,1103,1024,232,-25,12,0,-100,196.2,0,-2.9,99,4.12,4.115,0,0,0,0,0,79.52,7.02892739028,0,41,Motors_Started,"Zona de altitud restringida 150m Arranque de motores..."
1600,2025-05-20 16:10:55,-34.9287343999645,-56.1627749247334,0,0,7.02892739028,7.02892739028,0.328084,0,0.160513128496,0.49827429416,21,5,0,7.02892739028,0,0,0.187128286828,0,0,0,191, 12.9, -3.6,0,0,862,1103,1024,232,-25,12,0,-100,196.3,0,-3,99,4.12,4.115,0,0,0,0,0,79.52,7.02892739028,0,41,Motors_Started,"Zona de altitud restringida 150m Arranque de motores..."
1700,2025-05-20 16:10:55,-34.9287343975165,-56.1627750223857,0,0,7.02892739028,7.02892739028,0.328084,0,0.134600398008,0.52750001688,22,5,0,7.02892739028,0,0,0.187128286828,0,0,0,191, 12.9, -3.6,0,0,862,1103,1024,232,-25,12,0,-100,196.2,0,-2.9,99,4.12,4.115,0,0,0,0,0,79.52,7.02892739028,0,41,Motors_Started,"Zona de altitud restringida 150m Arranque de motores..."
1800,2025-05-20 16:10:55,-34.9287343953937,-56.1627750684056,0,0,7.02892739028,7.02892739028,0.328084,0,0.122700791328,0.54128610656,22,5,0,7.02892739028,0,0,0.187128286828,0,0,0,190.9, 12.8, -3.5,0,0,862,1103,1024,232,-25,12,0,-100,196.3,0,-2.9,99,4.12,4.115,0,0,0,0,0,79.52,7.02892739028,0,41,Motors_Started,"Zona de altitud restringida 150m Arranque de motores..."
1900,2025-05-20 16:10:55,-34.9287343942926,-56.1627749762757,0,0,7.02892739028,7.02892739028,0.328084,0,0.145904860312,0.5688484434,22,5,0,7.02892739028,0,0,0.187128286828,0,0,0,190.9, 12.8, -3.5,0,0,862,1103,1024,232,-25,12,0,-100,196.3,0,-3.1,99,4.12,4.115,0,0,0,0,0,79.52,7.02892739028,0,41,Motors_Started,"Zona de altitud restringida 150m Arranque de motores..."
2000,2025-05-20 16:10:55,-34.9287343906859,-56.1627750116308,0,0,7.02892739028,7.02892739028,0.328084,0,0.136058731388,0.57950461172,22,5,0,7.02892739028,0,0,0.187128286828,0,0,0,191, 12.8, -3.6,0,0,862,1103,1024,232,-25,12,0,-100,196.3,0,-3,99,4.12,4.115,0,0,0,0,0,79.52,7.02892739028,0,41,Motors_Started,"Zona de altitud restringida 150m Arranque de motores..."
2100,2025-05-20 16:10:55,-34.9287344973839,-56.1627748538221,0,0,7.02892739028,7.02892739028,0.328084,0,0.196715557476,0.64069227772,22,5,0,7.02892739028,0,0,0.196715557476,0,0,0,191, 12.7, -3.7,0,0,862,1103,1024,232,-25,12,0,-100,196.6,0,-4,99,4.12,4.115,0,0,0,0,0,79.52,7.02892739028,0,41,Motors_Started,"Zona de altitud restringida 150m Arranque de motores..."
2200,2025-05-20 16:10:55,-34.9287344999063,-56.1627748246465,0,0,7.02892739028,7.02892739028,0.328084,0,0.204558077412,0.64946524388,22,5,0,7.02892739028,0,0,0.204558077412,0,0,0,191, 12.9, -4.5,0,0,862,1103,1024,232,-25,12,0,-100,196.5,0,-3.6,99,4.12,4.115,0,0,0,0,0,79.52,7.02892739028,0,10,Assisted_Takeoff,"Zona de altitud restringida 150m Arranque de motores..."
2300,2025-05-20 16:10:55,-34.9287347050623,-56.1627744647635,0,0.032808399999999,6.99611899028,7.02892739028,0.328084,0,0.33558728108,0.78058401448,23,5,0,7.02892739028,0,0,0.33558728108,0,0,0,191, 12.7, -3.9,0,0,862,1103,1024,232,-25,12,0,-100,196.5,0,-3.5,99,4.12,4.115,0,0,0,0,0,79.52,7.02892739028,0,10,Assisted_Takeoff,"Zona de altitud restringida 150m Arranque de motores..."
2400,2025-05-20 16:10:55,-34.928734709282,-56.1627744545011,0,0.032808399999999,6.99611899028,7.02892739028,0.328084,0,0.33899935468,0.78401577312,23,5,0,7.02892739028,0,0,0.33899935468,0,0,0,191, 12.7, -4.2,0,0,862,1103,1024,232,-25,12,0,-100,196.4,0,-3.4,99,4.12,4.115,0,0,0,0,0,79.52,7.02892739028,0,10,Assisted_Takeoff,"Zona de altitud restringida 150m Arranque de motores..."
2500,2025-05-20 16:10:56,-34.9287348139483,-56.1627744078725,0,0.032808399999999,6.99611899028,7.02892739028,0.328084,0,0.37233925076,0.8246719424,23,5,0,7.02892739028,0,0,0.37233925076,0,0,0,191, 12.8, -3.9,0,0,862,1103,1024,232,-25,12,0,-100,196.4,0,-3.3,99,4.12,4.115,0,0,0,0,0,79.52,7.02892739028,0,10,Assisted_Takeoff,"Zona de altitud restringida 150m Arranque de motores..."
2600,2025-05-20 16:10:56,-34.9287348182562,-56.1627744060818,0,0.032808399999999,6.99611899028,7.02892739028,0.328084,0,0.37371064188,0.82633204744,23,5,0,7.02892739028,0,0,0.37371064188,0,0,0,191, 12.9, -3.9,0,0,862,1103,1024,232,-25,12,0,-100,196.4,0,-3.3,99,4.12,4.115,0,0,0,0,0,79.52,7.02892739028,0,41,Motors_Started,"Zona de altitud restringida 150m Arranque de motores..."
2700,2025-05-20 16:10:56,-34.9287347039769,-56.1627742939795,0.328084,0.3608924,6.99611899028,7.35701139028,0.328084,0,0.37918636384,0.879839267,23,5,0,7.35701139028,0.328084,0,0.37918636384,0,0,0,191, 12.9, -4,0,0,862,1103,1024,232,-25,12,0,-100,196.4,0,-3.2,99,4.12,4.115,0,0,0,0,0,79.52,7.35701139028,0.328084,41,Motors_Started,"Zona de altitud restringida 150m Arranque de motores..."
2800,2025-05-20 16:10:56,-34.9287347026142,-56.1627742760551,0.328084,0.3608924,6.99611899028,7.35701139028,0.328084,0,0.38365158708,0.88522312544,23,5,0,7.35701139028,0.328084,0,0.38365158708,0,0,0,191, 12.9, -4,0,0,862,1103,1024,232,-25,12,0,-100,196.4,0,-3.2,99,4.12,4.115,0,0,0,0,0,79.52,7.35701139028,0.328084,41,Motors_Started,"Zona de altitud restringida 150m Arranque de motores..."
2900,2025-05-20 16:10:56,-34.928734695842,-56.1627742621549,0.328084,0.3608924,6.99611899028,7.35701139028,0.328084,0,0.386154868,0.8900590836,22,5,0,7.35701139028,0.328084,0,0.386154868,0,0,0,191, 12.9, -4,0,0,862,1103,1024,232,-25,12,0,-100,196.4,0,-3.3,99,4.12,4.115,0,0,0,0,0,79.52,7.35701139028,0.328084,41,Motors_Started,"Zona de altitud restringida 150m Arranque de motores..."
3000,2025-05-20 16:10:56,-34.9287346936644,-56.1627742512786,0.328084,0.3608924,6.99611899028,7.35701139028,0.328084,0,0.38866799144,0.89340882124,22,5,0,7.35701139028,0.328084,0,0.38866799144,0,0,0,191, 12.9, -3.9,0,0,862,1103,1024,232,-25,12,0,-100,196.4,0,-3.2,99,4.12,4.115,0,0,0,0,0,79.52,7.35701139028,0.328084,41,Motors_Started,"Zona de altitud restringida 150m Arranque de motores.... Motores iniciándose. Mantén presionado el botón Bloqueo para despegar"
3100,2025-05-20 16:10:56,-34.9287345921366,-56.1627740732232,0.328084,0.3608924,6.99611899028,7.35701139028,0.328084,0,0.42272967232,0.9582841514,24,5,8.235,7.35701139028,0.328084,0,0.42272967232,0,0,0,191, 13, -4.2,0,0,862,1103,1024,232,-25,12,0,-100,196.4,0,-3.3,99,4.12,4.115,0,0,0,0,1.019,79.52,7.35701139028,0.328084,41,Motors_Started,"Zona de altitud restringida 150m Motores iniciándose. Mantén presionado el botón Bloqueo para despegar"
3200,2025-05-20 16:10:56,-34.928734590062,-56.1627740702582,0.328084,0.3608924,6.99611899028,7.35701139028,0.328084,0,0.423310381,0.95945213044,24,5,8.235,7.35701139028,0.328084,0,0.423310381,0,0,0,191, 13, -4,0,0,862,1103,1024,232,-25,12,0,-100,196.5,0,-3.4,99,4.12,4.115,0,0,0,0,1.019,79.52,7.35701139028,0.328084,41,Motors_Started,"Zona de altitud restringida 150m Motores iniciándose. Mantén presionado el botón Bloqueo para despegar"
3300,2025-05-20 16:10:56,-34.9287344972139,-56.162773903889,0.328084,0.328084,7.02892739028,7.35701139028,0.328084,0,0.4614337418,1.0196522636,24,5,8.235,7.35701139028,0.328084,0,0.4614337418,0,0,0,191, 13, -4,0,0,862,1103,1024,232,-25,12,0,-100,196.4,0,-3.2,99,4.12,4.115,0,0,0,0,1.019,79.52,7.35701139028,0.328084,41,Motors_Started,"Zona de altitud restringida 150m Motores iniciándose. Mantén presionado el botón Bloqueo para despegar"
3400,2025-05-20 16:10:56,-34.9287344965478,-56.162773907942,0.328084,0.328084,7.02892739028,7.35701139028,0.328084,0,0.46019686512,1.02088914028,24,5,8.235,7.35701139028,0.328084,0,0.4614337418,0,0,0,191, 13, -4,0,0,862,1103,1024,232,-25,12,0,-100,196.4,0,-3.1,99,4.12,4.115,0,0,0,0,1.019,79.52,7.35701139028,0.328084,41,Motors_Started,"Zona de altitud restringida 150m Motores iniciándose. Mantén presionado el botón Bloqueo para despegar"
3500,2025-05-20 16:10:57,-34.9287344991639,-56.1627736016233,0.328084,0.328084,7.02892739028,7.35701139028,0.328084,0,0.54989503072,1.11252300148,24,5,8.235,7.35701139028,0.328084,0,0.54989503072,0,0,0,191, 13, -3.9,0,0,862,1103,1024,232,-25,12,0,-100,196.4,0,-3,99,4.12,4.115,0,0,0,0,1.019,79.52,7.35701139028,0.328084,41,Motors_Started,"Zona de altitud restringida 150m Motores iniciándose. Mantén presionado el botón Bloqueo para despegar"
3600,2025-05-20 16:10:57,-34.9287344999559,-56.1627736076917,0.328084,0.328084,7.02892739028,7.35701139028,0.328084,0,0.54817258972,1.11436027188,24,5,8.235,7.35701139028,0.328084,0,0.54989503072,0,0,0,191, 12.9, -3.9,0,0,862,1103,1024,232,-25,12,0,-100,196.4,0,-3.2,99,4.12,4.115,0,0,0,0,1.019,79.52,7.35701139028,0.328084,41,Motors_Started,"Zona de altitud restringida 150m Motores iniciándose. Mantén presionado el botón Bloqueo para despegar"
3700,2025-05-20 16:10:57,-34.9287345012588,-56.1627735010765,0.328084,0.3608924,6.99611899028,7.35701139028,0.328084,0,0.57955382432,1.14625331752,24,5,8.235,7.35701139028,0.328084,0,0.57955382432,0,0,0,191, 12.9, -3.9,0,0,862,1103,1024,232,-25,12,0,-100,196.4,0,-3,99,4.12,4.115,0,0,0,0,1.019,79.52,7.35701139028,0.328084,41,Motors_Started,"Zona de altitud restringida 150m Motores iniciándose. Mantén presionado el botón Bloqueo para despegar"
3800,2025-05-20 16:10:57,-34.9287345018106,-56.1627734835283,0.328084,0.3608924,6.99611899028,7.35701139028,0.328084,0,0.58474739404,1.15150594236,24,5,8.235,7.35701139028,0.328084,0,0.58474739404,0,0,0,191, 13, -4,0,0,862,1103,1024,232,-25,12,0,-100,196.4,0,-3.1,99,4.12,4.115,0,0,0,0,1.019,79.52,7.35701139028,0.328084,41,Motors_Started,"Zona de altitud restringida 150m Motores iniciándose. Mantén presionado el botón Bloqueo para despegar"
3900,2025-05-20 16:10:57,-34.9287344001987,-56.1627736638512,0.328084,0.328084,7.02892739028,7.35701139028,0.328084,0,0.52547901944,1.21695870036,23,5,8.235,7.35701139028,0.328084,0,0.58474739404,0,0,0,191, 13, -4,0,0,862,1103,1024,232,-25,12,0,-100,196.4,0,-3.1,99,4.12,4.115,0,0,0,0,1.019,79.52,7.35701139028,0.328084,41,Motors_Started,"Zona de altitud restringida 150m Motores iniciándose. Mantén presionado el botón Bloqueo para despegar"
4000,2025-05-20 16:10:57,-34.9287343991313,-56.1627736565367,0.328084,0.328084,7.02892739028,7.35701139028,0.328084,0,0.52759516124,1.21917982904,23,5,8.235,7.35701139028,0.328084,0,0.58474739404,0,0,0,191, 13, -4,0,0,862,1103,1024,232,-25,12,0,-100,196.5,0,-3.1,99,4.12,4.115,0,0,0,0,1.019,79.52,7.35701139028,0.328084,41,Motors_Started,"Zona de altitud restringida 150m Motores iniciándose. Mantén presionado el botón Bloqueo para despegar"
4100,2025-05-20 16:10:57,-34.9287343981568,-56.1627737871629,0.328084,0.328084,7.02892739028,7.35701139028,0.328084,0,0.4888615642,1.25825791428,23,5,8.232,7.35701139028,0.328084,0,0.58474739404,0,0,0,191, 13, -4.1,0,0,862,1103,1024,232,-25,12,0,-100,196.5,0,-3.2,99,4.119,4.113,0,0,0,0,1.026,79.7,7.35701139028,0.328084,41,Motors_Started,"Zona de altitud restringida 150m Motores iniciándose. Mantén presionado el botón Bloqueo para despegar"
4200,2025-05-20 16:10:57,-34.928734397127,-56.1627737848732,0.328084,0.328084,7.02892739028,7.35701139028,0.328084,0,0.4894849238,1.2590387542,23,5,8.232,7.35701139028,0.328084,0,0.58474739404,0,0,0,191, 13, -4.1,0,0,862,1103,1024,232,-25,12,0,-100,196.5,0,-3.2,99,4.119,4.113,0,0,0,0,1.026,79.7,7.35701139028,0.328084,41,Motors_Started,"Zona de altitud restringida 150m Motores iniciándose. Mantén presionado el botón Bloqueo para despegar"
4300,2025-05-20 16:10:57,-34.9287342988203,-56.1627737988543,0.328084,0.328084,7.02892739028,7.35701139028,0.328084,0,0.48139109152,1.29514767924,23,5,8.232,7.35701139028,0.328084,0,0.58474739404,0,0,0,191, 13, -4.1,0,0,862,1103,1024,232,-25,12,0,-100,196.5,0,-3.1,99,4.119,4.113,0,0,0,0,1.026,79.7,7.35701139028,0.328084,41,Motors_Started,"Zona de altitud restringida 150m Motores iniciándose. Mantén presionado el botón Bloqueo para despegar"
4400,2025-05-20 16:10:57,-34.9287342999648,-56.1627738000795,0.328084,0.328084,7.02892739028,7.35701139028,0.328084,0,0.48105644584,1.2957021412,23,5,8.232,7.35701139028,0.328084,0,0.58474739404,0,0,0,191, 13, -4,0,0,862,1103,1024,232,-25,12,0,-100,196.5,0,-3.1,99,4.119,4.113,0,0,0,0,1.026,79.7,7.35701139028,0.328084,41,Motors_Started,"Zona de altitud restringida 150m Motores iniciándose. Mantén presionado el botón Bloqueo para despegar"
4500,2025-05-20 16:10:58,-34.9287342011047,-56.1627739082698,0.328084,0.328084,7.02892739028,7.35701139028,0.328084,0,0.4473589382,1.34416342884,23,5,8.232,7.35701139028,0.328084,0,0.58474739404,0,0,0,191.1, 12.7, -3.8,0,0,862,1103,1024,232,-25,12,0,-100,197.1,0,-2.9,99,4.119,4.113,0,0,0,0,1.026,79.7,7.35701139028,0.328084,41,Motors_Started,"Zona de altitud restringida 150m Motores iniciándose. Mantén presionado el botón Bloqueo para despegar"
4600,2025-05-20 16:10:58,-34.9287342063748,-56.1627739018331,0.328084,0.328084,7.02892739028,7.35701139028,0.328084,0,0.44928807212,1.3468832452,23,5,8.232,7.35701139028,0.328084,0,0.58474739404,0,0,0,193, 8.6, -3.4,0,0,862,1103,1024,232,-25,12,0,-100,199.2,0,-2.6,99,4.119,4.113,0,0,0,0,1.026,79.7,7.35701139028,0.328084,11,AutoTakeoff,"Zona de altitud restringida 150m Motores iniciándose. Mantén presionado el botón Bloqueo para despegar. Despegando..."
4700,2025-05-20 16:10:58,-34.928734219966,-56.1627738809058,0.328084,0.328084,7.02892739028,7.35701139028,0.328084,0,0.45559056576,1.35486880976,23,5,8.232,7.35701139028,0.328084,0,0.58474739404,0,0,0,195, 4.9, -3.2,0,0,862,1103,1024,232,-25,12,0,-100,200.9,0,-2.2,99,4.119,4.113,0,0,0,0,1.026,79.7,7.35701139028,0.328084,11,AutoTakeoff,"Zona de altitud restringida 150m Despegando..."
4800,2025-05-20 16:10:58,-34.9287342138224,-56.1627738663879,0.328084,0.328084,7.02892739028,7.35701139028,0.328084,0,0.4599081512,1.35975726136,23,5,8.232,7.35701139028,0.328084,0,0.58474739404,0,0,0,196.3, 2.7, -2.8,0,0,862,1103,1024,232,-25,12,0,-100,201.1,0,-2.3,99,4.119,4.113,0,0,0,0,1.026,79.7,7.35701139028,0.328084,11,AutoTakeoff,"Zona de altitud restringida 150m Despegando..."
4900,2025-05-20 16:10:58,-34.9287341245992,-56.1627737861886,0.328084,0.328084,7.02892739028,7.35701139028,0.328084,0.223694,0.4846948974,1.40019361436,23,5,8.232,7.35701139028,0.328084,0.223694,0.58474739404,0,0.223694,-0.223694,193.7, 1.2, -2.2,0,0,862,1103,1024,232,-25,12,0,-100,197.3,0,3.5,99,4.119,4.113,0,0,0,0,1.026,79.7,7.35701139028,0.328084,11,AutoTakeoff,"Zona de altitud restringida 150m Despegando..."
5000,2025-05-20 16:10:58,-34.9287339962249,-56.1627735460266,0.328084,0.328084,7.02892739028,7.35701139028,0.328084,0.223694,0.56075461112,1.48595477196,23,5,8.232,7.35701139028,0.328084,0.223694,0.58474739404,0,0.223694,-0.671082,191.8, -4.6, 5.5,0,0,862,1103,1024,232,-25,12,0,-100,196.8,0,6.9,99,4.119,4.113,0,0,0,0,1.026,79.7,7.35701139028,0.328084,11,AutoTakeoff,"Zona de altitud restringida 150m Despegando..."
5100,2025-05-20 16:10:58,-34.9287339194326,-56.1627734085353,0.656168,0.656168,7.02892739028,7.68509539028,0.328084,0,0.60566931072,1.53571855308,23,5,7.954,7.68509539028,0.656168,0.223694,0.60566931072,0,0,-0.894776,191.2, -5.8, 7,0,0,862,1103,1024,232,-25,12,0,-100,196.5,0,7.3,99,3.987,3.967,0,0,0,0,4.337,79.7,7.68509539028,0.656168,11,AutoTakeoff,"Zona de altitud restringida 150m Despegando.... Punto de origen actualizado. Altitud de RPO establecida en 30m"
5200,2025-05-20 16:10:58,-34.9287339616633,-56.1627733857898,0.656168,0.656168,7.02892739028,7.68509539028,0.328084,0,0.60997049196,1.5525591048,23,5,7.954,7.68509539028,0.656168,0.223694,0.60997049196,0,0,-1.11847,191, -5, 7.2,0,0,862,1103,1024,232,-25,12,0,-100,196.4,0,7.4,99,3.987,3.967,0,0,0,0,4.337,79.7,7.68509539028,0.656168,11,AutoTakeoff,"Zona de altitud restringida 150m Punto de origen actualizado. Altitud de RPO establecida en 30m"
5300,2025-05-20 16:10:58,-34.9287339996731,-56.1627736216558,0.984252,0.984252,7.02892739028,8.01317939028,0.656168,0,0.53816930856,1.62446527508,23,5,7.954,8.01317939028,0.984252,0.223694,0.60997049196,0,0,-1.11847,191.1, -3.9, 6.5,0,0,862,1103,1024,232,-25,12,0,-100,196.2,0,5.5,99,3.987,3.967,0,0,0,0,4.337,79.7,8.01317939028,0.984252,11,AutoTakeoff,"Zona de altitud restringida 150m Punto de origen actualizado. Altitud de RPO establecida en 30m"
5400,2025-05-20 16:10:58,-34.9287340597008,-56.1627737053792,1.312336,1.312336,7.02892739028,8.34126339028,0.656168,0,0.51068571188,1.65773299268,23,5,7.954,8.34126339028,1.312336,0.223694,0.60997049196,0,0,-1.11847,191.3, -1.9, 4.7,0,0,862,1103,1024,232,-25,12,0,-100,196.1,0,4.6,99,3.987,3.967,0,0,0,0,4.337,79.7,8.34126339028,1.312336,11,AutoTakeoff,"Zona de altitud restringida 150m Punto de origen actualizado. Altitud de RPO establecida en 30m"
5500,2025-05-20 16:10:59,-34.9287345126411,-56.162773769053,1.312336,1.3451444,6.99611899028,8.34126339028,0.984252,0,0.50198164336,1.82408470404,23,5,7.954,8.34126339028,1.312336,0.223694,0.60997049196,0,0,-1.11847,191.5, 1, 3.9,0,0,862,1103,1024,232,-25,12,0,-100,196.2,0,3.6,99,3.987,3.967,0,0,0,0,4.337,79.7,8.34126339028,1.312336,11,AutoTakeoff,"Zona de altitud restringida 150m Punto de origen actualizado. Altitud de RPO establecida en 30m"
5600,2025-05-20 16:10:59,-34.9287345179299,-56.162773791899,1.64042,1.6732284,6.99611899028,8.66934739028,0.984252,0,0.49577101324,1.8311844418,23,5,7.954,8.66934739028,1.64042,0.223694,0.60997049196,0,0,-1.11847,191.5, 0.9, 2.5,0,0,862,1103,1024,232,-25,12,0,-100,196.2,0,2.1,99,3.987,3.967,0,0,0,0,4.337,79.7,8.66934739028,1.64042,11,AutoTakeoff,"Zona de altitud restringida 150m Punto de origen actualizado. Altitud de RPO establecida en 30m"
5700,2025-05-20 16:10:59,-34.9287352373529,-56.1627735596577,1.64042,1.6732284,6.99611899028,8.66934739028,1.312336,0,0.66862206864,2.10270347936,23,5,7.954,8.66934739028,1.64042,0.223694,0.66862206864,0,0,-1.11847,191.4, -1.4, 1.7,0,0,862,1103,1024,232,-25,12,0,-100,196.1,0,2.9,99,3.987,3.967,0,0,0,0,4.337,79.7,8.66934739028,1.64042,11,AutoTakeoff,"Zona de altitud restringida 150m Punto de origen actualizado. Altitud de RPO establecida en 30m"
5800,2025-05-20 16:10:59,-34.9287351729238,-56.1627733707664,1.968504,2.0013124,6.99611899028,8.99743139028,1.312336,0,0.70382876268,2.16390098788,23,5,7.954,8.99743139028,1.968504,0.223694,0.70382876268,0,0,-1.11847,191.1, -4.1, 3.8,0,0,862,1103,1024,232,-25,12,0,-100,196.3,0,6.1,99,3.987,3.967,0,0,0,0,4.337,79.7,8.99743139028,1.968504,11,AutoTakeoff,"Zona de altitud restringida 150m Punto de origen actualizado. Altitud de RPO establecida en 30m"
5900,2025-05-20 16:10:59,-34.928735646978,-56.1627735006716,1.968504,2.0341208,6.96331059028,8.99743139028,1.64042,0,0.7759514684,2.34117133476,23,5,7.954,8.99743139028,1.968504,0.223694,0.7759514684,0,0,-1.11847,191.1, -4.2, 7.3,0,0,862,1103,1024,232,-25,12,0,-100,196.5,0,8.9,99,3.987,3.967,0,0,0,0,4.337,79.7,8.99743139028,1.968504,11,AutoTakeoff,"Zona de altitud restringida 150m Punto de origen actualizado. Altitud de RPO establecida en 30m"
6000,2025-05-20 16:10:59,-34.9287357417116,-56.1627734937777,2.296588,2.3622048,6.96331059028,9.32551539028,1.968504,0,0.80130908076,2.37579403928,23,5,7.954,9.32551539028,2.296588,0.223694,0.80130908076,0,0,-0.894776,191.4, -1.9, 8.4,0,0,862,1103,1024,232,-25,12,0,-100,196.4,0,8.2,99,3.987,3.967,0,0,0,0,4.337,79.7,9.32551539028,2.296588,11,AutoTakeoff,"Zona de altitud restringida 150m Punto de origen actualizado. Altitud de RPO establecida en 30m"
6100,2025-05-20 16:10:59,-34.92873589867,-56.1627737895976,2.296588,2.3622048,6.96331059028,9.32551539028,2.296588,0,0.7851378204,2.48119758596,23,5,7.92,9.32551539028,2.296588,0.223694,0.80130908076,0,0,-0.894776,191.6, 0, 7.1,0,0,862,1103,1024,232,-25,12,0,-100,196.2,0,6.8,99,3.967,3.953,0,0,0,0,4.511,79.88,9.32551539028,2.296588,11,AutoTakeoff,"Zona de altitud restringida 150m Punto de origen actualizado. Altitud de RPO establecida en 30m"
6200,2025-05-20 16:10:59,-34.9287359592567,-56.1627739375147,2.624672,2.6902888,6.96331059028,9.65359939028,2.624672,0,0.7768701036,2.53065624896,23,5,7.92,9.65359939028,2.624672,0.223694,0.80130908076,0,0,-0.894776,191.4, -0.1, 5.6,0,0,862,1103,1024,232,-25,12,0,-100,196.2,0,5.1,99,3.967,3.953,0,0,0,0,4.511,79.88,9.65359939028,2.624672,11,AutoTakeoff,"Zona de altitud restringida 150m Punto de origen actualizado. Altitud de RPO establecida en 30m"
6300,2025-05-20 16:10:59,-34.9287354602089,-56.1627743558574,2.624672,2.6574804,6.99611899028,9.65359939028,2.624672,0,0.555938338,2.7515912954,23,5,7.92,9.65359939028,2.624672,0.223694,0.80130908076,0,0,-0.894776,191.5, -0.4, 4.3,0,0,862,1103,1024,232,-25,12,0,-100,196.2,0,5.5,99,3.967,3.953,0,0,0,0,4.511,79.88,9.65359939028,2.624672,11,AutoTakeoff,"Zona de altitud restringida 150m Punto de origen actualizado. Altitud de RPO establecida en 30m"
6400,2025-05-20 16:10:59,-34.9287354486138,-56.1627743611735,2.624672,2.6574804,6.99611899028,9.65359939028,2.624672,0,0.55154857408,2.75610901208,23,5,7.92,9.65359939028,2.624672,0.223694,0.80130908076,0,0,-0.894776,191.5, -0.3, 6.1,0,0,862,1103,1024,232,-25,12,0,-100,196.4,0,7.5,99,3.967,3.953,0,0,0,0,4.511,79.88,9.65359939028,2.624672,11,AutoTakeoff,"Zona de altitud restringida 150m Punto de origen actualizado. Altitud de RPO establecida en 30m"
6500,2025-05-20 16:11:00,-34.9287354508142,-56.162774631552,2.952756,2.9855644,6.99611899028,9.98168339028,2.952756,0,0.51091208984,2.8369915606,23,5,7.92,9.98168339028,2.952756,0.223694,0.80130908076,0,0,-0.894776,191.5, -2, 6.1,0,0,862,1103,1024,232,-25,12,0,-100,196.4,0,6.9,99,3.967,3.953,0,0,0,0,4.511,79.88,9.98168339028,2.952756,11,AutoTakeoff,"Zona de altitud restringida 150m Punto de origen actualizado. Altitud de RPO establecida en 30m"
6600,2025-05-20 16:11:00,-34.9287354046135,-56.1627744919368,2.952756,2.9855644,6.99611899028,9.98168339028,2.952756,0,0.51670933412,2.88202765128,23,5,7.92,9.98168339028,2.952756,0.223694,0.80130908076,0,0,-0.894776,191.1, -4, 8.8,0,0,862,1103,1024,232,-25,12,0,-100,196.8,0,10.9,99,3.967,3.953,0,0,0,0,4.511,79.88,9.98168339028,2.952756,11,AutoTakeoff,"Zona de altitud restringida 150m Punto de origen actualizado. Altitud de RPO establecida en 30m"
6700,2025-05-20 16:11:00,-34.9287357403181,-56.1627746773263,3.28084,3.3464568,6.96331059028,10.30976739028,3.28084,0,0.60192587228,3.01647975532,23,5,7.92,10.30976739028,3.28084,0.223694,0.80130908076,0,0,-0.894776,191.3, -4, 10.4,0,0,862,1103,1024,232,-25,12,0,-100,196.8,0,10.9,99,3.967,3.953,0,0,0,0,4.511,79.88,10.30976739028,3.28084,11,AutoTakeoff,"Zona de altitud restringida 150m Punto de origen actualizado. Altitud de RPO establecida en 30m"
6800,2025-05-20 16:11:00,-34.9287357410351,-56.1627746904257,3.28084,3.3464568,6.96331059028,10.30976739028,3.608924,0,0.60076773576,3.0204069208,23,5,7.92,10.30976739028,3.28084,0.223694,0.80130908076,0,0,-1.11847,191.2, -3.9, 9.8,0,0,898,1065,1024,1145,-19,6,0,18,196.5,-1.1,8,99,3.967,3.953,0,0,0,0,4.511,79.88,10.30976739028,3.28084,11,AutoTakeoff,"Zona de altitud restringida 150m Punto de origen actualizado. Altitud de RPO establecida en 30m"
6900,2025-05-20 16:11:00,-34.9287362162271,-56.1627755469843,3.608924,3.6745408,6.96331059028,10.63785139028,3.608924,0,0.73621065348,3.3297573244,23,5,7.92,10.63785139028,3.608924,0.223694,0.80130908076,0,0,-0.894776,191.3, -5.4, 5.8,0,0,898,1062,1024,1016,-19,6,0,-1,197.1,-12.4,6,99,3.967,3.953,0,0,0,0,4.511,79.88,10.63785139028,3.608924,11,AutoTakeoff,"Zona de altitud restringida 150m Punto de origen actualizado. Altitud de RPO establecida en 30m"
7000,2025-05-20 16:11:00,-34.9287362642365,-56.1627755199782,3.608924,3.6745408,6.96331059028,10.63785139028,3.608924,0,0.75328414484,3.3490486636,23,5,7.92,10.63785139028,3.608924,0.223694,0.80130908076,0,0,-0.447388,192.5, -4.4, 6,0,0,898,1061,1024,1016,-19,6,0,-1,197.8,-18.8,7.8,99,3.967,3.953,0,0,0,0,4.511,79.88,10.63785139028,3.608924,6,P-GPS,"Zona de altitud restringida 150m Punto de origen actualizado. Altitud de RPO establecida en 30m"
7100,2025-05-20 16:11:00,-34.9287370971105,-56.1627757840793,3.608924,3.7073492,6.93050219028,10.63785139028,3.608924,0.447388,1.06246066392,3.6630250516,24,5,7.889,10.63785139028,3.608924,0.447388,1.06246066392,0,0.447388,-0.223694,192.6, -4.6, 9.1,0,0,898,1062,1024,1015,-19,6,0,-1,197.9,-20.8,10.4,99,3.952,3.937,0,0,0,0,4.657,79.88,10.63785139028,3.608924,6,P-GPS,"Zona de altitud restringida 150m Punto de origen actualizado. Altitud de RPO establecida en 30m"
7200,2025-05-20 16:11:00,-34.9287371419513,-56.1627754703272,3.608924,3.7073492,6.93050219028,10.63785139028,3.937008,0.447388,1.0729002968,3.7583006452,24,5,7.889,10.63785139028,3.608924,0.447388,1.0729002968,0,0.447388,0,192.4, -5.1, 11,0,0,899,1061,1024,1016,-19,6,0,-1,197.9,-21.5,11.9,99,3.952,3.937,0,0,0,0,4.657,79.88,10.63785139028,3.608924,6,P-GPS,"Zona de altitud restringida 150m Punto de origen actualizado. Altitud de RPO establecida en 30m"
7300,2025-05-20 16:11:00,-34.9287373665784,-56.1627749329727,3.937008,4.0354332,6.93050219028,10.96593539028,3.937008,0.671082,1.16322838368,3.9387140368,24,5,7.889,10.96593539028,3.937008,0.671082,1.16322838368,0,0.671082,0,191.8, -5.5, 12.5,0,0,901,1061,1024,1017,-19,6,0,-1,198,-21.7,13.1,99,3.952,3.937,0,0,0,0,4.657,79.88,10.96593539028,3.937008,6,P-GPS,"Zona de altitud restringida 150m Punto de origen actualizado. Altitud de RPO establecida en 30m"
7400,2025-05-20 16:11:00,-34.9287373590653,-56.162774603433,3.937008,4.0354332,6.93050219028,10.96593539028,3.937008,0.447388,1.17654531324,4.0373360872,24,5,7.889,10.96593539028,3.937008,0.671082,1.17654531324,0,0.447388,0,191, -5.6, 13.2,0,0,905,1061,1025,1019,-18,6,0,-1,198.1,-21.5,12.9,99,3.952,3.937,0,0,0,0,4.657,79.88,10.96593539028,3.937008,6,P-GPS,"Zona de altitud restringida 150m Punto de origen actualizado. Altitud de RPO establecida en 30m"
7500,2025-05-20 16:11:01,-34.9287372768713,-56.1627742432993,3.937008,4.0354332,6.93050219028,10.96593539028,3.937008,0.447388,1.17441932892,4.1491471144,24,5,7.889,10.96593539028,3.937008,0.671082,1.17654531324,0,0.447388,0,191.1, -6.2, 12.4,0,0,909,1056,1050,1020,-17,5,4,-1,199,-21,12.1,99,3.952,3.937,0,0,0,0,4.657,79.88,10.96593539028,3.937008,6,P-GPS,"Zona de altitud restringida 150m Punto de origen actualizado. Altitud de RPO establecida en 30m"
7600,2025-05-20 16:11:01,-34.9287372764519,-56.162774016276,3.608924,3.7073492,6.93050219028,10.63785139028,3.937008,0.223694,1.19610896216,4.2170605024,24,5,7.889,10.96593539028,3.937008,0.671082,1.19610896216,0,0.223694,0,192.1, -5.5, 11.6,0,0,926,1042,1064,1025,-15,3,6,0,199.8,-20.3,11.9,99,3.952,3.937,0,0,0,0,4.657,79.88,10.63785139028,3.608924,6,P-GPS,"Zona de altitud restringida 150m Punto de origen actualizado. Altitud de RPO establecida en 30m"
7700,2025-05-20 16:11:01,-34.9287375049538,-56.1627740756069,3.608924,3.7401576,6.89769379028,10.63785139028,3.608924,0.223694,1.26895673352,4.3022967256,24,5,7.889,10.96593539028,3.937008,0.671082,1.26895673352,0,0.223694,0,192.7, -5.7, 12.1,0,0,961,1026,1079,1030,-10,0,8,1,200.2,-18,12.8,99,3.952,3.937,0,0,0,0,4.657,79.88,10.63785139028,3.608924,6,P-GPS,"Zona de altitud restringida 150m Punto de origen actualizado. Altitud de RPO establecida en 30m"
7800,2025-05-20 16:11:01,-34.9287375338266,-56.1627738661437,3.608924,3.7401576,6.89769379028,10.63785139028,3.608924,0.223694,1.29979334868,4.3658465964,24,5,7.889,10.96593539028,3.937008,0.671082,1.29979334868,0,0.223694,0,192.8, -6.2, 12.7,0,0,983,1020,1083,1032,-6,-1,9,1,200.2,-13.9,12.9,99,3.952,3.937,0,0,0,0,4.657,79.88,10.63785139028,3.608924,6,P-GPS,"Zona de altitud restringida 150m Punto de origen actualizado. Altitud de RPO establecida en 30m"
7900,2025-05-20 16:11:01,-34.9287376839343,-56.1627739247222,3.608924,3.7401576,6.89769379028,10.63785139028,3.608924,0.223694,1.3452920378,4.4233597216,24,5,7.889,10.96593539028,3.937008,0.671082,1.3452920378,0,0.223694,0,192.4, -6.9, 12.6,0,0,992,1020,1089,1034,-5,-1,10,2,200.2,-9.6,13.3,99,3.952,3.937,0,0,0,0,4.657,79.88,10.63785139028,3.608924,6,P-GPS,"Zona de altitud restringida 150m Punto de origen actualizado. Altitud de RPO establecida en 30m"
8000,2025-05-20 16:11:01,-34.9287377329737,-56.1627737824085,3.608924,3.7401576,6.89769379028,10.63785139028,3.608924,0.223694,1.37661749812,4.4695211404,24,5,7.889,10.96593539028,3.937008,0.671082,1.37661749812,0,0.223694,0,192.3, -7, 13.3,0,0,992,1020,1095,1031,-5,-1,11,1,200.3,-7,13.6,99,3.952,3.937,0,0,0,0,4.657,79.88,10.63785139028,3.608924,6,P-GPS,"Zona de altitud restringida 150m Punto de origen actualizado. Altitud de RPO establecida en 30m"
8100,2025-05-20 16:11:01,-34.9287376770646,-56.1627734823972,3.608924,3.7401576,6.89769379028,10.63785139028,3.608924,0,1.39213259048,4.5615487024,24,5,7.897,10.96593539028,3.937008,0.671082,1.39213259048,0,0,0,192.5, -6.3, 13,0,0,995,1019,1103,1027,-4,-1,12,0,200.1,-6,12.6,99,3.956,3.941,0,0,0,0,4.433,80.06,10.63785139028,3.608924,6,P-GPS,"Zona de altitud restringida 150m Punto de origen actualizado. Altitud de RPO establecida en 30m. Presiona ligeramente el acelerador para controlar la orientación de la aeronave. Mantén pulsado el botón de bloqueo para que la aeronave aterrice"
8200,2025-05-20 16:11:01,-34.9287376782464,-56.1627734737478,3.608924,3.7401576,6.89769379028,10.63785139028,3.608924,0,1.39359584512,4.5641733744,24,5,7.897,10.96593539028,3.937008,0.671082,1.39359584512,0,0,0,192.4, -7.3, 11.9,0,0,998,1016,1109,1026,-4,-1,13,0,200.2,-5.4,11.3,99,3.956,3.941,0,0,0,0,4.433,80.06,10.63785139028,3.608924,6,P-GPS,"Zona de altitud restringida 150m Presiona ligeramente el acelerador para controlar la orientación de la aeronave. Mantén pulsado el botón de bloqueo para que la aeronave aterrice"
8300,2025-05-20 16:11:01,-34.9287376486605,-56.1627735551998,3.608924,3.7401576,6.89769379028,10.63785139028,3.608924,0,1.37379269488,4.5908137952,24,5,7.897,10.96593539028,3.937008,0.671082,1.39359584512,0,0,0,192.1, -9.3, 9.8,0,0,1000,1012,1123,1021,-4,-2,15,-0,199.8,-4.6,8.6,99,3.956,3.941,0,0,0,0,4.433,80.06,10.63785139028,3.608924,6,P-GPS,"Zona de altitud restringida 150m Presiona ligeramente el acelerador para controlar la orientación de la aeronave. Mantén pulsado el botón de bloqueo para que la aeronave aterrice"
8400,2025-05-20 16:11:02,-34.9287376249249,-56.1627736454892,3.608924,3.7401576,6.89769379028,10.63785139028,3.608924,0,1.35516080452,4.6191930612,24,5,7.897,10.96593539028,3.937008,0.671082,1.39359584512,0,0,0,192.3, -9.1, 7.4,0,0,999,1008,1134,1022,-4,-2,17,-0,199.6,-4.2,6.9,99,3.956,3.941,0,0,0,0,4.433,80.06,10.63785139028,3.608924,6,P-GPS,"Zona de altitud restringida 150m Presiona ligeramente el acelerador para controlar la orientación de la aeronave. Mantén pulsado el botón de bloqueo para que la aeronave aterrice"
8500,2025-05-20 16:11:02,-34.9287379173018,-56.1627738656342,3.608924,3.7401576,6.89769379028,10.63785139028,3.608924,0,1.43155844476,4.7445539576,24,5,7.897,10.96593539028,3.937008,0.671082,1.43155844476,0,0,0,192.5, -7.9, 6.4,0,0,998,1009,1147,1022,-4,-2,19,-0,199.4,-4.1,6.4,99,3.956,3.941,0,0,0,0,4.433,80.06,10.63785139028,3.608924,6,P-GPS,"Zona de altitud restringida 150m Presiona ligeramente el acelerador para controlar la orientación de la aeronave. Mantén pulsado el botón de bloqueo para que la aeronave aterrice"
8600,2025-05-20 16:11:02,-34.9287380076431,-56.1627739399246,3.608924,3.7401576,6.89769379028,10.63785139028,3.608924,0.223694,1.4559711752,4.78428493,24,5,7.897,10.96593539028,3.937008,0.671082,1.4559711752,-0.223694,0,0,192.3, -8.1, 5.4,0,0,997,1010,1163,1022,-4,-2,21,-0,199.1,-4.2,5.5,99,3.956,3.941,0,0,0,0,4.433,80.06,10.63785139028,3.608924,6,P-GPS,"Zona de altitud restringida 150m Presiona ligeramente el acelerador para controlar la orientación de la aeronave. Mantén pulsado el botón de bloqueo para que la aeronave aterrice"
8700,2025-05-20 16:11:02,-34.9287382141834,-56.1627740014237,3.608924,3.7401576,6.89769379028,10.63785139028,3.608924,0.223694,1.52283797524,4.861876796,24,5,7.897,10.96593539028,3.937008,0.671082,1.52283797524,-0.223694,0,0,191.9, -9, 5.1,0,0,994,1015,1215,1022,-5,-1,29,-0,199,-4.4,5.9,99,3.956,3.941,0,0,0,0,4.433,80.06,10.63785139028,3.608924,6,P-GPS,"Zona de altitud restringida 150m Presiona ligeramente el acelerador para controlar la orientación de la aeronave. Mantén pulsado el botón de bloqueo para que la aeronave aterrice"
8800,2025-05-20 16:11:02,-34.9287383855117,-56.1627739765845,3.608924,3.7401576,6.89769379028,10.63785139028,3.608924,0.447388,1.5850066124,4.9248033072,24,5,7.897,10.96593539028,3.937008,0.671082,1.5850066124,-0.447388,0,0,191.6, -11.2, 6.2,0,0,993,1019,1263,1023,-5,-1,36,-0,199.4,-4.8,7.3,99,3.956,3.941,0,0,0,0,4.433,80.06,10.63785139028,3.608924,6,P-GPS,"Zona de altitud restringida 150m Presiona ligeramente el acelerador para controlar la orientación de la aeronave. Mantén pulsado el botón de bloqueo para que la aeronave aterrice"
8900,2025-05-20 16:11:02,-34.9287385317572,-56.1627741444127,3.608924,3.772966,6.86488539028,10.63785139028,3.608924,0.671082,1.6240814168,4.9980644644,24,5,7.897,10.96593539028,3.937008,0.671082,1.6240814168,-0.671082,0,0,191.4, -15, 7.8,0,0,994,1021,1340,1024,-5,-0,48,0,200,-5.1,7.9,99,3.956,3.941,0,0,0,0,4.433,80.06,10.63785139028,3.608924,6,P-GPS,"Zona de altitud restringida 150m Presiona ligeramente el acelerador para controlar la orientación de la aeronave. Mantén pulsado el botón de bloqueo para que la aeronave aterrice"
9000,2025-05-20 16:11:02,-34.9287389570642,-56.1627741776309,3.608924,3.772966,6.86488539028,10.63785139028,3.608924,1.11847,1.77330386252,5.1535762804,24,5,7.897,10.96593539028,3.937008,1.11847,1.77330386252,-1.11847,0,0,190.9, -21.3, 8.1,0,0,994,1021,1388,1025,-5,-0,55,0,200.2,-5.1,7,99,3.956,3.941,0,0,0,0,4.433,80.06,10.63785139028,3.608924,6,P-GPS,"Zona de altitud restringida 150m Presiona ligeramente el acelerador para controlar la orientación de la aeronave. Mantén pulsado el botón de bloqueo para que la aeronave aterrice"
9100,2025-05-20 16:11:02,-34.9287395793862,-56.1627746914459,3.608924,3.8057744,6.83207699028,10.63785139028,3.28084,1.8119214,1.97354993192,5.4277560792,24,5,7.888,10.96593539028,3.937008,1.8119214,1.97354993192,-1.789552,-0.223694,0.223694,190.7, -26.6, 6.1,0,0,994,1020,1448,1024,-5,-1,64,0,199.6,-5,4.6,99,3.951,3.937,0,0,0,0,4.375,80.24,10.63785139028,3.608924,6,P-GPS,"Zona de altitud restringida 150m Presiona ligeramente el acelerador para controlar la orientación de la aeronave. Mantén pulsado el botón de bloqueo para que la aeronave aterrice"
9200,2025-05-20 16:11:02,-34.9287405848174,-56.1627749490567,3.608924,3.8385828,6.79926859028,10.63785139028,3.28084,2.7290668,2.33281175444,5.8025920492,24,5,7.888,10.96593539028,3.937008,2.7290668,2.33281175444,-2.684328,-0.447388,0.223694,191, -27.3, 4.7,0,0,996,1014,1481,1024,-4,-2,69,0,199.7,-5,4.2,99,3.951,3.937,0,0,0,0,4.375,80.24,10.63785139028,3.608924,6,P-GPS,"Zona de altitud restringida 150m Presiona ligeramente el acelerador para controlar la orientación de la aeronave. Mantén pulsado el botón de bloqueo para que la aeronave aterrice"
9300,2025-05-20 16:11:02,-34.9287419174129,-56.1627752741044,3.608924,3.8713912,6.76646019028,10.63785139028,3.28084,3.6014734,2.81530848904,6.2984253984,24,5,7.888,10.96593539028,3.937008,3.6014734,2.81530848904,-3.579104,-0.447388,0.447388,191.1, -27.3, 5.4,0,0,1000,1010,1509,1024,-4,-2,73,0,200.1,-4.7,4.9,99,3.951,3.937,0,0,0,0,4.375,80.24,10.63785139028,3.608924,6,P-GPS,"Zona de altitud restringida 150m Presiona ligeramente el acelerador para controlar la orientación de la aeronave. Mantén pulsado el botón de bloqueo para que la aeronave aterrice"
9400,2025-05-20 16:11:02,-34.9287436039345,-56.1627756950281,3.608924,3.9698164,6.66803499028,10.63785139028,3.28084,4.2949248,3.4314633644,6.9264765996,24,5,7.888,10.96593539028,3.937008,4.2949248,3.4314633644,-4.250186,-0.671082,0.447388,191.1, -26.6, 5.3,0,0,1006,1011,1545,1027,-3,-2,79,0,199.7,-4.1,4.4,99,3.951,3.937,0,0,0,0,4.375,80.24,10.63785139028,3.608924,6,P-GPS,"Zona de altitud restringida 150m Presiona ligeramente el acelerador para controlar la orientación de la aeronave. Mantén pulsado el botón de bloqueo para que la aeronave aterrice"
9500,2025-05-20 16:11:03,-34.928745491612,-56.1627761888171,3.28084,3.6745408,6.63522659028,10.30976739028,2.952756,5.2120702,4.1257875336,7.6308729476,24,5,7.888,10.96593539028,3.937008,5.2120702,4.1257875336,-5.144962,-0.894776,0.447388,190.9, -27.1, 4.5,0,0,1022,1005,1573,1028,-0,-3,83,1,199.3,-3.2,3.9,99,3.951,3.937,0,0,0,0,4.375,80.24,10.30976739028,3.28084,6,P-GPS,"Zona de altitud restringida 150m Presiona ligeramente el acelerador para controlar la orientación de la aeronave. Mantén pulsado el botón de bloqueo para que la aeronave aterrice"
9600,2025-05-20 16:11:03,-34.9287477591853,-56.1627767551526,3.28084,3.772966,6.53680139028,10.30976739028,2.952756,5.927891,4.9628938596,8.4753611636,24,5,7.888,10.96593539028,3.937008,5.927891,4.9628938596,-5.816044,-1.11847,0.223694,190.8, -26.8, 4.8,0,0,1024,1001,1588,1028,0,-3,85,1,199,-1.4,3.8,99,3.951,3.937,0,0,0,0,4.375,80.24,10.30976739028,3.28084,6,P-GPS,"Zona de altitud restringida 150m Presiona ligeramente el acelerador para controlar la orientación de la aeronave. Mantén pulsado el botón de bloqueo para que la aeronave aterrice"
9700,2025-05-20 16:11:03,-34.9287501111857,-56.1627777151445,3.28084,3.8385828,6.47118459028,10.30976739028,2.952756,6.6213424,5.8455710532,9.380249644,24,5,7.888,10.96593539028,3.937008,6.6213424,5.8455710532,-6.487126,-1.342164,0.223694,190.3, -27.6, 4.1,0,0,1023,1001,1608,1027,-0,-3,88,0,198.3,-0.4,3.4,99,3.951,3.937,0,0,0,0,4.375,80.24,10.30976739028,3.28084,6,P-GPS,"Zona de altitud restringida 150m Presiona ligeramente el acelerador para controlar la orientación de la aeronave. Mantén pulsado el botón de bloqueo para que la aeronave aterrice"
9800,2025-05-20 16:11:03,-34.9287529511805,-56.1627783916374,3.28084,3.937008,6.37275939028,10.30976739028,3.28084,7.493749,6.8988519268,10.4359911476,24,5,7.888,10.96593539028,3.937008,7.493749,6.8988519268,-7.381902,-1.342164,0,189.7, -27.5, 4.2,0,0,1022,1002,1618,1028,-0,-3,90,1,198,-0.1,4.1,99,3.951,3.937,0,0,0,0,4.375,80.24,10.30976739028,3.28084,6,P-GPS,"Zona de altitud restringida 150m Presiona ligeramente el acelerador para controlar la orientación de la aeronave. Mantén pulsado el botón de bloqueo para que la aeronave aterrice"
9900,2025-05-20 16:11:03,-34.9287557202612,-56.1627792817682,3.28084,4.0354332,6.27433419028,10.30976739028,3.28084,7.9187676,7.9362207264,11.480807454,24,5,7.888,10.96593539028,3.937008,7.9187676,7.9362207264,-7.82929,-1.11847,0,189.2, -27.2, 5,0,0,1021,1002,1627,1026,-0,-3,91,0,198,-0.1,4.9,99,3.951,3.937,0,0,0,0,4.375,80.24,10.30976739028,3.28084,6,P-GPS,"Zona de altitud restringida 150m Presiona ligeramente el acelerador para controlar la orientación de la aeronave. Mantén pulsado el botón de bloqueo para que la aeronave aterrice"
10000,2025-05-20 16:11:03,-34.9287590557049,-56.162779937697,3.28084,4.1666668,6.14310059028,10.30976739028,3.28084,8.612219,9.168799506,12.7134518504,24,5,7.888,10.96593539028,3.937008,8.612219,9.168799506,-8.500372,-1.342164,0,188.8, -27.2, 5.3,0,0,1016,1005,1639,1025,-1,-3,93,0,197.3,-0.3,4.2,99,3.951,3.937,0,0,0,0,4.375,80.24,10.30976739028,3.28084,6,P-GPS,"Zona de altitud restringida 150m Presiona ligeramente el acelerador para controlar la orientación de la aeronave. Mantén pulsado el botón de bloqueo para que la aeronave aterrice"
10100,2025-05-20 16:11:03,-34.9287624384459,-56.1627809140001,3.28084,4.265092,6.04467539028,10.30976739028,3.28084,9.0372376,10.4331368168,13.9817261692,24,5,7.822,10.96593539028,3.937008,9.0372376,10.4331368168,-8.94776,-1.342164,0,188.5, -26.9, 4.9,0,0,1012,1005,1648,1025,-2,-3,95,0,197,-0.9,4.4,99,3.918,3.904,0,0,0,0,5.276,80.42,10.30976739028,3.28084,6,P-GPS,"Zona de altitud restringida 150m Presiona ligeramente el acelerador para controlar la orientación de la aeronave. Mantén pulsado el botón de bloqueo para que la aeronave aterrice"
10200,2025-05-20 16:11:03,-34.9287661626325,-56.1627816386459,3.28084,4.3963256,5.91344179028,10.30976739028,3.28084,9.4846256,11.8090883044,15.3576776568,24,5,7.822,10.96593539028,3.937008,9.4846256,11.8090883044,-9.395148,-1.342164,0,188.1, -27.8, 4.7,0,0,1011,1005,1653,1026,-2,-3,95,0,196.3,-1.4,3.8,99,3.918,3.904,0,0,0,0,5.276,80.42,10.30976739028,3.28084,6,P-GPS,"Zona de altitud restringida 150m Presiona ligeramente el acelerador para controlar la orientación de la aeronave. Mantén pulsado el botón de bloqueo para que la aeronave aterrice"
10300,2025-05-20 16:11:03,-34.9287698891471,-56.1627826639901,2.952756,4.2322836,5.74939979028,9.98168339028,3.28084,9.9096442,13.2003941232,16.7514441056,24,5,7.822,10.96593539028,3.937008,9.9096442,13.2003941232,-9.842536,-1.11847,0.223694,187.7, -27.4, 4.6,0,0,1011,1002,1659,1026,-2,-3,96,0,196.3,-1.9,4.4,99,3.918,3.904,0,0,0,0,5.276,80.42,9.98168339028,2.952756,6,P-GPS,"Zona de altitud restringida 150m Presiona ligeramente el acelerador para controlar la orientación de la aeronave. Mantén pulsado el botón de bloqueo para que la aeronave aterrice"
10400,2025-05-20 16:11:03,-34.92877389559,-56.1627832304941,2.952756,4.3635172,5.61816619028,9.98168339028,2.952756,10.3570322,14.67027606,18.2229992708,24,5,7.822,10.96593539028,3.937008,10.3570322,14.67027606,-10.289924,-1.11847,0.223694,187.4, -26.8, 5.6,0,0,1013,1005,1662,1025,-2,-3,97,0,196.3,-2,5.3,99,3.918,3.904,0,0,0,0,5.276,80.42,9.98168339028,2.952756,6,P-GPS,"Zona de altitud restringida 150m Presiona ligeramente el acelerador para controlar la orientación de la aeronave. Mantén pulsado el botón de bloqueo para que la aeronave aterrice"
10500,2025-05-20 16:11:04,-34.9287783554939,-56.1627845541202,2.952756,4.4947508,5.48693259028,9.98168339028,2.952756,10.7820508,16.3403220452,19.8976712404,24,5,7.822,10.96593539028,3.937008,10.7820508,16.3403220452,-10.737312,-0.894776,0.223694,186.8, -27.1, 6,0,0,1027,1008,1667,1025,0,-2,97,0,195.9,-1.6,5.4,99,3.918,3.904,0,0,0,0,5.276,80.42,9.98168339028,2.952756,6,P-GPS,"Zona de altitud restringida 150m Presiona ligeramente el acelerador para controlar la orientación de la aeronave. Mantén pulsado el botón de bloqueo para que la aeronave aterrice"
10600,2025-05-20 16:11:04,-34.9287827046588,-56.1627850300789,2.952756,4.6916012,5.29008219028,9.98168339028,2.952756,11.2294388,17.92897039,21.490814336,24,5,7.822,10.96593539028,3.937008,11.2294388,17.92897039,-11.1847,-0.894776,0.223694,186.5, -26.9, 6.3,0,0,1035,1007,1669,1024,2,-3,98,0,195.8,-0.4,5.7,99,3.918,3.904,0,0,0,0,5.276,80.42,9.98168339028,2.952756,6,P-GPS,"Zona de altitud restringida 150m Presiona ligeramente el acelerador para controlar la orientación de la aeronave. Mantén pulsado el botón de bloqueo para que la aeronave aterrice"
10700,2025-05-20 16:11:04,-34.928787738634,-56.1627869082029,2.952756,4.8556432,5.12604019028,9.98168339028,2.952756,11.6768268,19.8336948604,23.4114508804,24,5,7.822,10.96593539028,3.937008,11.6768268,19.8336948604,-11.632088,-0.894776,0,186.3, -26.4, 6.7,0,0,1035,1005,1672,1024,2,-3,98,0,195.7,1,6.2,99,3.918,3.904,0,0,0,0,5.276,80.42,9.98168339028,2.952756,6,P-GPS,"Zona de altitud restringida 150m Presiona ligeramente el acelerador para controlar la orientación de la aeronave. Mantén pulsado el botón de bloqueo para que la aeronave aterrice"
10800,2025-05-20 16:11:04,-34.9287924069447,-56.1627873652012,2.952756,4.9868768,4.99480659028,9.98168339028,2.952756,12.1018454,21.53543376,25.1201779692,24,5,7.822,10.96593539028,3.937008,12.1018454,21.53543376,-12.079476,-0.894776,0,185.9, -26.5, 7.7,0,0,1038,1003,1674,1024,2,-3,98,0,195.7,1.7,6.9,99,3.918,3.904,0,0,0,0,5.276,80.42,9.98168339028,2.952756,6,P-GPS,"Zona de altitud restringida 150m Presiona ligeramente el acelerador para controlar la orientación de la aeronave. Mantén pulsado el botón de bloqueo para que la aeronave aterrice"
10900,2025-05-20 16:11:04,-34.928797599983,-56.1627890207011,2.952756,5.2165356,4.76514779028,9.98168339028,2.952756,12.5492334,23.4866805416,27.0784785568,24,5,7.822,10.96593539028,3.937008,12.5492334,23.4866805416,-12.526864,-0.894776,-0.223694,185.7, -26.6, 8.3,0,0,1039,1002,1676,1022,2,-3,99,-0,195.6,2.3,7.1,99,3.918,3.904,0,0,0,0,5.276,80.42,9.98168339028,2.952756,6,P-GPS,"Zona de altitud restringida 150m Presiona ligeramente el acelerador para controlar la orientación de la aeronave. Mantén pulsado el botón de bloqueo para que la aeronave aterrice"
11000,2025-05-20 16:11:04,-34.9288026451637,-56.1627896147965,2.952756,5.3805776,4.60110579028,9.98168339028,2.952756,13.0189908,25.3307422804,28.9277896396,24,5,7.822,10.96593539028,3.937008,13.0189908,25.3307422804,-12.974252,-1.11847,-0.223694,185.4, -26.2, 6.7,0,0,1041,1001,1677,1022,3,-3,99,-0,194.6,2.6,6.1,98,3.918,3.904,0,0,0,0,5.276,80.42,9.98168339028,2.952756,6,P-GPS,"Zona de altitud restringida 150m Presiona ligeramente el acelerador para controlar la orientación de la aeronave. Mantén pulsado el botón de bloqueo para que la aeronave aterrice"
11100,2025-05-20 16:11:04,-34.9288086797023,-56.1627917221354,2.952756,5.6102364,4.37144699028,9.98168339028,2.952756,13.2650542,27.6081701748,31.2179471932,23,5,7.792,10.96593539028,3.937008,13.2650542,27.6081701748,-13.197946,-1.342164,-0.447388,186, -26.9, 7,0,0,1042,1000,1678,1022,3,-4,99,-0,194.2,2.9,5.7,98,3.904,3.888,0,0,0,0,5.445,80.6,9.98168339028,2.952756,6,P-GPS,"Zona de altitud restringida 150m Presiona ligeramente el acelerador para controlar la orientación de la aeronave. Mantén pulsado el botón de bloqueo para que la aeronave aterrice"
11200,2025-05-20 16:11:04,-34.9288138691082,-56.1627924288737,3.28084,6.1023624,4.20740499028,10.30976739028,2.952756,13.3545318,29.5093185296,33.123032556,23,5,7.792,10.96593539028,3.937008,13.3545318,29.5093185296,-13.197946,-2.013246,-0.447388,188, -26.9, 6.7,0,0,1043,999,1679,1022,3,-4,99,-0,193.5,3.1,5,98,3.904,3.888,0,0,0,0,5.445,80.6,10.30976739028,3.28084,6,P-GPS,"Zona de altitud restringida 150m Presiona ligeramente el acelerador para controlar la orientación de la aeronave. Mantén pulsado el botón de bloqueo para que la aeronave aterrice"
11300,2025-05-20 16:11:04,-34.9288198377581,-56.1627956111961,3.28084,6.3320212,3.97774619028,10.30976739028,3.28084,13.3769012,31.8235574488,35.499673052,23,5,7.792,10.96593539028,3.937008,13.3769012,31.8235574488,-13.197946,-2.23694,-0.447388,188.3, -27.1, 5.2,0,0,1045,998,1680,1021,3,-4,99,-0,193,3.3,4.5,98,3.904,3.888,0,0,0,0,5.445,80.6,10.30976739028,3.28084,6,P-GPS,"Zona de altitud restringida 150m Presiona ligeramente el acelerador para controlar la orientación de la aeronave. Mantén pulsado el botón de bloqueo para que la aeronave aterrice"
11400,2025-05-20 16:11:04,-34.9288251067769,-56.162796750957,3.28084,6.4960632,3.81370419028,10.30976739028,3.28084,13.42164,33.775591632,37.452100936,23,5,7.792,10.96593539028,3.937008,13.42164,33.775591632,-13.197946,-2.460634,-0.894776,188.2, -26, 4.2,0,0,1046,999,1680,1021,3,-4,99,-0,191.5,3.7,2.9,98,3.904,3.888,0,0,0,0,5.445,80.6,10.30976739028,3.28084,6,P-GPS,"Zona de altitud restringida 150m Presiona ligeramente el acelerador para controlar la orientación de la aeronave. Mantén pulsado el botón de bloqueo para que la aeronave aterrice"
11500,2025-05-20 16:11:05,-34.9288314880641,-56.162798803581,3.608924,7.0209976,3.61685379028,10.63785139028,3.28084,13.5782258,36.178478848,39.859909412,23,5,7.792,10.96593539028,3.937008,13.5782258,36.178478848,-13.42164,-2.013246,-0.894776,187.5, -28.2, 4,0,0,1045,999,1681,1020,3,-4,100,-1,191.3,3.9,3.9,98,3.904,3.888,0,0,0,0,5.445,80.6,10.63785139028,3.608924,6,P-GPS,"Zona de altitud restringida 150m Presiona ligeramente el acelerador para controlar la orientación de la aeronave. Mantén pulsado el botón de bloqueo para que la aeronave aterrice"
11600,2025-05-20 16:11:05,-34.9288368628422,-56.1627997366034,3.608924,7.2506564,3.38719499028,10.63785139028,3.28084,13.5111176,38.156497284,41.84055252,23,5,7.792,10.96593539028,3.937008,13.5782258,38.156497284,-13.42164,-1.565858,-0.894776,186.7, -26.2, 6.2,0,0,1046,1000,1681,1021,3,-4,100,-0,191.5,3.8,6.3,98,3.904,3.888,0,0,0,0,5.445,80.6,10.63785139028,3.608924,6,P-GPS,"Zona de altitud restringida 150m Presiona ligeramente el acelerador para controlar la orientación de la aeronave. Mantén pulsado el botón de bloqueo para que la aeronave aterrice"
11700,2025-05-20 16:11:05,-34.9288432010717,-56.1628011499024,3.608924,7.4475068,3.19034459028,10.63785139028,3.28084,13.4887482,40.507219144,44.191602464,23,5,7.792,10.96593539028,3.937008,13.5782258,40.507219144,-13.42164,-1.342164,-0.894776,186, -24.8, 7.3,0,0,1045,1001,1682,1021,3,-3,100,-0,191.2,3.8,7.5,98,3.904,3.888,0,0,0,0,5.445,80.6,10.63785139028,3.608924,6,P-GPS,"Zona de altitud restringida 150m Presiona ligeramente el acelerador para controlar la orientación de la aeronave. Mantén pulsado el botón de bloqueo para que la aeronave aterrice"
11800,2025-05-20 16:11:05,-34.928848595554,-56.162801687543,3.937008,8.0052496,2.96068579028,10.96593539028,3.28084,13.4440094,42.4704738,46.16634006,23,5,7.792,10.96593539028,3.937008,13.5782258,42.4704738,-13.42164,-0.894776,-0.894776,185.5, -23.2, 9.3,0,0,1045,1003,1682,1021,3,-3,100,-0,191.2,3.8,9.2,98,3.904,3.888,0,0,0,0,5.445,80.6,10.96593539028,3.937008,6,P-GPS,"Zona de altitud restringida 150m Presiona ligeramente el acelerador para controlar la orientación de la aeronave. Mantén pulsado el botón de bloqueo para que la aeronave aterrice"
11900,2025-05-20 16:11:05,-34.9288550769549,-56.1628025756518,3.937008,8.2021,2.76383539028,10.96593539028,3.608924,13.197946,44.843833456,48.545933312,23,5,7.792,10.96593539028,3.937008,13.5782258,44.843833456,-13.197946,-0.447388,-0.894776,184.8, -23.5, 11,0,0,1043,1000,1682,1021,3,-4,100,-0,191.4,3.7,10.5,98,3.904,3.888,0,0,0,0,5.445,80.6,10.96593539028,3.937008,6,P-GPS,"Zona de altitud restringida 150m"
12000,2025-05-20 16:11:05,-34.9288603863499,-56.1628028294069,4.265092,8.7270344,2.56698499028,11.29401939028,3.937008,13.197946,46.76345294,50.484581668,23,5,7.792,11.29401939028,4.265092,13.5782258,46.76345294,-12.974252,-0.223694,-0.894776,184.3, -25.2, 10.7,0,0,1041,993,1682,1022,3,-5,100,-0,190.6,3.6,9.3,98,3.904,3.888,0,0,0,0,5.445,80.6,11.29401939028,4.265092,6,P-GPS,"Zona de altitud restringida 150m"
12100,2025-05-20 16:11:05,-34.9288666251167,-56.1628033763003,4.265092,8.9566932,2.33732619028,11.29401939028,4.265092,12.974252,49.03379422,52.766405888,24,5,7.821,11.29401939028,4.265092,13.5782258,49.03379422,-12.974252,0,-0.671082,183.8, -25, 10.6,0,0,1025,966,1536,1024,0,-9,78,0,190,3.1,9.6,98,3.918,3.903,0,0,0,0,4.646,80.78,11.29401939028,4.265092,6,P-GPS,"Zona de altitud restringida 150m"
12200,2025-05-20 16:11:05,-34.9288719021628,-56.1628034113471,4.265092,9.1535436,2.14047579028,11.29401939028,4.92126,12.974252,50.933728664,54.691930884,24,5,7.821,11.29401939028,4.265092,13.5782258,50.933728664,-12.974252,0,-0.671082,181.8, -22.4, 12,0,0,1010,954,1084,1032,-2,-11,9,1,184.6,1.7,12.2,98,3.918,3.903,0,0,0,0,4.646,80.78,11.29401939028,4.265092,6,P-GPS,"Zona de altitud restringida 150m"
12300,2025-05-20 16:11:05,-34.9288781473549,-56.1628037235083,4.593176,9.678478,1.94362539028,11.62210339028,5.905512,12.750558,53.19718018,56.972442768,24,5,7.821,11.62210339028,4.593176,13.5782258,53.19718018,-12.750558,0,-0.447388,178.2, -10.2, 12.4,0,0,1008,941,1024,1062,-2,-13,0,6,180.7,-0.5,12,98,3.918,3.903,0,0,0,0,4.646,80.78,11.62210339028,4.593176,6,P-GPS,"Zona de altitud restringida 150m"
12400,2025-05-20 16:11:06,-34.9288832072365,-56.1628036421294,4.593176,9.8753284,1.74677499028,11.62210339028,7.217848,12.30317,55.016734044,58.818571436,24,5,7.821,11.62210339028,4.593176,13.5782258,55.016734044,-12.30317,0.223694,-0.223694,177.9, 0, 10.4,0,0,1010,936,1024,1075,-2,-13,0,8,179.4,-2,9.9,98,3.918,3.903,0,0,0,0,4.646,80.78,11.62210339028,4.593176,6,P-GPS,"Zona de altitud restringida 150m"
12500,2025-05-20 16:11:06,-34.9288887681838,-56.1628036933622,4.593176,10.0721788,1.54992459028,11.62210339028,8.2021,12.30317,57.024936208,60.847442892,24,5,7.821,11.62210339028,4.593176,13.5782258,57.024936208,-11.408394,0.223694,-0.223694,179.2, 11.1, 8.7,0,0,1011,945,1024,1071,-2,-12,0,7,179.2,-2.1,8.5,98,3.918,3.903,0,0,0,0,4.646,80.78,11.62210339028,4.593176,6,P-GPS,"Zona de altitud restringida 150m"
12600,2025-05-20 16:11:06,-34.9288931242024,-56.1628035689585,4.593176,10.0721788,1.54992459028,11.62210339028,9.186352,10.289924,58.591537308,62.437337956,24,5,7.821,11.62210339028,4.593176,13.5782258,58.591537308,-10.289924,0.223694,-0.223694,180.7, 22.1, 7.6,0,0,1005,953,1024,1067,-3,-11,0,7,179.5,-2.1,8,98,3.918,3.903,0,0,0,0,4.646,80.78,11.62210339028,4.593176,6,P-GPS,"Zona de altitud restringida 150m"
12700,2025-05-20 16:11:06,-34.9288980046744,-56.1628037329962,4.593176,10.0721788,1.54992459028,11.62210339028,9.84252,8.7464354,60.361222404,64.218505992,24,5,7.821,11.62210339028,4.593176,13.5782258,60.361222404,-8.724066,0.447388,-0.223694,181.9, 25.6, 8.3,0,0,991,961,1024,1068,-5,-10,0,7,179.6,-2.8,9.7,98,3.918,3.903,0,0,0,0,4.646,80.78,11.62210339028,4.593176,6,P-GPS,"Zona de altitud restringida 150m"
12800,2025-05-20 16:11:06,-34.9289012097533,-56.1628035480025,4.593176,10.0721788,1.54992459028,11.62210339028,10.498688,7.4042714,61.511484908,65.389109704,24,5,7.821,11.62210339028,4.593176,13.5782258,61.511484908,-7.381902,0.447388,0,182.5, 24.4, 9.7,0,0,996,957,1024,1062,-4,-10,0,6,180.5,-4.4,9.8,98,3.918,3.903,0,0,0,0,4.646,80.78,11.62210339028,4.593176,6,P-GPS,"Zona de altitud restringida 150m"
