time(millisecond),datetime(utc),latitude,longitude,height_above_takeoff(feet),height_above_ground_at_drone_location(feet),ground_elevation_at_drone_location(feet),altitude_above_seaLevel(feet),height_sonar(feet),speed(mph),distance(feet),mileage(feet),satellites,gpslevel,voltage(v),max_altitude(feet),max_ascent(feet),max_speed(mph),max_distance(feet), xSpeed(mph), ySpeed(mph), zSpeed(mph), compass_heading(degrees), pitch(degrees), roll(degrees),isPhoto,isVideo,rc_elevator,rc_aileron,rc_throttle,rc_rudder,rc_elevator(percent),rc_aileron(percent),rc_throttle(percent),rc_rudder(percent),gimbal_heading(degrees),gimbal_pitch(degrees),gimbal_roll(degrees),battery_percent,voltageCell1,voltageCell2,voltageCell3,voltageCell4,voltageCell5,voltageCell6,current(A),battery_temperature(f),altitude(feet),ascent(feet),flycStateRaw,flycState,message
165300,2022-08-11 15:40:28,0,0,0,,,3.28084E-5,0.328084,0,0,0,0,0,0,3.28084E-5,0,0,0,0,0,0,225.8, 2.8, 0,0,0,364,364,364,1684,-100,-100,-100,100,233.6,0,0,50,3.883,3.88,0,0,0,0,0,91.76,3.28084E-5,0,6,P-GPS,"Sin tarjeta SD. Inserta una tarjeta (Code: 10022)"
165400,2022-08-11 15:40:28,0,0,0,,,3.28084E-5,0.328084,0,0,0,0,0,0,3.28084E-5,0,0,0,0,0,0,225.8, 2.8, 0,0,0,364,364,364,1684,-100,-100,-100,100,233.6,0,0,50,3.883,3.88,0,0,0,0,0,91.76,3.28084E-5,0,41,Motors_Started,
165500,2022-08-11 15:40:28,0,0,0,,,3.28084E-5,0.328084,0,0,0,0,0,0,3.28084E-5,0,0,0,0,0,0,225.8, 2.8, 0,0,0,876,982,787,1252,-22,-6,-36,35,233.6,0,0,50,3.883,3.88,0,0,0,0,0,91.76,3.28084E-5,0,41,Motors_Started,
165600,2022-08-11 15:40:28,0,0,0,,,3.28084E-5,0.328084,0,0,0,0,0,7.762,3.28084E-5,0,0,0,0,0,0,225.8, 2.8, 0,0,0,876,982,787,1252,-22,-6,-36,35,233.6,0,0,50,3.883,3.88,0,0,0,0,0.623,91.76,3.28084E-5,0,41,Motors_Started,
165700,2022-08-11 15:40:28,0,0,0,,,3.28084E-5,0.328084,0,0,0,0,0,7.762,3.28084E-5,0,0,0,0,0,0,225.8, 2.8, 0,0,0,1024,1024,1024,1024,0,0,0,0,233.6,0,0,50,3.883,3.88,0,0,0,0,0.623,91.76,3.28084E-5,0,41,Motors_Started,
165800,2022-08-11 15:40:28,0,0,0,,,3.28084E-5,0.328084,0,0,0,0,0,7.762,3.28084E-5,0,0,0,0,0,0,225.8, 2.8, 0,0,0,1024,1024,1024,1024,0,0,0,0,233.6,0,0,50,3.883,3.88,0,0,0,0,0.623,91.76,3.28084E-5,0,41,Motors_Started,
165900,2022-08-11 15:40:28,0,0,0,,,3.28084E-5,0.328084,0,0,0,0,0,7.762,3.28084E-5,0,0,0,0,0,0,225.8, 2.8, 0,0,0,1024,1024,1024,1024,0,0,0,0,233.6,0,0,50,3.883,3.88,0,0,0,0,0.623,91.76,3.28084E-5,0,41,Motors_Started,"Setting new Return-To-Home altitude to 100m (328 ft). Data Recorder File Index is 4. Setting new Maximum Flight Altitude to 30m (98 ft)"
166000,2022-08-11 15:40:28,0,0,0,,,3.28084E-5,0.328084,0,0,0,0,0,7.762,3.28084E-5,0,0,0,0,0,0,225.8, 2.8, 0,0,0,1024,1024,1024,1024,0,0,0,0,233.6,0,0,50,3.883,3.88,0,0,0,0,0.623,91.76,3.28084E-5,0,41,Motors_Started,
166100,2022-08-11 15:40:28,0,0,0,,,3.28084E-5,0.328084,0,0,0,0,0,7.762,3.28084E-5,0,0,0,0,0,0,225.8, 2.8, 0,0,0,1024,1024,1024,1024,0,0,0,0,233.6,0,0,50,3.883,3.88,0,0,0,0,0.623,91.76,3.28084E-5,0,41,Motors_Started,
166200,2022-08-11 15:40:28,0,0,0,,,3.28084E-5,0.328084,0,0,0,0,0,7.762,3.28084E-5,0,0,0,0,0,0,225.8, 2.8, 0,0,0,1024,1024,1024,1024,0,0,0,0,233.6,0,0,50,3.883,3.88,0,0,0,0,0.623,91.76,3.28084E-5,0,41,Motors_Started,
166300,2022-08-11 15:40:29,0,0,0,,,3.28084E-5,0.328084,0,0,0,0,0,7.762,3.28084E-5,0,0,0,0,0,0,225.8, 2.8, 0,0,0,1024,1024,1024,1024,0,0,0,0,233.6,0,0,50,3.883,3.88,0,0,0,0,0.623,91.76,3.28084E-5,0,41,Motors_Started,
166400,2022-08-11 15:40:29,0,0,0,,,3.28084E-5,0.328084,0,0,0,0,0,7.762,3.28084E-5,0,0,0,0,0,0,225.8, 2.8, 0,0,0,1024,1024,1024,1024,0,0,0,0,233.6,0,0,50,3.883,3.88,0,0,0,0,0.623,91.76,3.28084E-5,0,41,Motors_Started,
166500,2022-08-11 15:40:29,0,0,0,,,3.28084E-5,0.328084,0,0,0,0,0,7.762,3.28084E-5,0,0,0,0,0,0,225.8, 2.8, 0,0,0,1024,1024,1024,1024,0,0,0,0,233.6,0,0,50,3.883,3.88,0,0,0,0,0.623,91.76,3.28084E-5,0,10,Assisted_Takeoff,
166600,2022-08-11 15:40:29,0,0,0,,,3.28084E-5,0.328084,0,0,0,0,0,7.728,3.28084E-5,0,0,0,0,0,0,225.8, 2.8, 0,0,0,1024,1024,1024,1024,0,0,0,0,233.6,0,0,50,3.861,3.856,0,0,0,0,1.249,91.76,3.28084E-5,0,10,Assisted_Takeoff,
166700,2022-08-11 15:40:29,0,0,0,,,3.28084E-5,0.328084,0,0,0,0,0,7.728,3.28084E-5,0,0,0,0,0,0,225.9, 2.8, 0,0,0,1024,1024,1024,1024,0,0,0,0,233.6,0,0,50,3.861,3.856,0,0,0,0,1.249,91.76,3.28084E-5,0,10,Assisted_Takeoff,
166800,2022-08-11 15:40:29,0,0,0,,,3.28084E-5,0.328084,0,0,0,0,0,7.728,3.28084E-5,0,0,0,0,0,0,226, 2.8, 0,0,0,1024,1024,1024,1024,0,0,0,0,233.6,0,0,50,3.861,3.856,0,0,0,0,1.249,91.76,3.28084E-5,0,10,Assisted_Takeoff,
166900,2022-08-11 15:40:29,0,0,0,,,3.28084E-5,0.328084,0,0,0,0,0,7.728,3.28084E-5,0,0,0,0,0,0,225.9, 2.7, 0,0,0,1024,1024,1024,1024,0,0,0,0,233.7,0,0,50,3.861,3.856,0,0,0,0,1.249,91.76,3.28084E-5,0,10,Assisted_Takeoff,
167000,2022-08-11 15:40:29,0,0,0,,,3.28084E-5,0.328084,0,0,0,0,0,7.728,3.28084E-5,0,0,0,0,0,0,225.9, 2.8, 0,0,0,1024,1024,1024,1024,0,0,0,0,233.7,0,0,50,3.861,3.856,0,0,0,0,1.249,91.76,3.28084E-5,0,10,Assisted_Takeoff,
167100,2022-08-11 15:40:29,0,0,0,,,3.28084E-5,0.328084,0,0,0,0,0,7.728,3.28084E-5,0,0,0,0,0,0,226, 2.8, 0,0,0,1024,1024,1024,1024,0,0,0,0,233.7,0,0,50,3.861,3.856,0,0,0,0,1.249,91.76,3.28084E-5,0,10,Assisted_Takeoff,
167200,2022-08-11 15:40:29,0,0,0,,,3.28084E-5,0.328084,0,0,0,0,0,7.728,3.28084E-5,0,0,0,0,0,0,226.1, 2.8, 0,0,0,1024,1024,1024,1024,0,0,0,0,233.7,0,0,50,3.861,3.856,0,0,0,0,1.249,91.76,3.28084E-5,0,10,Assisted_Takeoff,
167300,2022-08-11 15:40:30,0,0,0,,,3.28084E-5,0.328084,0,0,0,0,0,7.728,3.28084E-5,0,0,0,0,0,0,226.2, 2.8, 0,0,0,1024,1024,1024,1024,0,0,0,0,233.8,0,0,50,3.861,3.856,0,0,0,0,1.249,91.76,3.28084E-5,0,10,Assisted_Takeoff,
167400,2022-08-11 15:40:30,0,0,0,,,3.28084E-5,0.328084,0,0,0,0,0,7.728,3.28084E-5,0,0,0,0,0,0,226.2, 2.8, 0,0,0,1024,1024,1024,1024,0,0,0,0,233.8,0,0,50,3.861,3.856,0,0,0,0,1.249,91.76,3.28084E-5,0,10,Assisted_Takeoff,
167500,2022-08-11 15:40:30,0,0,0,,,3.28084E-5,0.328084,0,0,0,0,0,7.728,3.28084E-5,0,0,0,0,0,0,226.2, 2.9, 0,0,0,1024,1024,1024,1024,0,0,0,0,233.9,0,0,50,3.861,3.856,0,0,0,0,1.249,91.76,3.28084E-5,0,10,Assisted_Takeoff,
167600,2022-08-11 15:40:30,0,0,0,,,3.28084E-5,0.328084,0,0,0,0,0,7.738,3.28084E-5,0,0,0,0,0,0,226.2, 2.8, 0,0,0,1024,1024,1024,1024,0,0,0,0,233.9,0,0,50,3.872,3.868,0,0,0,0,1.365,91.76,3.28084E-5,0,10,Assisted_Takeoff,
167700,2022-08-11 15:40:30,0,0,0,,,3.28084E-5,0.328084,0,0,0,0,0,7.738,3.28084E-5,0,0,0,0,0,0,226.1, 2.8, 0,0,0,1024,1024,1024,1024,0,0,0,0,233.9,0,0,50,3.872,3.868,0,0,0,0,1.365,91.76,3.28084E-5,0,10,Assisted_Takeoff,
167800,2022-08-11 15:40:30,0,0,0,,,3.28084E-5,0.328084,0,0,0,0,0,7.738,3.28084E-5,0,0,0,0,0,0,226.1, 2.8, 0,0,0,1024,1024,1024,1024,0,0,0,0,233.9,0,0,50,3.872,3.868,0,0,0,0,1.365,91.76,3.28084E-5,0,10,Assisted_Takeoff,
167900,2022-08-11 15:40:30,0,0,0,,,3.28084E-5,0.328084,0,0,0,0,0,7.738,3.28084E-5,0,0,0,0,0,0,226.2, 2.8, 0,0,0,1024,1024,1024,1024,0,0,0,0,233.9,0,0,50,3.872,3.868,0,0,0,0,1.365,91.76,3.28084E-5,0,10,Assisted_Takeoff,
168000,2022-08-11 15:40:30,0,0,0,,,3.28084E-5,0.328084,0,0,0,0,0,7.738,3.28084E-5,0,0,0,0,0,0,226.4, 2.8, 0,0,0,1024,1024,1024,1024,0,0,0,0,233.9,0,0,50,3.872,3.868,0,0,0,0,1.365,91.76,3.28084E-5,0,10,Assisted_Takeoff,
168100,2022-08-11 15:40:30,0,0,0,,,3.28084E-5,0.328084,0,0,0,0,0,7.738,3.28084E-5,0,0,0,0,0,0,226.5, 2.8, -0.1,0,0,1024,1024,1024,1024,0,0,0,0,233.9,0,0,50,3.872,3.868,0,0,0,0,1.365,91.76,3.28084E-5,0,10,Assisted_Takeoff,
168200,2022-08-11 15:40:30,0,0,0,,,3.28084E-5,0.328084,0,0,0,0,0,7.738,3.28084E-5,0,0,0,0,0,0,226.5, 2.8, 0,0,0,1024,1024,1024,1024,0,0,0,0,234.1,0,0,50,3.872,3.868,0,0,0,0,1.365,91.76,3.28084E-5,0,10,Assisted_Takeoff,
168300,2022-08-11 15:40:31,0,0,0,,,3.28084E-5,0.328084,0,0,0,0,0,7.738,3.28084E-5,0,0,0,0,0,0,226.5, 2.9, 0,0,0,1024,1024,1024,1024,0,0,0,0,234.1,0,0,50,3.872,3.868,0,0,0,0,1.365,91.76,3.28084E-5,0,10,Assisted_Takeoff,
168400,2022-08-11 15:40:31,0,0,0,,,3.28084E-5,0.328084,0,0,0,0,0,7.738,3.28084E-5,0,0,0,0,0,0,226.5, 2.8, -0.1,0,0,1024,1024,1024,1024,0,0,0,0,234.1,0,0,50,3.872,3.868,0,0,0,0,1.365,91.76,3.28084E-5,0,10,Assisted_Takeoff,
168500,2022-08-11 15:40:31,0,0,0,,,3.28084E-5,0.328084,0,0,0,0,0,7.738,3.28084E-5,0,0,0,0,0,0,226.5, 2.8, -0.1,0,0,1024,1024,1084,1024,0,0,9,0,234.2,0,0,50,3.872,3.868,0,0,0,0,1.365,91.76,3.28084E-5,0,10,Assisted_Takeoff,
168600,2022-08-11 15:40:31,0,0,0,,,3.28084E-5,0.328084,0,0,0,0,0,7.738,3.28084E-5,0,0,0,0,0,0,226.5, 2.8, 0,0,0,1024,1024,1127,1024,0,0,16,0,234.2,0,0,50,3.872,3.868,0,0,0,0,1.365,91.76,3.28084E-5,0,10,Assisted_Takeoff,
168700,2022-08-11 15:40:31,0,0,0,,,3.28084E-5,0.328084,0,0,0,0,0,7.739,3.28084E-5,0,0,0,0,0,0,226.6, 2.8, 0,0,0,1024,1024,1137,1024,0,0,17,0,234.2,0,0,50,3.871,3.868,0,0,0,0,1.139,91.94,3.28084E-5,0,10,Assisted_Takeoff,
168800,2022-08-11 15:40:31,0,0,0,,,3.28084E-5,0.328084,0,0,0,0,0,7.739,3.28084E-5,0,0,0,0,0,0,226.7, 2.9, 0,0,0,1024,1024,1137,1024,0,0,17,0,234.2,0,0,50,3.871,3.868,0,0,0,0,1.139,91.94,3.28084E-5,0,10,Assisted_Takeoff,
168900,2022-08-11 15:40:31,0,0,0,,,3.28084E-5,0.328084,0,0,0,0,0,7.739,3.28084E-5,0,0,0,0,0,0,226.8, 2.8, -0.1,0,0,1024,1024,1051,1024,0,0,4,0,234.3,0,0,50,3.871,3.868,0,0,0,0,1.139,91.94,3.28084E-5,0,10,Assisted_Takeoff,
169000,2022-08-11 15:40:31,0,0,0,,,3.28084E-5,0.328084,0,0,0,0,0,7.739,3.28084E-5,0,0,0,0,0,0,226.8, 2.8, 0,0,0,1024,1024,1024,1024,0,0,0,0,234.3,0,0,50,3.871,3.868,0,0,0,0,1.139,91.94,3.28084E-5,0,10,Assisted_Takeoff,
169100,2022-08-11 15:40:31,0,0,0,,,3.28084E-5,0.328084,0,0,0,0,0,7.739,3.28084E-5,0,0,0,0,0,0,226.9, 2.8, 0,0,0,1024,1024,1024,1024,0,0,0,0,234.3,0,0,50,3.871,3.868,0,0,0,0,1.139,91.94,3.28084E-5,0,10,Assisted_Takeoff,
169200,2022-08-11 15:40:31,0,0,0,,,3.28084E-5,0.328084,0,0,0,0,0,7.739,3.28084E-5,0,0,0,0,0,0,227, 2.8, 0,0,0,1024,1024,1024,1024,0,0,0,0,234.4,0,0,50,3.871,3.868,0,0,0,0,1.139,91.94,3.28084E-5,0,10,Assisted_Takeoff,
169300,2022-08-11 15:40:32,0,0,0,,,3.28084E-5,0.328084,0,0,0,0,0,7.739,3.28084E-5,0,0,0,0,0,0,227.1, 2.8, 0,0,0,1024,1024,1040,1024,0,0,2,0,234.5,0,0,50,3.871,3.868,0,0,0,0,1.139,91.94,3.28084E-5,0,10,Assisted_Takeoff,
169400,2022-08-11 15:40:32,0,0,0,,,3.28084E-5,0.328084,0,0,0,0,0,7.739,3.28084E-5,0,0,0,0,0,0,227, 2.8, -0.1,0,0,1024,1024,1148,1024,0,0,19,0,234.5,0,0,50,3.871,3.868,0,0,0,0,1.139,91.94,3.28084E-5,0,10,Assisted_Takeoff,
169500,2022-08-11 15:40:32,0,0,0,,,3.28084E-5,0.328084,0,0,0,0,0,7.739,3.28084E-5,0,0,0,0,0,0,227.1, 2.8, 0,0,0,1024,1024,1024,1024,0,0,0,0,234.6,0,0,50,3.871,3.868,0,0,0,0,1.139,91.94,3.28084E-5,0,10,Assisted_Takeoff,
169600,2022-08-11 15:40:32,0,0,0,,,3.28084E-5,0.328084,0,0,0,0,0,7.739,3.28084E-5,0,0,0,0,0,0,227.1, 2.8, 0,0,0,1024,1024,1024,1024,0,0,0,0,234.6,0,0,50,3.871,3.868,0,0,0,0,1.139,91.94,3.28084E-5,0,10,Assisted_Takeoff,
169700,2022-08-11 15:40:32,0,0,0,,,3.28084E-5,0.328084,0,0,0,0,0,7.716,3.28084E-5,0,0,0,0,0,0,227.2, 2.8, 0,0,0,1024,1024,1024,1024,0,0,0,0,234.6,0,0,50,3.863,3.86,0,0,0,0,1.45,91.94,3.28084E-5,0,10,Assisted_Takeoff,
169800,2022-08-11 15:40:32,0,0,0,,,3.28084E-5,0.328084,0,0,0,0,0,7.716,3.28084E-5,0,0,0,0,0,0,227.2, 2.8, 0,0,0,1024,1024,1024,1024,0,0,0,0,234.6,0,0,50,3.863,3.86,0,0,0,0,1.45,91.94,3.28084E-5,0,10,Assisted_Takeoff,
169900,2022-08-11 15:40:32,0,0,0,,,3.28084E-5,0.328084,0,0,0,0,0,7.716,3.28084E-5,0,0,0,0,0,0,227.2, 2.8, 0,0,0,1024,1024,1161,1024,0,0,21,0,234.7,0,0,50,3.863,3.86,0,0,0,0,1.45,91.94,3.28084E-5,0,10,Assisted_Takeoff,
170000,2022-08-11 15:40:32,0,0,0,,,3.28084E-5,0.328084,0,0,0,0,0,7.716,3.28084E-5,0,0,0,0,0,0,227.2, 2.8, 0,0,0,1024,1024,1095,1024,0,0,11,0,234.7,0,0,50,3.863,3.86,0,0,0,0,1.45,91.94,3.28084E-5,0,10,Assisted_Takeoff,
170100,2022-08-11 15:40:32,0,0,0,,,3.28084E-5,0.328084,0,0,0,0,0,7.716,3.28084E-5,0,0,0,0,0,0,227.2, 2.8, 0,0,0,1024,1024,1024,1024,0,0,0,0,234.7,0,0,50,3.863,3.86,0,0,0,0,1.45,91.94,3.28084E-5,0,10,Assisted_Takeoff,
170200,2022-08-11 15:40:32,0,0,0,,,3.28084E-5,0.328084,0,0,0,0,0,7.716,3.28084E-5,0,0,0,0,0,0,227.3, 2.8, 0,0,0,1024,1024,1024,1024,0,0,0,0,234.7,0,0,50,3.863,3.86,0,0,0,0,1.45,91.94,3.28084E-5,0,10,Assisted_Takeoff,
170300,2022-08-11 15:40:33,0,0,0,,,3.28084E-5,0.328084,0,0,0,0,0,7.716,3.28084E-5,0,0,0,0,0,0,227.5, 2.8, 0,0,0,1024,1024,1024,1024,0,0,0,0,234.7,0,0,50,3.863,3.86,0,0,0,0,1.45,91.94,3.28084E-5,0,10,Assisted_Takeoff,
170400,2022-08-11 15:40:33,0,0,0,,,3.28084E-5,0.328084,0,0,0,0,0,7.716,3.28084E-5,0,0,0,0,0,0,227.4, 2.8, 0,0,0,1024,1024,1024,1024,0,0,0,0,234.7,0,0,50,3.863,3.86,0,0,0,0,1.45,91.94,3.28084E-5,0,10,Assisted_Takeoff,
170500,2022-08-11 15:40:33,0,0,0,,,3.28084E-5,0.328084,0,0,0,0,0,7.716,3.28084E-5,0,0,0,0,0,0,227.4, 2.9, 0,0,0,1024,1024,1024,1024,0,0,0,0,234.7,0,0,50,3.863,3.86,0,0,0,0,1.45,91.94,3.28084E-5,0,10,Assisted_Takeoff,
170600,2022-08-11 15:40:33,0,0,0,,,3.28084E-5,0.328084,0,0,0,0,0,7.716,3.28084E-5,0,0,0,0,0,0,227.4, 2.8, 0,0,0,1024,1024,1024,1024,0,0,0,0,234.7,0,0,50,3.863,3.86,0,0,0,0,1.45,91.94,3.28084E-5,0,10,Assisted_Takeoff,
170700,2022-08-11 15:40:33,0,0,0,,,3.28084E-5,0.328084,0,0,0,0,0,7.722,3.28084E-5,0,0,0,0,0,0,227.5, 2.8, 0,0,0,1024,1024,1024,1024,0,0,0,0,234.7,0,0,50,3.86,3.855,0,0,0,0,1.598,91.94,3.28084E-5,0,10,Assisted_Takeoff,
170800,2022-08-11 15:40:33,0,0,0,,,3.28084E-5,0.328084,0,0,0,0,0,7.722,3.28084E-5,0,0,0,0,0,0,227.5, 2.8, 0,0,0,1024,1024,1024,1024,0,0,0,0,234.8,0,0,50,3.86,3.855,0,0,0,0,1.598,91.94,3.28084E-5,0,10,Assisted_Takeoff,
170900,2022-08-11 15:40:33,0,0,0,,,3.28084E-5,0.328084,0,0,0,0,0,7.722,3.28084E-5,0,0,0,0,0,0,227.6, 2.8, 0,0,0,1024,1024,1024,1024,0,0,0,0,234.8,0,0,50,3.86,3.855,0,0,0,0,1.598,91.94,3.28084E-5,0,10,Assisted_Takeoff,
171000,2022-08-11 15:40:33,0,0,0,,,3.28084E-5,0.328084,0,0,0,0,0,7.722,3.28084E-5,0,0,0,0,0,0,227.7, 2.8, 0,0,0,1024,1024,1024,1024,0,0,0,0,234.8,0,0,50,3.86,3.855,0,0,0,0,1.598,91.94,3.28084E-5,0,10,Assisted_Takeoff,
171100,2022-08-11 15:40:33,0,0,0,,,3.28084E-5,0.328084,0,0,0,0,0,7.722,3.28084E-5,0,0,0,0,0,0,227.7, 2.8, 0,0,0,1024,1024,1026,1024,0,0,0,0,234.8,0,0,50,3.86,3.855,0,0,0,0,1.598,91.94,3.28084E-5,0,10,Assisted_Takeoff,
171200,2022-08-11 15:40:33,0,0,0,,,3.28084E-5,0.328084,0,0,0,0,0,7.722,3.28084E-5,0,0,0,0,0,0,227.8, 2.8, 0,0,0,1024,1024,1175,1024,0,0,23,0,234.8,0,0,50,3.86,3.855,0,0,0,0,1.598,91.94,3.28084E-5,0,10,Assisted_Takeoff,
171300,2022-08-11 15:40:34,0,0,0,,,3.28084E-5,0.328084,0,0,0,0,0,7.722,3.28084E-5,0,0,0,0,0,0,227.8, 2.8, 0,0,0,1024,1024,1210,1024,0,0,28,0,234.8,0,0,50,3.86,3.855,0,0,0,0,1.598,91.94,3.28084E-5,0,10,Assisted_Takeoff,
171400,2022-08-11 15:40:34,0,0,0,,,3.28084E-5,0.328084,0,0,0,0,0,7.722,3.28084E-5,0,0,0,0,0,0,227.9, 2.8, 0,0,0,1024,1024,1036,1024,0,0,2,0,234.8,0,0,50,3.86,3.855,0,0,0,0,1.598,91.94,3.28084E-5,0,10,Assisted_Takeoff,
171500,2022-08-11 15:40:34,0,0,0,,,3.28084E-5,0.328084,0,0,0,0,0,7.722,3.28084E-5,0,0,0,0,0,0,227.9, 2.8, 0,0,0,1024,1024,1024,1024,0,0,0,0,234.9,0,0,50,3.86,3.855,0,0,0,0,1.598,91.94,3.28084E-5,0,10,Assisted_Takeoff,
171600,2022-08-11 15:40:34,0,0,0,,,3.28084E-5,0.328084,0,0,0,0,0,7.722,3.28084E-5,0,0,0,0,0,0,227.9, 2.8, 0,0,0,1024,1024,1152,1024,0,0,19,0,234.9,0,0,50,3.86,3.855,0,0,0,0,1.598,91.94,3.28084E-5,0,10,Assisted_Takeoff,
171700,2022-08-11 15:40:34,0,0,0,,,3.28084E-5,0.328084,0,0,0,0,0,7.73,3.28084E-5,0,0,0,0,0,0,227.9, 2.8, 0,0,0,1024,1024,1164,1024,0,0,21,0,234.9,0,0,50,3.861,3.855,0,0,0,0,1.421,91.94,3.28084E-5,0,10,Assisted_Takeoff,
171800,2022-08-11 15:40:34,0,0,0,,,3.28084E-5,0.328084,0,0,0,0,0,7.73,3.28084E-5,0,0,0,0,0,0,227.8, 2.8, 0,0,0,1024,1024,1164,1024,0,0,21,0,234.9,0,0,50,3.861,3.855,0,0,0,0,1.421,91.94,3.28084E-5,0,10,Assisted_Takeoff,
171900,2022-08-11 15:40:34,0,0,0,,,3.28084E-5,0.328084,0,0,0,0,0,7.73,3.28084E-5,0,0,0,0,0,0,227.8, 2.8, 0,0,0,1024,1024,1139,1024,0,0,17,0,234.9,0,0,50,3.861,3.855,0,0,0,0,1.421,91.94,3.28084E-5,0,10,Assisted_Takeoff,
172000,2022-08-11 15:40:34,0,0,0,,,3.28084E-5,0.328084,0,0,0,0,0,7.73,3.28084E-5,0,0,0,0,0,0,228.2, 2.7, 0,0,0,1024,1024,1024,1024,0,0,0,0,234.9,0,0,50,3.861,3.855,0,0,0,0,1.421,91.94,3.28084E-5,0,10,Assisted_Takeoff,
172100,2022-08-11 15:40:34,0,0,0,,,3.28084E-5,0.328084,0,0,0,0,0,7.73,3.28084E-5,0,0,0,0,0,0,228.6, 2.7, 0,0,0,1024,1024,1024,1024,0,0,0,0,235,0,0,50,3.861,3.855,0,0,0,0,1.421,91.94,3.28084E-5,0,10,Assisted_Takeoff,
172200,2022-08-11 15:40:34,0,0,0,,,3.28084E-5,0.328084,0,0,0,0,0,7.73,3.28084E-5,0,0,0,0,0,0,229.6, 2.9, 0,0,0,1024,1024,1024,1024,0,0,0,0,235.1,0,0,50,3.861,3.855,0,0,0,0,1.421,91.94,3.28084E-5,0,10,Assisted_Takeoff,
172300,2022-08-11 15:40:35,0,0,0,,,3.28084E-5,0.328084,0,0,0,0,0,7.73,3.28084E-5,0,0,0,0,0,0,230, 2.8, 0,0,0,1024,1024,1024,1024,0,0,0,0,235.2,0,0,50,3.861,3.855,0,0,0,0,1.421,91.94,3.28084E-5,0,10,Assisted_Takeoff,
172400,2022-08-11 15:40:35,0,0,0,,,3.28084E-5,0.328084,0,0,0,0,0,7.73,3.28084E-5,0,0,0,0,0,0,230.3, 2.8, 0,0,0,1024,1024,1024,1024,0,0,0,0,235.4,0,0,50,3.861,3.855,0,0,0,0,1.421,91.94,3.28084E-5,0,10,Assisted_Takeoff,
172500,2022-08-11 15:40:35,0,0,0,,,3.28084E-5,0.328084,0,0,0,0,0,7.73,3.28084E-5,0,0,0,0,0,0,230.5, 2.8, 0,0,0,1024,1024,1024,1024,0,0,0,0,235.6,0,0,50,3.861,3.855,0,0,0,0,1.421,91.94,3.28084E-5,0,10,Assisted_Takeoff,
172600,2022-08-11 15:40:35,0,0,0,,,3.28084E-5,0.328084,0,0,0,0,0,7.73,3.28084E-5,0,0,0,0,0,0,230.6, 2.8, 0,0,0,1024,1024,1024,1024,0,0,0,0,235.8,0,0,50,3.861,3.855,0,0,0,0,1.421,91.94,3.28084E-5,0,10,Assisted_Takeoff,
172700,2022-08-11 15:40:35,0,0,0,,,3.28084E-5,0.328084,0,0,0,0,0,7.693,3.28084E-5,0,0,0,0,0,0,230.6, 2.8, 0,0,0,1024,1024,1024,1024,0,0,0,0,236,0,0,50,3.852,3.849,0,0,0,0,1.922,91.94,3.28084E-5,0,10,Assisted_Takeoff,
172800,2022-08-11 15:40:35,0,0,0,,,3.28084E-5,0.328084,0,0,0,0,0,7.693,3.28084E-5,0,0,0,0,0,0,230.6, 2.9, 0,0,0,1024,1024,1024,1024,0,0,0,0,236.1,0,0,50,3.852,3.849,0,0,0,0,1.922,91.94,3.28084E-5,0,10,Assisted_Takeoff,
172900,2022-08-11 15:40:35,0,0,0,,,3.28084E-5,0.328084,0,0,0,0,0,7.693,3.28084E-5,0,0,0,0,0,0,230.8, 2.9, 0,0,0,1024,1024,1106,1024,0,0,12,0,236.3,0,0,50,3.852,3.849,0,0,0,0,1.922,91.94,3.28084E-5,0,10,Assisted_Takeoff,
173000,2022-08-11 15:40:35,0,0,0,,,3.28084E-5,0.328084,0,0,0,0,0,7.693,3.28084E-5,0,0,0,0,0,0,230.9, 2.9, 0,0,0,1024,1024,1196,1024,0,0,26,0,236.4,0,0,50,3.852,3.849,0,0,0,0,1.922,91.94,3.28084E-5,0,10,Assisted_Takeoff,
173100,2022-08-11 15:40:35,0,0,0,,,3.28084E-5,0.328084,0,0,0,0,0,7.693,3.28084E-5,0,0,0,0,0,0,231.1, 2.9, 0,0,0,1024,1024,1230,1024,0,0,31,0,236.6,0,0,50,3.852,3.849,0,0,0,0,1.922,91.94,3.28084E-5,0,10,Assisted_Takeoff,
173200,2022-08-11 15:40:35,0,0,0,,,3.28084E-5,0.328084,0,0,0,0,0,7.693,3.28084E-5,0,0,0,0,0,0,231.2, 2.9, 0,0,0,1024,1024,1212,1024,0,0,28,0,236.7,0,0,50,3.852,3.849,0,0,0,0,1.922,91.94,3.28084E-5,0,10,Assisted_Takeoff,
173300,2022-08-11 15:40:36,0,0,0,,,3.28084E-5,0.328084,0,0,0,0,0,7.693,3.28084E-5,0,0,0,0,0,0,231.4, 2.8, 0,0,0,1024,1024,1206,1024,0,0,28,0,236.9,0,0,50,3.852,3.849,0,0,0,0,1.922,91.94,3.28084E-5,0,10,Assisted_Takeoff,
173400,2022-08-11 15:40:36,0,0,0,,,3.28084E-5,0.328084,0,0,0,0,0,7.693,3.28084E-5,0,0,0,0,0,0,231.6, 2.9, 0,0,0,1024,1024,1195,1024,0,0,26,0,237,0,0,50,3.852,3.849,0,0,0,0,1.922,91.94,3.28084E-5,0,10,Assisted_Takeoff,
173500,2022-08-11 15:40:36,0,0,0,,,3.28084E-5,0.328084,0,0,0,0,0,7.693,3.28084E-5,0,0,0,0,0,0,232, 2.6, 0,0,0,1024,1024,1198,1024,0,0,26,0,237.2,0,0,50,3.852,3.849,0,0,0,0,1.922,91.94,3.28084E-5,0,10,Assisted_Takeoff,
173600,2022-08-11 15:40:36,0,0,0,,,3.28084E-5,0.328084,0,0,0,0,0,7.693,3.28084E-5,0,0,0,0,0,0,232.9, -0.2, 0,0,0,1024,1024,1198,1024,0,0,26,0,237.4,0,0,50,3.852,3.849,0,0,0,0,1.922,91.94,3.28084E-5,0,10,Assisted_Takeoff,
173700,2022-08-11 15:40:36,0,0,0,,,3.28084E-5,0.328084,0,0,0,0,0,7.724,3.28084E-5,0,0,0,0,0,-0.223694,233.7, -1.2, 0,0,0,1024,1024,1024,1024,0,0,0,0,237.7,0,0,50,3.843,3.836,0,0,0,0,1.619,91.94,3.28084E-5,0,10,Assisted_Takeoff,
173800,2022-08-11 15:40:36,0,0,0,,,3.28084E-5,0.328084,0,0,0,0,0,7.724,3.28084E-5,0,0,0,0,0,-0.447388,233.9, -0.6, 0.3,0,0,1024,1024,1024,1024,0,0,0,0,238.1,0,0,50,3.843,3.836,0,0,0,0,1.619,91.94,3.28084E-5,0,6,P-GPS,"Sin tarjeta SD. Inserta una tarjeta (Code: 10022)"
173900,2022-08-11 15:40:36,0,0,0,,,3.28084E-5,0.328084,0,0,0,0,0,7.724,3.28084E-5,0,0,0,0,0,-0.671082,233.8, -0.3, -0.3,0,0,1024,1024,1024,1024,0,0,0,0,238.4,0,0,50,3.843,3.836,0,0,0,0,1.619,91.94,3.28084E-5,0,6,P-GPS,
174000,2022-08-11 15:40:36,0,0,0,,,3.28084E-5,0.656168,0,0,0,0,0,7.724,3.28084E-5,0,0,0,0,0,-0.671082,233.8, 0, -0.5,0,0,1024,1024,1024,1024,0,0,0,0,238.7,0,0,50,3.843,3.836,0,0,0,0,1.619,91.94,3.28084E-5,0,6,P-GPS,
174100,2022-08-11 15:40:36,0,0,0,,,3.28084E-5,0.656168,0,0,0,0,0,7.724,3.28084E-5,0,0,0,0,0,-0.671082,233.9, 0.3, 0,0,0,1024,1024,1024,1024,0,0,0,0,238.9,0,0,50,3.843,3.836,0,0,0,0,1.619,91.94,3.28084E-5,0,6,P-GPS,
174200,2022-08-11 15:40:36,0,0,0.328084,,,0.3281168084,0.656168,0,0,0,0,0,7.724,0.3281168084,0.328084,0,0,0,0,-0.894776,233.8, 0.4, 0.3,0,0,1024,1024,1024,1024,0,0,0,0,239.1,0,0,50,3.843,3.836,0,0,0,0,1.619,91.94,0.3281168084,0.328084,6,P-GPS,
174300,2022-08-11 15:40:37,0,0,0.328084,,,0.3281168084,0.984252,0,0,0,0,0,7.724,0.3281168084,0.328084,0,0,0,0,-0.894776,233.8, 0.4, 0.2,0,0,1024,1024,1024,1024,0,0,0,0,239.3,0,0,50,3.843,3.836,0,0,0,0,1.619,91.94,0.3281168084,0.328084,6,P-GPS,
174400,2022-08-11 15:40:37,0,0,0.328084,,,0.3281168084,0.984252,0,0,0,0,0,7.724,0.3281168084,0.328084,0,0,0,0,-0.894776,233.8, 0.2, 0.2,0,0,1024,1024,1024,1024,0,0,0,0,239.4,0,0,50,3.843,3.836,0,0,0,0,1.619,91.94,0.3281168084,0.328084,6,P-GPS,
174500,2022-08-11 15:40:37,0,0,0.656168,,,0.6562008084,1.312336,0,0,0,0,0,7.724,0.6562008084,0.656168,0,0,0,0,-0.894776,233.8, 0, 0.1,0,0,1024,1024,1024,1024,0,0,0,0,239.5,0,0,50,3.843,3.836,0,0,0,0,1.619,91.94,0.6562008084,0.656168,6,P-GPS,
174600,2022-08-11 15:40:37,0,0,0.656168,,,0.6562008084,1.312336,0,0,0,0,0,7.724,0.6562008084,0.656168,0,0,0,0,-0.894776,233.8, -0.1, 0.2,0,0,1024,1024,1024,1024,0,0,0,0,239.6,0,0,50,3.843,3.836,0,0,0,0,1.619,91.94,0.6562008084,0.656168,6,P-GPS,
174700,2022-08-11 15:40:37,0,0,0.656168,,,0.6562008084,1.312336,0,0,0,0,0,7.724,0.6562008084,0.656168,0,0,0,0,-0.671082,233.8, -0.1, 0,0,0,1024,1024,1024,1024,0,0,0,0,239.7,0,0,50,3.843,3.836,0,0,0,0,1.619,91.94,0.6562008084,0.656168,1,Atti,"Vuela con cuidado (modo Atti) Señal del GPS demasiado débil. Se ha pasado al modo Atti. La aeronave no puede hacer vuelo estacionario. Vuela con precaución (Code: 30022). Sin tarjeta SD. Inserta una tarjeta (Code: 10022). Aeronave en modo Atti. No se puede hacer vuelo estacionari"
174800,2022-08-11 15:40:37,0,0,0.984252,,,0.9842848084,1.312336,0,0,0,0,0,7.607,0.9842848084,0.984252,0,0,0,0,-0.447388,233.8, 0, 0,0,0,1024,1024,1024,1024,0,0,0,0,239.8,0,0,50,3.799,3.792,0,0,0,0,3.584,91.94,0.9842848084,0.984252,6,P-GPS,"La brújula no funciona bien el GPS no tiene buena señal. Cambia a modo Atti (Code: 30020). Aeronave en modo Atti. No se puede hacer vuelo estacionario. Vuela con cuidado (Code: 30004). Sin tarjeta SD. Inserta una tarjeta (Code: 10022). Sin tarjeta SD"
174900,2022-08-11 15:40:37,0,0,0.984252,,,0.9842848084,1.64042,0,0,0,0,0,7.607,0.9842848084,0.984252,0,0,0,0,-0.447388,233.8, 0, 0,0,0,1024,1024,1024,1024,0,0,0,0,239.9,0,0,50,3.799,3.792,0,0,0,0,3.584,91.94,0.9842848084,0.984252,6,P-GPS,
175000,2022-08-11 15:40:37,0,0,0.984252,,,0.9842848084,1.64042,0,0,0,0,0,7.607,0.9842848084,0.984252,0,0,0,0,-0.223694,233.8, 0, 0.1,0,0,1024,1024,1024,1024,0,0,0,0,240,0,0,50,3.799,3.792,0,0,0,0,3.584,91.94,0.9842848084,0.984252,6,P-GPS,
175100,2022-08-11 15:40:37,0,0,0.984252,,,0.9842848084,1.64042,0,0,0,0,0,7.607,0.9842848084,0.984252,0,0,0,0,0,233.8, 0, 0.1,0,0,1024,1024,1024,1024,0,0,0,0,240,0,0,50,3.799,3.792,0,0,0,0,3.584,91.94,0.9842848084,0.984252,6,P-GPS,
175200,2022-08-11 15:40:37,0,0,0.984252,,,0.9842848084,1.64042,0,0,0,0,0,7.607,0.9842848084,0.984252,0,0,0,0,0,233.7, 0.1, 0.1,0,0,1024,1024,1024,1024,0,0,0,0,240.1,0,0,50,3.799,3.792,0,0,0,0,3.584,91.94,0.9842848084,0.984252,6,P-GPS,
175300,2022-08-11 15:40:38,0,0,0.984252,,,0.9842848084,1.64042,0,0,0,0,0,7.607,0.9842848084,0.984252,0,0,0,0,0,233.7, 0.1, 0.1,0,0,1024,1024,1024,1024,0,0,0,0,240.1,0,0,50,3.799,3.792,0,0,0,0,3.584,91.94,0.9842848084,0.984252,6,P-GPS,
175400,2022-08-11 15:40:38,0,0,0.984252,,,0.9842848084,1.64042,0,0,0,0,0,7.607,0.9842848084,0.984252,0,0,0,0,0,233.8, 0.3, 0.1,0,0,1024,1024,1024,1024,0,0,0,0,240.2,0,0,50,3.799,3.792,0,0,0,0,3.584,91.94,0.9842848084,0.984252,6,P-GPS,
175500,2022-08-11 15:40:38,0,0,1.312336,,,1.3123688084,1.64042,0,0,0,0,0,7.607,1.3123688084,1.312336,0,0,0,0,0,233.8, 0.3, 0.1,0,0,1024,1024,1024,1024,0,0,0,0,240.2,0,0,50,3.799,3.792,0,0,0,0,3.584,91.94,1.3123688084,1.312336,6,P-GPS,
175600,2022-08-11 15:40:38,0,0,1.312336,,,1.3123688084,1.64042,0,0,0,0,0,7.607,1.3123688084,1.312336,0,0,0,0,0,233.8, 0.2, 0.1,0,0,1024,1024,1024,1024,0,0,0,0,240.3,0,0,50,3.799,3.792,0,0,0,0,3.584,91.94,1.3123688084,1.312336,6,P-GPS,
175700,2022-08-11 15:40:38,0,0,1.312336,,,1.3123688084,1.64042,0,0,0,0,0,7.607,1.3123688084,1.312336,0,0,0,0,0,233.7, 0.2, 0.2,0,0,1024,1024,1024,1024,0,0,0,0,240.3,0,0,50,3.799,3.792,0,0,0,0,3.584,91.94,1.3123688084,1.312336,6,P-GPS,
175800,2022-08-11 15:40:38,0,0,1.312336,,,1.3123688084,1.64042,0,0,0,0,0,7.599,1.3123688084,1.312336,0,0,0,0,0,233.8, 0.3, 0.2,0,0,1024,1024,1024,1024,0,0,0,0,240.4,0,0,50,3.798,3.79,0,0,0,0,4.467,91.94,1.3123688084,1.312336,6,P-GPS,
175900,2022-08-11 15:40:38,0,0,1.312336,,,1.3123688084,1.64042,0,0,0,0,0,7.599,1.3123688084,1.312336,0,0,0,0,0,233.8, 0.2, 0.2,0,0,1024,1024,1024,1024,0,0,0,0,240.4,0,0,50,3.798,3.79,0,0,0,0,4.467,91.94,1.3123688084,1.312336,6,P-GPS,
176000,2022-08-11 15:40:38,0,0,1.312336,,,1.3123688084,1.64042,0,0,0,0,0,7.599,1.3123688084,1.312336,0,0,0,0,0,233.7, 0.2, 0.2,0,0,1024,1024,1024,1024,0,0,0,0,240.4,0,0,50,3.798,3.79,0,0,0,0,4.467,91.94,1.3123688084,1.312336,6,P-GPS,
176100,2022-08-11 15:40:38,0,0,1.312336,,,1.3123688084,1.64042,0,0,0,0,0,7.599,1.3123688084,1.312336,0,0,0,0,0,233.7, 0.3, 0.2,0,0,1024,1024,1024,1024,0,0,0,0,240.5,0,0,50,3.798,3.79,0,0,0,0,4.467,91.94,1.3123688084,1.312336,6,P-GPS,
176200,2022-08-11 15:40:38,0,0,1.312336,,,1.3123688084,1.64042,0,0,0,0,0,7.599,1.3123688084,1.312336,0,0,0,0,0,233.7, 0.4, 0.3,0,0,1024,1024,1024,1024,0,0,0,0,240.5,0,0,50,3.798,3.79,0,0,0,0,4.467,91.94,1.3123688084,1.312336,6,P-GPS,
176300,2022-08-11 15:40:39,0,0,1.312336,,,1.3123688084,1.64042,0,0,0,0,0,7.599,1.3123688084,1.312336,0,0,0,0,0,233.7, 0.4, 0.2,0,0,1024,1024,1024,1024,0,0,0,0,240.5,0,0,50,3.798,3.79,0,0,0,0,4.467,91.94,1.3123688084,1.312336,6,P-GPS,
176400,2022-08-11 15:40:39,0,0,1.312336,,,1.3123688084,1.64042,0,0,0,0,0,7.599,1.3123688084,1.312336,0,0,0,0,0,233.2, 0.3, 0.2,0,0,1024,1024,1024,1024,0,0,0,0,240.5,0,0,50,3.798,3.79,0,0,0,0,4.467,91.94,1.3123688084,1.312336,6,P-GPS,
176500,2022-08-11 15:40:39,0,0,1.312336,,,1.3123688084,1.64042,0,0,0,0,0,7.599,1.3123688084,1.312336,0,0,0,0,0,232.9, 0.3, 0.1,0,0,1024,1024,1024,1024,0,0,0,0,240.5,0,0,50,3.798,3.79,0,0,0,0,4.467,91.94,1.3123688084,1.312336,6,P-GPS,
176600,2022-08-11 15:40:39,0,0,1.312336,,,1.3123688084,1.64042,0,0,0,0,0,7.599,1.3123688084,1.312336,0,0,0,0,0,232.8, 0.2, 0,0,0,1024,1024,1024,1024,0,0,0,0,240.5,0,0,50,3.798,3.79,0,0,0,0,4.467,91.94,1.3123688084,1.312336,6,P-GPS,
176700,2022-08-11 15:40:39,0,0,1.312336,,,1.3123688084,1.64042,0,0,0,0,0,7.599,1.3123688084,1.312336,0,0,0,0,0,232.8, 0.2, 0.1,0,0,1024,1024,1024,1024,0,0,0,0,240.5,0,0,50,3.798,3.79,0,0,0,0,4.467,91.94,1.3123688084,1.312336,6,P-GPS,
176800,2022-08-11 15:40:39,0,0,1.312336,,,1.3123688084,1.64042,0,0,0,0,0,7.581,1.3123688084,1.312336,0,0,0,0,0,232.8, 0.1, 0.1,0,0,1024,1024,1024,1024,0,0,0,0,240.5,0,0,50,3.793,3.785,0,0,0,0,4.541,91.94,1.3123688084,1.312336,6,P-GPS,
176900,2022-08-11 15:40:39,0,0,1.312336,,,1.3123688084,1.64042,0,0,0,0,0,7.581,1.3123688084,1.312336,0,0,0,0,0,232.8, 0, 0.1,0,0,1024,1024,1024,1024,0,0,0,0,240.5,0,0,50,3.793,3.785,0,0,0,0,4.541,91.94,1.3123688084,1.312336,6,P-GPS,
177000,2022-08-11 15:40:39,0,0,1.312336,,,1.3123688084,1.64042,0,0,0,0,0,7.581,1.3123688084,1.312336,0,0,0,0,0,232.8, 0, 0.1,0,0,1024,1024,1024,1024,0,0,0,0,240.5,0,0,50,3.793,3.785,0,0,0,0,4.541,91.94,1.3123688084,1.312336,6,P-GPS,
177100,2022-08-11 15:40:39,0,0,1.312336,,,1.3123688084,1.64042,0,0,0,0,0,7.581,1.3123688084,1.312336,0,0,0,0,0,232.8, 0, 0.3,0,0,1024,1024,1024,1024,0,0,0,0,240.5,0,0,50,3.793,3.785,0,0,0,0,4.541,91.94,1.3123688084,1.312336,6,P-GPS,
177200,2022-08-11 15:40:39,0,0,1.312336,,,1.3123688084,1.64042,0,0,0,0,0,7.581,1.3123688084,1.312336,0,0,0,0,0,232.8, 0, 0.3,0,0,1024,1024,1024,1024,0,0,0,0,240.5,0,0,50,3.793,3.785,0,0,0,0,4.541,91.94,1.3123688084,1.312336,6,P-GPS,
177300,2022-08-11 15:40:40,0,0,1.312336,,,1.3123688084,1.64042,0,0,0,0,0,7.581,1.3123688084,1.312336,0,0,0,0,0,232.8, 0, 0.3,0,0,1024,1024,1024,1024,0,0,0,0,240.5,0,0,50,3.793,3.785,0,0,0,0,4.541,91.94,1.3123688084,1.312336,6,P-GPS,
177400,2022-08-11 15:40:40,0,0,1.312336,,,1.3123688084,1.64042,0,0,0,0,0,7.581,1.3123688084,1.312336,0,0,0,0,0,232.8, 0, 0.2,0,0,1024,1024,1024,1024,0,0,0,0,240.5,0,0,50,3.793,3.785,0,0,0,0,4.541,91.94,1.3123688084,1.312336,6,P-GPS,
177500,2022-08-11 15:40:40,0,0,1.312336,,,1.3123688084,1.64042,0,0,0,0,0,7.581,1.3123688084,1.312336,0,0,0,0,0,232.8, 0, 0.2,0,0,1024,1024,1024,1024,0,0,0,0,240.5,0,0,50,3.793,3.785,0,0,0,0,4.541,91.94,1.3123688084,1.312336,6,P-GPS,
177600,2022-08-11 15:40:40,0,0,1.312336,,,1.3123688084,1.64042,0,0,0,0,0,7.581,1.3123688084,1.312336,0,0,0,0,0,232.8, 0.1, 0.2,0,0,1024,1024,1024,1024,0,0,0,0,240.5,0,0,50,3.793,3.785,0,0,0,0,4.541,91.94,1.3123688084,1.312336,6,P-GPS,
177700,2022-08-11 15:40:40,0,0,1.312336,,,1.3123688084,1.64042,0,0,0,0,0,7.581,1.3123688084,1.312336,0,0,0,0,0,232.8, 0.2, 0.2,0,0,1024,1024,1024,1024,0,0,0,0,240.5,0,0,50,3.793,3.785,0,0,0,0,4.541,91.94,1.3123688084,1.312336,6,P-GPS,"Sin tarjeta SD"
177800,2022-08-11 15:40:40,0,0,1.312336,,,1.3123688084,1.64042,0,0,0,0,0,7.575,1.3123688084,1.312336,0,0,0,0,0,232.8, 0.1, 0.3,0,0,1024,1024,1024,1024,0,0,0,0,240.5,0,0,50,3.79,3.781,0,0,0,0,4.569,91.94,1.3123688084,1.312336,6,P-GPS,
177900,2022-08-11 15:40:40,0,0,1.312336,,,1.3123688084,1.64042,0,0,0,0,0,7.575,1.3123688084,1.312336,0,0,0,0,0,232.8, 0.1, 0.3,0,0,1024,1024,1024,1024,0,0,0,0,240.5,0,0,50,3.79,3.781,0,0,0,0,4.569,91.94,1.3123688084,1.312336,6,P-GPS,
178000,2022-08-11 15:40:40,0,0,1.312336,,,1.3123688084,1.64042,0,0,0,0,0,7.575,1.3123688084,1.312336,0,0,0,0,0,232.8, 0.1, 0.2,0,0,1024,1024,1024,1024,0,0,0,0,240.5,0,0,50,3.79,3.781,0,0,0,0,4.569,91.94,1.3123688084,1.312336,6,P-GPS,
178100,2022-08-11 15:40:40,0,0,1.312336,,,1.3123688084,1.64042,0,0,0,0,0,7.575,1.3123688084,1.312336,0,0,0,0,0,232.8, 0.2, 0.3,0,0,1024,1024,1024,1024,0,0,0,0,240.5,0,0,50,3.79,3.781,0,0,0,0,4.569,91.94,1.3123688084,1.312336,6,P-GPS,
178200,2022-08-11 15:40:40,0,0,1.312336,,,1.3123688084,1.64042,0,0,0,0,0,7.575,1.3123688084,1.312336,0,0,0,0,0,232.9, 0.1, 0.5,0,0,1024,1024,1024,1024,0,0,0,0,240.5,0,0,50,3.79,3.781,0,0,0,0,4.569,91.94,1.3123688084,1.312336,6,P-GPS,
178300,2022-08-11 15:40:41,0,0,1.312336,,,1.3123688084,1.64042,0,0,0,0,0,7.575,1.3123688084,1.312336,0,0,0,0,0,232.8, 0, 0.5,0,0,1024,1024,1024,1024,0,0,0,0,240.5,0,0,50,3.79,3.781,0,0,0,0,4.569,91.94,1.3123688084,1.312336,6,P-GPS,
178400,2022-08-11 15:40:41,0,0,1.312336,,,1.3123688084,1.64042,0,0,0,0,0,7.575,1.3123688084,1.312336,0,0,0,0,0,232.8, 0.1, 0.3,0,0,1024,1024,1024,1024,0,0,0,0,240.5,0,0,50,3.79,3.781,0,0,0,0,4.569,91.94,1.3123688084,1.312336,6,P-GPS,
178500,2022-08-11 15:40:41,0,0,1.312336,,,1.3123688084,1.64042,0,0,0,0,0,7.575,1.3123688084,1.312336,0,0,0,0,0,232.8, 0.1, 0.1,0,0,1024,1024,1024,1024,0,0,0,0,240.5,0,0,50,3.79,3.781,0,0,0,0,4.569,91.94,1.3123688084,1.312336,6,P-GPS,
178600,2022-08-11 15:40:41,0,0,1.312336,,,1.3123688084,1.64042,0,0,0,0,0,7.575,1.3123688084,1.312336,0,0,0,0,0,232.8, 0, 0.1,0,0,1024,1024,1024,1024,0,0,0,0,240.5,0,0,50,3.79,3.781,0,0,0,0,4.569,91.94,1.3123688084,1.312336,6,P-GPS,
178700,2022-08-11 15:40:41,0,0,1.312336,,,1.3123688084,1.64042,0,0,0,0,0,7.575,1.3123688084,1.312336,0,0,0,0,0,232.8, 0, 0.1,0,0,1024,1024,1024,1024,0,0,0,0,240.5,0,0,50,3.79,3.781,0,0,0,0,4.569,91.94,1.3123688084,1.312336,6,P-GPS,
178800,2022-08-11 15:40:41,0,0,1.312336,,,1.3123688084,1.64042,0,0,0,0,0,7.575,1.3123688084,1.312336,0,0,0,0,0,232.8, 0.1, 0.2,0,0,1024,1024,1024,1024,0,0,0,0,240.5,0,0,50,3.79,3.781,0,0,0,0,4.569,91.94,1.3123688084,1.312336,6,P-GPS,
178900,2022-08-11 15:40:41,0,0,1.312336,,,1.3123688084,1.64042,0,0,0,0,0,7.567,1.3123688084,1.312336,0,0,0,0,0,232.8, 0, 0.1,0,0,1024,1024,1024,1024,0,0,0,0,240.5,0,0,50,3.787,3.778,0,0,0,0,4.591,91.94,1.3123688084,1.312336,6,P-GPS,
179000,2022-08-11 15:40:41,0,0,1.312336,,,1.3123688084,1.64042,0,0,0,0,0,7.567,1.3123688084,1.312336,0,0,0,0,0,232.7, 0.1, 0.3,0,0,1024,1024,1024,1024,0,0,0,0,240.5,0,0,50,3.787,3.778,0,0,0,0,4.591,91.94,1.3123688084,1.312336,6,P-GPS,
179100,2022-08-11 15:40:41,0,0,1.312336,,,1.3123688084,1.64042,0,0,0,0,0,7.567,1.3123688084,1.312336,0,0,0,0,0,232.7, 0.1, 0.3,0,0,1024,1024,1024,1024,0,0,0,0,240.5,0,0,50,3.787,3.778,0,0,0,0,4.591,91.94,1.3123688084,1.312336,6,P-GPS,
179200,2022-08-11 15:40:41,0,0,1.312336,,,1.3123688084,1.64042,0,0,0,0,0,7.567,1.3123688084,1.312336,0,0,0,0,0,232.7, 0, 0.2,0,0,1024,1024,1024,1024,0,0,0,0,240.5,0,0,50,3.787,3.778,0,0,0,0,4.591,91.94,1.3123688084,1.312336,6,P-GPS,
179300,2022-08-11 15:40:42,0,0,1.312336,,,1.3123688084,1.64042,0,0,0,0,0,7.567,1.3123688084,1.312336,0,0,0,0,0,232.7, 0, 0.2,0,0,1024,1024,1024,1024,0,0,0,0,240.5,0,0,50,3.787,3.778,0,0,0,0,4.591,91.94,1.3123688084,1.312336,6,P-GPS,
179400,2022-08-11 15:40:42,0,0,1.312336,,,1.3123688084,1.64042,0,0,0,0,0,7.567,1.3123688084,1.312336,0,0,0,0,0,232.7, 0, 0.2,0,0,1024,1024,1024,1024,0,0,0,0,240.5,0,0,50,3.787,3.778,0,0,0,0,4.591,91.94,1.3123688084,1.312336,6,P-GPS,
179500,2022-08-11 15:40:42,0,0,1.312336,,,1.3123688084,1.64042,0,0,0,0,0,7.567,1.3123688084,1.312336,0,0,0,0,0,232.7, 0, 0.2,0,0,1024,1024,1024,1024,0,0,0,0,240.5,0,0,50,3.787,3.778,0,0,0,0,4.591,91.94,1.3123688084,1.312336,6,P-GPS,
179600,2022-08-11 15:40:42,0,0,1.312336,,,1.3123688084,1.64042,0,0,0,0,0,7.567,1.3123688084,1.312336,0,0,0,0,0,232.7, 0, 0.2,0,0,1024,1024,1024,1024,0,0,0,0,240.5,0,0,50,3.787,3.778,0,0,0,0,4.591,91.94,1.3123688084,1.312336,6,P-GPS,
179700,2022-08-11 15:40:42,0,0,1.312336,,,1.3123688084,1.64042,0,0,0,0,0,7.567,1.3123688084,1.312336,0,0,0,0,0,232.7, 0.1, 0.2,0,0,1024,1024,1024,1024,0,0,0,0,240.5,0,0,50,3.787,3.778,0,0,0,0,4.591,91.94,1.3123688084,1.312336,6,P-GPS,
179800,2022-08-11 15:40:42,0,0,1.312336,,,1.3123688084,1.64042,0,0,0,0,0,7.567,1.3123688084,1.312336,0,0,0,0,0,232.7, 0.1, 0.3,0,0,1024,1024,1024,1024,0,0,0,0,240.5,0,0,50,3.787,3.778,0,0,0,0,4.591,91.94,1.3123688084,1.312336,6,P-GPS,
179900,2022-08-11 15:40:42,0,0,1.312336,,,1.3123688084,1.64042,0,0,0,0,0,7.562,1.3123688084,1.312336,0,0,0,0,0,232.7, 0.3, 0.4,0,0,1024,1024,1024,1024,0,0,0,0,240.5,0,0,50,3.785,3.776,0,0,0,0,4.59,91.94,1.3123688084,1.312336,6,P-GPS,
180000,2022-08-11 15:40:42,0,0,1.312336,,,1.3123688084,1.64042,0,0,0,0,0,7.562,1.3123688084,1.312336,0,0,0,0,0,232.7, 0.4, 0.4,0,0,1024,1024,1024,1024,0,0,0,0,240.5,0,0,50,3.785,3.776,0,0,0,0,4.59,91.94,1.3123688084,1.312336,6,P-GPS,
180100,2022-08-11 15:40:42,0,0,1.312336,,,1.3123688084,1.64042,0,0,0,0,0,7.562,1.3123688084,1.312336,0,0,0,0,0,232.7, 0.3, 0.4,0,0,1024,1024,1024,1024,0,0,0,0,240.5,0,0,50,3.785,3.776,0,0,0,0,4.59,91.94,1.3123688084,1.312336,6,P-GPS,
180200,2022-08-11 15:40:42,0,0,1.312336,,,1.3123688084,1.64042,0,0,0,0,0,7.562,1.3123688084,1.312336,0,0,0,0,0,232.8, 0.2, 0.3,0,0,1024,1024,1024,1024,0,0,0,0,240.5,0,0,50,3.785,3.776,0,0,0,0,4.59,91.94,1.3123688084,1.312336,6,P-GPS,
180300,2022-08-11 15:40:43,0,0,1.312336,,,1.3123688084,1.64042,0,0,0,0,0,7.562,1.3123688084,1.312336,0,0,0,0,0,232.8, 0.2, 0.2,0,0,1024,1024,1024,1024,0,0,0,0,240.5,0,0,50,3.785,3.776,0,0,0,0,4.59,91.94,1.3123688084,1.312336,6,P-GPS,
180400,2022-08-11 15:40:43,0,0,1.312336,,,1.3123688084,1.64042,0,0,0,0,0,7.562,1.3123688084,1.312336,0,0,0,0,0,232.8, 0, 0.2,0,0,1024,1024,1024,1024,0,0,0,0,240.5,0,0,50,3.785,3.776,0,0,0,0,4.59,91.94,1.3123688084,1.312336,6,P-GPS,
180500,2022-08-11 15:40:43,0,0,1.312336,,,1.3123688084,1.64042,0,0,0,0,0,7.562,1.3123688084,1.312336,0,0,0,0,0,232.8, 0, 0.4,0,0,1024,1024,1024,1024,0,0,0,0,240.5,0,0,50,3.785,3.776,0,0,0,0,4.59,91.94,1.3123688084,1.312336,6,P-GPS,
180600,2022-08-11 15:40:43,0,0,1.312336,,,1.3123688084,1.64042,0,0,0,0,0,7.562,1.3123688084,1.312336,0,0,0,0,0,232.8, -0.2, 0.1,0,0,1024,1024,1024,1024,0,0,0,0,240.5,0,0,50,3.785,3.776,0,0,0,0,4.59,91.94,1.3123688084,1.312336,6,P-GPS,
180700,2022-08-11 15:40:43,0,0,1.312336,,,1.3123688084,1.64042,0,0,0,0,0,7.562,1.3123688084,1.312336,0,0,0,0,0,232.8, -0.3, 0.1,0,0,1024,1024,1024,1024,0,0,0,0,240.5,0,0,50,3.785,3.776,0,0,0,0,4.59,91.94,1.3123688084,1.312336,6,P-GPS,
180800,2022-08-11 15:40:43,0,0,1.312336,,,1.3123688084,1.64042,0,0,0,0,0,7.562,1.3123688084,1.312336,0,0,0,0,0,232.8, -0.4, 0,0,0,1024,1024,1024,1024,0,0,0,0,240.5,0,0,50,3.785,3.776,0,0,0,0,4.59,91.94,1.3123688084,1.312336,6,P-GPS,
180900,2022-08-11 15:40:43,0,0,1.312336,,,1.3123688084,1.64042,0,0,0,0,0,7.556,1.3123688084,1.312336,0,0,0,0,0,232.8, -0.3, 0,0,0,1024,1024,1024,1024,0,0,0,0,240.5,0,0,50,3.783,3.774,0,0,0,0,4.633,91.94,1.3123688084,1.312336,6,P-GPS,
181000,2022-08-11 15:40:43,0,0,1.312336,,,1.3123688084,1.64042,0,0,0,0,0,7.556,1.3123688084,1.312336,0,0,0,0,0,232.8, -0.4, 0,0,0,1024,1024,1024,1024,0,0,0,0,240.5,0,0,50,3.783,3.774,0,0,0,0,4.633,91.94,1.3123688084,1.312336,6,P-GPS,
181100,2022-08-11 15:40:43,0,0,1.312336,,,1.3123688084,1.64042,0,0,0,0,0,7.556,1.3123688084,1.312336,0,0,0,0,0,232.8, -0.5, 0.1,0,0,1024,1024,1024,1024,0,0,0,0,240.5,0,0,50,3.783,3.774,0,0,0,0,4.633,91.94,1.3123688084,1.312336,6,P-GPS,
181200,2022-08-11 15:40:43,0,0,1.312336,,,1.3123688084,1.64042,0,0,0,0,0,7.556,1.3123688084,1.312336,0,0,0,0,0,232.8, -0.4, -0.1,0,0,1024,1024,1024,1024,0,0,0,0,240.5,0,0,50,3.783,3.774,0,0,0,0,4.633,91.94,1.3123688084,1.312336,6,P-GPS,
181300,2022-08-11 15:40:44,0,0,1.312336,,,1.3123688084,1.64042,0,0,0,0,0,7.556,1.3123688084,1.312336,0,0,0,0,0,232.8, -0.5, 0,0,0,1024,1024,1024,1024,0,0,0,0,240.5,0,0,50,3.783,3.774,0,0,0,0,4.633,91.94,1.3123688084,1.312336,6,P-GPS,
181400,2022-08-11 15:40:44,0,0,1.312336,,,1.3123688084,1.64042,0,0,0,0,0,7.556,1.3123688084,1.312336,0,0,0,0,0,232.7, -0.4, 0,0,0,1024,1024,1024,1024,0,0,0,0,240.5,0,0,50,3.783,3.774,0,0,0,0,4.633,91.94,1.3123688084,1.312336,6,P-GPS,
181500,2022-08-11 15:40:44,0,0,1.312336,,,1.3123688084,1.64042,0,0,0,0,0,7.556,1.3123688084,1.312336,0,0,0,0,0,232.6, -0.5, 0.1,0,0,1024,1024,1024,1024,0,0,0,0,240.5,0,0,50,3.783,3.774,0,0,0,0,4.633,91.94,1.3123688084,1.312336,6,P-GPS,
181600,2022-08-11 15:40:44,0,0,1.312336,,,1.3123688084,1.64042,0,0,0,0,0,7.556,1.3123688084,1.312336,0,0,0,0,0,232.7, -0.6, 0.1,0,0,1024,1024,1024,1024,0,0,0,0,240.5,0,0,50,3.783,3.774,0,0,0,0,4.633,91.94,1.3123688084,1.312336,6,P-GPS,
181700,2022-08-11 15:40:44,0,0,1.312336,,,1.3123688084,1.64042,0,0,0,0,0,7.556,1.3123688084,1.312336,0,0,0,0,0,232.7, -0.5, 0.1,0,0,1024,1024,1024,1024,0,0,0,0,240.5,0,0,50,3.783,3.774,0,0,0,0,4.633,91.94,1.3123688084,1.312336,6,P-GPS,
181800,2022-08-11 15:40:44,0,0,1.312336,,,1.3123688084,1.64042,0,0,0,0,0,7.556,1.3123688084,1.312336,0,0,0,0,0,232.8, -0.4, 0.5,0,0,1024,1024,1024,1024,0,0,0,0,240.5,0,0,50,3.783,3.774,0,0,0,0,4.633,91.94,1.3123688084,1.312336,6,P-GPS,
181900,2022-08-11 15:40:44,0,0,1.312336,,,1.3123688084,1.64042,0,0,0,0,0,7.552,1.3123688084,1.312336,0,0,0,0,0,232.7, -0.4, 0.6,0,0,1024,1024,1024,1024,0,0,0,0,240.5,0,0,50,3.78,3.771,0,0,0,0,4.619,91.94,1.3123688084,1.312336,6,P-GPS,
182000,2022-08-11 15:40:44,0,0,1.312336,,,1.3123688084,1.64042,0,0,0,0,0,7.552,1.3123688084,1.312336,0,0,0,0,0,232.6, -0.5, 0.4,0,0,1024,1024,1024,1024,0,0,0,0,240.5,0,0,50,3.78,3.771,0,0,0,0,4.619,91.94,1.3123688084,1.312336,6,P-GPS,
182100,2022-08-11 15:40:44,0,0,1.312336,,,1.3123688084,1.64042,0,0,0,0,0,7.552,1.3123688084,1.312336,0,0,0,0,0,232.6, -0.5, 0.1,0,0,1024,1024,1024,1024,0,0,0,0,240.5,0,0,50,3.78,3.771,0,0,0,0,4.619,91.94,1.3123688084,1.312336,6,P-GPS,
182200,2022-08-11 15:40:44,0,0,1.312336,,,1.3123688084,1.64042,0,0,0,0,0,7.552,1.3123688084,1.312336,0,0,0,0,0,232.6, -0.4, 0,0,0,1024,1024,1024,1024,0,0,0,0,240.5,0,0,50,3.78,3.771,0,0,0,0,4.619,91.94,1.3123688084,1.312336,6,P-GPS,
182300,2022-08-11 15:40:45,0,0,1.312336,,,1.3123688084,1.64042,0,0,0,0,0,7.552,1.3123688084,1.312336,0,0,0,0,0,232.6, -0.3, -0.2,0,0,1024,1024,1024,1024,0,0,0,0,240.5,0,0,50,3.78,3.771,0,0,0,0,4.619,91.94,1.3123688084,1.312336,6,P-GPS,
182400,2022-08-11 15:40:45,0,0,1.312336,,,1.3123688084,1.64042,0,0,0,0,0,7.552,1.3123688084,1.312336,0,0,0,0,0,232.7, -0.4, -0.4,0,0,1024,1024,1024,1024,0,0,0,0,240.5,0,0,50,3.78,3.771,0,0,0,0,4.619,91.94,1.3123688084,1.312336,6,P-GPS,
182500,2022-08-11 15:40:45,0,0,1.312336,,,1.3123688084,1.64042,0,0,0,0,0,7.552,1.3123688084,1.312336,0,0,0,0,0,232.6, -0.5, -0.6,0,0,1024,1024,1024,1024,0,0,0,0,240.5,0,0,50,3.78,3.771,0,0,0,0,4.619,91.94,1.3123688084,1.312336,6,P-GPS,
182600,2022-08-11 15:40:45,0,0,1.312336,,,1.3123688084,1.64042,0,0,0,0,0,7.552,1.3123688084,1.312336,0,0,0,0,0,232.6, -0.6, -0.7,0,0,1024,1024,1024,1024,0,0,0,0,240.5,0,0,50,3.78,3.771,0,0,0,0,4.619,91.94,1.3123688084,1.312336,6,P-GPS,
182700,2022-08-11 15:40:45,0,0,1.312336,,,1.3123688084,1.64042,0,0,0,0,0,7.552,1.3123688084,1.312336,0,0,0,0,0,232.6, -0.6, -0.3,0,0,1024,1024,1024,1024,0,0,0,0,240.5,0,0,50,3.78,3.771,0,0,0,0,4.619,91.94,1.3123688084,1.312336,6,P-GPS,
182800,2022-08-11 15:40:45,0,0,1.312336,,,1.3123688084,1.64042,0,0,0,0,0,7.552,1.3123688084,1.312336,0,0,0,0,0,232.6, -0.5, -0.2,0,0,1024,1024,1024,1024,0,0,0,0,240.5,0,0,50,3.78,3.771,0,0,0,0,4.619,91.94,1.3123688084,1.312336,6,P-GPS,
182900,2022-08-11 15:40:45,0,0,1.312336,,,1.3123688084,1.64042,0,0,0,0,0,7.55,1.3123688084,1.312336,0,0,0,0,0,232.7, -0.4, -0.1,0,0,1024,1024,1024,1024,0,0,0,0,240.5,0,0,50,3.781,3.771,0,0,0,0,4.582,92.12,1.3123688084,1.312336,6,P-GPS,
183000,2022-08-11 15:40:45,0,0,1.312336,,,1.3123688084,1.64042,0,0,0,0,0,7.55,1.3123688084,1.312336,0,0,0,0,0,232.7, -0.4, -0.2,0,0,1024,1024,1024,1024,0,0,0,0,240.5,0,0,50,3.781,3.771,0,0,0,0,4.582,92.12,1.3123688084,1.312336,6,P-GPS,
183100,2022-08-11 15:40:45,0,0,1.312336,,,1.3123688084,1.64042,0,0,0,0,0,7.55,1.3123688084,1.312336,0,0,0,0,0,232.7, -0.5, -0.1,0,0,1024,1024,1024,1024,0,0,0,0,240.5,0,0,50,3.781,3.771,0,0,0,0,4.582,92.12,1.3123688084,1.312336,6,P-GPS,
183200,2022-08-11 15:40:45,0,0,1.312336,,,1.3123688084,1.64042,0,0,0,0,0,7.55,1.3123688084,1.312336,0,0,0,0,0,232.7, -0.5, 0,0,0,1024,1024,1024,1024,0,0,0,0,240.5,0,0,50,3.781,3.771,0,0,0,0,4.582,92.12,1.3123688084,1.312336,6,P-GPS,
183300,2022-08-11 15:40:46,0,0,1.312336,,,1.3123688084,1.64042,0,0,0,0,0,7.55,1.3123688084,1.312336,0,0,0,0,0,232.7, -0.3, 0.3,0,0,1024,1024,1024,1024,0,0,0,0,240.5,0,0,50,3.781,3.771,0,0,0,0,4.582,92.12,1.3123688084,1.312336,6,P-GPS,
183400,2022-08-11 15:40:46,0,0,1.312336,,,1.3123688084,1.64042,0,0,0,0,0,7.55,1.3123688084,1.312336,0,0,0,0,0,232.7, -0.5, 0.1,0,0,1024,1024,1024,1024,0,0,0,0,240.5,0,0,50,3.781,3.771,0,0,0,0,4.582,92.12,1.3123688084,1.312336,6,P-GPS,
183500,2022-08-11 15:40:46,0,0,1.312336,,,1.3123688084,1.64042,0,0,0,0,0,7.55,1.3123688084,1.312336,0,0,0,0,0,232.8, -0.4, 0.2,0,0,1024,1024,1024,1024,0,0,0,0,240.5,0,0,50,3.781,3.771,0,0,0,0,4.582,92.12,1.3123688084,1.312336,6,P-GPS,
183600,2022-08-11 15:40:46,0,0,1.312336,,,1.3123688084,1.64042,0,0,0,0,0,7.55,1.3123688084,1.312336,0,0,0,0,0,232.8, -0.3, 0.3,0,0,1024,1024,1024,1024,0,0,0,0,240.5,0,0,50,3.781,3.771,0,0,0,0,4.582,92.12,1.3123688084,1.312336,6,P-GPS,
183700,2022-08-11 15:40:46,0,0,1.312336,,,1.3123688084,1.64042,0,0,0,0,0,7.55,1.3123688084,1.312336,0,0,0,0,0,232.7, -0.2, 0.2,0,0,1024,1024,1024,1024,0,0,0,0,240.5,0,0,50,3.781,3.771,0,0,0,0,4.582,92.12,1.3123688084,1.312336,6,P-GPS,
183800,2022-08-11 15:40:46,0,0,1.312336,,,1.3123688084,1.64042,0,0,0,0,0,7.55,1.3123688084,1.312336,0,0,0,0,0,232.7, -0.2, 0.1,0,0,1024,1024,1024,1024,0,0,0,0,240.5,0,0,50,3.781,3.771,0,0,0,0,4.582,92.12,1.3123688084,1.312336,6,P-GPS,
183900,2022-08-11 15:40:46,0,0,1.312336,,,1.3123688084,1.64042,0,0,0,0,0,7.547,1.3123688084,1.312336,0,0,0,0,0,232.7, -0.1, 0.2,0,0,1024,1024,1024,1024,0,0,0,0,240.5,0,0,50,3.777,3.768,0,0,0,0,4.531,92.12,1.3123688084,1.312336,6,P-GPS,
184000,2022-08-11 15:40:46,0,0,1.312336,,,1.3123688084,1.64042,0,0,0,0,0,7.547,1.3123688084,1.312336,0,0,0,0,0,232.7, -0.2, 0.2,0,0,1024,1024,1024,1024,0,0,0,0,240.5,0,0,50,3.777,3.768,0,0,0,0,4.531,92.12,1.3123688084,1.312336,6,P-GPS,
184100,2022-08-11 15:40:46,0,0,1.312336,,,1.3123688084,1.64042,0,0,0,0,0,7.547,1.3123688084,1.312336,0,0,0,0,0,232.7, -0.2, 0.2,0,0,1024,1024,1024,1024,0,0,0,0,240.5,0,0,50,3.777,3.768,0,0,0,0,4.531,92.12,1.3123688084,1.312336,6,P-GPS,
184200,2022-08-11 15:40:46,0,0,1.312336,,,1.3123688084,1.64042,0,0,0,0,0,7.547,1.3123688084,1.312336,0,0,0,0,0,232.7, -0.1, 0.3,0,0,1024,1024,1024,1024,0,0,0,0,240.5,0,0,50,3.777,3.768,0,0,0,0,4.531,92.12,1.3123688084,1.312336,6,P-GPS,
184300,2022-08-11 15:40:47,0,0,1.312336,,,1.3123688084,1.64042,0,0,0,0,0,7.547,1.3123688084,1.312336,0,0,0,0,0,232.7, 0.1, 0.4,0,0,1024,1024,1024,1024,0,0,0,0,240.5,0,0,50,3.777,3.768,0,0,0,0,4.531,92.12,1.3123688084,1.312336,6,P-GPS,
184400,2022-08-11 15:40:47,0,0,1.312336,,,1.3123688084,1.64042,0,0,0,0,0,7.547,1.3123688084,1.312336,0,0,0,0,0,232.7, 0.1, 0.2,0,0,1024,1024,1024,1024,0,0,0,0,240.5,0,0,50,3.777,3.768,0,0,0,0,4.531,92.12,1.3123688084,1.312336,6,P-GPS,
184500,2022-08-11 15:40:47,0,0,1.312336,,,1.3123688084,1.64042,0,0,0,0,0,7.547,1.3123688084,1.312336,0,0,0,0,0,232.7, 0.1, 0.3,0,0,1024,1024,1024,1024,0,0,0,0,240.5,0,0,50,3.777,3.768,0,0,0,0,4.531,92.12,1.3123688084,1.312336,6,P-GPS,
184600,2022-08-11 15:40:47,0,0,1.312336,,,1.3123688084,1.64042,0,0,0,0,0,7.547,1.3123688084,1.312336,0,0,0,0,0,232.7, 0.1, 0.3,0,0,1024,1024,1024,1024,0,0,0,0,240.5,0,0,50,3.777,3.768,0,0,0,0,4.531,92.12,1.3123688084,1.312336,6,P-GPS,
184700,2022-08-11 15:40:47,0,0,1.312336,,,1.3123688084,1.64042,0,0,0,0,0,7.547,1.3123688084,1.312336,0,0,0,0,0,232.7, 0.2, 0.2,0,0,1024,1024,1024,1024,0,0,0,0,240.5,0,0,50,3.777,3.768,0,0,0,0,4.531,92.12,1.3123688084,1.312336,6,P-GPS,
184800,2022-08-11 15:40:47,0,0,1.312336,,,1.3123688084,1.64042,0,0,0,0,0,7.547,1.3123688084,1.312336,0,0,0,0,0,232.8, 0.3, 0.2,0,0,1024,1024,1024,1024,0,0,0,0,240.5,0,0,50,3.777,3.768,0,0,0,0,4.531,92.12,1.3123688084,1.312336,6,P-GPS,
184900,2022-08-11 15:40:47,0,0,1.312336,,,1.3123688084,1.64042,0,0,0,0,0,7.547,1.3123688084,1.312336,0,0,0,0,0,232.8, 0.4, 0.2,0,0,1024,1024,1024,1024,0,0,0,0,240.5,0,0,50,3.777,3.768,0,0,0,0,4.531,92.12,1.3123688084,1.312336,6,P-GPS,
185000,2022-08-11 15:40:47,0,0,0.984252,,,0.9842848084,1.64042,0,0,0,0,0,7.542,1.3123688084,1.312336,0,0,0,0,0,232.7, 0.4, 0.2,0,0,1024,1024,1024,1024,0,0,0,0,240.5,0,0,50,3.775,3.764,0,0,0,0,4.575,92.12,0.9842848084,0.984252,6,P-GPS,
185100,2022-08-11 15:40:47,0,0,0.984252,,,0.9842848084,1.64042,0,0,0,0,0,7.542,1.3123688084,1.312336,0,0,0,0,0,232.7, 0.4, 0.2,0,0,1024,1024,1024,1024,0,0,0,0,240.5,0,0,50,3.775,3.764,0,0,0,0,4.575,92.12,0.9842848084,0.984252,6,P-GPS,
185200,2022-08-11 15:40:47,0,0,0.984252,,,0.9842848084,1.64042,0,0,0,0,0,7.542,1.3123688084,1.312336,0,0,0,0,0,232.7, 0.4, 0.1,0,0,1024,1024,1024,1024,0,0,0,0,240.5,0,0,50,3.775,3.764,0,0,0,0,4.575,92.12,0.9842848084,0.984252,6,P-GPS,
185300,2022-08-11 15:40:48,0,0,0.984252,,,0.9842848084,1.64042,0,0,0,0,0,7.542,1.3123688084,1.312336,0,0,0,0,0,232.7, 0.3, 0,0,0,1024,1024,1024,1024,0,0,0,0,240.5,0,0,50,3.775,3.764,0,0,0,0,4.575,92.12,0.9842848084,0.984252,6,P-GPS,
185400,2022-08-11 15:40:48,0,0,0.984252,,,0.9842848084,1.64042,0,0,0,0,0,7.542,1.3123688084,1.312336,0,0,0,0,0,232.7, 0.2, 0,0,0,1024,1024,1024,1024,0,0,0,0,240.5,0,0,50,3.775,3.764,0,0,0,0,4.575,92.12,0.9842848084,0.984252,6,P-GPS,
185500,2022-08-11 15:40:48,0,0,0.984252,,,0.9842848084,1.64042,0,0,0,0,0,7.542,1.3123688084,1.312336,0,0,0,0,0,232.8, 0.1, 0,0,0,1024,1024,1024,1024,0,0,0,0,240.5,0,0,50,3.775,3.764,0,0,0,0,4.575,92.12,0.9842848084,0.984252,6,P-GPS,
185600,2022-08-11 15:40:48,0,0,0.984252,,,0.9842848084,1.64042,0,0,0,0,0,7.542,1.3123688084,1.312336,0,0,0,0,0,232.7, 0.1, 0,0,0,1024,1024,1024,1024,0,0,0,0,240.5,0,0,50,3.775,3.764,0,0,0,0,4.575,92.12,0.9842848084,0.984252,6,P-GPS,
185700,2022-08-11 15:40:48,0,0,0.984252,,,0.9842848084,1.64042,0,0,0,0,0,7.542,1.3123688084,1.312336,0,0,0,0,0,232.8, 0.1, 0.1,0,0,1024,1024,1024,1024,0,0,0,0,240.5,0,0,50,3.775,3.764,0,0,0,0,4.575,92.12,0.9842848084,0.984252,6,P-GPS,
185800,2022-08-11 15:40:48,0,0,0.984252,,,0.9842848084,1.64042,0,0,0,0,0,7.542,1.3123688084,1.312336,0,0,0,0,0,232.7, 0, 0.1,0,0,1024,1024,1024,1024,0,0,0,0,240.5,0,0,50,3.775,3.764,0,0,0,0,4.575,92.12,0.9842848084,0.984252,6,P-GPS,
185900,2022-08-11 15:40:48,0,0,0.984252,,,0.9842848084,1.64042,0,0,0,0,0,7.542,1.3123688084,1.312336,0,0,0,0,0,232.7, 0, 0.1,0,0,1024,1024,1024,1024,0,0,0,0,240.5,0,0,50,3.775,3.764,0,0,0,0,4.575,92.12,0.9842848084,0.984252,6,P-GPS,
186000,2022-08-11 15:40:48,0,0,0.984252,,,0.9842848084,1.64042,0,0,0,0,0,7.539,1.3123688084,1.312336,0,0,0,0,0,232.7, 0.1, 0.1,0,0,1024,1024,1024,1024,0,0,0,0,240.5,0,0,49,3.773,3.763,0,0,0,0,4.586,92.12,0.9842848084,0.984252,6,P-GPS,
186100,2022-08-11 15:40:48,0,0,0.984252,,,0.9842848084,1.64042,0,0,0,0,0,7.539,1.3123688084,1.312336,0,0,0,0,0,232.7, 0.2, 0,0,0,1024,1024,1024,1024,0,0,0,0,240.5,0,0,49,3.773,3.763,0,0,0,0,4.586,92.12,0.9842848084,0.984252,6,P-GPS,
186200,2022-08-11 15:40:48,0,0,0.984252,,,0.9842848084,1.64042,0,0,0,0,0,7.539,1.3123688084,1.312336,0,0,0,0,0,232.7, 0.3, 0,0,0,1024,1024,1024,1024,0,0,0,0,240.5,0,0,49,3.773,3.763,0,0,0,0,4.586,92.12,0.9842848084,0.984252,6,P-GPS,
186300,2022-08-11 15:40:49,0,0,0.984252,,,0.9842848084,1.64042,0,0,0,0,0,7.539,1.3123688084,1.312336,0,0,0,0,0,232.7, 0.3, 0,0,0,1024,1024,1024,1024,0,0,0,0,240.5,0,0,49,3.773,3.763,0,0,0,0,4.586,92.12,0.9842848084,0.984252,6,P-GPS,
186400,2022-08-11 15:40:49,0,0,0.984252,,,0.9842848084,1.64042,0,0,0,0,0,7.539,1.3123688084,1.312336,0,0,0,0,0,232.7, 0.3, 0,0,0,1024,1024,1024,1024,0,0,0,0,240.5,0,0,49,3.773,3.763,0,0,0,0,4.586,92.12,0.9842848084,0.984252,6,P-GPS,
186500,2022-08-11 15:40:49,0,0,0.984252,,,0.9842848084,1.64042,0,0,0,0,0,7.539,1.3123688084,1.312336,0,0,0,0,0,232.7, 0.4, 0,0,0,1024,1024,1024,1024,0,0,0,0,240.5,0,0,49,3.773,3.763,0,0,0,0,4.586,92.12,0.9842848084,0.984252,6,P-GPS,
186600,2022-08-11 15:40:49,0,0,0.984252,,,0.9842848084,1.64042,0,0,0,0,0,7.539,1.3123688084,1.312336,0,0,0,0,0,232.7, 0.3, 0.2,0,0,1024,1024,1024,1024,0,0,0,0,240.5,0,0,49,3.773,3.763,0,0,0,0,4.586,92.12,0.9842848084,0.984252,6,P-GPS,
186700,2022-08-11 15:40:49,0,0,0.984252,,,0.9842848084,1.64042,0,0,0,0,0,7.539,1.3123688084,1.312336,0,0,0,0,0,232.7, 0.3, 0.2,0,0,1024,1024,1024,1024,0,0,0,0,240.5,0,0,49,3.773,3.763,0,0,0,0,4.586,92.12,0.9842848084,0.984252,6,P-GPS,
186800,2022-08-11 15:40:49,0,0,0.984252,,,0.9842848084,1.64042,0,0,0,0,0,7.539,1.3123688084,1.312336,0,0,0,0,0,232.7, 0.3, 0.2,0,0,1024,1024,1024,1024,0,0,0,0,240.5,0,0,49,3.773,3.763,0,0,0,0,4.586,92.12,0.9842848084,0.984252,6,P-GPS,
186900,2022-08-11 15:40:49,0,0,0.984252,,,0.9842848084,1.64042,0,0,0,0,0,7.539,1.3123688084,1.312336,0,0,0,0,0,232.7, 0.3, 0.3,0,0,1024,1024,1024,1024,0,0,0,0,240.5,0,0,49,3.773,3.763,0,0,0,0,4.586,92.12,0.9842848084,0.984252,6,P-GPS,
187000,2022-08-11 15:40:49,0,0,0.984252,,,0.9842848084,1.64042,0,0,0,0,0,7.535,1.3123688084,1.312336,0,0,0,0,0,232.7, 0.1, 0.3,0,0,1024,1024,1024,1024,0,0,0,0,240.5,0,0,49,3.772,3.762,0,0,0,0,4.596,92.12,0.9842848084,0.984252,6,P-GPS,
187100,2022-08-11 15:40:49,0,0,0.984252,,,0.9842848084,1.64042,0,0,0,0,0,7.535,1.3123688084,1.312336,0,0,0,0,0,232.7, 0, 0.1,0,0,1024,1024,1024,1024,0,0,0,0,240.5,0,0,49,3.772,3.762,0,0,0,0,4.596,92.12,0.9842848084,0.984252,6,P-GPS,
187200,2022-08-11 15:40:49,0,0,0.984252,,,0.9842848084,1.64042,0,0,0,0,0,7.535,1.3123688084,1.312336,0,0,0,0,0,232.7, 0, 0,0,0,1024,1024,1024,1024,0,0,0,0,240.5,0,0,49,3.772,3.762,0,0,0,0,4.596,92.12,0.9842848084,0.984252,6,P-GPS,
187300,2022-08-11 15:40:50,0,0,0.984252,,,0.9842848084,1.64042,0,0,0,0,0,7.535,1.3123688084,1.312336,0,0,0,0,0,232.7, 0.2, 0.1,0,0,1024,1024,1024,1024,0,0,0,0,240.5,0,0,49,3.772,3.762,0,0,0,0,4.596,92.12,0.9842848084,0.984252,6,P-GPS,
187400,2022-08-11 15:40:50,0,0,0.984252,,,0.9842848084,1.64042,0,0,0,0,0,7.535,1.3123688084,1.312336,0,0,0,0,0,232.7, 0.2, 0.3,0,0,1024,1024,1024,1024,0,0,0,0,240.5,0,0,49,3.772,3.762,0,0,0,0,4.596,92.12,0.9842848084,0.984252,6,P-GPS,
187500,2022-08-11 15:40:50,0,0,0.984252,,,0.9842848084,1.64042,0,0,0,0,0,7.535,1.3123688084,1.312336,0,0,0,0,0,232.7, 0.3, 0.3,0,0,1024,1024,1024,1024,0,0,0,0,240.5,0,0,49,3.772,3.762,0,0,0,0,4.596,92.12,0.9842848084,0.984252,6,P-GPS,
187600,2022-08-11 15:40:50,0,0,0.984252,,,0.9842848084,1.64042,0,0,0,0,0,7.535,1.3123688084,1.312336,0,0,0,0,0,232.7, 0.4, 0.2,0,0,1024,1024,1024,1024,0,0,0,0,240.5,0,0,49,3.772,3.762,0,0,0,0,4.596,92.12,0.9842848084,0.984252,6,P-GPS,
187700,2022-08-11 15:40:50,0,0,0.984252,,,0.9842848084,1.64042,0,0,0,0,0,7.535,1.3123688084,1.312336,0,0,0,0,0,232.7, 0.5, 0.4,0,0,1024,1024,1024,1024,0,0,0,0,240.5,0,0,49,3.772,3.762,0,0,0,0,4.596,92.12,0.9842848084,0.984252,6,P-GPS,
187800,2022-08-11 15:40:50,0,0,0.984252,,,0.9842848084,1.64042,0,0,0,0,0,7.535,1.3123688084,1.312336,0,0,0,0,0,232.7, 0.3, 0.5,0,0,1024,1024,1024,1024,0,0,0,0,240.5,0,0,49,3.772,3.762,0,0,0,0,4.596,92.12,0.9842848084,0.984252,6,P-GPS,
187900,2022-08-11 15:40:50,0,0,0.984252,,,0.9842848084,1.64042,0,0,0,0,0,7.535,1.3123688084,1.312336,0,0,0,0,0,232.8, 0.2, 0.6,0,0,1024,1024,1024,1024,0,0,0,0,240.5,0,0,49,3.772,3.762,0,0,0,0,4.596,92.12,0.9842848084,0.984252,6,P-GPS,
188000,2022-08-11 15:40:50,0,0,0.984252,,,0.9842848084,1.64042,0,0,0,0,0,7.53,1.3123688084,1.312336,0,0,0,0,0,232.8, 0.2, 0.4,0,0,1024,1024,1024,1024,0,0,0,0,240.5,0,0,49,3.769,3.759,0,0,0,0,4.611,92.12,0.9842848084,0.984252,6,P-GPS,
188100,2022-08-11 15:40:50,0,0,0.984252,,,0.9842848084,1.64042,0,0,0,0,0,7.53,1.3123688084,1.312336,0,0,0,0,0,232.8, 0.1, 0.4,0,0,1024,1024,1024,1024,0,0,0,0,240.5,0,0,49,3.769,3.759,0,0,0,0,4.611,92.12,0.9842848084,0.984252,6,P-GPS,
188200,2022-08-11 15:40:50,0,0,0.984252,,,0.9842848084,1.64042,0,0,0,0,0,7.53,1.3123688084,1.312336,0,0,0,0,0,232.8, 0.1, 0.4,0,0,1024,1024,1024,1024,0,0,0,0,240.5,0,0,49,3.769,3.759,0,0,0,0,4.611,92.12,0.9842848084,0.984252,6,P-GPS,
188300,2022-08-11 15:40:51,0,0,0.984252,,,0.9842848084,1.64042,0,0,0,0,0,7.53,1.3123688084,1.312336,0,0,0,0,0,232.8, 0, 0.4,0,0,1024,1024,1024,1024,0,0,0,0,240.5,0,0,49,3.769,3.759,0,0,0,0,4.611,92.12,0.9842848084,0.984252,6,P-GPS,
188400,2022-08-11 15:40:51,0,0,0.984252,,,0.9842848084,1.64042,0,0,0,0,0,7.53,1.3123688084,1.312336,0,0,0,0,0,232.8, 0.1, 0.2,0,0,1024,1024,1024,1024,0,0,0,0,240.5,0,0,49,3.769,3.759,0,0,0,0,4.611,92.12,0.9842848084,0.984252,6,P-GPS,
188500,2022-08-11 15:40:51,0,0,0.984252,,,0.9842848084,1.64042,0,0,0,0,0,7.53,1.3123688084,1.312336,0,0,0,0,0,232.8, 0.2, 0.1,0,0,1024,1024,1024,1024,0,0,0,0,240.5,0,0,49,3.769,3.759,0,0,0,0,4.611,92.12,0.9842848084,0.984252,6,P-GPS,
188600,2022-08-11 15:40:51,0,0,0.984252,,,0.9842848084,1.64042,0,0,0,0,0,7.53,1.3123688084,1.312336,0,0,0,0,0,232.8, 0.3, 0.1,0,0,1024,1024,1024,1024,0,0,0,0,240.5,0,0,49,3.769,3.759,0,0,0,0,4.611,92.12,0.9842848084,0.984252,6,P-GPS,
188700,2022-08-11 15:40:51,0,0,0.984252,,,0.9842848084,1.64042,0,0,0,0,0,7.53,1.3123688084,1.312336,0,0,0,0,0,232.8, 0.3, 0.1,0,0,1024,1024,1024,1024,0,0,0,0,240.5,0,0,49,3.769,3.759,0,0,0,0,4.611,92.12,0.9842848084,0.984252,6,P-GPS,
188800,2022-08-11 15:40:51,0,0,0.984252,,,0.9842848084,1.64042,0,0,0,0,0,7.53,1.3123688084,1.312336,0,0,0,0,0,232.7, 0.3, 0.2,0,0,1024,1024,1024,1024,0,0,0,0,240.5,0,0,49,3.769,3.759,0,0,0,0,4.611,92.12,0.9842848084,0.984252,6,P-GPS,
188900,2022-08-11 15:40:51,0,0,0.984252,,,0.9842848084,1.64042,0,0,0,0,0,7.53,1.3123688084,1.312336,0,0,0,0,0,232.7, 0.2, 0.3,0,0,1024,1024,1024,1024,0,0,0,0,240.5,0,0,49,3.769,3.759,0,0,0,0,4.611,92.12,0.9842848084,0.984252,6,P-GPS,
189000,2022-08-11 15:40:51,0,0,0.984252,,,0.9842848084,1.64042,0,0,0,0,0,7.525,1.3123688084,1.312336,0,0,0,0,0,232.7, 0.2, 0.3,0,0,1024,1024,1024,1024,0,0,0,0,240.5,0,0,49,3.767,3.758,0,0,0,0,4.649,92.12,0.9842848084,0.984252,6,P-GPS,
189100,2022-08-11 15:40:51,0,0,0.984252,,,0.9842848084,1.64042,0,0,0,0,0,7.525,1.3123688084,1.312336,0,0,0,0,0,232.7, 0.2, 0.1,0,0,1024,1024,1024,1024,0,0,0,0,240.5,0,0,49,3.767,3.758,0,0,0,0,4.649,92.12,0.9842848084,0.984252,6,P-GPS,
189200,2022-08-11 15:40:51,0,0,0.984252,,,0.9842848084,1.64042,0,0,0,0,0,7.525,1.3123688084,1.312336,0,0,0,0,0,232.7, 0.2, 0.3,0,0,1024,1024,1024,1024,0,0,0,0,240.5,0,0,49,3.767,3.758,0,0,0,0,4.649,92.12,0.9842848084,0.984252,6,P-GPS,
189300,2022-08-11 15:40:52,0,0,0.984252,,,0.9842848084,1.64042,0,0,0,0,0,7.525,1.3123688084,1.312336,0,0,0,0,0,232.7, 0.1, 0.4,0,0,1024,1024,1024,1024,0,0,0,0,240.5,0,0,49,3.767,3.758,0,0,0,0,4.649,92.12,0.9842848084,0.984252,6,P-GPS,
189400,2022-08-11 15:40:52,0,0,0.984252,,,0.9842848084,1.64042,0,0,0,0,0,7.525,1.3123688084,1.312336,0,0,0,0,0,232.7, 0, 0.1,0,0,1024,1024,1024,1024,0,0,0,0,240.5,0,0,49,3.767,3.758,0,0,0,0,4.649,92.12,0.9842848084,0.984252,6,P-GPS,
189500,2022-08-11 15:40:52,0,0,0.984252,,,0.9842848084,1.64042,0,0,0,0,0,7.525,1.3123688084,1.312336,0,0,0,0,0,232.7, 0, 0.1,0,0,1024,1024,1024,1024,0,0,0,0,240.5,0,0,49,3.767,3.758,0,0,0,0,4.649,92.12,0.9842848084,0.984252,6,P-GPS,
189600,2022-08-11 15:40:52,0,0,0.984252,,,0.9842848084,1.64042,0,0,0,0,0,7.525,1.3123688084,1.312336,0,0,0,0,0,232.7, 0.1, 0.1,0,0,1024,1024,1024,1024,0,0,0,0,240.5,0,0,49,3.767,3.758,0,0,0,0,4.649,92.12,0.9842848084,0.984252,6,P-GPS,
189700,2022-08-11 15:40:52,0,0,0.984252,,,0.9842848084,1.64042,0,0,0,0,0,7.525,1.3123688084,1.312336,0,0,0,0,0,232.7, 0.2, 0.3,0,0,1024,1024,1024,1024,0,0,0,0,240.5,0,0,49,3.767,3.758,0,0,0,0,4.649,92.12,0.9842848084,0.984252,6,P-GPS,
189800,2022-08-11 15:40:52,0,0,0.984252,,,0.9842848084,1.64042,0,0,0,0,0,7.525,1.3123688084,1.312336,0,0,0,0,0,232.7, 0, 0.2,0,0,1024,1024,1024,1024,0,0,0,0,240.5,0,0,49,3.767,3.758,0,0,0,0,4.649,92.12,0.9842848084,0.984252,6,P-GPS,
189900,2022-08-11 15:40:52,0,0,0.984252,,,0.9842848084,1.64042,0,0,0,0,0,7.525,1.3123688084,1.312336,0,0,0,0,0,232.7, 0, 0,0,0,1024,1024,1024,1024,0,0,0,0,240.5,0,0,49,3.767,3.758,0,0,0,0,4.649,92.12,0.9842848084,0.984252,6,P-GPS,
190000,2022-08-11 15:40:52,0,0,0.984252,,,0.9842848084,1.64042,0,0,0,0,0,7.525,1.3123688084,1.312336,0,0,0,0,0,232.7, 0, -0.1,0,0,1024,1024,1024,1024,0,0,0,0,240.5,0,0,49,3.767,3.758,0,0,0,0,4.649,92.12,0.9842848084,0.984252,6,P-GPS,
190100,2022-08-11 15:40:52,0,0,0.984252,,,0.9842848084,1.64042,0,0,0,0,0,7.524,1.3123688084,1.312336,0,0,0,0,0,232.7, 0, -0.1,0,0,1024,1024,1024,1024,0,0,0,0,240.5,0,0,49,3.766,3.756,0,0,0,0,4.635,92.3,0.9842848084,0.984252,6,P-GPS,
190200,2022-08-11 15:40:52,0,0,0.984252,,,0.9842848084,1.64042,0,0,0,0,0,7.524,1.3123688084,1.312336,0,0,0,0,0,232.7, 0, 0,0,0,1024,1024,1024,1024,0,0,0,0,240.5,0,0,49,3.766,3.756,0,0,0,0,4.635,92.3,0.9842848084,0.984252,6,P-GPS,
190300,2022-08-11 15:40:53,0,0,0.984252,,,0.9842848084,1.64042,0,0,0,0,0,7.524,1.3123688084,1.312336,0,0,0,0,0,232.7, 0, 0.1,0,0,1024,1024,1024,1024,0,0,0,0,240.5,0,0,49,3.766,3.756,0,0,0,0,4.635,92.3,0.9842848084,0.984252,6,P-GPS,
190400,2022-08-11 15:40:53,0,0,0.984252,,,0.9842848084,1.64042,0,0,0,0,0,7.524,1.3123688084,1.312336,0,0,0,0,0,232.7, 0, 0,0,0,1024,1024,1024,1024,0,0,0,0,240.5,0,0,49,3.766,3.756,0,0,0,0,4.635,92.3,0.9842848084,0.984252,6,P-GPS,
190500,2022-08-11 15:40:53,0,0,0.984252,,,0.9842848084,1.64042,0,0,0,0,0,7.524,1.3123688084,1.312336,0,0,0,0,0,232.7, 0, 0.2,0,0,1024,1024,1024,1024,0,0,0,0,240.5,0,0,49,3.766,3.756,0,0,0,0,4.635,92.3,0.9842848084,0.984252,6,P-GPS,
190600,2022-08-11 15:40:53,0,0,0.984252,,,0.9842848084,1.64042,0,0,0,0,0,7.524,1.3123688084,1.312336,0,0,0,0,0,232.6, 0, 0.3,0,0,1024,1024,1024,1024,0,0,0,0,240.5,0,0,49,3.766,3.756,0,0,0,0,4.635,92.3,0.9842848084,0.984252,6,P-GPS,
190700,2022-08-11 15:40:53,0,0,0.984252,,,0.9842848084,1.64042,0,0,0,0,0,7.524,1.3123688084,1.312336,0,0,0,0,0,232.6, 0, 0.2,0,0,1024,1024,1024,1024,0,0,0,0,240.5,0,0,49,3.766,3.756,0,0,0,0,4.635,92.3,0.9842848084,0.984252,6,P-GPS,
