time(millisecond),datetime(utc),latitude,longitude,height_above_takeoff(feet),height_above_ground_at_drone_location(feet),ground_elevation_at_drone_location(feet),altitude_above_seaLevel(feet),height_sonar(feet),speed(mph),distance(feet),mileage(feet),satellites,gpslevel,voltage(v),max_altitude(feet),max_ascent(feet),max_speed(mph),max_distance(feet), xSpeed(mph), ySpeed(mph), zSpeed(mph), compass_heading(degrees), pitch(degrees), roll(degrees),isPhoto,isVideo,rc_elevator,rc_aileron,rc_throttle,rc_rudder,rc_elevator(percent),rc_aileron(percent),rc_throttle(percent),rc_rudder(percent),gimbal_heading(degrees),gimbal_pitch(degrees),gimbal_roll(degrees),battery_percent,voltageCell1,voltageCell2,voltageCell3,voltageCell4,voltageCell5,voltageCell6,current(A),battery_temperature(f),altitude(feet),ascent(feet),flycStateRaw,flycState,message
127400,2022-08-16 04:26:18,0,0,0,,,3.28084E-5,0.656168,0,0,0,0,0,0,3.28084E-5,0,0,0,0,0,0,214.9, 2.6, -0.1,0,0,747,652,364,1684,-42,-56,-100,100,220,0,0,85,4.207,4.2,0,0,0,0,0,100.22,3.28084E-5,0,41,Motors_Started,"En vuelo"
127500,2022-08-16 04:26:19,0,0,0,,,3.28084E-5,0.656168,0,0,0,0,0,0,3.28084E-5,0,0,0,0,0,0,214.9, 2.6, -0.1,0,0,931,860,527,1419,-14,-25,-75,60,219.9,0,0,85,4.207,4.2,0,0,0,0,0,100.22,3.28084E-5,0,41,Motors_Started,
127600,2022-08-16 04:26:19,0,0,0,,,3.28084E-5,0.328084,0,0,0,0,0,0,3.28084E-5,0,0,0,0,0,0,214.9, 2.6, -0.1,0,0,1024,1024,1024,1024,0,0,0,0,219.9,0,0,85,4.207,4.2,0,0,0,0,0,100.22,3.28084E-5,0,41,Motors_Started,
127700,2022-08-16 04:26:19,0,0,0,,,3.28084E-5,0.328084,0,0,0,0,0,0,3.28084E-5,0,0,0,0,0,0,214.9, 2.6, -0.1,0,0,1024,1024,1024,1024,0,0,0,0,219.9,0,0,85,4.207,4.2,0,0,0,0,0,100.22,3.28084E-5,0,41,Motors_Started,
127800,2022-08-16 04:26:19,0,0,0,,,3.28084E-5,0.328084,0,0,0,0,0,0,3.28084E-5,0,0,0,0,0,0,214.9, 2.6, -0.1,0,0,1024,1024,1024,1024,0,0,0,0,219.9,0,0,85,4.207,4.2,0,0,0,0,0,100.22,3.28084E-5,0,41,Motors_Started,
127900,2022-08-16 04:26:19,0,0,0,,,3.28084E-5,0.328084,0,0,0,0,0,0,3.28084E-5,0,0,0,0,0,0,214.9, 2.6, -0.1,0,0,1024,1024,1024,1024,0,0,0,0,219.9,0,0,85,4.207,4.2,0,0,0,0,0,100.22,3.28084E-5,0,41,Motors_Started,
128000,2022-08-16 04:26:19,0,0,0,,,3.28084E-5,0.328084,0,0,0,0,0,0,3.28084E-5,0,0,0,0,0,0,214.9, 2.6, -0.1,0,0,1024,1024,1024,1024,0,0,0,0,219.9,0,0,85,4.207,4.2,0,0,0,0,0,100.22,3.28084E-5,0,41,Motors_Started,
128100,2022-08-16 04:26:19,0,0,0,,,3.28084E-5,0.328084,0,0,0,0,0,0,3.28084E-5,0,0,0,0,0,0,214.9, 2.6, -0.1,0,0,1024,1024,1024,1024,0,0,0,0,219.9,0,0,85,4.207,4.2,0,0,0,0,0,100.22,3.28084E-5,0,41,Motors_Started,
128200,2022-08-16 04:26:19,0,0,0,,,3.28084E-5,0.328084,0,0,0,0,0,0,3.28084E-5,0,0,0,0,0,0,214.9, 2.6, -0.1,0,0,1024,1024,1532,1024,0,0,77,0,219.9,0,0,85,4.207,4.2,0,0,0,0,0,100.22,3.28084E-5,0,41,Motors_Started,
128300,2022-08-16 04:26:19,0,0,0,,,3.28084E-5,0.328084,0,0,0,0,0,0,3.28084E-5,0,0,0,0,0,0,214.9, 2.6, -0.1,0,0,1024,1024,1684,1024,0,0,100,0,219.9,0,0,85,4.207,4.2,0,0,0,0,0,100.22,3.28084E-5,0,41,Motors_Started,"Setting new Return-To-Home altitude to 15m (49 ft). Data Recorder File Index is 78. Setting new Maximum Flight Altitude to 30m (98 ft)"
128400,2022-08-16 04:26:20,0,0,0,,,3.28084E-5,0.328084,0,0,0,0,0,0,3.28084E-5,0,0,0,0,0,0,215, 2.6, -0.1,0,0,1024,1024,1024,1024,0,0,0,0,219.9,0,0,85,4.207,4.2,0,0,0,0,0,100.22,3.28084E-5,0,41,Motors_Started,
128500,2022-08-16 04:26:20,0,0,0,,,3.28084E-5,0.328084,0,0,0,0,0,8.405,3.28084E-5,0,0,0,0,0,0,214.9, 2.6, -0.1,0,0,1024,1024,1024,1024,0,0,0,0,219.9,0,0,85,4.2,4.192,0,0,0,0,0.557,100.22,3.28084E-5,0,10,Assisted_Takeoff,
128600,2022-08-16 04:26:20,0,0,0,,,3.28084E-5,0.328084,0,0,0,0,0,8.405,3.28084E-5,0,0,0,0,0,0,214.9, 2.6, -0.1,0,0,1024,1024,1113,1024,0,0,13,0,219.9,0,0,85,4.2,4.192,0,0,0,0,0.557,100.22,3.28084E-5,0,10,Assisted_Takeoff,
128700,2022-08-16 04:26:20,0,0,0,,,3.28084E-5,0.328084,0,0,0,0,0,8.405,3.28084E-5,0,0,0,0,0,0,215.2, 2.6, -0.1,0,0,1024,1024,1684,1024,0,0,100,0,220,0,0,85,4.2,4.192,0,0,0,0,0.557,100.22,3.28084E-5,0,10,Assisted_Takeoff,
128800,2022-08-16 04:26:20,0,0,0,,,3.28084E-5,0.328084,0,0,0,0,0,8.405,3.28084E-5,0,0,0,0,0,0,215.1, 2.6, -0.1,0,0,1024,1024,1684,1024,0,0,100,0,220.1,0,0,85,4.2,4.192,0,0,0,0,0.557,100.22,3.28084E-5,0,10,Assisted_Takeoff,
128900,2022-08-16 04:26:20,0,0,0,,,3.28084E-5,0.328084,0,0,0,0,0,8.405,3.28084E-5,0,0,0,0,0,0,215.2, 2.6, -0.1,0,0,1024,1024,1684,1030,0,0,100,1,220.1,0,0,85,4.2,4.192,0,0,0,0,0.557,100.22,3.28084E-5,0,10,Assisted_Takeoff,
129000,2022-08-16 04:26:20,0,0,0,,,3.28084E-5,0.328084,0,0,0,0,0,8.405,3.28084E-5,0,0,0,0,0,0,215.1, 2.6, -0.1,0,0,1024,1024,1684,1024,0,0,100,0,220.1,0,0,85,4.2,4.192,0,0,0,0,0.557,100.22,3.28084E-5,0,10,Assisted_Takeoff,
129100,2022-08-16 04:26:20,0,0,0,,,3.28084E-5,0.328084,0,0,0,0,0,8.405,3.28084E-5,0,0,0,0,0,0,215.2, 2.2, -0.1,0,0,1024,1024,1024,1024,0,0,0,0,220.1,0,0,85,4.2,4.192,0,0,0,0,0.557,100.22,3.28084E-5,0,10,Assisted_Takeoff,
129200,2022-08-16 04:26:20,0,0,0,,,3.28084E-5,0.328084,0,0,0,0,0,8.405,3.28084E-5,0,0,0,0,0,0,215.9, -0.8, -0.1,0,0,1024,1024,1024,1024,0,0,0,0,220.3,0,0,85,4.2,4.192,0,0,0,0,0.557,100.22,3.28084E-5,0,10,Assisted_Takeoff,
129300,2022-08-16 04:26:20,0,0,0,,,3.28084E-5,0.328084,0,0,0,0,0,8.405,3.28084E-5,0,0,0,0,0,-0.223694,216.4, -1.5, 0,0,0,1024,1024,1024,1024,0,0,0,0,220.8,0,0,85,4.2,4.192,0,0,0,0,0.557,100.22,3.28084E-5,0,6,P-GPS,
129400,2022-08-16 04:26:21,0,0,0,,,3.28084E-5,0.328084,0,0,0,0,0,8.405,3.28084E-5,0,0,0,0,0,-0.223694,216.2, -0.5, 0.6,0,0,1024,1024,1024,1024,0,0,0,0,220.9,0,0,85,4.2,4.192,0,0,0,0,0.557,100.22,3.28084E-5,0,6,P-GPS,
129500,2022-08-16 04:26:21,0,0,0,,,3.28084E-5,0.328084,0,0,0,0,0,8.382,3.28084E-5,0,0,0,0,0,-0.223694,216, -0.1, 0.2,0,0,1024,1024,1024,1024,0,0,0,0,220.9,0,0,85,4.198,4.186,0,0,0,0,1.256,100.22,3.28084E-5,0,6,P-GPS,
129600,2022-08-16 04:26:21,0,0,0,,,3.28084E-5,0.328084,0,0,0,0,0,8.382,3.28084E-5,0,0,0,0,0,-0.447388,216, 0.3, -0.3,0,0,1024,1024,1024,1024,0,0,0,0,220.9,0,0,85,4.198,4.186,0,0,0,0,1.256,100.22,3.28084E-5,0,6,P-GPS,
129700,2022-08-16 04:26:21,0,0,0,,,3.28084E-5,0.328084,0,0,0,0,0,8.382,3.28084E-5,0,0,0,0,0,-0.447388,216.1, 0, -0.1,0,0,1024,1024,1024,1024,0,0,0,0,220.9,0,0,85,4.198,4.186,0,0,0,0,1.256,100.22,3.28084E-5,0,6,P-GPS,
129800,2022-08-16 04:26:21,0,0,0,,,3.28084E-5,0.656168,0,0,0,0,0,8.382,3.28084E-5,0,0,0,0,0,-0.671082,216.1, 0.1, 0.4,0,0,1024,1024,1024,1024,0,0,0,0,220.9,0,0,85,4.198,4.186,0,0,0,0,1.256,100.22,3.28084E-5,0,6,P-GPS,
129900,2022-08-16 04:26:21,0,0,0.328084,,,0.3281168084,0.656168,0,0,0,0,0,8.382,0.3281168084,0.328084,0,0,0,0,-0.894776,215.9, 0.4, 0.3,0,0,1024,1024,1024,1024,0,0,0,0,220.9,0,0,85,4.198,4.186,0,0,0,0,1.256,100.22,0.3281168084,0.328084,6,P-GPS,
130000,2022-08-16 04:26:21,0,0,0.328084,,,0.3281168084,0.656168,0,0,0,0,0,8.382,0.3281168084,0.328084,0,0,0,0,-0.894776,216, 0.2, 0.1,0,0,1024,1024,1024,1024,0,0,0,0,220.9,0,0,85,4.198,4.186,0,0,0,0,1.256,100.22,0.3281168084,0.328084,6,P-GPS,
130100,2022-08-16 04:26:21,0,0,0.656168,,,0.6562008084,0.984252,0,0,0,0,0,8.382,0.6562008084,0.656168,0,0,0,0,-0.894776,215.9, 0.1, 0,0,0,1024,1024,1024,1024,0,0,0,0,220.9,0,0,85,4.198,4.186,0,0,0,0,1.256,100.22,0.6562008084,0.656168,6,P-GPS,
130200,2022-08-16 04:26:21,0,0,0.656168,,,0.6562008084,0.984252,0,0,0,0,0,8.382,0.6562008084,0.656168,0,0,0,0,-1.11847,215.9, 0.1, 0.1,0,0,1024,1024,1024,1024,0,0,0,0,220.9,0,0,85,4.198,4.186,0,0,0,0,1.256,100.22,0.6562008084,0.656168,6,P-GPS,
130300,2022-08-16 04:26:21,0,0,0.656168,,,0.6562008084,1.312336,0,0,0,0,0,8.382,0.6562008084,0.656168,0,0,0,0,-0.894776,215.9, 0.2, 0,0,0,1024,1024,1024,1024,0,0,0,0,220.9,0,0,85,4.198,4.186,0,0,0,0,1.256,100.22,0.6562008084,0.656168,6,P-GPS,
130400,2022-08-16 04:26:21,0,0,0.984252,,,0.9842848084,1.312336,0,0,0,0,0,8.382,0.9842848084,0.984252,0,0,0,0,-0.894776,215.9, 0.3, 0.1,0,0,1024,1024,1024,1024,0,0,0,0,220.9,0,0,85,4.198,4.186,0,0,0,0,1.256,100.22,0.9842848084,0.984252,6,P-GPS,
130500,2022-08-16 04:26:22,0,0,0.984252,,,0.9842848084,1.312336,0,0,0,0,0,8.356,0.9842848084,0.984252,0,0,0,0,-0.671082,215.9, 0.3, 0.1,0,0,1024,1024,1024,1024,0,0,0,0,220.9,0,0,85,4.164,4.152,0,0,0,0,1.988,100.22,0.9842848084,0.984252,6,P-GPS,
130600,2022-08-16 04:26:22,0,0,0.984252,,,0.9842848084,1.64042,0,0,0,0,0,8.356,0.9842848084,0.984252,0,0,0,0,-0.447388,215.9, 0.3, 0,0,0,1024,1024,1024,1024,0,0,0,0,220.9,0,0,85,4.164,4.152,0,0,0,0,1.988,100.22,0.9842848084,0.984252,6,P-GPS,
130700,2022-08-16 04:26:22,0,0,0.984252,,,0.9842848084,1.64042,0,0,0,0,0,8.356,0.9842848084,0.984252,0,0,0,0,-0.223694,215.9, 0.2, 0,0,0,1184,1024,1024,1024,24,0,0,0,220.9,0,0,85,4.164,4.152,0,0,0,0,1.988,100.22,0.9842848084,0.984252,6,P-GPS,
130800,2022-08-16 04:26:22,0,0,0.984252,,,0.9842848084,1.64042,0,0,0,0,0,8.356,0.9842848084,0.984252,0,0,0,0,0,215.9, 0.1, 0.1,0,0,1610,1024,1024,1024,89,0,0,0,220.9,0,0,85,4.164,4.152,0,0,0,0,1.988,100.22,0.9842848084,0.984252,6,P-GPS,
130900,2022-08-16 04:26:22,0,0,1.312336,,,1.3123688084,1.64042,0,0,0,0,0,8.356,1.3123688084,1.312336,0,0,0,0,0,216, -3.6, 0.2,0,0,1610,1024,1024,1024,89,0,0,0,220.9,0,0,85,4.164,4.152,0,0,0,0,1.988,100.22,1.3123688084,1.312336,1,Atti,"Vuela con cuidado (modo Atti) Señal del GPS demasiado débil. Se ha pasado al modo Atti. La aeronave no puede hacer vuelo estacionario. Vuela con precaución (Code: 30022). Aeronave en modo Atti. No se puede hacer vuelo estacionario. Vuela con cuidado (Code: 30004)"
131000,2022-08-16 04:26:22,0,0,1.312336,,,1.3123688084,1.64042,0,0,0,0,0,8.356,1.3123688084,1.312336,0,0,0,0,0,216, -4.2, 0,0,0,1552,1024,1024,1024,80,0,0,0,220.9,0,0,85,4.164,4.152,0,0,0,0,1.988,100.22,1.3123688084,1.312336,1,Atti,"Aeronave en modo Atti. No se puede hacer vuelo estacionario. Vuela con cuidado (Code: 30004). La brújula no funciona bien el GPS no tiene buena señal. Cambia a modo Atti (Code: 30020)"
131100,2022-08-16 04:26:22,0,0,1.312336,,,1.3123688084,1.64042,0,0,0,0,0,8.356,1.3123688084,1.312336,0,0,0,0,0,216, -4, 0,0,0,1286,1024,1024,1024,40,0,0,0,220.9,0,0,85,4.164,4.152,0,0,0,0,1.988,100.22,1.3123688084,1.312336,1,Atti,
131200,2022-08-16 04:26:22,0,0,1.312336,,,1.3123688084,1.64042,0,0,0,0,0,8.356,1.3123688084,1.312336,0,0,0,0,0,216, -1.9, 0,0,0,1182,1024,1024,1024,24,0,0,0,220.9,0,0,85,4.164,4.152,0,0,0,0,1.988,100.22,1.3123688084,1.312336,1,Atti,
131300,2022-08-16 04:26:22,0,0,0.984252,,,0.9842848084,1.64042,0,0,0,0,0,8.356,1.3123688084,1.312336,0,0,0,0,0,216, -0.5, 0.1,0,0,1175,1024,1024,1024,23,0,0,0,220.9,0,0,85,4.164,4.152,0,0,0,0,1.988,100.22,0.9842848084,0.984252,1,Atti,
131400,2022-08-16 04:26:22,0,0,0.984252,,,0.9842848084,1.64042,0,0,0,0,0,8.356,1.3123688084,1.312336,0,0,0,0,0,216, -0.7, 0.1,0,0,1024,1024,1024,1024,0,0,0,0,220.9,0,0,85,4.164,4.152,0,0,0,0,1.988,100.22,0.9842848084,0.984252,1,Atti,
131500,2022-08-16 04:26:23,0,0,0.984252,,,0.9842848084,1.64042,0,0,0,0,0,8.297,1.3123688084,1.312336,0,0,0,0,0,216, 0, 0.1,0,0,1024,1024,1024,1024,0,0,0,0,220.9,0,0,85,4.159,4.147,0,0,0,0,4.144,100.4,0.9842848084,0.984252,1,Atti,
131600,2022-08-16 04:26:23,0,0,0.984252,,,0.9842848084,1.64042,0,0,0,0,0,8.297,1.3123688084,1.312336,0,0,0,0,0,215.9, 0.2, 0,0,0,1024,1024,1024,1024,0,0,0,0,220.9,0,0,85,4.159,4.147,0,0,0,0,4.144,100.4,0.9842848084,0.984252,1,Atti,
131700,2022-08-16 04:26:23,0,0,0.984252,,,0.9842848084,1.64042,0,0,0,0,0,8.297,1.3123688084,1.312336,0,0,0,0,0,215.9, 0.1, 0,0,0,1024,1024,1024,1024,0,0,0,0,220.9,0,0,85,4.159,4.147,0,0,0,0,4.144,100.4,0.9842848084,0.984252,1,Atti,
131800,2022-08-16 04:26:23,0,0,0.984252,,,0.9842848084,1.64042,0,0,0,0,0,8.297,1.3123688084,1.312336,0,0,0,0,0,216, 0.1, 0,0,0,1024,1024,1024,1024,0,0,0,0,220.9,0,0,85,4.159,4.147,0,0,0,0,4.144,100.4,0.9842848084,0.984252,1,Atti,
131900,2022-08-16 04:26:23,0,0,0.984252,,,0.9842848084,1.64042,0,0,0,0,0,8.297,1.3123688084,1.312336,0,0,0,0,0,215.9, 0.1, 0,0,0,1024,1024,1024,1024,0,0,0,0,220.9,0,0,85,4.159,4.147,0,0,0,0,4.144,100.4,0.9842848084,0.984252,1,Atti,
132000,2022-08-16 04:26:23,0,0,0.984252,,,0.9842848084,1.64042,0,0,0,0,0,8.297,1.3123688084,1.312336,0,0,0,0,0,215.9, 0, 0,0,0,1024,1024,1024,1024,0,0,0,0,220.9,0,0,85,4.159,4.147,0,0,0,0,4.144,100.4,0.9842848084,0.984252,1,Atti,
132100,2022-08-16 04:26:23,0,0,0.984252,,,0.9842848084,1.64042,0,0,0,0,0,8.297,1.3123688084,1.312336,0,0,0,0,0,215.9, 0.1, 0,0,0,1024,1024,1024,1024,0,0,0,0,220.9,0,0,85,4.159,4.147,0,0,0,0,4.144,100.4,0.9842848084,0.984252,1,Atti,
132200,2022-08-16 04:26:23,0,0,0.984252,,,0.9842848084,1.64042,0,0,0,0,0,8.297,1.3123688084,1.312336,0,0,0,0,0,215.9, 0, -0.1,0,0,1024,1024,1024,1024,0,0,0,0,220.9,0,0,85,4.159,4.147,0,0,0,0,4.144,100.4,0.9842848084,0.984252,1,Atti,
132300,2022-08-16 04:26:23,0,0,0.984252,,,0.9842848084,1.64042,0,0,0,0,0,8.297,1.3123688084,1.312336,0,0,0,0,0,215.9, 0, -0.1,0,0,1024,1024,1024,1024,0,0,0,0,220.9,0,0,85,4.159,4.147,0,0,0,0,4.144,100.4,0.9842848084,0.984252,1,Atti,
132400,2022-08-16 04:26:24,0,0,0.984252,,,0.9842848084,1.64042,0,0,0,0,0,8.297,1.3123688084,1.312336,0,0,0,0,0,215.9, 0, -0.1,0,0,1024,1024,1024,1024,0,0,0,0,220.9,0,0,85,4.159,4.147,0,0,0,0,4.144,100.4,0.9842848084,0.984252,1,Atti,
132500,2022-08-16 04:26:24,0,0,0.984252,,,0.9842848084,1.64042,0,0,0,0,0,8.295,1.3123688084,1.312336,0,0,0,0,0,215.9, 0, -0.1,0,0,1024,1024,1024,1024,0,0,0,0,220.9,0,0,85,4.151,4.138,0,0,0,0,4.012,100.22,0.9842848084,0.984252,1,Atti,
132600,2022-08-16 04:26:24,0,0,0.984252,,,0.9842848084,1.64042,0,0,0,0,0,8.295,1.3123688084,1.312336,0,0,0,0,0,215.9, 0, -0.1,0,0,1024,1024,1024,1024,0,0,0,0,220.9,0,0,85,4.151,4.138,0,0,0,0,4.012,100.22,0.9842848084,0.984252,1,Atti,
132700,2022-08-16 04:26:24,0,0,0.984252,,,0.9842848084,1.64042,0,0,0,0,0,8.295,1.3123688084,1.312336,0,0,0,0,0,215.9, 0, 0,0,0,1024,1024,1024,1024,0,0,0,0,220.9,0,0,85,4.151,4.138,0,0,0,0,4.012,100.22,0.9842848084,0.984252,1,Atti,
132800,2022-08-16 04:26:24,0,0,0.984252,,,0.9842848084,1.64042,0,0,0,0,0,8.295,1.3123688084,1.312336,0,0,0,0,0,215.9, 0, 0,0,0,1024,1024,1024,1024,0,0,0,0,220.9,0,0,85,4.151,4.138,0,0,0,0,4.012,100.22,0.9842848084,0.984252,1,Atti,
132900,2022-08-16 04:26:24,0,0,0.984252,,,0.9842848084,1.64042,0,0,0,0,0,8.295,1.3123688084,1.312336,0,0,0,0,0,215.9, 0, 0,0,0,1024,1024,1024,1024,0,0,0,0,220.9,0,0,85,4.151,4.138,0,0,0,0,4.012,100.22,0.9842848084,0.984252,1,Atti,
133000,2022-08-16 04:26:24,0,0,0.656168,,,0.6562008084,1.64042,0,0,0,0,0,8.295,1.3123688084,1.312336,0,0,0,0,0,215.9, 0, 0,0,0,1024,1024,1024,1024,0,0,0,0,220.9,0,0,85,4.151,4.138,0,0,0,0,4.012,100.22,0.6562008084,0.656168,1,Atti,
133100,2022-08-16 04:26:24,0,0,0.656168,,,0.6562008084,1.64042,0,0,0,0,0,8.295,1.3123688084,1.312336,0,0,0,0,0,215.9, 0, -0.1,0,0,1024,1024,1024,1024,0,0,0,0,220.9,0,0,85,4.151,4.138,0,0,0,0,4.012,100.22,0.6562008084,0.656168,1,Atti,
133200,2022-08-16 04:26:24,0,0,0.656168,,,0.6562008084,1.64042,0,0,0,0,0,8.295,1.3123688084,1.312336,0,0,0,0,0,215.9, 0, 0,0,0,1024,1024,1024,1024,0,0,0,0,220.9,0,0,85,4.151,4.138,0,0,0,0,4.012,100.22,0.6562008084,0.656168,1,Atti,
133300,2022-08-16 04:26:24,0,0,0.656168,,,0.6562008084,1.64042,0,0,0,0,0,8.295,1.3123688084,1.312336,0,0,0,0,0,215.9, -0.1, 0,0,0,1024,1024,1024,1024,0,0,0,0,220.9,0,0,85,4.151,4.138,0,0,0,0,4.012,100.22,0.6562008084,0.656168,1,Atti,
133400,2022-08-16 04:26:25,0,0,0.656168,,,0.6562008084,1.64042,0,0,0,0,0,8.295,1.3123688084,1.312336,0,0,0,0,0,215.9, -0.1, 0,0,0,1024,1024,1024,1024,0,0,0,0,220.9,0,0,85,4.151,4.138,0,0,0,0,4.012,100.22,0.6562008084,0.656168,1,Atti,
133500,2022-08-16 04:26:25,0,0,0.656168,,,0.6562008084,1.64042,0,0,0,0,0,8.287,1.3123688084,1.312336,0,0,0,0,0,215.9, 0, 0,0,0,1024,1024,1024,1024,0,0,0,0,220.9,0,0,85,4.148,4.135,0,0,0,0,4.141,100.4,0.6562008084,0.656168,1,Atti,
133600,2022-08-16 04:26:25,0,0,0.656168,,,0.6562008084,1.64042,0,0,0,0,0,8.287,1.3123688084,1.312336,0,0,0,0,0,215.9, 0, 0,0,0,1024,1024,1024,1024,0,0,0,0,220.9,0,0,85,4.148,4.135,0,0,0,0,4.141,100.4,0.6562008084,0.656168,1,Atti,
133700,2022-08-16 04:26:25,0,0,0.656168,,,0.6562008084,1.64042,0,0,0,0,0,8.287,1.3123688084,1.312336,0,0,0,0,0,215.9, 0.2, -0.1,0,0,711,1024,1024,1024,-47,0,0,0,220.9,0,0,85,4.148,4.135,0,0,0,0,4.141,100.4,0.6562008084,0.656168,1,Atti,
133800,2022-08-16 04:26:25,0,0,0.656168,,,0.6562008084,1.64042,0,0,0,0,0,8.287,1.3123688084,1.312336,0,0,0,0,0,215.9, 0.2, -0.1,0,0,440,1024,1024,1024,-88,0,0,0,220.9,0,0,85,4.148,4.135,0,0,0,0,4.141,100.4,0.6562008084,0.656168,1,Atti,
133900,2022-08-16 04:26:25,0,0,0.656168,,,0.6562008084,1.64042,0,0,0,0,0,8.287,1.3123688084,1.312336,0,0,0,0,0,215.8, 5.6, -0.1,0,0,1024,1024,1024,1024,0,0,0,0,220.9,0,0,85,4.148,4.135,0,0,0,0,4.141,100.4,0.6562008084,0.656168,1,Atti,
134000,2022-08-16 04:26:25,0,0,0.656168,,,0.6562008084,1.64042,0,0,0,0,0,8.287,1.3123688084,1.312336,0,0,0,0,0,215.9, 5.5, 0,0,0,1024,1024,1024,1024,0,0,0,0,220.9,0,0,85,4.148,4.135,0,0,0,0,4.141,100.4,0.6562008084,0.656168,1,Atti,
134100,2022-08-16 04:26:25,0,0,0.656168,,,0.6562008084,1.64042,0,0,0,0,0,8.287,1.3123688084,1.312336,0,0,0,0,0,215.9, -0.1, -0.1,0,0,1024,1024,1024,1024,0,0,0,0,220.9,0,0,85,4.148,4.135,0,0,0,0,4.141,100.4,0.6562008084,0.656168,1,Atti,
134200,2022-08-16 04:26:25,0,0,0.656168,,,0.6562008084,1.64042,0,0,0,0,0,8.287,1.3123688084,1.312336,0,0,0,0,0,215.9, -0.2, 0.2,0,0,1000,1024,1024,1024,-4,0,0,0,220.9,0,0,85,4.148,4.135,0,0,0,0,4.141,100.4,0.6562008084,0.656168,1,Atti,
134300,2022-08-16 04:26:25,0,0,0.656168,,,0.6562008084,1.64042,0,0,0,0,0,8.287,1.3123688084,1.312336,0,0,0,0,0,215.9, 0, 0.2,0,0,397,1024,1024,1024,-95,0,0,0,220.9,0,0,85,4.148,4.135,0,0,0,0,4.141,100.4,0.6562008084,0.656168,1,Atti,
134400,2022-08-16 04:26:26,0,0,0.656168,,,0.6562008084,1.64042,0,0,0,0,0,8.287,1.3123688084,1.312336,0,0,0,0,0,215.9, 7.3, 0.1,0,0,557,1024,1024,1024,-71,0,0,0,220.9,0,0,85,4.148,4.135,0,0,0,0,4.141,100.4,0.6562008084,0.656168,1,Atti,
134500,2022-08-16 04:26:26,0,0,0.656168,,,0.6562008084,1.64042,0,0,0,0,0,8.278,1.3123688084,1.312336,0,0,0,0,0,215.9, 7.3, 0,0,0,928,1024,1024,1024,-15,0,0,0,220.9,0,0,85,4.145,4.131,0,0,0,0,4.171,100.4,0.6562008084,0.656168,1,Atti,
134600,2022-08-16 04:26:26,0,0,0.656168,,,0.6562008084,1.64042,0,0,0,0,0,8.278,1.3123688084,1.312336,0,0,0,0,0,215.9, 4.3, 0,0,0,1024,1024,1024,1024,0,0,0,0,220.9,0,0,85,4.145,4.131,0,0,0,0,4.171,100.4,0.6562008084,0.656168,1,Atti,
134700,2022-08-16 04:26:26,0,0,0.656168,,,0.6562008084,1.64042,0,0,0,0,0,8.278,1.3123688084,1.312336,0,0,0,0,0,216, 0, 0,0,0,1024,1024,1024,1024,0,0,0,0,220.9,0,0,85,4.145,4.131,0,0,0,0,4.171,100.4,0.6562008084,0.656168,1,Atti,
134800,2022-08-16 04:26:26,0,0,0.656168,,,0.6562008084,1.64042,0,0,0,0,0,8.278,1.3123688084,1.312336,0,0,0,0,0,216, -0.1, 0.1,0,0,1024,1024,1024,1024,0,0,0,0,220.9,0,0,85,4.145,4.131,0,0,0,0,4.171,100.4,0.6562008084,0.656168,1,Atti,
134900,2022-08-16 04:26:26,0,0,0.656168,,,0.6562008084,1.64042,0,0,0,0,0,8.278,1.3123688084,1.312336,0,0,0,0,0,216, 0, 0.1,0,0,1024,1024,1024,1024,0,0,0,0,220.9,0,0,85,4.145,4.131,0,0,0,0,4.171,100.4,0.6562008084,0.656168,1,Atti,
135000,2022-08-16 04:26:26,0,0,0.656168,,,0.6562008084,1.64042,0,0,0,0,0,8.278,1.3123688084,1.312336,0,0,0,0,0,216, 0, 0,0,0,1024,1024,1024,1024,0,0,0,0,220.9,0,0,85,4.145,4.131,0,0,0,0,4.171,100.4,0.6562008084,0.656168,1,Atti,
135100,2022-08-16 04:26:26,0,0,0.656168,,,0.6562008084,1.64042,0,0,0,0,0,8.278,1.3123688084,1.312336,0,0,0,0,0,216, 0.1, 0,0,0,786,1024,1024,1024,-36,0,0,0,220.9,0,0,85,4.145,4.131,0,0,0,0,4.171,100.4,0.6562008084,0.656168,1,Atti,
135200,2022-08-16 04:26:26,0,0,0.656168,,,0.6562008084,1.64042,0,0,0,0,0,8.278,1.3123688084,1.312336,0,0,0,0,0,215.9, 1.7, -0.2,0,0,484,1024,1024,1024,-82,0,0,0,220.9,0,0,85,4.145,4.131,0,0,0,0,4.171,100.4,0.6562008084,0.656168,1,Atti,
135300,2022-08-16 04:26:26,0,0,0.656168,,,0.6562008084,1.64042,0,0,0,0,0,8.278,1.3123688084,1.312336,0,0,0,0,0,215.8, 8.7, -0.2,0,0,1024,1024,1024,1024,0,0,0,0,220.9,0,0,85,4.145,4.131,0,0,0,0,4.171,100.4,0.6562008084,0.656168,1,Atti,
135400,2022-08-16 04:26:26,0,0,0.656168,,,0.6562008084,1.64042,0,0,0,0,0,8.278,1.3123688084,1.312336,0,0,0,0,0,215.9, 2.7, -0.1,0,0,1024,1024,1024,1024,0,0,0,0,220.9,0,0,85,4.145,4.131,0,0,0,0,4.171,100.4,0.6562008084,0.656168,1,Atti,
135500,2022-08-16 04:26:27,0,0,0.656168,,,0.6562008084,1.64042,0,0,0,0,0,8.27,1.3123688084,1.312336,0,0,0,0,0,215.9, 0.1, -0.1,0,0,1024,1024,1024,1024,0,0,0,0,220.9,0,0,85,4.141,4.13,0,0,0,0,4.198,100.4,0.6562008084,0.656168,1,Atti,
135600,2022-08-16 04:26:27,0,0,0.656168,,,0.6562008084,1.64042,0,0,0,0,0,8.27,1.3123688084,1.312336,0,0,0,0,0,215.9, 0, 0,0,0,1024,1024,1024,1024,0,0,0,0,220.9,0,0,85,4.141,4.13,0,0,0,0,4.198,100.4,0.6562008084,0.656168,1,Atti,
135700,2022-08-16 04:26:27,0,0,0.656168,,,0.6562008084,1.64042,0,0,0,0,0,8.27,1.3123688084,1.312336,0,0,0,0,0,215.9, -0.2, 0,0,0,1024,1024,1024,1024,0,0,0,0,220.9,0,0,85,4.141,4.13,0,0,0,0,4.198,100.4,0.6562008084,0.656168,1,Atti,
135800,2022-08-16 04:26:27,0,0,0.656168,,,0.6562008084,1.64042,0,0,0,0,0,8.27,1.3123688084,1.312336,0,0,0,0,0,215.9, -0.2, -0.1,0,0,1024,1024,1024,1024,0,0,0,0,220.9,0,0,85,4.141,4.13,0,0,0,0,4.198,100.4,0.6562008084,0.656168,1,Atti,
135900,2022-08-16 04:26:27,0,0,0.328084,,,0.3281168084,1.64042,0,0,0,0,0,8.27,1.3123688084,1.312336,0,0,0,0,0,215.9, -0.2, -0.2,0,0,1024,1024,1024,1024,0,0,0,0,220.9,0,0,85,4.141,4.13,0,0,0,0,4.198,100.4,0.3281168084,0.328084,1,Atti,
136000,2022-08-16 04:26:27,0,0,0.328084,,,0.3281168084,1.64042,0,0,0,0,0,8.27,1.3123688084,1.312336,0,0,0,0,0,215.9, -0.1, -0.2,0,0,1024,1024,1024,1024,0,0,0,0,220.9,0,0,85,4.141,4.13,0,0,0,0,4.198,100.4,0.3281168084,0.328084,1,Atti,
136100,2022-08-16 04:26:27,0,0,0.328084,,,0.3281168084,1.64042,0,0,0,0,0,8.27,1.3123688084,1.312336,0,0,0,0,0,215.9, 0, -0.1,0,0,1024,1024,1024,1325,0,0,0,46,220.9,0,0,85,4.141,4.13,0,0,0,0,4.198,100.4,0.3281168084,0.328084,1,Atti,
136200,2022-08-16 04:26:27,0,0,0.328084,,,0.3281168084,1.64042,0,0,0,0,0,8.27,1.3123688084,1.312336,0,0,0,0,0,216.3, 0, -0.2,0,0,1024,1024,1024,1529,0,0,0,77,221,0,0,85,4.141,4.13,0,0,0,0,4.198,100.4,0.3281168084,0.328084,1,Atti,
136300,2022-08-16 04:26:27,0,0,0.328084,,,0.3281168084,1.64042,0,0,0,0,0,8.27,1.3123688084,1.312336,0,0,0,0,0,219.9, 0, 0,0,0,1024,1024,1024,1024,0,0,0,0,223.6,0,0,85,4.141,4.13,0,0,0,0,4.198,100.4,0.3281168084,0.328084,1,Atti,
136400,2022-08-16 04:26:28,0,0,0.328084,,,0.3281168084,1.64042,0,0,0,0,0,8.27,1.3123688084,1.312336,0,0,0,0,0,221.4, 0, 0.6,0,0,1024,1024,1024,1024,0,0,0,0,225.9,0,0,85,4.141,4.13,0,0,0,0,4.198,100.4,0.3281168084,0.328084,1,Atti,
136500,2022-08-16 04:26:28,0,0,0.328084,,,0.3281168084,1.64042,0,0,0,0,0,8.268,1.3123688084,1.312336,0,0,0,0,0,221.2, 0, 0.4,0,0,1024,1024,1024,1024,0,0,0,0,226.1,0,0,85,4.139,4.125,0,0,0,0,4.216,100.4,0.3281168084,0.328084,1,Atti,
136600,2022-08-16 04:26:28,0,0,0.328084,,,0.3281168084,1.64042,0,0,0,0,0,8.268,1.3123688084,1.312336,0,0,0,0,0,221.3, 0, 0.4,0,0,1024,1024,1024,1024,0,0,0,0,226.1,0,0,85,4.139,4.125,0,0,0,0,4.216,100.4,0.3281168084,0.328084,1,Atti,
136700,2022-08-16 04:26:28,0,0,0.328084,,,0.3281168084,1.64042,0,0,0,0,0,8.268,1.3123688084,1.312336,0,0,0,0,0,221.4, -0.1, 0.3,0,0,1024,1024,1024,1024,0,0,0,0,226.2,0,0,85,4.139,4.125,0,0,0,0,4.216,100.4,0.3281168084,0.328084,1,Atti,
136800,2022-08-16 04:26:28,0,0,0.328084,,,0.3281168084,1.64042,0,0,0,0,0,8.268,1.3123688084,1.312336,0,0,0,0,0,221.4, 0, 0.1,0,0,1024,1024,1024,1024,0,0,0,0,226.2,0,0,85,4.139,4.125,0,0,0,0,4.216,100.4,0.3281168084,0.328084,1,Atti,
136900,2022-08-16 04:26:28,0,0,0.328084,,,0.3281168084,1.64042,0,0,0,0,0,8.268,1.3123688084,1.312336,0,0,0,0,0,221.3, 0, 0,0,0,1024,1024,1024,1053,0,0,0,4,226.3,0,0,85,4.139,4.125,0,0,0,0,4.216,100.4,0.3281168084,0.328084,1,Atti,
137000,2022-08-16 04:26:28,0,0,0.328084,,,0.3281168084,1.64042,0,0,0,0,0,8.268,1.3123688084,1.312336,0,0,0,0,0,221.4, 0, 0,0,0,1024,1024,1024,1053,0,0,0,4,226.3,0,0,85,4.139,4.125,0,0,0,0,4.216,100.4,0.3281168084,0.328084,1,Atti,
137100,2022-08-16 04:26:28,0,0,0.328084,,,0.3281168084,1.64042,0,0,0,0,0,8.268,1.3123688084,1.312336,0,0,0,0,0,221.4, 0, 0,0,0,1024,1024,1024,1350,0,0,0,49,226.3,0,0,85,4.139,4.125,0,0,0,0,4.216,100.4,0.3281168084,0.328084,1,Atti,
137200,2022-08-16 04:26:28,0,0,0.328084,,,0.3281168084,1.64042,0,0,0,0,0,8.268,1.3123688084,1.312336,0,0,0,0,0,222.7, 0, -0.2,0,0,1024,1024,1024,1024,0,0,0,0,226.8,0,0,85,4.139,4.125,0,0,0,0,4.216,100.4,0.3281168084,0.328084,1,Atti,
137300,2022-08-16 04:26:28,0,0,0.328084,,,0.3281168084,1.64042,0,0,0,0,0,8.268,1.3123688084,1.312336,0,0,0,0,0,223.9, 0.3, 0.1,0,0,1024,1024,1024,1024,0,0,0,0,228.1,0,0,85,4.139,4.125,0,0,0,0,4.216,100.4,0.3281168084,0.328084,1,Atti,
137400,2022-08-16 04:26:29,0,0,0.328084,,,0.3281168084,1.64042,0,0,0,0,0,8.268,1.3123688084,1.312336,0,0,0,0,0,223.8, 0.2, 0,0,0,1024,1024,1024,1218,0,0,0,29,228.5,0,0,85,4.139,4.125,0,0,0,0,4.216,100.4,0.3281168084,0.328084,1,Atti,
137500,2022-08-16 04:26:29,0,0,0.328084,,,0.3281168084,1.64042,0,0,0,0,0,8.262,1.3123688084,1.312336,0,0,0,0,0,223.8, 0.3, -0.2,0,0,1024,1024,1024,1441,0,0,0,63,228.6,0,0,85,4.135,4.122,0,0,0,0,4.218,100.4,0.3281168084,0.328084,1,Atti,
137600,2022-08-16 04:26:29,0,0,0.328084,,,0.3281168084,1.64042,0,0,0,0,0,8.262,1.3123688084,1.312336,0,0,0,0,0,225, 0.2, -0.2,0,0,1024,1024,1024,1084,0,0,0,9,229.1,0,0,85,4.135,4.122,0,0,0,0,4.218,100.4,0.3281168084,0.328084,1,Atti,
137700,2022-08-16 04:26:29,0,0,0.328084,,,0.3281168084,1.64042,0,0,0,0,0,8.262,1.3123688084,1.312336,0,0,0,0,0,227.6, 0.1, 0,0,0,1024,1024,1024,1024,0,0,0,0,231.4,0,0,85,4.135,4.122,0,0,0,0,4.218,100.4,0.3281168084,0.328084,1,Atti,
137800,2022-08-16 04:26:29,0,0,0.328084,,,0.3281168084,1.64042,0,0,0,0,0,8.262,1.3123688084,1.312336,0,0,0,0,0,228.3, 0, 0.3,0,0,1024,1024,1024,1024,0,0,0,0,232.8,0,0,85,4.135,4.122,0,0,0,0,4.218,100.4,0.3281168084,0.328084,1,Atti,
137900,2022-08-16 04:26:29,0,0,0.328084,,,0.3281168084,1.64042,0,0,0,0,0,8.262,1.3123688084,1.312336,0,0,0,0,0,228.2, 0, 0.2,0,0,1024,1024,1024,1024,0,0,0,0,233,0,0,85,4.135,4.122,0,0,0,0,4.218,100.4,0.3281168084,0.328084,1,Atti,
138000,2022-08-16 04:26:29,0,0,0.328084,,,0.3281168084,1.64042,0,0,0,0,0,8.262,1.3123688084,1.312336,0,0,0,0,0,228.3, 0, 0.2,0,0,1024,1024,1024,1057,0,0,0,5,233,0,0,85,4.135,4.122,0,0,0,0,4.218,100.4,0.3281168084,0.328084,1,Atti,
138100,2022-08-16 04:26:29,0,0,0.328084,,,0.3281168084,1.64042,0,0,0,0,0,8.262,1.3123688084,1.312336,0,0,0,0,0,228.3, 0, 0.1,0,0,1024,1024,1024,1406,0,0,0,58,233.1,0,0,85,4.135,4.122,0,0,0,0,4.218,100.4,0.3281168084,0.328084,1,Atti,
138200,2022-08-16 04:26:29,0,0,0.328084,,,0.3281168084,1.64042,0,0,0,0,0,8.262,1.3123688084,1.312336,0,0,0,0,0,229.4, 0, -0.2,0,0,1024,1024,1024,1427,0,0,0,61,233.6,0,0,85,4.135,4.122,0,0,0,0,4.218,100.4,0.3281168084,0.328084,1,Atti,
138300,2022-08-16 04:26:29,0,0,0.328084,,,0.3281168084,1.64042,0,0,0,0,0,8.262,1.3123688084,1.312336,0,0,0,0,0,232, 0, -0.1,0,0,1024,1024,1024,1040,0,0,0,2,235.8,0,0,85,4.135,4.122,0,0,0,0,4.218,100.4,0.3281168084,0.328084,1,Atti,
138400,2022-08-16 04:26:29,0,0,0.328084,,,0.3281168084,1.64042,0,0,0,0,0,8.262,1.3123688084,1.312336,0,0,0,0,0,233.9, 0, 0,0,0,1024,1024,1024,1350,0,0,0,49,238,0,0,85,4.135,4.122,0,0,0,0,4.218,100.4,0.3281168084,0.328084,1,Atti,
138500,2022-08-16 04:26:30,0,0,0.328084,,,0.3281168084,1.64042,0,0,0,0,0,8.254,1.3123688084,1.312336,0,0,0,0,0,233.9, 0, 0,0,0,1024,1024,1024,1561,0,0,0,81,238.5,0,0,85,4.135,4.121,0,0,0,0,4.226,100.4,0.3281168084,0.328084,1,Atti,
138600,2022-08-16 04:26:30,0,0,0.328084,,,0.3281168084,1.64042,0,0,0,0,0,8.254,1.3123688084,1.312336,0,0,0,0,0,235.6, -0.1, -0.2,0,0,1024,1024,1024,1561,0,0,0,81,239.7,0,0,85,4.135,4.121,0,0,0,0,4.226,100.4,0.3281168084,0.328084,6,P-GPS,"Señal débil del GPS. Vuelo estacionario inestable. Vuela con cuidado (Code: 30002)"
138700,2022-08-16 04:26:30,0,0,0.328084,,,0.3281168084,1.64042,0,0,0,0,0,8.254,1.3123688084,1.312336,0,0,0,0,0,239.6, 0.1, 0,0,0,1024,1024,1024,1430,0,0,0,62,243.4,0,0,85,4.135,4.121,0,0,0,0,4.226,100.4,0.3281168084,0.328084,6,P-GPS,
138800,2022-08-16 04:26:30,0,0,0.328084,,,0.3281168084,1.64042,0,0,0,0,0,8.254,1.3123688084,1.312336,0,0,0,0,0,243.2, -0.6, -0.1,0,0,1024,1024,1024,1366,0,0,0,52,247.2,0,0,85,4.135,4.121,0,0,0,0,4.226,100.4,0.3281168084,0.328084,6,P-GPS,
138900,2022-08-16 04:26:30,0,0,0.328084,,,0.3281168084,1.64042,0,0,0,0,0,8.254,1.3123688084,1.312336,0,0,0,0,0,244, -0.7, -0.5,0,0,1024,1024,1024,1661,0,0,0,97,248,0,0,85,4.135,4.121,0,0,0,0,4.226,100.4,0.3281168084,0.328084,6,P-GPS,
139000,2022-08-16 04:26:30,0,0,0.328084,,,0.3281168084,1.64042,0,0,0,0,0,8.254,1.3123688084,1.312336,0,0,0,0,0,244, -0.6, -0.5,0,0,1024,1024,1024,1661,0,0,0,97,250,0,0,85,4.135,4.121,0,0,0,0,4.226,100.4,0.3281168084,0.328084,6,P-GPS,
139100,2022-08-16 04:26:30,0,0,0.328084,,,0.3281168084,1.64042,0,0,0,0,0,8.254,1.3123688084,1.312336,0,0,0,0,0,246.6, -0.6, -0.6,0,0,1024,1024,1024,1263,0,0,0,36,254.1,0,0,85,4.135,4.121,0,0,0,0,4.226,100.4,0.3281168084,0.328084,6,P-GPS,
139200,2022-08-16 04:26:30,0,0,0.328084,,,0.3281168084,1.64042,0,0,0,0,0,8.254,1.3123688084,1.312336,0,0,0,0,0,250.8, -0.7, -0.5,0,0,1024,1024,1024,1577,0,0,0,84,257.8,0,0,85,4.135,4.121,0,0,0,0,4.226,100.4,0.3281168084,0.328084,6,P-GPS,
139300,2022-08-16 04:26:30,0,0,0.328084,,,0.3281168084,1.64042,0,0,0,0,0,8.254,1.3123688084,1.312336,0,0,0,0,0,253.5, -0.4, -0.2,0,0,1024,1024,1024,1542,0,0,0,78,259.6,0,0,85,4.135,4.121,0,0,0,0,4.226,100.4,0.3281168084,0.328084,6,P-GPS,
139400,2022-08-16 04:26:30,0,0,0.328084,,,0.3281168084,1.64042,0,0,0,0,0,8.254,1.3123688084,1.312336,0,0,0,0,0,255.2, -0.3, -0.6,0,0,1024,1024,1024,1062,0,0,0,6,262.1,0,0,85,4.135,4.121,0,0,0,0,4.226,100.4,0.3281168084,0.328084,6,P-GPS,
139500,2022-08-16 04:26:31,0,0,0.328084,,,0.3281168084,1.64042,0,0,0,0,0,8.251,1.3123688084,1.312336,0,0,0,0,0,258.2, -0.1, -0.6,0,0,1024,1024,1024,1062,0,0,0,6,265.3,0,0,85,4.132,4.118,0,0,0,0,4.19,100.58,0.3281168084,0.328084,6,P-GPS,
139600,2022-08-16 04:26:31,0,0,0.328084,,,0.3281168084,1.64042,0,0,0,0,0,8.251,1.3123688084,1.312336,0,0,0,0,0,260.9, 0, -0.2,0,0,1024,1024,1024,1024,0,0,0,0,266.9,0,0,85,4.132,4.118,0,0,0,0,4.19,100.58,0.3281168084,0.328084,6,P-GPS,
139700,2022-08-16 04:26:31,0,0,0.328084,,,0.3281168084,1.64042,0,0,0,0,0,8.251,1.3123688084,1.312336,0,0,0,0,0,262, 0, 0,0,0,1024,1024,1024,1024,0,0,0,0,267.6,0,0,85,4.132,4.118,0,0,0,0,4.19,100.58,0.3281168084,0.328084,6,P-GPS,
139800,2022-08-16 04:26:31,0,0,0.328084,,,0.3281168084,1.64042,0,0,0,0,0,8.251,1.3123688084,1.312336,0,0,0,0,0,262.5, 0, -0.2,0,0,1024,1024,1024,1024,0,0,0,0,267.7,0,0,85,4.132,4.118,0,0,0,0,4.19,100.58,0.3281168084,0.328084,6,P-GPS,
139900,2022-08-16 04:26:31,0,0,0.328084,,,0.3281168084,1.64042,0,0,0,0,0,8.251,1.3123688084,1.312336,0,0,0,0,0,262.6, 0.1, -0.3,0,0,954,1024,1024,1024,-11,0,0,0,267.7,0,0,85,4.132,4.118,0,0,0,0,4.19,100.58,0.3281168084,0.328084,6,P-GPS,"En vuelo"
140000,2022-08-16 04:26:31,0,0,0.328084,,,0.3281168084,1.64042,0,0,0,0,0,8.251,1.3123688084,1.312336,0,0,0,0,0,262.7, 0, -0.3,0,0,707,1024,1024,1024,-48,0,0,0,267.7,0,0,85,4.132,4.118,0,0,0,0,4.19,100.58,0.3281168084,0.328084,6,P-GPS,
140100,2022-08-16 04:26:31,0,0,0.328084,,,0.3281168084,1.64042,0,0,0,0,0,8.251,1.3123688084,1.312336,0,0,0,0,0,262.7, 1.1, -0.1,0,0,904,1024,1024,1024,-18,0,0,0,267.7,0,0,85,4.132,4.118,0,0,0,0,4.19,100.58,0.3281168084,0.328084,6,P-GPS,
140200,2022-08-16 04:26:31,0,0,0.328084,,,0.3281168084,1.64042,0,0,0,0,0,8.251,1.3123688084,1.312336,0,0,0,0,0,262.7, 6.2, 0,0,0,1024,1024,1024,1024,0,0,0,0,267.7,0,0,85,4.132,4.118,0,0,0,0,4.19,100.58,0.3281168084,0.328084,6,P-GPS,
140300,2022-08-16 04:26:31,0,0,0.328084,,,0.3281168084,1.64042,0.223694,0,0,0,0,8.251,1.3123688084,1.312336,0,0,0,0.223694,0,262.7, 5, 0.1,0,0,1024,1024,1024,1024,0,0,0,0,267.7,0,0,85,4.132,4.118,0,0,0,0,4.19,100.58,0.3281168084,0.328084,6,P-GPS,
140400,2022-08-16 04:26:32,0,0,0.328084,,,0.3281168084,1.64042,0.223694,0,0,0,0,8.251,1.3123688084,1.312336,0,0,0,0.223694,0,262.7, -1.4, -0.2,0,0,1024,1024,1024,1024,0,0,0,0,267.7,0,0,85,4.132,4.118,0,0,0,0,4.19,100.58,0.3281168084,0.328084,6,P-GPS,
140500,2022-08-16 04:26:32,0,0,0.328084,,,0.3281168084,1.64042,0.223694,0,0,0,0,8.246,1.3123688084,1.312336,0,0,0,0.223694,0,262.7, -1.9, -0.2,0,0,1024,1024,1024,1173,0,0,0,23,267.7,0,0,85,4.129,4.116,0,0,0,0,4.223,100.58,0.3281168084,0.328084,6,P-GPS,
140600,2022-08-16 04:26:32,0,0,0.328084,,,0.3281168084,1.64042,0.223694,0,0,0,0,8.246,1.3123688084,1.312336,0,0,0,0.223694,0,262.7, -1.7, 0,0,0,1024,1024,1024,1521,0,0,0,75,267.7,0,0,85,4.129,4.116,0,0,0,0,4.223,100.58,0.3281168084,0.328084,6,P-GPS,
140700,2022-08-16 04:26:32,0,0,0.328084,,,0.3281168084,1.64042,0,0,0,0,0,8.246,1.3123688084,1.312336,0,0,0,0,0,262.9, -1.3, 0,0,0,1024,1024,1024,1684,0,0,0,100,268.6,0,0,85,4.129,4.116,0,0,0,0,4.223,100.58,0.3281168084,0.328084,6,P-GPS,
140800,2022-08-16 04:26:32,0,0,0.328084,,,0.3281168084,1.64042,0,0,0,0,0,8.246,1.3123688084,1.312336,0,0,0,0,0,264.7, -0.9, -0.3,0,0,1024,1024,1024,1238,0,0,0,32,271.9,0,0,85,4.129,4.116,0,0,0,0,4.223,100.58,0.3281168084,0.328084,6,P-GPS,
140900,2022-08-16 04:26:32,0,0,0.328084,,,0.3281168084,1.64042,0,0,0,0,0,8.246,1.3123688084,1.312336,0,0,0,0,0,268.7, -1.1, -0.3,0,0,1024,1024,1024,1314,0,0,0,44,275.9,0,0,85,4.129,4.116,0,0,0,0,4.223,100.58,0.3281168084,0.328084,6,P-GPS,
141000,2022-08-16 04:26:32,0,0,0.328084,,,0.3281168084,1.64042,0,0,0,0,0,8.246,1.3123688084,1.312336,0,0,0,0,0,271.7, -0.6, 0.3,0,0,1024,1024,1024,1684,0,0,0,100,277.7,0,0,85,4.129,4.116,0,0,0,0,4.223,100.58,0.3281168084,0.328084,6,P-GPS,
141100,2022-08-16 04:26:32,0,0,0.328084,,,0.3281168084,1.64042,0,0,0,0,0,8.246,1.3123688084,1.312336,0,0,0,0,0,272.9, 0.1, 0.2,0,0,1024,1024,1024,1684,0,0,0,100,278.9,0,0,85,4.129,4.116,0,0,0,0,4.223,100.58,0.3281168084,0.328084,6,P-GPS,
141200,2022-08-16 04:26:32,0,0,0.328084,,,0.3281168084,1.64042,0,0,0,0,0,8.246,1.3123688084,1.312336,0,0,0,0,0,274.7, 0.3, 0,0,0,814,1024,1024,1293,-32,0,0,41,282,0,0,85,4.129,4.116,0,0,0,0,4.223,100.58,0.3281168084,0.328084,6,P-GPS,
141300,2022-08-16 04:26:32,0,0,0.328084,,,0.3281168084,1.64042,0,0,0,0,0,8.246,1.3123688084,1.312336,0,0,0,0,0,278.7, 0.4, 0,0,0,814,1024,1024,1293,-32,0,0,41,286.6,0,0,85,4.129,4.116,0,0,0,0,4.223,100.58,0.3281168084,0.328084,6,P-GPS,
141400,2022-08-16 04:26:33,0,0,0.328084,,,0.3281168084,1.64042,0,0,0,0,0,8.246,1.3123688084,1.312336,0,0,0,0,0,283.2, 0.8, 0.1,0,0,364,1024,1024,1024,-100,0,0,0,290.4,0,0,85,4.129,4.116,0,0,0,0,4.223,100.58,0.3281168084,0.328084,6,P-GPS,
141500,2022-08-16 04:26:33,0,0,0.328084,,,0.3281168084,1.64042,0,0,0,0,0,8.239,1.3123688084,1.312336,0,0,0,0,0,285.8, 12.2, 1,0,0,885,1024,1024,1024,-21,0,0,0,291.9,0,0,85,4.126,4.114,0,0,0,0,4.221,100.58,0.3281168084,0.328084,6,P-GPS,
141600,2022-08-16 04:26:33,0,0,0.328084,,,0.3281168084,1.64042,0.671082,0,0,0,0,8.239,1.3123688084,1.312336,0,0,0,0.671082,0,287, 17, 0.8,0,0,1024,1024,1024,1024,0,0,0,0,292.5,0,0,85,4.126,4.114,0,0,0,0,4.221,100.58,0.3281168084,0.328084,6,P-GPS,
141700,2022-08-16 04:26:33,0,0,0.328084,,,0.3281168084,1.64042,1.1408394,0,0,0,0,8.239,1.3123688084,1.312336,0,0,-0.223694,1.11847,0,287.1, 2.5, 0,0,0,1024,1024,1024,1024,0,0,0,0,292.5,0,0,85,4.126,4.114,0,0,0,0,4.221,100.58,0.3281168084,0.328084,6,P-GPS,
141800,2022-08-16 04:26:33,0,0,0.328084,,,0.3281168084,1.64042,1.1408394,0,0,0,0,8.239,1.3123688084,1.312336,0,0,-0.223694,1.11847,0,287.3, -4.6, -0.5,0,0,1024,1024,1024,1024,0,0,0,0,292.5,0,0,85,4.126,4.114,0,0,0,0,4.221,100.58,0.3281168084,0.328084,6,P-GPS,
141900,2022-08-16 04:26:33,0,0,0.328084,,,0.3281168084,1.64042,0.9171454,0,0,0,0,8.239,1.3123688084,1.312336,0,0,-0.223694,0.894776,0,287.4, -5.3, -0.4,0,0,1024,1024,1024,1024,0,0,0,0,292.5,0,0,85,4.126,4.114,0,0,0,0,4.221,100.58,0.3281168084,0.328084,6,P-GPS,
142000,2022-08-16 04:26:33,0,0,0.328084,,,0.3281168084,1.64042,0.671082,0,0,0,0,8.239,1.3123688084,1.312336,0,0,0,0.671082,0,287.4, -4.6, -0.2,0,0,1024,1024,1024,1024,0,0,0,0,292.5,0,0,85,4.126,4.114,0,0,0,0,4.221,100.58,0.3281168084,0.328084,6,P-GPS,
142100,2022-08-16 04:26:33,0,0,0.328084,,,0.3281168084,1.64042,0.447388,0,0,0,0,8.239,1.3123688084,1.312336,0,0,0,0.447388,0,287.3, -3.6, -0.2,0,0,1024,1024,1024,1024,0,0,0,0,292.5,0,0,85,4.126,4.114,0,0,0,0,4.221,100.58,0.3281168084,0.328084,6,P-GPS,
142200,2022-08-16 04:26:33,0,0,0.328084,,,0.3281168084,1.64042,0.223694,0,0,0,0,8.239,1.3123688084,1.312336,0,0,0,0.223694,0,287.3, -2.9, -0.3,0,0,1024,1024,1024,1024,0,0,0,0,292.5,0,0,85,4.126,4.114,0,0,0,0,4.221,100.58,0.3281168084,0.328084,6,P-GPS,
142300,2022-08-16 04:26:33,0,0,0.328084,,,0.3281168084,1.64042,0,0,0,0,0,8.239,1.3123688084,1.312336,0,0,0,0,0,287.3, -2.1, -0.1,0,0,1024,1024,1024,1024,0,0,0,0,292.5,0,0,85,4.126,4.114,0,0,0,0,4.221,100.58,0.3281168084,0.328084,6,P-GPS,
142400,2022-08-16 04:26:33,0,0,0.328084,,,0.3281168084,1.64042,0,0,0,0,0,8.239,1.3123688084,1.312336,0,0,0,0,0,287.3, -1.5, -0.1,0,0,1024,1024,1024,1339,0,0,0,48,292.5,0,0,85,4.126,4.114,0,0,0,0,4.221,100.58,0.3281168084,0.328084,6,P-GPS,
142500,2022-08-16 04:26:34,0,0,0.328084,,,0.3281168084,1.64042,0,0,0,0,0,8.24,1.3123688084,1.312336,0,0,0,0,0,287.4, -1, 0,0,0,1024,1024,1024,1619,0,0,0,90,292.7,0,0,85,4.121,4.106,0,0,0,0,4.223,100.58,0.3281168084,0.328084,6,P-GPS,
142600,2022-08-16 04:26:34,0,0,0.328084,,,0.3281168084,1.64042,0,0,0,0,0,8.24,1.3123688084,1.312336,0,0,0,0,0,288.2, -1.1, -0.1,0,0,1024,1024,1024,1313,0,0,0,44,294.8,0,0,85,4.121,4.106,0,0,0,0,4.223,100.58,0.3281168084,0.328084,6,P-GPS,
142700,2022-08-16 04:26:34,0,0,0.328084,,,0.3281168084,1.64042,0,0,0,0,0,8.24,1.3123688084,1.312336,0,0,0,0,0,291.1, -0.7, -0.3,0,0,1024,1024,1024,1024,0,0,0,0,298,0,0,85,4.121,4.106,0,0,0,0,4.223,100.58,0.3281168084,0.328084,6,P-GPS,
142800,2022-08-16 04:26:34,0,0,0.328084,,,0.3281168084,1.64042,0,0,0,0,0,8.24,1.3123688084,1.312336,0,0,0,0,0,293.7, 0, 0,0,0,1024,1024,1024,1049,0,0,0,4,299.5,0,0,85,4.121,4.106,0,0,0,0,4.223,100.58,0.3281168084,0.328084,6,P-GPS,
142900,2022-08-16 04:26:34,0,0,0.328084,,,0.3281168084,1.64042,0,0,0,0,0,8.24,1.3123688084,1.312336,0,0,0,0,0,294.6, 0.2, 0,0,0,1024,1024,1024,1024,0,0,0,0,300.1,0,0,85,4.121,4.106,0,0,0,0,4.223,100.58,0.3281168084,0.328084,6,P-GPS,
143000,2022-08-16 04:26:34,0,0,0.328084,,,0.3281168084,1.64042,0,0,0,0,0,8.24,1.3123688084,1.312336,0,0,0,0,0,295.1, 0.2, -0.1,0,0,1024,1024,1024,1024,0,0,0,0,300.2,0,0,85,4.121,4.106,0,0,0,0,4.223,100.58,0.3281168084,0.328084,6,P-GPS,
143100,2022-08-16 04:26:34,0,0,0.328084,,,0.3281168084,1.64042,0,0,0,0,0,8.24,1.3123688084,1.312336,0,0,0,0,0,295.2, 0.3, 0,0,0,1024,1024,1024,1024,0,0,0,0,300.2,0,0,85,4.121,4.106,0,0,0,0,4.223,100.58,0.3281168084,0.328084,6,P-GPS,
143200,2022-08-16 04:26:34,0,0,0.328084,,,0.3281168084,1.64042,0,0,0,0,0,8.24,1.3123688084,1.312336,0,0,0,0,0,295.2, 0.1, 0.1,0,0,1024,1024,1024,1024,0,0,0,0,300.2,0,0,85,4.121,4.106,0,0,0,0,4.223,100.58,0.3281168084,0.328084,6,P-GPS,
143300,2022-08-16 04:26:34,0,0,0.328084,,,0.3281168084,1.64042,0,0,0,0,0,8.24,1.3123688084,1.312336,0,0,0,0,0,295.2, 0.1, 0.1,0,0,1024,1024,1024,1024,0,0,0,0,300.2,0,0,85,4.121,4.106,0,0,0,0,4.223,100.58,0.3281168084,0.328084,6,P-GPS,
143400,2022-08-16 04:26:34,0,0,0.328084,,,0.3281168084,1.64042,0,0,0,0,0,8.24,1.3123688084,1.312336,0,0,0,0,0,295.2, 0.1, 0,0,0,1024,1024,1024,1024,0,0,0,0,300.2,0,0,85,4.121,4.106,0,0,0,0,4.223,100.58,0.3281168084,0.328084,6,P-GPS,
143500,2022-08-16 04:26:35,0,0,0.328084,,,0.3281168084,1.64042,0,0,0,0,0,8.234,1.3123688084,1.312336,0,0,0,0,0,295.2, 0, 0.1,0,0,1024,1024,1024,1402,0,0,0,57,300.2,0,0,85,4.124,4.109,0,0,0,0,4.3,100.58,0.3281168084,0.328084,6,P-GPS,
143600,2022-08-16 04:26:35,0,0,0.328084,,,0.3281168084,1.64042,0,0,0,0,0,8.234,1.3123688084,1.312336,0,0,0,0,0,295.2, 0.1, 0.2,0,0,1024,1024,1024,1684,0,0,0,100,300.4,0,0,85,4.124,4.109,0,0,0,0,4.3,100.58,0.3281168084,0.328084,6,P-GPS,
143700,2022-08-16 04:26:35,0,0,0.328084,,,0.3281168084,1.64042,0,0,0,0,0,8.234,1.3123688084,1.312336,0,0,0,0,0,295.9, 0.3, 0.1,0,0,1024,1024,1024,1476,0,0,0,68,302.2,0,0,85,4.124,4.109,0,0,0,0,4.3,100.58,0.3281168084,0.328084,6,P-GPS,
143800,2022-08-16 04:26:35,0,0,0.328084,,,0.3281168084,1.64042,0,0,0,0,0,8.234,1.3123688084,1.312336,0,0,0,0,0,298.8, 0.5, 0,0,0,1024,1024,1024,1047,0,0,0,3,306.2,0,0,85,4.124,4.109,0,0,0,0,4.3,100.58,0.3281168084,0.328084,6,P-GPS,
143900,2022-08-16 04:26:35,0,0,0.328084,,,0.3281168084,1.64042,0,0,0,0,0,8.234,1.3123688084,1.312336,0,0,0,0,0,302.8, 0.4, 0.2,0,0,1024,1024,1024,1473,0,0,0,68,309.3,0,0,85,4.124,4.109,0,0,0,0,4.3,100.58,0.3281168084,0.328084,6,P-GPS,
144000,2022-08-16 04:26:35,0,0,0.328084,,,0.3281168084,1.64042,0,0,0,0,0,8.234,1.3123688084,1.312336,0,0,0,0,0,304.5, 0.4, 0.3,0,0,1024,1024,1024,1684,0,0,0,100,310,0,0,85,4.124,4.109,0,0,0,0,4.3,100.58,0.3281168084,0.328084,6,P-GPS,
144100,2022-08-16 04:26:35,0,0,0.328084,,,0.3281168084,1.64042,0,0,0,0,0,8.234,1.3123688084,1.312336,0,0,0,0,0,305, 0.4, -0.1,0,0,1024,1024,1024,1684,0,0,0,100,311.1,0,0,85,4.124,4.109,0,0,0,0,4.3,100.58,0.3281168084,0.328084,6,P-GPS,
144200,2022-08-16 04:26:35,0,0,0.328084,,,0.3281168084,1.64042,0,0,0,0,0,8.234,1.3123688084,1.312336,0,0,0,0,0,307.2, 0.2, -0.5,0,0,1024,1024,1024,1684,0,0,0,100,314.7,0,0,85,4.124,4.109,0,0,0,0,4.3,100.58,0.3281168084,0.328084,6,P-GPS,
144300,2022-08-16 04:26:35,0,0,0.328084,,,0.3281168084,1.64042,0,0,0,0,0,8.234,1.3123688084,1.312336,0,0,0,0,0,311.4, 0.1, -0.4,0,0,1024,1024,1024,1543,0,0,0,79,319.4,0,0,84,4.124,4.109,0,0,0,0,4.3,100.58,0.3281168084,0.328084,6,P-GPS,
144400,2022-08-16 04:26:36,0,0,0.328084,,,0.3281168084,1.64042,0,0,0,0,0,8.234,1.3123688084,1.312336,0,0,0,0,0,316, 0.2, -0.1,0,0,1024,1024,1024,1313,0,0,0,44,323.9,0,0,84,4.124,4.109,0,0,0,0,4.3,100.58,0.3281168084,0.328084,6,P-GPS,
144500,2022-08-16 04:26:36,0,0,0.328084,,,0.3281168084,1.64042,0,0,0,0,0,8.231,1.3123688084,1.312336,0,0,0,0,0,319.9, 0.5, 0.1,0,0,1024,1024,1024,1684,0,0,0,100,326.6,0,0,84,4.123,4.108,0,0,0,0,4.216,100.58,0.3281168084,0.328084,6,P-GPS,
144600,2022-08-16 04:26:36,0,0,0.328084,,,0.3281168084,1.64042,0,0,0,0,0,8.231,1.3123688084,1.312336,0,0,0,0,0,321.9, 0.5, 0.2,0,0,1024,1024,1024,1684,0,0,0,100,328.2,0,0,84,4.123,4.108,0,0,0,0,4.216,100.58,0.3281168084,0.328084,6,P-GPS,
144700,2022-08-16 04:26:36,0,0,0.328084,,,0.3281168084,1.64042,0,0,0,0,0,8.231,1.3123688084,1.312336,0,0,0,0,0,324.2, 0.5, 0.1,0,0,1024,1024,1024,1590,0,0,0,86,331.7,0,0,84,4.123,4.108,0,0,0,0,4.216,100.58,0.3281168084,0.328084,6,P-GPS,
144800,2022-08-16 04:26:36,0,0,0.328084,,,0.3281168084,1.64042,0,0,0,0,0,8.231,1.3123688084,1.312336,0,0,0,0,0,328.4, 0.4, 0.1,0,0,1024,1024,1024,1253,0,0,0,35,336.4,0,0,84,4.123,4.108,0,0,0,0,4.216,100.58,0.3281168084,0.328084,6,P-GPS,
144900,2022-08-16 04:26:36,0,0,0.328084,,,0.3281168084,1.64042,0,0,0,0,0,8.231,1.3123688084,1.312336,0,0,0,0,0,333, 0.7, 0.4,0,0,1024,1024,1024,1684,0,0,0,100,340.4,0,0,84,4.123,4.108,0,0,0,0,4.216,100.58,0.3281168084,0.328084,6,P-GPS,
145000,2022-08-16 04:26:36,0,0,0.328084,,,0.3281168084,1.64042,0,0,0,0,0,8.231,1.3123688084,1.312336,0,0,0,0,0,335.9, 0.5, 0.4,0,0,1024,1024,1024,1684,0,0,0,100,342.1,0,0,84,4.123,4.108,0,0,0,0,4.216,100.58,0.3281168084,0.328084,6,P-GPS,
145100,2022-08-16 04:26:36,0,0,0.328084,,,0.3281168084,1.64042,0,0,0,0,0,8.231,1.3123688084,1.312336,0,0,0,0,0,337.7, 0.3, -0.1,0,0,1024,1024,1024,1684,0,0,0,100,345,0,0,84,4.123,4.108,0,0,0,0,4.216,100.58,0.3281168084,0.328084,6,P-GPS,
145200,2022-08-16 04:26:36,0,0,0.328084,,,0.3281168084,1.64042,0,0,0,0,0,8.231,1.3123688084,1.312336,0,0,0,0,0,341.5, 0.1, -0.3,0,0,1024,1024,1024,1486,0,0,0,70,349.5,0,0,84,4.123,4.108,0,0,0,0,4.216,100.58,0.3281168084,0.328084,6,P-GPS,
145300,2022-08-16 04:26:36,0,0,0.328084,,,0.3281168084,1.64042,0,0,0,0,0,8.231,1.3123688084,1.312336,0,0,0,0,0,346.1, 0.1, -0.1,0,0,1024,1024,1024,1195,0,0,0,26,354,0,0,84,4.123,4.108,0,0,0,0,4.216,100.58,0.3281168084,0.328084,6,P-GPS,
145400,2022-08-16 04:26:37,0,0,0.328084,,,0.3281168084,1.64042,0,0,0,0,0,8.231,1.3123688084,1.312336,0,0,0,0,0,349.7, 0.3, 0,0,0,1024,1024,1024,1248,0,0,0,34,356.2,0,0,84,4.123,4.108,0,0,0,0,4.216,100.58,0.3281168084,0.328084,6,P-GPS,
145500,2022-08-16 04:26:37,0,0,0.328084,,,0.3281168084,1.64042,0,0,0,0,0,8.229,1.3123688084,1.312336,0,0,0,0,0,351, 0.3, -0.4,0,0,1024,1024,1024,1637,0,0,0,93,356.9,0,0,84,4.12,4.106,0,0,0,0,4.206,100.76,0.3281168084,0.328084,6,P-GPS,
145600,2022-08-16 04:26:37,0,0,0.328084,,,0.3281168084,1.64042,0,0,0,0,0,8.229,1.3123688084,1.312336,0,0,0,0,0,351.7, 0.7, -0.6,0,0,1024,1024,1024,1145,0,0,0,18,358.1,0,0,84,4.12,4.106,0,0,0,0,4.206,100.76,0.3281168084,0.328084,6,P-GPS,
145700,2022-08-16 04:26:37,0,0,0.328084,,,0.3281168084,1.64042,0,0,0,0,0,8.229,1.3123688084,1.312336,0,0,0,0,0,353.9, 0.9, -0.3,0,0,1024,1024,1024,1024,0,0,0,0,1.2,0,0,84,4.12,4.106,0,0,0,0,4.206,100.76,0.3281168084,0.328084,6,P-GPS,
145800,2022-08-16 04:26:37,0,0,0.328084,,,0.3281168084,1.64042,0,0,0,0,0,8.229,1.3123688084,1.312336,0,0,0,0,0,357.2, 1.1, 0.1,0,0,1024,1024,1024,1024,0,0,0,0,3.5,0,0,84,4.12,4.106,0,0,0,0,4.206,100.76,0.3281168084,0.328084,6,P-GPS,
145900,2022-08-16 04:26:37,0,0,0.328084,,,0.3281168084,1.64042,0,0,0,0,0,8.229,1.3123688084,1.312336,0,0,0,0,0,358.8, 0.8, 0.1,0,0,1024,1024,1024,1489,0,0,0,70,4.5,0,0,84,4.12,4.106,0,0,0,0,4.206,100.76,0.3281168084,0.328084,6,P-GPS,
146000,2022-08-16 04:26:37,0,0,0.328084,,,0.3281168084,1.64042,0,0,0,0,0,8.229,1.3123688084,1.312336,0,0,0,0,0,359.5, 0.8, -0.3,0,0,1024,1024,1024,1632,0,0,0,92,5.4,0,0,84,4.12,4.106,0,0,0,0,4.206,100.76,0.3281168084,0.328084,6,P-GPS,
146100,2022-08-16 04:26:37,0,0,0.328084,,,0.3281168084,1.64042,0,0,0,0,0,8.229,1.3123688084,1.312336,0,0,0,0,0,1.1, 0.3, -0.7,0,0,1024,1024,1024,1238,0,0,0,32,8.3,0,0,84,4.12,4.106,0,0,0,0,4.206,100.76,0.3281168084,0.328084,6,P-GPS,
146200,2022-08-16 04:26:37,0,0,0.328084,,,0.3281168084,1.64042,0,0,0,0,0,8.229,1.3123688084,1.312336,0,0,0,0,0,4.6, 0.5, -0.1,0,0,1048,1024,1024,1024,4,0,0,0,11.6,0,0,84,4.12,4.106,0,0,0,0,4.206,100.76,0.3281168084,0.328084,6,P-GPS,
146300,2022-08-16 04:26:37,0,0,0.328084,,,0.3281168084,1.64042,0,0,0,0,0,8.229,1.3123688084,1.312336,0,0,0,0,0,7, 0.7, 0.3,0,0,1420,1024,1024,1024,60,0,0,0,13,0,0,84,4.12,4.106,0,0,0,0,4.206,100.76,0.3281168084,0.328084,6,P-GPS,
146400,2022-08-16 04:26:37,0,0,0.328084,,,0.3281168084,1.64042,0,0,0,0,0,8.229,1.3123688084,1.312336,0,0,0,0,0,8, -0.3, 0,0,0,1456,1024,1024,1024,65,0,0,0,13.6,0,0,84,4.12,4.106,0,0,0,0,4.206,100.76,0.3281168084,0.328084,6,P-GPS,
146500,2022-08-16 04:26:38,0,0,0.328084,,,0.3281168084,1.64042,0,0,0,0,0,8.225,1.3123688084,1.312336,0,0,0,0,0,8.4, -7, 0,0,0,1257,1024,1024,1024,35,0,0,0,13.6,0,0,84,4.118,4.105,0,0,0,0,4.195,100.76,0.3281168084,0.328084,6,P-GPS,
146600,2022-08-16 04:26:38,0,0,0.328084,,,0.3281168084,1.64042,0.447388,0,0,0,0,8.225,1.3123688084,1.312336,0,0,0.447388,0,0,8.4, -10.9, 0.3,0,0,1141,1024,1024,1024,18,0,0,0,13.6,0,0,84,4.118,4.105,0,0,0,0,4.195,100.76,0.3281168084,0.328084,6,P-GPS,
146700,2022-08-16 04:26:38,0,0,0.328084,,,0.3281168084,1.64042,0.671082,0,0,0,0,8.225,1.3123688084,1.312336,0,0,0.671082,0,0,8.4, -9, 0.7,0,0,1141,1024,1024,1024,18,0,0,0,13.6,0,0,84,4.118,4.105,0,0,0,0,4.195,100.76,0.3281168084,0.328084,6,P-GPS,
146800,2022-08-16 04:26:38,0,0,0.328084,,,0.3281168084,1.64042,1.11847,0,0,0,0,8.225,1.3123688084,1.312336,0,0,1.11847,0,0,8.5, -3.3, 0.7,0,0,1046,1024,1024,1024,3,0,0,0,13.6,0,0,84,4.118,4.105,0,0,0,0,4.195,100.76,0.3281168084,0.328084,6,P-GPS,
146900,2022-08-16 04:26:38,0,0,0.328084,,,0.3281168084,1.64042,1.11847,0,0,0,0,8.225,1.3123688084,1.312336,0,0,1.11847,0,0,8.6, 0.6, 0.7,0,0,1024,1024,1024,1024,0,0,0,0,13.6,0,0,84,4.118,4.105,0,0,0,0,4.195,100.76,0.3281168084,0.328084,6,P-GPS,
147000,2022-08-16 04:26:38,0,0,0.328084,,,0.3281168084,1.64042,0.9171454,0,0,0,0,8.225,1.3123688084,1.312336,0,0,0.894776,0.223694,0,8.6, 5, 0.1,0,0,1024,1024,1024,1024,0,0,0,0,13.6,0,0,84,4.118,4.105,0,0,0,0,4.195,100.76,0.3281168084,0.328084,6,P-GPS,
147100,2022-08-16 04:26:38,0,0,0.328084,,,0.3281168084,1.64042,0.894776,0,0,0,0,8.225,1.3123688084,1.312336,0,0,0.894776,0,0,8.6, 5.3, -0.4,0,0,1024,1024,1024,1024,0,0,0,0,13.6,0,0,84,4.118,4.105,0,0,0,0,4.195,100.76,0.3281168084,0.328084,6,P-GPS,
147200,2022-08-16 04:26:38,0,0,0.328084,,,0.3281168084,1.64042,0.671082,0,0,0,0,8.225,1.3123688084,1.312336,0,0,0.671082,0,0,8.6, 4.6, -0.3,0,0,1024,1024,1024,1024,0,0,0,0,13.6,0,0,84,4.118,4.105,0,0,0,0,4.195,100.76,0.3281168084,0.328084,6,P-GPS,
147300,2022-08-16 04:26:38,0,0,0.328084,,,0.3281168084,1.64042,0.447388,0,0,0,0,8.225,1.3123688084,1.312336,0,0,0.447388,0,0,8.6, 4, -0.2,0,0,1024,1024,1024,1024,0,0,0,0,13.6,0,0,84,4.118,4.105,0,0,0,0,4.195,100.76,0.3281168084,0.328084,6,P-GPS,
147400,2022-08-16 04:26:38,0,0,0.328084,,,0.3281168084,1.64042,0.223694,0,0,0,0,8.225,1.3123688084,1.312336,0,0,0.223694,0,0,8.6, 3.3, 0,0,0,1024,1024,1024,1024,0,0,0,0,13.6,0,0,84,4.118,4.105,0,0,0,0,4.195,100.76,0.3281168084,0.328084,6,P-GPS,
147500,2022-08-16 04:26:39,0,0,0.328084,,,0.3281168084,1.64042,0.223694,0,0,0,0,8.225,1.3123688084,1.312336,0,0,0.223694,0,0,8.6, 2.5, 0,0,0,1024,1024,1130,1024,0,0,16,0,13.6,0,0,84,4.118,4.105,0,0,0,0,4.195,100.76,0.3281168084,0.328084,6,P-GPS,
147600,2022-08-16 04:26:39,0,0,0.656168,,,0.6562008084,1.64042,0,0,0,0,0,8.22,1.3123688084,1.312336,0,0,0,0,0,8.6, 1.9, 0,0,0,1024,1024,1228,1024,0,0,31,0,13.6,0,0,84,4.115,4.102,0,0,0,0,4.233,100.76,0.6562008084,0.656168,6,P-GPS,
147700,2022-08-16 04:26:39,0,0,0.656168,,,0.6562008084,1.64042,0,0,0,0,0,8.22,1.3123688084,1.312336,0,0,0,0,0,8.6, 1.4, 0.1,0,0,1024,1024,1228,1024,0,0,31,0,13.6,0,0,84,4.115,4.102,0,0,0,0,4.233,100.76,0.6562008084,0.656168,6,P-GPS,
147800,2022-08-16 04:26:39,0,0,0.656168,,,0.6562008084,1.64042,0,0,0,0,0,8.22,1.3123688084,1.312336,0,0,0,0,-0.223694,8.6, 1.4, 0.1,0,0,1024,1024,1218,1024,0,0,29,0,13.6,0,0,84,4.115,4.102,0,0,0,0,4.233,100.76,0.6562008084,0.656168,6,P-GPS,
147900,2022-08-16 04:26:39,0,0,0.656168,,,0.6562008084,1.968504,0,0,0,0,0,8.22,1.3123688084,1.312336,0,0,0,0,-0.671082,8.6, 1.1, 0,0,0,1024,1024,1185,1024,0,0,24,0,13.6,0,0,84,4.115,4.102,0,0,0,0,4.233,100.76,0.6562008084,0.656168,6,P-GPS,
148000,2022-08-16 04:26:39,0,0,0.656168,,,0.6562008084,1.968504,0,0,0,0,0,8.22,1.3123688084,1.312336,0,0,0,0,-0.671082,8.6, 1.1, -0.1,0,0,1024,1024,1162,1024,0,0,21,0,13.6,0,0,84,4.115,4.102,0,0,0,0,4.233,100.76,0.6562008084,0.656168,6,P-GPS,
148100,2022-08-16 04:26:39,0,0,0.984252,,,0.9842848084,1.968504,0,0,0,0,0,8.22,1.3123688084,1.312336,0,0,0,0,-0.671082,8.7, 0.9, -0.2,0,0,1024,1024,1141,1024,0,0,18,0,13.6,0,0,84,4.115,4.102,0,0,0,0,4.233,100.76,0.9842848084,0.984252,6,P-GPS,
148200,2022-08-16 04:26:39,0,0,0.984252,,,0.9842848084,2.296588,0,0,0,0,0,8.22,1.3123688084,1.312336,0,0,0,0,-0.671082,8.6, 0.8, -0.4,0,0,1024,1024,1024,1024,0,0,0,0,13.6,0,0,84,4.115,4.102,0,0,0,0,4.233,100.76,0.9842848084,0.984252,6,P-GPS,
148300,2022-08-16 04:26:39,0,0,0.984252,,,0.9842848084,2.296588,0,0,0,0,0,8.22,1.3123688084,1.312336,0,0,0,0,-0.447388,8.6, 0.8, -0.4,0,0,1024,1024,1024,1024,0,0,0,0,13.6,0,0,84,4.115,4.102,0,0,0,0,4.233,100.76,0.9842848084,0.984252,6,P-GPS,
148400,2022-08-16 04:26:40,0,0,1.312336,,,1.3123688084,2.296588,0,0,0,0,0,8.22,1.3123688084,1.312336,0,0,0,0,-0.223694,8.6, 0.8, -0.2,0,0,1024,1024,1024,1024,0,0,0,0,13.6,0,0,84,4.115,4.102,0,0,0,0,4.233,100.76,1.3123688084,1.312336,6,P-GPS,
148500,2022-08-16 04:26:40,0,0,1.312336,,,1.3123688084,2.296588,0,0,0,0,0,8.22,1.3123688084,1.312336,0,0,0,0,0,8.6, 0.7, -0.3,0,0,1024,1024,1024,1024,0,0,0,0,13.6,0,0,84,4.115,4.102,0,0,0,0,4.233,100.76,1.3123688084,1.312336,6,P-GPS,
148600,2022-08-16 04:26:40,0,0,1.312336,,,1.3123688084,2.296588,0,0,0,0,0,8.218,1.3123688084,1.312336,0,0,0,0,0,8.6, 0.6, -0.7,0,0,1024,1024,1024,1024,0,0,0,0,13.6,0,0,84,4.112,4.099,0,0,0,0,4.28,100.76,1.3123688084,1.312336,6,P-GPS,
148700,2022-08-16 04:26:40,0,0,1.312336,,,1.3123688084,2.296588,0,0,0,0,0,8.218,1.3123688084,1.312336,0,0,0,0,0,8.6, 0.8, -0.7,0,0,1079,1024,1024,1024,8,0,0,0,13.6,0,0,84,4.112,4.099,0,0,0,0,4.28,100.76,1.3123688084,1.312336,6,P-GPS,
148800,2022-08-16 04:26:40,0,0,1.312336,,,1.3123688084,2.296588,0,0,0,0,0,8.218,1.3123688084,1.312336,0,0,0,0,0,8.5, 0.5, -0.3,0,0,1084,1024,1024,1024,9,0,0,0,13.6,0,0,84,4.112,4.099,0,0,0,0,4.28,100.76,1.3123688084,1.312336,6,P-GPS,
148900,2022-08-16 04:26:40,0,0,1.312336,,,1.3123688084,2.296588,0,0,0,0,0,8.218,1.3123688084,1.312336,0,0,0,0,0,8.6, 0, 0.2,0,0,1050,1024,1024,1024,4,0,0,0,13.6,0,0,84,4.112,4.099,0,0,0,0,4.28,100.76,1.3123688084,1.312336,6,P-GPS,
149000,2022-08-16 04:26:40,0,0,1.312336,,,1.3123688084,2.296588,0,0,0,0,0,8.218,1.3123688084,1.312336,0,0,0,0,0,8.6, 0, 0.4,0,0,1049,1024,1024,1024,4,0,0,0,13.6,0,0,84,4.112,4.099,0,0,0,0,4.28,100.76,1.3123688084,1.312336,6,P-GPS,
149100,2022-08-16 04:26:40,0,0,1.312336,,,1.3123688084,2.296588,0,0,0,0,0,8.218,1.3123688084,1.312336,0,0,0,0,0,8.6, 0.2, 0.4,0,0,1051,1024,1124,1024,4,0,15,0,13.6,0,0,84,4.112,4.099,0,0,0,0,4.28,100.76,1.3123688084,1.312336,6,P-GPS,
149200,2022-08-16 04:26:40,0,0,1.312336,,,1.3123688084,2.296588,0,0,0,0,0,8.218,1.3123688084,1.312336,0,0,0,0,0,8.5, 0.4, 0.3,0,0,1048,1024,1158,1024,4,0,20,0,13.6,0,0,84,4.112,4.099,0,0,0,0,4.28,100.76,1.3123688084,1.312336,6,P-GPS,
149300,2022-08-16 04:26:40,0,0,1.64042,,,1.6404528084,2.296588,0,0,0,0,0,8.218,1.6404528084,1.64042,0,0,0,0,0,8.6, 0.5, 0.2,0,0,1048,1024,1134,1024,4,0,17,0,13.6,0,0,84,4.112,4.099,0,0,0,0,4.28,100.76,1.6404528084,1.64042,6,P-GPS,
149400,2022-08-16 04:26:41,0,0,1.64042,,,1.6404528084,2.296588,0,0,0,0,0,8.218,1.6404528084,1.64042,0,0,0,0,-0.223694,8.6, 0.3, 0,0,0,1048,1024,1134,1024,4,0,17,0,13.6,0,0,84,4.112,4.099,0,0,0,0,4.28,100.76,1.6404528084,1.64042,6,P-GPS,
149500,2022-08-16 04:26:41,0,0,1.64042,,,1.6404528084,2.624672,0,0,0,0,0,8.229,1.6404528084,1.64042,0,0,0,0,-0.223694,8.6, 0.3, 0,0,0,1049,1024,1124,1024,4,0,15,0,13.6,0,0,84,4.115,4.102,0,0,0,0,4.317,100.76,1.6404528084,1.64042,6,P-GPS,
149600,2022-08-16 04:26:41,0,0,1.64042,,,1.6404528084,2.624672,0,0,0,0,0,8.229,1.6404528084,1.64042,0,0,0,0,-0.223694,8.5, 0.1, 0,0,0,1048,1024,1111,1024,4,0,13,0,13.6,0,0,84,4.115,4.102,0,0,0,0,4.317,100.76,1.6404528084,1.64042,6,P-GPS,
149700,2022-08-16 04:26:41,0,0,1.968504,,,1.9685368084,2.624672,0,0,0,0,0,8.229,1.9685368084,1.968504,0,0,0,0,-0.223694,8.6, 0, 0.1,0,0,1048,1024,1105,1024,4,0,12,0,13.6,0,0,84,4.115,4.102,0,0,0,0,4.317,100.76,1.9685368084,1.968504,6,P-GPS,
149800,2022-08-16 04:26:41,0,0,1.968504,,,1.9685368084,2.624672,0,0,0,0,0,8.229,1.9685368084,1.968504,0,0,0,0,-0.223694,8.5, 0.1, 0,0,0,1049,1024,1102,1024,4,0,12,0,13.6,0,0,84,4.115,4.102,0,0,0,0,4.317,100.76,1.9685368084,1.968504,6,P-GPS,
149900,2022-08-16 04:26:41,0,0,1.968504,,,1.9685368084,2.624672,0,0,0,0,0,8.229,1.9685368084,1.968504,0,0,0,0,-0.223694,8.5, 0.4, 0.1,0,0,1052,1024,1079,1024,4,0,8,0,13.6,0,0,84,4.115,4.102,0,0,0,0,4.317,100.76,1.9685368084,1.968504,6,P-GPS,
150000,2022-08-16 04:26:41,0,0,1.968504,,,1.9685368084,2.624672,0,0,0,0,0,8.229,1.9685368084,1.968504,0,0,0,0,-0.223694,8.6, 0.3, 0.2,0,0,1057,1024,1024,1024,5,0,0,0,13.6,0,0,84,4.115,4.102,0,0,0,0,4.317,100.76,1.9685368084,1.968504,6,P-GPS,
150100,2022-08-16 04:26:41,0,0,1.968504,,,1.9685368084,2.624672,0,0,0,0,0,8.229,1.9685368084,1.968504,0,0,0,0,0,8.5, 0.2, 0.3,0,0,1057,1024,1024,1024,5,0,0,0,13.6,0,0,84,4.115,4.102,0,0,0,0,4.317,100.76,1.9685368084,1.968504,6,P-GPS,
150200,2022-08-16 04:26:41,0,0,1.968504,,,1.9685368084,2.624672,0,0,0,0,0,8.229,1.9685368084,1.968504,0,0,0,0,0,8.5, 0.4, 0.1,0,0,1056,1024,1024,1024,5,0,0,0,13.6,0,0,84,4.115,4.102,0,0,0,0,4.317,100.76,1.9685368084,1.968504,6,P-GPS,
150300,2022-08-16 04:26:41,0,0,1.968504,,,1.9685368084,2.624672,0,0,0,0,0,8.229,1.9685368084,1.968504,0,0,0,0,0,8.6, 0.2, 0,0,0,1056,1024,1024,1024,5,0,0,0,13.6,0,0,84,4.115,4.102,0,0,0,0,4.317,100.76,1.9685368084,1.968504,6,P-GPS,
150400,2022-08-16 04:26:41,0,0,1.968504,,,1.9685368084,2.952756,0,0,0,0,0,8.229,1.9685368084,1.968504,0,0,0,0,0,8.6, 0, 0,0,0,1056,1024,1024,1024,5,0,0,0,13.6,0,0,84,4.115,4.102,0,0,0,0,4.317,100.76,1.9685368084,1.968504,6,P-GPS,
150500,2022-08-16 04:26:42,0,0,2.296588,,,2.2966208084,2.952756,0,0,0,0,0,8.213,2.2966208084,2.296588,0,0,0,0,0,8.6, 0.3, 0,0,0,1057,1024,1024,1024,5,0,0,0,13.6,0,0,84,4.113,4.1,0,0,0,0,4.298,100.94,2.2966208084,2.296588,6,P-GPS,
150600,2022-08-16 04:26:42,0,0,2.296588,,,2.2966208084,2.952756,0,0,0,0,0,8.213,2.2966208084,2.296588,0,0,0,0,0,8.6, 0.2, 0.3,0,0,1062,1024,1024,1024,6,0,0,0,13.6,0,0,84,4.113,4.1,0,0,0,0,4.298,100.94,2.2966208084,2.296588,6,P-GPS,
150700,2022-08-16 04:26:42,0,0,2.296588,,,2.2966208084,2.952756,0,0,0,0,0,8.213,2.2966208084,2.296588,0,0,0,0,0,8.6, 0.4, 0.3,0,0,1075,1024,1024,1024,8,0,0,0,13.6,0,0,84,4.113,4.1,0,0,0,0,4.298,100.94,2.2966208084,2.296588,6,P-GPS,
150800,2022-08-16 04:26:42,0,0,2.296588,,,2.2966208084,2.952756,0,0,0,0,0,8.213,2.2966208084,2.296588,0,0,0,0,0,8.6, 0.3, 0.3,0,0,1078,1024,1024,1024,8,0,0,0,13.6,0,0,84,4.113,4.1,0,0,0,0,4.298,100.94,2.2966208084,2.296588,6,P-GPS,
150900,2022-08-16 04:26:42,0,0,2.296588,,,2.2966208084,2.624672,0,0,0,0,0,8.213,2.2966208084,2.296588,0,0,0,0,0,8.7, 0, 0.6,0,0,1089,1024,1024,1024,10,0,0,0,13.6,0,0,84,4.113,4.1,0,0,0,0,4.298,100.94,2.2966208084,2.296588,6,P-GPS,
151000,2022-08-16 04:26:42,0,0,2.296588,,,2.2966208084,2.624672,0,0,0,0,0,8.213,2.2966208084,2.296588,0,0,0,0,0,8.6, -0.2, 0.3,0,0,1090,1024,1024,1024,10,0,0,0,13.6,0,0,84,4.113,4.1,0,0,0,0,4.298,100.94,2.2966208084,2.296588,6,P-GPS,
151100,2022-08-16 04:26:42,0,0,2.296588,,,2.2966208084,2.624672,0,0,0,0,0,8.213,2.2966208084,2.296588,0,0,0,0,0,8.6, -0.2, 0.4,0,0,1088,1024,1024,1024,10,0,0,0,13.6,0,0,84,4.113,4.1,0,0,0,0,4.298,100.94,2.2966208084,2.296588,6,P-GPS,
151200,2022-08-16 04:26:42,0,0,2.296588,,,2.2966208084,2.624672,0,0,0,0,0,8.213,2.2966208084,2.296588,0,0,0,0,0,8.6, -0.2, 0.2,0,0,1088,1024,1024,1024,10,0,0,0,13.6,0,0,84,4.113,4.1,0,0,0,0,4.298,100.94,2.2966208084,2.296588,6,P-GPS,
151300,2022-08-16 04:26:42,0,0,2.296588,,,2.2966208084,2.624672,0,0,0,0,0,8.213,2.2966208084,2.296588,0,0,0,0,0,8.6, -0.4, 0.1,0,0,1074,1024,1024,1024,8,0,0,0,13.6,0,0,84,4.113,4.1,0,0,0,0,4.298,100.94,2.2966208084,2.296588,6,P-GPS,
151400,2022-08-16 04:26:42,0,0,2.296588,,,2.2966208084,2.624672,0,0,0,0,0,8.213,2.2966208084,2.296588,0,0,0,0,0,8.5, -0.3, 0,0,0,1066,1024,1024,1093,6,0,0,10,13.6,0,0,84,4.113,4.1,0,0,0,0,4.298,100.94,2.2966208084,2.296588,6,P-GPS,
151500,2022-08-16 04:26:43,0,0,2.296588,,,2.2966208084,2.624672,0.223694,0,0,0,0,8.212,2.2966208084,2.296588,0,0,0.223694,0,0,8.6, 0.1, 0.1,0,0,1049,1024,1024,1117,4,0,0,14,13.7,0,0,84,4.111,4.097,0,0,0,0,4.142,100.94,2.2966208084,2.296588,6,P-GPS,
151600,2022-08-16 04:26:43,0,0,2.296588,,,2.2966208084,2.624672,0.223694,0,0,0,0,8.212,2.2966208084,2.296588,0,0,0.223694,0,0,8.6, 0.2, 0,0,0,1024,1024,1024,1118,0,0,0,14,13.7,0,0,84,4.111,4.097,0,0,0,0,4.142,100.94,2.2966208084,2.296588,6,P-GPS,
151700,2022-08-16 04:26:43,0,0,2.296588,,,2.2966208084,2.624672,0.223694,0,0,0,0,8.212,2.2966208084,2.296588,0,0,0.223694,0,0,8.7, 0.6, -0.3,0,0,1024,1024,1024,1118,0,0,0,14,13.9,0,0,84,4.111,4.097,0,0,0,0,4.142,100.94,2.2966208084,2.296588,6,P-GPS,
151800,2022-08-16 04:26:43,0,0,2.296588,,,2.2966208084,2.624672,0.223694,0,0,0,0,8.212,2.2966208084,2.296588,0,0,0.223694,0,0,8.8, 1.1, -0.1,0,0,1024,1024,1024,1119,0,0,0,14,14,0,0,84,4.111,4.097,0,0,0,0,4.142,100.94,2.2966208084,2.296588,6,P-GPS,
151900,2022-08-16 04:26:43,0,0,2.296588,,,2.2966208084,2.952756,0,0,0,0,0,8.212,2.2966208084,2.296588,0,0,0,0,0,9, 1.4, 0,0,0,1024,1024,1024,1219,0,0,0,30,14.2,0,0,84,4.111,4.097,0,0,0,0,4.142,100.94,2.2966208084,2.296588,6,P-GPS,
152000,2022-08-16 04:26:43,0,0,2.296588,,,2.2966208084,2.952756,0,0,0,0,0,8.212,2.2966208084,2.296588,0,0,0,0,0,9.1, 1.2, 0.1,0,0,1024,1024,1024,1219,0,0,0,30,14.3,0,0,84,4.111,4.097,0,0,0,0,4.142,100.94,2.2966208084,2.296588,6,P-GPS,
152100,2022-08-16 04:26:43,0,0,2.296588,,,2.2966208084,2.952756,0,0,0,0,0,8.212,2.2966208084,2.296588,0,0,0,0,0,9.4, 1.2, 0.2,0,0,1024,1024,1024,1234,0,0,0,32,14.7,0,0,84,4.111,4.097,0,0,0,0,4.142,100.94,2.2966208084,2.296588,6,P-GPS,
152200,2022-08-16 04:26:43,0,0,2.296588,,,2.2966208084,2.952756,0,0,0,0,0,8.212,2.2966208084,2.296588,0,0,0,0,0,9.9, 1.2, 0.5,0,0,1024,1024,1024,1250,0,0,0,34,15.2,0,0,84,4.111,4.097,0,0,0,0,4.142,100.94,2.2966208084,2.296588,6,P-GPS,
