time(millisecond),datetime(utc),latitude,longitude,height_above_takeoff(feet),height_above_ground_at_drone_location(feet),ground_elevation_at_drone_location(feet),altitude_above_seaLevel(feet),height_sonar(feet),speed(mph),distance(feet),mileage(feet),satellites,gpslevel,voltage(v),max_altitude(feet),max_ascent(feet),max_speed(mph),max_distance(feet), xSpeed(mph), ySpeed(mph), zSpeed(mph), compass_heading(degrees), pitch(degrees), roll(degrees),isPhoto,isVideo,rc_elevator,rc_aileron,rc_throttle,rc_rudder,rc_elevator(percent),rc_aileron(percent),rc_throttle(percent),rc_rudder(percent),gimbal_heading(degrees),gimbal_pitch(degrees),gimbal_roll(degrees),battery_percent,voltageCell1,voltageCell2,voltageCell3,voltageCell4,voltageCell5,voltageCell6,current(A),battery_temperature(f),altitude(feet),ascent(feet),flycStateRaw,flycState,message
0,2022-08-24 00:43:45,-34.9065168447269,-56.1632006455598,0,0,118.62318424214,118.62318424214,0.328084,0,0,0,15,5,0,118.62318424214,0,0,0,0,0,0,255.6, -7.9, 0.5,0,0,364,364,364,1684,-100,-100,-100,100,266.3,0,0,31,3.767,3.763,0,0,0,0,0,98.6,118.62318424214,0,41,Motors_Started,"En vuelo Aeronave en Zona de altitud restringida (150). Vuela con precaución (Code: 190001)"
100,2022-08-24 00:43:45,-34.9065167455717,-56.1632006747859,0,0,118.62318424214,118.62318424214,0.328084,0,0.037218505128,0.037218505128,15,5,0,118.62318424214,0,0,0.037218505128,0,0,0,255.7, -8, 0.4,0,0,364,364,364,1684,-100,-100,-100,100,266.2,0,0,31,3.767,3.763,0,0,0,0,0,98.6,118.62318424214,0,41,Motors_Started,
200,2022-08-24 00:43:45,-34.9065165395597,-56.1632004827595,0,-0.032808400000017,118.65599264214,118.62318424214,0.328084,0,0.121529203364,0.131826775872,15,5,0,118.62318424214,0,0,0.121529203364,0,0,0,256.2, -7.6, 0.2,0,0,364,364,364,1684,-100,-100,-100,100,266.2,0,0,31,3.767,3.763,0,0,0,0,0,98.6,118.62318424214,0,41,Motors_Started,
300,2022-08-24 00:43:45,-34.9065164858887,-56.1632005169114,0,-0.032808400000017,118.65599264214,118.62318424214,0.328084,0,0.13646325896,0.153914375004,15,5,0,118.62318424214,0,0,0.13646325896,0,0,0,256.3, -7.8, 0.1,0,0,364,364,364,1684,-100,-100,-100,100,266.3,0,0,31,3.767,3.763,0,0,0,0,0,98.6,118.62318424214,0,41,Motors_Started,
400,2022-08-24 00:43:45,-34.9065164500613,-56.1632005446525,0,-0.032808400000017,118.65599264214,118.62318424214,0.328084,0,0.147124676624,0.169398627468,15,5,0,118.62318424214,0,0,0.147124676624,0,0,0,256.9, -7.5, 0,0,0,364,364,364,1684,-100,-100,-100,100,266.6,0,0,31,3.767,3.763,0,0,0,0,0,98.6,118.62318424214,0,41,Motors_Started,
500,2022-08-24 00:43:45,-34.9065163623842,-56.1632006069963,0,-0.032808400000017,118.65599264214,118.62318424214,0.328084,0,0.176360241864,0.206429140464,15,5,0,118.62318424214,0,0,0.176360241864,0,0,0,257.6, -7.3, -0.3,0,0,1024,434,854,1679,0,-89,-26,99,267.2,0,0,31,3.767,3.763,0,0,0,0,0,98.6,118.62318424214,0,41,Motors_Started,
600,2022-08-24 00:43:46,-34.9065162532524,-56.1632006903106,0,-0.032808400000017,118.65599264214,118.62318424214,0.328084,0,0.216214245764,0.25340551992,15,5,0,118.62318424214,0,0,0.216214245764,0,0,0,257.6, -7.5, -0.6,0,0,1024,702,1024,1024,0,-49,0,0,267.6,0,0,31,3.767,3.763,0,0,0,0,0,98.6,118.62318424214,0,41,Motors_Started,
700,2022-08-24 00:43:46,-34.9065161533026,-56.1632007535589,0,-0.032808400000017,118.65599264214,118.62318424214,0.328084,0,0.254327107876,0.294490494988,15,5,0,118.62318424214,0,0,0.254327107876,0,0,0,257.4, -7.5, -0.4,0,0,1024,763,1024,1024,0,-40,0,0,267.7,0,0,31,3.767,3.763,0,0,0,0,0,98.6,118.62318424214,0,41,Motors_Started,
800,2022-08-24 00:43:46,-34.9065160444411,-56.1632007488,-0.328084,-0.36089240000002,118.65599264214,118.29510024214,0.328084,0,0.293613198372,0.33423229416,15,5,0,118.62318424214,0,0,0.293613198372,0,0,0,257.4, -7.5, -0.1,0,0,1024,1024,1024,1024,0,0,0,0,267.7,0,0,31,3.767,3.763,0,0,0,0,0,98.6,118.29510024214,-0.328084,41,Motors_Started,"Setting new Return-To-Home altitude to 100m (328 ft). Data Recorder File Index is 5. Setting new Maximum Flight Altitude to 120m (394 ft)"
900,2022-08-24 00:43:46,-34.9065159823526,-56.1632007176335,-0.328084,-0.36089240000002,118.65599264214,118.29510024214,0.328084,0,0.315375010092,0.35873032644,15,5,0,118.62318424214,0,0,0.315375010092,0,0,0,257.5, -7.5, 0,0,0,1024,1024,1024,1024,0,0,0,0,267.7,0,0,31,3.767,3.763,0,0,0,0,0,98.6,118.29510024214,-0.328084,41,Motors_Started,
1000,2022-08-24 00:43:46,-34.9065159446419,-56.1632006758469,-0.328084,-0.36089240000002,118.65599264214,118.29510024214,0.328084,0,0.32852035172,0.37732284672,15,5,0,118.62318424214,0,0,0.32852035172,0,0,0,257.5, -7.6, -0.3,0,0,1024,1024,1024,1024,0,0,0,0,267.7,0,0,31,3.767,3.763,0,0,0,0,0,98.6,118.29510024214,-0.328084,41,Motors_Started,
1100,2022-08-24 00:43:46,-34.9065159116277,-56.163200574839,-0.328084,-0.36089240000002,118.65599264214,118.29510024214,0.328084,0,0.34109909228,0.40985565616,15,5,0,118.62318424214,0,0,0.34109909228,0,0,0,257.6, -8.1, -1.1,0,0,1024,1024,1024,1024,0,0,0,0,267.7,0,0,31,3.767,3.763,0,0,0,0,0,98.6,118.29510024214,-0.328084,10,Assisted_Takeoff,
1200,2022-08-24 00:43:46,-34.9065158572059,-56.1632006073998,-0.328084,-0.36089240000002,118.65599264214,118.29510024214,0.328084,0,0.36047573332,0.43197507944,15,5,0,118.62318424214,0,0,0.36047573332,0,0,0,258, -9.2, -1.9,0,0,1024,1024,1024,1024,0,0,0,0,267.8,0,0,31,3.767,3.763,0,0,0,0,0,98.6,118.29510024214,-0.328084,10,Assisted_Takeoff,
1300,2022-08-24 00:43:46,-34.9065157788386,-56.1632006792534,-0.328084,-0.36089240000002,118.65599264214,118.29510024214,0.328084,0.223694,0.38901904132,0.46774607796,15,5,0,118.62318424214,0,0.223694,0.38901904132,0,-0.223694,-0.223694,258.4, -9.3, -0.2,0,0,1024,1024,1024,1024,0,0,0,0,268.2,0,0,31,3.767,3.763,0,0,0,0,0,98.6,118.29510024214,-0.328084,10,Assisted_Takeoff,
1400,2022-08-24 00:43:46,-34.9065156607243,-56.1632008615568,0,-0.032808400000017,118.65599264214,118.62318424214,0.328084,0.223694,0.43679135256,0.53726379672,15,5,0,118.62318424214,0,0.223694,0.43679135256,0,-0.223694,-0.671082,257.8, -6.6, 0.9,0,0,1024,1024,1024,1024,0,0,0,0,268.3,0,0,31,3.767,3.763,0,0,0,0,0,98.6,118.62318424214,0,6,P-GPS,
1500,2022-08-24 00:43:47,-34.9065154627536,-56.1632009460904,0,-0.06561680000001,118.68880104214,118.62318424214,0.656168,0,0.51216865156,0.61379267056,15,5,0,118.62318424214,0,0.223694,0.51216865156,0,0,-0.447388,257.1, -4.6, 0.5,0,0,1024,1024,1024,1024,0,0,0,0,268.3,0,0,31,3.767,3.763,0,0,0,0,0,98.6,118.62318424214,0,6,P-GPS,
1600,2022-08-24 00:43:47,-34.9065153277556,-56.1632009551598,0,-0.06561680000001,118.68880104214,118.62318424214,0.328084,0,0.56116471612,0.66312009996,15,5,7.524,118.62318424214,0,0.223694,0.56116471612,0,0,0,257, -4.5, 0.3,0,0,1024,1024,1024,1024,0,0,0,0,268.3,0,0,31,3.767,3.763,0,0,0,0,1.615,98.6,118.62318424214,0,6,P-GPS,
1700,2022-08-24 00:43:47,-34.906515191923,-56.1632009614972,0,-0.06561680000001,118.68880104214,118.62318424214,0.328084,0,0.61039043948,0.71271655824,15,5,7.524,118.62318424214,0,0.223694,0.61039043948,0,0,0,257.4, -4.2, 0.5,0,0,1024,1024,1024,1024,0,0,0,0,268.3,0,0,31,3.767,3.763,0,0,0,0,1.615,98.6,118.62318424214,0,6,P-GPS,
1800,2022-08-24 00:43:47,-34.9065150656282,-56.1632009465007,0,-0.06561680000001,118.68880104214,118.62318424214,0.328084,0,0.65531826244,0.75901249148,15,5,7.524,118.62318424214,0,0.223694,0.65531826244,0,0,0,257.4, -3.6, 0.7,0,0,1024,1024,1024,1024,0,0,0,0,268.3,0,0,31,3.767,3.763,0,0,0,0,1.615,98.6,118.62318424214,0,6,P-GPS,"Señal del GPS débil Señal del GPS débil. La precisión del posicionamiento se verá afectada. Vuela con cuidado (Code: 30049)"
1900,2022-08-24 00:43:47,-34.9065152488461,-56.1631995247778,0,-0.098425200000004,118.72160944214,118.62318424214,0.328084,0,0.67192259368,1.18962274148,15,5,7.524,118.62318424214,0,0.223694,0.67192259368,0,0,0,257.9, -2.9, 0.4,0,0,1024,1024,1024,1024,0,0,0,0,268.3,0,0,31,3.767,3.763,0,0,0,0,1.615,98.6,118.62318424214,0,6,P-GPS,
2000,2022-08-24 00:43:47,-34.9065152939214,-56.1631988950995,0,-0.1312336,118.75441784214,118.62318424214,0.328084,0,0.77101052336,1.37874676328,14,5,7.524,118.62318424214,0,0.223694,0.77101052336,0,0,0,258.1, -2.4, 0.2,0,0,1024,1024,1024,1024,0,0,0,0,268.3,0,0,31,3.767,3.763,0,0,0,0,1.615,98.6,118.62318424214,0,6,P-GPS,
2100,2022-08-24 00:43:47,-34.9065154767916,-56.1631976602657,0,-0.16404200000001,118.78722624214,118.62318424214,0.328084,0,1.02320213248,1.75419296952,14,5,7.524,118.62318424214,0,0.223694,1.02320213248,0,0,-0.223694,258.3, -1.2, 0.3,0,0,1024,1024,1684,1047,0,0,100,3,268.3,0,0,31,3.767,3.763,0,0,0,0,1.615,98.6,118.62318424214,0,6,P-GPS,
2200,2022-08-24 00:43:47,-34.9065157125032,-56.1631962155755,0,-0.16404200000001,118.78722624214,118.62318424214,0.328084,0.223694,1.38836618616,2.19492789176,14,5,7.524,118.62318424214,0,0.223694,1.38836618616,0,-0.223694,-0.671082,259.3, 3.3, -1.3,0,0,1024,1024,1684,1024,0,0,100,0,268.3,0,0,31,3.767,3.763,0,0,0,0,1.615,98.6,118.62318424214,0,6,P-GPS,
2300,2022-08-24 00:43:47,-34.9065160152472,-56.1631945965023,0,-0.19685040000001,118.82003464214,118.62318424214,0.656168,0,1.835055833,2.69180126724,14,5,7.524,118.62318424214,0,0.223694,1.835055833,0,0,-0.671082,258.4, 5.1, -2,0,0,1024,1024,1290,1024,0,0,40,0,268.3,0,0,31,3.767,3.763,0,0,0,0,1.615,98.6,118.62318424214,0,6,P-GPS,
2400,2022-08-24 00:43:47,-34.9065170958232,-56.1631893824591,0,-0.3608924,118.98407664214,118.62318424214,0.656168,0,3.3712599504,4.3009187728,14,5,7.524,118.62318424214,0,0.223694,3.3712599504,0,0,-0.671082,258.3, 2.3, -1.6,0,0,1024,1024,1290,1024,0,0,40,0,268.3,0,0,31,3.767,3.763,0,0,0,0,1.615,98.6,118.62318424214,0,6,P-GPS,
2500,2022-08-24 00:43:48,-34.9065174677533,-56.1631876942097,0.328084,-0.032808399999998,118.98407664214,118.95126824214,0.656168,0,3.8818242712,4.823983094,14,5,7.524,118.95126824214,0.328084,0.223694,3.8818242712,0,0,-1.11847,258.4, -0.8, -0.8,0,0,1024,1024,1024,1024,0,0,0,0,268.3,0,0,31,3.767,3.763,0,0,0,0,1.615,98.6,118.95126824214,0.328084,6,P-GPS,
2600,2022-08-24 00:43:48,-34.9065178821548,-56.1631859658853,0.328084,-0.065616800000015,119.01688504214,118.95126824214,0.984252,0,4.4085631332,5.3627626388,14,5,7.491,118.95126824214,0.328084,0.223694,4.4085631332,0,0,-0.894776,258.3, -1.2, -0.1,0,0,1024,1024,1024,1024,0,0,0,0,268.3,0,0,31,3.721,3.711,0,0,0,0,2.285,98.6,118.95126824214,0.328084,6,P-GPS,
2700,2022-08-24 00:43:48,-34.9065182572115,-56.1631845154032,0.656168,0.22965879999999,119.04969344214,119.27935224214,0.984252,0,4.8537075044,5.8178151468,14,5,7.491,119.27935224214,0.656168,0.223694,4.8537075044,0,0,-0.894776,258.2, -2.9, 0.3,0,0,1024,1024,1024,1024,0,0,0,0,268.3,0,0,31,3.721,3.711,0,0,0,0,2.285,98.6,119.27935224214,0.656168,6,P-GPS,
2800,2022-08-24 00:43:48,-34.906519068232,-56.1631820406678,0.656168,0.1968504,119.08250184214,119.27935224214,1.312336,0,5.6255251144,6.6152233088,15,5,7.491,119.27935224214,0.656168,0.223694,5.6255251144,0,0,-0.894776,258.1, -2.5, 0.5,0,0,1024,1024,1024,1024,0,0,0,0,268.3,0,0,31,3.721,3.711,0,0,0,0,2.285,98.6,119.27935224214,0.656168,6,P-GPS,
2900,2022-08-24 00:43:48,-34.9065192619102,-56.1631818273849,0.656168,0.1968504,119.08250184214,119.27935224214,1.312336,0,5.6992127808,6.7104332856,15,5,7.491,119.27935224214,0.656168,0.223694,5.6992127808,0,0,-0.671082,258, -3, 0.6,0,0,1024,1024,1024,1024,0,0,0,0,268.3,0,0,31,3.721,3.711,0,0,0,0,2.285,98.6,119.27935224214,0.656168,6,P-GPS,
3000,2022-08-24 00:43:48,-34.9065194075965,-56.1631819736162,0.984252,0.5249344,119.08250184214,119.60743624214,1.312336,0,5.6645014936,6.7792653088,15,5,7.491,119.60743624214,0.984252,0.223694,5.6992127808,0,0,-0.447388,258, -1.9, 0.5,0,0,1024,1024,1024,1024,0,0,0,0,268.3,0,0,31,3.721,3.711,0,0,0,0,2.285,98.6,119.60743624214,0.984252,6,P-GPS,
3100,2022-08-24 00:43:48,-34.9065194405285,-56.163182559978,0.984252,0.55774279999999,119.04969344214,119.60743624214,2.952756,0.223694,5.493602538,6.9551183328,15,5,7.491,119.60743624214,0.984252,0.223694,5.6992127808,0,-0.223694,-0.223694,258, -2.1, 0.1,0,0,1024,1024,1024,1024,0,0,0,0,268.3,0,0,31,3.721,3.711,0,0,0,0,2.285,98.6,119.60743624214,0.984252,6,P-GPS,
3200,2022-08-24 00:43:48,-34.906518781305,-56.1631873364061,0.984252,0.656168,118.95126824214,119.60743624214,2.952756,0.447388,4.0443898932,8.404363786,15,5,7.491,119.60743624214,0.984252,0.447388,5.6992127808,0,-0.447388,0,257.9, 0, -0.6,0,0,1024,1024,1024,1024,0,0,0,0,268.3,0,0,31,3.721,3.711,0,0,0,0,2.285,98.6,119.60743624214,0.984252,6,P-GPS,
3300,2022-08-24 00:43:48,-34.9065188440238,-56.1631878746935,1.312336,1.0170604,118.91845984214,119.93552024214,2.952756,0.447388,3.8901576048,8.5670606416,15,5,7.491,119.93552024214,1.312336,0.447388,5.6992127808,0,-0.447388,0,257.9, 0.9, -0.9,0,0,1024,1024,1024,1024,0,0,0,0,268.3,0,0,31,3.721,3.711,0,0,0,0,2.285,98.6,119.93552024214,1.312336,6,P-GPS,
3400,2022-08-24 00:43:48,-34.9065189370063,-56.1631883734138,1.312336,1.0170604,118.91845984214,119.93552024214,2.952756,0.447388,3.7504266292,8.7200790192,15,5,7.491,119.93552024214,1.312336,0.447388,5.6992127808,0,-0.447388,0,257.9, 1.1, -0.7,0,0,1024,1024,1024,1024,0,0,0,0,268.3,0,0,31,3.721,3.711,0,0,0,0,2.285,98.6,119.93552024214,1.312336,6,P-GPS,
3500,2022-08-24 00:43:49,-34.9065190327734,-56.1631885683195,1.312336,1.0498688,118.88565144214,119.93552024214,2.952756,0.223694,3.7007547116,8.788058024,15,5,7.491,119.93552024214,1.312336,0.447388,5.6992127808,0,-0.223694,0,257.9, 1.3, -0.5,0,0,1024,1024,1024,1024,0,0,0,0,268.3,0,0,31,3.721,3.711,0,0,0,0,2.285,98.6,119.93552024214,1.312336,6,P-GPS,
3600,2022-08-24 00:43:49,-34.906518893114,-56.1631896836073,1.312336,1.0826772,118.85284304214,119.93552024214,2.952756,0.223694,3.3639764856,9.1256236516,15,5,7.449,119.93552024214,1.312336,0.447388,5.6992127808,0,-0.223694,0,257.9, 1.3, -0.4,0,0,1024,1024,1024,1024,0,0,0,0,268.3,0,0,31,3.728,3.719,0,0,0,0,4.616,98.6,119.93552024214,1.312336,6,P-GPS,
3700,2022-08-24 00:43:49,-34.9065190115687,-56.1631897230993,1.312336,1.0826772,118.85284304214,119.93552024214,2.952756,0.223694,3.3623360656,9.170439926,15,5,7.449,119.93552024214,1.312336,0.447388,5.6992127808,0,-0.223694,0,257.9, 1.5, -0.4,0,0,1024,1024,1024,1024,0,0,0,0,268.3,0,0,31,3.728,3.719,0,0,0,0,4.616,98.6,119.93552024214,1.312336,6,P-GPS,
3800,2022-08-24 00:43:49,-34.9065191422896,-56.1631897387173,1.312336,1.0826772,118.85284304214,119.93552024214,2.952756,0.223694,3.3693570632,9.21834019,15,5,7.449,119.93552024214,1.312336,0.447388,5.6992127808,0,-0.223694,0,257.9, 1.3, -0.2,0,0,1024,1024,1024,1024,0,0,0,0,268.3,0,0,31,3.728,3.719,0,0,0,0,4.616,98.6,119.93552024214,1.312336,6,P-GPS,
3900,2022-08-24 00:43:49,-34.9065192619436,-56.1631896439613,1.312336,1.0826772,118.85284304214,119.93552024214,2.952756,0,3.4078741248,9.2704071208,15,5,7.449,119.93552024214,1.312336,0.447388,5.6992127808,0,0,0,257.9, 1.2, -0.1,0,0,1024,1024,1024,1024,0,0,0,0,268.3,0,0,31,3.728,3.719,0,0,0,0,4.616,98.6,119.93552024214,1.312336,6,P-GPS,
4000,2022-08-24 00:43:49,-34.9065193876814,-56.1631894951647,1.312336,1.0498688,118.88565144214,119.93552024214,2.952756,0,3.4628938116,9.3343506924,15,5,7.449,119.93552024214,1.312336,0.447388,5.6992127808,0,0,0,257.9, 1.1, 0,0,0,1024,1024,1024,1024,0,0,0,0,268.3,0,0,31,3.728,3.719,0,0,0,0,4.616,98.6,119.93552024214,1.312336,6,P-GPS,
4100,2022-08-24 00:43:49,-34.9065193521292,-56.1631894007965,1.312336,1.0498688,118.88565144214,119.93552024214,2.952756,0,3.4866799016,9.3654202472,15,5,7.449,119.93552024214,1.312336,0.447388,5.6992127808,0,0,0,257.8, 1.2, -0.2,0,0,1024,1024,1024,1024,0,0,0,0,268.3,0,0,31,3.728,3.719,0,0,0,0,4.616,98.6,119.93552024214,1.312336,6,P-GPS,
4200,2022-08-24 00:43:49,-34.9065194103559,-56.1631893679661,1.312336,1.0498688,118.88565144214,119.93552024214,2.952756,0,3.5017717656,9.3888126364,15,5,7.449,119.93552024214,1.312336,0.447388,5.6992127808,0,0,0,257.9, 1.1, -0.1,0,0,1024,1024,1024,1024,0,0,0,0,268.3,0,0,31,3.728,3.719,0,0,0,0,4.616,98.6,119.93552024214,1.312336,6,P-GPS,
4300,2022-08-24 00:43:49,-34.9065194773248,-56.1631893690538,1.312336,1.0498688,118.88565144214,119.93552024214,2.952756,0,3.5080709784,9.4132548944,15,5,7.449,119.93552024214,1.312336,0.447388,5.6992127808,0,0,0,257.8, 1, -0.1,0,0,1024,1024,1024,1024,0,0,0,0,268.3,0,0,31,3.728,3.719,0,0,0,0,4.616,98.6,119.93552024214,1.312336,6,P-GPS,
4400,2022-08-24 00:43:49,-34.9065195519002,-56.1631893656809,1.312336,1.0826772,118.85284304214,119.93552024214,2.952756,0,3.5166011624,9.4404858664,15,5,7.449,119.93552024214,1.312336,0.447388,5.6992127808,0,0,0,257.8, 1, -0.1,0,0,1024,1024,1024,1024,0,0,0,0,268.3,0,0,31,3.728,3.719,0,0,0,0,4.616,98.6,119.93552024214,1.312336,6,P-GPS,
4500,2022-08-24 00:43:49,-34.9065194275319,-56.1631895315371,1.312336,1.0826772,118.85284304214,119.93552024214,2.952756,0,3.4563321316,9.507710278,15,5,7.449,119.93552024214,1.312336,0.447388,5.6992127808,0,0,0,257.8, 1.2, -0.4,0,0,1024,1024,1024,1024,0,0,0,0,268.3,0,0,31,3.728,3.719,0,0,0,0,4.616,98.6,119.93552024214,1.312336,6,P-GPS,
4600,2022-08-24 00:43:50,-34.9065195161909,-56.1631893503639,1.312336,1.0826772,118.85284304214,119.93552024214,2.952756,0,3.5173557556,9.5708336396,15,5,7.449,119.93552024214,1.312336,0.447388,5.6992127808,0,0,0,257.8, 1.2, -0.3,0,0,1024,1024,1024,1024,0,0,0,0,268.3,0,0,31,3.728,3.719,0,0,0,0,4.616,98.6,119.93552024214,1.312336,6,P-GPS,
4700,2022-08-24 00:43:50,-34.9065196494057,-56.163189060332,1.312336,1.0826772,118.85284304214,119.93552024214,2.952756,0,3.6142717692,9.6703087084,15,5,7.44,119.93552024214,1.312336,0.447388,5.6992127808,0,0,0,257.8, 1.1, -0.2,0,0,1024,1024,1024,1024,0,0,0,0,268.3,0,0,31,3.722,3.714,0,0,0,0,4.478,98.6,119.93552024214,1.312336,6,P-GPS,
4800,2022-08-24 00:43:50,-34.9065198033947,-56.1631887097912,1.312336,1.0826772,118.85284304214,119.93552024214,2.952756,0,3.7308400144,9.7893047752,14,5,7.44,119.93552024214,1.312336,0.447388,5.6992127808,0,0,0,257.8, 0.9, -0.2,0,0,1024,1024,1024,1024,0,0,0,0,268.3,0,0,31,3.722,3.714,0,0,0,0,4.478,98.6,119.93552024214,1.312336,6,P-GPS,"En vuelo"
4900,2022-08-24 00:43:50,-34.9065201338149,-56.1631875102068,1.312336,1.0498688,118.88565144214,119.93552024214,2.952756,0,4.1093177168,10.1679137112,14,5,7.44,119.93552024214,1.312336,0.447388,5.6992127808,0,0,0,257.8, 0.9, -0.3,0,0,1024,1024,1024,1024,0,0,0,0,268.3,0,0,31,3.722,3.714,0,0,0,0,4.478,98.6,119.93552024214,1.312336,6,P-GPS,
5000,2022-08-24 00:43:50,-34.906520309888,-56.1631869243511,1.312336,1.0170604,118.91845984214,119.93552024214,2.952756,0,4.2957350456,10.3546263156,14,5,7.44,119.93552024214,1.312336,0.447388,5.6992127808,0,0,0,257.7, 0.8, -0.3,0,0,1024,1024,1024,1024,0,0,0,0,268.3,0,0,31,3.722,3.714,0,0,0,0,4.478,98.6,119.93552024214,1.312336,6,P-GPS,"Punto de origen actualizado. Altitud de RPO establecida en 100m (Code: 3000001)"
5100,2022-08-24 00:43:50,-34.9065204800608,-56.1631862549692,1.312336,1.0170604,118.91845984214,119.93552024214,2.952756,0,4.5054463384,10.5643048,14,5,7.44,119.93552024214,1.312336,0.447388,5.6992127808,0,0,0,257.8, 0.6, -0.3,0,0,1024,1024,1024,1024,0,0,0,0,268.3,0,0,31,3.722,3.714,0,0,0,0,4.478,98.6,119.93552024214,1.312336,6,P-GPS,
5200,2022-08-24 00:43:50,-34.9065206586559,-56.1631855256081,1.312336,1.0498688,118.88565144214,119.93552024214,2.952756,0,4.7331694428,10.7920607128,14,5,7.44,119.93552024214,1.312336,0.447388,5.6992127808,0,0,0,257.8, 0.4, -0.2,0,0,1024,1024,1024,1024,0,0,0,0,268.3,0,0,31,3.722,3.714,0,0,0,0,4.478,98.6,119.93552024214,1.312336,6,P-GPS,
5300,2022-08-24 00:43:50,-34.9065207855744,-56.1631847313016,1.312336,1.0170604,118.91845984214,119.93552024214,2.952756,0,4.9740159072,11.0341867048,14,5,7.44,119.93552024214,1.312336,0.447388,5.6992127808,0,0,0,257.8, 0.4, -0.1,0,0,1024,1024,1024,1024,0,0,0,0,268.3,0,0,31,3.722,3.714,0,0,0,0,4.478,98.6,119.93552024214,1.312336,6,P-GPS,
5400,2022-08-24 00:43:50,-34.9065209068271,-56.1631842909453,1.312336,0.984252,118.95126824214,119.93552024214,2.952756,0,5.1129266728,11.1731630872,14,5,7.44,119.93552024214,1.312336,0.447388,5.6992127808,0,0,0,257.8, 0.4, -0.1,0,0,1024,1024,1024,1024,0,0,0,0,268.3,0,0,31,3.722,3.714,0,0,0,0,4.478,98.6,119.93552024214,1.312336,6,P-GPS,
5500,2022-08-24 00:43:50,-34.9065209636635,-56.1631840718934,1.312336,0.984252,118.95126824214,119.93552024214,2.952756,0,5.1816930792,11.2419294936,14,5,7.44,119.93552024214,1.312336,0.447388,5.6992127808,0,0,0,257.9, 0.3, -0.1,0,0,1024,1024,1024,1024,0,0,0,0,268.3,0,0,31,3.722,3.714,0,0,0,0,4.478,98.6,119.93552024214,1.312336,6,P-GPS,
5600,2022-08-24 00:43:51,-34.9065210074804,-56.1631838903754,1.312336,0.984252,118.95126824214,119.93552024214,2.952756,0,5.2382875692,11.2985239836,14,5,7.44,119.93552024214,1.312336,0.447388,5.6992127808,0,0,0,257.9, 0.2, 0,0,0,1024,1024,1024,1024,0,0,0,0,268.3,0,0,31,3.722,3.714,0,0,0,0,4.478,98.6,119.93552024214,1.312336,6,P-GPS,
5700,2022-08-24 00:43:51,-34.9065210685605,-56.1631837256253,1.312336,0.984252,118.95126824214,119.93552024214,2.952756,0,5.2919293032,11.3526250352,14,5,7.432,119.93552024214,1.312336,0.447388,5.6992127808,0,0,0,257.9, 0.1, 0,0,0,1024,1024,1024,1024,0,0,0,0,268.3,0,0,31,3.719,3.71,0,0,0,0,4.566,98.6,119.93552024214,1.312336,6,P-GPS,
5800,2022-08-24 00:43:51,-34.9065209384254,-56.1631843677629,1.312336,0.984252,118.95126824214,119.93552024214,2.952756,0,5.09432431,11.5505581124,14,5,7.432,119.93552024214,1.312336,0.447388,5.6992127808,0,0,0,257.9, 0.2, -0.2,0,0,1024,1024,1024,1024,0,0,0,0,268.3,0,0,31,3.719,3.71,0,0,0,0,4.566,98.6,119.93552024214,1.312336,6,P-GPS,
5900,2022-08-24 00:43:51,-34.9065209434402,-56.1631842202467,1.312336,0.984252,118.95126824214,119.93552024214,2.952756,0,5.1370736552,11.5947182188,14,5,7.432,119.93552024214,1.312336,0.447388,5.6992127808,0,0,0,257.9, 0.1, -0.3,0,0,1024,1024,1024,1024,0,0,0,0,268.3,0,0,31,3.719,3.71,0,0,0,0,4.566,98.6,119.93552024214,1.312336,6,P-GPS,
6000,2022-08-24 00:43:51,-34.9065209338357,-56.1631840622057,1.312336,0.984252,118.95126824214,119.93552024214,2.952756,0,5.1812993784,11.6421263568,15,5,7.432,119.93552024214,1.312336,0.447388,5.6992127808,0,0,0,257.9, 0.1, -0.2,0,0,1024,1024,1383,1024,0,0,54,0,268.3,0,0,31,3.719,3.71,0,0,0,0,4.566,98.6,119.93552024214,1.312336,6,P-GPS,
6100,2022-08-24 00:43:51,-34.906520943154,-56.1631839504122,1.312336,0.984252,118.95126824214,119.93552024214,2.952756,0,5.2143374372,11.6757549668,15,5,7.432,119.93552024214,1.312336,0.447388,5.6992127808,0,0,0,257.9, 0.3, -0.1,0,0,1024,1024,1619,1024,0,0,90,0,268.3,0,0,31,3.719,3.71,0,0,0,0,4.566,98.6,119.93552024214,1.312336,6,P-GPS,
6200,2022-08-24 00:43:51,-34.9065207387757,-56.1631843170012,1.312336,0.984252,118.95126824214,119.93552024214,2.952756,0,5.0880250972,11.808399328,15,5,7.432,119.93552024214,1.312336,0.447388,5.6992127808,0,0,-0.447388,258, 0.1, 0,0,0,1024,1024,1467,1024,0,0,67,0,268.3,0,0,31,3.719,3.71,0,0,0,0,4.566,98.6,119.93552024214,1.312336,6,P-GPS,
6300,2022-08-24 00:43:51,-34.9065207296499,-56.1631842188547,1.64042,1.312336,118.95126824214,120.26360424214,2.952756,0,5.1152888776,11.8379596964,15,5,7.432,120.26360424214,1.64042,0.447388,5.6992127808,0,0,-1.11847,257.9, 0.1, 0,0,0,1024,1024,1091,1024,0,0,10,0,268.3,0,0,31,3.719,3.71,0,0,0,0,4.566,98.6,120.26360424214,1.64042,6,P-GPS,
6400,2022-08-24 00:43:51,-34.9065207157854,-56.1631841156247,1.64042,1.312336,118.95126824214,120.26360424214,3.28084,0,5.1436025268,11.86925891,15,5,7.432,120.26360424214,1.64042,0.447388,5.6992127808,0,0,-1.565858,257.8, -0.1, -0.7,0,0,1024,1024,1024,1024,0,0,0,0,268.3,0,0,31,3.719,3.71,0,0,0,0,4.566,98.6,120.26360424214,1.64042,6,P-GPS,
6500,2022-08-24 00:43:51,-34.9065207422565,-56.163184016218,1.968504,1.64042,118.95126824214,120.59168824214,3.608924,0,5.1748361236,11.9005253152,15,5,7.432,120.59168824214,1.968504,0.447388,5.6992127808,0,0,-1.342164,257.8, 0.3, -0.7,0,0,1024,1024,1024,1024,0,0,0,0,268.3,0,0,31,3.719,3.71,0,0,0,0,4.566,98.6,120.59168824214,1.968504,6,P-GPS,
6600,2022-08-24 00:43:52,-34.9065207163016,-56.1631841317147,1.968504,1.64042,118.95126824214,120.59168824214,3.608924,0,5.1390093508,11.936352088,15,5,7.432,120.59168824214,1.968504,0.447388,5.6992127808,0,0,-0.894776,257.9, 0.3, -0.4,0,0,1024,1024,1024,1037,0,0,0,2,268.3,0,0,31,3.719,3.71,0,0,0,0,4.566,98.6,120.59168824214,1.968504,6,P-GPS,
6700,2022-08-24 00:43:52,-34.9065207405129,-56.1631840972507,2.296588,1.968504,118.95126824214,120.91977224214,3.937008,0,5.1513781176,11.9499347656,15,5,7.426,120.91977224214,2.296588,0.447388,5.6992127808,0,0,-0.447388,257.9, 0.2, -0.3,0,0,1024,1024,1024,1037,0,0,0,2,268.3,0,0,31,3.701,3.7,0,0,0,0,4.614,98.42,120.91977224214,2.296588,6,P-GPS,
6800,2022-08-24 00:43:52,-34.9065207613566,-56.1631840787789,2.296588,1.968504,118.95126824214,120.91977224214,3.937008,0,5.158792816,11.959317968,15,5,7.426,120.91977224214,2.296588,0.447388,5.6992127808,0,0,-0.223694,257.8, 0.1, -0.2,0,0,1024,1024,1024,1684,0,0,0,100,268.3,0,0,31,3.701,3.7,0,0,0,0,4.614,98.42,120.91977224214,2.296588,6,P-GPS,
6900,2022-08-24 00:43:52,-34.9065207371481,-56.163184195144,2.296588,1.968504,118.95126824214,120.91977224214,3.937008,0,5.122867618,11.995243166,15,5,7.426,120.91977224214,2.296588,0.447388,5.6992127808,0,0,0,257.9, 0.1, -0.3,0,0,1024,1024,1024,1684,0,0,0,100,269.8,0,0,31,3.701,3.7,0,0,0,0,4.614,98.42,120.91977224214,2.296588,6,P-GPS,
7000,2022-08-24 00:43:52,-34.9065205544444,-56.163184903884,2.296588,2.0013124,118.91845984214,120.91977224214,3.937008,0,4.9006563248,12.2175528844,15,5,7.426,120.91977224214,2.296588,0.447388,5.6992127808,0,0,0,260.6, 0.1, -0.6,0,0,1024,1024,1024,1684,0,0,0,100,274,0,0,31,3.701,3.7,0,0,0,0,4.614,98.42,120.91977224214,2.296588,6,P-GPS,
7100,2022-08-24 00:43:52,-34.9065205866514,-56.1631850761157,2.296588,2.0013124,118.91845984214,120.91977224214,3.937008,0,4.8544292892,12.2704072168,15,5,7.426,120.91977224214,2.296588,0.447388,5.6992127808,0,0,0,264.9, 0.2, -0.5,0,0,1024,1024,1024,1684,0,0,0,100,278.7,0,0,31,3.701,3.7,0,0,0,0,4.614,98.42,120.91977224214,2.296588,6,P-GPS,
7200,2022-08-24 00:43:52,-34.9065206506045,-56.1631852668984,2.296588,2.0013124,118.91845984214,120.91977224214,3.937008,0,4.8063649832,12.3320542004,15,5,7.426,120.91977224214,2.296588,0.447388,5.6992127808,0,0,0,269.5, 0.2, -0.3,0,0,1024,1024,1024,1684,0,0,0,100,283.5,0,0,31,3.701,3.7,0,0,0,0,4.614,98.42,120.91977224214,2.296588,6,P-GPS,
7300,2022-08-24 00:43:52,-34.9065207004092,-56.1631854055175,2.296588,2.0013124,118.91845984214,120.91977224214,3.937008,0,4.7720145884,12.3773297924,15,5,7.426,120.91977224214,2.296588,0.447388,5.6992127808,0,0,0,274.1, 0.1, -0.2,0,0,1024,1024,1024,1684,0,0,0,100,288.3,0,0,31,3.701,3.7,0,0,0,0,4.614,98.42,120.91977224214,2.296588,6,P-GPS,
7400,2022-08-24 00:43:52,-34.9065207508824,-56.1631855258993,2.296588,2.0341208,118.88565144214,120.91977224214,3.937008,0,4.743110388,12.417815358,15,5,7.426,120.91977224214,2.296588,0.447388,5.6992127808,0,0,0,278.7, 0, -0.2,0,0,1024,1024,1024,1684,0,0,0,100,293.1,0,0,31,3.701,3.7,0,0,0,0,4.614,98.42,120.91977224214,2.296588,6,P-GPS,
7500,2022-08-24 00:43:53,-34.9065207737502,-56.163185939704,2.296588,2.0341208,118.88565144214,120.91977224214,3.937008,0,4.6277232452,12.5418967268,15,5,7.426,120.91977224214,2.296588,0.447388,5.6992127808,0,0,0,283.4, 0, -0.3,0,0,1024,1024,1024,1684,0,0,0,100,297.9,0,0,31,3.701,3.7,0,0,0,0,4.614,98.42,120.91977224214,2.296588,6,P-GPS,
7600,2022-08-24 00:43:53,-34.9065207715694,-56.1631859746995,2.296588,2.0341208,118.88565144214,120.91977224214,3.937008,0,4.6175198328,12.5523954148,15,5,7.426,120.91977224214,2.296588,0.447388,5.6992127808,0,0,0,288.1, 0.1, -0.2,0,0,1024,1024,1024,1684,0,0,0,100,302.7,0,0,31,3.701,3.7,0,0,0,0,4.614,98.42,120.91977224214,2.296588,6,P-GPS,
7700,2022-08-24 00:43:53,-34.9065207924045,-56.1631859830795,2.296588,2.0341208,118.88565144214,120.91977224214,3.937008,0,4.6175198328,12.5604006644,15,5,7.427,120.91977224214,2.296588,0.447388,5.6992127808,0,0,0,292.7, 0.1, -0.1,0,0,1024,1024,1024,1684,0,0,0,100,307.5,0,0,31,3.715,3.705,0,0,0,0,4.756,98.42,120.91977224214,2.296588,6,P-GPS,
7800,2022-08-24 00:43:53,-34.9065208269987,-56.163185992094,2.296588,2.0341208,118.88565144214,120.91977224214,3.937008,0,4.6188977856,12.5732943656,15,5,7.427,120.91977224214,2.296588,0.447388,5.6992127808,0,0,0,297.4, 0.1, 0,0,0,1024,1024,1024,1684,0,0,0,100,312.3,0,0,31,3.715,3.705,0,0,0,0,4.756,98.42,120.91977224214,2.296588,6,P-GPS,
7900,2022-08-24 00:43:53,-34.9065207064894,-56.1631854628585,2.296588,2.0013124,118.91845984214,120.91977224214,3.937008,0,4.7562665564,12.7376644496,15,5,7.427,120.91977224214,2.296588,0.447388,5.6992127808,0,0,0,302.1, 0.2, -0.4,0,0,1051,1024,1024,1684,4,0,0,100,317.1,0,0,31,3.715,3.705,0,0,0,0,4.756,98.42,120.91977224214,2.296588,6,P-GPS,
8000,2022-08-24 00:43:53,-34.9065207549458,-56.1631853784398,2.296588,2.0013124,118.91845984214,120.91977224214,3.937008,0,4.7856300744,12.7684715372,14,5,7.427,120.91977224214,2.296588,0.447388,5.6992127808,0,0,0,306.7, 0.2, -0.3,0,0,1293,1024,1024,1684,41,0,0,100,321.9,0,0,31,3.715,3.705,0,0,0,0,4.756,98.42,120.91977224214,2.296588,6,P-GPS,
8100,2022-08-24 00:43:53,-34.9065208022867,-56.1631853942459,2.296588,2.0013124,118.91845984214,120.91977224214,3.937008,0,4.7863190508,12.7863849236,14,5,7.427,120.91977224214,2.296588,0.447388,5.6992127808,0,0,0,311.5, -0.7, 0,0,0,1486,1024,1024,1684,70,0,0,100,326.7,0,0,31,3.715,3.705,0,0,0,0,4.756,98.42,120.91977224214,2.296588,6,P-GPS,
8200,2022-08-24 00:43:53,-34.9065208454824,-56.1631854628337,2.296588,2.0013124,118.91845984214,120.91977224214,3.937008,0,4.7715552708,12.8122707512,12,5,7.427,120.91977224214,2.296588,0.447388,5.6992127808,0,0,0,316.2, -5.4, -0.2,0,0,1629,1024,1024,1684,92,0,0,100,331.5,0,0,31,3.715,3.705,0,0,0,0,4.756,98.42,120.91977224214,2.296588,6,P-GPS,
8300,2022-08-24 00:43:53,-34.9065207707531,-56.163185625616,2.296588,2.0341208,118.88565144214,120.91977224214,3.937008,0.3131716,4.7168308596,12.8680778396,12,5,7.427,120.91977224214,2.296588,0.447388,5.6992127808,0.223694,-0.223694,0,321, -9.7, -0.7,0,0,1654,1024,1024,1077,95,0,0,8,336.3,0,0,31,3.715,3.705,0,0,0,0,4.756,98.42,120.91977224214,2.296588,6,P-GPS,
8400,2022-08-24 00:43:53,-34.9065206553668,-56.1631858876287,2.296588,2.0341208,118.88565144214,120.91977224214,3.937008,0.6263432,4.6293964736,12.9570542204,12,5,7.427,120.91977224214,2.296588,0.6263432,5.6992127808,0.447388,-0.447388,0,325.9, -13.5, -1.1,0,0,1654,1024,1024,1024,95,0,0,0,340.8,0,0,31,3.715,3.705,0,0,0,0,4.756,98.42,120.91977224214,2.296588,6,P-GPS,
8500,2022-08-24 00:43:54,-34.9065203505099,-56.1631863257965,2.296588,2.0013124,118.91845984214,120.91977224214,3.937008,1.2750558,4.4714240276,13.1290030448,12,5,7.427,120.91977224214,2.296588,1.2750558,5.6992127808,0.894776,-0.894776,0,329.6, -15.2, -0.7,0,0,1653,1024,1024,1036,95,0,0,2,343.1,0,0,31,3.715,3.705,0,0,0,0,4.756,98.42,120.91977224214,2.296588,6,P-GPS,
8600,2022-08-24 00:43:54,-34.9065198355247,-56.1631869573859,2.296588,2.0013124,118.91845984214,120.91977224214,3.937008,1.7448132,4.2384843876,13.3954728696,12,5,7.427,120.91977224214,2.296588,1.7448132,5.6992127808,1.342164,-1.11847,0,331.2, -15.4, -0.1,0,0,1498,1024,1024,1535,72,0,0,77,344.1,0,0,31,3.715,3.705,0,0,0,0,4.756,98.42,120.91977224214,2.296588,6,P-GPS,
8700,2022-08-24 00:43:54,-34.9065188953833,-56.1631878808105,2.296588,2.0013124,118.91845984214,120.91977224214,3.937008,2.23694,3.89189645,13.8359256396,12,5,7.427,120.91977224214,2.296588,2.23694,5.6992127808,1.789552,-1.342164,0,331.7, -15, 0.3,0,0,1498,1024,1024,1535,72,0,0,77,344.1,0,0,31,3.712,3.703,0,0,0,0,4.756,98.42,120.91977224214,2.296588,6,P-GPS,
8800,2022-08-24 00:43:54,-34.9065179630014,-56.1631888358584,2.296588,2.0013124,118.91845984214,120.91977224214,3.937008,2.7290668,3.5570211112,14.2802169924,12,5,7.427,120.91977224214,2.296588,2.7290668,5.6992127808,2.23694,-1.565858,0,331.9, -13.2, 0.3,0,0,1024,1024,1024,1684,0,0,0,100,345.2,0,0,31,3.712,3.703,0,0,0,0,4.756,98.42,120.91977224214,2.296588,6,P-GPS,
8900,2022-08-24 00:43:54,-34.9065169131191,-56.1631899068332,2.296588,1.968504,118.95126824214,120.91977224214,3.937008,3.2211936,3.21321204508,14.7796264572,12,5,7.427,120.91977224214,2.296588,3.2211936,5.6992127808,2.684328,-1.789552,0,333.9, -3.8, 0.1,0,0,1024,1024,1024,1415,0,0,0,59,348.8,0,0,31,3.712,3.703,0,0,0,0,4.756,98.42,120.91977224214,2.296588,6,P-GPS,
9000,2022-08-24 00:43:54,-34.9065157736398,-56.1631910761808,2.296588,1.968504,118.95126824214,120.91977224214,3.937008,3.0422384,2.8897802762,15.322999178,13,5,7.427,120.91977224214,2.296588,3.2211936,5.6992127808,2.460634,-1.789552,0,338.3, 11.7, 3.5,0,0,1024,1024,1024,1307,0,0,0,43,352.8,0,0,31,3.712,3.703,0,0,0,0,4.756,98.42,120.91977224214,2.296588,6,P-GPS,
9100,2022-08-24 00:43:54,-34.9065147966622,-56.163192054799,2.296588,1.968504,118.95126824214,120.91977224214,3.937008,2.7290668,2.676837356,15.784285282,13,5,7.427,120.91977224214,2.296588,3.2211936,5.6992127808,2.23694,-1.565858,0,341.8, 13.4, 4.6,0,0,1024,1024,1024,1178,0,0,0,23,355,0,0,31,3.712,3.703,0,0,0,0,4.756,98.42,120.91977224214,2.296588,6,P-GPS,
9200,2022-08-24 00:43:54,-34.9065137655054,-56.1631931301956,2.296588,1.9356956,118.98407664214,120.91977224214,3.608924,1.9237684,2.51368446364,16.2793312296,14,5,7.427,120.91977224214,2.296588,3.2211936,5.6992127808,1.565858,-1.11847,0,343.2, 11.7, 4.1,0,0,1024,1024,1024,1472,0,0,0,68,356.2,0,0,31,3.712,3.703,0,0,0,0,4.756,98.42,120.91977224214,2.296588,6,P-GPS,
9300,2022-08-24 00:43:54,-34.9065130492563,-56.1631937326072,2.296588,1.9356956,118.98407664214,120.91977224214,3.608924,1.4316416,2.48916346548,16.596785308,14,5,7.427,120.91977224214,2.296588,3.2211936,5.6992127808,1.11847,-0.894776,0,343.8, 9.5, 3.3,0,0,1024,1024,1024,1617,0,0,0,90,356.7,0,0,31,3.712,3.703,0,0,0,0,4.756,98.42,120.91977224214,2.296588,6,P-GPS,
9400,2022-08-24 00:43:54,-34.9065124253489,-56.1631942345785,2.296588,1.9028872,119.01688504214,120.91977224214,3.608924,1.006623,2.50587606444,16.8695215372,15,5,7.427,120.91977224214,2.296588,3.2211936,5.6992127808,0.894776,-0.447388,0,344.5, 7.3, 2.7,0,0,1024,1024,1024,1621,0,0,0,90,358.2,0,0,31,3.712,3.703,0,0,0,0,4.756,98.42,120.91977224214,2.296588,6,P-GPS,
9500,2022-08-24 00:43:55,-34.9065120152041,-56.1631945068001,2.624672,2.2637796,118.98407664214,121.24785624214,3.608924,0.8052984,2.54529535704,17.0398955584,15,5,7.427,121.24785624214,2.624672,3.2211936,5.6992127808,0.671082,-0.447388,0,346.8, 5.4, 2.3,0,0,1024,1024,1024,1621,0,0,0,90,1.5,0,0,31,3.712,3.703,0,0,0,0,4.756,98.42,121.24785624214,2.624672,6,P-GPS,
9600,2022-08-24 00:43:55,-34.9065115210023,-56.1631943328591,2.624672,2.2309712,119.01688504214,121.24785624214,3.608924,0.4921268,2.70931111032,17.2275596064,14,5,7.427,121.24785624214,2.624672,3.2211936,5.6992127808,0.447388,-0.223694,0,350.4, 4, 2.3,0,0,1183,1024,1024,1684,24,0,0,100,5.4,0,0,31,3.712,3.703,0,0,0,0,4.756,98.42,121.24785624214,2.624672,6,P-GPS,
9700,2022-08-24 00:43:55,-34.9065114641826,-56.1631942563237,2.624672,2.1653544,119.08250184214,121.24785624214,3.608924,0.4921268,2.74013788296,17.2584323108,14,5,7.427,121.24785624214,2.624672,3.2211936,5.6992127808,0.447388,-0.223694,0,354.4, 2, 1.9,0,0,1205,1024,1024,1684,27,0,0,100,9.8,0,0,31,3.712,3.703,0,0,0,0,4.756,98.42,121.24785624214,2.624672,6,P-GPS,
9800,2022-08-24 00:43:55,-34.9065114955367,-56.1631940878128,2.624672,2.1653544,119.08250184214,121.24785624214,3.608924,0.4921268,2.767470561,17.3101383492,16,5,7.427,121.24785624214,2.624672,3.2211936,5.6992127808,0.447388,-0.223694,0,358.8, -0.3, 1.4,0,0,1175,1024,1024,1231,23,0,0,31,14.6,0,0,31,3.712,3.703,0,0,0,0,4.756,98.42,121.24785624214,2.624672,6,P-GPS,
9900,2022-08-24 00:43:55,-34.9065114911741,-56.1631940722344,2.624672,2.1653544,119.08250184214,121.24785624214,3.608924,0.447388,2.771899695,17.3150596092,16,5,7.41,121.24785624214,2.624672,3.2211936,5.6992127808,0.447388,0,0,3.2, -1.1, 1.2,0,0,1200,1024,1024,1024,27,0,0,0,18.2,0,0,31,3.708,3.7,0,0,0,0,4.721,98.42,121.24785624214,2.624672,6,P-GPS,
10000,2022-08-24 00:43:55,-34.9065119560834,-56.1631935442919,2.624672,2.2309712,119.01688504214,121.24785624214,3.608924,0.447388,2.7741470704,17.5468509552,16,5,7.41,121.24785624214,2.624672,3.2211936,5.6992127808,0.447388,0,0,5.8, -0.9, 1.3,0,0,1225,1024,1024,1024,30,0,0,0,19.5,0,0,31,3.708,3.7,0,0,0,0,4.721,98.42,121.24785624214,2.624672,6,P-GPS,
10100,2022-08-24 00:43:55,-34.9065117788403,-56.1631935971209,2.624672,2.2309712,119.01688504214,121.24785624214,3.608924,0.447388,2.80425205824,17.6134191988,16,5,7.41,121.24785624214,2.624672,3.2211936,5.6992127808,0.447388,0,0,6.8, -1.2, 1,0,0,1223,1024,1024,1024,30,0,0,0,20.1,0,0,31,3.708,3.7,0,0,0,0,4.721,98.42,121.24785624214,2.624672,6,P-GPS,
10200,2022-08-24 00:43:55,-34.9065115334192,-56.1631936525664,2.624672,2.2309712,119.01688504214,121.24785624214,3.608924,0.671082,2.85186688916,17.7044953172,16,5,7.41,121.24785624214,2.624672,3.2211936,5.6992127808,0.671082,0,0,7.2, -1.7, 0.9,0,0,1217,1024,1024,1024,29,0,0,0,20.1,0,0,31,3.708,3.7,0,0,0,0,4.721,98.42,121.24785624214,2.624672,6,P-GPS,
10300,2022-08-24 00:43:55,-34.9065112789943,-56.1631936857267,2.624672,2.1653544,119.08250184214,121.24785624214,3.608924,0.671082,2.90862542116,17.7978352152,16,5,7.41,121.24785624214,2.624672,3.2211936,5.6992127808,0.671082,0,0,7.3, -1.8, 0.8,0,0,1217,1024,1024,1024,29,0,0,0,20.1,0,0,31,3.708,3.7,0,0,0,0,4.721,98.42,121.24785624214,2.624672,6,P-GPS,
10400,2022-08-24 00:43:55,-34.9065106712151,-56.1631938468334,2.624672,2.1653544,119.08250184214,121.24785624214,3.608924,0.671082,3.03503290552,18.024770918,16,5,7.41,121.24785624214,2.624672,3.2211936,5.6992127808,0.671082,0,0,7.3, -1.7, 0.7,0,0,1207,1024,1024,1024,28,0,0,0,20.1,0,0,31,3.708,3.7,0,0,0,0,4.721,98.42,121.24785624214,2.624672,6,P-GPS,
10500,2022-08-24 00:43:55,-34.9065103353192,-56.1631938472926,2.624672,2.132546,119.11531024214,121.24785624214,3.608924,0.671082,3.12697188484,18.147310292,16,5,7.41,121.24785624214,2.624672,3.2211936,5.6992127808,0.894776,0,0,7.2, -1.6, 0.6,0,0,1147,1024,1024,1024,19,0,0,0,20.1,0,0,31,3.708,3.7,0,0,0,0,4.721,98.42,121.24785624214,2.624672,6,P-GPS,
10600,2022-08-24 00:43:56,-34.9065099518255,-56.1631938375253,2.624672,2.132546,119.11531024214,121.24785624214,3.608924,0.894776,3.23635837128,18.2872709264,15,5,7.41,121.24785624214,2.624672,3.2211936,5.6992127808,0.894776,0,0,7.3, -1.2, 0.4,0,0,1076,1024,1026,1024,8,0,0,0,20.1,0,0,31,3.708,3.7,0,0,0,0,4.721,98.42,121.24785624214,2.624672,6,P-GPS,
10700,2022-08-24 00:43:56,-34.9065095451916,-56.1631938017887,2.624672,2.132546,119.11531024214,121.24785624214,3.608924,0.894776,3.3594489264,18.436024212,15,5,7.41,121.24785624214,2.624672,3.2211936,5.6992127808,0.894776,0,0,7.3, 0, 0.3,0,0,1088,1024,1240,1024,10,0,33,0,20.1,0,0,31,3.708,3.7,0,0,0,0,4.721,98.42,121.24785624214,2.624672,6,P-GPS,
10800,2022-08-24 00:43:56,-34.9065091169776,-56.1631937572297,2.624672,2.0997376,119.14811864214,121.24785624214,3.608924,0.894776,3.49245418,18.5928155556,15,5,7.41,121.24785624214,2.624672,3.2211936,5.6992127808,0.894776,0,0,7.3, 0.7, 0.4,0,0,1091,1024,1276,1024,10,0,38,0,20.1,0,0,31,3.708,3.7,0,0,0,0,4.721,98.42,121.24785624214,2.624672,6,P-GPS,
10900,2022-08-24 00:43:56,-34.9065083557501,-56.1631935984568,2.624672,2.0669292,119.18092704214,121.24785624214,3.608924,0.894776,3.7468177052,18.8745740948,15,5,7.41,121.24785624214,2.624672,3.2211936,5.6992127808,0.894776,0,-0.447388,7.3, 0.5, 0.6,0,0,1093,1024,1234,1024,10,0,32,0,20.1,0,0,31,3.708,3.7,0,0,0,0,4.721,98.42,121.24785624214,2.624672,6,P-GPS,
11000,2022-08-24 00:43:56,-34.9065079390899,-56.1631934181327,2.624672,2.0341208,119.21373544214,121.24785624214,3.608924,0.894776,3.903051306,19.0358929976,15,5,7.407,121.24785624214,2.624672,3.2211936,5.6992127808,0.894776,0,-0.894776,7.3, 0, 0.5,0,0,1101,1024,1197,1024,12,0,26,0,20.1,0,0,31,3.707,3.698,0,0,0,0,4.627,98.6,121.24785624214,2.624672,6,P-GPS,
11100,2022-08-24 00:43:56,-34.9065076238883,-56.1631928352026,2.952756,2.3622048,119.21373544214,121.57594024214,3.937008,0.894776,4.0962271652,19.2448168888,15,5,7.407,121.57594024214,2.952756,3.2211936,5.6992127808,0.894776,0,-0.894776,7.3, 0, 0.6,0,0,1100,1024,1167,1024,12,0,22,0,20.1,0,0,31,3.707,3.698,0,0,0,0,4.627,98.6,121.57594024214,2.952756,6,P-GPS,
11200,2022-08-24 00:43:56,-34.9065073255997,-56.1631921161622,2.952756,2.296588,119.27935224214,121.57594024214,3.937008,0.894776,4.309875466,19.4859258204,15,5,7.407,121.57594024214,2.952756,3.2211936,5.6992127808,0.894776,0,-0.894776,7.4, 0, 0.8,0,0,1100,1024,1167,1024,12,0,22,0,20.1,0,0,31,3.707,3.698,0,0,0,0,4.627,98.6,121.57594024214,2.952756,6,P-GPS,
11300,2022-08-24 00:43:56,-34.9065071318686,-56.1631891620368,3.28084,2.5262468,119.37777744214,121.90402424214,4.265092,0.894776,4.9359909716,20.3726384472,15,5,7.407,121.90402424214,3.28084,3.2211936,5.6992127808,0.894776,0,-0.894776,7.4, 0.1, 0.9,0,0,1099,1024,1082,1024,11,0,9,0,20.1,0,0,31,3.707,3.698,0,0,0,0,4.627,98.6,121.90402424214,3.28084,6,P-GPS,
11400,2022-08-24 00:43:56,-34.9065069106152,-56.1631882409607,3.28084,2.4934384,119.41058584214,121.90402424214,4.265092,0.894776,5.1876970164,20.6598103724,15,5,7.407,121.90402424214,3.28084,3.2211936,5.6992127808,0.894776,0,-0.671082,7.4, 0.3, 0.9,0,0,1099,1024,1086,1024,11,0,9,0,20.1,0,0,31,3.707,3.698,0,0,0,0,4.627,98.6,121.90402424214,3.28084,6,P-GPS,
11500,2022-08-24 00:43:56,-34.9065067018552,-56.1631875441844,3.28084,2.4934384,119.41058584214,121.90402424214,4.265092,0.894776,5.3908466292,20.8817591984,15,5,7.407,121.90402424214,3.28084,3.2211936,5.6992127808,0.894776,0,-0.447388,7.3, 0.4, 0.8,0,0,1105,1024,1091,1024,12,0,10,0,20.1,0,0,31,3.707,3.698,0,0,0,0,4.627,98.6,121.90402424214,3.28084,6,P-GPS,
11600,2022-08-24 00:43:57,-34.9065064880095,-56.1631868875511,3.28084,2.4278216,119.47620264214,121.90402424214,4.265092,0.894776,5.5878282628,21.0931437196,15,5,7.407,121.90402424214,3.28084,3.2211936,5.6992127808,0.894776,0,-0.223694,7.3, 0.3, 0.7,0,0,1106,1024,1089,1024,12,0,10,0,20.1,0,0,31,3.707,3.698,0,0,0,0,4.627,98.6,121.90402424214,3.28084,6,P-GPS,
11700,2022-08-24 00:43:57,-34.9065061800186,-56.1631873222252,3.608924,2.7559056,119.47620264214,122.23210824214,4.265092,0.894776,5.5706038528,21.2650269272,15,5,7.407,122.23210824214,3.608924,3.2211936,5.6992127808,0.894776,0,-0.223694,7.3, 0.2, 0.7,0,0,1107,1024,1064,1024,13,0,6,0,20.1,0,0,31,3.707,3.698,0,0,0,0,4.627,98.6,122.23210824214,3.608924,6,P-GPS,
11800,2022-08-24 00:43:57,-34.9065058954904,-56.1631872899419,3.608924,2.7559056,119.47620264214,122.23210824214,4.265092,0.894776,5.65042669,21.3692920224,15,5,7.407,122.23210824214,3.608924,3.2211936,5.6992127808,0.894776,0,0,7.3, 0.3, 0.8,0,0,1093,1024,1024,1024,10,0,0,0,20.1,0,0,31,3.707,3.698,0,0,0,0,4.627,98.6,122.23210824214,3.608924,6,P-GPS,
11900,2022-08-24 00:43:57,-34.9065054767246,-56.1631873961315,3.608924,2.6902888,119.54181944214,122.23210824214,4.265092,0.894776,5.7374673752,21.5253615812,15,5,7.407,122.23210824214,3.608924,3.2211936,5.7374673752,0.894776,0,0,7.3, 0.2, 0.8,0,0,1090,1024,1024,1024,10,0,0,0,20.1,0,0,31,3.707,3.698,0,0,0,0,4.627,98.6,122.23210824214,3.608924,6,P-GPS,
12000,2022-08-24 00:43:57,-34.9065050066726,-56.1631875244564,3.608924,2.7230972,119.50901104214,122.23210824214,4.265092,0.894776,5.8367455936,21.7010833716,15,5,7.395,122.23210824214,3.608924,3.2211936,5.8367455936,0.894776,0,0,7.3, 0.1, 0.7,0,0,1090,1024,1024,1024,10,0,0,0,20.1,0,0,31,3.709,3.7,0,0,0,0,4.887,98.42,122.23210824214,3.608924,6,P-GPS,
12100,2022-08-24 00:43:57,-34.906504125577,-56.1631888664879,3.608924,2.7230972,119.50901104214,122.23210824214,4.265092,0.894776,5.8271983492,22.2154534668,15,5,7.395,122.23210824214,3.608924,3.2211936,5.8367455936,0.894776,0,0,7.3, 0.3, 0.7,0,0,1089,1024,1024,1024,10,0,0,0,20.1,0,0,31,3.709,3.7,0,0,0,0,4.887,98.42,122.23210824214,3.608924,6,P-GPS,
12200,2022-08-24 00:43:57,-34.9065037526665,-56.1631889831729,3.608924,2.7230972,119.50901104214,122.23210824214,4.265092,0.894776,5.9154529452,22.3559390356,15,5,7.395,122.23210824214,3.608924,3.2211936,5.9154529452,0.894776,0,0,7.3, 0.4, 0.7,0,0,1089,1024,1024,1024,10,0,0,0,20.1,0,0,31,3.709,3.7,0,0,0,0,4.887,98.42,122.23210824214,3.608924,6,P-GPS,
12300,2022-08-24 00:43:57,-34.9065034317409,-56.1631889367093,3.608924,2.6902888,119.54181944214,122.23210824214,4.265092,0.894776,6.0185041296,22.4738524252,15,5,7.395,122.23210824214,3.608924,3.2211936,6.0185041296,0.894776,0,0,7.3, 0.3, 0.6,0,0,1099,1024,1024,1024,11,0,0,0,20.1,0,0,31,3.709,3.7,0,0,0,0,4.887,98.42,122.23210824214,3.608924,6,P-GPS,
12400,2022-08-24 00:43:57,-34.9065031143995,-56.163188834373,3.608924,2.6902888,119.54181944214,122.23210824214,4.265092,0.894776,6.1306104324,22.5936030852,15,5,7.395,122.23210824214,3.608924,3.2211936,6.1306104324,0.894776,0,0,7.3, 0.4, 0.6,0,0,1104,1024,1024,1024,12,0,0,0,20.1,0,0,31,3.709,3.7,0,0,0,0,4.887,98.42,122.23210824214,3.608924,6,P-GPS,
12500,2022-08-24 00:43:57,-34.9065028238754,-56.1631885823726,3.608924,2.6902888,119.54181944214,122.23210824214,4.265092,0.671082,6.2606957384,22.7236883912,15,5,7.395,122.23210824214,3.608924,3.2211936,6.2606957384,0.671082,0,0,7.3, 0.3, 0.6,0,0,1102,1024,1024,1024,12,0,0,0,20.1,0,0,31,3.709,3.7,0,0,0,0,4.887,98.42,122.23210824214,3.608924,6,P-GPS,
12600,2022-08-24 00:43:58,-34.9065024761684,-56.1631879161599,3.608924,2.624672,119.60743624214,122.23210824214,4.265092,0.671082,6.4798886588,22.959974488,14,5,7.395,122.23210824214,3.608924,3.2211936,6.4798886588,0.671082,0,0,7.3, 0.3, 0.7,0,0,1109,1024,1024,1024,13,0,0,0,20.1,0,0,31,3.709,3.7,0,0,0,0,4.887,98.42,122.23210824214,3.608924,6,P-GPS,
12700,2022-08-24 00:43:58,-34.9065021116591,-56.1631876467707,3.608924,2.624672,119.60743624214,122.23210824214,4.265092,0.671082,6.6348755404,23.115486304,14,5,7.395,122.23210824214,3.608924,3.2211936,6.6348755404,0.671082,0,0,7.3, 0.3, 0.6,0,0,1115,1024,1024,1024,14,0,0,0,20.1,0,0,31,3.709,3.7,0,0,0,0,4.887,98.42,122.23210824214,3.608924,6,P-GPS,
12800,2022-08-24 00:43:58,-34.9065017127131,-56.1631873799768,3.608924,2.5918636,119.64024464214,122.23210824214,4.265092,0.671082,6.7996065168,23.281496808,15,5,7.395,122.23210824214,3.608924,3.2211936,6.7996065168,0.671082,0,0,7.3, 0.2, 0.6,0,0,1107,1024,1024,1024,13,0,0,0,20.1,0,0,31,3.709,3.7,0,0,0,0,4.887,98.42,122.23210824214,3.608924,6,P-GPS,
12900,2022-08-24 00:43:58,-34.9065013708359,-56.1631873095739,3.608924,2.5262468,119.70586144214,122.23210824214,4.265092,0.671082,6.9134188564,23.40797319,15,5,7.395,122.23210824214,3.608924,3.2211936,6.9134188564,0.671082,0,0,7.3, 0, 0.6,0,0,1107,1024,1024,1024,13,0,0,0,20.1,0,0,31,3.709,3.7,0,0,0,0,4.887,98.42,122.23210824214,3.608924,6,P-GPS,
13000,2022-08-24 00:43:58,-34.9065007590572,-56.1631873944431,3.608924,2.5262468,119.70586144214,122.23210824214,4.265092,0.671082,7.0826117752,23.6326451132,15,5,7.402,122.23210824214,3.608924,3.2211936,7.0826117752,0.671082,0,0,7.3, 0, 0.6,0,0,1096,1024,1024,1024,11,0,0,0,20.1,0,0,30,3.704,3.695,0,0,0,0,4.415,98.42,122.23210824214,3.608924,6,P-GPS,
13100,2022-08-24 00:43:58,-34.9065004433166,-56.1631873678054,3.608924,2.4934384,119.73866984214,122.23210824214,4.265092,0.671082,7.1827758204,23.7480978728,15,5,7.402,122.23210824214,3.608924,3.2211936,7.1827758204,0.671082,0,0,7.3, 0, 0.5,0,0,1091,1024,1024,1024,10,0,0,0,20.1,0,0,30,3.704,3.695,0,0,0,0,4.415,98.42,122.23210824214,3.608924,6,P-GPS,
13200,2022-08-24 00:43:58,-34.9065001208798,-56.163187330594,3.608924,2.4934384,119.73866984214,122.23210824214,4.265092,0.671082,7.2871393408,23.8662737296,17,5,7.402,122.23210824214,3.608924,3.2211936,7.2871393408,0.671082,0,0,7.3, 0.2, 0.5,0,0,1095,1024,1029,1024,11,0,1,0,20.1,0,0,30,3.704,3.695,0,0,0,0,4.415,98.42,122.23210824214,3.608924,6,P-GPS,
13300,2022-08-24 00:43:58,-34.9064997763304,-56.1631873161284,3.608924,2.4934384,119.73866984214,122.23210824214,4.265092,0.671082,7.3950461684,23.9920611352,17,5,7.402,122.23210824214,3.608924,3.2211936,7.3950461684,0.671082,0,0,7.3, 0.2, 0.5,0,0,1096,1024,1024,1024,11,0,0,0,20.1,0,0,30,3.704,3.695,0,0,0,0,4.415,98.42,122.23210824214,3.608924,6,P-GPS,
13400,2022-08-24 00:43:58,-34.9064992689886,-56.1631875637081,3.608924,2.4934384,119.73866984214,122.23210824214,4.265092,0.671082,7.5127298992,24.191437782,16,5,7.402,122.23210824214,3.608924,3.2211936,7.5127298992,0.671082,0,0,7.3, 0.3, 0.6,0,0,1090,1024,1042,1024,10,0,3,0,20.1,0,0,30,3.704,3.695,0,0,0,0,4.415,98.42,122.23210824214,3.608924,6,P-GPS,
13500,2022-08-24 00:43:59,-34.9064988987163,-56.1631875499587,3.608924,2.4934384,119.73866984214,122.23210824214,4.265092,0.671082,7.6304792468,24.3265755816,16,5,7.402,122.23210824214,3.608924,3.2211936,7.6304792468,0.671082,0,0,7.3, 0.3, 0.5,0,0,1107,1024,1045,1024,13,0,3,0,20.1,0,0,30,3.704,3.695,0,0,0,0,4.415,98.42,122.23210824214,3.608924,6,P-GPS,
13600,2022-08-24 00:43:59,-34.9064985146185,-56.16318753203,3.608924,2.4934384,119.73866984214,122.23210824214,4.265092,0.671082,7.753773214,24.4668314916,16,5,7.402,122.23210824214,3.608924,3.2211936,7.753773214,0.671082,0,0,7.3, 0.3, 0.4,0,0,1126,1024,1063,1024,15,0,6,0,20.1,0,0,30,3.704,3.695,0,0,0,0,4.415,98.42,122.23210824214,3.608924,6,P-GPS,
13700,2022-08-24 00:43:59,-34.9064981839369,-56.1631874312849,3.608924,2.3950132,119.83709504214,122.23210824214,4.265092,0.671082,7.8731629816,24.5911753276,16,5,7.402,122.23210824214,3.608924,3.2211936,7.8731629816,0.671082,0,0,7.3, 0.1, 0.3,0,0,1154,1024,1066,1024,20,0,6,0,20.1,0,0,30,3.704,3.695,0,0,0,0,4.415,98.42,122.23210824214,3.608924,6,P-GPS,
13800,2022-08-24 00:43:59,-34.9064977036208,-56.1631872395197,3.608924,2.3950132,119.83709504214,122.23210824214,4.265092,0.671082,8.0536091816,24.775591344,17,5,7.402,122.23210824214,3.608924,3.2211936,8.0536091816,0.671082,0,0,7.3, -0.1, 0.3,0,0,1154,1024,1066,1024,20,0,6,0,20.1,0,0,30,3.704,3.695,0,0,0,0,4.415,98.42,122.23210824214,3.608924,6,P-GPS,
13900,2022-08-24 00:43:59,-34.9064973948873,-56.1631870416871,3.608924,2.3622048,119.86990344214,122.23210824214,4.265092,0.671082,8.18077454,24.9028223192,17,5,7.402,122.23210824214,3.608924,3.2211936,8.18077454,0.671082,0,0,7.3, -0.5, 0.3,0,0,1155,1024,1074,1024,20,0,8,0,20.1,0,0,30,3.704,3.695,0,0,0,0,4.415,98.42,122.23210824214,3.608924,6,P-GPS,
14000,2022-08-24 00:43:59,-34.9064970678274,-56.1631868182731,3.608924,2.3622048,119.86990344214,122.23210824214,4.265092,0.671082,8.3175527596,25.0396005388,16,5,7.398,122.23210824214,3.608924,3.2211936,8.3175527596,0.671082,0,0,7.3, -0.5, 0.4,0,0,1165,1024,1094,1024,21,0,11,0,20.1,0,0,30,3.702,3.694,0,0,0,0,4.568,98.6,122.23210824214,3.608924,6,P-GPS,
14100,2022-08-24 00:43:59,-34.9064967809216,-56.1631866626178,3.608924,2.3622048,119.86990344214,122.23210824214,4.265092,0.894776,8.4315291412,25.1541674716,16,5,7.398,122.23210824214,3.608924,3.2211936,8.4315291412,0.894776,0,0,7.3, -0.7, 0.5,0,0,1165,1024,1129,1024,21,0,16,0,20.1,0,0,30,3.702,3.694,0,0,0,0,4.568,98.6,122.23210824214,3.608924,6,P-GPS,
14200,2022-08-24 00:43:59,-34.9064964818025,-56.1631865206317,3.608924,2.3293964,119.90271184214,122.23210824214,4.265092,0.894776,8.5473756016,25.2712934596,17,5,7.398,122.23210824214,3.608924,3.2211936,8.5473756016,0.894776,0,0,7.3, -0.7, 0.4,0,0,1168,1024,1133,1024,22,0,17,0,20.1,0,0,30,3.702,3.694,0,0,0,0,4.568,98.6,122.23210824214,3.608924,6,P-GPS,
14300,2022-08-24 00:43:59,-34.9064963467556,-56.1631860782148,3.608924,2.296588,119.93552024214,122.23210824214,4.265092,0.894776,8.6561354476,25.4125336216,17,5,7.398,122.23210824214,3.608924,3.2211936,8.6561354476,0.894776,0,-0.223694,7.3, -0.9, 0.3,0,0,1166,1024,1133,1024,22,0,17,0,20.1,0,0,30,3.702,3.694,0,0,0,0,4.568,98.6,122.23210824214,3.608924,6,P-GPS,
14400,2022-08-24 00:43:59,-34.9064961835595,-56.1631858716242,3.608924,2.296588,119.93552024214,122.23210824214,4.265092,0.894776,8.7387141904,25.498360396,16,5,7.398,122.23210824214,3.608924,3.2211936,8.7387141904,0.894776,0,-0.223694,7.3, -0.9, 0.3,0,0,1166,1024,1134,1024,22,0,17,0,20.1,0,0,30,3.702,3.694,0,0,0,0,4.568,98.6,122.23210824214,3.608924,6,P-GPS,
14500,2022-08-24 00:44:00,-34.9064959355247,-56.1631856940504,3.608924,2.296588,119.93552024214,122.23210824214,4.265092,0.894776,8.843668262,25.6033144676,16,5,7.398,122.23210824214,3.608924,3.2211936,8.843668262,0.894776,0,-0.223694,7.2, -0.9, 0.2,0,0,1165,1024,1133,1024,21,0,17,0,20.1,0,0,30,3.702,3.694,0,0,0,0,4.568,98.6,122.23210824214,3.608924,6,P-GPS,
14600,2022-08-24 00:44:00,-34.9064956360213,-56.1631855215503,3.608924,2.296588,119.93552024214,122.23210824214,4.265092,0.894776,8.9640422816,25.7241478048,16,5,7.398,122.23210824214,3.608924,3.2211936,8.9640422816,0.894776,0,-0.223694,7.2, -0.8, 0.2,0,0,1165,1024,1133,1024,21,0,17,0,20.1,0,0,30,3.702,3.694,0,0,0,0,4.568,98.6,122.23210824214,3.608924,6,P-GPS,
14700,2022-08-24 00:44:00,-34.9064953866902,-56.1631854824827,3.937008,2.5590552,120.00113704214,122.56019224214,4.265092,0.894776,9.04855672,25.8158800912,16,5,7.398,122.56019224214,3.937008,3.2211936,9.04855672,0.894776,0,-0.223694,7.2, -0.7, 0.5,0,0,1165,1024,1133,1024,21,0,17,0,20.1,0,0,30,3.702,3.694,0,0,0,0,4.568,98.6,122.56019224214,3.937008,6,P-GPS,
14800,2022-08-24 00:44:00,-34.9064949874153,-56.1631854477471,3.937008,2.5590552,120.00113704214,122.56019224214,4.593176,0.894776,9.1800199788,25.9619102796,16,5,7.398,122.56019224214,3.937008,3.2211936,9.1800199788,0.894776,0,-0.223694,7.2, -0.8, 0.6,0,0,1165,1024,1133,1024,21,0,17,0,20.1,0,0,30,3.702,3.694,0,0,0,0,4.568,98.6,122.56019224214,3.937008,6,P-GPS,
14900,2022-08-24 00:44:00,-34.9064946236697,-56.1631851753846,3.937008,2.5590552,120.00113704214,122.56019224214,4.593176,0.894776,9.3356630284,26.1176517544,16,5,7.398,122.56019224214,3.937008,3.2211936,9.3356630284,0.894776,0,-0.223694,7.2, -0.7, 0.6,0,0,1165,1024,1132,1024,21,0,16,0,20.1,0,0,30,3.702,3.694,0,0,0,0,4.568,98.6,122.56019224214,3.937008,6,P-GPS,
15000,2022-08-24 00:44:00,-34.9064942487335,-56.1631848183776,3.937008,2.5262468,120.03394544214,122.56019224214,4.593176,0.894776,9.5074806192,26.2912081904,15,5,7.398,122.56019224214,3.937008,3.2211936,9.5074806192,0.894776,0,-0.223694,7.2, -0.8, 0.7,0,0,1165,1024,1127,1024,21,0,16,0,20.1,0,0,30,3.702,3.694,0,0,0,0,4.568,98.6,122.56019224214,3.937008,6,P-GPS,
15100,2022-08-24 00:44:00,-34.9064936659395,-56.1631837034058,3.937008,2.4934384,120.06675384214,122.56019224214,4.593176,1.11847,9.8597116016,26.6868118776,15,5,7.39,122.56019224214,3.937008,3.2211936,9.8597116016,1.11847,0,-0.223694,7.2, -0.8, 0.6,0,0,1165,1024,1127,1024,21,0,16,0,20.1,0,0,30,3.7,3.692,0,0,0,0,4.651,98.6,122.56019224214,3.937008,6,P-GPS,
15200,2022-08-24 00:44:00,-34.9064932151992,-56.1631832707628,3.937008,2.3950132,120.16517904214,122.56019224214,4.593176,1.11847,10.0673559652,26.8960966612,16,5,7.39,122.56019224214,3.937008,3.2211936,10.0673559652,1.11847,0,-0.223694,7.2, -0.9, 0.6,0,0,1165,1024,1131,1024,21,0,16,0,20.1,0,0,30,3.7,3.692,0,0,0,0,4.651,98.6,122.56019224214,3.937008,6,P-GPS,
15300,2022-08-24 00:44:00,-34.9064927759655,-56.1631826122948,4.265092,2.7230972,120.16517904214,122.88827624214,4.593176,1.11847,10.3066932432,27.1500664856,16,5,7.39,122.88827624214,4.265092,3.2211936,10.3066932432,1.11847,0,-0.223694,7.2, -1, 0.5,0,0,1141,1024,1134,1024,18,0,17,0,20.1,0,0,30,3.7,3.692,0,0,0,0,4.651,98.6,122.88827624214,4.265092,6,P-GPS,
15400,2022-08-24 00:44:00,-34.9064923081461,-56.1631818599751,4.265092,2.6574804,120.23079584214,122.88827624214,4.593176,1.11847,10.5704399708,27.432579618,16,5,7.39,122.88827624214,4.265092,3.2211936,10.5704399708,1.11847,0,-0.223694,7.2, -0.9, 0.4,0,0,1051,1024,1134,1024,4,0,17,0,20.1,0,0,30,3.7,3.692,0,0,0,0,4.651,98.6,122.88827624214,4.265092,6,P-GPS,
15500,2022-08-24 00:44:01,-34.9064916335828,-56.1631806410825,4.265092,2.624672,120.26360424214,122.88827624214,4.92126,1.11847,10.9742785664,27.872540262,16,5,7.39,122.88827624214,4.265092,3.2211936,10.9742785664,1.11847,0,-0.223694,7.2, -0.7, 0.4,0,0,1051,1024,1134,1024,4,0,17,0,20.1,0,0,30,3.7,3.692,0,0,0,0,4.651,98.6,122.88827624214,4.265092,6,P-GPS,
15600,2022-08-24 00:44:01,-34.9064911200953,-56.1631801777794,4.265092,2.5590552,120.32922104214,122.88827624214,4.92126,1.11847,11.2068901224,28.1056111356,15,5,7.39,122.88827624214,4.265092,3.2211936,11.2068901224,1.11847,0,-0.223694,7.2, 0.4, 0.4,0,0,1024,1024,1134,1024,0,0,17,0,20.1,0,0,30,3.7,3.692,0,0,0,0,4.651,98.6,122.88827624214,4.265092,6,P-GPS,
15700,2022-08-24 00:44:01,-34.9064906500254,-56.1631798561778,4.265092,2.5590552,120.32922104214,122.88827624214,4.92126,1.11847,11.4031171628,28.3022646852,15,5,7.39,122.88827624214,4.265092,3.2211936,11.4031171628,1.11847,0,-0.223694,7.2, 4.3, 0.5,0,0,1024,1024,1135,1024,0,0,17,0,20.1,0,0,30,3.7,3.692,0,0,0,0,4.651,98.6,122.88827624214,4.265092,6,P-GPS,
15800,2022-08-24 00:44:01,-34.9064902200706,-56.1631795618217,4.265092,2.5262468,120.36202944214,122.88827624214,4.92126,0.894776,11.5826447276,28.4821531424,16,5,7.39,122.88827624214,4.265092,3.2211936,11.5826447276,0.894776,0,-0.223694,7.2, 5, 0.5,0,0,1024,1024,1134,1024,0,0,17,0,20.1,0,0,30,3.7,3.692,0,0,0,0,4.651,98.6,122.88827624214,4.265092,6,P-GPS,
15900,2022-08-24 00:44:01,-34.906489864337,-56.1631793399519,4.593176,2.8215224,120.39483784214,123.21636024214,4.92126,0.671082,11.7276578556,28.627953672,16,5,7.39,123.21636024214,4.593176,3.2211936,11.7276578556,0.671082,0,-0.223694,7.2, 4.6, 0.6,0,0,1024,1024,1134,1024,0,0,17,0,20.1,0,0,30,3.7,3.692,0,0,0,0,4.651,98.6,123.21636024214,4.593176,6,P-GPS,
16000,2022-08-24 00:44:01,-34.9064894127988,-56.1631795580205,4.593176,2.788714,120.42764624214,123.21636024214,4.92126,0.447388,11.831365208,28.8051518404,16,5,7.39,123.21636024214,4.593176,3.2211936,11.831365208,0.447388,0,-0.223694,7.2, 3.9, 0.6,0,0,1024,1024,1129,1024,0,0,16,0,20.1,0,0,30,3.7,3.692,0,0,0,0,4.651,98.6,123.21636024214,4.593176,6,P-GPS,
16100,2022-08-24 00:44:01,-34.9064893482082,-56.1631792154203,4.593176,2.7559056,120.46045464214,123.21636024214,4.92126,0.447388,11.9062011684,28.9103027624,16,5,7.389,123.21636024214,4.593176,3.2211936,11.9062011684,0.447388,0,-0.223694,7.1, 3.4, 0.7,0,0,1025,1024,1114,1024,0,0,14,0,20.1,0,0,30,3.699,3.69,0,0,0,0,4.607,98.6,123.21636024214,4.593176,6,P-GPS,
16200,2022-08-24 00:44:01,-34.9064893791063,-56.1631788138228,4.593176,2.7559056,120.46045464214,123.21636024214,5.249344,0.223694,11.9618770232,29.031004866,16,5,7.389,123.21636024214,4.593176,3.2211936,11.9618770232,0.223694,0,-0.223694,7.1, 2.9, 0.6,0,0,1024,1024,1113,1024,0,0,13,0,20.1,0,0,30,3.699,3.69,0,0,0,0,4.607,98.6,123.21636024214,4.593176,6,P-GPS,
16300,2022-08-24 00:44:01,-34.9064893992208,-56.1631786704512,4.593176,2.7559056,120.46045464214,123.21636024214,5.249344,0.223694,11.9792326668,29.0745416128,16,5,7.389,123.21636024214,4.593176,3.2211936,11.9792326668,0.223694,0,-0.223694,7.1, 2.4, 0.7,0,0,1024,1024,1115,1024,0,0,14,0,20.1,0,0,30,3.699,3.69,0,0,0,0,4.607,98.6,123.21636024214,4.593176,6,P-GPS,
16400,2022-08-24 00:44:01,-34.9064897356866,-56.1631787803408,4.92126,3.1496064,120.39483784214,123.54444424214,5.249344,0,11.8586289884,29.201608546,16,5,7.389,123.54444424214,4.92126,3.2211936,11.9792326668,0,0,-0.223694,7.1, 1.8, 0.6,0,0,1024,1024,1115,1024,0,0,14,0,20.1,0,0,30,3.699,3.69,0,0,0,0,4.607,98.6,123.54444424214,4.92126,6,P-GPS,
16500,2022-08-24 00:44:01,-34.9064897709457,-56.1631787773113,4.92126,3.1496064,120.39483784214,123.54444424214,5.249344,0,11.848425576,29.2145022472,16,5,7.389,123.54444424214,4.92126,3.2211936,11.9792326668,0,0,-0.223694,7.1, 1.7, 0.6,0,0,1024,1024,1121,1024,0,0,15,0,20.1,0,0,30,3.699,3.69,0,0,0,0,4.607,98.6,123.54444424214,4.92126,6,P-GPS,
16600,2022-08-24 00:44:02,-34.9064898245899,-56.1631788037264,4.92126,3.1496064,120.39483784214,123.54444424214,5.249344,0,11.8277234756,29.2356308568,15,5,7.389,123.54444424214,4.92126,3.2211936,11.9792326668,0,0,-0.223694,7.1, 1.4, 0.6,0,0,1026,1024,1129,1024,0,0,16,0,20.1,0,0,30,3.699,3.69,0,0,0,0,4.607,98.6,123.54444424214,4.92126,6,P-GPS,
16700,2022-08-24 00:44:02,-34.9064898962545,-56.1631788557011,4.92126,3.1496064,120.39483784214,123.54444424214,5.249344,0,11.7973428972,29.2660442436,15,5,7.389,123.54444424214,4.92126,3.2211936,11.9792326668,0,0,-0.223694,7.1, 1.1, 0.5,0,0,1032,1024,1128,1024,1,0,16,0,20.1,0,0,30,3.699,3.69,0,0,0,0,4.607,98.6,123.54444424214,4.92126,6,P-GPS,
