time(millisecond),datetime(utc),latitude,longitude,height_above_takeoff(feet),height_above_ground_at_drone_location(feet),ground_elevation_at_drone_location(feet),altitude_above_seaLevel(feet),height_sonar(feet),speed(mph),distance(feet),mileage(feet),satellites,gpslevel,voltage(v),max_altitude(feet),max_ascent(feet),max_speed(mph),max_distance(feet), xSpeed(mph), ySpeed(mph), zSpeed(mph), compass_heading(degrees), pitch(degrees), roll(degrees),isPhoto,isVideo,rc_elevator,rc_aileron,rc_throttle,rc_rudder,rc_elevator(percent),rc_aileron(percent),rc_throttle(percent),rc_rudder(percent),gimbal_heading(degrees),gimbal_pitch(degrees),gimbal_roll(degrees),battery_percent,voltageCell1,voltageCell2,voltageCell3,voltageCell4,voltageCell5,voltageCell6,current(A),battery_temperature(f),altitude(feet),ascent(feet),flycStateRaw,flycState,message
0,2023-03-29 16:24:31,-34.9537864665315,-54.9408395252863,0,0,14.476778022312,14.476778022312,0.328084,0,0,0,24,5,0,14.476778022312,0,0,0,0,0,0,190.6, 0.8, 8.4,0,0,364,364,364,1684,-100,-100,-100,100,201.8,0,0,92,4.262,4.261,0,0,0,0,0,98.42,14.476778022312,0,41,Motors_Started,
100,2023-03-29 16:24:31,-34.9537863451277,-54.9408395374037,0,0,14.476778022312,14.476778022312,0.328084,0,0.044441930556,0.044441930556,24,5,0,14.476778022312,0,0,0.044441930556,0,0,0,190.5, 0.9, 8.4,0,0,364,364,364,1684,-100,-100,-100,100,201.8,0,0,92,4.262,4.261,0,0,0,0,0,98.42,14.476778022312,0,41,Motors_Started,"Error de calibración del estabilizador. Reinicia la aeronave o contacta con la Asistencia DJI (Code: 40011)"
200,2023-03-29 16:24:31,-34.9537863343963,-54.9408395392482,0,0,14.476778022312,14.476778022312,0.328084,0,0.048389765328,0.048395998924,24,5,0,14.476778022312,0,0,0.048389765328,0,0,0,190.6, 0.9, 8.4,0,0,364,364,364,1684,-100,-100,-100,100,201.8,0,0,92,4.262,4.261,0,0,0,0,0,98.42,14.476778022312,0,41,Motors_Started,
300,2023-03-29 16:24:31,-34.9537863704142,-54.9408395405582,0,0,14.476778022312,14.476778022312,0.328084,0,0.035364502444,0.061542980972,24,5,0,14.476778022312,0,0,0.048389765328,0,0,0,190.5, 0.9, 8.4,0,0,364,364,364,1684,-100,-100,-100,100,201.8,0,0,92,4.262,4.261,0,0,0,0,0,98.42,14.476778022312,0,41,Motors_Started,"Setting new Return-To-Home altitude to 60m (197 ft). Data Recorder File Index is 4. Setting new Maximum Flight Altitude to 120m (394 ft)"
400,2023-03-29 16:24:31,-34.9537863981922,-54.9408395416356,0,0,14.476778022312,14.476778022312,0.328084,0,0.0254083669548,0.07168307316,24,5,0,14.476778022312,0,0,0.048389765328,0,0,0,190.5, 0.9, 8.4,0,0,364,364,364,1684,-100,-100,-100,100,201.8,0,0,92,4.262,4.261,0,0,0,0,0,98.42,14.476778022312,0,41,Motors_Started,
500,2023-03-29 16:24:32,-34.9537865160036,-54.940839544668,0,0.065616799999999,14.411161222312,14.476778022312,0.328084,0,0.0189575793468,0.114675856688,24,5,0,14.476778022312,0,0,0.048389765328,0,0,0,190.6, 0.9, 8.3,0,0,364,364,364,1684,-100,-100,-100,100,201.8,0,0,92,4.262,4.261,0,0,0,0,0,98.42,14.476778022312,0,41,Motors_Started,
600,2023-03-29 16:24:32,-34.9537865272887,-54.9408395453709,0,0.065616799999999,14.411161222312,14.476778022312,0.328084,0,0.0229664705512,0.118798560232,24,5,0,14.476778022312,0,0,0.048389765328,0,0,0,190.5, 0.9, 8.4,0,0,364,364,364,1684,-100,-100,-100,100,201.8,0,0,92,4.262,4.261,0,0,0,0,0,98.42,14.476778022312,0,41,Motors_Started,
700,2023-03-29 16:24:32,-34.9537865325323,-54.9408395465326,0,0.065616799999999,14.411161222312,14.476778022312,0.328084,0,0.0249043971224,0.1207431141,24,5,0,14.476778022312,0,0,0.048389765328,0,0,0,190.5, 0.9, 8.4,0,0,364,364,364,1684,-100,-100,-100,100,201.8,0,0,92,4.262,4.261,0,0,0,0,0,98.42,14.476778022312,0,41,Motors_Started,
800,2023-03-29 16:24:32,-34.953786534988,-54.9408395477667,0,0.065616799999999,14.411161222312,14.476778022312,0.328084,0,0.0258651911164,0.121711946152,24,5,0,14.476778022312,0,0,0.048389765328,0,0,0,190.5, 0.9, 8.4,0,0,364,364,364,1684,-100,-100,-100,100,201.8,0,0,92,4.262,4.261,0,0,0,0,0,98.42,14.476778022312,0,41,Motors_Started,
900,2023-03-29 16:24:32,-34.9537865252857,-54.9408395566574,0,0.065616799999999,14.411161222312,14.476778022312,0.328084,0,0.023399278964,0.126139111648,24,5,0,14.476778022312,0,0,0.048389765328,0,0,0,190.6, 1, 8.4,0,0,364,364,364,1684,-100,-100,-100,100,201.8,0,0,92,4.262,4.261,0,0,0,0,0,98.42,14.476778022312,0,41,Motors_Started,
1000,2023-03-29 16:24:32,-34.953786497866,-54.9408395630084,0,0,14.476778022312,14.476778022312,0.328084,0,0.0160605976268,0.136321854756,24,5,0,14.476778022312,0,0,0.048389765328,0,0,0,190.5, 0.8, 8.4,0,0,591,616,824,1256,-66,-62,-30,35,201.8,0,0,92,4.262,4.261,0,0,0,0,0,98.42,14.476778022312,0,41,Motors_Started,
1100,2023-03-29 16:24:32,-34.9537864403461,-54.9408395691968,0,0,14.476778022312,14.476778022312,0.328084,0,0.0162385831968,0.157389440732,24,5,0,14.476778022312,0,0,0.048389765328,0,0,0,190.5, 0.9, 8.4,0,0,1024,1024,1024,1024,0,0,0,0,201.8,0,0,92,4.262,4.261,0,0,0,0,0,98.42,14.476778022312,0,10,Assisted_Takeoff,
1200,2023-03-29 16:24:32,-34.9537863995178,-54.9408395741214,0,0,14.476778022312,14.476778022312,0.328084,0,0.0284791019612,0.172358273232,24,5,8.55,14.476778022312,0,0,0.048389765328,0,0,0,190.5, 0.8, 8.4,0,0,1024,1024,1024,1024,0,0,0,0,201.8,0,0,92,4.262,4.261,0,0,0,0,0.592,98.42,14.476778022312,0,10,Assisted_Takeoff,
1300,2023-03-29 16:24:32,-34.9537863769019,-54.9408395775228,0,0,14.476778022312,14.476778022312,0.328084,0,0.036240486724,0.180671921792,24,5,8.55,14.476778022312,0,0,0.048389765328,0,0,0,190.5, 0.8, 8.4,0,0,1024,1024,1024,1024,0,0,0,0,201.8,0,0,92,4.262,4.261,0,0,0,0,0.592,98.42,14.476778022312,0,10,Assisted_Takeoff,
1400,2023-03-29 16:24:32,-34.95378627601,-54.9408395369577,0,0,14.476778022312,14.476778022312,0.328084,0,0.069599083592,0.219429468964,24,5,8.55,14.476778022312,0,0,0.069599083592,0,0,0,190.5, 1, 8.4,0,0,1024,1024,1024,1024,0,0,0,0,201.8,0,0,92,4.262,4.261,0,0,0,0,0.592,98.42,14.476778022312,0,10,Assisted_Takeoff,
1500,2023-03-29 16:24:33,-34.9537862712159,-54.9408394844161,0,-0.032808399999999,14.509586422312,14.476778022312,0.328084,0,0.072301183416,0.235238524588,24,5,8.55,14.476778022312,0,0,0.072301183416,0,0,0,190.5, 0.9, 8.4,0,0,1024,1024,1024,1024,0,0,0,0,201.8,0,0,92,4.262,4.261,0,0,0,0,0.592,98.42,14.476778022312,0,10,Assisted_Takeoff,
1600,2023-03-29 16:24:33,-34.9537862706622,-54.9408394475862,0,-0.032808399999999,14.509586422312,14.476778022312,0.328084,0,0.075145343612,0.246253944888,24,5,8.55,14.476778022312,0,0,0.075145343612,0,0,0,190.5, 0.8, 8.4,0,0,1024,1024,1024,1024,0,0,0,0,201.8,0,0,92,4.262,4.261,0,0,0,0,0.592,98.42,14.476778022312,0,10,Assisted_Takeoff,
1700,2023-03-29 16:24:33,-34.9537862736716,-54.9408394284292,0,-0.032808399999999,14.509586422312,14.476778022312,0.328084,0,0.076092850204,0.25208662224,24,5,8.55,14.476778022312,0,0,0.076092850204,0,0,0,190.5, 0.9, 8.4,0,0,1024,1024,1024,1024,0,0,0,0,201.8,0,0,92,4.262,4.261,0,0,0,0,0.592,98.42,14.476778022312,0,10,Assisted_Takeoff,
1800,2023-03-29 16:24:33,-34.9537863338263,-54.9408393399905,0,-0.032808399999999,14.509586422312,14.476778022312,0.328084,0,0.073583335688,0.286453749324,24,5,8.55,14.476778022312,0,0,0.076092850204,0,0,0,190.5, 0.9, 8.4,0,0,1024,1024,1024,1024,0,0,0,0,201.8,0,0,92,4.262,4.261,0,0,0,0,0.592,98.42,14.476778022312,0,10,Assisted_Takeoff,
1900,2023-03-29 16:24:33,-34.9537863381678,-54.9408393399644,0,-0.032808399999999,14.509586422312,14.476778022312,0.328084,0,0.072557088936,0.288037738876,24,5,8.55,14.476778022312,0,0,0.076092850204,0,0,0,190.5, 0.9, 8.4,0,0,1024,1024,1024,1024,0,0,0,0,201.8,0,0,92,4.262,4.261,0,0,0,0,0.592,98.42,14.476778022312,0,10,Assisted_Takeoff,
2000,2023-03-29 16:24:33,-34.9537863426297,-54.9408393434162,0,-0.032808399999999,14.509586422312,14.476778022312,0.328084,0,0.07072014662,0.28996556046,24,5,8.55,14.476778022312,0,0,0.076092850204,0,0,0,190.5, 0.8, 8.4,0,0,1024,1024,1024,1024,0,0,0,0,201.8,0,0,92,4.262,4.261,0,0,0,0,0.592,98.42,14.476778022312,0,10,Assisted_Takeoff,
2100,2023-03-29 16:24:33,-34.9537863455804,-54.9408393487779,0,-0.032808399999999,14.509586422312,14.476778022312,0.328084,0,0.0687992148,0.291896662884,24,5,8.55,14.476778022312,0,0,0.076092850204,0,0,0,190.5, 0.9, 8.4,0,0,1024,1024,1024,1024,0,0,0,0,201.8,0,0,92,4.262,4.261,0,0,0,0,0.592,98.42,14.476778022312,0,10,Assisted_Takeoff,
2200,2023-03-29 16:24:33,-34.9537863867573,-54.9408393133173,0,-0.032808399999999,14.509586422312,14.476778022312,0.328084,0,0.069749346064,0.310285443,24,5,8.518,14.476778022312,0,0,0.076092850204,0,0,0,190.5, 0.9, 8.4,0,0,1024,1024,1024,1024,0,0,0,0,201.8,0,0,92,4.265,4.262,0,0,0,0,1.26,98.6,14.476778022312,0,10,Assisted_Takeoff,
2300,2023-03-29 16:24:33,-34.9537863883531,-54.9408392674786,0,-0.032808399999999,14.509586422312,14.476778022312,0.328084,0,0.082201118116,0.324005259712,24,5,8.518,14.476778022312,0,0,0.082201118116,0,0,0,190.5, 0.9, 8.4,0,0,1024,1024,1024,1024,0,0,0,0,201.8,0,0,92,4.265,4.262,0,0,0,0,1.26,98.6,14.476778022312,0,10,Assisted_Takeoff,
2400,2023-03-29 16:24:33,-34.9537863892488,-54.9408392382548,0,-0.032808399999999,14.509586422312,14.476778022312,0.328084,0,0.090345475332,0.33274935448,24,5,8.518,14.476778022312,0,0,0.090345475332,0,0,0,190.5, 0.9, 8.4,0,0,1024,1024,1024,1024,0,0,0,0,201.8,0,0,92,4.265,4.262,0,0,0,0,1.26,98.6,14.476778022312,0,10,Assisted_Takeoff,
2500,2023-03-29 16:24:34,-34.9537863891511,-54.9408392269295,0,-0.032808399999999,14.509586422312,14.476778022312,0.328084,0,0.093579727404,0.3361384622,24,5,8.518,14.476778022312,0,0,0.093579727404,0,0,0,190.5, 0.8, 8.4,0,0,1024,1024,1024,1024,0,0,0,0,201.8,0,0,92,4.265,4.262,0,0,0,0,1.26,98.6,14.476778022312,0,10,Assisted_Takeoff,
2600,2023-03-29 16:24:34,-34.9537863884802,-54.9408392640822,0,-0.032808399999999,14.509586422312,14.476778022312,0.328084,0,0.083138454104,0.34725066728,24,5,8.518,14.476778022312,0,0,0.093579727404,0,0,0,190.5, 0.9, 8.4,0,0,1024,1024,1024,1024,0,0,0,0,201.8,0,0,92,4.265,4.262,0,0,0,0,1.26,98.6,14.476778022312,0,10,Assisted_Takeoff,
2700,2023-03-29 16:24:34,-34.9537863864446,-54.9408392676648,0,-0.032808399999999,14.509586422312,14.476778022312,0.328084,0,0.08239337534,0.34855316076,24,5,8.518,14.476778022312,0,0,0.093579727404,0,0,0,190.5, 0.8, 8.4,0,0,1024,1024,1024,1024,0,0,0,0,201.8,0,0,92,4.265,4.262,0,0,0,0,1.26,98.6,14.476778022312,0,10,Assisted_Takeoff,
2800,2023-03-29 16:24:34,-34.9537864079564,-54.9408392502778,0,-0.032808399999999,14.509586422312,14.476778022312,0.328084,0,0.08496883474,0.35796917156,24,5,8.518,14.476778022312,0,0,0.093579727404,0,0,0,190.5, 0.9, 8.4,0,0,1024,1024,1024,1024,0,0,0,0,201.8,0,0,92,4.265,4.262,0,0,0,0,1.26,98.6,14.476778022312,0,10,Assisted_Takeoff,
2900,2023-03-29 16:24:34,-34.9537864579691,-54.9408392065465,0,-0.032808399999999,14.509586422312,14.476778022312,0.328084,0,0.0953658167,0.38041667884,24,5,8.518,14.476778022312,0,0,0.0953658167,0,0,0,190.5, 0.8, 8.4,0,0,1024,1024,1024,1024,0,0,0,0,201.8,0,0,92,4.265,4.262,0,0,0,0,1.26,98.6,14.476778022312,0,10,Assisted_Takeoff,
3000,2023-03-29 16:24:34,-34.9537864912317,-54.9408391792267,0,-0.032808399999999,14.509586422312,14.476778022312,0.328084,0,0.103875987576,0.3950459444,24,5,8.518,14.476778022312,0,0,0.103875987576,0,0,0,190.5, 0.9, 8.4,0,0,1024,1024,1024,1024,0,0,0,0,201.8,0,0,92,4.265,4.262,0,0,0,0,1.26,98.6,14.476778022312,0,10,Assisted_Takeoff,
3100,2023-03-29 16:24:34,-34.9537865953316,-54.9408391363923,0,0,14.476778022312,14.476778022312,0.328084,0,0.125429137872,0.43512796668,24,5,8.518,14.476778022312,0,0,0.125429137872,0,0,0,190.5, 0.9, 8.4,0,0,1024,1024,1024,1024,0,0,0,0,201.8,0,0,92,4.265,4.262,0,0,0,0,1.26,98.6,14.476778022312,0,10,Assisted_Takeoff,
3200,2023-03-29 16:24:34,-34.9537866036367,-54.9408391132893,0,0,14.476778022312,14.476778022312,0.328084,0,0.132969820528,0.44267389868,24,5,8.526,14.476778022312,0,0,0.132969820528,0,0,0,190.5, 0.8, 8.4,0,0,1024,1024,1024,1024,0,0,0,0,201.8,0,0,92,4.264,4.262,0,0,0,0,1.317,98.6,14.476778022312,0,10,Assisted_Takeoff,
3300,2023-03-29 16:24:34,-34.9537866031417,-54.9408390698829,0,0,14.476778022312,14.476778022312,0.328084,0,0.14501640884,0.45565290172,24,5,8.526,14.476778022312,0,0,0.14501640884,0,0,0,190.5, 0.9, 8.4,0,0,1024,1024,1024,1024,0,0,0,0,201.8,0,0,92,4.264,4.262,0,0,0,0,1.317,98.6,14.476778022312,0,10,Assisted_Takeoff,
3400,2023-03-29 16:24:34,-34.9537866226602,-54.94083904482,0,0,14.476778022312,14.476778022312,0.328084,0,0.154556763476,0.4659941094,24,5,8.526,14.476778022312,0,0,0.154556763476,0,0,0,190.5, 0.9, 8.4,0,0,1024,1024,1024,1024,0,0,0,0,201.8,0,0,92,4.264,4.262,0,0,0,0,1.317,98.6,14.476778022312,0,10,Assisted_Takeoff,
3500,2023-03-29 16:24:34,-34.9537866817564,-54.9408390117781,0,0,14.476778022312,14.476778022312,0.328084,0,0.172470149876,0.48971130176,24,5,8.526,14.476778022312,0,0,0.172470149876,0,0,0,190.5, 1, 8.4,0,0,1024,1024,1024,1024,0,0,0,0,201.8,0,0,92,4.264,4.262,0,0,0,0,1.317,98.6,14.476778022312,0,10,Assisted_Takeoff,
3600,2023-03-29 16:24:35,-34.9537867071243,-54.940839012387,0,0,14.476778022312,14.476778022312,0.328084,0,0.176718181508,0.4989665514,24,5,8.526,14.476778022312,0,0,0.176718181508,0,0,0,190.5, 0.8, 8.4,0,0,1024,1024,1024,1024,0,0,0,0,201.8,0,0,92,4.264,4.262,0,0,0,0,1.317,98.6,14.476778022312,0,10,Assisted_Takeoff,
3700,2023-03-29 16:24:35,-34.9537867141397,-54.9408390203413,0,0,14.476778022312,14.476778022312,0.328084,0,0.17595801088,0.502460646,24,5,8.526,14.476778022312,0,0,0.176718181508,0,0,0,190.5, 0.9, 8.4,0,0,1024,1024,1024,1024,0,0,0,0,201.8,0,0,92,4.264,4.262,0,0,0,0,1.317,98.6,14.476778022312,0,10,Assisted_Takeoff,
3800,2023-03-29 16:24:35,-34.9537867124656,-54.9408390048778,0,0,14.476778022312,14.476778022312,0.328084,0,0.179636160604,0.50712600048,24,5,8.526,14.476778022312,0,0,0.179636160604,0,0,0,190.5, 0.9, 8.4,0,0,1024,1024,1024,1024,0,0,0,0,201.8,0,0,92,4.264,4.262,0,0,0,0,1.317,98.6,14.476778022312,0,10,Assisted_Takeoff,
3900,2023-03-29 16:24:35,-34.9537866646056,-54.9408389576101,0,0,14.476778022312,14.476778022312,0.328084,0,0.1844980374,0.52958991196,24,5,8.526,14.476778022312,0,0,0.1844980374,0,0,0,190.5, 0.9, 8.4,0,0,1024,1024,1024,1024,0,0,0,0,201.8,0,0,92,4.264,4.262,0,0,0,0,1.317,98.6,14.476778022312,0,10,Assisted_Takeoff,
4000,2023-03-29 16:24:35,-34.9537866830917,-54.9408389342964,0,0,14.476778022312,14.476778022312,0.328084,0,0.193585636116,0.53929135584,24,5,8.526,14.476778022312,0,0,0.193585636116,0,0,0,190.5, 0.9, 8.4,0,0,1024,1024,1024,1024,0,0,0,0,201.8,0,0,92,4.264,4.262,0,0,0,0,1.317,98.6,14.476778022312,0,10,Assisted_Takeoff,
4100,2023-03-29 16:24:35,-34.9537867261999,-54.9408389262177,0,0,14.476778022312,14.476778022312,0.328084,0,0.202651909372,0.55520342984,24,5,8.526,14.476778022312,0,0,0.202651909372,0,0,0,190.5, 0.8, 8.4,0,0,1024,1024,1024,1024,0,0,0,0,201.8,0,0,92,4.264,4.262,0,0,0,0,1.317,98.6,14.476778022312,0,10,Assisted_Takeoff,
4200,2023-03-29 16:24:35,-34.9537867514473,-54.9408389259712,0,0,14.476778022312,14.476778022312,0.328084,0,0.207182421328,0.56441602856,24,5,8.525,14.476778022312,0,0,0.207182421328,0,0,0,190.5, 0.9, 8.4,0,0,1024,1024,1024,1024,0,0,0,0,201.8,0,0,92,4.263,4.262,0,0,0,0,1.163,98.6,14.476778022312,0,10,Assisted_Takeoff,
4300,2023-03-29 16:24:35,-34.9537867979003,-54.9408389762161,0,0,14.476778022312,14.476778022312,0.328084,0,0.20390092516,0.58706694792,24,5,8.525,14.476778022312,0,0,0.207182421328,0,0,0,190.5, 0.9, 8.4,0,0,1024,1024,1024,1024,0,0,0,0,201.8,0,0,92,4.263,4.262,0,0,0,0,1.163,98.6,14.476778022312,0,10,Assisted_Takeoff,
4400,2023-03-29 16:24:35,-34.9537868253949,-54.9408389573824,0,0,14.476778022312,14.476778022312,0.328084,0,0.214436358568,0.59856957296,24,5,8.525,14.476778022312,0,0,0.214436358568,0,0,0,190.5, 0.9, 8.4,0,0,1024,1024,1024,1024,0,0,0,0,201.8,0,0,92,4.263,4.262,0,0,0,0,1.163,98.6,14.476778022312,0,10,Assisted_Takeoff,
4500,2023-03-29 16:24:36,-34.9537868722062,-54.9408389137923,0,0,14.476778022312,14.476778022312,0.328084,0,0.235253616452,0.62005579412,24,5,8.525,14.476778022312,0,0,0.235253616452,0,0,0,190.5, 0.8, 8.4,0,0,1024,1024,1024,1024,0,0,0,0,201.8,0,0,92,4.263,4.262,0,0,0,0,1.163,98.6,14.476778022312,0,10,Assisted_Takeoff,
4600,2023-03-29 16:24:36,-34.9537868983297,-54.9408388880357,0,0,14.476778022312,14.476778022312,0.328084,0,0.247250335996,0.63230973152,24,5,8.525,14.476778022312,0,0,0.247250335996,0,0,0,190.5, 0.8, 8.4,0,0,1024,1024,1024,1024,0,0,0,0,201.8,0,0,92,4.263,4.262,0,0,0,0,1.163,98.6,14.476778022312,0,10,Assisted_Takeoff,
4700,2023-03-29 16:24:36,-34.9537869059052,-54.9408388781354,0,0,14.476778022312,14.476778022312,0.328084,0,0.251293315128,0.63635828808,24,5,8.525,14.476778022312,0,0,0.251293315128,0,0,0,190.5, 0.9, 8.4,0,0,1024,1024,1024,1024,0,0,0,0,201.8,0,0,92,4.263,4.262,0,0,0,0,1.163,98.6,14.476778022312,0,10,Assisted_Takeoff,
4800,2023-03-29 16:24:36,-34.9537869227303,-54.9408388345885,0,0,14.476778022312,14.476778022312,0.328084,0,0.265261491428,0.650754614,24,5,8.525,14.476778022312,0,0,0.265261491428,0,0,0,190.5, 0.9, 8.4,0,0,1024,1024,1024,1024,0,0,0,0,201.8,0,0,92,4.263,4.262,0,0,0,0,1.163,98.6,14.476778022312,0,10,Assisted_Takeoff,
4900,2023-03-29 16:24:36,-34.9537869154902,-54.9408388388705,0,0,14.476778022312,14.476778022312,0.328084,0,0.262610244624,0.6536909658,24,5,8.525,14.476778022312,0,0,0.265261491428,0,0,0,190.5, 0.9, 8.4,0,0,1024,1024,1024,1024,0,0,0,0,201.8,0,0,92,4.263,4.262,0,0,0,0,1.163,98.6,14.476778022312,0,10,Assisted_Takeoff,
5000,2023-03-29 16:24:36,-34.9537869060843,-54.9408388194211,0,0,14.476778022312,14.476778022312,0.328084,0,0.265090559664,0.66044293452,24,5,8.525,14.476778022312,0,0,0.265261491428,0,0,0,190.5, 0.8, 8.4,0,0,1024,1024,1024,1024,0,0,0,0,201.8,0,0,92,4.263,4.262,0,0,0,0,1.163,98.6,14.476778022312,0,10,Assisted_Takeoff,
5100,2023-03-29 16:24:36,-34.9537868955776,-54.9408387754213,0,0,14.476778022312,14.476778022312,0.328084,0,0.273470153108,0.6741470032,24,5,8.525,14.476778022312,0,0,0.273470153108,0,0,0,190.5, 0.9, 8.4,0,0,1024,1024,1024,1024,0,0,0,0,201.8,0,0,92,4.263,4.262,0,0,0,0,1.163,98.6,14.476778022312,0,10,Assisted_Takeoff,
5200,2023-03-29 16:24:36,-34.9537868386928,-54.9408387308357,0,0,14.476778022312,14.476778022312,0.328084,0,0.273634851276,0.69881563916,24,5,8.525,14.476778022312,0,0,0.273634851276,0,0,0,190.5, 0.9, 8.4,0,0,1024,1024,1024,1024,0,0,0,0,201.8,0,0,92,4.263,4.262,0,0,0,0,1.163,98.6,14.476778022312,0,10,Assisted_Takeoff,
5300,2023-03-29 16:24:36,-34.9537868823937,-54.9408387203218,0,0,14.476778022312,14.476778022312,0.328084,0,0.284541675772,0.71506892052,24,5,8.525,14.476778022312,0,0,0.284541675772,0,0,0,190.5, 0.8, 8.4,0,0,1024,1024,1024,1024,0,0,0,0,201.8,0,0,92,4.263,4.262,0,0,0,0,1.163,98.6,14.476778022312,0,10,Assisted_Takeoff,
5400,2023-03-29 16:24:36,-34.9537869094227,-54.9408387179386,0,0,14.476778022312,14.476778022312,0.328084,0,0.290512148404,0.72495409144,24,5,8.523,14.476778022312,0,0,0.290512148404,0,0,0,190.5, 0.8, 8.4,0,0,1024,1024,1024,1024,0,0,0,0,201.8,0,0,92,4.263,4.26,0,0,0,0,1.163,98.6,14.476778022312,0,10,Assisted_Takeoff,
5500,2023-03-29 16:24:37,-34.9537869213787,-54.9408387222847,0,0,14.476778022312,14.476778022312,0.328084,0,0.291890757372,0.72950789736,24,5,8.523,14.476778022312,0,0,0.291890757372,0,0,0,190.5, 0.8, 8.4,0,0,1024,1024,1024,1024,0,0,0,0,201.8,0,0,92,4.263,4.26,0,0,0,0,1.163,98.6,14.476778022312,0,10,Assisted_Takeoff,
5600,2023-03-29 16:24:37,-34.9537869663237,-54.9408387983037,0,0,14.476778022312,14.476778022312,0.328084,0,0.28374508782,0.75753611348,24,5,8.523,14.476778022312,0,0,0.291890757372,0,0,0,190.5, 0.9, 8.4,0,0,1024,1024,1024,1024,0,0,0,0,201.8,0,0,92,4.263,4.26,0,0,0,0,1.163,98.6,14.476778022312,0,10,Assisted_Takeoff,
5700,2023-03-29 16:24:37,-34.9537869651285,-54.940838806626,0,0,14.476778022312,14.476778022312,0.328084,0,0.281560704548,0.76006236028,24,5,8.523,14.476778022312,0,0,0.291890757372,0,0,0,190.4, 0.8, 8.4,0,0,1024,1024,1024,1024,0,0,0,0,201.8,0,0,92,4.263,4.26,0,0,0,0,1.163,98.6,14.476778022312,0,10,Assisted_Takeoff,
5800,2023-03-29 16:24:37,-34.9537869609401,-54.9408387884027,0,0,14.476778022312,14.476778022312,0.328084,0,0.284771334572,0.76572180928,24,5,8.523,14.476778022312,0,0,0.291890757372,0,0,0,190.5, 0.8, 8.4,0,0,1024,1024,1024,1024,0,0,0,0,201.8,0,0,92,4.263,4.26,0,0,0,0,1.163,98.6,14.476778022312,0,10,Assisted_Takeoff,
5900,2023-03-29 16:24:37,-34.9537869545012,-54.9408387438525,0,0,14.476778022312,14.476778022312,0.328084,0,0.293771006776,0.7792487126,24,5,8.523,14.476778022312,0,0,0.293771006776,0,0,0,190.5, 0.9, 8.4,0,0,1024,1024,1024,1024,0,0,0,0,201.8,0,0,92,4.263,4.26,0,0,0,0,1.163,98.6,14.476778022312,0,10,Assisted_Takeoff,
6000,2023-03-29 16:24:37,-34.9537869115983,-54.9408386569417,0,0,14.476778022312,14.476778022312,0.328084,0,0.306258868068,0.80958992092,24,5,8.523,14.476778022312,0,0,0.306258868068,0,0,0,190.5, 0.9, 8.4,0,0,1024,1024,1024,1024,0,0,0,0,201.8,0,0,92,4.263,4.26,0,0,0,0,1.163,98.6,14.476778022312,0,10,Assisted_Takeoff,
6100,2023-03-29 16:24:37,-34.9537869058043,-54.9408386449476,0,0,14.476778022312,14.476778022312,0.328084,0,0.308201125348,0.81375330688,24,5,8.523,14.476778022312,0,0,0.308201125348,0,0,0,190.5, 0.9, 8.4,0,0,1024,1024,1024,1024,0,0,0,0,201.8,0,0,92,4.263,4.26,0,0,0,0,1.163,98.6,14.476778022312,0,10,Assisted_Takeoff,
6200,2023-03-29 16:24:37,-34.9537869006258,-54.9408386422774,0,0,14.476778022312,14.476778022312,0.328084,0,0.307907490168,0.81580383188,24,5,8.523,14.476778022312,0,0,0.308201125348,0,0,0,190.4, 0.8, 8.4,0,0,1024,1024,1024,1024,0,0,0,0,201.8,0,0,92,4.263,4.26,0,0,0,0,1.163,98.6,14.476778022312,0,10,Assisted_Takeoff,
6300,2023-03-29 16:24:37,-34.9537868961118,-54.940838646782,0,0,14.476778022312,14.476778022312,0.328084,0,0.305905849684,0.81793309704,24,5,8.523,14.476778022312,0,0,0.308201125348,0,0,0,190.5, 0.9, 8.4,0,0,1024,1024,1024,1024,0,0,0,0,201.8,0,0,92,4.263,4.26,0,0,0,0,1.163,98.6,14.476778022312,0,10,Assisted_Takeoff,
6400,2023-03-29 16:24:37,-34.9537868926464,-54.9408386530919,0,0,14.476778022312,14.476778022312,0.328084,0,0.303637804992,0.82020343832,24,5,8.522,14.476778022312,0,0,0.308201125348,0,0,0,190.4, 0.9, 8.4,0,0,1024,1024,1024,1024,0,0,0,0,201.8,0,0,92,4.262,4.259,0,0,0,0,1.163,98.78,14.476778022312,0,10,Assisted_Takeoff,
6500,2023-03-29 16:24:37,-34.953786877567,-54.9408387125823,0,0,14.476778022312,14.476778022312,0.328084,0,0.285573499952,0.83882548616,24,5,8.522,14.476778022312,0,0,0.308201125348,0,0,0,190.5, 0.8, 8.4,0,0,1024,1024,1024,1024,0,0,0,0,201.8,0,0,92,4.262,4.259,0,0,0,0,1.163,98.78,14.476778022312,0,10,Assisted_Takeoff,
6600,2023-03-29 16:24:38,-34.9537868750234,-54.9408386946277,0,0,14.476778022312,14.476778022312,0.328084,0,0.289677830792,0.84427168056,24,5,8.522,14.476778022312,0,0,0.308201125348,0,0,0,190.5, 0.8, 8.4,0,0,1024,1024,1024,1024,0,0,0,0,201.8,0,0,92,4.262,4.259,0,0,0,0,1.163,98.78,14.476778022312,0,10,Assisted_Takeoff,
6700,2023-03-29 16:24:38,-34.9537868730302,-54.9408386499041,0,0,14.476778022312,14.476778022312,0.328084,0,0.300865495192,0.85766735028,24,5,8.522,14.476778022312,0,0,0.308201125348,0,0,0,190.4, 0.8, 8.4,0,0,1024,1024,1024,1024,0,0,0,0,201.8,0,0,92,4.262,4.259,0,0,0,0,1.163,98.78,14.476778022312,0,10,Assisted_Takeoff,
6800,2023-03-29 16:24:38,-34.9537868717405,-54.9408386223961,0,0,14.476778022312,14.476778022312,0.328084,0,0.307822844496,0.86590553952,24,5,8.522,14.476778022312,0,0,0.308201125348,0,0,0,190.5, 0.9, 8.4,0,0,1024,1024,1024,1024,0,0,0,0,201.8,0,0,92,4.262,4.259,0,0,0,0,1.163,98.78,14.476778022312,0,10,Assisted_Takeoff,
6900,2023-03-29 16:24:38,-34.9537868823384,-54.940838550124,0,0,14.476778022312,14.476778022312,0.328084,0,0.32871064044,0.8878609208,24,5,8.522,14.476778022312,0,0,0.32871064044,0,0,0,190.4, 0.8, 8.4,0,0,1024,1024,1024,1024,0,0,0,0,201.8,0,0,92,4.262,4.259,0,0,0,0,1.163,98.78,14.476778022312,0,10,Assisted_Takeoff,
7000,2023-03-29 16:24:38,-34.9537868812929,-54.9408385453576,0,0,14.476778022312,14.476778022312,0.328084,0,0.32979987932,0.8893372988,24,5,8.522,14.476778022312,0,0,0.32979987932,0,0,0,190.5, 0.8, 8.4,0,0,1024,1024,1024,1024,0,0,0,0,201.8,0,0,92,4.262,4.259,0,0,0,0,1.163,98.78,14.476778022312,0,10,Assisted_Takeoff,
7100,2023-03-29 16:24:38,-34.9537868797654,-54.9408385485983,0,0,14.476778022312,14.476778022312,0.328084,0,0.32868439372,0.8904527844,24,5,8.522,14.476778022312,0,0,0.32979987932,0,0,0,190.4, 0.9, 8.4,0,0,1024,1024,1024,1024,0,0,0,0,201.8,0,0,92,4.262,4.259,0,0,0,0,1.163,98.78,14.476778022312,0,10,Assisted_Takeoff,
7200,2023-03-29 16:24:38,-34.9537868779741,-54.9408385550618,0,0,14.476778022312,14.476778022312,0.328084,0,0.326666349036,0.89249346688,24,5,8.522,14.476778022312,0,0,0.32979987932,0,0,0,190.5, 0.9, 8.4,0,0,1024,1024,1024,1024,0,0,0,0,201.8,0,0,92,4.262,4.259,0,0,0,0,1.163,98.78,14.476778022312,0,10,Assisted_Takeoff,
7300,2023-03-29 16:24:38,-34.953786880622,-54.9408386068051,0,0,14.476778022312,14.476778022312,0.328084,0,0.313469170136,0.90799871672,24,5,8.522,14.476778022312,0,0,0.32979987932,0,0,0,190.5, 0.9, 8.4,0,0,1024,1024,1024,1024,0,0,0,0,201.8,0,0,92,4.262,4.259,0,0,0,0,1.163,98.78,14.476778022312,0,10,Assisted_Takeoff,
7400,2023-03-29 16:24:38,-34.9537868786613,-54.9408385884843,0,0,14.476778022312,14.476778022312,0.328084,0,0.31794128314,0.91352365128,24,5,8.522,14.476778022312,0,0,0.32979987932,0,0,0,190.4, 0.8, 8.4,0,0,1024,1024,1024,1024,0,0,0,0,201.8,0,0,92,4.262,4.259,0,0,0,0,1.163,98.78,14.476778022312,0,10,Assisted_Takeoff,
7500,2023-03-29 16:24:39,-34.9537868772088,-54.9408385413791,0,0,14.476778022312,14.476778022312,0.328084,0,0.33018045676,0.92761813992,24,5,8.52,14.476778022312,0,0,0.33018045676,0,0,0,190.5, 0.9, 8.4,0,0,1024,1024,1024,1024,0,0,0,0,201.8,0,0,92,4.261,4.259,0,0,0,0,1.172,98.78,14.476778022312,0,10,Assisted_Takeoff,
7600,2023-03-29 16:24:39,-34.9537868761405,-54.9408385104354,0,0,14.476778022312,14.476778022312,0.328084,0,0.33827756988,0.93687995124,24,5,8.52,14.476778022312,0,0,0.33827756988,0,0,0,190.4, 0.8, 8.4,0,0,1024,1024,1024,1024,0,0,0,0,201.8,0,0,92,4.261,4.259,0,0,0,0,1.172,98.78,14.476778022312,0,10,Assisted_Takeoff,
7700,2023-03-29 16:24:39,-34.9537868902559,-54.9408384437804,0,-0.032808399999999,14.509586422312,14.476778022312,0.328084,0,0.35845801672,0.95746722224,24,5,8.52,14.476778022312,0,0,0.35845801672,0,0,0,190.5, 0.8, 8.4,0,0,1024,1024,1024,1024,0,0,0,0,201.8,0,0,92,4.261,4.259,0,0,0,0,1.172,98.78,14.476778022312,0,10,Assisted_Takeoff,
7800,2023-03-29 16:24:39,-34.9537868924217,-54.9408384378226,0,-0.032808399999999,14.509586422312,14.476778022312,0.328084,0,0.36040683568,0.9594160412,24,5,8.52,14.476778022312,0,0,0.36040683568,0,0,0,190.4, 0.8, 8.4,0,0,1024,1024,1024,1024,0,0,0,0,201.8,0,0,92,4.261,4.259,0,0,0,0,1.172,98.78,14.476778022312,0,10,Assisted_Takeoff,
7900,2023-03-29 16:24:39,-34.9537868946885,-54.9408384383781,0,-0.032808399999999,14.509586422312,14.476778022312,0.328084,0,0.36061680944,0.96025921708,24,5,8.52,14.476778022312,0,0,0.36061680944,0,0,0,190.5, 0.8, 8.4,0,0,1024,1024,1024,1024,0,0,0,0,201.8,0,0,92,4.261,4.259,0,0,0,0,1.172,98.78,14.476778022312,0,10,Assisted_Takeoff,
8000,2023-03-29 16:24:39,-34.9537868963332,-54.9408384418892,0,-0.032808399999999,14.509586422312,14.476778022312,0.328084,0,0.35993111388,0.96146984704,24,5,8.52,14.476778022312,0,0,0.36061680944,0,0,0,190.4, 0.9, 8.4,0,0,1024,1024,1024,1024,0,0,0,0,201.8,0,0,92,4.261,4.259,0,0,0,0,1.172,98.78,14.476778022312,0,10,Assisted_Takeoff,
8100,2023-03-29 16:24:39,-34.9537868975546,-54.9408384471538,0,-0.032808399999999,14.509586422312,14.476778022312,0.328084,0,0.3587106414,0.96310370536,24,5,8.52,14.476778022312,0,0,0.36061680944,0,0,0,190.4, 0.8, 8.4,0,0,1024,1024,1024,1024,0,0,0,0,201.8,0,0,92,4.261,4.259,0,0,0,0,1.172,98.78,14.476778022312,0,10,Assisted_Takeoff,
8200,2023-03-29 16:24:39,-34.953786889002,-54.9408385122498,0,0,14.476778022312,14.476778022312,0.328084,0,0.339895024,0.98281827292,24,5,8.52,14.476778022312,0,0,0.36061680944,0,0,0,190.5, 0.9, 8.4,0,0,1024,1024,1024,1024,0,0,0,0,201.8,0,0,92,4.261,4.259,0,0,0,0,1.172,98.78,14.476778022312,0,10,Assisted_Takeoff,
8300,2023-03-29 16:24:39,-34.9537868874419,-54.9408385174578,0,0,14.476778022312,14.476778022312,0.328084,0,0.33824804232,0.98447837796,24,5,8.52,14.476778022312,0,0,0.36061680944,0,0,0,190.4, 0.8, 8.4,0,0,1024,1024,1024,1024,0,0,0,0,201.8,0,0,92,4.261,4.259,0,0,0,0,1.172,98.78,14.476778022312,0,10,Assisted_Takeoff,
8400,2023-03-29 16:24:39,-34.9537868861717,-54.9408385214643,0,0,14.476778022312,14.476778022312,0.328084,0,0.33696851472,0.9857611864,24,5,8.52,14.476778022312,0,0,0.36061680944,0,0,0,190.5, 0.9, 8.4,0,0,1024,1024,1024,1024,0,0,0,0,201.8,0,0,92,4.261,4.259,0,0,0,0,1.172,98.78,14.476778022312,0,10,Assisted_Takeoff,
8500,2023-03-29 16:24:40,-34.9537868846768,-54.9408385249552,0,0,14.476778022312,14.476778022312,0.328084,0,0.33579069316,0.98693900796,24,5,8.52,14.476778022312,0,0,0.36061680944,0,0,0,190.4, 0.9, 8.3,0,0,1024,1024,1024,1024,0,0,0,0,201.8,0,0,92,4.261,4.259,0,0,0,0,1.17,98.78,14.476778022312,0,10,Assisted_Takeoff,
8600,2023-03-29 16:24:40,-34.9537868886958,-54.9408385135575,0,0,14.476778022312,14.476778022312,0.328084,0,0.33949476152,0.990649638,24,5,8.52,14.476778022312,0,0,0.36061680944,0,0,0,190.4, 0.8, 8.4,0,0,1024,1024,1024,1024,0,0,0,0,201.8,0,0,92,4.261,4.259,0,0,0,0,1.17,98.78,14.476778022312,0,10,Assisted_Takeoff,
8700,2023-03-29 16:24:40,-34.9537868874777,-54.9408384609813,0,-0.032808399999999,14.509586422312,14.476778022312,0.328084,0,0.35338255724,1.00637798496,24,5,8.52,14.476778022312,0,0,0.36061680944,0,0,0,190.4, 0.8, 8.4,0,0,1024,1024,1024,1024,0,0,0,0,201.8,0,0,92,4.261,4.259,0,0,0,0,1.17,98.78,14.476778022312,0,10,Assisted_Takeoff,
8800,2023-03-29 16:24:40,-34.9537868864909,-54.9408384273716,0,-0.032808399999999,14.509586422312,14.476778022312,0.328084,0,0.36230972288,1.0164370404,24,5,8.52,14.476778022312,0,0,0.36230972288,0,0,0,190.4, 0.8, 8.4,0,0,1024,1024,1024,1024,0,0,0,0,201.8,0,0,92,4.261,4.259,0,0,0,0,1.17,98.78,14.476778022312,0,10,Assisted_Takeoff,
8900,2023-03-29 16:24:40,-34.953786885338,-54.9408384103767,0,-0.032808399999999,14.509586422312,14.476778022312,0.328084,0,0.36674541856,1.02153546576,24,5,8.52,14.476778022312,0,0,0.36674541856,0,0,0,190.4, 1, 8.4,0,0,1024,1024,1024,1024,0,0,0,0,201.8,0,0,92,4.261,4.259,0,0,0,0,1.17,98.78,14.476778022312,0,10,Assisted_Takeoff,
9000,2023-03-29 16:24:40,-34.9537868858004,-54.9408383670034,0,-0.032808399999999,14.509586422312,14.476778022312,0.328084,0,0.3786417444,1.03450790712,24,5,8.52,14.476778022312,0,0,0.3786417444,0,0,0,190.4, 0.8, 8.3,0,0,1024,1024,1024,1024,0,0,0,0,201.8,0,0,92,4.261,4.259,0,0,0,0,1.17,98.78,14.476778022312,0,10,Assisted_Takeoff,
9100,2023-03-29 16:24:40,-34.9537868829474,-54.9408383688844,0,-0.032808399999999,14.509586422312,14.476778022312,0.328084,0,0.37770998584,1.03568900952,24,5,8.52,14.476778022312,0,0,0.3786417444,0,0,0,190.4, 0.8, 8.4,0,0,1024,1024,1024,1024,0,0,0,0,201.8,0,0,92,4.261,4.259,0,0,0,0,1.17,98.78,14.476778022312,0,10,Assisted_Takeoff,
9200,2023-03-29 16:24:40,-34.9537869061137,-54.9408383483784,0,-0.032808399999999,14.509586422312,14.476778022312,0.328084,0,0.38675854256,1.04613192324,24,5,8.52,14.476778022312,0,0,0.38675854256,0,0,0,190.4, 0.8, 8.4,0,0,1024,1024,1024,1024,0,0,0,0,201.8,0,0,92,4.261,4.259,0,0,0,0,1.17,98.78,14.476778022312,0,10,Assisted_Takeoff,
9300,2023-03-29 16:24:40,-34.9537869550582,-54.9408383033226,0,-0.032808399999999,14.509586422312,14.476778022312,0.328084,0,0.40656497364,1.06850069036,24,5,8.52,14.476778022312,0,0,0.40656497364,0,0,0,190.4, 0.9, 8.4,0,0,1024,1024,1024,1024,0,0,0,0,201.8,0,0,92,4.261,4.259,0,0,0,0,1.17,98.78,14.476778022312,0,10,Assisted_Takeoff,
9400,2023-03-29 16:24:40,-34.9537870721466,-54.9408383450037,0,-0.032808399999999,14.509586422312,14.476778022312,0.328084,0,0.41640749364,1.11300200412,24,5,8.52,14.476778022312,0,0,0.41640749364,0,0,0,190.4, 0.9, 8.4,0,0,1024,1024,1024,1024,0,0,0,0,201.8,0,0,92,4.261,4.259,0,0,0,0,1.17,98.78,14.476778022312,0,10,Assisted_Takeoff,
9500,2023-03-29 16:24:41,-34.9537870874344,-54.940838389156,0,-0.032808399999999,14.509586422312,14.476778022312,0.328084,0,0.40834318892,1.12733599408,24,5,8.52,14.476778022312,0,0,0.41640749364,0,0,0,190.4, 0.8, 8.3,0,0,1024,1024,1024,1024,0,0,0,0,201.8,0,0,92,4.261,4.258,0,0,0,0,1.165,98.78,14.476778022312,0,10,Assisted_Takeoff,
9600,2023-03-29 16:24:41,-34.9537870942673,-54.9408384002862,0,-0.032808399999999,14.509586422312,14.476778022312,0.328084,0,0.40697507864,1.1314960992,24,5,8.52,14.476778022312,0,0,0.41640749364,0,0,0,190.4, 0.8, 8.4,0,0,1024,1024,1024,1024,0,0,0,0,201.8,0,0,92,4.261,4.258,0,0,0,0,1.165,98.78,14.476778022312,0,10,Assisted_Takeoff,
9700,2023-03-29 16:24:41,-34.9537870928278,-54.940838371253,0,-0.032808399999999,14.509586422312,14.476778022312,0.328084,0,0.41389108936,1.14019360604,24,5,8.52,14.476778022312,0,0,0.41640749364,0,0,0,190.4, 0.8, 8.4,0,0,1024,1024,1024,1024,0,0,0,0,201.8,0,0,92,4.261,4.258,0,0,0,0,1.165,98.78,14.476778022312,0,10,Assisted_Takeoff,
9800,2023-03-29 16:24:41,-34.9537870879392,-54.9408383520729,0,-0.032808399999999,14.509586422312,14.476778022312,0.328084,0,0.41771326796,1.14619754324,24,5,8.52,14.476778022312,0,0,0.41771326796,0,0,0,190.4, 0.9, 8.4,0,0,1024,1024,1024,1024,0,0,0,0,201.8,0,0,92,4.261,4.258,0,0,0,0,1.165,98.78,14.476778022312,0,10,Assisted_Takeoff,
9900,2023-03-29 16:24:41,-34.9537870371578,-54.9408382859391,0,-0.032808399999999,14.509586422312,14.476778022312,0.328084,0,0.4250820346,1.17329728164,24,5,8.52,14.476778022312,0,0,0.4250820346,0,0,0,190.4, 0.8, 8.4,0,0,1024,1024,1024,1024,0,0,0,0,201.8,0,0,92,4.261,4.258,0,0,0,0,1.165,98.78,14.476778022312,0,10,Assisted_Takeoff,
10000,2023-03-29 16:24:41,-34.9537870309534,-54.9408382813605,0,-0.032808399999999,14.509586422312,14.476778022312,0.328084,0,0.42517717896,1.17594491952,24,5,8.52,14.476778022312,0,0,0.42517717896,0,0,0,190.4, 0.8, 8.4,0,0,1024,1024,1024,1024,0,0,0,0,201.8,0,0,92,4.261,4.258,0,0,0,0,1.165,98.78,14.476778022312,0,10,Assisted_Takeoff,
10100,2023-03-29 16:24:41,-34.9537870250357,-54.9408382809481,0,-0.032808399999999,14.509586422312,14.476778022312,0.328084,0,0.42424213956,1.17810699308,24,5,8.52,14.476778022312,0,0,0.42517717896,0,0,0,190.4, 0.9, 8.4,0,0,1024,1024,1024,1024,0,0,0,0,201.8,0,0,92,4.261,4.258,0,0,0,0,1.165,98.78,14.476778022312,0,10,Assisted_Takeoff,
10200,2023-03-29 16:24:41,-34.9537870203881,-54.9408382824384,0,-0.032808399999999,14.509586422312,14.476778022312,0.328084,0,0.42303807128,1.17985896164,24,5,8.52,14.476778022312,0,0,0.42517717896,0,0,0,190.4, 0.8, 8.4,0,0,1024,1024,1024,1024,0,0,0,0,201.8,0,0,92,4.261,4.258,0,0,0,0,1.165,98.78,14.476778022312,0,10,Assisted_Takeoff,
10300,2023-03-29 16:24:41,-34.9537869967366,-54.940838316412,0,-0.032808399999999,14.509586422312,14.476778022312,0.328084,0,0.41000001312,1.19318901456,24,5,8.52,14.476778022312,0,0,0.42517717896,0,0,0,190.4, 0.9, 8.4,0,0,1024,1024,1024,1024,0,0,0,0,201.8,0,0,92,4.261,4.258,0,0,0,0,1.165,98.78,14.476778022312,0,10,Assisted_Takeoff,
10400,2023-03-29 16:24:41,-34.9537869935676,-54.9408383203177,0,-0.032808399999999,14.509586422312,14.476778022312,0.328084,0,0.40842520992,1.1948327154,24,5,8.52,14.476778022312,0,0,0.42517717896,0,0,0,190.4, 0.8, 8.4,0,0,1024,1024,1024,1024,0,0,0,0,201.8,0,0,92,4.261,4.258,0,0,0,0,1.165,98.78,14.476778022312,0,10,Assisted_Takeoff,
10500,2023-03-29 16:24:41,-34.9537869909621,-54.9408383245296,0,-0.032808399999999,14.509586422312,14.476778022312,0.328084,0,0.40686681092,1.19641079944,24,5,8.52,14.476778022312,0,0,0.42517717896,0,0,0,190.4, 0.8, 8.4,0,0,1024,1024,1024,1024,0,0,0,0,201.8,0,0,92,4.262,4.258,0,0,0,0,1.151,98.78,14.476778022312,0,10,Assisted_Takeoff,
10600,2023-03-29 16:24:42,-34.9537869888679,-54.940838302079,0,-0.032808399999999,14.509586422312,14.476778022312,0.328084,0,0.4124508006,1.203166049,24,5,8.52,14.476778022312,0,0,0.42517717896,0,0,0,190.4, 0.9, 8.4,0,0,1024,1024,1024,1024,0,0,0,0,201.8,0,0,92,4.262,4.258,0,0,0,0,1.151,98.78,14.476778022312,0,10,Assisted_Takeoff,
10700,2023-03-29 16:24:42,-34.9537869909523,-54.9408381881515,0,-0.032808399999999,14.509586422312,14.476778022312,0.328084,0,0.44327101156,1.23724413408,24,5,8.52,14.476778022312,0,0,0.44327101156,0,0,0,190.4, 0.8, 8.4,0,0,1024,1024,1024,1024,0,0,0,0,201.8,0,0,92,4.262,4.258,0,0,0,0,1.151,98.78,14.476778022312,0,10,Assisted_Takeoff,
10800,2023-03-29 16:24:42,-34.9537869914604,-54.9408381574211,0,-0.032808399999999,14.509586422312,14.476778022312,0.328084,0,0.4516568386,1.24643704776,24,5,8.52,14.476778022312,0,0,0.4516568386,0,0,0,190.4, 0.8, 8.4,0,0,1024,1024,1024,1024,0,0,0,0,201.8,0,0,92,4.262,4.258,0,0,0,0,1.151,98.78,14.476778022312,0,10,Assisted_Takeoff,
10900,2023-03-29 16:24:42,-34.9537869921085,-54.9408381429023,0,-0.032808399999999,14.509586422312,14.476778022312,0.328084,0,0.4556922718,1.25078416076,24,5,8.52,14.476778022312,0,0,0.4556922718,0,0,0,190.4, 0.8, 8.3,0,0,1024,1024,1024,1024,0,0,0,0,201.8,0,0,92,4.262,4.258,0,0,0,0,1.151,98.78,14.476778022312,0,10,Assisted_Takeoff,
11000,2023-03-29 16:24:42,-34.9537869927306,-54.9408381371521,0,-0.032808399999999,14.509586422312,14.476778022312,0.328084,0,0.457349096,1.25251972512,24,5,8.52,14.476778022312,0,0,0.457349096,0,0,0,190.4, 0.9, 8.4,0,0,1024,1024,1024,1024,0,0,0,0,201.8,0,0,92,4.262,4.258,0,0,0,0,1.151,98.78,14.476778022312,0,10,Assisted_Takeoff,
11100,2023-03-29 16:24:42,-34.9537869905355,-54.9408381765698,0,-0.032808399999999,14.509586422312,14.476778022312,0.328084,0,0.44633203528,1.26433402996,24,5,8.52,14.476778022312,0,0,0.457349096,0,0,0,190.4, 0.8, 8.4,0,0,1024,1024,1024,1024,0,0,0,0,201.8,0,0,92,4.262,4.258,0,0,0,0,1.151,98.78,14.476778022312,0,10,Assisted_Takeoff,
11200,2023-03-29 16:24:42,-34.9537869895682,-54.9408381846372,0,-0.032808399999999,14.509586422312,14.476778022312,0.328084,0,0.44400263888,1.26677169408,24,5,8.52,14.476778022312,0,0,0.457349096,0,0,0,190.4, 0.8, 8.4,0,0,1024,1024,1024,1024,0,0,0,0,201.8,0,0,92,4.262,4.258,0,0,0,0,1.151,98.78,14.476778022312,0,10,Assisted_Takeoff,
11300,2023-03-29 16:24:42,-34.9537869886888,-54.9408381946323,0,-0.032808399999999,14.509586422312,14.476778022312,0.328084,0,0.44116799312,1.26977694352,24,5,8.52,14.476778022312,0,0,0.457349096,0,0,0,190.4, 0.8, 8.4,0,0,1024,1024,1024,1024,0,0,0,0,201.8,0,0,92,4.262,4.258,0,0,0,0,1.151,98.78,14.476778022312,0,10,Assisted_Takeoff,
11400,2023-03-29 16:24:42,-34.9537870140176,-54.9408381778287,0,-0.032808399999999,14.509586422312,14.476778022312,0.328084,0,0.44973098552,1.28029531656,24,5,8.52,14.476778022312,0,0,0.457349096,0,0,0,190.4, 0.8, 8.4,0,0,1024,1024,1024,1024,0,0,0,0,201.8,0,0,92,4.262,4.258,0,0,0,0,1.151,98.78,14.476778022312,0,10,Assisted_Takeoff,
11500,2023-03-29 16:24:43,-34.9537870650107,-54.9408381344395,0,-0.032808399999999,14.509586422312,14.476778022312,0.328084,0,0.46974739036,1.30297904432,24,5,8.519,14.476778022312,0,0,0.46974739036,0,0,0,190.4, 0.9, 8.4,0,0,1024,1024,1024,1024,0,0,0,0,201.8,0,0,92,4.26,4.258,0,0,0,0,1.16,98.78,14.476778022312,0,10,Assisted_Takeoff,
11600,2023-03-29 16:24:43,-34.9537871807117,-54.9408380193602,0,-0.032808399999999,14.509586422312,14.476778022312,0.328084,0,0.52027888804,1.35744098832,24,5,8.519,14.476778022312,0,0,0.52027888804,0,0,0,190.4, 0.8, 8.4,0,0,1024,1024,1024,1024,0,0,0,0,201.8,0,0,92,4.26,4.258,0,0,0,0,1.16,98.78,14.476778022312,0,10,Assisted_Takeoff,
11700,2023-03-29 16:24:43,-34.9537871958888,-54.9408379535396,0,-0.032808399999999,14.509586422312,14.476778022312,0.328084,0,0.54011156584,1.3778871832,24,5,8.519,14.476778022312,0,0,0.54011156584,0,0,0,190.4, 0.8, 8.4,0,0,1024,1024,1024,1024,0,0,0,0,201.8,0,0,92,4.26,4.258,0,0,0,0,1.16,98.78,14.476778022312,0,10,Assisted_Takeoff,
11800,2023-03-29 16:24:43,-34.9537872013994,-54.940837915017,0,-0.032808399999999,14.509586422312,14.476778022312,0.328084,0,0.55114174992,1.38958009696,24,5,8.519,14.476778022312,0,0,0.55114174992,0,0,0,190.4, 0.8, 8.4,0,0,1024,1024,1024,1024,0,0,0,0,201.8,0,0,92,4.26,4.258,0,0,0,0,1.16,98.78,14.476778022312,0,10,Assisted_Takeoff,
11900,2023-03-29 16:24:43,-34.9537871994062,-54.9408379003428,0,-0.032808399999999,14.509586422312,14.476778022312,0.328084,0,0.554626002,1.394028916,24,5,8.519,14.476778022312,0,0,0.554626002,0,0,0,190.4, 0.8, 8.4,0,0,1024,1024,1024,1024,0,0,0,0,201.8,0,0,92,4.26,4.258,0,0,0,0,1.16,98.78,14.476778022312,0,10,Assisted_Takeoff,
12000,2023-03-29 16:24:43,-34.953787195651,-54.9408378623401,0,-0.032808399999999,14.509586422312,14.476778022312,0.328084,0,0.56396327264,1.40547576676,24,5,8.519,14.476778022312,0,0,0.56396327264,0,0,0,190.4, 0.8, 8.4,0,0,1024,1024,1024,1024,0,0,0,0,201.8,0,0,92,4.26,4.258,0,0,0,0,1.16,98.78,14.476778022312,0,10,Assisted_Takeoff,
12100,2023-03-29 16:24:43,-34.9537872420845,-54.9408378697622,0,-0.032808399999999,14.509586422312,14.476778022312,0.328084,0,0.57021983452,1.42256238148,24,5,8.519,14.476778022312,0,0,0.57021983452,0,0,0,190.4, 0.8, 8.3,0,0,1024,1024,1024,1024,0,0,0,0,201.8,0,0,92,4.26,4.258,0,0,0,0,1.16,98.78,14.476778022312,0,10,Assisted_Takeoff,
12200,2023-03-29 16:24:43,-34.9537872700253,-54.9408378542615,0,-0.032808399999999,14.509586422312,14.476778022312,0.328084,0,0.57934056972,1.4337598884,24,5,8.519,14.476778022312,0,0,0.57934056972,0,0,0,190.4, 0.9, 8.4,0,0,1024,1024,1024,1024,0,0,0,0,201.8,0,0,92,4.26,4.258,0,0,0,0,1.16,98.78,14.476778022312,0,10,Assisted_Takeoff,
12300,2023-03-29 16:24:43,-34.9537872820888,-54.9408378142551,0,-0.032808399999999,14.509586422312,14.476778022312,0.328084,0,0.59188978272,1.44650923264,24,5,8.519,14.476778022312,0,0,0.59188978272,0,0,0,190.4, 0.8, 8.4,0,0,1024,1024,1024,1024,0,0,0,0,201.8,0,0,92,4.26,4.258,0,0,0,0,1.16,98.78,14.476778022312,0,10,Assisted_Takeoff,
12400,2023-03-29 16:24:43,-34.9537872846324,-54.9408378310761,0,-0.032808399999999,14.509586422312,14.476778022312,0.328084,0,0.58801839152,1.4516240622,24,5,8.519,14.476778022312,0,0,0.59188978272,0,0,0,190.4, 0.8, 8.4,0,0,1024,1024,1024,1024,0,0,0,0,201.8,0,0,92,4.26,4.258,0,0,0,0,1.16,98.78,14.476778022312,0,10,Assisted_Takeoff,
12500,2023-03-29 16:24:44,-34.9537872819846,-54.9408378231773,0,-0.032808399999999,14.509586422312,14.476778022312,0.328084,0,0.589566948,1.45417327488,24,5,8.519,14.476778022312,0,0,0.59188978272,0,0,0,190.4, 0.8, 8.4,0,0,1024,1024,1024,1024,0,0,0,0,201.8,0,0,92,4.26,4.258,0,0,0,0,1.16,98.78,14.476778022312,0,10,Assisted_Takeoff,
12600,2023-03-29 16:24:44,-34.9537873025128,-54.94083779642,0,-0.032808399999999,14.509586422312,14.476778022312,0.328084,0,0.60025920556,1.46513456132,24,5,8.518,14.476778022312,0,0,0.60025920556,0,0,0,190.4, 0.8, 8.3,0,0,1024,1024,1024,1024,0,0,0,0,201.8,0,0,92,4.26,4.258,0,0,0,0,1.157,98.78,14.476778022312,0,10,Assisted_Takeoff,
12700,2023-03-29 16:24:44,-34.9537873470833,-54.940837749307,0,-0.032808399999999,14.509586422312,14.476778022312,0.328084,0,0.62069555792,1.48665031004,24,5,8.518,14.476778022312,0,0,0.62069555792,0,0,0,190.4, 0.9, 8.4,0,0,1024,1024,1024,1024,0,0,0,0,201.8,0,0,92,4.26,4.258,0,0,0,0,1.157,98.78,14.476778022312,0,10,Assisted_Takeoff,
12800,2023-03-29 16:24:44,-34.9537873928719,-54.9408377078356,0,-0.032808399999999,14.509586422312,14.476778022312,0.328084,0,0.64000002048,1.50745739732,24,5,8.518,14.476778022312,0,0,0.64000002048,0,0,0,190.4, 0.8, 8.4,0,0,1024,1024,1024,1024,0,0,0,0,201.8,0,0,92,4.26,4.258,0,0,0,0,1.157,98.78,14.476778022312,0,10,Assisted_Takeoff,
12900,2023-03-29 16:24:44,-34.9537874006819,-54.9408376970441,0,-0.032808399999999,14.509586422312,14.476778022312,0.328084,0,0.64424542744,1.5117618594,24,5,8.518,14.476778022312,0,0,0.64424542744,0,0,0,190.4, 0.8, 8.4,0,0,1024,1024,1024,1024,0,0,0,0,201.8,0,0,92,4.26,4.258,0,0,0,0,1.157,98.78,14.476778022312,0,10,Assisted_Takeoff,
13000,2023-03-29 16:24:44,-34.953787400164,-54.9408376689509,0,-0.032808399999999,14.509586422312,14.476778022312,0.328084,0,0.65129267176,1.52016409064,24,5,8.518,14.476778022312,0,0,0.65129267176,0,0,0,190.4, 0.9, 8.4,0,0,1024,1024,1024,1024,0,0,0,0,201.8,0,0,92,4.26,4.258,0,0,0,0,1.157,98.78,14.476778022312,0,10,Assisted_Takeoff,
13100,2023-03-29 16:24:44,-34.9537873932822,-54.9408376215903,0,-0.032808399999999,14.509586422312,14.476778022312,0.328084,0,0.66211944376,1.5345472932,24,5,8.518,14.476778022312,0,0,0.66211944376,0,0,0,190.4, 0.8, 8.4,0,0,1024,1024,1024,1024,0,0,0,0,201.8,0,0,92,4.26,4.258,0,0,0,0,1.157,98.78,14.476778022312,0,10,Assisted_Takeoff,
13200,2023-03-29 16:24:44,-34.9537873847883,-54.9408375949302,0,-0.032808399999999,14.509586422312,14.476778022312,0.328084,0,0.66742456204,1.54310044308,24,5,8.518,14.476778022312,0,0,0.66742456204,0,0,0,190.4, 0.8, 8.4,0,0,1024,1024,1024,1024,0,0,0,0,201.8,0,0,92,4.26,4.258,0,0,0,0,1.157,98.78,14.476778022312,0,10,Assisted_Takeoff,
13300,2023-03-29 16:24:44,-34.953787337596,-54.940837590815,0,-0.032808399999999,14.509586422312,14.476778022312,0.328084,0,0.66002626784,1.56036422316,24,5,8.518,14.476778022312,0,0,0.66742456204,0,0,0,190.4, 0.7, 8.3,0,0,1024,1024,1024,1024,0,0,0,0,201.8,0,0,92,4.26,4.258,0,0,0,0,1.157,98.78,14.476778022312,0,10,Assisted_Takeoff,
13400,2023-03-29 16:24:44,-34.9537873570233,-54.9408375891808,0,-0.032808399999999,14.509586422312,14.476778022312,0.328084,0,0.6638943782,1.56746724176,24,5,8.518,14.476778022312,0,0,0.66742456204,0,0,0,190.4, 0.9, 8.4,0,0,1024,1024,1024,1024,0,0,0,0,201.8,0,0,92,4.26,4.258,0,0,0,0,1.157,98.78,14.476778022312,0,10,Assisted_Takeoff,
13500,2023-03-29 16:24:45,-34.9537874057691,-54.9408375956892,0,-0.032808399999999,14.509586422312,14.476778022312,0.328084,0,0.67110238368,1.58535766228,24,5,8.518,14.476778022312,0,0,0.67110238368,0,0,0,190.4, 0.9, 8.4,0,0,1024,1024,1024,1024,0,0,0,0,201.8,0,0,92,4.26,4.258,0,0,0,0,1.157,98.78,14.476778022312,0,10,Assisted_Takeoff,
13600,2023-03-29 16:24:45,-34.9537874149405,-54.9408375804021,0,-0.032808399999999,14.509586422312,14.476778022312,0.328084,0,0.67674214764,1.59102367296,24,5,8.518,14.476778022312,0,0,0.67674214764,0,0,0,190.4, 0.8, 8.3,0,0,1024,1024,1024,1024,0,0,0,0,201.8,0,0,92,4.259,4.257,0,0,0,0,1.152,98.78,14.476778022312,0,10,Assisted_Takeoff,
13700,2023-03-29 16:24:45,-34.9537873481352,-54.9408375373236,0,-0.032808399999999,14.509586422312,14.476778022312,0.328084,0,0.67591209512,1.61859257148,24,5,8.518,14.476778022312,0,0,0.67674214764,0,0,0,190.4, 0.8, 8.4,0,0,1024,1024,1024,1024,0,0,0,0,201.8,0,0,92,4.259,4.257,0,0,0,0,1.152,98.78,14.476778022312,0,10,Assisted_Takeoff,
13800,2023-03-29 16:24:45,-34.9537873453245,-54.9408375079541,0,-0.032808399999999,14.509586422312,14.476778022312,0.328084,0,0.68316603236,1.62743443528,24,5,8.518,14.476778022312,0,0,0.68316603236,0,0,0,190.4, 0.8, 8.4,0,0,1024,1024,1024,1024,0,0,0,0,201.8,0,0,92,4.259,4.257,0,0,0,0,1.152,98.78,14.476778022312,0,10,Assisted_Takeoff,
13900,2023-03-29 16:24:45,-34.9537873798964,-54.9408374940823,0,-0.065616799999999,14.542394822312,14.476778022312,0.328084,0,0.69281170196,1.64071199476,24,5,8.518,14.476778022312,0,0,0.69281170196,0,0,0,190.4, 0.9, 8.4,0,0,1024,1024,1024,1024,0,0,0,0,201.8,0,0,92,4.259,4.257,0,0,0,0,1.152,98.78,14.476778022312,0,10,Assisted_Takeoff,
14000,2023-03-29 16:24:45,-34.95378740275,-54.9408374630148,0,-0.065616799999999,14.542394822312,14.476778022312,0.328084,0,0.70497377584,1.65319559096,24,5,8.518,14.476778022312,0,0,0.70497377584,0,0,0,190.4, 0.8, 8.4,0,0,1024,1024,1024,1024,0,0,0,0,201.8,0,0,92,4.259,4.257,0,0,0,0,1.152,98.78,14.476778022312,0,10,Assisted_Takeoff,
14100,2023-03-29 16:24:45,-34.95378745558,-54.9408373972047,0,-0.065616799999999,14.542394822312,14.476778022312,0.328084,0,0.73156498404,1.6807415236,24,5,8.518,14.476778022312,0,0,0.73156498404,0,0,0,190.4, 0.8, 8.4,0,0,1024,1024,1024,1024,0,0,0,0,201.8,0,0,92,4.259,4.257,0,0,0,0,1.152,98.78,14.476778022312,0,10,Assisted_Takeoff,
14200,2023-03-29 16:24:45,-34.9537874608333,-54.9408373416112,0,-0.065616799999999,14.542394822312,14.476778022312,0.328084,0,0.7469980554,1.69747708844,24,5,8.518,14.476778022312,0,0,0.7469980554,0,0,0,190.4, 0.8, 8.4,0,0,1024,1024,1024,1024,0,0,0,0,201.8,0,0,92,4.259,4.257,0,0,0,0,1.152,98.78,14.476778022312,0,10,Assisted_Takeoff,
14300,2023-03-29 16:24:45,-34.9537874610287,-54.9408372776535,0,-0.065616799999999,14.542394822312,14.476778022312,0.328084,0,0.76380907956,1.71660438564,24,5,8.518,14.476778022312,0,0,0.76380907956,0,0,0,190.4, 0.8, 8.4,0,0,1024,1024,1024,1024,0,0,0,0,201.8,0,0,92,4.259,4.257,0,0,0,0,1.152,98.78,14.476778022312,0,10,Assisted_Takeoff,
14400,2023-03-29 16:24:45,-34.9537874846054,-54.9408372417209,0,-0.065616799999999,14.542394822312,14.476778022312,0.328084,0,0.77735238708,1.73036750944,24,5,8.518,14.476778022312,0,0,0.77735238708,0,0,0,190.4, 0.9, 8.4,0,0,1024,1024,1024,1024,0,0,0,0,201.8,0,0,92,4.259,4.257,0,0,0,0,1.152,98.78,14.476778022312,0,10,Assisted_Takeoff,
14500,2023-03-29 16:24:45,-34.9537875714959,-54.9408372397045,0,-0.032808399999999,14.509586422312,14.476778022312,0.328084,0,0.79351052408,1.7620735472,24,5,8.518,14.476778022312,0,0,0.79351052408,0,0,0,190.4, 0.8, 8.3,0,0,1024,1024,1024,1024,0,0,0,0,201.8,0,0,92,4.259,4.257,0,0,0,0,1.152,98.78,14.476778022312,0,10,Assisted_Takeoff,
14600,2023-03-29 16:24:46,-34.953787598502,-54.9408372155361,0,-0.032808399999999,14.509586422312,14.476778022312,0.328084,0,0.8047572436,1.7742946762,24,5,8.517,14.476778022312,0,0,0.8047572436,0,0,0,190.4, 0.8, 8.4,0,0,1024,1024,1024,1024,0,0,0,0,201.8,0,0,92,4.26,4.257,0,0,0,0,1.147,98.78,14.476778022312,0,10,Assisted_Takeoff,
14700,2023-03-29 16:24:46,-34.9537876080675,-54.9408371734874,0,-0.032808399999999,14.509586422312,14.476778022312,0.328084,0,0.81734582668,1.78734257688,24,5,8.517,14.476778022312,0,0,0.81734582668,0,0,0,190.4, 0.9, 8.4,0,0,1024,1024,1024,1024,0,0,0,0,201.8,0,0,92,4.26,4.257,0,0,0,0,1.147,98.78,14.476778022312,0,10,Assisted_Takeoff,
14800,2023-03-29 16:24:46,-34.9537876094875,-54.9408371508274,0,-0.032808399999999,14.509586422312,14.476778022312,0.328084,0,0.82344490824,1.79414047736,24,5,8.517,14.476778022312,0,0,0.82344490824,0,0,0,190.4, 0.8, 8.4,0,0,1024,1024,1024,1024,0,0,0,0,201.8,0,0,92,4.26,4.257,0,0,0,0,1.147,98.78,14.476778022312,0,10,Assisted_Takeoff,
14900,2023-03-29 16:24:46,-34.9537876047976,-54.940837145184,0,-0.032808399999999,14.509586422312,14.476778022312,0.328084,0,0.82403874028,1.79654205224,24,5,8.517,14.476778022312,0,0,0.82403874028,0,0,0,190.4, 0.8, 8.4,0,0,1024,1024,1024,1024,0,0,0,0,201.8,0,0,92,4.26,4.257,0,0,0,0,1.147,98.78,14.476778022312,0,10,Assisted_Takeoff,
15000,2023-03-29 16:24:46,-34.9537875656791,-54.9408371563156,0,-0.032808399999999,14.509586422312,14.476778022312,0.328084,0,0.81403873996,1.81119756452,24,5,8.517,14.476778022312,0,0,0.82403874028,0,0,0,190.4, 0.8, 8.3,0,0,1024,1024,1024,1024,0,0,0,0,201.8,0,0,92,4.26,4.257,0,0,0,0,1.147,98.78,14.476778022312,0,10,Assisted_Takeoff,
15100,2023-03-29 16:24:46,-34.9537875584976,-54.9408371154905,0,-0.032808399999999,14.509586422312,14.476778022312,0.328084,0,0.82341538068,1.82368444156,24,5,8.517,14.476778022312,0,0,0.82403874028,0,0,0,190.4, 0.9, 8.4,0,0,1024,1024,1024,1024,0,0,0,0,201.8,0,0,92,4.26,4.257,0,0,0,0,1.147,98.78,14.476778022312,0,10,Assisted_Takeoff,
15200,2023-03-29 16:24:46,-34.9537875519904,-54.9408370940377,0,-0.032808399999999,14.509586422312,14.476778022312,0.328084,0,0.82789700812,1.83052499296,24,5,8.517,14.476778022312,0,0,0.82789700812,0,0,0,190.4, 0.8, 8.4,0,0,1024,1024,1024,1024,0,0,0,0,201.8,0,0,92,4.26,4.257,0,0,0,0,1.147,98.78,14.476778022312,0,10,Assisted_Takeoff,
15300,2023-03-29 16:24:46,-34.9537875462778,-54.9408370889361,0,-0.032808399999999,14.509586422312,14.476778022312,0.328084,0,0.82824149632,1.83310701404,24,5,8.517,14.476778022312,0,0,0.82824149632,0,0,0,190.4, 0.8, 8.4,0,0,1024,1024,1024,1024,0,0,0,0,201.8,0,0,92,4.26,4.257,0,0,0,0,1.147,98.78,14.476778022312,0,10,Assisted_Takeoff,
15400,2023-03-29 16:24:46,-34.9537875046938,-54.9408370765011,0,-0.032808399999999,14.509586422312,14.476778022312,0.328084,0,0.82443572192,1.84873037412,24,5,8.517,14.476778022312,0,0,0.82824149632,0,0,0,190.4, 0.8, 8.4,0,0,1024,1024,1024,1024,0,0,0,0,201.8,0,0,92,4.26,4.257,0,0,0,0,1.147,98.78,14.476778022312,0,10,Assisted_Takeoff,
15500,2023-03-29 16:24:47,-34.9537875007074,-54.9408370334725,0,-0.032808399999999,14.509586422312,14.476778022312,0.328084,0,0.83522640468,1.86167656876,24,5,8.517,14.476778022312,0,0,0.83522640468,0,0,0,190.4, 0.9, 8.4,0,0,1024,1024,1024,1024,0,0,0,0,201.8,0,0,92,4.26,4.257,0,0,0,0,1.147,98.78,14.476778022312,0,10,Assisted_Takeoff,
15600,2023-03-29 16:24:47,-34.9537874715062,-54.940837008873,0,-0.065616799999999,14.542394822312,14.476778022312,0.328084,0,0.83707679844,1.87462604424,24,5,8.517,14.476778022312,0,0,0.83707679844,0,0,0,190.4, 0.9, 8.4,0,0,1024,1024,1024,1024,0,0,0,0,201.8,0,0,92,4.26,4.257,0,0,0,0,1.144,98.78,14.476778022312,0,10,Assisted_Takeoff,
15700,2023-03-29 16:24:47,-34.9537874177577,-54.9408370005117,0,-0.065616799999999,14.542394822312,14.476778022312,0.328084,0,0.83094490848,1.89439310524,24,5,8.517,14.476778022312,0,0,0.83707679844,0,0,0,190.4, 0.7, 8.3,0,0,1024,1024,1024,1024,0,0,0,0,201.8,0,0,92,4.26,4.257,0,0,0,0,1.144,98.78,14.476778022312,0,10,Assisted_Takeoff,
15800,2023-03-29 16:24:47,-34.953787302871,-54.9408369323242,0,-0.065616799999999,14.542394822312,14.476778022312,0.328084,0,0.8332677432,1.94100727996,24,5,8.517,14.476778022312,0,0,0.83707679844,0,0,0,190.4, 0.8, 8.4,0,0,1024,1024,1024,1024,0,0,0,0,201.8,0,0,92,4.26,4.257,0,0,0,0,1.144,98.78,14.476778022312,0,10,Assisted_Takeoff,
15900,2023-03-29 16:24:47,-34.9537872859547,-54.94083688582,0,-0.065616799999999,14.542394822312,14.476778022312,0.328084,0,0.84401905588,1.95622053504,24,5,8.517,14.476778022312,0,0,0.84401905588,0,0,0,190.3, 0.8, 8.4,0,0,1024,1024,1024,1024,0,0,0,0,201.8,0,0,92,4.26,4.257,0,0,0,0,1.144,98.78,14.476778022312,0,10,Assisted_Takeoff,
16000,2023-03-29 16:24:47,-34.953787255581,-54.9408368590736,0,-0.065616799999999,14.542394822312,14.476778022312,0.328084,0,0.84767391164,1.96988851448,24,5,8.517,14.476778022312,0,0,0.84767391164,0,0,0,190.4, 0.8, 8.4,0,0,1024,1024,1024,1024,0,0,0,0,201.8,0,0,92,4.26,4.257,0,0,0,0,1.144,98.78,14.476778022312,0,10,Assisted_Takeoff,
16100,2023-03-29 16:24:47,-34.9537872065616,-54.9408368512985,0,-0.065616799999999,14.542394822312,14.476778022312,0.328084,0,0.84397312412,1.98792329196,24,5,8.517,14.476778022312,0,0,0.84767391164,0,0,0,190.3, 0.8, 8.4,0,0,1024,1024,1024,1024,0,0,0,0,201.8,0,0,92,4.26,4.257,0,0,0,0,1.144,98.78,14.476778022312,0,10,Assisted_Takeoff,
16200,2023-03-29 16:24:47,-34.9537871689152,-54.9408368324019,0,-0.065616799999999,14.542394822312,14.476778022312,0.328084,0,0.845062363,2.00277565464,24,5,8.517,14.476778022312,0,0,0.84767391164,0,0,0,190.4, 0.8, 8.4,0,0,1024,1024,1024,1024,0,0,0,0,201.8,0,0,92,4.26,4.257,0,0,0,0,1.144,98.78,14.476778022312,0,10,Assisted_Takeoff,
16300,2023-03-29 16:24:47,-34.9537871605027,-54.9408367869973,0,-0.065616799999999,14.542394822312,14.476778022312,0.328084,0,0.85709976496,2.01669625876,24,5,8.517,14.476778022312,0,0,0.85709976496,0,0,0,190.4, 0.9, 8.5,0,0,1024,1024,1024,1024,0,0,0,0,201.8,0,0,92,4.26,4.257,0,0,0,0,1.144,98.78,14.476778022312,0,10,Assisted_Takeoff,
16400,2023-03-29 16:24:47,-34.9537871611996,-54.9408367616106,0,-0.065616799999999,14.542394822312,14.476778022312,0.328084,0,0.86442916152,2.02429140336,24,5,8.517,14.476778022312,0,0,0.86442916152,0,0,0,190.4, 0.8, 8.4,0,0,1024,1024,1024,1024,0,0,0,0,201.8,0,0,92,4.26,4.257,0,0,0,0,1.144,98.78,14.476778022312,0,10,Assisted_Takeoff,
16500,2023-03-29 16:24:48,-34.9537871687263,-54.9408367535818,0,-0.065616799999999,14.542394822312,14.476778022312,0.328084,0,0.86752955532,2.02793969744,24,5,8.517,14.476778022312,0,0,0.86752955532,0,0,0,190.4, 0.9, 8.4,0,0,1024,1024,1024,1024,0,0,0,0,201.8,0,0,92,4.26,4.257,0,0,0,0,1.144,98.78,14.476778022312,0,10,Assisted_Takeoff,
16600,2023-03-29 16:24:48,-34.9537871780671,-54.9408367273049,0,-0.065616799999999,14.542394822312,14.476778022312,0.328084,0,0.87604661596,2.03650268984,24,5,8.516,14.476778022312,0,0,0.87604661596,0,0,0,190.3, 0.8, 8.4,0,0,1024,1024,1024,1024,0,0,0,0,201.8,0,0,92,4.259,4.257,0,0,0,0,1.152,98.78,14.476778022312,0,10,Assisted_Takeoff,
16700,2023-03-29 16:24:48,-34.953787253793,-54.9408366871063,0,-0.065616799999999,14.542394822312,14.476778022312,0.328084,0,0.89600396568,2.0666339244,24,5,8.516,14.476778022312,0,0,0.89600396568,0,0,0,190.4, 0.8, 8.4,0,0,1024,1024,1024,1024,0,0,0,0,201.8,0,0,92,4.259,4.257,0,0,0,0,1.152,98.78,14.476778022312,0,10,Assisted_Takeoff,
16800,2023-03-29 16:24:48,-34.9537872628145,-54.9408366612294,0,-0.065616799999999,14.542394822312,14.476778022312,0.328084,0,0.90438979272,2.07504271732,24,5,8.516,14.476778022312,0,0,0.90438979272,0,0,0,190.3, 0.9, 8.4,0,0,1024,1024,1024,1024,0,0,0,0,201.8,0,0,92,4.259,4.257,0,0,0,0,1.152,98.78,14.476778022312,0,10,Assisted_Takeoff,
16900,2023-03-29 16:24:48,-34.9537872703184,-54.9408366529212,0,-0.065616799999999,14.542394822312,14.476778022312,0.328084,0,0.90762470096,2.078740224,24,5,8.516,14.476778022312,0,0,0.90762470096,0,0,0,190.4, 0.8, 8.4,0,0,1024,1024,1024,1024,0,0,0,0,201.8,0,0,92,4.259,4.257,0,0,0,0,1.152,98.78,14.476778022312,0,10,Assisted_Takeoff,
17000,2023-03-29 16:24:48,-34.9537872502853,-54.9408366539392,0,-0.065616799999999,14.542394822312,14.476778022312,0.328084,0,0.90500002896,2.0860564972,24,5,8.516,14.476778022312,0,0,0.90762470096,0,0,0,190.3, 0.8, 8.4,0,0,1024,1024,1024,1024,0,0,0,0,201.8,0,0,92,4.259,4.257,0,0,0,0,1.152,98.78,14.476778022312,0,10,Assisted_Takeoff,
17100,2023-03-29 16:24:48,-34.9537871419645,-54.9408367405294,0,-0.065616799999999,14.542394822312,14.476778022312,0.328084,0,0.868438348,2.13330387404,24,5,8.516,14.476778022312,0,0,0.90762470096,0,0,0,190.3, 0.8, 8.3,0,0,1024,1024,1024,1024,0,0,0,0,201.8,0,0,92,4.259,4.257,0,0,0,0,1.152,98.78,14.476778022312,0,10,Assisted_Takeoff,
17200,2023-03-29 16:24:48,-34.9537871102359,-54.9408367225152,0,-0.065616799999999,14.542394822312,14.476778022312,0.328084,0,0.87041341368,2.14607290332,24,5,8.516,14.476778022312,0,0,0.90762470096,0,0,0,190.4, 0.9, 8.4,0,0,1024,1024,1024,1024,0,0,0,0,201.8,0,0,92,4.259,4.257,0,0,0,0,1.152,98.78,14.476778022312,0,10,Assisted_Takeoff,
17300,2023-03-29 16:24:48,-34.9537870938244,-54.9408366792728,0,-0.065616799999999,14.542394822312,14.476778022312,0.328084,0,0.88129595996,2.16032159144,24,5,8.516,14.476778022312,0,0,0.90762470096,0,0,0,190.3, 0.8, 8.4,0,0,1024,1024,1024,1024,0,0,0,0,201.8,0,0,92,4.259,4.257,0,0,0,0,1.152,98.78,14.476778022312,0,10,Assisted_Takeoff,
17400,2023-03-29 16:24:48,-34.9537870864117,-54.9408366540336,0,-0.065616799999999,14.542394822312,14.476778022312,0.328084,0,0.8878937292,2.1683399644,24,5,8.516,14.476778022312,0,0,0.90762470096,0,0,0,190.4, 0.8, 8.4,0,0,1024,1024,1024,1024,0,0,0,0,201.8,0,0,92,4.259,4.257,0,0,0,0,1.152,98.78,14.476778022312,0,10,Assisted_Takeoff,
17500,2023-03-29 16:24:49,-34.9537871150919,-54.9408366256541,0,-0.065616799999999,14.542394822312,14.476778022312,0.328084,0,0.8988025222,2.18181109344,24,5,8.516,14.476778022312,0,0,0.90762470096,0,0,0,190.3, 0.9, 8.4,0,0,1024,1024,1024,1024,0,0,0,0,201.8,0,0,92,4.259,4.257,0,0,0,0,1.152,98.78,14.476778022312,0,10,Assisted_Takeoff,
17600,2023-03-29 16:24:49,-34.953787116336,-54.940836622502,0,-0.065616799999999,14.542394822312,14.476778022312,0.328084,0,0.89982942512,2.1828576814,24,5,8.516,14.476778022312,0,0,0.90762470096,0,0,0,190.4, 0.8, 8.4,0,0,1024,1024,1024,1024,0,0,0,0,201.8,0,0,92,4.259,4.257,0,0,0,0,1.152,98.78,14.476778022312,0,10,Assisted_Takeoff,
17700,2023-03-29 16:24:49,-34.9537871189643,-54.9408366248234,0,-0.065616799999999,14.542394822312,14.476778022312,0.328084,0,0.89941275844,2.18404206464,24,5,8.514,14.476778022312,0,0,0.90762470096,0,0,0,190.3, 0.8, 8.4,0,0,1024,1024,1024,1024,0,0,0,0,201.8,0,0,92,4.258,4.257,0,0,0,0,1.158,98.96,14.476778022312,0,10,Assisted_Takeoff,
