time(millisecond),datetime(utc),latitude,longitude,height_above_takeoff(feet),height_above_ground_at_drone_location(feet),ground_elevation_at_drone_location(feet),altitude_above_seaLevel(feet),height_sonar(feet),speed(mph),distance(feet),mileage(feet),satellites,gpslevel,voltage(v),max_altitude(feet),max_ascent(feet),max_speed(mph),max_distance(feet), xSpeed(mph), ySpeed(mph), zSpeed(mph), compass_heading(degrees), pitch(degrees), roll(degrees),isPhoto,isVideo,rc_elevator,rc_aileron,rc_throttle,rc_rudder,rc_elevator(percent),rc_aileron(percent),rc_throttle(percent),rc_rudder(percent),gimbal_heading(degrees),gimbal_pitch(degrees),gimbal_roll(degrees),battery_percent,voltageCell1,voltageCell2,voltageCell3,voltageCell4,voltageCell5,voltageCell6,current(A),battery_temperature(f),altitude(feet),ascent(feet),flycStateRaw,flycState,message
0,2025-05-05 16:32:51,-22.7684679186839,-41.8841094661495,0,0,7.751984828116,7.751984828116,0.328084,0,0,0,21,5,0,7.751984828116,0,0,0,0,0,0,204.1, -2.9, 0,0,0,364,364,364,1684,-100,-100,-100,100,227.2,0,0,96,4.286,4.285,0,0,0,0,0,87.62,7.751984828116,0,41,Motors_Started,"Error de calibraci칩n del estabilizador. Reinicia la aeronave o contacta con la Asistencia DJI (Code: 40011)"
100,2025-05-05 16:32:51,-22.768467946466,-41.8841094907908,0,0,7.751984828116,7.751984828116,0.328084,0,0.0130944557996,0.0130944557996,21,5,0,7.751984828116,0,0,0.0130944557996,0,0,0,204.1, -2.8, -0.1,0,0,364,364,364,1684,-100,-100,-100,100,227.2,0,0,96,4.286,4.285,0,0,0,0,0,87.62,7.751984828116,0,41,Motors_Started,
200,2025-05-05 16:32:51,-22.7684680056811,-41.8841096145944,0,0,7.751984828116,7.751984828116,0.328084,0,0.05917323024,0.060014437616,21,5,0,7.751984828116,0,0,0.05917323024,0,0,0,204.1, -2.8, -0.1,0,0,1024,1024,1024,1024,0,0,0,0,227.2,0,0,96,4.286,4.285,0,0,0,0,0,87.62,7.751984828116,0,41,Motors_Started,
300,2025-05-05 16:32:51,-22.7684680092873,-41.8841095911807,0,0,7.751984828116,7.751984828116,0.328084,0,0.053498033208,0.06800033026,21,5,0,7.751984828116,0,0,0.05917323024,0,0,0,204.1, -2.8, 0,0,0,1024,1024,1024,1024,0,0,0,0,227.2,0,0,96,4.286,4.285,0,0,0,0,0,87.62,7.751984828116,0,41,Motors_Started,
400,2025-05-05 16:32:51,-22.7684680077655,-41.8841095424233,0,0,7.751984828116,7.751984828116,0.328084,0,0.041409778228,0.084412404276,21,5,0,7.751984828116,0,0,0.05917323024,0,0,0,204.1, -2.8, 0,0,0,1024,1024,1024,1040,0,0,0,2,227.2,0,0,96,4.286,4.285,0,0,0,0,0,87.62,7.751984828116,0,41,Motors_Started,
500,2025-05-05 16:32:51,-22.7684680034216,-41.8841095126827,0,0,7.751984828116,7.751984828116,0.328084,0,0.0346538725,0.094542653944,21,5,0,7.751984828116,0,0,0.05917323024,0,0,0,204.1, -2.8, 0,0,0,1024,1024,1533,1070,0,0,77,7,227.2,0,0,96,4.286,4.285,0,0,0,0,0,87.62,7.751984828116,0,41,Motors_Started,
600,2025-05-05 16:32:52,-22.7684679448351,-41.8841094222952,0,0,7.751984828116,7.751984828116,0.328084,0,0.0175698496436,0.131711946472,21,5,0,7.751984828116,0,0,0.05917323024,0,0,0,204.1, -2.8, 0,0,0,1024,1024,1666,1024,0,0,97,0,227.2,0,0,96,4.286,4.285,0,0,0,0,0,87.62,7.751984828116,0,41,Motors_Started,
700,2025-05-05 16:32:52,-22.7684679707282,-41.8841094148011,0,0,7.751984828116,7.751984828116,0.328084,0,0.0256703420288,0.14148950584,21,5,0,7.751984828116,0,0,0.05917323024,0,0,0,204.1, -2.9, -0.1,0,0,1024,1024,1127,1024,0,0,16,0,227.2,0,0,96,4.286,4.285,0,0,0,0,0,87.62,7.751984828116,0,41,Motors_Started,
800,2025-05-05 16:32:52,-22.7684680181851,-41.8841094124541,0,0,7.751984828116,7.751984828116,0.328084,0,0.040548885812,0.15882218356,21,5,0,7.751984828116,0,0,0.05917323024,0,0,0,204.2, -2.9, -0.1,0,0,1024,1024,1299,1024,0,0,42,0,227.2,0,0,96,4.286,4.285,0,0,0,0,0,87.62,7.751984828116,0,41,Motors_Started,"Setting new Return-To-Home altitude to 100m (328 ft). Data Recorder File Index is 66. Setting new Maximum Flight Altitude to 500m (1640 ft)"
900,2025-05-05 16:32:52,-22.7684680450487,-41.8841094135586,0,0,7.751984828116,7.751984828116,0.328084,0,0.049382219428,0.16863025474,21,5,0,7.751984828116,0,0,0.05917323024,0,0,0,204.2, -2.9, -0.1,0,0,1024,1024,1684,1024,0,0,100,0,227.2,0,0,96,4.286,4.285,0,0,0,0,0,87.62,7.751984828116,0,41,Motors_Started,
1000,2025-05-05 16:32:52,-22.7684680598016,-41.8841094159879,0,0,7.751984828116,7.751984828116,0.328084,0,0.054181760264,0.17407480872,21,5,8.62,7.751984828116,0,0,0.05917323024,0,0,0,204.1, -2.9, -0.1,0,0,1024,1024,1684,1024,0,0,100,0,227.2,0,0,96,4.286,4.285,0,0,0,0,0.573,87.62,7.751984828116,0,41,Motors_Started,
1100,2025-05-05 16:32:52,-22.7684681177327,-41.8841094597109,0,0,7.751984828116,7.751984828116,0.328084,0,0.072655186052,0.199825465712,21,5,8.62,7.751984828116,0,0,0.072655186052,0,0,0,204.1, -2.8, -0.1,0,0,1024,1024,1651,1024,0,0,95,0,227.2,0,0,96,4.286,4.285,0,0,0,0,0.573,87.62,7.751984828116,0,10,Assisted_Takeoff,
1200,2025-05-05 16:32:52,-22.7684681170007,-41.8841094610101,0,0,7.751984828116,7.751984828116,0.328084,0,0.072376314652,0.200337604836,21,5,8.62,7.751984828116,0,0,0.072655186052,0,0,0,204.1, -2.9, -0.1,0,0,1024,1024,1662,1024,0,0,97,0,227.2,0,0,96,4.286,4.285,0,0,0,0,0.573,87.62,7.751984828116,0,10,Assisted_Takeoff,
1300,2025-05-05 16:32:52,-22.7684681161368,-41.8841094636357,0,0,7.751984828116,7.751984828116,0.328084,0,0.07204560598,0.201275268908,21,5,8.62,7.751984828116,0,0,0.072655186052,0,0,0,203.9, -2.9, -0.1,0,0,1024,1024,1401,1024,0,0,57,0,227.2,0,0,96,4.286,4.285,0,0,0,0,0.573,87.62,7.751984828116,0,10,Assisted_Takeoff,
1400,2025-05-05 16:32:52,-22.7684681200736,-41.8841094691949,0,0,7.751984828116,7.751984828116,0.328084,0,0.073483926236,0.2036335367,21,5,8.62,7.751984828116,0,0,0.073483926236,0,0,0,203.7, -2.9, 0,0,0,1024,1024,1354,1024,0,0,50,0,227,0,0,96,4.286,4.285,0,0,0,0,0.573,87.62,7.751984828116,0,10,Assisted_Takeoff,
1500,2025-05-05 16:32:53,-22.768468181483,-41.8841095138686,0,0,7.751984828116,7.751984828116,0.328084,0,0.097216866628,0.230612540188,21,5,8.62,7.751984828116,0,0,0.097216866628,0,0,0,203.9, -3.3, 0,0,0,1024,1024,1386,1024,0,0,55,0,227,0,0,96,4.286,4.285,0,0,0,0,0.573,87.62,7.751984828116,0,10,Assisted_Takeoff,
1600,2025-05-05 16:32:53,-22.7684682970162,-41.884109563156,0,0,7.751984828116,7.751984828116,0.328084,0.223694,0.141839571468,0.27590880148,21,5,8.62,7.751984828116,0,0.223694,0.141839571468,-0.223694,0,0,204.1, -4.3, 0.7,0,0,1024,1024,1107,1024,0,0,13,0,227,0,0,96,4.286,4.285,0,0,0,0,0.573,87.62,7.751984828116,0,10,Assisted_Takeoff,
1700,2025-05-05 16:32:53,-22.7684684434467,-41.884109663581,0,0,7.751984828116,7.751984828116,0.328084,0.3131716,0.202653221708,0.33912074576,21,5,8.62,7.751984828116,0,0.3131716,0.202653221708,-0.223694,-0.223694,-0.447388,203.8, -2.5, 0.7,0,0,1053,1024,1024,1024,4,0,0,0,227,0,0,96,4.286,4.285,0,0,0,0,0.573,87.62,7.751984828116,0,6,P-GPS,
1800,2025-05-05 16:32:53,-22.7684686265661,-41.8841098167235,0,0,7.751984828116,7.751984828116,0.328084,0.4921268,0.283924877852,0.42348754636,20,5,8.62,7.751984828116,0,0.4921268,0.283924877852,-0.447388,-0.223694,-0.671082,203.5, 0.8, -0.8,0,0,1053,1024,1024,1024,4,0,0,0,227,0,0,96,4.286,4.285,0,0,0,0,0.573,87.62,7.751984828116,0,6,P-GPS,"Punto de origen actualizado. Altitud de RPO establecida en 100m (Code: 30213)"
1900,2025-05-05 16:32:53,-22.7684688292455,-41.8841100659851,0,0,7.751984828116,7.751984828116,0.656168,0.3131716,0.38870408068,0.53529201188,20,5,8.62,7.751984828116,0,0.4921268,0.38870408068,-0.223694,-0.223694,-0.894776,203.6, 2.3, -0.1,0,0,1624,1024,1024,1024,91,0,0,0,227,0,0,96,4.286,4.285,0,0,0,0,0.573,87.62,7.751984828116,0,6,P-GPS,
2000,2025-05-05 16:32:53,-22.7684690287429,-41.88411026224,0.328084,0.328084,7.751984828116,8.080068828116,0.656168,0.3131716,0.4855479158,0.6335630124,20,5,8.589,8.080068828116,0.328084,0.4921268,0.4855479158,-0.223694,-0.223694,-0.894776,203.7, -2.7, -0.6,0,0,1684,1024,1024,1024,100,0,0,0,227,0,0,96,4.223,4.216,0,0,0,0,0.92,87.62,8.080068828116,0.328084,6,P-GPS,
2100,2025-05-05 16:32:53,-22.7684693102129,-41.8841104291486,0.328084,0.328084,7.751984828116,8.080068828116,0.656168,0.3131716,0.60225723712,0.7506069794,20,5,8.589,8.080068828116,0.328084,0.4921268,0.60225723712,-0.671082,-0.223694,-0.894776,204.1, -11.6, -0.7,0,0,1684,1024,1024,1024,100,0,0,0,227,0,0,96,4.223,4.216,0,0,0,0,0.92,87.62,8.080068828116,0.328084,6,P-GPS,
2200,2025-05-05 16:32:53,-22.7684697899094,-41.8841106397524,0.656168,0.6233596,7.784793228116,8.408152828116,0.984252,1.2079476,0.78866144256,0.9394193214,20,5,8.589,8.408152828116,0.656168,1.2079476,0.78866144256,-1.11847,-0.447388,-0.894776,204.1, -15.2, -0.6,0,0,1684,1024,1024,1024,100,0,0,0,227,0,0,96,4.223,4.216,0,0,0,0,0.92,87.62,8.408152828116,0.656168,6,P-GPS,
2300,2025-05-05 16:32:53,-22.7684706130617,-41.8841111251348,0.656168,0.6233596,7.784793228116,8.408152828116,0.984252,1.901399,1.13042654536,1.2812664452,20,5,8.589,8.408152828116,0.656168,1.901399,1.13042654536,-1.789552,-0.671082,-0.894776,204, -15.3, 0.6,0,0,1684,1024,1684,1024,100,0,100,0,227,0,0,96,4.223,4.216,0,0,0,0,0.92,87.62,8.408152828116,0.656168,6,P-GPS,
2400,2025-05-05 16:32:53,-22.7684715176225,-41.8841116976245,0.984252,0.9514436,7.784793228116,8.736236828116,1.312336,2.5053728,1.51251973344,1.66338259916,21,5,8.589,8.736236828116,0.984252,2.5053728,1.51251973344,-2.23694,-1.11847,-0.894776,203.9, -15.3, 0,0,0,1684,1024,1684,1024,100,0,100,0,227,0,0,96,4.223,4.216,0,0,0,0,0.92,87.62,8.736236828116,0.984252,6,P-GPS,
2500,2025-05-05 16:32:53,-22.7684725856139,-41.8841123285661,0.984252,0.9514436,7.784793228116,8.736236828116,1.64042,3.1988242,1.9561680416,2.1071030858,21,5,8.589,8.736236828116,0.984252,3.1988242,1.9561680416,-2.908022,-1.342164,-1.11847,204.1, -14.6, -0.6,0,0,1684,1024,1684,1024,100,0,100,0,227,0,0,96,4.223,4.216,0,0,0,0,0.92,87.62,8.736236828116,0.984252,6,P-GPS,
2600,2025-05-05 16:32:54,-22.768473944254,-41.8841130892009,1.312336,1.2795276,7.784793228116,9.064320828116,1.64042,3.914645,2.51370414868,2.66495415352,21,5,8.589,9.064320828116,1.312336,3.914645,2.51370414868,-3.579104,-1.565858,-1.789552,203.9, -12.8, -1.2,0,0,1684,1024,1684,1024,100,0,100,0,227,0,0,96,4.223,4.216,0,0,0,0,0.92,87.62,9.064320828116,1.312336,6,P-GPS,
2700,2025-05-05 16:32:54,-22.768475547291,-41.8841138566051,1.64042,1.5748032,7.817601628116,9.392404828116,1.968504,4.4067718,3.15092857852,3.3042651976,21,5,8.589,9.392404828116,1.64042,4.4067718,3.15092857852,-4.026492,-1.789552,-2.23694,203.7, -11, -0.8,0,0,1684,1024,1684,1024,100,0,100,0,227,0,0,96,4.223,4.216,0,0,0,0,0.92,87.62,9.392404828116,1.64042,6,P-GPS,
2800,2025-05-05 16:32:54,-22.7684776650352,-41.8841145520662,1.968504,1.9028872,7.817601628116,9.720488828116,3.937008,4.8988986,3.9461615436,4.1115814964,21,5,8.589,9.720488828116,1.968504,4.8988986,3.9461615436,-4.47388,-2.013246,-3.131716,203.6, -10.8, -1.2,0,0,1684,1024,1684,1024,100,0,100,0,227,0,0,96,4.223,4.216,0,0,0,0,0.92,87.62,9.720488828116,1.968504,6,P-GPS,
2900,2025-05-05 16:32:54,-22.7684797692503,-41.8841155187885,2.624672,2.5262468,7.850410028116,10.376656828116,4.593176,5.4133948,4.7791668196,4.9453413656,21,5,8.589,10.376656828116,2.624672,5.4133948,4.7791668196,-4.921268,-2.23694,-3.802798,203.8, -11.2, -1.4,0,0,1684,1024,1684,1024,100,0,100,0,227,0,0,96,4.223,4.216,0,0,0,0,0.92,87.62,10.376656828116,2.624672,6,P-GPS,
3000,2025-05-05 16:32:54,-22.7684822167218,-41.8841166597648,3.28084,3.1824148,7.850410028116,11.032824828116,5.249344,6.1068462,5.750656352,5.9172902156,21,5,8.589,11.032824828116,3.28084,6.1068462,5.750656352,-5.59235,-2.460634,-4.697574,203.9, -11.5, -0.8,0,0,1684,1024,1684,1024,100,0,100,0,227,0,0,96,4.223,4.216,0,0,0,0,0.92,87.62,11.032824828116,3.28084,6,P-GPS,
3100,2025-05-05 16:32:54,-22.7684847669791,-41.8841178287873,3.937008,3.8057744,7.883218428116,11.688992828116,5.905512,6.598973,6.7603020536,6.9274608516,21,5,8.589,11.688992828116,3.937008,6.598973,6.7603020536,-6.039738,-2.684328,-5.368656,203.8, -10.5, -0.7,0,0,1684,1024,1684,1024,100,0,100,0,227,0,0,96,4.223,4.216,0,0,0,0,0.92,87.62,11.688992828116,3.937008,6,P-GPS,
3200,2025-05-05 16:32:54,-22.7684882787577,-41.8841192763178,4.92126,4.757218,7.916026828116,12.673244828116,6.889764,6.822667,8.1285107588,8.2981629952,21,5,8.589,12.673244828116,4.92126,6.822667,8.1285107588,-6.263432,-2.684328,-6.039738,203.8, -11, -0.2,0,0,1684,1024,1684,1024,100,0,100,0,227,0,0,96,4.223,4.216,0,0,0,0,0.92,87.62,12.673244828116,4.92126,6,P-GPS,
3300,2025-05-05 16:32:54,-22.7684910867097,-41.8841204792327,5.905512,5.74147,7.916026828116,13.657496828116,7.874016,7.3147938,9.229166962,9.3996722168,21,5,8.589,13.657496828116,5.905512,7.3147938,9.229166962,-6.71082,-2.908022,-6.263432,204, -11.4, -0.6,0,0,1684,1024,1684,1024,100,0,100,0,227,0,0,96,4.223,4.216,0,0,0,0,0.92,87.62,13.657496828116,5.905512,6,P-GPS,
3400,2025-05-05 16:32:54,-22.7684941390195,-41.8841217527685,6.889764,6.6929136,7.948835228116,14.641748828116,8.858268,7.6950736,10.421260176,10.5928809164,21,5,8.36,14.641748828116,6.889764,7.6950736,10.421260176,-6.934514,-3.35541,-6.71082,204, -11.8, -1.3,0,0,1684,1024,1684,1024,100,0,100,0,227,0,0,96,4.152,4.148,0,0,0,0,5.068,87.62,14.641748828116,6.889764,6,P-GPS,
3500,2025-05-05 16:32:55,-22.7684971872224,-41.8841230949565,7.874016,7.6443572,7.981643628116,15.626000828116,10.170604,8.0082452,11.6212930228,11.7931762304,21,5,8.36,15.626000828116,7.874016,8.0082452,11.6212930228,-7.158208,-3.579104,-6.71082,204.1, -11.9, -2,0,0,1684,1024,1684,1024,100,0,100,0,227,0,0,96,4.152,4.148,0,0,0,0,5.068,87.62,15.626000828116,7.874016,6,P-GPS,
3600,2025-05-05 16:32:55,-22.7685007207896,-41.8841244286781,8.858268,8.5958008,8.014452028116,16.610252828116,11.154856,8.2990474,12.9833337488,13.1582353292,21,5,8.36,16.610252828116,8.858268,8.2990474,12.9833337488,-7.381902,-3.802798,-6.71082,204.3, -12.3, -2.7,0,0,1684,1024,1684,1024,100,0,100,0,227,0,0,96,4.152,4.148,0,0,0,0,5.068,87.62,16.610252828116,8.858268,6,P-GPS,
3700,2025-05-05 16:32:55,-22.7685038375402,-41.8841258796335,9.84252,9.5472444,8.047260428116,17.594504828116,12.139108,8.8135436,14.2207681716,14.3957353688,21,5,8.36,17.594504828116,9.84252,8.8135436,14.2207681716,-7.82929,-4.026492,-6.71082,204.5, -13, -3.7,0,0,1684,1024,1684,1024,100,0,100,0,227,0,0,96,4.152,4.148,0,0,0,0,5.068,87.62,17.594504828116,9.84252,6,P-GPS,
3800,2025-05-05 16:32:55,-22.7685071478574,-41.8841273794594,10.826772,10.498688,8.080068828116,18.578756828116,13.12336,9.1043458,15.529692098,15.7046592952,20,5,8.36,18.578756828116,10.826772,9.1043458,15.529692098,-8.052984,-4.250186,-6.71082,204.6, -13.1, -3.5,0,0,1684,1024,1684,1024,100,0,100,0,227,0,0,96,4.152,4.148,0,0,0,0,5.068,87.62,18.578756828116,10.826772,6,P-GPS,
3900,2025-05-05 16:32:55,-22.7685104827251,-41.8841289007011,12.139108,11.7782156,8.112877228116,19.891092828116,14.107612,9.506995,16.8496724552,17.0246396524,20,5,8.36,19.891092828116,12.139108,9.506995,16.8496724552,-8.500372,-4.250186,-6.487126,204.5, -12.5, -3.2,0,0,1684,1024,1684,1024,100,0,100,0,227,0,0,96,4.152,4.148,0,0,0,0,5.068,87.62,19.891092828116,12.139108,6,P-GPS,
4000,2025-05-05 16:32:55,-22.7685139646315,-41.8841301225673,13.12336,12.7296592,8.145685628116,20.875344828116,15.091864,9.842536,18.1803811592,18.3598431072,20,5,8.36,20.875344828116,13.12336,9.842536,18.1803811592,-9.171454,-3.579104,-6.487126,200.2, -12, -2.9,0,0,1684,1024,1684,1024,100,0,100,0,227,0,0,96,4.152,4.148,0,0,0,0,5.068,87.62,20.875344828116,13.12336,6,P-GPS,
4100,2025-05-05 16:32:55,-22.7685175755562,-41.8841317327249,14.107612,13.6811028,8.178494028116,21.859596828116,16.076116,10.3346628,19.604823462,19.7843182184,20,5,8.36,21.859596828116,14.107612,10.3346628,19.604823462,-9.618842,-3.802798,-6.71082,200.2, -11.5, -3.1,0,0,1684,1024,1684,1024,100,0,100,0,227,0,0,96,4.152,4.148,0,0,0,0,5.068,87.62,21.859596828116,14.107612,6,P-GPS,
4200,2025-05-05 16:32:55,-22.7685214622677,-41.8841334678475,15.091864,14.6325464,8.211302428116,22.843848828116,17.060368,10.3346628,21.1383536948,21.3178156428,20,5,8.36,22.843848828116,15.091864,10.3346628,21.1383536948,-9.618842,-3.802798,-6.71082,200.2, -11.3, -3.2,0,0,1684,1024,1684,1024,100,0,100,0,227,0,0,96,4.152,4.148,0,0,0,0,5.068,87.62,22.843848828116,15.091864,6,P-GPS,
4300,2025-05-05 16:32:55,-22.7685252578515,-41.8841351068827,16.076116,15.5511816,8.276919228116,23.828100828116,18.04462,10.5583568,22.62877369,22.8083668716,20,5,8.36,23.828100828116,16.076116,10.5583568,22.62877369,-9.842536,-3.802798,-6.71082,200.3, -11.5, -3.8,0,0,1684,1024,1684,1024,100,0,100,0,227,0,0,96,4.152,4.148,0,0,0,0,5.068,87.62,23.828100828116,16.076116,6,P-GPS,
4400,2025-05-05 16:32:55,-22.7685293443666,-41.8841368280897,17.060368,16.5026252,8.309727628116,24.812352828116,19.028872,10.5583568,24.2279207228,24.4078419884,21,5,8.346,24.812352828116,17.060368,10.5583568,24.2279207228,-10.06623,-3.802798,-6.487126,200.3, -11.9, -3.8,0,0,1684,1024,1684,1024,100,0,100,0,227,0,0,96,4.172,4.171,0,0,0,0,6.197,87.62,24.812352828116,17.060368,6,P-GPS,
4500,2025-05-05 16:32:55,-22.7685332309413,-41.8841382984725,18.04462,17.4540688,8.342536028116,25.796604828116,20.013124,11.0504836,25.7276583036,25.9096464984,21,5,8.346,25.796604828116,18.04462,11.0504836,25.7276583036,-10.289924,-4.026492,-6.487126,200.5, -12.6, -2.9,0,0,1684,1024,1684,1024,100,0,100,0,227,0,0,96,4.172,4.171,0,0,0,0,6.197,87.62,25.796604828116,18.04462,6,P-GPS,
4600,2025-05-05 16:32:56,-22.7685374252529,-41.8841401309345,19.028872,18.372704,8.408152828116,26.780856828116,20.669292,11.0504836,27.377461506,27.5594497008,21,5,8.346,26.780856828116,19.028872,11.0504836,27.377461506,-10.289924,-4.026492,-6.487126,200.5, -13.3, -3,0,0,1684,1024,1684,1024,100,0,100,0,227,0,0,96,4.172,4.171,0,0,0,0,6.197,87.62,26.780856828116,19.028872,6,P-GPS,
4700,2025-05-05 16:32:56,-22.7685415035671,-41.884141899716,20.013124,19.2913392,8.473769628116,27.765108828116,21.653544,11.2518082,28.9799549956,29.1619759988,21,5,8.346,27.765108828116,20.013124,11.2518082,28.9799549956,-10.513618,-4.026492,-6.487126,200.4, -13.2, -3,0,0,1684,1024,1684,1024,100,0,100,0,227,0,0,96,4.172,4.171,0,0,0,0,6.197,87.62,27.765108828116,20.013124,6,P-GPS,
4800,2025-05-05 16:32:56,-22.7685458872927,-41.8841437862353,20.997376,20.2427828,8.506578028116,28.749360828116,22.309712,11.2518082,30.700624342,30.882710962,21,5,8.346,28.749360828116,20.997376,11.2518082,30.700624342,-10.513618,-4.026492,-6.487126,200.2, -13.5, -3.5,0,0,1684,1024,1684,1024,100,0,100,0,227,0,0,96,4.172,4.171,0,0,0,0,6.197,87.62,28.749360828116,20.997376,6,P-GPS,
4900,2025-05-05 16:32:56,-22.7685500508788,-41.8841454794694,21.653544,20.833334,8.572194828116,29.405528828116,23.622048,11.6768268,32.3224419792,32.505086342,21,5,8.346,29.405528828116,21.653544,11.6768268,32.3224419792,-10.961006,-4.026492,-6.487126,200.4, -13.7, -3.2,0,0,1684,1009,1684,1024,100,-2,100,0,227,0,0,96,4.172,4.171,0,0,0,0,6.197,87.62,29.405528828116,21.653544,6,P-GPS,
5000,2025-05-05 16:32:56,-22.7685546517607,-41.8841473598776,22.637796,21.7519692,8.637811628116,30.389780828116,24.6063,11.6768268,34.11581474,34.298885612,21,5,8.346,30.389780828116,22.637796,11.6768268,34.11581474,-10.961006,-4.026492,-6.487126,200.4, -14, -2.8,0,0,1684,1009,1684,1024,100,-2,100,0,227,0,0,96,4.172,4.171,0,0,0,0,6.197,87.62,30.389780828116,22.637796,6,P-GPS,
5100,2025-05-05 16:32:56,-22.7685591442925,-41.8841491880169,23.622048,22.7034128,8.670620028116,31.374032828116,25.590552,11.8781514,35.86614288,36.049541836,21,5,8.346,31.374032828116,23.622048,11.8781514,35.86614288,-11.1847,-4.026492,-6.487126,200.4, -14.8, -2,0,0,1684,1003,1684,1024,100,-3,100,0,227,0,0,96,4.172,4.171,0,0,0,0,6.197,87.62,31.374032828116,23.622048,6,P-GPS,
5200,2025-05-05 16:32:56,-22.7685639795726,-41.8841511476354,24.6063,23.622048,8.736236828116,32.358284828116,26.574804,12.1689536,37.748688872,37.93307208,21,5,8.346,32.358284828116,24.6063,12.1689536,37.748688872,-11.408394,-4.250186,-6.487126,200.4, -15.2, -2,0,0,1684,1003,1684,1024,100,-3,100,0,227,0,0,96,4.172,4.171,0,0,0,0,6.197,87.62,32.358284828116,24.6063,6,P-GPS,
5300,2025-05-05 16:32:56,-22.7685685341937,-41.8841530337993,25.590552,24.5406832,8.801853628116,33.342536828116,27.559056,12.3926476,39.527232236,39.711615444,21,5,8.346,33.342536828116,25.590552,12.3926476,39.527232236,-11.632088,-4.250186,-6.487126,200.1, -14.8, -2.1,0,0,1684,1003,1684,1024,100,-3,100,0,227,0,0,96,4.172,4.171,0,0,0,0,6.197,87.62,33.342536828116,25.590552,6,P-GPS,
5400,2025-05-05 16:32:56,-22.7685734474437,-41.8841549971945,26.574804,25.4593184,8.867470428116,34.326788828116,28.543308,12.5939722,41.4370092,41.622048576,21,5,8.338,34.326788828116,26.574804,12.5939722,41.4370092,-11.855782,-4.250186,-6.487126,200, -14.5, -1,0,0,1684,1004,1684,1024,100,-3,100,0,227,0,0,96,4.174,4.165,0,0,0,0,5.445,87.62,34.326788828116,26.574804,6,P-GPS,
5500,2025-05-05 16:32:57,-22.7685782288419,-41.8841568740395,27.559056,26.3779536,8.933087228116,35.311040828116,29.52756,12.8847744,43.291668052,43.477363596,21,5,8.338,35.311040828116,27.559056,12.8847744,43.291668052,-12.079476,-4.47388,-6.487126,200.2, -14.8, -0.6,0,0,1684,1005,1684,1024,100,-3,100,0,227,0,0,96,4.174,4.165,0,0,0,0,5.445,87.62,35.311040828116,27.559056,6,P-GPS,
5600,2025-05-05 16:32:57,-22.7685833511451,-41.8841588960702,28.543308,27.2637804,9.031512428116,36.295292828116,30.511812,13.086099,45.279529008,45.466208804,22,5,8.338,36.295292828116,28.543308,13.086099,45.279529008,-12.30317,-4.47388,-6.487126,200.2, -14.3, -1.9,0,0,1684,1005,1684,1024,100,-3,100,0,227,0,0,96,4.174,4.165,0,0,0,0,5.445,87.62,36.295292828116,28.543308,6,P-GPS,
5700,2025-05-05 16:32:57,-22.7685885313948,-41.8841605785803,29.52756,28.1824156,9.097129228116,37.279544828116,31.496064,13.309793,47.24573642,47.43930598,22,5,8.338,37.279544828116,29.52756,13.309793,47.24573642,-12.526864,-4.47388,-6.71082,200.4, -13.9, -1.7,0,0,1684,1005,1684,1024,100,-3,100,0,227,0,0,96,4.174,4.165,0,0,0,0,5.445,87.62,37.279544828116,29.52756,6,P-GPS,
5800,2025-05-05 16:32:57,-22.7685939332301,-41.8841626507405,30.511812,29.0682424,9.195554428116,38.263796828116,32.480316,13.3769012,49.335303416,49.529529144,22,5,8.338,38.263796828116,30.511812,13.3769012,49.335303416,-12.526864,-4.697574,-6.71082,200.3, -14.2, -2.1,0,0,1684,1005,1684,1024,100,-3,100,0,227,0,0,96,4.174,4.165,0,0,0,0,5.445,87.62,38.263796828116,30.511812,6,P-GPS,
5900,2025-05-05 16:32:57,-22.7685990845066,-41.8841647140696,31.496064,29.9868776,9.261171228116,39.248048828116,33.464568,13.5782258,51.338256236,51.533138132,22,5,8.338,39.248048828116,31.496064,13.5782258,51.338256236,-12.750558,-4.697574,-6.487126,200.2, -14.2, -2.2,0,0,1684,1005,1684,1024,100,-3,100,0,227,0,0,96,4.174,4.165,0,0,0,0,5.445,87.62,39.248048828116,31.496064,6,P-GPS,
6000,2025-05-05 16:32:57,-22.7686045308049,-41.8841669643614,32.8084,31.2664052,9.293979628116,40.560384828116,34.44882,13.869028,53.464896724,53.659450536,22,5,8.338,40.560384828116,32.8084,13.869028,53.464896724,-12.974252,-4.921268,-6.487126,200.2, -14, -2.8,0,0,1684,1005,1684,1024,100,-3,100,0,227,0,0,96,4.174,4.165,0,0,0,0,5.445,87.62,40.560384828116,32.8084,6,P-GPS,
6100,2025-05-05 16:32:57,-22.7686098357153,-41.8841691647605,33.792652,32.480316,9.064320828116,41.544636828116,35.433072,14.092722,55.537075268,55.731957164,22,5,8.338,41.544636828116,33.792652,14.092722,55.537075268,-13.197946,-4.921268,-6.487126,200.1, -12.8, -2.1,0,0,1684,1005,1684,1024,100,-3,100,0,227,0,0,96,4.174,4.165,0,0,0,0,5.445,87.62,41.544636828116,33.792652,6,P-GPS,
6200,2025-05-05 16:32:57,-22.7686155365069,-41.8841717518645,34.776904,34.6456704,7.883218428116,42.528888828116,36.417324,14.2940466,57.791012348,57.986550412,22,5,8.338,42.528888828116,34.776904,14.2940466,57.791012348,-13.42164,-4.921268,-6.71082,200.1, -12.5, -2.6,0,0,1684,1003,1684,1024,100,-3,100,0,227,0,0,96,4.174,4.165,0,0,0,0,5.445,87.62,42.528888828116,34.776904,6,P-GPS,
6300,2025-05-05 16:32:57,-22.7686208550832,-41.8841739827985,35.761156,36.6797912,6.833349628116,43.513140828116,37.401576,14.5848488,59.871392992,60.066931056,22,5,8.338,43.513140828116,35.761156,14.5848488,59.871392992,-13.645334,-5.144962,-6.71082,200.2, -12.6, -3,0,0,1684,1001,1684,1024,100,-3,100,0,227,0,0,96,4.174,4.165,0,0,0,0,5.445,87.62,43.513140828116,35.761156,6,P-GPS,
6400,2025-05-05 16:32:57,-22.7686264114253,-41.8841763312495,36.745408,38.713912,5.783480828116,44.497392828116,38.385828,14.4953712,62.04724608,62.242784144,22,5,8.321,44.497392828116,36.745408,14.5848488,62.04724608,-13.645334,-4.921268,-6.71082,200.2, -12.3, -2.9,0,0,1684,1002,1684,1024,100,-3,100,0,227,0,0,96,4.152,4.144,0,0,0,0,5.866,87.62,44.497392828116,36.745408,6,P-GPS,
6500,2025-05-05 16:32:57,-22.7686317952044,-41.8841785529854,37.72966,41.0105,4.471144828116,45.481644828116,39.698164,14.4953712,64.148952184,64.344490248,22,5,8.321,45.481644828116,37.72966,14.5848488,64.148952184,-13.869028,-5.144962,-6.71082,200.2, -12.6, -2.6,0,0,1684,1002,1684,1024,100,-3,100,0,227,0,0,96,4.152,4.144,0,0,0,0,5.866,87.62,45.481644828116,37.72966,6,P-GPS,
6600,2025-05-05 16:32:58,-22.7686372815234,-41.8841808596084,38.713912,43.0118124,3.454084428116,46.465896828116,40.682416,14.875651,66.295605796,66.491471944,22,5,8.321,46.465896828116,38.713912,14.875651,66.295605796,-13.869028,-5.368656,-6.71082,200, -12.3, -2.3,0,0,1684,1002,1684,1024,100,-3,100,0,227,0,0,96,4.152,4.144,0,0,0,0,5.866,87.62,46.465896828116,38.713912,6,P-GPS,
6700,2025-05-05 16:32:58,-22.768642831938,-41.8841831443651,39.37008,44.8162744,2.305790428116,47.122064828116,41.666668,15.0769756,68.461616364,68.657482512,22,5,8.321,47.122064828116,39.37008,15.0769756,68.461616364,-14.092722,-5.368656,-6.71082,200.1, -13, -3.2,0,0,1684,1001,1684,1024,100,-3,100,0,227,0,0,96,4.152,4.144,0,0,0,0,5.866,87.62,47.122064828116,39.37008,6,P-GPS,
6800,2025-05-05 16:32:58,-22.7686487224499,-41.8841855874773,40.354332,47.0472456,1.059071228116,48.106316828116,42.65092,15.0769756,70.762469456,70.958335604,22,5,8.321,48.106316828116,40.354332,15.0769756,70.762469456,-14.092722,-5.368656,-6.487126,200.3, -13.4, -2.8,0,0,1684,1001,1684,1024,100,-3,100,0,227,0,0,96,4.152,4.144,0,0,0,0,5.866,87.62,48.106316828116,40.354332,6,P-GPS,
6900,2025-05-05 16:32:58,-22.7686543836768,-41.8841879707835,41.338584,49.0157496,0.074819228116002,49.090568828116,42.65092,15.3006696,72.978020708,73.173886856,21,5,8.321,49.090568828116,41.338584,15.3006696,72.978020708,-14.316416,-5.368656,-6.487126,200.2, -12.4, -2.8,0,0,1684,1001,1684,1024,100,-3,100,0,227,0,0,96,4.152,4.144,0,0,0,0,5.866,87.62,49.090568828116,41.338584,6,P-GPS,
7000,2025-05-05 16:32:58,-22.7686605173218,-41.8841908378762,42.322836,51.3779544,-1.303133571884,50.074820828116,42.65092,15.3006696,75.41338824,75.610894808,22,5,8.321,50.074820828116,42.322836,15.3006696,75.41338824,-14.316416,-5.368656,-6.487126,200.2, -12.4, -3.6,0,0,1684,1001,1684,1024,100,-3,100,0,227,0,0,96,4.152,4.144,0,0,0,0,5.866,87.62,50.074820828116,42.322836,6,P-GPS,
7100,2025-05-05 16:32:58,-22.7686659526119,-41.88419306724,43.307088,53.31365,-2.254577171884,51.059072828116,42.65092,15.3006696,77.533467048,77.730973616,22,5,8.321,51.059072828116,43.307088,15.3006696,77.533467048,-14.316416,-5.368656,-6.487126,200.3, -12.7, -2.9,0,0,1684,1001,1684,1024,100,-3,100,0,227,0,0,96,4.152,4.144,0,0,0,0,5.866,87.62,51.059072828116,43.307088,6,P-GPS,
7200,2025-05-05 16:32:58,-22.7686712729209,-41.8841951461919,44.29134,55.2165372,-3.173212371884,52.043324828116,42.65092,15.5019942,79.596131156,79.794293892,22,5,8.321,52.043324828116,44.29134,15.5019942,79.596131156,-14.54011,-5.368656,-6.71082,200.2, -12.3, -2.3,0,0,1684,1001,1684,1024,100,-3,100,0,227,0,0,96,4.152,4.144,0,0,0,0,5.866,87.62,52.043324828116,44.29134,6,P-GPS,
7300,2025-05-05 16:32:58,-22.7686768146461,-41.8841972711064,44.947508,56.9553824,-4.255889571884,52.699492828116,42.65092,15.4125166,81.739832012,81.938650916,22,5,8.321,52.699492828116,44.947508,15.5019942,81.739832012,-14.54011,-5.144962,-6.71082,200.2, -13.3, -1.7,0,0,1684,1002,1684,1024,100,-3,100,0,227,0,0,96,4.152,4.144,0,0,0,0,5.866,87.62,52.699492828116,44.947508,6,P-GPS,
7400,2025-05-05 16:32:58,-22.7686829041147,-41.884199437979,45.93176,58.9895032,-5.305758371884,53.683744828116,42.65092,15.6362106,84.07480584,84.277233668,21,5,8.321,53.683744828116,45.93176,15.6362106,84.07480584,-14.763804,-5.144962,-6.71082,200.1, -13.9, -1.2,0,0,1684,1002,1684,1024,100,-3,100,0,227,0,0,96,4.152,4.144,0,0,0,0,5.866,87.62,53.683744828116,45.93176,6,P-GPS,
7500,2025-05-05 16:32:58,-22.7686890415507,-41.8842016862499,46.916012,61.1220492,-6.454052371884,54.667996828116,42.65092,15.6362106,86.436354472,86.640750804,21,5,8.344,54.667996828116,46.916012,15.6362106,86.436354472,-14.763804,-5.144962,-6.487126,200.1, -13.9, -0.9,0,0,1684,1003,1684,1024,100,-3,100,0,227,0,0,95,4.171,4.158,0,0,0,0,5.672,87.8,54.667996828116,46.916012,6,P-GPS,
7600,2025-05-05 16:32:59,-22.7686955338834,-41.8842039983871,47.900264,63.2545952,-7.602346371884,55.652248828116,42.65092,15.8375352,88.926512032,89.13386112,22,5,8.344,55.652248828116,47.900264,15.8375352,88.926512032,-14.987498,-5.144962,-6.487126,200.1, -13.3, -1.2,0,0,1684,1002,1684,1024,100,-3,100,0,227,0,0,95,4.171,4.158,0,0,0,0,5.672,87.8,55.652248828116,47.900264,6,P-GPS,
7700,2025-05-05 16:32:59,-22.7687018299429,-41.8842060754995,48.884516,65.2230992,-8.586598371884,56.636500828116,42.65092,15.8375352,91.321525232,91.534779832,22,5,8.344,56.636500828116,48.884516,15.8375352,91.321525232,-14.987498,-5.144962,-6.487126,200, -13.2, -0.8,0,0,1684,1002,1684,1024,100,-3,100,0,227,0,0,95,4.171,4.158,0,0,0,0,5.672,87.8,56.636500828116,48.884516,6,P-GPS,
7800,2025-05-05 16:32:59,-22.7687085297524,-41.8842081743155,49.868768,67.3228368,-9.702083971884,57.620752828116,42.65092,16.1954456,93.857614552,94.079071252,22,5,8.344,57.620752828116,49.868768,16.1954456,93.857614552,-15.434886,-4.921268,-6.487126,199.9, -13.1, -0.6,0,0,1684,1001,1684,1024,100,-3,100,0,227,0,0,95,4.171,4.158,0,0,0,0,5.672,87.8,57.620752828116,49.868768,6,P-GPS,
7900,2025-05-05 16:32:59,-22.7687162148616,-41.8842095591933,50.85302,69.4225744,-10.817569571884,58.605004828116,42.65092,16.1954456,96.646656636,96.921591028,22,5,8.344,58.605004828116,50.85302,16.1954456,96.646656636,-15.434886,-4.921268,-6.71082,199.9, -12.6, -0.5,0,0,1684,1002,1684,1024,100,-3,100,0,227,0,0,95,4.171,4.158,0,0,0,0,5.672,87.8,58.605004828116,50.85302,6,P-GPS,
8000,2025-05-05 16:32:59,-22.7687230990369,-41.8842114271283,51.837272,71.4238868,-11.834629971884,59.589256828116,42.65092,16.1954456,99.220147532,99.510501872,22,5,8.344,59.589256828116,51.837272,16.1954456,99.220147532,-15.434886,-4.921268,-6.487126,199.8, -12.9, 0,0,0,1684,1001,1684,1024,100,-3,100,0,227,0,0,95,4.171,4.158,0,0,0,0,5.672,87.8,59.589256828116,51.837272,6,P-GPS,
8100,2025-05-05 16:32:59,-22.7687295269353,-41.8842133245343,52.821524,73.4580076,-12.884498771884,60.573508828116,42.65092,16.2625538,101.641735536,101.941276228,22,5,8.344,60.573508828116,52.821524,16.2625538,101.641735536,-15.434886,-5.144962,-6.487126,199.9, -12.6, 0,0,0,1684,1001,1684,1024,100,-3,100,0,227,0,0,95,4.171,4.158,0,0,0,0,5.672,87.8,60.573508828116,52.821524,6,P-GPS,
8200,2025-05-05 16:32:59,-22.768736176771,-41.8842154416165,53.805776,75.3937032,-13.835942371884,61.557760828116,42.65092,16.4862478,104.16502958,104.469819616,22,5,8.344,61.557760828116,53.805776,16.4862478,104.16502958,-15.65858,-5.144962,-6.487126,199.8, -12.8, 0.5,0,0,1684,997,1684,1024,100,-4,100,0,227,0,0,95,4.171,4.158,0,0,0,0,5.672,87.8,61.557760828116,53.805776,6,P-GPS,
8300,2025-05-05 16:32:59,-22.7687427745226,-41.8842171162895,54.790028,77.427824,-14.885811171884,62.542012828116,42.65092,16.2625538,106.620082152,106.941932556,22,5,8.344,62.542012828116,54.790028,16.4862478,106.620082152,-15.434886,-5.144962,-6.487126,199.8, -12.3, 0,0,0,1684,1001,1684,1024,100,-3,100,0,227,0,0,95,4.171,4.158,0,0,0,0,5.672,87.8,62.542012828116,54.790028,6,P-GPS,
8400,2025-05-05 16:32:59,-22.7687493593248,-41.8842194911038,55.77428,79.3307112,-15.804446371884,63.526264828116,42.65092,16.2625538,109.151250212,109.473756784,22,5,8.344,63.526264828116,55.77428,16.4862478,109.151250212,-15.434886,-5.144962,-6.487126,199.9, -11.5, 0.3,0,0,1684,1001,1684,1024,100,-3,100,0,227,0,0,95,4.171,4.158,0,0,0,0,5.672,87.8,63.526264828116,55.77428,6,P-GPS,
8500,2025-05-05 16:33:00,-22.7687555361302,-41.8842218029158,56.758532,81.3976404,-16.887123571884,64.510516828116,42.65092,16.3520314,111.534780472,111.857943212,22,5,8.285,64.510516828116,56.758532,16.4862478,111.534780472,-15.434886,-5.368656,-6.487126,199.9, -11.7, -0.4,0,0,1684,1001,1684,1024,100,-3,100,0,227,0,0,95,4.148,4.143,0,0,0,0,5.773,87.8,64.510516828116,56.758532,6,P-GPS,
8600,2025-05-05 16:33:00,-22.7687619590259,-41.8842242701475,58.070868,83.5958032,-17.772950371884,65.822852828116,42.65092,16.0612292,114.021001024,114.34383568,22,5,8.285,65.822852828116,58.070868,16.4862478,114.021001024,-15.211192,-5.144962,-6.71082,200, -13.4, -0.4,0,0,1684,1001,1684,1024,100,-3,100,0,227,0,0,95,4.148,4.143,0,0,0,0,5.773,87.8,65.822852828116,58.070868,6,P-GPS,
8700,2025-05-05 16:33:00,-22.768767414157,-41.8842269574642,59.05512,85.3674568,-18.560351971884,66.807104828116,42.65092,16.1283374,116.199806868,116.529859372,22,5,8.285,66.807104828116,59.05512,16.4862478,116.199806868,-15.211192,-5.368656,-6.71082,200.1, -14.1, -0.5,0,0,1684,1001,1684,1024,100,-3,100,0,227,0,0,95,4.148,4.143,0,0,0,0,5.773,87.8,66.807104828116,59.05512,6,P-GPS,
8800,2025-05-05 16:33:00,-22.7687738088612,-41.8842294889338,60.039372,87.3359608,-19.544603971884,67.791356828116,42.65092,16.1283374,118.683730832,119.013455252,22,5,8.285,67.791356828116,60.039372,16.4862478,118.683730832,-15.211192,-5.368656,-6.71082,200.1, -14.8, -1.1,0,0,1684,1001,1684,1024,100,-3,100,0,227,0,0,95,4.148,4.143,0,0,0,0,5.773,87.8,67.791356828116,60.039372,6,P-GPS,
8900,2025-05-05 16:33:00,-22.7687797564597,-41.8842318523201,61.023624,89.2060396,-20.430430771884,68.775608828116,42.65092,16.1283374,120.994754528,121.324478948,22,5,8.285,68.775608828116,61.023624,16.4862478,120.994754528,-15.211192,-5.368656,-6.71082,200, -15.2, -1.7,0,0,1684,1001,1684,1024,100,-3,100,0,227,0,0,95,4.148,4.143,0,0,0,0,5.773,87.8,68.775608828116,61.023624,6,P-GPS,
9000,2025-05-05 16:33:00,-22.768785927064,-41.8842343111992,62.33596,91.3385856,-21.250640771884,70.087944828116,42.65092,16.1283374,123.393048568,123.723101072,22,5,8.285,70.087944828116,62.33596,16.4862478,123.393048568,-15.434886,-5.59235,-6.487126,200, -14.8, -2.2,0,0,1684,1001,1684,1024,100,-3,100,0,227,0,0,95,4.148,4.143,0,0,0,0,5.773,87.8,70.087944828116,62.33596,6,P-GPS,
9100,2025-05-05 16:33:00,-22.7687912550982,-41.8842366934462,63.320212,93.0774308,-22.005233971884,71.072196828116,42.65092,16.4191396,125.49377042,125.825791428,22,5,8.285,71.072196828116,63.320212,16.4862478,125.49377042,-15.434886,-5.59235,-6.71082,199.9, -14.5, -1.7,0,0,1684,1001,1684,1024,100,-3,100,0,227,0,0,95,4.148,4.143,0,0,0,0,5.773,87.8,71.072196828116,63.320212,6,P-GPS,
9200,2025-05-05 16:33:00,-22.7687976432365,-41.884239273006,64.304464,94.9475096,-22.891060771884,72.056448828116,42.65092,16.4862478,127.98064714,128.312668148,22,5,8.285,72.056448828116,64.304464,16.4862478,127.98064714,-15.434886,-5.816044,-6.71082,200, -14.6, -2.5,0,0,1684,1001,1684,1024,100,-3,100,0,227,0,0,95,4.148,4.143,0,0,0,0,5.773,87.8,72.056448828116,64.304464,6,P-GPS,
9300,2025-05-05 16:33:00,-22.7688037583954,-41.8842418130419,65.288716,96.7519716,-23.711270771884,73.040700828116,42.65092,16.4862478,130.369426744,130.701775836,22,5,8.285,73.040700828116,65.288716,16.4862478,130.369426744,-15.434886,-5.816044,-6.71082,200.2, -15.1, -2.9,0,0,1684,1001,1684,1024,100,-3,100,0,227,0,0,95,4.148,4.143,0,0,0,0,5.773,87.8,73.040700828116,65.288716,6,P-GPS,
9400,2025-05-05 16:33:00,-22.7688102318121,-41.8842445574145,66.272968,98.5564336,-24.531480771884,74.024952828116,42.65092,16.2849232,132.904531812,133.237865156,22,5,8.285,74.024952828116,66.272968,16.4862478,132.904531812,-15.211192,-5.816044,-6.71082,200.4, -15.3, -3.4,0,0,1684,1001,1684,1024,100,-3,100,0,227,0,0,95,4.148,4.143,0,0,0,0,5.773,87.8,74.024952828116,66.272968,6,P-GPS,
9500,2025-05-05 16:33:00,-22.7688163417079,-41.8842471496658,67.25722,100.2952788,-25.286073971884,75.009204828116,42.65092,16.4862478,135.297576508,135.63156602,22,5,8.251,75.009204828116,67.25722,16.4862478,135.297576508,-15.434886,-5.816044,-6.71082,200.2, -14.9, -4.1,0,0,1684,1001,1684,1024,100,-3,100,0,227,0,0,95,4.127,4.129,0,0,0,0,6.682,87.8,75.009204828116,67.25722,6,P-GPS,
9600,2025-05-05 16:33:01,-22.7688225059286,-41.8842499758363,68.241472,102.1325492,-26.139092371884,75.993456828116,42.65092,16.5757254,137.73622488,138.073167148,21,5,8.251,75.993456828116,68.241472,16.5757254,137.73622488,-15.434886,-6.039738,-6.71082,200.3, -14.5, -4.3,0,0,1684,1001,1684,1024,100,-3,100,0,227,0,0,95,4.127,4.129,0,0,0,0,6.682,87.8,75.993456828116,68.241472,6,P-GPS,
9700,2025-05-05 16:33:01,-22.7688286042039,-41.8842525631912,69.225724,103.8713944,-26.893685571884,76.977708828116,42.65092,16.4862478,140.125004484,140.462274836,21,5,8.251,76.977708828116,69.225724,16.5757254,140.125004484,-15.434886,-5.816044,-6.487126,200.3, -15.2, -4.4,0,0,1684,1001,1684,1024,100,-3,100,0,227,0,0,95,4.127,4.129,0,0,0,0,6.682,87.8,76.977708828116,69.225724,6,P-GPS,
9800,2025-05-05 16:33:01,-22.7688350452861,-41.8842553015526,70.209976,105.5446228,-27.582661971884,77.961960828116,42.65092,16.4862478,142.648298528,142.986553132,22,5,8.251,77.961960828116,70.209976,16.5757254,142.648298528,-15.434886,-5.816044,-6.487126,200.4, -15.2, -4.4,0,0,1684,1000,1684,1024,100,-4,100,0,227,0,0,95,4.127,4.129,0,0,0,0,6.682,87.8,77.961960828116,70.209976,6,P-GPS,
9900,2025-05-05 16:33:01,-22.7688413188601,-41.884257935251,71.194228,107.2506596,-28.304446771884,78.946212828116,42.65092,16.4862478,145.102366848,145.440949536,22,5,8.251,78.946212828116,71.194228,16.5757254,145.102366848,-15.434886,-5.816044,-6.71082,200.7, -16.3, -5,0,0,1684,1001,1684,1024,100,-3,100,0,227,0,0,95,4.127,4.129,0,0,0,0,6.682,87.8,78.946212828116,71.194228,6,P-GPS,
10000,2025-05-05 16:33:01,-22.7688483544938,-41.8842608016794,72.17848,109.0223132,-29.091848371884,79.930464828116,42.65092,17.2691768,147.84449292,148.183075608,22,5,8.251,79.930464828116,72.17848,17.2691768,147.84449292,-16.329662,-5.59235,-6.71082,200.4, -15.7, -4.2,0,0,1684,1001,1684,1024,100,-3,100,0,227,0,0,95,4.127,4.129,0,0,0,0,6.682,87.8,79.930464828116,72.17848,6,P-GPS,
10100,2025-05-05 16:33:01,-22.7688550228807,-41.8842632282258,73.162732,110.72835,-29.813633171884,80.914716828116,42.65092,17.2691768,150.409781716,150.749348656,22,5,8.251,80.914716828116,73.162732,17.2691768,150.409781716,-16.329662,-5.59235,-6.487126,200.1, -15.2, -3.4,0,0,1684,1001,1684,1024,100,-3,100,0,227,0,0,95,4.127,4.129,0,0,0,0,6.682,87.8,80.914716828116,73.162732,6,P-GPS,
10200,2025-05-05 16:33:01,-22.768862177013,-41.8842656669249,74.146984,112.4671952,-30.568226371884,81.898968828116,42.65092,17.2691768,153.142721436,153.485241132,22,5,8.251,81.898968828116,74.146984,17.2691768,153.142721436,-16.329662,-5.59235,-6.487126,200.1, -14.4, -2.8,0,0,1684,1001,1684,1024,100,-3,100,0,227,0,0,95,4.127,4.129,0,0,0,0,6.682,87.8,81.898968828116,74.146984,6,P-GPS,
10300,2025-05-05 16:33:01,-22.768868926275,-41.8842679742215,75.131236,114.173232,-31.290011171884,82.883220828116,42.65092,17.2691768,155.722117844,156.067262212,22,5,8.251,82.883220828116,75.131236,17.2691768,155.722117844,-16.329662,-5.59235,-6.487126,200.1, -14.1, -2.1,0,0,1684,999,1684,1024,100,-4,100,0,227,0,0,95,4.127,4.129,0,0,0,0,6.682,87.8,82.883220828116,75.131236,6,P-GPS,
10400,2025-05-05 16:33:01,-22.7688767285801,-41.8842698607756,75.787404,115.6168016,-32.077412771884,83.539388828116,42.65092,16.9112664,158.614506388,158.983928972,22,5,8.251,83.539388828116,75.787404,17.2691768,158.614506388,-15.882274,-5.816044,-6.487126,200.1, -13.7, -2.5,0,0,1684,999,1684,1024,100,-4,100,0,227,0,0,95,4.127,4.129,0,0,0,0,6.682,87.8,83.539388828116,75.787404,6,P-GPS,
10500,2025-05-05 16:33:02,-22.7688831585629,-41.8842723035627,76.771656,117.1916048,-32.667963971884,84.523640828116,42.65092,16.9112664,161.100070772,161.469493356,22,5,8.251,84.523640828116,76.771656,17.2691768,161.100070772,-15.882274,-5.816044,-6.71082,200.3, -14.5, -3.1,0,0,1684,998,1684,1024,100,-4,100,0,227,0,0,95,4.127,4.129,0,0,0,0,6.682,87.8,84.523640828116,76.771656,6,P-GPS,
10600,2025-05-05 16:33:02,-22.7688897875024,-41.8842749424269,77.755908,118.7335996,-33.225706771884,85.507892828116,42.65092,17.1349604,163.676514424,164.045937008,22,5,8.227,85.507892828116,77.755908,17.2691768,163.676514424,-16.105968,-5.816044,-6.71082,200.2, -14.1, -3.2,0,0,1684,997,1684,1024,100,-4,100,0,227,0,0,95,4.111,4.108,0,0,0,0,6.812,87.8,85.507892828116,77.755908,6,P-GPS,
10700,2025-05-05 16:33:02,-22.7688961268395,-41.8842774221921,78.74016,119.7178516,-33.225706771884,86.492144828116,42.65092,17.1349604,166.13517592,166.504598504,22,5,8.227,86.492144828116,78.74016,17.2691768,166.13517592,-16.105968,-5.816044,-6.71082,200.3, -14.6, -3.2,0,0,1684,996,1684,1024,100,-4,100,0,227,0,0,95,4.111,4.108,0,0,0,0,6.812,87.8,86.492144828116,78.74016,6,P-GPS,
10800,2025-05-05 16:33:02,-22.7689024022634,-41.8842799273032,79.396328,120.3740196,-33.225706771884,87.148312828116,42.65092,17.1349604,168.575136628,168.944559212,22,5,8.227,87.148312828116,79.396328,17.2691768,168.575136628,-16.105968,-5.816044,-6.71082,200.4, -14.6, -2.9,0,0,1684,997,1684,1024,100,-4,100,0,227,0,0,95,4.111,4.108,0,0,0,0,6.812,87.8,87.148312828116,79.396328,6,P-GPS,
10900,2025-05-05 16:33:02,-22.7689086370935,-41.8842823681392,80.38058,121.3582716,-33.225706771884,88.132564828116,42.65092,17.1349604,170.993443792,171.362866376,22,5,8.227,88.132564828116,80.38058,17.2691768,170.993443792,-16.105968,-5.816044,-6.487126,200.4, -15, -3.1,0,0,1684,996,1684,1024,100,-4,100,0,227,0,0,95,4.111,4.108,0,0,0,0,6.812,87.8,88.132564828116,80.38058,6,P-GPS,
11000,2025-05-05 16:33:02,-22.7689150945383,-41.8842849411674,81.364832,122.3425236,-33.225706771884,89.116816828116,42.65092,17.1349604,173.503286392,173.87303706,21,5,8.227,89.116816828116,81.364832,17.2691768,173.503286392,-16.105968,-5.816044,-6.487126,200.2, -14, -2.9,0,0,1684,993,1684,1024,100,-5,100,0,227,0,0,95,4.111,4.108,0,0,0,0,6.812,87.8,89.116816828116,81.364832,6,P-GPS,
11100,2025-05-05 16:33:02,-22.7689212550592,-41.8842874410198,82.349084,123.3267756,-33.225706771884,90.101068828116,42.65092,17.1349604,175.903220852,176.272643436,21,5,8.227,90.101068828116,82.349084,17.2691768,175.903220852,-16.105968,-5.816044,-6.487126,200.2, -14.6, -2.7,0,0,1684,996,1684,1024,100,-4,100,0,227,0,0,95,4.111,4.108,0,0,0,0,6.812,87.8,90.101068828116,82.349084,6,P-GPS,
11200,2025-05-05 16:33:02,-22.7689277591427,-41.8842901153384,83.005252,123.9829436,-33.225706771884,90.757236828116,42.65092,17.1349604,178.440622508,178.81070126,22,5,8.227,90.757236828116,83.005252,17.2691768,178.440622508,-16.105968,-5.816044,-6.487126,200.4, -15.2, -3.3,0,0,1684,996,1684,1024,100,-4,100,0,227,0,0,95,4.111,4.108,0,0,0,0,6.812,87.8,90.757236828116,83.005252,6,P-GPS,
11300,2025-05-05 16:33:02,-22.768933274904,-41.8842927768168,83.989504,124.9671956,-33.225706771884,91.741488828116,42.65092,17.1349604,180.637801056,181.013129152,22,5,8.227,91.741488828116,83.989504,17.2691768,180.637801056,-16.105968,-5.816044,-6.487126,200.4, -15.1, -3.1,0,0,1684,992,1684,1024,100,-5,100,0,227,0,0,95,4.111,4.108,0,0,0,0,6.812,87.8,91.741488828116,83.989504,6,P-GPS,
11400,2025-05-05 16:33:02,-22.7689400140566,-41.8842955737764,84.973756,125.9514476,-33.225706771884,92.725740828116,42.65092,17.1349604,183.270018988,183.646003252,22,5,8.227,92.725740828116,84.973756,17.2691768,183.270018988,-16.105968,-5.816044,-6.487126,200.4, -14.6, -3.7,0,0,1684,992,1684,1024,100,-5,100,0,227,0,0,95,4.111,4.108,0,0,0,0,6.812,87.8,92.725740828116,84.973756,6,P-GPS,
11500,2025-05-05 16:33:03,-22.7689465029239,-41.8842981880009,85.958008,126.9356996,-33.225706771884,93.709992828116,42.65092,17.1349604,185.79560962,186.1712658,22,5,8.227,93.709992828116,85.958008,17.2691768,185.79560962,-16.105968,-5.816044,-6.487126,200.3, -14.6, -3.9,0,0,1684,993,1684,1024,100,-5,100,0,227,0,0,95,4.111,4.108,0,0,0,0,6.812,87.8,93.709992828116,85.958008,6,P-GPS,
11600,2025-05-05 16:33:03,-22.768953366151,-41.8843008973279,86.614176,127.5918676,-33.225706771884,94.366160828116,42.65092,17.1349604,188.460307868,188.836292132,22,5,8.215,94.366160828116,86.614176,17.2691768,188.460307868,-16.105968,-5.816044,-6.487126,200.4, -14.7, -4.1,0,0,1684,1000,1684,1024,100,-4,100,0,227,0,0,95,4.103,4.102,0,0,0,0,6.999,87.8,94.366160828116,86.614176,6,P-GPS,
11700,2025-05-05 16:33:03,-22.7689597374055,-41.8843032796493,87.598428,128.5761196,-33.225706771884,95.350412828116,42.65092,17.1349604,190.91864128,191.294953628,22,5,8.215,95.350412828116,87.598428,17.2691768,190.91864128,-16.105968,-5.816044,-6.487126,200.3, -14.5, -3.8,0,0,1684,1024,1684,1024,100,0,100,0,227,0,0,95,4.103,4.102,0,0,0,0,6.999,87.8,95.350412828116,87.598428,6,P-GPS,
11800,2025-05-05 16:33:03,-22.7689662815097,-41.8843057903907,88.58268,129.5603716,-33.225706771884,96.334664828116,42.65092,17.336285,193.45144976,193.827762108,22,5,8.215,96.334664828116,88.58268,17.336285,193.45144976,-16.329662,-5.816044,-6.487126,200.2, -15.2, -4.2,0,0,1024,1024,1684,1024,0,0,100,0,227,0,0,95,4.103,4.102,0,0,0,0,6.999,87.8,96.334664828116,88.58268,6,P-GPS,
11900,2025-05-05 16:33:03,-22.7689728428102,-41.8843081982065,89.566932,130.5446236,-33.225706771884,97.318916828116,42.65092,17.336285,195.978024644,196.35499316,22,5,8.215,97.318916828116,89.566932,17.336285,195.978024644,-16.329662,-5.816044,-6.487126,200.3, -11.4, -3.3,0,0,1024,1024,1684,1024,0,0,100,0,227,0,0,95,4.103,4.102,0,0,0,0,6.999,87.8,97.318916828116,89.566932,6,P-GPS,
12000,2025-05-05 16:33:03,-22.7689799018152,-41.8843107409275,90.2231,131.2007916,-33.225706771884,97.975084828116,42.65092,16.8441582,198.690623156,199.068575924,22,5,8.215,97.975084828116,90.2231,17.336285,198.690623156,-15.882274,-5.59235,-6.934514,199.3, 13.4, -1.7,0,0,1024,1024,1684,1024,0,0,100,0,227,0,0,95,4.103,4.102,0,0,0,0,6.999,87.8,97.975084828116,90.2231,6,P-GPS,
12100,2025-05-05 16:33:03,-22.7689873397658,-41.8843126788794,91.207352,132.1850436,-33.225706771884,98.959336828116,42.65092,15.6362106,201.464573376,201.859586512,22,5,8.215,98.959336828116,91.207352,17.336285,201.464573376,-14.763804,-5.144962,-7.381902,199.2, 20.8, -2.1,0,0,1024,1024,1684,1024,0,0,100,0,227,0,0,95,4.103,4.102,0,0,0,0,6.999,87.8,98.959336828116,91.207352,6,P-GPS,
12200,2025-05-05 16:33:03,-22.7689935485407,-41.8843148320292,91.86352,132.8412116,-33.225706771884,99.615504828116,42.65092,14.428263,203.841213872,204.237867428,22,5,8.215,99.615504828116,91.86352,17.336285,203.841213872,-13.645334,-4.697574,-7.158208,199.9, 22, -0.4,0,0,1024,1024,1684,1024,0,0,100,0,227,0,0,95,4.103,4.102,0,0,0,0,6.999,87.8,99.615504828116,91.86352,31,Sport,
12300,2025-05-05 16:33:03,-22.7689988147462,-41.8843166510564,92.847772,133.8254636,-33.225706771884,100.59975682812,42.65092,12.7952968,205.8563058,206.254271692,22,5,8.215,100.59975682812,92.847772,17.336285,205.8563058,-12.079476,-4.250186,-7.158208,199.4, 32, 0,0,0,1024,1024,1684,1024,0,0,100,0,227,0,0,95,4.103,4.102,0,0,0,0,6.999,87.8,100.59975682812,92.847772,31,Sport,
12400,2025-05-05 16:33:03,-22.7690034666245,-41.8843182737835,93.50394,134.4816316,-33.225706771884,101.25592482812,42.65092,10.4688792,207.638130004,208.037080148,22,5,8.215,101.25592482812,93.50394,17.336285,207.638130004,-9.842536,-3.579104,-7.605596,199.2, 30.6, 0.5,0,0,1024,1024,1684,1024,0,0,100,0,227,0,0,95,4.103,4.102,0,0,0,0,6.999,87.8,101.25592482812,93.50394,31,Sport,
12500,2025-05-05 16:33:03,-22.7690067570193,-41.8843192723791,94.816276,135.7939676,-33.225706771884,102.56826082812,42.65092,7.941137,208.881568364,209.283799348,22,5,8.215,102.56826082812,94.816276,17.336285,208.881568364,-7.381902,-2.908022,-8.500372,199.4, 28, -1.2,0,0,1559,1024,1684,1024,81,0,100,0,227,0,0,95,4.103,4.102,0,0,0,0,6.999,87.8,102.56826082812,94.816276,31,Sport,
12600,2025-05-05 16:33:04,-22.7690095603401,-41.884320424369,95.800528,136.7782196,-33.225706771884,103.55251282812,42.65092,6.0173686,209.975072336,210.377631404,22,5,8.215,103.55251282812,95.800528,17.336285,209.975072336,-5.59235,-2.23694,-9.171454,199, 32.1, -4.1,0,0,1684,1024,1684,1024,100,0,100,0,227.1,0,0,95,4.147,4.076,0,0,0,0,6.854,87.98,103.55251282812,95.800528,31,Sport,
12700,2025-05-05 16:33:04,-22.7690112974339,-41.8843211669793,97.440948,138.4186396,-33.225706771884,105.19293282812,42.65092,4.1159696,210.655846636,211.058733788,22,5,8.215,105.19293282812,97.440948,17.336285,210.655846636,-3.802798,-1.565858,-9.842536,199.7, 7.5, -3.6,0,0,1684,1024,1684,1024,100,0,100,0,227,0,0,95,4.147,4.076,0,0,0,0,6.854,87.98,105.19293282812,97.440948,31,Sport,
12800,2025-05-05 16:33:04,-22.7690126438574,-41.8843217355135,99.081368,140.0590596,-33.225706771884,106.83335282812,42.65092,3.8251674,211.18274954,211.585964776,22,5,8.215,106.83335282812,99.081368,17.336285,211.18274954,-3.579104,-1.342164,-9.842536,201.2, -24.9, -2.5,0,0,1684,1024,1684,1024,100,0,100,0,227,-0.9,0,95,4.147,4.076,0,0,0,0,6.854,87.98,106.83335282812,99.081368,31,Sport,"El 치ngulo de posici칩n de vuelo es mayor en el modo Sport. El estabilizador rotar치 cuando la aeronave comience a moverse o se detenga. Si es necesario, usa el modo Normal para una captura estable (Code: 40022)"
12900,2025-05-05 16:33:04,-22.7690137654775,-41.8843223990203,100.721788,141.6994796,-33.225706771884,108.47377282812,42.65092,5.033115,211.643379476,212.05217214,22,5,8.215,108.47377282812,100.721788,17.336285,211.643379476,-4.697574,-1.789552,-10.06623,200.9, -30.9, -0.7,0,0,1684,1024,1684,1024,100,0,100,0,227,-8.5,0,95,4.147,4.076,0,0,0,0,6.854,87.98,108.47377282812,100.721788,31,Sport,
13000,2025-05-05 16:33:04,-22.769012986951,-41.8843234648455,102.362208,143.3398996,-33.225706771884,110.11419282812,42.65092,6.7331894,211.498038264,212.509521236,22,5,8.215,110.11419282812,102.362208,17.336285,211.643379476,-6.263432,-2.460634,-10.513618,200, -28.2, -0.5,0,0,1684,1024,1684,1024,100,0,100,0,227,-8.8,0,95,4.147,4.076,0,0,0,0,6.854,87.98,110.11419282812,102.362208,31,Sport,
13100,2025-05-05 16:33:04,-22.7690148728715,-41.8843245652332,104.330712,145.3084036,-33.225706771884,112.08269682812,42.65092,7.941137,212.271004168,213.291017324,22,5,8.215,112.08269682812,104.330712,17.336285,212.271004168,-7.381902,-2.908022,-10.737312,199.8, -25.4, -0.8,0,0,1684,1024,1684,1024,100,0,100,0,227,-8.8,0,95,4.147,4.076,0,0,0,0,6.854,87.98,112.08269682812,104.330712,31,Sport,
13200,2025-05-05 16:33:04,-22.7690173473769,-41.8843258516823,106.299216,147.2769076,-33.225706771884,114.05120082812,42.65092,9.2609316,213.267395276,214.292001608,21,5,8.215,114.05120082812,106.299216,17.336285,213.267395276,-8.724066,-3.131716,-10.961006,199.9, -24.3, -1.7,0,0,1684,1024,1684,1024,100,0,100,0,227,-8.8,0,95,4.147,4.076,0,0,0,0,6.854,87.98,114.05120082812,106.299216,31,Sport,
13300,2025-05-05 16:33:04,-22.7690203838908,-41.8843271684757,108.26772,149.2454116,-33.225706771884,116.01970482812,42.65092,10.2675546,214.459980616,215.485243116,21,5,8.215,116.01970482812,108.26772,17.336285,214.459980616,-9.618842,-3.579104,-11.1847,200.2, -24.2, -1.5,0,0,1684,1024,1684,1024,100,0,100,0,227,-8.8,0,95,4.147,4.076,0,0,0,0,6.854,87.98,116.01970482812,108.26772,31,Sport,
13400,2025-05-05 16:33:04,-22.7690239965873,-41.8843285816353,109.90814,150.8858316,-33.225706771884,117.66012482812,42.65092,10.7596814,215.86122738,216.88648988,21,5,8.215,117.66012482812,109.90814,17.336285,215.86122738,-10.06623,-3.802798,-11.1847,200.1, -25, -1.1,0,0,1684,1024,1684,1024,100,0,100,0,227,-8.8,0,95,4.147,4.076,0,0,0,0,6.854,87.98,117.66012482812,109.90814,31,Sport,
13500,2025-05-05 16:33:05,-22.769028289322,-41.88433030831,111.876644,152.8543356,-33.225706771884,119.62862882812,42.65092,11.6768268,217.531503024,218.556765524,21,5,8.215,119.62862882812,111.876644,17.336285,217.531503024,-10.961006,-4.026492,-11.1847,200.1, -25.6, -1.4,0,0,1684,1024,1684,1024,100,0,100,0,227,-8.8,0,95,4.147,4.076,0,0,0,0,6.854,87.98,119.62862882812,111.876644,31,Sport,
13600,2025-05-05 16:33:05,-22.7690333824695,-41.8843323951036,113.845148,154.8228396,-33.225706771884,121.59713282812,42.65092,12.3926476,219.51772356,220.543314144,21,5,8.189,121.59713282812,113.845148,17.336285,219.51772356,-11.632088,-4.250186,-11.1847,200.1, -25.9, -1.6,0,0,1684,1024,1684,1024,100,0,100,0,227,-8.8,0,95,4.075,4.074,0,0,0,0,7.937,87.98,121.59713282812,113.845148,31,Sport,
13700,2025-05-05 16:33:05,-22.7690385675915,-41.8843345080048,115.813652,156.7913436,-33.225706771884,123.56563682812,42.65092,13.086099,221.538721,222.564311584,21,5,8.189,123.56563682812,115.813652,17.336285,221.538721,-12.30317,-4.47388,-10.961006,200.1, -27.2, -1.3,0,0,1684,1024,1684,1024,100,0,100,0,227,-8.8,0,95,4.075,4.074,0,0,0,0,7.937,87.98,123.56563682812,115.813652,31,Sport,
13800,2025-05-05 16:33:05,-22.7690465000679,-41.8843375889157,118.11024,159.0879316,-33.225706771884,125.86222482812,42.65092,14.0032444,224.61286808,225.638458664,20,5,8.189,125.86222482812,118.11024,17.336285,224.61286808,-13.197946,-4.697574,-10.961006,200.1, -27.1, -1.4,0,0,1684,1024,1684,1024,100,0,100,0,227,-8.8,0,95,4.075,4.074,0,0,0,0,7.937,87.98,125.86222482812,118.11024,31,Sport,
13900,2025-05-05 16:33:05,-22.7690524259887,-41.8843399081884,120.078744,161.0564356,-33.225706771884,127.83072882812,42.65092,14.7861734,226.911424584,227.937015168,20,5,8.189,127.83072882812,120.078744,17.336285,226.911424584,-13.869028,-5.144962,-10.961006,200.2, -26.6, -1.3,0,0,1684,1024,1684,1024,100,0,100,0,227,-8.8,0,95,4.075,4.074,0,0,0,0,7.937,87.98,127.83072882812,120.078744,31,Sport,
14000,2025-05-05 16:33:05,-22.7690589704576,-41.8843424233523,122.047248,163.0249396,-33.225706771884,129.79923282812,42.65092,15.5019942,229.444561148,230.470151732,20,5,8.189,129.79923282812,122.047248,17.336285,229.444561148,-14.54011,-5.368656,-11.1847,200.2, -27, -1.4,0,0,1684,1024,1684,1024,100,0,100,0,227,-8.8,0,95,4.075,4.074,0,0,0,0,7.937,87.98,129.79923282812,122.047248,31,Sport,
14100,2025-05-05 16:33:05,-22.7690652208164,-41.8843448401246,124.015752,164.9934436,-33.225706771884,131.76773682812,42.65092,15.5019942,231.865492984,232.891083568,20,5,8.189,131.76773682812,124.015752,17.336285,231.865492984,-15.434886,-5.59235,-11.1847,200.1, -27.3, -1.6,0,0,1684,1024,1684,1024,100,0,100,0,227,-8.8,0,95,4.075,4.074,0,0,0,0,7.937,87.98,131.76773682812,124.015752,31,Sport,
14200,2025-05-05 16:33:05,-22.7690729345342,-41.8843475654879,126.31234,167.2900316,-33.225706771884,134.06432482812,42.65092,17.1349604,234.823826412,235.851057416,20,5,8.189,134.06432482812,126.31234,17.336285,234.823826412,-16.105968,-5.816044,-11.408394,200.2, -27.7, -1.1,0,0,1684,1024,1684,1024,100,0,100,0,227,-8.8,0,95,4.075,4.074,0,0,0,0,7.937,87.98,134.06432482812,126.31234,31,Sport,
14300,2025-05-05 16:33:05,-22.7690792521152,-41.8843500139425,128.280844,169.2585356,-33.225706771884,136.03282882812,42.65092,17.8284118,237.271333052,238.29889214,20,5,8.189,136.03282882812,128.280844,17.8284118,237.271333052,-16.77705,-6.039738,-11.408394,200.2, -26.6, -0.9,0,0,1684,1024,1684,1024,100,0,100,0,227,-8.8,0,95,4.075,4.074,0,0,0,0,7.937,87.98,136.03282882812,128.280844,31,Sport,
14400,2025-05-05 16:33:05,-22.7690865406137,-41.8843528479732,129.921264,170.8989556,-33.225706771884,137.67324882812,42.65092,18.3205386,240.096464376,241.12369538,20,5,8.189,137.67324882812,129.921264,18.3205386,240.096464376,-17.224438,-6.263432,-11.632088,200.4, -26.7, -1.1,0,0,1684,1024,1684,1024,100,0,100,0,227,-8.8,0,95,4.075,4.074,0,0,0,0,7.937,87.98,137.67324882812,129.921264,31,Sport,
14500,2025-05-05 16:33:05,-22.7690936572527,-41.8843556474229,131.889768,172.8674596,-33.225706771884,139.64175282812,42.65092,19.0363594,242.858275488,243.885834576,20,5,8.189,139.64175282812,131.889768,19.0363594,242.858275488,-17.89552,-6.487126,-11.632088,200.4, -27.6, -1.3,0,0,1684,1024,1684,1024,100,0,100,0,227,-8.8,0,95,4.075,4.074,0,0,0,0,7.937,87.98,139.64175282812,131.889768,31,Sport,
14600,2025-05-05 16:33:06,-22.7691013278753,-41.8843586889771,133.530188,174.5078796,-33.225706771884,141.28217282812,42.65092,19.5284862,245.83826246,246.865821548,20,5,8.082,141.28217282812,133.530188,19.5284862,245.83826246,-18.342908,-6.71082,-11.632088,200.6, -28, -1.4,0,0,1684,1024,1684,1024,100,0,100,0,227,-8.8,0,95,4.018,4.011,0,0,0,0,8.451,87.98,141.28217282812,133.530188,31,Sport,
14700,2025-05-05 16:33:06,-22.7691089778101,-41.884361633199,135.170608,176.1482996,-33.225706771884,142.92259282812,42.65092,20.244307,248.799548644,249.827435816,20,5,8.082,142.92259282812,135.170608,20.244307,248.799548644,-19.01399,-6.934514,-11.632088,200.3, -28.4, -1,0,0,1684,1024,1684,1024,100,0,100,0,227,-8.8,0,95,4.018,4.011,0,0,0,0,8.451,87.98,142.92259282812,135.170608,31,Sport,
14800,2025-05-05 16:33:06,-22.7691173303469,-41.8843648554816,136.811028,177.7887196,-33.225706771884,144.56301282812,42.65092,20.7364338,252.0341288,253.061687888,20,5,8.082,144.56301282812,136.811028,20.7364338,252.0341288,-19.461378,-7.158208,-11.408394,200.2, -29.2, -1.2,0,0,1684,1024,1684,1024,100,0,100,0,227,-8.8,0,95,4.018,4.011,0,0,0,0,8.451,87.98,144.56301282812,136.811028,31,Sport,
14900,2025-05-05 16:33:06,-22.7691250034187,-41.8843678108897,138.123364,179.1010556,-33.225706771884,145.87534882812,42.65092,21.1614524,255.00492942,256.032488508,21,5,8.082,145.87534882812,138.123364,21.1614524,255.00492942,-19.908766,-7.158208,-11.1847,200.2, -29.3, -1.2,0,0,1684,1024,1684,1024,100,0,100,0,227,-8.8,0,95,4.018,4.011,0,0,0,0,8.451,87.98,145.87534882812,138.123364,31,Sport,
15000,2025-05-05 16:33:06,-22.7691326477777,-41.8843707293198,139.763784,180.7414756,-33.225706771884,147.51576882812,42.65092,21.8549038,257.961622428,258.9895096,21,5,8.082,147.51576882812,139.763784,21.8549038,257.961622428,-20.579848,-7.381902,-11.1847,200.2, -29.3, -0.9,0,0,1684,1024,1684,1024,100,0,100,0,227,-8.8,0,95,4.018,4.011,0,0,0,0,8.451,87.98,147.51576882812,139.763784,31,Sport,
15100,2025-05-05 16:33:06,-22.7691392381036,-41.8843730033268,141.404204,182.3818956,-33.225706771884,149.15618882812,42.65092,22.5707246,260.482947968,261.512803644,20,5,8.082,149.15618882812,141.404204,22.5707246,260.482947968,-21.25093,-7.605596,-10.961006,200.1, -28.1, -0.8,0,0,1684,1024,1684,1024,100,0,100,0,227,-8.8,0,95,4.018,4.011,0,0,0,0,8.451,87.98,149.15618882812,141.404204,31,Sport,
15200,2025-05-05 16:33:06,-22.7691481313359,-41.8843762862052,142.71654,183.6942316,-33.225706771884,150.46852482812,42.65092,23.0628514,263.909785348,264.940297192,20,5,8.082,150.46852482812,142.71654,23.0628514,263.909785348,-21.698318,-7.82929,-10.961006,200.4, -28.4, -0.4,0,0,1684,1024,1684,1024,100,0,100,0,227,-8.8,0,95,4.018,4.011,0,0,0,0,8.451,87.98,150.46852482812,142.71654,31,Sport,
15300,2025-05-05 16:33:06,-22.7691567904892,-41.8843794832721,144.35696,185.3346516,-33.225706771884,152.10894482812,42.65092,23.2865454,267.246399628,268.27756764,20,5,8.082,152.10894482812,144.35696,23.2865454,267.246399628,-21.922012,-7.82929,-10.737312,200.3, -28.1, -0.6,0,0,1684,1024,1684,1024,100,0,100,0,227,-8.8,0,95,4.018,4.011,0,0,0,0,8.451,87.98,152.10894482812,144.35696,31,Sport,
15400,2025-05-05 16:33:06,-22.7691661032608,-41.8843829294304,145.99738,186.9750716,-33.225706771884,153.74936482812,42.65092,23.7786722,270.835966672,271.867462768,20,5,8.082,153.74936482812,145.99738,23.7786722,270.835966672,-22.3694,-8.052984,-10.737312,200.1, -28.3, -0.8,0,0,1684,1024,1684,1024,100,0,100,0,227,-8.8,0,95,4.018,4.011,0,0,0,0,8.451,87.98,153.74936482812,145.99738,31,Sport,
